[{"city":"Delhi","state":"Delhi","latitude":28.6139,"longitude":77.209,"temp":38.0,"humidity":18,"rain":0.0,"pressure":979.6,"uv_index":7.3,"wind_gusts":24.5,"aqi":256,"pm10":214.2,"pm2_5":29.5,"mosquito_risk":0,"arthritis_risk":5,"migraine_risk":10,"frizz_risk":0,"updated_at":"2026-04-16T16:36:54.880520+05:30"},{"city":"Mumbai","state":"Maharashtra","latitude":19.076,"longitude":72.8777,"temp":29.0,"humidity":71,"rain":0.0,"pressure":1005.2,"uv_index":8.0,"wind_gusts":19.1,"aqi":102,"pm10":50.3,"pm2_5":21.9,"mosquito_risk":7,"arthritis_risk":5,"migraine_risk":4,"frizz_risk":1,"updated_at":"2026-04-16T16:36:54.880562+05:30"},{"city":"Bangalore","state":"Karnataka","latitude":12.9716,"longitude":77.5946,"temp":35.5,"humidity":21,"rain":0.0,"pressure":909.2,"uv_index":9.6,"wind_gusts":32.8,"aqi":150,"pm10":25.4,"pm2_5":21.2,"mosquito_risk":0,"arthritis_risk":5,"migraine_risk":10,"frizz_risk":0,"updated_at":"2026-04-16T16:36:54.880578+05:30"},{"city":"Hyderabad","state":"Telangana","latitude":17.385,"longitude":78.4867,"temp":37.3,"humidity":26,"rain":0.0,"pressure":950.0,"uv_index":9.25,"wind_gusts":41.8,"aqi":147,"pm10":36.4,"pm2_5":29.7,"mosquito_risk":0,"arthritis_risk":5,"migraine_risk":10,"frizz_risk":0,"updated_at":"2026-04-16T16:36:54.880588+05:30"},{"city":"Chennai","state":"Tamil Nadu","latitude":13.0827,"longitude":80.2707,"temp":34.2,"humidity":57,"rain":0.0,"pressure":1003.5,"uv_index":9.3,"wind_gusts":34.2,"aqi":41,"pm10":11.1,"pm2_5":7.7,"mosquito_risk":0,"arthritis_risk":5,"migraine_risk":4,"frizz_risk":1,"updated_at":"2026-04-16T16:36:54.880596+05:30"},{"city":"Kolkata","state":"West Bengal","latitude":22.5726,"longitude":88.3639,"temp":28.8,"humidity":77,"rain":0.0,"pressure":1004.3,"uv_index":8.85,"wind_gusts":30.6,"aqi":82,"pm10":27.0,"pm2_5":20.9,"mosquito_risk":7,"arthritis_risk":5,"migraine_risk":4,"frizz_risk":1,"updated_at":"2026-04-16T16:36:54.880604+05:30"},{"city":"Pune","state":"Maharashtra","latitude":18.5204,"longitude":73.8567,"temp":37.2,"humidity":22,"rain":0.0,"pressure":945.8,"uv_index":8.6,"wind_gusts":46.4,"aqi":112,"pm10":21.5,"pm2_5":17.1,"mosquito_risk":0,"arthritis_risk":5,"migraine_risk":10,"frizz_risk":0,"updated_at":"2026-04-16T16:36:54.880616+05:30"},{"city":"Ahmedabad","state":"Gujarat","latitude":23.0225,"longitude":72.5714,"temp":39.6,"humidity":25,"rain":0.0,"pressure":997.6,"uv_index":8.15,"wind_gusts":18.0,"aqi":95,"pm10":59.8,"pm2_5":21.5,"mosquito_risk":0,"arthritis_risk":5,"migraine_risk":10,"frizz_risk":0,"updated_at":"2026-04-16T16:36:54.880624+05:30"},{"city":"Jaipur","state":"Rajasthan","latitude":26.9124,"longitude":75.7873,"temp":39.7,"humidity":11,"rain":0.0,"pressure":956.5,"uv_index":7.95,"wind_gusts":26.6,"aqi":134,"pm10":147.6,"pm2_5":22.0,"mosquito_risk":0,"arthritis_risk":5,"migraine_risk":10,"frizz_risk":0,"updated_at":"2026-04-16T16:36:54.880631+05:30"},{"city":"Lucknow","state":"Uttar Pradesh","latitude":26.8467,"longitude":80.9462,"temp":38.4,"humidity":15,"rain":0.0,"pressure":989.6,"uv_index":7.8,"wind_gusts":23.8,"aqi":152,"pm10":75.4,"pm2_5":14.8,"mosquito_risk":0,"arthritis_risk":5,"migraine_risk":10,"frizz_risk":0,"updated_at":"2026-04-16T16:36:54.880639+05:30"},{"city":"Kanpur","state":"Uttar Pradesh","latitude":26.4499,"longitude":80.3319,"temp":37.5,"humidity":19,"rain":0.0,"pressure":988.3,"uv_index":7.85,"wind_gusts":21.2,"aqi":148,"pm10":291.5,"pm2_5":32.5,"mosquito_risk":0,"arthritis_risk":5,"migraine_risk":10,"frizz_risk":0,"updated_at":"2026-04-16T16:36:54.880645+05:30"},{"city":"Chandigarh","state":"Chandigarh","latitude":30.7333,"longitude":76.7794,"temp":36.6,"humidity":16,"rain":0.0,"pressure":966.1,"uv_index":7.2,"wind_gusts":25.6,"aqi":143,"pm10":12.7,"pm2_5":8.0,"mosquito_risk":0,"arthritis_risk":5,"migraine_risk":10,"frizz_risk":0,"updated_at":"2026-04-16T16:36:54.880653+05:30"},{"city":"Srinagar","state":"Jammu and Kashmir","latitude":34.0837,"longitude":74.7973,"temp":19.6,"humidity":51,"rain":0.0,"pressure":843.5,"uv_index":7.95,"wind_gusts":21.6,"aqi":105,"pm10":34.3,"pm2_5":12.7,"mosquito_risk":0,"arthritis_risk":5,"migraine_risk":7,"frizz_risk":0,"updated_at":"2026-04-16T16:36:54.880659+05:30"},{"city":"Jammu","state":"Jammu and Kashmir","latitude":32.7266,"longitude":74.857,"temp":34.3,"humidity":34,"rain":0.0,"pressure":970.7,"uv_index":7.4,"wind_gusts":39.2,"aqi":114,"pm10":16.8,"pm2_5":7.2,"mosquito_risk":0,"arthritis_risk":5,"migraine_risk":7,"frizz_risk":1,"updated_at":"2026-04-16T16:36:54.880666+05:30"},{"city":"Amritsar","state":"Punjab","latitude":31.634,"longitude":74.8723,"temp":36.3,"humidity":25,"rain":0.0,"pressure":977.8,"uv_index":7.9,"wind_gusts":34.9,"aqi":117,"pm10":36.3,"pm2_5":12.3,"mosquito_risk":0,"arthritis_risk":5,"migraine_risk":10,"frizz_risk":0,"updated_at":"2026-04-16T16:36:54.880673+05:30"},{"city":"Ludhiana","state":"Punjab","latitude":30.901,"longitude":75.8573,"temp":37.8,"humidity":16,"rain":0.0,"pressure":975.6,"uv_index":7.4,"wind_gusts":24.8,"aqi":125,"pm10":21.0,"pm2_5":7.4,"mosquito_risk":0,"arthritis_risk":5,"migraine_risk":10,"frizz_risk":0,"updated_at":"2026-04-16T16:36:54.880679+05:30"},{"city":"Jalandhar","state":"Punjab","latitude":31.326,"longitude":75.5762,"temp":37.2,"humidity":18,"rain":0.0,"pressure":976.9,"uv_index":7.0,"wind_gusts":25.6,"aqi":119,"pm10":32.5,"pm2_5":8.8,"mosquito_risk":0,"arthritis_risk":5,"migraine_risk":10,"frizz_risk":0,"updated_at":"2026-04-16T16:36:54.880687+05:30"},{"city":"Dehradun","state":"Uttarakhand","latitude":30.6284,"longitude":78.0322,"temp":24.0,"humidity":40,"rain":0.0,"pressure":831.5,"uv_index":7.35,"wind_gusts":31.0,"aqi":138,"pm10":10.4,"pm2_5":4.8,"mosquito_risk":0,"arthritis_risk":5,"migraine_risk":7,"frizz_risk":0,"updated_at":"2026-04-16T16:36:54.880694+05:30"},{"city":"Shimla","state":"Himachal Pradesh","latitude":31.1048,"longitude":77.1734,"temp":22.5,"humidity":26,"rain":0.0,"pressure":787.3,"uv_index":7.5,"wind_gusts":41.0,"aqi":132,"pm10":10.5,"pm2_5":6.2,"mosquito_risk":0,"arthritis_risk":5,"migraine_risk":7,"frizz_risk":0,"updated_at":"2026-04-16T16:36:54.880701+05:30"},{"city":"Manali","state":"Himachal Pradesh","latitude":32.2396,"longitude":77.1887,"temp":20.2,"humidity":62,"rain":0.0,"pressure":822.6,"uv_index":9.05,"wind_gusts":32.0,"aqi":147,"pm10":10.5,"pm2_5":5.4,"mosquito_risk":3,"arthritis_risk":5,"migraine_risk":7,"frizz_risk":0,"updated_at":"2026-04-16T16:36:54.880708+05:30"},{"city":"Gurgaon","state":"Haryana","latitude":28.4595,"longitude":77.0266,"temp":38.2,"humidity":18,"rain":0.0,"pressure":977.9,"uv_index":7.45,"wind_gusts":20.9,"aqi":521,"pm10":804.7,"pm2_5":78.7,"mosquito_risk":0,"arthritis_risk":5,"migraine_risk":10,"frizz_risk":0,"updated_at":"2026-04-16T16:36:54.880716+05:30"},{"city":"Noida","state":"Uttar Pradesh","latitude":28.5355,"longitude":77.391,"temp":38.1,"humidity":18,"rain":0.0,"pressure":981.1,"uv_index":7.35,"wind_gusts":25.6,"aqi":521,"pm10":804.7,"pm2_5":78.7,"mosquito_risk":0,"arthritis_risk":5,"migraine_risk":10,"frizz_risk":0,"updated_at":"2026-04-16T16:36:54.880722+05:30"},{"city":"Ghaziabad","state":"Uttar Pradesh","latitude":28.6692,"longitude":77.4538,"temp":37.7,"humidity":20,"rain":0.0,"pressure":979.2,"uv_index":7.35,"wind_gusts":22.7,"aqi":146,"pm10":146.2,"pm2_5":22.9,"mosquito_risk":0,"arthritis_risk":5,"migraine_risk":10,"frizz_risk":0,"updated_at":"2026-04-16T16:36:54.880729+05:30"},{"city":"Faridabad","state":"Haryana","latitude":28.4089,"longitude":77.3178,"temp":38.3,"humidity":15,"rain":0.0,"pressure":980.2,"uv_index":7.4,"wind_gusts":29.9,"aqi":521,"pm10":804.7,"pm2_5":78.7,"mosquito_risk":0,"arthritis_risk":5,"migraine_risk":10,"frizz_risk":0,"updated_at":"2026-04-16T16:36:54.880736+05:30"},{"city":"Meerut","state":"Uttar Pradesh","latitude":28.9845,"longitude":77.7064,"temp":37.9,"humidity":16,"rain":0.0,"pressure":978.2,"uv_index":7.25,"wind_gusts":28.1,"aqi":146,"pm10":146.2,"pm2_5":22.9,"mosquito_risk":0,"arthritis_risk":5,"migraine_risk":10,"frizz_risk":0,"updated_at":"2026-04-16T16:36:54.880742+05:30"},{"city":"Agra","state":"Uttar Pradesh","latitude":27.1767,"longitude":78.0081,"temp":39.7,"humidity":16,"rain":0.0,"pressure":983.7,"uv_index":7.7,"wind_gusts":25.6,"aqi":465,"pm10":444.2,"pm2_5":47.8,"mosquito_risk":0,"arthritis_risk":5,"migraine_risk":10,"frizz_risk":0,"updated_at":"2026-04-16T16:36:54.880748+05:30"},{"city":"Varanasi","state":"Uttar Pradesh","latitude":25.3176,"longitude":82.9739,"temp":40.2,"humidity":12,"rain":0.0,"pressure":993.0,"uv_index":8.45,"wind_gusts":20.5,"aqi":154,"pm10":134.1,"pm2_5":24.9,"mosquito_risk":0,"arthritis_risk":5,"migraine_risk":10,"frizz_risk":0,"updated_at":"2026-04-16T16:36:54.880757+05:30"},{"city":"Prayagraj","state":"Uttar Pradesh","latitude":25.4358,"longitude":81.8463,"temp":39.3,"humidity":13,"rain":0.0,"pressure":992.1,"uv_index":8.3,"wind_gusts":29.5,"aqi":151,"pm10":174.2,"pm2_5":28.1,"mosquito_risk":0,"arthritis_risk":5,"migraine_risk":10,"frizz_risk":0,"updated_at":"2026-04-16T16:36:54.880764+05:30"},{"city":"Gorakhpur","state":"Uttar Pradesh","latitude":26.7606,"longitude":83.3732,"temp":37.6,"humidity":22,"rain":0.0,"pressure":993.3,"uv_index":8.25,"wind_gusts":31.3,"aqi":172,"pm10":124.8,"pm2_5":33.6,"mosquito_risk":0,"arthritis_risk":5,"migraine_risk":10,"frizz_risk":0,"updated_at":"2026-04-16T16:36:54.880770+05:30"},{"city":"Bareilly","state":"Uttar Pradesh","latitude":28.367,"longitude":79.4304,"temp":38.2,"humidity":15,"rain":0.0,"pressure":983.3,"uv_index":7.6,"wind_gusts":25.6,"aqi":150,"pm10":24.6,"pm2_5":9.5,"mosquito_risk":0,"arthritis_risk":5,"migraine_risk":10,"frizz_risk":0,"updated_at":"2026-04-16T16:36:54.880777+05:30"},{"city":"Aligarh","state":"Uttar Pradesh","latitude":27.8974,"longitude":78.088,"temp":39.6,"humidity":14,"rain":0.0,"pressure":981.5,"uv_index":7.5,"wind_gusts":28.8,"aqi":232,"pm10":329.7,"pm2_5":43.0,"mosquito_risk":0,"arthritis_risk":5,"migraine_risk":10,"frizz_risk":0,"updated_at":"2026-04-16T16:36:54.880783+05:30"},{"city":"Moradabad","state":"Uttar Pradesh","latitude":28.8386,"longitude":78.7733,"temp":37.8,"humidity":15,"rain":0.0,"pressure":980.2,"uv_index":7.45,"wind_gusts":27.0,"aqi":157,"pm10":28.4,"pm2_5":11.5,"mosquito_risk":0,"arthritis_risk":5,"migraine_risk":10,"frizz_risk":0,"updated_at":"2026-04-16T16:36:54.880789+05:30"},{"city":"Saharanpur","state":"Uttar Pradesh","latitude":29.9637,"longitude":77.546,"temp":36.1,"humidity":16,"rain":0.0,"pressure":972.8,"uv_index":7.05,"wind_gusts":26.3,"aqi":147,"pm10":47.6,"pm2_5":11.7,"mosquito_risk":0,"arthritis_risk":5,"migraine_risk":10,"frizz_risk":0,"updated_at":"2026-04-16T16:36:54.880797+05:30"},{"city":"Jhansi","state":"Uttar Pradesh","latitude":25.4484,"longitude":78.5685,"temp":40.6,"humidity":11,"rain":0.0,"pressure":974.1,"uv_index":8.2,"wind_gusts":32.4,"aqi":138,"pm10":136.0,"pm2_5":23.1,"mosquito_risk":0,"arthritis_risk":5,"migraine_risk":10,"frizz_risk":0,"updated_at":"2026-04-16T16:36:58.097724+05:30"},{"city":"Surat","state":"Gujarat","latitude":21.1702,"longitude":72.8311,"temp":30.2,"humidity":58,"rain":0.0,"pressure":1003.7,"uv_index":7.8,"wind_gusts":27.7,"aqi":83,"pm10":46.4,"pm2_5":29.2,"mosquito_risk":0,"arthritis_risk":5,"migraine_risk":4,"frizz_risk":1,"updated_at":"2026-04-16T16:36:58.097754+05:30"},{"city":"Vadodara","state":"Gujarat","latitude":22.3072,"longitude":73.1812,"temp":38.7,"humidity":31,"rain":0.0,"pressure":1000.1,"uv_index":8.0,"wind_gusts":23.8,"aqi":108,"pm10":46.2,"pm2_5":22.1,"mosquito_risk":0,"arthritis_risk":5,"migraine_risk":7,"frizz_risk":1,"updated_at":"2026-04-16T16:36:58.097766+05:30"},{"city":"Rajkot","state":"Gujarat","latitude":22.3039,"longitude":70.8022,"temp":37.5,"humidity":20,"rain":0.0,"pressure":991.0,"uv_index":7.8,"wind_gusts":33.1,"aqi":86,"pm10":62.4,"pm2_5":20.4,"mosquito_risk":0,"arthritis_risk":5,"migraine_risk":10,"frizz_risk":0,"updated_at":"2026-04-16T16:36:58.097775+05:30"},{"city":"Thane","state":"Maharashtra","latitude":19.2183,"longitude":72.9781,"temp":31.3,"humidity":54,"rain":0.0,"pressure":1004.8,"uv_index":8.0,"wind_gusts":31.0,"aqi":102,"pm10":50.3,"pm2_5":21.9,"mosquito_risk":0,"arthritis_risk":5,"migraine_risk":4,"frizz_risk":1,"updated_at":"2026-04-16T16:36:58.097783+05:30"},{"city":"Nagpur","state":"Maharashtra","latitude":21.1458,"longitude":79.0882,"temp":40.6,"humidity":13,"rain":0.0,"pressure":968.0,"uv_index":8.85,"wind_gusts":22.7,"aqi":130,"pm10":17.6,"pm2_5":11.0,"mosquito_risk":0,"arthritis_risk":5,"migraine_risk":10,"frizz_risk":0,"updated_at":"2026-04-16T16:36:58.097791+05:30"},{"city":"Nashik","state":"Maharashtra","latitude":19.9975,"longitude":73.7898,"temp":35.6,"humidity":24,"rain":0.0,"pressure":943.2,"uv_index":8.3,"wind_gusts":32.0,"aqi":81,"pm10":13.2,"pm2_5":7.5,"mosquito_risk":0,"arthritis_risk":5,"migraine_risk":10,"frizz_risk":0,"updated_at":"2026-04-16T16:36:58.097799+05:30"},{"city":"Aurangabad","state":"Maharashtra","latitude":19.8762,"longitude":75.3433,"temp":40.0,"humidity":9,"rain":0.0,"pressure":940.7,"uv_index":8.95,"wind_gusts":31.3,"aqi":83,"pm10":5.0,"pm2_5":3.3,"mosquito_risk":0,"arthritis_risk":5,"migraine_risk":10,"frizz_risk":0,"updated_at":"2026-04-16T16:36:58.097807+05:30"},{"city":"Solapur","state":"Maharashtra","latitude":17.6599,"longitude":75.9064,"temp":41.1,"humidity":9,"rain":0.0,"pressure":953.2,"uv_index":9.05,"wind_gusts":27.0,"aqi":106,"pm10":20.4,"pm2_5":11.2,"mosquito_risk":0,"arthritis_risk":5,"migraine_risk":10,"frizz_risk":0,"updated_at":"2026-04-16T16:36:58.097816+05:30"},{"city":"Kolhapur","state":"Maharashtra","latitude":16.705,"longitude":74.2433,"temp":34.0,"humidity":38,"rain":0.0,"pressure":945.3,"uv_index":9.0,"wind_gusts":43.2,"aqi":101,"pm10":22.2,"pm2_5":15.8,"mosquito_risk":0,"arthritis_risk":5,"migraine_risk":7,"frizz_risk":1,"updated_at":"2026-04-16T16:36:58.097823+05:30"},{"city":"Goa","state":"Goa","latitude":15.2993,"longitude":74.124,"temp":30.5,"humidity":68,"rain":0.0,"pressure":994.7,"uv_index":9.0,"wind_gusts":28.4,"aqi":75,"pm10":34.1,"pm2_5":15.8,"mosquito_risk":3,"arthritis_risk":5,"migraine_risk":7,"frizz_risk":1,"updated_at":"2026-04-16T16:36:58.097829+05:30"},{"city":"Jodhpur","state":"Rajasthan","latitude":26.2389,"longitude":73.0243,"temp":40.3,"humidity":15,"rain":0.0,"pressure":978.6,"uv_index":7.6,"wind_gusts":31.7,"aqi":91,"pm10":93.8,"pm2_5":17.2,"mosquito_risk":0,"arthritis_risk":5,"migraine_risk":10,"frizz_risk":0,"updated_at":"2026-04-16T16:36:58.097835+05:30"},{"city":"Udaipur","state":"Rajasthan","latitude":24.5854,"longitude":73.7125,"temp":37.5,"humidity":19,"rain":0.0,"pressure":943.8,"uv_index":8.65,"wind_gusts":26.6,"aqi":84,"pm10":67.3,"pm2_5":18.2,"mosquito_risk":0,"arthritis_risk":5,"migraine_risk":10,"frizz_risk":0,"updated_at":"2026-04-16T16:36:58.097842+05:30"},{"city":"Kota","state":"Rajasthan","latitude":25.2138,"longitude":75.8648,"temp":41.1,"humidity":13,"rain":0.0,"pressure":974.2,"uv_index":8.2,"wind_gusts":14.8,"aqi":142,"pm10":70.8,"pm2_5":19.7,"mosquito_risk":0,"arthritis_risk":5,"migraine_risk":10,"frizz_risk":0,"updated_at":"2026-04-16T16:36:58.097847+05:30"},{"city":"Bikaner","state":"Rajasthan","latitude":28.0229,"longitude":73.3119,"temp":40.1,"humidity":12,"rain":0.0,"pressure":977.7,"uv_index":7.6,"wind_gusts":23.0,"aqi":96,"pm10":70.8,"pm2_5":14.0,"mosquito_risk":0,"arthritis_risk":5,"migraine_risk":10,"frizz_risk":0,"updated_at":"2026-04-16T16:36:58.097854+05:30"},{"city":"Ajmer","state":"Rajasthan","latitude":26.4499,"longitude":74.6399,"temp":38.9,"humidity":16,"rain":0.0,"pressure":951.6,"uv_index":8.15,"wind_gusts":26.6,"aqi":127,"pm10":59.4,"pm2_5":14.3,"mosquito_risk":0,"arthritis_risk":5,"migraine_risk":10,"frizz_risk":0,"updated_at":"2026-04-16T16:36:58.097860+05:30"},{"city":"Gwalior","state":"Madhya Pradesh","latitude":26.2183,"longitude":78.1828,"temp":39.4,"humidity":13,"rain":0.0,"pressure":979.9,"uv_index":7.95,"wind_gusts":34.6,"aqi":139,"pm10":123.9,"pm2_5":20.9,"mosquito_risk":0,"arthritis_risk":5,"migraine_risk":10,"frizz_risk":0,"updated_at":"2026-04-16T16:36:58.097867+05:30"},{"city":"Indore","state":"Madhya Pradesh","latitude":22.7196,"longitude":75.8577,"temp":37.7,"humidity":22,"rain":0.0,"pressure":945.1,"uv_index":8.55,"wind_gusts":25.9,"aqi":99,"pm10":50.2,"pm2_5":18.4,"mosquito_risk":0,"arthritis_risk":5,"migraine_risk":10,"frizz_risk":0,"updated_at":"2026-04-16T16:36:58.097873+05:30"},{"city":"Bhopal","state":"Madhya Pradesh","latitude":23.2599,"longitude":77.4126,"temp":40.0,"humidity":18,"rain":0.0,"pressure":949.7,"uv_index":8.55,"wind_gusts":20.9,"aqi":108,"pm10":41.3,"pm2_5":15.8,"mosquito_risk":0,"arthritis_risk":5,"migraine_risk":10,"frizz_risk":0,"updated_at":"2026-04-16T16:36:58.097879+05:30"},{"city":"Jabalpur","state":"Madhya Pradesh","latitude":23.1815,"longitude":79.9864,"temp":38.9,"humidity":18,"rain":0.0,"pressure":957.8,"uv_index":8.7,"wind_gusts":22.7,"aqi":137,"pm10":34.9,"pm2_5":15.1,"mosquito_risk":0,"arthritis_risk":5,"migraine_risk":10,"frizz_risk":0,"updated_at":"2026-04-16T16:36:58.097885+05:30"},{"city":"Ujjain","state":"Madhya Pradesh","latitude":23.1765,"longitude":75.7885,"temp":38.2,"humidity":25,"rain":0.0,"pressure":950.5,"uv_index":8.5,"wind_gusts":27.0,"aqi":88,"pm10":51.0,"pm2_5":19.8,"mosquito_risk":0,"arthritis_risk":5,"migraine_risk":10,"frizz_risk":0,"updated_at":"2026-04-16T16:36:58.097891+05:30"},{"city":"Visakhapatnam","state":"Andhra Pradesh","latitude":17.6868,"longitude":83.2185,"temp":31.5,"humidity":66,"rain":0.0,"pressure":1000.1,"uv_index":9.15,"wind_gusts":43.9,"aqi":48,"pm10":13.9,"pm2_5":10.5,"mosquito_risk":3,"arthritis_risk":5,"migraine_risk":4,"frizz_risk":1,"updated_at":"2026-04-16T16:36:58.097897+05:30"},{"city":"Vijayawada","state":"Andhra Pradesh","latitude":16.5062,"longitude":80.648,"temp":36.2,"humidity":45,"rain":0.0,"pressure":998.3,"uv_index":9.2,"wind_gusts":29.5,"aqi":45,"pm10":18.0,"pm2_5":14.5,"mosquito_risk":0,"arthritis_risk":5,"migraine_risk":10,"frizz_risk":1,"updated_at":"2026-04-16T16:36:58.097903+05:30"},{"city":"Guntur","state":"Andhra Pradesh","latitude":16.3067,"longitude":80.4365,"temp":35.0,"humidity":51,"rain":0.0,"pressure":999.8,"uv_index":9.2,"wind_gusts":32.4,"aqi":57,"pm10":22.2,"pm2_5":19.0,"mosquito_risk":0,"arthritis_risk":5,"migraine_risk":7,"frizz_risk":1,"updated_at":"2026-04-16T16:36:58.097909+05:30"},{"city":"Nellore","state":"Andhra Pradesh","latitude":14.4426,"longitude":79.9865,"temp":36.6,"humidity":56,"rain":0.0,"pressure":1001.2,"uv_index":9.3,"wind_gusts":34.2,"aqi":84,"pm10":21.8,"pm2_5":17.4,"mosquito_risk":0,"arthritis_risk":5,"migraine_risk":7,"frizz_risk":1,"updated_at":"2026-04-16T16:36:58.097916+05:30"},{"city":"Kurnool","state":"Andhra Pradesh","latitude":15.8281,"longitude":78.0373,"temp":40.4,"humidity":23,"rain":0.0,"pressure":971.7,"uv_index":9.2,"wind_gusts":31.0,"aqi":153,"pm10":32.9,"pm2_5":26.0,"mosquito_risk":0,"arthritis_risk":5,"migraine_risk":10,"frizz_risk":0,"updated_at":"2026-04-16T16:36:58.097923+05:30"},{"city":"Kakinada","state":"Andhra Pradesh","latitude":16.9891,"longitude":82.2475,"temp":34.7,"humidity":52,"rain":0.0,"pressure":1003.6,"uv_index":9.2,"wind_gusts":34.9,"aqi":29,"pm10":9.6,"pm2_5":6.1,"mosquito_risk":0,"arthritis_risk":5,"migraine_risk":4,"frizz_risk":1,"updated_at":"2026-04-16T16:36:58.097930+05:30"},{"city":"Tirupati","state":"Andhra Pradesh","latitude":13.6288,"longitude":79.4192,"temp":36.7,"humidity":38,"rain":0.0,"pressure":987.7,"uv_index":9.4,"wind_gusts":33.8,"aqi":78,"pm10":24.7,"pm2_5":22.1,"mosquito_risk":0,"arthritis_risk":5,"migraine_risk":10,"frizz_risk":1,"updated_at":"2026-04-16T16:36:58.097936+05:30"},{"city":"Warangal","state":"Telangana","latitude":17.9689,"longitude":79.5941,"temp":39.5,"humidity":28,"rain":0.0,"pressure":973.8,"uv_index":9.1,"wind_gusts":34.2,"aqi":101,"pm10":30.9,"pm2_5":26.0,"mosquito_risk":0,"arthritis_risk":5,"migraine_risk":10,"frizz_risk":1,"updated_at":"2026-04-16T16:36:58.097942+05:30"},{"city":"Nizamabad","state":"Telangana","latitude":18.6725,"longitude":78.0941,"temp":41.2,"humidity":14,"rain":0.0,"pressure":960.4,"uv_index":9.05,"wind_gusts":25.9,"aqi":121,"pm10":21.7,"pm2_5":12.4,"mosquito_risk":0,"arthritis_risk":5,"migraine_risk":10,"frizz_risk":0,"updated_at":"2026-04-16T16:36:58.097948+05:30"},{"city":"Mysore","state":"Karnataka","latitude":12.2958,"longitude":76.6396,"temp":36.2,"humidity":21,"rain":0.0,"pressure":925.0,"uv_index":9.5,"wind_gusts":43.6,"aqi":119,"pm10":24.7,"pm2_5":20.1,"mosquito_risk":0,"arthritis_risk":5,"migraine_risk":10,"frizz_risk":0,"updated_at":"2026-04-16T16:36:58.097954+05:30"},{"city":"Mangalore","state":"Karnataka","latitude":12.9141,"longitude":74.856,"temp":29.6,"humidity":82,"rain":0.0,"pressure":1002.9,"uv_index":8.4,"wind_gusts":21.6,"aqi":87,"pm10":50.9,"pm2_5":27.7,"mosquito_risk":7,"arthritis_risk":5,"migraine_risk":4,"frizz_risk":1,"updated_at":"2026-04-16T16:36:58.097961+05:30"},{"city":"Hubli-Dharwad","state":"Karnataka","latitude":15.3647,"longitude":75.124,"temp":35.6,"humidity":31,"rain":0.0,"pressure":937.8,"uv_index":9.2,"wind_gusts":33.5,"aqi":99,"pm10":27.6,"pm2_5":19.1,"mosquito_risk":0,"arthritis_risk":5,"migraine_risk":10,"frizz_risk":0,"updated_at":"2026-04-16T16:36:58.097968+05:30"},{"city":"Belgaum","state":"Karnataka","latitude":15.8497,"longitude":74.4977,"temp":31.2,"humidity":53,"rain":0.0,"pressure":923.6,"uv_index":9.25,"wind_gusts":36.0,"aqi":105,"pm10":24.6,"pm2_5":14.9,"mosquito_risk":0,"arthritis_risk":5,"migraine_risk":7,"frizz_risk":1,"updated_at":"2026-04-16T16:37:01.320153+05:30"},{"city":"Coimbatore","state":"Tamil Nadu","latitude":11.0168,"longitude":76.9558,"temp":36.7,"humidity":26,"rain":0.0,"pressure":957.6,"uv_index":9.45,"wind_gusts":46.4,"aqi":129,"pm10":25.3,"pm2_5":20.3,"mosquito_risk":0,"arthritis_risk":5,"migraine_risk":10,"frizz_risk":0,"updated_at":"2026-04-16T16:37:01.320180+05:30"},{"city":"Madurai","state":"Tamil Nadu","latitude":9.9252,"longitude":78.1198,"temp":39.5,"humidity":23,"rain":0.0,"pressure":987.9,"uv_index":9.3,"wind_gusts":52.6,"aqi":88,"pm10":18.2,"pm2_5":12.5,"mosquito_risk":0,"arthritis_risk":5,"migraine_risk":10,"frizz_risk":0,"updated_at":"2026-04-16T16:37:01.320189+05:30"},{"city":"Trichy","state":"Tamil Nadu","latitude":10.7905,"longitude":78.7047,"temp":38.7,"humidity":29,"rain":0.0,"pressure":994.9,"uv_index":9.35,"wind_gusts":26.6,"aqi":55,"pm10":17.8,"pm2_5":13.5,"mosquito_risk":0,"arthritis_risk":5,"migraine_risk":10,"frizz_risk":1,"updated_at":"2026-04-16T16:37:01.320196+05:30"},{"city":"Salem","state":"Tamil Nadu","latitude":11.6643,"longitude":78.146,"temp":38.2,"humidity":29,"rain":0.0,"pressure":972.9,"uv_index":9.45,"wind_gusts":26.6,"aqi":90,"pm10":21.0,"pm2_5":16.0,"mosquito_risk":0,"arthritis_risk":5,"migraine_risk":10,"frizz_risk":1,"updated_at":"2026-04-16T16:37:01.320203+05:30"},{"city":"Tirunelveli","state":"Tamil Nadu","latitude":8.7139,"longitude":77.7567,"temp":36.4,"humidity":40,"rain":0.0,"pressure":998.4,"uv_index":8.75,"wind_gusts":52.2,"aqi":86,"pm10":21.2,"pm2_5":17.3,"mosquito_risk":0,"arthritis_risk":5,"migraine_risk":10,"frizz_risk":1,"updated_at":"2026-04-16T16:37:01.320210+05:30"},{"city":"Vellore","state":"Tamil Nadu","latitude":12.9165,"longitude":79.1325,"temp":36.5,"humidity":36,"rain":0.0,"pressure":980.6,"uv_index":9.4,"wind_gusts":32.4,"aqi":81,"pm10":26.4,"pm2_5":24.1,"mosquito_risk":0,"arthritis_risk":5,"migraine_risk":10,"frizz_risk":1,"updated_at":"2026-04-16T16:37:01.320216+05:30"},{"city":"Erode","state":"Tamil Nadu","latitude":11.341,"longitude":77.7172,"temp":39.5,"humidity":26,"rain":0.0,"pressure":984.1,"uv_index":9.4,"wind_gusts":30.2,"aqi":113,"pm10":18.3,"pm2_5":13.6,"mosquito_risk":0,"arthritis_risk":5,"migraine_risk":10,"frizz_risk":1,"updated_at":"2026-04-16T16:37:01.320221+05:30"},{"city":"Kochi","state":"Kerala","latitude":9.9312,"longitude":76.2673,"temp":30.2,"humidity":78,"rain":0.0,"pressure":1004.8,"uv_index":9.2,"wind_gusts":29.9,"aqi":102,"pm10":36.9,"pm2_5":27.6,"mosquito_risk":3,"arthritis_risk":5,"migraine_risk":4,"frizz_risk":1,"updated_at":"2026-04-16T16:37:01.320228+05:30"},{"city":"Thiruvananthapuram","state":"Kerala","latitude":8.5241,"longitude":76.9366,"temp":30.1,"humidity":78,"rain":0.0,"pressure":1004.1,"uv_index":9.15,"wind_gusts":32.8,"aqi":78,"pm10":39.8,"pm2_5":26.3,"mosquito_risk":3,"arthritis_risk":5,"migraine_risk":4,"frizz_risk":1,"updated_at":"2026-04-16T16:37:01.320234+05:30"},{"city":"Kozhikode","state":"Kerala","latitude":11.2588,"longitude":75.7804,"temp":31.4,"humidity":71,"rain":0.0,"pressure":1004.0,"uv_index":9.15,"wind_gusts":31.7,"aqi":89,"pm10":45.2,"pm2_5":27.6,"mosquito_risk":3,"arthritis_risk":5,"migraine_risk":4,"frizz_risk":1,"updated_at":"2026-04-16T16:37:01.320240+05:30"},{"city":"Thrissur","state":"Kerala","latitude":10.5276,"longitude":76.2144,"temp":32.5,"humidity":67,"rain":0.0,"pressure":1003.1,"uv_index":9.1,"wind_gusts":34.6,"aqi":103,"pm10":37.1,"pm2_5":27.6,"mosquito_risk":3,"arthritis_risk":5,"migraine_risk":4,"frizz_risk":1,"updated_at":"2026-04-16T16:37:01.320248+05:30"},{"city":"Kannur","state":"Kerala","latitude":11.8745,"longitude":75.3704,"temp":31.9,"humidity":68,"rain":0.0,"pressure":1003.5,"uv_index":9.15,"wind_gusts":32.4,"aqi":90,"pm10":51.9,"pm2_5":32.0,"mosquito_risk":3,"arthritis_risk":5,"migraine_risk":4,"frizz_risk":1,"updated_at":"2026-04-16T16:37:01.320254+05:30"},{"city":"Patna","state":"Bihar","latitude":25.5941,"longitude":85.1376,"temp":34.6,"humidity":48,"rain":0.0,"pressure":996.7,"uv_index":8.55,"wind_gusts":34.2,"aqi":175,"pm10":86.8,"pm2_5":43.4,"mosquito_risk":0,"arthritis_risk":5,"migraine_risk":7,"frizz_risk":1,"updated_at":"2026-04-16T16:37:01.320260+05:30"},{"city":"Gaya","state":"Bihar","latitude":24.7914,"longitude":85.0002,"temp":36.0,"humidity":39,"rain":0.0,"pressure":989.6,"uv_index":8.65,"wind_gusts":23.0,"aqi":153,"pm10":73.8,"pm2_5":21.7,"mosquito_risk":0,"arthritis_risk":5,"migraine_risk":10,"frizz_risk":1,"updated_at":"2026-04-16T16:37:01.320266+05:30"},{"city":"Muzaffarpur","state":"Bihar","latitude":26.1209,"longitude":85.3647,"temp":33.4,"humidity":52,"rain":0.0,"pressure":997.1,"uv_index":8.55,"wind_gusts":35.3,"aqi":173,"pm10":84.8,"pm2_5":49.1,"mosquito_risk":0,"arthritis_risk":5,"migraine_risk":7,"frizz_risk":1,"updated_at":"2026-04-16T16:37:01.320272+05:30"},{"city":"Bhagalpur","state":"Bihar","latitude":25.2425,"longitude":87.0117,"temp":31.6,"humidity":65,"rain":0.0,"pressure":997.9,"uv_index":8.55,"wind_gusts":30.6,"aqi":151,"pm10":62.4,"pm2_5":55.8,"mosquito_risk":3,"arthritis_risk":5,"migraine_risk":7,"frizz_risk":1,"updated_at":"2026-04-16T16:37:01.320279+05:30"},{"city":"Ranchi","state":"Jharkhand","latitude":23.3441,"longitude":85.3096,"temp":30.8,"humidity":50,"rain":0.0,"pressure":935.3,"uv_index":9.15,"wind_gusts":39.6,"aqi":203,"pm10":45.8,"pm2_5":25.3,"mosquito_risk":0,"arthritis_risk":5,"migraine_risk":7,"frizz_risk":1,"updated_at":"2026-04-16T16:37:01.320285+05:30"},{"city":"Jamshedpur","state":"Jharkhand","latitude":22.8046,"longitude":86.2029,"temp":29.2,"humidity":74,"rain":0.0,"pressure":988.5,"uv_index":9.0,"wind_gusts":31.0,"aqi":201,"pm10":68.5,"pm2_5":59.6,"mosquito_risk":7,"arthritis_risk":5,"migraine_risk":7,"frizz_risk":1,"updated_at":"2026-04-16T16:37:01.320291+05:30"},{"city":"Dhanbad","state":"Jharkhand","latitude":23.7957,"longitude":86.4304,"temp":32.9,"humidity":52,"rain":0.0,"pressure":976.8,"uv_index":8.95,"wind_gusts":29.2,"aqi":201,"pm10":95.9,"pm2_5":77.8,"mosquito_risk":0,"arthritis_risk":5,"migraine_risk":7,"frizz_risk":1,"updated_at":"2026-04-16T16:37:01.320297+05:30"},{"city":"Bokaro","state":"Jharkhand","latitude":23.6693,"longitude":86.1511,"temp":32.0,"humidity":57,"rain":0.0,"pressure":981.0,"uv_index":8.95,"wind_gusts":24.5,"aqi":210,"pm10":89.6,"pm2_5":63.1,"mosquito_risk":0,"arthritis_risk":5,"migraine_risk":7,"frizz_risk":1,"updated_at":"2026-04-16T16:37:01.320304+05:30"},{"city":"Bhubaneswar","state":"Odisha","latitude":20.2961,"longitude":85.8245,"temp":30.4,"humidity":72,"rain":0.0,"pressure":998.7,"uv_index":9.1,"wind_gusts":39.6,"aqi":56,"pm10":14.9,"pm2_5":11.4,"mosquito_risk":3,"arthritis_risk":5,"migraine_risk":7,"frizz_risk":1,"updated_at":"2026-04-16T16:37:01.320311+05:30"},{"city":"Cuttack","state":"Odisha","latitude":20.4625,"longitude":85.8828,"temp":32.3,"humidity":66,"rain":0.0,"pressure":1000.3,"uv_index":9.15,"wind_gusts":37.1,"aqi":56,"pm10":14.9,"pm2_5":11.4,"mosquito_risk":3,"arthritis_risk":5,"migraine_risk":4,"frizz_risk":1,"updated_at":"2026-04-16T16:37:01.320317+05:30"},{"city":"Rourkela","state":"Odisha","latitude":22.2604,"longitude":84.8536,"temp":31.5,"humidity":58,"rain":0.0,"pressure":981.4,"uv_index":8.9,"wind_gusts":50.4,"aqi":197,"pm10":32.4,"pm2_5":20.4,"mosquito_risk":0,"arthritis_risk":5,"migraine_risk":7,"frizz_risk":1,"updated_at":"2026-04-16T16:37:01.320322+05:30"},{"city":"Raipur","state":"Chhattisgarh","latitude":21.2514,"longitude":81.6296,"temp":41.8,"humidity":16,"rain":0.0,"pressure":969.0,"uv_index":8.95,"wind_gusts":32.0,"aqi":175,"pm10":27.0,"pm2_5":17.6,"mosquito_risk":0,"arthritis_risk":5,"migraine_risk":10,"frizz_risk":0,"updated_at":"2026-04-16T16:37:01.320328+05:30"},{"city":"Bhilai","state":"Chhattisgarh","latitude":21.1938,"longitude":81.3509,"temp":41.8,"humidity":13,"rain":0.0,"pressure":969.4,"uv_index":8.95,"wind_gusts":29.2,"aqi":152,"pm10":23.1,"pm2_5":14.0,"mosquito_risk":0,"arthritis_risk":5,"migraine_risk":10,"frizz_risk":0,"updated_at":"2026-04-16T16:37:01.320334+05:30"},{"city":"Guwahati","state":"Assam","latitude":26.1158,"longitude":91.7086,"temp":30.0,"humidity":60,"rain":0.0,"pressure":1000.0,"uv_index":8.45,"wind_gusts":24.5,"aqi":135,"pm10":73.1,"pm2_5":46.9,"mosquito_risk":4,"arthritis_risk":5,"migraine_risk":4,"frizz_risk":1,"updated_at":"2026-04-16T16:37:01.320340+05:30"},{"city":"Agartala","state":"Tripura","latitude":23.8315,"longitude":91.2868,"temp":27.9,"humidity":76,"rain":0.0,"pressure":1004.8,"uv_index":8.7,"wind_gusts":27.4,"aqi":131,"pm10":71.2,"pm2_5":52.2,"mosquito_risk":7,"arthritis_risk":5,"migraine_risk":4,"frizz_risk":1,"updated_at":"2026-04-16T16:37:01.320346+05:30"},{"city":"Shillong","state":"Meghalaya","latitude":25.5788,"longitude":91.8933,"temp":19.1,"humidity":65,"rain":0.0,"pressure":856.3,"uv_index":7.75,"wind_gusts":43.2,"aqi":126,"pm10":61.5,"pm2_5":39.3,"mosquito_risk":3,"arthritis_risk":5,"migraine_risk":7,"frizz_risk":0,"updated_at":"2026-04-16T16:37:01.320352+05:30"},{"city":"Imphal","state":"Manipur","latitude":24.817,"longitude":93.9368,"temp":22.4,"humidity":69,"rain":0.0,"pressure":922.5,"uv_index":9.05,"wind_gusts":69.5,"aqi":125,"pm10":60.5,"pm2_5":35.4,"mosquito_risk":3,"arthritis_risk":5,"migraine_risk":7,"frizz_risk":1,"updated_at":"2026-04-16T16:37:01.320358+05:30"},{"city":"Aizawl","state":"Mizoram","latitude":23.7271,"longitude":92.7176,"temp":24.2,"humidity":68,"rain":0.0,"pressure":892.7,"uv_index":8.95,"wind_gusts":37.4,"aqi":131,"pm10":89.2,"pm2_5":56.9,"mosquito_risk":3,"arthritis_risk":5,"migraine_risk":7,"frizz_risk":1,"updated_at":"2026-04-16T16:37:01.320364+05:30"},{"city":"Kohima","state":"Nagaland","latitude":25.6701,"longitude":94.1077,"temp":17.8,"humidity":84,"rain":0.0,"pressure":854.9,"uv_index":8.5,"wind_gusts":57.2,"aqi":122,"pm10":73.6,"pm2_5":41.7,"mosquito_risk":3,"arthritis_risk":10,"migraine_risk":7,"frizz_risk":0,"updated_at":"2026-04-16T16:37:01.320370+05:30"},{"city":"Gangtok","state":"Sikkim","latitude":27.3314,"longitude":88.6138,"temp":18.8,"humidity":74,"rain":0.0,"pressure":837.6,"uv_index":8.8,"wind_gusts":19.4,"aqi":143,"pm10":47.8,"pm2_5":30.7,"mosquito_risk":3,"arthritis_risk":5,"migraine_risk":7,"frizz_risk":0,"updated_at":"2026-04-16T16:37:01.320376+05:30"},{"city":"Siliguri","state":"West Bengal","latitude":26.7271,"longitude":88.3953,"temp":25.9,"humidity":63,"rain":0.0,"pressure":992.5,"uv_index":8.45,"wind_gusts":24.8,"aqi":165,"pm10":80.3,"pm2_5":51.7,"mosquito_risk":7,"arthritis_risk":5,"migraine_risk":7,"frizz_risk":1,"updated_at":"2026-04-16T16:37:04.543564+05:30"},{"city":"Durgapur","state":"West Bengal","latitude":23.5204,"longitude":87.3119,"temp":31.2,"humidity":66,"rain":0.0,"pressure":991.9,"uv_index":8.85,"wind_gusts":27.4,"aqi":134,"pm10":70.5,"pm2_5":62.2,"mosquito_risk":3,"arthritis_risk":5,"migraine_risk":7,"frizz_risk":1,"updated_at":"2026-04-16T16:37:04.543595+05:30"},{"city":"Asansol","state":"West Bengal","latitude":23.6739,"longitude":86.9524,"temp":32.1,"humidity":61,"rain":0.0,"pressure":990.6,"uv_index":8.9,"wind_gusts":26.6,"aqi":156,"pm10":85.9,"pm2_5":74.5,"mosquito_risk":3,"arthritis_risk":5,"migraine_risk":7,"frizz_risk":1,"updated_at":"2026-04-16T16:37:04.543605+05:30"},{"city":"Pondicherry","state":"Puducherry","latitude":11.9139,"longitude":79.8145,"temp":35.7,"humidity":53,"rain":0.0,"pressure":1004.1,"uv_index":9.25,"wind_gusts":25.9,"aqi":42,"pm10":9.3,"pm2_5":6.4,"mosquito_risk":0,"arthritis_risk":5,"migraine_risk":7,"frizz_risk":1,"updated_at":"2026-04-16T16:37:04.543614+05:30"},{"city":"Port Blair","state":"Andaman and Nicobar Islands","latitude":11.6234,"longitude":92.7265,"temp":29.9,"humidity":69,"rain":0.0,"pressure":1004.8,"uv_index":9.2,"wind_gusts":15.1,"aqi":63,"pm10":24.7,"pm2_5":17.7,"mosquito_risk":7,"arthritis_risk":5,"migraine_risk":4,"frizz_risk":1,"updated_at":"2026-04-16T16:37:04.543622+05:30"},{"city":"Haridwar","state":"Uttarakhand","latitude":29.9457,"longitude":78.1642,"temp":35.4,"humidity":21,"rain":0.0,"pressure":971.4,"uv_index":7.1,"wind_gusts":30.6,"aqi":128,"pm10":18.6,"pm2_5":7.9,"mosquito_risk":0,"arthritis_risk":5,"migraine_risk":10,"frizz_risk":0,"updated_at":"2026-04-16T16:37:04.543631+05:30"},{"city":"Rishikesh","state":"Uttarakhand","latitude":30.0869,"longitude":78.2676,"temp":33.8,"humidity":26,"rain":0.0,"pressure":964.5,"uv_index":7.1,"wind_gusts":31.7,"aqi":120,"pm10":15.7,"pm2_5":5.5,"mosquito_risk":0,"arthritis_risk":5,"migraine_risk":7,"frizz_risk":0,"updated_at":"2026-04-16T16:37:04.543640+05:30"},{"city":"Nainital","state":"Uttarakhand","latitude":29.3919,"longitude":79.4542,"temp":27.5,"humidity":21,"rain":0.0,"pressure":808.4,"uv_index":8.1,"wind_gusts":43.2,"aqi":153,"pm10":18.0,"pm2_5":9.3,"mosquito_risk":4,"arthritis_risk":5,"migraine_risk":7,"frizz_risk":0,"updated_at":"2026-04-16T16:37:04.543648+05:30"},{"city":"Mussoorie","state":"Uttarakhand","latitude":30.4599,"longitude":78.0664,"temp":24.7,"humidity":34,"rain":0.0,"pressure":804.7,"uv_index":6.9,"wind_gusts":39.2,"aqi":136,"pm10":14.0,"pm2_5":7.0,"mosquito_risk":0,"arthritis_risk":5,"migraine_risk":7,"frizz_risk":0,"updated_at":"2026-04-16T16:37:04.543655+05:30"},{"city":"Dharamshala","state":"Himachal Pradesh","latitude":32.219,"longitude":76.3234,"temp":28.1,"humidity":31,"rain":0.0,"pressure":869.9,"uv_index":7.75,"wind_gusts":24.8,"aqi":136,"pm10":11.6,"pm2_5":4.1,"mosquito_risk":4,"arthritis_risk":5,"migraine_risk":7,"frizz_risk":0,"updated_at":"2026-04-16T16:37:04.543662+05:30"},{"city":"Dalhousie","state":"Himachal Pradesh","latitude":32.5387,"longitude":75.971,"temp":26.7,"humidity":20,"rain":0.0,"pressure":806.2,"uv_index":7.9,"wind_gusts":25.6,"aqi":142,"pm10":11.8,"pm2_5":4.5,"mosquito_risk":4,"arthritis_risk":5,"migraine_risk":7,"frizz_risk":0,"updated_at":"2026-04-16T16:37:04.543671+05:30"},{"city":"Patiala","state":"Punjab","latitude":30.3398,"longitude":76.3869,"temp":38.1,"humidity":15,"rain":0.0,"pressure":974.9,"uv_index":7.2,"wind_gusts":23.0,"aqi":124,"pm10":424.7,"pm2_5":39.2,"mosquito_risk":0,"arthritis_risk":5,"migraine_risk":10,"frizz_risk":0,"updated_at":"2026-04-16T16:37:04.543678+05:30"},{"city":"Bhatinda","state":"Punjab","latitude":30.211,"longitude":74.9455,"temp":39.8,"humidity":13,"rain":0.0,"pressure":979.7,"uv_index":7.35,"wind_gusts":33.5,"aqi":131,"pm10":41.6,"pm2_5":12.8,"mosquito_risk":0,"arthritis_risk":5,"migraine_risk":10,"frizz_risk":0,"updated_at":"2026-04-16T16:37:04.543686+05:30"},{"city":"Rohtak","state":"Haryana","latitude":28.8955,"longitude":76.6066,"temp":38.8,"humidity":15,"rain":0.0,"pressure":978.2,"uv_index":7.35,"wind_gusts":26.6,"aqi":420,"pm10":311.1,"pm2_5":34.1,"mosquito_risk":0,"arthritis_risk":5,"migraine_risk":10,"frizz_risk":0,"updated_at":"2026-04-16T16:37:04.543694+05:30"},{"city":"Panipat","state":"Haryana","latitude":29.3909,"longitude":76.9635,"temp":37.9,"humidity":16,"rain":0.0,"pressure":977.2,"uv_index":7.15,"wind_gusts":25.9,"aqi":453,"pm10":568.1,"pm2_5":53.0,"mosquito_risk":0,"arthritis_risk":5,"migraine_risk":10,"frizz_risk":0,"updated_at":"2026-04-16T16:37:04.543701+05:30"},{"city":"Mathura","state":"Uttar Pradesh","latitude":27.4924,"longitude":77.6737,"temp":39.7,"humidity":13,"rain":0.0,"pressure":982.8,"uv_index":7.65,"wind_gusts":27.0,"aqi":439,"pm10":366.9,"pm2_5":46.1,"mosquito_risk":0,"arthritis_risk":5,"migraine_risk":10,"frizz_risk":0,"updated_at":"2026-04-16T16:37:04.543709+05:30"},{"city":"Vrindavan","state":"Uttar Pradesh","latitude":27.5823,"longitude":77.7027,"temp":39.5,"humidity":14,"rain":0.0,"pressure":983.2,"uv_index":7.6,"wind_gusts":24.8,"aqi":439,"pm10":366.9,"pm2_5":46.1,"mosquito_risk":0,"arthritis_risk":5,"migraine_risk":10,"frizz_risk":0,"updated_at":"2026-04-16T16:37:04.543716+05:30"},{"city":"Ayodhya","state":"Uttar Pradesh","latitude":26.7922,"longitude":82.1998,"temp":39.5,"humidity":13,"rain":0.0,"pressure":991.0,"uv_index":8.0,"wind_gusts":23.8,"aqi":158,"pm10":122.0,"pm2_5":22.2,"mosquito_risk":0,"arthritis_risk":5,"migraine_risk":10,"frizz_risk":0,"updated_at":"2026-04-16T16:37:04.543724+05:30"},{"city":"Ratlam","state":"Madhya Pradesh","latitude":23.3315,"longitude":75.0367,"temp":35.4,"humidity":34,"rain":0.0,"pressure":951.7,"uv_index":8.4,"wind_gusts":29.5,"aqi":88,"pm10":52.3,"pm2_5":18.0,"mosquito_risk":0,"arthritis_risk":5,"migraine_risk":10,"frizz_risk":1,"updated_at":"2026-04-16T16:37:04.543731+05:30"},{"city":"Sagar","state":"Madhya Pradesh","latitude":23.8388,"longitude":78.7378,"temp":39.0,"humidity":16,"rain":0.0,"pressure":947.1,"uv_index":8.55,"wind_gusts":19.4,"aqi":143,"pm10":81.0,"pm2_5":19.3,"mosquito_risk":0,"arthritis_risk":5,"migraine_risk":10,"frizz_risk":0,"updated_at":"2026-04-16T16:37:04.543738+05:30"},{"city":"Satna","state":"Madhya Pradesh","latitude":24.6005,"longitude":80.8322,"temp":40.1,"humidity":11,"rain":0.0,"pressure":967.8,"uv_index":8.6,"wind_gusts":25.6,"aqi":146,"pm10":128.1,"pm2_5":21.9,"mosquito_risk":0,"arthritis_risk":5,"migraine_risk":10,"frizz_risk":0,"updated_at":"2026-04-16T16:37:04.543746+05:30"},{"city":"Akola","state":"Maharashtra","latitude":20.7002,"longitude":77.0082,"temp":41.9,"humidity":12,"rain":0.0,"pressure":970.3,"uv_index":8.8,"wind_gusts":26.3,"aqi":106,"pm10":19.1,"pm2_5":9.5,"mosquito_risk":0,"arthritis_risk":5,"migraine_risk":10,"frizz_risk":0,"updated_at":"2026-04-16T16:37:04.543754+05:30"},{"city":"Amravati","state":"Maharashtra","latitude":20.9374,"longitude":77.7796,"temp":40.9,"humidity":16,"rain":0.0,"pressure":962.7,"uv_index":8.8,"wind_gusts":22.0,"aqi":111,"pm10":19.6,"pm2_5":10.0,"mosquito_risk":0,"arthritis_risk":5,"migraine_risk":10,"frizz_risk":0,"updated_at":"2026-04-16T16:37:04.543762+05:30"},{"city":"Latur","state":"Maharashtra","latitude":18.4088,"longitude":76.5604,"temp":38.6,"humidity":12,"rain":0.0,"pressure":936.8,"uv_index":9.05,"wind_gusts":23.0,"aqi":77,"pm10":19.3,"pm2_5":9.9,"mosquito_risk":0,"arthritis_risk":5,"migraine_risk":10,"frizz_risk":0,"updated_at":"2026-04-16T16:37:04.543770+05:30"},{"city":"Nanded","state":"Maharashtra","latitude":19.1383,"longitude":77.3091,"temp":40.6,"humidity":12,"rain":0.0,"pressure":964.5,"uv_index":8.95,"wind_gusts":17.3,"aqi":85,"pm10":20.7,"pm2_5":10.2,"mosquito_risk":0,"arthritis_risk":5,"migraine_risk":10,"frizz_risk":0,"updated_at":"2026-04-16T16:37:04.543777+05:30"},{"city":"Gulbarga","state":"Karnataka","latitude":17.3297,"longitude":76.8343,"temp":40.6,"humidity":16,"rain":0.0,"pressure":954.1,"uv_index":9.1,"wind_gusts":22.3,"aqi":155,"pm10":33.9,"pm2_5":27.1,"mosquito_risk":0,"arthritis_risk":5,"migraine_risk":10,"frizz_risk":0,"updated_at":"2026-04-16T16:37:04.543784+05:30"},{"city":"Bidar","state":"Karnataka","latitude":17.9104,"longitude":77.5199,"temp":39.1,"humidity":16,"rain":0.0,"pressure":932.0,"uv_index":9.1,"wind_gusts":34.2,"aqi":134,"pm10":32.1,"pm2_5":24.1,"mosquito_risk":0,"arthritis_risk":5,"migraine_risk":10,"frizz_risk":0,"updated_at":"2026-04-16T16:37:04.543791+05:30"},{"city":"Hospet","state":"Karnataka","latitude":15.2689,"longitude":76.3909,"temp":38.1,"humidity":24,"rain":0.0,"pressure":951.8,"uv_index":9.25,"wind_gusts":27.4,"aqi":108,"pm10":34.9,"pm2_5":26.6,"mosquito_risk":0,"arthritis_risk":5,"migraine_risk":10,"frizz_risk":0,"updated_at":"2026-04-16T16:37:04.543798+05:30"},{"city":"Tirupur","state":"Tamil Nadu","latitude":11.1085,"longitude":77.3411,"temp":38.7,"humidity":22,"rain":0.0,"pressure":970.6,"uv_index":9.45,"wind_gusts":32.4,"aqi":124,"pm10":22.9,"pm2_5":17.3,"mosquito_risk":0,"arthritis_risk":5,"migraine_risk":10,"frizz_risk":0,"updated_at":"2026-04-16T16:37:04.543805+05:30"},{"city":"Alappuzha","state":"Kerala","latitude":9.4981,"longitude":76.3388,"temp":30.0,"humidity":82,"rain":0.0,"pressure":1004.9,"uv_index":8.55,"wind_gusts":28.8,"aqi":95,"pm10":42.7,"pm2_5":29.6,"mosquito_risk":7,"arthritis_risk":5,"migraine_risk":4,"frizz_risk":1,"updated_at":"2026-04-16T16:37:04.543812+05:30"},{"city":"Munnar","state":"Kerala","latitude":10.0889,"longitude":77.0595,"temp":27.6,"humidity":69,"rain":0.0,"pressure":856.1,"uv_index":8.95,"wind_gusts":37.1,"aqi":80,"pm10":19.2,"pm2_5":13.5,"mosquito_risk":7,"arthritis_risk":5,"migraine_risk":7,"frizz_risk":1,"updated_at":"2026-04-16T16:37:04.543820+05:30"},{"city":"Silchar","state":"Assam","latitude":24.8333,"longitude":92.7789,"temp":31.1,"humidity":57,"rain":0.0,"pressure":1003.0,"uv_index":8.7,"wind_gusts":24.5,"aqi":125,"pm10":93.1,"pm2_5":55.6,"mosquito_risk":0,"arthritis_risk":5,"migraine_risk":4,"frizz_risk":1,"updated_at":"2026-04-16T16:37:04.543828+05:30"},{"city":"Dibrugarh","state":"Assam","latitude":27.4728,"longitude":94.912,"temp":28.1,"humidity":57,"rain":0.0,"pressure":995.0,"uv_index":8.55,"wind_gusts":7.9,"aqi":144,"pm10":79.4,"pm2_5":43.4,"mosquito_risk":4,"arthritis_risk":5,"migraine_risk":7,"frizz_risk":1,"updated_at":"2026-04-16T16:37:04.543835+05:30"}]