[{"city":"Delhi","state":"Delhi","latitude":28.6139,"longitude":77.209,"temp":34.6,"humidity":22,"rain":0.0,"pressure":978.8,"uv_index":7.3,"wind_gusts":28.8,"aqi":181,"pm10":573.7,"pm2_5":70.1,"mosquito_risk":0,"arthritis_risk":5,"migraine_risk":7,"frizz_risk":0,"updated_at":"2026-04-15T19:14:30.383057+05:30"},{"city":"Mumbai","state":"Maharashtra","latitude":19.076,"longitude":72.8777,"temp":29.9,"humidity":68,"rain":0.0,"pressure":1005.8,"uv_index":8.0,"wind_gusts":19.1,"aqi":130,"pm10":34.9,"pm2_5":21.9,"mosquito_risk":7,"arthritis_risk":5,"migraine_risk":4,"frizz_risk":1,"updated_at":"2026-04-15T19:14:30.383106+05:30"},{"city":"Bangalore","state":"Karnataka","latitude":12.9716,"longitude":77.5946,"temp":33.0,"humidity":25,"rain":0.0,"pressure":910.3,"uv_index":9.6,"wind_gusts":28.1,"aqi":162,"pm10":34.7,"pm2_5":29.1,"mosquito_risk":0,"arthritis_risk":5,"migraine_risk":7,"frizz_risk":0,"updated_at":"2026-04-15T19:14:30.383123+05:30"},{"city":"Hyderabad","state":"Telangana","latitude":17.385,"longitude":78.4867,"temp":36.5,"humidity":24,"rain":0.0,"pressure":950.1,"uv_index":9.2,"wind_gusts":31.3,"aqi":159,"pm10":39.9,"pm2_5":33.1,"mosquito_risk":0,"arthritis_risk":5,"migraine_risk":10,"frizz_risk":0,"updated_at":"2026-04-15T19:14:30.383133+05:30"},{"city":"Chennai","state":"Tamil Nadu","latitude":13.0827,"longitude":80.2707,"temp":29.9,"humidity":78,"rain":0.0,"pressure":1005.1,"uv_index":9.35,"wind_gusts":32.8,"aqi":40,"pm10":11.1,"pm2_5":8.1,"mosquito_risk":7,"arthritis_risk":5,"migraine_risk":4,"frizz_risk":1,"updated_at":"2026-04-15T19:14:30.383143+05:30"},{"city":"Kolkata","state":"West Bengal","latitude":22.5726,"longitude":88.3639,"temp":29.7,"humidity":78,"rain":0.0,"pressure":1003.2,"uv_index":8.85,"wind_gusts":27.7,"aqi":88,"pm10":35.9,"pm2_5":30.9,"mosquito_risk":7,"arthritis_risk":5,"migraine_risk":4,"frizz_risk":1,"updated_at":"2026-04-15T19:14:30.383153+05:30"},{"city":"Pune","state":"Maharashtra","latitude":18.5204,"longitude":73.8567,"temp":32.6,"humidity":22,"rain":0.0,"pressure":946.6,"uv_index":8.6,"wind_gusts":44.6,"aqi":138,"pm10":22.5,"pm2_5":15.9,"mosquito_risk":0,"arthritis_risk":5,"migraine_risk":7,"frizz_risk":0,"updated_at":"2026-04-15T19:14:30.383164+05:30"},{"city":"Ahmedabad","state":"Gujarat","latitude":23.0225,"longitude":72.5714,"temp":37.3,"humidity":26,"rain":0.0,"pressure":997.4,"uv_index":8.15,"wind_gusts":21.2,"aqi":103,"pm10":109.2,"pm2_5":30.4,"mosquito_risk":0,"arthritis_risk":5,"migraine_risk":10,"frizz_risk":0,"updated_at":"2026-04-15T19:14:30.383172+05:30"},{"city":"Jaipur","state":"Rajasthan","latitude":26.9124,"longitude":75.7873,"temp":35.5,"humidity":13,"rain":0.0,"pressure":956.3,"uv_index":7.95,"wind_gusts":32.4,"aqi":178,"pm10":231.9,"pm2_5":34.9,"mosquito_risk":0,"arthritis_risk":5,"migraine_risk":10,"frizz_risk":0,"updated_at":"2026-04-15T19:14:30.383179+05:30"},{"city":"Lucknow","state":"Uttar Pradesh","latitude":26.8467,"longitude":80.9462,"temp":33.1,"humidity":27,"rain":0.0,"pressure":988.8,"uv_index":7.75,"wind_gusts":25.9,"aqi":152,"pm10":102.4,"pm2_5":25.0,"mosquito_risk":0,"arthritis_risk":5,"migraine_risk":7,"frizz_risk":0,"updated_at":"2026-04-15T19:14:30.383188+05:30"},{"city":"Kanpur","state":"Uttar Pradesh","latitude":26.4499,"longitude":80.3319,"temp":32.5,"humidity":41,"rain":0.0,"pressure":987.2,"uv_index":7.8,"wind_gusts":21.2,"aqi":167,"pm10":373.5,"pm2_5":48.0,"mosquito_risk":0,"arthritis_risk":5,"migraine_risk":7,"frizz_risk":1,"updated_at":"2026-04-15T19:14:30.383196+05:30"},{"city":"Chandigarh","state":"Chandigarh","latitude":30.7333,"longitude":76.7794,"temp":29.5,"humidity":28,"rain":0.0,"pressure":964.8,"uv_index":7.25,"wind_gusts":31.0,"aqi":169,"pm10":12.8,"pm2_5":10.6,"mosquito_risk":4,"arthritis_risk":5,"migraine_risk":7,"frizz_risk":0,"updated_at":"2026-04-15T19:14:30.383204+05:30"},{"city":"Srinagar","state":"Jammu and Kashmir","latitude":34.0837,"longitude":74.7973,"temp":19.6,"humidity":37,"rain":0.0,"pressure":839.3,"uv_index":7.75,"wind_gusts":17.3,"aqi":130,"pm10":30.9,"pm2_5":18.7,"mosquito_risk":0,"arthritis_risk":5,"migraine_risk":7,"frizz_risk":0,"updated_at":"2026-04-15T19:14:30.383211+05:30"},{"city":"Jammu","state":"Jammu and Kashmir","latitude":32.7266,"longitude":74.857,"temp":29.8,"humidity":37,"rain":0.0,"pressure":968.9,"uv_index":7.95,"wind_gusts":35.6,"aqi":159,"pm10":22.5,"pm2_5":17.7,"mosquito_risk":4,"arthritis_risk":5,"migraine_risk":7,"frizz_risk":0,"updated_at":"2026-04-15T19:14:30.383218+05:30"},{"city":"Amritsar","state":"Punjab","latitude":31.634,"longitude":74.8723,"temp":29.6,"humidity":43,"rain":0.0,"pressure":977.0,"uv_index":7.65,"wind_gusts":30.2,"aqi":153,"pm10":16.8,"pm2_5":9.4,"mosquito_risk":4,"arthritis_risk":5,"migraine_risk":7,"frizz_risk":0,"updated_at":"2026-04-15T19:14:30.383225+05:30"},{"city":"Ludhiana","state":"Punjab","latitude":30.901,"longitude":75.8573,"temp":32.0,"humidity":26,"rain":0.0,"pressure":974.9,"uv_index":7.35,"wind_gusts":30.2,"aqi":149,"pm10":32.2,"pm2_5":15.7,"mosquito_risk":0,"arthritis_risk":5,"migraine_risk":7,"frizz_risk":0,"updated_at":"2026-04-15T19:14:30.383231+05:30"},{"city":"Jalandhar","state":"Punjab","latitude":31.326,"longitude":75.5762,"temp":30.1,"humidity":35,"rain":0.0,"pressure":976.2,"uv_index":7.5,"wind_gusts":29.2,"aqi":154,"pm10":31.3,"pm2_5":12.9,"mosquito_risk":0,"arthritis_risk":5,"migraine_risk":7,"frizz_risk":0,"updated_at":"2026-04-15T19:14:30.383240+05:30"},{"city":"Dehradun","state":"Uttarakhand","latitude":30.6284,"longitude":78.0322,"temp":19.4,"humidity":44,"rain":0.0,"pressure":828.6,"uv_index":7.65,"wind_gusts":27.7,"aqi":149,"pm10":10.0,"pm2_5":8.3,"mosquito_risk":0,"arthritis_risk":5,"migraine_risk":7,"frizz_risk":0,"updated_at":"2026-04-15T19:14:30.383247+05:30"},{"city":"Shimla","state":"Himachal Pradesh","latitude":31.1048,"longitude":77.1734,"temp":17.4,"humidity":40,"rain":0.0,"pressure":783.9,"uv_index":7.75,"wind_gusts":49.0,"aqi":151,"pm10":11.9,"pm2_5":7.2,"mosquito_risk":0,"arthritis_risk":5,"migraine_risk":7,"frizz_risk":0,"updated_at":"2026-04-15T19:14:30.383253+05:30"},{"city":"Manali","state":"Himachal Pradesh","latitude":32.2396,"longitude":77.1887,"temp":19.0,"humidity":62,"rain":0.0,"pressure":820.6,"uv_index":9.7,"wind_gusts":32.0,"aqi":162,"pm10":17.3,"pm2_5":8.1,"mosquito_risk":3,"arthritis_risk":5,"migraine_risk":7,"frizz_risk":0,"updated_at":"2026-04-15T19:14:30.383261+05:30"},{"city":"Gurgaon","state":"Haryana","latitude":28.4595,"longitude":77.0266,"temp":33.5,"humidity":28,"rain":0.0,"pressure":977.2,"uv_index":7.4,"wind_gusts":29.5,"aqi":665,"pm10":1117.6,"pm2_5":121.5,"mosquito_risk":0,"arthritis_risk":5,"migraine_risk":7,"frizz_risk":0,"updated_at":"2026-04-15T19:14:30.383268+05:30"},{"city":"Noida","state":"Uttar Pradesh","latitude":28.5355,"longitude":77.391,"temp":34.3,"humidity":23,"rain":0.0,"pressure":980.3,"uv_index":7.3,"wind_gusts":27.4,"aqi":665,"pm10":1117.6,"pm2_5":121.5,"mosquito_risk":0,"arthritis_risk":5,"migraine_risk":7,"frizz_risk":0,"updated_at":"2026-04-15T19:14:30.383275+05:30"},{"city":"Ghaziabad","state":"Uttar Pradesh","latitude":28.6692,"longitude":77.4538,"temp":33.1,"humidity":26,"rain":0.0,"pressure":978.5,"uv_index":7.3,"wind_gusts":27.7,"aqi":152,"pm10":408.9,"pm2_5":57.2,"mosquito_risk":0,"arthritis_risk":5,"migraine_risk":7,"frizz_risk":0,"updated_at":"2026-04-15T19:14:30.383281+05:30"},{"city":"Faridabad","state":"Haryana","latitude":28.4089,"longitude":77.3178,"temp":34.0,"humidity":24,"rain":0.0,"pressure":979.6,"uv_index":7.35,"wind_gusts":27.4,"aqi":665,"pm10":1117.6,"pm2_5":121.5,"mosquito_risk":0,"arthritis_risk":5,"migraine_risk":7,"frizz_risk":0,"updated_at":"2026-04-15T19:14:30.383288+05:30"},{"city":"Meerut","state":"Uttar Pradesh","latitude":28.9845,"longitude":77.7064,"temp":31.3,"humidity":27,"rain":0.0,"pressure":977.3,"uv_index":7.2,"wind_gusts":32.0,"aqi":152,"pm10":408.9,"pm2_5":57.2,"mosquito_risk":0,"arthritis_risk":5,"migraine_risk":7,"frizz_risk":0,"updated_at":"2026-04-15T19:14:30.383294+05:30"},{"city":"Agra","state":"Uttar Pradesh","latitude":27.1767,"longitude":78.0081,"temp":32.8,"humidity":22,"rain":0.0,"pressure":983.7,"uv_index":7.65,"wind_gusts":29.9,"aqi":329,"pm10":577.4,"pm2_5":74.0,"mosquito_risk":0,"arthritis_risk":5,"migraine_risk":7,"frizz_risk":0,"updated_at":"2026-04-15T19:14:30.383301+05:30"},{"city":"Varanasi","state":"Uttar Pradesh","latitude":25.3176,"longitude":82.9739,"temp":34.2,"humidity":27,"rain":0.0,"pressure":992.5,"uv_index":8.35,"wind_gusts":19.4,"aqi":153,"pm10":42.1,"pm2_5":21.4,"mosquito_risk":0,"arthritis_risk":5,"migraine_risk":7,"frizz_risk":0,"updated_at":"2026-04-15T19:14:30.383315+05:30"},{"city":"Prayagraj","state":"Uttar Pradesh","latitude":25.4358,"longitude":81.8463,"temp":33.4,"humidity":29,"rain":0.0,"pressure":990.9,"uv_index":8.25,"wind_gusts":20.5,"aqi":162,"pm10":47.5,"pm2_5":17.9,"mosquito_risk":0,"arthritis_risk":5,"migraine_risk":7,"frizz_risk":0,"updated_at":"2026-04-15T19:14:30.383325+05:30"},{"city":"Gorakhpur","state":"Uttar Pradesh","latitude":26.7606,"longitude":83.3732,"temp":32.8,"humidity":24,"rain":0.0,"pressure":992.2,"uv_index":8.2,"wind_gusts":25.9,"aqi":157,"pm10":74.7,"pm2_5":21.1,"mosquito_risk":0,"arthritis_risk":5,"migraine_risk":7,"frizz_risk":0,"updated_at":"2026-04-15T19:14:30.383331+05:30"},{"city":"Bareilly","state":"Uttar Pradesh","latitude":28.367,"longitude":79.4304,"temp":31.2,"humidity":27,"rain":0.0,"pressure":982.4,"uv_index":7.55,"wind_gusts":31.3,"aqi":151,"pm10":12.2,"pm2_5":11.1,"mosquito_risk":0,"arthritis_risk":5,"migraine_risk":7,"frizz_risk":0,"updated_at":"2026-04-15T19:14:30.383338+05:30"},{"city":"Aligarh","state":"Uttar Pradesh","latitude":27.8974,"longitude":78.088,"temp":32.6,"humidity":22,"rain":0.0,"pressure":981.6,"uv_index":7.45,"wind_gusts":33.8,"aqi":218,"pm10":691.0,"pm2_5":84.3,"mosquito_risk":0,"arthritis_risk":5,"migraine_risk":7,"frizz_risk":0,"updated_at":"2026-04-15T19:14:30.383345+05:30"},{"city":"Moradabad","state":"Uttar Pradesh","latitude":28.8386,"longitude":78.7733,"temp":30.8,"humidity":25,"rain":0.0,"pressure":979.4,"uv_index":7.4,"wind_gusts":31.3,"aqi":152,"pm10":71.0,"pm2_5":22.8,"mosquito_risk":0,"arthritis_risk":5,"migraine_risk":7,"frizz_risk":0,"updated_at":"2026-04-15T19:14:30.383353+05:30"},{"city":"Saharanpur","state":"Uttar Pradesh","latitude":29.9637,"longitude":77.546,"temp":29.7,"humidity":32,"rain":0.0,"pressure":971.5,"uv_index":7.0,"wind_gusts":33.1,"aqi":172,"pm10":60.3,"pm2_5":19.2,"mosquito_risk":4,"arthritis_risk":5,"migraine_risk":7,"frizz_risk":0,"updated_at":"2026-04-15T19:14:30.383360+05:30"},{"city":"Jhansi","state":"Uttar Pradesh","latitude":25.4484,"longitude":78.5685,"temp":35.0,"humidity":23,"rain":0.0,"pressure":973.5,"uv_index":8.2,"wind_gusts":34.2,"aqi":151,"pm10":44.9,"pm2_5":15.8,"mosquito_risk":0,"arthritis_risk":5,"migraine_risk":7,"frizz_risk":0,"updated_at":"2026-04-15T19:14:33.603393+05:30"},{"city":"Surat","state":"Gujarat","latitude":21.1702,"longitude":72.8311,"temp":29.2,"humidity":72,"rain":0.0,"pressure":1003.5,"uv_index":7.8,"wind_gusts":31.0,"aqi":103,"pm10":57.6,"pm2_5":31.9,"mosquito_risk":7,"arthritis_risk":5,"migraine_risk":4,"frizz_risk":1,"updated_at":"2026-04-15T19:14:33.603427+05:30"},{"city":"Vadodara","state":"Gujarat","latitude":22.3072,"longitude":73.1812,"temp":35.7,"humidity":25,"rain":0.0,"pressure":999.9,"uv_index":8.1,"wind_gusts":28.8,"aqi":125,"pm10":91.7,"pm2_5":35.2,"mosquito_risk":0,"arthritis_risk":5,"migraine_risk":10,"frizz_risk":0,"updated_at":"2026-04-15T19:14:33.603438+05:30"},{"city":"Rajkot","state":"Gujarat","latitude":22.3039,"longitude":70.8022,"temp":32.9,"humidity":39,"rain":0.0,"pressure":990.8,"uv_index":7.85,"wind_gusts":31.3,"aqi":110,"pm10":47.5,"pm2_5":17.5,"mosquito_risk":0,"arthritis_risk":5,"migraine_risk":7,"frizz_risk":1,"updated_at":"2026-04-15T19:14:33.603446+05:30"},{"city":"Thane","state":"Maharashtra","latitude":19.2183,"longitude":72.9781,"temp":29.6,"humidity":65,"rain":0.0,"pressure":1005.3,"uv_index":8.0,"wind_gusts":32.8,"aqi":130,"pm10":34.9,"pm2_5":21.9,"mosquito_risk":7,"arthritis_risk":5,"migraine_risk":4,"frizz_risk":1,"updated_at":"2026-04-15T19:14:33.603454+05:30"},{"city":"Nagpur","state":"Maharashtra","latitude":21.1458,"longitude":79.0882,"temp":32.9,"humidity":28,"rain":0.0,"pressure":968.5,"uv_index":8.85,"wind_gusts":35.6,"aqi":129,"pm10":10.9,"pm2_5":8.8,"mosquito_risk":0,"arthritis_risk":5,"migraine_risk":7,"frizz_risk":0,"updated_at":"2026-04-15T19:14:33.603462+05:30"},{"city":"Nashik","state":"Maharashtra","latitude":19.9975,"longitude":73.7898,"temp":31.1,"humidity":30,"rain":0.0,"pressure":943.8,"uv_index":8.3,"wind_gusts":38.9,"aqi":74,"pm10":25.0,"pm2_5":9.6,"mosquito_risk":0,"arthritis_risk":5,"migraine_risk":7,"frizz_risk":0,"updated_at":"2026-04-15T19:14:33.603469+05:30"},{"city":"Aurangabad","state":"Maharashtra","latitude":19.8762,"longitude":75.3433,"temp":35.6,"humidity":14,"rain":0.0,"pressure":941.2,"uv_index":8.95,"wind_gusts":38.9,"aqi":102,"pm10":9.7,"pm2_5":5.4,"mosquito_risk":0,"arthritis_risk":5,"migraine_risk":10,"frizz_risk":0,"updated_at":"2026-04-15T19:14:33.603476+05:30"},{"city":"Solapur","state":"Maharashtra","latitude":17.6599,"longitude":75.9064,"temp":37.2,"humidity":17,"rain":0.0,"pressure":953.7,"uv_index":9.05,"wind_gusts":28.8,"aqi":162,"pm10":24.2,"pm2_5":18.3,"mosquito_risk":0,"arthritis_risk":5,"migraine_risk":10,"frizz_risk":0,"updated_at":"2026-04-15T19:14:33.603484+05:30"},{"city":"Kolhapur","state":"Maharashtra","latitude":16.705,"longitude":74.2433,"temp":28.4,"humidity":58,"rain":0.0,"pressure":945.8,"uv_index":9.0,"wind_gusts":45.0,"aqi":131,"pm10":28.2,"pm2_5":19.6,"mosquito_risk":4,"arthritis_risk":5,"migraine_risk":7,"frizz_risk":1,"updated_at":"2026-04-15T19:14:33.603508+05:30"},{"city":"Goa","state":"Goa","latitude":15.2993,"longitude":74.124,"temp":29.5,"humidity":74,"rain":0.0,"pressure":996.1,"uv_index":9.0,"wind_gusts":31.3,"aqi":85,"pm10":52.7,"pm2_5":18.6,"mosquito_risk":7,"arthritis_risk":5,"migraine_risk":7,"frizz_risk":1,"updated_at":"2026-04-15T19:14:33.603515+05:30"},{"city":"Jodhpur","state":"Rajasthan","latitude":26.2389,"longitude":73.0243,"temp":35.3,"humidity":22,"rain":0.0,"pressure":978.8,"uv_index":8.15,"wind_gusts":24.5,"aqi":95,"pm10":57.9,"pm2_5":14.6,"mosquito_risk":0,"arthritis_risk":5,"migraine_risk":10,"frizz_risk":0,"updated_at":"2026-04-15T19:14:33.603523+05:30"},{"city":"Udaipur","state":"Rajasthan","latitude":24.5854,"longitude":73.7125,"temp":33.6,"humidity":20,"rain":0.0,"pressure":943.8,"uv_index":8.7,"wind_gusts":26.6,"aqi":76,"pm10":85.7,"pm2_5":20.3,"mosquito_risk":0,"arthritis_risk":5,"migraine_risk":7,"frizz_risk":0,"updated_at":"2026-04-15T19:14:33.603530+05:30"},{"city":"Kota","state":"Rajasthan","latitude":25.2138,"longitude":75.8648,"temp":36.3,"humidity":20,"rain":0.0,"pressure":974.3,"uv_index":8.2,"wind_gusts":23.4,"aqi":107,"pm10":39.8,"pm2_5":14.9,"mosquito_risk":0,"arthritis_risk":5,"migraine_risk":10,"frizz_risk":0,"updated_at":"2026-04-15T19:14:33.603537+05:30"},{"city":"Bikaner","state":"Rajasthan","latitude":28.0229,"longitude":73.3119,"temp":36.8,"humidity":16,"rain":0.0,"pressure":978.0,"uv_index":8.0,"wind_gusts":14.8,"aqi":126,"pm10":63.6,"pm2_5":13.3,"mosquito_risk":0,"arthritis_risk":5,"migraine_risk":10,"frizz_risk":0,"updated_at":"2026-04-15T19:14:33.603545+05:30"},{"city":"Ajmer","state":"Rajasthan","latitude":26.4499,"longitude":74.6399,"temp":34.4,"humidity":19,"rain":0.0,"pressure":951.3,"uv_index":8.15,"wind_gusts":26.6,"aqi":122,"pm10":83.6,"pm2_5":18.4,"mosquito_risk":0,"arthritis_risk":5,"migraine_risk":7,"frizz_risk":0,"updated_at":"2026-04-15T19:14:33.603552+05:30"},{"city":"Gwalior","state":"Madhya Pradesh","latitude":26.2183,"longitude":78.1828,"temp":34.0,"humidity":33,"rain":0.0,"pressure":979.3,"uv_index":7.9,"wind_gusts":31.3,"aqi":153,"pm10":111.1,"pm2_5":25.5,"mosquito_risk":0,"arthritis_risk":5,"migraine_risk":7,"frizz_risk":0,"updated_at":"2026-04-15T19:14:33.603559+05:30"},{"city":"Indore","state":"Madhya Pradesh","latitude":22.7196,"longitude":75.8577,"temp":32.6,"humidity":28,"rain":0.0,"pressure":945.1,"uv_index":8.55,"wind_gusts":32.0,"aqi":99,"pm10":48.0,"pm2_5":20.3,"mosquito_risk":0,"arthritis_risk":5,"migraine_risk":7,"frizz_risk":0,"updated_at":"2026-04-15T19:14:33.603565+05:30"},{"city":"Bhopal","state":"Madhya Pradesh","latitude":23.2599,"longitude":77.4126,"temp":35.1,"humidity":22,"rain":0.0,"pressure":950.0,"uv_index":8.55,"wind_gusts":31.3,"aqi":86,"pm10":39.1,"pm2_5":16.4,"mosquito_risk":0,"arthritis_risk":5,"migraine_risk":10,"frizz_risk":0,"updated_at":"2026-04-15T19:14:33.603572+05:30"},{"city":"Jabalpur","state":"Madhya Pradesh","latitude":23.1815,"longitude":79.9864,"temp":31.9,"humidity":23,"rain":0.0,"pressure":957.2,"uv_index":8.7,"wind_gusts":34.9,"aqi":93,"pm10":13.7,"pm2_5":8.6,"mosquito_risk":0,"arthritis_risk":5,"migraine_risk":7,"frizz_risk":0,"updated_at":"2026-04-15T19:14:33.603578+05:30"},{"city":"Ujjain","state":"Madhya Pradesh","latitude":23.1765,"longitude":75.7885,"temp":33.0,"humidity":34,"rain":0.0,"pressure":950.8,"uv_index":8.45,"wind_gusts":29.5,"aqi":89,"pm10":64.5,"pm2_5":25.7,"mosquito_risk":0,"arthritis_risk":5,"migraine_risk":7,"frizz_risk":0,"updated_at":"2026-04-15T19:14:33.603585+05:30"},{"city":"Visakhapatnam","state":"Andhra Pradesh","latitude":17.6868,"longitude":83.2185,"temp":28.7,"humidity":78,"rain":0.0,"pressure":1001.5,"uv_index":9.15,"wind_gusts":41.4,"aqi":62,"pm10":15.8,"pm2_5":12.0,"mosquito_risk":7,"arthritis_risk":5,"migraine_risk":4,"frizz_risk":1,"updated_at":"2026-04-15T19:14:33.603592+05:30"},{"city":"Vijayawada","state":"Andhra Pradesh","latitude":16.5062,"longitude":80.648,"temp":32.9,"humidity":46,"rain":0.0,"pressure":999.4,"uv_index":9.2,"wind_gusts":31.7,"aqi":53,"pm10":20.8,"pm2_5":18.6,"mosquito_risk":0,"arthritis_risk":5,"migraine_risk":7,"frizz_risk":1,"updated_at":"2026-04-15T19:14:33.603599+05:30"},{"city":"Guntur","state":"Andhra Pradesh","latitude":16.3067,"longitude":80.4365,"temp":31.1,"humidity":58,"rain":0.0,"pressure":1000.8,"uv_index":9.2,"wind_gusts":31.0,"aqi":86,"pm10":25.7,"pm2_5":23.1,"mosquito_risk":0,"arthritis_risk":5,"migraine_risk":4,"frizz_risk":1,"updated_at":"2026-04-15T19:14:33.603605+05:30"},{"city":"Nellore","state":"Andhra Pradesh","latitude":14.4426,"longitude":79.9865,"temp":30.1,"humidity":72,"rain":0.0,"pressure":1003.1,"uv_index":9.3,"wind_gusts":36.4,"aqi":87,"pm10":17.9,"pm2_5":14.3,"mosquito_risk":3,"arthritis_risk":5,"migraine_risk":4,"frizz_risk":1,"updated_at":"2026-04-15T19:14:33.603613+05:30"},{"city":"Kurnool","state":"Andhra Pradesh","latitude":15.8281,"longitude":78.0373,"temp":38.5,"humidity":24,"rain":0.0,"pressure":972.9,"uv_index":9.2,"wind_gusts":24.5,"aqi":163,"pm10":38.5,"pm2_5":30.2,"mosquito_risk":0,"arthritis_risk":5,"migraine_risk":10,"frizz_risk":0,"updated_at":"2026-04-15T19:14:33.603620+05:30"},{"city":"Kakinada","state":"Andhra Pradesh","latitude":16.9891,"longitude":82.2475,"temp":30.4,"humidity":66,"rain":0.0,"pressure":1005.3,"uv_index":9.15,"wind_gusts":34.6,"aqi":48,"pm10":12.0,"pm2_5":7.9,"mosquito_risk":3,"arthritis_risk":5,"migraine_risk":4,"frizz_risk":1,"updated_at":"2026-04-15T19:14:33.603627+05:30"},{"city":"Tirupati","state":"Andhra Pradesh","latitude":13.6288,"longitude":79.4192,"temp":34.0,"humidity":38,"rain":0.0,"pressure":989.1,"uv_index":9.4,"wind_gusts":32.0,"aqi":106,"pm10":25.8,"pm2_5":23.1,"mosquito_risk":0,"arthritis_risk":5,"migraine_risk":7,"frizz_risk":1,"updated_at":"2026-04-15T19:14:33.603634+05:30"},{"city":"Warangal","state":"Telangana","latitude":17.9689,"longitude":79.5941,"temp":35.8,"humidity":39,"rain":0.0,"pressure":975.1,"uv_index":9.1,"wind_gusts":29.2,"aqi":134,"pm10":43.7,"pm2_5":37.1,"mosquito_risk":0,"arthritis_risk":5,"migraine_risk":10,"frizz_risk":1,"updated_at":"2026-04-15T19:14:33.603641+05:30"},{"city":"Nizamabad","state":"Telangana","latitude":18.6725,"longitude":78.0941,"temp":35.7,"humidity":22,"rain":0.0,"pressure":961.4,"uv_index":9.05,"wind_gusts":26.6,"aqi":120,"pm10":26.4,"pm2_5":20.4,"mosquito_risk":0,"arthritis_risk":5,"migraine_risk":10,"frizz_risk":0,"updated_at":"2026-04-15T19:14:33.603647+05:30"},{"city":"Mysore","state":"Karnataka","latitude":12.2958,"longitude":76.6396,"temp":31.6,"humidity":42,"rain":0.0,"pressure":926.8,"uv_index":9.5,"wind_gusts":46.4,"aqi":145,"pm10":36.3,"pm2_5":29.5,"mosquito_risk":0,"arthritis_risk":5,"migraine_risk":7,"frizz_risk":1,"updated_at":"2026-04-15T19:14:33.603654+05:30"},{"city":"Mangalore","state":"Karnataka","latitude":12.9141,"longitude":74.856,"temp":30.3,"humidity":78,"rain":0.0,"pressure":1004.7,"uv_index":9.1,"wind_gusts":24.1,"aqi":66,"pm10":31.0,"pm2_5":19.0,"mosquito_risk":3,"arthritis_risk":5,"migraine_risk":4,"frizz_risk":1,"updated_at":"2026-04-15T19:14:33.603661+05:30"},{"city":"Hubli-Dharwad","state":"Karnataka","latitude":15.3647,"longitude":75.124,"temp":28.6,"humidity":69,"rain":0.0,"pressure":939.0,"uv_index":9.2,"wind_gusts":47.5,"aqi":146,"pm10":33.8,"pm2_5":26.3,"mosquito_risk":7,"arthritis_risk":5,"migraine_risk":7,"frizz_risk":1,"updated_at":"2026-04-15T19:14:33.603668+05:30"},{"city":"Belgaum","state":"Karnataka","latitude":15.8497,"longitude":74.4977,"temp":26.4,"humidity":76,"rain":0.0,"pressure":924.0,"uv_index":9.2,"wind_gusts":39.6,"aqi":133,"pm10":33.1,"pm2_5":17.2,"mosquito_risk":7,"arthritis_risk":5,"migraine_risk":7,"frizz_risk":1,"updated_at":"2026-04-15T19:14:36.826830+05:30"},{"city":"Coimbatore","state":"Tamil Nadu","latitude":11.0168,"longitude":76.9558,"temp":28.7,"humidity":73,"rain":0.0,"pressure":959.7,"uv_index":9.45,"wind_gusts":52.2,"aqi":146,"pm10":30.4,"pm2_5":24.6,"mosquito_risk":7,"arthritis_risk":5,"migraine_risk":7,"frizz_risk":1,"updated_at":"2026-04-15T19:14:36.826865+05:30"},{"city":"Madurai","state":"Tamil Nadu","latitude":9.9252,"longitude":78.1198,"temp":33.5,"humidity":48,"rain":0.0,"pressure":990.3,"uv_index":9.35,"wind_gusts":40.7,"aqi":101,"pm10":15.4,"pm2_5":12.5,"mosquito_risk":0,"arthritis_risk":5,"migraine_risk":7,"frizz_risk":1,"updated_at":"2026-04-15T19:14:36.826875+05:30"},{"city":"Trichy","state":"Tamil Nadu","latitude":10.7905,"longitude":78.7047,"temp":33.5,"humidity":50,"rain":0.0,"pressure":996.7,"uv_index":9.4,"wind_gusts":22.0,"aqi":69,"pm10":16.8,"pm2_5":14.9,"mosquito_risk":0,"arthritis_risk":5,"migraine_risk":7,"frizz_risk":1,"updated_at":"2026-04-15T19:14:36.826884+05:30"},{"city":"Salem","state":"Tamil Nadu","latitude":11.6643,"longitude":78.146,"temp":35.4,"humidity":32,"rain":0.0,"pressure":974.6,"uv_index":9.45,"wind_gusts":19.1,"aqi":112,"pm10":29.6,"pm2_5":22.9,"mosquito_risk":0,"arthritis_risk":5,"migraine_risk":10,"frizz_risk":1,"updated_at":"2026-04-15T19:14:36.826893+05:30"},{"city":"Tirunelveli","state":"Tamil Nadu","latitude":8.7139,"longitude":77.7567,"temp":32.6,"humidity":54,"rain":0.0,"pressure":1000.4,"uv_index":9.3,"wind_gusts":50.4,"aqi":82,"pm10":21.0,"pm2_5":17.4,"mosquito_risk":0,"arthritis_risk":5,"migraine_risk":4,"frizz_risk":1,"updated_at":"2026-04-15T19:14:36.826901+05:30"},{"city":"Vellore","state":"Tamil Nadu","latitude":12.9165,"longitude":79.1325,"temp":33.1,"humidity":41,"rain":0.0,"pressure":982.2,"uv_index":9.45,"wind_gusts":29.5,"aqi":104,"pm10":27.2,"pm2_5":24.8,"mosquito_risk":0,"arthritis_risk":5,"migraine_risk":7,"frizz_risk":1,"updated_at":"2026-04-15T19:14:36.826908+05:30"},{"city":"Erode","state":"Tamil Nadu","latitude":11.341,"longitude":77.7172,"temp":36.5,"humidity":24,"rain":0.0,"pressure":985.6,"uv_index":9.4,"wind_gusts":25.9,"aqi":133,"pm10":23.1,"pm2_5":17.9,"mosquito_risk":0,"arthritis_risk":5,"migraine_risk":10,"frizz_risk":0,"updated_at":"2026-04-15T19:14:36.826915+05:30"},{"city":"Kochi","state":"Kerala","latitude":9.9312,"longitude":76.2673,"temp":30.2,"humidity":79,"rain":0.0,"pressure":1006.5,"uv_index":9.2,"wind_gusts":32.4,"aqi":93,"pm10":30.5,"pm2_5":22.7,"mosquito_risk":3,"arthritis_risk":5,"migraine_risk":4,"frizz_risk":1,"updated_at":"2026-04-15T19:14:36.826922+05:30"},{"city":"Thiruvananthapuram","state":"Kerala","latitude":8.5241,"longitude":76.9366,"temp":29.6,"humidity":80,"rain":0.0,"pressure":1006.3,"uv_index":9.15,"wind_gusts":34.9,"aqi":70,"pm10":27.9,"pm2_5":17.8,"mosquito_risk":7,"arthritis_risk":5,"migraine_risk":4,"frizz_risk":1,"updated_at":"2026-04-15T19:14:36.826929+05:30"},{"city":"Kozhikode","state":"Kerala","latitude":11.2588,"longitude":75.7804,"temp":30.6,"humidity":78,"rain":0.0,"pressure":1005.8,"uv_index":9.1,"wind_gusts":31.3,"aqi":71,"pm10":32.2,"pm2_5":19.4,"mosquito_risk":3,"arthritis_risk":5,"migraine_risk":4,"frizz_risk":1,"updated_at":"2026-04-15T19:14:36.826935+05:30"},{"city":"Thrissur","state":"Kerala","latitude":10.5276,"longitude":76.2144,"temp":30.3,"humidity":77,"rain":0.0,"pressure":1005.1,"uv_index":9.2,"wind_gusts":36.0,"aqi":94,"pm10":27.2,"pm2_5":20.6,"mosquito_risk":3,"arthritis_risk":5,"migraine_risk":4,"frizz_risk":1,"updated_at":"2026-04-15T19:14:36.826942+05:30"},{"city":"Kannur","state":"Kerala","latitude":11.8745,"longitude":75.3704,"temp":30.6,"humidity":74,"rain":0.0,"pressure":1005.3,"uv_index":9.15,"wind_gusts":31.7,"aqi":68,"pm10":32.4,"pm2_5":21.0,"mosquito_risk":3,"arthritis_risk":5,"migraine_risk":4,"frizz_risk":1,"updated_at":"2026-04-15T19:14:36.826950+05:30"},{"city":"Patna","state":"Bihar","latitude":25.5941,"longitude":85.1376,"temp":34.5,"humidity":34,"rain":0.0,"pressure":995.6,"uv_index":8.55,"wind_gusts":19.8,"aqi":187,"pm10":89.2,"pm2_5":35.2,"mosquito_risk":0,"arthritis_risk":5,"migraine_risk":7,"frizz_risk":1,"updated_at":"2026-04-15T19:14:36.826957+05:30"},{"city":"Gaya","state":"Bihar","latitude":24.7914,"longitude":85.0002,"temp":33.8,"humidity":38,"rain":0.0,"pressure":989.3,"uv_index":8.6,"wind_gusts":18.0,"aqi":148,"pm10":50.9,"pm2_5":21.6,"mosquito_risk":0,"arthritis_risk":5,"migraine_risk":7,"frizz_risk":1,"updated_at":"2026-04-15T19:14:36.826963+05:30"},{"city":"Muzaffarpur","state":"Bihar","latitude":26.1209,"longitude":85.3647,"temp":30.3,"humidity":54,"rain":0.0,"pressure":995.8,"uv_index":8.5,"wind_gusts":21.2,"aqi":195,"pm10":109.7,"pm2_5":44.8,"mosquito_risk":0,"arthritis_risk":5,"migraine_risk":7,"frizz_risk":1,"updated_at":"2026-04-15T19:14:36.826969+05:30"},{"city":"Bhagalpur","state":"Bihar","latitude":25.2425,"longitude":87.0117,"temp":29.9,"humidity":68,"rain":0.0,"pressure":997.3,"uv_index":8.5,"wind_gusts":16.2,"aqi":187,"pm10":74.0,"pm2_5":32.5,"mosquito_risk":7,"arthritis_risk":5,"migraine_risk":7,"frizz_risk":1,"updated_at":"2026-04-15T19:14:36.826975+05:30"},{"city":"Ranchi","state":"Jharkhand","latitude":23.3441,"longitude":85.3096,"temp":30.1,"humidity":34,"rain":0.0,"pressure":935.3,"uv_index":9.1,"wind_gusts":30.2,"aqi":181,"pm10":63.1,"pm2_5":35.9,"mosquito_risk":0,"arthritis_risk":5,"migraine_risk":7,"frizz_risk":0,"updated_at":"2026-04-15T19:14:36.826981+05:30"},{"city":"Jamshedpur","state":"Jharkhand","latitude":22.8046,"longitude":86.2029,"temp":32.4,"humidity":44,"rain":0.0,"pressure":986.5,"uv_index":8.95,"wind_gusts":20.9,"aqi":200,"pm10":69.8,"pm2_5":40.4,"mosquito_risk":0,"arthritis_risk":5,"migraine_risk":7,"frizz_risk":1,"updated_at":"2026-04-15T19:14:36.826987+05:30"},{"city":"Dhanbad","state":"Jharkhand","latitude":23.7957,"longitude":86.4304,"temp":34.3,"humidity":25,"rain":0.0,"pressure":976.0,"uv_index":8.9,"wind_gusts":22.7,"aqi":169,"pm10":83.6,"pm2_5":54.8,"mosquito_risk":0,"arthritis_risk":5,"migraine_risk":7,"frizz_risk":0,"updated_at":"2026-04-15T19:14:36.826993+05:30"},{"city":"Bokaro","state":"Jharkhand","latitude":23.6693,"longitude":86.1511,"temp":32.0,"humidity":38,"rain":0.0,"pressure":980.1,"uv_index":8.9,"wind_gusts":26.6,"aqi":166,"pm10":71.2,"pm2_5":45.3,"mosquito_risk":0,"arthritis_risk":5,"migraine_risk":7,"frizz_risk":0,"updated_at":"2026-04-15T19:14:36.827000+05:30"},{"city":"Bhubaneswar","state":"Odisha","latitude":20.2961,"longitude":85.8245,"temp":28.7,"humidity":78,"rain":0.0,"pressure":1000.1,"uv_index":9.1,"wind_gusts":31.7,"aqi":70,"pm10":21.2,"pm2_5":17.1,"mosquito_risk":7,"arthritis_risk":5,"migraine_risk":4,"frizz_risk":1,"updated_at":"2026-04-15T19:14:36.827006+05:30"},{"city":"Cuttack","state":"Odisha","latitude":20.4625,"longitude":85.8828,"temp":30.3,"humidity":72,"rain":0.0,"pressure":1001.9,"uv_index":9.15,"wind_gusts":25.9,"aqi":70,"pm10":21.2,"pm2_5":17.1,"mosquito_risk":3,"arthritis_risk":5,"migraine_risk":4,"frizz_risk":1,"updated_at":"2026-04-15T19:14:36.827012+05:30"},{"city":"Rourkela","state":"Odisha","latitude":22.2604,"longitude":84.8536,"temp":33.9,"humidity":40,"rain":0.0,"pressure":980.9,"uv_index":8.9,"wind_gusts":34.9,"aqi":208,"pm10":78.0,"pm2_5":52.2,"mosquito_risk":0,"arthritis_risk":5,"migraine_risk":7,"frizz_risk":1,"updated_at":"2026-04-15T19:14:36.827018+05:30"},{"city":"Raipur","state":"Chhattisgarh","latitude":21.2514,"longitude":81.6296,"temp":35.6,"humidity":22,"rain":0.0,"pressure":969.8,"uv_index":8.95,"wind_gusts":39.2,"aqi":176,"pm10":32.1,"pm2_5":27.1,"mosquito_risk":0,"arthritis_risk":5,"migraine_risk":10,"frizz_risk":0,"updated_at":"2026-04-15T19:14:36.827024+05:30"},{"city":"Bhilai","state":"Chhattisgarh","latitude":21.1938,"longitude":81.3509,"temp":33.9,"humidity":29,"rain":0.0,"pressure":970.1,"uv_index":8.95,"wind_gusts":40.7,"aqi":162,"pm10":26.5,"pm2_5":22.6,"mosquito_risk":0,"arthritis_risk":5,"migraine_risk":7,"frizz_risk":0,"updated_at":"2026-04-15T19:14:36.827030+05:30"},{"city":"Guwahati","state":"Assam","latitude":26.1158,"longitude":91.7086,"temp":24.8,"humidity":82,"rain":0.0,"pressure":1001.2,"uv_index":8.45,"wind_gusts":31.7,"aqi":131,"pm10":53.2,"pm2_5":39.3,"mosquito_risk":3,"arthritis_risk":5,"migraine_risk":4,"frizz_risk":1,"updated_at":"2026-04-15T19:14:36.827036+05:30"},{"city":"Agartala","state":"Tripura","latitude":23.8315,"longitude":91.2868,"temp":28.0,"humidity":78,"rain":0.0,"pressure":1003.9,"uv_index":8.7,"wind_gusts":24.5,"aqi":98,"pm10":65.0,"pm2_5":46.3,"mosquito_risk":7,"arthritis_risk":5,"migraine_risk":4,"frizz_risk":1,"updated_at":"2026-04-15T19:14:36.827041+05:30"},{"city":"Shillong","state":"Meghalaya","latitude":25.5788,"longitude":91.8933,"temp":15.3,"humidity":85,"rain":0.0,"pressure":855.0,"uv_index":8.6,"wind_gusts":59.4,"aqi":101,"pm10":49.4,"pm2_5":33.1,"mosquito_risk":3,"arthritis_risk":10,"migraine_risk":7,"frizz_risk":0,"updated_at":"2026-04-15T19:14:36.827048+05:30"},{"city":"Imphal","state":"Manipur","latitude":24.817,"longitude":93.9368,"temp":19.4,"humidity":82,"rain":0.0,"pressure":922.6,"uv_index":9.05,"wind_gusts":69.1,"aqi":127,"pm10":66.1,"pm2_5":42.7,"mosquito_risk":3,"arthritis_risk":10,"migraine_risk":7,"frizz_risk":1,"updated_at":"2026-04-15T19:14:36.827055+05:30"},{"city":"Aizawl","state":"Mizoram","latitude":23.7271,"longitude":92.7176,"temp":21.4,"humidity":83,"rain":0.0,"pressure":891.7,"uv_index":8.95,"wind_gusts":50.4,"aqi":120,"pm10":75.7,"pm2_5":46.0,"mosquito_risk":3,"arthritis_risk":5,"migraine_risk":7,"frizz_risk":1,"updated_at":"2026-04-15T19:14:36.827061+05:30"},{"city":"Kohima","state":"Nagaland","latitude":25.6701,"longitude":94.1077,"temp":15.7,"humidity":93,"rain":0.0,"pressure":854.3,"uv_index":8.95,"wind_gusts":73.8,"aqi":111,"pm10":53.7,"pm2_5":33.3,"mosquito_risk":3,"arthritis_risk":10,"migraine_risk":7,"frizz_risk":0,"updated_at":"2026-04-15T19:14:36.827067+05:30"},{"city":"Gangtok","state":"Sikkim","latitude":27.3314,"longitude":88.6138,"temp":16.0,"humidity":91,"rain":0.0,"pressure":836.1,"uv_index":8.1,"wind_gusts":17.6,"aqi":138,"pm10":58.4,"pm2_5":39.3,"mosquito_risk":3,"arthritis_risk":10,"migraine_risk":7,"frizz_risk":0,"updated_at":"2026-04-15T19:14:36.827073+05:30"},{"city":"Siliguri","state":"West Bengal","latitude":26.7271,"longitude":88.3953,"temp":21.9,"humidity":84,"rain":0.0,"pressure":992.4,"uv_index":8.4,"wind_gusts":27.7,"aqi":158,"pm10":102.9,"pm2_5":68.2,"mosquito_risk":3,"arthritis_risk":5,"migraine_risk":7,"frizz_risk":1,"updated_at":"2026-04-15T19:14:40.049243+05:30"},{"city":"Durgapur","state":"West Bengal","latitude":23.5204,"longitude":87.3119,"temp":33.0,"humidity":45,"rain":0.0,"pressure":991.0,"uv_index":8.8,"wind_gusts":25.9,"aqi":191,"pm10":67.1,"pm2_5":47.0,"mosquito_risk":0,"arthritis_risk":5,"migraine_risk":7,"frizz_risk":1,"updated_at":"2026-04-15T19:14:40.049278+05:30"},{"city":"Asansol","state":"West Bengal","latitude":23.6739,"longitude":86.9524,"temp":33.6,"humidity":34,"rain":0.0,"pressure":989.5,"uv_index":8.85,"wind_gusts":27.7,"aqi":182,"pm10":65.4,"pm2_5":39.9,"mosquito_risk":0,"arthritis_risk":5,"migraine_risk":7,"frizz_risk":0,"updated_at":"2026-04-15T19:14:40.049289+05:30"},{"city":"Pondicherry","state":"Puducherry","latitude":11.9139,"longitude":79.8145,"temp":29.7,"humidity":73,"rain":0.0,"pressure":1005.9,"uv_index":9.3,"wind_gusts":27.4,"aqi":71,"pm10":11.8,"pm2_5":8.8,"mosquito_risk":7,"arthritis_risk":5,"migraine_risk":4,"frizz_risk":1,"updated_at":"2026-04-15T19:14:40.049298+05:30"},{"city":"Port Blair","state":"Andaman and Nicobar Islands","latitude":11.6234,"longitude":92.7265,"temp":29.6,"humidity":69,"rain":0.0,"pressure":1006.4,"uv_index":9.2,"wind_gusts":20.9,"aqi":71,"pm10":21.9,"pm2_5":15.5,"mosquito_risk":7,"arthritis_risk":5,"migraine_risk":4,"frizz_risk":1,"updated_at":"2026-04-15T19:14:40.049306+05:30"},{"city":"Haridwar","state":"Uttarakhand","latitude":29.9457,"longitude":78.1642,"temp":28.9,"humidity":36,"rain":0.0,"pressure":970.3,"uv_index":7.05,"wind_gusts":32.0,"aqi":165,"pm10":19.6,"pm2_5":13.9,"mosquito_risk":4,"arthritis_risk":5,"migraine_risk":7,"frizz_risk":0,"updated_at":"2026-04-15T19:14:40.049313+05:30"},{"city":"Rishikesh","state":"Uttarakhand","latitude":30.0869,"longitude":78.2676,"temp":27.8,"humidity":51,"rain":0.0,"pressure":963.5,"uv_index":7.15,"wind_gusts":29.9,"aqi":158,"pm10":10.4,"pm2_5":9.6,"mosquito_risk":4,"arthritis_risk":5,"migraine_risk":7,"frizz_risk":1,"updated_at":"2026-04-15T19:14:40.049321+05:30"},{"city":"Nainital","state":"Uttarakhand","latitude":29.3919,"longitude":79.4542,"temp":22.8,"humidity":30,"rain":0.0,"pressure":805.6,"uv_index":8.05,"wind_gusts":45.7,"aqi":152,"pm10":10.0,"pm2_5":8.8,"mosquito_risk":0,"arthritis_risk":5,"migraine_risk":7,"frizz_risk":0,"updated_at":"2026-04-15T19:14:40.049329+05:30"},{"city":"Mussoorie","state":"Uttarakhand","latitude":30.4599,"longitude":78.0664,"temp":20.4,"humidity":45,"rain":0.0,"pressure":801.6,"uv_index":7.55,"wind_gusts":39.6,"aqi":163,"pm10":12.9,"pm2_5":12.2,"mosquito_risk":0,"arthritis_risk":5,"migraine_risk":7,"frizz_risk":0,"updated_at":"2026-04-15T19:14:40.049337+05:30"},{"city":"Dharamshala","state":"Himachal Pradesh","latitude":32.219,"longitude":76.3234,"temp":23.7,"humidity":47,"rain":0.0,"pressure":867.8,"uv_index":7.8,"wind_gusts":23.8,"aqi":142,"pm10":15.3,"pm2_5":10.8,"mosquito_risk":0,"arthritis_risk":5,"migraine_risk":7,"frizz_risk":0,"updated_at":"2026-04-15T19:14:40.049344+05:30"},{"city":"Dalhousie","state":"Himachal Pradesh","latitude":32.5387,"longitude":75.971,"temp":21.8,"humidity":43,"rain":0.0,"pressure":803.5,"uv_index":8.0,"wind_gusts":24.1,"aqi":166,"pm10":17.2,"pm2_5":13.3,"mosquito_risk":0,"arthritis_risk":5,"migraine_risk":7,"frizz_risk":0,"updated_at":"2026-04-15T19:14:40.049351+05:30"},{"city":"Patiala","state":"Punjab","latitude":30.3398,"longitude":76.3869,"temp":31.6,"humidity":25,"rain":0.0,"pressure":974.2,"uv_index":7.15,"wind_gusts":30.6,"aqi":167,"pm10":333.4,"pm2_5":40.3,"mosquito_risk":0,"arthritis_risk":5,"migraine_risk":7,"frizz_risk":0,"updated_at":"2026-04-15T19:14:40.049359+05:30"},{"city":"Bhatinda","state":"Punjab","latitude":30.211,"longitude":74.9455,"temp":33.3,"humidity":27,"rain":0.0,"pressure":979.7,"uv_index":7.85,"wind_gusts":36.4,"aqi":146,"pm10":34.3,"pm2_5":11.1,"mosquito_risk":0,"arthritis_risk":5,"migraine_risk":7,"frizz_risk":0,"updated_at":"2026-04-15T19:14:40.049365+05:30"},{"city":"Rohtak","state":"Haryana","latitude":28.8955,"longitude":76.6066,"temp":33.1,"humidity":24,"rain":0.0,"pressure":977.6,"uv_index":7.3,"wind_gusts":34.2,"aqi":354,"pm10":618.4,"pm2_5":74.3,"mosquito_risk":0,"arthritis_risk":5,"migraine_risk":7,"frizz_risk":0,"updated_at":"2026-04-15T19:14:40.049372+05:30"},{"city":"Panipat","state":"Haryana","latitude":29.3909,"longitude":76.9635,"temp":31.2,"humidity":27,"rain":0.0,"pressure":976.2,"uv_index":7.15,"wind_gusts":30.2,"aqi":757,"pm10":1009.6,"pm2_5":110.1,"mosquito_risk":0,"arthritis_risk":5,"migraine_risk":7,"frizz_risk":0,"updated_at":"2026-04-15T19:14:40.049379+05:30"},{"city":"Mathura","state":"Uttar Pradesh","latitude":27.4924,"longitude":77.6737,"temp":32.1,"humidity":21,"rain":0.0,"pressure":982.8,"uv_index":7.6,"wind_gusts":25.2,"aqi":320,"pm10":665.0,"pm2_5":77.5,"mosquito_risk":0,"arthritis_risk":5,"migraine_risk":7,"frizz_risk":0,"updated_at":"2026-04-15T19:14:40.049386+05:30"},{"city":"Vrindavan","state":"Uttar Pradesh","latitude":27.5823,"longitude":77.7027,"temp":32.5,"humidity":23,"rain":0.0,"pressure":983.1,"uv_index":7.6,"wind_gusts":29.2,"aqi":320,"pm10":665.0,"pm2_5":77.5,"mosquito_risk":0,"arthritis_risk":5,"migraine_risk":7,"frizz_risk":0,"updated_at":"2026-04-15T19:14:40.049393+05:30"},{"city":"Ayodhya","state":"Uttar Pradesh","latitude":26.7922,"longitude":82.1998,"temp":33.2,"humidity":21,"rain":0.0,"pressure":990.5,"uv_index":7.95,"wind_gusts":31.0,"aqi":138,"pm10":69.2,"pm2_5":20.7,"mosquito_risk":0,"arthritis_risk":5,"migraine_risk":7,"frizz_risk":0,"updated_at":"2026-04-15T19:14:40.049399+05:30"},{"city":"Ratlam","state":"Madhya Pradesh","latitude":23.3315,"longitude":75.0367,"temp":29.9,"humidity":55,"rain":0.0,"pressure":951.5,"uv_index":8.4,"wind_gusts":25.2,"aqi":86,"pm10":59.5,"pm2_5":19.7,"mosquito_risk":4,"arthritis_risk":5,"migraine_risk":7,"frizz_risk":1,"updated_at":"2026-04-15T19:14:40.049406+05:30"},{"city":"Sagar","state":"Madhya Pradesh","latitude":23.8388,"longitude":78.7378,"temp":34.4,"humidity":26,"rain":0.0,"pressure":946.4,"uv_index":8.55,"wind_gusts":28.4,"aqi":82,"pm10":29.3,"pm2_5":13.8,"mosquito_risk":0,"arthritis_risk":5,"migraine_risk":7,"frizz_risk":0,"updated_at":"2026-04-15T19:14:40.049412+05:30"},{"city":"Satna","state":"Madhya Pradesh","latitude":24.6005,"longitude":80.8322,"temp":36.2,"humidity":17,"rain":0.0,"pressure":966.4,"uv_index":8.55,"wind_gusts":30.6,"aqi":138,"pm10":13.3,"pm2_5":8.8,"mosquito_risk":0,"arthritis_risk":5,"migraine_risk":10,"frizz_risk":0,"updated_at":"2026-04-15T19:14:40.049419+05:30"},{"city":"Akola","state":"Maharashtra","latitude":20.7002,"longitude":77.0082,"temp":35.7,"humidity":16,"rain":0.0,"pressure":971.0,"uv_index":8.75,"wind_gusts":37.4,"aqi":109,"pm10":13.9,"pm2_5":10.3,"mosquito_risk":0,"arthritis_risk":5,"migraine_risk":10,"frizz_risk":0,"updated_at":"2026-04-15T19:14:40.049426+05:30"},{"city":"Amravati","state":"Maharashtra","latitude":20.9374,"longitude":77.7796,"temp":33.5,"humidity":20,"rain":0.0,"pressure":963.2,"uv_index":8.8,"wind_gusts":34.9,"aqi":108,"pm10":13.1,"pm2_5":9.9,"mosquito_risk":0,"arthritis_risk":5,"migraine_risk":7,"frizz_risk":0,"updated_at":"2026-04-15T19:14:40.049434+05:30"},{"city":"Latur","state":"Maharashtra","latitude":18.4088,"longitude":76.5604,"temp":33.2,"humidity":32,"rain":0.0,"pressure":937.2,"uv_index":9.05,"wind_gusts":25.2,"aqi":139,"pm10":24.0,"pm2_5":18.6,"mosquito_risk":0,"arthritis_risk":5,"migraine_risk":7,"frizz_risk":0,"updated_at":"2026-04-15T19:14:40.049440+05:30"},{"city":"Nanded","state":"Maharashtra","latitude":19.1383,"longitude":77.3091,"temp":34.5,"humidity":35,"rain":0.0,"pressure":965.2,"uv_index":8.95,"wind_gusts":17.3,"aqi":129,"pm10":17.3,"pm2_5":13.8,"mosquito_risk":0,"arthritis_risk":5,"migraine_risk":7,"frizz_risk":1,"updated_at":"2026-04-15T19:14:40.049447+05:30"},{"city":"Gulbarga","state":"Karnataka","latitude":17.3297,"longitude":76.8343,"temp":38.0,"humidity":19,"rain":0.0,"pressure":955.1,"uv_index":9.1,"wind_gusts":24.1,"aqi":184,"pm10":33.9,"pm2_5":27.5,"mosquito_risk":0,"arthritis_risk":5,"migraine_risk":10,"frizz_risk":0,"updated_at":"2026-04-15T19:14:40.049453+05:30"},{"city":"Bidar","state":"Karnataka","latitude":17.9104,"longitude":77.5199,"temp":35.5,"humidity":22,"rain":0.0,"pressure":932.9,"uv_index":9.1,"wind_gusts":24.1,"aqi":181,"pm10":40.0,"pm2_5":33.1,"mosquito_risk":0,"arthritis_risk":5,"migraine_risk":10,"frizz_risk":0,"updated_at":"2026-04-15T19:14:40.049459+05:30"},{"city":"Hospet","state":"Karnataka","latitude":15.2689,"longitude":76.3909,"temp":35.3,"humidity":39,"rain":0.0,"pressure":953.0,"uv_index":9.25,"wind_gusts":28.4,"aqi":153,"pm10":34.7,"pm2_5":27.3,"mosquito_risk":0,"arthritis_risk":5,"migraine_risk":10,"frizz_risk":1,"updated_at":"2026-04-15T19:14:40.049465+05:30"},{"city":"Tirupur","state":"Tamil Nadu","latitude":11.1085,"longitude":77.3411,"temp":36.2,"humidity":21,"rain":0.0,"pressure":972.4,"uv_index":9.45,"wind_gusts":36.7,"aqi":151,"pm10":28.1,"pm2_5":21.3,"mosquito_risk":0,"arthritis_risk":5,"migraine_risk":10,"frizz_risk":0,"updated_at":"2026-04-15T19:14:40.049471+05:30"},{"city":"Alappuzha","state":"Kerala","latitude":9.4981,"longitude":76.3388,"temp":30.1,"humidity":79,"rain":0.0,"pressure":1006.6,"uv_index":9.15,"wind_gusts":31.3,"aqi":92,"pm10":34.2,"pm2_5":23.6,"mosquito_risk":3,"arthritis_risk":5,"migraine_risk":4,"frizz_risk":1,"updated_at":"2026-04-15T19:14:40.049477+05:30"},{"city":"Munnar","state":"Kerala","latitude":10.0889,"longitude":77.0595,"temp":23.8,"humidity":86,"rain":0.0,"pressure":856.6,"uv_index":9.75,"wind_gusts":34.6,"aqi":94,"pm10":26.1,"pm2_5":21.0,"mosquito_risk":3,"arthritis_risk":5,"migraine_risk":7,"frizz_risk":1,"updated_at":"2026-04-15T19:14:40.049484+05:30"},{"city":"Silchar","state":"Assam","latitude":24.8333,"longitude":92.7789,"temp":26.9,"humidity":76,"rain":0.0,"pressure":1003.4,"uv_index":8.7,"wind_gusts":29.9,"aqi":142,"pm10":68.9,"pm2_5":51.8,"mosquito_risk":7,"arthritis_risk":5,"migraine_risk":4,"frizz_risk":1,"updated_at":"2026-04-15T19:14:40.049507+05:30"},{"city":"Dibrugarh","state":"Assam","latitude":27.4728,"longitude":94.912,"temp":21.6,"humidity":83,"rain":0.0,"pressure":996.7,"uv_index":7.95,"wind_gusts":31.3,"aqi":114,"pm10":106.4,"pm2_5":65.4,"mosquito_risk":3,"arthritis_risk":5,"migraine_risk":7,"frizz_risk":1,"updated_at":"2026-04-15T19:14:40.049515+05:30"}]