[{"city":"Delhi","state":"Delhi","latitude":28.6139,"longitude":77.209,"temp":34.3,"humidity":22,"rain":0.0,"pressure":979.1,"uv_index":7.4,"wind_gusts":48.6,"aqi":548,"pm10":841.9,"pm2_5":126.2,"mosquito_risk":0,"arthritis_risk":5,"migraine_risk":7,"frizz_risk":0,"updated_at":"2026-04-26T22:19:54.300402+05:30"},{"city":"Mumbai","state":"Maharashtra","latitude":19.076,"longitude":72.8777,"temp":29.1,"humidity":81,"rain":0.0,"pressure":1007.4,"uv_index":7.6,"wind_gusts":37.1,"aqi":93,"pm10":76.1,"pm2_5":34.7,"mosquito_risk":7,"arthritis_risk":5,"migraine_risk":4,"frizz_risk":1,"updated_at":"2026-04-26T22:19:54.300445+05:30"},{"city":"Bangalore","state":"Karnataka","latitude":12.9716,"longitude":77.5946,"temp":27.7,"humidity":41,"rain":0.0,"pressure":912.4,"uv_index":9.55,"wind_gusts":36.7,"aqi":143,"pm10":26.5,"pm2_5":24.0,"mosquito_risk":4,"arthritis_risk":5,"migraine_risk":7,"frizz_risk":0,"updated_at":"2026-04-26T22:19:54.300461+05:30"},{"city":"Hyderabad","state":"Telangana","latitude":17.385,"longitude":78.4867,"temp":34.0,"humidity":29,"rain":0.0,"pressure":952.7,"uv_index":9.25,"wind_gusts":33.5,"aqi":137,"pm10":74.7,"pm2_5":66.8,"mosquito_risk":0,"arthritis_risk":5,"migraine_risk":7,"frizz_risk":0,"updated_at":"2026-04-26T22:19:54.300472+05:30"},{"city":"Chennai","state":"Tamil Nadu","latitude":13.0827,"longitude":80.2707,"temp":29.0,"humidity":81,"rain":0.0,"pressure":1007.2,"uv_index":9.25,"wind_gusts":49.7,"aqi":43,"pm10":19.7,"pm2_5":13.1,"mosquito_risk":7,"arthritis_risk":5,"migraine_risk":4,"frizz_risk":1,"updated_at":"2026-04-26T22:19:54.300481+05:30"},{"city":"Kolkata","state":"West Bengal","latitude":22.5726,"longitude":88.3639,"temp":28.7,"humidity":80,"rain":0.0,"pressure":1004.0,"uv_index":8.9,"wind_gusts":40.0,"aqi":60,"pm10":21.4,"pm2_5":15.8,"mosquito_risk":7,"arthritis_risk":5,"migraine_risk":4,"frizz_risk":1,"updated_at":"2026-04-26T22:19:54.300494+05:30"},{"city":"Pune","state":"Maharashtra","latitude":18.5204,"longitude":73.8567,"temp":29.5,"humidity":59,"rain":0.0,"pressure":947.5,"uv_index":8.35,"wind_gusts":38.9,"aqi":161,"pm10":34.8,"pm2_5":24.8,"mosquito_risk":4,"arthritis_risk":5,"migraine_risk":7,"frizz_risk":1,"updated_at":"2026-04-26T22:19:54.300501+05:30"},{"city":"Ahmedabad","state":"Gujarat","latitude":23.0225,"longitude":72.5714,"temp":37.0,"humidity":14,"rain":0.0,"pressure":999.5,"uv_index":8.2,"wind_gusts":38.9,"aqi":67,"pm10":45.9,"pm2_5":22.7,"mosquito_risk":0,"arthritis_risk":5,"migraine_risk":10,"frizz_risk":0,"updated_at":"2026-04-26T22:19:54.300509+05:30"},{"city":"Jaipur","state":"Rajasthan","latitude":26.9124,"longitude":75.7873,"temp":35.0,"humidity":19,"rain":0.0,"pressure":957.4,"uv_index":8.05,"wind_gusts":41.8,"aqi":149,"pm10":158.3,"pm2_5":40.7,"mosquito_risk":0,"arthritis_risk":5,"migraine_risk":7,"frizz_risk":0,"updated_at":"2026-04-26T22:19:54.300517+05:30"},{"city":"Lucknow","state":"Uttar Pradesh","latitude":26.8467,"longitude":80.9462,"temp":34.8,"humidity":21,"rain":0.0,"pressure":989.4,"uv_index":7.9,"wind_gusts":52.6,"aqi":160,"pm10":493.6,"pm2_5":87.5,"mosquito_risk":0,"arthritis_risk":5,"migraine_risk":7,"frizz_risk":0,"updated_at":"2026-04-26T22:19:54.300525+05:30"},{"city":"Kanpur","state":"Uttar Pradesh","latitude":26.4499,"longitude":80.3319,"temp":35.5,"humidity":20,"rain":0.0,"pressure":988.0,"uv_index":7.9,"wind_gusts":54.7,"aqi":518,"pm10":787.9,"pm2_5":110.4,"mosquito_risk":0,"arthritis_risk":5,"migraine_risk":10,"frizz_risk":0,"updated_at":"2026-04-26T22:19:54.300533+05:30"},{"city":"Chandigarh","state":"Chandigarh","latitude":30.7333,"longitude":76.7794,"temp":29.7,"humidity":25,"rain":0.0,"pressure":965.0,"uv_index":7.4,"wind_gusts":45.7,"aqi":100,"pm10":23.5,"pm2_5":17.1,"mosquito_risk":4,"arthritis_risk":5,"migraine_risk":7,"frizz_risk":0,"updated_at":"2026-04-26T22:19:54.300540+05:30"},{"city":"Srinagar","state":"Jammu and Kashmir","latitude":34.0837,"longitude":74.7973,"temp":12.6,"humidity":83,"rain":0.0,"pressure":838.5,"uv_index":8.6,"wind_gusts":16.2,"aqi":78,"pm10":39.5,"pm2_5":30.0,"mosquito_risk":3,"arthritis_risk":10,"migraine_risk":7,"frizz_risk":0,"updated_at":"2026-04-26T22:19:54.300548+05:30"},{"city":"Jammu","state":"Jammu and Kashmir","latitude":32.7266,"longitude":74.857,"temp":29.5,"humidity":25,"rain":0.0,"pressure":968.5,"uv_index":8.15,"wind_gusts":33.8,"aqi":73,"pm10":45.8,"pm2_5":32.8,"mosquito_risk":4,"arthritis_risk":5,"migraine_risk":7,"frizz_risk":0,"updated_at":"2026-04-26T22:19:54.300555+05:30"},{"city":"Amritsar","state":"Punjab","latitude":31.634,"longitude":74.8723,"temp":30.5,"humidity":28,"rain":0.0,"pressure":976.6,"uv_index":8.1,"wind_gusts":36.7,"aqi":98,"pm10":29.9,"pm2_5":17.7,"mosquito_risk":0,"arthritis_risk":5,"migraine_risk":7,"frizz_risk":0,"updated_at":"2026-04-26T22:19:54.300562+05:30"},{"city":"Ludhiana","state":"Punjab","latitude":30.901,"longitude":75.8573,"temp":30.4,"humidity":29,"rain":0.0,"pressure":974.8,"uv_index":7.65,"wind_gusts":41.8,"aqi":89,"pm10":61.7,"pm2_5":25.6,"mosquito_risk":0,"arthritis_risk":5,"migraine_risk":7,"frizz_risk":0,"updated_at":"2026-04-26T22:19:54.300571+05:30"},{"city":"Jalandhar","state":"Punjab","latitude":31.326,"longitude":75.5762,"temp":31.1,"humidity":27,"rain":0.0,"pressure":975.5,"uv_index":7.85,"wind_gusts":37.4,"aqi":99,"pm10":53.4,"pm2_5":26.0,"mosquito_risk":0,"arthritis_risk":5,"migraine_risk":7,"frizz_risk":0,"updated_at":"2026-04-26T22:19:54.300577+05:30"},{"city":"Dehradun","state":"Uttarakhand","latitude":30.6284,"longitude":78.0322,"temp":15.3,"humidity":49,"rain":0.0,"pressure":826.2,"uv_index":7.8,"wind_gusts":49.0,"aqi":89,"pm10":23.3,"pm2_5":11.7,"mosquito_risk":0,"arthritis_risk":5,"migraine_risk":7,"frizz_risk":0,"updated_at":"2026-04-26T22:19:54.300584+05:30"},{"city":"Shimla","state":"Himachal Pradesh","latitude":31.1048,"longitude":77.1734,"temp":15.5,"humidity":40,"rain":0.0,"pressure":783.2,"uv_index":7.9,"wind_gusts":52.9,"aqi":90,"pm10":25.8,"pm2_5":11.7,"mosquito_risk":0,"arthritis_risk":5,"migraine_risk":7,"frizz_risk":0,"updated_at":"2026-04-26T22:19:54.300591+05:30"},{"city":"Manali","state":"Himachal Pradesh","latitude":32.2396,"longitude":77.1887,"temp":8.9,"humidity":55,"rain":0.0,"pressure":812.6,"uv_index":9.8,"wind_gusts":45.0,"aqi":117,"pm10":25.1,"pm2_5":10.8,"mosquito_risk":0,"arthritis_risk":5,"migraine_risk":7,"frizz_risk":0,"updated_at":"2026-04-26T22:19:54.300598+05:30"},{"city":"Gurgaon","state":"Haryana","latitude":28.4595,"longitude":77.0266,"temp":32.7,"humidity":23,"rain":0.0,"pressure":977.4,"uv_index":7.55,"wind_gusts":49.7,"aqi":1526,"pm10":1166.0,"pm2_5":152.3,"mosquito_risk":0,"arthritis_risk":5,"migraine_risk":7,"frizz_risk":0,"updated_at":"2026-04-26T22:19:54.300605+05:30"},{"city":"Noida","state":"Uttar Pradesh","latitude":28.5355,"longitude":77.391,"temp":34.2,"humidity":22,"rain":0.0,"pressure":980.3,"uv_index":7.45,"wind_gusts":43.9,"aqi":1526,"pm10":1166.0,"pm2_5":152.3,"mosquito_risk":0,"arthritis_risk":5,"migraine_risk":7,"frizz_risk":0,"updated_at":"2026-04-26T22:19:54.300611+05:30"},{"city":"Ghaziabad","state":"Uttar Pradesh","latitude":28.6692,"longitude":77.4538,"temp":35.2,"humidity":20,"rain":0.0,"pressure":978.6,"uv_index":7.4,"wind_gusts":47.9,"aqi":451,"pm10":776.7,"pm2_5":117.8,"mosquito_risk":0,"arthritis_risk":5,"migraine_risk":10,"frizz_risk":0,"updated_at":"2026-04-26T22:19:54.300618+05:30"},{"city":"Faridabad","state":"Haryana","latitude":28.4089,"longitude":77.3178,"temp":34.8,"humidity":21,"rain":0.0,"pressure":979.7,"uv_index":7.5,"wind_gusts":53.3,"aqi":1526,"pm10":1166.0,"pm2_5":152.3,"mosquito_risk":0,"arthritis_risk":5,"migraine_risk":7,"frizz_risk":0,"updated_at":"2026-04-26T22:19:54.300625+05:30"},{"city":"Meerut","state":"Uttar Pradesh","latitude":28.9845,"longitude":77.7064,"temp":31.6,"humidity":25,"rain":0.0,"pressure":977.4,"uv_index":7.3,"wind_gusts":50.8,"aqi":451,"pm10":776.7,"pm2_5":117.8,"mosquito_risk":0,"arthritis_risk":5,"migraine_risk":7,"frizz_risk":0,"updated_at":"2026-04-26T22:19:54.300633+05:30"},{"city":"Agra","state":"Uttar Pradesh","latitude":27.1767,"longitude":78.0081,"temp":33.8,"humidity":26,"rain":0.0,"pressure":983.9,"uv_index":7.8,"wind_gusts":50.4,"aqi":953,"pm10":901.5,"pm2_5":100.1,"mosquito_risk":0,"arthritis_risk":5,"migraine_risk":7,"frizz_risk":0,"updated_at":"2026-04-26T22:19:54.300642+05:30"},{"city":"Varanasi","state":"Uttar Pradesh","latitude":25.3176,"longitude":82.9739,"temp":32.7,"humidity":45,"rain":0.0,"pressure":993.9,"uv_index":8.5,"wind_gusts":53.3,"aqi":143,"pm10":110.4,"pm2_5":54.9,"mosquito_risk":0,"arthritis_risk":5,"migraine_risk":7,"frizz_risk":1,"updated_at":"2026-04-26T22:19:54.300651+05:30"},{"city":"Prayagraj","state":"Uttar Pradesh","latitude":25.4358,"longitude":81.8463,"temp":34.7,"humidity":22,"rain":0.0,"pressure":991.8,"uv_index":8.4,"wind_gusts":50.8,"aqi":136,"pm10":121.5,"pm2_5":44.7,"mosquito_risk":0,"arthritis_risk":5,"migraine_risk":7,"frizz_risk":0,"updated_at":"2026-04-26T22:19:54.300658+05:30"},{"city":"Gorakhpur","state":"Uttar Pradesh","latitude":26.7606,"longitude":83.3732,"temp":27.0,"humidity":65,"rain":0.0,"pressure":995.0,"uv_index":8.35,"wind_gusts":40.7,"aqi":165,"pm10":73.3,"pm2_5":55.4,"mosquito_risk":7,"arthritis_risk":5,"migraine_risk":7,"frizz_risk":1,"updated_at":"2026-04-26T22:19:54.300665+05:30"},{"city":"Bareilly","state":"Uttar Pradesh","latitude":28.367,"longitude":79.4304,"temp":32.2,"humidity":28,"rain":0.0,"pressure":982.2,"uv_index":7.65,"wind_gusts":54.7,"aqi":117,"pm10":196.0,"pm2_5":49.0,"mosquito_risk":0,"arthritis_risk":5,"migraine_risk":7,"frizz_risk":0,"updated_at":"2026-04-26T22:19:54.300672+05:30"},{"city":"Aligarh","state":"Uttar Pradesh","latitude":27.8974,"longitude":78.088,"temp":32.0,"humidity":27,"rain":0.0,"pressure":981.2,"uv_index":7.6,"wind_gusts":51.8,"aqi":1043,"pm10":1184.6,"pm2_5":170.0,"mosquito_risk":0,"arthritis_risk":5,"migraine_risk":7,"frizz_risk":0,"updated_at":"2026-04-26T22:19:54.300678+05:30"},{"city":"Moradabad","state":"Uttar Pradesh","latitude":28.8386,"longitude":78.7733,"temp":32.2,"humidity":26,"rain":0.0,"pressure":979.2,"uv_index":7.5,"wind_gusts":55.8,"aqi":130,"pm10":254.3,"pm2_5":62.9,"mosquito_risk":0,"arthritis_risk":5,"migraine_risk":7,"frizz_risk":0,"updated_at":"2026-04-26T22:19:54.300685+05:30"},{"city":"Saharanpur","state":"Uttar Pradesh","latitude":29.9637,"longitude":77.546,"temp":31.6,"humidity":22,"rain":0.0,"pressure":971.1,"uv_index":7.1,"wind_gusts":52.2,"aqi":86,"pm10":123.9,"pm2_5":31.3,"mosquito_risk":0,"arthritis_risk":5,"migraine_risk":7,"frizz_risk":0,"updated_at":"2026-04-26T22:19:54.300691+05:30"},{"city":"Jhansi","state":"Uttar Pradesh","latitude":25.4484,"longitude":78.5685,"temp":32.8,"humidity":25,"rain":0.0,"pressure":975.0,"uv_index":8.3,"wind_gusts":49.0,"aqi":92,"pm10":58.2,"pm2_5":23.3,"mosquito_risk":0,"arthritis_risk":5,"migraine_risk":7,"frizz_risk":0,"updated_at":"2026-04-26T22:19:57.564995+05:30"},{"city":"Surat","state":"Gujarat","latitude":21.1702,"longitude":72.8311,"temp":30.5,"humidity":62,"rain":0.0,"pressure":1004.6,"uv_index":7.85,"wind_gusts":36.0,"aqi":115,"pm10":62.6,"pm2_5":36.9,"mosquito_risk":3,"arthritis_risk":5,"migraine_risk":4,"frizz_risk":1,"updated_at":"2026-04-26T22:19:57.565029+05:30"},{"city":"Vadodara","state":"Gujarat","latitude":22.3072,"longitude":73.1812,"temp":34.3,"humidity":28,"rain":0.0,"pressure":1002.0,"uv_index":8.15,"wind_gusts":41.4,"aqi":124,"pm10":47.8,"pm2_5":34.9,"mosquito_risk":0,"arthritis_risk":5,"migraine_risk":4,"frizz_risk":0,"updated_at":"2026-04-26T22:19:57.565041+05:30"},{"city":"Rajkot","state":"Gujarat","latitude":22.3039,"longitude":70.8022,"temp":30.4,"humidity":37,"rain":0.0,"pressure":993.0,"uv_index":7.85,"wind_gusts":39.2,"aqi":59,"pm10":30.3,"pm2_5":14.1,"mosquito_risk":0,"arthritis_risk":5,"migraine_risk":7,"frizz_risk":0,"updated_at":"2026-04-26T22:19:57.565053+05:30"},{"city":"Thane","state":"Maharashtra","latitude":19.2183,"longitude":72.9781,"temp":29.6,"humidity":75,"rain":0.0,"pressure":1006.8,"uv_index":7.6,"wind_gusts":32.8,"aqi":93,"pm10":76.1,"pm2_5":34.7,"mosquito_risk":7,"arthritis_risk":5,"migraine_risk":4,"frizz_risk":1,"updated_at":"2026-04-26T22:19:57.565063+05:30"},{"city":"Nagpur","state":"Maharashtra","latitude":21.1458,"longitude":79.0882,"temp":37.8,"humidity":16,"rain":0.0,"pressure":970.6,"uv_index":8.9,"wind_gusts":34.6,"aqi":163,"pm10":88.7,"pm2_5":45.9,"mosquito_risk":0,"arthritis_risk":5,"migraine_risk":10,"frizz_risk":0,"updated_at":"2026-04-26T22:19:57.565072+05:30"},{"city":"Nashik","state":"Maharashtra","latitude":19.9975,"longitude":73.7898,"temp":30.9,"humidity":29,"rain":0.0,"pressure":945.0,"uv_index":8.1,"wind_gusts":36.0,"aqi":135,"pm10":42.4,"pm2_5":29.2,"mosquito_risk":0,"arthritis_risk":5,"migraine_risk":7,"frizz_risk":0,"updated_at":"2026-04-26T22:19:57.565080+05:30"},{"city":"Aurangabad","state":"Maharashtra","latitude":19.8762,"longitude":75.3433,"temp":34.3,"humidity":17,"rain":0.0,"pressure":943.1,"uv_index":9.05,"wind_gusts":32.4,"aqi":101,"pm10":21.9,"pm2_5":16.6,"mosquito_risk":0,"arthritis_risk":5,"migraine_risk":7,"frizz_risk":0,"updated_at":"2026-04-26T22:19:57.565089+05:30"},{"city":"Solapur","state":"Maharashtra","latitude":17.6599,"longitude":75.9064,"temp":35.8,"humidity":20,"rain":0.0,"pressure":955.4,"uv_index":9.05,"wind_gusts":25.2,"aqi":152,"pm10":55.5,"pm2_5":47.6,"mosquito_risk":0,"arthritis_risk":5,"migraine_risk":10,"frizz_risk":0,"updated_at":"2026-04-26T22:19:57.565098+05:30"},{"city":"Kolhapur","state":"Maharashtra","latitude":16.705,"longitude":74.2433,"temp":25.9,"humidity":82,"rain":0.0,"pressure":947.8,"uv_index":9.0,"wind_gusts":50.8,"aqi":133,"pm10":23.7,"pm2_5":17.8,"mosquito_risk":7,"arthritis_risk":5,"migraine_risk":7,"frizz_risk":1,"updated_at":"2026-04-26T22:19:57.565108+05:30"},{"city":"Goa","state":"Goa","latitude":15.2993,"longitude":74.124,"temp":30.1,"humidity":77,"rain":0.0,"pressure":997.8,"uv_index":8.95,"wind_gusts":34.9,"aqi":89,"pm10":35.3,"pm2_5":25.3,"mosquito_risk":3,"arthritis_risk":5,"migraine_risk":7,"frizz_risk":1,"updated_at":"2026-04-26T22:19:57.565116+05:30"},{"city":"Jodhpur","state":"Rajasthan","latitude":26.2389,"longitude":73.0243,"temp":35.6,"humidity":20,"rain":0.0,"pressure":979.6,"uv_index":8.3,"wind_gusts":34.2,"aqi":81,"pm10":184.4,"pm2_5":27.6,"mosquito_risk":0,"arthritis_risk":5,"migraine_risk":10,"frizz_risk":0,"updated_at":"2026-04-26T22:19:57.565125+05:30"},{"city":"Udaipur","state":"Rajasthan","latitude":24.5854,"longitude":73.7125,"temp":33.2,"humidity":15,"rain":0.0,"pressure":945.7,"uv_index":8.75,"wind_gusts":47.9,"aqi":81,"pm10":20.1,"pm2_5":8.6,"mosquito_risk":0,"arthritis_risk":5,"migraine_risk":7,"frizz_risk":0,"updated_at":"2026-04-26T22:19:57.565132+05:30"},{"city":"Kota","state":"Rajasthan","latitude":25.2138,"longitude":75.8648,"temp":33.3,"humidity":24,"rain":0.0,"pressure":976.1,"uv_index":8.3,"wind_gusts":46.8,"aqi":90,"pm10":67.1,"pm2_5":30.2,"mosquito_risk":0,"arthritis_risk":5,"migraine_risk":7,"frizz_risk":0,"updated_at":"2026-04-26T22:19:57.565138+05:30"},{"city":"Bikaner","state":"Rajasthan","latitude":28.0229,"longitude":73.3119,"temp":34.7,"humidity":22,"rain":0.0,"pressure":978.5,"uv_index":8.15,"wind_gusts":37.1,"aqi":71,"pm10":48.7,"pm2_5":17.1,"mosquito_risk":0,"arthritis_risk":5,"migraine_risk":7,"frizz_risk":0,"updated_at":"2026-04-26T22:19:57.565145+05:30"},{"city":"Ajmer","state":"Rajasthan","latitude":26.4499,"longitude":74.6399,"temp":34.2,"humidity":20,"rain":0.0,"pressure":952.7,"uv_index":8.25,"wind_gusts":41.4,"aqi":66,"pm10":62.4,"pm2_5":21.8,"mosquito_risk":0,"arthritis_risk":5,"migraine_risk":7,"frizz_risk":0,"updated_at":"2026-04-26T22:19:57.565152+05:30"},{"city":"Gwalior","state":"Madhya Pradesh","latitude":26.2183,"longitude":78.1828,"temp":34.5,"humidity":23,"rain":0.0,"pressure":980.0,"uv_index":8.0,"wind_gusts":45.4,"aqi":120,"pm10":76.1,"pm2_5":24.1,"mosquito_risk":0,"arthritis_risk":5,"migraine_risk":7,"frizz_risk":0,"updated_at":"2026-04-26T22:19:57.565159+05:30"},{"city":"Indore","state":"Madhya Pradesh","latitude":22.7196,"longitude":75.8577,"temp":33.0,"humidity":36,"rain":0.0,"pressure":947.2,"uv_index":8.65,"wind_gusts":37.4,"aqi":90,"pm10":50.3,"pm2_5":26.5,"mosquito_risk":0,"arthritis_risk":5,"migraine_risk":7,"frizz_risk":0,"updated_at":"2026-04-26T22:19:57.565166+05:30"},{"city":"Bhopal","state":"Madhya Pradesh","latitude":23.2599,"longitude":77.4126,"temp":33.0,"humidity":25,"rain":0.0,"pressure":952.6,"uv_index":8.65,"wind_gusts":37.8,"aqi":97,"pm10":71.5,"pm2_5":33.9,"mosquito_risk":0,"arthritis_risk":5,"migraine_risk":7,"frizz_risk":0,"updated_at":"2026-04-26T22:19:57.565173+05:30"},{"city":"Jabalpur","state":"Madhya Pradesh","latitude":23.1815,"longitude":79.9864,"temp":32.2,"humidity":24,"rain":0.0,"pressure":959.8,"uv_index":8.7,"wind_gusts":42.1,"aqi":66,"pm10":72.6,"pm2_5":29.4,"mosquito_risk":0,"arthritis_risk":5,"migraine_risk":7,"frizz_risk":0,"updated_at":"2026-04-26T22:19:57.565180+05:30"},{"city":"Ujjain","state":"Madhya Pradesh","latitude":23.1765,"longitude":75.7885,"temp":31.6,"humidity":25,"rain":0.0,"pressure":952.4,"uv_index":8.55,"wind_gusts":41.4,"aqi":73,"pm10":56.3,"pm2_5":30.9,"mosquito_risk":0,"arthritis_risk":5,"migraine_risk":7,"frizz_risk":0,"updated_at":"2026-04-26T22:19:57.565187+05:30"},{"city":"Visakhapatnam","state":"Andhra Pradesh","latitude":17.6868,"longitude":83.2185,"temp":28.2,"humidity":86,"rain":0.0,"pressure":1003.5,"uv_index":8.95,"wind_gusts":47.5,"aqi":56,"pm10":21.4,"pm2_5":14.7,"mosquito_risk":7,"arthritis_risk":5,"migraine_risk":4,"frizz_risk":1,"updated_at":"2026-04-26T22:19:57.565194+05:30"},{"city":"Vijayawada","state":"Andhra Pradesh","latitude":16.5062,"longitude":80.648,"temp":28.4,"humidity":82,"rain":0.0,"pressure":1002.3,"uv_index":8.9,"wind_gusts":37.4,"aqi":57,"pm10":21.4,"pm2_5":15.8,"mosquito_risk":7,"arthritis_risk":5,"migraine_risk":4,"frizz_risk":1,"updated_at":"2026-04-26T22:19:57.565201+05:30"},{"city":"Guntur","state":"Andhra Pradesh","latitude":16.3067,"longitude":80.4365,"temp":28.1,"humidity":86,"rain":0.0,"pressure":1003.5,"uv_index":8.95,"wind_gusts":40.7,"aqi":61,"pm10":20.8,"pm2_5":15.9,"mosquito_risk":7,"arthritis_risk":5,"migraine_risk":4,"frizz_risk":1,"updated_at":"2026-04-26T22:19:57.565208+05:30"},{"city":"Nellore","state":"Andhra Pradesh","latitude":14.4426,"longitude":79.9865,"temp":28.7,"humidity":78,"rain":0.0,"pressure":1005.3,"uv_index":9.1,"wind_gusts":43.9,"aqi":59,"pm10":17.2,"pm2_5":12.9,"mosquito_risk":7,"arthritis_risk":5,"migraine_risk":4,"frizz_risk":1,"updated_at":"2026-04-26T22:19:57.565216+05:30"},{"city":"Kurnool","state":"Andhra Pradesh","latitude":15.8281,"longitude":78.0373,"temp":33.8,"humidity":29,"rain":0.0,"pressure":975.5,"uv_index":9.2,"wind_gusts":33.8,"aqi":131,"pm10":46.6,"pm2_5":39.8,"mosquito_risk":0,"arthritis_risk":5,"migraine_risk":7,"frizz_risk":0,"updated_at":"2026-04-26T22:19:57.565223+05:30"},{"city":"Kakinada","state":"Andhra Pradesh","latitude":16.9891,"longitude":82.2475,"temp":28.5,"humidity":83,"rain":0.0,"pressure":1007.4,"uv_index":8.85,"wind_gusts":40.3,"aqi":48,"pm10":20.8,"pm2_5":12.6,"mosquito_risk":7,"arthritis_risk":5,"migraine_risk":4,"frizz_risk":1,"updated_at":"2026-04-26T22:19:57.565230+05:30"},{"city":"Tirupati","state":"Andhra Pradesh","latitude":13.6288,"longitude":79.4192,"temp":29.6,"humidity":60,"rain":0.0,"pressure":991.2,"uv_index":9.3,"wind_gusts":40.3,"aqi":79,"pm10":19.8,"pm2_5":17.3,"mosquito_risk":4,"arthritis_risk":5,"migraine_risk":7,"frizz_risk":1,"updated_at":"2026-04-26T22:19:57.565237+05:30"},{"city":"Warangal","state":"Telangana","latitude":17.9689,"longitude":79.5941,"temp":32.9,"humidity":32,"rain":0.0,"pressure":977.6,"uv_index":9.0,"wind_gusts":35.3,"aqi":120,"pm10":36.9,"pm2_5":32.2,"mosquito_risk":0,"arthritis_risk":5,"migraine_risk":7,"frizz_risk":0,"updated_at":"2026-04-26T22:19:57.565244+05:30"},{"city":"Nizamabad","state":"Telangana","latitude":18.6725,"longitude":78.0941,"temp":32.3,"humidity":29,"rain":0.0,"pressure":962.7,"uv_index":8.6,"wind_gusts":31.3,"aqi":117,"pm10":44.4,"pm2_5":36.9,"mosquito_risk":0,"arthritis_risk":5,"migraine_risk":7,"frizz_risk":0,"updated_at":"2026-04-26T22:19:57.565251+05:30"},{"city":"Mysore","state":"Karnataka","latitude":12.2958,"longitude":76.6396,"temp":25.5,"humidity":79,"rain":0.0,"pressure":928.2,"uv_index":9.45,"wind_gusts":40.0,"aqi":116,"pm10":38.0,"pm2_5":32.9,"mosquito_risk":7,"arthritis_risk":5,"migraine_risk":7,"frizz_risk":1,"updated_at":"2026-04-26T22:19:57.565257+05:30"},{"city":"Mangalore","state":"Karnataka","latitude":12.9141,"longitude":74.856,"temp":30.0,"humidity":78,"rain":0.0,"pressure":1006.1,"uv_index":9.05,"wind_gusts":39.2,"aqi":81,"pm10":33.4,"pm2_5":25.3,"mosquito_risk":7,"arthritis_risk":5,"migraine_risk":4,"frizz_risk":1,"updated_at":"2026-04-26T22:19:57.565264+05:30"},{"city":"Hubli-Dharwad","state":"Karnataka","latitude":15.3647,"longitude":75.124,"temp":26.2,"humidity":83,"rain":0.0,"pressure":940.7,"uv_index":8.85,"wind_gusts":45.7,"aqi":116,"pm10":35.3,"pm2_5":32.0,"mosquito_risk":7,"arthritis_risk":5,"migraine_risk":7,"frizz_risk":1,"updated_at":"2026-04-26T22:19:57.565271+05:30"},{"city":"Belgaum","state":"Karnataka","latitude":15.8497,"longitude":74.4977,"temp":24.2,"humidity":96,"rain":0.0,"pressure":925.8,"uv_index":8.85,"wind_gusts":48.2,"aqi":116,"pm10":32.4,"pm2_5":28.3,"mosquito_risk":3,"arthritis_risk":5,"migraine_risk":7,"frizz_risk":1,"updated_at":"2026-04-26T22:20:18.850445+05:30"},{"city":"Coimbatore","state":"Tamil Nadu","latitude":11.0168,"longitude":76.9558,"temp":28.2,"humidity":73,"rain":0.0,"pressure":962.1,"uv_index":9.35,"wind_gusts":39.6,"aqi":106,"pm10":37.5,"pm2_5":33.5,"mosquito_risk":7,"arthritis_risk":5,"migraine_risk":7,"frizz_risk":1,"updated_at":"2026-04-26T22:20:18.850480+05:30"},{"city":"Madurai","state":"Tamil Nadu","latitude":9.9252,"longitude":78.1198,"temp":30.0,"humidity":63,"rain":0.0,"pressure":993.8,"uv_index":9.25,"wind_gusts":37.4,"aqi":60,"pm10":9.1,"pm2_5":8.9,"mosquito_risk":7,"arthritis_risk":5,"migraine_risk":7,"frizz_risk":1,"updated_at":"2026-04-26T22:20:18.850490+05:30"},{"city":"Trichy","state":"Tamil Nadu","latitude":10.7905,"longitude":78.7047,"temp":29.1,"humidity":75,"rain":0.0,"pressure":1000.0,"uv_index":9.25,"wind_gusts":30.6,"aqi":49,"pm10":13.9,"pm2_5":13.1,"mosquito_risk":7,"arthritis_risk":5,"migraine_risk":4,"frizz_risk":1,"updated_at":"2026-04-26T22:20:18.850498+05:30"},{"city":"Salem","state":"Tamil Nadu","latitude":11.6643,"longitude":78.146,"temp":30.8,"humidity":50,"rain":0.0,"pressure":977.2,"uv_index":9.35,"wind_gusts":41.8,"aqi":96,"pm10":21.6,"pm2_5":20.3,"mosquito_risk":0,"arthritis_risk":5,"migraine_risk":7,"frizz_risk":1,"updated_at":"2026-04-26T22:20:18.850506+05:30"},{"city":"Tirunelveli","state":"Tamil Nadu","latitude":8.7139,"longitude":77.7567,"temp":29.3,"humidity":69,"rain":0.0,"pressure":1003.8,"uv_index":9.2,"wind_gusts":37.4,"aqi":68,"pm10":10.5,"pm2_5":10.0,"mosquito_risk":7,"arthritis_risk":5,"migraine_risk":4,"frizz_risk":1,"updated_at":"2026-04-26T22:20:18.850513+05:30"},{"city":"Vellore","state":"Tamil Nadu","latitude":12.9165,"longitude":79.1325,"temp":28.6,"humidity":71,"rain":0.0,"pressure":984.5,"uv_index":9.3,"wind_gusts":34.6,"aqi":84,"pm10":31.3,"pm2_5":29.0,"mosquito_risk":7,"arthritis_risk":5,"migraine_risk":7,"frizz_risk":1,"updated_at":"2026-04-26T22:20:18.850520+05:30"},{"city":"Erode","state":"Tamil Nadu","latitude":11.341,"longitude":77.7172,"temp":32.7,"humidity":40,"rain":0.0,"pressure":988.8,"uv_index":9.3,"wind_gusts":39.2,"aqi":81,"pm10":15.0,"pm2_5":14.1,"mosquito_risk":0,"arthritis_risk":5,"migraine_risk":7,"frizz_risk":1,"updated_at":"2026-04-26T22:20:18.850526+05:30"},{"city":"Kochi","state":"Kerala","latitude":9.9312,"longitude":76.2673,"temp":29.8,"humidity":74,"rain":0.0,"pressure":1008.9,"uv_index":9.0,"wind_gusts":39.2,"aqi":72,"pm10":25.0,"pm2_5":22.1,"mosquito_risk":7,"arthritis_risk":0,"migraine_risk":4,"frizz_risk":1,"updated_at":"2026-04-26T22:20:18.850533+05:30"},{"city":"Thiruvananthapuram","state":"Kerala","latitude":8.5241,"longitude":76.9366,"temp":27.6,"humidity":86,"rain":0.0,"pressure":1008.6,"uv_index":8.8,"wind_gusts":32.4,"aqi":49,"pm10":11.5,"pm2_5":9.0,"mosquito_risk":7,"arthritis_risk":0,"migraine_risk":4,"frizz_risk":1,"updated_at":"2026-04-26T22:20:18.850540+05:30"},{"city":"Kozhikode","state":"Kerala","latitude":11.2588,"longitude":75.7804,"temp":28.3,"humidity":88,"rain":0.0,"pressure":1007.6,"uv_index":8.4,"wind_gusts":38.2,"aqi":54,"pm10":18.2,"pm2_5":13.4,"mosquito_risk":7,"arthritis_risk":5,"migraine_risk":4,"frizz_risk":1,"updated_at":"2026-04-26T22:20:18.850546+05:30"},{"city":"Thrissur","state":"Kerala","latitude":10.5276,"longitude":76.2144,"temp":28.6,"humidity":84,"rain":0.0,"pressure":1007.2,"uv_index":9.0,"wind_gusts":41.0,"aqi":74,"pm10":20.9,"pm2_5":19.5,"mosquito_risk":7,"arthritis_risk":5,"migraine_risk":4,"frizz_risk":1,"updated_at":"2026-04-26T22:20:18.850554+05:30"},{"city":"Kannur","state":"Kerala","latitude":11.8745,"longitude":75.3704,"temp":29.5,"humidity":82,"rain":0.0,"pressure":1006.8,"uv_index":9.0,"wind_gusts":39.6,"aqi":70,"pm10":26.0,"pm2_5":20.4,"mosquito_risk":7,"arthritis_risk":5,"migraine_risk":4,"frizz_risk":1,"updated_at":"2026-04-26T22:20:18.850561+05:30"},{"city":"Patna","state":"Bihar","latitude":25.5941,"longitude":85.1376,"temp":27.5,"humidity":65,"rain":0.0,"pressure":998.3,"uv_index":8.65,"wind_gusts":45.4,"aqi":188,"pm10":70.1,"pm2_5":60.8,"mosquito_risk":7,"arthritis_risk":5,"migraine_risk":7,"frizz_risk":1,"updated_at":"2026-04-26T22:20:18.850567+05:30"},{"city":"Gaya","state":"Bihar","latitude":24.7914,"longitude":85.0002,"temp":28.0,"humidity":66,"rain":0.0,"pressure":991.0,"uv_index":8.7,"wind_gusts":36.7,"aqi":171,"pm10":68.0,"pm2_5":63.8,"mosquito_risk":7,"arthritis_risk":5,"migraine_risk":7,"frizz_risk":1,"updated_at":"2026-04-26T22:20:18.850574+05:30"},{"city":"Muzaffarpur","state":"Bihar","latitude":26.1209,"longitude":85.3647,"temp":25.8,"humidity":66,"rain":0.0,"pressure":998.9,"uv_index":8.65,"wind_gusts":48.6,"aqi":166,"pm10":71.9,"pm2_5":61.9,"mosquito_risk":7,"arthritis_risk":5,"migraine_risk":7,"frizz_risk":1,"updated_at":"2026-04-26T22:20:18.850580+05:30"},{"city":"Bhagalpur","state":"Bihar","latitude":25.2425,"longitude":87.0117,"temp":26.4,"humidity":75,"rain":0.0,"pressure":1000.3,"uv_index":8.6,"wind_gusts":40.3,"aqi":140,"pm10":27.0,"pm2_5":23.0,"mosquito_risk":7,"arthritis_risk":5,"migraine_risk":4,"frizz_risk":1,"updated_at":"2026-04-26T22:20:18.850586+05:30"},{"city":"Ranchi","state":"Jharkhand","latitude":23.3441,"longitude":85.3096,"temp":26.1,"humidity":56,"rain":0.0,"pressure":934.9,"uv_index":9.15,"wind_gusts":44.3,"aqi":122,"pm10":124.8,"pm2_5":42.0,"mosquito_risk":4,"arthritis_risk":5,"migraine_risk":7,"frizz_risk":1,"updated_at":"2026-04-26T22:20:18.850592+05:30"},{"city":"Jamshedpur","state":"Jharkhand","latitude":22.8046,"longitude":86.2029,"temp":29.2,"humidity":80,"rain":0.0,"pressure":988.0,"uv_index":8.85,"wind_gusts":37.8,"aqi":167,"pm10":46.7,"pm2_5":39.9,"mosquito_risk":7,"arthritis_risk":5,"migraine_risk":7,"frizz_risk":1,"updated_at":"2026-04-26T22:20:18.850598+05:30"},{"city":"Dhanbad","state":"Jharkhand","latitude":23.7957,"longitude":86.4304,"temp":28.1,"humidity":75,"rain":0.0,"pressure":977.7,"uv_index":8.95,"wind_gusts":42.5,"aqi":153,"pm10":91.3,"pm2_5":66.4,"mosquito_risk":7,"arthritis_risk":5,"migraine_risk":7,"frizz_risk":1,"updated_at":"2026-04-26T22:20:18.850605+05:30"},{"city":"Bokaro","state":"Jharkhand","latitude":23.6693,"longitude":86.1511,"temp":28.5,"humidity":74,"rain":0.0,"pressure":981.4,"uv_index":8.95,"wind_gusts":41.0,"aqi":153,"pm10":96.6,"pm2_5":68.9,"mosquito_risk":7,"arthritis_risk":5,"migraine_risk":7,"frizz_risk":1,"updated_at":"2026-04-26T22:20:18.850611+05:30"},{"city":"Bhubaneswar","state":"Odisha","latitude":20.2961,"longitude":85.8245,"temp":27.6,"humidity":89,"rain":0.0,"pressure":1001.1,"uv_index":9.1,"wind_gusts":50.4,"aqi":53,"pm10":16.6,"pm2_5":11.6,"mosquito_risk":7,"arthritis_risk":5,"migraine_risk":4,"frizz_risk":1,"updated_at":"2026-04-26T22:20:18.850617+05:30"},{"city":"Cuttack","state":"Odisha","latitude":20.4625,"longitude":85.8828,"temp":27.8,"humidity":88,"rain":0.0,"pressure":1002.6,"uv_index":9.1,"wind_gusts":47.2,"aqi":53,"pm10":16.6,"pm2_5":11.6,"mosquito_risk":7,"arthritis_risk":5,"migraine_risk":4,"frizz_risk":1,"updated_at":"2026-04-26T22:20:18.850623+05:30"},{"city":"Rourkela","state":"Odisha","latitude":22.2604,"longitude":84.8536,"temp":30.0,"humidity":67,"rain":0.0,"pressure":982.1,"uv_index":8.65,"wind_gusts":46.4,"aqi":201,"pm10":62.6,"pm2_5":41.9,"mosquito_risk":7,"arthritis_risk":5,"migraine_risk":7,"frizz_risk":1,"updated_at":"2026-04-26T22:20:18.850629+05:30"},{"city":"Raipur","state":"Chhattisgarh","latitude":21.2514,"longitude":81.6296,"temp":34.2,"humidity":22,"rain":0.0,"pressure":972.0,"uv_index":8.95,"wind_gusts":41.0,"aqi":159,"pm10":61.0,"pm2_5":56.0,"mosquito_risk":0,"arthritis_risk":5,"migraine_risk":7,"frizz_risk":0,"updated_at":"2026-04-26T22:20:18.850635+05:30"},{"city":"Bhilai","state":"Chhattisgarh","latitude":21.1938,"longitude":81.3509,"temp":33.4,"humidity":24,"rain":0.0,"pressure":972.4,"uv_index":9.0,"wind_gusts":44.3,"aqi":142,"pm10":50.1,"pm2_5":43.9,"mosquito_risk":0,"arthritis_risk":5,"migraine_risk":7,"frizz_risk":0,"updated_at":"2026-04-26T22:20:18.850642+05:30"},{"city":"Guwahati","state":"Assam","latitude":26.1158,"longitude":91.7086,"temp":21.6,"humidity":95,"rain":0.1,"pressure":1002.9,"uv_index":3.7,"wind_gusts":40.3,"aqi":134,"pm10":65.7,"pm2_5":47.6,"mosquito_risk":6,"arthritis_risk":5,"migraine_risk":0,"frizz_risk":1,"updated_at":"2026-04-26T22:20:18.850648+05:30"},{"city":"Agartala","state":"Tripura","latitude":23.8315,"longitude":91.2868,"temp":22.8,"humidity":96,"rain":0.1,"pressure":1006.6,"uv_index":8.8,"wind_gusts":32.0,"aqi":89,"pm10":19.3,"pm2_5":15.0,"mosquito_risk":6,"arthritis_risk":5,"migraine_risk":4,"frizz_risk":1,"updated_at":"2026-04-26T22:20:18.850655+05:30"},{"city":"Shillong","state":"Meghalaya","latitude":25.5788,"longitude":91.8933,"temp":15.6,"humidity":97,"rain":0.1,"pressure":855.4,"uv_index":4.65,"wind_gusts":45.4,"aqi":128,"pm10":52.2,"pm2_5":34.8,"mosquito_risk":6,"arthritis_risk":10,"migraine_risk":3,"frizz_risk":0,"updated_at":"2026-04-26T22:20:18.850661+05:30"},{"city":"Imphal","state":"Manipur","latitude":24.817,"longitude":93.9368,"temp":19.0,"humidity":97,"rain":0.0,"pressure":922.9,"uv_index":5.7,"wind_gusts":24.1,"aqi":152,"pm10":112.5,"pm2_5":74.0,"mosquito_risk":3,"arthritis_risk":10,"migraine_risk":3,"frizz_risk":1,"updated_at":"2026-04-26T22:20:18.850668+05:30"},{"city":"Aizawl","state":"Mizoram","latitude":23.7271,"longitude":92.7176,"temp":16.5,"humidity":98,"rain":0.0,"pressure":891.7,"uv_index":9.0,"wind_gusts":34.9,"aqi":108,"pm10":36.6,"pm2_5":22.8,"mosquito_risk":3,"arthritis_risk":10,"migraine_risk":7,"frizz_risk":1,"updated_at":"2026-04-26T22:20:18.850674+05:30"},{"city":"Kohima","state":"Nagaland","latitude":25.6701,"longitude":94.1077,"temp":16.6,"humidity":84,"rain":0.1,"pressure":854.5,"uv_index":6.95,"wind_gusts":32.0,"aqi":150,"pm10":72.4,"pm2_5":42.4,"mosquito_risk":6,"arthritis_risk":10,"migraine_risk":7,"frizz_risk":0,"updated_at":"2026-04-26T22:20:18.850680+05:30"},{"city":"Gangtok","state":"Sikkim","latitude":27.3314,"longitude":88.6138,"temp":13.7,"humidity":96,"rain":0.1,"pressure":835.3,"uv_index":6.75,"wind_gusts":41.0,"aqi":117,"pm10":46.6,"pm2_5":27.8,"mosquito_risk":6,"arthritis_risk":10,"migraine_risk":7,"frizz_risk":0,"updated_at":"2026-04-26T22:20:18.850686+05:30"},{"city":"Siliguri","state":"West Bengal","latitude":26.7271,"longitude":88.3953,"temp":21.4,"humidity":86,"rain":0.0,"pressure":993.1,"uv_index":8.4,"wind_gusts":33.1,"aqi":122,"pm10":66.8,"pm2_5":45.3,"mosquito_risk":3,"arthritis_risk":5,"migraine_risk":7,"frizz_risk":1,"updated_at":"2026-04-26T22:20:22.211784+05:30"},{"city":"Durgapur","state":"West Bengal","latitude":23.5204,"longitude":87.3119,"temp":27.5,"humidity":88,"rain":0.0,"pressure":993.3,"uv_index":8.85,"wind_gusts":35.6,"aqi":128,"pm10":30.5,"pm2_5":29.3,"mosquito_risk":7,"arthritis_risk":5,"migraine_risk":7,"frizz_risk":1,"updated_at":"2026-04-26T22:20:22.211814+05:30"},{"city":"Asansol","state":"West Bengal","latitude":23.6739,"longitude":86.9524,"temp":27.0,"humidity":86,"rain":0.0,"pressure":991.7,"uv_index":8.9,"wind_gusts":38.5,"aqi":147,"pm10":39.1,"pm2_5":38.1,"mosquito_risk":7,"arthritis_risk":5,"migraine_risk":7,"frizz_risk":1,"updated_at":"2026-04-26T22:20:22.211824+05:30"},{"city":"Pondicherry","state":"Puducherry","latitude":11.9139,"longitude":79.8145,"temp":29.0,"humidity":81,"rain":0.0,"pressure":1008.6,"uv_index":9.2,"wind_gusts":41.8,"aqi":38,"pm10":17.0,"pm2_5":11.4,"mosquito_risk":7,"arthritis_risk":0,"migraine_risk":4,"frizz_risk":1,"updated_at":"2026-04-26T22:20:22.211832+05:30"},{"city":"Port Blair","state":"Andaman and Nicobar Islands","latitude":11.6234,"longitude":92.7265,"temp":28.2,"humidity":77,"rain":0.0,"pressure":1007.4,"uv_index":9.1,"wind_gusts":35.3,"aqi":58,"pm10":18.9,"pm2_5":14.0,"mosquito_risk":7,"arthritis_risk":5,"migraine_risk":4,"frizz_risk":1,"updated_at":"2026-04-26T22:20:22.211839+05:30"},{"city":"Haridwar","state":"Uttarakhand","latitude":29.9457,"longitude":78.1642,"temp":24.3,"humidity":44,"rain":0.0,"pressure":969.0,"uv_index":7.2,"wind_gusts":54.0,"aqi":95,"pm10":25.2,"pm2_5":15.4,"mosquito_risk":0,"arthritis_risk":5,"migraine_risk":7,"frizz_risk":0,"updated_at":"2026-04-26T22:20:22.211846+05:30"},{"city":"Rishikesh","state":"Uttarakhand","latitude":30.0869,"longitude":78.2676,"temp":22.5,"humidity":45,"rain":0.0,"pressure":961.9,"uv_index":7.3,"wind_gusts":42.1,"aqi":101,"pm10":33.2,"pm2_5":14.8,"mosquito_risk":0,"arthritis_risk":5,"migraine_risk":7,"frizz_risk":0,"updated_at":"2026-04-26T22:20:22.211854+05:30"},{"city":"Nainital","state":"Uttarakhand","latitude":29.3919,"longitude":79.4542,"temp":16.4,"humidity":41,"rain":0.0,"pressure":803.4,"uv_index":8.15,"wind_gusts":54.4,"aqi":97,"pm10":91.0,"pm2_5":22.6,"mosquito_risk":0,"arthritis_risk":5,"migraine_risk":7,"frizz_risk":0,"updated_at":"2026-04-26T22:20:22.211861+05:30"},{"city":"Mussoorie","state":"Uttarakhand","latitude":30.4599,"longitude":78.0664,"temp":17.5,"humidity":38,"rain":0.0,"pressure":800.9,"uv_index":7.7,"wind_gusts":65.2,"aqi":102,"pm10":19.4,"pm2_5":14.2,"mosquito_risk":0,"arthritis_risk":5,"migraine_risk":7,"frizz_risk":0,"updated_at":"2026-04-26T22:20:22.211868+05:30"},{"city":"Dharamshala","state":"Himachal Pradesh","latitude":32.219,"longitude":76.3234,"temp":23.0,"humidity":34,"rain":0.0,"pressure":867.8,"uv_index":8.05,"wind_gusts":43.2,"aqi":79,"pm10":32.8,"pm2_5":14.9,"mosquito_risk":0,"arthritis_risk":5,"migraine_risk":7,"frizz_risk":0,"updated_at":"2026-04-26T22:20:22.211875+05:30"},{"city":"Dalhousie","state":"Himachal Pradesh","latitude":32.5387,"longitude":75.971,"temp":13.9,"humidity":59,"rain":0.0,"pressure":801.4,"uv_index":8.3,"wind_gusts":41.0,"aqi":84,"pm10":39.1,"pm2_5":21.7,"mosquito_risk":0,"arthritis_risk":5,"migraine_risk":7,"frizz_risk":0,"updated_at":"2026-04-26T22:20:22.211882+05:30"},{"city":"Patiala","state":"Punjab","latitude":30.3398,"longitude":76.3869,"temp":31.2,"humidity":26,"rain":0.0,"pressure":974.3,"uv_index":7.3,"wind_gusts":47.9,"aqi":379,"pm10":446.1,"pm2_5":65.7,"mosquito_risk":0,"arthritis_risk":5,"migraine_risk":7,"frizz_risk":0,"updated_at":"2026-04-26T22:20:22.211890+05:30"},{"city":"Bhatinda","state":"Punjab","latitude":30.211,"longitude":74.9455,"temp":32.7,"humidity":23,"rain":0.0,"pressure":979.6,"uv_index":8.0,"wind_gusts":37.8,"aqi":88,"pm10":76.8,"pm2_5":28.0,"mosquito_risk":0,"arthritis_risk":5,"migraine_risk":7,"frizz_risk":0,"updated_at":"2026-04-26T22:20:22.211896+05:30"},{"city":"Rohtak","state":"Haryana","latitude":28.8955,"longitude":76.6066,"temp":33.3,"humidity":21,"rain":0.0,"pressure":977.7,"uv_index":7.45,"wind_gusts":44.6,"aqi":696,"pm10":912.7,"pm2_5":128.1,"mosquito_risk":0,"arthritis_risk":5,"migraine_risk":7,"frizz_risk":0,"updated_at":"2026-04-26T22:20:22.211903+05:30"},{"city":"Panipat","state":"Haryana","latitude":29.3909,"longitude":76.9635,"temp":31.8,"humidity":20,"rain":0.0,"pressure":976.3,"uv_index":7.25,"wind_gusts":48.6,"aqi":1455,"pm10":1713.6,"pm2_5":209.5,"mosquito_risk":0,"arthritis_risk":5,"migraine_risk":7,"frizz_risk":0,"updated_at":"2026-04-26T22:20:22.211910+05:30"},{"city":"Mathura","state":"Uttar Pradesh","latitude":27.4924,"longitude":77.6737,"temp":31.9,"humidity":27,"rain":0.0,"pressure":982.7,"uv_index":7.75,"wind_gusts":50.8,"aqi":958,"pm10":422.8,"pm2_5":78.7,"mosquito_risk":0,"arthritis_risk":5,"migraine_risk":7,"frizz_risk":0,"updated_at":"2026-04-26T22:20:22.211916+05:30"},{"city":"Vrindavan","state":"Uttar Pradesh","latitude":27.5823,"longitude":77.7027,"temp":31.7,"humidity":27,"rain":0.0,"pressure":983.2,"uv_index":7.7,"wind_gusts":47.9,"aqi":958,"pm10":422.8,"pm2_5":78.7,"mosquito_risk":0,"arthritis_risk":5,"migraine_risk":7,"frizz_risk":0,"updated_at":"2026-04-26T22:20:22.211943+05:30"},{"city":"Ayodhya","state":"Uttar Pradesh","latitude":26.7922,"longitude":82.1998,"temp":29.6,"humidity":57,"rain":0.0,"pressure":992.3,"uv_index":8.1,"wind_gusts":42.8,"aqi":151,"pm10":83.8,"pm2_5":58.4,"mosquito_risk":4,"arthritis_risk":5,"migraine_risk":7,"frizz_risk":1,"updated_at":"2026-04-26T22:20:22.211952+05:30"},{"city":"Ratlam","state":"Madhya Pradesh","latitude":23.3315,"longitude":75.0367,"temp":33.2,"humidity":17,"rain":0.0,"pressure":953.3,"uv_index":8.5,"wind_gusts":39.2,"aqi":66,"pm10":53.9,"pm2_5":32.8,"mosquito_risk":0,"arthritis_risk":5,"migraine_risk":7,"frizz_risk":0,"updated_at":"2026-04-26T22:20:22.211958+05:30"},{"city":"Sagar","state":"Madhya Pradesh","latitude":23.8388,"longitude":78.7378,"temp":30.9,"humidity":29,"rain":0.0,"pressure":948.7,"uv_index":8.65,"wind_gusts":41.4,"aqi":73,"pm10":68.9,"pm2_5":25.9,"mosquito_risk":0,"arthritis_risk":5,"migraine_risk":7,"frizz_risk":0,"updated_at":"2026-04-26T22:20:22.211965+05:30"},{"city":"Satna","state":"Madhya Pradesh","latitude":24.6005,"longitude":80.8322,"temp":32.7,"humidity":25,"rain":0.0,"pressure":968.8,"uv_index":8.65,"wind_gusts":50.0,"aqi":99,"pm10":77.3,"pm2_5":28.7,"mosquito_risk":0,"arthritis_risk":5,"migraine_risk":7,"frizz_risk":0,"updated_at":"2026-04-26T22:20:22.211971+05:30"},{"city":"Akola","state":"Maharashtra","latitude":20.7002,"longitude":77.0082,"temp":34.2,"humidity":19,"rain":0.0,"pressure":972.9,"uv_index":8.85,"wind_gusts":34.2,"aqi":108,"pm10":40.2,"pm2_5":25.7,"mosquito_risk":0,"arthritis_risk":5,"migraine_risk":7,"frizz_risk":0,"updated_at":"2026-04-26T22:20:22.211978+05:30"},{"city":"Amravati","state":"Maharashtra","latitude":20.9374,"longitude":77.7796,"temp":35.0,"humidity":18,"rain":0.0,"pressure":965.3,"uv_index":8.85,"wind_gusts":33.8,"aqi":126,"pm10":45.5,"pm2_5":29.7,"mosquito_risk":0,"arthritis_risk":5,"migraine_risk":7,"frizz_risk":0,"updated_at":"2026-04-26T22:20:22.211985+05:30"},{"city":"Latur","state":"Maharashtra","latitude":18.4088,"longitude":76.5604,"temp":31.9,"humidity":22,"rain":0.0,"pressure":938.3,"uv_index":8.95,"wind_gusts":26.6,"aqi":133,"pm10":41.8,"pm2_5":33.9,"mosquito_risk":0,"arthritis_risk":5,"migraine_risk":7,"frizz_risk":0,"updated_at":"2026-04-26T22:20:22.211991+05:30"},{"city":"Nanded","state":"Maharashtra","latitude":19.1383,"longitude":77.3091,"temp":33.0,"humidity":22,"rain":0.0,"pressure":965.8,"uv_index":9.0,"wind_gusts":29.9,"aqi":104,"pm10":29.3,"pm2_5":23.7,"mosquito_risk":0,"arthritis_risk":5,"migraine_risk":7,"frizz_risk":0,"updated_at":"2026-04-26T22:20:22.211997+05:30"},{"city":"Gulbarga","state":"Karnataka","latitude":17.3297,"longitude":76.8343,"temp":33.2,"humidity":28,"rain":0.0,"pressure":957.4,"uv_index":7.9,"wind_gusts":24.5,"aqi":166,"pm10":44.4,"pm2_5":40.0,"mosquito_risk":0,"arthritis_risk":5,"migraine_risk":7,"frizz_risk":0,"updated_at":"2026-04-26T22:20:22.212003+05:30"},{"city":"Bidar","state":"Karnataka","latitude":17.9104,"longitude":77.5199,"temp":31.2,"humidity":34,"rain":0.0,"pressure":934.9,"uv_index":7.95,"wind_gusts":33.8,"aqi":146,"pm10":50.1,"pm2_5":45.4,"mosquito_risk":0,"arthritis_risk":5,"migraine_risk":7,"frizz_risk":0,"updated_at":"2026-04-26T22:20:22.212009+05:30"},{"city":"Hospet","state":"Karnataka","latitude":15.2689,"longitude":76.3909,"temp":29.3,"humidity":55,"rain":0.0,"pressure":955.1,"uv_index":8.65,"wind_gusts":32.4,"aqi":175,"pm10":61.5,"pm2_5":54.6,"mosquito_risk":4,"arthritis_risk":5,"migraine_risk":7,"frizz_risk":1,"updated_at":"2026-04-26T22:20:22.212015+05:30"},{"city":"Tirupur","state":"Tamil Nadu","latitude":11.1085,"longitude":77.3411,"temp":30.6,"humidity":55,"rain":0.0,"pressure":975.3,"uv_index":9.4,"wind_gusts":29.9,"aqi":96,"pm10":21.4,"pm2_5":19.3,"mosquito_risk":0,"arthritis_risk":5,"migraine_risk":7,"frizz_risk":1,"updated_at":"2026-04-26T22:20:22.212022+05:30"},{"city":"Alappuzha","state":"Kerala","latitude":9.4981,"longitude":76.3388,"temp":27.0,"humidity":91,"rain":0.0,"pressure":1009.5,"uv_index":8.55,"wind_gusts":37.8,"aqi":61,"pm10":25.1,"pm2_5":21.8,"mosquito_risk":7,"arthritis_risk":0,"migraine_risk":4,"frizz_risk":1,"updated_at":"2026-04-26T22:20:22.212029+05:30"},{"city":"Munnar","state":"Kerala","latitude":10.0889,"longitude":77.0595,"temp":19.8,"humidity":67,"rain":0.0,"pressure":858.0,"uv_index":9.6,"wind_gusts":26.6,"aqi":66,"pm10":30.7,"pm2_5":29.5,"mosquito_risk":3,"arthritis_risk":5,"migraine_risk":7,"frizz_risk":0,"updated_at":"2026-04-26T22:20:22.212036+05:30"},{"city":"Silchar","state":"Assam","latitude":24.8333,"longitude":92.7789,"temp":23.5,"humidity":94,"rain":0.0,"pressure":1005.6,"uv_index":6.8,"wind_gusts":27.4,"aqi":162,"pm10":102.2,"pm2_5":66.8,"mosquito_risk":3,"arthritis_risk":5,"migraine_risk":4,"frizz_risk":1,"updated_at":"2026-04-26T22:20:22.212042+05:30"},{"city":"Dibrugarh","state":"Assam","latitude":27.4728,"longitude":94.912,"temp":21.2,"humidity":96,"rain":0.0,"pressure":996.6,"uv_index":5.15,"wind_gusts":20.5,"aqi":91,"pm10":66.1,"pm2_5":44.2,"mosquito_risk":3,"arthritis_risk":5,"migraine_risk":3,"frizz_risk":1,"updated_at":"2026-04-26T22:20:22.212048+05:30"}]