[{"city":"Delhi","state":"Delhi","latitude":28.6139,"longitude":77.209,"temp":38.3,"humidity":16,"rain":0.0,"pressure":977.9,"uv_index":7.75,"wind_gusts":46.4,"aqi":397,"pm10":800.9,"pm2_5":127.6,"no2":16.0,"co":264.0,"o3":102.0,"so2":10.5,"mosquito_risk":0,"arthritis_risk":5,"migraine_risk":10,"frizz_risk":0,"updated_at":"2026-05-23T19:11:58.957726+05:30"},{"city":"Mumbai","state":"Maharashtra","latitude":19.076,"longitude":72.8777,"temp":31.1,"humidity":70,"rain":0.0,"pressure":1008.1,"uv_index":7.8,"wind_gusts":32.8,"aqi":47,"pm10":11.4,"pm2_5":8.7,"no2":9.8,"co":237.0,"o3":63.0,"so2":5.5,"mosquito_risk":3,"arthritis_risk":0,"migraine_risk":4,"frizz_risk":1,"updated_at":"2026-05-23T19:11:58.957771+05:30"},{"city":"Bangalore","state":"Karnataka","latitude":12.9716,"longitude":77.5946,"temp":24.0,"humidity":84,"rain":0.0,"pressure":912.8,"uv_index":6.3,"wind_gusts":34.6,"aqi":47,"pm10":23.3,"pm2_5":16.1,"no2":15.3,"co":889.0,"o3":87.0,"so2":4.3,"mosquito_risk":3,"arthritis_risk":5,"migraine_risk":7,"frizz_risk":1,"updated_at":"2026-05-23T19:11:58.957787+05:30"},{"city":"Hyderabad","state":"Telangana","latitude":17.385,"longitude":78.4867,"temp":34.5,"humidity":36,"rain":0.0,"pressure":951.9,"uv_index":9.2,"wind_gusts":47.9,"aqi":110,"pm10":31.5,"pm2_5":26.4,"no2":8.4,"co":387.0,"o3":117.0,"so2":5.9,"mosquito_risk":0,"arthritis_risk":5,"migraine_risk":7,"frizz_risk":1,"updated_at":"2026-05-23T19:11:58.957797+05:30"},{"city":"Chennai","state":"Tamil Nadu","latitude":13.0827,"longitude":80.2707,"temp":34.0,"humidity":53,"rain":0.0,"pressure":1004.6,"uv_index":3.2,"wind_gusts":45.7,"aqi":120,"pm10":34.9,"pm2_5":25.7,"no2":11.8,"co":329.0,"o3":120.0,"so2":7.1,"mosquito_risk":0,"arthritis_risk":5,"migraine_risk":0,"frizz_risk":1,"updated_at":"2026-05-23T19:11:58.957805+05:30"},{"city":"Kolkata","state":"West Bengal","latitude":22.5726,"longitude":88.3639,"temp":30.3,"humidity":83,"rain":0.1,"pressure":1001.1,"uv_index":8.95,"wind_gusts":44.6,"aqi":101,"pm10":42.7,"pm2_5":29.7,"no2":5.6,"co":342.0,"o3":78.0,"so2":5.9,"mosquito_risk":6,"arthritis_risk":5,"migraine_risk":4,"frizz_risk":1,"updated_at":"2026-05-23T19:11:58.957813+05:30"},{"city":"Pune","state":"Maharashtra","latitude":18.5204,"longitude":73.8567,"temp":28.1,"humidity":74,"rain":0.0,"pressure":948.7,"uv_index":8.4,"wind_gusts":38.9,"aqi":46,"pm10":14.1,"pm2_5":11.7,"no2":8.1,"co":206.0,"o3":87.0,"so2":6.3,"mosquito_risk":7,"arthritis_risk":5,"migraine_risk":7,"frizz_risk":1,"updated_at":"2026-05-23T19:11:58.957824+05:30"},{"city":"Ahmedabad","state":"Gujarat","latitude":23.0225,"longitude":72.5714,"temp":40.7,"humidity":21,"rain":0.0,"pressure":998.5,"uv_index":8.15,"wind_gusts":33.1,"aqi":74,"pm10":42.1,"pm2_5":21.6,"no2":5.4,"co":194.0,"o3":87.0,"so2":2.8,"mosquito_risk":0,"arthritis_risk":5,"migraine_risk":10,"frizz_risk":0,"updated_at":"2026-05-23T19:11:58.957831+05:30"},{"city":"Jaipur","state":"Rajasthan","latitude":26.9124,"longitude":75.7873,"temp":38.8,"humidity":15,"rain":0.0,"pressure":956.5,"uv_index":8.25,"wind_gusts":51.8,"aqi":183,"pm10":306.4,"pm2_5":69.4,"no2":5.8,"co":177.0,"o3":97.0,"so2":4.0,"mosquito_risk":0,"arthritis_risk":5,"migraine_risk":10,"frizz_risk":0,"updated_at":"2026-05-23T19:11:58.957840+05:30"},{"city":"Lucknow","state":"Uttar Pradesh","latitude":26.8467,"longitude":80.9462,"temp":37.4,"humidity":22,"rain":0.0,"pressure":987.7,"uv_index":8.2,"wind_gusts":56.9,"aqi":163,"pm10":309.2,"pm2_5":73.1,"no2":8.4,"co":223.0,"o3":120.0,"so2":8.4,"mosquito_risk":0,"arthritis_risk":5,"migraine_risk":10,"frizz_risk":0,"updated_at":"2026-05-23T19:11:58.957846+05:30"},{"city":"Kanpur","state":"Uttar Pradesh","latitude":26.4499,"longitude":80.3319,"temp":38.3,"humidity":18,"rain":0.0,"pressure":985.9,"uv_index":8.25,"wind_gusts":52.9,"aqi":362,"pm10":722.7,"pm2_5":122.9,"no2":6.9,"co":224.0,"o3":124.0,"so2":8.7,"mosquito_risk":0,"arthritis_risk":5,"migraine_risk":10,"frizz_risk":0,"updated_at":"2026-05-23T19:11:58.957852+05:30"},{"city":"Chandigarh","state":"Chandigarh","latitude":30.7333,"longitude":76.7794,"temp":34.4,"humidity":21,"rain":0.0,"pressure":964.8,"uv_index":7.75,"wind_gusts":37.8,"aqi":119,"pm10":48.8,"pm2_5":23.3,"no2":8.1,"co":311.0,"o3":126.0,"so2":6.9,"mosquito_risk":0,"arthritis_risk":5,"migraine_risk":7,"frizz_risk":0,"updated_at":"2026-05-23T19:11:58.957858+05:30"},{"city":"Srinagar","state":"Jammu and Kashmir","latitude":34.0837,"longitude":74.7973,"temp":18.8,"humidity":58,"rain":0.0,"pressure":843.4,"uv_index":8.85,"wind_gusts":27.7,"aqi":80,"pm10":20.1,"pm2_5":10.6,"no2":8.5,"co":601.0,"o3":102.0,"so2":2.0,"mosquito_risk":0,"arthritis_risk":5,"migraine_risk":7,"frizz_risk":0,"updated_at":"2026-05-23T19:11:58.957865+05:30"},{"city":"Jammu","state":"Jammu and Kashmir","latitude":32.7266,"longitude":74.857,"temp":30.8,"humidity":36,"rain":0.0,"pressure":969.9,"uv_index":8.5,"wind_gusts":49.0,"aqi":95,"pm10":65.2,"pm2_5":25.4,"no2":11.0,"co":222.0,"o3":113.0,"so2":3.0,"mosquito_risk":0,"arthritis_risk":5,"migraine_risk":7,"frizz_risk":0,"updated_at":"2026-05-23T19:11:58.957871+05:30"},{"city":"Amritsar","state":"Punjab","latitude":31.634,"longitude":74.8723,"temp":33.9,"humidity":33,"rain":0.0,"pressure":977.0,"uv_index":8.4,"wind_gusts":30.2,"aqi":143,"pm10":49.5,"pm2_5":24.4,"no2":7.1,"co":280.0,"o3":136.0,"so2":7.5,"mosquito_risk":0,"arthritis_risk":5,"migraine_risk":7,"frizz_risk":0,"updated_at":"2026-05-23T19:11:58.957877+05:30"},{"city":"Ludhiana","state":"Punjab","latitude":30.901,"longitude":75.8573,"temp":36.0,"humidity":20,"rain":0.0,"pressure":974.8,"uv_index":8.0,"wind_gusts":37.8,"aqi":108,"pm10":70.1,"pm2_5":27.6,"no2":5.4,"co":279.0,"o3":124.0,"so2":5.3,"mosquito_risk":0,"arthritis_risk":5,"migraine_risk":10,"frizz_risk":0,"updated_at":"2026-05-23T19:11:58.957883+05:30"},{"city":"Jalandhar","state":"Punjab","latitude":31.326,"longitude":75.5762,"temp":35.5,"humidity":20,"rain":0.0,"pressure":975.8,"uv_index":8.15,"wind_gusts":35.3,"aqi":117,"pm10":81.7,"pm2_5":29.8,"no2":6.2,"co":339.0,"o3":131.0,"so2":5.8,"mosquito_risk":0,"arthritis_risk":5,"migraine_risk":10,"frizz_risk":0,"updated_at":"2026-05-23T19:11:58.957889+05:30"},{"city":"Dehradun","state":"Uttarakhand","latitude":30.6284,"longitude":78.0322,"temp":20.7,"humidity":47,"rain":0.0,"pressure":828.6,"uv_index":8.15,"wind_gusts":47.5,"aqi":86,"pm10":41.2,"pm2_5":13.9,"no2":7.3,"co":184.0,"o3":119.0,"so2":2.0,"mosquito_risk":0,"arthritis_risk":5,"migraine_risk":7,"frizz_risk":0,"updated_at":"2026-05-23T19:11:58.957895+05:30"},{"city":"Shimla","state":"Himachal Pradesh","latitude":31.1048,"longitude":77.1734,"temp":18.0,"humidity":33,"rain":0.0,"pressure":784.4,"uv_index":8.25,"wind_gusts":46.4,"aqi":93,"pm10":47.6,"pm2_5":16.9,"no2":4.3,"co":176.0,"o3":125.0,"so2":2.9,"mosquito_risk":0,"arthritis_risk":5,"migraine_risk":7,"frizz_risk":0,"updated_at":"2026-05-23T19:11:58.957903+05:30"},{"city":"Manali","state":"Himachal Pradesh","latitude":32.2396,"longitude":77.1887,"temp":17.8,"humidity":53,"rain":0.0,"pressure":818.1,"uv_index":9.85,"wind_gusts":47.5,"aqi":96,"pm10":43.5,"pm2_5":11.3,"no2":15.1,"co":153.0,"o3":124.0,"so2":0.5,"mosquito_risk":0,"arthritis_risk":5,"migraine_risk":7,"frizz_risk":0,"updated_at":"2026-05-23T19:11:58.957909+05:30"},{"city":"Gurgaon","state":"Haryana","latitude":28.4595,"longitude":77.0266,"temp":37.0,"humidity":19,"rain":0.0,"pressure":976.6,"uv_index":7.85,"wind_gusts":47.5,"aqi":885,"pm10":1531.1,"pm2_5":214.2,"no2":16.9,"co":383.0,"o3":97.0,"so2":8.9,"mosquito_risk":0,"arthritis_risk":5,"migraine_risk":10,"frizz_risk":0,"updated_at":"2026-05-23T19:11:58.957915+05:30"},{"city":"Noida","state":"Uttar Pradesh","latitude":28.5355,"longitude":77.391,"temp":37.5,"humidity":17,"rain":0.0,"pressure":979.4,"uv_index":7.75,"wind_gusts":44.6,"aqi":885,"pm10":1531.1,"pm2_5":214.2,"no2":16.9,"co":321.0,"o3":97.0,"so2":8.9,"mosquito_risk":0,"arthritis_risk":5,"migraine_risk":10,"frizz_risk":0,"updated_at":"2026-05-23T19:11:58.957921+05:30"},{"city":"Ghaziabad","state":"Uttar Pradesh","latitude":28.6692,"longitude":77.4538,"temp":36.7,"humidity":19,"rain":0.0,"pressure":977.5,"uv_index":7.75,"wind_gusts":58.0,"aqi":175,"pm10":599.8,"pm2_5":102.4,"no2":10.1,"co":227.0,"o3":114.0,"so2":11.3,"mosquito_risk":0,"arthritis_risk":5,"migraine_risk":10,"frizz_risk":0,"updated_at":"2026-05-23T19:11:58.957927+05:30"},{"city":"Faridabad","state":"Haryana","latitude":28.4089,"longitude":77.3178,"temp":38.3,"humidity":15,"rain":0.0,"pressure":978.9,"uv_index":7.8,"wind_gusts":50.0,"aqi":885,"pm10":1531.1,"pm2_5":214.2,"no2":16.9,"co":294.0,"o3":97.0,"so2":8.9,"mosquito_risk":0,"arthritis_risk":5,"migraine_risk":10,"frizz_risk":0,"updated_at":"2026-05-23T19:11:58.957933+05:30"},{"city":"Meerut","state":"Uttar Pradesh","latitude":28.9845,"longitude":77.7064,"temp":36.0,"humidity":22,"rain":0.0,"pressure":976.3,"uv_index":7.65,"wind_gusts":59.8,"aqi":175,"pm10":599.8,"pm2_5":102.4,"no2":10.1,"co":207.0,"o3":114.0,"so2":11.3,"mosquito_risk":0,"arthritis_risk":5,"migraine_risk":10,"frizz_risk":0,"updated_at":"2026-05-23T19:11:58.957938+05:30"},{"city":"Agra","state":"Uttar Pradesh","latitude":27.1767,"longitude":78.0081,"temp":37.2,"humidity":24,"rain":0.0,"pressure":982.5,"uv_index":8.1,"wind_gusts":42.1,"aqi":602,"pm10":1277.8,"pm2_5":176.5,"no2":10.1,"co":210.0,"o3":93.0,"so2":4.9,"mosquito_risk":0,"arthritis_risk":5,"migraine_risk":10,"frizz_risk":0,"updated_at":"2026-05-23T19:11:58.957947+05:30"},{"city":"Varanasi","state":"Uttar Pradesh","latitude":25.3176,"longitude":82.9739,"temp":38.5,"humidity":19,"rain":0.0,"pressure":990.8,"uv_index":8.75,"wind_gusts":49.0,"aqi":156,"pm10":176.5,"pm2_5":63.3,"no2":13.2,"co":274.0,"o3":113.0,"so2":9.7,"mosquito_risk":0,"arthritis_risk":5,"migraine_risk":10,"frizz_risk":0,"updated_at":"2026-05-23T19:11:58.957954+05:30"},{"city":"Prayagraj","state":"Uttar Pradesh","latitude":25.4358,"longitude":81.8463,"temp":39.0,"humidity":18,"rain":0.0,"pressure":989.8,"uv_index":8.65,"wind_gusts":42.8,"aqi":152,"pm10":124.3,"pm2_5":46.4,"no2":7.7,"co":261.0,"o3":116.0,"so2":7.9,"mosquito_risk":0,"arthritis_risk":5,"migraine_risk":10,"frizz_risk":0,"updated_at":"2026-05-23T19:11:58.957960+05:30"},{"city":"Gorakhpur","state":"Uttar Pradesh","latitude":26.7606,"longitude":83.3732,"temp":34.9,"humidity":38,"rain":0.0,"pressure":990.3,"uv_index":8.65,"wind_gusts":42.5,"aqi":172,"pm10":85.4,"pm2_5":42.3,"no2":7.1,"co":235.0,"o3":122.0,"so2":7.6,"mosquito_risk":0,"arthritis_risk":5,"migraine_risk":7,"frizz_risk":1,"updated_at":"2026-05-23T19:11:58.957969+05:30"},{"city":"Bareilly","state":"Uttar Pradesh","latitude":28.367,"longitude":79.4304,"temp":34.0,"humidity":32,"rain":0.0,"pressure":981.0,"uv_index":8.05,"wind_gusts":57.2,"aqi":150,"pm10":65.0,"pm2_5":32.5,"no2":7.2,"co":235.0,"o3":128.0,"so2":8.6,"mosquito_risk":0,"arthritis_risk":5,"migraine_risk":7,"frizz_risk":0,"updated_at":"2026-05-23T19:11:58.957975+05:30"},{"city":"Aligarh","state":"Uttar Pradesh","latitude":27.8974,"longitude":78.088,"temp":36.3,"humidity":25,"rain":0.0,"pressure":980.1,"uv_index":7.85,"wind_gusts":51.1,"aqi":543,"pm10":979.8,"pm2_5":156.9,"no2":10.4,"co":282.0,"o3":105.0,"so2":7.4,"mosquito_risk":0,"arthritis_risk":5,"migraine_risk":10,"frizz_risk":0,"updated_at":"2026-05-23T19:11:58.957981+05:30"},{"city":"Moradabad","state":"Uttar Pradesh","latitude":28.8386,"longitude":78.7733,"temp":34.5,"humidity":29,"rain":0.0,"pressure":977.7,"uv_index":7.85,"wind_gusts":65.9,"aqi":132,"pm10":190.9,"pm2_5":56.3,"no2":10.9,"co":274.0,"o3":109.0,"so2":7.5,"mosquito_risk":0,"arthritis_risk":5,"migraine_risk":7,"frizz_risk":0,"updated_at":"2026-05-23T19:11:58.957987+05:30"},{"city":"Saharanpur","state":"Uttar Pradesh","latitude":29.9637,"longitude":77.546,"temp":34.6,"humidity":24,"rain":0.0,"pressure":970.6,"uv_index":7.45,"wind_gusts":59.8,"aqi":116,"pm10":72.4,"pm2_5":28.5,"no2":9.1,"co":250.0,"o3":116.0,"so2":8.1,"mosquito_risk":0,"arthritis_risk":5,"migraine_risk":7,"frizz_risk":0,"updated_at":"2026-05-23T19:11:58.957993+05:30"},{"city":"Jhansi","state":"Uttar Pradesh","latitude":25.4484,"longitude":78.5685,"temp":38.2,"humidity":18,"rain":0.0,"pressure":973.1,"uv_index":8.5,"wind_gusts":46.8,"aqi":81,"pm10":68.5,"pm2_5":31.3,"no2":3.5,"co":153.0,"o3":94.0,"so2":3.6,"mosquito_risk":0,"arthritis_risk":5,"migraine_risk":10,"frizz_risk":0,"updated_at":"2026-05-23T19:12:02.207052+05:30"},{"city":"Surat","state":"Gujarat","latitude":21.1702,"longitude":72.8311,"temp":31.6,"humidity":68,"rain":0.0,"pressure":1005.3,"uv_index":7.65,"wind_gusts":39.2,"aqi":60,"pm10":17.6,"pm2_5":14.6,"no2":20.2,"co":309.0,"o3":35.0,"so2":42.2,"mosquito_risk":3,"arthritis_risk":5,"migraine_risk":4,"frizz_risk":1,"updated_at":"2026-05-23T19:12:02.207087+05:30"},{"city":"Vadodara","state":"Gujarat","latitude":22.3072,"longitude":73.1812,"temp":37.2,"humidity":40,"rain":0.0,"pressure":1001.3,"uv_index":8.1,"wind_gusts":41.8,"aqi":63,"pm10":32.4,"pm2_5":20.4,"no2":5.8,"co":183.0,"o3":96.0,"so2":6.7,"mosquito_risk":0,"arthritis_risk":5,"migraine_risk":7,"frizz_risk":1,"updated_at":"2026-05-23T19:12:02.207098+05:30"},{"city":"Rajkot","state":"Gujarat","latitude":22.3039,"longitude":70.8022,"temp":34.3,"humidity":55,"rain":0.0,"pressure":992.3,"uv_index":7.55,"wind_gusts":41.0,"aqi":67,"pm10":37.7,"pm2_5":23.3,"no2":2.8,"co":130.0,"o3":98.0,"so2":6.2,"mosquito_risk":0,"arthritis_risk":5,"migraine_risk":7,"frizz_risk":1,"updated_at":"2026-05-23T19:12:02.207106+05:30"},{"city":"Thane","state":"Maharashtra","latitude":19.2183,"longitude":72.9781,"temp":31.1,"humidity":69,"rain":0.0,"pressure":1007.4,"uv_index":7.65,"wind_gusts":29.9,"aqi":47,"pm10":11.4,"pm2_5":8.7,"no2":9.8,"co":217.0,"o3":63.0,"so2":5.5,"mosquito_risk":3,"arthritis_risk":5,"migraine_risk":4,"frizz_risk":1,"updated_at":"2026-05-23T19:12:02.207114+05:30"},{"city":"Nagpur","state":"Maharashtra","latitude":21.1458,"longitude":79.0882,"temp":39.8,"humidity":17,"rain":0.0,"pressure":969.5,"uv_index":8.95,"wind_gusts":56.9,"aqi":84,"pm10":40.3,"pm2_5":20.5,"no2":7.0,"co":178.0,"o3":100.0,"so2":10.4,"mosquito_risk":0,"arthritis_risk":5,"migraine_risk":10,"frizz_risk":0,"updated_at":"2026-05-23T19:12:02.207121+05:30"},{"city":"Nashik","state":"Maharashtra","latitude":19.9975,"longitude":73.7898,"temp":30.1,"humidity":60,"rain":0.0,"pressure":945.4,"uv_index":8.1,"wind_gusts":43.9,"aqi":47,"pm10":10.7,"pm2_5":7.3,"no2":2.7,"co":145.0,"o3":72.0,"so2":0.9,"mosquito_risk":0,"arthritis_risk":5,"migraine_risk":7,"frizz_risk":1,"updated_at":"2026-05-23T19:12:02.207128+05:30"},{"city":"Aurangabad","state":"Maharashtra","latitude":19.8762,"longitude":75.3433,"temp":32.0,"humidity":48,"rain":0.0,"pressure":943.6,"uv_index":9.05,"wind_gusts":44.3,"aqi":58,"pm10":32.0,"pm2_5":21.5,"no2":3.5,"co":169.0,"o3":99.0,"so2":3.2,"mosquito_risk":0,"arthritis_risk":5,"migraine_risk":7,"frizz_risk":1,"updated_at":"2026-05-23T19:12:02.207135+05:30"},{"city":"Solapur","state":"Maharashtra","latitude":17.6599,"longitude":75.9064,"temp":31.8,"humidity":55,"rain":0.0,"pressure":957.1,"uv_index":9.0,"wind_gusts":42.5,"aqi":66,"pm10":25.5,"pm2_5":19.6,"no2":3.8,"co":182.0,"o3":112.0,"so2":3.3,"mosquito_risk":0,"arthritis_risk":5,"migraine_risk":7,"frizz_risk":1,"updated_at":"2026-05-23T19:12:02.207142+05:30"},{"city":"Kolhapur","state":"Maharashtra","latitude":16.705,"longitude":74.2433,"temp":26.0,"humidity":85,"rain":0.0,"pressure":948.9,"uv_index":8.85,"wind_gusts":35.6,"aqi":43,"pm10":11.2,"pm2_5":9.3,"no2":8.5,"co":164.0,"o3":67.0,"so2":2.4,"mosquito_risk":7,"arthritis_risk":5,"migraine_risk":7,"frizz_risk":1,"updated_at":"2026-05-23T19:12:02.207150+05:30"},{"city":"Goa","state":"Goa","latitude":15.2993,"longitude":74.124,"temp":26.3,"humidity":96,"rain":0.0,"pressure":999.5,"uv_index":5.2,"wind_gusts":27.0,"aqi":32,"pm10":10.6,"pm2_5":7.3,"no2":2.8,"co":194.0,"o3":51.0,"so2":0.9,"mosquito_risk":7,"arthritis_risk":5,"migraine_risk":3,"frizz_risk":1,"updated_at":"2026-05-23T19:12:02.207158+05:30"},{"city":"Jodhpur","state":"Rajasthan","latitude":26.2389,"longitude":73.0243,"temp":39.8,"humidity":13,"rain":0.0,"pressure":979.3,"uv_index":8.4,"wind_gusts":43.2,"aqi":170,"pm10":306.4,"pm2_5":68.2,"no2":3.6,"co":146.0,"o3":94.0,"so2":3.2,"mosquito_risk":0,"arthritis_risk":5,"migraine_risk":10,"frizz_risk":0,"updated_at":"2026-05-23T19:12:02.207165+05:30"},{"city":"Udaipur","state":"Rajasthan","latitude":24.5854,"longitude":73.7125,"temp":35.9,"humidity":17,"rain":0.0,"pressure":945.1,"uv_index":8.85,"wind_gusts":39.2,"aqi":94,"pm10":102.0,"pm2_5":33.1,"no2":1.6,"co":146.0,"o3":94.0,"so2":2.2,"mosquito_risk":0,"arthritis_risk":5,"migraine_risk":10,"frizz_risk":0,"updated_at":"2026-05-23T19:12:02.207173+05:30"},{"city":"Kota","state":"Rajasthan","latitude":25.2138,"longitude":75.8648,"temp":39.2,"humidity":16,"rain":0.0,"pressure":975.3,"uv_index":8.4,"wind_gusts":50.0,"aqi":90,"pm10":94.3,"pm2_5":36.2,"no2":4.3,"co":166.0,"o3":97.0,"so2":3.6,"mosquito_risk":0,"arthritis_risk":5,"migraine_risk":10,"frizz_risk":0,"updated_at":"2026-05-23T19:12:02.207181+05:30"},{"city":"Bikaner","state":"Rajasthan","latitude":28.0229,"longitude":73.3119,"temp":40.8,"humidity":10,"rain":0.0,"pressure":977.0,"uv_index":8.4,"wind_gusts":45.7,"aqi":131,"pm10":75.9,"pm2_5":25.7,"no2":1.2,"co":144.0,"o3":106.0,"so2":2.0,"mosquito_risk":0,"arthritis_risk":5,"migraine_risk":10,"frizz_risk":0,"updated_at":"2026-05-23T19:12:02.207188+05:30"},{"city":"Ajmer","state":"Rajasthan","latitude":26.4499,"longitude":74.6399,"temp":36.7,"humidity":19,"rain":0.0,"pressure":951.9,"uv_index":8.4,"wind_gusts":51.8,"aqi":116,"pm10":157.4,"pm2_5":47.5,"no2":2.4,"co":164.0,"o3":103.0,"so2":3.3,"mosquito_risk":0,"arthritis_risk":5,"migraine_risk":10,"frizz_risk":0,"updated_at":"2026-05-23T19:12:02.207194+05:30"},{"city":"Gwalior","state":"Madhya Pradesh","latitude":26.2183,"longitude":78.1828,"temp":38.8,"humidity":17,"rain":0.0,"pressure":978.1,"uv_index":8.25,"wind_gusts":47.5,"aqi":91,"pm10":90.3,"pm2_5":37.3,"no2":3.5,"co":164.0,"o3":98.0,"so2":2.7,"mosquito_risk":0,"arthritis_risk":5,"migraine_risk":10,"frizz_risk":0,"updated_at":"2026-05-23T19:12:02.207202+05:30"},{"city":"Indore","state":"Madhya Pradesh","latitude":22.7196,"longitude":75.8577,"temp":36.5,"humidity":18,"rain":0.0,"pressure":946.4,"uv_index":8.7,"wind_gusts":54.0,"aqi":67,"pm10":47.0,"pm2_5":20.9,"no2":2.6,"co":197.0,"o3":103.0,"so2":2.5,"mosquito_risk":0,"arthritis_risk":5,"migraine_risk":10,"frizz_risk":0,"updated_at":"2026-05-23T19:12:02.207209+05:30"},{"city":"Bhopal","state":"Madhya Pradesh","latitude":23.2599,"longitude":77.4126,"temp":37.7,"humidity":16,"rain":0.0,"pressure":950.7,"uv_index":8.75,"wind_gusts":44.6,"aqi":67,"pm10":61.7,"pm2_5":26.5,"no2":2.9,"co":200.0,"o3":102.0,"so2":3.2,"mosquito_risk":0,"arthritis_risk":5,"migraine_risk":10,"frizz_risk":0,"updated_at":"2026-05-23T19:12:02.207216+05:30"},{"city":"Jabalpur","state":"Madhya Pradesh","latitude":23.1815,"longitude":79.9864,"temp":37.7,"humidity":14,"rain":0.0,"pressure":957.5,"uv_index":8.9,"wind_gusts":43.9,"aqi":70,"pm10":47.7,"pm2_5":21.2,"no2":4.5,"co":154.0,"o3":105.0,"so2":2.9,"mosquito_risk":0,"arthritis_risk":5,"migraine_risk":10,"frizz_risk":0,"updated_at":"2026-05-23T19:12:02.207223+05:30"},{"city":"Ujjain","state":"Madhya Pradesh","latitude":23.1765,"longitude":75.7885,"temp":36.7,"humidity":19,"rain":0.0,"pressure":951.7,"uv_index":8.65,"wind_gusts":50.0,"aqi":68,"pm10":61.7,"pm2_5":25.4,"no2":1.6,"co":158.0,"o3":101.0,"so2":2.4,"mosquito_risk":0,"arthritis_risk":5,"migraine_risk":10,"frizz_risk":0,"updated_at":"2026-05-23T19:12:02.207231+05:30"},{"city":"Visakhapatnam","state":"Andhra Pradesh","latitude":17.6868,"longitude":83.2185,"temp":32.8,"humidity":71,"rain":0.0,"pressure":998.1,"uv_index":9.05,"wind_gusts":32.0,"aqi":212,"pm10":56.6,"pm2_5":48.9,"no2":29.0,"co":727.0,"o3":145.0,"so2":47.3,"mosquito_risk":3,"arthritis_risk":5,"migraine_risk":7,"frizz_risk":1,"updated_at":"2026-05-23T19:12:02.207238+05:30"},{"city":"Vijayawada","state":"Andhra Pradesh","latitude":16.5062,"longitude":80.648,"temp":37.6,"humidity":35,"rain":0.0,"pressure":997.4,"uv_index":8.9,"wind_gusts":44.6,"aqi":143,"pm10":47.0,"pm2_5":42.7,"no2":14.9,"co":289.0,"o3":125.0,"so2":10.9,"mosquito_risk":0,"arthritis_risk":5,"migraine_risk":10,"frizz_risk":1,"updated_at":"2026-05-23T19:12:02.207246+05:30"},{"city":"Guntur","state":"Andhra Pradesh","latitude":16.3067,"longitude":80.4365,"temp":37.0,"humidity":38,"rain":0.0,"pressure":998.9,"uv_index":8.9,"wind_gusts":44.6,"aqi":136,"pm10":42.0,"pm2_5":37.1,"no2":9.7,"co":237.0,"o3":132.0,"so2":10.5,"mosquito_risk":0,"arthritis_risk":5,"migraine_risk":10,"frizz_risk":1,"updated_at":"2026-05-23T19:12:02.207252+05:30"},{"city":"Nellore","state":"Andhra Pradesh","latitude":14.4426,"longitude":79.9865,"temp":34.5,"humidity":49,"rain":0.0,"pressure":1002.9,"uv_index":8.95,"wind_gusts":54.0,"aqi":85,"pm10":29.2,"pm2_5":23.5,"no2":6.5,"co":236.0,"o3":123.0,"so2":5.3,"mosquito_risk":0,"arthritis_risk":5,"migraine_risk":4,"frizz_risk":1,"updated_at":"2026-05-23T19:12:02.207261+05:30"},{"city":"Kurnool","state":"Andhra Pradesh","latitude":15.8281,"longitude":78.0373,"temp":26.9,"humidity":89,"rain":0.1,"pressure":976.6,"uv_index":9.05,"wind_gusts":55.8,"aqi":77,"pm10":22.1,"pm2_5":17.7,"no2":5.5,"co":211.0,"o3":122.0,"so2":9.5,"mosquito_risk":10,"arthritis_risk":5,"migraine_risk":7,"frizz_risk":1,"updated_at":"2026-05-23T19:12:02.207269+05:30"},{"city":"Kakinada","state":"Andhra Pradesh","latitude":16.9891,"longitude":82.2475,"temp":36.5,"humidity":51,"rain":0.0,"pressure":1001.5,"uv_index":9.05,"wind_gusts":47.2,"aqi":164,"pm10":39.0,"pm2_5":30.9,"no2":5.0,"co":394.0,"o3":150.0,"so2":3.9,"mosquito_risk":0,"arthritis_risk":5,"migraine_risk":7,"frizz_risk":1,"updated_at":"2026-05-23T19:12:02.207276+05:30"},{"city":"Tirupati","state":"Andhra Pradesh","latitude":13.6288,"longitude":79.4192,"temp":31.4,"humidity":59,"rain":0.0,"pressure":989.2,"uv_index":6.65,"wind_gusts":42.1,"aqi":72,"pm10":31.0,"pm2_5":26.5,"no2":10.9,"co":353.0,"o3":96.0,"so2":4.0,"mosquito_risk":0,"arthritis_risk":5,"migraine_risk":7,"frizz_risk":1,"updated_at":"2026-05-23T19:12:02.207283+05:30"},{"city":"Warangal","state":"Telangana","latitude":17.9689,"longitude":79.5941,"temp":37.1,"humidity":26,"rain":0.0,"pressure":974.8,"uv_index":9.1,"wind_gusts":49.7,"aqi":142,"pm10":35.7,"pm2_5":31.8,"no2":8.8,"co":275.0,"o3":132.0,"so2":10.0,"mosquito_risk":0,"arthritis_risk":5,"migraine_risk":10,"frizz_risk":0,"updated_at":"2026-05-23T19:12:02.207289+05:30"},{"city":"Nizamabad","state":"Telangana","latitude":18.6725,"longitude":78.0941,"temp":36.3,"humidity":29,"rain":0.0,"pressure":962.8,"uv_index":9.1,"wind_gusts":47.2,"aqi":86,"pm10":27.9,"pm2_5":20.3,"no2":3.9,"co":215.0,"o3":110.0,"so2":4.4,"mosquito_risk":0,"arthritis_risk":5,"migraine_risk":10,"frizz_risk":0,"updated_at":"2026-05-23T19:12:02.207296+05:30"},{"city":"Mysore","state":"Karnataka","latitude":12.2958,"longitude":76.6396,"temp":23.0,"humidity":94,"rain":0.0,"pressure":930.2,"uv_index":8.7,"wind_gusts":40.7,"aqi":44,"pm10":12.7,"pm2_5":10.5,"no2":12.0,"co":196.0,"o3":81.0,"so2":2.2,"mosquito_risk":3,"arthritis_risk":5,"migraine_risk":7,"frizz_risk":1,"updated_at":"2026-05-23T19:12:02.207304+05:30"},{"city":"Mangalore","state":"Karnataka","latitude":12.9141,"longitude":74.856,"temp":25.2,"humidity":98,"rain":0.3,"pressure":1009.7,"uv_index":7.6,"wind_gusts":28.4,"aqi":36,"pm10":14.9,"pm2_5":10.5,"no2":5.3,"co":165.0,"o3":52.0,"so2":1.7,"mosquito_risk":10,"arthritis_risk":0,"migraine_risk":4,"frizz_risk":1,"updated_at":"2026-05-23T19:12:02.207311+05:30"},{"city":"Hubli-Dharwad","state":"Karnataka","latitude":15.3647,"longitude":75.124,"temp":24.2,"humidity":91,"rain":0.1,"pressure":942.3,"uv_index":9.0,"wind_gusts":51.8,"aqi":38,"pm10":5.8,"pm2_5":4.6,"no2":4.9,"co":166.0,"o3":61.0,"so2":0.8,"mosquito_risk":6,"arthritis_risk":5,"migraine_risk":7,"frizz_risk":1,"updated_at":"2026-05-23T19:12:02.207318+05:30"},{"city":"Belgaum","state":"Karnataka","latitude":15.8497,"longitude":74.4977,"temp":24.3,"humidity":89,"rain":0.0,"pressure":927.0,"uv_index":9.0,"wind_gusts":37.8,"aqi":37,"pm10":10.0,"pm2_5":7.5,"no2":6.6,"co":155.0,"o3":63.0,"so2":1.8,"mosquito_risk":3,"arthritis_risk":5,"migraine_risk":7,"frizz_risk":1,"updated_at":"2026-05-23T19:12:05.454691+05:30"},{"city":"Coimbatore","state":"Tamil Nadu","latitude":11.0168,"longitude":76.9558,"temp":27.0,"humidity":79,"rain":0.1,"pressure":963.5,"uv_index":8.8,"wind_gusts":49.3,"aqi":40,"pm10":10.9,"pm2_5":8.8,"no2":5.8,"co":199.0,"o3":72.0,"so2":2.1,"mosquito_risk":10,"arthritis_risk":5,"migraine_risk":7,"frizz_risk":1,"updated_at":"2026-05-23T19:12:05.454726+05:30"},{"city":"Madurai","state":"Tamil Nadu","latitude":9.9252,"longitude":78.1198,"temp":29.3,"humidity":63,"rain":0.0,"pressure":993.6,"uv_index":8.2,"wind_gusts":30.6,"aqi":62,"pm10":24.3,"pm2_5":13.2,"no2":6.7,"co":361.0,"o3":97.0,"so2":2.6,"mosquito_risk":7,"arthritis_risk":5,"migraine_risk":7,"frizz_risk":1,"updated_at":"2026-05-23T19:12:05.454737+05:30"},{"city":"Trichy","state":"Tamil Nadu","latitude":10.7905,"longitude":78.7047,"temp":31.0,"humidity":59,"rain":0.0,"pressure":999.0,"uv_index":8.3,"wind_gusts":46.1,"aqi":48,"pm10":33.9,"pm2_5":24.4,"no2":23.8,"co":191.0,"o3":75.0,"so2":4.9,"mosquito_risk":0,"arthritis_risk":5,"migraine_risk":7,"frizz_risk":1,"updated_at":"2026-05-23T19:12:05.454746+05:30"},{"city":"Salem","state":"Tamil Nadu","latitude":11.6643,"longitude":78.146,"temp":29.4,"humidity":60,"rain":0.0,"pressure":977.8,"uv_index":8.3,"wind_gusts":38.5,"aqi":78,"pm10":23.3,"pm2_5":14.0,"no2":8.0,"co":238.0,"o3":102.0,"so2":5.8,"mosquito_risk":4,"arthritis_risk":5,"migraine_risk":7,"frizz_risk":1,"updated_at":"2026-05-23T19:12:05.454753+05:30"},{"city":"Tirunelveli","state":"Tamil Nadu","latitude":8.7139,"longitude":77.7567,"temp":30.8,"humidity":61,"rain":0.0,"pressure":1003.2,"uv_index":8.25,"wind_gusts":39.2,"aqi":39,"pm10":9.8,"pm2_5":7.5,"no2":3.8,"co":154.0,"o3":72.0,"so2":1.3,"mosquito_risk":3,"arthritis_risk":5,"migraine_risk":4,"frizz_risk":1,"updated_at":"2026-05-23T19:12:05.454760+05:30"},{"city":"Vellore","state":"Tamil Nadu","latitude":12.9165,"longitude":79.1325,"temp":30.6,"humidity":57,"rain":0.0,"pressure":982.8,"uv_index":8.1,"wind_gusts":42.8,"aqi":76,"pm10":36.3,"pm2_5":28.8,"no2":16.8,"co":211.0,"o3":85.0,"so2":4.9,"mosquito_risk":0,"arthritis_risk":5,"migraine_risk":7,"frizz_risk":1,"updated_at":"2026-05-23T19:12:05.454768+05:30"},{"city":"Erode","state":"Tamil Nadu","latitude":11.341,"longitude":77.7172,"temp":27.9,"humidity":78,"rain":0.0,"pressure":989.8,"uv_index":8.55,"wind_gusts":42.8,"aqi":50,"pm10":14.3,"pm2_5":10.6,"no2":8.9,"co":235.0,"o3":90.0,"so2":2.3,"mosquito_risk":7,"arthritis_risk":5,"migraine_risk":7,"frizz_risk":1,"updated_at":"2026-05-23T19:12:05.454775+05:30"},{"city":"Kochi","state":"Kerala","latitude":9.9312,"longitude":76.2673,"temp":26.5,"humidity":89,"rain":0.0,"pressure":1011.1,"uv_index":8.05,"wind_gusts":37.4,"aqi":58,"pm10":17.3,"pm2_5":12.8,"no2":10.1,"co":161.0,"o3":58.0,"so2":3.4,"mosquito_risk":7,"arthritis_risk":0,"migraine_risk":4,"frizz_risk":1,"updated_at":"2026-05-23T19:12:05.454782+05:30"},{"city":"Thiruvananthapuram","state":"Kerala","latitude":8.5241,"longitude":76.9366,"temp":26.0,"humidity":92,"rain":0.1,"pressure":1010.0,"uv_index":8.15,"wind_gusts":43.2,"aqi":38,"pm10":18.3,"pm2_5":10.5,"no2":2.5,"co":124.0,"o3":59.0,"so2":0.8,"mosquito_risk":10,"arthritis_risk":0,"migraine_risk":4,"frizz_risk":1,"updated_at":"2026-05-23T19:12:05.454790+05:30"},{"city":"Kozhikode","state":"Kerala","latitude":11.2588,"longitude":75.7804,"temp":25.4,"humidity":99,"rain":0.0,"pressure":1010.3,"uv_index":8.45,"wind_gusts":25.9,"aqi":33,"pm10":13.0,"pm2_5":8.1,"no2":1.3,"co":195.0,"o3":68.0,"so2":0.6,"mosquito_risk":7,"arthritis_risk":0,"migraine_risk":4,"frizz_risk":1,"updated_at":"2026-05-23T19:12:05.454797+05:30"},{"city":"Thrissur","state":"Kerala","latitude":10.5276,"longitude":76.2144,"temp":25.0,"humidity":98,"rain":0.0,"pressure":1009.5,"uv_index":8.6,"wind_gusts":29.2,"aqi":58,"pm10":14.0,"pm2_5":10.8,"no2":9.0,"co":199.0,"o3":55.0,"so2":2.4,"mosquito_risk":7,"arthritis_risk":0,"migraine_risk":4,"frizz_risk":1,"updated_at":"2026-05-23T19:12:05.454805+05:30"},{"city":"Kannur","state":"Kerala","latitude":11.8745,"longitude":75.3704,"temp":25.2,"humidity":99,"rain":0.1,"pressure":1009.8,"uv_index":7.85,"wind_gusts":24.5,"aqi":36,"pm10":13.8,"pm2_5":10.0,"no2":7.0,"co":157.0,"o3":51.0,"so2":1.3,"mosquito_risk":10,"arthritis_risk":0,"migraine_risk":4,"frizz_risk":1,"updated_at":"2026-05-23T19:12:05.454811+05:30"},{"city":"Patna","state":"Bihar","latitude":25.5941,"longitude":85.1376,"temp":35.0,"humidity":56,"rain":0.0,"pressure":993.3,"uv_index":8.85,"wind_gusts":36.0,"aqi":188,"pm10":177.9,"pm2_5":84.1,"no2":31.7,"co":439.0,"o3":115.0,"so2":17.5,"mosquito_risk":0,"arthritis_risk":5,"migraine_risk":7,"frizz_risk":1,"updated_at":"2026-05-23T19:12:05.454818+05:30"},{"city":"Gaya","state":"Bihar","latitude":24.7914,"longitude":85.0002,"temp":35.7,"humidity":33,"rain":0.0,"pressure":987.2,"uv_index":8.9,"wind_gusts":36.0,"aqi":158,"pm10":205.4,"pm2_5":71.5,"no2":17.8,"co":312.0,"o3":107.0,"so2":10.3,"mosquito_risk":0,"arthritis_risk":5,"migraine_risk":10,"frizz_risk":1,"updated_at":"2026-05-23T19:12:05.454826+05:30"},{"city":"Muzaffarpur","state":"Bihar","latitude":26.1209,"longitude":85.3647,"temp":32.5,"humidity":78,"rain":0.0,"pressure":993.1,"uv_index":8.85,"wind_gusts":21.6,"aqi":201,"pm10":137.4,"pm2_5":86.1,"no2":23.4,"co":482.0,"o3":139.0,"so2":17.9,"mosquito_risk":3,"arthritis_risk":5,"migraine_risk":7,"frizz_risk":1,"updated_at":"2026-05-23T19:12:05.454832+05:30"},{"city":"Bhagalpur","state":"Bihar","latitude":25.2425,"longitude":87.0117,"temp":33.3,"humidity":68,"rain":0.0,"pressure":994.7,"uv_index":8.8,"wind_gusts":38.2,"aqi":189,"pm10":162.1,"pm2_5":64.3,"no2":12.9,"co":450.0,"o3":136.0,"so2":13.6,"mosquito_risk":3,"arthritis_risk":5,"migraine_risk":7,"frizz_risk":1,"updated_at":"2026-05-23T19:12:05.454839+05:30"},{"city":"Ranchi","state":"Jharkhand","latitude":23.3441,"longitude":85.3096,"temp":30.0,"humidity":36,"rain":0.0,"pressure":933.6,"uv_index":9.3,"wind_gusts":41.0,"aqi":130,"pm10":65.7,"pm2_5":32.1,"no2":9.8,"co":273.0,"o3":129.0,"so2":9.8,"mosquito_risk":4,"arthritis_risk":5,"migraine_risk":7,"frizz_risk":0,"updated_at":"2026-05-23T19:12:05.454846+05:30"},{"city":"Jamshedpur","state":"Jharkhand","latitude":22.8046,"longitude":86.2029,"temp":33.4,"humidity":56,"rain":0.0,"pressure":985.8,"uv_index":9.1,"wind_gusts":28.4,"aqi":193,"pm10":115.0,"pm2_5":59.5,"no2":14.1,"co":318.0,"o3":137.0,"so2":18.6,"mosquito_risk":0,"arthritis_risk":5,"migraine_risk":7,"frizz_risk":1,"updated_at":"2026-05-23T19:12:05.454853+05:30"},{"city":"Dhanbad","state":"Jharkhand","latitude":23.7957,"longitude":86.4304,"temp":35.0,"humidity":30,"rain":0.0,"pressure":974.6,"uv_index":9.05,"wind_gusts":38.9,"aqi":164,"pm10":228.2,"pm2_5":103.4,"no2":61.3,"co":244.0,"o3":78.0,"so2":122.3,"mosquito_risk":0,"arthritis_risk":5,"migraine_risk":7,"frizz_risk":0,"updated_at":"2026-05-23T19:12:05.454860+05:30"},{"city":"Bokaro","state":"Jharkhand","latitude":23.6693,"longitude":86.1511,"temp":34.5,"humidity":43,"rain":0.0,"pressure":978.2,"uv_index":9.1,"wind_gusts":31.3,"aqi":163,"pm10":205.8,"pm2_5":92.7,"no2":43.0,"co":245.0,"o3":98.0,"so2":118.3,"mosquito_risk":0,"arthritis_risk":5,"migraine_risk":7,"frizz_risk":1,"updated_at":"2026-05-23T19:12:05.454868+05:30"},{"city":"Bhubaneswar","state":"Odisha","latitude":20.2961,"longitude":85.8245,"temp":30.1,"humidity":93,"rain":0.2,"pressure":998.8,"uv_index":8.45,"wind_gusts":38.9,"aqi":123,"pm10":35.6,"pm2_5":29.2,"no2":6.6,"co":309.0,"o3":116.0,"so2":8.4,"mosquito_risk":6,"arthritis_risk":5,"migraine_risk":7,"frizz_risk":1,"updated_at":"2026-05-23T19:12:05.454874+05:30"},{"city":"Cuttack","state":"Odisha","latitude":20.4625,"longitude":85.8828,"temp":30.0,"humidity":90,"rain":1.1,"pressure":1000.2,"uv_index":8.35,"wind_gusts":31.7,"aqi":123,"pm10":35.6,"pm2_5":29.2,"no2":6.6,"co":296.0,"o3":116.0,"so2":8.4,"mosquito_risk":10,"arthritis_risk":5,"migraine_risk":4,"frizz_risk":1,"updated_at":"2026-05-23T19:12:05.454881+05:30"},{"city":"Rourkela","state":"Odisha","latitude":22.2604,"longitude":84.8536,"temp":34.7,"humidity":37,"rain":0.0,"pressure":979.4,"uv_index":9.0,"wind_gusts":38.2,"aqi":158,"pm10":94.8,"pm2_5":43.3,"no2":15.8,"co":527.0,"o3":125.0,"so2":9.4,"mosquito_risk":0,"arthritis_risk":5,"migraine_risk":7,"frizz_risk":1,"updated_at":"2026-05-23T19:12:05.454888+05:30"},{"city":"Raipur","state":"Chhattisgarh","latitude":21.2514,"longitude":81.6296,"temp":39.3,"humidity":17,"rain":0.0,"pressure":969.6,"uv_index":8.85,"wind_gusts":45.4,"aqi":140,"pm10":27.1,"pm2_5":22.7,"no2":20.5,"co":174.0,"o3":91.0,"so2":31.4,"mosquito_risk":0,"arthritis_risk":5,"migraine_risk":10,"frizz_risk":0,"updated_at":"2026-05-23T19:12:05.454894+05:30"},{"city":"Bhilai","state":"Chhattisgarh","latitude":21.1938,"longitude":81.3509,"temp":38.2,"humidity":17,"rain":0.0,"pressure":969.9,"uv_index":8.95,"wind_gusts":45.7,"aqi":102,"pm10":29.9,"pm2_5":23.1,"no2":19.5,"co":160.0,"o3":92.0,"so2":28.8,"mosquito_risk":0,"arthritis_risk":5,"migraine_risk":10,"frizz_risk":0,"updated_at":"2026-05-23T19:12:05.454901+05:30"},{"city":"Guwahati","state":"Assam","latitude":26.1158,"longitude":91.7086,"temp":25.8,"humidity":91,"rain":0.0,"pressure":997.6,"uv_index":8.75,"wind_gusts":25.9,"aqi":62,"pm10":29.0,"pm2_5":22.1,"no2":6.7,"co":398.0,"o3":87.0,"so2":4.3,"mosquito_risk":7,"arthritis_risk":5,"migraine_risk":7,"frizz_risk":1,"updated_at":"2026-05-23T19:12:05.454907+05:30"},{"city":"Agartala","state":"Tripura","latitude":23.8315,"longitude":91.2868,"temp":29.3,"humidity":81,"rain":0.0,"pressure":1002.6,"uv_index":8.8,"wind_gusts":44.6,"aqi":81,"pm10":30.5,"pm2_5":23.9,"no2":7.6,"co":225.0,"o3":66.0,"so2":2.4,"mosquito_risk":7,"arthritis_risk":5,"migraine_risk":4,"frizz_risk":1,"updated_at":"2026-05-23T19:12:05.454914+05:30"},{"city":"Shillong","state":"Meghalaya","latitude":25.5788,"longitude":91.8933,"temp":19.7,"humidity":93,"rain":0.0,"pressure":854.9,"uv_index":9.05,"wind_gusts":51.5,"aqi":58,"pm10":24.4,"pm2_5":16.9,"no2":6.1,"co":275.0,"o3":97.0,"so2":3.6,"mosquito_risk":3,"arthritis_risk":10,"migraine_risk":7,"frizz_risk":1,"updated_at":"2026-05-23T19:12:05.454920+05:30"},{"city":"Imphal","state":"Manipur","latitude":24.817,"longitude":93.9368,"temp":24.4,"humidity":85,"rain":0.0,"pressure":921.6,"uv_index":9.0,"wind_gusts":36.0,"aqi":57,"pm10":25.1,"pm2_5":17.8,"no2":8.3,"co":338.0,"o3":70.0,"so2":2.3,"mosquito_risk":3,"arthritis_risk":5,"migraine_risk":7,"frizz_risk":1,"updated_at":"2026-05-23T19:12:05.454927+05:30"},{"city":"Aizawl","state":"Mizoram","latitude":23.7271,"longitude":92.7176,"temp":21.6,"humidity":86,"rain":0.0,"pressure":891.1,"uv_index":9.0,"wind_gusts":38.2,"aqi":58,"pm10":36.7,"pm2_5":22.7,"no2":3.7,"co":204.0,"o3":81.0,"so2":2.1,"mosquito_risk":3,"arthritis_risk":5,"migraine_risk":7,"frizz_risk":1,"updated_at":"2026-05-23T19:12:05.454933+05:30"},{"city":"Kohima","state":"Nagaland","latitude":25.6701,"longitude":94.1077,"temp":18.9,"humidity":94,"rain":0.0,"pressure":852.7,"uv_index":9.3,"wind_gusts":26.6,"aqi":45,"pm10":17.3,"pm2_5":10.8,"no2":6.2,"co":304.0,"o3":72.0,"so2":1.7,"mosquito_risk":3,"arthritis_risk":10,"migraine_risk":7,"frizz_risk":1,"updated_at":"2026-05-23T19:12:05.454941+05:30"},{"city":"Gangtok","state":"Sikkim","latitude":27.3314,"longitude":88.6138,"temp":17.8,"humidity":91,"rain":0.3,"pressure":834.1,"uv_index":9.15,"wind_gusts":32.4,"aqi":89,"pm10":8.0,"pm2_5":5.7,"no2":5.6,"co":393.0,"o3":114.0,"so2":2.4,"mosquito_risk":6,"arthritis_risk":10,"migraine_risk":7,"frizz_risk":1,"updated_at":"2026-05-23T19:12:05.454949+05:30"},{"city":"Siliguri","state":"West Bengal","latitude":26.7271,"longitude":88.3953,"temp":25.9,"humidity":89,"rain":0.0,"pressure":988.4,"uv_index":8.75,"wind_gusts":23.8,"aqi":109,"pm10":32.5,"pm2_5":22.5,"no2":8.5,"co":621.0,"o3":120.0,"so2":6.0,"mosquito_risk":7,"arthritis_risk":5,"migraine_risk":7,"frizz_risk":1,"updated_at":"2026-05-23T19:12:08.756027+05:30"},{"city":"Durgapur","state":"West Bengal","latitude":23.5204,"longitude":87.3119,"temp":30.3,"humidity":76,"rain":0.0,"pressure":989.8,"uv_index":9.0,"wind_gusts":34.9,"aqi":212,"pm10":115.5,"pm2_5":86.6,"no2":23.8,"co":507.0,"o3":147.0,"so2":41.0,"mosquito_risk":3,"arthritis_risk":5,"migraine_risk":7,"frizz_risk":1,"updated_at":"2026-05-23T19:12:08.756063+05:30"},{"city":"Asansol","state":"West Bengal","latitude":23.6739,"longitude":86.9524,"temp":31.6,"humidity":68,"rain":0.0,"pressure":988.4,"uv_index":9.0,"wind_gusts":33.1,"aqi":196,"pm10":166.2,"pm2_5":82.4,"no2":40.0,"co":677.0,"o3":111.0,"so2":32.4,"mosquito_risk":3,"arthritis_risk":5,"migraine_risk":7,"frizz_risk":1,"updated_at":"2026-05-23T19:12:08.756074+05:30"},{"city":"Pondicherry","state":"Puducherry","latitude":11.9139,"longitude":79.8145,"temp":31.0,"humidity":70,"rain":0.0,"pressure":1006.8,"uv_index":4.65,"wind_gusts":37.4,"aqi":93,"pm10":40.5,"pm2_5":30.6,"no2":25.3,"co":332.0,"o3":120.0,"so2":12.4,"mosquito_risk":3,"arthritis_risk":5,"migraine_risk":0,"frizz_risk":1,"updated_at":"2026-05-23T19:12:08.756083+05:30"},{"city":"Port Blair","state":"Andaman and Nicobar Islands","latitude":11.6234,"longitude":92.7265,"temp":27.8,"humidity":80,"rain":0.0,"pressure":1007.6,"uv_index":8.05,"wind_gusts":34.9,"aqi":29,"pm10":5.6,"pm2_5":3.4,"no2":0.5,"co":132.0,"o3":62.0,"so2":0.3,"mosquito_risk":7,"arthritis_risk":5,"migraine_risk":4,"frizz_risk":1,"updated_at":"2026-05-23T19:12:08.756092+05:30"},{"city":"Haridwar","state":"Uttarakhand","latitude":29.9457,"longitude":78.1642,"temp":33.5,"humidity":26,"rain":0.0,"pressure":968.6,"uv_index":7.55,"wind_gusts":47.2,"aqi":123,"pm10":36.1,"pm2_5":20.0,"no2":5.5,"co":239.0,"o3":128.0,"so2":7.1,"mosquito_risk":0,"arthritis_risk":5,"migraine_risk":7,"frizz_risk":0,"updated_at":"2026-05-23T19:12:08.756100+05:30"},{"city":"Rishikesh","state":"Uttarakhand","latitude":30.0869,"longitude":78.2676,"temp":31.5,"humidity":40,"rain":0.0,"pressure":961.5,"uv_index":7.65,"wind_gusts":42.8,"aqi":109,"pm10":29.3,"pm2_5":15.0,"no2":2.5,"co":222.0,"o3":136.0,"so2":5.4,"mosquito_risk":0,"arthritis_risk":5,"migraine_risk":7,"frizz_risk":1,"updated_at":"2026-05-23T19:12:08.756107+05:30"},{"city":"Nainital","state":"Uttarakhand","latitude":29.3919,"longitude":79.4542,"temp":18.5,"humidity":53,"rain":0.0,"pressure":803.7,"uv_index":8.5,"wind_gusts":49.0,"aqi":127,"pm10":68.9,"pm2_5":24.9,"no2":2.7,"co":177.0,"o3":138.0,"so2":5.1,"mosquito_risk":0,"arthritis_risk":5,"migraine_risk":7,"frizz_risk":0,"updated_at":"2026-05-23T19:12:08.756114+05:30"},{"city":"Mussoorie","state":"Uttarakhand","latitude":30.4599,"longitude":78.0664,"temp":18.8,"humidity":47,"rain":0.0,"pressure":801.7,"uv_index":8.05,"wind_gusts":54.0,"aqi":106,"pm10":29.2,"pm2_5":15.6,"no2":4.9,"co":211.0,"o3":130.0,"so2":5.0,"mosquito_risk":0,"arthritis_risk":5,"migraine_risk":7,"frizz_risk":0,"updated_at":"2026-05-23T19:12:08.756122+05:30"},{"city":"Dharamshala","state":"Himachal Pradesh","latitude":32.219,"longitude":76.3234,"temp":22.1,"humidity":46,"rain":0.0,"pressure":867.5,"uv_index":8.4,"wind_gusts":48.2,"aqi":77,"pm10":36.8,"pm2_5":12.4,"no2":4.6,"co":203.0,"o3":104.0,"so2":1.2,"mosquito_risk":0,"arthritis_risk":5,"migraine_risk":7,"frizz_risk":0,"updated_at":"2026-05-23T19:12:08.756129+05:30"},{"city":"Dalhousie","state":"Himachal Pradesh","latitude":32.5387,"longitude":75.971,"temp":17.4,"humidity":57,"rain":0.0,"pressure":804.2,"uv_index":8.65,"wind_gusts":45.4,"aqi":95,"pm10":53.6,"pm2_5":19.2,"no2":11.8,"co":211.0,"o3":113.0,"so2":1.8,"mosquito_risk":0,"arthritis_risk":5,"migraine_risk":7,"frizz_risk":0,"updated_at":"2026-05-23T19:12:08.756137+05:30"},{"city":"Patiala","state":"Punjab","latitude":30.3398,"longitude":76.3869,"temp":36.0,"humidity":20,"rain":0.0,"pressure":973.6,"uv_index":7.65,"wind_gusts":50.4,"aqi":278,"pm10":763.7,"pm2_5":108.5,"no2":4.9,"co":227.0,"o3":114.0,"so2":5.6,"mosquito_risk":0,"arthritis_risk":5,"migraine_risk":10,"frizz_risk":0,"updated_at":"2026-05-23T19:12:08.756145+05:30"},{"city":"Bhatinda","state":"Punjab","latitude":30.211,"longitude":74.9455,"temp":37.0,"humidity":20,"rain":0.0,"pressure":979.6,"uv_index":8.3,"wind_gusts":36.4,"aqi":102,"pm10":81.7,"pm2_5":27.0,"no2":4.3,"co":244.0,"o3":122.0,"so2":6.9,"mosquito_risk":0,"arthritis_risk":5,"migraine_risk":10,"frizz_risk":0,"updated_at":"2026-05-23T19:12:08.756152+05:30"},{"city":"Rohtak","state":"Haryana","latitude":28.8955,"longitude":76.6066,"temp":36.3,"humidity":22,"rain":0.0,"pressure":976.7,"uv_index":7.75,"wind_gusts":49.0,"aqi":773,"pm10":1046.8,"pm2_5":153.7,"no2":12.9,"co":214.0,"o3":102.0,"so2":6.3,"mosquito_risk":0,"arthritis_risk":5,"migraine_risk":10,"frizz_risk":0,"updated_at":"2026-05-23T19:12:08.756159+05:30"},{"city":"Panipat","state":"Haryana","latitude":29.3909,"longitude":76.9635,"temp":37.0,"humidity":18,"rain":0.0,"pressure":975.6,"uv_index":7.4,"wind_gusts":52.2,"aqi":1624,"pm10":2481.0,"pm2_5":319.4,"no2":7.8,"co":229.0,"o3":111.0,"so2":8.1,"mosquito_risk":0,"arthritis_risk":5,"migraine_risk":10,"frizz_risk":0,"updated_at":"2026-05-23T19:12:08.756166+05:30"},{"city":"Mathura","state":"Uttar Pradesh","latitude":27.4924,"longitude":77.6737,"temp":36.2,"humidity":33,"rain":0.0,"pressure":981.4,"uv_index":8.0,"wind_gusts":48.2,"aqi":672,"pm10":912.7,"pm2_5":128.1,"no2":10.4,"co":254.0,"o3":91.0,"so2":3.3,"mosquito_risk":0,"arthritis_risk":5,"migraine_risk":10,"frizz_risk":1,"updated_at":"2026-05-23T19:12:08.756173+05:30"},{"city":"Vrindavan","state":"Uttar Pradesh","latitude":27.5823,"longitude":77.7027,"temp":35.8,"humidity":32,"rain":0.0,"pressure":981.9,"uv_index":8.0,"wind_gusts":47.2,"aqi":672,"pm10":912.7,"pm2_5":128.1,"no2":10.4,"co":233.0,"o3":91.0,"so2":3.3,"mosquito_risk":0,"arthritis_risk":5,"migraine_risk":10,"frizz_risk":1,"updated_at":"2026-05-23T19:12:08.756180+05:30"},{"city":"Ayodhya","state":"Uttar Pradesh","latitude":26.7922,"longitude":82.1998,"temp":35.9,"humidity":27,"rain":0.0,"pressure":988.6,"uv_index":8.35,"wind_gusts":49.0,"aqi":163,"pm10":111.3,"pm2_5":42.0,"no2":6.1,"co":215.0,"o3":133.0,"so2":9.3,"mosquito_risk":0,"arthritis_risk":5,"migraine_risk":10,"frizz_risk":0,"updated_at":"2026-05-23T19:12:08.756187+05:30"},{"city":"Ratlam","state":"Madhya Pradesh","latitude":23.3315,"longitude":75.0367,"temp":35.7,"humidity":21,"rain":0.0,"pressure":952.9,"uv_index":8.55,"wind_gusts":46.1,"aqi":69,"pm10":73.1,"pm2_5":28.3,"no2":1.3,"co":147.0,"o3":99.0,"so2":2.4,"mosquito_risk":0,"arthritis_risk":5,"migraine_risk":10,"frizz_risk":0,"updated_at":"2026-05-23T19:12:08.756194+05:30"},{"city":"Sagar","state":"Madhya Pradesh","latitude":23.8388,"longitude":78.7378,"temp":36.8,"humidity":15,"rain":0.0,"pressure":946.9,"uv_index":8.75,"wind_gusts":45.0,"aqi":68,"pm10":69.6,"pm2_5":28.0,"no2":3.4,"co":155.0,"o3":105.0,"so2":3.0,"mosquito_risk":0,"arthritis_risk":5,"migraine_risk":10,"frizz_risk":0,"updated_at":"2026-05-23T19:12:08.756201+05:30"},{"city":"Satna","state":"Madhya Pradesh","latitude":24.6005,"longitude":80.8322,"temp":36.8,"humidity":21,"rain":0.0,"pressure":966.6,"uv_index":8.8,"wind_gusts":50.0,"aqi":89,"pm10":157.4,"pm2_5":49.1,"no2":4.6,"co":154.0,"o3":112.0,"so2":4.0,"mosquito_risk":0,"arthritis_risk":5,"migraine_risk":10,"frizz_risk":0,"updated_at":"2026-05-23T19:12:08.756208+05:30"},{"city":"Akola","state":"Maharashtra","latitude":20.7002,"longitude":77.0082,"temp":38.4,"humidity":23,"rain":0.0,"pressure":972.5,"uv_index":8.9,"wind_gusts":50.8,"aqi":64,"pm10":27.8,"pm2_5":16.0,"no2":4.0,"co":146.0,"o3":94.0,"so2":4.2,"mosquito_risk":0,"arthritis_risk":5,"migraine_risk":10,"frizz_risk":0,"updated_at":"2026-05-23T19:12:08.756216+05:30"},{"city":"Amravati","state":"Maharashtra","latitude":20.9374,"longitude":77.7796,"temp":38.2,"humidity":22,"rain":0.0,"pressure":964.7,"uv_index":8.9,"wind_gusts":54.7,"aqi":67,"pm10":26.3,"pm2_5":15.3,"no2":4.8,"co":180.0,"o3":95.0,"so2":4.6,"mosquito_risk":0,"arthritis_risk":5,"migraine_risk":10,"frizz_risk":0,"updated_at":"2026-05-23T19:12:08.756224+05:30"},{"city":"Latur","state":"Maharashtra","latitude":18.4088,"longitude":76.5604,"temp":30.1,"humidity":53,"rain":0.0,"pressure":939.4,"uv_index":9.05,"wind_gusts":43.2,"aqi":77,"pm10":29.0,"pm2_5":20.1,"no2":2.6,"co":183.0,"o3":115.0,"so2":3.2,"mosquito_risk":0,"arthritis_risk":5,"migraine_risk":7,"frizz_risk":1,"updated_at":"2026-05-23T19:12:08.756231+05:30"},{"city":"Nanded","state":"Maharashtra","latitude":19.1383,"longitude":77.3091,"temp":36.7,"humidity":30,"rain":0.0,"pressure":966.8,"uv_index":9.0,"wind_gusts":45.0,"aqi":80,"pm10":29.6,"pm2_5":21.0,"no2":3.4,"co":200.0,"o3":108.0,"so2":3.5,"mosquito_risk":0,"arthritis_risk":5,"migraine_risk":10,"frizz_risk":1,"updated_at":"2026-05-23T19:12:08.756238+05:30"},{"city":"Gulbarga","state":"Karnataka","latitude":17.3297,"longitude":76.8343,"temp":31.1,"humidity":54,"rain":0.0,"pressure":958.1,"uv_index":9.0,"wind_gusts":45.0,"aqi":67,"pm10":20.7,"pm2_5":16.9,"no2":7.0,"co":208.0,"o3":106.0,"so2":3.5,"mosquito_risk":0,"arthritis_risk":5,"migraine_risk":7,"frizz_risk":1,"updated_at":"2026-05-23T19:12:08.756245+05:30"},{"city":"Bidar","state":"Karnataka","latitude":17.9104,"longitude":77.5199,"temp":32.2,"humidity":44,"rain":0.0,"pressure":934.9,"uv_index":8.95,"wind_gusts":45.7,"aqi":99,"pm10":28.1,"pm2_5":21.2,"no2":6.3,"co":223.0,"o3":115.0,"so2":4.7,"mosquito_risk":0,"arthritis_risk":5,"migraine_risk":7,"frizz_risk":1,"updated_at":"2026-05-23T19:12:08.756251+05:30"},{"city":"Hospet","state":"Karnataka","latitude":15.2689,"longitude":76.3909,"temp":23.6,"humidity":96,"rain":0.2,"pressure":957.7,"uv_index":8.95,"wind_gusts":42.5,"aqi":46,"pm10":14.3,"pm2_5":11.7,"no2":7.1,"co":219.0,"o3":93.0,"so2":2.2,"mosquito_risk":6,"arthritis_risk":5,"migraine_risk":7,"frizz_risk":1,"updated_at":"2026-05-23T19:12:08.756258+05:30"},{"city":"Tirupur","state":"Tamil Nadu","latitude":11.1085,"longitude":77.3411,"temp":27.6,"humidity":76,"rain":0.0,"pressure":976.4,"uv_index":8.85,"wind_gusts":45.0,"aqi":47,"pm10":13.9,"pm2_5":10.6,"no2":9.1,"co":188.0,"o3":83.0,"so2":2.8,"mosquito_risk":7,"arthritis_risk":5,"migraine_risk":7,"frizz_risk":1,"updated_at":"2026-05-23T19:12:08.756265+05:30"},{"city":"Alappuzha","state":"Kerala","latitude":9.4981,"longitude":76.3388,"temp":26.3,"humidity":95,"rain":0.1,"pressure":1011.1,"uv_index":7.55,"wind_gusts":41.8,"aqi":48,"pm10":13.7,"pm2_5":9.3,"no2":7.4,"co":99.0,"o3":60.0,"so2":2.1,"mosquito_risk":10,"arthritis_risk":0,"migraine_risk":4,"frizz_risk":1,"updated_at":"2026-05-23T19:12:08.756271+05:30"},{"city":"Munnar","state":"Kerala","latitude":10.0889,"longitude":77.0595,"temp":18.1,"humidity":99,"rain":0.0,"pressure":858.6,"uv_index":8.7,"wind_gusts":32.0,"aqi":35,"pm10":9.4,"pm2_5":7.5,"no2":7.5,"co":154.0,"o3":62.0,"so2":1.4,"mosquito_risk":3,"arthritis_risk":10,"migraine_risk":7,"frizz_risk":1,"updated_at":"2026-05-23T19:12:08.756278+05:30"},{"city":"Silchar","state":"Assam","latitude":24.8333,"longitude":92.7789,"temp":25.8,"humidity":95,"rain":0.1,"pressure":1002.6,"uv_index":8.45,"wind_gusts":38.9,"aqi":60,"pm10":30.6,"pm2_5":19.3,"no2":5.7,"co":293.0,"o3":80.0,"so2":3.2,"mosquito_risk":10,"arthritis_risk":5,"migraine_risk":4,"frizz_risk":1,"updated_at":"2026-05-23T19:12:08.756286+05:30"},{"city":"Dibrugarh","state":"Assam","latitude":27.4728,"longitude":94.912,"temp":24.5,"humidity":96,"rain":0.1,"pressure":992.5,"uv_index":8.9,"wind_gusts":37.1,"aqi":73,"pm10":16.3,"pm2_5":14.2,"no2":7.4,"co":273.0,"o3":87.0,"so2":1.5,"mosquito_risk":6,"arthritis_risk":5,"migraine_risk":7,"frizz_risk":1,"updated_at":"2026-05-23T19:12:08.756292+05:30"}]