[{"city":"Delhi","state":"Delhi","latitude":28.6139,"longitude":77.209,"temp":37.1,"humidity":16,"rain":0.0,"pressure":980.2,"uv_index":7.3,"wind_gusts":28.4,"aqi":157,"pm10":320.4,"pm2_5":37.4,"mosquito_risk":0,"arthritis_risk":5,"migraine_risk":10,"frizz_risk":0,"updated_at":"2026-04-15T14:53:41.835549+05:30"},{"city":"Mumbai","state":"Maharashtra","latitude":19.076,"longitude":72.8777,"temp":29.7,"humidity":76,"rain":0.0,"pressure":1005.9,"uv_index":8.0,"wind_gusts":18.0,"aqi":104,"pm10":61.7,"pm2_5":32.9,"mosquito_risk":7,"arthritis_risk":5,"migraine_risk":4,"frizz_risk":1,"updated_at":"2026-04-15T14:53:41.835591+05:30"},{"city":"Bangalore","state":"Karnataka","latitude":12.9716,"longitude":77.5946,"temp":35.5,"humidity":27,"rain":0.0,"pressure":910.7,"uv_index":9.65,"wind_gusts":28.1,"aqi":100,"pm10":34.3,"pm2_5":26.4,"mosquito_risk":0,"arthritis_risk":5,"migraine_risk":10,"frizz_risk":0,"updated_at":"2026-04-15T14:53:41.835607+05:30"},{"city":"Hyderabad","state":"Telangana","latitude":17.385,"longitude":78.4867,"temp":40.0,"humidity":18,"rain":0.0,"pressure":950.6,"uv_index":9.25,"wind_gusts":31.3,"aqi":110,"pm10":32.9,"pm2_5":25.5,"mosquito_risk":0,"arthritis_risk":5,"migraine_risk":10,"frizz_risk":0,"updated_at":"2026-04-15T14:53:41.835616+05:30"},{"city":"Chennai","state":"Tamil Nadu","latitude":13.0827,"longitude":80.2707,"temp":36.7,"humidity":47,"rain":0.0,"pressure":1004.1,"uv_index":9.35,"wind_gusts":32.8,"aqi":33,"pm10":17.4,"pm2_5":13.7,"mosquito_risk":0,"arthritis_risk":5,"migraine_risk":7,"frizz_risk":1,"updated_at":"2026-04-15T14:53:41.835625+05:30"},{"city":"Kolkata","state":"West Bengal","latitude":22.5726,"longitude":88.3639,"temp":35.4,"humidity":56,"rain":0.0,"pressure":1001.5,"uv_index":8.85,"wind_gusts":28.1,"aqi":92,"pm10":58.9,"pm2_5":33.3,"mosquito_risk":0,"arthritis_risk":5,"migraine_risk":7,"frizz_risk":1,"updated_at":"2026-04-15T14:53:41.835633+05:30"},{"city":"Pune","state":"Maharashtra","latitude":18.5204,"longitude":73.8567,"temp":39.4,"humidity":12,"rain":0.0,"pressure":946.9,"uv_index":8.6,"wind_gusts":42.5,"aqi":69,"pm10":17.3,"pm2_5":10.1,"mosquito_risk":0,"arthritis_risk":5,"migraine_risk":10,"frizz_risk":0,"updated_at":"2026-04-15T14:53:41.835644+05:30"},{"city":"Ahmedabad","state":"Gujarat","latitude":23.0225,"longitude":72.5714,"temp":40.6,"humidity":22,"rain":0.0,"pressure":997.7,"uv_index":8.15,"wind_gusts":19.4,"aqi":69,"pm10":144.8,"pm2_5":31.4,"mosquito_risk":0,"arthritis_risk":5,"migraine_risk":10,"frizz_risk":0,"updated_at":"2026-04-15T14:53:41.835651+05:30"},{"city":"Jaipur","state":"Rajasthan","latitude":26.9124,"longitude":75.7873,"temp":38.9,"humidity":13,"rain":0.0,"pressure":957.0,"uv_index":7.95,"wind_gusts":34.9,"aqi":186,"pm10":211.4,"pm2_5":30.9,"mosquito_risk":0,"arthritis_risk":5,"migraine_risk":10,"frizz_risk":0,"updated_at":"2026-04-15T14:53:41.835659+05:30"},{"city":"Lucknow","state":"Uttar Pradesh","latitude":26.8467,"longitude":80.9462,"temp":39.0,"humidity":14,"rain":0.0,"pressure":989.2,"uv_index":7.8,"wind_gusts":29.2,"aqi":108,"pm10":143.4,"pm2_5":22.6,"mosquito_risk":0,"arthritis_risk":5,"migraine_risk":10,"frizz_risk":0,"updated_at":"2026-04-15T14:53:41.835667+05:30"},{"city":"Kanpur","state":"Uttar Pradesh","latitude":26.4499,"longitude":80.3319,"temp":37.3,"humidity":21,"rain":0.0,"pressure":988.0,"uv_index":7.8,"wind_gusts":24.8,"aqi":146,"pm10":256.1,"pm2_5":33.3,"mosquito_risk":0,"arthritis_risk":5,"migraine_risk":10,"frizz_risk":0,"updated_at":"2026-04-15T14:53:41.835674+05:30"},{"city":"Chandigarh","state":"Chandigarh","latitude":30.7333,"longitude":76.7794,"temp":35.5,"humidity":20,"rain":0.0,"pressure":966.5,"uv_index":7.25,"wind_gusts":30.2,"aqi":115,"pm10":11.1,"pm2_5":9.1,"mosquito_risk":0,"arthritis_risk":5,"migraine_risk":10,"frizz_risk":0,"updated_at":"2026-04-15T14:53:41.835682+05:30"},{"city":"Srinagar","state":"Jammu and Kashmir","latitude":34.0837,"longitude":74.7973,"temp":24.2,"humidity":21,"rain":0.0,"pressure":842.3,"uv_index":7.75,"wind_gusts":15.8,"aqi":79,"pm10":18.9,"pm2_5":7.1,"mosquito_risk":0,"arthritis_risk":5,"migraine_risk":7,"frizz_risk":0,"updated_at":"2026-04-15T14:53:41.835690+05:30"},{"city":"Jammu","state":"Jammu and Kashmir","latitude":32.7266,"longitude":74.857,"temp":34.8,"humidity":23,"rain":0.0,"pressure":970.4,"uv_index":7.95,"wind_gusts":32.0,"aqi":74,"pm10":13.3,"pm2_5":7.7,"mosquito_risk":0,"arthritis_risk":5,"migraine_risk":7,"frizz_risk":0,"updated_at":"2026-04-15T14:53:41.835697+05:30"},{"city":"Amritsar","state":"Punjab","latitude":31.634,"longitude":74.8723,"temp":35.0,"humidity":26,"rain":0.0,"pressure":978.7,"uv_index":7.6,"wind_gusts":27.7,"aqi":95,"pm10":18.6,"pm2_5":8.2,"mosquito_risk":0,"arthritis_risk":5,"migraine_risk":7,"frizz_risk":0,"updated_at":"2026-04-15T14:53:41.835704+05:30"},{"city":"Ludhiana","state":"Punjab","latitude":30.901,"longitude":75.8573,"temp":36.2,"humidity":19,"rain":0.0,"pressure":976.4,"uv_index":7.35,"wind_gusts":27.4,"aqi":98,"pm10":22.4,"pm2_5":7.9,"mosquito_risk":0,"arthritis_risk":5,"migraine_risk":10,"frizz_risk":0,"updated_at":"2026-04-15T14:53:41.835710+05:30"},{"city":"Jalandhar","state":"Punjab","latitude":31.326,"longitude":75.5762,"temp":35.4,"humidity":23,"rain":0.0,"pressure":977.6,"uv_index":7.55,"wind_gusts":26.3,"aqi":96,"pm10":33.9,"pm2_5":10.0,"mosquito_risk":0,"arthritis_risk":5,"migraine_risk":10,"frizz_risk":0,"updated_at":"2026-04-15T14:53:41.835719+05:30"},{"city":"Dehradun","state":"Uttarakhand","latitude":30.6284,"longitude":78.0322,"temp":23.7,"humidity":38,"rain":0.0,"pressure":831.0,"uv_index":7.7,"wind_gusts":31.3,"aqi":100,"pm10":9.2,"pm2_5":5.4,"mosquito_risk":0,"arthritis_risk":5,"migraine_risk":7,"frizz_risk":0,"updated_at":"2026-04-15T14:53:41.835726+05:30"},{"city":"Shimla","state":"Himachal Pradesh","latitude":31.1048,"longitude":77.1734,"temp":21.9,"humidity":36,"rain":0.0,"pressure":786.5,"uv_index":7.75,"wind_gusts":47.2,"aqi":93,"pm10":9.6,"pm2_5":5.5,"mosquito_risk":0,"arthritis_risk":5,"migraine_risk":7,"frizz_risk":0,"updated_at":"2026-04-15T14:53:41.835732+05:30"},{"city":"Manali","state":"Himachal Pradesh","latitude":32.2396,"longitude":77.1887,"temp":24.1,"humidity":40,"rain":0.0,"pressure":821.2,"uv_index":9.7,"wind_gusts":31.0,"aqi":135,"pm10":15.2,"pm2_5":7.3,"mosquito_risk":0,"arthritis_risk":5,"migraine_risk":7,"frizz_risk":0,"updated_at":"2026-04-15T14:53:41.835739+05:30"},{"city":"Gurgaon","state":"Haryana","latitude":28.4595,"longitude":77.0266,"temp":37.7,"humidity":15,"rain":0.0,"pressure":978.6,"uv_index":7.4,"wind_gusts":25.9,"aqi":443,"pm10":1102.7,"pm2_5":101.3,"mosquito_risk":0,"arthritis_risk":5,"migraine_risk":10,"frizz_risk":0,"updated_at":"2026-04-15T14:53:41.835745+05:30"},{"city":"Noida","state":"Uttar Pradesh","latitude":28.5355,"longitude":77.391,"temp":37.4,"humidity":17,"rain":0.0,"pressure":981.7,"uv_index":7.35,"wind_gusts":29.2,"aqi":443,"pm10":1102.7,"pm2_5":101.3,"mosquito_risk":0,"arthritis_risk":5,"migraine_risk":10,"frizz_risk":0,"updated_at":"2026-04-15T14:53:41.835752+05:30"},{"city":"Ghaziabad","state":"Uttar Pradesh","latitude":28.6692,"longitude":77.4538,"temp":37.0,"humidity":17,"rain":0.0,"pressure":979.9,"uv_index":7.3,"wind_gusts":27.4,"aqi":123,"pm10":217.0,"pm2_5":29.7,"mosquito_risk":0,"arthritis_risk":5,"migraine_risk":10,"frizz_risk":0,"updated_at":"2026-04-15T14:53:41.835758+05:30"},{"city":"Faridabad","state":"Haryana","latitude":28.4089,"longitude":77.3178,"temp":37.7,"humidity":15,"rain":0.0,"pressure":981.0,"uv_index":7.35,"wind_gusts":28.8,"aqi":443,"pm10":1102.7,"pm2_5":101.3,"mosquito_risk":0,"arthritis_risk":5,"migraine_risk":10,"frizz_risk":0,"updated_at":"2026-04-15T14:53:41.835766+05:30"},{"city":"Meerut","state":"Uttar Pradesh","latitude":28.9845,"longitude":77.7064,"temp":36.9,"humidity":17,"rain":0.0,"pressure":978.6,"uv_index":7.2,"wind_gusts":29.5,"aqi":123,"pm10":217.0,"pm2_5":29.7,"mosquito_risk":0,"arthritis_risk":5,"migraine_risk":10,"frizz_risk":0,"updated_at":"2026-04-15T14:53:41.835772+05:30"},{"city":"Agra","state":"Uttar Pradesh","latitude":27.1767,"longitude":78.0081,"temp":39.0,"humidity":17,"rain":0.0,"pressure":984.3,"uv_index":7.65,"wind_gusts":25.9,"aqi":253,"pm10":434.9,"pm2_5":44.2,"mosquito_risk":0,"arthritis_risk":5,"migraine_risk":10,"frizz_risk":0,"updated_at":"2026-04-15T14:53:41.835779+05:30"},{"city":"Varanasi","state":"Uttar Pradesh","latitude":25.3176,"longitude":82.9739,"temp":40.8,"humidity":14,"rain":0.0,"pressure":992.5,"uv_index":8.4,"wind_gusts":24.1,"aqi":104,"pm10":64.7,"pm2_5":15.5,"mosquito_risk":0,"arthritis_risk":5,"migraine_risk":10,"frizz_risk":0,"updated_at":"2026-04-15T14:53:41.835787+05:30"},{"city":"Prayagraj","state":"Uttar Pradesh","latitude":25.4358,"longitude":81.8463,"temp":40.1,"humidity":16,"rain":0.0,"pressure":991.0,"uv_index":8.25,"wind_gusts":24.1,"aqi":119,"pm10":84.8,"pm2_5":19.2,"mosquito_risk":0,"arthritis_risk":5,"migraine_risk":10,"frizz_risk":0,"updated_at":"2026-04-15T14:53:41.835793+05:30"},{"city":"Gorakhpur","state":"Uttar Pradesh","latitude":26.7606,"longitude":83.3732,"temp":38.9,"humidity":15,"rain":0.0,"pressure":992.4,"uv_index":8.2,"wind_gusts":27.0,"aqi":132,"pm10":107.1,"pm2_5":24.3,"mosquito_risk":0,"arthritis_risk":5,"migraine_risk":10,"frizz_risk":0,"updated_at":"2026-04-15T14:53:41.835800+05:30"},{"city":"Bareilly","state":"Uttar Pradesh","latitude":28.367,"longitude":79.4304,"temp":37.0,"humidity":17,"rain":0.0,"pressure":983.4,"uv_index":7.55,"wind_gusts":27.7,"aqi":98,"pm10":17.3,"pm2_5":7.6,"mosquito_risk":0,"arthritis_risk":5,"migraine_risk":10,"frizz_risk":0,"updated_at":"2026-04-15T14:53:41.835806+05:30"},{"city":"Aligarh","state":"Uttar Pradesh","latitude":27.8974,"longitude":78.088,"temp":39.0,"humidity":12,"rain":0.0,"pressure":982.3,"uv_index":7.45,"wind_gusts":30.6,"aqi":158,"pm10":416.3,"pm2_5":46.6,"mosquito_risk":0,"arthritis_risk":5,"migraine_risk":10,"frizz_risk":0,"updated_at":"2026-04-15T14:53:41.835812+05:30"},{"city":"Moradabad","state":"Uttar Pradesh","latitude":28.8386,"longitude":78.7733,"temp":36.8,"humidity":16,"rain":0.0,"pressure":980.4,"uv_index":7.4,"wind_gusts":30.2,"aqi":99,"pm10":19.4,"pm2_5":8.5,"mosquito_risk":0,"arthritis_risk":5,"migraine_risk":10,"frizz_risk":0,"updated_at":"2026-04-15T14:53:41.835818+05:30"},{"city":"Saharanpur","state":"Uttar Pradesh","latitude":29.9637,"longitude":77.546,"temp":35.5,"humidity":21,"rain":0.0,"pressure":972.9,"uv_index":7.0,"wind_gusts":32.0,"aqi":119,"pm10":45.1,"pm2_5":11.7,"mosquito_risk":0,"arthritis_risk":5,"migraine_risk":10,"frizz_risk":0,"updated_at":"2026-04-15T14:53:41.835824+05:30"},{"city":"Jhansi","state":"Uttar Pradesh","latitude":25.4484,"longitude":78.5685,"temp":41.5,"humidity":12,"rain":0.0,"pressure":972.8,"uv_index":8.2,"wind_gusts":40.7,"aqi":103,"pm10":68.9,"pm2_5":16.5,"mosquito_risk":0,"arthritis_risk":5,"migraine_risk":10,"frizz_risk":0,"updated_at":"2026-04-15T14:53:45.179423+05:30"},{"city":"Surat","state":"Gujarat","latitude":21.1702,"longitude":72.8311,"temp":33.1,"humidity":51,"rain":0.0,"pressure":1004.0,"uv_index":7.8,"wind_gusts":31.0,"aqi":100,"pm10":114.3,"pm2_5":48.0,"mosquito_risk":0,"arthritis_risk":5,"migraine_risk":4,"frizz_risk":1,"updated_at":"2026-04-15T14:53:45.179456+05:30"},{"city":"Vadodara","state":"Gujarat","latitude":22.3072,"longitude":73.1812,"temp":40.2,"humidity":26,"rain":0.0,"pressure":1000.3,"uv_index":8.1,"wind_gusts":28.1,"aqi":77,"pm10":117.8,"pm2_5":35.0,"mosquito_risk":0,"arthritis_risk":5,"migraine_risk":7,"frizz_risk":1,"updated_at":"2026-04-15T14:53:45.179468+05:30"},{"city":"Rajkot","state":"Gujarat","latitude":22.3039,"longitude":70.8022,"temp":37.6,"humidity":24,"rain":0.0,"pressure":991.1,"uv_index":7.85,"wind_gusts":30.6,"aqi":66,"pm10":99.2,"pm2_5":25.9,"mosquito_risk":0,"arthritis_risk":5,"migraine_risk":10,"frizz_risk":0,"updated_at":"2026-04-15T14:53:45.179478+05:30"},{"city":"Thane","state":"Maharashtra","latitude":19.2183,"longitude":72.9781,"temp":33.9,"humidity":50,"rain":0.0,"pressure":1005.5,"uv_index":8.0,"wind_gusts":32.0,"aqi":104,"pm10":61.7,"pm2_5":32.9,"mosquito_risk":0,"arthritis_risk":5,"migraine_risk":4,"frizz_risk":1,"updated_at":"2026-04-15T14:53:45.179487+05:30"},{"city":"Nagpur","state":"Maharashtra","latitude":21.1458,"longitude":79.0882,"temp":40.4,"humidity":16,"rain":0.0,"pressure":969.2,"uv_index":8.85,"wind_gusts":34.2,"aqi":119,"pm10":24.0,"pm2_5":19.1,"mosquito_risk":0,"arthritis_risk":5,"migraine_risk":10,"frizz_risk":0,"updated_at":"2026-04-15T14:53:45.179495+05:30"},{"city":"Nashik","state":"Maharashtra","latitude":19.9975,"longitude":73.7898,"temp":37.0,"humidity":20,"rain":0.0,"pressure":944.1,"uv_index":8.3,"wind_gusts":37.4,"aqi":61,"pm10":26.8,"pm2_5":9.1,"mosquito_risk":0,"arthritis_risk":5,"migraine_risk":10,"frizz_risk":0,"updated_at":"2026-04-15T14:53:45.179504+05:30"},{"city":"Aurangabad","state":"Maharashtra","latitude":19.8762,"longitude":75.3433,"temp":40.0,"humidity":10,"rain":0.0,"pressure":942.0,"uv_index":8.95,"wind_gusts":36.4,"aqi":59,"pm10":8.3,"pm2_5":4.6,"mosquito_risk":0,"arthritis_risk":5,"migraine_risk":10,"frizz_risk":0,"updated_at":"2026-04-15T14:53:45.179512+05:30"},{"city":"Solapur","state":"Maharashtra","latitude":17.6599,"longitude":75.9064,"temp":41.3,"humidity":14,"rain":0.0,"pressure":954.5,"uv_index":9.05,"wind_gusts":28.8,"aqi":103,"pm10":28.7,"pm2_5":22.0,"mosquito_risk":0,"arthritis_risk":5,"migraine_risk":10,"frizz_risk":0,"updated_at":"2026-04-15T14:53:45.179522+05:30"},{"city":"Kolhapur","state":"Maharashtra","latitude":16.705,"longitude":74.2433,"temp":35.4,"humidity":32,"rain":0.0,"pressure":946.5,"uv_index":9.05,"wind_gusts":42.8,"aqi":88,"pm10":29.5,"pm2_5":14.3,"mosquito_risk":0,"arthritis_risk":5,"migraine_risk":10,"frizz_risk":1,"updated_at":"2026-04-15T14:53:45.179530+05:30"},{"city":"Goa","state":"Goa","latitude":15.2993,"longitude":74.124,"temp":32.5,"humidity":63,"rain":0.0,"pressure":995.9,"uv_index":9.0,"wind_gusts":31.0,"aqi":88,"pm10":57.4,"pm2_5":19.8,"mosquito_risk":3,"arthritis_risk":5,"migraine_risk":7,"frizz_risk":1,"updated_at":"2026-04-15T14:53:45.179539+05:30"},{"city":"Jodhpur","state":"Rajasthan","latitude":26.2389,"longitude":73.0243,"temp":40.3,"humidity":14,"rain":0.0,"pressure":979.7,"uv_index":8.15,"wind_gusts":26.3,"aqi":76,"pm10":71.5,"pm2_5":15.9,"mosquito_risk":0,"arthritis_risk":5,"migraine_risk":10,"frizz_risk":0,"updated_at":"2026-04-15T14:53:45.179548+05:30"},{"city":"Udaipur","state":"Rajasthan","latitude":24.5854,"longitude":73.7125,"temp":37.9,"humidity":18,"rain":0.0,"pressure":944.3,"uv_index":8.75,"wind_gusts":25.6,"aqi":65,"pm10":85.0,"pm2_5":18.0,"mosquito_risk":0,"arthritis_risk":5,"migraine_risk":10,"frizz_risk":0,"updated_at":"2026-04-15T14:53:45.179556+05:30"},{"city":"Kota","state":"Rajasthan","latitude":25.2138,"longitude":75.8648,"temp":40.6,"humidity":17,"rain":0.0,"pressure":974.6,"uv_index":8.2,"wind_gusts":26.6,"aqi":62,"pm10":38.4,"pm2_5":12.5,"mosquito_risk":0,"arthritis_risk":5,"migraine_risk":10,"frizz_risk":0,"updated_at":"2026-04-15T14:53:45.179565+05:30"},{"city":"Bikaner","state":"Rajasthan","latitude":28.0229,"longitude":73.3119,"temp":39.4,"humidity":13,"rain":0.0,"pressure":979.5,"uv_index":8.0,"wind_gusts":12.6,"aqi":96,"pm10":107.3,"pm2_5":17.3,"mosquito_risk":0,"arthritis_risk":5,"migraine_risk":10,"frizz_risk":0,"updated_at":"2026-04-15T14:53:45.179573+05:30"},{"city":"Ajmer","state":"Rajasthan","latitude":26.4499,"longitude":74.6399,"temp":38.5,"humidity":15,"rain":0.0,"pressure":952.2,"uv_index":8.15,"wind_gusts":26.3,"aqi":102,"pm10":117.1,"pm2_5":22.1,"mosquito_risk":0,"arthritis_risk":5,"migraine_risk":10,"frizz_risk":0,"updated_at":"2026-04-15T14:53:45.179580+05:30"},{"city":"Gwalior","state":"Madhya Pradesh","latitude":26.2183,"longitude":78.1828,"temp":39.6,"humidity":19,"rain":0.0,"pressure":979.3,"uv_index":7.95,"wind_gusts":36.0,"aqi":104,"pm10":182.5,"pm2_5":29.2,"mosquito_risk":0,"arthritis_risk":5,"migraine_risk":10,"frizz_risk":0,"updated_at":"2026-04-15T14:53:45.179587+05:30"},{"city":"Indore","state":"Madhya Pradesh","latitude":22.7196,"longitude":75.8577,"temp":37.5,"humidity":21,"rain":0.0,"pressure":945.7,"uv_index":8.55,"wind_gusts":31.7,"aqi":55,"pm10":39.6,"pm2_5":14.0,"mosquito_risk":0,"arthritis_risk":5,"migraine_risk":10,"frizz_risk":0,"updated_at":"2026-04-15T14:53:45.179593+05:30"},{"city":"Bhopal","state":"Madhya Pradesh","latitude":23.2599,"longitude":77.4126,"temp":39.4,"humidity":15,"rain":0.0,"pressure":950.6,"uv_index":8.55,"wind_gusts":32.4,"aqi":63,"pm10":40.5,"pm2_5":13.6,"mosquito_risk":0,"arthritis_risk":5,"migraine_risk":10,"frizz_risk":0,"updated_at":"2026-04-15T14:53:45.179600+05:30"},{"city":"Jabalpur","state":"Madhya Pradesh","latitude":23.1815,"longitude":79.9864,"temp":39.3,"humidity":16,"rain":0.0,"pressure":957.8,"uv_index":8.7,"wind_gusts":36.4,"aqi":69,"pm10":14.6,"pm2_5":8.0,"mosquito_risk":0,"arthritis_risk":5,"migraine_risk":10,"frizz_risk":0,"updated_at":"2026-04-15T14:53:45.179606+05:30"},{"city":"Ujjain","state":"Madhya Pradesh","latitude":23.1765,"longitude":75.7885,"temp":37.6,"humidity":23,"rain":0.0,"pressure":951.3,"uv_index":8.5,"wind_gusts":29.9,"aqi":60,"pm10":57.5,"pm2_5":18.5,"mosquito_risk":0,"arthritis_risk":5,"migraine_risk":10,"frizz_risk":0,"updated_at":"2026-04-15T14:53:45.179613+05:30"},{"city":"Visakhapatnam","state":"Andhra Pradesh","latitude":17.6868,"longitude":83.2185,"temp":33.0,"humidity":58,"rain":0.0,"pressure":1000.8,"uv_index":9.15,"wind_gusts":42.8,"aqi":66,"pm10":19.4,"pm2_5":13.9,"mosquito_risk":0,"arthritis_risk":5,"migraine_risk":4,"frizz_risk":1,"updated_at":"2026-04-15T14:53:45.179620+05:30"},{"city":"Vijayawada","state":"Andhra Pradesh","latitude":16.5062,"longitude":80.648,"temp":38.5,"humidity":33,"rain":0.0,"pressure":999.1,"uv_index":9.2,"wind_gusts":31.7,"aqi":50,"pm10":20.1,"pm2_5":16.0,"mosquito_risk":0,"arthritis_risk":5,"migraine_risk":10,"frizz_risk":1,"updated_at":"2026-04-15T14:53:45.179627+05:30"},{"city":"Guntur","state":"Andhra Pradesh","latitude":16.3067,"longitude":80.4365,"temp":38.3,"humidity":37,"rain":0.0,"pressure":1000.3,"uv_index":9.2,"wind_gusts":31.7,"aqi":52,"pm10":26.6,"pm2_5":21.5,"mosquito_risk":0,"arthritis_risk":5,"migraine_risk":7,"frizz_risk":1,"updated_at":"2026-04-15T14:53:45.179634+05:30"},{"city":"Nellore","state":"Andhra Pradesh","latitude":14.4426,"longitude":79.9865,"temp":40.0,"humidity":34,"rain":0.0,"pressure":1001.9,"uv_index":9.3,"wind_gusts":34.2,"aqi":50,"pm10":29.5,"pm2_5":24.5,"mosquito_risk":0,"arthritis_risk":5,"migraine_risk":7,"frizz_risk":1,"updated_at":"2026-04-15T14:53:45.179641+05:30"},{"city":"Kurnool","state":"Andhra Pradesh","latitude":15.8281,"longitude":78.0373,"temp":41.1,"humidity":23,"rain":0.0,"pressure":973.1,"uv_index":9.2,"wind_gusts":25.2,"aqi":109,"pm10":32.7,"pm2_5":24.2,"mosquito_risk":0,"arthritis_risk":5,"migraine_risk":10,"frizz_risk":0,"updated_at":"2026-04-15T14:53:45.179650+05:30"},{"city":"Kakinada","state":"Andhra Pradesh","latitude":16.9891,"longitude":82.2475,"temp":37.1,"humidity":44,"rain":0.0,"pressure":1004.0,"uv_index":9.2,"wind_gusts":36.4,"aqi":51,"pm10":13.4,"pm2_5":8.4,"mosquito_risk":0,"arthritis_risk":5,"migraine_risk":7,"frizz_risk":1,"updated_at":"2026-04-15T14:53:45.179657+05:30"},{"city":"Tirupati","state":"Andhra Pradesh","latitude":13.6288,"longitude":79.4192,"temp":38.6,"humidity":26,"rain":0.0,"pressure":988.5,"uv_index":9.4,"wind_gusts":32.0,"aqi":69,"pm10":27.1,"pm2_5":21.6,"mosquito_risk":0,"arthritis_risk":5,"migraine_risk":10,"frizz_risk":0,"updated_at":"2026-04-15T14:53:45.179664+05:30"},{"city":"Warangal","state":"Telangana","latitude":17.9689,"longitude":79.5941,"temp":39.6,"humidity":30,"rain":0.0,"pressure":975.1,"uv_index":9.1,"wind_gusts":29.2,"aqi":70,"pm10":34.2,"pm2_5":26.4,"mosquito_risk":0,"arthritis_risk":5,"migraine_risk":10,"frizz_risk":1,"updated_at":"2026-04-15T14:53:45.179670+05:30"},{"city":"Nizamabad","state":"Telangana","latitude":18.6725,"longitude":78.0941,"temp":40.3,"humidity":19,"rain":0.0,"pressure":962.1,"uv_index":9.05,"wind_gusts":25.2,"aqi":78,"pm10":27.0,"pm2_5":19.7,"mosquito_risk":0,"arthritis_risk":5,"migraine_risk":10,"frizz_risk":0,"updated_at":"2026-04-15T14:53:45.179676+05:30"},{"city":"Mysore","state":"Karnataka","latitude":12.2958,"longitude":76.6396,"temp":37.5,"humidity":21,"rain":0.0,"pressure":926.7,"uv_index":9.55,"wind_gusts":46.1,"aqi":75,"pm10":31.8,"pm2_5":23.1,"mosquito_risk":0,"arthritis_risk":5,"migraine_risk":10,"frizz_risk":0,"updated_at":"2026-04-15T14:53:45.179683+05:30"},{"city":"Mangalore","state":"Karnataka","latitude":12.9141,"longitude":74.856,"temp":29.8,"humidity":84,"rain":0.0,"pressure":1004.1,"uv_index":9.15,"wind_gusts":23.8,"aqi":66,"pm10":31.7,"pm2_5":20.9,"mosquito_risk":7,"arthritis_risk":5,"migraine_risk":4,"frizz_risk":1,"updated_at":"2026-04-15T14:53:45.179689+05:30"},{"city":"Hubli-Dharwad","state":"Karnataka","latitude":15.3647,"longitude":75.124,"temp":36.3,"humidity":35,"rain":0.0,"pressure":939.0,"uv_index":9.2,"wind_gusts":43.6,"aqi":66,"pm10":32.5,"pm2_5":21.6,"mosquito_risk":0,"arthritis_risk":5,"migraine_risk":10,"frizz_risk":1,"updated_at":"2026-04-15T14:53:45.179696+05:30"},{"city":"Belgaum","state":"Karnataka","latitude":15.8497,"longitude":74.4977,"temp":32.8,"humidity":46,"rain":0.0,"pressure":924.6,"uv_index":9.25,"wind_gusts":38.2,"aqi":84,"pm10":37.3,"pm2_5":16.0,"mosquito_risk":0,"arthritis_risk":5,"migraine_risk":7,"frizz_risk":1,"updated_at":"2026-04-15T14:53:48.521617+05:30"},{"city":"Coimbatore","state":"Tamil Nadu","latitude":11.0168,"longitude":76.9558,"temp":37.6,"humidity":31,"rain":0.0,"pressure":959.3,"uv_index":9.45,"wind_gusts":48.2,"aqi":92,"pm10":32.8,"pm2_5":24.6,"mosquito_risk":0,"arthritis_risk":5,"migraine_risk":10,"frizz_risk":1,"updated_at":"2026-04-15T14:53:48.521650+05:30"},{"city":"Madurai","state":"Tamil Nadu","latitude":9.9252,"longitude":78.1198,"temp":39.0,"humidity":27,"rain":0.0,"pressure":989.5,"uv_index":9.4,"wind_gusts":39.6,"aqi":61,"pm10":14.3,"pm2_5":9.6,"mosquito_risk":0,"arthritis_risk":5,"migraine_risk":10,"frizz_risk":1,"updated_at":"2026-04-15T14:53:48.521662+05:30"},{"city":"Trichy","state":"Tamil Nadu","latitude":10.7905,"longitude":78.7047,"temp":38.5,"humidity":32,"rain":0.0,"pressure":996.0,"uv_index":9.4,"wind_gusts":22.7,"aqi":51,"pm10":11.4,"pm2_5":8.1,"mosquito_risk":0,"arthritis_risk":5,"migraine_risk":10,"frizz_risk":1,"updated_at":"2026-04-15T14:53:48.521672+05:30"},{"city":"Salem","state":"Tamil Nadu","latitude":11.6643,"longitude":78.146,"temp":37.8,"humidity":38,"rain":0.0,"pressure":974.3,"uv_index":9.45,"wind_gusts":19.8,"aqi":60,"pm10":27.8,"pm2_5":20.4,"mosquito_risk":0,"arthritis_risk":5,"migraine_risk":10,"frizz_risk":1,"updated_at":"2026-04-15T14:53:48.521681+05:30"},{"city":"Tirunelveli","state":"Tamil Nadu","latitude":8.7139,"longitude":77.7567,"temp":39.8,"humidity":28,"rain":0.0,"pressure":999.0,"uv_index":9.3,"wind_gusts":53.6,"aqi":67,"pm10":18.3,"pm2_5":12.6,"mosquito_risk":0,"arthritis_risk":5,"migraine_risk":10,"frizz_risk":1,"updated_at":"2026-04-15T14:53:48.521689+05:30"},{"city":"Vellore","state":"Tamil Nadu","latitude":12.9165,"longitude":79.1325,"temp":38.3,"humidity":26,"rain":0.0,"pressure":981.6,"uv_index":9.45,"wind_gusts":29.5,"aqi":95,"pm10":25.7,"pm2_5":19.8,"mosquito_risk":0,"arthritis_risk":5,"migraine_risk":10,"frizz_risk":0,"updated_at":"2026-04-15T14:53:48.521698+05:30"},{"city":"Erode","state":"Tamil Nadu","latitude":11.341,"longitude":77.7172,"temp":40.8,"humidity":22,"rain":0.0,"pressure":985.2,"uv_index":9.4,"wind_gusts":28.1,"aqi":72,"pm10":30.7,"pm2_5":22.2,"mosquito_risk":0,"arthritis_risk":5,"migraine_risk":10,"frizz_risk":0,"updated_at":"2026-04-15T14:53:48.521707+05:30"},{"city":"Kochi","state":"Kerala","latitude":9.9312,"longitude":76.2673,"temp":29.8,"humidity":79,"rain":0.0,"pressure":1005.6,"uv_index":9.2,"wind_gusts":30.2,"aqi":94,"pm10":30.9,"pm2_5":23.3,"mosquito_risk":7,"arthritis_risk":5,"migraine_risk":4,"frizz_risk":1,"updated_at":"2026-04-15T14:53:48.521715+05:30"},{"city":"Thiruvananthapuram","state":"Kerala","latitude":8.5241,"longitude":76.9366,"temp":29.5,"humidity":81,"rain":0.0,"pressure":1004.9,"uv_index":9.15,"wind_gusts":30.6,"aqi":70,"pm10":28.3,"pm2_5":18.9,"mosquito_risk":7,"arthritis_risk":5,"migraine_risk":4,"frizz_risk":1,"updated_at":"2026-04-15T14:53:48.521723+05:30"},{"city":"Kozhikode","state":"Kerala","latitude":11.2588,"longitude":75.7804,"temp":31.2,"humidity":76,"rain":0.0,"pressure":1005.1,"uv_index":9.15,"wind_gusts":29.9,"aqi":75,"pm10":28.3,"pm2_5":16.8,"mosquito_risk":3,"arthritis_risk":5,"migraine_risk":4,"frizz_risk":1,"updated_at":"2026-04-15T14:53:48.521731+05:30"},{"city":"Thrissur","state":"Kerala","latitude":10.5276,"longitude":76.2144,"temp":34.1,"humidity":61,"rain":0.0,"pressure":1004.3,"uv_index":9.2,"wind_gusts":35.3,"aqi":96,"pm10":29.4,"pm2_5":21.6,"mosquito_risk":3,"arthritis_risk":5,"migraine_risk":4,"frizz_risk":1,"updated_at":"2026-04-15T14:53:48.521740+05:30"},{"city":"Kannur","state":"Kerala","latitude":11.8745,"longitude":75.3704,"temp":32.5,"humidity":67,"rain":0.0,"pressure":1004.4,"uv_index":9.15,"wind_gusts":32.8,"aqi":70,"pm10":36.4,"pm2_5":23.6,"mosquito_risk":3,"arthritis_risk":5,"migraine_risk":4,"frizz_risk":1,"updated_at":"2026-04-15T14:53:48.521748+05:30"},{"city":"Patna","state":"Bihar","latitude":25.5941,"longitude":85.1376,"temp":37.9,"humidity":21,"rain":0.0,"pressure":995.7,"uv_index":8.55,"wind_gusts":22.0,"aqi":159,"pm10":95.0,"pm2_5":23.7,"mosquito_risk":0,"arthritis_risk":5,"migraine_risk":10,"frizz_risk":0,"updated_at":"2026-04-15T14:53:48.521756+05:30"},{"city":"Gaya","state":"Bihar","latitude":24.7914,"longitude":85.0002,"temp":38.7,"humidity":18,"rain":0.0,"pressure":989.0,"uv_index":8.6,"wind_gusts":20.2,"aqi":124,"pm10":61.7,"pm2_5":15.7,"mosquito_risk":0,"arthritis_risk":5,"migraine_risk":10,"frizz_risk":0,"updated_at":"2026-04-15T14:53:48.521764+05:30"},{"city":"Muzaffarpur","state":"Bihar","latitude":26.1209,"longitude":85.3647,"temp":35.9,"humidity":35,"rain":0.0,"pressure":995.7,"uv_index":8.5,"wind_gusts":21.2,"aqi":158,"pm10":94.3,"pm2_5":27.8,"mosquito_risk":0,"arthritis_risk":5,"migraine_risk":10,"frizz_risk":1,"updated_at":"2026-04-15T14:53:48.521772+05:30"},{"city":"Bhagalpur","state":"Bihar","latitude":25.2425,"longitude":87.0117,"temp":34.0,"humidity":46,"rain":0.0,"pressure":996.9,"uv_index":8.5,"wind_gusts":17.3,"aqi":155,"pm10":85.2,"pm2_5":29.7,"mosquito_risk":0,"arthritis_risk":5,"migraine_risk":7,"frizz_risk":1,"updated_at":"2026-04-15T14:53:48.521780+05:30"},{"city":"Ranchi","state":"Jharkhand","latitude":23.3441,"longitude":85.3096,"temp":34.7,"humidity":21,"rain":0.0,"pressure":935.7,"uv_index":9.15,"wind_gusts":30.2,"aqi":133,"pm10":35.2,"pm2_5":11.7,"mosquito_risk":0,"arthritis_risk":5,"migraine_risk":7,"frizz_risk":0,"updated_at":"2026-04-15T14:53:48.521787+05:30"},{"city":"Jamshedpur","state":"Jharkhand","latitude":22.8046,"longitude":86.2029,"temp":38.6,"humidity":21,"rain":0.0,"pressure":986.5,"uv_index":8.95,"wind_gusts":21.2,"aqi":146,"pm10":46.3,"pm2_5":16.8,"mosquito_risk":0,"arthritis_risk":5,"migraine_risk":10,"frizz_risk":0,"updated_at":"2026-04-15T14:53:48.521795+05:30"},{"city":"Dhanbad","state":"Jharkhand","latitude":23.7957,"longitude":86.4304,"temp":39.5,"humidity":14,"rain":0.0,"pressure":975.4,"uv_index":8.9,"wind_gusts":25.2,"aqi":150,"pm10":59.1,"pm2_5":21.1,"mosquito_risk":0,"arthritis_risk":5,"migraine_risk":10,"frizz_risk":0,"updated_at":"2026-04-15T14:53:48.521803+05:30"},{"city":"Bokaro","state":"Jharkhand","latitude":23.6693,"longitude":86.1511,"temp":39.3,"humidity":15,"rain":0.0,"pressure":979.2,"uv_index":8.9,"wind_gusts":37.1,"aqi":130,"pm10":45.5,"pm2_5":15.0,"mosquito_risk":0,"arthritis_risk":5,"migraine_risk":10,"frizz_risk":0,"updated_at":"2026-04-15T14:53:48.521812+05:30"},{"city":"Bhubaneswar","state":"Odisha","latitude":20.2961,"longitude":85.8245,"temp":34.1,"humidity":58,"rain":0.0,"pressure":999.2,"uv_index":9.1,"wind_gusts":32.4,"aqi":79,"pm10":34.6,"pm2_5":25.6,"mosquito_risk":0,"arthritis_risk":5,"migraine_risk":7,"frizz_risk":1,"updated_at":"2026-04-15T14:53:48.521820+05:30"},{"city":"Cuttack","state":"Odisha","latitude":20.4625,"longitude":85.8828,"temp":35.4,"humidity":56,"rain":0.0,"pressure":1000.7,"uv_index":9.15,"wind_gusts":27.4,"aqi":79,"pm10":34.6,"pm2_5":25.6,"mosquito_risk":0,"arthritis_risk":5,"migraine_risk":7,"frizz_risk":1,"updated_at":"2026-04-15T14:53:48.521827+05:30"},{"city":"Rourkela","state":"Odisha","latitude":22.2604,"longitude":84.8536,"temp":39.6,"humidity":28,"rain":0.0,"pressure":980.6,"uv_index":8.9,"wind_gusts":32.0,"aqi":185,"pm10":83.6,"pm2_5":39.1,"mosquito_risk":0,"arthritis_risk":5,"migraine_risk":10,"frizz_risk":1,"updated_at":"2026-04-15T14:53:48.521834+05:30"},{"city":"Raipur","state":"Chhattisgarh","latitude":21.2514,"longitude":81.6296,"temp":40.8,"humidity":20,"rain":0.0,"pressure":970.0,"uv_index":8.95,"wind_gusts":41.4,"aqi":134,"pm10":25.2,"pm2_5":19.6,"mosquito_risk":0,"arthritis_risk":5,"migraine_risk":10,"frizz_risk":0,"updated_at":"2026-04-15T14:53:48.521840+05:30"},{"city":"Bhilai","state":"Chhattisgarh","latitude":21.1938,"longitude":81.3509,"temp":41.0,"humidity":21,"rain":0.0,"pressure":970.5,"uv_index":8.95,"wind_gusts":41.8,"aqi":139,"pm10":22.1,"pm2_5":17.1,"mosquito_risk":0,"arthritis_risk":5,"migraine_risk":10,"frizz_risk":0,"updated_at":"2026-04-15T14:53:48.521846+05:30"},{"city":"Guwahati","state":"Assam","latitude":26.1158,"longitude":91.7086,"temp":26.9,"humidity":77,"rain":0.0,"pressure":999.2,"uv_index":8.45,"wind_gusts":33.5,"aqi":128,"pm10":63.6,"pm2_5":40.5,"mosquito_risk":7,"arthritis_risk":5,"migraine_risk":7,"frizz_risk":1,"updated_at":"2026-04-15T14:53:48.521852+05:30"},{"city":"Agartala","state":"Tripura","latitude":23.8315,"longitude":91.2868,"temp":27.6,"humidity":76,"rain":0.0,"pressure":1003.3,"uv_index":8.7,"wind_gusts":43.6,"aqi":104,"pm10":70.1,"pm2_5":40.4,"mosquito_risk":7,"arthritis_risk":5,"migraine_risk":4,"frizz_risk":1,"updated_at":"2026-04-15T14:53:48.521859+05:30"},{"city":"Shillong","state":"Meghalaya","latitude":25.5788,"longitude":91.8933,"temp":19.9,"humidity":59,"rain":0.0,"pressure":854.9,"uv_index":8.6,"wind_gusts":58.0,"aqi":107,"pm10":71.9,"pm2_5":35.0,"mosquito_risk":0,"arthritis_risk":5,"migraine_risk":7,"frizz_risk":0,"updated_at":"2026-04-15T14:53:48.521865+05:30"},{"city":"Imphal","state":"Manipur","latitude":24.817,"longitude":93.9368,"temp":22.4,"humidity":73,"rain":0.0,"pressure":921.5,"uv_index":9.05,"wind_gusts":68.0,"aqi":131,"pm10":56.3,"pm2_5":31.9,"mosquito_risk":3,"arthritis_risk":5,"migraine_risk":7,"frizz_risk":1,"updated_at":"2026-04-15T14:53:48.521872+05:30"},{"city":"Aizawl","state":"Mizoram","latitude":23.7271,"longitude":92.7176,"temp":25.8,"humidity":55,"rain":0.0,"pressure":891.7,"uv_index":8.95,"wind_gusts":49.7,"aqi":118,"pm10":72.2,"pm2_5":32.4,"mosquito_risk":4,"arthritis_risk":5,"migraine_risk":7,"frizz_risk":1,"updated_at":"2026-04-15T14:53:48.521878+05:30"},{"city":"Kohima","state":"Nagaland","latitude":25.6701,"longitude":94.1077,"temp":18.1,"humidity":83,"rain":0.0,"pressure":853.6,"uv_index":8.95,"wind_gusts":68.8,"aqi":110,"pm10":54.6,"pm2_5":30.4,"mosquito_risk":3,"arthritis_risk":10,"migraine_risk":7,"frizz_risk":0,"updated_at":"2026-04-15T14:53:48.521885+05:30"},{"city":"Gangtok","state":"Sikkim","latitude":27.3314,"longitude":88.6138,"temp":18.9,"humidity":74,"rain":0.0,"pressure":835.4,"uv_index":8.1,"wind_gusts":19.4,"aqi":118,"pm10":62.9,"pm2_5":38.2,"mosquito_risk":3,"arthritis_risk":5,"migraine_risk":7,"frizz_risk":0,"updated_at":"2026-04-15T14:53:48.521892+05:30"},{"city":"Siliguri","state":"West Bengal","latitude":26.7271,"longitude":88.3953,"temp":24.5,"humidity":81,"rain":0.0,"pressure":991.0,"uv_index":8.4,"wind_gusts":29.2,"aqi":158,"pm10":121.1,"pm2_5":70.1,"mosquito_risk":3,"arthritis_risk":5,"migraine_risk":7,"frizz_risk":1,"updated_at":"2026-04-15T14:53:51.861123+05:30"},{"city":"Durgapur","state":"West Bengal","latitude":23.5204,"longitude":87.3119,"temp":38.7,"humidity":24,"rain":0.0,"pressure":990.2,"uv_index":8.85,"wind_gusts":23.0,"aqi":136,"pm10":78.9,"pm2_5":36.4,"mosquito_risk":0,"arthritis_risk":5,"migraine_risk":10,"frizz_risk":0,"updated_at":"2026-04-15T14:53:51.861152+05:30"},{"city":"Asansol","state":"West Bengal","latitude":23.6739,"longitude":86.9524,"temp":39.3,"humidity":20,"rain":0.0,"pressure":988.6,"uv_index":8.85,"wind_gusts":19.8,"aqi":124,"pm10":70.8,"pm2_5":28.2,"mosquito_risk":0,"arthritis_risk":5,"migraine_risk":10,"frizz_risk":0,"updated_at":"2026-04-15T14:53:51.861161+05:30"},{"city":"Pondicherry","state":"Puducherry","latitude":11.9139,"longitude":79.8145,"temp":37.7,"humidity":42,"rain":0.0,"pressure":1004.7,"uv_index":9.3,"wind_gusts":25.2,"aqi":41,"pm10":20.1,"pm2_5":16.8,"mosquito_risk":0,"arthritis_risk":5,"migraine_risk":7,"frizz_risk":1,"updated_at":"2026-04-15T14:53:51.861169+05:30"},{"city":"Port Blair","state":"Andaman and Nicobar Islands","latitude":11.6234,"longitude":92.7265,"temp":29.8,"humidity":68,"rain":0.0,"pressure":1005.3,"uv_index":9.2,"wind_gusts":20.2,"aqi":73,"pm10":26.8,"pm2_5":18.7,"mosquito_risk":7,"arthritis_risk":5,"migraine_risk":4,"frizz_risk":1,"updated_at":"2026-04-15T14:53:51.861177+05:30"},{"city":"Haridwar","state":"Uttarakhand","latitude":29.9457,"longitude":78.1642,"temp":34.8,"humidity":24,"rain":0.0,"pressure":971.4,"uv_index":7.05,"wind_gusts":31.3,"aqi":100,"pm10":9.5,"pm2_5":6.7,"mosquito_risk":0,"arthritis_risk":5,"migraine_risk":7,"frizz_risk":0,"updated_at":"2026-04-15T14:53:51.861185+05:30"},{"city":"Rishikesh","state":"Uttarakhand","latitude":30.0869,"longitude":78.2676,"temp":33.6,"humidity":26,"rain":0.0,"pressure":964.3,"uv_index":7.15,"wind_gusts":30.6,"aqi":90,"pm10":8.8,"pm2_5":4.9,"mosquito_risk":0,"arthritis_risk":5,"migraine_risk":7,"frizz_risk":0,"updated_at":"2026-04-15T14:53:51.861192+05:30"},{"city":"Nainital","state":"Uttarakhand","latitude":29.3919,"longitude":79.4542,"temp":27.2,"humidity":25,"rain":0.0,"pressure":807.8,"uv_index":8.05,"wind_gusts":45.7,"aqi":109,"pm10":16.2,"pm2_5":7.3,"mosquito_risk":4,"arthritis_risk":5,"migraine_risk":7,"frizz_risk":0,"updated_at":"2026-04-15T14:53:51.861200+05:30"},{"city":"Mussoorie","state":"Uttarakhand","latitude":30.4599,"longitude":78.0664,"temp":24.4,"humidity":34,"rain":0.0,"pressure":804.0,"uv_index":7.55,"wind_gusts":35.6,"aqi":109,"pm10":9.0,"pm2_5":7.1,"mosquito_risk":0,"arthritis_risk":5,"migraine_risk":7,"frizz_risk":0,"updated_at":"2026-04-15T14:53:51.861207+05:30"},{"city":"Dharamshala","state":"Himachal Pradesh","latitude":32.219,"longitude":76.3234,"temp":26.7,"humidity":40,"rain":0.0,"pressure":869.4,"uv_index":7.8,"wind_gusts":22.7,"aqi":104,"pm10":11.0,"pm2_5":4.9,"mosquito_risk":4,"arthritis_risk":5,"migraine_risk":7,"frizz_risk":0,"updated_at":"2026-04-15T14:53:51.861215+05:30"},{"city":"Dalhousie","state":"Himachal Pradesh","latitude":32.5387,"longitude":75.971,"temp":25.3,"humidity":34,"rain":0.0,"pressure":805.5,"uv_index":8.0,"wind_gusts":21.6,"aqi":96,"pm10":12.6,"pm2_5":8.2,"mosquito_risk":4,"arthritis_risk":5,"migraine_risk":7,"frizz_risk":0,"updated_at":"2026-04-15T14:53:51.861223+05:30"},{"city":"Patiala","state":"Punjab","latitude":30.3398,"longitude":76.3869,"temp":36.7,"humidity":17,"rain":0.0,"pressure":975.7,"uv_index":7.15,"wind_gusts":28.1,"aqi":168,"pm10":573.7,"pm2_5":50.9,"mosquito_risk":0,"arthritis_risk":5,"migraine_risk":10,"frizz_risk":0,"updated_at":"2026-04-15T14:53:51.861229+05:30"},{"city":"Bhatinda","state":"Punjab","latitude":30.211,"longitude":74.9455,"temp":38.1,"humidity":19,"rain":0.0,"pressure":980.9,"uv_index":7.85,"wind_gusts":32.8,"aqi":96,"pm10":32.2,"pm2_5":9.7,"mosquito_risk":0,"arthritis_risk":5,"migraine_risk":10,"frizz_risk":0,"updated_at":"2026-04-15T14:53:51.861237+05:30"},{"city":"Rohtak","state":"Haryana","latitude":28.8955,"longitude":76.6066,"temp":38.3,"humidity":14,"rain":0.0,"pressure":979.0,"uv_index":7.3,"wind_gusts":30.2,"aqi":311,"pm10":480.6,"pm2_5":45.6,"mosquito_risk":0,"arthritis_risk":5,"migraine_risk":10,"frizz_risk":0,"updated_at":"2026-04-15T14:53:51.861265+05:30"},{"city":"Panipat","state":"Haryana","latitude":29.3909,"longitude":76.9635,"temp":37.2,"humidity":16,"rain":0.0,"pressure":977.7,"uv_index":7.15,"wind_gusts":27.7,"aqi":689,"pm10":1028.2,"pm2_5":87.3,"mosquito_risk":0,"arthritis_risk":5,"migraine_risk":10,"frizz_risk":0,"updated_at":"2026-04-15T14:53:51.861273+05:30"},{"city":"Mathura","state":"Uttar Pradesh","latitude":27.4924,"longitude":77.6737,"temp":38.7,"humidity":13,"rain":0.0,"pressure":983.8,"uv_index":7.6,"wind_gusts":26.3,"aqi":175,"pm10":386.5,"pm2_5":41.9,"mosquito_risk":0,"arthritis_risk":5,"migraine_risk":10,"frizz_risk":0,"updated_at":"2026-04-15T14:53:51.861279+05:30"},{"city":"Vrindavan","state":"Uttar Pradesh","latitude":27.5823,"longitude":77.7027,"temp":38.7,"humidity":13,"rain":0.0,"pressure":984.1,"uv_index":7.6,"wind_gusts":28.1,"aqi":175,"pm10":386.5,"pm2_5":41.9,"mosquito_risk":0,"arthritis_risk":5,"migraine_risk":10,"frizz_risk":0,"updated_at":"2026-04-15T14:53:51.861286+05:30"},{"city":"Ayodhya","state":"Uttar Pradesh","latitude":26.7922,"longitude":82.1998,"temp":40.4,"humidity":12,"rain":0.0,"pressure":990.6,"uv_index":7.95,"wind_gusts":33.5,"aqi":91,"pm10":112.7,"pm2_5":20.3,"mosquito_risk":0,"arthritis_risk":5,"migraine_risk":10,"frizz_risk":0,"updated_at":"2026-04-15T14:53:51.861293+05:30"},{"city":"Ratlam","state":"Madhya Pradesh","latitude":23.3315,"longitude":75.0367,"temp":35.9,"humidity":31,"rain":0.0,"pressure":952.1,"uv_index":8.4,"wind_gusts":24.8,"aqi":57,"pm10":55.8,"pm2_5":16.5,"mosquito_risk":0,"arthritis_risk":5,"migraine_risk":10,"frizz_risk":1,"updated_at":"2026-04-15T14:53:51.861300+05:30"},{"city":"Sagar","state":"Madhya Pradesh","latitude":23.8388,"longitude":78.7378,"temp":39.2,"humidity":14,"rain":0.0,"pressure":947.1,"uv_index":8.6,"wind_gusts":29.2,"aqi":52,"pm10":23.0,"pm2_5":8.4,"mosquito_risk":0,"arthritis_risk":5,"migraine_risk":10,"frizz_risk":0,"updated_at":"2026-04-15T14:53:51.861307+05:30"},{"city":"Satna","state":"Madhya Pradesh","latitude":24.6005,"longitude":80.8322,"temp":40.9,"humidity":13,"rain":0.0,"pressure":966.7,"uv_index":8.6,"wind_gusts":27.0,"aqi":120,"pm10":26.4,"pm2_5":11.5,"mosquito_risk":0,"arthritis_risk":5,"migraine_risk":10,"frizz_risk":0,"updated_at":"2026-04-15T14:53:51.861314+05:30"},{"city":"Akola","state":"Maharashtra","latitude":20.7002,"longitude":77.0082,"temp":41.4,"humidity":14,"rain":0.0,"pressure":971.6,"uv_index":8.75,"wind_gusts":34.6,"aqi":57,"pm10":15.6,"pm2_5":9.4,"mosquito_risk":0,"arthritis_risk":5,"migraine_risk":10,"frizz_risk":0,"updated_at":"2026-04-15T14:53:51.861322+05:30"},{"city":"Amravati","state":"Maharashtra","latitude":20.9374,"longitude":77.7796,"temp":40.3,"humidity":18,"rain":0.0,"pressure":964.0,"uv_index":8.8,"wind_gusts":31.3,"aqi":56,"pm10":14.1,"pm2_5":8.7,"mosquito_risk":0,"arthritis_risk":5,"migraine_risk":10,"frizz_risk":0,"updated_at":"2026-04-15T14:53:51.861330+05:30"},{"city":"Latur","state":"Maharashtra","latitude":18.4088,"longitude":76.5604,"temp":37.6,"humidity":21,"rain":0.0,"pressure":938.2,"uv_index":9.05,"wind_gusts":25.2,"aqi":81,"pm10":30.9,"pm2_5":22.2,"mosquito_risk":0,"arthritis_risk":5,"migraine_risk":10,"frizz_risk":0,"updated_at":"2026-04-15T14:53:51.861336+05:30"},{"city":"Nanded","state":"Maharashtra","latitude":19.1383,"longitude":77.3091,"temp":39.4,"humidity":23,"rain":0.0,"pressure":965.9,"uv_index":8.95,"wind_gusts":14.8,"aqi":69,"pm10":22.1,"pm2_5":12.5,"mosquito_risk":0,"arthritis_risk":5,"migraine_risk":10,"frizz_risk":0,"updated_at":"2026-04-15T14:53:51.861342+05:30"},{"city":"Gulbarga","state":"Karnataka","latitude":17.3297,"longitude":76.8343,"temp":41.5,"humidity":17,"rain":0.0,"pressure":955.4,"uv_index":9.1,"wind_gusts":24.1,"aqi":120,"pm10":31.8,"pm2_5":25.5,"mosquito_risk":0,"arthritis_risk":5,"migraine_risk":10,"frizz_risk":0,"updated_at":"2026-04-15T14:53:51.861348+05:30"},{"city":"Bidar","state":"Karnataka","latitude":17.9104,"longitude":77.5199,"temp":39.4,"humidity":18,"rain":0.0,"pressure":933.5,"uv_index":9.1,"wind_gusts":23.4,"aqi":120,"pm10":36.8,"pm2_5":29.6,"mosquito_risk":0,"arthritis_risk":5,"migraine_risk":10,"frizz_risk":0,"updated_at":"2026-04-15T14:53:51.861355+05:30"},{"city":"Hospet","state":"Karnataka","latitude":15.2689,"longitude":76.3909,"temp":36.0,"humidity":39,"rain":0.0,"pressure":953.4,"uv_index":9.3,"wind_gusts":28.4,"aqi":96,"pm10":29.4,"pm2_5":22.5,"mosquito_risk":0,"arthritis_risk":5,"migraine_risk":10,"frizz_risk":1,"updated_at":"2026-04-15T14:53:51.861362+05:30"},{"city":"Tirupur","state":"Tamil Nadu","latitude":11.1085,"longitude":77.3411,"temp":39.8,"humidity":23,"rain":0.0,"pressure":971.9,"uv_index":9.5,"wind_gusts":32.8,"aqi":86,"pm10":33.1,"pm2_5":24.3,"mosquito_risk":0,"arthritis_risk":5,"migraine_risk":10,"frizz_risk":0,"updated_at":"2026-04-15T14:53:51.861368+05:30"},{"city":"Alappuzha","state":"Kerala","latitude":9.4981,"longitude":76.3388,"temp":29.7,"humidity":80,"rain":0.0,"pressure":1005.8,"uv_index":9.2,"wind_gusts":29.5,"aqi":94,"pm10":32.7,"pm2_5":24.4,"mosquito_risk":7,"arthritis_risk":5,"migraine_risk":4,"frizz_risk":1,"updated_at":"2026-04-15T14:53:51.861374+05:30"},{"city":"Munnar","state":"Kerala","latitude":10.0889,"longitude":77.0595,"temp":30.8,"humidity":45,"rain":0.0,"pressure":857.6,"uv_index":9.75,"wind_gusts":35.3,"aqi":77,"pm10":21.2,"pm2_5":13.6,"mosquito_risk":0,"arthritis_risk":5,"migraine_risk":7,"frizz_risk":1,"updated_at":"2026-04-15T14:53:51.861381+05:30"},{"city":"Silchar","state":"Assam","latitude":24.8333,"longitude":92.7789,"temp":28.3,"humidity":72,"rain":0.0,"pressure":1002.9,"uv_index":8.7,"wind_gusts":32.0,"aqi":145,"pm10":60.5,"pm2_5":37.1,"mosquito_risk":7,"arthritis_risk":5,"migraine_risk":4,"frizz_risk":1,"updated_at":"2026-04-15T14:53:51.861388+05:30"},{"city":"Dibrugarh","state":"Assam","latitude":27.4728,"longitude":94.912,"temp":23.3,"humidity":69,"rain":0.0,"pressure":995.6,"uv_index":7.95,"wind_gusts":30.6,"aqi":105,"pm10":88.9,"pm2_5":44.6,"mosquito_risk":3,"arthritis_risk":5,"migraine_risk":7,"frizz_risk":1,"updated_at":"2026-04-15T14:53:51.861395+05:30"}]