[{"city":"Delhi","state":"Delhi","latitude":28.6139,"longitude":77.209,"temp":31.0,"humidity":43,"rain":0.0,"pressure":985.7,"uv_index":7.6,"wind_gusts":25.9,"aqi":153,"pm10":341.8,"pm2_5":79.4,"no2":22.9,"co":668.0,"o3":126.0,"so2":29.2,"mosquito_risk":0,"arthritis_risk":5,"migraine_risk":7,"frizz_risk":1,"updated_at":"2026-05-10T09:05:33.009700+05:30"},{"city":"Mumbai","state":"Maharashtra","latitude":19.076,"longitude":72.8777,"temp":32.1,"humidity":58,"rain":0.0,"pressure":1007.7,"uv_index":7.9,"wind_gusts":47.5,"aqi":83,"pm10":71.7,"pm2_5":40.7,"no2":33.5,"co":538.0,"o3":77.0,"so2":58.6,"mosquito_risk":0,"arthritis_risk":5,"migraine_risk":4,"frizz_risk":1,"updated_at":"2026-05-10T09:05:33.009763+05:30"},{"city":"Bangalore","state":"Karnataka","latitude":12.9716,"longitude":77.5946,"temp":25.5,"humidity":62,"rain":0.0,"pressure":912.1,"uv_index":9.45,"wind_gusts":43.2,"aqi":59,"pm10":14.9,"pm2_5":14.1,"no2":13.4,"co":475.0,"o3":40.0,"so2":9.4,"mosquito_risk":7,"arthritis_risk":5,"migraine_risk":7,"frizz_risk":1,"updated_at":"2026-05-10T09:05:33.009781+05:30"},{"city":"Hyderabad","state":"Telangana","latitude":17.385,"longitude":78.4867,"temp":28.8,"humidity":62,"rain":0.0,"pressure":954.7,"uv_index":9.25,"wind_gusts":33.8,"aqi":58,"pm10":13.8,"pm2_5":10.2,"no2":6.1,"co":447.0,"o3":64.0,"so2":4.9,"mosquito_risk":7,"arthritis_risk":5,"migraine_risk":7,"frizz_risk":1,"updated_at":"2026-05-10T09:05:33.009799+05:30"},{"city":"Chennai","state":"Tamil Nadu","latitude":13.0827,"longitude":80.2707,"temp":28.9,"humidity":75,"rain":0.0,"pressure":1007.2,"uv_index":9.05,"wind_gusts":38.9,"aqi":22,"pm10":5.6,"pm2_5":4.1,"no2":3.7,"co":190.0,"o3":49.0,"so2":4.2,"mosquito_risk":7,"arthritis_risk":5,"migraine_risk":4,"frizz_risk":1,"updated_at":"2026-05-10T09:05:33.009809+05:30"},{"city":"Kolkata","state":"West Bengal","latitude":22.5726,"longitude":88.3639,"temp":28.3,"humidity":72,"rain":0.0,"pressure":1009.7,"uv_index":8.9,"wind_gusts":28.4,"aqi":158,"pm10":31.2,"pm2_5":26.8,"no2":7.8,"co":715.0,"o3":94.0,"so2":15.4,"mosquito_risk":7,"arthritis_risk":0,"migraine_risk":4,"frizz_risk":1,"updated_at":"2026-05-10T09:05:33.009818+05:30"},{"city":"Pune","state":"Maharashtra","latitude":18.5204,"longitude":73.8567,"temp":32.8,"humidity":23,"rain":0.0,"pressure":949.0,"uv_index":8.5,"wind_gusts":38.2,"aqi":95,"pm10":43.8,"pm2_5":22.1,"no2":13.3,"co":396.0,"o3":113.0,"so2":20.1,"mosquito_risk":0,"arthritis_risk":5,"migraine_risk":7,"frizz_risk":0,"updated_at":"2026-05-10T09:05:33.009828+05:30"},{"city":"Ahmedabad","state":"Gujarat","latitude":23.0225,"longitude":72.5714,"temp":32.2,"humidity":45,"rain":0.0,"pressure":1002.4,"uv_index":8.1,"wind_gusts":34.9,"aqi":56,"pm10":35.4,"pm2_5":15.3,"no2":5.9,"co":278.0,"o3":73.0,"so2":6.6,"mosquito_risk":0,"arthritis_risk":5,"migraine_risk":4,"frizz_risk":1,"updated_at":"2026-05-10T09:05:33.009839+05:30"},{"city":"Jaipur","state":"Rajasthan","latitude":26.9124,"longitude":75.7873,"temp":30.7,"humidity":41,"rain":0.0,"pressure":961.8,"uv_index":8.15,"wind_gusts":28.4,"aqi":155,"pm10":299.9,"pm2_5":66.1,"no2":5.5,"co":399.0,"o3":129.0,"so2":9.5,"mosquito_risk":0,"arthritis_risk":5,"migraine_risk":7,"frizz_risk":0,"updated_at":"2026-05-10T09:05:33.009848+05:30"},{"city":"Lucknow","state":"Uttar Pradesh","latitude":26.8467,"longitude":80.9462,"temp":29.9,"humidity":50,"rain":0.0,"pressure":996.1,"uv_index":8.05,"wind_gusts":36.0,"aqi":119,"pm10":53.0,"pm2_5":42.4,"no2":8.0,"co":448.0,"o3":135.0,"so2":14.2,"mosquito_risk":4,"arthritis_risk":5,"migraine_risk":7,"frizz_risk":1,"updated_at":"2026-05-10T09:05:33.009858+05:30"},{"city":"Kanpur","state":"Uttar Pradesh","latitude":26.4499,"longitude":80.3319,"temp":31.4,"humidity":43,"rain":0.0,"pressure":993.9,"uv_index":8.1,"wind_gusts":34.2,"aqi":168,"pm10":272.9,"pm2_5":59.8,"no2":6.6,"co":436.0,"o3":142.0,"so2":14.9,"mosquito_risk":0,"arthritis_risk":5,"migraine_risk":7,"frizz_risk":1,"updated_at":"2026-05-10T09:05:33.009865+05:30"},{"city":"Chandigarh","state":"Chandigarh","latitude":30.7333,"longitude":76.7794,"temp":30.0,"humidity":44,"rain":0.0,"pressure":972.1,"uv_index":7.7,"wind_gusts":37.1,"aqi":120,"pm10":114.8,"pm2_5":43.0,"no2":6.3,"co":361.0,"o3":168.0,"so2":13.1,"mosquito_risk":4,"arthritis_risk":5,"migraine_risk":7,"frizz_risk":1,"updated_at":"2026-05-10T09:05:33.009874+05:30"},{"city":"Srinagar","state":"Jammu and Kashmir","latitude":34.0837,"longitude":74.7973,"temp":18.3,"humidity":51,"rain":0.0,"pressure":845.1,"uv_index":8.5,"wind_gusts":18.0,"aqi":89,"pm10":89.6,"pm2_5":43.9,"no2":7.9,"co":485.0,"o3":127.0,"so2":8.6,"mosquito_risk":0,"arthritis_risk":5,"migraine_risk":7,"frizz_risk":0,"updated_at":"2026-05-10T09:05:33.009883+05:30"},{"city":"Jammu","state":"Jammu and Kashmir","latitude":32.7266,"longitude":74.857,"temp":31.3,"humidity":41,"rain":0.0,"pressure":974.4,"uv_index":8.0,"wind_gusts":32.8,"aqi":151,"pm10":118.7,"pm2_5":57.3,"no2":11.9,"co":337.0,"o3":153.0,"so2":8.2,"mosquito_risk":0,"arthritis_risk":5,"migraine_risk":7,"frizz_risk":1,"updated_at":"2026-05-10T09:05:33.009891+05:30"},{"city":"Amritsar","state":"Punjab","latitude":31.634,"longitude":74.8723,"temp":31.1,"humidity":45,"rain":0.0,"pressure":982.1,"uv_index":8.35,"wind_gusts":31.7,"aqi":156,"pm10":329.7,"pm2_5":85.2,"no2":5.9,"co":542.0,"o3":119.0,"so2":15.4,"mosquito_risk":0,"arthritis_risk":5,"migraine_risk":7,"frizz_risk":1,"updated_at":"2026-05-10T09:05:33.009899+05:30"},{"city":"Ludhiana","state":"Punjab","latitude":30.901,"longitude":75.8573,"temp":30.2,"humidity":50,"rain":0.0,"pressure":980.9,"uv_index":7.95,"wind_gusts":34.2,"aqi":159,"pm10":190.5,"pm2_5":64.0,"no2":8.6,"co":496.0,"o3":120.0,"so2":10.4,"mosquito_risk":0,"arthritis_risk":5,"migraine_risk":7,"frizz_risk":1,"updated_at":"2026-05-10T09:05:33.009906+05:30"},{"city":"Jalandhar","state":"Punjab","latitude":31.326,"longitude":75.5762,"temp":29.9,"humidity":51,"rain":0.0,"pressure":981.7,"uv_index":8.15,"wind_gusts":31.7,"aqi":155,"pm10":218.4,"pm2_5":69.8,"no2":8.4,"co":470.0,"o3":115.0,"so2":15.1,"mosquito_risk":4,"arthritis_risk":5,"migraine_risk":7,"frizz_risk":1,"updated_at":"2026-05-10T09:05:33.009914+05:30"},{"city":"Dehradun","state":"Uttarakhand","latitude":30.6284,"longitude":78.0322,"temp":17.6,"humidity":74,"rain":0.0,"pressure":834.2,"uv_index":8.1,"wind_gusts":25.6,"aqi":69,"pm10":88.9,"pm2_5":31.5,"no2":2.0,"co":262.0,"o3":159.0,"so2":6.5,"mosquito_risk":3,"arthritis_risk":5,"migraine_risk":7,"frizz_risk":0,"updated_at":"2026-05-10T09:05:33.009924+05:30"},{"city":"Shimla","state":"Himachal Pradesh","latitude":31.1048,"longitude":77.1734,"temp":17.3,"humidity":64,"rain":0.0,"pressure":788.5,"uv_index":8.2,"wind_gusts":37.1,"aqi":97,"pm10":138.3,"pm2_5":49.1,"no2":2.2,"co":283.0,"o3":177.0,"so2":13.0,"mosquito_risk":3,"arthritis_risk":5,"migraine_risk":7,"frizz_risk":0,"updated_at":"2026-05-10T09:05:33.009933+05:30"},{"city":"Manali","state":"Himachal Pradesh","latitude":32.2396,"longitude":77.1887,"temp":21.0,"humidity":25,"rain":0.0,"pressure":821.3,"uv_index":9.45,"wind_gusts":44.6,"aqi":46,"pm10":32.1,"pm2_5":9.1,"no2":14.5,"co":203.0,"o3":120.0,"so2":0.4,"mosquito_risk":0,"arthritis_risk":5,"migraine_risk":7,"frizz_risk":0,"updated_at":"2026-05-10T09:05:33.009940+05:30"},{"city":"Gurgaon","state":"Haryana","latitude":28.4595,"longitude":77.0266,"temp":30.5,"humidity":45,"rain":0.0,"pressure":984.0,"uv_index":7.7,"wind_gusts":25.6,"aqi":729,"pm10":918.3,"pm2_5":128.1,"no2":15.4,"co":538.0,"o3":124.0,"so2":17.9,"mosquito_risk":0,"arthritis_risk":5,"migraine_risk":7,"frizz_risk":1,"updated_at":"2026-05-10T09:05:33.009950+05:30"},{"city":"Noida","state":"Uttar Pradesh","latitude":28.5355,"longitude":77.391,"temp":30.1,"humidity":51,"rain":0.0,"pressure":987.1,"uv_index":7.65,"wind_gusts":24.1,"aqi":729,"pm10":918.3,"pm2_5":128.1,"no2":15.4,"co":567.0,"o3":124.0,"so2":17.9,"mosquito_risk":0,"arthritis_risk":5,"migraine_risk":7,"frizz_risk":1,"updated_at":"2026-05-10T09:05:33.009958+05:30"},{"city":"Ghaziabad","state":"Uttar Pradesh","latitude":28.6692,"longitude":77.4538,"temp":30.5,"humidity":47,"rain":0.0,"pressure":985.4,"uv_index":7.6,"wind_gusts":27.7,"aqi":131,"pm10":210.0,"pm2_5":61.2,"no2":9.4,"co":422.0,"o3":121.0,"so2":20.2,"mosquito_risk":0,"arthritis_risk":5,"migraine_risk":7,"frizz_risk":1,"updated_at":"2026-05-10T09:05:33.009966+05:30"},{"city":"Faridabad","state":"Haryana","latitude":28.4089,"longitude":77.3178,"temp":29.8,"humidity":49,"rain":0.0,"pressure":986.3,"uv_index":7.65,"wind_gusts":31.7,"aqi":729,"pm10":918.3,"pm2_5":128.1,"no2":15.4,"co":508.0,"o3":124.0,"so2":17.9,"mosquito_risk":4,"arthritis_risk":5,"migraine_risk":7,"frizz_risk":1,"updated_at":"2026-05-10T09:05:33.009974+05:30"},{"city":"Meerut","state":"Uttar Pradesh","latitude":28.9845,"longitude":77.7064,"temp":29.4,"humidity":55,"rain":0.0,"pressure":984.4,"uv_index":7.55,"wind_gusts":25.9,"aqi":131,"pm10":210.0,"pm2_5":61.2,"no2":9.4,"co":441.0,"o3":121.0,"so2":20.2,"mosquito_risk":4,"arthritis_risk":5,"migraine_risk":7,"frizz_risk":1,"updated_at":"2026-05-10T09:05:33.009981+05:30"},{"city":"Agra","state":"Uttar Pradesh","latitude":27.1767,"longitude":78.0081,"temp":30.1,"humidity":53,"rain":0.0,"pressure":989.9,"uv_index":7.95,"wind_gusts":25.2,"aqi":732,"pm10":549.5,"pm2_5":83.1,"no2":6.9,"co":436.0,"o3":135.0,"so2":15.6,"mosquito_risk":0,"arthritis_risk":5,"migraine_risk":7,"frizz_risk":1,"updated_at":"2026-05-10T09:05:33.009987+05:30"},{"city":"Varanasi","state":"Uttar Pradesh","latitude":25.3176,"longitude":82.9739,"temp":30.0,"humidity":49,"rain":0.0,"pressure":1000.3,"uv_index":8.55,"wind_gusts":38.9,"aqi":131,"pm10":62.6,"pm2_5":54.4,"no2":9.2,"co":490.0,"o3":145.0,"so2":25.0,"mosquito_risk":4,"arthritis_risk":5,"migraine_risk":4,"frizz_risk":1,"updated_at":"2026-05-10T09:05:33.009995+05:30"},{"city":"Prayagraj","state":"Uttar Pradesh","latitude":25.4358,"longitude":81.8463,"temp":31.1,"humidity":44,"rain":0.0,"pressure":998.0,"uv_index":8.45,"wind_gusts":33.8,"aqi":133,"pm10":61.0,"pm2_5":53.2,"no2":8.3,"co":482.0,"o3":147.0,"so2":20.6,"mosquito_risk":0,"arthritis_risk":5,"migraine_risk":7,"frizz_risk":1,"updated_at":"2026-05-10T09:05:33.010004+05:30"},{"city":"Gorakhpur","state":"Uttar Pradesh","latitude":26.7606,"longitude":83.3732,"temp":28.8,"humidity":58,"rain":0.0,"pressure":1001.1,"uv_index":8.4,"wind_gusts":33.8,"aqi":107,"pm10":38.1,"pm2_5":26.7,"no2":5.0,"co":477.0,"o3":140.0,"so2":6.7,"mosquito_risk":4,"arthritis_risk":5,"migraine_risk":4,"frizz_risk":1,"updated_at":"2026-05-10T09:05:33.010012+05:30"},{"city":"Bareilly","state":"Uttar Pradesh","latitude":28.367,"longitude":79.4304,"temp":29.0,"humidity":54,"rain":0.0,"pressure":989.9,"uv_index":7.9,"wind_gusts":24.1,"aqi":112,"pm10":67.5,"pm2_5":39.8,"no2":9.1,"co":401.0,"o3":133.0,"so2":11.6,"mosquito_risk":4,"arthritis_risk":5,"migraine_risk":7,"frizz_risk":1,"updated_at":"2026-05-10T09:05:33.010019+05:30"},{"city":"Aligarh","state":"Uttar Pradesh","latitude":27.8974,"longitude":78.088,"temp":30.9,"humidity":47,"rain":0.0,"pressure":987.9,"uv_index":7.75,"wind_gusts":27.4,"aqi":358,"pm10":367.9,"pm2_5":65.2,"no2":6.1,"co":396.0,"o3":128.0,"so2":16.7,"mosquito_risk":0,"arthritis_risk":5,"migraine_risk":7,"frizz_risk":1,"updated_at":"2026-05-10T09:05:33.010026+05:30"},{"city":"Moradabad","state":"Uttar Pradesh","latitude":28.8386,"longitude":78.7733,"temp":29.0,"humidity":56,"rain":0.0,"pressure":986.9,"uv_index":7.75,"wind_gusts":28.4,"aqi":116,"pm10":48.8,"pm2_5":34.8,"no2":7.6,"co":399.0,"o3":133.0,"so2":8.0,"mosquito_risk":4,"arthritis_risk":5,"migraine_risk":7,"frizz_risk":1,"updated_at":"2026-05-10T09:05:33.010033+05:30"},{"city":"Saharanpur","state":"Uttar Pradesh","latitude":29.9637,"longitude":77.546,"temp":28.2,"humidity":57,"rain":0.0,"pressure":979.3,"uv_index":7.35,"wind_gusts":25.6,"aqi":130,"pm10":85.0,"pm2_5":52.3,"no2":10.1,"co":387.0,"o3":138.0,"so2":11.7,"mosquito_risk":4,"arthritis_risk":5,"migraine_risk":7,"frizz_risk":1,"updated_at":"2026-05-10T09:05:33.010040+05:30"},{"city":"Jhansi","state":"Uttar Pradesh","latitude":25.4484,"longitude":78.5685,"temp":31.5,"humidity":47,"rain":0.0,"pressure":979.4,"uv_index":8.4,"wind_gusts":27.4,"aqi":94,"pm10":55.1,"pm2_5":42.6,"no2":3.4,"co":361.0,"o3":136.0,"so2":17.4,"mosquito_risk":0,"arthritis_risk":5,"migraine_risk":7,"frizz_risk":1,"updated_at":"2026-05-10T09:05:36.332010+05:30"},{"city":"Surat","state":"Gujarat","latitude":21.1702,"longitude":72.8311,"temp":34.3,"humidity":29,"rain":0.0,"pressure":1006.5,"uv_index":7.75,"wind_gusts":34.2,"aqi":102,"pm10":63.3,"pm2_5":44.5,"no2":41.7,"co":268.0,"o3":43.0,"so2":110.4,"mosquito_risk":0,"arthritis_risk":5,"migraine_risk":4,"frizz_risk":0,"updated_at":"2026-05-10T09:05:36.332046+05:30"},{"city":"Vadodara","state":"Gujarat","latitude":22.3072,"longitude":73.1812,"temp":33.7,"humidity":38,"rain":0.0,"pressure":1004.3,"uv_index":8.1,"wind_gusts":29.9,"aqi":78,"pm10":36.1,"pm2_5":22.5,"no2":12.1,"co":314.0,"o3":84.0,"so2":9.4,"mosquito_risk":0,"arthritis_risk":5,"migraine_risk":4,"frizz_risk":1,"updated_at":"2026-05-10T09:05:36.332057+05:30"},{"city":"Rajkot","state":"Gujarat","latitude":22.3039,"longitude":70.8022,"temp":30.4,"humidity":67,"rain":0.0,"pressure":994.9,"uv_index":7.7,"wind_gusts":38.2,"aqi":54,"pm10":43.9,"pm2_5":14.0,"no2":5.5,"co":170.0,"o3":69.0,"so2":4.9,"mosquito_risk":3,"arthritis_risk":5,"migraine_risk":7,"frizz_risk":1,"updated_at":"2026-05-10T09:05:36.332065+05:30"},{"city":"Thane","state":"Maharashtra","latitude":19.2183,"longitude":72.9781,"temp":32.6,"humidity":49,"rain":0.0,"pressure":1007.1,"uv_index":7.9,"wind_gusts":47.5,"aqi":83,"pm10":71.7,"pm2_5":40.7,"no2":33.5,"co":438.0,"o3":77.0,"so2":58.6,"mosquito_risk":0,"arthritis_risk":5,"migraine_risk":4,"frizz_risk":1,"updated_at":"2026-05-10T09:05:36.332073+05:30"},{"city":"Nagpur","state":"Maharashtra","latitude":21.1458,"longitude":79.0882,"temp":32.8,"humidity":38,"rain":0.0,"pressure":974.2,"uv_index":8.9,"wind_gusts":35.3,"aqi":97,"pm10":43.9,"pm2_5":33.6,"no2":10.8,"co":330.0,"o3":141.0,"so2":22.6,"mosquito_risk":0,"arthritis_risk":5,"migraine_risk":7,"frizz_risk":1,"updated_at":"2026-05-10T09:05:36.332080+05:30"},{"city":"Nashik","state":"Maharashtra","latitude":19.9975,"longitude":73.7898,"temp":32.5,"humidity":30,"rain":0.0,"pressure":946.5,"uv_index":8.2,"wind_gusts":42.5,"aqi":74,"pm10":41.1,"pm2_5":17.6,"no2":6.0,"co":301.0,"o3":111.0,"so2":5.1,"mosquito_risk":0,"arthritis_risk":5,"migraine_risk":7,"frizz_risk":0,"updated_at":"2026-05-10T09:05:36.332087+05:30"},{"city":"Aurangabad","state":"Maharashtra","latitude":19.8762,"longitude":75.3433,"temp":33.7,"humidity":22,"rain":0.0,"pressure":945.5,"uv_index":9.05,"wind_gusts":45.4,"aqi":79,"pm10":34.8,"pm2_5":20.4,"no2":6.0,"co":252.0,"o3":128.0,"so2":15.8,"mosquito_risk":0,"arthritis_risk":5,"migraine_risk":7,"frizz_risk":0,"updated_at":"2026-05-10T09:05:36.332094+05:30"},{"city":"Solapur","state":"Maharashtra","latitude":17.6599,"longitude":75.9064,"temp":32.9,"humidity":36,"rain":0.0,"pressure":958.2,"uv_index":9.1,"wind_gusts":34.9,"aqi":78,"pm10":23.9,"pm2_5":20.0,"no2":7.5,"co":253.0,"o3":93.0,"so2":8.3,"mosquito_risk":0,"arthritis_risk":5,"migraine_risk":7,"frizz_risk":0,"updated_at":"2026-05-10T09:05:36.332101+05:30"},{"city":"Kolhapur","state":"Maharashtra","latitude":16.705,"longitude":74.2433,"temp":32.6,"humidity":32,"rain":0.0,"pressure":948.6,"uv_index":8.95,"wind_gusts":36.4,"aqi":113,"pm10":75.2,"pm2_5":65.7,"no2":21.8,"co":523.0,"o3":118.0,"so2":10.8,"mosquito_risk":0,"arthritis_risk":5,"migraine_risk":7,"frizz_risk":0,"updated_at":"2026-05-10T09:05:36.332108+05:30"},{"city":"Goa","state":"Goa","latitude":15.2993,"longitude":74.124,"temp":32.0,"humidity":64,"rain":0.0,"pressure":997.1,"uv_index":6.0,"wind_gusts":44.6,"aqi":83,"pm10":32.9,"pm2_5":21.0,"no2":2.3,"co":221.0,"o3":106.0,"so2":2.4,"mosquito_risk":3,"arthritis_risk":5,"migraine_risk":3,"frizz_risk":1,"updated_at":"2026-05-10T09:05:36.332115+05:30"},{"city":"Jodhpur","state":"Rajasthan","latitude":26.2389,"longitude":73.0243,"temp":34.2,"humidity":19,"rain":0.0,"pressure":983.4,"uv_index":8.4,"wind_gusts":32.8,"aqi":82,"pm10":234.2,"pm2_5":43.4,"no2":8.4,"co":417.0,"o3":99.0,"so2":5.5,"mosquito_risk":0,"arthritis_risk":5,"migraine_risk":7,"frizz_risk":0,"updated_at":"2026-05-10T09:05:36.332122+05:30"},{"city":"Udaipur","state":"Rajasthan","latitude":24.5854,"longitude":73.7125,"temp":34.8,"humidity":27,"rain":0.0,"pressure":947.8,"uv_index":8.8,"wind_gusts":40.7,"aqi":35,"pm10":29.4,"pm2_5":10.2,"no2":2.8,"co":176.0,"o3":95.0,"so2":4.6,"mosquito_risk":0,"arthritis_risk":5,"migraine_risk":7,"frizz_risk":0,"updated_at":"2026-05-10T09:05:36.332130+05:30"},{"city":"Kota","state":"Rajasthan","latitude":25.2138,"longitude":75.8648,"temp":33.3,"humidity":33,"rain":0.0,"pressure":979.8,"uv_index":8.35,"wind_gusts":33.1,"aqi":69,"pm10":62.2,"pm2_5":26.8,"no2":3.9,"co":358.0,"o3":112.0,"so2":10.0,"mosquito_risk":0,"arthritis_risk":5,"migraine_risk":7,"frizz_risk":0,"updated_at":"2026-05-10T09:05:36.332137+05:30"},{"city":"Bikaner","state":"Rajasthan","latitude":28.0229,"longitude":73.3119,"temp":32.8,"humidity":35,"rain":0.0,"pressure":982.5,"uv_index":8.3,"wind_gusts":29.9,"aqi":116,"pm10":134.6,"pm2_5":44.4,"no2":2.9,"co":339.0,"o3":113.0,"so2":7.1,"mosquito_risk":0,"arthritis_risk":5,"migraine_risk":7,"frizz_risk":0,"updated_at":"2026-05-10T09:05:36.332145+05:30"},{"city":"Ajmer","state":"Rajasthan","latitude":26.4499,"longitude":74.6399,"temp":31.2,"humidity":36,"rain":0.0,"pressure":956.5,"uv_index":8.3,"wind_gusts":34.2,"aqi":90,"pm10":162.5,"pm2_5":44.5,"no2":3.3,"co":346.0,"o3":119.0,"so2":7.3,"mosquito_risk":0,"arthritis_risk":5,"migraine_risk":7,"frizz_risk":0,"updated_at":"2026-05-10T09:05:36.332152+05:30"},{"city":"Gwalior","state":"Madhya Pradesh","latitude":26.2183,"longitude":78.1828,"temp":30.4,"humidity":52,"rain":0.0,"pressure":985.0,"uv_index":8.2,"wind_gusts":25.2,"aqi":126,"pm10":78.5,"pm2_5":45.3,"no2":3.3,"co":344.0,"o3":133.0,"so2":12.0,"mosquito_risk":0,"arthritis_risk":5,"migraine_risk":7,"frizz_risk":1,"updated_at":"2026-05-10T09:05:36.332160+05:30"},{"city":"Indore","state":"Madhya Pradesh","latitude":22.7196,"longitude":75.8577,"temp":34.7,"humidity":19,"rain":0.0,"pressure":949.3,"uv_index":8.65,"wind_gusts":41.4,"aqi":57,"pm10":34.0,"pm2_5":19.7,"no2":6.1,"co":468.0,"o3":106.0,"so2":8.9,"mosquito_risk":0,"arthritis_risk":5,"migraine_risk":7,"frizz_risk":0,"updated_at":"2026-05-10T09:05:36.332167+05:30"},{"city":"Bhopal","state":"Madhya Pradesh","latitude":23.2599,"longitude":77.4126,"temp":34.3,"humidity":23,"rain":0.0,"pressure":954.7,"uv_index":8.65,"wind_gusts":45.4,"aqi":57,"pm10":36.9,"pm2_5":17.4,"no2":3.2,"co":346.0,"o3":119.0,"so2":5.8,"mosquito_risk":0,"arthritis_risk":5,"migraine_risk":7,"frizz_risk":0,"updated_at":"2026-05-10T09:05:36.332173+05:30"},{"city":"Jabalpur","state":"Madhya Pradesh","latitude":23.1815,"longitude":79.9864,"temp":31.6,"humidity":39,"rain":0.0,"pressure":962.3,"uv_index":8.75,"wind_gusts":30.6,"aqi":69,"pm10":45.6,"pm2_5":30.4,"no2":4.2,"co":264.0,"o3":141.0,"so2":5.8,"mosquito_risk":0,"arthritis_risk":5,"migraine_risk":7,"frizz_risk":0,"updated_at":"2026-05-10T09:05:36.332180+05:30"},{"city":"Ujjain","state":"Madhya Pradesh","latitude":23.1765,"longitude":75.7885,"temp":34.3,"humidity":22,"rain":0.0,"pressure":955.0,"uv_index":8.6,"wind_gusts":40.3,"aqi":56,"pm10":35.0,"pm2_5":22.5,"no2":4.8,"co":344.0,"o3":91.0,"so2":6.6,"mosquito_risk":0,"arthritis_risk":5,"migraine_risk":7,"frizz_risk":0,"updated_at":"2026-05-10T09:05:36.332187+05:30"},{"city":"Visakhapatnam","state":"Andhra Pradesh","latitude":17.6868,"longitude":83.2185,"temp":30.8,"humidity":65,"rain":0.0,"pressure":1005.2,"uv_index":9.1,"wind_gusts":33.8,"aqi":72,"pm10":35.6,"pm2_5":31.9,"no2":29.3,"co":1890.0,"o3":24.0,"so2":40.6,"mosquito_risk":3,"arthritis_risk":5,"migraine_risk":4,"frizz_risk":1,"updated_at":"2026-05-10T09:05:36.332195+05:30"},{"city":"Vijayawada","state":"Andhra Pradesh","latitude":16.5062,"longitude":80.648,"temp":31.9,"humidity":59,"rain":0.0,"pressure":1003.5,"uv_index":8.8,"wind_gusts":38.5,"aqi":47,"pm10":15.4,"pm2_5":11.8,"no2":4.3,"co":161.0,"o3":54.0,"so2":7.1,"mosquito_risk":0,"arthritis_risk":5,"migraine_risk":4,"frizz_risk":1,"updated_at":"2026-05-10T09:05:36.332202+05:30"},{"city":"Guntur","state":"Andhra Pradesh","latitude":16.3067,"longitude":80.4365,"temp":32.3,"humidity":57,"rain":0.0,"pressure":1004.6,"uv_index":8.75,"wind_gusts":41.0,"aqi":44,"pm10":14.9,"pm2_5":11.4,"no2":4.2,"co":161.0,"o3":52.0,"so2":7.4,"mosquito_risk":0,"arthritis_risk":5,"migraine_risk":4,"frizz_risk":1,"updated_at":"2026-05-10T09:05:36.332209+05:30"},{"city":"Nellore","state":"Andhra Pradesh","latitude":14.4426,"longitude":79.9865,"temp":31.2,"humidity":64,"rain":0.0,"pressure":1006.1,"uv_index":9.2,"wind_gusts":37.8,"aqi":24,"pm10":8.4,"pm2_5":6.0,"no2":2.0,"co":157.0,"o3":51.0,"so2":2.5,"mosquito_risk":3,"arthritis_risk":5,"migraine_risk":4,"frizz_risk":1,"updated_at":"2026-05-10T09:05:36.332216+05:30"},{"city":"Kurnool","state":"Andhra Pradesh","latitude":15.8281,"longitude":78.0373,"temp":31.5,"humidity":53,"rain":0.0,"pressure":977.8,"uv_index":8.75,"wind_gusts":41.4,"aqi":35,"pm10":9.1,"pm2_5":6.9,"no2":2.9,"co":152.0,"o3":60.0,"so2":3.7,"mosquito_risk":0,"arthritis_risk":5,"migraine_risk":7,"frizz_risk":1,"updated_at":"2026-05-10T09:05:36.332223+05:30"},{"city":"Kakinada","state":"Andhra Pradesh","latitude":16.9891,"longitude":82.2475,"temp":31.0,"humidity":64,"rain":0.0,"pressure":1008.6,"uv_index":9.05,"wind_gusts":37.8,"aqi":28,"pm10":11.7,"pm2_5":8.1,"no2":1.3,"co":161.0,"o3":58.0,"so2":1.1,"mosquito_risk":3,"arthritis_risk":0,"migraine_risk":4,"frizz_risk":1,"updated_at":"2026-05-10T09:05:36.332231+05:30"},{"city":"Tirupati","state":"Andhra Pradesh","latitude":13.6288,"longitude":79.4192,"temp":29.5,"humidity":65,"rain":0.0,"pressure":991.5,"uv_index":9.25,"wind_gusts":39.2,"aqi":56,"pm10":9.4,"pm2_5":7.2,"no2":3.6,"co":149.0,"o3":55.0,"so2":2.0,"mosquito_risk":7,"arthritis_risk":5,"migraine_risk":7,"frizz_risk":1,"updated_at":"2026-05-10T09:05:36.332237+05:30"},{"city":"Warangal","state":"Telangana","latitude":17.9689,"longitude":79.5941,"temp":30.2,"humidity":62,"rain":0.0,"pressure":980.2,"uv_index":9.15,"wind_gusts":40.3,"aqi":64,"pm10":12.5,"pm2_5":10.2,"no2":4.9,"co":176.0,"o3":48.0,"so2":9.3,"mosquito_risk":3,"arthritis_risk":5,"migraine_risk":7,"frizz_risk":1,"updated_at":"2026-05-10T09:05:36.332244+05:30"},{"city":"Nizamabad","state":"Telangana","latitude":18.6725,"longitude":78.0941,"temp":31.4,"humidity":51,"rain":0.0,"pressure":966.2,"uv_index":9.1,"wind_gusts":29.9,"aqi":86,"pm10":24.6,"pm2_5":22.0,"no2":8.4,"co":249.0,"o3":92.0,"so2":8.0,"mosquito_risk":0,"arthritis_risk":5,"migraine_risk":7,"frizz_risk":1,"updated_at":"2026-05-10T09:05:36.332250+05:30"},{"city":"Mysore","state":"Karnataka","latitude":12.2958,"longitude":76.6396,"temp":26.5,"humidity":65,"rain":0.0,"pressure":928.9,"uv_index":9.2,"wind_gusts":34.6,"aqi":54,"pm10":13.1,"pm2_5":12.6,"no2":9.5,"co":235.0,"o3":58.0,"so2":8.8,"mosquito_risk":7,"arthritis_risk":5,"migraine_risk":7,"frizz_risk":1,"updated_at":"2026-05-10T09:05:36.332257+05:30"},{"city":"Mangalore","state":"Karnataka","latitude":12.9141,"longitude":74.856,"temp":28.1,"humidity":82,"rain":0.0,"pressure":1005.6,"uv_index":8.65,"wind_gusts":36.0,"aqi":67,"pm10":26.5,"pm2_5":20.3,"no2":6.5,"co":293.0,"o3":96.0,"so2":4.0,"mosquito_risk":7,"arthritis_risk":5,"migraine_risk":4,"frizz_risk":1,"updated_at":"2026-05-10T09:05:36.332264+05:30"},{"city":"Hubli-Dharwad","state":"Karnataka","latitude":15.3647,"longitude":75.124,"temp":29.6,"humidity":54,"rain":0.0,"pressure":941.5,"uv_index":7.6,"wind_gusts":40.3,"aqi":61,"pm10":29.0,"pm2_5":22.6,"no2":5.1,"co":287.0,"o3":96.0,"so2":1.5,"mosquito_risk":4,"arthritis_risk":5,"migraine_risk":7,"frizz_risk":1,"updated_at":"2026-05-10T09:05:36.332270+05:30"},{"city":"Belgaum","state":"Karnataka","latitude":15.8497,"longitude":74.4977,"temp":30.8,"humidity":38,"rain":0.0,"pressure":926.8,"uv_index":8.95,"wind_gusts":41.0,"aqi":96,"pm10":40.0,"pm2_5":31.4,"no2":8.0,"co":284.0,"o3":133.0,"so2":8.8,"mosquito_risk":0,"arthritis_risk":5,"migraine_risk":7,"frizz_risk":0,"updated_at":"2026-05-10T09:05:39.661739+05:30"},{"city":"Coimbatore","state":"Tamil Nadu","latitude":11.0168,"longitude":76.9558,"temp":26.1,"humidity":84,"rain":0.0,"pressure":961.3,"uv_index":9.1,"wind_gusts":31.3,"aqi":59,"pm10":12.5,"pm2_5":12.1,"no2":7.2,"co":266.0,"o3":81.0,"so2":7.8,"mosquito_risk":7,"arthritis_risk":5,"migraine_risk":7,"frizz_risk":1,"updated_at":"2026-05-10T09:05:39.661775+05:30"},{"city":"Madurai","state":"Tamil Nadu","latitude":9.9252,"longitude":78.1198,"temp":28.8,"humidity":74,"rain":0.0,"pressure":992.6,"uv_index":6.4,"wind_gusts":36.0,"aqi":59,"pm10":13.0,"pm2_5":12.8,"no2":12.0,"co":360.0,"o3":65.0,"so2":12.0,"mosquito_risk":7,"arthritis_risk":5,"migraine_risk":7,"frizz_risk":1,"updated_at":"2026-05-10T09:05:39.661786+05:30"},{"city":"Trichy","state":"Tamil Nadu","latitude":10.7905,"longitude":78.7047,"temp":27.6,"humidity":81,"rain":0.0,"pressure":999.6,"uv_index":6.0,"wind_gusts":34.6,"aqi":46,"pm10":12.6,"pm2_5":11.2,"no2":10.9,"co":270.0,"o3":45.0,"so2":9.5,"mosquito_risk":7,"arthritis_risk":5,"migraine_risk":3,"frizz_risk":1,"updated_at":"2026-05-10T09:05:39.661795+05:30"},{"city":"Salem","state":"Tamil Nadu","latitude":11.6643,"longitude":78.146,"temp":28.7,"humidity":70,"rain":0.0,"pressure":977.2,"uv_index":8.05,"wind_gusts":39.2,"aqi":56,"pm10":11.9,"pm2_5":11.4,"no2":10.3,"co":278.0,"o3":59.0,"so2":14.4,"mosquito_risk":7,"arthritis_risk":5,"migraine_risk":7,"frizz_risk":1,"updated_at":"2026-05-10T09:05:39.661803+05:30"},{"city":"Tirunelveli","state":"Tamil Nadu","latitude":8.7139,"longitude":77.7567,"temp":28.8,"humidity":74,"rain":0.0,"pressure":1002.9,"uv_index":3.75,"wind_gusts":37.1,"aqi":59,"pm10":12.9,"pm2_5":12.6,"no2":6.0,"co":237.0,"o3":76.0,"so2":7.7,"mosquito_risk":7,"arthritis_risk":5,"migraine_risk":0,"frizz_risk":1,"updated_at":"2026-05-10T09:05:39.661810+05:30"},{"city":"Vellore","state":"Tamil Nadu","latitude":12.9165,"longitude":79.1325,"temp":29.0,"humidity":69,"rain":0.0,"pressure":984.7,"uv_index":8.8,"wind_gusts":34.6,"aqi":70,"pm10":13.7,"pm2_5":11.2,"no2":5.6,"co":198.0,"o3":57.0,"so2":10.4,"mosquito_risk":7,"arthritis_risk":5,"migraine_risk":7,"frizz_risk":1,"updated_at":"2026-05-10T09:05:39.661818+05:30"},{"city":"Erode","state":"Tamil Nadu","latitude":11.341,"longitude":77.7172,"temp":29.0,"humidity":70,"rain":0.0,"pressure":988.9,"uv_index":8.55,"wind_gusts":32.4,"aqi":67,"pm10":16.1,"pm2_5":15.5,"no2":10.4,"co":258.0,"o3":83.0,"so2":10.3,"mosquito_risk":7,"arthritis_risk":5,"migraine_risk":7,"frizz_risk":1,"updated_at":"2026-05-10T09:05:39.661825+05:30"},{"city":"Kochi","state":"Kerala","latitude":9.9312,"longitude":76.2673,"temp":28.7,"humidity":80,"rain":0.0,"pressure":1007.3,"uv_index":8.65,"wind_gusts":25.6,"aqi":75,"pm10":24.0,"pm2_5":23.3,"no2":9.2,"co":411.0,"o3":98.0,"so2":5.7,"mosquito_risk":7,"arthritis_risk":5,"migraine_risk":4,"frizz_risk":1,"updated_at":"2026-05-10T09:05:39.661832+05:30"},{"city":"Thiruvananthapuram","state":"Kerala","latitude":8.5241,"longitude":76.9366,"temp":28.5,"humidity":82,"rain":0.0,"pressure":1007.1,"uv_index":3.1,"wind_gusts":26.3,"aqi":39,"pm10":13.2,"pm2_5":12.4,"no2":5.1,"co":440.0,"o3":108.0,"so2":5.7,"mosquito_risk":7,"arthritis_risk":5,"migraine_risk":0,"frizz_risk":1,"updated_at":"2026-05-10T09:05:39.661839+05:30"},{"city":"Kozhikode","state":"Kerala","latitude":11.2588,"longitude":75.7804,"temp":28.4,"humidity":83,"rain":0.0,"pressure":1006.5,"uv_index":8.95,"wind_gusts":34.2,"aqi":43,"pm10":16.8,"pm2_5":15.5,"no2":3.6,"co":333.0,"o3":107.0,"so2":4.2,"mosquito_risk":7,"arthritis_risk":5,"migraine_risk":4,"frizz_risk":1,"updated_at":"2026-05-10T09:05:39.661846+05:30"},{"city":"Thrissur","state":"Kerala","latitude":10.5276,"longitude":76.2144,"temp":28.9,"humidity":81,"rain":0.0,"pressure":1005.6,"uv_index":8.95,"wind_gusts":25.2,"aqi":77,"pm10":26.3,"pm2_5":25.6,"no2":7.2,"co":318.0,"o3":91.0,"so2":5.6,"mosquito_risk":7,"arthritis_risk":5,"migraine_risk":4,"frizz_risk":1,"updated_at":"2026-05-10T09:05:39.661853+05:30"},{"city":"Kannur","state":"Kerala","latitude":11.8745,"longitude":75.3704,"temp":28.9,"humidity":78,"rain":0.0,"pressure":1005.7,"uv_index":8.5,"wind_gusts":37.1,"aqi":57,"pm10":20.5,"pm2_5":18.5,"no2":7.5,"co":304.0,"o3":93.0,"so2":2.5,"mosquito_risk":7,"arthritis_risk":5,"migraine_risk":4,"frizz_risk":1,"updated_at":"2026-05-10T09:05:39.661860+05:30"},{"city":"Patna","state":"Bihar","latitude":25.5941,"longitude":85.1376,"temp":27.8,"humidity":67,"rain":0.0,"pressure":1004.2,"uv_index":8.65,"wind_gusts":34.6,"aqi":125,"pm10":53.8,"pm2_5":44.4,"no2":9.2,"co":434.0,"o3":153.0,"so2":23.9,"mosquito_risk":7,"arthritis_risk":5,"migraine_risk":4,"frizz_risk":1,"updated_at":"2026-05-10T09:05:39.661866+05:30"},{"city":"Gaya","state":"Bihar","latitude":24.7914,"longitude":85.0002,"temp":29.8,"humidity":50,"rain":0.0,"pressure":997.1,"uv_index":8.7,"wind_gusts":26.3,"aqi":112,"pm10":50.3,"pm2_5":41.3,"no2":8.4,"co":397.0,"o3":148.0,"so2":33.0,"mosquito_risk":4,"arthritis_risk":5,"migraine_risk":7,"frizz_risk":1,"updated_at":"2026-05-10T09:05:39.661872+05:30"},{"city":"Muzaffarpur","state":"Bihar","latitude":26.1209,"longitude":85.3647,"temp":26.9,"humidity":70,"rain":0.0,"pressure":1004.6,"uv_index":8.65,"wind_gusts":35.3,"aqi":132,"pm10":61.0,"pm2_5":50.3,"no2":9.6,"co":396.0,"o3":136.0,"so2":17.3,"mosquito_risk":7,"arthritis_risk":5,"migraine_risk":4,"frizz_risk":1,"updated_at":"2026-05-10T09:05:39.661879+05:30"},{"city":"Bhagalpur","state":"Bihar","latitude":25.2425,"longitude":87.0117,"temp":28.3,"humidity":60,"rain":0.0,"pressure":1005.8,"uv_index":8.45,"wind_gusts":32.4,"aqi":134,"pm10":56.7,"pm2_5":47.1,"no2":9.5,"co":391.0,"o3":168.0,"so2":26.3,"mosquito_risk":4,"arthritis_risk":5,"migraine_risk":4,"frizz_risk":1,"updated_at":"2026-05-10T09:05:39.661885+05:30"},{"city":"Ranchi","state":"Jharkhand","latitude":23.3441,"longitude":85.3096,"temp":26.2,"humidity":62,"rain":0.0,"pressure":941.4,"uv_index":9.15,"wind_gusts":26.6,"aqi":93,"pm10":34.8,"pm2_5":25.1,"no2":6.2,"co":283.0,"o3":126.0,"so2":42.6,"mosquito_risk":7,"arthritis_risk":5,"migraine_risk":7,"frizz_risk":1,"updated_at":"2026-05-10T09:05:39.661892+05:30"},{"city":"Jamshedpur","state":"Jharkhand","latitude":22.8046,"longitude":86.2029,"temp":29.3,"humidity":60,"rain":0.0,"pressure":994.3,"uv_index":9.0,"wind_gusts":38.5,"aqi":113,"pm10":45.6,"pm2_5":34.3,"no2":14.8,"co":466.0,"o3":131.0,"so2":43.5,"mosquito_risk":4,"arthritis_risk":5,"migraine_risk":7,"frizz_risk":1,"updated_at":"2026-05-10T09:05:39.661899+05:30"},{"city":"Dhanbad","state":"Jharkhand","latitude":23.7957,"longitude":86.4304,"temp":28.1,"humidity":59,"rain":0.0,"pressure":983.3,"uv_index":8.9,"wind_gusts":31.0,"aqi":155,"pm10":74.5,"pm2_5":63.3,"no2":45.3,"co":382.0,"o3":88.0,"so2":104.3,"mosquito_risk":4,"arthritis_risk":5,"migraine_risk":7,"frizz_risk":1,"updated_at":"2026-05-10T09:05:39.661905+05:30"},{"city":"Bokaro","state":"Jharkhand","latitude":23.6693,"longitude":86.1511,"temp":29.0,"humidity":58,"rain":0.0,"pressure":987.3,"uv_index":8.95,"wind_gusts":33.8,"aqi":154,"pm10":68.7,"pm2_5":56.1,"no2":41.3,"co":388.0,"o3":112.0,"so2":94.3,"mosquito_risk":4,"arthritis_risk":5,"migraine_risk":7,"frizz_risk":1,"updated_at":"2026-05-10T09:05:39.661911+05:30"},{"city":"Bhubaneswar","state":"Odisha","latitude":20.2961,"longitude":85.8245,"temp":30.8,"humidity":63,"rain":0.0,"pressure":1005.0,"uv_index":8.95,"wind_gusts":33.1,"aqi":51,"pm10":12.5,"pm2_5":9.0,"no2":2.9,"co":178.0,"o3":89.0,"so2":3.8,"mosquito_risk":3,"arthritis_risk":5,"migraine_risk":4,"frizz_risk":1,"updated_at":"2026-05-10T09:05:39.661919+05:30"},{"city":"Cuttack","state":"Odisha","latitude":20.4625,"longitude":85.8828,"temp":30.5,"humidity":66,"rain":0.0,"pressure":1006.9,"uv_index":9.05,"wind_gusts":28.8,"aqi":51,"pm10":12.5,"pm2_5":9.0,"no2":2.9,"co":195.0,"o3":89.0,"so2":3.8,"mosquito_risk":3,"arthritis_risk":5,"migraine_risk":4,"frizz_risk":1,"updated_at":"2026-05-10T09:05:39.661925+05:30"},{"city":"Rourkela","state":"Odisha","latitude":22.2604,"longitude":84.8536,"temp":30.2,"humidity":59,"rain":0.0,"pressure":987.9,"uv_index":8.9,"wind_gusts":42.5,"aqi":118,"pm10":32.7,"pm2_5":26.7,"no2":12.4,"co":393.0,"o3":114.0,"so2":73.6,"mosquito_risk":0,"arthritis_risk":5,"migraine_risk":7,"frizz_risk":1,"updated_at":"2026-05-10T09:05:39.661931+05:30"},{"city":"Raipur","state":"Chhattisgarh","latitude":21.2514,"longitude":81.6296,"temp":32.5,"humidity":37,"rain":0.0,"pressure":976.6,"uv_index":8.9,"wind_gusts":40.0,"aqi":92,"pm10":61.5,"pm2_5":41.3,"no2":27.1,"co":443.0,"o3":123.0,"so2":9.5,"mosquito_risk":0,"arthritis_risk":5,"migraine_risk":7,"frizz_risk":0,"updated_at":"2026-05-10T09:05:39.661937+05:30"},{"city":"Bhilai","state":"Chhattisgarh","latitude":21.1938,"longitude":81.3509,"temp":31.7,"humidity":39,"rain":0.0,"pressure":976.8,"uv_index":8.95,"wind_gusts":32.8,"aqi":93,"pm10":61.7,"pm2_5":44.0,"no2":40.7,"co":1537.0,"o3":105.0,"so2":9.0,"mosquito_risk":0,"arthritis_risk":5,"migraine_risk":7,"frizz_risk":0,"updated_at":"2026-05-10T09:05:39.661943+05:30"},{"city":"Guwahati","state":"Assam","latitude":26.1158,"longitude":91.7086,"temp":26.4,"humidity":75,"rain":0.0,"pressure":1005.9,"uv_index":8.65,"wind_gusts":27.7,"aqi":88,"pm10":41.6,"pm2_5":27.8,"no2":1.7,"co":353.0,"o3":132.0,"so2":2.5,"mosquito_risk":7,"arthritis_risk":5,"migraine_risk":4,"frizz_risk":1,"updated_at":"2026-05-10T09:05:39.661949+05:30"},{"city":"Agartala","state":"Tripura","latitude":23.8315,"longitude":91.2868,"temp":28.5,"humidity":74,"rain":0.0,"pressure":1009.8,"uv_index":8.15,"wind_gusts":33.1,"aqi":152,"pm10":54.5,"pm2_5":46.3,"no2":9.3,"co":464.0,"o3":157.0,"so2":6.1,"mosquito_risk":7,"arthritis_risk":0,"migraine_risk":4,"frizz_risk":1,"updated_at":"2026-05-10T09:05:39.661956+05:30"},{"city":"Shillong","state":"Meghalaya","latitude":25.5788,"longitude":91.8933,"temp":21.9,"humidity":50,"rain":0.0,"pressure":861.8,"uv_index":8.4,"wind_gusts":23.0,"aqi":85,"pm10":37.8,"pm2_5":24.2,"no2":1.2,"co":260.0,"o3":156.0,"so2":5.1,"mosquito_risk":0,"arthritis_risk":5,"migraine_risk":7,"frizz_risk":0,"updated_at":"2026-05-10T09:05:39.661962+05:30"},{"city":"Imphal","state":"Manipur","latitude":24.817,"longitude":93.9368,"temp":26.1,"humidity":60,"rain":0.0,"pressure":927.4,"uv_index":8.1,"wind_gusts":28.1,"aqi":99,"pm10":35.5,"pm2_5":22.6,"no2":3.2,"co":381.0,"o3":120.0,"so2":4.7,"mosquito_risk":4,"arthritis_risk":5,"migraine_risk":7,"frizz_risk":1,"updated_at":"2026-05-10T09:05:39.661969+05:30"},{"city":"Aizawl","state":"Mizoram","latitude":23.7271,"longitude":92.7176,"temp":24.8,"humidity":54,"rain":0.0,"pressure":896.6,"uv_index":7.75,"wind_gusts":19.8,"aqi":91,"pm10":48.0,"pm2_5":34.0,"no2":1.5,"co":312.0,"o3":149.0,"so2":5.7,"mosquito_risk":0,"arthritis_risk":5,"migraine_risk":7,"frizz_risk":0,"updated_at":"2026-05-10T09:05:39.661975+05:30"},{"city":"Kohima","state":"Nagaland","latitude":25.6701,"longitude":94.1077,"temp":23.2,"humidity":57,"rain":0.0,"pressure":860.4,"uv_index":6.8,"wind_gusts":32.0,"aqi":75,"pm10":28.3,"pm2_5":18.5,"no2":1.2,"co":219.0,"o3":128.0,"so2":1.8,"mosquito_risk":0,"arthritis_risk":5,"migraine_risk":7,"frizz_risk":0,"updated_at":"2026-05-10T09:05:39.661981+05:30"},{"city":"Gangtok","state":"Sikkim","latitude":27.3314,"longitude":88.6138,"temp":14.3,"humidity":97,"rain":0.1,"pressure":841.6,"uv_index":6.25,"wind_gusts":34.6,"aqi":56,"pm10":18.5,"pm2_5":10.0,"no2":3.2,"co":253.0,"o3":126.0,"so2":0.7,"mosquito_risk":6,"arthritis_risk":10,"migraine_risk":7,"frizz_risk":0,"updated_at":"2026-05-10T09:05:39.661988+05:30"},{"city":"Siliguri","state":"West Bengal","latitude":26.7271,"longitude":88.3953,"temp":23.5,"humidity":84,"rain":0.0,"pressure":998.9,"uv_index":8.3,"wind_gusts":23.4,"aqi":92,"pm10":30.4,"pm2_5":19.3,"no2":4.8,"co":562.0,"o3":136.0,"so2":2.4,"mosquito_risk":3,"arthritis_risk":5,"migraine_risk":7,"frizz_risk":1,"updated_at":"2026-05-10T09:05:42.968925+05:30"},{"city":"Durgapur","state":"West Bengal","latitude":23.5204,"longitude":87.3119,"temp":28.9,"humidity":64,"rain":0.0,"pressure":998.9,"uv_index":8.85,"wind_gusts":27.0,"aqi":152,"pm10":69.8,"pm2_5":63.3,"no2":27.5,"co":310.0,"o3":98.0,"so2":69.8,"mosquito_risk":7,"arthritis_risk":5,"migraine_risk":7,"frizz_risk":1,"updated_at":"2026-05-10T09:05:42.968961+05:30"},{"city":"Asansol","state":"West Bengal","latitude":23.6739,"longitude":86.9524,"temp":28.5,"humidity":63,"rain":0.0,"pressure":997.3,"uv_index":8.9,"wind_gusts":36.4,"aqi":149,"pm10":68.5,"pm2_5":60.3,"no2":32.7,"co":521.0,"o3":83.0,"so2":81.2,"mosquito_risk":7,"arthritis_risk":5,"migraine_risk":7,"frizz_risk":1,"updated_at":"2026-05-10T09:05:42.968973+05:30"},{"city":"Pondicherry","state":"Puducherry","latitude":11.9139,"longitude":79.8145,"temp":27.5,"humidity":85,"rain":0.0,"pressure":1008.2,"uv_index":5.15,"wind_gusts":36.7,"aqi":21,"pm10":6.6,"pm2_5":5.5,"no2":6.0,"co":266.0,"o3":49.0,"so2":4.9,"mosquito_risk":7,"arthritis_risk":0,"migraine_risk":0,"frizz_risk":1,"updated_at":"2026-05-10T09:05:42.968982+05:30"},{"city":"Port Blair","state":"Andaman and Nicobar Islands","latitude":11.6234,"longitude":92.7265,"temp":28.8,"humidity":80,"rain":0.0,"pressure":1008.1,"uv_index":8.25,"wind_gusts":31.0,"aqi":27,"pm10":1.3,"pm2_5":1.0,"no2":0.5,"co":134.0,"o3":58.0,"so2":0.1,"mosquito_risk":7,"arthritis_risk":0,"migraine_risk":4,"frizz_risk":1,"updated_at":"2026-05-10T09:05:42.968991+05:30"},{"city":"Haridwar","state":"Uttarakhand","latitude":29.9457,"longitude":78.1642,"temp":28.9,"humidity":54,"rain":0.0,"pressure":977.6,"uv_index":7.45,"wind_gusts":18.7,"aqi":115,"pm10":73.8,"pm2_5":38.2,"no2":4.4,"co":293.0,"o3":156.0,"so2":9.9,"mosquito_risk":4,"arthritis_risk":5,"migraine_risk":7,"frizz_risk":1,"updated_at":"2026-05-10T09:05:42.969000+05:30"},{"city":"Rishikesh","state":"Uttarakhand","latitude":30.0869,"longitude":78.2676,"temp":28.1,"humidity":54,"rain":0.0,"pressure":970.3,"uv_index":7.55,"wind_gusts":19.1,"aqi":102,"pm10":80.1,"pm2_5":36.3,"no2":2.2,"co":317.0,"o3":168.0,"so2":8.7,"mosquito_risk":4,"arthritis_risk":5,"migraine_risk":7,"frizz_risk":1,"updated_at":"2026-05-10T09:05:42.969008+05:30"},{"city":"Nainital","state":"Uttarakhand","latitude":29.3919,"longitude":79.4542,"temp":17.8,"humidity":63,"rain":0.0,"pressure":809.7,"uv_index":6.4,"wind_gusts":32.0,"aqi":88,"pm10":46.1,"pm2_5":23.1,"no2":1.5,"co":269.0,"o3":150.0,"so2":4.5,"mosquito_risk":3,"arthritis_risk":5,"migraine_risk":7,"frizz_risk":0,"updated_at":"2026-05-10T09:05:42.969016+05:30"},{"city":"Mussoorie","state":"Uttarakhand","latitude":30.4599,"longitude":78.0664,"temp":16.6,"humidity":78,"rain":0.1,"pressure":806.6,"uv_index":7.95,"wind_gusts":38.2,"aqi":100,"pm10":81.7,"pm2_5":39.1,"no2":2.9,"co":292.0,"o3":175.0,"so2":10.6,"mosquito_risk":6,"arthritis_risk":5,"migraine_risk":7,"frizz_risk":0,"updated_at":"2026-05-10T09:05:42.969024+05:30"},{"city":"Dharamshala","state":"Himachal Pradesh","latitude":32.219,"longitude":76.3234,"temp":22.5,"humidity":66,"rain":0.0,"pressure":872.2,"uv_index":7.85,"wind_gusts":36.0,"aqi":81,"pm10":68.9,"pm2_5":21.4,"no2":1.3,"co":323.0,"o3":156.0,"so2":2.1,"mosquito_risk":3,"arthritis_risk":5,"migraine_risk":7,"frizz_risk":0,"updated_at":"2026-05-10T09:05:42.969032+05:30"},{"city":"Dalhousie","state":"Himachal Pradesh","latitude":32.5387,"longitude":75.971,"temp":19.9,"humidity":64,"rain":0.0,"pressure":808.3,"uv_index":8.0,"wind_gusts":34.9,"aqi":133,"pm10":135.0,"pm2_5":51.9,"no2":4.5,"co":315.0,"o3":165.0,"so2":5.6,"mosquito_risk":3,"arthritis_risk":5,"migraine_risk":7,"frizz_risk":0,"updated_at":"2026-05-10T09:05:42.969039+05:30"},{"city":"Patiala","state":"Punjab","latitude":30.3398,"longitude":76.3869,"temp":29.8,"humidity":52,"rain":0.0,"pressure":981.0,"uv_index":7.6,"wind_gusts":33.1,"aqi":266,"pm10":612.8,"pm2_5":93.6,"no2":7.5,"co":424.0,"o3":125.0,"so2":13.6,"mosquito_risk":4,"arthritis_risk":5,"migraine_risk":7,"frizz_risk":1,"updated_at":"2026-05-10T09:05:42.969047+05:30"},{"city":"Bhatinda","state":"Punjab","latitude":30.211,"longitude":74.9455,"temp":32.1,"humidity":42,"rain":0.0,"pressure":985.0,"uv_index":8.25,"wind_gusts":30.2,"aqi":376,"pm10":504.8,"pm2_5":114.6,"no2":7.0,"co":460.0,"o3":124.0,"so2":19.4,"mosquito_risk":0,"arthritis_risk":5,"migraine_risk":7,"frizz_risk":1,"updated_at":"2026-05-10T09:05:42.969054+05:30"},{"city":"Rohtak","state":"Haryana","latitude":28.8955,"longitude":76.6066,"temp":31.0,"humidity":45,"rain":0.0,"pressure":984.4,"uv_index":7.65,"wind_gusts":27.4,"aqi":331,"pm10":631.4,"pm2_5":111.8,"no2":15.3,"co":461.0,"o3":127.0,"so2":22.8,"mosquito_risk":0,"arthritis_risk":5,"migraine_risk":7,"frizz_risk":1,"updated_at":"2026-05-10T09:05:42.969061+05:30"},{"city":"Panipat","state":"Haryana","latitude":29.3909,"longitude":76.9635,"temp":30.0,"humidity":51,"rain":0.0,"pressure":983.4,"uv_index":7.5,"wind_gusts":29.2,"aqi":630,"pm10":1031.9,"pm2_5":137.4,"no2":14.2,"co":439.0,"o3":122.0,"so2":24.1,"mosquito_risk":4,"arthritis_risk":5,"migraine_risk":7,"frizz_risk":1,"updated_at":"2026-05-10T09:05:42.969067+05:30"},{"city":"Mathura","state":"Uttar Pradesh","latitude":27.4924,"longitude":77.6737,"temp":30.7,"humidity":49,"rain":0.0,"pressure":989.0,"uv_index":7.9,"wind_gusts":25.2,"aqi":590,"pm10":521.5,"pm2_5":79.9,"no2":7.2,"co":411.0,"o3":130.0,"so2":11.1,"mosquito_risk":0,"arthritis_risk":5,"migraine_risk":7,"frizz_risk":1,"updated_at":"2026-05-10T09:05:42.969074+05:30"},{"city":"Vrindavan","state":"Uttar Pradesh","latitude":27.5823,"longitude":77.7027,"temp":31.0,"humidity":47,"rain":0.0,"pressure":989.5,"uv_index":7.9,"wind_gusts":24.1,"aqi":590,"pm10":521.5,"pm2_5":79.9,"no2":7.2,"co":411.0,"o3":130.0,"so2":11.1,"mosquito_risk":0,"arthritis_risk":5,"migraine_risk":7,"frizz_risk":1,"updated_at":"2026-05-10T09:05:42.969080+05:30"},{"city":"Ayodhya","state":"Uttar Pradesh","latitude":26.7922,"longitude":82.1998,"temp":29.1,"humidity":53,"rain":0.0,"pressure":998.8,"uv_index":8.2,"wind_gusts":34.9,"aqi":106,"pm10":42.0,"pm2_5":32.9,"no2":6.7,"co":458.0,"o3":136.0,"so2":9.2,"mosquito_risk":4,"arthritis_risk":5,"migraine_risk":7,"frizz_risk":1,"updated_at":"2026-05-10T09:05:42.969087+05:30"},{"city":"Ratlam","state":"Madhya Pradesh","latitude":23.3315,"longitude":75.0367,"temp":34.8,"humidity":21,"rain":0.0,"pressure":955.7,"uv_index":8.5,"wind_gusts":43.9,"aqi":50,"pm10":31.8,"pm2_5":17.5,"no2":3.2,"co":228.0,"o3":98.0,"so2":6.5,"mosquito_risk":0,"arthritis_risk":5,"migraine_risk":7,"frizz_risk":0,"updated_at":"2026-05-10T09:05:42.969094+05:30"},{"city":"Sagar","state":"Madhya Pradesh","latitude":23.8388,"longitude":78.7378,"temp":33.5,"humidity":26,"rain":0.0,"pressure":951.2,"uv_index":8.65,"wind_gusts":34.9,"aqi":62,"pm10":39.1,"pm2_5":25.3,"no2":4.0,"co":336.0,"o3":142.0,"so2":10.2,"mosquito_risk":0,"arthritis_risk":5,"migraine_risk":7,"frizz_risk":0,"updated_at":"2026-05-10T09:05:42.969101+05:30"},{"city":"Satna","state":"Madhya Pradesh","latitude":24.6005,"longitude":80.8322,"temp":31.8,"humidity":37,"rain":0.0,"pressure":972.5,"uv_index":8.65,"wind_gusts":30.2,"aqi":93,"pm10":45.9,"pm2_5":36.6,"no2":4.5,"co":371.0,"o3":153.0,"so2":15.9,"mosquito_risk":0,"arthritis_risk":5,"migraine_risk":7,"frizz_risk":0,"updated_at":"2026-05-10T09:05:42.969108+05:30"},{"city":"Akola","state":"Maharashtra","latitude":20.7002,"longitude":77.0082,"temp":34.2,"humidity":31,"rain":0.0,"pressure":975.5,"uv_index":8.85,"wind_gusts":32.8,"aqi":87,"pm10":41.3,"pm2_5":26.5,"no2":11.1,"co":286.0,"o3":108.0,"so2":10.9,"mosquito_risk":0,"arthritis_risk":5,"migraine_risk":7,"frizz_risk":0,"updated_at":"2026-05-10T09:05:42.969116+05:30"},{"city":"Amravati","state":"Maharashtra","latitude":20.9374,"longitude":77.7796,"temp":33.8,"humidity":37,"rain":0.0,"pressure":968.2,"uv_index":8.85,"wind_gusts":36.4,"aqi":87,"pm10":51.6,"pm2_5":32.2,"no2":11.9,"co":289.0,"o3":108.0,"so2":7.4,"mosquito_risk":0,"arthritis_risk":5,"migraine_risk":7,"frizz_risk":1,"updated_at":"2026-05-10T09:05:42.969124+05:30"},{"city":"Latur","state":"Maharashtra","latitude":18.4088,"longitude":76.5604,"temp":32.8,"humidity":35,"rain":0.0,"pressure":941.2,"uv_index":9.0,"wind_gusts":41.8,"aqi":87,"pm10":28.7,"pm2_5":23.5,"no2":6.6,"co":251.0,"o3":106.0,"so2":7.5,"mosquito_risk":0,"arthritis_risk":5,"migraine_risk":7,"frizz_risk":0,"updated_at":"2026-05-10T09:05:42.969131+05:30"},{"city":"Nanded","state":"Maharashtra","latitude":19.1383,"longitude":77.3091,"temp":34.0,"humidity":36,"rain":0.0,"pressure":969.7,"uv_index":9.0,"wind_gusts":38.5,"aqi":91,"pm10":40.3,"pm2_5":31.8,"no2":9.5,"co":338.0,"o3":116.0,"so2":6.1,"mosquito_risk":0,"arthritis_risk":5,"migraine_risk":7,"frizz_risk":1,"updated_at":"2026-05-10T09:05:42.969137+05:30"},{"city":"Gulbarga","state":"Karnataka","latitude":17.3297,"longitude":76.8343,"temp":31.5,"humidity":46,"rain":0.0,"pressure":960.1,"uv_index":9.1,"wind_gusts":30.2,"aqi":63,"pm10":10.3,"pm2_5":9.0,"no2":6.4,"co":174.0,"o3":70.0,"so2":10.7,"mosquito_risk":0,"arthritis_risk":5,"migraine_risk":7,"frizz_risk":1,"updated_at":"2026-05-10T09:05:42.969143+05:30"},{"city":"Bidar","state":"Karnataka","latitude":17.9104,"longitude":77.5199,"temp":30.5,"humidity":47,"rain":0.0,"pressure":937.1,"uv_index":9.15,"wind_gusts":31.0,"aqi":74,"pm10":14.3,"pm2_5":12.3,"no2":5.9,"co":220.0,"o3":80.0,"so2":3.6,"mosquito_risk":0,"arthritis_risk":5,"migraine_risk":7,"frizz_risk":1,"updated_at":"2026-05-10T09:05:42.969150+05:30"},{"city":"Hospet","state":"Karnataka","latitude":15.2689,"longitude":76.3909,"temp":29.0,"humidity":60,"rain":0.0,"pressure":956.7,"uv_index":8.55,"wind_gusts":38.2,"aqi":53,"pm10":11.5,"pm2_5":10.4,"no2":7.2,"co":190.0,"o3":60.0,"so2":4.9,"mosquito_risk":4,"arthritis_risk":5,"migraine_risk":7,"frizz_risk":1,"updated_at":"2026-05-10T09:05:42.969156+05:30"},{"city":"Tirupur","state":"Tamil Nadu","latitude":11.1085,"longitude":77.3411,"temp":28.2,"humidity":74,"rain":0.0,"pressure":974.9,"uv_index":9.25,"wind_gusts":39.6,"aqi":70,"pm10":17.4,"pm2_5":16.9,"no2":10.1,"co":258.0,"o3":88.0,"so2":7.9,"mosquito_risk":7,"arthritis_risk":5,"migraine_risk":7,"frizz_risk":1,"updated_at":"2026-05-10T09:05:42.969163+05:30"},{"city":"Alappuzha","state":"Kerala","latitude":9.4981,"longitude":76.3388,"temp":29.2,"humidity":77,"rain":0.0,"pressure":1007.5,"uv_index":8.4,"wind_gusts":27.4,"aqi":59,"pm10":19.4,"pm2_5":18.8,"no2":7.6,"co":332.0,"o3":116.0,"so2":7.0,"mosquito_risk":7,"arthritis_risk":5,"migraine_risk":4,"frizz_risk":1,"updated_at":"2026-05-10T09:05:42.969169+05:30"},{"city":"Munnar","state":"Kerala","latitude":10.0889,"longitude":77.0595,"temp":20.6,"humidity":84,"rain":0.0,"pressure":856.6,"uv_index":2.55,"wind_gusts":28.4,"aqi":42,"pm10":8.4,"pm2_5":8.2,"no2":3.3,"co":164.0,"o3":81.0,"so2":3.3,"mosquito_risk":3,"arthritis_risk":5,"migraine_risk":3,"frizz_risk":1,"updated_at":"2026-05-10T09:05:42.969176+05:30"},{"city":"Silchar","state":"Assam","latitude":24.8333,"longitude":92.7789,"temp":30.2,"humidity":63,"rain":0.0,"pressure":1008.1,"uv_index":8.65,"wind_gusts":20.9,"aqi":133,"pm10":61.9,"pm2_5":43.8,"no2":3.1,"co":411.0,"o3":142.0,"so2":9.7,"mosquito_risk":3,"arthritis_risk":0,"migraine_risk":4,"frizz_risk":1,"updated_at":"2026-05-10T09:05:42.969183+05:30"},{"city":"Dibrugarh","state":"Assam","latitude":27.4728,"longitude":94.912,"temp":30.1,"humidity":63,"rain":0.0,"pressure":998.5,"uv_index":8.8,"wind_gusts":50.4,"aqi":103,"pm10":44.8,"pm2_5":29.2,"no2":2.6,"co":324.0,"o3":142.0,"so2":2.2,"mosquito_risk":3,"arthritis_risk":5,"migraine_risk":7,"frizz_risk":1,"updated_at":"2026-05-10T09:05:42.969189+05:30"}]