[{"city":"Delhi","state":"Delhi","latitude":28.6139,"longitude":77.209,"temp":20.5,"humidity":63,"rain":0.0,"pressure":985.9,"uv_index":5.7,"wind_gusts":31.7,"aqi":158,"pm10":402.3,"pm2_5":89.6,"mosquito_risk":3,"arthritis_risk":5,"migraine_risk":3,"frizz_risk":0,"updated_at":"2026-03-01T22:02:45.476585+05:30"},{"city":"Mumbai","state":"Maharashtra","latitude":19.076,"longitude":72.8777,"temp":26.3,"humidity":78,"rain":0.0,"pressure":1010.7,"uv_index":7.25,"wind_gusts":24.1,"aqi":84,"pm10":49.4,"pm2_5":27.2,"mosquito_risk":7,"arthritis_risk":0,"migraine_risk":4,"frizz_risk":1,"updated_at":"2026-03-01T22:02:45.476629+05:30"},{"city":"Bangalore","state":"Karnataka","latitude":12.9716,"longitude":77.5946,"temp":24.3,"humidity":54,"rain":0.0,"pressure":912.4,"uv_index":9.05,"wind_gusts":23.0,"aqi":152,"pm10":46.8,"pm2_5":46.3,"mosquito_risk":0,"arthritis_risk":5,"migraine_risk":7,"frizz_risk":0,"updated_at":"2026-03-01T22:02:45.476645+05:30"},{"city":"Hyderabad","state":"Telangana","latitude":17.385,"longitude":78.4867,"temp":25.9,"humidity":63,"rain":0.0,"pressure":954.7,"uv_index":8.3,"wind_gusts":27.4,"aqi":128,"pm10":78.0,"pm2_5":77.5,"mosquito_risk":7,"arthritis_risk":5,"migraine_risk":7,"frizz_risk":1,"updated_at":"2026-03-01T22:02:45.476655+05:30"},{"city":"Chennai","state":"Tamil Nadu","latitude":13.0827,"longitude":80.2707,"temp":26.0,"humidity":77,"rain":0.0,"pressure":1009.6,"uv_index":8.75,"wind_gusts":33.1,"aqi":135,"pm10":45.1,"pm2_5":41.3,"mosquito_risk":7,"arthritis_risk":0,"migraine_risk":4,"frizz_risk":1,"updated_at":"2026-03-01T22:02:45.476663+05:30"},{"city":"Kolkata","state":"West Bengal","latitude":22.5726,"longitude":88.3639,"temp":25.0,"humidity":89,"rain":0.0,"pressure":1007.6,"uv_index":7.6,"wind_gusts":25.2,"aqi":98,"pm10":47.0,"pm2_5":45.3,"mosquito_risk":7,"arthritis_risk":5,"migraine_risk":4,"frizz_risk":1,"updated_at":"2026-03-01T22:02:45.476672+05:30"},{"city":"Pune","state":"Maharashtra","latitude":18.5204,"longitude":73.8567,"temp":23.1,"humidity":73,"rain":0.0,"pressure":949.5,"uv_index":7.8,"wind_gusts":34.2,"aqi":157,"pm10":37.5,"pm2_5":32.9,"mosquito_risk":3,"arthritis_risk":5,"migraine_risk":7,"frizz_risk":1,"updated_at":"2026-03-01T22:02:45.476683+05:30"},{"city":"Ahmedabad","state":"Gujarat","latitude":23.0225,"longitude":72.5714,"temp":25.7,"humidity":54,"rain":0.0,"pressure":1004.7,"uv_index":7.05,"wind_gusts":21.2,"aqi":95,"pm10":55.3,"pm2_5":42.0,"mosquito_risk":4,"arthritis_risk":5,"migraine_risk":4,"frizz_risk":0,"updated_at":"2026-03-01T22:02:45.476692+05:30"},{"city":"Jaipur","state":"Rajasthan","latitude":26.9124,"longitude":75.7873,"temp":24.1,"humidity":30,"rain":0.0,"pressure":962.7,"uv_index":6.45,"wind_gusts":25.2,"aqi":88,"pm10":79.4,"pm2_5":42.1,"mosquito_risk":0,"arthritis_risk":5,"migraine_risk":7,"frizz_risk":0,"updated_at":"2026-03-01T22:02:45.476699+05:30"},{"city":"Lucknow","state":"Uttar Pradesh","latitude":26.8467,"longitude":80.9462,"temp":20.5,"humidity":48,"rain":0.0,"pressure":995.9,"uv_index":6.2,"wind_gusts":38.5,"aqi":125,"pm10":169.5,"pm2_5":48.1,"mosquito_risk":0,"arthritis_risk":5,"migraine_risk":7,"frizz_risk":0,"updated_at":"2026-03-01T22:02:45.476707+05:30"},{"city":"Kanpur","state":"Uttar Pradesh","latitude":26.4499,"longitude":80.3319,"temp":18.4,"humidity":55,"rain":0.0,"pressure":994.4,"uv_index":6.2,"wind_gusts":31.3,"aqi":152,"pm10":262.6,"pm2_5":55.2,"mosquito_risk":0,"arthritis_risk":5,"migraine_risk":7,"frizz_risk":0,"updated_at":"2026-03-01T22:02:45.476713+05:30"},{"city":"Chandigarh","state":"Chandigarh","latitude":30.7333,"longitude":76.7794,"temp":17.7,"humidity":60,"rain":0.0,"pressure":971.2,"uv_index":5.6,"wind_gusts":31.0,"aqi":89,"pm10":41.1,"pm2_5":36.8,"mosquito_risk":0,"arthritis_risk":5,"migraine_risk":3,"frizz_risk":0,"updated_at":"2026-03-01T22:02:45.476720+05:30"},{"city":"Srinagar","state":"Jammu and Kashmir","latitude":34.0837,"longitude":74.7973,"temp":7.0,"humidity":76,"rain":0.0,"pressure":838.6,"uv_index":6.45,"wind_gusts":14.8,"aqi":148,"pm10":92.4,"pm2_5":80.8,"mosquito_risk":3,"arthritis_risk":5,"migraine_risk":7,"frizz_risk":0,"updated_at":"2026-03-01T22:02:45.476728+05:30"},{"city":"Jammu","state":"Jammu and Kashmir","latitude":32.7266,"longitude":74.857,"temp":20.2,"humidity":59,"rain":0.0,"pressure":975.0,"uv_index":6.15,"wind_gusts":25.2,"aqi":100,"pm10":58.7,"pm2_5":50.3,"mosquito_risk":0,"arthritis_risk":5,"migraine_risk":7,"frizz_risk":0,"updated_at":"2026-03-01T22:02:45.476735+05:30"},{"city":"Amritsar","state":"Punjab","latitude":31.634,"longitude":74.8723,"temp":19.1,"humidity":63,"rain":0.0,"pressure":983.4,"uv_index":6.1,"wind_gusts":20.5,"aqi":128,"pm10":68.5,"pm2_5":49.2,"mosquito_risk":3,"arthritis_risk":5,"migraine_risk":7,"frizz_risk":0,"updated_at":"2026-03-01T22:02:45.476741+05:30"},{"city":"Ludhiana","state":"Punjab","latitude":30.901,"longitude":75.8573,"temp":19.9,"humidity":57,"rain":0.0,"pressure":981.6,"uv_index":5.8,"wind_gusts":25.9,"aqi":154,"pm10":91.5,"pm2_5":69.6,"mosquito_risk":0,"arthritis_risk":5,"migraine_risk":3,"frizz_risk":0,"updated_at":"2026-03-01T22:02:45.476747+05:30"},{"city":"Jalandhar","state":"Punjab","latitude":31.326,"longitude":75.5762,"temp":19.9,"humidity":58,"rain":0.0,"pressure":982.8,"uv_index":5.95,"wind_gusts":23.0,"aqi":156,"pm10":94.3,"pm2_5":76.4,"mosquito_risk":0,"arthritis_risk":5,"migraine_risk":3,"frizz_risk":0,"updated_at":"2026-03-01T22:02:45.476756+05:30"},{"city":"Dehradun","state":"Uttarakhand","latitude":30.6284,"longitude":78.0322,"temp":10.6,"humidity":63,"rain":0.0,"pressure":828.3,"uv_index":5.95,"wind_gusts":32.4,"aqi":82,"pm10":29.6,"pm2_5":24.5,"mosquito_risk":3,"arthritis_risk":5,"migraine_risk":3,"frizz_risk":0,"updated_at":"2026-03-01T22:02:45.476763+05:30"},{"city":"Shimla","state":"Himachal Pradesh","latitude":31.1048,"longitude":77.1734,"temp":8.4,"humidity":55,"rain":0.0,"pressure":782.3,"uv_index":6.0,"wind_gusts":50.4,"aqi":84,"pm10":30.7,"pm2_5":23.7,"mosquito_risk":0,"arthritis_risk":5,"migraine_risk":3,"frizz_risk":1,"updated_at":"2026-03-01T22:02:45.476770+05:30"},{"city":"Manali","state":"Himachal Pradesh","latitude":32.2396,"longitude":77.1887,"temp":11.0,"humidity":75,"rain":0.0,"pressure":818.2,"uv_index":7.6,"wind_gusts":34.9,"aqi":88,"pm10":23.3,"pm2_5":16.4,"mosquito_risk":3,"arthritis_risk":5,"migraine_risk":7,"frizz_risk":0,"updated_at":"2026-03-01T22:02:45.476777+05:30"},{"city":"Gurgaon","state":"Haryana","latitude":28.4595,"longitude":77.0266,"temp":17.9,"humidity":73,"rain":0.0,"pressure":984.3,"uv_index":5.8,"wind_gusts":31.0,"aqi":536,"pm10":596.0,"pm2_5":109.0,"mosquito_risk":3,"arthritis_risk":5,"migraine_risk":3,"frizz_risk":0,"updated_at":"2026-03-01T22:02:45.476786+05:30"},{"city":"Noida","state":"Uttar Pradesh","latitude":28.5355,"longitude":77.391,"temp":20.7,"humidity":62,"rain":0.0,"pressure":987.4,"uv_index":5.75,"wind_gusts":31.3,"aqi":536,"pm10":596.0,"pm2_5":109.0,"mosquito_risk":3,"arthritis_risk":5,"migraine_risk":3,"frizz_risk":0,"updated_at":"2026-03-01T22:02:45.476792+05:30"},{"city":"Ghaziabad","state":"Uttar Pradesh","latitude":28.6692,"longitude":77.4538,"temp":20.2,"humidity":62,"rain":0.0,"pressure":985.5,"uv_index":5.7,"wind_gusts":28.1,"aqi":153,"pm10":377.2,"pm2_5":84.1,"mosquito_risk":3,"arthritis_risk":5,"migraine_risk":3,"frizz_risk":0,"updated_at":"2026-03-01T22:02:45.476798+05:30"},{"city":"Faridabad","state":"Haryana","latitude":28.4089,"longitude":77.3178,"temp":20.7,"humidity":56,"rain":0.0,"pressure":986.7,"uv_index":5.75,"wind_gusts":28.8,"aqi":536,"pm10":596.0,"pm2_5":109.0,"mosquito_risk":0,"arthritis_risk":5,"migraine_risk":3,"frizz_risk":0,"updated_at":"2026-03-01T22:02:45.476804+05:30"},{"city":"Meerut","state":"Uttar Pradesh","latitude":28.9845,"longitude":77.7064,"temp":17.8,"humidity":67,"rain":0.0,"pressure":983.9,"uv_index":5.6,"wind_gusts":31.7,"aqi":153,"pm10":377.2,"pm2_5":84.1,"mosquito_risk":3,"arthritis_risk":5,"migraine_risk":3,"frizz_risk":0,"updated_at":"2026-03-01T22:02:45.476810+05:30"},{"city":"Agra","state":"Uttar Pradesh","latitude":27.1767,"longitude":78.0081,"temp":19.9,"humidity":50,"rain":0.0,"pressure":990.8,"uv_index":6.05,"wind_gusts":27.4,"aqi":215,"pm10":447.0,"pm2_5":74.3,"mosquito_risk":0,"arthritis_risk":5,"migraine_risk":7,"frizz_risk":0,"updated_at":"2026-03-01T22:02:45.476817+05:30"},{"city":"Varanasi","state":"Uttar Pradesh","latitude":25.3176,"longitude":82.9739,"temp":19.5,"humidity":61,"rain":0.0,"pressure":999.8,"uv_index":6.85,"wind_gusts":26.6,"aqi":137,"pm10":61.0,"pm2_5":38.9,"mosquito_risk":3,"arthritis_risk":5,"migraine_risk":7,"frizz_risk":0,"updated_at":"2026-03-01T22:02:45.476826+05:30"},{"city":"Prayagraj","state":"Uttar Pradesh","latitude":25.4358,"longitude":81.8463,"temp":19.8,"humidity":58,"rain":0.0,"pressure":998.6,"uv_index":6.7,"wind_gusts":28.1,"aqi":136,"pm10":70.8,"pm2_5":34.8,"mosquito_risk":0,"arthritis_risk":5,"migraine_risk":7,"frizz_risk":0,"updated_at":"2026-03-01T22:02:45.476832+05:30"},{"city":"Gorakhpur","state":"Uttar Pradesh","latitude":26.7606,"longitude":83.3732,"temp":18.8,"humidity":56,"rain":0.0,"pressure":999.0,"uv_index":6.55,"wind_gusts":32.4,"aqi":108,"pm10":38.6,"pm2_5":31.1,"mosquito_risk":0,"arthritis_risk":5,"migraine_risk":7,"frizz_risk":0,"updated_at":"2026-03-01T22:02:45.476839+05:30"},{"city":"Bareilly","state":"Uttar Pradesh","latitude":28.367,"longitude":79.4304,"temp":18.0,"humidity":68,"rain":0.0,"pressure":989.0,"uv_index":5.9,"wind_gusts":35.6,"aqi":122,"pm10":109.2,"pm2_5":44.0,"mosquito_risk":3,"arthritis_risk":5,"migraine_risk":3,"frizz_risk":0,"updated_at":"2026-03-01T22:02:45.476845+05:30"},{"city":"Aligarh","state":"Uttar Pradesh","latitude":27.8974,"longitude":78.088,"temp":18.6,"humidity":59,"rain":0.0,"pressure":988.3,"uv_index":5.8,"wind_gusts":31.3,"aqi":284,"pm10":566.2,"pm2_5":104.3,"mosquito_risk":0,"arthritis_risk":5,"migraine_risk":3,"frizz_risk":0,"updated_at":"2026-03-01T22:02:45.476854+05:30"},{"city":"Moradabad","state":"Uttar Pradesh","latitude":28.8386,"longitude":78.7733,"temp":17.6,"humidity":63,"rain":0.0,"pressure":985.9,"uv_index":5.7,"wind_gusts":33.8,"aqi":127,"pm10":105.2,"pm2_5":41.9,"mosquito_risk":3,"arthritis_risk":5,"migraine_risk":3,"frizz_risk":0,"updated_at":"2026-03-01T22:02:45.476860+05:30"},{"city":"Saharanpur","state":"Uttar Pradesh","latitude":29.9637,"longitude":77.546,"temp":17.3,"humidity":63,"rain":0.0,"pressure":977.7,"uv_index":5.35,"wind_gusts":38.2,"aqi":136,"pm10":83.1,"pm2_5":42.0,"mosquito_risk":3,"arthritis_risk":5,"migraine_risk":3,"frizz_risk":0,"updated_at":"2026-03-01T22:02:45.476866+05:30"},{"city":"Jhansi","state":"Uttar Pradesh","latitude":25.4484,"longitude":78.5685,"temp":21.5,"humidity":56,"rain":0.0,"pressure":980.7,"uv_index":6.65,"wind_gusts":24.5,"aqi":71,"pm10":54.9,"pm2_5":27.7,"mosquito_risk":0,"arthritis_risk":5,"migraine_risk":7,"frizz_risk":0,"updated_at":"2026-03-01T22:02:48.733415+05:30"},{"city":"Surat","state":"Gujarat","latitude":21.1702,"longitude":72.8311,"temp":24.4,"humidity":76,"rain":0.0,"pressure":1008.9,"uv_index":6.95,"wind_gusts":28.4,"aqi":111,"pm10":77.5,"pm2_5":66.4,"mosquito_risk":3,"arthritis_risk":0,"migraine_risk":4,"frizz_risk":1,"updated_at":"2026-03-01T22:02:48.733446+05:30"},{"city":"Vadodara","state":"Gujarat","latitude":22.3072,"longitude":73.1812,"temp":26.4,"humidity":54,"rain":0.0,"pressure":1006.8,"uv_index":7.05,"wind_gusts":11.9,"aqi":115,"pm10":67.1,"pm2_5":58.0,"mosquito_risk":4,"arthritis_risk":5,"migraine_risk":4,"frizz_risk":1,"updated_at":"2026-03-01T22:02:48.733456+05:30"},{"city":"Rajkot","state":"Gujarat","latitude":22.3039,"longitude":70.8022,"temp":24.7,"humidity":47,"rain":0.0,"pressure":997.0,"uv_index":6.9,"wind_gusts":20.5,"aqi":99,"pm10":40.6,"pm2_5":27.5,"mosquito_risk":0,"arthritis_risk":5,"migraine_risk":7,"frizz_risk":0,"updated_at":"2026-03-01T22:02:48.733464+05:30"},{"city":"Thane","state":"Maharashtra","latitude":19.2183,"longitude":72.9781,"temp":24.4,"humidity":80,"rain":0.0,"pressure":1010.1,"uv_index":7.25,"wind_gusts":36.4,"aqi":84,"pm10":49.4,"pm2_5":27.2,"mosquito_risk":3,"arthritis_risk":0,"migraine_risk":4,"frizz_risk":1,"updated_at":"2026-03-01T22:02:48.733471+05:30"},{"city":"Nagpur","state":"Maharashtra","latitude":21.1458,"longitude":79.0882,"temp":25.5,"humidity":55,"rain":0.0,"pressure":974.8,"uv_index":7.65,"wind_gusts":30.6,"aqi":94,"pm10":36.6,"pm2_5":35.9,"mosquito_risk":4,"arthritis_risk":5,"migraine_risk":7,"frizz_risk":0,"updated_at":"2026-03-01T22:02:48.733479+05:30"},{"city":"Nashik","state":"Maharashtra","latitude":19.9975,"longitude":73.7898,"temp":22.4,"humidity":68,"rain":0.0,"pressure":947.0,"uv_index":7.45,"wind_gusts":28.8,"aqi":85,"pm10":29.9,"pm2_5":25.4,"mosquito_risk":3,"arthritis_risk":5,"migraine_risk":7,"frizz_risk":1,"updated_at":"2026-03-01T22:02:48.733486+05:30"},{"city":"Aurangabad","state":"Maharashtra","latitude":19.8762,"longitude":75.3433,"temp":24.8,"humidity":53,"rain":0.0,"pressure":945.2,"uv_index":7.95,"wind_gusts":28.8,"aqi":105,"pm10":37.0,"pm2_5":36.0,"mosquito_risk":0,"arthritis_risk":5,"migraine_risk":7,"frizz_risk":0,"updated_at":"2026-03-01T22:02:48.733493+05:30"},{"city":"Solapur","state":"Maharashtra","latitude":17.6599,"longitude":75.9064,"temp":26.1,"humidity":55,"rain":0.0,"pressure":957.7,"uv_index":8.25,"wind_gusts":19.8,"aqi":134,"pm10":36.9,"pm2_5":36.3,"mosquito_risk":4,"arthritis_risk":5,"migraine_risk":7,"frizz_risk":1,"updated_at":"2026-03-01T22:02:48.733500+05:30"},{"city":"Kolhapur","state":"Maharashtra","latitude":16.705,"longitude":74.2433,"temp":21.1,"humidity":77,"rain":0.0,"pressure":949.0,"uv_index":8.35,"wind_gusts":37.8,"aqi":109,"pm10":32.0,"pm2_5":31.0,"mosquito_risk":3,"arthritis_risk":5,"migraine_risk":7,"frizz_risk":1,"updated_at":"2026-03-01T22:02:48.733507+05:30"},{"city":"Goa","state":"Goa","latitude":15.2993,"longitude":74.124,"temp":26.0,"humidity":73,"rain":0.0,"pressure":1000.0,"uv_index":8.4,"wind_gusts":35.3,"aqi":60,"pm10":28.1,"pm2_5":23.6,"mosquito_risk":7,"arthritis_risk":5,"migraine_risk":4,"frizz_risk":1,"updated_at":"2026-03-01T22:02:48.733514+05:30"},{"city":"Jodhpur","state":"Rajasthan","latitude":26.2389,"longitude":73.0243,"temp":25.8,"humidity":41,"rain":0.0,"pressure":985.5,"uv_index":6.75,"wind_gusts":18.0,"aqi":72,"pm10":46.3,"pm2_5":27.3,"mosquito_risk":4,"arthritis_risk":5,"migraine_risk":7,"frizz_risk":0,"updated_at":"2026-03-01T22:02:48.733521+05:30"},{"city":"Udaipur","state":"Rajasthan","latitude":24.5854,"longitude":73.7125,"temp":21.7,"humidity":57,"rain":0.0,"pressure":949.1,"uv_index":7.35,"wind_gusts":25.2,"aqi":72,"pm10":30.0,"pm2_5":20.0,"mosquito_risk":0,"arthritis_risk":5,"migraine_risk":7,"frizz_risk":0,"updated_at":"2026-03-01T22:02:48.733528+05:30"},{"city":"Kota","state":"Rajasthan","latitude":25.2138,"longitude":75.8648,"temp":25.5,"humidity":46,"rain":0.0,"pressure":981.6,"uv_index":6.8,"wind_gusts":20.2,"aqi":83,"pm10":52.9,"pm2_5":36.8,"mosquito_risk":4,"arthritis_risk":5,"migraine_risk":7,"frizz_risk":0,"updated_at":"2026-03-01T22:02:48.733535+05:30"},{"city":"Bikaner","state":"Rajasthan","latitude":28.0229,"longitude":73.3119,"temp":25.8,"humidity":38,"rain":0.0,"pressure":984.5,"uv_index":6.45,"wind_gusts":16.2,"aqi":66,"pm10":34.5,"pm2_5":20.1,"mosquito_risk":4,"arthritis_risk":5,"migraine_risk":7,"frizz_risk":0,"updated_at":"2026-03-01T22:02:48.733542+05:30"},{"city":"Ajmer","state":"Rajasthan","latitude":26.4499,"longitude":74.6399,"temp":22.3,"humidity":44,"rain":0.0,"pressure":956.9,"uv_index":6.7,"wind_gusts":17.6,"aqi":80,"pm10":52.9,"pm2_5":34.3,"mosquito_risk":0,"arthritis_risk":5,"migraine_risk":7,"frizz_risk":0,"updated_at":"2026-03-01T22:02:48.733548+05:30"},{"city":"Gwalior","state":"Madhya Pradesh","latitude":26.2183,"longitude":78.1828,"temp":22.9,"humidity":51,"rain":0.0,"pressure":986.2,"uv_index":6.35,"wind_gusts":28.8,"aqi":97,"pm10":125.7,"pm2_5":35.5,"mosquito_risk":0,"arthritis_risk":5,"migraine_risk":7,"frizz_risk":0,"updated_at":"2026-03-01T22:02:48.733555+05:30"},{"city":"Indore","state":"Madhya Pradesh","latitude":22.7196,"longitude":75.8577,"temp":21.9,"humidity":59,"rain":0.0,"pressure":949.9,"uv_index":7.35,"wind_gusts":22.3,"aqi":80,"pm10":43.1,"pm2_5":38.3,"mosquito_risk":0,"arthritis_risk":5,"migraine_risk":7,"frizz_risk":0,"updated_at":"2026-03-01T22:02:48.733561+05:30"},{"city":"Bhopal","state":"Madhya Pradesh","latitude":23.2599,"longitude":77.4126,"temp":23.4,"humidity":49,"rain":0.0,"pressure":955.8,"uv_index":7.2,"wind_gusts":25.9,"aqi":75,"pm10":26.1,"pm2_5":23.4,"mosquito_risk":0,"arthritis_risk":5,"migraine_risk":7,"frizz_risk":0,"updated_at":"2026-03-01T22:02:48.733568+05:30"},{"city":"Jabalpur","state":"Madhya Pradesh","latitude":23.1815,"longitude":79.9864,"temp":22.3,"humidity":59,"rain":0.0,"pressure":963.3,"uv_index":7.3,"wind_gusts":39.2,"aqi":73,"pm10":26.8,"pm2_5":25.4,"mosquito_risk":0,"arthritis_risk":5,"migraine_risk":7,"frizz_risk":0,"updated_at":"2026-03-01T22:02:48.733574+05:30"},{"city":"Ujjain","state":"Madhya Pradesh","latitude":23.1765,"longitude":75.7885,"temp":22.1,"humidity":67,"rain":0.0,"pressure":955.9,"uv_index":7.2,"wind_gusts":20.5,"aqi":87,"pm10":55.8,"pm2_5":49.5,"mosquito_risk":3,"arthritis_risk":5,"migraine_risk":7,"frizz_risk":0,"updated_at":"2026-03-01T22:02:48.733581+05:30"},{"city":"Visakhapatnam","state":"Andhra Pradesh","latitude":17.6868,"longitude":83.2185,"temp":25.7,"humidity":81,"rain":0.0,"pressure":1006.3,"uv_index":8.3,"wind_gusts":39.2,"aqi":151,"pm10":49.7,"pm2_5":46.1,"mosquito_risk":7,"arthritis_risk":5,"migraine_risk":4,"frizz_risk":1,"updated_at":"2026-03-01T22:02:48.733587+05:30"},{"city":"Vijayawada","state":"Andhra Pradesh","latitude":16.5062,"longitude":80.648,"temp":25.2,"humidity":77,"rain":0.0,"pressure":1004.7,"uv_index":8.4,"wind_gusts":24.8,"aqi":145,"pm10":39.8,"pm2_5":38.2,"mosquito_risk":7,"arthritis_risk":5,"migraine_risk":4,"frizz_risk":1,"updated_at":"2026-03-01T22:02:48.733594+05:30"},{"city":"Guntur","state":"Andhra Pradesh","latitude":16.3067,"longitude":80.4365,"temp":25.1,"humidity":80,"rain":0.0,"pressure":1006.0,"uv_index":8.4,"wind_gusts":28.4,"aqi":139,"pm10":37.5,"pm2_5":36.1,"mosquito_risk":7,"arthritis_risk":5,"migraine_risk":4,"frizz_risk":1,"updated_at":"2026-03-01T22:02:48.733601+05:30"},{"city":"Nellore","state":"Andhra Pradesh","latitude":14.4426,"longitude":79.9865,"temp":25.6,"humidity":80,"rain":0.0,"pressure":1008.2,"uv_index":8.6,"wind_gusts":31.0,"aqi":135,"pm10":39.1,"pm2_5":36.8,"mosquito_risk":7,"arthritis_risk":0,"migraine_risk":4,"frizz_risk":1,"updated_at":"2026-03-01T22:02:48.733609+05:30"},{"city":"Kurnool","state":"Andhra Pradesh","latitude":15.8281,"longitude":78.0373,"temp":29.0,"humidity":40,"rain":0.0,"pressure":977.6,"uv_index":8.4,"wind_gusts":20.5,"aqi":119,"pm10":37.4,"pm2_5":36.9,"mosquito_risk":4,"arthritis_risk":5,"migraine_risk":7,"frizz_risk":0,"updated_at":"2026-03-01T22:02:48.733616+05:30"},{"city":"Kakinada","state":"Andhra Pradesh","latitude":16.9891,"longitude":82.2475,"temp":24.2,"humidity":86,"rain":0.0,"pressure":1010.1,"uv_index":8.3,"wind_gusts":33.5,"aqi":150,"pm10":46.0,"pm2_5":42.3,"mosquito_risk":3,"arthritis_risk":0,"migraine_risk":4,"frizz_risk":1,"updated_at":"2026-03-01T22:02:48.733623+05:30"},{"city":"Tirupati","state":"Andhra Pradesh","latitude":13.6288,"longitude":79.4192,"temp":24.9,"humidity":67,"rain":0.0,"pressure":994.2,"uv_index":8.7,"wind_gusts":28.4,"aqi":151,"pm10":43.9,"pm2_5":42.7,"mosquito_risk":3,"arthritis_risk":5,"migraine_risk":7,"frizz_risk":1,"updated_at":"2026-03-01T22:02:48.733629+05:30"},{"city":"Warangal","state":"Telangana","latitude":17.9689,"longitude":79.5941,"temp":26.6,"humidity":67,"rain":0.0,"pressure":979.9,"uv_index":8.1,"wind_gusts":27.7,"aqi":141,"pm10":69.4,"pm2_5":68.9,"mosquito_risk":7,"arthritis_risk":5,"migraine_risk":7,"frizz_risk":1,"updated_at":"2026-03-01T22:02:48.733636+05:30"},{"city":"Nizamabad","state":"Telangana","latitude":18.6725,"longitude":78.0941,"temp":26.1,"humidity":52,"rain":0.0,"pressure":965.9,"uv_index":8.0,"wind_gusts":20.9,"aqi":114,"pm10":46.6,"pm2_5":46.2,"mosquito_risk":4,"arthritis_risk":5,"migraine_risk":7,"frizz_risk":0,"updated_at":"2026-03-01T22:02:48.733642+05:30"},{"city":"Mysore","state":"Karnataka","latitude":12.2958,"longitude":76.6396,"temp":23.3,"humidity":79,"rain":0.0,"pressure":929.6,"uv_index":9.05,"wind_gusts":35.6,"aqi":127,"pm10":76.1,"pm2_5":75.0,"mosquito_risk":3,"arthritis_risk":5,"migraine_risk":7,"frizz_risk":1,"updated_at":"2026-03-01T22:02:48.733648+05:30"},{"city":"Mangalore","state":"Karnataka","latitude":12.9141,"longitude":74.856,"temp":28.7,"humidity":70,"rain":0.0,"pressure":1008.6,"uv_index":8.65,"wind_gusts":32.0,"aqi":49,"pm10":18.9,"pm2_5":14.0,"mosquito_risk":7,"arthritis_risk":0,"migraine_risk":4,"frizz_risk":1,"updated_at":"2026-03-01T22:02:48.733654+05:30"},{"city":"Hubli-Dharwad","state":"Karnataka","latitude":15.3647,"longitude":75.124,"temp":22.5,"humidity":72,"rain":0.0,"pressure":941.9,"uv_index":8.55,"wind_gusts":32.8,"aqi":114,"pm10":24.1,"pm2_5":23.3,"mosquito_risk":3,"arthritis_risk":5,"migraine_risk":7,"frizz_risk":1,"updated_at":"2026-03-01T22:02:48.733661+05:30"},{"city":"Belgaum","state":"Karnataka","latitude":15.8497,"longitude":74.4977,"temp":20.7,"humidity":80,"rain":0.0,"pressure":926.6,"uv_index":8.6,"wind_gusts":38.5,"aqi":112,"pm10":21.0,"pm2_5":19.8,"mosquito_risk":3,"arthritis_risk":5,"migraine_risk":7,"frizz_risk":1,"updated_at":"2026-03-01T22:02:51.987713+05:30"},{"city":"Coimbatore","state":"Tamil Nadu","latitude":11.0168,"longitude":76.9558,"temp":24.8,"humidity":79,"rain":0.0,"pressure":963.1,"uv_index":9.05,"wind_gusts":32.8,"aqi":146,"pm10":56.6,"pm2_5":55.9,"mosquito_risk":3,"arthritis_risk":5,"migraine_risk":7,"frizz_risk":1,"updated_at":"2026-03-01T22:02:51.987740+05:30"},{"city":"Madurai","state":"Tamil Nadu","latitude":9.9252,"longitude":78.1198,"temp":25.6,"humidity":70,"rain":0.0,"pressure":995.5,"uv_index":9.0,"wind_gusts":25.9,"aqi":145,"pm10":35.3,"pm2_5":34.1,"mosquito_risk":7,"arthritis_risk":5,"migraine_risk":7,"frizz_risk":1,"updated_at":"2026-03-01T22:02:51.987749+05:30"},{"city":"Trichy","state":"Tamil Nadu","latitude":10.7905,"longitude":78.7047,"temp":25.9,"humidity":77,"rain":0.0,"pressure":1002.0,"uv_index":8.9,"wind_gusts":27.7,"aqi":144,"pm10":43.1,"pm2_5":41.6,"mosquito_risk":7,"arthritis_risk":5,"migraine_risk":4,"frizz_risk":1,"updated_at":"2026-03-01T22:02:51.987757+05:30"},{"city":"Salem","state":"Tamil Nadu","latitude":11.6643,"longitude":78.146,"temp":27.9,"humidity":57,"rain":0.0,"pressure":978.8,"uv_index":8.95,"wind_gusts":25.9,"aqi":148,"pm10":44.0,"pm2_5":43.0,"mosquito_risk":4,"arthritis_risk":5,"migraine_risk":7,"frizz_risk":1,"updated_at":"2026-03-01T22:02:51.987765+05:30"},{"city":"Tirunelveli","state":"Tamil Nadu","latitude":8.7139,"longitude":77.7567,"temp":25.9,"humidity":79,"rain":0.0,"pressure":1005.3,"uv_index":9.05,"wind_gusts":39.2,"aqi":132,"pm10":42.7,"pm2_5":41.2,"mosquito_risk":7,"arthritis_risk":5,"migraine_risk":4,"frizz_risk":1,"updated_at":"2026-03-01T22:02:51.987772+05:30"},{"city":"Vellore","state":"Tamil Nadu","latitude":12.9165,"longitude":79.1325,"temp":25.3,"humidity":68,"rain":0.0,"pressure":986.8,"uv_index":8.8,"wind_gusts":37.4,"aqi":154,"pm10":48.7,"pm2_5":47.3,"mosquito_risk":7,"arthritis_risk":5,"migraine_risk":7,"frizz_risk":1,"updated_at":"2026-03-01T22:02:51.987778+05:30"},{"city":"Erode","state":"Tamil Nadu","latitude":11.341,"longitude":77.7172,"temp":28.4,"humidity":55,"rain":0.0,"pressure":990.3,"uv_index":8.95,"wind_gusts":25.2,"aqi":137,"pm10":41.9,"pm2_5":40.9,"mosquito_risk":4,"arthritis_risk":5,"migraine_risk":7,"frizz_risk":1,"updated_at":"2026-03-01T22:02:51.987785+05:30"},{"city":"Kochi","state":"Kerala","latitude":9.9312,"longitude":76.2673,"temp":28.1,"humidity":78,"rain":0.0,"pressure":1010.4,"uv_index":8.9,"wind_gusts":36.4,"aqi":104,"pm10":41.2,"pm2_5":39.7,"mosquito_risk":7,"arthritis_risk":0,"migraine_risk":4,"frizz_risk":1,"updated_at":"2026-03-01T22:02:51.987791+05:30"},{"city":"Thiruvananthapuram","state":"Kerala","latitude":8.5241,"longitude":76.9366,"temp":27.6,"humidity":80,"rain":0.0,"pressure":1009.9,"uv_index":8.95,"wind_gusts":24.1,"aqi":139,"pm10":23.3,"pm2_5":20.0,"mosquito_risk":7,"arthritis_risk":0,"migraine_risk":4,"frizz_risk":1,"updated_at":"2026-03-01T22:02:51.987798+05:30"},{"city":"Kozhikode","state":"Kerala","latitude":11.2588,"longitude":75.7804,"temp":28.7,"humidity":73,"rain":0.0,"pressure":1009.3,"uv_index":8.75,"wind_gusts":31.3,"aqi":57,"pm10":17.7,"pm2_5":12.6,"mosquito_risk":7,"arthritis_risk":0,"migraine_risk":4,"frizz_risk":1,"updated_at":"2026-03-01T22:02:51.987805+05:30"},{"city":"Thrissur","state":"Kerala","latitude":10.5276,"longitude":76.2144,"temp":27.1,"humidity":84,"rain":0.0,"pressure":1008.5,"uv_index":8.85,"wind_gusts":40.3,"aqi":103,"pm10":33.9,"pm2_5":31.2,"mosquito_risk":7,"arthritis_risk":0,"migraine_risk":4,"frizz_risk":1,"updated_at":"2026-03-01T22:02:51.987812+05:30"},{"city":"Kannur","state":"Kerala","latitude":11.8745,"longitude":75.3704,"temp":27.8,"humidity":75,"rain":0.0,"pressure":1009.0,"uv_index":8.75,"wind_gusts":38.2,"aqi":50,"pm10":17.7,"pm2_5":13.6,"mosquito_risk":7,"arthritis_risk":0,"migraine_risk":4,"frizz_risk":1,"updated_at":"2026-03-01T22:02:51.987819+05:30"},{"city":"Patna","state":"Bihar","latitude":25.5941,"longitude":85.1376,"temp":22.8,"humidity":59,"rain":0.0,"pressure":1002.0,"uv_index":7.0,"wind_gusts":28.8,"aqi":134,"pm10":91.7,"pm2_5":65.0,"mosquito_risk":0,"arthritis_risk":5,"migraine_risk":4,"frizz_risk":0,"updated_at":"2026-03-01T22:02:51.987826+05:30"},{"city":"Gaya","state":"Bihar","latitude":24.7914,"longitude":85.0002,"temp":23.3,"humidity":56,"rain":0.0,"pressure":995.7,"uv_index":7.1,"wind_gusts":19.1,"aqi":117,"pm10":98.5,"pm2_5":62.2,"mosquito_risk":0,"arthritis_risk":5,"migraine_risk":7,"frizz_risk":0,"updated_at":"2026-03-01T22:02:51.987833+05:30"},{"city":"Muzaffarpur","state":"Bihar","latitude":26.1209,"longitude":85.3647,"temp":20.9,"humidity":58,"rain":0.0,"pressure":1001.9,"uv_index":6.95,"wind_gusts":31.0,"aqi":127,"pm10":80.3,"pm2_5":55.1,"mosquito_risk":0,"arthritis_risk":5,"migraine_risk":4,"frizz_risk":0,"updated_at":"2026-03-01T22:02:51.987839+05:30"},{"city":"Bhagalpur","state":"Bihar","latitude":25.2425,"longitude":87.0117,"temp":22.9,"humidity":60,"rain":0.0,"pressure":1002.6,"uv_index":7.05,"wind_gusts":22.3,"aqi":117,"pm10":100.1,"pm2_5":60.8,"mosquito_risk":0,"arthritis_risk":5,"migraine_risk":4,"frizz_risk":0,"updated_at":"2026-03-01T22:02:51.987845+05:30"},{"city":"Ranchi","state":"Jharkhand","latitude":23.3441,"longitude":85.3096,"temp":22.8,"humidity":46,"rain":0.0,"pressure":939.1,"uv_index":7.75,"wind_gusts":24.5,"aqi":100,"pm10":35.4,"pm2_5":33.3,"mosquito_risk":0,"arthritis_risk":5,"migraine_risk":7,"frizz_risk":0,"updated_at":"2026-03-01T22:02:51.987852+05:30"},{"city":"Jamshedpur","state":"Jharkhand","latitude":22.8046,"longitude":86.2029,"temp":26.0,"humidity":56,"rain":0.0,"pressure":991.8,"uv_index":7.7,"wind_gusts":10.8,"aqi":153,"pm10":74.3,"pm2_5":70.8,"mosquito_risk":4,"arthritis_risk":5,"migraine_risk":7,"frizz_risk":1,"updated_at":"2026-03-01T22:02:51.987859+05:30"},{"city":"Dhanbad","state":"Jharkhand","latitude":23.7957,"longitude":86.4304,"temp":26.0,"humidity":37,"rain":0.0,"pressure":981.3,"uv_index":7.55,"wind_gusts":24.1,"aqi":155,"pm10":75.4,"pm2_5":65.4,"mosquito_risk":4,"arthritis_risk":5,"migraine_risk":7,"frizz_risk":0,"updated_at":"2026-03-01T22:02:51.987865+05:30"},{"city":"Bokaro","state":"Jharkhand","latitude":23.6693,"longitude":86.1511,"temp":24.1,"humidity":47,"rain":0.0,"pressure":985.6,"uv_index":7.55,"wind_gusts":22.0,"aqi":155,"pm10":78.0,"pm2_5":70.5,"mosquito_risk":0,"arthritis_risk":5,"migraine_risk":7,"frizz_risk":0,"updated_at":"2026-03-01T22:02:51.987872+05:30"},{"city":"Bhubaneswar","state":"Odisha","latitude":20.2961,"longitude":85.8245,"temp":25.1,"humidity":88,"rain":0.0,"pressure":1004.2,"uv_index":8.05,"wind_gusts":27.0,"aqi":114,"pm10":52.5,"pm2_5":50.8,"mosquito_risk":7,"arthritis_risk":5,"migraine_risk":4,"frizz_risk":1,"updated_at":"2026-03-01T22:02:51.987879+05:30"},{"city":"Cuttack","state":"Odisha","latitude":20.4625,"longitude":85.8828,"temp":25.2,"humidity":86,"rain":0.0,"pressure":1006.0,"uv_index":8.05,"wind_gusts":27.0,"aqi":114,"pm10":52.5,"pm2_5":50.8,"mosquito_risk":7,"arthritis_risk":5,"migraine_risk":4,"frizz_risk":1,"updated_at":"2026-03-01T22:02:51.987885+05:30"},{"city":"Rourkela","state":"Odisha","latitude":22.2604,"longitude":84.8536,"temp":24.4,"humidity":65,"rain":0.0,"pressure":985.4,"uv_index":7.6,"wind_gusts":18.0,"aqi":151,"pm10":83.8,"pm2_5":82.7,"mosquito_risk":3,"arthritis_risk":5,"migraine_risk":7,"frizz_risk":1,"updated_at":"2026-03-01T22:02:51.987891+05:30"},{"city":"Raipur","state":"Chhattisgarh","latitude":21.2514,"longitude":81.6296,"temp":26.0,"humidity":45,"rain":0.0,"pressure":975.5,"uv_index":7.75,"wind_gusts":27.4,"aqi":154,"pm10":56.5,"pm2_5":56.1,"mosquito_risk":4,"arthritis_risk":5,"migraine_risk":7,"frizz_risk":0,"updated_at":"2026-03-01T22:02:51.987898+05:30"},{"city":"Bhilai","state":"Chhattisgarh","latitude":21.1938,"longitude":81.3509,"temp":25.0,"humidity":51,"rain":0.0,"pressure":975.8,"uv_index":7.75,"wind_gusts":28.1,"aqi":153,"pm10":32.2,"pm2_5":32.0,"mosquito_risk":4,"arthritis_risk":5,"migraine_risk":7,"frizz_risk":0,"updated_at":"2026-03-01T22:02:51.987904+05:30"},{"city":"Guwahati","state":"Assam","latitude":26.1158,"longitude":91.7086,"temp":21.9,"humidity":78,"rain":0.0,"pressure":1004.0,"uv_index":7.0,"wind_gusts":32.0,"aqi":160,"pm10":78.9,"pm2_5":68.5,"mosquito_risk":3,"arthritis_risk":5,"migraine_risk":4,"frizz_risk":1,"updated_at":"2026-03-01T22:02:51.987910+05:30"},{"city":"Agartala","state":"Tripura","latitude":23.8315,"longitude":91.2868,"temp":22.2,"humidity":80,"rain":0.0,"pressure":1007.9,"uv_index":7.35,"wind_gusts":27.4,"aqi":117,"pm10":43.4,"pm2_5":40.5,"mosquito_risk":3,"arthritis_risk":5,"migraine_risk":4,"frizz_risk":1,"updated_at":"2026-03-01T22:02:51.987917+05:30"},{"city":"Shillong","state":"Meghalaya","latitude":25.5788,"longitude":91.8933,"temp":9.4,"humidity":86,"rain":0.0,"pressure":854.4,"uv_index":6.8,"wind_gusts":56.9,"aqi":138,"pm10":70.3,"pm2_5":54.4,"mosquito_risk":3,"arthritis_risk":10,"migraine_risk":7,"frizz_risk":0,"updated_at":"2026-03-01T22:02:51.987923+05:30"},{"city":"Imphal","state":"Manipur","latitude":24.817,"longitude":93.9368,"temp":13.7,"humidity":76,"rain":0.0,"pressure":923.6,"uv_index":7.55,"wind_gusts":49.3,"aqi":153,"pm10":91.7,"pm2_5":75.2,"mosquito_risk":3,"arthritis_risk":5,"migraine_risk":7,"frizz_risk":0,"updated_at":"2026-03-01T22:02:51.987930+05:30"},{"city":"Aizawl","state":"Mizoram","latitude":23.7271,"longitude":92.7176,"temp":17.1,"humidity":67,"rain":0.0,"pressure":893.4,"uv_index":7.55,"wind_gusts":40.3,"aqi":129,"pm10":67.8,"pm2_5":53.1,"mosquito_risk":3,"arthritis_risk":5,"migraine_risk":7,"frizz_risk":0,"updated_at":"2026-03-01T22:02:51.987937+05:30"},{"city":"Kohima","state":"Nagaland","latitude":25.6701,"longitude":94.1077,"temp":12.0,"humidity":73,"rain":0.0,"pressure":853.8,"uv_index":7.4,"wind_gusts":70.9,"aqi":154,"pm10":98.0,"pm2_5":80.1,"mosquito_risk":3,"arthritis_risk":5,"migraine_risk":7,"frizz_risk":0,"updated_at":"2026-03-01T22:02:51.987943+05:30"},{"city":"Gangtok","state":"Sikkim","latitude":27.3314,"longitude":88.6138,"temp":10.5,"humidity":80,"rain":0.0,"pressure":835.3,"uv_index":5.3,"wind_gusts":12.6,"aqi":130,"pm10":79.6,"pm2_5":61.2,"mosquito_risk":3,"arthritis_risk":5,"migraine_risk":3,"frizz_risk":0,"updated_at":"2026-03-01T22:02:51.987950+05:30"},{"city":"Siliguri","state":"West Bengal","latitude":26.7271,"longitude":88.3953,"temp":18.9,"humidity":70,"rain":0.0,"pressure":995.4,"uv_index":7.0,"wind_gusts":30.2,"aqi":173,"pm10":134.1,"pm2_5":101.0,"mosquito_risk":3,"arthritis_risk":5,"migraine_risk":7,"frizz_risk":0,"updated_at":"2026-03-01T22:02:55.247686+05:30"},{"city":"Durgapur","state":"West Bengal","latitude":23.5204,"longitude":87.3119,"temp":26.5,"humidity":44,"rain":0.0,"pressure":996.4,"uv_index":7.55,"wind_gusts":26.3,"aqi":149,"pm10":65.0,"pm2_5":54.9,"mosquito_risk":4,"arthritis_risk":5,"migraine_risk":7,"frizz_risk":0,"updated_at":"2026-03-01T22:02:55.247713+05:30"},{"city":"Asansol","state":"West Bengal","latitude":23.6739,"longitude":86.9524,"temp":27.8,"humidity":38,"rain":0.0,"pressure":995.1,"uv_index":7.5,"wind_gusts":22.7,"aqi":130,"pm10":54.9,"pm2_5":44.5,"mosquito_risk":4,"arthritis_risk":5,"migraine_risk":7,"frizz_risk":0,"updated_at":"2026-03-01T22:02:55.247723+05:30"},{"city":"Pondicherry","state":"Puducherry","latitude":11.9139,"longitude":79.8145,"temp":24.3,"humidity":86,"rain":0.0,"pressure":1010.8,"uv_index":8.8,"wind_gusts":28.1,"aqi":131,"pm10":44.8,"pm2_5":40.6,"mosquito_risk":3,"arthritis_risk":0,"migraine_risk":4,"frizz_risk":1,"updated_at":"2026-03-01T22:02:55.247731+05:30"},{"city":"Port Blair","state":"Andaman and Nicobar Islands","latitude":11.6234,"longitude":92.7265,"temp":27.6,"humidity":69,"rain":0.0,"pressure":1008.0,"uv_index":8.75,"wind_gusts":25.6,"aqi":71,"pm10":26.4,"pm2_5":22.9,"mosquito_risk":7,"arthritis_risk":0,"migraine_risk":4,"frizz_risk":1,"updated_at":"2026-03-01T22:02:55.247738+05:30"},{"city":"Haridwar","state":"Uttarakhand","latitude":29.9457,"longitude":78.1642,"temp":17.5,"humidity":67,"rain":0.0,"pressure":976.2,"uv_index":5.4,"wind_gusts":37.1,"aqi":103,"pm10":45.1,"pm2_5":34.8,"mosquito_risk":3,"arthritis_risk":5,"migraine_risk":3,"frizz_risk":0,"updated_at":"2026-03-01T22:02:55.247744+05:30"},{"city":"Rishikesh","state":"Uttarakhand","latitude":30.0869,"longitude":78.2676,"temp":15.3,"humidity":74,"rain":0.0,"pressure":968.6,"uv_index":5.5,"wind_gusts":34.9,"aqi":106,"pm10":32.4,"pm2_5":27.4,"mosquito_risk":3,"arthritis_risk":5,"migraine_risk":3,"frizz_risk":0,"updated_at":"2026-03-01T22:02:55.247751+05:30"},{"city":"Nainital","state":"Uttarakhand","latitude":29.3919,"longitude":79.4542,"temp":14.2,"humidity":49,"rain":0.0,"pressure":805.0,"uv_index":6.3,"wind_gusts":40.0,"aqi":114,"pm10":33.8,"pm2_5":24.4,"mosquito_risk":0,"arthritis_risk":5,"migraine_risk":7,"frizz_risk":0,"updated_at":"2026-03-01T22:02:55.247757+05:30"},{"city":"Mussoorie","state":"Uttarakhand","latitude":30.4599,"longitude":78.0664,"temp":12.5,"humidity":53,"rain":0.0,"pressure":801.2,"uv_index":5.85,"wind_gusts":39.6,"aqi":98,"pm10":41.7,"pm2_5":37.6,"mosquito_risk":0,"arthritis_risk":5,"migraine_risk":3,"frizz_risk":0,"updated_at":"2026-03-01T22:02:55.247763+05:30"},{"city":"Dharamshala","state":"Himachal Pradesh","latitude":32.219,"longitude":76.3234,"temp":16.4,"humidity":52,"rain":0.0,"pressure":869.7,"uv_index":6.05,"wind_gusts":27.4,"aqi":103,"pm10":39.3,"pm2_5":29.3,"mosquito_risk":0,"arthritis_risk":5,"migraine_risk":7,"frizz_risk":0,"updated_at":"2026-03-01T22:02:55.247769+05:30"},{"city":"Dalhousie","state":"Himachal Pradesh","latitude":32.5387,"longitude":75.971,"temp":13.0,"humidity":49,"rain":0.0,"pressure":803.2,"uv_index":6.25,"wind_gusts":30.2,"aqi":92,"pm10":65.0,"pm2_5":56.3,"mosquito_risk":0,"arthritis_risk":5,"migraine_risk":7,"frizz_risk":0,"updated_at":"2026-03-01T22:02:55.247776+05:30"},{"city":"Patiala","state":"Punjab","latitude":30.3398,"longitude":76.3869,"temp":17.7,"humidity":69,"rain":0.0,"pressure":980.8,"uv_index":5.5,"wind_gusts":28.4,"aqi":154,"pm10":299.9,"pm2_5":81.7,"mosquito_risk":3,"arthritis_risk":5,"migraine_risk":3,"frizz_risk":0,"updated_at":"2026-03-01T22:02:55.247782+05:30"},{"city":"Bhatinda","state":"Punjab","latitude":30.211,"longitude":74.9455,"temp":21.3,"humidity":61,"rain":0.0,"pressure":986.7,"uv_index":6.2,"wind_gusts":21.2,"aqi":153,"pm10":104.3,"pm2_5":79.9,"mosquito_risk":3,"arthritis_risk":5,"migraine_risk":7,"frizz_risk":0,"updated_at":"2026-03-01T22:02:55.247788+05:30"},{"city":"Rohtak","state":"Haryana","latitude":28.8955,"longitude":76.6066,"temp":19.1,"humidity":70,"rain":0.0,"pressure":984.7,"uv_index":5.7,"wind_gusts":30.6,"aqi":162,"pm10":417.2,"pm2_5":89.2,"mosquito_risk":3,"arthritis_risk":5,"migraine_risk":3,"frizz_risk":0,"updated_at":"2026-03-01T22:02:55.247794+05:30"},{"city":"Panipat","state":"Haryana","latitude":29.3909,"longitude":76.9635,"temp":17.8,"humidity":69,"rain":0.0,"pressure":983.0,"uv_index":5.5,"wind_gusts":29.9,"aqi":349,"pm10":786.0,"pm2_5":125.7,"mosquito_risk":3,"arthritis_risk":5,"migraine_risk":3,"frizz_risk":0,"updated_at":"2026-03-01T22:02:55.247800+05:30"},{"city":"Mathura","state":"Uttar Pradesh","latitude":27.4924,"longitude":77.6737,"temp":21.6,"humidity":42,"rain":0.0,"pressure":989.8,"uv_index":5.95,"wind_gusts":25.6,"aqi":244,"pm10":395.8,"pm2_5":75.9,"mosquito_risk":0,"arthritis_risk":5,"migraine_risk":3,"frizz_risk":0,"updated_at":"2026-03-01T22:02:55.247806+05:30"},{"city":"Vrindavan","state":"Uttar Pradesh","latitude":27.5823,"longitude":77.7027,"temp":18.8,"humidity":58,"rain":0.0,"pressure":990.3,"uv_index":5.95,"wind_gusts":28.4,"aqi":244,"pm10":395.8,"pm2_5":75.9,"mosquito_risk":0,"arthritis_risk":5,"migraine_risk":3,"frizz_risk":0,"updated_at":"2026-03-01T22:02:55.247812+05:30"},{"city":"Ayodhya","state":"Uttar Pradesh","latitude":26.7922,"longitude":82.1998,"temp":19.1,"humidity":49,"rain":0.0,"pressure":997.5,"uv_index":6.35,"wind_gusts":36.4,"aqi":110,"pm10":68.0,"pm2_5":32.6,"mosquito_risk":0,"arthritis_risk":5,"migraine_risk":7,"frizz_risk":0,"updated_at":"2026-03-01T22:02:55.247818+05:30"},{"city":"Ratlam","state":"Madhya Pradesh","latitude":23.3315,"longitude":75.0367,"temp":24.2,"humidity":55,"rain":0.0,"pressure":956.9,"uv_index":7.2,"wind_gusts":27.7,"aqi":79,"pm10":44.7,"pm2_5":38.4,"mosquito_risk":0,"arthritis_risk":5,"migraine_risk":7,"frizz_risk":0,"updated_at":"2026-03-01T22:02:55.247824+05:30"},{"city":"Sagar","state":"Madhya Pradesh","latitude":23.8388,"longitude":78.7378,"temp":24.4,"humidity":42,"rain":0.0,"pressure":952.3,"uv_index":7.15,"wind_gusts":20.2,"aqi":85,"pm10":31.1,"pm2_5":21.6,"mosquito_risk":0,"arthritis_risk":5,"migraine_risk":7,"frizz_risk":0,"updated_at":"2026-03-01T22:02:55.247830+05:30"},{"city":"Satna","state":"Madhya Pradesh","latitude":24.6005,"longitude":80.8322,"temp":22.3,"humidity":46,"rain":0.0,"pressure":973.9,"uv_index":7.1,"wind_gusts":31.7,"aqi":91,"pm10":40.3,"pm2_5":23.2,"mosquito_risk":0,"arthritis_risk":5,"migraine_risk":7,"frizz_risk":0,"updated_at":"2026-03-01T22:02:55.247836+05:30"},{"city":"Akola","state":"Maharashtra","latitude":20.7002,"longitude":77.0082,"temp":25.2,"humidity":54,"rain":0.0,"pressure":976.6,"uv_index":7.7,"wind_gusts":28.4,"aqi":100,"pm10":29.3,"pm2_5":28.4,"mosquito_risk":4,"arthritis_risk":5,"migraine_risk":7,"frizz_risk":0,"updated_at":"2026-03-01T22:02:55.247842+05:30"},{"city":"Amravati","state":"Maharashtra","latitude":20.9374,"longitude":77.7796,"temp":24.4,"humidity":54,"rain":0.0,"pressure":968.9,"uv_index":7.65,"wind_gusts":27.4,"aqi":101,"pm10":24.4,"pm2_5":23.7,"mosquito_risk":0,"arthritis_risk":5,"migraine_risk":7,"frizz_risk":0,"updated_at":"2026-03-01T22:02:55.247849+05:30"},{"city":"Latur","state":"Maharashtra","latitude":18.4088,"longitude":76.5604,"temp":25.1,"humidity":65,"rain":0.0,"pressure":940.7,"uv_index":8.15,"wind_gusts":25.6,"aqi":115,"pm10":27.9,"pm2_5":27.6,"mosquito_risk":7,"arthritis_risk":5,"migraine_risk":7,"frizz_risk":1,"updated_at":"2026-03-01T22:02:55.247855+05:30"},{"city":"Nanded","state":"Maharashtra","latitude":19.1383,"longitude":77.3091,"temp":26.9,"humidity":54,"rain":0.0,"pressure":969.5,"uv_index":7.9,"wind_gusts":15.5,"aqi":101,"pm10":24.9,"pm2_5":24.6,"mosquito_risk":4,"arthritis_risk":5,"migraine_risk":7,"frizz_risk":1,"updated_at":"2026-03-01T22:02:55.247861+05:30"},{"city":"Gulbarga","state":"Karnataka","latitude":17.3297,"longitude":76.8343,"temp":29.2,"humidity":50,"rain":0.0,"pressure":959.7,"uv_index":8.25,"wind_gusts":17.6,"aqi":142,"pm10":43.5,"pm2_5":43.2,"mosquito_risk":4,"arthritis_risk":5,"migraine_risk":7,"frizz_risk":1,"updated_at":"2026-03-01T22:02:55.247866+05:30"},{"city":"Bidar","state":"Karnataka","latitude":17.9104,"longitude":77.5199,"temp":27.3,"humidity":53,"rain":0.0,"pressure":936.7,"uv_index":8.2,"wind_gusts":20.5,"aqi":124,"pm10":43.0,"pm2_5":42.7,"mosquito_risk":4,"arthritis_risk":5,"migraine_risk":7,"frizz_risk":1,"updated_at":"2026-03-01T22:02:55.247872+05:30"},{"city":"Hospet","state":"Karnataka","latitude":15.2689,"longitude":76.3909,"temp":30.1,"humidity":42,"rain":0.0,"pressure":956.5,"uv_index":8.55,"wind_gusts":24.5,"aqi":161,"pm10":48.9,"pm2_5":48.3,"mosquito_risk":0,"arthritis_risk":5,"migraine_risk":7,"frizz_risk":0,"updated_at":"2026-03-01T22:02:55.247878+05:30"},{"city":"Tirupur","state":"Tamil Nadu","latitude":11.1085,"longitude":77.3411,"temp":27.4,"humidity":59,"rain":0.0,"pressure":976.9,"uv_index":9.05,"wind_gusts":20.2,"aqi":152,"pm10":60.1,"pm2_5":59.1,"mosquito_risk":4,"arthritis_risk":5,"migraine_risk":7,"frizz_risk":1,"updated_at":"2026-03-01T22:02:55.247884+05:30"},{"city":"Alappuzha","state":"Kerala","latitude":9.4981,"longitude":76.3388,"temp":27.9,"humidity":80,"rain":0.0,"pressure":1010.6,"uv_index":8.9,"wind_gusts":34.9,"aqi":92,"pm10":30.5,"pm2_5":27.3,"mosquito_risk":7,"arthritis_risk":0,"migraine_risk":4,"frizz_risk":1,"updated_at":"2026-03-01T22:02:55.247890+05:30"},{"city":"Munnar","state":"Kerala","latitude":10.0889,"longitude":77.0595,"temp":20.8,"humidity":85,"rain":0.0,"pressure":857.9,"uv_index":9.35,"wind_gusts":25.2,"aqi":132,"pm10":55.9,"pm2_5":55.1,"mosquito_risk":3,"arthritis_risk":5,"migraine_risk":7,"frizz_risk":1,"updated_at":"2026-03-01T22:02:55.247896+05:30"},{"city":"Silchar","state":"Assam","latitude":24.8333,"longitude":92.7789,"temp":22.3,"humidity":67,"rain":0.0,"pressure":1006.7,"uv_index":7.3,"wind_gusts":20.5,"aqi":157,"pm10":103.4,"pm2_5":81.5,"mosquito_risk":3,"arthritis_risk":5,"migraine_risk":4,"frizz_risk":0,"updated_at":"2026-03-01T22:02:55.247903+05:30"},{"city":"Dibrugarh","state":"Assam","latitude":27.4728,"longitude":94.912,"temp":19.7,"humidity":84,"rain":0.0,"pressure":999.1,"uv_index":7.0,"wind_gusts":13.7,"aqi":158,"pm10":88.0,"pm2_5":80.3,"mosquito_risk":3,"arthritis_risk":10,"migraine_risk":7,"frizz_risk":1,"updated_at":"2026-03-01T22:02:55.247909+05:30"}]