[{"city":"Delhi","state":"Delhi","latitude":28.6139,"longitude":77.209,"temp":29.0,"humidity":85,"rain":0.0,"pressure":976.5,"uv_index":6.3,"wind_gusts":38.2,"aqi":115,"pm10":41.7,"pm2_5":40.3,"no2":47.0,"co":1128.0,"o3":57.0,"so2":26.4,"mosquito_risk":7,"arthritis_risk":5,"migraine_risk":7,"frizz_risk":1,"updated_at":"2026-07-22T20:35:34.547293+05:30"},{"city":"Mumbai","state":"Maharashtra","latitude":19.076,"longitude":72.8777,"temp":26.1,"humidity":90,"rain":0.4,"pressure":1004.6,"uv_index":0.75,"wind_gusts":61.6,"aqi":56,"pm10":34.0,"pm2_5":14.5,"no2":6.0,"co":181.0,"o3":41.0,"so2":4.4,"mosquito_risk":10,"arthritis_risk":5,"migraine_risk":0,"frizz_risk":1,"updated_at":"2026-07-22T20:35:34.547336+05:30"},{"city":"Bangalore","state":"Karnataka","latitude":12.9716,"longitude":77.5946,"temp":21.4,"humidity":95,"rain":0.0,"pressure":912.4,"uv_index":7.45,"wind_gusts":49.7,"aqi":35,"pm10":8.2,"pm2_5":7.1,"no2":22.5,"co":433.0,"o3":23.0,"so2":5.8,"mosquito_risk":3,"arthritis_risk":5,"migraine_risk":7,"frizz_risk":1,"updated_at":"2026-07-22T20:35:34.547351+05:30"},{"city":"Hyderabad","state":"Telangana","latitude":17.385,"longitude":78.4867,"temp":23.4,"humidity":88,"rain":0.1,"pressure":951.6,"uv_index":4.55,"wind_gusts":47.2,"aqi":37,"pm10":14.9,"pm2_5":10.2,"no2":11.2,"co":302.0,"o3":48.0,"so2":5.3,"mosquito_risk":6,"arthritis_risk":5,"migraine_risk":3,"frizz_risk":1,"updated_at":"2026-07-22T20:35:34.547360+05:30"},{"city":"Chennai","state":"Tamil Nadu","latitude":13.0827,"longitude":80.2707,"temp":26.7,"humidity":87,"rain":0.0,"pressure":1008.2,"uv_index":8.4,"wind_gusts":35.6,"aqi":76,"pm10":29.5,"pm2_5":21.9,"no2":15.6,"co":397.0,"o3":88.0,"so2":9.7,"mosquito_risk":7,"arthritis_risk":0,"migraine_risk":4,"frizz_risk":1,"updated_at":"2026-07-22T20:35:34.547368+05:30"},{"city":"Kolkata","state":"West Bengal","latitude":22.5726,"longitude":88.3639,"temp":26.1,"humidity":94,"rain":0.0,"pressure":1003.2,"uv_index":4.75,"wind_gusts":36.0,"aqi":56,"pm10":22.8,"pm2_5":19.2,"no2":11.7,"co":400.0,"o3":63.0,"so2":9.8,"mosquito_risk":7,"arthritis_risk":5,"migraine_risk":0,"frizz_risk":1,"updated_at":"2026-07-22T20:35:34.547376+05:30"},{"city":"Pune","state":"Maharashtra","latitude":18.5204,"longitude":73.8567,"temp":22.4,"humidity":90,"rain":0.1,"pressure":944.1,"uv_index":1.5,"wind_gusts":60.5,"aqi":23,"pm10":35.2,"pm2_5":15.1,"no2":6.2,"co":138.0,"o3":51.0,"so2":3.7,"mosquito_risk":6,"arthritis_risk":5,"migraine_risk":3,"frizz_risk":1,"updated_at":"2026-07-22T20:35:34.547382+05:30"},{"city":"Ahmedabad","state":"Gujarat","latitude":23.0225,"longitude":72.5714,"temp":28.2,"humidity":86,"rain":0.0,"pressure":994.1,"uv_index":6.15,"wind_gusts":27.0,"aqi":61,"pm10":31.8,"pm2_5":20.0,"no2":26.4,"co":222.0,"o3":28.0,"so2":7.0,"mosquito_risk":7,"arthritis_risk":5,"migraine_risk":7,"frizz_risk":1,"updated_at":"2026-07-22T20:35:34.547389+05:30"},{"city":"Jaipur","state":"Rajasthan","latitude":26.9124,"longitude":75.7873,"temp":25.8,"humidity":96,"rain":0.0,"pressure":953.1,"uv_index":6.65,"wind_gusts":29.9,"aqi":71,"pm10":15.7,"pm2_5":15.5,"no2":21.1,"co":391.0,"o3":72.0,"so2":8.2,"mosquito_risk":7,"arthritis_risk":5,"migraine_risk":7,"frizz_risk":1,"updated_at":"2026-07-22T20:35:34.547395+05:30"},{"city":"Lucknow","state":"Uttar Pradesh","latitude":26.8467,"longitude":80.9462,"temp":28.8,"humidity":79,"rain":0.0,"pressure":987.4,"uv_index":6.45,"wind_gusts":46.4,"aqi":80,"pm10":18.9,"pm2_5":18.9,"no2":9.5,"co":325.0,"o3":95.0,"so2":6.6,"mosquito_risk":7,"arthritis_risk":5,"migraine_risk":7,"frizz_risk":1,"updated_at":"2026-07-22T20:35:34.547406+05:30"},{"city":"Kanpur","state":"Uttar Pradesh","latitude":26.4499,"longitude":80.3319,"temp":29.0,"humidity":78,"rain":0.0,"pressure":985.1,"uv_index":6.2,"wind_gusts":41.8,"aqi":86,"pm10":18.9,"pm2_5":18.9,"no2":11.1,"co":314.0,"o3":92.0,"so2":7.0,"mosquito_risk":7,"arthritis_risk":5,"migraine_risk":7,"frizz_risk":1,"updated_at":"2026-07-22T20:35:34.547413+05:30"},{"city":"Chandigarh","state":"Chandigarh","latitude":30.7333,"longitude":76.7794,"temp":27.6,"humidity":92,"rain":0.0,"pressure":963.0,"uv_index":7.4,"wind_gusts":46.4,"aqi":87,"pm10":64.3,"pm2_5":63.8,"no2":80.3,"co":1870.0,"o3":27.0,"so2":13.6,"mosquito_risk":7,"arthritis_risk":5,"migraine_risk":7,"frizz_risk":1,"updated_at":"2026-07-22T20:35:34.547420+05:30"},{"city":"Srinagar","state":"Jammu and Kashmir","latitude":34.0837,"longitude":74.7973,"temp":16.9,"humidity":98,"rain":0.1,"pressure":839.0,"uv_index":2.55,"wind_gusts":10.8,"aqi":61,"pm10":17.4,"pm2_5":17.3,"no2":30.6,"co":961.0,"o3":38.0,"so2":3.8,"mosquito_risk":6,"arthritis_risk":10,"migraine_risk":3,"frizz_risk":1,"updated_at":"2026-07-22T20:35:34.547428+05:30"},{"city":"Jammu","state":"Jammu and Kashmir","latitude":32.7266,"longitude":74.857,"temp":25.0,"humidity":89,"rain":0.1,"pressure":966.9,"uv_index":4.75,"wind_gusts":40.7,"aqi":61,"pm10":25.8,"pm2_5":25.5,"no2":33.2,"co":576.0,"o3":62.0,"so2":5.7,"mosquito_risk":10,"arthritis_risk":5,"migraine_risk":3,"frizz_risk":1,"updated_at":"2026-07-22T20:35:34.547434+05:30"},{"city":"Amritsar","state":"Punjab","latitude":31.634,"longitude":74.8723,"temp":26.1,"humidity":93,"rain":0.1,"pressure":974.7,"uv_index":1.95,"wind_gusts":45.0,"aqi":81,"pm10":30.3,"pm2_5":29.9,"no2":19.8,"co":502.0,"o3":55.0,"so2":7.1,"mosquito_risk":10,"arthritis_risk":5,"migraine_risk":3,"frizz_risk":1,"updated_at":"2026-07-22T20:35:34.547440+05:30"},{"city":"Ludhiana","state":"Punjab","latitude":30.901,"longitude":75.8573,"temp":26.5,"humidity":95,"rain":0.0,"pressure":972.3,"uv_index":5.95,"wind_gusts":40.0,"aqi":104,"pm10":41.9,"pm2_5":41.7,"no2":31.0,"co":754.0,"o3":53.0,"so2":17.1,"mosquito_risk":7,"arthritis_risk":5,"migraine_risk":3,"frizz_risk":1,"updated_at":"2026-07-22T20:35:34.547447+05:30"},{"city":"Jalandhar","state":"Punjab","latitude":31.326,"longitude":75.5762,"temp":25.8,"humidity":96,"rain":0.1,"pressure":973.7,"uv_index":5.5,"wind_gusts":42.5,"aqi":105,"pm10":37.5,"pm2_5":37.1,"no2":29.7,"co":1155.0,"o3":46.0,"so2":9.9,"mosquito_risk":10,"arthritis_risk":5,"migraine_risk":3,"frizz_risk":1,"updated_at":"2026-07-22T20:35:34.547453+05:30"},{"city":"Dehradun","state":"Uttarakhand","latitude":30.6284,"longitude":78.0322,"temp":18.7,"humidity":98,"rain":0.0,"pressure":827.9,"uv_index":6.55,"wind_gusts":25.6,"aqi":39,"pm10":10.6,"pm2_5":10.4,"no2":26.2,"co":209.0,"o3":49.0,"so2":1.5,"mosquito_risk":3,"arthritis_risk":10,"migraine_risk":7,"frizz_risk":1,"updated_at":"2026-07-22T20:35:34.547459+05:30"},{"city":"Shimla","state":"Himachal Pradesh","latitude":31.1048,"longitude":77.1734,"temp":15.4,"humidity":99,"rain":0.0,"pressure":781.3,"uv_index":5.2,"wind_gusts":31.0,"aqi":48,"pm10":9.1,"pm2_5":9.0,"no2":24.9,"co":549.0,"o3":54.0,"so2":0.8,"mosquito_risk":3,"arthritis_risk":10,"migraine_risk":3,"frizz_risk":0,"updated_at":"2026-07-22T20:35:34.547466+05:30"},{"city":"Manali","state":"Himachal Pradesh","latitude":32.2396,"longitude":77.1887,"temp":21.1,"humidity":91,"rain":0.1,"pressure":817.7,"uv_index":3.75,"wind_gusts":21.6,"aqi":46,"pm10":4.1,"pm2_5":4.0,"no2":32.2,"co":260.0,"o3":41.0,"so2":0.7,"mosquito_risk":6,"arthritis_risk":5,"migraine_risk":3,"frizz_risk":1,"updated_at":"2026-07-22T20:35:34.547475+05:30"},{"city":"Gurgaon","state":"Haryana","latitude":28.4595,"longitude":77.0266,"temp":28.1,"humidity":90,"rain":0.0,"pressure":974.7,"uv_index":6.1,"wind_gusts":43.2,"aqi":104,"pm10":52.5,"pm2_5":39.8,"no2":49.9,"co":1604.0,"o3":61.0,"so2":27.1,"mosquito_risk":7,"arthritis_risk":5,"migraine_risk":7,"frizz_risk":1,"updated_at":"2026-07-22T20:35:34.547481+05:30"},{"city":"Noida","state":"Uttar Pradesh","latitude":28.5355,"longitude":77.391,"temp":29.0,"humidity":84,"rain":0.0,"pressure":978.0,"uv_index":6.7,"wind_gusts":38.5,"aqi":104,"pm10":52.5,"pm2_5":39.8,"no2":49.9,"co":627.0,"o3":61.0,"so2":27.1,"mosquito_risk":7,"arthritis_risk":5,"migraine_risk":7,"frizz_risk":1,"updated_at":"2026-07-22T20:35:34.547490+05:30"},{"city":"Ghaziabad","state":"Uttar Pradesh","latitude":28.6692,"longitude":77.4538,"temp":28.9,"humidity":82,"rain":0.0,"pressure":976.4,"uv_index":6.8,"wind_gusts":42.1,"aqi":85,"pm10":39.1,"pm2_5":39.0,"no2":27.4,"co":445.0,"o3":57.0,"so2":10.1,"mosquito_risk":7,"arthritis_risk":5,"migraine_risk":7,"frizz_risk":1,"updated_at":"2026-07-22T20:35:34.547496+05:30"},{"city":"Faridabad","state":"Haryana","latitude":28.4089,"longitude":77.3178,"temp":29.3,"humidity":82,"rain":0.0,"pressure":977.1,"uv_index":6.9,"wind_gusts":41.4,"aqi":104,"pm10":52.5,"pm2_5":39.8,"no2":49.9,"co":841.0,"o3":61.0,"so2":27.1,"mosquito_risk":7,"arthritis_risk":5,"migraine_risk":7,"frizz_risk":1,"updated_at":"2026-07-22T20:35:34.547502+05:30"},{"city":"Meerut","state":"Uttar Pradesh","latitude":28.9845,"longitude":77.7064,"temp":28.6,"humidity":88,"rain":0.0,"pressure":975.5,"uv_index":6.9,"wind_gusts":45.7,"aqi":85,"pm10":39.1,"pm2_5":39.0,"no2":27.4,"co":412.0,"o3":57.0,"so2":10.1,"mosquito_risk":7,"arthritis_risk":5,"migraine_risk":7,"frizz_risk":1,"updated_at":"2026-07-22T20:35:34.547508+05:30"},{"city":"Agra","state":"Uttar Pradesh","latitude":27.1767,"longitude":78.0081,"temp":28.8,"humidity":79,"rain":0.0,"pressure":980.6,"uv_index":6.85,"wind_gusts":36.4,"aqi":90,"pm10":24.4,"pm2_5":24.3,"no2":23.4,"co":355.0,"o3":77.0,"so2":9.2,"mosquito_risk":7,"arthritis_risk":5,"migraine_risk":7,"frizz_risk":1,"updated_at":"2026-07-22T20:35:34.547515+05:30"},{"city":"Varanasi","state":"Uttar Pradesh","latitude":25.3176,"longitude":82.9739,"temp":27.0,"humidity":93,"rain":0.1,"pressure":991.3,"uv_index":8.15,"wind_gusts":46.8,"aqi":67,"pm10":18.0,"pm2_5":18.0,"no2":13.3,"co":576.0,"o3":84.0,"so2":10.1,"mosquito_risk":10,"arthritis_risk":5,"migraine_risk":7,"frizz_risk":1,"updated_at":"2026-07-22T20:35:34.547521+05:30"},{"city":"Prayagraj","state":"Uttar Pradesh","latitude":25.4358,"longitude":81.8463,"temp":27.4,"humidity":90,"rain":0.0,"pressure":989.3,"uv_index":8.1,"wind_gusts":37.1,"aqi":90,"pm10":18.6,"pm2_5":18.6,"no2":11.8,"co":514.0,"o3":92.0,"so2":8.0,"mosquito_risk":7,"arthritis_risk":5,"migraine_risk":7,"frizz_risk":1,"updated_at":"2026-07-22T20:35:34.547528+05:30"},{"city":"Gorakhpur","state":"Uttar Pradesh","latitude":26.7606,"longitude":83.3732,"temp":28.1,"humidity":82,"rain":0.0,"pressure":992.5,"uv_index":6.45,"wind_gusts":52.6,"aqi":74,"pm10":17.3,"pm2_5":17.3,"no2":9.6,"co":303.0,"o3":84.0,"so2":5.1,"mosquito_risk":7,"arthritis_risk":5,"migraine_risk":7,"frizz_risk":1,"updated_at":"2026-07-22T20:35:34.547534+05:30"},{"city":"Bareilly","state":"Uttar Pradesh","latitude":28.367,"longitude":79.4304,"temp":29.1,"humidity":80,"rain":0.0,"pressure":981.3,"uv_index":6.55,"wind_gusts":43.6,"aqi":77,"pm10":22.6,"pm2_5":22.5,"no2":14.2,"co":309.0,"o3":68.0,"so2":4.7,"mosquito_risk":7,"arthritis_risk":5,"migraine_risk":7,"frizz_risk":1,"updated_at":"2026-07-22T20:35:34.547544+05:30"},{"city":"Aligarh","state":"Uttar Pradesh","latitude":27.8974,"longitude":78.088,"temp":29.3,"humidity":75,"rain":0.0,"pressure":979.0,"uv_index":6.9,"wind_gusts":41.8,"aqi":100,"pm10":25.8,"pm2_5":25.8,"no2":14.9,"co":292.0,"o3":95.0,"so2":10.8,"mosquito_risk":7,"arthritis_risk":5,"migraine_risk":7,"frizz_risk":1,"updated_at":"2026-07-22T20:35:34.547550+05:30"},{"city":"Moradabad","state":"Uttar Pradesh","latitude":28.8386,"longitude":78.7733,"temp":29.4,"humidity":78,"rain":0.0,"pressure":978.1,"uv_index":7.7,"wind_gusts":48.6,"aqi":78,"pm10":26.1,"pm2_5":26.0,"no2":15.8,"co":316.0,"o3":78.0,"so2":7.7,"mosquito_risk":7,"arthritis_risk":5,"migraine_risk":7,"frizz_risk":1,"updated_at":"2026-07-22T20:35:34.547556+05:30"},{"city":"Saharanpur","state":"Uttar Pradesh","latitude":29.9637,"longitude":77.546,"temp":28.6,"humidity":84,"rain":0.0,"pressure":970.2,"uv_index":7.35,"wind_gusts":52.6,"aqi":77,"pm10":44.4,"pm2_5":43.5,"no2":39.4,"co":539.0,"o3":41.0,"so2":10.7,"mosquito_risk":7,"arthritis_risk":5,"migraine_risk":7,"frizz_risk":1,"updated_at":"2026-07-22T20:35:34.547562+05:30"},{"city":"Jhansi","state":"Uttar Pradesh","latitude":25.4484,"longitude":78.5685,"temp":26.6,"humidity":94,"rain":0.1,"pressure":970.6,"uv_index":7.35,"wind_gusts":32.8,"aqi":64,"pm10":14.6,"pm2_5":14.4,"no2":9.0,"co":351.0,"o3":85.0,"so2":5.4,"mosquito_risk":10,"arthritis_risk":5,"migraine_risk":7,"frizz_risk":1,"updated_at":"2026-07-22T20:35:37.961392+05:30"},{"city":"Surat","state":"Gujarat","latitude":21.1702,"longitude":72.8311,"temp":25.0,"humidity":98,"rain":0.2,"pressure":999.9,"uv_index":0.65,"wind_gusts":31.0,"aqi":73,"pm10":28.8,"pm2_5":22.8,"no2":36.4,"co":730.0,"o3":15.0,"so2":47.3,"mosquito_risk":10,"arthritis_risk":5,"migraine_risk":3,"frizz_risk":1,"updated_at":"2026-07-22T20:35:37.961424+05:30"},{"city":"Vadodara","state":"Gujarat","latitude":22.3072,"longitude":73.1812,"temp":26.9,"humidity":89,"rain":0.0,"pressure":996.8,"uv_index":0.95,"wind_gusts":27.4,"aqi":62,"pm10":28.5,"pm2_5":20.7,"no2":28.2,"co":318.0,"o3":28.0,"so2":9.3,"mosquito_risk":7,"arthritis_risk":5,"migraine_risk":3,"frizz_risk":1,"updated_at":"2026-07-22T20:35:37.961435+05:30"},{"city":"Rajkot","state":"Gujarat","latitude":22.3039,"longitude":70.8022,"temp":27.7,"humidity":81,"rain":0.0,"pressure":986.7,"uv_index":3.5,"wind_gusts":41.4,"aqi":60,"pm10":37.1,"pm2_5":18.6,"no2":8.1,"co":126.0,"o3":39.0,"so2":6.1,"mosquito_risk":7,"arthritis_risk":5,"migraine_risk":3,"frizz_risk":1,"updated_at":"2026-07-22T20:35:37.961444+05:30"},{"city":"Thane","state":"Maharashtra","latitude":19.2183,"longitude":72.9781,"temp":25.3,"humidity":95,"rain":0.4,"pressure":1003.8,"uv_index":0.85,"wind_gusts":46.8,"aqi":56,"pm10":34.0,"pm2_5":14.5,"no2":6.0,"co":196.0,"o3":41.0,"so2":4.4,"mosquito_risk":10,"arthritis_risk":5,"migraine_risk":0,"frizz_risk":1,"updated_at":"2026-07-22T20:35:37.961452+05:30"},{"city":"Nagpur","state":"Maharashtra","latitude":21.1458,"longitude":79.0882,"temp":24.7,"humidity":92,"rain":0.1,"pressure":968.3,"uv_index":0.65,"wind_gusts":41.0,"aqi":32,"pm10":5.7,"pm2_5":5.3,"no2":12.0,"co":206.0,"o3":41.0,"so2":11.0,"mosquito_risk":6,"arthritis_risk":5,"migraine_risk":3,"frizz_risk":1,"updated_at":"2026-07-22T20:35:37.961460+05:30"},{"city":"Nashik","state":"Maharashtra","latitude":19.9975,"longitude":73.7898,"temp":22.6,"humidity":96,"rain":0.2,"pressure":939.7,"uv_index":0.55,"wind_gusts":64.4,"aqi":20,"pm10":1.1,"pm2_5":1.1,"no2":7.9,"co":128.0,"o3":36.0,"so2":3.6,"mosquito_risk":6,"arthritis_risk":5,"migraine_risk":3,"frizz_risk":1,"updated_at":"2026-07-22T20:35:37.961468+05:30"},{"city":"Aurangabad","state":"Maharashtra","latitude":19.8762,"longitude":75.3433,"temp":23.9,"humidity":83,"rain":0.0,"pressure":939.2,"uv_index":1.25,"wind_gusts":67.0,"aqi":24,"pm10":3.0,"pm2_5":2.7,"no2":7.7,"co":150.0,"o3":38.0,"so2":5.1,"mosquito_risk":3,"arthritis_risk":5,"migraine_risk":3,"frizz_risk":1,"updated_at":"2026-07-22T20:35:37.961475+05:30"},{"city":"Solapur","state":"Maharashtra","latitude":17.6599,"longitude":75.9064,"temp":25.1,"humidity":77,"rain":0.0,"pressure":955.3,"uv_index":5.8,"wind_gusts":55.4,"aqi":25,"pm10":4.4,"pm2_5":3.5,"no2":5.6,"co":132.0,"o3":38.0,"so2":2.3,"mosquito_risk":7,"arthritis_risk":5,"migraine_risk":3,"frizz_risk":1,"updated_at":"2026-07-22T20:35:37.961482+05:30"},{"city":"Kolhapur","state":"Maharashtra","latitude":16.705,"longitude":74.2433,"temp":21.5,"humidity":96,"rain":0.1,"pressure":946.8,"uv_index":7.25,"wind_gusts":56.5,"aqi":23,"pm10":6.5,"pm2_5":4.4,"no2":6.0,"co":152.0,"o3":40.0,"so2":2.0,"mosquito_risk":6,"arthritis_risk":5,"migraine_risk":7,"frizz_risk":1,"updated_at":"2026-07-22T20:35:37.961490+05:30"},{"city":"Goa","state":"Goa","latitude":15.2993,"longitude":74.124,"temp":24.0,"humidity":99,"rain":0.4,"pressure":999.3,"uv_index":6.5,"wind_gusts":31.7,"aqi":56,"pm10":27.0,"pm2_5":13.2,"no2":2.8,"co":239.0,"o3":42.0,"so2":0.9,"mosquito_risk":6,"arthritis_risk":5,"migraine_risk":7,"frizz_risk":1,"updated_at":"2026-07-22T20:35:37.961498+05:30"},{"city":"Jodhpur","state":"Rajasthan","latitude":26.2389,"longitude":73.0243,"temp":26.7,"humidity":97,"rain":0.1,"pressure":974.9,"uv_index":5.25,"wind_gusts":20.9,"aqi":81,"pm10":111.3,"pm2_5":36.0,"no2":12.3,"co":223.0,"o3":70.0,"so2":2.4,"mosquito_risk":10,"arthritis_risk":5,"migraine_risk":3,"frizz_risk":1,"updated_at":"2026-07-22T20:35:37.961504+05:30"},{"city":"Udaipur","state":"Rajasthan","latitude":24.5854,"longitude":73.7125,"temp":24.4,"humidity":94,"rain":0.0,"pressure":938.8,"uv_index":2.35,"wind_gusts":24.8,"aqi":55,"pm10":13.0,"pm2_5":7.5,"no2":8.9,"co":208.0,"o3":51.0,"so2":3.4,"mosquito_risk":3,"arthritis_risk":5,"migraine_risk":3,"frizz_risk":1,"updated_at":"2026-07-22T20:35:37.961512+05:30"},{"city":"Kota","state":"Rajasthan","latitude":25.2138,"longitude":75.8648,"temp":27.1,"humidity":90,"rain":0.2,"pressure":971.0,"uv_index":8.0,"wind_gusts":23.8,"aqi":56,"pm10":13.1,"pm2_5":12.1,"no2":13.2,"co":380.0,"o3":79.0,"so2":4.1,"mosquito_risk":10,"arthritis_risk":5,"migraine_risk":7,"frizz_risk":1,"updated_at":"2026-07-22T20:35:37.961519+05:30"},{"city":"Bikaner","state":"Rajasthan","latitude":28.0229,"longitude":73.3119,"temp":28.4,"humidity":88,"rain":0.0,"pressure":973.8,"uv_index":5.35,"wind_gusts":33.8,"aqi":95,"pm10":16.5,"pm2_5":15.9,"no2":5.5,"co":449.0,"o3":114.0,"so2":4.4,"mosquito_risk":7,"arthritis_risk":5,"migraine_risk":3,"frizz_risk":1,"updated_at":"2026-07-22T20:35:37.961527+05:30"},{"city":"Ajmer","state":"Rajasthan","latitude":26.4499,"longitude":74.6399,"temp":25.5,"humidity":95,"rain":0.2,"pressure":947.2,"uv_index":7.3,"wind_gusts":27.0,"aqi":56,"pm10":12.6,"pm2_5":12.3,"no2":14.3,"co":312.0,"o3":80.0,"so2":2.4,"mosquito_risk":10,"arthritis_risk":5,"migraine_risk":7,"frizz_risk":1,"updated_at":"2026-07-22T20:35:37.961534+05:30"},{"city":"Gwalior","state":"Madhya Pradesh","latitude":26.2183,"longitude":78.1828,"temp":27.9,"humidity":86,"rain":0.0,"pressure":975.7,"uv_index":7.0,"wind_gusts":35.6,"aqi":65,"pm10":25.3,"pm2_5":17.6,"no2":10.4,"co":329.0,"o3":90.0,"so2":5.1,"mosquito_risk":7,"arthritis_risk":5,"migraine_risk":7,"frizz_risk":1,"updated_at":"2026-07-22T20:35:37.961542+05:30"},{"city":"Indore","state":"Madhya Pradesh","latitude":22.7196,"longitude":75.8577,"temp":23.7,"humidity":96,"rain":0.0,"pressure":940.9,"uv_index":4.3,"wind_gusts":33.8,"aqi":46,"pm10":11.2,"pm2_5":10.4,"no2":13.2,"co":374.0,"o3":55.0,"so2":4.5,"mosquito_risk":3,"arthritis_risk":5,"migraine_risk":3,"frizz_risk":1,"updated_at":"2026-07-22T20:35:37.961549+05:30"},{"city":"Bhopal","state":"Madhya Pradesh","latitude":23.2599,"longitude":77.4126,"temp":24.0,"humidity":97,"rain":0.1,"pressure":946.2,"uv_index":8.05,"wind_gusts":38.2,"aqi":41,"pm10":9.3,"pm2_5":9.1,"no2":8.4,"co":336.0,"o3":70.0,"so2":2.7,"mosquito_risk":6,"arthritis_risk":5,"migraine_risk":7,"frizz_risk":1,"updated_at":"2026-07-22T20:35:37.961556+05:30"},{"city":"Jabalpur","state":"Madhya Pradesh","latitude":23.1815,"longitude":79.9864,"temp":24.2,"humidity":97,"rain":0.1,"pressure":954.7,"uv_index":6.75,"wind_gusts":28.4,"aqi":37,"pm10":7.0,"pm2_5":6.9,"no2":9.7,"co":187.0,"o3":51.0,"so2":3.6,"mosquito_risk":6,"arthritis_risk":5,"migraine_risk":7,"frizz_risk":1,"updated_at":"2026-07-22T20:35:37.961563+05:30"},{"city":"Ujjain","state":"Madhya Pradesh","latitude":23.1765,"longitude":75.7885,"temp":24.0,"humidity":96,"rain":0.1,"pressure":946.4,"uv_index":4.5,"wind_gusts":30.2,"aqi":45,"pm10":12.0,"pm2_5":10.8,"no2":8.1,"co":326.0,"o3":58.0,"so2":3.4,"mosquito_risk":6,"arthritis_risk":5,"migraine_risk":3,"frizz_risk":1,"updated_at":"2026-07-22T20:35:37.961571+05:30"},{"city":"Visakhapatnam","state":"Andhra Pradesh","latitude":17.6868,"longitude":83.2185,"temp":27.9,"humidity":72,"rain":0.0,"pressure":1001.6,"uv_index":8.65,"wind_gusts":54.4,"aqi":64,"pm10":22.8,"pm2_5":17.0,"no2":18.9,"co":278.0,"o3":55.0,"so2":31.7,"mosquito_risk":7,"arthritis_risk":5,"migraine_risk":4,"frizz_risk":1,"updated_at":"2026-07-22T20:35:37.961578+05:30"},{"city":"Vijayawada","state":"Andhra Pradesh","latitude":16.5062,"longitude":80.648,"temp":28.1,"humidity":76,"rain":0.0,"pressure":1001.8,"uv_index":5.75,"wind_gusts":46.4,"aqi":60,"pm10":19.5,"pm2_5":14.8,"no2":12.0,"co":165.0,"o3":42.0,"so2":6.0,"mosquito_risk":7,"arthritis_risk":5,"migraine_risk":0,"frizz_risk":1,"updated_at":"2026-07-22T20:35:37.961585+05:30"},{"city":"Guntur","state":"Andhra Pradesh","latitude":16.3067,"longitude":80.4365,"temp":28.2,"humidity":76,"rain":0.1,"pressure":1003.1,"uv_index":5.75,"wind_gusts":51.1,"aqi":56,"pm10":18.3,"pm2_5":13.5,"no2":11.8,"co":163.0,"o3":42.0,"so2":5.9,"mosquito_risk":10,"arthritis_risk":5,"migraine_risk":0,"frizz_risk":1,"updated_at":"2026-07-22T20:35:37.961591+05:30"},{"city":"Nellore","state":"Andhra Pradesh","latitude":14.4426,"longitude":79.9865,"temp":28.1,"humidity":86,"rain":0.0,"pressure":1005.9,"uv_index":8.05,"wind_gusts":39.6,"aqi":65,"pm10":32.2,"pm2_5":21.3,"no2":10.6,"co":239.0,"o3":74.0,"so2":5.9,"mosquito_risk":7,"arthritis_risk":5,"migraine_risk":4,"frizz_risk":1,"updated_at":"2026-07-22T20:35:37.961599+05:30"},{"city":"Kurnool","state":"Andhra Pradesh","latitude":15.8281,"longitude":78.0373,"temp":25.2,"humidity":88,"rain":0.1,"pressure":976.7,"uv_index":5.2,"wind_gusts":49.3,"aqi":39,"pm10":10.8,"pm2_5":7.1,"no2":8.2,"co":144.0,"o3":48.0,"so2":4.3,"mosquito_risk":10,"arthritis_risk":5,"migraine_risk":3,"frizz_risk":1,"updated_at":"2026-07-22T20:35:37.961607+05:30"},{"city":"Kakinada","state":"Andhra Pradesh","latitude":16.9891,"longitude":82.2475,"temp":28.3,"humidity":82,"rain":0.0,"pressure":1006.1,"uv_index":7.9,"wind_gusts":56.5,"aqi":62,"pm10":21.2,"pm2_5":15.1,"no2":7.1,"co":345.0,"o3":64.0,"so2":4.9,"mosquito_risk":7,"arthritis_risk":5,"migraine_risk":4,"frizz_risk":1,"updated_at":"2026-07-22T20:35:37.961613+05:30"},{"city":"Tirupati","state":"Andhra Pradesh","latitude":13.6288,"longitude":79.4192,"temp":26.1,"humidity":86,"rain":0.0,"pressure":991.7,"uv_index":8.45,"wind_gusts":38.2,"aqi":70,"pm10":12.1,"pm2_5":9.0,"no2":15.6,"co":340.0,"o3":44.0,"so2":2.4,"mosquito_risk":7,"arthritis_risk":5,"migraine_risk":7,"frizz_risk":1,"updated_at":"2026-07-22T20:35:37.961620+05:30"},{"city":"Warangal","state":"Telangana","latitude":17.9689,"longitude":79.5941,"temp":25.8,"humidity":82,"rain":0.0,"pressure":977.0,"uv_index":3.35,"wind_gusts":40.7,"aqi":50,"pm10":15.0,"pm2_5":12.3,"no2":11.4,"co":214.0,"o3":46.0,"so2":5.2,"mosquito_risk":7,"arthritis_risk":5,"migraine_risk":3,"frizz_risk":1,"updated_at":"2026-07-22T20:35:37.961626+05:30"},{"city":"Nizamabad","state":"Telangana","latitude":18.6725,"longitude":78.0941,"temp":23.6,"humidity":95,"rain":0.3,"pressure":962.1,"uv_index":1.85,"wind_gusts":41.8,"aqi":37,"pm10":10.9,"pm2_5":7.6,"no2":6.4,"co":168.0,"o3":45.0,"so2":2.9,"mosquito_risk":6,"arthritis_risk":5,"migraine_risk":3,"frizz_risk":1,"updated_at":"2026-07-22T20:35:37.961633+05:30"},{"city":"Mysore","state":"Karnataka","latitude":12.2958,"longitude":76.6396,"temp":22.6,"humidity":86,"rain":0.0,"pressure":929.9,"uv_index":7.5,"wind_gusts":51.5,"aqi":26,"pm10":6.8,"pm2_5":5.3,"no2":12.0,"co":156.0,"o3":32.0,"so2":2.4,"mosquito_risk":3,"arthritis_risk":5,"migraine_risk":7,"frizz_risk":1,"updated_at":"2026-07-22T20:35:37.961639+05:30"},{"city":"Mangalore","state":"Karnataka","latitude":12.9141,"longitude":74.856,"temp":24.6,"humidity":96,"rain":0.0,"pressure":1008.9,"uv_index":8.2,"wind_gusts":32.8,"aqi":50,"pm10":20.2,"pm2_5":11.0,"no2":8.3,"co":346.0,"o3":32.0,"so2":2.3,"mosquito_risk":3,"arthritis_risk":0,"migraine_risk":4,"frizz_risk":1,"updated_at":"2026-07-22T20:35:37.961646+05:30"},{"city":"Hubli-Dharwad","state":"Karnataka","latitude":15.3647,"longitude":75.124,"temp":21.5,"humidity":98,"rain":0.1,"pressure":940.7,"uv_index":6.5,"wind_gusts":58.0,"aqi":23,"pm10":3.1,"pm2_5":2.2,"no2":6.0,"co":137.0,"o3":36.0,"so2":1.2,"mosquito_risk":6,"arthritis_risk":5,"migraine_risk":7,"frizz_risk":1,"updated_at":"2026-07-22T20:35:37.961653+05:30"},{"city":"Belgaum","state":"Karnataka","latitude":15.8497,"longitude":74.4977,"temp":20.8,"humidity":96,"rain":0.1,"pressure":924.7,"uv_index":8.05,"wind_gusts":59.0,"aqi":19,"pm10":4.2,"pm2_5":2.8,"no2":4.8,"co":116.0,"o3":37.0,"so2":1.3,"mosquito_risk":6,"arthritis_risk":5,"migraine_risk":7,"frizz_risk":1,"updated_at":"2026-07-22T20:35:41.348505+05:30"},{"city":"Coimbatore","state":"Tamil Nadu","latitude":11.0168,"longitude":76.9558,"temp":25.0,"humidity":83,"rain":0.0,"pressure":962.8,"uv_index":8.05,"wind_gusts":53.3,"aqi":37,"pm10":7.8,"pm2_5":6.5,"no2":9.3,"co":232.0,"o3":36.0,"so2":3.3,"mosquito_risk":7,"arthritis_risk":5,"migraine_risk":7,"frizz_risk":1,"updated_at":"2026-07-22T20:35:41.348537+05:30"},{"city":"Madurai","state":"Tamil Nadu","latitude":9.9252,"longitude":78.1198,"temp":30.6,"humidity":61,"rain":0.0,"pressure":993.6,"uv_index":8.2,"wind_gusts":43.2,"aqi":73,"pm10":35.2,"pm2_5":20.8,"no2":9.6,"co":378.0,"o3":83.0,"so2":4.7,"mosquito_risk":3,"arthritis_risk":5,"migraine_risk":7,"frizz_risk":1,"updated_at":"2026-07-22T20:35:41.348548+05:30"},{"city":"Trichy","state":"Tamil Nadu","latitude":10.7905,"longitude":78.7047,"temp":29.4,"humidity":76,"rain":0.0,"pressure":1000.5,"uv_index":7.95,"wind_gusts":40.3,"aqi":56,"pm10":21.2,"pm2_5":16.7,"no2":16.7,"co":217.0,"o3":53.0,"so2":4.5,"mosquito_risk":7,"arthritis_risk":5,"migraine_risk":4,"frizz_risk":1,"updated_at":"2026-07-22T20:35:41.348557+05:30"},{"city":"Salem","state":"Tamil Nadu","latitude":11.6643,"longitude":78.146,"temp":27.4,"humidity":80,"rain":0.0,"pressure":978.4,"uv_index":8.3,"wind_gusts":38.2,"aqi":64,"pm10":22.5,"pm2_5":16.8,"no2":23.2,"co":353.0,"o3":41.0,"so2":11.1,"mosquito_risk":7,"arthritis_risk":5,"migraine_risk":7,"frizz_risk":1,"updated_at":"2026-07-22T20:35:41.348565+05:30"},{"city":"Tirunelveli","state":"Tamil Nadu","latitude":8.7139,"longitude":77.7567,"temp":30.6,"humidity":58,"rain":0.0,"pressure":1003.8,"uv_index":8.65,"wind_gusts":51.1,"aqi":45,"pm10":10.4,"pm2_5":7.6,"no2":5.7,"co":142.0,"o3":50.0,"so2":2.2,"mosquito_risk":0,"arthritis_risk":5,"migraine_risk":4,"frizz_risk":1,"updated_at":"2026-07-22T20:35:41.348573+05:30"},{"city":"Vellore","state":"Tamil Nadu","latitude":12.9165,"longitude":79.1325,"temp":26.1,"humidity":92,"rain":0.0,"pressure":985.2,"uv_index":8.9,"wind_gusts":62.3,"aqi":70,"pm10":24.3,"pm2_5":20.4,"no2":24.9,"co":287.0,"o3":28.0,"so2":5.3,"mosquito_risk":7,"arthritis_risk":5,"migraine_risk":7,"frizz_risk":1,"updated_at":"2026-07-22T20:35:41.348580+05:30"},{"city":"Erode","state":"Tamil Nadu","latitude":11.341,"longitude":77.7172,"temp":29.4,"humidity":64,"rain":0.0,"pressure":990.0,"uv_index":8.3,"wind_gusts":45.7,"aqi":54,"pm10":13.3,"pm2_5":10.9,"no2":18.1,"co":212.0,"o3":36.0,"so2":3.7,"mosquito_risk":7,"arthritis_risk":5,"migraine_risk":7,"frizz_risk":1,"updated_at":"2026-07-22T20:35:41.348588+05:30"},{"city":"Kochi","state":"Kerala","latitude":9.9312,"longitude":76.2673,"temp":27.3,"humidity":86,"rain":0.0,"pressure":1011.2,"uv_index":7.75,"wind_gusts":27.7,"aqi":62,"pm10":17.3,"pm2_5":14.9,"no2":20.3,"co":170.0,"o3":23.0,"so2":5.2,"mosquito_risk":7,"arthritis_risk":0,"migraine_risk":4,"frizz_risk":1,"updated_at":"2026-07-22T20:35:41.348596+05:30"},{"city":"Thiruvananthapuram","state":"Kerala","latitude":8.5241,"longitude":76.9366,"temp":26.5,"humidity":83,"rain":0.0,"pressure":1010.5,"uv_index":8.15,"wind_gusts":37.1,"aqi":51,"pm10":12.2,"pm2_5":7.9,"no2":5.4,"co":119.0,"o3":44.0,"so2":1.7,"mosquito_risk":7,"arthritis_risk":0,"migraine_risk":4,"frizz_risk":1,"updated_at":"2026-07-22T20:35:41.348603+05:30"},{"city":"Kozhikode","state":"Kerala","latitude":11.2588,"longitude":75.7804,"temp":25.1,"humidity":96,"rain":0.1,"pressure":1010.7,"uv_index":7.8,"wind_gusts":29.2,"aqi":35,"pm10":9.9,"pm2_5":6.1,"no2":2.9,"co":361.0,"o3":45.0,"so2":1.7,"mosquito_risk":10,"arthritis_risk":0,"migraine_risk":4,"frizz_risk":1,"updated_at":"2026-07-22T20:35:41.348610+05:30"},{"city":"Thrissur","state":"Kerala","latitude":10.5276,"longitude":76.2144,"temp":26.1,"humidity":90,"rain":0.0,"pressure":1009.7,"uv_index":7.65,"wind_gusts":33.5,"aqi":60,"pm10":15.5,"pm2_5":13.3,"no2":13.4,"co":344.0,"o3":31.0,"so2":4.0,"mosquito_risk":7,"arthritis_risk":0,"migraine_risk":4,"frizz_risk":1,"updated_at":"2026-07-22T20:35:41.348618+05:30"},{"city":"Kannur","state":"Kerala","latitude":11.8745,"longitude":75.3704,"temp":24.3,"humidity":97,"rain":0.0,"pressure":1009.7,"uv_index":7.45,"wind_gusts":24.8,"aqi":41,"pm10":15.9,"pm2_5":11.8,"no2":17.3,"co":321.0,"o3":19.0,"so2":3.2,"mosquito_risk":3,"arthritis_risk":0,"migraine_risk":4,"frizz_risk":1,"updated_at":"2026-07-22T20:35:41.348625+05:30"},{"city":"Patna","state":"Bihar","latitude":25.5941,"longitude":85.1376,"temp":28.3,"humidity":82,"rain":0.0,"pressure":996.1,"uv_index":8.2,"wind_gusts":47.9,"aqi":60,"pm10":15.5,"pm2_5":15.5,"no2":12.7,"co":298.0,"o3":90.0,"so2":10.8,"mosquito_risk":7,"arthritis_risk":5,"migraine_risk":7,"frizz_risk":1,"updated_at":"2026-07-22T20:35:41.348631+05:30"},{"city":"Gaya","state":"Bihar","latitude":24.7914,"longitude":85.0002,"temp":28.9,"humidity":73,"rain":0.0,"pressure":988.8,"uv_index":8.85,"wind_gusts":44.6,"aqi":53,"pm10":13.2,"pm2_5":13.2,"no2":15.7,"co":521.0,"o3":66.0,"so2":18.3,"mosquito_risk":7,"arthritis_risk":5,"migraine_risk":7,"frizz_risk":1,"updated_at":"2026-07-22T20:35:41.348639+05:30"},{"city":"Muzaffarpur","state":"Bihar","latitude":26.1209,"longitude":85.3647,"temp":27.4,"humidity":86,"rain":0.0,"pressure":996.8,"uv_index":7.15,"wind_gusts":53.3,"aqi":65,"pm10":16.9,"pm2_5":16.9,"no2":13.7,"co":265.0,"o3":76.0,"so2":8.9,"mosquito_risk":7,"arthritis_risk":5,"migraine_risk":7,"frizz_risk":1,"updated_at":"2026-07-22T20:35:41.348647+05:30"},{"city":"Bhagalpur","state":"Bihar","latitude":25.2425,"longitude":87.0117,"temp":27.2,"humidity":88,"rain":0.1,"pressure":998.3,"uv_index":7.05,"wind_gusts":43.6,"aqi":57,"pm10":15.1,"pm2_5":15.1,"no2":14.2,"co":244.0,"o3":66.0,"so2":9.1,"mosquito_risk":10,"arthritis_risk":5,"migraine_risk":7,"frizz_risk":1,"updated_at":"2026-07-22T20:35:41.348655+05:30"},{"city":"Ranchi","state":"Jharkhand","latitude":23.3441,"longitude":85.3096,"temp":22.9,"humidity":93,"rain":0.0,"pressure":933.6,"uv_index":6.05,"wind_gusts":40.7,"aqi":41,"pm10":5.2,"pm2_5":5.2,"no2":9.5,"co":188.0,"o3":48.0,"so2":9.3,"mosquito_risk":3,"arthritis_risk":5,"migraine_risk":7,"frizz_risk":1,"updated_at":"2026-07-22T20:35:41.348663+05:30"},{"city":"Jamshedpur","state":"Jharkhand","latitude":22.8046,"longitude":86.2029,"temp":25.4,"humidity":94,"rain":0.1,"pressure":987.5,"uv_index":7.6,"wind_gusts":23.8,"aqi":60,"pm10":15.9,"pm2_5":15.7,"no2":21.5,"co":350.0,"o3":39.0,"so2":23.4,"mosquito_risk":10,"arthritis_risk":5,"migraine_risk":7,"frizz_risk":1,"updated_at":"2026-07-22T20:35:41.348670+05:30"},{"city":"Dhanbad","state":"Jharkhand","latitude":23.7957,"longitude":86.4304,"temp":25.6,"humidity":91,"rain":0.0,"pressure":976.2,"uv_index":7.05,"wind_gusts":41.0,"aqi":78,"pm10":33.5,"pm2_5":32.9,"no2":53.8,"co":1187.0,"o3":11.0,"so2":96.2,"mosquito_risk":7,"arthritis_risk":5,"migraine_risk":7,"frizz_risk":1,"updated_at":"2026-07-22T20:35:41.348678+05:30"},{"city":"Bokaro","state":"Jharkhand","latitude":23.6693,"longitude":86.1511,"temp":26.1,"humidity":87,"rain":0.0,"pressure":979.9,"uv_index":8.65,"wind_gusts":38.2,"aqi":78,"pm10":19.9,"pm2_5":19.6,"no2":27.4,"co":1822.0,"o3":36.0,"so2":60.5,"mosquito_risk":7,"arthritis_risk":5,"migraine_risk":7,"frizz_risk":1,"updated_at":"2026-07-22T20:35:41.348686+05:30"},{"city":"Bhubaneswar","state":"Odisha","latitude":20.2961,"longitude":85.8245,"temp":26.3,"humidity":96,"rain":0.1,"pressure":999.8,"uv_index":7.5,"wind_gusts":38.9,"aqi":60,"pm10":25.2,"pm2_5":22.7,"no2":11.6,"co":409.0,"o3":87.0,"so2":9.0,"mosquito_risk":10,"arthritis_risk":5,"migraine_risk":7,"frizz_risk":1,"updated_at":"2026-07-22T20:35:41.348693+05:30"},{"city":"Cuttack","state":"Odisha","latitude":20.4625,"longitude":85.8828,"temp":26.5,"humidity":95,"rain":0.1,"pressure":1001.4,"uv_index":7.3,"wind_gusts":32.8,"aqi":60,"pm10":25.2,"pm2_5":22.7,"no2":11.6,"co":503.0,"o3":87.0,"so2":9.0,"mosquito_risk":10,"arthritis_risk":5,"migraine_risk":4,"frizz_risk":1,"updated_at":"2026-07-22T20:35:41.348701+05:30"},{"city":"Rourkela","state":"Odisha","latitude":22.2604,"longitude":84.8536,"temp":24.6,"humidity":94,"rain":0.0,"pressure":981.6,"uv_index":1.8,"wind_gusts":30.6,"aqi":52,"pm10":6.6,"pm2_5":6.3,"no2":7.5,"co":245.0,"o3":51.0,"so2":2.9,"mosquito_risk":3,"arthritis_risk":5,"migraine_risk":3,"frizz_risk":1,"updated_at":"2026-07-22T20:35:41.348709+05:30"},{"city":"Raipur","state":"Chhattisgarh","latitude":21.2514,"longitude":81.6296,"temp":24.0,"humidity":95,"rain":0.2,"pressure":970.4,"uv_index":0.6,"wind_gusts":49.3,"aqi":55,"pm10":12.7,"pm2_5":10.6,"no2":16.0,"co":208.0,"o3":39.0,"so2":24.8,"mosquito_risk":6,"arthritis_risk":5,"migraine_risk":3,"frizz_risk":1,"updated_at":"2026-07-22T20:35:41.348716+05:30"},{"city":"Bhilai","state":"Chhattisgarh","latitude":21.1938,"longitude":81.3509,"temp":24.0,"humidity":94,"rain":0.2,"pressure":970.8,"uv_index":0.75,"wind_gusts":49.0,"aqi":53,"pm10":11.5,"pm2_5":9.8,"no2":15.6,"co":321.0,"o3":39.0,"so2":23.9,"mosquito_risk":6,"arthritis_risk":5,"migraine_risk":3,"frizz_risk":1,"updated_at":"2026-07-22T20:35:41.348723+05:30"},{"city":"Guwahati","state":"Assam","latitude":26.1158,"longitude":91.7086,"temp":26.3,"humidity":98,"rain":0.0,"pressure":1000.1,"uv_index":8.65,"wind_gusts":21.2,"aqi":47,"pm10":9.5,"pm2_5":9.3,"no2":8.7,"co":215.0,"o3":45.0,"so2":1.9,"mosquito_risk":7,"arthritis_risk":5,"migraine_risk":4,"frizz_risk":1,"updated_at":"2026-07-22T20:35:41.348731+05:30"},{"city":"Agartala","state":"Tripura","latitude":23.8315,"longitude":91.2868,"temp":25.6,"humidity":94,"rain":0.0,"pressure":1004.9,"uv_index":8.5,"wind_gusts":39.6,"aqi":37,"pm10":9.3,"pm2_5":8.8,"no2":9.9,"co":189.0,"o3":46.0,"so2":1.7,"mosquito_risk":7,"arthritis_risk":5,"migraine_risk":4,"frizz_risk":1,"updated_at":"2026-07-22T20:35:41.348738+05:30"},{"city":"Shillong","state":"Meghalaya","latitude":25.5788,"longitude":91.8933,"temp":20.2,"humidity":90,"rain":0.0,"pressure":856.9,"uv_index":8.45,"wind_gusts":32.8,"aqi":31,"pm10":7.0,"pm2_5":6.3,"no2":7.6,"co":226.0,"o3":51.0,"so2":2.7,"mosquito_risk":3,"arthritis_risk":5,"migraine_risk":7,"frizz_risk":1,"updated_at":"2026-07-22T20:35:41.348744+05:30"},{"city":"Imphal","state":"Manipur","latitude":24.817,"longitude":93.9368,"temp":22.2,"humidity":96,"rain":0.1,"pressure":923.0,"uv_index":8.6,"wind_gusts":32.4,"aqi":50,"pm10":14.3,"pm2_5":14.0,"no2":17.6,"co":372.0,"o3":28.0,"so2":3.1,"mosquito_risk":6,"arthritis_risk":5,"migraine_risk":7,"frizz_risk":1,"updated_at":"2026-07-22T20:35:41.348752+05:30"},{"city":"Aizawl","state":"Mizoram","latitude":23.7271,"longitude":92.7176,"temp":19.4,"humidity":97,"rain":0.0,"pressure":891.5,"uv_index":8.15,"wind_gusts":40.0,"aqi":26,"pm10":3.2,"pm2_5":2.6,"no2":4.2,"co":143.0,"o3":46.0,"so2":0.6,"mosquito_risk":3,"arthritis_risk":10,"migraine_risk":7,"frizz_risk":1,"updated_at":"2026-07-22T20:35:41.348759+05:30"},{"city":"Kohima","state":"Nagaland","latitude":25.6701,"longitude":94.1077,"temp":20.1,"humidity":98,"rain":0.1,"pressure":855.7,"uv_index":7.95,"wind_gusts":24.1,"aqi":28,"pm10":6.5,"pm2_5":6.3,"no2":11.5,"co":290.0,"o3":30.0,"so2":1.0,"mosquito_risk":6,"arthritis_risk":5,"migraine_risk":7,"frizz_risk":1,"updated_at":"2026-07-22T20:35:41.348766+05:30"},{"city":"Gangtok","state":"Sikkim","latitude":27.3314,"longitude":88.6138,"temp":18.1,"humidity":98,"rain":0.3,"pressure":837.9,"uv_index":6.8,"wind_gusts":32.0,"aqi":36,"pm10":3.8,"pm2_5":3.8,"no2":6.8,"co":228.0,"o3":78.0,"so2":1.0,"mosquito_risk":6,"arthritis_risk":10,"migraine_risk":7,"frizz_risk":1,"updated_at":"2026-07-22T20:35:41.348773+05:30"},{"city":"Siliguri","state":"West Bengal","latitude":26.7271,"longitude":88.3953,"temp":26.0,"humidity":96,"rain":0.0,"pressure":991.8,"uv_index":8.6,"wind_gusts":36.7,"aqi":58,"pm10":10.6,"pm2_5":10.4,"no2":9.9,"co":362.0,"o3":79.0,"so2":2.9,"mosquito_risk":7,"arthritis_risk":5,"migraine_risk":7,"frizz_risk":1,"updated_at":"2026-07-22T20:35:44.727137+05:30"},{"city":"Durgapur","state":"West Bengal","latitude":23.5204,"longitude":87.3119,"temp":26.4,"humidity":90,"rain":0.0,"pressure":991.9,"uv_index":8.7,"wind_gusts":35.6,"aqi":69,"pm10":31.9,"pm2_5":31.4,"no2":38.9,"co":335.0,"o3":24.0,"so2":41.2,"mosquito_risk":7,"arthritis_risk":5,"migraine_risk":7,"frizz_risk":1,"updated_at":"2026-07-22T20:35:44.727170+05:30"},{"city":"Asansol","state":"West Bengal","latitude":23.6739,"longitude":86.9524,"temp":26.1,"humidity":91,"rain":0.0,"pressure":990.4,"uv_index":8.4,"wind_gusts":36.7,"aqi":65,"pm10":27.6,"pm2_5":27.1,"no2":46.6,"co":410.0,"o3":13.0,"so2":53.3,"mosquito_risk":7,"arthritis_risk":5,"migraine_risk":7,"frizz_risk":1,"updated_at":"2026-07-22T20:35:44.727181+05:30"},{"city":"Pondicherry","state":"Puducherry","latitude":11.9139,"longitude":79.8145,"temp":26.3,"humidity":94,"rain":0.2,"pressure":1009.7,"uv_index":7.3,"wind_gusts":40.7,"aqi":70,"pm10":28.6,"pm2_5":19.4,"no2":9.9,"co":218.0,"o3":80.0,"so2":3.8,"mosquito_risk":10,"arthritis_risk":0,"migraine_risk":4,"frizz_risk":1,"updated_at":"2026-07-22T20:35:44.727191+05:30"},{"city":"Port Blair","state":"Andaman and Nicobar Islands","latitude":11.6234,"longitude":92.7265,"temp":27.6,"humidity":82,"rain":0.0,"pressure":1008.9,"uv_index":8.6,"wind_gusts":40.3,"aqi":48,"pm10":14.4,"pm2_5":8.4,"no2":0.3,"co":101.0,"o3":45.0,"so2":0.5,"mosquito_risk":7,"arthritis_risk":0,"migraine_risk":4,"frizz_risk":1,"updated_at":"2026-07-22T20:35:44.727199+05:30"},{"city":"Haridwar","state":"Uttarakhand","latitude":29.9457,"longitude":78.1642,"temp":28.2,"humidity":86,"rain":0.0,"pressure":968.7,"uv_index":7.4,"wind_gusts":39.6,"aqi":71,"pm10":35.5,"pm2_5":35.2,"no2":29.5,"co":458.0,"o3":47.0,"so2":8.2,"mosquito_risk":7,"arthritis_risk":5,"migraine_risk":7,"frizz_risk":1,"updated_at":"2026-07-22T20:35:44.727208+05:30"},{"city":"Rishikesh","state":"Uttarakhand","latitude":30.0869,"longitude":78.2676,"temp":27.8,"humidity":84,"rain":0.0,"pressure":961.7,"uv_index":7.25,"wind_gusts":28.8,"aqi":56,"pm10":14.3,"pm2_5":14.0,"no2":10.3,"co":399.0,"o3":73.0,"so2":3.0,"mosquito_risk":7,"arthritis_risk":5,"migraine_risk":7,"frizz_risk":1,"updated_at":"2026-07-22T20:35:44.727215+05:30"},{"city":"Nainital","state":"Uttarakhand","latitude":29.3919,"longitude":79.4542,"temp":17.8,"humidity":90,"rain":0.0,"pressure":803.8,"uv_index":6.45,"wind_gusts":49.7,"aqi":54,"pm10":16.8,"pm2_5":16.6,"no2":12.6,"co":327.0,"o3":63.0,"so2":2.4,"mosquito_risk":3,"arthritis_risk":10,"migraine_risk":7,"frizz_risk":1,"updated_at":"2026-07-22T20:35:44.727222+05:30"},{"city":"Mussoorie","state":"Uttarakhand","latitude":30.4599,"longitude":78.0664,"temp":17.3,"humidity":100,"rain":0.0,"pressure":800.7,"uv_index":7.6,"wind_gusts":35.3,"aqi":55,"pm10":21.7,"pm2_5":21.4,"no2":33.6,"co":395.0,"o3":43.0,"so2":6.1,"mosquito_risk":3,"arthritis_risk":10,"migraine_risk":7,"frizz_risk":1,"updated_at":"2026-07-22T20:35:44.727230+05:30"},{"city":"Dharamshala","state":"Himachal Pradesh","latitude":32.219,"longitude":76.3234,"temp":22.0,"humidity":88,"rain":0.0,"pressure":865.6,"uv_index":6.3,"wind_gusts":23.8,"aqi":41,"pm10":7.1,"pm2_5":6.9,"no2":20.2,"co":646.0,"o3":40.0,"so2":0.9,"mosquito_risk":3,"arthritis_risk":5,"migraine_risk":7,"frizz_risk":1,"updated_at":"2026-07-22T20:35:44.727237+05:30"},{"city":"Dalhousie","state":"Himachal Pradesh","latitude":32.5387,"longitude":75.971,"temp":17.6,"humidity":95,"rain":0.0,"pressure":802.1,"uv_index":1.7,"wind_gusts":21.2,"aqi":62,"pm10":19.4,"pm2_5":19.1,"no2":31.8,"co":810.0,"o3":74.0,"so2":2.8,"mosquito_risk":3,"arthritis_risk":10,"migraine_risk":3,"frizz_risk":1,"updated_at":"2026-07-22T20:35:44.727245+05:30"},{"city":"Patiala","state":"Punjab","latitude":30.3398,"longitude":76.3869,"temp":28.6,"humidity":83,"rain":0.0,"pressure":972.0,"uv_index":6.45,"wind_gusts":45.4,"aqi":89,"pm10":53.9,"pm2_5":50.6,"no2":36.8,"co":616.0,"o3":55.0,"so2":10.8,"mosquito_risk":7,"arthritis_risk":5,"migraine_risk":7,"frizz_risk":1,"updated_at":"2026-07-22T20:35:44.727253+05:30"},{"city":"Bhatinda","state":"Punjab","latitude":30.211,"longitude":74.9455,"temp":28.9,"humidity":81,"rain":0.0,"pressure":976.8,"uv_index":7.65,"wind_gusts":43.6,"aqi":92,"pm10":40.0,"pm2_5":39.8,"no2":19.4,"co":415.0,"o3":82.0,"so2":10.2,"mosquito_risk":7,"arthritis_risk":5,"migraine_risk":7,"frizz_risk":1,"updated_at":"2026-07-22T20:35:44.727259+05:30"},{"city":"Rohtak","state":"Haryana","latitude":28.8955,"longitude":76.6066,"temp":29.0,"humidity":81,"rain":0.0,"pressure":975.1,"uv_index":6.2,"wind_gusts":42.5,"aqi":159,"pm10":65.4,"pm2_5":43.2,"no2":37.0,"co":477.0,"o3":83.0,"so2":23.4,"mosquito_risk":7,"arthritis_risk":5,"migraine_risk":7,"frizz_risk":1,"updated_at":"2026-07-22T20:35:44.727266+05:30"},{"city":"Panipat","state":"Haryana","latitude":29.3909,"longitude":76.9635,"temp":28.7,"humidity":84,"rain":0.0,"pressure":974.3,"uv_index":7.45,"wind_gusts":41.8,"aqi":153,"pm10":57.3,"pm2_5":38.9,"no2":21.0,"co":490.0,"o3":84.0,"so2":9.9,"mosquito_risk":7,"arthritis_risk":5,"migraine_risk":7,"frizz_risk":1,"updated_at":"2026-07-22T20:35:44.727273+05:30"},{"city":"Mathura","state":"Uttar Pradesh","latitude":27.4924,"longitude":77.6737,"temp":29.6,"humidity":77,"rain":0.0,"pressure":979.7,"uv_index":7.2,"wind_gusts":38.9,"aqi":89,"pm10":41.0,"pm2_5":27.8,"no2":29.5,"co":334.0,"o3":70.0,"so2":7.3,"mosquito_risk":7,"arthritis_risk":5,"migraine_risk":7,"frizz_risk":1,"updated_at":"2026-07-22T20:35:44.727280+05:30"},{"city":"Vrindavan","state":"Uttar Pradesh","latitude":27.5823,"longitude":77.7027,"temp":29.8,"humidity":75,"rain":0.0,"pressure":980.2,"uv_index":7.05,"wind_gusts":38.5,"aqi":89,"pm10":41.0,"pm2_5":27.8,"no2":29.5,"co":339.0,"o3":70.0,"so2":7.3,"mosquito_risk":7,"arthritis_risk":5,"migraine_risk":7,"frizz_risk":1,"updated_at":"2026-07-22T20:35:44.727287+05:30"},{"city":"Ayodhya","state":"Uttar Pradesh","latitude":26.7922,"longitude":82.1998,"temp":27.2,"humidity":87,"rain":0.0,"pressure":990.1,"uv_index":8.0,"wind_gusts":48.6,"aqi":76,"pm10":17.0,"pm2_5":17.0,"no2":9.6,"co":328.0,"o3":83.0,"so2":4.7,"mosquito_risk":7,"arthritis_risk":5,"migraine_risk":7,"frizz_risk":1,"updated_at":"2026-07-22T20:35:44.727294+05:30"},{"city":"Ratlam","state":"Madhya Pradesh","latitude":23.3315,"longitude":75.0367,"temp":24.0,"humidity":97,"rain":0.0,"pressure":947.2,"uv_index":0.8,"wind_gusts":31.7,"aqi":44,"pm10":12.4,"pm2_5":10.5,"no2":7.5,"co":189.0,"o3":58.0,"so2":3.7,"mosquito_risk":3,"arthritis_risk":5,"migraine_risk":3,"frizz_risk":1,"updated_at":"2026-07-22T20:35:44.727301+05:30"},{"city":"Sagar","state":"Madhya Pradesh","latitude":23.8388,"longitude":78.7378,"temp":23.7,"humidity":98,"rain":0.0,"pressure":942.9,"uv_index":7.9,"wind_gusts":24.5,"aqi":41,"pm10":5.4,"pm2_5":5.4,"no2":5.7,"co":212.0,"o3":71.0,"so2":1.6,"mosquito_risk":3,"arthritis_risk":5,"migraine_risk":7,"frizz_risk":1,"updated_at":"2026-07-22T20:35:44.727307+05:30"},{"city":"Satna","state":"Madhya Pradesh","latitude":24.6005,"longitude":80.8322,"temp":25.8,"humidity":92,"rain":0.1,"pressure":964.3,"uv_index":7.9,"wind_gusts":27.7,"aqi":57,"pm10":10.7,"pm2_5":10.7,"no2":7.0,"co":336.0,"o3":93.0,"so2":5.2,"mosquito_risk":10,"arthritis_risk":5,"migraine_risk":7,"frizz_risk":1,"updated_at":"2026-07-22T20:35:44.727314+05:30"},{"city":"Akola","state":"Maharashtra","latitude":20.7002,"longitude":77.0082,"temp":24.9,"humidity":93,"rain":0.1,"pressure":969.8,"uv_index":0.8,"wind_gusts":50.0,"aqi":24,"pm10":4.1,"pm2_5":3.9,"no2":7.8,"co":171.0,"o3":44.0,"so2":4.8,"mosquito_risk":6,"arthritis_risk":5,"migraine_risk":3,"frizz_risk":1,"updated_at":"2026-07-22T20:35:44.727322+05:30"},{"city":"Amravati","state":"Maharashtra","latitude":20.9374,"longitude":77.7796,"temp":24.1,"humidity":96,"rain":0.2,"pressure":962.5,"uv_index":1.2,"wind_gusts":42.1,"aqi":23,"pm10":3.6,"pm2_5":3.5,"no2":8.0,"co":160.0,"o3":43.0,"so2":4.8,"mosquito_risk":6,"arthritis_risk":5,"migraine_risk":3,"frizz_risk":1,"updated_at":"2026-07-22T20:35:44.727331+05:30"},{"city":"Latur","state":"Maharashtra","latitude":18.4088,"longitude":76.5604,"temp":23.5,"humidity":86,"rain":0.1,"pressure":937.0,"uv_index":3.75,"wind_gusts":55.8,"aqi":23,"pm10":10.0,"pm2_5":5.5,"no2":4.5,"co":140.0,"o3":44.0,"so2":1.9,"mosquito_risk":6,"arthritis_risk":5,"migraine_risk":3,"frizz_risk":1,"updated_at":"2026-07-22T20:35:44.727338+05:30"},{"city":"Nanded","state":"Maharashtra","latitude":19.1383,"longitude":77.3091,"temp":24.1,"humidity":91,"rain":0.1,"pressure":965.4,"uv_index":0.8,"wind_gusts":38.2,"aqi":31,"pm10":10.2,"pm2_5":6.3,"no2":6.2,"co":179.0,"o3":44.0,"so2":4.0,"mosquito_risk":6,"arthritis_risk":5,"migraine_risk":3,"frizz_risk":1,"updated_at":"2026-07-22T20:35:44.727345+05:30"},{"city":"Gulbarga","state":"Karnataka","latitude":17.3297,"longitude":76.8343,"temp":24.1,"humidity":85,"rain":0.0,"pressure":957.3,"uv_index":2.85,"wind_gusts":52.6,"aqi":29,"pm10":5.6,"pm2_5":4.1,"no2":7.6,"co":130.0,"o3":35.0,"so2":2.7,"mosquito_risk":3,"arthritis_risk":5,"migraine_risk":3,"frizz_risk":1,"updated_at":"2026-07-22T20:35:44.727351+05:30"},{"city":"Bidar","state":"Karnataka","latitude":17.9104,"longitude":77.5199,"temp":22.4,"humidity":93,"rain":0.2,"pressure":933.0,"uv_index":1.7,"wind_gusts":55.1,"aqi":30,"pm10":8.8,"pm2_5":6.4,"no2":9.0,"co":143.0,"o3":43.0,"so2":2.4,"mosquito_risk":6,"arthritis_risk":5,"migraine_risk":3,"frizz_risk":1,"updated_at":"2026-07-22T20:35:44.727358+05:30"},{"city":"Hospet","state":"Karnataka","latitude":15.2689,"longitude":76.3909,"temp":24.6,"humidity":79,"rain":0.0,"pressure":956.1,"uv_index":4.9,"wind_gusts":58.7,"aqi":25,"pm10":5.6,"pm2_5":3.7,"no2":6.3,"co":122.0,"o3":38.0,"so2":1.6,"mosquito_risk":3,"arthritis_risk":5,"migraine_risk":3,"frizz_risk":1,"updated_at":"2026-07-22T20:35:44.727365+05:30"},{"city":"Tirupur","state":"Tamil Nadu","latitude":11.1085,"longitude":77.3411,"temp":26.2,"humidity":78,"rain":0.0,"pressure":976.1,"uv_index":8.15,"wind_gusts":51.8,"aqi":56,"pm10":14.7,"pm2_5":12.2,"no2":18.9,"co":207.0,"o3":35.0,"so2":4.7,"mosquito_risk":7,"arthritis_risk":5,"migraine_risk":7,"frizz_risk":1,"updated_at":"2026-07-22T20:35:44.727372+05:30"},{"city":"Alappuzha","state":"Kerala","latitude":9.4981,"longitude":76.3388,"temp":27.1,"humidity":87,"rain":0.0,"pressure":1011.3,"uv_index":7.25,"wind_gusts":29.5,"aqi":59,"pm10":14.4,"pm2_5":10.6,"no2":11.9,"co":89.0,"o3":39.0,"so2":3.6,"mosquito_risk":7,"arthritis_risk":0,"migraine_risk":4,"frizz_risk":1,"updated_at":"2026-07-22T20:35:44.727379+05:30"},{"city":"Munnar","state":"Kerala","latitude":10.0889,"longitude":77.0595,"temp":17.0,"humidity":99,"rain":0.0,"pressure":858.3,"uv_index":8.05,"wind_gusts":34.6,"aqi":42,"pm10":9.4,"pm2_5":7.8,"no2":9.2,"co":124.0,"o3":41.0,"so2":2.2,"mosquito_risk":3,"arthritis_risk":10,"migraine_risk":7,"frizz_risk":1,"updated_at":"2026-07-22T20:35:44.727386+05:30"},{"city":"Silchar","state":"Assam","latitude":24.8333,"longitude":92.7789,"temp":25.8,"humidity":96,"rain":0.2,"pressure":1004.4,"uv_index":8.75,"wind_gusts":25.9,"aqi":52,"pm10":19.6,"pm2_5":18.0,"no2":8.4,"co":223.0,"o3":63.0,"so2":6.5,"mosquito_risk":10,"arthritis_risk":5,"migraine_risk":4,"frizz_risk":1,"updated_at":"2026-07-22T20:35:44.727392+05:30"},{"city":"Dibrugarh","state":"Assam","latitude":27.4728,"longitude":94.912,"temp":27.5,"humidity":86,"rain":0.0,"pressure":993.9,"uv_index":5.0,"wind_gusts":22.0,"aqi":55,"pm10":17.6,"pm2_5":17.2,"no2":14.0,"co":296.0,"o3":55.0,"so2":2.5,"mosquito_risk":7,"arthritis_risk":5,"migraine_risk":3,"frizz_risk":1,"updated_at":"2026-07-22T20:35:44.727398+05:30"}]