[{"city":"Delhi","state":"Delhi","latitude":28.6139,"longitude":77.209,"temp":21.9,"humidity":65,"rain":0.0,"pressure":988.6,"uv_index":5.85,"wind_gusts":23.8,"aqi":161,"pm10":144.8,"pm2_5":68.9,"mosquito_risk":3,"arthritis_risk":5,"migraine_risk":3,"frizz_risk":0,"updated_at":"2026-03-21T20:59:52.320278+05:30"},{"city":"Mumbai","state":"Maharashtra","latitude":19.076,"longitude":72.8777,"temp":27.9,"humidity":64,"rain":0.0,"pressure":1010.4,"uv_index":7.9,"wind_gusts":28.8,"aqi":110,"pm10":33.1,"pm2_5":25.1,"mosquito_risk":7,"arthritis_risk":0,"migraine_risk":4,"frizz_risk":1,"updated_at":"2026-03-21T20:59:52.320316+05:30"},{"city":"Bangalore","state":"Karnataka","latitude":12.9716,"longitude":77.5946,"temp":26.5,"humidity":52,"rain":0.0,"pressure":913.0,"uv_index":9.4,"wind_gusts":21.2,"aqi":158,"pm10":39.3,"pm2_5":35.4,"mosquito_risk":4,"arthritis_risk":5,"migraine_risk":7,"frizz_risk":0,"updated_at":"2026-03-21T20:59:52.320331+05:30"},{"city":"Hyderabad","state":"Telangana","latitude":17.385,"longitude":78.4867,"temp":27.2,"humidity":57,"rain":0.0,"pressure":955.3,"uv_index":8.85,"wind_gusts":31.0,"aqi":153,"pm10":37.7,"pm2_5":31.0,"mosquito_risk":4,"arthritis_risk":5,"migraine_risk":7,"frizz_risk":1,"updated_at":"2026-03-21T20:59:52.320341+05:30"},{"city":"Chennai","state":"Tamil Nadu","latitude":13.0827,"longitude":80.2707,"temp":27.8,"humidity":79,"rain":0.0,"pressure":1009.5,"uv_index":9.1,"wind_gusts":35.6,"aqi":37,"pm10":13.9,"pm2_5":9.3,"mosquito_risk":7,"arthritis_risk":0,"migraine_risk":4,"frizz_risk":1,"updated_at":"2026-03-21T20:59:52.320350+05:30"},{"city":"Kolkata","state":"West Bengal","latitude":22.5726,"longitude":88.3639,"temp":22.1,"humidity":86,"rain":0.0,"pressure":1011.2,"uv_index":7.5,"wind_gusts":19.8,"aqi":62,"pm10":34.9,"pm2_5":33.2,"mosquito_risk":3,"arthritis_risk":0,"migraine_risk":4,"frizz_risk":1,"updated_at":"2026-03-21T20:59:52.320359+05:30"},{"city":"Pune","state":"Maharashtra","latitude":18.5204,"longitude":73.8567,"temp":26.1,"humidity":57,"rain":0.0,"pressure":950.2,"uv_index":8.4,"wind_gusts":28.8,"aqi":97,"pm10":32.0,"pm2_5":21.7,"mosquito_risk":4,"arthritis_risk":5,"migraine_risk":7,"frizz_risk":1,"updated_at":"2026-03-21T20:59:52.320371+05:30"},{"city":"Ahmedabad","state":"Gujarat","latitude":23.0225,"longitude":72.5714,"temp":28.2,"humidity":32,"rain":0.0,"pressure":1005.5,"uv_index":7.6,"wind_gusts":15.1,"aqi":121,"pm10":36.6,"pm2_5":27.3,"mosquito_risk":4,"arthritis_risk":5,"migraine_risk":4,"frizz_risk":0,"updated_at":"2026-03-21T20:59:52.320379+05:30"},{"city":"Jaipur","state":"Rajasthan","latitude":26.9124,"longitude":75.7873,"temp":22.4,"humidity":64,"rain":0.0,"pressure":965.4,"uv_index":6.75,"wind_gusts":36.4,"aqi":87,"pm10":112.2,"pm2_5":31.7,"mosquito_risk":3,"arthritis_risk":5,"migraine_risk":7,"frizz_risk":0,"updated_at":"2026-03-21T20:59:52.320388+05:30"},{"city":"Lucknow","state":"Uttar Pradesh","latitude":26.8467,"longitude":80.9462,"temp":21.7,"humidity":75,"rain":0.0,"pressure":999.8,"uv_index":6.25,"wind_gusts":24.5,"aqi":106,"pm10":56.5,"pm2_5":36.2,"mosquito_risk":3,"arthritis_risk":5,"migraine_risk":7,"frizz_risk":1,"updated_at":"2026-03-21T20:59:52.320396+05:30"},{"city":"Kanpur","state":"Uttar Pradesh","latitude":26.4499,"longitude":80.3319,"temp":20.7,"humidity":73,"rain":0.0,"pressure":997.9,"uv_index":6.7,"wind_gusts":25.6,"aqi":114,"pm10":238.4,"pm2_5":50.6,"mosquito_risk":3,"arthritis_risk":5,"migraine_risk":7,"frizz_risk":0,"updated_at":"2026-03-21T20:59:52.320403+05:30"},{"city":"Chandigarh","state":"Chandigarh","latitude":30.7333,"longitude":76.7794,"temp":18.1,"humidity":79,"rain":0.0,"pressure":973.9,"uv_index":6.35,"wind_gusts":28.4,"aqi":88,"pm10":38.4,"pm2_5":34.2,"mosquito_risk":3,"arthritis_risk":5,"migraine_risk":7,"frizz_risk":0,"updated_at":"2026-03-21T20:59:52.320411+05:30"},{"city":"Srinagar","state":"Jammu and Kashmir","latitude":34.0837,"longitude":74.7973,"temp":11.0,"humidity":58,"rain":0.0,"pressure":842.6,"uv_index":6.7,"wind_gusts":14.0,"aqi":133,"pm10":65.0,"pm2_5":58.7,"mosquito_risk":0,"arthritis_risk":5,"migraine_risk":7,"frizz_risk":0,"updated_at":"2026-03-21T20:59:52.320417+05:30"},{"city":"Jammu","state":"Jammu and Kashmir","latitude":32.7266,"longitude":74.857,"temp":20.7,"humidity":66,"rain":0.0,"pressure":978.4,"uv_index":6.45,"wind_gusts":16.9,"aqi":95,"pm10":61.5,"pm2_5":48.7,"mosquito_risk":3,"arthritis_risk":5,"migraine_risk":7,"frizz_risk":0,"updated_at":"2026-03-21T20:59:52.320424+05:30"},{"city":"Amritsar","state":"Punjab","latitude":31.634,"longitude":74.8723,"temp":19.7,"humidity":70,"rain":0.0,"pressure":987.0,"uv_index":6.1,"wind_gusts":15.8,"aqi":108,"pm10":78.5,"pm2_5":68.2,"mosquito_risk":3,"arthritis_risk":5,"migraine_risk":7,"frizz_risk":0,"updated_at":"2026-03-21T20:59:52.320431+05:30"},{"city":"Ludhiana","state":"Punjab","latitude":30.901,"longitude":75.8573,"temp":19.2,"humidity":71,"rain":0.0,"pressure":984.8,"uv_index":6.0,"wind_gusts":23.0,"aqi":154,"pm10":52.6,"pm2_5":45.4,"mosquito_risk":3,"arthritis_risk":5,"migraine_risk":3,"frizz_risk":0,"updated_at":"2026-03-21T20:59:52.320437+05:30"},{"city":"Jalandhar","state":"Punjab","latitude":31.326,"longitude":75.5762,"temp":19.2,"humidity":72,"rain":0.0,"pressure":986.0,"uv_index":6.3,"wind_gusts":20.5,"aqi":138,"pm10":54.8,"pm2_5":45.2,"mosquito_risk":3,"arthritis_risk":5,"migraine_risk":7,"frizz_risk":0,"updated_at":"2026-03-21T20:59:52.320445+05:30"},{"city":"Dehradun","state":"Uttarakhand","latitude":30.6284,"longitude":78.0322,"temp":11.4,"humidity":87,"rain":0.0,"pressure":830.9,"uv_index":6.7,"wind_gusts":22.7,"aqi":90,"pm10":23.5,"pm2_5":19.4,"mosquito_risk":3,"arthritis_risk":10,"migraine_risk":7,"frizz_risk":0,"updated_at":"2026-03-21T20:59:52.320452+05:30"},{"city":"Shimla","state":"Himachal Pradesh","latitude":31.1048,"longitude":77.1734,"temp":8.6,"humidity":88,"rain":0.0,"pressure":783.9,"uv_index":6.6,"wind_gusts":33.5,"aqi":83,"pm10":33.8,"pm2_5":26.8,"mosquito_risk":3,"arthritis_risk":10,"migraine_risk":7,"frizz_risk":0,"updated_at":"2026-03-21T20:59:52.320459+05:30"},{"city":"Manali","state":"Himachal Pradesh","latitude":32.2396,"longitude":77.1887,"temp":11.8,"humidity":48,"rain":0.0,"pressure":818.7,"uv_index":8.65,"wind_gusts":22.0,"aqi":113,"pm10":15.7,"pm2_5":11.4,"mosquito_risk":0,"arthritis_risk":5,"migraine_risk":7,"frizz_risk":0,"updated_at":"2026-03-21T20:59:52.320466+05:30"},{"city":"Gurgaon","state":"Haryana","latitude":28.4595,"longitude":77.0266,"temp":20.2,"humidity":75,"rain":0.0,"pressure":987.0,"uv_index":6.1,"wind_gusts":20.5,"aqi":172,"pm10":215.6,"pm2_5":84.1,"mosquito_risk":3,"arthritis_risk":5,"migraine_risk":7,"frizz_risk":0,"updated_at":"2026-03-21T20:59:52.320473+05:30"},{"city":"Noida","state":"Uttar Pradesh","latitude":28.5355,"longitude":77.391,"temp":21.8,"humidity":65,"rain":0.0,"pressure":990.0,"uv_index":6.15,"wind_gusts":22.7,"aqi":172,"pm10":215.6,"pm2_5":84.1,"mosquito_risk":3,"arthritis_risk":5,"migraine_risk":7,"frizz_risk":0,"updated_at":"2026-03-21T20:59:52.320479+05:30"},{"city":"Ghaziabad","state":"Uttar Pradesh","latitude":28.6692,"longitude":77.4538,"temp":20.6,"humidity":70,"rain":0.0,"pressure":988.2,"uv_index":5.85,"wind_gusts":21.6,"aqi":158,"pm10":105.0,"pm2_5":57.0,"mosquito_risk":3,"arthritis_risk":5,"migraine_risk":3,"frizz_risk":0,"updated_at":"2026-03-21T20:59:52.320485+05:30"},{"city":"Faridabad","state":"Haryana","latitude":28.4089,"longitude":77.3178,"temp":20.6,"humidity":70,"rain":0.0,"pressure":989.4,"uv_index":6.4,"wind_gusts":20.9,"aqi":172,"pm10":215.6,"pm2_5":84.1,"mosquito_risk":3,"arthritis_risk":5,"migraine_risk":7,"frizz_risk":0,"updated_at":"2026-03-21T20:59:52.320491+05:30"},{"city":"Meerut","state":"Uttar Pradesh","latitude":28.9845,"longitude":77.7064,"temp":19.4,"humidity":75,"rain":0.0,"pressure":987.0,"uv_index":6.15,"wind_gusts":22.0,"aqi":158,"pm10":105.0,"pm2_5":57.0,"mosquito_risk":3,"arthritis_risk":5,"migraine_risk":7,"frizz_risk":0,"updated_at":"2026-03-21T20:59:52.320498+05:30"},{"city":"Agra","state":"Uttar Pradesh","latitude":27.1767,"longitude":78.0081,"temp":21.9,"humidity":59,"rain":0.0,"pressure":993.6,"uv_index":6.8,"wind_gusts":28.1,"aqi":180,"pm10":455.4,"pm2_5":88.0,"mosquito_risk":0,"arthritis_risk":5,"migraine_risk":7,"frizz_risk":0,"updated_at":"2026-03-21T20:59:52.320504+05:30"},{"city":"Varanasi","state":"Uttar Pradesh","latitude":25.3176,"longitude":82.9739,"temp":20.5,"humidity":79,"rain":0.0,"pressure":1003.9,"uv_index":5.1,"wind_gusts":26.3,"aqi":99,"pm10":69.6,"pm2_5":53.9,"mosquito_risk":3,"arthritis_risk":5,"migraine_risk":0,"frizz_risk":1,"updated_at":"2026-03-21T20:59:52.320513+05:30"},{"city":"Prayagraj","state":"Uttar Pradesh","latitude":25.4358,"longitude":81.8463,"temp":21.3,"humidity":77,"rain":0.0,"pressure":1002.4,"uv_index":7.35,"wind_gusts":25.2,"aqi":99,"pm10":53.2,"pm2_5":42.6,"mosquito_risk":3,"arthritis_risk":5,"migraine_risk":4,"frizz_risk":1,"updated_at":"2026-03-21T20:59:52.320520+05:30"},{"city":"Gorakhpur","state":"Uttar Pradesh","latitude":26.7606,"longitude":83.3732,"temp":18.2,"humidity":94,"rain":0.0,"pressure":1003.6,"uv_index":5.7,"wind_gusts":17.3,"aqi":112,"pm10":48.7,"pm2_5":45.5,"mosquito_risk":3,"arthritis_risk":10,"migraine_risk":0,"frizz_risk":1,"updated_at":"2026-03-21T20:59:52.320527+05:30"},{"city":"Bareilly","state":"Uttar Pradesh","latitude":28.367,"longitude":79.4304,"temp":19.4,"humidity":83,"rain":0.0,"pressure":992.6,"uv_index":6.6,"wind_gusts":18.0,"aqi":132,"pm10":28.3,"pm2_5":26.1,"mosquito_risk":3,"arthritis_risk":10,"migraine_risk":7,"frizz_risk":1,"updated_at":"2026-03-21T20:59:52.320536+05:30"},{"city":"Aligarh","state":"Uttar Pradesh","latitude":27.8974,"longitude":78.088,"temp":19.9,"humidity":72,"rain":0.0,"pressure":991.1,"uv_index":6.5,"wind_gusts":20.2,"aqi":162,"pm10":272.9,"pm2_5":75.7,"mosquito_risk":3,"arthritis_risk":5,"migraine_risk":7,"frizz_risk":0,"updated_at":"2026-03-21T20:59:52.320545+05:30"},{"city":"Moradabad","state":"Uttar Pradesh","latitude":28.8386,"longitude":78.7733,"temp":21.3,"humidity":70,"rain":0.0,"pressure":989.2,"uv_index":6.45,"wind_gusts":18.4,"aqi":144,"pm10":54.6,"pm2_5":49.4,"mosquito_risk":3,"arthritis_risk":5,"migraine_risk":7,"frizz_risk":0,"updated_at":"2026-03-21T20:59:52.320551+05:30"},{"city":"Saharanpur","state":"Uttar Pradesh","latitude":29.9637,"longitude":77.546,"temp":19.0,"humidity":72,"rain":0.0,"pressure":980.9,"uv_index":6.1,"wind_gusts":27.0,"aqi":150,"pm10":99.9,"pm2_5":50.8,"mosquito_risk":3,"arthritis_risk":5,"migraine_risk":7,"frizz_risk":0,"updated_at":"2026-03-21T20:59:52.320557+05:30"},{"city":"Jhansi","state":"Uttar Pradesh","latitude":25.4484,"longitude":78.5685,"temp":23.4,"humidity":49,"rain":0.0,"pressure":983.5,"uv_index":7.4,"wind_gusts":24.5,"aqi":87,"pm10":42.1,"pm2_5":23.6,"mosquito_risk":0,"arthritis_risk":5,"migraine_risk":7,"frizz_risk":0,"updated_at":"2026-03-21T20:59:55.599395+05:30"},{"city":"Surat","state":"Gujarat","latitude":21.1702,"longitude":72.8311,"temp":26.2,"humidity":53,"rain":0.0,"pressure":1009.4,"uv_index":7.55,"wind_gusts":28.1,"aqi":110,"pm10":44.4,"pm2_5":39.8,"mosquito_risk":4,"arthritis_risk":0,"migraine_risk":4,"frizz_risk":0,"updated_at":"2026-03-21T20:59:55.599425+05:30"},{"city":"Vadodara","state":"Gujarat","latitude":22.3072,"longitude":73.1812,"temp":27.9,"humidity":44,"rain":0.0,"pressure":1007.4,"uv_index":7.55,"wind_gusts":15.5,"aqi":97,"pm10":26.7,"pm2_5":21.8,"mosquito_risk":4,"arthritis_risk":5,"migraine_risk":4,"frizz_risk":0,"updated_at":"2026-03-21T20:59:55.599437+05:30"},{"city":"Rajkot","state":"Gujarat","latitude":22.3039,"longitude":70.8022,"temp":27.5,"humidity":46,"rain":0.0,"pressure":997.7,"uv_index":7.05,"wind_gusts":20.5,"aqi":84,"pm10":34.0,"pm2_5":18.4,"mosquito_risk":4,"arthritis_risk":5,"migraine_risk":7,"frizz_risk":0,"updated_at":"2026-03-21T20:59:55.599446+05:30"},{"city":"Thane","state":"Maharashtra","latitude":19.2183,"longitude":72.9781,"temp":27.1,"humidity":56,"rain":0.0,"pressure":1009.8,"uv_index":7.85,"wind_gusts":42.8,"aqi":110,"pm10":33.1,"pm2_5":25.1,"mosquito_risk":4,"arthritis_risk":0,"migraine_risk":4,"frizz_risk":1,"updated_at":"2026-03-21T20:59:55.599454+05:30"},{"city":"Nagpur","state":"Maharashtra","latitude":21.1458,"longitude":79.0882,"temp":27.3,"humidity":32,"rain":0.0,"pressure":976.4,"uv_index":8.3,"wind_gusts":24.8,"aqi":82,"pm10":23.6,"pm2_5":18.1,"mosquito_risk":4,"arthritis_risk":5,"migraine_risk":7,"frizz_risk":0,"updated_at":"2026-03-21T20:59:55.599462+05:30"},{"city":"Nashik","state":"Maharashtra","latitude":19.9975,"longitude":73.7898,"temp":25.5,"humidity":30,"rain":0.0,"pressure":947.7,"uv_index":8.05,"wind_gusts":22.7,"aqi":90,"pm10":24.6,"pm2_5":21.4,"mosquito_risk":4,"arthritis_risk":5,"migraine_risk":7,"frizz_risk":0,"updated_at":"2026-03-21T20:59:55.599469+05:30"},{"city":"Aurangabad","state":"Maharashtra","latitude":19.8762,"longitude":75.3433,"temp":27.2,"humidity":28,"rain":0.0,"pressure":946.4,"uv_index":8.6,"wind_gusts":24.5,"aqi":99,"pm10":18.8,"pm2_5":15.1,"mosquito_risk":4,"arthritis_risk":5,"migraine_risk":7,"frizz_risk":0,"updated_at":"2026-03-21T20:59:55.599477+05:30"},{"city":"Solapur","state":"Maharashtra","latitude":17.6599,"longitude":75.9064,"temp":29.0,"humidity":36,"rain":0.0,"pressure":958.4,"uv_index":8.75,"wind_gusts":27.7,"aqi":112,"pm10":39.9,"pm2_5":25.1,"mosquito_risk":4,"arthritis_risk":5,"migraine_risk":7,"frizz_risk":0,"updated_at":"2026-03-21T20:59:55.599485+05:30"},{"city":"Kolhapur","state":"Maharashtra","latitude":16.705,"longitude":74.2433,"temp":23.1,"humidity":47,"rain":0.0,"pressure":949.2,"uv_index":8.85,"wind_gusts":28.8,"aqi":79,"pm10":58.1,"pm2_5":45.5,"mosquito_risk":0,"arthritis_risk":5,"migraine_risk":7,"frizz_risk":0,"updated_at":"2026-03-21T20:59:55.599493+05:30"},{"city":"Goa","state":"Goa","latitude":15.2993,"longitude":74.124,"temp":27.5,"humidity":77,"rain":0.0,"pressure":999.4,"uv_index":8.85,"wind_gusts":35.3,"aqi":113,"pm10":58.2,"pm2_5":31.2,"mosquito_risk":7,"arthritis_risk":5,"migraine_risk":7,"frizz_risk":1,"updated_at":"2026-03-21T20:59:55.599501+05:30"},{"city":"Jodhpur","state":"Rajasthan","latitude":26.2389,"longitude":73.0243,"temp":26.2,"humidity":45,"rain":0.0,"pressure":987.5,"uv_index":6.6,"wind_gusts":24.1,"aqi":79,"pm10":51.1,"pm2_5":16.3,"mosquito_risk":4,"arthritis_risk":5,"migraine_risk":7,"frizz_risk":0,"updated_at":"2026-03-21T20:59:55.599508+05:30"},{"city":"Udaipur","state":"Rajasthan","latitude":24.5854,"longitude":73.7125,"temp":24.4,"humidity":44,"rain":0.0,"pressure":950.4,"uv_index":7.1,"wind_gusts":11.9,"aqi":81,"pm10":26.5,"pm2_5":12.0,"mosquito_risk":0,"arthritis_risk":5,"migraine_risk":7,"frizz_risk":0,"updated_at":"2026-03-21T20:59:55.599516+05:30"},{"city":"Kota","state":"Rajasthan","latitude":25.2138,"longitude":75.8648,"temp":23.8,"humidity":43,"rain":0.0,"pressure":983.4,"uv_index":7.5,"wind_gusts":22.0,"aqi":92,"pm10":33.5,"pm2_5":21.6,"mosquito_risk":0,"arthritis_risk":5,"migraine_risk":7,"frizz_risk":0,"updated_at":"2026-03-21T20:59:55.599523+05:30"},{"city":"Bikaner","state":"Rajasthan","latitude":28.0229,"longitude":73.3119,"temp":24.4,"humidity":51,"rain":0.0,"pressure":987.6,"uv_index":6.25,"wind_gusts":28.4,"aqi":59,"pm10":28.4,"pm2_5":11.2,"mosquito_risk":0,"arthritis_risk":5,"migraine_risk":7,"frizz_risk":0,"updated_at":"2026-03-21T20:59:55.599531+05:30"},{"city":"Ajmer","state":"Rajasthan","latitude":26.4499,"longitude":74.6399,"temp":23.1,"humidity":51,"rain":0.0,"pressure":959.4,"uv_index":7.4,"wind_gusts":25.2,"aqi":86,"pm10":42.0,"pm2_5":18.9,"mosquito_risk":0,"arthritis_risk":5,"migraine_risk":7,"frizz_risk":0,"updated_at":"2026-03-21T20:59:55.599538+05:30"},{"city":"Gwalior","state":"Madhya Pradesh","latitude":26.2183,"longitude":78.1828,"temp":24.3,"humidity":55,"rain":0.0,"pressure":988.8,"uv_index":7.1,"wind_gusts":25.6,"aqi":105,"pm10":150.9,"pm2_5":40.7,"mosquito_risk":0,"arthritis_risk":5,"migraine_risk":7,"frizz_risk":0,"updated_at":"2026-03-21T20:59:55.599546+05:30"},{"city":"Indore","state":"Madhya Pradesh","latitude":22.7196,"longitude":75.8577,"temp":22.9,"humidity":46,"rain":0.0,"pressure":951.2,"uv_index":7.95,"wind_gusts":22.7,"aqi":77,"pm10":24.1,"pm2_5":18.1,"mosquito_risk":0,"arthritis_risk":5,"migraine_risk":7,"frizz_risk":0,"updated_at":"2026-03-21T20:59:55.599554+05:30"},{"city":"Bhopal","state":"Madhya Pradesh","latitude":23.2599,"longitude":77.4126,"temp":22.5,"humidity":42,"rain":0.0,"pressure":957.7,"uv_index":7.9,"wind_gusts":23.8,"aqi":78,"pm10":20.9,"pm2_5":14.7,"mosquito_risk":0,"arthritis_risk":5,"migraine_risk":7,"frizz_risk":0,"updated_at":"2026-03-21T20:59:55.599562+05:30"},{"city":"Jabalpur","state":"Madhya Pradesh","latitude":23.1815,"longitude":79.9864,"temp":22.7,"humidity":52,"rain":0.0,"pressure":966.1,"uv_index":8.0,"wind_gusts":31.3,"aqi":71,"pm10":21.0,"pm2_5":14.3,"mosquito_risk":0,"arthritis_risk":5,"migraine_risk":7,"frizz_risk":0,"updated_at":"2026-03-21T20:59:55.599569+05:30"},{"city":"Ujjain","state":"Madhya Pradesh","latitude":23.1765,"longitude":75.7885,"temp":23.9,"humidity":45,"rain":0.0,"pressure":957.3,"uv_index":7.75,"wind_gusts":19.4,"aqi":73,"pm10":34.9,"pm2_5":26.6,"mosquito_risk":0,"arthritis_risk":5,"migraine_risk":7,"frizz_risk":0,"updated_at":"2026-03-21T20:59:55.599577+05:30"},{"city":"Visakhapatnam","state":"Andhra Pradesh","latitude":17.6868,"longitude":83.2185,"temp":25.5,"humidity":85,"rain":0.0,"pressure":1006.9,"uv_index":8.8,"wind_gusts":35.3,"aqi":74,"pm10":17.2,"pm2_5":14.2,"mosquito_risk":7,"arthritis_risk":5,"migraine_risk":4,"frizz_risk":1,"updated_at":"2026-03-21T20:59:55.599585+05:30"},{"city":"Vijayawada","state":"Andhra Pradesh","latitude":16.5062,"longitude":80.648,"temp":27.7,"humidity":74,"rain":0.0,"pressure":1005.1,"uv_index":8.85,"wind_gusts":24.8,"aqi":61,"pm10":30.7,"pm2_5":26.6,"mosquito_risk":7,"arthritis_risk":5,"migraine_risk":4,"frizz_risk":1,"updated_at":"2026-03-21T20:59:55.599593+05:30"},{"city":"Guntur","state":"Andhra Pradesh","latitude":16.3067,"longitude":80.4365,"temp":26.6,"humidity":84,"rain":0.0,"pressure":1006.3,"uv_index":8.85,"wind_gusts":23.8,"aqi":56,"pm10":35.7,"pm2_5":30.3,"mosquito_risk":7,"arthritis_risk":5,"migraine_risk":4,"frizz_risk":1,"updated_at":"2026-03-21T20:59:55.599601+05:30"},{"city":"Nellore","state":"Andhra Pradesh","latitude":14.4426,"longitude":79.9865,"temp":27.2,"humidity":82,"rain":0.0,"pressure":1008.4,"uv_index":9.0,"wind_gusts":35.3,"aqi":49,"pm10":13.2,"pm2_5":9.2,"mosquito_risk":7,"arthritis_risk":0,"migraine_risk":4,"frizz_risk":1,"updated_at":"2026-03-21T20:59:55.599609+05:30"},{"city":"Kurnool","state":"Andhra Pradesh","latitude":15.8281,"longitude":78.0373,"temp":31.3,"humidity":35,"rain":0.0,"pressure":977.6,"uv_index":8.9,"wind_gusts":19.4,"aqi":146,"pm10":41.3,"pm2_5":33.2,"mosquito_risk":0,"arthritis_risk":5,"migraine_risk":7,"frizz_risk":0,"updated_at":"2026-03-21T20:59:55.599618+05:30"},{"city":"Kakinada","state":"Andhra Pradesh","latitude":16.9891,"longitude":82.2475,"temp":25.6,"humidity":84,"rain":0.0,"pressure":1010.3,"uv_index":8.85,"wind_gusts":26.6,"aqi":39,"pm10":10.9,"pm2_5":7.7,"mosquito_risk":7,"arthritis_risk":0,"migraine_risk":4,"frizz_risk":1,"updated_at":"2026-03-21T20:59:55.599625+05:30"},{"city":"Tirupati","state":"Andhra Pradesh","latitude":13.6288,"longitude":79.4192,"temp":27.8,"humidity":70,"rain":0.0,"pressure":993.8,"uv_index":8.85,"wind_gusts":26.3,"aqi":93,"pm10":32.1,"pm2_5":27.7,"mosquito_risk":7,"arthritis_risk":5,"migraine_risk":7,"frizz_risk":1,"updated_at":"2026-03-21T20:59:55.599633+05:30"},{"city":"Warangal","state":"Telangana","latitude":17.9689,"longitude":79.5941,"temp":26.1,"humidity":72,"rain":0.0,"pressure":981.2,"uv_index":8.65,"wind_gusts":28.4,"aqi":108,"pm10":63.3,"pm2_5":54.1,"mosquito_risk":7,"arthritis_risk":5,"migraine_risk":7,"frizz_risk":1,"updated_at":"2026-03-21T20:59:55.599641+05:30"},{"city":"Nizamabad","state":"Telangana","latitude":18.6725,"longitude":78.0941,"temp":28.2,"humidity":44,"rain":0.0,"pressure":966.6,"uv_index":8.6,"wind_gusts":34.9,"aqi":88,"pm10":53.6,"pm2_5":36.3,"mosquito_risk":4,"arthritis_risk":5,"migraine_risk":7,"frizz_risk":0,"updated_at":"2026-03-21T20:59:55.599648+05:30"},{"city":"Mysore","state":"Karnataka","latitude":12.2958,"longitude":76.6396,"temp":25.6,"humidity":66,"rain":0.0,"pressure":929.8,"uv_index":9.4,"wind_gusts":44.3,"aqi":155,"pm10":43.4,"pm2_5":34.2,"mosquito_risk":7,"arthritis_risk":5,"migraine_risk":7,"frizz_risk":1,"updated_at":"2026-03-21T20:59:55.599656+05:30"},{"city":"Mangalore","state":"Karnataka","latitude":12.9141,"longitude":74.856,"temp":29.5,"humidity":74,"rain":0.0,"pressure":1008.0,"uv_index":9.05,"wind_gusts":29.2,"aqi":67,"pm10":32.5,"pm2_5":17.4,"mosquito_risk":7,"arthritis_risk":0,"migraine_risk":4,"frizz_risk":1,"updated_at":"2026-03-21T20:59:55.599664+05:30"},{"city":"Hubli-Dharwad","state":"Karnataka","latitude":15.3647,"longitude":75.124,"temp":26.1,"humidity":45,"rain":0.0,"pressure":941.9,"uv_index":9.05,"wind_gusts":28.8,"aqi":123,"pm10":32.2,"pm2_5":26.8,"mosquito_risk":4,"arthritis_risk":5,"migraine_risk":7,"frizz_risk":0,"updated_at":"2026-03-21T20:59:55.599672+05:30"},{"city":"Belgaum","state":"Karnataka","latitude":15.8497,"longitude":74.4977,"temp":24.0,"humidity":55,"rain":0.0,"pressure":927.0,"uv_index":9.1,"wind_gusts":36.4,"aqi":118,"pm10":30.7,"pm2_5":23.1,"mosquito_risk":0,"arthritis_risk":5,"migraine_risk":7,"frizz_risk":0,"updated_at":"2026-03-21T20:59:58.881172+05:30"},{"city":"Coimbatore","state":"Tamil Nadu","latitude":11.0168,"longitude":76.9558,"temp":26.1,"humidity":72,"rain":0.0,"pressure":963.0,"uv_index":9.35,"wind_gusts":47.2,"aqi":138,"pm10":28.8,"pm2_5":23.1,"mosquito_risk":7,"arthritis_risk":5,"migraine_risk":7,"frizz_risk":1,"updated_at":"2026-03-21T20:59:58.881201+05:30"},{"city":"Madurai","state":"Tamil Nadu","latitude":9.9252,"longitude":78.1198,"temp":29.2,"humidity":67,"rain":0.0,"pressure":994.7,"uv_index":9.3,"wind_gusts":38.9,"aqi":90,"pm10":12.5,"pm2_5":10.4,"mosquito_risk":7,"arthritis_risk":5,"migraine_risk":7,"frizz_risk":1,"updated_at":"2026-03-21T20:59:58.881210+05:30"},{"city":"Trichy","state":"Tamil Nadu","latitude":10.7905,"longitude":78.7047,"temp":28.4,"humidity":74,"rain":0.0,"pressure":1001.3,"uv_index":9.25,"wind_gusts":29.5,"aqi":77,"pm10":15.4,"pm2_5":13.7,"mosquito_risk":7,"arthritis_risk":5,"migraine_risk":4,"frizz_risk":1,"updated_at":"2026-03-21T20:59:58.881218+05:30"},{"city":"Salem","state":"Tamil Nadu","latitude":11.6643,"longitude":78.146,"temp":29.5,"humidity":55,"rain":0.0,"pressure":978.2,"uv_index":9.3,"wind_gusts":26.6,"aqi":135,"pm10":34.8,"pm2_5":30.5,"mosquito_risk":4,"arthritis_risk":5,"migraine_risk":7,"frizz_risk":1,"updated_at":"2026-03-21T20:59:58.881225+05:30"},{"city":"Tirunelveli","state":"Tamil Nadu","latitude":8.7139,"longitude":77.7567,"temp":28.2,"humidity":71,"rain":0.0,"pressure":1004.8,"uv_index":9.3,"wind_gusts":42.8,"aqi":110,"pm10":17.5,"pm2_5":15.7,"mosquito_risk":7,"arthritis_risk":5,"migraine_risk":4,"frizz_risk":1,"updated_at":"2026-03-21T20:59:58.881232+05:30"},{"city":"Vellore","state":"Tamil Nadu","latitude":12.9165,"longitude":79.1325,"temp":27.8,"humidity":68,"rain":0.0,"pressure":986.5,"uv_index":9.2,"wind_gusts":37.1,"aqi":101,"pm10":17.2,"pm2_5":15.5,"mosquito_risk":7,"arthritis_risk":5,"migraine_risk":7,"frizz_risk":1,"updated_at":"2026-03-21T20:59:58.881238+05:30"},{"city":"Erode","state":"Tamil Nadu","latitude":11.341,"longitude":77.7172,"temp":30.7,"humidity":54,"rain":0.0,"pressure":989.6,"uv_index":9.3,"wind_gusts":24.5,"aqi":114,"pm10":19.5,"pm2_5":16.5,"mosquito_risk":0,"arthritis_risk":5,"migraine_risk":7,"frizz_risk":1,"updated_at":"2026-03-21T20:59:58.881245+05:30"},{"city":"Kochi","state":"Kerala","latitude":9.9312,"longitude":76.2673,"temp":29.0,"humidity":72,"rain":0.0,"pressure":1010.3,"uv_index":9.15,"wind_gusts":33.8,"aqi":90,"pm10":30.0,"pm2_5":25.8,"mosquito_risk":7,"arthritis_risk":0,"migraine_risk":4,"frizz_risk":1,"updated_at":"2026-03-21T20:59:58.881252+05:30"},{"city":"Thiruvananthapuram","state":"Kerala","latitude":8.5241,"longitude":76.9366,"temp":28.0,"humidity":80,"rain":0.0,"pressure":1009.8,"uv_index":8.55,"wind_gusts":24.8,"aqi":105,"pm10":22.3,"pm2_5":16.9,"mosquito_risk":7,"arthritis_risk":0,"migraine_risk":4,"frizz_risk":1,"updated_at":"2026-03-21T20:59:58.881259+05:30"},{"city":"Kozhikode","state":"Kerala","latitude":11.2588,"longitude":75.7804,"temp":29.2,"humidity":78,"rain":0.0,"pressure":1009.2,"uv_index":9.05,"wind_gusts":31.3,"aqi":65,"pm10":22.8,"pm2_5":15.1,"mosquito_risk":7,"arthritis_risk":0,"migraine_risk":4,"frizz_risk":1,"updated_at":"2026-03-21T20:59:58.881266+05:30"},{"city":"Thrissur","state":"Kerala","latitude":10.5276,"longitude":76.2144,"temp":28.5,"humidity":73,"rain":0.0,"pressure":1008.4,"uv_index":9.15,"wind_gusts":38.9,"aqi":79,"pm10":21.6,"pm2_5":18.6,"mosquito_risk":7,"arthritis_risk":0,"migraine_risk":4,"frizz_risk":1,"updated_at":"2026-03-21T20:59:58.881274+05:30"},{"city":"Kannur","state":"Kerala","latitude":11.8745,"longitude":75.3704,"temp":28.9,"humidity":77,"rain":0.0,"pressure":1008.6,"uv_index":9.1,"wind_gusts":34.9,"aqi":78,"pm10":26.5,"pm2_5":16.2,"mosquito_risk":7,"arthritis_risk":0,"migraine_risk":4,"frizz_risk":1,"updated_at":"2026-03-21T20:59:58.881280+05:30"},{"city":"Patna","state":"Bihar","latitude":25.5941,"longitude":85.1376,"temp":20.5,"humidity":86,"rain":0.0,"pressure":1006.9,"uv_index":7.2,"wind_gusts":24.5,"aqi":140,"pm10":63.8,"pm2_5":60.3,"mosquito_risk":3,"arthritis_risk":5,"migraine_risk":4,"frizz_risk":1,"updated_at":"2026-03-21T20:59:58.881287+05:30"},{"city":"Gaya","state":"Bihar","latitude":24.7914,"longitude":85.0002,"temp":20.1,"humidity":86,"rain":0.0,"pressure":999.9,"uv_index":7.65,"wind_gusts":24.8,"aqi":111,"pm10":49.7,"pm2_5":45.6,"mosquito_risk":3,"arthritis_risk":5,"migraine_risk":7,"frizz_risk":1,"updated_at":"2026-03-21T20:59:58.881293+05:30"},{"city":"Muzaffarpur","state":"Bihar","latitude":26.1209,"longitude":85.3647,"temp":18.4,"humidity":94,"rain":0.0,"pressure":1007.0,"uv_index":5.2,"wind_gusts":23.8,"aqi":143,"pm10":66.1,"pm2_5":63.6,"mosquito_risk":3,"arthritis_risk":10,"migraine_risk":0,"frizz_risk":1,"updated_at":"2026-03-21T20:59:58.881299+05:30"},{"city":"Bhagalpur","state":"Bihar","latitude":25.2425,"longitude":87.0117,"temp":20.3,"humidity":90,"rain":0.0,"pressure":1007.4,"uv_index":5.85,"wind_gusts":24.5,"aqi":118,"pm10":37.7,"pm2_5":34.8,"mosquito_risk":3,"arthritis_risk":5,"migraine_risk":0,"frizz_risk":1,"updated_at":"2026-03-21T20:59:58.881306+05:30"},{"city":"Ranchi","state":"Jharkhand","latitude":23.3441,"longitude":85.3096,"temp":19.2,"humidity":74,"rain":0.0,"pressure":941.2,"uv_index":8.35,"wind_gusts":32.0,"aqi":103,"pm10":29.7,"pm2_5":27.9,"mosquito_risk":3,"arthritis_risk":5,"migraine_risk":7,"frizz_risk":0,"updated_at":"2026-03-21T20:59:58.881313+05:30"},{"city":"Jamshedpur","state":"Jharkhand","latitude":22.8046,"longitude":86.2029,"temp":22.6,"humidity":68,"rain":0.0,"pressure":996.0,"uv_index":7.75,"wind_gusts":29.9,"aqi":119,"pm10":40.4,"pm2_5":38.4,"mosquito_risk":3,"arthritis_risk":5,"migraine_risk":7,"frizz_risk":1,"updated_at":"2026-03-21T20:59:58.881319+05:30"},{"city":"Dhanbad","state":"Jharkhand","latitude":23.7957,"longitude":86.4304,"temp":21.1,"humidity":74,"rain":0.0,"pressure":985.1,"uv_index":7.6,"wind_gusts":27.0,"aqi":148,"pm10":54.5,"pm2_5":51.3,"mosquito_risk":3,"arthritis_risk":5,"migraine_risk":7,"frizz_risk":1,"updated_at":"2026-03-21T20:59:58.881326+05:30"},{"city":"Bokaro","state":"Jharkhand","latitude":23.6693,"longitude":86.1511,"temp":20.6,"humidity":80,"rain":0.0,"pressure":989.2,"uv_index":5.8,"wind_gusts":37.4,"aqi":143,"pm10":54.0,"pm2_5":51.8,"mosquito_risk":3,"arthritis_risk":5,"migraine_risk":3,"frizz_risk":1,"updated_at":"2026-03-21T20:59:58.881332+05:30"},{"city":"Bhubaneswar","state":"Odisha","latitude":20.2961,"longitude":85.8245,"temp":24.8,"humidity":80,"rain":0.0,"pressure":1006.2,"uv_index":8.55,"wind_gusts":28.1,"aqi":148,"pm10":42.5,"pm2_5":38.5,"mosquito_risk":3,"arthritis_risk":5,"migraine_risk":4,"frizz_risk":1,"updated_at":"2026-03-21T20:59:58.881339+05:30"},{"city":"Cuttack","state":"Odisha","latitude":20.4625,"longitude":85.8828,"temp":25.8,"humidity":74,"rain":0.0,"pressure":1008.0,"uv_index":8.6,"wind_gusts":25.9,"aqi":148,"pm10":42.5,"pm2_5":38.5,"mosquito_risk":7,"arthritis_risk":0,"migraine_risk":4,"frizz_risk":1,"updated_at":"2026-03-21T20:59:58.881346+05:30"},{"city":"Rourkela","state":"Odisha","latitude":22.2604,"longitude":84.8536,"temp":26.4,"humidity":50,"rain":0.0,"pressure":988.4,"uv_index":8.15,"wind_gusts":29.9,"aqi":138,"pm10":43.1,"pm2_5":36.6,"mosquito_risk":4,"arthritis_risk":5,"migraine_risk":7,"frizz_risk":0,"updated_at":"2026-03-21T20:59:58.881352+05:30"},{"city":"Raipur","state":"Chhattisgarh","latitude":21.2514,"longitude":81.6296,"temp":26.3,"humidity":29,"rain":0.0,"pressure":977.9,"uv_index":8.35,"wind_gusts":31.7,"aqi":117,"pm10":62.4,"pm2_5":51.9,"mosquito_risk":4,"arthritis_risk":5,"migraine_risk":7,"frizz_risk":0,"updated_at":"2026-03-21T20:59:58.881358+05:30"},{"city":"Bhilai","state":"Chhattisgarh","latitude":21.1938,"longitude":81.3509,"temp":25.0,"humidity":33,"rain":0.0,"pressure":978.3,"uv_index":8.35,"wind_gusts":33.8,"aqi":108,"pm10":25.4,"pm2_5":22.0,"mosquito_risk":4,"arthritis_risk":5,"migraine_risk":7,"frizz_risk":0,"updated_at":"2026-03-21T20:59:58.881364+05:30"},{"city":"Guwahati","state":"Assam","latitude":26.1158,"longitude":91.7086,"temp":22.3,"humidity":92,"rain":0.0,"pressure":1007.2,"uv_index":2.65,"wind_gusts":18.7,"aqi":87,"pm10":38.0,"pm2_5":33.5,"mosquito_risk":3,"arthritis_risk":5,"migraine_risk":0,"frizz_risk":1,"updated_at":"2026-03-21T20:59:58.881370+05:30"},{"city":"Agartala","state":"Tripura","latitude":23.8315,"longitude":91.2868,"temp":22.2,"humidity":80,"rain":0.0,"pressure":1010.6,"uv_index":5.1,"wind_gusts":18.4,"aqi":113,"pm10":37.8,"pm2_5":31.4,"mosquito_risk":3,"arthritis_risk":0,"migraine_risk":0,"frizz_risk":1,"updated_at":"2026-03-21T20:59:58.881377+05:30"},{"city":"Shillong","state":"Meghalaya","latitude":25.5788,"longitude":91.8933,"temp":11.8,"humidity":90,"rain":0.1,"pressure":857.4,"uv_index":5.05,"wind_gusts":23.8,"aqi":70,"pm10":38.2,"pm2_5":26.2,"mosquito_risk":6,"arthritis_risk":10,"migraine_risk":3,"frizz_risk":0,"updated_at":"2026-03-21T20:59:58.881384+05:30"},{"city":"Imphal","state":"Manipur","latitude":24.817,"longitude":93.9368,"temp":16.8,"humidity":86,"rain":0.0,"pressure":925.4,"uv_index":7.45,"wind_gusts":35.3,"aqi":89,"pm10":36.7,"pm2_5":30.5,"mosquito_risk":3,"arthritis_risk":10,"migraine_risk":7,"frizz_risk":0,"updated_at":"2026-03-21T20:59:58.881390+05:30"},{"city":"Aizawl","state":"Mizoram","latitude":23.7271,"longitude":92.7176,"temp":16.4,"humidity":87,"rain":0.0,"pressure":894.4,"uv_index":5.35,"wind_gusts":34.6,"aqi":112,"pm10":56.6,"pm2_5":44.1,"mosquito_risk":3,"arthritis_risk":10,"migraine_risk":3,"frizz_risk":0,"updated_at":"2026-03-21T20:59:58.881397+05:30"},{"city":"Kohima","state":"Nagaland","latitude":25.6701,"longitude":94.1077,"temp":13.8,"humidity":94,"rain":0.3,"pressure":856.7,"uv_index":7.0,"wind_gusts":57.2,"aqi":73,"pm10":29.2,"pm2_5":21.2,"mosquito_risk":6,"arthritis_risk":10,"migraine_risk":7,"frizz_risk":0,"updated_at":"2026-03-21T20:59:58.881403+05:30"},{"city":"Gangtok","state":"Sikkim","latitude":27.3314,"longitude":88.6138,"temp":9.6,"humidity":92,"rain":0.0,"pressure":837.2,"uv_index":1.95,"wind_gusts":16.6,"aqi":101,"pm10":33.9,"pm2_5":27.5,"mosquito_risk":3,"arthritis_risk":10,"migraine_risk":3,"frizz_risk":0,"updated_at":"2026-03-21T20:59:58.881409+05:30"},{"city":"Siliguri","state":"West Bengal","latitude":26.7271,"longitude":88.3953,"temp":16.9,"humidity":66,"rain":0.0,"pressure":998.9,"uv_index":0.45,"wind_gusts":29.2,"aqi":97,"pm10":63.8,"pm2_5":49.2,"mosquito_risk":3,"arthritis_risk":5,"migraine_risk":3,"frizz_risk":0,"updated_at":"2026-03-21T21:00:20.737371+05:30"},{"city":"Durgapur","state":"West Bengal","latitude":23.5204,"longitude":87.3119,"temp":22.5,"humidity":74,"rain":0.0,"pressure":1000.7,"uv_index":7.8,"wind_gusts":19.1,"aqi":122,"pm10":42.8,"pm2_5":39.8,"mosquito_risk":3,"arthritis_risk":5,"migraine_risk":4,"frizz_risk":1,"updated_at":"2026-03-21T21:00:20.737401+05:30"},{"city":"Asansol","state":"West Bengal","latitude":23.6739,"longitude":86.9524,"temp":22.1,"humidity":74,"rain":0.0,"pressure":999.2,"uv_index":6.55,"wind_gusts":21.2,"aqi":128,"pm10":43.8,"pm2_5":40.3,"mosquito_risk":3,"arthritis_risk":5,"migraine_risk":7,"frizz_risk":1,"updated_at":"2026-03-21T21:00:20.737411+05:30"},{"city":"Pondicherry","state":"Puducherry","latitude":11.9139,"longitude":79.8145,"temp":26.2,"humidity":89,"rain":0.0,"pressure":1010.8,"uv_index":9.15,"wind_gusts":30.6,"aqi":32,"pm10":13.5,"pm2_5":8.6,"mosquito_risk":7,"arthritis_risk":0,"migraine_risk":4,"frizz_risk":1,"updated_at":"2026-03-21T21:00:20.737420+05:30"},{"city":"Port Blair","state":"Andaman and Nicobar Islands","latitude":11.6234,"longitude":92.7265,"temp":28.6,"humidity":77,"rain":0.0,"pressure":1009.3,"uv_index":9.1,"wind_gusts":14.8,"aqi":49,"pm10":13.3,"pm2_5":10.1,"mosquito_risk":7,"arthritis_risk":0,"migraine_risk":4,"frizz_risk":1,"updated_at":"2026-03-21T21:00:20.737427+05:30"},{"city":"Haridwar","state":"Uttarakhand","latitude":29.9457,"longitude":78.1642,"temp":19.3,"humidity":75,"rain":0.0,"pressure":979.4,"uv_index":6.2,"wind_gusts":21.6,"aqi":102,"pm10":51.2,"pm2_5":41.0,"mosquito_risk":3,"arthritis_risk":5,"migraine_risk":7,"frizz_risk":0,"updated_at":"2026-03-21T21:00:20.737435+05:30"},{"city":"Rishikesh","state":"Uttarakhand","latitude":30.0869,"longitude":78.2676,"temp":18.8,"humidity":77,"rain":0.0,"pressure":971.9,"uv_index":6.25,"wind_gusts":20.9,"aqi":95,"pm10":27.2,"pm2_5":23.9,"mosquito_risk":3,"arthritis_risk":5,"migraine_risk":7,"frizz_risk":0,"updated_at":"2026-03-21T21:00:20.737443+05:30"},{"city":"Nainital","state":"Uttarakhand","latitude":29.3919,"longitude":79.4542,"temp":12.4,"humidity":88,"rain":0.0,"pressure":806.8,"uv_index":6.9,"wind_gusts":34.2,"aqi":64,"pm10":21.5,"pm2_5":19.0,"mosquito_risk":3,"arthritis_risk":10,"migraine_risk":7,"frizz_risk":0,"updated_at":"2026-03-21T21:00:20.737450+05:30"},{"city":"Mussoorie","state":"Uttarakhand","latitude":30.4599,"longitude":78.0664,"temp":11.6,"humidity":79,"rain":0.0,"pressure":803.2,"uv_index":6.6,"wind_gusts":26.3,"aqi":99,"pm10":39.0,"pm2_5":35.3,"mosquito_risk":3,"arthritis_risk":5,"migraine_risk":7,"frizz_risk":0,"updated_at":"2026-03-21T21:00:20.737457+05:30"},{"city":"Dharamshala","state":"Himachal Pradesh","latitude":32.219,"longitude":76.3234,"temp":14.8,"humidity":72,"rain":0.0,"pressure":871.0,"uv_index":6.6,"wind_gusts":17.6,"aqi":88,"pm10":28.9,"pm2_5":20.8,"mosquito_risk":3,"arthritis_risk":5,"migraine_risk":7,"frizz_risk":0,"updated_at":"2026-03-21T21:00:20.737464+05:30"},{"city":"Dalhousie","state":"Himachal Pradesh","latitude":32.5387,"longitude":75.971,"temp":11.4,"humidity":79,"rain":0.0,"pressure":804.1,"uv_index":6.25,"wind_gusts":17.3,"aqi":73,"pm10":48.3,"pm2_5":39.2,"mosquito_risk":3,"arthritis_risk":5,"migraine_risk":7,"frizz_risk":0,"updated_at":"2026-03-21T21:00:20.737477+05:30"},{"city":"Patiala","state":"Punjab","latitude":30.3398,"longitude":76.3869,"temp":17.9,"humidity":76,"rain":0.0,"pressure":984.0,"uv_index":5.85,"wind_gusts":23.8,"aqi":153,"pm10":188.1,"pm2_5":49.6,"mosquito_risk":3,"arthritis_risk":5,"migraine_risk":3,"frizz_risk":0,"updated_at":"2026-03-21T21:00:20.737485+05:30"},{"city":"Bhatinda","state":"Punjab","latitude":30.211,"longitude":74.9455,"temp":20.1,"humidity":74,"rain":0.0,"pressure":990.3,"uv_index":5.55,"wind_gusts":18.0,"aqi":132,"pm10":93.6,"pm2_5":71.2,"mosquito_risk":3,"arthritis_risk":5,"migraine_risk":3,"frizz_risk":0,"updated_at":"2026-03-21T21:00:20.737493+05:30"},{"city":"Rohtak","state":"Haryana","latitude":28.8955,"longitude":76.6066,"temp":19.8,"humidity":76,"rain":0.0,"pressure":987.8,"uv_index":5.9,"wind_gusts":22.7,"aqi":165,"pm10":141.6,"pm2_5":71.5,"mosquito_risk":3,"arthritis_risk":5,"migraine_risk":3,"frizz_risk":0,"updated_at":"2026-03-21T21:00:20.737499+05:30"},{"city":"Panipat","state":"Haryana","latitude":29.3909,"longitude":76.9635,"temp":18.6,"humidity":79,"rain":0.0,"pressure":986.2,"uv_index":6.0,"wind_gusts":24.8,"aqi":165,"pm10":221.2,"pm2_5":66.8,"mosquito_risk":3,"arthritis_risk":5,"migraine_risk":3,"frizz_risk":0,"updated_at":"2026-03-21T21:00:20.737505+05:30"},{"city":"Mathura","state":"Uttar Pradesh","latitude":27.4924,"longitude":77.6737,"temp":22.0,"humidity":63,"rain":0.0,"pressure":992.9,"uv_index":6.7,"wind_gusts":23.8,"aqi":160,"pm10":378.1,"pm2_5":88.0,"mosquito_risk":3,"arthritis_risk":5,"migraine_risk":7,"frizz_risk":0,"updated_at":"2026-03-21T21:00:20.737512+05:30"},{"city":"Vrindavan","state":"Uttar Pradesh","latitude":27.5823,"longitude":77.7027,"temp":20.1,"humidity":73,"rain":0.0,"pressure":993.2,"uv_index":6.65,"wind_gusts":21.6,"aqi":160,"pm10":378.1,"pm2_5":88.0,"mosquito_risk":3,"arthritis_risk":5,"migraine_risk":7,"frizz_risk":0,"updated_at":"2026-03-21T21:00:20.737518+05:30"},{"city":"Ayodhya","state":"Uttar Pradesh","latitude":26.7922,"longitude":82.1998,"temp":20.5,"humidity":81,"rain":0.0,"pressure":1001.9,"uv_index":6.95,"wind_gusts":22.0,"aqi":92,"pm10":57.0,"pm2_5":47.8,"mosquito_risk":3,"arthritis_risk":5,"migraine_risk":4,"frizz_risk":1,"updated_at":"2026-03-21T21:00:20.737525+05:30"},{"city":"Ratlam","state":"Madhya Pradesh","latitude":23.3315,"longitude":75.0367,"temp":23.9,"humidity":52,"rain":0.0,"pressure":957.9,"uv_index":7.55,"wind_gusts":21.2,"aqi":76,"pm10":30.2,"pm2_5":21.1,"mosquito_risk":0,"arthritis_risk":5,"migraine_risk":7,"frizz_risk":0,"updated_at":"2026-03-21T21:00:20.737532+05:30"},{"city":"Sagar","state":"Madhya Pradesh","latitude":23.8388,"longitude":78.7378,"temp":22.6,"humidity":44,"rain":0.0,"pressure":954.9,"uv_index":7.9,"wind_gusts":28.4,"aqi":88,"pm10":18.5,"pm2_5":12.6,"mosquito_risk":0,"arthritis_risk":5,"migraine_risk":7,"frizz_risk":0,"updated_at":"2026-03-21T21:00:20.737538+05:30"},{"city":"Satna","state":"Madhya Pradesh","latitude":24.6005,"longitude":80.8322,"temp":21.3,"humidity":67,"rain":0.0,"pressure":976.8,"uv_index":7.8,"wind_gusts":32.8,"aqi":74,"pm10":27.8,"pm2_5":13.8,"mosquito_risk":3,"arthritis_risk":5,"migraine_risk":7,"frizz_risk":0,"updated_at":"2026-03-21T21:00:20.737544+05:30"},{"city":"Akola","state":"Maharashtra","latitude":20.7002,"longitude":77.0082,"temp":25.9,"humidity":33,"rain":0.0,"pressure":978.2,"uv_index":8.25,"wind_gusts":23.0,"aqi":96,"pm10":34.8,"pm2_5":28.5,"mosquito_risk":4,"arthritis_risk":5,"migraine_risk":7,"frizz_risk":0,"updated_at":"2026-03-21T21:00:20.737551+05:30"},{"city":"Amravati","state":"Maharashtra","latitude":20.9374,"longitude":77.7796,"temp":26.5,"humidity":36,"rain":0.0,"pressure":970.3,"uv_index":8.3,"wind_gusts":25.2,"aqi":92,"pm10":29.7,"pm2_5":23.5,"mosquito_risk":4,"arthritis_risk":5,"migraine_risk":7,"frizz_risk":0,"updated_at":"2026-03-21T21:00:20.737558+05:30"},{"city":"Latur","state":"Maharashtra","latitude":18.4088,"longitude":76.5604,"temp":26.3,"humidity":40,"rain":0.0,"pressure":941.6,"uv_index":8.65,"wind_gusts":34.2,"aqi":107,"pm10":30.7,"pm2_5":20.2,"mosquito_risk":4,"arthritis_risk":5,"migraine_risk":7,"frizz_risk":0,"updated_at":"2026-03-21T21:00:20.737564+05:30"},{"city":"Nanded","state":"Maharashtra","latitude":19.1383,"longitude":77.3091,"temp":28.8,"humidity":34,"rain":0.0,"pressure":970.6,"uv_index":8.5,"wind_gusts":28.1,"aqi":79,"pm10":53.3,"pm2_5":33.1,"mosquito_risk":4,"arthritis_risk":5,"migraine_risk":7,"frizz_risk":0,"updated_at":"2026-03-21T21:00:20.737570+05:30"},{"city":"Gulbarga","state":"Karnataka","latitude":17.3297,"longitude":76.8343,"temp":29.8,"humidity":31,"rain":0.0,"pressure":960.2,"uv_index":8.75,"wind_gusts":42.1,"aqi":137,"pm10":38.6,"pm2_5":28.9,"mosquito_risk":4,"arthritis_risk":5,"migraine_risk":7,"frizz_risk":0,"updated_at":"2026-03-21T21:00:20.737577+05:30"},{"city":"Bidar","state":"Karnataka","latitude":17.9104,"longitude":77.5199,"temp":28.4,"humidity":37,"rain":0.0,"pressure":937.3,"uv_index":8.75,"wind_gusts":40.3,"aqi":93,"pm10":28.3,"pm2_5":20.1,"mosquito_risk":4,"arthritis_risk":5,"migraine_risk":7,"frizz_risk":0,"updated_at":"2026-03-21T21:00:20.737584+05:30"},{"city":"Hospet","state":"Karnataka","latitude":15.2689,"longitude":76.3909,"temp":29.4,"humidity":51,"rain":0.0,"pressure":957.0,"uv_index":9.0,"wind_gusts":19.4,"aqi":170,"pm10":28.3,"pm2_5":23.7,"mosquito_risk":4,"arthritis_risk":5,"migraine_risk":7,"frizz_risk":1,"updated_at":"2026-03-21T21:00:20.737591+05:30"},{"city":"Tirupur","state":"Tamil Nadu","latitude":11.1085,"longitude":77.3411,"temp":28.9,"humidity":62,"rain":0.0,"pressure":976.8,"uv_index":9.4,"wind_gusts":33.5,"aqi":131,"pm10":24.9,"pm2_5":19.3,"mosquito_risk":7,"arthritis_risk":5,"migraine_risk":7,"frizz_risk":1,"updated_at":"2026-03-21T21:00:20.737597+05:30"},{"city":"Alappuzha","state":"Kerala","latitude":9.4981,"longitude":76.3388,"temp":28.9,"humidity":74,"rain":0.0,"pressure":1010.5,"uv_index":9.1,"wind_gusts":29.2,"aqi":77,"pm10":24.2,"pm2_5":19.2,"mosquito_risk":7,"arthritis_risk":0,"migraine_risk":4,"frizz_risk":1,"updated_at":"2026-03-21T21:00:20.737604+05:30"},{"city":"Munnar","state":"Kerala","latitude":10.0889,"longitude":77.0595,"temp":20.4,"humidity":91,"rain":0.0,"pressure":858.0,"uv_index":9.65,"wind_gusts":30.6,"aqi":91,"pm10":30.9,"pm2_5":26.6,"mosquito_risk":3,"arthritis_risk":5,"migraine_risk":7,"frizz_risk":1,"updated_at":"2026-03-21T21:00:20.737611+05:30"},{"city":"Silchar","state":"Assam","latitude":24.8333,"longitude":92.7789,"temp":22.8,"humidity":78,"rain":0.0,"pressure":1009.0,"uv_index":6.8,"wind_gusts":22.3,"aqi":100,"pm10":52.4,"pm2_5":43.8,"mosquito_risk":3,"arthritis_risk":0,"migraine_risk":4,"frizz_risk":1,"updated_at":"2026-03-21T21:00:20.737618+05:30"},{"city":"Dibrugarh","state":"Assam","latitude":27.4728,"longitude":94.912,"temp":23.3,"humidity":83,"rain":0.0,"pressure":999.3,"uv_index":7.6,"wind_gusts":20.5,"aqi":90,"pm10":57.5,"pm2_5":48.3,"mosquito_risk":3,"arthritis_risk":5,"migraine_risk":7,"frizz_risk":1,"updated_at":"2026-03-21T21:00:20.737625+05:30"}]