[{"city":"Delhi","state":"Delhi","latitude":28.6139,"longitude":77.209,"temp":33.5,"humidity":28,"rain":0.0,"pressure":973.7,"uv_index":7.8,"wind_gusts":40.7,"aqi":523,"pm10":659.4,"pm2_5":160.7,"no2":59.1,"co":702.0,"o3":24.0,"so2":24.6,"mosquito_risk":0,"arthritis_risk":5,"migraine_risk":7,"frizz_risk":0,"updated_at":"2026-06-10T02:29:56.380510+05:30"},{"city":"Mumbai","state":"Maharashtra","latitude":19.076,"longitude":72.8777,"temp":29.8,"humidity":73,"rain":0.0,"pressure":1005.7,"uv_index":7.75,"wind_gusts":45.4,"aqi":77,"pm10":54.0,"pm2_5":22.0,"no2":3.9,"co":210.0,"o3":52.0,"so2":3.1,"mosquito_risk":7,"arthritis_risk":5,"migraine_risk":4,"frizz_risk":1,"updated_at":"2026-06-10T02:29:56.380556+05:30"},{"city":"Bangalore","state":"Karnataka","latitude":12.9716,"longitude":77.5946,"temp":21.1,"humidity":88,"rain":0.0,"pressure":910.3,"uv_index":8.4,"wind_gusts":49.3,"aqi":22,"pm10":3.6,"pm2_5":3.1,"no2":8.4,"co":173.0,"o3":41.0,"so2":3.5,"mosquito_risk":3,"arthritis_risk":5,"migraine_risk":7,"frizz_risk":1,"updated_at":"2026-06-10T02:29:56.380573+05:30"},{"city":"Hyderabad","state":"Telangana","latitude":17.385,"longitude":78.4867,"temp":25.3,"humidity":80,"rain":0.0,"pressure":949.9,"uv_index":9.1,"wind_gusts":44.3,"aqi":61,"pm10":10.0,"pm2_5":8.2,"no2":7.5,"co":200.0,"o3":70.0,"so2":3.3,"mosquito_risk":7,"arthritis_risk":5,"migraine_risk":7,"frizz_risk":1,"updated_at":"2026-06-10T02:29:56.380583+05:30"},{"city":"Chennai","state":"Tamil Nadu","latitude":13.0827,"longitude":80.2707,"temp":29.5,"humidity":67,"rain":0.0,"pressure":1003.9,"uv_index":6.6,"wind_gusts":44.6,"aqi":40,"pm10":9.7,"pm2_5":7.9,"no2":14.1,"co":286.0,"o3":46.0,"so2":8.6,"mosquito_risk":7,"arthritis_risk":5,"migraine_risk":4,"frizz_risk":1,"updated_at":"2026-06-10T02:29:56.380592+05:30"},{"city":"Kolkata","state":"West Bengal","latitude":22.5726,"longitude":88.3639,"temp":30.0,"humidity":91,"rain":0.0,"pressure":998.9,"uv_index":8.95,"wind_gusts":40.3,"aqi":137,"pm10":36.3,"pm2_5":31.3,"no2":10.4,"co":362.0,"o3":83.0,"so2":8.1,"mosquito_risk":7,"arthritis_risk":5,"migraine_risk":7,"frizz_risk":1,"updated_at":"2026-06-10T02:29:56.380600+05:30"},{"city":"Pune","state":"Maharashtra","latitude":18.5204,"longitude":73.8567,"temp":24.9,"humidity":86,"rain":0.0,"pressure":945.9,"uv_index":8.2,"wind_gusts":49.3,"aqi":49,"pm10":11.7,"pm2_5":5.6,"no2":5.8,"co":134.0,"o3":47.0,"so2":5.2,"mosquito_risk":3,"arthritis_risk":5,"migraine_risk":7,"frizz_risk":1,"updated_at":"2026-06-10T02:29:56.380607+05:30"},{"city":"Ahmedabad","state":"Gujarat","latitude":23.0225,"longitude":72.5714,"temp":31.7,"humidity":65,"rain":0.0,"pressure":996.9,"uv_index":8.05,"wind_gusts":45.4,"aqi":84,"pm10":39.2,"pm2_5":19.0,"no2":4.3,"co":148.0,"o3":58.0,"so2":4.2,"mosquito_risk":3,"arthritis_risk":5,"migraine_risk":7,"frizz_risk":1,"updated_at":"2026-06-10T02:29:56.380613+05:30"},{"city":"Jaipur","state":"Rajasthan","latitude":26.9124,"longitude":75.7873,"temp":32.2,"humidity":48,"rain":0.0,"pressure":953.1,"uv_index":8.25,"wind_gusts":46.4,"aqi":145,"pm10":254.3,"pm2_5":57.0,"no2":6.2,"co":202.0,"o3":68.0,"so2":4.3,"mosquito_risk":0,"arthritis_risk":5,"migraine_risk":7,"frizz_risk":1,"updated_at":"2026-06-10T02:29:56.380625+05:30"},{"city":"Lucknow","state":"Uttar Pradesh","latitude":26.8467,"longitude":80.9462,"temp":31.4,"humidity":51,"rain":0.0,"pressure":984.1,"uv_index":8.35,"wind_gusts":62.3,"aqi":187,"pm10":532.7,"pm2_5":146.7,"no2":36.7,"co":446.0,"o3":30.0,"so2":12.2,"mosquito_risk":0,"arthritis_risk":5,"migraine_risk":7,"frizz_risk":1,"updated_at":"2026-06-10T02:29:56.380632+05:30"},{"city":"Kanpur","state":"Uttar Pradesh","latitude":26.4499,"longitude":80.3319,"temp":32.1,"humidity":41,"rain":0.0,"pressure":982.7,"uv_index":7.45,"wind_gusts":49.7,"aqi":342,"pm10":372.5,"pm2_5":97.3,"no2":22.0,"co":256.0,"o3":43.0,"so2":7.6,"mosquito_risk":0,"arthritis_risk":5,"migraine_risk":7,"frizz_risk":1,"updated_at":"2026-06-10T02:29:56.380638+05:30"},{"city":"Chandigarh","state":"Chandigarh","latitude":30.7333,"longitude":76.7794,"temp":24.9,"humidity":59,"rain":0.0,"pressure":958.2,"uv_index":7.85,"wind_gusts":36.4,"aqi":83,"pm10":36.7,"pm2_5":34.3,"no2":43.5,"co":829.0,"o3":27.0,"so2":7.0,"mosquito_risk":0,"arthritis_risk":5,"migraine_risk":7,"frizz_risk":1,"updated_at":"2026-06-10T02:29:56.380645+05:30"},{"city":"Srinagar","state":"Jammu and Kashmir","latitude":34.0837,"longitude":74.7973,"temp":14.6,"humidity":88,"rain":0.0,"pressure":835.2,"uv_index":9.0,"wind_gusts":23.0,"aqi":72,"pm10":40.0,"pm2_5":36.1,"no2":41.1,"co":529.0,"o3":25.0,"so2":3.2,"mosquito_risk":3,"arthritis_risk":10,"migraine_risk":7,"frizz_risk":0,"updated_at":"2026-06-10T02:29:56.380653+05:30"},{"city":"Jammu","state":"Jammu and Kashmir","latitude":32.7266,"longitude":74.857,"temp":27.1,"humidity":49,"rain":0.0,"pressure":962.2,"uv_index":8.65,"wind_gusts":32.0,"aqi":73,"pm10":29.6,"pm2_5":27.9,"no2":32.0,"co":447.0,"o3":38.0,"so2":4.1,"mosquito_risk":4,"arthritis_risk":5,"migraine_risk":7,"frizz_risk":0,"updated_at":"2026-06-10T02:29:56.380659+05:30"},{"city":"Amritsar","state":"Punjab","latitude":31.634,"longitude":74.8723,"temp":33.1,"humidity":35,"rain":0.0,"pressure":970.0,"uv_index":8.5,"wind_gusts":24.5,"aqi":127,"pm10":74.7,"pm2_5":59.8,"no2":49.9,"co":576.0,"o3":33.0,"so2":10.8,"mosquito_risk":0,"arthritis_risk":5,"migraine_risk":7,"frizz_risk":0,"updated_at":"2026-06-10T02:29:56.380665+05:30"},{"city":"Ludhiana","state":"Punjab","latitude":30.901,"longitude":75.8573,"temp":30.6,"humidity":36,"rain":0.0,"pressure":968.2,"uv_index":8.05,"wind_gusts":22.0,"aqi":115,"pm10":75.9,"pm2_5":50.4,"no2":33.4,"co":1067.0,"o3":46.0,"so2":8.5,"mosquito_risk":0,"arthritis_risk":5,"migraine_risk":7,"frizz_risk":0,"updated_at":"2026-06-10T02:29:56.380672+05:30"},{"city":"Jalandhar","state":"Punjab","latitude":31.326,"longitude":75.5762,"temp":32.5,"humidity":31,"rain":0.0,"pressure":969.1,"uv_index":8.25,"wind_gusts":24.5,"aqi":111,"pm10":50.8,"pm2_5":41.3,"no2":30.2,"co":942.0,"o3":66.0,"so2":8.0,"mosquito_risk":0,"arthritis_risk":5,"migraine_risk":7,"frizz_risk":0,"updated_at":"2026-06-10T02:29:56.380679+05:30"},{"city":"Dehradun","state":"Uttarakhand","latitude":30.6284,"longitude":78.0322,"temp":14.8,"humidity":86,"rain":0.0,"pressure":822.9,"uv_index":8.3,"wind_gusts":43.9,"aqi":60,"pm10":21.8,"pm2_5":19.8,"no2":28.0,"co":232.0,"o3":33.0,"so2":0.7,"mosquito_risk":3,"arthritis_risk":10,"migraine_risk":7,"frizz_risk":0,"updated_at":"2026-06-10T02:29:56.380685+05:30"},{"city":"Shimla","state":"Himachal Pradesh","latitude":31.1048,"longitude":77.1734,"temp":14.6,"humidity":50,"rain":0.0,"pressure":778.2,"uv_index":8.35,"wind_gusts":47.5,"aqi":65,"pm10":32.1,"pm2_5":24.9,"no2":21.4,"co":255.0,"o3":77.0,"so2":1.8,"mosquito_risk":0,"arthritis_risk":5,"migraine_risk":7,"frizz_risk":0,"updated_at":"2026-06-10T02:29:56.380694+05:30"},{"city":"Manali","state":"Himachal Pradesh","latitude":32.2396,"longitude":77.1887,"temp":13.0,"humidity":62,"rain":0.0,"pressure":812.5,"uv_index":9.65,"wind_gusts":38.9,"aqi":39,"pm10":8.1,"pm2_5":7.1,"no2":59.5,"co":286.0,"o3":44.0,"so2":0.0,"mosquito_risk":3,"arthritis_risk":5,"migraine_risk":7,"frizz_risk":0,"updated_at":"2026-06-10T02:29:56.380701+05:30"},{"city":"Gurgaon","state":"Haryana","latitude":28.4595,"longitude":77.0266,"temp":31.7,"humidity":30,"rain":0.0,"pressure":972.2,"uv_index":7.9,"wind_gusts":42.5,"aqi":1368,"pm10":953.7,"pm2_5":159.3,"no2":42.7,"co":469.0,"o3":27.0,"so2":14.9,"mosquito_risk":0,"arthritis_risk":5,"migraine_risk":7,"frizz_risk":0,"updated_at":"2026-06-10T02:29:56.380707+05:30"},{"city":"Noida","state":"Uttar Pradesh","latitude":28.5355,"longitude":77.391,"temp":32.0,"humidity":34,"rain":0.0,"pressure":974.9,"uv_index":7.85,"wind_gusts":38.2,"aqi":1368,"pm10":953.7,"pm2_5":159.3,"no2":42.7,"co":1074.0,"o3":27.0,"so2":14.9,"mosquito_risk":0,"arthritis_risk":5,"migraine_risk":7,"frizz_risk":0,"updated_at":"2026-06-10T02:29:56.380713+05:30"},{"city":"Ghaziabad","state":"Uttar Pradesh","latitude":28.6692,"longitude":77.4538,"temp":33.6,"humidity":30,"rain":0.0,"pressure":973.2,"uv_index":7.8,"wind_gusts":37.8,"aqi":417,"pm10":705.9,"pm2_5":173.7,"no2":69.1,"co":940.0,"o3":24.0,"so2":28.9,"mosquito_risk":0,"arthritis_risk":5,"migraine_risk":7,"frizz_risk":0,"updated_at":"2026-06-10T02:29:56.380722+05:30"},{"city":"Faridabad","state":"Haryana","latitude":28.4089,"longitude":77.3178,"temp":33.0,"humidity":29,"rain":0.0,"pressure":974.4,"uv_index":7.85,"wind_gusts":45.4,"aqi":1368,"pm10":953.7,"pm2_5":159.3,"no2":42.7,"co":778.0,"o3":27.0,"so2":14.9,"mosquito_risk":0,"arthritis_risk":5,"migraine_risk":7,"frizz_risk":0,"updated_at":"2026-06-10T02:29:56.380728+05:30"},{"city":"Meerut","state":"Uttar Pradesh","latitude":28.9845,"longitude":77.7064,"temp":32.7,"humidity":33,"rain":0.0,"pressure":971.7,"uv_index":7.75,"wind_gusts":31.3,"aqi":417,"pm10":705.9,"pm2_5":173.7,"no2":69.1,"co":552.0,"o3":24.0,"so2":28.9,"mosquito_risk":0,"arthritis_risk":5,"migraine_risk":7,"frizz_risk":0,"updated_at":"2026-06-10T02:29:56.380734+05:30"},{"city":"Agra","state":"Uttar Pradesh","latitude":27.1767,"longitude":78.0081,"temp":32.3,"humidity":33,"rain":0.0,"pressure":978.6,"uv_index":8.15,"wind_gusts":45.0,"aqi":989,"pm10":666.8,"pm2_5":92.4,"no2":23.0,"co":477.0,"o3":44.0,"so2":6.6,"mosquito_risk":0,"arthritis_risk":5,"migraine_risk":7,"frizz_risk":0,"updated_at":"2026-06-10T02:29:56.380741+05:30"},{"city":"Varanasi","state":"Uttar Pradesh","latitude":25.3176,"longitude":82.9739,"temp":32.5,"humidity":41,"rain":0.0,"pressure":989.6,"uv_index":8.8,"wind_gusts":39.2,"aqi":106,"pm10":70.1,"pm2_5":35.3,"no2":16.9,"co":428.0,"o3":66.0,"so2":8.9,"mosquito_risk":0,"arthritis_risk":5,"migraine_risk":7,"frizz_risk":1,"updated_at":"2026-06-10T02:29:56.380748+05:30"},{"city":"Prayagraj","state":"Uttar Pradesh","latitude":25.4358,"longitude":81.8463,"temp":32.6,"humidity":47,"rain":0.0,"pressure":987.5,"uv_index":8.3,"wind_gusts":50.8,"aqi":103,"pm10":119.7,"pm2_5":46.7,"no2":14.0,"co":195.0,"o3":64.0,"so2":6.2,"mosquito_risk":0,"arthritis_risk":5,"migraine_risk":7,"frizz_risk":1,"updated_at":"2026-06-10T02:29:56.380754+05:30"},{"city":"Gorakhpur","state":"Uttar Pradesh","latitude":26.7606,"longitude":83.3732,"temp":28.9,"humidity":70,"rain":0.0,"pressure":989.2,"uv_index":8.7,"wind_gusts":40.0,"aqi":161,"pm10":115.0,"pm2_5":84.3,"no2":18.8,"co":585.0,"o3":101.0,"so2":15.9,"mosquito_risk":7,"arthritis_risk":5,"migraine_risk":7,"frizz_risk":1,"updated_at":"2026-06-10T02:29:56.380763+05:30"},{"city":"Bareilly","state":"Uttar Pradesh","latitude":28.367,"longitude":79.4304,"temp":29.3,"humidity":48,"rain":0.0,"pressure":977.4,"uv_index":8.1,"wind_gusts":35.6,"aqi":156,"pm10":135.5,"pm2_5":82.9,"no2":50.0,"co":620.0,"o3":57.0,"so2":18.4,"mosquito_risk":4,"arthritis_risk":5,"migraine_risk":7,"frizz_risk":1,"updated_at":"2026-06-10T02:29:56.380775+05:30"},{"city":"Aligarh","state":"Uttar Pradesh","latitude":27.8974,"longitude":78.088,"temp":31.2,"humidity":40,"rain":0.0,"pressure":976.0,"uv_index":7.85,"wind_gusts":37.1,"aqi":838,"pm10":399.5,"pm2_5":124.3,"no2":44.7,"co":550.0,"o3":23.0,"so2":10.2,"mosquito_risk":0,"arthritis_risk":5,"migraine_risk":7,"frizz_risk":0,"updated_at":"2026-06-10T02:29:56.380781+05:30"},{"city":"Moradabad","state":"Uttar Pradesh","latitude":28.8386,"longitude":78.7733,"temp":31.6,"humidity":46,"rain":0.0,"pressure":974.2,"uv_index":7.95,"wind_gusts":31.3,"aqi":167,"pm10":174.2,"pm2_5":107.6,"no2":74.9,"co":773.0,"o3":22.0,"so2":20.1,"mosquito_risk":0,"arthritis_risk":5,"migraine_risk":7,"frizz_risk":1,"updated_at":"2026-06-10T02:29:56.380804+05:30"},{"city":"Saharanpur","state":"Uttar Pradesh","latitude":29.9637,"longitude":77.546,"temp":28.1,"humidity":48,"rain":0.0,"pressure":966.0,"uv_index":7.5,"wind_gusts":26.3,"aqi":138,"pm10":210.0,"pm2_5":74.7,"no2":40.6,"co":548.0,"o3":44.0,"so2":11.0,"mosquito_risk":4,"arthritis_risk":5,"migraine_risk":7,"frizz_risk":0,"updated_at":"2026-06-10T02:29:56.380811+05:30"},{"city":"Jhansi","state":"Uttar Pradesh","latitude":25.4484,"longitude":78.5685,"temp":32.4,"humidity":35,"rain":0.0,"pressure":970.4,"uv_index":8.5,"wind_gusts":47.5,"aqi":79,"pm10":29.5,"pm2_5":20.3,"no2":6.7,"co":158.0,"o3":80.0,"so2":8.4,"mosquito_risk":0,"arthritis_risk":5,"migraine_risk":7,"frizz_risk":0,"updated_at":"2026-06-10T02:29:59.654730+05:30"},{"city":"Surat","state":"Gujarat","latitude":21.1702,"longitude":72.8311,"temp":28.9,"humidity":85,"rain":0.0,"pressure":1002.8,"uv_index":7.55,"wind_gusts":51.8,"aqi":84,"pm10":45.6,"pm2_5":24.5,"no2":12.4,"co":211.0,"o3":45.0,"so2":21.5,"mosquito_risk":7,"arthritis_risk":5,"migraine_risk":4,"frizz_risk":1,"updated_at":"2026-06-10T02:29:59.654765+05:30"},{"city":"Vadodara","state":"Gujarat","latitude":22.3072,"longitude":73.1812,"temp":30.8,"humidity":71,"rain":0.0,"pressure":999.7,"uv_index":8.0,"wind_gusts":49.3,"aqi":86,"pm10":33.1,"pm2_5":21.9,"no2":13.0,"co":156.0,"o3":40.0,"so2":13.3,"mosquito_risk":3,"arthritis_risk":5,"migraine_risk":7,"frizz_risk":1,"updated_at":"2026-06-10T02:29:59.654776+05:30"},{"city":"Rajkot","state":"Gujarat","latitude":22.3039,"longitude":70.8022,"temp":29.7,"humidity":71,"rain":0.0,"pressure":989.5,"uv_index":7.55,"wind_gusts":49.3,"aqi":76,"pm10":49.0,"pm2_5":23.8,"no2":3.3,"co":102.0,"o3":55.0,"so2":3.6,"mosquito_risk":7,"arthritis_risk":5,"migraine_risk":7,"frizz_risk":1,"updated_at":"2026-06-10T02:29:59.654802+05:30"},{"city":"Thane","state":"Maharashtra","latitude":19.2183,"longitude":72.9781,"temp":28.7,"humidity":83,"rain":0.0,"pressure":1005.1,"uv_index":7.7,"wind_gusts":42.1,"aqi":77,"pm10":54.0,"pm2_5":22.0,"no2":3.9,"co":184.0,"o3":52.0,"so2":3.1,"mosquito_risk":7,"arthritis_risk":5,"migraine_risk":4,"frizz_risk":1,"updated_at":"2026-06-10T02:29:59.654811+05:30"},{"city":"Nagpur","state":"Maharashtra","latitude":21.1458,"longitude":79.0882,"temp":32.8,"humidity":45,"rain":0.0,"pressure":967.5,"uv_index":7.1,"wind_gusts":44.3,"aqi":91,"pm10":55.9,"pm2_5":39.0,"no2":27.9,"co":251.0,"o3":36.0,"so2":11.4,"mosquito_risk":0,"arthritis_risk":5,"migraine_risk":7,"frizz_risk":1,"updated_at":"2026-06-10T02:29:59.654818+05:30"},{"city":"Nashik","state":"Maharashtra","latitude":19.9975,"longitude":73.7898,"temp":24.7,"humidity":87,"rain":0.0,"pressure":942.8,"uv_index":8.05,"wind_gusts":51.1,"aqi":68,"pm10":39.1,"pm2_5":18.0,"no2":4.5,"co":125.0,"o3":46.0,"so2":2.4,"mosquito_risk":3,"arthritis_risk":5,"migraine_risk":7,"frizz_risk":1,"updated_at":"2026-06-10T02:29:59.654825+05:30"},{"city":"Aurangabad","state":"Maharashtra","latitude":19.8762,"longitude":75.3433,"temp":26.1,"humidity":77,"rain":0.0,"pressure":941.2,"uv_index":9.0,"wind_gusts":50.8,"aqi":67,"pm10":40.5,"pm2_5":20.8,"no2":7.5,"co":123.0,"o3":51.0,"so2":8.0,"mosquito_risk":7,"arthritis_risk":5,"migraine_risk":7,"frizz_risk":1,"updated_at":"2026-06-10T02:29:59.654832+05:30"},{"city":"Solapur","state":"Maharashtra","latitude":17.6599,"longitude":75.9064,"temp":26.6,"humidity":75,"rain":0.0,"pressure":954.8,"uv_index":8.9,"wind_gusts":45.4,"aqi":46,"pm10":11.8,"pm2_5":7.9,"no2":8.9,"co":170.0,"o3":38.0,"so2":2.8,"mosquito_risk":7,"arthritis_risk":5,"migraine_risk":7,"frizz_risk":1,"updated_at":"2026-06-10T02:29:59.654840+05:30"},{"city":"Kolhapur","state":"Maharashtra","latitude":16.705,"longitude":74.2433,"temp":23.1,"humidity":93,"rain":0.0,"pressure":946.3,"uv_index":7.15,"wind_gusts":52.9,"aqi":23,"pm10":5.5,"pm2_5":4.7,"no2":4.7,"co":127.0,"o3":44.0,"so2":1.5,"mosquito_risk":3,"arthritis_risk":5,"migraine_risk":7,"frizz_risk":1,"updated_at":"2026-06-10T02:29:59.654847+05:30"},{"city":"Goa","state":"Goa","latitude":15.2993,"longitude":74.124,"temp":25.0,"humidity":96,"rain":0.0,"pressure":997.4,"uv_index":8.0,"wind_gusts":34.9,"aqi":31,"pm10":23.2,"pm2_5":13.2,"no2":5.4,"co":241.0,"o3":50.0,"so2":1.3,"mosquito_risk":7,"arthritis_risk":5,"migraine_risk":7,"frizz_risk":1,"updated_at":"2026-06-10T02:29:59.654854+05:30"},{"city":"Jodhpur","state":"Rajasthan","latitude":26.2389,"longitude":73.0243,"temp":32.8,"humidity":52,"rain":0.0,"pressure":975.6,"uv_index":8.45,"wind_gusts":49.7,"aqi":160,"pm10":180.7,"pm2_5":44.6,"no2":4.1,"co":134.0,"o3":64.0,"so2":2.0,"mosquito_risk":0,"arthritis_risk":5,"migraine_risk":7,"frizz_risk":1,"updated_at":"2026-06-10T02:29:59.654861+05:30"},{"city":"Udaipur","state":"Rajasthan","latitude":24.5854,"longitude":73.7125,"temp":28.0,"humidity":63,"rain":0.0,"pressure":941.3,"uv_index":8.8,"wind_gusts":43.2,"aqi":85,"pm10":32.8,"pm2_5":20.4,"no2":5.1,"co":164.0,"o3":64.0,"so2":3.4,"mosquito_risk":7,"arthritis_risk":5,"migraine_risk":7,"frizz_risk":1,"updated_at":"2026-06-10T02:29:59.654869+05:30"},{"city":"Kota","state":"Rajasthan","latitude":25.2138,"longitude":75.8648,"temp":31.5,"humidity":53,"rain":0.0,"pressure":972.1,"uv_index":8.4,"wind_gusts":36.4,"aqi":76,"pm10":50.8,"pm2_5":31.2,"no2":5.1,"co":170.0,"o3":88.0,"so2":7.9,"mosquito_risk":0,"arthritis_risk":5,"migraine_risk":7,"frizz_risk":1,"updated_at":"2026-06-10T02:29:59.654876+05:30"},{"city":"Bikaner","state":"Rajasthan","latitude":28.0229,"longitude":73.3119,"temp":33.8,"humidity":46,"rain":0.0,"pressure":973.5,"uv_index":8.5,"wind_gusts":46.4,"aqi":136,"pm10":135.5,"pm2_5":46.4,"no2":2.4,"co":118.0,"o3":72.0,"so2":4.7,"mosquito_risk":0,"arthritis_risk":5,"migraine_risk":7,"frizz_risk":1,"updated_at":"2026-06-10T02:29:59.654883+05:30"},{"city":"Ajmer","state":"Rajasthan","latitude":26.4499,"longitude":74.6399,"temp":29.7,"humidity":59,"rain":0.0,"pressure":948.3,"uv_index":8.35,"wind_gusts":54.4,"aqi":77,"pm10":39.7,"pm2_5":21.8,"no2":5.0,"co":156.0,"o3":70.0,"so2":3.8,"mosquito_risk":4,"arthritis_risk":5,"migraine_risk":7,"frizz_risk":1,"updated_at":"2026-06-10T02:29:59.654890+05:30"},{"city":"Gwalior","state":"Madhya Pradesh","latitude":26.2183,"longitude":78.1828,"temp":33.4,"humidity":27,"rain":0.0,"pressure":975.2,"uv_index":8.3,"wind_gusts":54.0,"aqi":85,"pm10":22.2,"pm2_5":16.3,"no2":6.5,"co":156.0,"o3":71.0,"so2":4.3,"mosquito_risk":0,"arthritis_risk":5,"migraine_risk":7,"frizz_risk":0,"updated_at":"2026-06-10T02:29:59.654898+05:30"},{"city":"Indore","state":"Madhya Pradesh","latitude":22.7196,"longitude":75.8577,"temp":27.5,"humidity":67,"rain":0.0,"pressure":944.3,"uv_index":8.6,"wind_gusts":45.7,"aqi":82,"pm10":48.8,"pm2_5":32.0,"no2":5.7,"co":192.0,"o3":97.0,"so2":11.6,"mosquito_risk":7,"arthritis_risk":5,"migraine_risk":7,"frizz_risk":1,"updated_at":"2026-06-10T02:29:59.654905+05:30"},{"city":"Bhopal","state":"Madhya Pradesh","latitude":23.2599,"longitude":77.4126,"temp":30.4,"humidity":53,"rain":0.0,"pressure":948.4,"uv_index":8.65,"wind_gusts":38.9,"aqi":82,"pm10":36.0,"pm2_5":27.1,"no2":9.1,"co":246.0,"o3":60.0,"so2":4.7,"mosquito_risk":0,"arthritis_risk":5,"migraine_risk":7,"frizz_risk":1,"updated_at":"2026-06-10T02:29:59.654912+05:30"},{"city":"Jabalpur","state":"Madhya Pradesh","latitude":23.1815,"longitude":79.9864,"temp":28.6,"humidity":63,"rain":0.0,"pressure":955.4,"uv_index":8.85,"wind_gusts":40.3,"aqi":78,"pm10":44.6,"pm2_5":28.5,"no2":10.9,"co":244.0,"o3":63.0,"so2":4.9,"mosquito_risk":7,"arthritis_risk":5,"migraine_risk":7,"frizz_risk":1,"updated_at":"2026-06-10T02:29:59.654919+05:30"},{"city":"Ujjain","state":"Madhya Pradesh","latitude":23.1765,"longitude":75.7885,"temp":27.7,"humidity":68,"rain":0.0,"pressure":949.6,"uv_index":8.55,"wind_gusts":51.1,"aqi":82,"pm10":47.4,"pm2_5":31.0,"no2":4.5,"co":187.0,"o3":88.0,"so2":10.3,"mosquito_risk":7,"arthritis_risk":5,"migraine_risk":7,"frizz_risk":1,"updated_at":"2026-06-10T02:29:59.654927+05:30"},{"city":"Visakhapatnam","state":"Andhra Pradesh","latitude":17.6868,"longitude":83.2185,"temp":29.3,"humidity":80,"rain":0.0,"pressure":996.8,"uv_index":8.6,"wind_gusts":34.6,"aqi":106,"pm10":37.3,"pm2_5":31.5,"no2":27.4,"co":475.0,"o3":63.0,"so2":37.5,"mosquito_risk":7,"arthritis_risk":5,"migraine_risk":7,"frizz_risk":1,"updated_at":"2026-06-10T02:29:59.654933+05:30"},{"city":"Vijayawada","state":"Andhra Pradesh","latitude":16.5062,"longitude":80.648,"temp":31.7,"humidity":57,"rain":0.0,"pressure":997.5,"uv_index":8.65,"wind_gusts":37.8,"aqi":68,"pm10":23.7,"pm2_5":19.6,"no2":10.4,"co":194.0,"o3":66.0,"so2":3.7,"mosquito_risk":0,"arthritis_risk":5,"migraine_risk":7,"frizz_risk":1,"updated_at":"2026-06-10T02:29:59.654940+05:30"},{"city":"Guntur","state":"Andhra Pradesh","latitude":16.3067,"longitude":80.4365,"temp":30.9,"humidity":60,"rain":0.0,"pressure":998.9,"uv_index":8.5,"wind_gusts":40.0,"aqi":64,"pm10":20.1,"pm2_5":16.2,"no2":10.6,"co":200.0,"o3":64.0,"so2":4.4,"mosquito_risk":0,"arthritis_risk":5,"migraine_risk":7,"frizz_risk":1,"updated_at":"2026-06-10T02:29:59.654947+05:30"},{"city":"Nellore","state":"Andhra Pradesh","latitude":14.4426,"longitude":79.9865,"temp":30.0,"humidity":63,"rain":0.0,"pressure":1002.2,"uv_index":8.15,"wind_gusts":45.4,"aqi":40,"pm10":11.2,"pm2_5":8.5,"no2":8.3,"co":155.0,"o3":55.0,"so2":4.9,"mosquito_risk":7,"arthritis_risk":5,"migraine_risk":4,"frizz_risk":1,"updated_at":"2026-06-10T02:29:59.654955+05:30"},{"city":"Kurnool","state":"Andhra Pradesh","latitude":15.8281,"longitude":78.0373,"temp":26.8,"humidity":78,"rain":0.0,"pressure":974.7,"uv_index":7.65,"wind_gusts":49.7,"aqi":34,"pm10":6.1,"pm2_5":5.2,"no2":10.9,"co":152.0,"o3":38.0,"so2":3.9,"mosquito_risk":7,"arthritis_risk":5,"migraine_risk":7,"frizz_risk":1,"updated_at":"2026-06-10T02:29:59.654962+05:30"},{"city":"Kakinada","state":"Andhra Pradesh","latitude":16.9891,"longitude":82.2475,"temp":30.7,"humidity":63,"rain":0.0,"pressure":1001.3,"uv_index":9.05,"wind_gusts":40.0,"aqi":70,"pm10":28.3,"pm2_5":22.6,"no2":8.2,"co":366.0,"o3":86.0,"so2":6.3,"mosquito_risk":3,"arthritis_risk":5,"migraine_risk":4,"frizz_risk":1,"updated_at":"2026-06-10T02:29:59.654969+05:30"},{"city":"Tirupati","state":"Andhra Pradesh","latitude":13.6288,"longitude":79.4192,"temp":29.2,"humidity":59,"rain":0.0,"pressure":988.0,"uv_index":7.65,"wind_gusts":40.0,"aqi":32,"pm10":10.9,"pm2_5":7.8,"no2":10.4,"co":138.0,"o3":42.0,"so2":2.5,"mosquito_risk":4,"arthritis_risk":5,"migraine_risk":7,"frizz_risk":1,"updated_at":"2026-06-10T02:29:59.654976+05:30"},{"city":"Warangal","state":"Telangana","latitude":17.9689,"longitude":79.5941,"temp":28.6,"humidity":69,"rain":0.0,"pressure":974.1,"uv_index":9.0,"wind_gusts":43.2,"aqi":89,"pm10":22.8,"pm2_5":16.9,"no2":10.9,"co":186.0,"o3":72.0,"so2":4.4,"mosquito_risk":7,"arthritis_risk":5,"migraine_risk":7,"frizz_risk":1,"updated_at":"2026-06-10T02:29:59.654982+05:30"},{"city":"Nizamabad","state":"Telangana","latitude":18.6725,"longitude":78.0941,"temp":28.8,"humidity":63,"rain":0.0,"pressure":961.1,"uv_index":8.7,"wind_gusts":42.1,"aqi":85,"pm10":18.5,"pm2_5":13.4,"no2":8.0,"co":181.0,"o3":68.0,"so2":2.6,"mosquito_risk":7,"arthritis_risk":5,"migraine_risk":7,"frizz_risk":1,"updated_at":"2026-06-10T02:29:59.654988+05:30"},{"city":"Mysore","state":"Karnataka","latitude":12.2958,"longitude":76.6396,"temp":21.5,"humidity":93,"rain":0.0,"pressure":927.8,"uv_index":2.9,"wind_gusts":46.4,"aqi":23,"pm10":2.3,"pm2_5":2.1,"no2":5.6,"co":125.0,"o3":44.0,"so2":1.7,"mosquito_risk":3,"arthritis_risk":5,"migraine_risk":3,"frizz_risk":1,"updated_at":"2026-06-10T02:29:59.654995+05:30"},{"city":"Mangalore","state":"Karnataka","latitude":12.9141,"longitude":74.856,"temp":24.1,"humidity":98,"rain":0.0,"pressure":1007.1,"uv_index":6.55,"wind_gusts":36.4,"aqi":27,"pm10":11.5,"pm2_5":7.5,"no2":5.3,"co":258.0,"o3":42.0,"so2":1.4,"mosquito_risk":3,"arthritis_risk":5,"migraine_risk":4,"frizz_risk":1,"updated_at":"2026-06-10T02:29:59.655001+05:30"},{"city":"Hubli-Dharwad","state":"Karnataka","latitude":15.3647,"longitude":75.124,"temp":22.1,"humidity":97,"rain":0.0,"pressure":939.6,"uv_index":6.3,"wind_gusts":44.6,"aqi":20,"pm10":2.1,"pm2_5":2.0,"no2":5.3,"co":125.0,"o3":42.0,"so2":0.9,"mosquito_risk":3,"arthritis_risk":5,"migraine_risk":7,"frizz_risk":1,"updated_at":"2026-06-10T02:29:59.655008+05:30"},{"city":"Belgaum","state":"Karnataka","latitude":15.8497,"longitude":74.4977,"temp":21.5,"humidity":96,"rain":0.0,"pressure":924.1,"uv_index":8.3,"wind_gusts":50.4,"aqi":22,"pm10":3.1,"pm2_5":2.6,"no2":3.7,"co":116.0,"o3":47.0,"so2":1.3,"mosquito_risk":3,"arthritis_risk":5,"migraine_risk":7,"frizz_risk":1,"updated_at":"2026-06-10T02:31:10.562938+05:30"},{"city":"Coimbatore","state":"Tamil Nadu","latitude":11.0168,"longitude":76.9558,"temp":22.7,"humidity":96,"rain":0.0,"pressure":961.1,"uv_index":7.55,"wind_gusts":54.0,"aqi":20,"pm10":2.1,"pm2_5":1.9,"no2":4.3,"co":192.0,"o3":43.0,"so2":2.2,"mosquito_risk":3,"arthritis_risk":5,"migraine_risk":7,"frizz_risk":1,"updated_at":"2026-06-10T02:31:10.562973+05:30"},{"city":"Madurai","state":"Tamil Nadu","latitude":9.9252,"longitude":78.1198,"temp":29.0,"humidity":64,"rain":0.0,"pressure":992.5,"uv_index":8.05,"wind_gusts":44.3,"aqi":23,"pm10":4.7,"pm2_5":4.2,"no2":7.0,"co":127.0,"o3":34.0,"so2":3.1,"mosquito_risk":7,"arthritis_risk":5,"migraine_risk":7,"frizz_risk":1,"updated_at":"2026-06-10T02:31:10.562984+05:30"},{"city":"Trichy","state":"Tamil Nadu","latitude":10.7905,"longitude":78.7047,"temp":29.0,"humidity":65,"rain":0.0,"pressure":998.9,"uv_index":6.2,"wind_gusts":60.1,"aqi":20,"pm10":4.0,"pm2_5":3.8,"no2":8.3,"co":103.0,"o3":34.0,"so2":3.4,"mosquito_risk":7,"arthritis_risk":5,"migraine_risk":7,"frizz_risk":1,"updated_at":"2026-06-10T02:31:10.562994+05:30"},{"city":"Salem","state":"Tamil Nadu","latitude":11.6643,"longitude":78.146,"temp":26.1,"humidity":76,"rain":0.0,"pressure":976.7,"uv_index":7.75,"wind_gusts":45.0,"aqi":25,"pm10":7.9,"pm2_5":7.4,"no2":15.1,"co":237.0,"o3":32.0,"so2":9.7,"mosquito_risk":7,"arthritis_risk":5,"migraine_risk":7,"frizz_risk":1,"updated_at":"2026-06-10T02:31:10.563003+05:30"},{"city":"Tirunelveli","state":"Tamil Nadu","latitude":8.7139,"longitude":77.7567,"temp":26.7,"humidity":82,"rain":0.0,"pressure":1003.7,"uv_index":8.65,"wind_gusts":43.6,"aqi":18,"pm10":3.9,"pm2_5":3.1,"no2":4.7,"co":172.0,"o3":35.0,"so2":1.4,"mosquito_risk":7,"arthritis_risk":5,"migraine_risk":4,"frizz_risk":1,"updated_at":"2026-06-10T02:31:10.563011+05:30"},{"city":"Vellore","state":"Tamil Nadu","latitude":12.9165,"longitude":79.1325,"temp":29.2,"humidity":55,"rain":0.0,"pressure":982.1,"uv_index":8.55,"wind_gusts":49.7,"aqi":27,"pm10":6.4,"pm2_5":4.4,"no2":7.1,"co":165.0,"o3":45.0,"so2":3.2,"mosquito_risk":4,"arthritis_risk":5,"migraine_risk":7,"frizz_risk":1,"updated_at":"2026-06-10T02:31:10.563019+05:30"},{"city":"Erode","state":"Tamil Nadu","latitude":11.341,"longitude":77.7172,"temp":25.3,"humidity":81,"rain":0.0,"pressure":988.7,"uv_index":7.5,"wind_gusts":42.1,"aqi":20,"pm10":7.7,"pm2_5":7.3,"no2":13.7,"co":161.0,"o3":32.0,"so2":4.1,"mosquito_risk":7,"arthritis_risk":5,"migraine_risk":7,"frizz_risk":1,"updated_at":"2026-06-10T02:31:10.563027+05:30"},{"city":"Kochi","state":"Kerala","latitude":9.9312,"longitude":76.2673,"temp":26.1,"humidity":93,"rain":0.0,"pressure":1009.7,"uv_index":7.7,"wind_gusts":41.8,"aqi":32,"pm10":9.0,"pm2_5":6.2,"no2":7.1,"co":89.0,"o3":40.0,"so2":2.4,"mosquito_risk":7,"arthritis_risk":0,"migraine_risk":4,"frizz_risk":1,"updated_at":"2026-06-10T02:31:10.563034+05:30"},{"city":"Thiruvananthapuram","state":"Kerala","latitude":8.5241,"longitude":76.9366,"temp":26.0,"humidity":91,"rain":0.0,"pressure":1009.5,"uv_index":8.2,"wind_gusts":45.4,"aqi":30,"pm10":12.5,"pm2_5":6.3,"no2":1.2,"co":83.0,"o3":51.0,"so2":0.4,"mosquito_risk":7,"arthritis_risk":0,"migraine_risk":4,"frizz_risk":1,"updated_at":"2026-06-10T02:31:10.563041+05:30"},{"city":"Kozhikode","state":"Kerala","latitude":11.2588,"longitude":75.7804,"temp":24.1,"humidity":95,"rain":0.2,"pressure":1008.7,"uv_index":8.15,"wind_gusts":38.5,"aqi":27,"pm10":9.9,"pm2_5":4.4,"no2":0.9,"co":298.0,"o3":60.0,"so2":0.4,"mosquito_risk":6,"arthritis_risk":0,"migraine_risk":4,"frizz_risk":1,"updated_at":"2026-06-10T02:31:10.563048+05:30"},{"city":"Thrissur","state":"Kerala","latitude":10.5276,"longitude":76.2144,"temp":24.3,"humidity":99,"rain":0.0,"pressure":1007.9,"uv_index":6.45,"wind_gusts":42.1,"aqi":31,"pm10":8.2,"pm2_5":5.9,"no2":5.6,"co":276.0,"o3":43.0,"so2":1.8,"mosquito_risk":3,"arthritis_risk":5,"migraine_risk":4,"frizz_risk":1,"updated_at":"2026-06-10T02:31:10.563055+05:30"},{"city":"Kannur","state":"Kerala","latitude":11.8745,"longitude":75.3704,"temp":24.6,"humidity":98,"rain":0.2,"pressure":1007.8,"uv_index":8.0,"wind_gusts":37.4,"aqi":24,"pm10":6.6,"pm2_5":3.4,"no2":5.5,"co":258.0,"o3":43.0,"so2":1.0,"mosquito_risk":6,"arthritis_risk":5,"migraine_risk":4,"frizz_risk":1,"updated_at":"2026-06-10T02:31:10.563063+05:30"},{"city":"Patna","state":"Bihar","latitude":25.5941,"longitude":85.1376,"temp":28.2,"humidity":78,"rain":0.0,"pressure":992.3,"uv_index":8.85,"wind_gusts":45.7,"aqi":167,"pm10":68.9,"pm2_5":59.1,"no2":17.6,"co":680.0,"o3":81.0,"so2":13.9,"mosquito_risk":7,"arthritis_risk":5,"migraine_risk":7,"frizz_risk":1,"updated_at":"2026-06-10T02:31:10.563071+05:30"},{"city":"Gaya","state":"Bihar","latitude":24.7914,"longitude":85.0002,"temp":29.8,"humidity":46,"rain":0.0,"pressure":985.8,"uv_index":8.8,"wind_gusts":24.1,"aqi":151,"pm10":136.0,"pm2_5":51.7,"no2":13.4,"co":251.0,"o3":95.0,"so2":11.4,"mosquito_risk":4,"arthritis_risk":5,"migraine_risk":7,"frizz_risk":1,"updated_at":"2026-06-10T02:31:10.563077+05:30"},{"city":"Muzaffarpur","state":"Bihar","latitude":26.1209,"longitude":85.3647,"temp":27.5,"humidity":82,"rain":0.0,"pressure":992.8,"uv_index":8.85,"wind_gusts":36.7,"aqi":167,"pm10":61.5,"pm2_5":54.4,"no2":10.3,"co":651.0,"o3":114.0,"so2":12.0,"mosquito_risk":7,"arthritis_risk":5,"migraine_risk":7,"frizz_risk":1,"updated_at":"2026-06-10T02:31:10.563085+05:30"},{"city":"Bhagalpur","state":"Bihar","latitude":25.2425,"longitude":87.0117,"temp":28.4,"humidity":90,"rain":0.0,"pressure":993.8,"uv_index":8.85,"wind_gusts":40.3,"aqi":155,"pm10":79.6,"pm2_5":71.2,"no2":12.8,"co":538.0,"o3":102.0,"so2":18.7,"mosquito_risk":7,"arthritis_risk":5,"migraine_risk":7,"frizz_risk":1,"updated_at":"2026-06-10T02:31:10.563092+05:30"},{"city":"Ranchi","state":"Jharkhand","latitude":23.3441,"longitude":85.3096,"temp":25.6,"humidity":65,"rain":0.0,"pressure":931.8,"uv_index":8.3,"wind_gusts":33.5,"aqi":145,"pm10":190.9,"pm2_5":76.6,"no2":30.7,"co":296.0,"o3":50.0,"so2":7.9,"mosquito_risk":7,"arthritis_risk":5,"migraine_risk":7,"frizz_risk":1,"updated_at":"2026-06-10T02:31:10.563099+05:30"},{"city":"Jamshedpur","state":"Jharkhand","latitude":22.8046,"longitude":86.2029,"temp":27.8,"humidity":76,"rain":0.0,"pressure":984.1,"uv_index":9.05,"wind_gusts":30.2,"aqi":152,"pm10":74.5,"pm2_5":57.3,"no2":26.1,"co":419.0,"o3":71.0,"so2":31.3,"mosquito_risk":7,"arthritis_risk":5,"migraine_risk":7,"frizz_risk":1,"updated_at":"2026-06-10T02:31:10.563105+05:30"},{"city":"Dhanbad","state":"Jharkhand","latitude":23.7957,"longitude":86.4304,"temp":28.5,"humidity":74,"rain":0.0,"pressure":972.8,"uv_index":9.05,"wind_gusts":32.8,"aqi":165,"pm10":170.0,"pm2_5":118.5,"no2":76.0,"co":333.0,"o3":16.0,"so2":185.9,"mosquito_risk":7,"arthritis_risk":5,"migraine_risk":7,"frizz_risk":1,"updated_at":"2026-06-10T02:31:10.563113+05:30"},{"city":"Bokaro","state":"Jharkhand","latitude":23.6693,"longitude":86.1511,"temp":28.6,"humidity":66,"rain":0.0,"pressure":976.5,"uv_index":8.9,"wind_gusts":30.6,"aqi":168,"pm10":200.7,"pm2_5":125.7,"no2":69.3,"co":304.0,"o3":2.0,"so2":122.1,"mosquito_risk":7,"arthritis_risk":5,"migraine_risk":7,"frizz_risk":1,"updated_at":"2026-06-10T02:31:10.563121+05:30"},{"city":"Bhubaneswar","state":"Odisha","latitude":20.2961,"longitude":85.8245,"temp":28.6,"humidity":83,"rain":0.0,"pressure":995.5,"uv_index":9.05,"wind_gusts":21.2,"aqi":110,"pm10":44.4,"pm2_5":39.6,"no2":8.6,"co":356.0,"o3":123.0,"so2":10.6,"mosquito_risk":7,"arthritis_risk":5,"migraine_risk":7,"frizz_risk":1,"updated_at":"2026-06-10T02:31:10.563128+05:30"},{"city":"Cuttack","state":"Odisha","latitude":20.4625,"longitude":85.8828,"temp":28.6,"humidity":85,"rain":0.0,"pressure":997.4,"uv_index":9.1,"wind_gusts":22.3,"aqi":110,"pm10":44.4,"pm2_5":39.6,"no2":8.6,"co":367.0,"o3":123.0,"so2":10.6,"mosquito_risk":7,"arthritis_risk":5,"migraine_risk":7,"frizz_risk":1,"updated_at":"2026-06-10T02:31:10.563135+05:30"},{"city":"Rourkela","state":"Odisha","latitude":22.2604,"longitude":84.8536,"temp":28.7,"humidity":73,"rain":0.0,"pressure":978.7,"uv_index":9.0,"wind_gusts":34.2,"aqi":129,"pm10":75.9,"pm2_5":50.5,"no2":22.2,"co":406.0,"o3":67.0,"so2":24.0,"mosquito_risk":7,"arthritis_risk":5,"migraine_risk":7,"frizz_risk":1,"updated_at":"2026-06-10T02:31:10.563142+05:30"},{"city":"Raipur","state":"Chhattisgarh","latitude":21.2514,"longitude":81.6296,"temp":33.2,"humidity":44,"rain":0.0,"pressure":969.1,"uv_index":7.5,"wind_gusts":36.7,"aqi":118,"pm10":49.0,"pm2_5":38.4,"no2":18.1,"co":514.0,"o3":82.0,"so2":35.4,"mosquito_risk":0,"arthritis_risk":5,"migraine_risk":7,"frizz_risk":1,"updated_at":"2026-06-10T02:31:10.563149+05:30"},{"city":"Bhilai","state":"Chhattisgarh","latitude":21.1938,"longitude":81.3509,"temp":32.0,"humidity":49,"rain":0.0,"pressure":969.5,"uv_index":8.95,"wind_gusts":36.0,"aqi":110,"pm10":48.5,"pm2_5":38.1,"no2":17.4,"co":616.0,"o3":79.0,"so2":32.6,"mosquito_risk":0,"arthritis_risk":5,"migraine_risk":7,"frizz_risk":1,"updated_at":"2026-06-10T02:31:10.563156+05:30"},{"city":"Guwahati","state":"Assam","latitude":26.1158,"longitude":91.7086,"temp":24.8,"humidity":97,"rain":0.0,"pressure":996.8,"uv_index":8.65,"wind_gusts":35.3,"aqi":85,"pm10":35.9,"pm2_5":27.7,"no2":6.3,"co":294.0,"o3":92.0,"so2":5.1,"mosquito_risk":3,"arthritis_risk":5,"migraine_risk":7,"frizz_risk":1,"updated_at":"2026-06-10T02:31:10.563162+05:30"},{"city":"Agartala","state":"Tripura","latitude":23.8315,"longitude":91.2868,"temp":25.0,"humidity":99,"rain":0.0,"pressure":1001.4,"uv_index":8.25,"wind_gusts":41.0,"aqi":72,"pm10":22.5,"pm2_5":16.6,"no2":8.7,"co":209.0,"o3":76.0,"so2":2.2,"mosquito_risk":7,"arthritis_risk":5,"migraine_risk":4,"frizz_risk":1,"updated_at":"2026-06-10T02:31:10.563169+05:30"},{"city":"Shillong","state":"Meghalaya","latitude":25.5788,"longitude":91.8933,"temp":19.1,"humidity":93,"rain":0.0,"pressure":853.4,"uv_index":7.7,"wind_gusts":34.6,"aqi":49,"pm10":8.0,"pm2_5":5.6,"no2":3.6,"co":212.0,"o3":93.0,"so2":3.4,"mosquito_risk":3,"arthritis_risk":10,"migraine_risk":7,"frizz_risk":1,"updated_at":"2026-06-10T02:31:10.563176+05:30"},{"city":"Imphal","state":"Manipur","latitude":24.817,"longitude":93.9368,"temp":22.6,"humidity":96,"rain":0.0,"pressure":919.3,"uv_index":8.2,"wind_gusts":38.2,"aqi":76,"pm10":49.6,"pm2_5":41.6,"no2":20.4,"co":892.0,"o3":31.0,"so2":3.8,"mosquito_risk":3,"arthritis_risk":5,"migraine_risk":7,"frizz_risk":1,"updated_at":"2026-06-10T02:31:10.563183+05:30"},{"city":"Aizawl","state":"Mizoram","latitude":23.7271,"longitude":92.7176,"temp":18.7,"humidity":93,"rain":0.0,"pressure":887.7,"uv_index":8.95,"wind_gusts":45.7,"aqi":60,"pm10":27.9,"pm2_5":17.9,"no2":4.8,"co":204.0,"o3":64.0,"so2":2.0,"mosquito_risk":3,"arthritis_risk":10,"migraine_risk":7,"frizz_risk":1,"updated_at":"2026-06-10T02:31:10.563190+05:30"},{"city":"Kohima","state":"Nagaland","latitude":25.6701,"longitude":94.1077,"temp":18.5,"humidity":97,"rain":0.1,"pressure":851.1,"uv_index":9.0,"wind_gusts":28.8,"aqi":45,"pm10":8.4,"pm2_5":5.9,"no2":4.4,"co":247.0,"o3":57.0,"so2":1.4,"mosquito_risk":6,"arthritis_risk":10,"migraine_risk":7,"frizz_risk":1,"updated_at":"2026-06-10T02:31:10.563198+05:30"},{"city":"Gangtok","state":"Sikkim","latitude":27.3314,"longitude":88.6138,"temp":16.0,"humidity":92,"rain":0.0,"pressure":832.4,"uv_index":7.5,"wind_gusts":37.8,"aqi":69,"pm10":25.0,"pm2_5":18.0,"no2":7.8,"co":370.0,"o3":114.0,"so2":3.9,"mosquito_risk":3,"arthritis_risk":10,"migraine_risk":7,"frizz_risk":0,"updated_at":"2026-06-10T02:31:10.563205+05:30"},{"city":"Siliguri","state":"West Bengal","latitude":26.7271,"longitude":88.3953,"temp":22.8,"humidity":97,"rain":0.0,"pressure":988.1,"uv_index":8.75,"wind_gusts":28.8,"aqi":97,"pm10":33.3,"pm2_5":25.6,"no2":10.9,"co":331.0,"o3":107.0,"so2":3.7,"mosquito_risk":3,"arthritis_risk":5,"migraine_risk":7,"frizz_risk":1,"updated_at":"2026-06-10T02:31:18.064806+05:30"},{"city":"Durgapur","state":"West Bengal","latitude":23.5204,"longitude":87.3119,"temp":28.1,"humidity":88,"rain":0.0,"pressure":987.9,"uv_index":9.0,"wind_gusts":33.8,"aqi":167,"pm10":122.0,"pm2_5":109.4,"no2":37.0,"co":1057.0,"o3":57.0,"so2":37.0,"mosquito_risk":7,"arthritis_risk":5,"migraine_risk":7,"frizz_risk":1,"updated_at":"2026-06-10T02:31:18.064843+05:30"},{"city":"Asansol","state":"West Bengal","latitude":23.6739,"longitude":86.9524,"temp":28.2,"humidity":77,"rain":0.0,"pressure":986.3,"uv_index":8.85,"wind_gusts":33.8,"aqi":160,"pm10":110.4,"pm2_5":84.5,"no2":46.9,"co":682.0,"o3":49.0,"so2":65.7,"mosquito_risk":7,"arthritis_risk":5,"migraine_risk":7,"frizz_risk":1,"updated_at":"2026-06-10T02:31:18.064855+05:30"},{"city":"Pondicherry","state":"Puducherry","latitude":11.9139,"longitude":79.8145,"temp":30.6,"humidity":58,"rain":0.0,"pressure":1006.2,"uv_index":7.55,"wind_gusts":47.2,"aqi":33,"pm10":9.0,"pm2_5":8.4,"no2":13.6,"co":207.0,"o3":43.0,"so2":9.8,"mosquito_risk":0,"arthritis_risk":5,"migraine_risk":4,"frizz_risk":1,"updated_at":"2026-06-10T02:31:18.064864+05:30"},{"city":"Port Blair","state":"Andaman and Nicobar Islands","latitude":11.6234,"longitude":92.7265,"temp":24.9,"humidity":98,"rain":0.1,"pressure":1005.5,"uv_index":4.85,"wind_gusts":49.0,"aqi":28,"pm10":8.6,"pm2_5":4.9,"no2":0.3,"co":91.0,"o3":61.0,"so2":0.4,"mosquito_risk":6,"arthritis_risk":5,"migraine_risk":0,"frizz_risk":1,"updated_at":"2026-06-10T02:31:18.064874+05:30"},{"city":"Haridwar","state":"Uttarakhand","latitude":29.9457,"longitude":78.1642,"temp":25.2,"humidity":71,"rain":0.0,"pressure":964.5,"uv_index":7.65,"wind_gusts":41.0,"aqi":100,"pm10":59.6,"pm2_5":45.9,"no2":33.2,"co":310.0,"o3":40.0,"so2":9.1,"mosquito_risk":7,"arthritis_risk":5,"migraine_risk":7,"frizz_risk":1,"updated_at":"2026-06-10T02:31:18.064883+05:30"},{"city":"Rishikesh","state":"Uttarakhand","latitude":30.0869,"longitude":78.2676,"temp":22.6,"humidity":80,"rain":0.0,"pressure":957.3,"uv_index":7.75,"wind_gusts":33.1,"aqi":123,"pm10":43.8,"pm2_5":34.3,"no2":20.7,"co":342.0,"o3":87.0,"so2":8.3,"mosquito_risk":3,"arthritis_risk":5,"migraine_risk":7,"frizz_risk":1,"updated_at":"2026-06-10T02:31:18.064891+05:30"},{"city":"Nainital","state":"Uttarakhand","latitude":29.3919,"longitude":79.4542,"temp":16.8,"humidity":64,"rain":0.0,"pressure":800.6,"uv_index":8.1,"wind_gusts":33.8,"aqi":76,"pm10":28.8,"pm2_5":26.7,"no2":28.4,"co":277.0,"o3":40.0,"so2":2.4,"mosquito_risk":3,"arthritis_risk":5,"migraine_risk":7,"frizz_risk":0,"updated_at":"2026-06-10T02:31:18.064898+05:30"},{"city":"Mussoorie","state":"Uttarakhand","latitude":30.4599,"longitude":78.0664,"temp":16.6,"humidity":58,"rain":0.0,"pressure":797.2,"uv_index":8.15,"wind_gusts":46.8,"aqi":80,"pm10":34.9,"pm2_5":32.9,"no2":37.0,"co":237.0,"o3":38.0,"so2":6.9,"mosquito_risk":0,"arthritis_risk":5,"migraine_risk":7,"frizz_risk":0,"updated_at":"2026-06-10T02:31:18.064906+05:30"},{"city":"Dharamshala","state":"Himachal Pradesh","latitude":32.219,"longitude":76.3234,"temp":24.1,"humidity":31,"rain":0.0,"pressure":863.0,"uv_index":8.55,"wind_gusts":44.3,"aqi":49,"pm10":11.2,"pm2_5":9.8,"no2":14.9,"co":186.0,"o3":31.0,"so2":0.0,"mosquito_risk":0,"arthritis_risk":5,"migraine_risk":7,"frizz_risk":0,"updated_at":"2026-06-10T02:31:18.064914+05:30"},{"city":"Dalhousie","state":"Himachal Pradesh","latitude":32.5387,"longitude":75.971,"temp":14.4,"humidity":59,"rain":0.0,"pressure":797.2,"uv_index":8.75,"wind_gusts":39.2,"aqi":73,"pm10":26.0,"pm2_5":24.6,"no2":40.1,"co":269.0,"o3":16.0,"so2":1.0,"mosquito_risk":0,"arthritis_risk":5,"migraine_risk":7,"frizz_risk":0,"updated_at":"2026-06-10T02:31:18.064922+05:30"},{"city":"Patiala","state":"Punjab","latitude":30.3398,"longitude":76.3869,"temp":32.1,"humidity":33,"rain":0.0,"pressure":967.9,"uv_index":7.65,"wind_gusts":26.3,"aqi":255,"pm10":152.3,"pm2_5":70.1,"no2":30.5,"co":521.0,"o3":50.0,"so2":10.3,"mosquito_risk":0,"arthritis_risk":5,"migraine_risk":7,"frizz_risk":0,"updated_at":"2026-06-10T02:31:18.064929+05:30"},{"city":"Bhatinda","state":"Punjab","latitude":30.211,"longitude":74.9455,"temp":32.9,"humidity":36,"rain":0.0,"pressure":973.1,"uv_index":8.35,"wind_gusts":25.2,"aqi":136,"pm10":133.2,"pm2_5":83.6,"no2":73.2,"co":299.0,"o3":0.0,"so2":10.6,"mosquito_risk":0,"arthritis_risk":5,"migraine_risk":7,"frizz_risk":0,"updated_at":"2026-06-10T02:31:18.064937+05:30"},{"city":"Rohtak","state":"Haryana","latitude":28.8955,"longitude":76.6066,"temp":32.0,"humidity":32,"rain":0.0,"pressure":972.3,"uv_index":7.8,"wind_gusts":41.0,"aqi":572,"pm10":858.7,"pm2_5":139.2,"no2":22.2,"co":219.0,"o3":41.0,"so2":3.3,"mosquito_risk":0,"arthritis_risk":5,"migraine_risk":7,"frizz_risk":0,"updated_at":"2026-06-10T02:31:18.064945+05:30"},{"city":"Panipat","state":"Haryana","latitude":29.3909,"longitude":76.9635,"temp":29.5,"humidity":50,"rain":0.0,"pressure":970.5,"uv_index":7.7,"wind_gusts":27.7,"aqi":905,"pm10":2473.6,"pm2_5":337.1,"no2":34.8,"co":616.0,"o3":36.0,"so2":6.6,"mosquito_risk":4,"arthritis_risk":5,"migraine_risk":7,"frizz_risk":1,"updated_at":"2026-06-10T02:31:18.064953+05:30"},{"city":"Mathura","state":"Uttar Pradesh","latitude":27.4924,"longitude":77.6737,"temp":30.1,"humidity":42,"rain":0.0,"pressure":977.4,"uv_index":8.1,"wind_gusts":36.7,"aqi":714,"pm10":780.4,"pm2_5":104.8,"no2":17.1,"co":371.0,"o3":54.0,"so2":4.2,"mosquito_risk":0,"arthritis_risk":5,"migraine_risk":7,"frizz_risk":0,"updated_at":"2026-06-10T02:31:18.064960+05:30"},{"city":"Vrindavan","state":"Uttar Pradesh","latitude":27.5823,"longitude":77.7027,"temp":30.3,"humidity":42,"rain":0.0,"pressure":977.8,"uv_index":8.05,"wind_gusts":34.9,"aqi":714,"pm10":780.4,"pm2_5":104.8,"no2":17.1,"co":394.0,"o3":54.0,"so2":4.2,"mosquito_risk":0,"arthritis_risk":5,"migraine_risk":7,"frizz_risk":0,"updated_at":"2026-06-10T02:31:18.064966+05:30"},{"city":"Ayodhya","state":"Uttar Pradesh","latitude":26.7922,"longitude":82.1998,"temp":29.2,"humidity":71,"rain":0.0,"pressure":986.6,"uv_index":8.45,"wind_gusts":37.8,"aqi":159,"pm10":188.6,"pm2_5":78.5,"no2":39.8,"co":616.0,"o3":23.0,"so2":9.3,"mosquito_risk":7,"arthritis_risk":5,"migraine_risk":7,"frizz_risk":1,"updated_at":"2026-06-10T02:31:18.064973+05:30"},{"city":"Ratlam","state":"Madhya Pradesh","latitude":23.3315,"longitude":75.0367,"temp":27.1,"humidity":75,"rain":0.0,"pressure":950.5,"uv_index":8.5,"wind_gusts":45.7,"aqi":82,"pm10":43.1,"pm2_5":26.2,"no2":5.2,"co":127.0,"o3":66.0,"so2":11.2,"mosquito_risk":7,"arthritis_risk":5,"migraine_risk":7,"frizz_risk":1,"updated_at":"2026-06-10T02:31:18.064980+05:30"},{"city":"Sagar","state":"Madhya Pradesh","latitude":23.8388,"longitude":78.7378,"temp":30.7,"humidity":41,"rain":0.0,"pressure":944.6,"uv_index":8.7,"wind_gusts":45.0,"aqi":78,"pm10":34.6,"pm2_5":23.3,"no2":10.4,"co":202.0,"o3":62.0,"so2":4.4,"mosquito_risk":0,"arthritis_risk":5,"migraine_risk":7,"frizz_risk":0,"updated_at":"2026-06-10T02:31:18.064987+05:30"},{"city":"Satna","state":"Madhya Pradesh","latitude":24.6005,"longitude":80.8322,"temp":30.3,"humidity":51,"rain":0.0,"pressure":964.2,"uv_index":8.75,"wind_gusts":45.4,"aqi":79,"pm10":58.6,"pm2_5":31.5,"no2":20.4,"co":160.0,"o3":44.0,"so2":5.1,"mosquito_risk":0,"arthritis_risk":5,"migraine_risk":7,"frizz_risk":1,"updated_at":"2026-06-10T02:31:18.064994+05:30"},{"city":"Akola","state":"Maharashtra","latitude":20.7002,"longitude":77.0082,"temp":31.3,"humidity":52,"rain":0.0,"pressure":971.0,"uv_index":8.8,"wind_gusts":49.3,"aqi":77,"pm10":41.4,"pm2_5":24.3,"no2":8.1,"co":135.0,"o3":68.0,"so2":9.4,"mosquito_risk":0,"arthritis_risk":5,"migraine_risk":7,"frizz_risk":1,"updated_at":"2026-06-10T02:31:18.065002+05:30"},{"city":"Amravati","state":"Maharashtra","latitude":20.9374,"longitude":77.7796,"temp":31.6,"humidity":42,"rain":0.0,"pressure":962.6,"uv_index":8.8,"wind_gusts":47.5,"aqi":78,"pm10":39.0,"pm2_5":23.7,"no2":9.2,"co":197.0,"o3":72.0,"so2":8.7,"mosquito_risk":0,"arthritis_risk":5,"migraine_risk":7,"frizz_risk":1,"updated_at":"2026-06-10T02:31:18.065010+05:30"},{"city":"Latur","state":"Maharashtra","latitude":18.4088,"longitude":76.5604,"temp":26.0,"humidity":76,"rain":0.0,"pressure":936.8,"uv_index":8.8,"wind_gusts":38.9,"aqi":65,"pm10":21.4,"pm2_5":13.2,"no2":7.1,"co":139.0,"o3":48.0,"so2":3.6,"mosquito_risk":7,"arthritis_risk":5,"migraine_risk":7,"frizz_risk":1,"updated_at":"2026-06-10T02:31:18.065017+05:30"},{"city":"Nanded","state":"Maharashtra","latitude":19.1383,"longitude":77.3091,"temp":30.5,"humidity":52,"rain":0.0,"pressure":965.0,"uv_index":8.9,"wind_gusts":39.2,"aqi":84,"pm10":30.9,"pm2_5":20.9,"no2":6.8,"co":158.0,"o3":79.0,"so2":6.7,"mosquito_risk":0,"arthritis_risk":5,"migraine_risk":7,"frizz_risk":1,"updated_at":"2026-06-10T02:31:18.065023+05:30"},{"city":"Gulbarga","state":"Karnataka","latitude":17.3297,"longitude":76.8343,"temp":26.4,"humidity":78,"rain":0.0,"pressure":955.9,"uv_index":8.8,"wind_gusts":42.5,"aqi":46,"pm10":9.0,"pm2_5":6.5,"no2":10.9,"co":151.0,"o3":39.0,"so2":3.1,"mosquito_risk":7,"arthritis_risk":5,"migraine_risk":7,"frizz_risk":1,"updated_at":"2026-06-10T02:31:18.065029+05:30"},{"city":"Bidar","state":"Karnataka","latitude":17.9104,"longitude":77.5199,"temp":25.9,"humidity":76,"rain":0.0,"pressure":932.5,"uv_index":9.0,"wind_gusts":41.4,"aqi":67,"pm10":9.0,"pm2_5":7.7,"no2":12.1,"co":170.0,"o3":44.0,"so2":2.6,"mosquito_risk":7,"arthritis_risk":5,"migraine_risk":7,"frizz_risk":1,"updated_at":"2026-06-10T02:31:18.065036+05:30"},{"city":"Hospet","state":"Karnataka","latitude":15.2689,"longitude":76.3909,"temp":23.8,"humidity":89,"rain":0.0,"pressure":954.6,"uv_index":6.9,"wind_gusts":47.9,"aqi":22,"pm10":2.6,"pm2_5":2.6,"no2":5.3,"co":128.0,"o3":42.0,"so2":1.0,"mosquito_risk":3,"arthritis_risk":5,"migraine_risk":7,"frizz_risk":1,"updated_at":"2026-06-10T02:31:18.065043+05:30"},{"city":"Tirupur","state":"Tamil Nadu","latitude":11.1085,"longitude":77.3411,"temp":23.9,"humidity":90,"rain":0.0,"pressure":974.8,"uv_index":8.0,"wind_gusts":54.0,"aqi":24,"pm10":8.9,"pm2_5":8.5,"no2":15.4,"co":149.0,"o3":29.0,"so2":4.4,"mosquito_risk":3,"arthritis_risk":5,"migraine_risk":7,"frizz_risk":1,"updated_at":"2026-06-10T02:31:18.065050+05:30"},{"city":"Alappuzha","state":"Kerala","latitude":9.4981,"longitude":76.3388,"temp":26.1,"humidity":94,"rain":0.1,"pressure":1009.8,"uv_index":7.85,"wind_gusts":43.9,"aqi":31,"pm10":11.4,"pm2_5":6.5,"no2":3.1,"co":85.0,"o3":50.0,"so2":1.0,"mosquito_risk":10,"arthritis_risk":0,"migraine_risk":4,"frizz_risk":1,"updated_at":"2026-06-10T02:31:18.065057+05:30"},{"city":"Munnar","state":"Kerala","latitude":10.0889,"longitude":77.0595,"temp":17.3,"humidity":100,"rain":0.3,"pressure":856.6,"uv_index":7.95,"wind_gusts":44.3,"aqi":13,"pm10":2.0,"pm2_5":1.9,"no2":7.0,"co":95.0,"o3":26.0,"so2":1.7,"mosquito_risk":6,"arthritis_risk":10,"migraine_risk":7,"frizz_risk":1,"updated_at":"2026-06-10T02:31:18.065064+05:30"},{"city":"Silchar","state":"Assam","latitude":24.8333,"longitude":92.7789,"temp":25.4,"humidity":98,"rain":0.0,"pressure":1000.3,"uv_index":6.6,"wind_gusts":40.7,"aqi":73,"pm10":33.4,"pm2_5":23.0,"no2":5.5,"co":249.0,"o3":98.0,"so2":4.6,"mosquito_risk":7,"arthritis_risk":5,"migraine_risk":4,"frizz_risk":1,"updated_at":"2026-06-10T02:31:18.065071+05:30"},{"city":"Dibrugarh","state":"Assam","latitude":27.4728,"longitude":94.912,"temp":24.2,"humidity":99,"rain":0.3,"pressure":990.8,"uv_index":8.85,"wind_gusts":29.5,"aqi":67,"pm10":18.2,"pm2_5":14.2,"no2":9.1,"co":271.0,"o3":84.0,"so2":1.4,"mosquito_risk":6,"arthritis_risk":5,"migraine_risk":7,"frizz_risk":1,"updated_at":"2026-06-10T02:31:18.065078+05:30"}]