[{"city":"Delhi","state":"Delhi","latitude":28.6139,"longitude":77.209,"temp":28.9,"humidity":44,"rain":0.0,"pressure":977.5,"uv_index":7.6,"wind_gusts":41.0,"aqi":199,"pm10":397.7,"pm2_5":90.3,"no2":28.6,"co":573.0,"o3":88.0,"so2":24.4,"mosquito_risk":4,"arthritis_risk":5,"migraine_risk":7,"frizz_risk":0,"updated_at":"2026-05-03T00:34:22.847185+05:30"},{"city":"Mumbai","state":"Maharashtra","latitude":19.076,"longitude":72.8777,"temp":29.0,"humidity":77,"rain":0.0,"pressure":1007.1,"uv_index":7.9,"wind_gusts":40.7,"aqi":73,"pm10":44.6,"pm2_5":17.5,"no2":8.5,"co":198.0,"o3":68.0,"so2":16.6,"mosquito_risk":7,"arthritis_risk":5,"migraine_risk":4,"frizz_risk":1,"updated_at":"2026-05-03T00:34:22.847230+05:30"},{"city":"Bangalore","state":"Karnataka","latitude":12.9716,"longitude":77.5946,"temp":23.7,"humidity":80,"rain":0.0,"pressure":910.7,"uv_index":9.1,"wind_gusts":31.3,"aqi":76,"pm10":22.5,"pm2_5":18.1,"no2":12.2,"co":243.0,"o3":70.0,"so2":6.5,"mosquito_risk":3,"arthritis_risk":5,"migraine_risk":7,"frizz_risk":1,"updated_at":"2026-05-03T00:34:22.847247+05:30"},{"city":"Hyderabad","state":"Telangana","latitude":17.385,"longitude":78.4867,"temp":32.0,"humidity":29,"rain":0.0,"pressure":949.9,"uv_index":9.3,"wind_gusts":28.8,"aqi":78,"pm10":45.3,"pm2_5":28.1,"no2":32.4,"co":769.0,"o3":65.0,"so2":13.3,"mosquito_risk":0,"arthritis_risk":5,"migraine_risk":7,"frizz_risk":0,"updated_at":"2026-05-03T00:34:22.847257+05:30"},{"city":"Chennai","state":"Tamil Nadu","latitude":13.0827,"longitude":80.2707,"temp":30.6,"humidity":68,"rain":0.0,"pressure":1004.3,"uv_index":9.25,"wind_gusts":53.6,"aqi":53,"pm10":17.2,"pm2_5":13.0,"no2":8.1,"co":244.0,"o3":70.0,"so2":5.3,"mosquito_risk":3,"arthritis_risk":5,"migraine_risk":4,"frizz_risk":1,"updated_at":"2026-05-03T00:34:22.847267+05:30"},{"city":"Kolkata","state":"West Bengal","latitude":22.5726,"longitude":88.3639,"temp":24.2,"humidity":93,"rain":0.0,"pressure":1002.6,"uv_index":8.95,"wind_gusts":47.9,"aqi":65,"pm10":17.6,"pm2_5":15.4,"no2":9.8,"co":316.0,"o3":64.0,"so2":5.5,"mosquito_risk":3,"arthritis_risk":5,"migraine_risk":4,"frizz_risk":1,"updated_at":"2026-05-03T00:34:22.847276+05:30"},{"city":"Pune","state":"Maharashtra","latitude":18.5204,"longitude":73.8567,"temp":24.0,"humidity":79,"rain":0.0,"pressure":946.7,"uv_index":8.5,"wind_gusts":45.7,"aqi":61,"pm10":33.1,"pm2_5":15.1,"no2":11.0,"co":227.0,"o3":51.0,"so2":10.4,"mosquito_risk":3,"arthritis_risk":5,"migraine_risk":7,"frizz_risk":1,"updated_at":"2026-05-03T00:34:22.847284+05:30"},{"city":"Ahmedabad","state":"Gujarat","latitude":23.0225,"longitude":72.5714,"temp":30.5,"humidity":53,"rain":0.0,"pressure":997.6,"uv_index":8.15,"wind_gusts":43.6,"aqi":64,"pm10":36.9,"pm2_5":16.6,"no2":4.7,"co":288.0,"o3":78.0,"so2":5.4,"mosquito_risk":0,"arthritis_risk":5,"migraine_risk":7,"frizz_risk":1,"updated_at":"2026-05-03T00:34:22.847296+05:30"},{"city":"Jaipur","state":"Rajasthan","latitude":26.9124,"longitude":75.7873,"temp":31.7,"humidity":27,"rain":0.0,"pressure":954.7,"uv_index":8.15,"wind_gusts":51.5,"aqi":115,"pm10":123.4,"pm2_5":39.2,"no2":27.0,"co":196.0,"o3":44.0,"so2":7.2,"mosquito_risk":0,"arthritis_risk":5,"migraine_risk":7,"frizz_risk":0,"updated_at":"2026-05-03T00:34:22.847307+05:30"},{"city":"Lucknow","state":"Uttar Pradesh","latitude":26.8467,"longitude":80.9462,"temp":26.6,"humidity":61,"rain":0.0,"pressure":989.4,"uv_index":8.1,"wind_gusts":40.0,"aqi":94,"pm10":71.7,"pm2_5":36.2,"no2":10.6,"co":361.0,"o3":104.0,"so2":10.2,"mosquito_risk":7,"arthritis_risk":5,"migraine_risk":7,"frizz_risk":1,"updated_at":"2026-05-03T00:34:22.847315+05:30"},{"city":"Kanpur","state":"Uttar Pradesh","latitude":26.4499,"longitude":80.3319,"temp":27.0,"humidity":63,"rain":0.0,"pressure":987.1,"uv_index":7.9,"wind_gusts":71.6,"aqi":151,"pm10":337.1,"pm2_5":58.8,"no2":9.5,"co":347.0,"o3":101.0,"so2":9.3,"mosquito_risk":7,"arthritis_risk":5,"migraine_risk":7,"frizz_risk":1,"updated_at":"2026-05-03T00:34:22.847323+05:30"},{"city":"Chandigarh","state":"Chandigarh","latitude":30.7333,"longitude":76.7794,"temp":23.8,"humidity":51,"rain":0.0,"pressure":962.9,"uv_index":6.7,"wind_gusts":55.1,"aqi":88,"pm10":38.9,"pm2_5":32.8,"no2":32.6,"co":497.0,"o3":43.0,"so2":11.2,"mosquito_risk":0,"arthritis_risk":5,"migraine_risk":7,"frizz_risk":0,"updated_at":"2026-05-03T00:34:22.847331+05:30"},{"city":"Srinagar","state":"Jammu and Kashmir","latitude":34.0837,"longitude":74.7973,"temp":11.2,"humidity":92,"rain":0.0,"pressure":837.8,"uv_index":8.75,"wind_gusts":37.1,"aqi":71,"pm10":48.5,"pm2_5":44.4,"no2":34.7,"co":741.0,"o3":23.0,"so2":3.2,"mosquito_risk":3,"arthritis_risk":10,"migraine_risk":7,"frizz_risk":0,"updated_at":"2026-05-03T00:34:22.847340+05:30"},{"city":"Jammu","state":"Jammu and Kashmir","latitude":32.7266,"longitude":74.857,"temp":23.2,"humidity":48,"rain":0.0,"pressure":965.4,"uv_index":8.35,"wind_gusts":36.7,"aqi":61,"pm10":24.9,"pm2_5":21.4,"no2":19.8,"co":262.0,"o3":56.0,"so2":3.6,"mosquito_risk":0,"arthritis_risk":5,"migraine_risk":7,"frizz_risk":0,"updated_at":"2026-05-03T00:34:22.847349+05:30"},{"city":"Amritsar","state":"Punjab","latitude":31.634,"longitude":74.8723,"temp":27.0,"humidity":38,"rain":0.0,"pressure":973.7,"uv_index":8.25,"wind_gusts":43.2,"aqi":137,"pm10":32.4,"pm2_5":24.3,"no2":8.2,"co":500.0,"o3":114.0,"so2":7.0,"mosquito_risk":4,"arthritis_risk":5,"migraine_risk":7,"frizz_risk":0,"updated_at":"2026-05-03T00:34:22.847357+05:30"},{"city":"Ludhiana","state":"Punjab","latitude":30.901,"longitude":75.8573,"temp":26.1,"humidity":44,"rain":0.0,"pressure":972.1,"uv_index":7.75,"wind_gusts":45.4,"aqi":136,"pm10":32.2,"pm2_5":29.6,"no2":16.0,"co":665.0,"o3":75.0,"so2":7.9,"mosquito_risk":4,"arthritis_risk":5,"migraine_risk":7,"frizz_risk":0,"updated_at":"2026-05-03T00:34:22.847364+05:30"},{"city":"Jalandhar","state":"Punjab","latitude":31.326,"longitude":75.5762,"temp":25.3,"humidity":47,"rain":0.0,"pressure":973.1,"uv_index":7.95,"wind_gusts":43.2,"aqi":108,"pm10":29.0,"pm2_5":25.0,"no2":9.5,"co":644.0,"o3":96.0,"so2":6.8,"mosquito_risk":4,"arthritis_risk":5,"migraine_risk":7,"frizz_risk":0,"updated_at":"2026-05-03T00:34:22.847372+05:30"},{"city":"Dehradun","state":"Uttarakhand","latitude":30.6284,"longitude":78.0322,"temp":11.2,"humidity":95,"rain":0.0,"pressure":824.0,"uv_index":7.2,"wind_gusts":41.4,"aqi":65,"pm10":23.7,"pm2_5":20.0,"no2":28.5,"co":280.0,"o3":39.0,"so2":1.6,"mosquito_risk":3,"arthritis_risk":10,"migraine_risk":7,"frizz_risk":0,"updated_at":"2026-05-03T00:34:22.847382+05:30"},{"city":"Shimla","state":"Himachal Pradesh","latitude":31.1048,"longitude":77.1734,"temp":10.0,"humidity":70,"rain":0.0,"pressure":777.5,"uv_index":6.15,"wind_gusts":44.6,"aqi":89,"pm10":31.3,"pm2_5":23.0,"no2":23.4,"co":305.0,"o3":72.0,"so2":4.8,"mosquito_risk":3,"arthritis_risk":5,"migraine_risk":7,"frizz_risk":0,"updated_at":"2026-05-03T00:34:22.847389+05:30"},{"city":"Manali","state":"Himachal Pradesh","latitude":32.2396,"longitude":77.1887,"temp":7.4,"humidity":75,"rain":0.0,"pressure":810.5,"uv_index":9.4,"wind_gusts":43.9,"aqi":90,"pm10":8.1,"pm2_5":6.9,"no2":37.6,"co":276.0,"o3":100.0,"so2":0.1,"mosquito_risk":3,"arthritis_risk":5,"migraine_risk":7,"frizz_risk":0,"updated_at":"2026-05-03T00:34:22.847396+05:30"},{"city":"Gurgaon","state":"Haryana","latitude":28.4595,"longitude":77.0266,"temp":28.1,"humidity":45,"rain":0.0,"pressure":975.7,"uv_index":7.7,"wind_gusts":43.9,"aqi":760,"pm10":821.4,"pm2_5":132.7,"no2":22.4,"co":553.0,"o3":90.0,"so2":18.7,"mosquito_risk":4,"arthritis_risk":5,"migraine_risk":7,"frizz_risk":0,"updated_at":"2026-05-03T00:34:22.847405+05:30"},{"city":"Noida","state":"Uttar Pradesh","latitude":28.5355,"longitude":77.391,"temp":26.0,"humidity":57,"rain":0.0,"pressure":978.9,"uv_index":7.6,"wind_gusts":39.2,"aqi":760,"pm10":821.4,"pm2_5":132.7,"no2":22.4,"co":530.0,"o3":90.0,"so2":18.7,"mosquito_risk":4,"arthritis_risk":5,"migraine_risk":7,"frizz_risk":1,"updated_at":"2026-05-03T00:34:22.847413+05:30"},{"city":"Ghaziabad","state":"Uttar Pradesh","latitude":28.6692,"longitude":77.4538,"temp":26.9,"humidity":51,"rain":0.0,"pressure":977.2,"uv_index":7.6,"wind_gusts":43.6,"aqi":159,"pm10":279.4,"pm2_5":66.4,"no2":9.6,"co":429.0,"o3":105.0,"so2":11.7,"mosquito_risk":4,"arthritis_risk":5,"migraine_risk":7,"frizz_risk":0,"updated_at":"2026-05-03T00:34:22.847425+05:30"},{"city":"Faridabad","state":"Haryana","latitude":28.4089,"longitude":77.3178,"temp":27.6,"humidity":48,"rain":0.0,"pressure":978.4,"uv_index":7.65,"wind_gusts":42.8,"aqi":760,"pm10":821.4,"pm2_5":132.7,"no2":22.4,"co":503.0,"o3":90.0,"so2":18.7,"mosquito_risk":4,"arthritis_risk":5,"migraine_risk":7,"frizz_risk":0,"updated_at":"2026-05-03T00:34:22.847432+05:30"},{"city":"Meerut","state":"Uttar Pradesh","latitude":28.9845,"longitude":77.7064,"temp":25.9,"humidity":57,"rain":0.0,"pressure":975.9,"uv_index":7.5,"wind_gusts":49.0,"aqi":159,"pm10":279.4,"pm2_5":66.4,"no2":9.6,"co":486.0,"o3":105.0,"so2":11.7,"mosquito_risk":4,"arthritis_risk":5,"migraine_risk":7,"frizz_risk":1,"updated_at":"2026-05-03T00:34:22.847439+05:30"},{"city":"Agra","state":"Uttar Pradesh","latitude":27.1767,"longitude":78.0081,"temp":28.8,"humidity":42,"rain":0.0,"pressure":982.1,"uv_index":7.8,"wind_gusts":56.9,"aqi":657,"pm10":819.6,"pm2_5":106.6,"no2":12.1,"co":387.0,"o3":92.0,"so2":12.8,"mosquito_risk":4,"arthritis_risk":5,"migraine_risk":7,"frizz_risk":0,"updated_at":"2026-05-03T00:34:22.847446+05:30"},{"city":"Varanasi","state":"Uttar Pradesh","latitude":25.3176,"longitude":82.9739,"temp":27.6,"humidity":61,"rain":0.0,"pressure":993.3,"uv_index":8.55,"wind_gusts":31.3,"aqi":129,"pm10":61.0,"pm2_5":43.2,"no2":11.0,"co":478.0,"o3":125.0,"so2":16.3,"mosquito_risk":7,"arthritis_risk":5,"migraine_risk":7,"frizz_risk":1,"updated_at":"2026-05-03T00:34:22.847454+05:30"},{"city":"Prayagraj","state":"Uttar Pradesh","latitude":25.4358,"longitude":81.8463,"temp":26.7,"humidity":65,"rain":0.0,"pressure":991.5,"uv_index":8.5,"wind_gusts":42.1,"aqi":109,"pm10":59.8,"pm2_5":41.3,"no2":12.1,"co":381.0,"o3":114.0,"so2":12.7,"mosquito_risk":7,"arthritis_risk":5,"migraine_risk":7,"frizz_risk":1,"updated_at":"2026-05-03T00:34:22.847463+05:30"},{"city":"Gorakhpur","state":"Uttar Pradesh","latitude":26.7606,"longitude":83.3732,"temp":24.2,"humidity":75,"rain":0.0,"pressure":994.7,"uv_index":8.45,"wind_gusts":35.3,"aqi":111,"pm10":44.0,"pm2_5":28.8,"no2":5.8,"co":388.0,"o3":123.0,"so2":4.2,"mosquito_risk":3,"arthritis_risk":5,"migraine_risk":7,"frizz_risk":1,"updated_at":"2026-05-03T00:34:22.847470+05:30"},{"city":"Bareilly","state":"Uttar Pradesh","latitude":28.367,"longitude":79.4304,"temp":25.5,"humidity":63,"rain":0.0,"pressure":982.6,"uv_index":7.9,"wind_gusts":45.7,"aqi":124,"pm10":95.9,"pm2_5":40.2,"no2":6.3,"co":339.0,"o3":122.0,"so2":5.8,"mosquito_risk":7,"arthritis_risk":5,"migraine_risk":7,"frizz_risk":1,"updated_at":"2026-05-03T00:34:22.847477+05:30"},{"city":"Aligarh","state":"Uttar Pradesh","latitude":27.8974,"longitude":78.088,"temp":27.4,"humidity":50,"rain":0.0,"pressure":980.1,"uv_index":7.75,"wind_gusts":41.4,"aqi":397,"pm10":637.0,"pm2_5":94.1,"no2":8.2,"co":405.0,"o3":104.0,"so2":11.8,"mosquito_risk":4,"arthritis_risk":5,"migraine_risk":7,"frizz_risk":0,"updated_at":"2026-05-03T00:34:22.847484+05:30"},{"city":"Moradabad","state":"Uttar Pradesh","latitude":28.8386,"longitude":78.7733,"temp":25.2,"humidity":62,"rain":0.0,"pressure":979.1,"uv_index":7.6,"wind_gusts":49.7,"aqi":129,"pm10":85.7,"pm2_5":46.0,"no2":10.0,"co":344.0,"o3":121.0,"so2":11.7,"mosquito_risk":7,"arthritis_risk":5,"migraine_risk":7,"frizz_risk":1,"updated_at":"2026-05-03T00:34:22.847490+05:30"},{"city":"Saharanpur","state":"Uttar Pradesh","latitude":29.9637,"longitude":77.546,"temp":23.6,"humidity":68,"rain":0.0,"pressure":970.4,"uv_index":6.6,"wind_gusts":52.6,"aqi":132,"pm10":86.4,"pm2_5":54.2,"no2":27.0,"co":379.0,"o3":63.0,"so2":13.0,"mosquito_risk":3,"arthritis_risk":5,"migraine_risk":7,"frizz_risk":1,"updated_at":"2026-05-03T00:34:22.847497+05:30"},{"city":"Jhansi","state":"Uttar Pradesh","latitude":25.4484,"longitude":78.5685,"temp":27.7,"humidity":51,"rain":0.0,"pressure":972.4,"uv_index":8.4,"wind_gusts":55.4,"aqi":78,"pm10":117.8,"pm2_5":37.5,"no2":4.8,"co":309.0,"o3":90.0,"so2":6.7,"mosquito_risk":4,"arthritis_risk":5,"migraine_risk":7,"frizz_risk":1,"updated_at":"2026-05-03T00:34:26.251208+05:30"},{"city":"Surat","state":"Gujarat","latitude":21.1702,"longitude":72.8311,"temp":28.5,"humidity":85,"rain":0.0,"pressure":1003.8,"uv_index":7.7,"wind_gusts":53.6,"aqi":65,"pm10":30.2,"pm2_5":17.3,"no2":17.4,"co":226.0,"o3":57.0,"so2":28.9,"mosquito_risk":7,"arthritis_risk":5,"migraine_risk":4,"frizz_risk":1,"updated_at":"2026-05-03T00:34:26.251240+05:30"},{"city":"Vadodara","state":"Gujarat","latitude":22.3072,"longitude":73.1812,"temp":29.1,"humidity":77,"rain":0.0,"pressure":1000.2,"uv_index":8.05,"wind_gusts":51.1,"aqi":58,"pm10":21.1,"pm2_5":13.4,"no2":12.1,"co":252.0,"o3":55.0,"so2":15.1,"mosquito_risk":7,"arthritis_risk":5,"migraine_risk":4,"frizz_risk":1,"updated_at":"2026-05-03T00:34:26.251251+05:30"},{"city":"Rajkot","state":"Gujarat","latitude":22.3039,"longitude":70.8022,"temp":28.2,"humidity":60,"rain":0.0,"pressure":990.4,"uv_index":7.7,"wind_gusts":48.2,"aqi":57,"pm10":36.2,"pm2_5":14.9,"no2":4.4,"co":166.0,"o3":69.0,"so2":5.4,"mosquito_risk":4,"arthritis_risk":5,"migraine_risk":7,"frizz_risk":1,"updated_at":"2026-05-03T00:34:26.251260+05:30"},{"city":"Thane","state":"Maharashtra","latitude":19.2183,"longitude":72.9781,"temp":28.9,"humidity":75,"rain":0.0,"pressure":1006.4,"uv_index":7.9,"wind_gusts":40.0,"aqi":73,"pm10":44.6,"pm2_5":17.5,"no2":8.5,"co":219.0,"o3":68.0,"so2":16.6,"mosquito_risk":7,"arthritis_risk":5,"migraine_risk":4,"frizz_risk":1,"updated_at":"2026-05-03T00:34:26.251268+05:30"},{"city":"Nagpur","state":"Maharashtra","latitude":21.1458,"longitude":79.0882,"temp":30.2,"humidity":43,"rain":0.0,"pressure":969.1,"uv_index":8.9,"wind_gusts":32.8,"aqi":73,"pm10":62.2,"pm2_5":36.4,"no2":22.3,"co":331.0,"o3":43.0,"so2":12.2,"mosquito_risk":0,"arthritis_risk":5,"migraine_risk":7,"frizz_risk":1,"updated_at":"2026-05-03T00:34:26.251276+05:30"},{"city":"Nashik","state":"Maharashtra","latitude":19.9975,"longitude":73.7898,"temp":23.5,"humidity":90,"rain":0.0,"pressure":943.5,"uv_index":8.2,"wind_gusts":48.2,"aqi":65,"pm10":33.2,"pm2_5":16.8,"no2":12.3,"co":219.0,"o3":54.0,"so2":14.3,"mosquito_risk":3,"arthritis_risk":5,"migraine_risk":7,"frizz_risk":1,"updated_at":"2026-05-03T00:34:26.251284+05:30"},{"city":"Aurangabad","state":"Maharashtra","latitude":19.8762,"longitude":75.3433,"temp":27.4,"humidity":56,"rain":0.0,"pressure":942.0,"uv_index":9.05,"wind_gusts":49.0,"aqi":59,"pm10":26.1,"pm2_5":15.7,"no2":8.9,"co":180.0,"o3":75.0,"so2":12.1,"mosquito_risk":4,"arthritis_risk":5,"migraine_risk":7,"frizz_risk":1,"updated_at":"2026-05-03T00:34:26.251291+05:30"},{"city":"Solapur","state":"Maharashtra","latitude":17.6599,"longitude":75.9064,"temp":30.4,"humidity":43,"rain":0.0,"pressure":954.8,"uv_index":9.1,"wind_gusts":36.4,"aqi":56,"pm10":24.6,"pm2_5":13.9,"no2":5.0,"co":185.0,"o3":87.0,"so2":4.4,"mosquito_risk":0,"arthritis_risk":5,"migraine_risk":7,"frizz_risk":1,"updated_at":"2026-05-03T00:34:26.251299+05:30"},{"city":"Kolhapur","state":"Maharashtra","latitude":16.705,"longitude":74.2433,"temp":23.1,"humidity":92,"rain":0.0,"pressure":946.6,"uv_index":8.95,"wind_gusts":46.8,"aqi":66,"pm10":40.7,"pm2_5":16.8,"no2":7.6,"co":184.0,"o3":52.0,"so2":2.5,"mosquito_risk":3,"arthritis_risk":5,"migraine_risk":7,"frizz_risk":1,"updated_at":"2026-05-03T00:34:26.251307+05:30"},{"city":"Goa","state":"Goa","latitude":15.2993,"longitude":74.124,"temp":28.2,"humidity":82,"rain":0.0,"pressure":997.4,"uv_index":8.9,"wind_gusts":37.4,"aqi":72,"pm10":79.4,"pm2_5":24.6,"no2":7.8,"co":271.0,"o3":56.0,"so2":2.1,"mosquito_risk":7,"arthritis_risk":5,"migraine_risk":7,"frizz_risk":1,"updated_at":"2026-05-03T00:34:26.251314+05:30"},{"city":"Jodhpur","state":"Rajasthan","latitude":26.2389,"longitude":73.0243,"temp":32.0,"humidity":26,"rain":0.0,"pressure":975.8,"uv_index":8.3,"wind_gusts":59.8,"aqi":124,"pm10":127.6,"pm2_5":28.1,"no2":6.2,"co":191.0,"o3":79.0,"so2":3.4,"mosquito_risk":0,"arthritis_risk":5,"migraine_risk":7,"frizz_risk":0,"updated_at":"2026-05-03T00:34:26.251322+05:30"},{"city":"Udaipur","state":"Rajasthan","latitude":24.5854,"longitude":73.7125,"temp":28.3,"humidity":38,"rain":0.0,"pressure":941.7,"uv_index":8.8,"wind_gusts":40.0,"aqi":66,"pm10":49.6,"pm2_5":20.1,"no2":3.7,"co":167.0,"o3":86.0,"so2":3.5,"mosquito_risk":4,"arthritis_risk":5,"migraine_risk":7,"frizz_risk":0,"updated_at":"2026-05-03T00:34:26.251330+05:30"},{"city":"Kota","state":"Rajasthan","latitude":25.2138,"longitude":75.8648,"temp":30.2,"humidity":35,"rain":0.0,"pressure":972.6,"uv_index":8.35,"wind_gusts":37.4,"aqi":66,"pm10":77.8,"pm2_5":24.0,"no2":4.2,"co":254.0,"o3":90.0,"so2":5.9,"mosquito_risk":0,"arthritis_risk":5,"migraine_risk":7,"frizz_risk":0,"updated_at":"2026-05-03T00:34:26.251337+05:30"},{"city":"Bikaner","state":"Rajasthan","latitude":28.0229,"longitude":73.3119,"temp":30.8,"humidity":31,"rain":0.0,"pressure":974.2,"uv_index":8.25,"wind_gusts":52.6,"aqi":72,"pm10":104.8,"pm2_5":31.0,"no2":5.1,"co":213.0,"o3":71.0,"so2":5.0,"mosquito_risk":0,"arthritis_risk":5,"migraine_risk":7,"frizz_risk":0,"updated_at":"2026-05-03T00:34:26.251345+05:30"},{"city":"Ajmer","state":"Rajasthan","latitude":26.4499,"longitude":74.6399,"temp":29.4,"humidity":33,"rain":0.0,"pressure":948.9,"uv_index":8.3,"wind_gusts":45.0,"aqi":69,"pm10":62.6,"pm2_5":20.5,"no2":4.5,"co":301.0,"o3":86.0,"so2":3.8,"mosquito_risk":4,"arthritis_risk":5,"migraine_risk":7,"frizz_risk":0,"updated_at":"2026-05-03T00:34:26.251353+05:30"},{"city":"Gwalior","state":"Madhya Pradesh","latitude":26.2183,"longitude":78.1828,"temp":28.2,"humidity":43,"rain":0.0,"pressure":977.7,"uv_index":8.2,"wind_gusts":46.8,"aqi":94,"pm10":177.0,"pm2_5":45.1,"no2":4.9,"co":295.0,"o3":100.0,"so2":6.8,"mosquito_risk":4,"arthritis_risk":5,"migraine_risk":7,"frizz_risk":0,"updated_at":"2026-05-03T00:34:26.251360+05:30"},{"city":"Indore","state":"Madhya Pradesh","latitude":22.7196,"longitude":75.8577,"temp":29.7,"humidity":36,"rain":0.0,"pressure":944.7,"uv_index":8.7,"wind_gusts":43.9,"aqi":60,"pm10":39.2,"pm2_5":19.2,"no2":4.1,"co":226.0,"o3":96.0,"so2":8.3,"mosquito_risk":4,"arthritis_risk":5,"migraine_risk":7,"frizz_risk":0,"updated_at":"2026-05-03T00:34:26.251368+05:30"},{"city":"Bhopal","state":"Madhya Pradesh","latitude":23.2599,"longitude":77.4126,"temp":27.3,"humidity":49,"rain":0.0,"pressure":949.2,"uv_index":8.7,"wind_gusts":37.4,"aqi":66,"pm10":58.1,"pm2_5":27.5,"no2":9.3,"co":256.0,"o3":59.0,"so2":4.9,"mosquito_risk":4,"arthritis_risk":5,"migraine_risk":7,"frizz_risk":0,"updated_at":"2026-05-03T00:34:26.251375+05:30"},{"city":"Jabalpur","state":"Madhya Pradesh","latitude":23.1815,"longitude":79.9864,"temp":25.0,"humidity":67,"rain":0.0,"pressure":957.1,"uv_index":8.85,"wind_gusts":31.7,"aqi":71,"pm10":64.3,"pm2_5":26.9,"no2":16.5,"co":242.0,"o3":53.0,"so2":4.5,"mosquito_risk":7,"arthritis_risk":5,"migraine_risk":7,"frizz_risk":1,"updated_at":"2026-05-03T00:34:26.251383+05:30"},{"city":"Ujjain","state":"Madhya Pradesh","latitude":23.1765,"longitude":75.7885,"temp":29.4,"humidity":35,"rain":0.0,"pressure":949.9,"uv_index":8.6,"wind_gusts":41.0,"aqi":59,"pm10":31.1,"pm2_5":17.2,"no2":3.1,"co":199.0,"o3":94.0,"so2":7.9,"mosquito_risk":4,"arthritis_risk":5,"migraine_risk":7,"frizz_risk":0,"updated_at":"2026-05-03T00:34:26.251391+05:30"},{"city":"Visakhapatnam","state":"Andhra Pradesh","latitude":17.6868,"longitude":83.2185,"temp":28.1,"humidity":95,"rain":0.0,"pressure":1001.1,"uv_index":9.1,"wind_gusts":51.5,"aqi":59,"pm10":20.7,"pm2_5":15.7,"no2":16.5,"co":276.0,"o3":63.0,"so2":3.4,"mosquito_risk":7,"arthritis_risk":5,"migraine_risk":4,"frizz_risk":1,"updated_at":"2026-05-03T00:34:26.251398+05:30"},{"city":"Vijayawada","state":"Andhra Pradesh","latitude":16.5062,"longitude":80.648,"temp":29.1,"humidity":88,"rain":0.0,"pressure":999.4,"uv_index":8.85,"wind_gusts":37.8,"aqi":99,"pm10":18.4,"pm2_5":15.4,"no2":4.4,"co":211.0,"o3":104.0,"so2":5.1,"mosquito_risk":7,"arthritis_risk":5,"migraine_risk":7,"frizz_risk":1,"updated_at":"2026-05-03T00:34:26.251406+05:30"},{"city":"Guntur","state":"Andhra Pradesh","latitude":16.3067,"longitude":80.4365,"temp":29.3,"humidity":84,"rain":0.0,"pressure":1000.5,"uv_index":9.2,"wind_gusts":34.9,"aqi":80,"pm10":19.4,"pm2_5":16.8,"no2":4.5,"co":205.0,"o3":115.0,"so2":5.9,"mosquito_risk":7,"arthritis_risk":5,"migraine_risk":4,"frizz_risk":1,"updated_at":"2026-05-03T00:34:26.251413+05:30"},{"city":"Nellore","state":"Andhra Pradesh","latitude":14.4426,"longitude":79.9865,"temp":30.4,"humidity":68,"rain":0.0,"pressure":1002.4,"uv_index":9.25,"wind_gusts":44.6,"aqi":74,"pm10":21.4,"pm2_5":20.0,"no2":10.3,"co":252.0,"o3":101.0,"so2":10.6,"mosquito_risk":3,"arthritis_risk":5,"migraine_risk":4,"frizz_risk":1,"updated_at":"2026-05-03T00:34:26.251421+05:30"},{"city":"Kurnool","state":"Andhra Pradesh","latitude":15.8281,"longitude":78.0373,"temp":31.0,"humidity":27,"rain":0.0,"pressure":973.7,"uv_index":9.2,"wind_gusts":36.4,"aqi":60,"pm10":41.7,"pm2_5":24.2,"no2":12.3,"co":313.0,"o3":71.0,"so2":5.6,"mosquito_risk":0,"arthritis_risk":5,"migraine_risk":7,"frizz_risk":0,"updated_at":"2026-05-03T00:34:26.251429+05:30"},{"city":"Kakinada","state":"Andhra Pradesh","latitude":16.9891,"longitude":82.2475,"temp":28.5,"humidity":94,"rain":0.0,"pressure":1004.8,"uv_index":9.0,"wind_gusts":36.7,"aqi":51,"pm10":17.7,"pm2_5":12.0,"no2":2.4,"co":201.0,"o3":73.0,"so2":1.5,"mosquito_risk":7,"arthritis_risk":5,"migraine_risk":4,"frizz_risk":1,"updated_at":"2026-05-03T00:34:26.251437+05:30"},{"city":"Tirupati","state":"Andhra Pradesh","latitude":13.6288,"longitude":79.4192,"temp":29.7,"humidity":62,"rain":0.0,"pressure":988.7,"uv_index":9.3,"wind_gusts":36.7,"aqi":85,"pm10":31.7,"pm2_5":29.8,"no2":11.7,"co":299.0,"o3":110.0,"so2":11.5,"mosquito_risk":7,"arthritis_risk":5,"migraine_risk":7,"frizz_risk":1,"updated_at":"2026-05-03T00:34:26.251444+05:30"},{"city":"Warangal","state":"Telangana","latitude":17.9689,"longitude":79.5941,"temp":29.8,"humidity":56,"rain":0.0,"pressure":975.0,"uv_index":9.2,"wind_gusts":48.2,"aqi":86,"pm10":37.4,"pm2_5":26.4,"no2":11.2,"co":348.0,"o3":84.0,"so2":8.4,"mosquito_risk":4,"arthritis_risk":5,"migraine_risk":7,"frizz_risk":1,"updated_at":"2026-05-03T00:34:26.251451+05:30"},{"city":"Nizamabad","state":"Telangana","latitude":18.6725,"longitude":78.0941,"temp":30.5,"humidity":28,"rain":0.0,"pressure":960.4,"uv_index":9.15,"wind_gusts":28.8,"aqi":70,"pm10":75.9,"pm2_5":39.6,"no2":23.8,"co":383.0,"o3":53.0,"so2":5.7,"mosquito_risk":0,"arthritis_risk":5,"migraine_risk":7,"frizz_risk":0,"updated_at":"2026-05-03T00:34:26.251459+05:30"},{"city":"Mysore","state":"Karnataka","latitude":12.2958,"longitude":76.6396,"temp":23.3,"humidity":93,"rain":0.0,"pressure":927.8,"uv_index":8.9,"wind_gusts":36.4,"aqi":69,"pm10":22.8,"pm2_5":17.8,"no2":11.0,"co":183.0,"o3":58.0,"so2":2.6,"mosquito_risk":3,"arthritis_risk":5,"migraine_risk":7,"frizz_risk":1,"updated_at":"2026-05-03T00:34:26.251466+05:30"},{"city":"Mangalore","state":"Karnataka","latitude":12.9141,"longitude":74.856,"temp":28.5,"humidity":81,"rain":0.0,"pressure":1006.4,"uv_index":9.0,"wind_gusts":42.5,"aqi":63,"pm10":38.8,"pm2_5":17.5,"no2":8.2,"co":278.0,"o3":51.0,"so2":2.6,"mosquito_risk":7,"arthritis_risk":5,"migraine_risk":4,"frizz_risk":1,"updated_at":"2026-05-03T00:34:26.251474+05:30"},{"city":"Hubli-Dharwad","state":"Karnataka","latitude":15.3647,"longitude":75.124,"temp":22.9,"humidity":94,"rain":0.0,"pressure":939.7,"uv_index":9.15,"wind_gusts":48.6,"aqi":61,"pm10":40.0,"pm2_5":15.1,"no2":6.0,"co":183.0,"o3":53.0,"so2":1.7,"mosquito_risk":3,"arthritis_risk":5,"migraine_risk":7,"frizz_risk":1,"updated_at":"2026-05-03T00:34:26.251481+05:30"},{"city":"Belgaum","state":"Karnataka","latitude":15.8497,"longitude":74.4977,"temp":21.9,"humidity":95,"rain":0.0,"pressure":924.5,"uv_index":9.15,"wind_gusts":44.6,"aqi":64,"pm10":43.1,"pm2_5":18.0,"no2":9.2,"co":163.0,"o3":43.0,"so2":1.1,"mosquito_risk":3,"arthritis_risk":5,"migraine_risk":7,"frizz_risk":1,"updated_at":"2026-05-03T00:34:29.646649+05:30"},{"city":"Coimbatore","state":"Tamil Nadu","latitude":11.0168,"longitude":76.9558,"temp":25.5,"humidity":88,"rain":0.0,"pressure":960.5,"uv_index":9.25,"wind_gusts":54.0,"aqi":66,"pm10":27.5,"pm2_5":23.1,"no2":8.7,"co":220.0,"o3":63.0,"so2":3.0,"mosquito_risk":7,"arthritis_risk":5,"migraine_risk":7,"frizz_risk":1,"updated_at":"2026-05-03T00:34:29.646681+05:30"},{"city":"Madurai","state":"Tamil Nadu","latitude":9.9252,"longitude":78.1198,"temp":29.1,"humidity":65,"rain":0.0,"pressure":991.7,"uv_index":9.2,"wind_gusts":35.3,"aqi":71,"pm10":32.8,"pm2_5":29.8,"no2":25.1,"co":436.0,"o3":49.0,"so2":7.9,"mosquito_risk":7,"arthritis_risk":5,"migraine_risk":7,"frizz_risk":1,"updated_at":"2026-05-03T00:34:29.646692+05:30"},{"city":"Trichy","state":"Tamil Nadu","latitude":10.7905,"longitude":78.7047,"temp":29.5,"humidity":58,"rain":0.0,"pressure":998.1,"uv_index":9.2,"wind_gusts":38.2,"aqi":65,"pm10":30.5,"pm2_5":27.3,"no2":14.5,"co":409.0,"o3":82.0,"so2":6.1,"mosquito_risk":4,"arthritis_risk":5,"migraine_risk":7,"frizz_risk":1,"updated_at":"2026-05-03T00:34:29.646700+05:30"},{"city":"Salem","state":"Tamil Nadu","latitude":11.6643,"longitude":78.146,"temp":29.3,"humidity":62,"rain":0.0,"pressure":976.1,"uv_index":9.1,"wind_gusts":57.6,"aqi":100,"pm10":31.4,"pm2_5":27.7,"no2":14.7,"co":286.0,"o3":87.0,"so2":6.3,"mosquito_risk":7,"arthritis_risk":5,"migraine_risk":7,"frizz_risk":1,"updated_at":"2026-05-03T00:34:29.646709+05:30"},{"city":"Tirunelveli","state":"Tamil Nadu","latitude":8.7139,"longitude":77.7567,"temp":29.4,"humidity":66,"rain":0.0,"pressure":1001.7,"uv_index":9.15,"wind_gusts":40.0,"aqi":61,"pm10":21.9,"pm2_5":20.2,"no2":9.9,"co":282.0,"o3":48.0,"so2":2.3,"mosquito_risk":7,"arthritis_risk":5,"migraine_risk":4,"frizz_risk":1,"updated_at":"2026-05-03T00:34:29.646717+05:30"},{"city":"Vellore","state":"Tamil Nadu","latitude":12.9165,"longitude":79.1325,"temp":30.3,"humidity":54,"rain":0.0,"pressure":982.1,"uv_index":8.55,"wind_gusts":47.9,"aqi":99,"pm10":28.8,"pm2_5":26.3,"no2":8.9,"co":333.0,"o3":110.0,"so2":8.6,"mosquito_risk":0,"arthritis_risk":5,"migraine_risk":7,"frizz_risk":1,"updated_at":"2026-05-03T00:34:29.646725+05:30"},{"city":"Erode","state":"Tamil Nadu","latitude":11.341,"longitude":77.7172,"temp":28.5,"humidity":72,"rain":0.0,"pressure":987.8,"uv_index":8.95,"wind_gusts":52.2,"aqi":71,"pm10":26.6,"pm2_5":23.8,"no2":22.8,"co":242.0,"o3":52.0,"so2":4.1,"mosquito_risk":7,"arthritis_risk":5,"migraine_risk":7,"frizz_risk":1,"updated_at":"2026-05-03T00:34:29.646733+05:30"},{"city":"Kochi","state":"Kerala","latitude":9.9312,"longitude":76.2673,"temp":26.7,"humidity":93,"rain":0.0,"pressure":1008.3,"uv_index":9.0,"wind_gusts":35.3,"aqi":73,"pm10":42.0,"pm2_5":39.5,"no2":37.3,"co":449.0,"o3":10.0,"so2":7.2,"mosquito_risk":7,"arthritis_risk":0,"migraine_risk":4,"frizz_risk":1,"updated_at":"2026-05-03T00:34:29.646741+05:30"},{"city":"Thiruvananthapuram","state":"Kerala","latitude":8.5241,"longitude":76.9366,"temp":25.1,"humidity":92,"rain":0.0,"pressure":1007.7,"uv_index":8.95,"wind_gusts":33.1,"aqi":53,"pm10":20.3,"pm2_5":14.5,"no2":5.4,"co":411.0,"o3":72.0,"so2":2.9,"mosquito_risk":7,"arthritis_risk":5,"migraine_risk":4,"frizz_risk":1,"updated_at":"2026-05-03T00:34:29.646748+05:30"},{"city":"Kozhikode","state":"Kerala","latitude":11.2588,"longitude":75.7804,"temp":26.3,"humidity":95,"rain":0.0,"pressure":1007.4,"uv_index":8.7,"wind_gusts":41.0,"aqi":57,"pm10":32.0,"pm2_5":18.7,"no2":2.8,"co":927.0,"o3":71.0,"so2":1.0,"mosquito_risk":7,"arthritis_risk":5,"migraine_risk":4,"frizz_risk":1,"updated_at":"2026-05-03T00:34:29.646755+05:30"},{"city":"Thrissur","state":"Kerala","latitude":10.5276,"longitude":76.2144,"temp":26.0,"humidity":91,"rain":0.0,"pressure":1006.7,"uv_index":8.8,"wind_gusts":34.6,"aqi":67,"pm10":42.0,"pm2_5":36.2,"no2":27.8,"co":411.0,"o3":23.0,"so2":4.9,"mosquito_risk":7,"arthritis_risk":5,"migraine_risk":4,"frizz_risk":1,"updated_at":"2026-05-03T00:34:29.646764+05:30"},{"city":"Kannur","state":"Kerala","latitude":11.8745,"longitude":75.3704,"temp":28.0,"humidity":86,"rain":0.0,"pressure":1006.7,"uv_index":9.0,"wind_gusts":46.4,"aqi":70,"pm10":28.3,"pm2_5":16.1,"no2":10.2,"co":360.0,"o3":44.0,"so2":1.9,"mosquito_risk":7,"arthritis_risk":5,"migraine_risk":4,"frizz_risk":1,"updated_at":"2026-05-03T00:34:29.646771+05:30"},{"city":"Patna","state":"Bihar","latitude":25.5941,"longitude":85.1376,"temp":24.0,"humidity":78,"rain":0.0,"pressure":997.5,"uv_index":8.7,"wind_gusts":33.1,"aqi":118,"pm10":51.2,"pm2_5":42.8,"no2":10.1,"co":341.0,"o3":116.0,"so2":11.4,"mosquito_risk":3,"arthritis_risk":5,"migraine_risk":7,"frizz_risk":1,"updated_at":"2026-05-03T00:34:29.646778+05:30"},{"city":"Gaya","state":"Bihar","latitude":24.7914,"longitude":85.0002,"temp":25.1,"humidity":69,"rain":0.0,"pressure":989.7,"uv_index":8.8,"wind_gusts":29.9,"aqi":132,"pm10":57.4,"pm2_5":46.8,"no2":8.6,"co":407.0,"o3":139.0,"so2":18.1,"mosquito_risk":7,"arthritis_risk":5,"migraine_risk":7,"frizz_risk":1,"updated_at":"2026-05-03T00:34:29.646785+05:30"},{"city":"Muzaffarpur","state":"Bihar","latitude":26.1209,"longitude":85.3647,"temp":23.0,"humidity":76,"rain":0.0,"pressure":998.2,"uv_index":8.7,"wind_gusts":34.9,"aqi":106,"pm10":38.1,"pm2_5":32.0,"no2":9.5,"co":361.0,"o3":110.0,"so2":9.0,"mosquito_risk":3,"arthritis_risk":5,"migraine_risk":7,"frizz_risk":1,"updated_at":"2026-05-03T00:34:29.646792+05:30"},{"city":"Bhagalpur","state":"Bihar","latitude":25.2425,"longitude":87.0117,"temp":23.1,"humidity":88,"rain":0.0,"pressure":998.7,"uv_index":7.85,"wind_gusts":31.0,"aqi":117,"pm10":59.6,"pm2_5":50.2,"no2":12.1,"co":425.0,"o3":92.0,"so2":8.7,"mosquito_risk":3,"arthritis_risk":5,"migraine_risk":7,"frizz_risk":1,"updated_at":"2026-05-03T00:34:29.646799+05:30"},{"city":"Ranchi","state":"Jharkhand","latitude":23.3441,"longitude":85.3096,"temp":23.5,"humidity":61,"rain":0.0,"pressure":933.3,"uv_index":9.25,"wind_gusts":37.1,"aqi":106,"pm10":67.3,"pm2_5":48.2,"no2":16.9,"co":304.0,"o3":87.0,"so2":27.2,"mosquito_risk":3,"arthritis_risk":5,"migraine_risk":7,"frizz_risk":0,"updated_at":"2026-05-03T00:34:29.646806+05:30"},{"city":"Jamshedpur","state":"Jharkhand","latitude":22.8046,"longitude":86.2029,"temp":24.5,"humidity":87,"rain":0.0,"pressure":986.9,"uv_index":9.05,"wind_gusts":38.9,"aqi":131,"pm10":52.5,"pm2_5":42.4,"no2":12.0,"co":390.0,"o3":103.0,"so2":14.6,"mosquito_risk":3,"arthritis_risk":5,"migraine_risk":7,"frizz_risk":1,"updated_at":"2026-05-03T00:34:29.646813+05:30"},{"city":"Dhanbad","state":"Jharkhand","latitude":23.7957,"longitude":86.4304,"temp":23.5,"humidity":92,"rain":0.0,"pressure":976.3,"uv_index":9.0,"wind_gusts":36.0,"aqi":157,"pm10":75.2,"pm2_5":71.5,"no2":40.8,"co":486.0,"o3":78.0,"so2":70.9,"mosquito_risk":3,"arthritis_risk":5,"migraine_risk":7,"frizz_risk":1,"updated_at":"2026-05-03T00:34:29.646821+05:30"},{"city":"Bokaro","state":"Jharkhand","latitude":23.6693,"longitude":86.1511,"temp":23.5,"humidity":89,"rain":0.0,"pressure":980.0,"uv_index":9.0,"wind_gusts":36.0,"aqi":155,"pm10":100.8,"pm2_5":92.9,"no2":44.2,"co":500.0,"o3":81.0,"so2":90.4,"mosquito_risk":3,"arthritis_risk":5,"migraine_risk":7,"frizz_risk":1,"updated_at":"2026-05-03T00:34:29.646828+05:30"},{"city":"Bhubaneswar","state":"Odisha","latitude":20.2961,"longitude":85.8245,"temp":27.7,"humidity":91,"rain":0.0,"pressure":998.8,"uv_index":9.1,"wind_gusts":54.7,"aqi":54,"pm10":16.5,"pm2_5":13.9,"no2":6.4,"co":212.0,"o3":68.0,"so2":4.6,"mosquito_risk":7,"arthritis_risk":5,"migraine_risk":7,"frizz_risk":1,"updated_at":"2026-05-03T00:34:29.646835+05:30"},{"city":"Cuttack","state":"Odisha","latitude":20.4625,"longitude":85.8828,"temp":28.0,"humidity":89,"rain":0.0,"pressure":1000.7,"uv_index":9.15,"wind_gusts":46.4,"aqi":54,"pm10":16.5,"pm2_5":13.9,"no2":6.4,"co":245.0,"o3":68.0,"so2":4.6,"mosquito_risk":7,"arthritis_risk":5,"migraine_risk":4,"frizz_risk":1,"updated_at":"2026-05-03T00:34:29.646842+05:30"},{"city":"Rourkela","state":"Odisha","latitude":22.2604,"longitude":84.8536,"temp":27.7,"humidity":55,"rain":0.0,"pressure":980.7,"uv_index":9.0,"wind_gusts":35.6,"aqi":111,"pm10":70.3,"pm2_5":47.4,"no2":22.6,"co":411.0,"o3":67.0,"so2":33.9,"mosquito_risk":4,"arthritis_risk":5,"migraine_risk":7,"frizz_risk":1,"updated_at":"2026-05-03T00:34:29.646849+05:30"},{"city":"Raipur","state":"Chhattisgarh","latitude":21.2514,"longitude":81.6296,"temp":31.4,"humidity":38,"rain":0.0,"pressure":970.5,"uv_index":8.6,"wind_gusts":37.8,"aqi":103,"pm10":83.8,"pm2_5":44.8,"no2":36.4,"co":368.0,"o3":63.0,"so2":8.4,"mosquito_risk":0,"arthritis_risk":5,"migraine_risk":7,"frizz_risk":0,"updated_at":"2026-05-03T00:34:29.646857+05:30"},{"city":"Bhilai","state":"Chhattisgarh","latitude":21.1938,"longitude":81.3509,"temp":29.9,"humidity":43,"rain":0.0,"pressure":971.0,"uv_index":9.0,"wind_gusts":39.2,"aqi":103,"pm10":93.6,"pm2_5":50.3,"no2":37.8,"co":495.0,"o3":58.0,"so2":8.4,"mosquito_risk":4,"arthritis_risk":5,"migraine_risk":7,"frizz_risk":0,"updated_at":"2026-05-03T00:34:29.646865+05:30"},{"city":"Guwahati","state":"Assam","latitude":26.1158,"longitude":91.7086,"temp":20.5,"humidity":98,"rain":0.0,"pressure":1000.7,"uv_index":7.1,"wind_gusts":28.1,"aqi":66,"pm10":33.2,"pm2_5":30.6,"no2":15.1,"co":338.0,"o3":51.0,"so2":4.1,"mosquito_risk":3,"arthritis_risk":5,"migraine_risk":4,"frizz_risk":1,"updated_at":"2026-05-03T00:34:29.646873+05:30"},{"city":"Agartala","state":"Tripura","latitude":23.8315,"longitude":91.2868,"temp":21.6,"humidity":96,"rain":0.0,"pressure":1004.1,"uv_index":8.8,"wind_gusts":40.7,"aqi":39,"pm10":15.5,"pm2_5":11.8,"no2":13.9,"co":198.0,"o3":44.0,"so2":1.8,"mosquito_risk":3,"arthritis_risk":5,"migraine_risk":4,"frizz_risk":1,"updated_at":"2026-05-03T00:34:29.646880+05:30"},{"city":"Shillong","state":"Meghalaya","latitude":25.5788,"longitude":91.8933,"temp":14.8,"humidity":98,"rain":0.6,"pressure":853.2,"uv_index":8.9,"wind_gusts":28.1,"aqi":43,"pm10":4.4,"pm2_5":2.3,"no2":5.3,"co":245.0,"o3":81.0,"so2":0.7,"mosquito_risk":6,"arthritis_risk":10,"migraine_risk":7,"frizz_risk":0,"updated_at":"2026-05-03T00:34:29.646888+05:30"},{"city":"Imphal","state":"Manipur","latitude":24.817,"longitude":93.9368,"temp":17.9,"humidity":94,"rain":0.0,"pressure":921.0,"uv_index":8.8,"wind_gusts":33.1,"aqi":52,"pm10":29.0,"pm2_5":26.2,"no2":20.5,"co":684.0,"o3":33.0,"so2":3.2,"mosquito_risk":3,"arthritis_risk":10,"migraine_risk":7,"frizz_risk":1,"updated_at":"2026-05-03T00:34:29.646895+05:30"},{"city":"Aizawl","state":"Mizoram","latitude":23.7271,"longitude":92.7176,"temp":14.6,"humidity":97,"rain":0.0,"pressure":888.7,"uv_index":8.55,"wind_gusts":43.9,"aqi":29,"pm10":17.1,"pm2_5":8.7,"no2":3.0,"co":176.0,"o3":65.0,"so2":0.6,"mosquito_risk":3,"arthritis_risk":10,"migraine_risk":7,"frizz_risk":0,"updated_at":"2026-05-03T00:34:29.646903+05:30"},{"city":"Kohima","state":"Nagaland","latitude":25.6701,"longitude":94.1077,"temp":14.7,"humidity":92,"rain":0.1,"pressure":851.5,"uv_index":8.55,"wind_gusts":25.9,"aqi":36,"pm10":11.9,"pm2_5":7.4,"no2":7.5,"co":352.0,"o3":61.0,"so2":0.9,"mosquito_risk":6,"arthritis_risk":10,"migraine_risk":7,"frizz_risk":0,"updated_at":"2026-05-03T00:34:29.646911+05:30"},{"city":"Gangtok","state":"Sikkim","latitude":27.3314,"longitude":88.6138,"temp":11.6,"humidity":94,"rain":0.1,"pressure":833.6,"uv_index":8.75,"wind_gusts":39.6,"aqi":53,"pm10":19.3,"pm2_5":18.5,"no2":23.0,"co":587.0,"o3":58.0,"so2":1.8,"mosquito_risk":6,"arthritis_risk":10,"migraine_risk":7,"frizz_risk":0,"updated_at":"2026-05-03T00:34:29.646918+05:30"},{"city":"Siliguri","state":"West Bengal","latitude":26.7271,"longitude":88.3953,"temp":20.7,"humidity":81,"rain":0.0,"pressure":992.2,"uv_index":6.1,"wind_gusts":27.0,"aqi":62,"pm10":23.7,"pm2_5":22.7,"no2":15.0,"co":442.0,"o3":94.0,"so2":4.4,"mosquito_risk":3,"arthritis_risk":5,"migraine_risk":7,"frizz_risk":1,"updated_at":"2026-05-03T00:34:33.073351+05:30"},{"city":"Durgapur","state":"West Bengal","latitude":23.5204,"longitude":87.3119,"temp":23.2,"humidity":96,"rain":0.0,"pressure":992.1,"uv_index":8.95,"wind_gusts":32.8,"aqi":151,"pm10":44.4,"pm2_5":40.9,"no2":25.9,"co":447.0,"o3":69.0,"so2":28.1,"mosquito_risk":3,"arthritis_risk":5,"migraine_risk":7,"frizz_risk":1,"updated_at":"2026-05-03T00:34:33.073388+05:30"},{"city":"Asansol","state":"West Bengal","latitude":23.6739,"longitude":86.9524,"temp":23.5,"humidity":98,"rain":0.0,"pressure":990.6,"uv_index":9.0,"wind_gusts":32.4,"aqi":152,"pm10":54.4,"pm2_5":50.8,"no2":29.0,"co":447.0,"o3":77.0,"so2":46.7,"mosquito_risk":3,"arthritis_risk":5,"migraine_risk":7,"frizz_risk":1,"updated_at":"2026-05-03T00:34:33.073401+05:30"},{"city":"Pondicherry","state":"Puducherry","latitude":11.9139,"longitude":79.8145,"temp":29.4,"humidity":83,"rain":0.0,"pressure":1006.0,"uv_index":8.45,"wind_gusts":51.8,"aqi":50,"pm10":12.8,"pm2_5":10.8,"no2":9.7,"co":257.0,"o3":67.0,"so2":8.0,"mosquito_risk":7,"arthritis_risk":5,"migraine_risk":4,"frizz_risk":1,"updated_at":"2026-05-03T00:34:33.073413+05:30"},{"city":"Port Blair","state":"Andaman and Nicobar Islands","latitude":11.6234,"longitude":92.7265,"temp":28.0,"humidity":78,"rain":0.0,"pressure":1006.6,"uv_index":9.05,"wind_gusts":27.4,"aqi":36,"pm10":10.6,"pm2_5":7.6,"no2":0.3,"co":148.0,"o3":58.0,"so2":0.3,"mosquito_risk":7,"arthritis_risk":5,"migraine_risk":4,"frizz_risk":1,"updated_at":"2026-05-03T00:34:33.073422+05:30"},{"city":"Haridwar","state":"Uttarakhand","latitude":29.9457,"longitude":78.1642,"temp":20.6,"humidity":81,"rain":0.0,"pressure":968.9,"uv_index":6.85,"wind_gusts":46.1,"aqi":112,"pm10":61.0,"pm2_5":41.0,"no2":12.7,"co":335.0,"o3":82.0,"so2":5.8,"mosquito_risk":3,"arthritis_risk":5,"migraine_risk":7,"frizz_risk":1,"updated_at":"2026-05-03T00:34:33.073430+05:30"},{"city":"Rishikesh","state":"Uttarakhand","latitude":30.0869,"longitude":78.2676,"temp":19.1,"humidity":83,"rain":0.0,"pressure":961.7,"uv_index":7.3,"wind_gusts":41.0,"aqi":103,"pm10":60.1,"pm2_5":38.8,"no2":10.7,"co":328.0,"o3":86.0,"so2":3.6,"mosquito_risk":3,"arthritis_risk":10,"migraine_risk":7,"frizz_risk":0,"updated_at":"2026-05-03T00:34:33.073439+05:30"},{"city":"Nainital","state":"Uttarakhand","latitude":29.3919,"longitude":79.4542,"temp":12.8,"humidity":75,"rain":0.0,"pressure":801.1,"uv_index":8.35,"wind_gusts":45.0,"aqi":99,"pm10":62.9,"pm2_5":34.0,"no2":10.2,"co":287.0,"o3":95.0,"so2":4.7,"mosquito_risk":3,"arthritis_risk":5,"migraine_risk":7,"frizz_risk":0,"updated_at":"2026-05-03T00:34:33.073446+05:30"},{"city":"Mussoorie","state":"Uttarakhand","latitude":30.4599,"longitude":78.0664,"temp":14.1,"humidity":64,"rain":0.0,"pressure":798.8,"uv_index":6.95,"wind_gusts":45.0,"aqi":105,"pm10":64.7,"pm2_5":42.6,"no2":36.6,"co":296.0,"o3":38.0,"so2":10.7,"mosquito_risk":3,"arthritis_risk":5,"migraine_risk":7,"frizz_risk":0,"updated_at":"2026-05-03T00:34:33.073454+05:30"},{"city":"Dharamshala","state":"Himachal Pradesh","latitude":32.219,"longitude":76.3234,"temp":20.7,"humidity":37,"rain":0.0,"pressure":864.3,"uv_index":8.15,"wind_gusts":53.3,"aqi":60,"pm10":13.7,"pm2_5":11.2,"no2":11.1,"co":197.0,"o3":59.0,"so2":0.2,"mosquito_risk":0,"arthritis_risk":5,"migraine_risk":7,"frizz_risk":0,"updated_at":"2026-05-03T00:34:33.073461+05:30"},{"city":"Dalhousie","state":"Himachal Pradesh","latitude":32.5387,"longitude":75.971,"temp":9.3,"humidity":76,"rain":0.0,"pressure":796.0,"uv_index":8.5,"wind_gusts":40.0,"aqi":56,"pm10":26.3,"pm2_5":24.0,"no2":44.1,"co":459.0,"o3":19.0,"so2":1.9,"mosquito_risk":3,"arthritis_risk":5,"migraine_risk":7,"frizz_risk":0,"updated_at":"2026-05-03T00:34:33.073469+05:30"},{"city":"Patiala","state":"Punjab","latitude":30.3398,"longitude":76.3869,"temp":26.5,"humidity":51,"rain":0.0,"pressure":972.2,"uv_index":7.35,"wind_gusts":50.8,"aqi":242,"pm10":76.8,"pm2_5":47.8,"no2":20.1,"co":440.0,"o3":75.0,"so2":18.7,"mosquito_risk":4,"arthritis_risk":5,"migraine_risk":7,"frizz_risk":0,"updated_at":"2026-05-03T00:34:33.073476+05:30"},{"city":"Bhatinda","state":"Punjab","latitude":30.211,"longitude":74.9455,"temp":28.7,"humidity":38,"rain":0.0,"pressure":976.7,"uv_index":8.15,"wind_gusts":53.6,"aqi":130,"pm10":142.5,"pm2_5":34.3,"no2":7.1,"co":377.0,"o3":109.0,"so2":6.0,"mosquito_risk":4,"arthritis_risk":5,"migraine_risk":7,"frizz_risk":0,"updated_at":"2026-05-03T00:34:33.073483+05:30"},{"city":"Rohtak","state":"Haryana","latitude":28.8955,"longitude":76.6066,"temp":27.4,"humidity":49,"rain":0.0,"pressure":976.0,"uv_index":7.65,"wind_gusts":47.9,"aqi":367,"pm10":435.9,"pm2_5":104.3,"no2":33.3,"co":651.0,"o3":73.0,"so2":27.4,"mosquito_risk":4,"arthritis_risk":5,"migraine_risk":7,"frizz_risk":0,"updated_at":"2026-05-03T00:34:33.073491+05:30"},{"city":"Panipat","state":"Haryana","latitude":29.3909,"longitude":76.9635,"temp":25.9,"humidity":54,"rain":0.0,"pressure":974.6,"uv_index":7.45,"wind_gusts":54.7,"aqi":467,"pm10":435.9,"pm2_5":107.3,"no2":32.6,"co":561.0,"o3":55.0,"so2":19.6,"mosquito_risk":4,"arthritis_risk":5,"migraine_risk":7,"frizz_risk":0,"updated_at":"2026-05-03T00:34:33.073498+05:30"},{"city":"Mathura","state":"Uttar Pradesh","latitude":27.4924,"longitude":77.6737,"temp":27.0,"humidity":49,"rain":0.0,"pressure":981.0,"uv_index":7.85,"wind_gusts":36.4,"aqi":639,"pm10":754.4,"pm2_5":104.5,"no2":10.6,"co":394.0,"o3":96.0,"so2":11.2,"mosquito_risk":4,"arthritis_risk":5,"migraine_risk":7,"frizz_risk":0,"updated_at":"2026-05-03T00:34:33.073505+05:30"},{"city":"Vrindavan","state":"Uttar Pradesh","latitude":27.5823,"longitude":77.7027,"temp":27.5,"humidity":48,"rain":0.0,"pressure":981.4,"uv_index":7.85,"wind_gusts":36.7,"aqi":639,"pm10":754.4,"pm2_5":104.5,"no2":10.6,"co":381.0,"o3":96.0,"so2":11.2,"mosquito_risk":4,"arthritis_risk":5,"migraine_risk":7,"frizz_risk":0,"updated_at":"2026-05-03T00:34:33.073512+05:30"},{"city":"Ayodhya","state":"Uttar Pradesh","latitude":26.7922,"longitude":82.1998,"temp":25.0,"humidity":68,"rain":0.0,"pressure":992.2,"uv_index":8.25,"wind_gusts":36.7,"aqi":86,"pm10":52.9,"pm2_5":34.6,"no2":10.4,"co":364.0,"o3":110.0,"so2":7.1,"mosquito_risk":7,"arthritis_risk":5,"migraine_risk":7,"frizz_risk":1,"updated_at":"2026-05-03T00:34:33.073519+05:30"},{"city":"Ratlam","state":"Madhya Pradesh","latitude":23.3315,"longitude":75.0367,"temp":28.2,"humidity":55,"rain":0.0,"pressure":951.0,"uv_index":8.5,"wind_gusts":44.3,"aqi":57,"pm10":22.6,"pm2_5":14.0,"no2":3.5,"co":203.0,"o3":91.0,"so2":9.7,"mosquito_risk":4,"arthritis_risk":5,"migraine_risk":7,"frizz_risk":1,"updated_at":"2026-05-03T00:34:33.073527+05:30"},{"city":"Sagar","state":"Madhya Pradesh","latitude":23.8388,"longitude":78.7378,"temp":23.6,"humidity":72,"rain":0.0,"pressure":945.3,"uv_index":8.7,"wind_gusts":42.5,"aqi":62,"pm10":53.2,"pm2_5":21.1,"no2":6.4,"co":183.0,"o3":73.0,"so2":3.3,"mosquito_risk":3,"arthritis_risk":5,"migraine_risk":7,"frizz_risk":1,"updated_at":"2026-05-03T00:34:33.073533+05:30"},{"city":"Satna","state":"Madhya Pradesh","latitude":24.6005,"longitude":80.8322,"temp":25.8,"humidity":54,"rain":0.0,"pressure":967.0,"uv_index":8.75,"wind_gusts":37.4,"aqi":66,"pm10":47.0,"pm2_5":24.9,"no2":30.2,"co":335.0,"o3":43.0,"so2":6.2,"mosquito_risk":4,"arthritis_risk":5,"migraine_risk":7,"frizz_risk":0,"updated_at":"2026-05-03T00:34:33.073541+05:30"},{"city":"Akola","state":"Maharashtra","latitude":20.7002,"longitude":77.0082,"temp":32.3,"humidity":32,"rain":0.0,"pressure":971.2,"uv_index":8.9,"wind_gusts":45.0,"aqi":59,"pm10":35.6,"pm2_5":15.8,"no2":6.5,"co":202.0,"o3":82.0,"so2":16.7,"mosquito_risk":0,"arthritis_risk":5,"migraine_risk":7,"frizz_risk":0,"updated_at":"2026-05-03T00:34:33.073549+05:30"},{"city":"Amravati","state":"Maharashtra","latitude":20.9374,"longitude":77.7796,"temp":28.9,"humidity":48,"rain":0.0,"pressure":963.3,"uv_index":8.9,"wind_gusts":41.0,"aqi":59,"pm10":29.7,"pm2_5":14.8,"no2":6.9,"co":290.0,"o3":81.0,"so2":15.3,"mosquito_risk":4,"arthritis_risk":5,"migraine_risk":7,"frizz_risk":1,"updated_at":"2026-05-03T00:34:33.073558+05:30"},{"city":"Latur","state":"Maharashtra","latitude":18.4088,"longitude":76.5604,"temp":30.3,"humidity":27,"rain":0.0,"pressure":937.3,"uv_index":9.1,"wind_gusts":39.2,"aqi":58,"pm10":32.8,"pm2_5":18.6,"no2":10.0,"co":237.0,"o3":75.0,"so2":6.3,"mosquito_risk":0,"arthritis_risk":5,"migraine_risk":7,"frizz_risk":0,"updated_at":"2026-05-03T00:34:33.073565+05:30"},{"city":"Nanded","state":"Maharashtra","latitude":19.1383,"longitude":77.3091,"temp":31.1,"humidity":24,"rain":0.0,"pressure":964.6,"uv_index":9.0,"wind_gusts":28.1,"aqi":61,"pm10":40.5,"pm2_5":22.4,"no2":14.5,"co":431.0,"o3":51.0,"so2":4.0,"mosquito_risk":0,"arthritis_risk":5,"migraine_risk":7,"frizz_risk":0,"updated_at":"2026-05-03T00:34:33.073572+05:30"},{"city":"Gulbarga","state":"Karnataka","latitude":17.3297,"longitude":76.8343,"temp":31.6,"humidity":26,"rain":0.0,"pressure":955.5,"uv_index":9.1,"wind_gusts":41.4,"aqi":59,"pm10":25.2,"pm2_5":15.5,"no2":14.5,"co":229.0,"o3":58.0,"so2":4.4,"mosquito_risk":0,"arthritis_risk":5,"migraine_risk":7,"frizz_risk":0,"updated_at":"2026-05-03T00:34:33.073578+05:30"},{"city":"Bidar","state":"Karnataka","latitude":17.9104,"longitude":77.5199,"temp":29.4,"humidity":31,"rain":0.0,"pressure":931.9,"uv_index":9.15,"wind_gusts":32.0,"aqi":69,"pm10":62.6,"pm2_5":40.4,"no2":34.1,"co":291.0,"o3":41.0,"so2":6.0,"mosquito_risk":4,"arthritis_risk":5,"migraine_risk":7,"frizz_risk":0,"updated_at":"2026-05-03T00:34:33.073585+05:30"},{"city":"Hospet","state":"Karnataka","latitude":15.2689,"longitude":76.3909,"temp":26.5,"humidity":77,"rain":0.0,"pressure":954.6,"uv_index":9.2,"wind_gusts":46.8,"aqi":59,"pm10":30.0,"pm2_5":14.2,"no2":4.7,"co":180.0,"o3":59.0,"so2":1.9,"mosquito_risk":7,"arthritis_risk":5,"migraine_risk":7,"frizz_risk":1,"updated_at":"2026-05-03T00:34:33.073592+05:30"},{"city":"Tirupur","state":"Tamil Nadu","latitude":11.1085,"longitude":77.3411,"temp":26.4,"humidity":86,"rain":0.0,"pressure":974.0,"uv_index":9.35,"wind_gusts":49.3,"aqi":73,"pm10":32.7,"pm2_5":27.8,"no2":23.0,"co":225.0,"o3":53.0,"so2":6.0,"mosquito_risk":7,"arthritis_risk":5,"migraine_risk":7,"frizz_risk":1,"updated_at":"2026-05-03T00:34:33.073599+05:30"},{"city":"Alappuzha","state":"Kerala","latitude":9.4981,"longitude":76.3388,"temp":26.1,"humidity":95,"rain":0.0,"pressure":1008.4,"uv_index":9.0,"wind_gusts":33.5,"aqi":72,"pm10":36.1,"pm2_5":28.1,"no2":20.0,"co":244.0,"o3":48.0,"so2":5.2,"mosquito_risk":7,"arthritis_risk":0,"migraine_risk":4,"frizz_risk":1,"updated_at":"2026-05-03T00:34:33.073606+05:30"},{"city":"Munnar","state":"Kerala","latitude":10.0889,"longitude":77.0595,"temp":17.5,"humidity":90,"rain":0.0,"pressure":856.0,"uv_index":9.35,"wind_gusts":23.4,"aqi":56,"pm10":16.5,"pm2_5":15.7,"no2":11.7,"co":232.0,"o3":34.0,"so2":1.3,"mosquito_risk":3,"arthritis_risk":10,"migraine_risk":7,"frizz_risk":0,"updated_at":"2026-05-03T00:34:33.073614+05:30"},{"city":"Silchar","state":"Assam","latitude":24.8333,"longitude":92.7789,"temp":20.6,"humidity":96,"rain":0.0,"pressure":1004.0,"uv_index":8.7,"wind_gusts":33.1,"aqi":52,"pm10":20.2,"pm2_5":14.5,"no2":9.1,"co":240.0,"o3":62.0,"so2":3.5,"mosquito_risk":3,"arthritis_risk":5,"migraine_risk":4,"frizz_risk":1,"updated_at":"2026-05-03T00:34:33.073621+05:30"},{"city":"Dibrugarh","state":"Assam","latitude":27.4728,"longitude":94.912,"temp":21.5,"humidity":96,"rain":0.0,"pressure":994.6,"uv_index":7.8,"wind_gusts":25.2,"aqi":58,"pm10":19.3,"pm2_5":16.6,"no2":11.5,"co":374.0,"o3":53.0,"so2":1.4,"mosquito_risk":3,"arthritis_risk":5,"migraine_risk":7,"frizz_risk":1,"updated_at":"2026-05-03T00:34:33.073628+05:30"}]