[{"city":"Delhi","state":"Delhi","latitude":28.6139,"longitude":77.209,"temp":30.8,"humidity":30,"rain":0.0,"pressure":984.0,"uv_index":5.95,"wind_gusts":26.6,"aqi":195,"pm10":244.9,"pm2_5":49.7,"mosquito_risk":0,"arthritis_risk":5,"migraine_risk":3,"frizz_risk":0,"updated_at":"2026-03-18T16:32:10.087516+05:30"},{"city":"Mumbai","state":"Maharashtra","latitude":19.076,"longitude":72.8777,"temp":27.3,"humidity":69,"rain":0.0,"pressure":1008.2,"uv_index":7.7,"wind_gusts":21.6,"aqi":101,"pm10":34.9,"pm2_5":17.4,"mosquito_risk":7,"arthritis_risk":0,"migraine_risk":4,"frizz_risk":1,"updated_at":"2026-03-18T16:32:10.087556+05:30"},{"city":"Bangalore","state":"Karnataka","latitude":12.9716,"longitude":77.5946,"temp":29.9,"humidity":34,"rain":0.0,"pressure":911.1,"uv_index":9.35,"wind_gusts":24.8,"aqi":90,"pm10":26.5,"pm2_5":22.8,"mosquito_risk":4,"arthritis_risk":5,"migraine_risk":7,"frizz_risk":0,"updated_at":"2026-03-18T16:32:10.087571+05:30"},{"city":"Hyderabad","state":"Telangana","latitude":17.385,"longitude":78.4867,"temp":29.3,"humidity":41,"rain":0.0,"pressure":953.9,"uv_index":7.45,"wind_gusts":22.0,"aqi":91,"pm10":44.9,"pm2_5":36.7,"mosquito_risk":4,"arthritis_risk":5,"migraine_risk":7,"frizz_risk":0,"updated_at":"2026-03-18T16:32:10.087582+05:30"},{"city":"Chennai","state":"Tamil Nadu","latitude":13.0827,"longitude":80.2707,"temp":30.0,"humidity":63,"rain":0.0,"pressure":1007.9,"uv_index":9.1,"wind_gusts":29.9,"aqi":37,"pm10":10.2,"pm2_5":6.8,"mosquito_risk":7,"arthritis_risk":5,"migraine_risk":4,"frizz_risk":1,"updated_at":"2026-03-18T16:32:10.087591+05:30"},{"city":"Kolkata","state":"West Bengal","latitude":22.5726,"longitude":88.3639,"temp":27.7,"humidity":69,"rain":0.0,"pressure":1007.5,"uv_index":7.85,"wind_gusts":33.8,"aqi":78,"pm10":30.7,"pm2_5":25.8,"mosquito_risk":7,"arthritis_risk":5,"migraine_risk":4,"frizz_risk":1,"updated_at":"2026-03-18T16:32:10.087599+05:30"},{"city":"Pune","state":"Maharashtra","latitude":18.5204,"longitude":73.8567,"temp":31.5,"humidity":36,"rain":0.0,"pressure":947.7,"uv_index":8.25,"wind_gusts":40.0,"aqi":130,"pm10":34.9,"pm2_5":24.4,"mosquito_risk":0,"arthritis_risk":5,"migraine_risk":7,"frizz_risk":0,"updated_at":"2026-03-18T16:32:10.087610+05:30"},{"city":"Ahmedabad","state":"Gujarat","latitude":23.0225,"longitude":72.5714,"temp":35.6,"humidity":25,"rain":0.0,"pressure":1000.6,"uv_index":7.55,"wind_gusts":24.1,"aqi":72,"pm10":26.8,"pm2_5":10.7,"mosquito_risk":0,"arthritis_risk":5,"migraine_risk":7,"frizz_risk":0,"updated_at":"2026-03-18T16:32:10.087618+05:30"},{"city":"Jaipur","state":"Rajasthan","latitude":26.9124,"longitude":75.7873,"temp":30.8,"humidity":28,"rain":0.0,"pressure":960.3,"uv_index":7.0,"wind_gusts":27.7,"aqi":179,"pm10":122.5,"pm2_5":23.7,"mosquito_risk":0,"arthritis_risk":5,"migraine_risk":7,"frizz_risk":0,"updated_at":"2026-03-18T16:32:10.087625+05:30"},{"city":"Lucknow","state":"Uttar Pradesh","latitude":26.8467,"longitude":80.9462,"temp":32.8,"humidity":26,"rain":0.0,"pressure":994.3,"uv_index":6.5,"wind_gusts":24.1,"aqi":97,"pm10":78.2,"pm2_5":22.4,"mosquito_risk":0,"arthritis_risk":5,"migraine_risk":7,"frizz_risk":0,"updated_at":"2026-03-18T16:32:10.087633+05:30"},{"city":"Kanpur","state":"Uttar Pradesh","latitude":26.4499,"longitude":80.3319,"temp":32.5,"humidity":30,"rain":0.0,"pressure":992.6,"uv_index":6.6,"wind_gusts":21.6,"aqi":99,"pm10":159.7,"pm2_5":30.7,"mosquito_risk":0,"arthritis_risk":5,"migraine_risk":7,"frizz_risk":0,"updated_at":"2026-03-18T16:32:10.087639+05:30"},{"city":"Chandigarh","state":"Chandigarh","latitude":30.7333,"longitude":76.7794,"temp":23.2,"humidity":58,"rain":0.0,"pressure":972.0,"uv_index":5.4,"wind_gusts":25.6,"aqi":89,"pm10":59.8,"pm2_5":21.8,"mosquito_risk":0,"arthritis_risk":5,"migraine_risk":3,"frizz_risk":0,"updated_at":"2026-03-18T16:32:10.087647+05:30"},{"city":"Srinagar","state":"Jammu and Kashmir","latitude":34.0837,"longitude":74.7973,"temp":7.8,"humidity":75,"rain":0.1,"pressure":841.2,"uv_index":4.45,"wind_gusts":19.8,"aqi":148,"pm10":46.8,"pm2_5":25.7,"mosquito_risk":6,"arthritis_risk":5,"migraine_risk":3,"frizz_risk":0,"updated_at":"2026-03-18T16:32:10.087653+05:30"},{"city":"Jammu","state":"Jammu and Kashmir","latitude":32.7266,"longitude":74.857,"temp":19.1,"humidity":80,"rain":0.1,"pressure":977.9,"uv_index":2.7,"wind_gusts":15.5,"aqi":91,"pm10":47.5,"pm2_5":23.9,"mosquito_risk":6,"arthritis_risk":5,"migraine_risk":3,"frizz_risk":0,"updated_at":"2026-03-18T16:32:10.087661+05:30"},{"city":"Amritsar","state":"Punjab","latitude":31.634,"longitude":74.8723,"temp":17.8,"humidity":88,"rain":0.0,"pressure":985.4,"uv_index":3.95,"wind_gusts":25.6,"aqi":126,"pm10":47.7,"pm2_5":23.6,"mosquito_risk":3,"arthritis_risk":10,"migraine_risk":3,"frizz_risk":0,"updated_at":"2026-03-18T16:32:10.087668+05:30"},{"city":"Ludhiana","state":"Punjab","latitude":30.901,"longitude":75.8573,"temp":20.9,"humidity":63,"rain":0.0,"pressure":982.6,"uv_index":5.65,"wind_gusts":37.8,"aqi":143,"pm10":57.7,"pm2_5":36.7,"mosquito_risk":3,"arthritis_risk":5,"migraine_risk":3,"frizz_risk":0,"updated_at":"2026-03-18T16:32:10.087673+05:30"},{"city":"Jalandhar","state":"Punjab","latitude":31.326,"longitude":75.5762,"temp":18.2,"humidity":79,"rain":0.1,"pressure":984.4,"uv_index":5.4,"wind_gusts":38.9,"aqi":131,"pm10":45.9,"pm2_5":25.8,"mosquito_risk":6,"arthritis_risk":5,"migraine_risk":3,"frizz_risk":0,"updated_at":"2026-03-18T16:32:10.087682+05:30"},{"city":"Dehradun","state":"Uttarakhand","latitude":30.6284,"longitude":78.0322,"temp":15.9,"humidity":41,"rain":0.0,"pressure":831.9,"uv_index":5.3,"wind_gusts":29.5,"aqi":50,"pm10":41.1,"pm2_5":9.8,"mosquito_risk":0,"arthritis_risk":5,"migraine_risk":3,"frizz_risk":0,"updated_at":"2026-03-18T16:32:10.087688+05:30"},{"city":"Shimla","state":"Himachal Pradesh","latitude":31.1048,"longitude":77.1734,"temp":12.9,"humidity":64,"rain":0.1,"pressure":785.4,"uv_index":4.9,"wind_gusts":45.0,"aqi":60,"pm10":33.8,"pm2_5":11.3,"mosquito_risk":6,"arthritis_risk":5,"migraine_risk":3,"frizz_risk":0,"updated_at":"2026-03-18T16:32:10.087696+05:30"},{"city":"Manali","state":"Himachal Pradesh","latitude":32.2396,"longitude":77.1887,"temp":9.9,"humidity":95,"rain":0.4,"pressure":819.0,"uv_index":6.45,"wind_gusts":24.5,"aqi":51,"pm10":23.8,"pm2_5":6.1,"mosquito_risk":6,"arthritis_risk":10,"migraine_risk":7,"frizz_risk":0,"updated_at":"2026-03-18T16:32:10.087703+05:30"},{"city":"Gurgaon","state":"Haryana","latitude":28.4595,"longitude":77.0266,"temp":30.4,"humidity":34,"rain":0.0,"pressure":982.3,"uv_index":6.25,"wind_gusts":24.8,"aqi":644,"pm10":864.3,"pm2_5":111.3,"mosquito_risk":0,"arthritis_risk":5,"migraine_risk":7,"frizz_risk":0,"updated_at":"2026-03-18T16:32:10.087711+05:30"},{"city":"Noida","state":"Uttar Pradesh","latitude":28.5355,"longitude":77.391,"temp":31.0,"humidity":33,"rain":0.0,"pressure":985.6,"uv_index":6.2,"wind_gusts":19.4,"aqi":644,"pm10":864.3,"pm2_5":111.3,"mosquito_risk":0,"arthritis_risk":5,"migraine_risk":7,"frizz_risk":0,"updated_at":"2026-03-18T16:32:10.087718+05:30"},{"city":"Ghaziabad","state":"Uttar Pradesh","latitude":28.6692,"longitude":77.4538,"temp":30.6,"humidity":30,"rain":0.0,"pressure":984.0,"uv_index":6.1,"wind_gusts":17.6,"aqi":155,"pm10":172.8,"pm2_5":42.7,"mosquito_risk":0,"arthritis_risk":5,"migraine_risk":7,"frizz_risk":0,"updated_at":"2026-03-18T16:32:10.087724+05:30"},{"city":"Faridabad","state":"Haryana","latitude":28.4089,"longitude":77.3178,"temp":31.1,"humidity":30,"rain":0.0,"pressure":984.6,"uv_index":6.25,"wind_gusts":20.9,"aqi":644,"pm10":864.3,"pm2_5":111.3,"mosquito_risk":0,"arthritis_risk":5,"migraine_risk":7,"frizz_risk":0,"updated_at":"2026-03-18T16:32:10.087731+05:30"},{"city":"Meerut","state":"Uttar Pradesh","latitude":28.9845,"longitude":77.7064,"temp":30.2,"humidity":31,"rain":0.0,"pressure":982.9,"uv_index":5.5,"wind_gusts":17.6,"aqi":155,"pm10":172.8,"pm2_5":42.7,"mosquito_risk":0,"arthritis_risk":5,"migraine_risk":3,"frizz_risk":0,"updated_at":"2026-03-18T16:32:10.087753+05:30"},{"city":"Agra","state":"Uttar Pradesh","latitude":27.1767,"longitude":78.0081,"temp":32.8,"humidity":29,"rain":0.0,"pressure":988.3,"uv_index":6.55,"wind_gusts":26.3,"aqi":335,"pm10":162.5,"pm2_5":32.6,"mosquito_risk":0,"arthritis_risk":5,"migraine_risk":7,"frizz_risk":0,"updated_at":"2026-03-18T16:32:10.087761+05:30"},{"city":"Varanasi","state":"Uttar Pradesh","latitude":25.3176,"longitude":82.9739,"temp":34.2,"humidity":28,"rain":0.0,"pressure":997.0,"uv_index":6.65,"wind_gusts":17.6,"aqi":123,"pm10":32.5,"pm2_5":19.8,"mosquito_risk":0,"arthritis_risk":5,"migraine_risk":7,"frizz_risk":0,"updated_at":"2026-03-18T16:32:10.087771+05:30"},{"city":"Prayagraj","state":"Uttar Pradesh","latitude":25.4358,"longitude":81.8463,"temp":33.8,"humidity":29,"rain":0.0,"pressure":995.5,"uv_index":6.55,"wind_gusts":14.8,"aqi":123,"pm10":36.7,"pm2_5":17.9,"mosquito_risk":0,"arthritis_risk":5,"migraine_risk":7,"frizz_risk":0,"updated_at":"2026-03-18T16:32:10.087778+05:30"},{"city":"Gorakhpur","state":"Uttar Pradesh","latitude":26.7606,"longitude":83.3732,"temp":32.2,"humidity":37,"rain":0.0,"pressure":997.9,"uv_index":6.4,"wind_gusts":22.0,"aqi":109,"pm10":52.0,"pm2_5":17.9,"mosquito_risk":0,"arthritis_risk":5,"migraine_risk":7,"frizz_risk":0,"updated_at":"2026-03-18T16:32:10.087785+05:30"},{"city":"Bareilly","state":"Uttar Pradesh","latitude":28.367,"longitude":79.4304,"temp":30.9,"humidity":30,"rain":0.0,"pressure":988.4,"uv_index":6.35,"wind_gusts":13.0,"aqi":113,"pm10":56.2,"pm2_5":23.7,"mosquito_risk":0,"arthritis_risk":5,"migraine_risk":7,"frizz_risk":0,"updated_at":"2026-03-18T16:32:10.087791+05:30"},{"city":"Aligarh","state":"Uttar Pradesh","latitude":27.8974,"longitude":78.088,"temp":31.9,"humidity":29,"rain":0.0,"pressure":986.3,"uv_index":6.35,"wind_gusts":15.5,"aqi":153,"pm10":168.6,"pm2_5":43.3,"mosquito_risk":0,"arthritis_risk":5,"migraine_risk":7,"frizz_risk":0,"updated_at":"2026-03-18T16:32:10.087798+05:30"},{"city":"Moradabad","state":"Uttar Pradesh","latitude":28.8386,"longitude":78.7733,"temp":30.7,"humidity":29,"rain":0.0,"pressure":985.2,"uv_index":6.05,"wind_gusts":11.2,"aqi":148,"pm10":82.9,"pm2_5":32.6,"mosquito_risk":0,"arthritis_risk":5,"migraine_risk":7,"frizz_risk":0,"updated_at":"2026-03-18T16:32:10.087804+05:30"},{"city":"Saharanpur","state":"Uttar Pradesh","latitude":29.9637,"longitude":77.546,"temp":26.5,"humidity":35,"rain":0.0,"pressure":978.1,"uv_index":5.45,"wind_gusts":21.2,"aqi":118,"pm10":39.9,"pm2_5":16.3,"mosquito_risk":4,"arthritis_risk":5,"migraine_risk":3,"frizz_risk":0,"updated_at":"2026-03-18T16:32:10.087810+05:30"},{"city":"Jhansi","state":"Uttar Pradesh","latitude":25.4484,"longitude":78.5685,"temp":33.8,"humidity":20,"rain":0.0,"pressure":978.0,"uv_index":7.2,"wind_gusts":41.0,"aqi":89,"pm10":44.2,"pm2_5":15.8,"mosquito_risk":0,"arthritis_risk":5,"migraine_risk":7,"frizz_risk":0,"updated_at":"2026-03-18T16:32:13.391582+05:30"},{"city":"Surat","state":"Gujarat","latitude":21.1702,"longitude":72.8311,"temp":28.5,"humidity":57,"rain":0.0,"pressure":1007.0,"uv_index":7.4,"wind_gusts":27.4,"aqi":81,"pm10":43.8,"pm2_5":27.4,"mosquito_risk":4,"arthritis_risk":5,"migraine_risk":4,"frizz_risk":1,"updated_at":"2026-03-18T16:32:13.391613+05:30"},{"city":"Vadodara","state":"Gujarat","latitude":22.3072,"longitude":73.1812,"temp":35.2,"humidity":28,"rain":0.0,"pressure":1003.5,"uv_index":7.55,"wind_gusts":26.6,"aqi":67,"pm10":23.9,"pm2_5":14.5,"mosquito_risk":0,"arthritis_risk":5,"migraine_risk":7,"frizz_risk":0,"updated_at":"2026-03-18T16:32:13.391626+05:30"},{"city":"Rajkot","state":"Gujarat","latitude":22.3039,"longitude":70.8022,"temp":35.8,"humidity":20,"rain":0.0,"pressure":992.4,"uv_index":7.05,"wind_gusts":40.3,"aqi":47,"pm10":15.3,"pm2_5":6.5,"mosquito_risk":0,"arthritis_risk":5,"migraine_risk":10,"frizz_risk":0,"updated_at":"2026-03-18T16:32:13.391636+05:30"},{"city":"Thane","state":"Maharashtra","latitude":19.2183,"longitude":72.9781,"temp":29.2,"humidity":57,"rain":0.0,"pressure":1007.7,"uv_index":7.7,"wind_gusts":34.9,"aqi":101,"pm10":34.9,"pm2_5":17.4,"mosquito_risk":4,"arthritis_risk":5,"migraine_risk":4,"frizz_risk":1,"updated_at":"2026-03-18T16:32:13.391653+05:30"},{"city":"Nagpur","state":"Maharashtra","latitude":21.1458,"longitude":79.0882,"temp":29.8,"humidity":46,"rain":0.0,"pressure":973.7,"uv_index":5.55,"wind_gusts":29.9,"aqi":93,"pm10":47.1,"pm2_5":37.5,"mosquito_risk":4,"arthritis_risk":5,"migraine_risk":3,"frizz_risk":1,"updated_at":"2026-03-18T16:32:13.391662+05:30"},{"city":"Nashik","state":"Maharashtra","latitude":19.9975,"longitude":73.7898,"temp":29.7,"humidity":40,"rain":0.0,"pressure":945.4,"uv_index":7.95,"wind_gusts":29.2,"aqi":105,"pm10":26.3,"pm2_5":16.5,"mosquito_risk":4,"arthritis_risk":5,"migraine_risk":7,"frizz_risk":0,"updated_at":"2026-03-18T16:32:13.391670+05:30"},{"city":"Aurangabad","state":"Maharashtra","latitude":19.8762,"longitude":75.3433,"temp":34.1,"humidity":17,"rain":0.0,"pressure":942.9,"uv_index":8.45,"wind_gusts":29.2,"aqi":102,"pm10":26.0,"pm2_5":18.7,"mosquito_risk":0,"arthritis_risk":5,"migraine_risk":7,"frizz_risk":0,"updated_at":"2026-03-18T16:32:13.391678+05:30"},{"city":"Solapur","state":"Maharashtra","latitude":17.6599,"longitude":75.9064,"temp":30.6,"humidity":37,"rain":0.0,"pressure":957.3,"uv_index":8.6,"wind_gusts":31.7,"aqi":134,"pm10":37.7,"pm2_5":31.0,"mosquito_risk":0,"arthritis_risk":5,"migraine_risk":7,"frizz_risk":0,"updated_at":"2026-03-18T16:32:13.391686+05:30"},{"city":"Kolhapur","state":"Maharashtra","latitude":16.705,"longitude":74.2433,"temp":30.2,"humidity":36,"rain":0.0,"pressure":947.5,"uv_index":8.75,"wind_gusts":36.0,"aqi":132,"pm10":39.3,"pm2_5":33.5,"mosquito_risk":0,"arthritis_risk":5,"migraine_risk":7,"frizz_risk":0,"updated_at":"2026-03-18T16:32:13.391694+05:30"},{"city":"Goa","state":"Goa","latitude":15.2993,"longitude":74.124,"temp":30.6,"humidity":59,"rain":0.0,"pressure":997.6,"uv_index":8.6,"wind_gusts":26.6,"aqi":86,"pm10":48.0,"pm2_5":23.9,"mosquito_risk":0,"arthritis_risk":5,"migraine_risk":7,"frizz_risk":1,"updated_at":"2026-03-18T16:32:13.391703+05:30"},{"city":"Jodhpur","state":"Rajasthan","latitude":26.2389,"longitude":73.0243,"temp":32.4,"humidity":25,"rain":0.0,"pressure":983.0,"uv_index":7.05,"wind_gusts":42.1,"aqi":70,"pm10":143.9,"pm2_5":20.6,"mosquito_risk":0,"arthritis_risk":5,"migraine_risk":7,"frizz_risk":0,"updated_at":"2026-03-18T16:32:13.391711+05:30"},{"city":"Udaipur","state":"Rajasthan","latitude":24.5854,"longitude":73.7125,"temp":30.7,"humidity":22,"rain":0.0,"pressure":946.7,"uv_index":7.95,"wind_gusts":23.4,"aqi":56,"pm10":16.8,"pm2_5":6.1,"mosquito_risk":0,"arthritis_risk":5,"migraine_risk":7,"frizz_risk":0,"updated_at":"2026-03-18T16:32:13.391719+05:30"},{"city":"Kota","state":"Rajasthan","latitude":25.2138,"longitude":75.8648,"temp":34.8,"humidity":20,"rain":0.0,"pressure":978.1,"uv_index":7.35,"wind_gusts":18.7,"aqi":81,"pm10":18.7,"pm2_5":9.3,"mosquito_risk":0,"arthritis_risk":5,"migraine_risk":7,"frizz_risk":0,"updated_at":"2026-03-18T16:32:13.391726+05:30"},{"city":"Bikaner","state":"Rajasthan","latitude":28.0229,"longitude":73.3119,"temp":28.3,"humidity":36,"rain":0.0,"pressure":983.4,"uv_index":5.6,"wind_gusts":42.8,"aqi":55,"pm10":39.3,"pm2_5":10.6,"mosquito_risk":4,"arthritis_risk":5,"migraine_risk":3,"frizz_risk":0,"updated_at":"2026-03-18T16:32:13.391735+05:30"},{"city":"Ajmer","state":"Rajasthan","latitude":26.4499,"longitude":74.6399,"temp":32.0,"humidity":23,"rain":0.0,"pressure":954.3,"uv_index":7.15,"wind_gusts":27.4,"aqi":97,"pm10":37.7,"pm2_5":11.4,"mosquito_risk":0,"arthritis_risk":5,"migraine_risk":7,"frizz_risk":0,"updated_at":"2026-03-18T16:32:13.391791+05:30"},{"city":"Gwalior","state":"Madhya Pradesh","latitude":26.2183,"longitude":78.1828,"temp":33.4,"humidity":22,"rain":0.0,"pressure":983.4,"uv_index":6.9,"wind_gusts":27.0,"aqi":118,"pm10":74.3,"pm2_5":18.2,"mosquito_risk":0,"arthritis_risk":5,"migraine_risk":7,"frizz_risk":0,"updated_at":"2026-03-18T16:32:13.391801+05:30"},{"city":"Indore","state":"Madhya Pradesh","latitude":22.7196,"longitude":75.8577,"temp":33.1,"humidity":17,"rain":0.0,"pressure":947.4,"uv_index":7.85,"wind_gusts":27.0,"aqi":105,"pm10":14.2,"pm2_5":11.7,"mosquito_risk":0,"arthritis_risk":5,"migraine_risk":7,"frizz_risk":0,"updated_at":"2026-03-18T16:32:13.391810+05:30"},{"city":"Bhopal","state":"Madhya Pradesh","latitude":23.2599,"longitude":77.4126,"temp":33.3,"humidity":17,"rain":0.0,"pressure":953.1,"uv_index":7.75,"wind_gusts":32.0,"aqi":106,"pm10":15.1,"pm2_5":11.0,"mosquito_risk":0,"arthritis_risk":5,"migraine_risk":7,"frizz_risk":0,"updated_at":"2026-03-18T16:32:13.391818+05:30"},{"city":"Jabalpur","state":"Madhya Pradesh","latitude":23.1815,"longitude":79.9864,"temp":33.9,"humidity":21,"rain":0.0,"pressure":961.3,"uv_index":6.45,"wind_gusts":29.9,"aqi":103,"pm10":18.6,"pm2_5":13.0,"mosquito_risk":0,"arthritis_risk":5,"migraine_risk":7,"frizz_risk":0,"updated_at":"2026-03-18T16:32:13.391826+05:30"},{"city":"Ujjain","state":"Madhya Pradesh","latitude":23.1765,"longitude":75.7885,"temp":32.7,"humidity":20,"rain":0.0,"pressure":953.3,"uv_index":7.75,"wind_gusts":23.4,"aqi":88,"pm10":13.6,"pm2_5":10.6,"mosquito_risk":0,"arthritis_risk":5,"migraine_risk":7,"frizz_risk":0,"updated_at":"2026-03-18T16:32:13.391834+05:30"},{"city":"Visakhapatnam","state":"Andhra Pradesh","latitude":17.6868,"longitude":83.2185,"temp":29.6,"humidity":53,"rain":0.0,"pressure":1005.0,"uv_index":8.0,"wind_gusts":32.0,"aqi":47,"pm10":11.3,"pm2_5":9.4,"mosquito_risk":4,"arthritis_risk":5,"migraine_risk":4,"frizz_risk":1,"updated_at":"2026-03-18T16:32:13.391842+05:30"},{"city":"Vijayawada","state":"Andhra Pradesh","latitude":16.5062,"longitude":80.648,"temp":31.9,"humidity":43,"rain":0.0,"pressure":1003.3,"uv_index":8.45,"wind_gusts":22.7,"aqi":52,"pm10":14.2,"pm2_5":11.6,"mosquito_risk":0,"arthritis_risk":5,"migraine_risk":4,"frizz_risk":1,"updated_at":"2026-03-18T16:32:13.391850+05:30"},{"city":"Guntur","state":"Andhra Pradesh","latitude":16.3067,"longitude":80.4365,"temp":32.0,"humidity":43,"rain":0.0,"pressure":1004.4,"uv_index":8.65,"wind_gusts":23.0,"aqi":47,"pm10":14.1,"pm2_5":11.3,"mosquito_risk":0,"arthritis_risk":5,"migraine_risk":4,"frizz_risk":1,"updated_at":"2026-03-18T16:32:13.391858+05:30"},{"city":"Nellore","state":"Andhra Pradesh","latitude":14.4426,"longitude":79.9865,"temp":31.4,"humidity":52,"rain":0.0,"pressure":1006.2,"uv_index":8.95,"wind_gusts":29.2,"aqi":36,"pm10":14.7,"pm2_5":10.3,"mosquito_risk":0,"arthritis_risk":5,"migraine_risk":4,"frizz_risk":1,"updated_at":"2026-03-18T16:32:13.391866+05:30"},{"city":"Kurnool","state":"Andhra Pradesh","latitude":15.8281,"longitude":78.0373,"temp":33.1,"humidity":35,"rain":0.0,"pressure":976.5,"uv_index":8.55,"wind_gusts":37.8,"aqi":72,"pm10":38.1,"pm2_5":29.2,"mosquito_risk":0,"arthritis_risk":5,"migraine_risk":7,"frizz_risk":0,"updated_at":"2026-03-18T16:32:13.391875+05:30"},{"city":"Kakinada","state":"Andhra Pradesh","latitude":16.9891,"longitude":82.2475,"temp":31.0,"humidity":52,"rain":0.0,"pressure":1008.4,"uv_index":8.4,"wind_gusts":28.1,"aqi":42,"pm10":6.8,"pm2_5":4.8,"mosquito_risk":0,"arthritis_risk":0,"migraine_risk":4,"frizz_risk":1,"updated_at":"2026-03-18T16:32:13.391883+05:30"},{"city":"Tirupati","state":"Andhra Pradesh","latitude":13.6288,"longitude":79.4192,"temp":31.0,"humidity":45,"rain":0.0,"pressure":991.5,"uv_index":9.1,"wind_gusts":36.4,"aqi":63,"pm10":16.7,"pm2_5":14.3,"mosquito_risk":0,"arthritis_risk":5,"migraine_risk":7,"frizz_risk":1,"updated_at":"2026-03-18T16:32:13.391891+05:30"},{"city":"Warangal","state":"Telangana","latitude":17.9689,"longitude":79.5941,"temp":31.0,"humidity":46,"rain":0.0,"pressure":979.3,"uv_index":8.15,"wind_gusts":27.0,"aqi":61,"pm10":44.6,"pm2_5":33.5,"mosquito_risk":0,"arthritis_risk":5,"migraine_risk":7,"frizz_risk":1,"updated_at":"2026-03-18T16:32:13.391899+05:30"},{"city":"Nizamabad","state":"Telangana","latitude":18.6725,"longitude":78.0941,"temp":28.8,"humidity":46,"rain":0.0,"pressure":965.8,"uv_index":7.85,"wind_gusts":38.2,"aqi":117,"pm10":43.5,"pm2_5":36.2,"mosquito_risk":4,"arthritis_risk":5,"migraine_risk":7,"frizz_risk":0,"updated_at":"2026-03-18T16:32:13.391907+05:30"},{"city":"Mysore","state":"Karnataka","latitude":12.2958,"longitude":76.6396,"temp":28.4,"humidity":47,"rain":0.0,"pressure":927.6,"uv_index":9.3,"wind_gusts":23.8,"aqi":90,"pm10":24.4,"pm2_5":20.9,"mosquito_risk":4,"arthritis_risk":5,"migraine_risk":7,"frizz_risk":0,"updated_at":"2026-03-18T16:32:13.391915+05:30"},{"city":"Mangalore","state":"Karnataka","latitude":12.9141,"longitude":74.856,"temp":28.7,"humidity":77,"rain":0.0,"pressure":1005.8,"uv_index":9.0,"wind_gusts":19.8,"aqi":102,"pm10":29.1,"pm2_5":18.3,"mosquito_risk":7,"arthritis_risk":5,"migraine_risk":4,"frizz_risk":1,"updated_at":"2026-03-18T16:32:13.391922+05:30"},{"city":"Hubli-Dharwad","state":"Karnataka","latitude":15.3647,"longitude":75.124,"temp":26.4,"humidity":56,"rain":0.0,"pressure":941.0,"uv_index":8.95,"wind_gusts":44.6,"aqi":132,"pm10":46.7,"pm2_5":40.0,"mosquito_risk":4,"arthritis_risk":5,"migraine_risk":7,"frizz_risk":1,"updated_at":"2026-03-18T16:32:13.391930+05:30"},{"city":"Belgaum","state":"Karnataka","latitude":15.8497,"longitude":74.4977,"temp":27.0,"humidity":49,"rain":0.0,"pressure":925.8,"uv_index":9.0,"wind_gusts":21.2,"aqi":147,"pm10":35.2,"pm2_5":30.0,"mosquito_risk":4,"arthritis_risk":5,"migraine_risk":7,"frizz_risk":0,"updated_at":"2026-03-18T16:32:16.703543+05:30"},{"city":"Coimbatore","state":"Tamil Nadu","latitude":11.0168,"longitude":76.9558,"temp":30.9,"humidity":44,"rain":0.0,"pressure":960.7,"uv_index":8.95,"wind_gusts":29.9,"aqi":81,"pm10":19.2,"pm2_5":17.1,"mosquito_risk":0,"arthritis_risk":5,"migraine_risk":7,"frizz_risk":1,"updated_at":"2026-03-18T16:32:16.703573+05:30"},{"city":"Madurai","state":"Tamil Nadu","latitude":9.9252,"longitude":78.1198,"temp":29.6,"humidity":66,"rain":0.0,"pressure":992.5,"uv_index":8.1,"wind_gusts":36.7,"aqi":63,"pm10":11.7,"pm2_5":10.1,"mosquito_risk":7,"arthritis_risk":5,"migraine_risk":7,"frizz_risk":1,"updated_at":"2026-03-18T16:32:16.703582+05:30"},{"city":"Trichy","state":"Tamil Nadu","latitude":10.7905,"longitude":78.7047,"temp":30.7,"humidity":59,"rain":0.0,"pressure":999.2,"uv_index":9.05,"wind_gusts":28.8,"aqi":55,"pm10":13.6,"pm2_5":11.4,"mosquito_risk":0,"arthritis_risk":5,"migraine_risk":7,"frizz_risk":1,"updated_at":"2026-03-18T16:32:16.703590+05:30"},{"city":"Salem","state":"Tamil Nadu","latitude":11.6643,"longitude":78.146,"temp":33.6,"humidity":34,"rain":0.0,"pressure":975.8,"uv_index":7.9,"wind_gusts":31.7,"aqi":81,"pm10":17.9,"pm2_5":15.1,"mosquito_risk":0,"arthritis_risk":5,"migraine_risk":7,"frizz_risk":0,"updated_at":"2026-03-18T16:32:16.703598+05:30"},{"city":"Tirunelveli","state":"Tamil Nadu","latitude":8.7139,"longitude":77.7567,"temp":29.9,"humidity":67,"rain":0.0,"pressure":1002.5,"uv_index":8.25,"wind_gusts":33.5,"aqi":68,"pm10":15.4,"pm2_5":14.6,"mosquito_risk":7,"arthritis_risk":5,"migraine_risk":4,"frizz_risk":1,"updated_at":"2026-03-18T16:32:16.703606+05:30"},{"city":"Vellore","state":"Tamil Nadu","latitude":12.9165,"longitude":79.1325,"temp":30.5,"humidity":47,"rain":0.0,"pressure":984.5,"uv_index":9.15,"wind_gusts":32.4,"aqi":59,"pm10":14.4,"pm2_5":10.9,"mosquito_risk":0,"arthritis_risk":5,"migraine_risk":7,"frizz_risk":1,"updated_at":"2026-03-18T16:32:16.703613+05:30"},{"city":"Erode","state":"Tamil Nadu","latitude":11.341,"longitude":77.7172,"temp":35.1,"humidity":33,"rain":0.0,"pressure":987.2,"uv_index":9.2,"wind_gusts":31.3,"aqi":62,"pm10":14.2,"pm2_5":12.1,"mosquito_risk":0,"arthritis_risk":5,"migraine_risk":10,"frizz_risk":1,"updated_at":"2026-03-18T16:32:16.703621+05:30"},{"city":"Kochi","state":"Kerala","latitude":9.9312,"longitude":76.2673,"temp":28.8,"humidity":76,"rain":0.0,"pressure":1007.3,"uv_index":9.05,"wind_gusts":23.8,"aqi":105,"pm10":13.0,"pm2_5":12.3,"mosquito_risk":7,"arthritis_risk":5,"migraine_risk":4,"frizz_risk":1,"updated_at":"2026-03-18T16:32:16.703628+05:30"},{"city":"Thiruvananthapuram","state":"Kerala","latitude":8.5241,"longitude":76.9366,"temp":28.2,"humidity":78,"rain":0.0,"pressure":1007.1,"uv_index":8.35,"wind_gusts":17.6,"aqi":80,"pm10":11.8,"pm2_5":10.4,"mosquito_risk":7,"arthritis_risk":5,"migraine_risk":4,"frizz_risk":1,"updated_at":"2026-03-18T16:32:16.703636+05:30"},{"city":"Kozhikode","state":"Kerala","latitude":11.2588,"longitude":75.7804,"temp":29.6,"humidity":73,"rain":0.0,"pressure":1006.7,"uv_index":8.65,"wind_gusts":25.9,"aqi":118,"pm10":19.2,"pm2_5":15.3,"mosquito_risk":7,"arthritis_risk":5,"migraine_risk":4,"frizz_risk":1,"updated_at":"2026-03-18T16:32:16.703644+05:30"},{"city":"Thrissur","state":"Kerala","latitude":10.5276,"longitude":76.2144,"temp":31.4,"humidity":63,"rain":0.0,"pressure":1005.6,"uv_index":8.5,"wind_gusts":30.6,"aqi":95,"pm10":15.7,"pm2_5":14.5,"mosquito_risk":3,"arthritis_risk":5,"migraine_risk":4,"frizz_risk":1,"updated_at":"2026-03-18T16:32:16.703651+05:30"},{"city":"Kannur","state":"Kerala","latitude":11.8745,"longitude":75.3704,"temp":30.2,"humidity":66,"rain":0.0,"pressure":1006.2,"uv_index":9.05,"wind_gusts":26.6,"aqi":94,"pm10":20.6,"pm2_5":15.7,"mosquito_risk":3,"arthritis_risk":5,"migraine_risk":4,"frizz_risk":1,"updated_at":"2026-03-18T16:32:16.703659+05:30"},{"city":"Patna","state":"Bihar","latitude":25.5941,"longitude":85.1376,"temp":32.2,"humidity":35,"rain":0.0,"pressure":1000.5,"uv_index":6.75,"wind_gusts":20.2,"aqi":157,"pm10":54.6,"pm2_5":32.1,"mosquito_risk":0,"arthritis_risk":5,"migraine_risk":4,"frizz_risk":0,"updated_at":"2026-03-18T16:32:16.703666+05:30"},{"city":"Gaya","state":"Bihar","latitude":24.7914,"longitude":85.0002,"temp":32.4,"humidity":36,"rain":0.0,"pressure":993.9,"uv_index":6.45,"wind_gusts":19.4,"aqi":128,"pm10":37.8,"pm2_5":25.4,"mosquito_risk":0,"arthritis_risk":5,"migraine_risk":7,"frizz_risk":0,"updated_at":"2026-03-18T16:32:16.703673+05:30"},{"city":"Muzaffarpur","state":"Bihar","latitude":26.1209,"longitude":85.3647,"temp":31.5,"humidity":38,"rain":0.0,"pressure":1000.7,"uv_index":6.95,"wind_gusts":21.6,"aqi":162,"pm10":56.5,"pm2_5":33.5,"mosquito_risk":0,"arthritis_risk":5,"migraine_risk":4,"frizz_risk":0,"updated_at":"2026-03-18T16:32:16.703679+05:30"},{"city":"Bhagalpur","state":"Bihar","latitude":25.2425,"longitude":87.0117,"temp":31.0,"humidity":45,"rain":0.0,"pressure":1001.3,"uv_index":7.0,"wind_gusts":27.7,"aqi":142,"pm10":56.8,"pm2_5":33.8,"mosquito_risk":0,"arthritis_risk":5,"migraine_risk":4,"frizz_risk":1,"updated_at":"2026-03-18T16:32:16.703686+05:30"},{"city":"Ranchi","state":"Jharkhand","latitude":23.3441,"longitude":85.3096,"temp":30.2,"humidity":29,"rain":0.0,"pressure":938.4,"uv_index":7.65,"wind_gusts":34.2,"aqi":114,"pm10":24.9,"pm2_5":18.7,"mosquito_risk":0,"arthritis_risk":5,"migraine_risk":7,"frizz_risk":0,"updated_at":"2026-03-18T16:32:16.703693+05:30"},{"city":"Jamshedpur","state":"Jharkhand","latitude":22.8046,"longitude":86.2029,"temp":34.0,"humidity":28,"rain":0.0,"pressure":991.2,"uv_index":8.15,"wind_gusts":39.6,"aqi":153,"pm10":43.7,"pm2_5":33.8,"mosquito_risk":0,"arthritis_risk":5,"migraine_risk":7,"frizz_risk":0,"updated_at":"2026-03-18T16:32:16.703700+05:30"},{"city":"Dhanbad","state":"Jharkhand","latitude":23.7957,"longitude":86.4304,"temp":31.3,"humidity":37,"rain":0.0,"pressure":979.8,"uv_index":7.9,"wind_gusts":34.2,"aqi":154,"pm10":42.6,"pm2_5":32.9,"mosquito_risk":0,"arthritis_risk":5,"migraine_risk":7,"frizz_risk":0,"updated_at":"2026-03-18T16:32:16.703707+05:30"},{"city":"Bokaro","state":"Jharkhand","latitude":23.6693,"longitude":86.1511,"temp":32.3,"humidity":36,"rain":0.0,"pressure":983.5,"uv_index":7.85,"wind_gusts":39.6,"aqi":150,"pm10":35.9,"pm2_5":26.8,"mosquito_risk":0,"arthritis_risk":5,"migraine_risk":7,"frizz_risk":0,"updated_at":"2026-03-18T16:32:16.703714+05:30"},{"city":"Bhubaneswar","state":"Odisha","latitude":20.2961,"longitude":85.8245,"temp":28.6,"humidity":67,"rain":0.0,"pressure":1005.5,"uv_index":8.3,"wind_gusts":26.3,"aqi":89,"pm10":42.6,"pm2_5":31.7,"mosquito_risk":7,"arthritis_risk":5,"migraine_risk":4,"frizz_risk":1,"updated_at":"2026-03-18T16:32:16.703722+05:30"},{"city":"Cuttack","state":"Odisha","latitude":20.4625,"longitude":85.8828,"temp":29.5,"humidity":62,"rain":0.0,"pressure":1006.9,"uv_index":8.25,"wind_gusts":23.4,"aqi":89,"pm10":42.6,"pm2_5":31.7,"mosquito_risk":7,"arthritis_risk":5,"migraine_risk":4,"frizz_risk":1,"updated_at":"2026-03-18T16:32:16.703729+05:30"},{"city":"Rourkela","state":"Odisha","latitude":22.2604,"longitude":84.8536,"temp":32.5,"humidity":35,"rain":0.0,"pressure":986.1,"uv_index":8.05,"wind_gusts":25.9,"aqi":160,"pm10":44.6,"pm2_5":37.5,"mosquito_risk":0,"arthritis_risk":5,"migraine_risk":7,"frizz_risk":0,"updated_at":"2026-03-18T16:32:16.703771+05:30"},{"city":"Raipur","state":"Chhattisgarh","latitude":21.2514,"longitude":81.6296,"temp":29.0,"humidity":51,"rain":0.0,"pressure":976.0,"uv_index":6.75,"wind_gusts":48.2,"aqi":106,"pm10":39.2,"pm2_5":30.5,"mosquito_risk":4,"arthritis_risk":5,"migraine_risk":7,"frizz_risk":1,"updated_at":"2026-03-18T16:32:16.703784+05:30"},{"city":"Bhilai","state":"Chhattisgarh","latitude":21.1938,"longitude":81.3509,"temp":29.3,"humidity":50,"rain":0.0,"pressure":976.4,"uv_index":7.05,"wind_gusts":42.5,"aqi":105,"pm10":36.0,"pm2_5":28.1,"mosquito_risk":4,"arthritis_risk":5,"migraine_risk":7,"frizz_risk":1,"updated_at":"2026-03-18T16:32:16.703792+05:30"},{"city":"Guwahati","state":"Assam","latitude":26.1158,"longitude":91.7086,"temp":28.5,"humidity":62,"rain":0.0,"pressure":1002.6,"uv_index":7.5,"wind_gusts":38.9,"aqi":110,"pm10":47.3,"pm2_5":37.3,"mosquito_risk":7,"arthritis_risk":5,"migraine_risk":4,"frizz_risk":1,"updated_at":"2026-03-18T16:32:16.703799+05:30"},{"city":"Agartala","state":"Tripura","latitude":23.8315,"longitude":91.2868,"temp":24.0,"humidity":80,"rain":0.0,"pressure":1009.2,"uv_index":7.85,"wind_gusts":29.2,"aqi":59,"pm10":32.8,"pm2_5":27.8,"mosquito_risk":3,"arthritis_risk":0,"migraine_risk":4,"frizz_risk":1,"updated_at":"2026-03-18T16:32:16.703807+05:30"},{"city":"Shillong","state":"Meghalaya","latitude":25.5788,"longitude":91.8933,"temp":15.8,"humidity":71,"rain":0.0,"pressure":857.8,"uv_index":7.85,"wind_gusts":61.9,"aqi":95,"pm10":38.3,"pm2_5":27.5,"mosquito_risk":3,"arthritis_risk":5,"migraine_risk":7,"frizz_risk":0,"updated_at":"2026-03-18T16:32:16.703814+05:30"},{"city":"Imphal","state":"Manipur","latitude":24.817,"longitude":93.9368,"temp":19.4,"humidity":74,"rain":0.0,"pressure":925.6,"uv_index":8.1,"wind_gusts":66.2,"aqi":87,"pm10":36.0,"pm2_5":21.9,"mosquito_risk":3,"arthritis_risk":5,"migraine_risk":7,"frizz_risk":0,"updated_at":"2026-03-18T16:32:16.703822+05:30"},{"city":"Aizawl","state":"Mizoram","latitude":23.7271,"longitude":92.7176,"temp":22.7,"humidity":57,"rain":0.0,"pressure":895.7,"uv_index":8.05,"wind_gusts":44.3,"aqi":73,"pm10":23.4,"pm2_5":16.6,"mosquito_risk":0,"arthritis_risk":5,"migraine_risk":7,"frizz_risk":0,"updated_at":"2026-03-18T16:32:16.703829+05:30"},{"city":"Kohima","state":"Nagaland","latitude":25.6701,"longitude":94.1077,"temp":17.0,"humidity":63,"rain":0.0,"pressure":856.6,"uv_index":8.0,"wind_gusts":100.8,"aqi":77,"pm10":34.8,"pm2_5":20.5,"mosquito_risk":3,"arthritis_risk":5,"migraine_risk":7,"frizz_risk":0,"updated_at":"2026-03-18T16:32:16.703836+05:30"},{"city":"Gangtok","state":"Sikkim","latitude":27.3314,"longitude":88.6138,"temp":18.2,"humidity":54,"rain":0.0,"pressure":838.0,"uv_index":7.85,"wind_gusts":16.2,"aqi":100,"pm10":52.5,"pm2_5":29.3,"mosquito_risk":0,"arthritis_risk":5,"migraine_risk":7,"frizz_risk":0,"updated_at":"2026-03-18T16:32:16.703842+05:30"},{"city":"Siliguri","state":"West Bengal","latitude":26.7271,"longitude":88.3953,"temp":25.7,"humidity":50,"rain":0.0,"pressure":993.8,"uv_index":7.25,"wind_gusts":24.1,"aqi":121,"pm10":47.6,"pm2_5":29.9,"mosquito_risk":4,"arthritis_risk":5,"migraine_risk":7,"frizz_risk":0,"updated_at":"2026-03-18T16:32:20.385658+05:30"},{"city":"Durgapur","state":"West Bengal","latitude":23.5204,"longitude":87.3119,"temp":33.0,"humidity":35,"rain":0.0,"pressure":994.6,"uv_index":8.05,"wind_gusts":33.8,"aqi":138,"pm10":58.3,"pm2_5":47.6,"mosquito_risk":0,"arthritis_risk":5,"migraine_risk":7,"frizz_risk":0,"updated_at":"2026-03-18T16:32:20.385688+05:30"},{"city":"Asansol","state":"West Bengal","latitude":23.6739,"longitude":86.9524,"temp":32.2,"humidity":38,"rain":0.0,"pressure":993.2,"uv_index":8.05,"wind_gusts":40.0,"aqi":145,"pm10":48.0,"pm2_5":37.8,"mosquito_risk":0,"arthritis_risk":5,"migraine_risk":7,"frizz_risk":1,"updated_at":"2026-03-18T16:32:20.385707+05:30"},{"city":"Pondicherry","state":"Puducherry","latitude":11.9139,"longitude":79.8145,"temp":30.8,"humidity":59,"rain":0.0,"pressure":1008.4,"uv_index":9.1,"wind_gusts":27.4,"aqi":40,"pm10":10.2,"pm2_5":7.0,"mosquito_risk":0,"arthritis_risk":0,"migraine_risk":4,"frizz_risk":1,"updated_at":"2026-03-18T16:32:20.385717+05:30"},{"city":"Port Blair","state":"Andaman and Nicobar Islands","latitude":11.6234,"longitude":92.7265,"temp":27.9,"humidity":79,"rain":0.0,"pressure":1007.6,"uv_index":9.05,"wind_gusts":23.8,"aqi":53,"pm10":13.2,"pm2_5":10.5,"mosquito_risk":7,"arthritis_risk":5,"migraine_risk":4,"frizz_risk":1,"updated_at":"2026-03-18T16:32:20.385725+05:30"},{"city":"Haridwar","state":"Uttarakhand","latitude":29.9457,"longitude":78.1642,"temp":28.6,"humidity":24,"rain":0.0,"pressure":976.6,"uv_index":5.6,"wind_gusts":25.9,"aqi":73,"pm10":34.6,"pm2_5":11.9,"mosquito_risk":4,"arthritis_risk":5,"migraine_risk":3,"frizz_risk":0,"updated_at":"2026-03-18T16:32:20.385734+05:30"},{"city":"Rishikesh","state":"Uttarakhand","latitude":30.0869,"longitude":78.2676,"temp":27.9,"humidity":24,"rain":0.0,"pressure":969.5,"uv_index":5.4,"wind_gusts":26.3,"aqi":59,"pm10":39.7,"pm2_5":11.1,"mosquito_risk":4,"arthritis_risk":5,"migraine_risk":3,"frizz_risk":0,"updated_at":"2026-03-18T16:32:20.385787+05:30"},{"city":"Nainital","state":"Uttarakhand","latitude":29.3919,"longitude":79.4542,"temp":21.4,"humidity":31,"rain":0.0,"pressure":808.8,"uv_index":5.95,"wind_gusts":31.0,"aqi":77,"pm10":38.8,"pm2_5":15.9,"mosquito_risk":0,"arthritis_risk":5,"migraine_risk":3,"frizz_risk":0,"updated_at":"2026-03-18T16:32:20.385798+05:30"},{"city":"Mussoorie","state":"Uttarakhand","latitude":30.4599,"longitude":78.0664,"temp":16.9,"humidity":40,"rain":0.0,"pressure":804.5,"uv_index":5.5,"wind_gusts":32.4,"aqi":67,"pm10":40.6,"pm2_5":12.0,"mosquito_risk":0,"arthritis_risk":5,"migraine_risk":3,"frizz_risk":0,"updated_at":"2026-03-18T16:32:20.385807+05:30"},{"city":"Dharamshala","state":"Himachal Pradesh","latitude":32.219,"longitude":76.3234,"temp":15.6,"humidity":67,"rain":0.2,"pressure":871.1,"uv_index":4.15,"wind_gusts":38.5,"aqi":50,"pm10":38.8,"pm2_5":9.3,"mosquito_risk":6,"arthritis_risk":5,"migraine_risk":3,"frizz_risk":0,"updated_at":"2026-03-18T16:32:20.385815+05:30"},{"city":"Dalhousie","state":"Himachal Pradesh","latitude":32.5387,"longitude":75.971,"temp":12.3,"humidity":72,"rain":0.2,"pressure":804.5,"uv_index":5.15,"wind_gusts":31.0,"aqi":77,"pm10":46.1,"pm2_5":17.2,"mosquito_risk":6,"arthritis_risk":5,"migraine_risk":3,"frizz_risk":0,"updated_at":"2026-03-18T16:32:20.385824+05:30"},{"city":"Patiala","state":"Punjab","latitude":30.3398,"longitude":76.3869,"temp":24.2,"humidity":61,"rain":0.0,"pressure":981.4,"uv_index":4.65,"wind_gusts":29.5,"aqi":147,"pm10":175.6,"pm2_5":39.6,"mosquito_risk":3,"arthritis_risk":5,"migraine_risk":3,"frizz_risk":1,"updated_at":"2026-03-18T16:32:20.385832+05:30"},{"city":"Bhatinda","state":"Punjab","latitude":30.211,"longitude":74.9455,"temp":22.4,"humidity":56,"rain":0.0,"pressure":987.2,"uv_index":6.15,"wind_gusts":34.6,"aqi":115,"pm10":65.9,"pm2_5":28.3,"mosquito_risk":0,"arthritis_risk":5,"migraine_risk":7,"frizz_risk":0,"updated_at":"2026-03-18T16:32:20.385840+05:30"},{"city":"Rohtak","state":"Haryana","latitude":28.8955,"longitude":76.6066,"temp":29.5,"humidity":36,"rain":0.0,"pressure":983.0,"uv_index":5.8,"wind_gusts":28.8,"aqi":332,"pm10":387.4,"pm2_5":64.0,"mosquito_risk":4,"arthritis_risk":5,"migraine_risk":3,"frizz_risk":0,"updated_at":"2026-03-18T16:32:20.385848+05:30"},{"city":"Panipat","state":"Haryana","latitude":29.3909,"longitude":76.9635,"temp":28.7,"humidity":36,"rain":0.0,"pressure":982.2,"uv_index":5.85,"wind_gusts":19.1,"aqi":315,"pm10":566.2,"pm2_5":63.1,"mosquito_risk":4,"arthritis_risk":5,"migraine_risk":3,"frizz_risk":0,"updated_at":"2026-03-18T16:32:20.385855+05:30"},{"city":"Mathura","state":"Uttar Pradesh","latitude":27.4924,"longitude":77.6737,"temp":32.4,"humidity":27,"rain":0.0,"pressure":987.5,"uv_index":6.5,"wind_gusts":21.2,"aqi":381,"pm10":676.1,"pm2_5":78.5,"mosquito_risk":0,"arthritis_risk":5,"migraine_risk":7,"frizz_risk":0,"updated_at":"2026-03-18T16:32:20.385863+05:30"},{"city":"Vrindavan","state":"Uttar Pradesh","latitude":27.5823,"longitude":77.7027,"temp":32.4,"humidity":28,"rain":0.0,"pressure":987.9,"uv_index":6.45,"wind_gusts":20.5,"aqi":381,"pm10":676.1,"pm2_5":78.5,"mosquito_risk":0,"arthritis_risk":5,"migraine_risk":7,"frizz_risk":0,"updated_at":"2026-03-18T16:32:20.385871+05:30"},{"city":"Ayodhya","state":"Uttar Pradesh","latitude":26.7922,"longitude":82.1998,"temp":33.6,"humidity":24,"rain":0.0,"pressure":995.9,"uv_index":6.3,"wind_gusts":23.4,"aqi":90,"pm10":61.0,"pm2_5":19.8,"mosquito_risk":0,"arthritis_risk":5,"migraine_risk":7,"frizz_risk":0,"updated_at":"2026-03-18T16:32:20.385878+05:30"},{"city":"Ratlam","state":"Madhya Pradesh","latitude":23.3315,"longitude":75.0367,"temp":32.3,"humidity":23,"rain":0.0,"pressure":954.3,"uv_index":7.7,"wind_gusts":25.6,"aqi":92,"pm10":13.4,"pm2_5":9.9,"mosquito_risk":0,"arthritis_risk":5,"migraine_risk":7,"frizz_risk":0,"updated_at":"2026-03-18T16:32:20.385885+05:30"},{"city":"Sagar","state":"Madhya Pradesh","latitude":23.8388,"longitude":78.7378,"temp":33.2,"humidity":17,"rain":0.0,"pressure":949.9,"uv_index":7.5,"wind_gusts":35.3,"aqi":84,"pm10":10.5,"pm2_5":6.9,"mosquito_risk":0,"arthritis_risk":5,"migraine_risk":7,"frizz_risk":0,"updated_at":"2026-03-18T16:32:20.385893+05:30"},{"city":"Satna","state":"Madhya Pradesh","latitude":24.6005,"longitude":80.8322,"temp":35.4,"humidity":14,"rain":0.0,"pressure":970.4,"uv_index":6.95,"wind_gusts":28.1,"aqi":80,"pm10":14.5,"pm2_5":7.9,"mosquito_risk":0,"arthritis_risk":5,"migraine_risk":10,"frizz_risk":0,"updated_at":"2026-03-18T16:32:20.385900+05:30"},{"city":"Akola","state":"Maharashtra","latitude":20.7002,"longitude":77.0082,"temp":36.1,"humidity":17,"rain":0.0,"pressure":973.5,"uv_index":8.15,"wind_gusts":21.2,"aqi":120,"pm10":42.0,"pm2_5":33.2,"mosquito_risk":0,"arthritis_risk":5,"migraine_risk":10,"frizz_risk":0,"updated_at":"2026-03-18T16:32:20.385909+05:30"},{"city":"Amravati","state":"Maharashtra","latitude":20.9374,"longitude":77.7796,"temp":34.7,"humidity":21,"rain":0.0,"pressure":966.7,"uv_index":7.85,"wind_gusts":45.4,"aqi":114,"pm10":40.5,"pm2_5":31.8,"mosquito_risk":0,"arthritis_risk":5,"migraine_risk":7,"frizz_risk":0,"updated_at":"2026-03-18T16:32:20.385917+05:30"},{"city":"Latur","state":"Maharashtra","latitude":18.4088,"longitude":76.5604,"temp":30.6,"humidity":30,"rain":0.0,"pressure":939.9,"uv_index":8.55,"wind_gusts":27.7,"aqi":120,"pm10":41.7,"pm2_5":32.0,"mosquito_risk":0,"arthritis_risk":5,"migraine_risk":7,"frizz_risk":0,"updated_at":"2026-03-18T16:32:20.385926+05:30"},{"city":"Nanded","state":"Maharashtra","latitude":19.1383,"longitude":77.3091,"temp":31.4,"humidity":33,"rain":0.0,"pressure":969.1,"uv_index":7.85,"wind_gusts":24.5,"aqi":111,"pm10":32.8,"pm2_5":25.9,"mosquito_risk":0,"arthritis_risk":5,"migraine_risk":7,"frizz_risk":0,"updated_at":"2026-03-18T16:32:20.385933+05:30"},{"city":"Gulbarga","state":"Karnataka","latitude":17.3297,"longitude":76.8343,"temp":26.2,"humidity":59,"rain":0.0,"pressure":959.8,"uv_index":8.65,"wind_gusts":43.2,"aqi":142,"pm10":37.3,"pm2_5":31.1,"mosquito_risk":4,"arthritis_risk":5,"migraine_risk":7,"frizz_risk":1,"updated_at":"2026-03-18T16:32:20.385941+05:30"},{"city":"Bidar","state":"Karnataka","latitude":17.9104,"longitude":77.5199,"temp":27.8,"humidity":43,"rain":0.0,"pressure":936.7,"uv_index":8.6,"wind_gusts":30.2,"aqi":109,"pm10":37.5,"pm2_5":30.9,"mosquito_risk":4,"arthritis_risk":5,"migraine_risk":7,"frizz_risk":0,"updated_at":"2026-03-18T16:32:20.385948+05:30"},{"city":"Hospet","state":"Karnataka","latitude":15.2689,"longitude":76.3909,"temp":29.4,"humidity":49,"rain":0.0,"pressure":955.7,"uv_index":8.9,"wind_gusts":22.7,"aqi":111,"pm10":40.9,"pm2_5":32.9,"mosquito_risk":4,"arthritis_risk":5,"migraine_risk":7,"frizz_risk":1,"updated_at":"2026-03-18T16:32:20.385956+05:30"},{"city":"Tirupur","state":"Tamil Nadu","latitude":11.1085,"longitude":77.3411,"temp":33.7,"humidity":34,"rain":0.0,"pressure":973.8,"uv_index":9.15,"wind_gusts":31.7,"aqi":77,"pm10":16.4,"pm2_5":14.2,"mosquito_risk":0,"arthritis_risk":5,"migraine_risk":7,"frizz_risk":0,"updated_at":"2026-03-18T16:32:20.385964+05:30"},{"city":"Alappuzha","state":"Kerala","latitude":9.4981,"longitude":76.3388,"temp":28.7,"humidity":78,"rain":0.0,"pressure":1007.6,"uv_index":8.7,"wind_gusts":20.5,"aqi":103,"pm10":11.7,"pm2_5":10.9,"mosquito_risk":7,"arthritis_risk":5,"migraine_risk":4,"frizz_risk":1,"updated_at":"2026-03-18T16:32:20.385971+05:30"},{"city":"Munnar","state":"Kerala","latitude":10.0889,"longitude":77.0595,"temp":24.5,"humidity":74,"rain":0.0,"pressure":857.2,"uv_index":9.55,"wind_gusts":31.3,"aqi":83,"pm10":16.4,"pm2_5":15.3,"mosquito_risk":3,"arthritis_risk":5,"migraine_risk":7,"frizz_risk":1,"updated_at":"2026-03-18T16:32:20.385979+05:30"},{"city":"Silchar","state":"Assam","latitude":24.8333,"longitude":92.7789,"temp":26.8,"humidity":67,"rain":0.0,"pressure":1008.3,"uv_index":7.8,"wind_gusts":43.6,"aqi":89,"pm10":26.4,"pm2_5":20.5,"mosquito_risk":7,"arthritis_risk":0,"migraine_risk":4,"frizz_risk":1,"updated_at":"2026-03-18T16:32:20.385986+05:30"},{"city":"Dibrugarh","state":"Assam","latitude":27.4728,"longitude":94.912,"temp":22.6,"humidity":76,"rain":0.0,"pressure":998.9,"uv_index":7.55,"wind_gusts":28.1,"aqi":79,"pm10":32.0,"pm2_5":24.3,"mosquito_risk":3,"arthritis_risk":5,"migraine_risk":7,"frizz_risk":1,"updated_at":"2026-03-18T16:32:20.385994+05:30"}]