[{"city":"Delhi","state":"Delhi","latitude":28.6139,"longitude":77.209,"temp":35.7,"humidity":38,"rain":0.0,"pressure":974.8,"uv_index":7.8,"wind_gusts":37.8,"aqi":585,"pm10":395.8,"pm2_5":128.1,"no2":60.2,"co":1415.0,"o3":24.0,"so2":28.2,"mosquito_risk":0,"arthritis_risk":5,"migraine_risk":10,"frizz_risk":1,"updated_at":"2026-06-10T23:31:41.539211+05:30"},{"city":"Mumbai","state":"Maharashtra","latitude":19.076,"longitude":72.8777,"temp":29.9,"humidity":78,"rain":0.0,"pressure":1006.5,"uv_index":7.75,"wind_gusts":45.7,"aqi":75,"pm10":47.0,"pm2_5":21.3,"no2":5.1,"co":176.0,"o3":53.0,"so2":3.9,"mosquito_risk":7,"arthritis_risk":5,"migraine_risk":4,"frizz_risk":1,"updated_at":"2026-06-10T23:31:41.539249+05:30"},{"city":"Bangalore","state":"Karnataka","latitude":12.9716,"longitude":77.5946,"temp":21.3,"humidity":93,"rain":0.0,"pressure":911.8,"uv_index":8.45,"wind_gusts":51.1,"aqi":30,"pm10":6.2,"pm2_5":5.3,"no2":16.1,"co":311.0,"o3":34.0,"so2":3.9,"mosquito_risk":3,"arthritis_risk":5,"migraine_risk":7,"frizz_risk":1,"updated_at":"2026-06-10T23:31:41.539266+05:30"},{"city":"Hyderabad","state":"Telangana","latitude":17.385,"longitude":78.4867,"temp":26.0,"humidity":78,"rain":0.0,"pressure":951.3,"uv_index":9.1,"wind_gusts":52.2,"aqi":76,"pm10":29.5,"pm2_5":20.2,"no2":14.3,"co":251.0,"o3":69.0,"so2":6.8,"mosquito_risk":7,"arthritis_risk":5,"migraine_risk":7,"frizz_risk":1,"updated_at":"2026-06-10T23:31:41.539276+05:30"},{"city":"Chennai","state":"Tamil Nadu","latitude":13.0827,"longitude":80.2707,"temp":27.3,"humidity":83,"rain":0.1,"pressure":1006.5,"uv_index":8.05,"wind_gusts":51.8,"aqi":52,"pm10":15.8,"pm2_5":11.3,"no2":13.3,"co":292.0,"o3":61.0,"so2":7.2,"mosquito_risk":10,"arthritis_risk":5,"migraine_risk":4,"frizz_risk":1,"updated_at":"2026-06-10T23:31:41.539285+05:30"},{"city":"Kolkata","state":"West Bengal","latitude":22.5726,"longitude":88.3639,"temp":28.3,"humidity":92,"rain":0.0,"pressure":1001.9,"uv_index":8.95,"wind_gusts":46.4,"aqi":108,"pm10":44.5,"pm2_5":39.3,"no2":14.1,"co":475.0,"o3":58.0,"so2":7.8,"mosquito_risk":7,"arthritis_risk":5,"migraine_risk":4,"frizz_risk":1,"updated_at":"2026-06-10T23:31:41.539293+05:30"},{"city":"Pune","state":"Maharashtra","latitude":18.5204,"longitude":73.8567,"temp":26.0,"humidity":82,"rain":0.0,"pressure":947.0,"uv_index":8.25,"wind_gusts":48.2,"aqi":58,"pm10":33.3,"pm2_5":16.8,"no2":9.7,"co":142.0,"o3":41.0,"so2":7.1,"mosquito_risk":7,"arthritis_risk":5,"migraine_risk":7,"frizz_risk":1,"updated_at":"2026-06-10T23:31:41.539300+05:30"},{"city":"Ahmedabad","state":"Gujarat","latitude":23.0225,"longitude":72.5714,"temp":32.1,"humidity":69,"rain":0.0,"pressure":997.0,"uv_index":8.05,"wind_gusts":47.2,"aqi":76,"pm10":39.2,"pm2_5":19.6,"no2":6.3,"co":213.0,"o3":62.0,"so2":5.4,"mosquito_risk":3,"arthritis_risk":5,"migraine_risk":7,"frizz_risk":1,"updated_at":"2026-06-10T23:31:41.539307+05:30"},{"city":"Jaipur","state":"Rajasthan","latitude":26.9124,"longitude":75.7873,"temp":33.7,"humidity":45,"rain":0.0,"pressure":953.5,"uv_index":8.25,"wind_gusts":49.7,"aqi":144,"pm10":242.1,"pm2_5":53.1,"no2":8.2,"co":221.0,"o3":68.0,"so2":5.2,"mosquito_risk":0,"arthritis_risk":5,"migraine_risk":7,"frizz_risk":1,"updated_at":"2026-06-10T23:31:41.539318+05:30"},{"city":"Lucknow","state":"Uttar Pradesh","latitude":26.8467,"longitude":80.9462,"temp":32.3,"humidity":53,"rain":0.0,"pressure":987.0,"uv_index":8.35,"wind_gusts":34.6,"aqi":163,"pm10":118.5,"pm2_5":50.6,"no2":9.2,"co":484.0,"o3":128.0,"so2":6.4,"mosquito_risk":0,"arthritis_risk":5,"migraine_risk":7,"frizz_risk":1,"updated_at":"2026-06-10T23:31:41.539325+05:30"},{"city":"Kanpur","state":"Uttar Pradesh","latitude":26.4499,"longitude":80.3319,"temp":35.0,"humidity":35,"rain":0.0,"pressure":985.0,"uv_index":8.35,"wind_gusts":41.8,"aqi":317,"pm10":160.2,"pm2_5":54.6,"no2":12.6,"co":309.0,"o3":105.0,"so2":5.7,"mosquito_risk":0,"arthritis_risk":5,"migraine_risk":7,"frizz_risk":1,"updated_at":"2026-06-10T23:31:41.539332+05:30"},{"city":"Chandigarh","state":"Chandigarh","latitude":30.7333,"longitude":76.7794,"temp":31.2,"humidity":47,"rain":0.0,"pressure":960.9,"uv_index":7.85,"wind_gusts":32.0,"aqi":119,"pm10":94.3,"pm2_5":54.7,"no2":36.8,"co":491.0,"o3":72.0,"so2":12.6,"mosquito_risk":0,"arthritis_risk":5,"migraine_risk":7,"frizz_risk":1,"updated_at":"2026-06-10T23:31:41.539338+05:30"},{"city":"Srinagar","state":"Jammu and Kashmir","latitude":34.0837,"longitude":74.7973,"temp":16.4,"humidity":91,"rain":0.0,"pressure":835.8,"uv_index":9.05,"wind_gusts":18.7,"aqi":80,"pm10":46.1,"pm2_5":42.1,"no2":39.4,"co":867.0,"o3":30.0,"so2":2.6,"mosquito_risk":3,"arthritis_risk":10,"migraine_risk":7,"frizz_risk":0,"updated_at":"2026-06-10T23:31:41.539345+05:30"},{"city":"Jammu","state":"Jammu and Kashmir","latitude":32.7266,"longitude":74.857,"temp":31.8,"humidity":35,"rain":0.0,"pressure":963.0,"uv_index":8.65,"wind_gusts":29.2,"aqi":107,"pm10":45.1,"pm2_5":39.9,"no2":34.6,"co":711.0,"o3":50.0,"so2":5.6,"mosquito_risk":0,"arthritis_risk":5,"migraine_risk":7,"frizz_risk":0,"updated_at":"2026-06-10T23:31:41.539352+05:30"},{"city":"Amritsar","state":"Punjab","latitude":31.634,"longitude":74.8723,"temp":34.9,"humidity":38,"rain":0.0,"pressure":971.1,"uv_index":8.5,"wind_gusts":23.8,"aqi":119,"pm10":88.0,"pm2_5":72.6,"no2":66.2,"co":734.0,"o3":37.0,"so2":15.1,"mosquito_risk":0,"arthritis_risk":5,"migraine_risk":7,"frizz_risk":1,"updated_at":"2026-06-10T23:31:41.539359+05:30"},{"city":"Ludhiana","state":"Punjab","latitude":30.901,"longitude":75.8573,"temp":33.9,"humidity":40,"rain":0.0,"pressure":969.5,"uv_index":8.05,"wind_gusts":31.3,"aqi":151,"pm10":151.3,"pm2_5":66.4,"no2":32.3,"co":1531.0,"o3":72.0,"so2":11.1,"mosquito_risk":0,"arthritis_risk":5,"migraine_risk":7,"frizz_risk":1,"updated_at":"2026-06-10T23:31:41.539365+05:30"},{"city":"Jalandhar","state":"Punjab","latitude":31.326,"longitude":75.5762,"temp":35.2,"humidity":32,"rain":0.0,"pressure":970.4,"uv_index":8.25,"wind_gusts":25.2,"aqi":122,"pm10":72.9,"pm2_5":52.9,"no2":37.6,"co":928.0,"o3":65.0,"so2":8.3,"mosquito_risk":0,"arthritis_risk":5,"migraine_risk":10,"frizz_risk":1,"updated_at":"2026-06-10T23:31:41.539372+05:30"},{"city":"Dehradun","state":"Uttarakhand","latitude":30.6284,"longitude":78.0322,"temp":17.9,"humidity":85,"rain":0.0,"pressure":826.3,"uv_index":8.3,"wind_gusts":40.7,"aqi":96,"pm10":41.7,"pm2_5":32.6,"no2":25.9,"co":263.0,"o3":61.0,"so2":2.2,"mosquito_risk":3,"arthritis_risk":10,"migraine_risk":7,"frizz_risk":0,"updated_at":"2026-06-10T23:31:41.539379+05:30"},{"city":"Shimla","state":"Himachal Pradesh","latitude":31.1048,"longitude":77.1734,"temp":17.4,"humidity":51,"rain":0.0,"pressure":781.4,"uv_index":8.35,"wind_gusts":46.1,"aqi":157,"pm10":44.9,"pm2_5":32.6,"no2":23.1,"co":318.0,"o3":121.0,"so2":8.0,"mosquito_risk":0,"arthritis_risk":5,"migraine_risk":7,"frizz_risk":0,"updated_at":"2026-06-10T23:31:41.539391+05:30"},{"city":"Manali","state":"Himachal Pradesh","latitude":32.2396,"longitude":77.1887,"temp":14.8,"humidity":68,"rain":0.0,"pressure":814.3,"uv_index":10.0,"wind_gusts":39.6,"aqi":49,"pm10":12.7,"pm2_5":10.1,"no2":84.0,"co":409.0,"o3":29.0,"so2":0.1,"mosquito_risk":3,"arthritis_risk":5,"migraine_risk":7,"frizz_risk":0,"updated_at":"2026-06-10T23:31:41.539398+05:30"},{"city":"Gurgaon","state":"Haryana","latitude":28.4595,"longitude":77.0266,"temp":34.4,"humidity":37,"rain":0.0,"pressure":972.9,"uv_index":7.9,"wind_gusts":47.2,"aqi":1176,"pm10":278.5,"pm2_5":100.6,"no2":51.2,"co":1566.0,"o3":22.0,"so2":14.8,"mosquito_risk":0,"arthritis_risk":5,"migraine_risk":7,"frizz_risk":1,"updated_at":"2026-06-10T23:31:41.539404+05:30"},{"city":"Noida","state":"Uttar Pradesh","latitude":28.5355,"longitude":77.391,"temp":31.9,"humidity":55,"rain":0.0,"pressure":976.0,"uv_index":7.85,"wind_gusts":32.8,"aqi":1176,"pm10":278.5,"pm2_5":100.6,"no2":51.2,"co":1377.0,"o3":22.0,"so2":14.8,"mosquito_risk":0,"arthritis_risk":5,"migraine_risk":7,"frizz_risk":1,"updated_at":"2026-06-10T23:31:41.539411+05:30"},{"city":"Ghaziabad","state":"Uttar Pradesh","latitude":28.6692,"longitude":77.4538,"temp":30.3,"humidity":69,"rain":0.0,"pressure":974.2,"uv_index":7.85,"wind_gusts":33.5,"aqi":487,"pm10":359.5,"pm2_5":103.6,"no2":25.7,"co":503.0,"o3":53.0,"so2":11.1,"mosquito_risk":3,"arthritis_risk":5,"migraine_risk":7,"frizz_risk":1,"updated_at":"2026-06-10T23:31:41.539419+05:30"},{"city":"Faridabad","state":"Haryana","latitude":28.4089,"longitude":77.3178,"temp":34.7,"humidity":37,"rain":0.0,"pressure":975.4,"uv_index":7.9,"wind_gusts":38.2,"aqi":1176,"pm10":278.5,"pm2_5":100.6,"no2":51.2,"co":868.0,"o3":22.0,"so2":14.8,"mosquito_risk":0,"arthritis_risk":5,"migraine_risk":7,"frizz_risk":1,"updated_at":"2026-06-10T23:31:41.539426+05:30"},{"city":"Meerut","state":"Uttar Pradesh","latitude":28.9845,"longitude":77.7064,"temp":32.0,"humidity":60,"rain":0.0,"pressure":973.7,"uv_index":7.75,"wind_gusts":34.9,"aqi":487,"pm10":359.5,"pm2_5":103.6,"no2":25.7,"co":400.0,"o3":53.0,"so2":11.1,"mosquito_risk":0,"arthritis_risk":5,"migraine_risk":7,"frizz_risk":1,"updated_at":"2026-06-10T23:31:41.539432+05:30"},{"city":"Agra","state":"Uttar Pradesh","latitude":27.1767,"longitude":78.0081,"temp":34.4,"humidity":41,"rain":0.0,"pressure":980.0,"uv_index":8.15,"wind_gusts":45.0,"aqi":697,"pm10":251.5,"pm2_5":63.1,"no2":37.3,"co":365.0,"o3":35.0,"so2":12.2,"mosquito_risk":0,"arthritis_risk":5,"migraine_risk":7,"frizz_risk":1,"updated_at":"2026-06-10T23:31:41.539438+05:30"},{"city":"Varanasi","state":"Uttar Pradesh","latitude":25.3176,"longitude":82.9739,"temp":31.2,"humidity":56,"rain":0.0,"pressure":991.7,"uv_index":8.8,"wind_gusts":56.2,"aqi":142,"pm10":143.9,"pm2_5":92.0,"no2":40.3,"co":924.0,"o3":67.0,"so2":19.6,"mosquito_risk":0,"arthritis_risk":5,"migraine_risk":7,"frizz_risk":1,"updated_at":"2026-06-10T23:31:41.539447+05:30"},{"city":"Prayagraj","state":"Uttar Pradesh","latitude":25.4358,"longitude":81.8463,"temp":32.5,"humidity":48,"rain":0.0,"pressure":989.5,"uv_index":8.7,"wind_gusts":45.4,"aqi":150,"pm10":109.0,"pm2_5":66.6,"no2":25.4,"co":416.0,"o3":83.0,"so2":13.8,"mosquito_risk":0,"arthritis_risk":5,"migraine_risk":7,"frizz_risk":1,"updated_at":"2026-06-10T23:31:41.539454+05:30"},{"city":"Gorakhpur","state":"Uttar Pradesh","latitude":26.7606,"longitude":83.3732,"temp":29.1,"humidity":73,"rain":0.0,"pressure":992.4,"uv_index":8.7,"wind_gusts":38.9,"aqi":158,"pm10":106.6,"pm2_5":68.2,"no2":18.6,"co":391.0,"o3":91.0,"so2":11.1,"mosquito_risk":7,"arthritis_risk":5,"migraine_risk":7,"frizz_risk":1,"updated_at":"2026-06-10T23:31:41.539463+05:30"},{"city":"Bareilly","state":"Uttar Pradesh","latitude":28.367,"longitude":79.4304,"temp":30.7,"humidity":60,"rain":0.0,"pressure":980.0,"uv_index":8.15,"wind_gusts":32.4,"aqi":138,"pm10":87.1,"pm2_5":48.0,"no2":9.8,"co":305.0,"o3":117.0,"so2":8.9,"mosquito_risk":0,"arthritis_risk":5,"migraine_risk":7,"frizz_risk":1,"updated_at":"2026-06-10T23:31:41.539469+05:30"},{"city":"Aligarh","state":"Uttar Pradesh","latitude":27.8974,"longitude":78.088,"temp":32.5,"humidity":45,"rain":0.0,"pressure":977.3,"uv_index":8.0,"wind_gusts":35.3,"aqi":403,"pm10":148.5,"pm2_5":64.7,"no2":26.1,"co":393.0,"o3":54.0,"so2":10.2,"mosquito_risk":0,"arthritis_risk":5,"migraine_risk":7,"frizz_risk":1,"updated_at":"2026-06-10T23:31:41.539475+05:30"},{"city":"Moradabad","state":"Uttar Pradesh","latitude":28.8386,"longitude":78.7733,"temp":32.1,"humidity":51,"rain":0.0,"pressure":976.8,"uv_index":7.95,"wind_gusts":40.0,"aqi":166,"pm10":231.9,"pm2_5":83.4,"no2":14.4,"co":307.0,"o3":94.0,"so2":10.7,"mosquito_risk":0,"arthritis_risk":5,"migraine_risk":7,"frizz_risk":1,"updated_at":"2026-06-10T23:31:41.539481+05:30"},{"city":"Saharanpur","state":"Uttar Pradesh","latitude":29.9637,"longitude":77.546,"temp":30.4,"humidity":60,"rain":0.0,"pressure":968.4,"uv_index":7.5,"wind_gusts":36.7,"aqi":153,"pm10":101.3,"pm2_5":60.3,"no2":19.1,"co":427.0,"o3":86.0,"so2":10.3,"mosquito_risk":0,"arthritis_risk":5,"migraine_risk":7,"frizz_risk":1,"updated_at":"2026-06-10T23:31:41.539487+05:30"},{"city":"Jhansi","state":"Uttar Pradesh","latitude":25.4484,"longitude":78.5685,"temp":33.1,"humidity":44,"rain":0.0,"pressure":971.6,"uv_index":8.5,"wind_gusts":44.3,"aqi":73,"pm10":30.7,"pm2_5":21.7,"no2":6.9,"co":214.0,"o3":75.0,"so2":5.6,"mosquito_risk":0,"arthritis_risk":5,"migraine_risk":7,"frizz_risk":1,"updated_at":"2026-06-10T23:31:45.213796+05:30"},{"city":"Surat","state":"Gujarat","latitude":21.1702,"longitude":72.8311,"temp":30.2,"humidity":78,"rain":0.0,"pressure":1003.4,"uv_index":7.55,"wind_gusts":52.9,"aqi":84,"pm10":44.4,"pm2_5":25.1,"no2":12.5,"co":195.0,"o3":46.0,"so2":21.4,"mosquito_risk":3,"arthritis_risk":5,"migraine_risk":4,"frizz_risk":1,"updated_at":"2026-06-10T23:31:45.213826+05:30"},{"city":"Vadodara","state":"Gujarat","latitude":22.3072,"longitude":73.1812,"temp":30.7,"humidity":74,"rain":0.0,"pressure":999.8,"uv_index":8.0,"wind_gusts":52.2,"aqi":79,"pm10":34.3,"pm2_5":23.1,"no2":16.1,"co":194.0,"o3":38.0,"so2":17.5,"mosquito_risk":3,"arthritis_risk":5,"migraine_risk":7,"frizz_risk":1,"updated_at":"2026-06-10T23:31:45.213837+05:30"},{"city":"Rajkot","state":"Gujarat","latitude":22.3039,"longitude":70.8022,"temp":29.8,"humidity":70,"rain":0.0,"pressure":990.1,"uv_index":7.55,"wind_gusts":48.2,"aqi":73,"pm10":44.1,"pm2_5":21.9,"no2":3.3,"co":108.0,"o3":54.0,"so2":3.5,"mosquito_risk":7,"arthritis_risk":5,"migraine_risk":7,"frizz_risk":1,"updated_at":"2026-06-10T23:31:45.213846+05:30"},{"city":"Thane","state":"Maharashtra","latitude":19.2183,"longitude":72.9781,"temp":29.2,"humidity":81,"rain":0.0,"pressure":1005.9,"uv_index":7.7,"wind_gusts":40.0,"aqi":75,"pm10":47.0,"pm2_5":21.3,"no2":5.1,"co":179.0,"o3":53.0,"so2":3.9,"mosquito_risk":7,"arthritis_risk":5,"migraine_risk":4,"frizz_risk":1,"updated_at":"2026-06-10T23:31:45.213854+05:30"},{"city":"Nagpur","state":"Maharashtra","latitude":21.1458,"longitude":79.0882,"temp":34.6,"humidity":37,"rain":0.0,"pressure":969.2,"uv_index":6.8,"wind_gusts":41.4,"aqi":91,"pm10":43.0,"pm2_5":28.5,"no2":18.1,"co":382.0,"o3":60.0,"so2":11.2,"mosquito_risk":0,"arthritis_risk":5,"migraine_risk":7,"frizz_risk":1,"updated_at":"2026-06-10T23:31:45.213862+05:30"},{"city":"Nashik","state":"Maharashtra","latitude":19.9975,"longitude":73.7898,"temp":26.0,"humidity":82,"rain":0.0,"pressure":943.8,"uv_index":8.0,"wind_gusts":49.0,"aqi":66,"pm10":27.6,"pm2_5":14.6,"no2":6.2,"co":130.0,"o3":46.0,"so2":3.6,"mosquito_risk":7,"arthritis_risk":5,"migraine_risk":7,"frizz_risk":1,"updated_at":"2026-06-10T23:31:45.213870+05:30"},{"city":"Aurangabad","state":"Maharashtra","latitude":19.8762,"longitude":75.3433,"temp":28.6,"humidity":62,"rain":0.0,"pressure":942.2,"uv_index":8.95,"wind_gusts":49.0,"aqi":70,"pm10":41.3,"pm2_5":21.8,"no2":6.4,"co":133.0,"o3":63.0,"so2":7.6,"mosquito_risk":7,"arthritis_risk":5,"migraine_risk":7,"frizz_risk":1,"updated_at":"2026-06-10T23:31:45.213877+05:30"},{"city":"Solapur","state":"Maharashtra","latitude":17.6599,"longitude":75.9064,"temp":29.1,"humidity":57,"rain":0.0,"pressure":955.7,"uv_index":8.9,"wind_gusts":41.0,"aqi":52,"pm10":27.1,"pm2_5":16.0,"no2":5.4,"co":141.0,"o3":49.0,"so2":2.2,"mosquito_risk":4,"arthritis_risk":5,"migraine_risk":7,"frizz_risk":1,"updated_at":"2026-06-10T23:31:45.213885+05:30"},{"city":"Kolhapur","state":"Maharashtra","latitude":16.705,"longitude":74.2433,"temp":24.3,"humidity":90,"rain":0.0,"pressure":947.7,"uv_index":6.7,"wind_gusts":51.5,"aqi":33,"pm10":7.4,"pm2_5":5.1,"no2":5.0,"co":136.0,"o3":42.0,"so2":2.0,"mosquito_risk":3,"arthritis_risk":5,"migraine_risk":7,"frizz_risk":1,"updated_at":"2026-06-10T23:31:45.213893+05:30"},{"city":"Goa","state":"Goa","latitude":15.2993,"longitude":74.124,"temp":25.4,"humidity":98,"rain":0.0,"pressure":998.6,"uv_index":6.5,"wind_gusts":30.6,"aqi":43,"pm10":25.7,"pm2_5":12.5,"no2":4.3,"co":247.0,"o3":45.0,"so2":1.1,"mosquito_risk":7,"arthritis_risk":5,"migraine_risk":7,"frizz_risk":1,"updated_at":"2026-06-10T23:31:45.213901+05:30"},{"city":"Jodhpur","state":"Rajasthan","latitude":26.2389,"longitude":73.0243,"temp":34.7,"humidity":47,"rain":0.0,"pressure":975.7,"uv_index":8.45,"wind_gusts":52.6,"aqi":164,"pm10":234.2,"pm2_5":57.3,"no2":3.9,"co":140.0,"o3":66.0,"so2":2.1,"mosquito_risk":0,"arthritis_risk":5,"migraine_risk":7,"frizz_risk":1,"updated_at":"2026-06-10T23:31:45.213909+05:30"},{"city":"Udaipur","state":"Rajasthan","latitude":24.5854,"longitude":73.7125,"temp":30.7,"humidity":53,"rain":0.0,"pressure":941.6,"uv_index":8.8,"wind_gusts":49.0,"aqi":77,"pm10":32.0,"pm2_5":18.8,"no2":3.8,"co":129.0,"o3":78.0,"so2":3.1,"mosquito_risk":0,"arthritis_risk":5,"migraine_risk":7,"frizz_risk":1,"updated_at":"2026-06-10T23:31:45.213916+05:30"},{"city":"Kota","state":"Rajasthan","latitude":25.2138,"longitude":75.8648,"temp":33.7,"humidity":49,"rain":0.0,"pressure":972.6,"uv_index":8.4,"wind_gusts":39.2,"aqi":82,"pm10":43.0,"pm2_5":28.5,"no2":5.8,"co":168.0,"o3":83.0,"so2":7.4,"mosquito_risk":0,"arthritis_risk":5,"migraine_risk":7,"frizz_risk":1,"updated_at":"2026-06-10T23:31:45.213923+05:30"},{"city":"Bikaner","state":"Rajasthan","latitude":28.0229,"longitude":73.3119,"temp":36.2,"humidity":42,"rain":0.0,"pressure":973.1,"uv_index":8.5,"wind_gusts":47.5,"aqi":152,"pm10":312.9,"pm2_5":101.7,"no2":2.1,"co":122.0,"o3":72.0,"so2":4.4,"mosquito_risk":0,"arthritis_risk":5,"migraine_risk":10,"frizz_risk":1,"updated_at":"2026-06-10T23:31:45.213931+05:30"},{"city":"Ajmer","state":"Rajasthan","latitude":26.4499,"longitude":74.6399,"temp":31.4,"humidity":52,"rain":0.0,"pressure":948.8,"uv_index":8.4,"wind_gusts":52.9,"aqi":71,"pm10":45.6,"pm2_5":21.9,"no2":5.3,"co":153.0,"o3":74.0,"so2":3.8,"mosquito_risk":0,"arthritis_risk":5,"migraine_risk":7,"frizz_risk":1,"updated_at":"2026-06-10T23:31:45.213938+05:30"},{"city":"Gwalior","state":"Madhya Pradesh","latitude":26.2183,"longitude":78.1828,"temp":34.5,"humidity":39,"rain":0.0,"pressure":976.2,"uv_index":8.3,"wind_gusts":47.9,"aqi":69,"pm10":31.7,"pm2_5":22.8,"no2":5.8,"co":160.0,"o3":88.0,"so2":8.7,"mosquito_risk":0,"arthritis_risk":5,"migraine_risk":7,"frizz_risk":1,"updated_at":"2026-06-10T23:31:45.213946+05:30"},{"city":"Indore","state":"Madhya Pradesh","latitude":22.7196,"longitude":75.8577,"temp":30.7,"humidity":53,"rain":0.0,"pressure":944.7,"uv_index":8.6,"wind_gusts":47.5,"aqi":81,"pm10":50.8,"pm2_5":32.4,"no2":7.1,"co":208.0,"o3":91.0,"so2":7.8,"mosquito_risk":0,"arthritis_risk":5,"migraine_risk":7,"frizz_risk":1,"updated_at":"2026-06-10T23:31:45.213953+05:30"},{"city":"Bhopal","state":"Madhya Pradesh","latitude":23.2599,"longitude":77.4126,"temp":31.4,"humidity":48,"rain":0.0,"pressure":949.5,"uv_index":8.65,"wind_gusts":39.2,"aqi":77,"pm10":31.2,"pm2_5":20.6,"no2":7.4,"co":292.0,"o3":72.0,"so2":4.5,"mosquito_risk":0,"arthritis_risk":5,"migraine_risk":7,"frizz_risk":1,"updated_at":"2026-06-10T23:31:45.213960+05:30"},{"city":"Jabalpur","state":"Madhya Pradesh","latitude":23.1815,"longitude":79.9864,"temp":31.0,"humidity":48,"rain":0.0,"pressure":956.8,"uv_index":8.85,"wind_gusts":37.1,"aqi":79,"pm10":29.9,"pm2_5":21.1,"no2":8.7,"co":203.0,"o3":73.0,"so2":4.6,"mosquito_risk":0,"arthritis_risk":5,"migraine_risk":7,"frizz_risk":1,"updated_at":"2026-06-10T23:31:45.213967+05:30"},{"city":"Ujjain","state":"Madhya Pradesh","latitude":23.1765,"longitude":75.7885,"temp":30.7,"humidity":53,"rain":0.0,"pressure":949.8,"uv_index":8.6,"wind_gusts":48.6,"aqi":81,"pm10":47.1,"pm2_5":30.5,"no2":4.3,"co":204.0,"o3":90.0,"so2":5.7,"mosquito_risk":0,"arthritis_risk":5,"migraine_risk":7,"frizz_risk":1,"updated_at":"2026-06-10T23:31:45.213975+05:30"},{"city":"Visakhapatnam","state":"Andhra Pradesh","latitude":17.6868,"longitude":83.2185,"temp":30.8,"humidity":82,"rain":0.0,"pressure":998.5,"uv_index":8.85,"wind_gusts":25.2,"aqi":148,"pm10":60.8,"pm2_5":51.6,"no2":40.3,"co":618.0,"o3":66.0,"so2":40.9,"mosquito_risk":3,"arthritis_risk":5,"migraine_risk":7,"frizz_risk":1,"updated_at":"2026-06-10T23:31:45.213982+05:30"},{"city":"Vijayawada","state":"Andhra Pradesh","latitude":16.5062,"longitude":80.648,"temp":32.6,"humidity":55,"rain":0.0,"pressure":998.4,"uv_index":9.0,"wind_gusts":45.4,"aqi":92,"pm10":50.4,"pm2_5":37.0,"no2":14.2,"co":372.0,"o3":64.0,"so2":5.8,"mosquito_risk":0,"arthritis_risk":5,"migraine_risk":7,"frizz_risk":1,"updated_at":"2026-06-10T23:31:45.213989+05:30"},{"city":"Guntur","state":"Andhra Pradesh","latitude":16.3067,"longitude":80.4365,"temp":32.0,"humidity":57,"rain":0.0,"pressure":1000.0,"uv_index":8.45,"wind_gusts":45.4,"aqi":87,"pm10":44.2,"pm2_5":31.2,"no2":12.5,"co":341.0,"o3":70.0,"so2":5.6,"mosquito_risk":0,"arthritis_risk":5,"migraine_risk":4,"frizz_risk":1,"updated_at":"2026-06-10T23:31:45.213996+05:30"},{"city":"Nellore","state":"Andhra Pradesh","latitude":14.4426,"longitude":79.9865,"temp":27.0,"humidity":86,"rain":0.0,"pressure":1004.0,"uv_index":8.3,"wind_gusts":58.0,"aqi":54,"pm10":20.5,"pm2_5":14.0,"no2":6.2,"co":167.0,"o3":73.0,"so2":3.2,"mosquito_risk":7,"arthritis_risk":5,"migraine_risk":4,"frizz_risk":1,"updated_at":"2026-06-10T23:31:45.214005+05:30"},{"city":"Kurnool","state":"Andhra Pradesh","latitude":15.8281,"longitude":78.0373,"temp":26.9,"humidity":78,"rain":0.0,"pressure":976.0,"uv_index":8.3,"wind_gusts":62.3,"aqi":56,"pm10":9.1,"pm2_5":7.2,"no2":10.2,"co":171.0,"o3":47.0,"so2":3.2,"mosquito_risk":7,"arthritis_risk":5,"migraine_risk":7,"frizz_risk":1,"updated_at":"2026-06-10T23:31:45.214013+05:30"},{"city":"Kakinada","state":"Andhra Pradesh","latitude":16.9891,"longitude":82.2475,"temp":29.9,"humidity":76,"rain":0.0,"pressure":1002.2,"uv_index":8.65,"wind_gusts":43.2,"aqi":90,"pm10":33.5,"pm2_5":21.9,"no2":4.9,"co":344.0,"o3":100.0,"so2":4.0,"mosquito_risk":7,"arthritis_risk":5,"migraine_risk":4,"frizz_risk":1,"updated_at":"2026-06-10T23:31:45.214020+05:30"},{"city":"Tirupati","state":"Andhra Pradesh","latitude":13.6288,"longitude":79.4192,"temp":25.8,"humidity":91,"rain":0.2,"pressure":990.0,"uv_index":7.95,"wind_gusts":42.8,"aqi":47,"pm10":16.4,"pm2_5":11.6,"no2":11.3,"co":155.0,"o3":49.0,"so2":1.8,"mosquito_risk":10,"arthritis_risk":5,"migraine_risk":7,"frizz_risk":1,"updated_at":"2026-06-10T23:31:45.214028+05:30"},{"city":"Warangal","state":"Telangana","latitude":17.9689,"longitude":79.5941,"temp":31.0,"humidity":59,"rain":0.0,"pressure":974.6,"uv_index":8.95,"wind_gusts":45.4,"aqi":94,"pm10":67.1,"pm2_5":48.5,"no2":24.3,"co":315.0,"o3":40.0,"so2":6.0,"mosquito_risk":0,"arthritis_risk":5,"migraine_risk":7,"frizz_risk":1,"updated_at":"2026-06-10T23:31:45.214035+05:30"},{"city":"Nizamabad","state":"Telangana","latitude":18.6725,"longitude":78.0941,"temp":31.8,"humidity":45,"rain":0.0,"pressure":961.3,"uv_index":8.95,"wind_gusts":42.8,"aqi":85,"pm10":77.1,"pm2_5":47.8,"no2":23.8,"co":238.0,"o3":52.0,"so2":6.9,"mosquito_risk":0,"arthritis_risk":5,"migraine_risk":7,"frizz_risk":1,"updated_at":"2026-06-10T23:31:45.214042+05:30"},{"city":"Mysore","state":"Karnataka","latitude":12.2958,"longitude":76.6396,"temp":21.8,"humidity":90,"rain":0.0,"pressure":929.0,"uv_index":4.35,"wind_gusts":46.4,"aqi":23,"pm10":5.3,"pm2_5":4.5,"no2":10.3,"co":160.0,"o3":35.0,"so2":2.1,"mosquito_risk":3,"arthritis_risk":5,"migraine_risk":3,"frizz_risk":1,"updated_at":"2026-06-10T23:31:45.214049+05:30"},{"city":"Mangalore","state":"Karnataka","latitude":12.9141,"longitude":74.856,"temp":24.1,"humidity":99,"rain":0.0,"pressure":1008.1,"uv_index":8.4,"wind_gusts":33.1,"aqi":37,"pm10":16.1,"pm2_5":11.9,"no2":14.4,"co":336.0,"o3":29.0,"so2":2.8,"mosquito_risk":3,"arthritis_risk":0,"migraine_risk":4,"frizz_risk":1,"updated_at":"2026-06-10T23:31:45.214057+05:30"},{"city":"Hubli-Dharwad","state":"Karnataka","latitude":15.3647,"longitude":75.124,"temp":22.7,"humidity":96,"rain":0.0,"pressure":940.9,"uv_index":7.0,"wind_gusts":47.2,"aqi":24,"pm10":4.7,"pm2_5":2.4,"no2":3.6,"co":135.0,"o3":48.0,"so2":1.1,"mosquito_risk":3,"arthritis_risk":5,"migraine_risk":7,"frizz_risk":1,"updated_at":"2026-06-10T23:31:45.214064+05:30"},{"city":"Belgaum","state":"Karnataka","latitude":15.8497,"longitude":74.4977,"temp":22.0,"humidity":99,"rain":0.0,"pressure":925.5,"uv_index":7.9,"wind_gusts":46.1,"aqi":23,"pm10":5.1,"pm2_5":2.9,"no2":3.8,"co":126.0,"o3":46.0,"so2":1.5,"mosquito_risk":3,"arthritis_risk":5,"migraine_risk":7,"frizz_risk":1,"updated_at":"2026-06-10T23:31:49.655692+05:30"},{"city":"Coimbatore","state":"Tamil Nadu","latitude":11.0168,"longitude":76.9558,"temp":23.4,"humidity":94,"rain":0.0,"pressure":962.1,"uv_index":8.2,"wind_gusts":55.1,"aqi":24,"pm10":7.6,"pm2_5":6.1,"no2":10.2,"co":223.0,"o3":34.0,"so2":3.3,"mosquito_risk":3,"arthritis_risk":5,"migraine_risk":7,"frizz_risk":1,"updated_at":"2026-06-10T23:31:49.655725+05:30"},{"city":"Madurai","state":"Tamil Nadu","latitude":9.9252,"longitude":78.1198,"temp":29.7,"humidity":59,"rain":0.0,"pressure":993.2,"uv_index":8.45,"wind_gusts":45.4,"aqi":28,"pm10":7.3,"pm2_5":6.9,"no2":13.1,"co":154.0,"o3":41.0,"so2":4.5,"mosquito_risk":4,"arthritis_risk":5,"migraine_risk":7,"frizz_risk":1,"updated_at":"2026-06-10T23:31:49.655738+05:30"},{"city":"Trichy","state":"Tamil Nadu","latitude":10.7905,"longitude":78.7047,"temp":29.9,"humidity":61,"rain":0.0,"pressure":999.7,"uv_index":8.15,"wind_gusts":54.4,"aqi":30,"pm10":4.7,"pm2_5":3.7,"no2":6.7,"co":131.0,"o3":46.0,"so2":2.7,"mosquito_risk":7,"arthritis_risk":5,"migraine_risk":7,"frizz_risk":1,"updated_at":"2026-06-10T23:31:49.655746+05:30"},{"city":"Salem","state":"Tamil Nadu","latitude":11.6643,"longitude":78.146,"temp":28.4,"humidity":69,"rain":0.0,"pressure":977.6,"uv_index":8.35,"wind_gusts":40.3,"aqi":37,"pm10":19.0,"pm2_5":15.7,"no2":23.5,"co":185.0,"o3":31.0,"so2":6.7,"mosquito_risk":7,"arthritis_risk":5,"migraine_risk":7,"frizz_risk":1,"updated_at":"2026-06-10T23:31:49.655754+05:30"},{"city":"Tirunelveli","state":"Tamil Nadu","latitude":8.7139,"longitude":77.7567,"temp":28.5,"humidity":73,"rain":0.0,"pressure":1004.5,"uv_index":8.65,"wind_gusts":47.9,"aqi":25,"pm10":6.0,"pm2_5":4.9,"no2":6.9,"co":183.0,"o3":42.0,"so2":2.0,"mosquito_risk":7,"arthritis_risk":5,"migraine_risk":4,"frizz_risk":1,"updated_at":"2026-06-10T23:31:49.655761+05:30"},{"city":"Vellore","state":"Tamil Nadu","latitude":12.9165,"longitude":79.1325,"temp":25.8,"humidity":86,"rain":0.0,"pressure":983.8,"uv_index":7.6,"wind_gusts":53.6,"aqi":40,"pm10":13.2,"pm2_5":10.6,"no2":15.5,"co":203.0,"o3":43.0,"so2":4.3,"mosquito_risk":7,"arthritis_risk":5,"migraine_risk":7,"frizz_risk":1,"updated_at":"2026-06-10T23:31:49.655768+05:30"},{"city":"Erode","state":"Tamil Nadu","latitude":11.341,"longitude":77.7172,"temp":26.4,"humidity":79,"rain":0.0,"pressure":989.5,"uv_index":5.0,"wind_gusts":43.2,"aqi":30,"pm10":9.4,"pm2_5":7.9,"no2":12.9,"co":204.0,"o3":39.0,"so2":3.7,"mosquito_risk":7,"arthritis_risk":5,"migraine_risk":3,"frizz_risk":1,"updated_at":"2026-06-10T23:31:49.655775+05:30"},{"city":"Kochi","state":"Kerala","latitude":9.9312,"longitude":76.2673,"temp":25.8,"humidity":96,"rain":0.0,"pressure":1010.9,"uv_index":5.15,"wind_gusts":33.1,"aqi":30,"pm10":13.6,"pm2_5":12.3,"no2":19.2,"co":227.0,"o3":20.0,"so2":4.9,"mosquito_risk":7,"arthritis_risk":0,"migraine_risk":0,"frizz_risk":1,"updated_at":"2026-06-10T23:31:49.655783+05:30"},{"city":"Thiruvananthapuram","state":"Kerala","latitude":8.5241,"longitude":76.9366,"temp":25.0,"humidity":97,"rain":0.1,"pressure":1010.5,"uv_index":8.3,"wind_gusts":51.1,"aqi":27,"pm10":12.3,"pm2_5":6.7,"no2":2.7,"co":111.0,"o3":53.0,"so2":1.0,"mosquito_risk":10,"arthritis_risk":0,"migraine_risk":4,"frizz_risk":1,"updated_at":"2026-06-10T23:31:49.655789+05:30"},{"city":"Kozhikode","state":"Kerala","latitude":11.2588,"longitude":75.7804,"temp":23.6,"humidity":99,"rain":0.0,"pressure":1009.7,"uv_index":7.6,"wind_gusts":34.6,"aqi":28,"pm10":13.5,"pm2_5":7.0,"no2":3.3,"co":386.0,"o3":54.0,"so2":1.6,"mosquito_risk":3,"arthritis_risk":0,"migraine_risk":4,"frizz_risk":1,"updated_at":"2026-06-10T23:31:49.655797+05:30"},{"city":"Thrissur","state":"Kerala","latitude":10.5276,"longitude":76.2144,"temp":24.4,"humidity":100,"rain":0.0,"pressure":1009.2,"uv_index":6.3,"wind_gusts":29.5,"aqi":33,"pm10":11.1,"pm2_5":10.5,"no2":17.2,"co":319.0,"o3":23.0,"so2":4.1,"mosquito_risk":3,"arthritis_risk":0,"migraine_risk":4,"frizz_risk":1,"updated_at":"2026-06-10T23:31:49.655804+05:30"},{"city":"Kannur","state":"Kerala","latitude":11.8745,"longitude":75.3704,"temp":24.2,"humidity":98,"rain":0.0,"pressure":1008.8,"uv_index":7.9,"wind_gusts":30.6,"aqi":26,"pm10":14.6,"pm2_5":11.6,"no2":18.0,"co":392.0,"o3":20.0,"so2":3.2,"mosquito_risk":3,"arthritis_risk":0,"migraine_risk":4,"frizz_risk":1,"updated_at":"2026-06-10T23:31:49.655811+05:30"},{"city":"Patna","state":"Bihar","latitude":25.5941,"longitude":85.1376,"temp":29.2,"humidity":83,"rain":0.0,"pressure":995.0,"uv_index":8.85,"wind_gusts":26.3,"aqi":165,"pm10":80.3,"pm2_5":65.9,"no2":13.6,"co":432.0,"o3":118.0,"so2":16.2,"mosquito_risk":7,"arthritis_risk":5,"migraine_risk":7,"frizz_risk":1,"updated_at":"2026-06-10T23:31:49.655819+05:30"},{"city":"Gaya","state":"Bihar","latitude":24.7914,"longitude":85.0002,"temp":29.9,"humidity":72,"rain":0.0,"pressure":988.2,"uv_index":8.65,"wind_gusts":28.4,"aqi":154,"pm10":172.3,"pm2_5":105.9,"no2":48.4,"co":358.0,"o3":51.0,"so2":22.0,"mosquito_risk":7,"arthritis_risk":5,"migraine_risk":7,"frizz_risk":1,"updated_at":"2026-06-10T23:31:49.655826+05:30"},{"city":"Muzaffarpur","state":"Bihar","latitude":26.1209,"longitude":85.3647,"temp":28.6,"humidity":79,"rain":0.0,"pressure":995.4,"uv_index":8.85,"wind_gusts":36.0,"aqi":162,"pm10":78.7,"pm2_5":63.3,"no2":11.2,"co":400.0,"o3":119.0,"so2":12.0,"mosquito_risk":7,"arthritis_risk":5,"migraine_risk":7,"frizz_risk":1,"updated_at":"2026-06-10T23:31:49.655833+05:30"},{"city":"Bhagalpur","state":"Bihar","latitude":25.2425,"longitude":87.0117,"temp":26.4,"humidity":86,"rain":0.0,"pressure":996.9,"uv_index":8.85,"wind_gusts":34.9,"aqi":159,"pm10":49.0,"pm2_5":45.5,"no2":15.2,"co":380.0,"o3":101.0,"so2":20.3,"mosquito_risk":7,"arthritis_risk":5,"migraine_risk":7,"frizz_risk":1,"updated_at":"2026-06-10T23:31:49.655839+05:30"},{"city":"Ranchi","state":"Jharkhand","latitude":23.3441,"longitude":85.3096,"temp":25.8,"humidity":72,"rain":0.0,"pressure":933.3,"uv_index":9.0,"wind_gusts":34.2,"aqi":137,"pm10":178.8,"pm2_5":73.1,"no2":28.9,"co":377.0,"o3":55.0,"so2":7.8,"mosquito_risk":7,"arthritis_risk":5,"migraine_risk":7,"frizz_risk":1,"updated_at":"2026-06-10T23:31:49.655846+05:30"},{"city":"Jamshedpur","state":"Jharkhand","latitude":22.8046,"longitude":86.2029,"temp":28.6,"humidity":89,"rain":0.0,"pressure":986.3,"uv_index":9.05,"wind_gusts":31.7,"aqi":158,"pm10":111.8,"pm2_5":71.0,"no2":26.2,"co":510.0,"o3":83.0,"so2":30.7,"mosquito_risk":7,"arthritis_risk":5,"migraine_risk":7,"frizz_risk":1,"updated_at":"2026-06-10T23:31:49.655853+05:30"},{"city":"Dhanbad","state":"Jharkhand","latitude":23.7957,"longitude":86.4304,"temp":28.6,"humidity":86,"rain":0.0,"pressure":975.2,"uv_index":9.05,"wind_gusts":31.0,"aqi":162,"pm10":104.1,"pm2_5":80.6,"no2":43.4,"co":517.0,"o3":79.0,"so2":113.0,"mosquito_risk":7,"arthritis_risk":5,"migraine_risk":7,"frizz_risk":1,"updated_at":"2026-06-10T23:31:49.655859+05:30"},{"city":"Bokaro","state":"Jharkhand","latitude":23.6693,"longitude":86.1511,"temp":29.0,"humidity":75,"rain":0.0,"pressure":978.7,"uv_index":9.05,"wind_gusts":27.4,"aqi":158,"pm10":133.2,"pm2_5":80.1,"no2":37.5,"co":1667.0,"o3":93.0,"so2":105.8,"mosquito_risk":7,"arthritis_risk":5,"migraine_risk":7,"frizz_risk":1,"updated_at":"2026-06-10T23:31:49.655866+05:30"},{"city":"Bhubaneswar","state":"Odisha","latitude":20.2961,"longitude":85.8245,"temp":29.4,"humidity":87,"rain":0.0,"pressure":997.9,"uv_index":9.05,"wind_gusts":37.8,"aqi":144,"pm10":59.6,"pm2_5":50.6,"no2":17.7,"co":408.0,"o3":86.0,"so2":8.2,"mosquito_risk":7,"arthritis_risk":5,"migraine_risk":7,"frizz_risk":1,"updated_at":"2026-06-10T23:31:49.655873+05:30"},{"city":"Cuttack","state":"Odisha","latitude":20.4625,"longitude":85.8828,"temp":30.2,"humidity":87,"rain":0.0,"pressure":999.7,"uv_index":9.1,"wind_gusts":36.7,"aqi":144,"pm10":59.6,"pm2_5":50.6,"no2":17.7,"co":484.0,"o3":86.0,"so2":8.2,"mosquito_risk":3,"arthritis_risk":5,"migraine_risk":7,"frizz_risk":1,"updated_at":"2026-06-10T23:31:49.655880+05:30"},{"city":"Rourkela","state":"Odisha","latitude":22.2604,"longitude":84.8536,"temp":28.4,"humidity":79,"rain":0.0,"pressure":980.6,"uv_index":9.0,"wind_gusts":25.2,"aqi":151,"pm10":142.5,"pm2_5":77.8,"no2":40.7,"co":1221.0,"o3":35.0,"so2":11.3,"mosquito_risk":7,"arthritis_risk":5,"migraine_risk":7,"frizz_risk":1,"updated_at":"2026-06-10T23:31:49.655887+05:30"},{"city":"Raipur","state":"Chhattisgarh","latitude":21.2514,"longitude":81.6296,"temp":32.5,"humidity":44,"rain":0.0,"pressure":970.7,"uv_index":8.5,"wind_gusts":30.2,"aqi":121,"pm10":56.1,"pm2_5":44.9,"no2":38.3,"co":255.0,"o3":60.0,"so2":50.5,"mosquito_risk":0,"arthritis_risk":5,"migraine_risk":7,"frizz_risk":1,"updated_at":"2026-06-10T23:31:49.655893+05:30"},{"city":"Bhilai","state":"Chhattisgarh","latitude":21.1938,"longitude":81.3509,"temp":32.0,"humidity":52,"rain":0.0,"pressure":971.0,"uv_index":7.95,"wind_gusts":34.6,"aqi":115,"pm10":52.0,"pm2_5":40.7,"no2":30.1,"co":237.0,"o3":72.0,"so2":41.8,"mosquito_risk":0,"arthritis_risk":5,"migraine_risk":7,"frizz_risk":1,"updated_at":"2026-06-10T23:31:49.655900+05:30"},{"city":"Guwahati","state":"Assam","latitude":26.1158,"longitude":91.7086,"temp":24.6,"humidity":99,"rain":0.1,"pressure":999.4,"uv_index":8.75,"wind_gusts":28.1,"aqi":84,"pm10":30.6,"pm2_5":22.8,"no2":6.8,"co":444.0,"o3":91.0,"so2":3.5,"mosquito_risk":6,"arthritis_risk":5,"migraine_risk":7,"frizz_risk":1,"updated_at":"2026-06-10T23:31:49.655907+05:30"},{"city":"Agartala","state":"Tripura","latitude":23.8315,"longitude":91.2868,"temp":25.7,"humidity":93,"rain":0.0,"pressure":1003.5,"uv_index":8.85,"wind_gusts":37.8,"aqi":66,"pm10":26.7,"pm2_5":22.2,"no2":11.5,"co":226.0,"o3":65.0,"so2":3.2,"mosquito_risk":7,"arthritis_risk":5,"migraine_risk":4,"frizz_risk":1,"updated_at":"2026-06-10T23:31:49.655914+05:30"},{"city":"Shillong","state":"Meghalaya","latitude":25.5788,"longitude":91.8933,"temp":18.1,"humidity":96,"rain":0.0,"pressure":855.1,"uv_index":7.2,"wind_gusts":32.4,"aqi":51,"pm10":7.3,"pm2_5":5.0,"no2":4.3,"co":250.0,"o3":100.0,"so2":2.7,"mosquito_risk":3,"arthritis_risk":10,"migraine_risk":7,"frizz_risk":1,"updated_at":"2026-06-10T23:31:49.655922+05:30"},{"city":"Imphal","state":"Manipur","latitude":24.817,"longitude":93.9368,"temp":22.8,"humidity":96,"rain":0.0,"pressure":921.7,"uv_index":9.0,"wind_gusts":31.0,"aqi":95,"pm10":47.6,"pm2_5":42.6,"no2":20.7,"co":1012.0,"o3":34.0,"so2":3.7,"mosquito_risk":3,"arthritis_risk":5,"migraine_risk":7,"frizz_risk":1,"updated_at":"2026-06-10T23:31:49.655929+05:30"},{"city":"Aizawl","state":"Mizoram","latitude":23.7271,"longitude":92.7176,"temp":19.8,"humidity":95,"rain":0.2,"pressure":890.4,"uv_index":8.6,"wind_gusts":36.7,"aqi":68,"pm10":19.1,"pm2_5":15.0,"no2":11.7,"co":301.0,"o3":38.0,"so2":1.5,"mosquito_risk":6,"arthritis_risk":10,"migraine_risk":7,"frizz_risk":1,"updated_at":"2026-06-10T23:31:49.655936+05:30"},{"city":"Kohima","state":"Nagaland","latitude":25.6701,"longitude":94.1077,"temp":19.4,"humidity":95,"rain":0.0,"pressure":854.0,"uv_index":9.05,"wind_gusts":29.2,"aqi":66,"pm10":20.8,"pm2_5":16.6,"no2":10.9,"co":393.0,"o3":45.0,"so2":1.7,"mosquito_risk":3,"arthritis_risk":10,"migraine_risk":7,"frizz_risk":1,"updated_at":"2026-06-10T23:31:49.655943+05:30"},{"city":"Gangtok","state":"Sikkim","latitude":27.3314,"longitude":88.6138,"temp":16.8,"humidity":95,"rain":0.2,"pressure":835.8,"uv_index":9.25,"wind_gusts":35.3,"aqi":89,"pm10":10.5,"pm2_5":8.4,"no2":8.5,"co":563.0,"o3":121.0,"so2":2.3,"mosquito_risk":6,"arthritis_risk":10,"migraine_risk":7,"frizz_risk":0,"updated_at":"2026-06-10T23:31:49.655949+05:30"},{"city":"Siliguri","state":"West Bengal","latitude":26.7271,"longitude":88.3953,"temp":24.1,"humidity":96,"rain":0.0,"pressure":990.2,"uv_index":8.75,"wind_gusts":26.6,"aqi":118,"pm10":41.1,"pm2_5":27.1,"no2":8.8,"co":506.0,"o3":129.0,"so2":3.4,"mosquito_risk":3,"arthritis_risk":5,"migraine_risk":7,"frizz_risk":1,"updated_at":"2026-06-10T23:31:53.514152+05:30"},{"city":"Durgapur","state":"West Bengal","latitude":23.5204,"longitude":87.3119,"temp":28.2,"humidity":91,"rain":0.0,"pressure":990.6,"uv_index":9.0,"wind_gusts":46.4,"aqi":167,"pm10":71.9,"pm2_5":68.9,"no2":28.8,"co":506.0,"o3":66.0,"so2":35.3,"mosquito_risk":7,"arthritis_risk":5,"migraine_risk":7,"frizz_risk":1,"updated_at":"2026-06-10T23:31:53.514182+05:30"},{"city":"Asansol","state":"West Bengal","latitude":23.6739,"longitude":86.9524,"temp":28.6,"humidity":87,"rain":0.0,"pressure":989.0,"uv_index":9.0,"wind_gusts":45.7,"aqi":161,"pm10":75.4,"pm2_5":66.4,"no2":28.5,"co":739.0,"o3":79.0,"so2":40.3,"mosquito_risk":7,"arthritis_risk":5,"migraine_risk":7,"frizz_risk":1,"updated_at":"2026-06-10T23:31:53.514193+05:30"},{"city":"Pondicherry","state":"Puducherry","latitude":11.9139,"longitude":79.8145,"temp":27.9,"humidity":90,"rain":0.1,"pressure":1007.7,"uv_index":7.7,"wind_gusts":58.7,"aqi":49,"pm10":29.5,"pm2_5":21.1,"no2":17.6,"co":312.0,"o3":61.0,"so2":4.8,"mosquito_risk":10,"arthritis_risk":5,"migraine_risk":4,"frizz_risk":1,"updated_at":"2026-06-10T23:31:53.514201+05:30"},{"city":"Port Blair","state":"Andaman and Nicobar Islands","latitude":11.6234,"longitude":92.7265,"temp":24.8,"humidity":98,"rain":0.1,"pressure":1007.4,"uv_index":4.85,"wind_gusts":45.4,"aqi":23,"pm10":7.3,"pm2_5":4.5,"no2":0.3,"co":86.0,"o3":58.0,"so2":0.3,"mosquito_risk":6,"arthritis_risk":5,"migraine_risk":0,"frizz_risk":1,"updated_at":"2026-06-10T23:31:53.514209+05:30"},{"city":"Haridwar","state":"Uttarakhand","latitude":29.9457,"longitude":78.1642,"temp":28.4,"humidity":69,"rain":0.0,"pressure":966.8,"uv_index":7.6,"wind_gusts":40.0,"aqi":134,"pm10":92.2,"pm2_5":57.9,"no2":24.2,"co":288.0,"o3":73.0,"so2":9.3,"mosquito_risk":7,"arthritis_risk":5,"migraine_risk":7,"frizz_risk":1,"updated_at":"2026-06-10T23:31:53.514217+05:30"},{"city":"Rishikesh","state":"Uttarakhand","latitude":30.0869,"longitude":78.2676,"temp":25.9,"humidity":73,"rain":0.0,"pressure":959.4,"uv_index":7.75,"wind_gusts":36.7,"aqi":132,"pm10":84.8,"pm2_5":45.6,"no2":18.7,"co":440.0,"o3":98.0,"so2":7.0,"mosquito_risk":7,"arthritis_risk":5,"migraine_risk":7,"frizz_risk":1,"updated_at":"2026-06-10T23:31:53.514224+05:30"},{"city":"Nainital","state":"Uttarakhand","latitude":29.3919,"longitude":79.4542,"temp":15.4,"humidity":93,"rain":0.0,"pressure":801.8,"uv_index":8.55,"wind_gusts":34.2,"aqi":115,"pm10":42.6,"pm2_5":29.9,"no2":9.6,"co":356.0,"o3":112.0,"so2":3.7,"mosquito_risk":3,"arthritis_risk":10,"migraine_risk":7,"frizz_risk":0,"updated_at":"2026-06-10T23:31:53.514232+05:30"},{"city":"Mussoorie","state":"Uttarakhand","latitude":30.4599,"longitude":78.0664,"temp":17.3,"humidity":78,"rain":0.0,"pressure":799.7,"uv_index":8.15,"wind_gusts":47.2,"aqi":109,"pm10":56.3,"pm2_5":39.3,"no2":29.1,"co":346.0,"o3":72.0,"so2":7.2,"mosquito_risk":3,"arthritis_risk":5,"migraine_risk":7,"frizz_risk":0,"updated_at":"2026-06-10T23:31:53.514239+05:30"},{"city":"Dharamshala","state":"Himachal Pradesh","latitude":32.219,"longitude":76.3234,"temp":24.4,"humidity":43,"rain":0.0,"pressure":864.5,"uv_index":8.55,"wind_gusts":40.0,"aqi":78,"pm10":23.9,"pm2_5":20.6,"no2":18.8,"co":251.0,"o3":41.0,"so2":0.5,"mosquito_risk":0,"arthritis_risk":5,"migraine_risk":7,"frizz_risk":0,"updated_at":"2026-06-10T23:31:53.514246+05:30"},{"city":"Dalhousie","state":"Himachal Pradesh","latitude":32.5387,"longitude":75.971,"temp":16.4,"humidity":66,"rain":0.0,"pressure":799.4,"uv_index":8.8,"wind_gusts":39.6,"aqi":138,"pm10":47.5,"pm2_5":41.2,"no2":42.0,"co":500.0,"o3":59.0,"so2":3.5,"mosquito_risk":3,"arthritis_risk":5,"migraine_risk":7,"frizz_risk":0,"updated_at":"2026-06-10T23:31:53.514254+05:30"},{"city":"Patiala","state":"Punjab","latitude":30.3398,"longitude":76.3869,"temp":32.3,"humidity":54,"rain":0.0,"pressure":970.0,"uv_index":7.65,"wind_gusts":31.3,"aqi":442,"pm10":864.3,"pm2_5":160.7,"no2":20.9,"co":379.0,"o3":78.0,"so2":10.8,"mosquito_risk":0,"arthritis_risk":5,"migraine_risk":7,"frizz_risk":1,"updated_at":"2026-06-10T23:31:53.514261+05:30"},{"city":"Bhatinda","state":"Punjab","latitude":30.211,"longitude":74.9455,"temp":34.2,"humidity":44,"rain":0.0,"pressure":974.0,"uv_index":8.35,"wind_gusts":25.2,"aqi":156,"pm10":133.6,"pm2_5":62.6,"no2":24.1,"co":459.0,"o3":50.0,"so2":8.0,"mosquito_risk":0,"arthritis_risk":5,"migraine_risk":7,"frizz_risk":1,"updated_at":"2026-06-10T23:31:53.514267+05:30"},{"city":"Rohtak","state":"Haryana","latitude":28.8955,"longitude":76.6066,"temp":32.1,"humidity":54,"rain":0.0,"pressure":973.0,"uv_index":7.8,"wind_gusts":41.4,"aqi":864,"pm10":390.2,"pm2_5":115.3,"no2":73.6,"co":724.0,"o3":0.0,"so2":15.9,"mosquito_risk":0,"arthritis_risk":5,"migraine_risk":7,"frizz_risk":1,"updated_at":"2026-06-10T23:31:53.514274+05:30"},{"city":"Panipat","state":"Haryana","latitude":29.3909,"longitude":76.9635,"temp":31.6,"humidity":64,"rain":0.0,"pressure":972.1,"uv_index":7.65,"wind_gusts":31.3,"aqi":1179,"pm10":935.0,"pm2_5":197.9,"no2":53.2,"co":415.0,"o3":33.0,"so2":14.2,"mosquito_risk":3,"arthritis_risk":5,"migraine_risk":7,"frizz_risk":1,"updated_at":"2026-06-10T23:31:53.514281+05:30"},{"city":"Mathura","state":"Uttar Pradesh","latitude":27.4924,"longitude":77.6737,"temp":32.2,"humidity":53,"rain":0.0,"pressure":978.5,"uv_index":8.15,"wind_gusts":34.9,"aqi":440,"pm10":161.6,"pm2_5":63.3,"no2":63.1,"co":449.0,"o3":8.0,"so2":8.7,"mosquito_risk":0,"arthritis_risk":5,"migraine_risk":7,"frizz_risk":1,"updated_at":"2026-06-10T23:31:53.514288+05:30"},{"city":"Vrindavan","state":"Uttar Pradesh","latitude":27.5823,"longitude":77.7027,"temp":31.8,"humidity":55,"rain":0.0,"pressure":979.0,"uv_index":8.1,"wind_gusts":37.1,"aqi":440,"pm10":161.6,"pm2_5":63.3,"no2":63.1,"co":613.0,"o3":8.0,"so2":8.7,"mosquito_risk":0,"arthritis_risk":5,"migraine_risk":7,"frizz_risk":1,"updated_at":"2026-06-10T23:31:53.514294+05:30"},{"city":"Ayodhya","state":"Uttar Pradesh","latitude":26.7922,"longitude":82.1998,"temp":30.4,"humidity":71,"rain":0.0,"pressure":989.7,"uv_index":8.45,"wind_gusts":34.9,"aqi":153,"pm10":85.9,"pm2_5":64.7,"no2":21.1,"co":690.0,"o3":85.0,"so2":9.4,"mosquito_risk":3,"arthritis_risk":5,"migraine_risk":7,"frizz_risk":1,"updated_at":"2026-06-10T23:31:53.514302+05:30"},{"city":"Ratlam","state":"Madhya Pradesh","latitude":23.3315,"longitude":75.0367,"temp":30.3,"humidity":59,"rain":0.0,"pressure":950.7,"uv_index":8.5,"wind_gusts":49.0,"aqi":80,"pm10":42.0,"pm2_5":27.9,"no2":3.9,"co":179.0,"o3":94.0,"so2":8.2,"mosquito_risk":0,"arthritis_risk":5,"migraine_risk":7,"frizz_risk":1,"updated_at":"2026-06-10T23:31:53.514309+05:30"},{"city":"Sagar","state":"Madhya Pradesh","latitude":23.8388,"longitude":78.7378,"temp":31.3,"humidity":43,"rain":0.0,"pressure":946.0,"uv_index":8.7,"wind_gusts":43.2,"aqi":73,"pm10":25.6,"pm2_5":18.8,"no2":10.2,"co":166.0,"o3":64.0,"so2":3.7,"mosquito_risk":0,"arthritis_risk":5,"migraine_risk":7,"frizz_risk":1,"updated_at":"2026-06-10T23:31:53.514315+05:30"},{"city":"Satna","state":"Madhya Pradesh","latitude":24.6005,"longitude":80.8322,"temp":31.5,"humidity":45,"rain":0.0,"pressure":966.0,"uv_index":8.8,"wind_gusts":46.8,"aqi":75,"pm10":39.7,"pm2_5":30.3,"no2":28.8,"co":356.0,"o3":39.0,"so2":6.3,"mosquito_risk":0,"arthritis_risk":5,"migraine_risk":7,"frizz_risk":1,"updated_at":"2026-06-10T23:31:53.514322+05:30"},{"city":"Akola","state":"Maharashtra","latitude":20.7002,"longitude":77.0082,"temp":34.2,"humidity":36,"rain":0.0,"pressure":971.1,"uv_index":8.8,"wind_gusts":49.7,"aqi":76,"pm10":39.3,"pm2_5":22.8,"no2":12.1,"co":210.0,"o3":74.0,"so2":7.3,"mosquito_risk":0,"arthritis_risk":5,"migraine_risk":7,"frizz_risk":1,"updated_at":"2026-06-10T23:31:53.514329+05:30"},{"city":"Amravati","state":"Maharashtra","latitude":20.9374,"longitude":77.7796,"temp":33.6,"humidity":32,"rain":0.0,"pressure":963.2,"uv_index":8.8,"wind_gusts":47.5,"aqi":78,"pm10":33.5,"pm2_5":20.2,"no2":12.7,"co":307.0,"o3":74.0,"so2":7.4,"mosquito_risk":0,"arthritis_risk":5,"migraine_risk":7,"frizz_risk":0,"updated_at":"2026-06-10T23:31:53.514337+05:30"},{"city":"Latur","state":"Maharashtra","latitude":18.4088,"longitude":76.5604,"temp":29.4,"humidity":52,"rain":0.0,"pressure":937.7,"uv_index":8.95,"wind_gusts":42.1,"aqi":69,"pm10":34.5,"pm2_5":21.0,"no2":4.5,"co":165.0,"o3":80.0,"so2":4.4,"mosquito_risk":4,"arthritis_risk":5,"migraine_risk":7,"frizz_risk":1,"updated_at":"2026-06-10T23:31:53.514344+05:30"},{"city":"Nanded","state":"Maharashtra","latitude":19.1383,"longitude":77.3091,"temp":32.4,"humidity":42,"rain":0.0,"pressure":965.2,"uv_index":8.9,"wind_gusts":42.5,"aqi":83,"pm10":59.4,"pm2_5":35.7,"no2":19.2,"co":249.0,"o3":63.0,"so2":8.0,"mosquito_risk":0,"arthritis_risk":5,"migraine_risk":7,"frizz_risk":1,"updated_at":"2026-06-10T23:31:53.514351+05:30"},{"city":"Gulbarga","state":"Karnataka","latitude":17.3297,"longitude":76.8343,"temp":28.5,"humidity":66,"rain":0.0,"pressure":957.1,"uv_index":8.95,"wind_gusts":42.1,"aqi":53,"pm10":20.3,"pm2_5":12.6,"no2":7.7,"co":138.0,"o3":51.0,"so2":2.8,"mosquito_risk":7,"arthritis_risk":5,"migraine_risk":7,"frizz_risk":1,"updated_at":"2026-06-10T23:31:53.514358+05:30"},{"city":"Bidar","state":"Karnataka","latitude":17.9104,"longitude":77.5199,"temp":26.3,"humidity":71,"rain":0.0,"pressure":933.4,"uv_index":9.0,"wind_gusts":46.4,"aqi":80,"pm10":37.4,"pm2_5":24.9,"no2":17.3,"co":262.0,"o3":56.0,"so2":3.7,"mosquito_risk":7,"arthritis_risk":5,"migraine_risk":7,"frizz_risk":1,"updated_at":"2026-06-10T23:31:53.514364+05:30"},{"city":"Hospet","state":"Karnataka","latitude":15.2689,"longitude":76.3909,"temp":24.1,"humidity":88,"rain":0.0,"pressure":956.0,"uv_index":8.7,"wind_gusts":56.5,"aqi":26,"pm10":4.2,"pm2_5":3.4,"no2":6.7,"co":144.0,"o3":41.0,"so2":1.6,"mosquito_risk":3,"arthritis_risk":5,"migraine_risk":7,"frizz_risk":1,"updated_at":"2026-06-10T23:31:53.514372+05:30"},{"city":"Tirupur","state":"Tamil Nadu","latitude":11.1085,"longitude":77.3411,"temp":24.3,"humidity":89,"rain":0.0,"pressure":975.6,"uv_index":7.4,"wind_gusts":54.0,"aqi":30,"pm10":12.2,"pm2_5":10.4,"no2":16.4,"co":186.0,"o3":35.0,"so2":5.2,"mosquito_risk":3,"arthritis_risk":5,"migraine_risk":7,"frizz_risk":1,"updated_at":"2026-06-10T23:31:53.514379+05:30"},{"city":"Alappuzha","state":"Kerala","latitude":9.4981,"longitude":76.3388,"temp":26.0,"humidity":95,"rain":0.1,"pressure":1011.0,"uv_index":8.35,"wind_gusts":37.1,"aqi":27,"pm10":11.8,"pm2_5":8.0,"no2":8.8,"co":90.0,"o3":46.0,"so2":2.7,"mosquito_risk":10,"arthritis_risk":0,"migraine_risk":4,"frizz_risk":1,"updated_at":"2026-06-10T23:31:53.514387+05:30"},{"city":"Munnar","state":"Kerala","latitude":10.0889,"longitude":77.0595,"temp":17.5,"humidity":100,"rain":0.1,"pressure":858.0,"uv_index":8.35,"wind_gusts":42.5,"aqi":22,"pm10":3.7,"pm2_5":3.7,"no2":8.3,"co":106.0,"o3":29.0,"so2":1.3,"mosquito_risk":6,"arthritis_risk":10,"migraine_risk":7,"frizz_risk":1,"updated_at":"2026-06-10T23:31:53.514395+05:30"},{"city":"Silchar","state":"Assam","latitude":24.8333,"longitude":92.7789,"temp":25.7,"humidity":99,"rain":0.0,"pressure":1003.0,"uv_index":7.8,"wind_gusts":28.1,"aqi":92,"pm10":31.2,"pm2_5":23.5,"no2":8.5,"co":359.0,"o3":77.0,"so2":4.4,"mosquito_risk":7,"arthritis_risk":5,"migraine_risk":4,"frizz_risk":1,"updated_at":"2026-06-10T23:31:53.514401+05:30"},{"city":"Dibrugarh","state":"Assam","latitude":27.4728,"longitude":94.912,"temp":25.1,"humidity":97,"rain":0.2,"pressure":993.1,"uv_index":8.9,"wind_gusts":25.6,"aqi":79,"pm10":38.9,"pm2_5":30.6,"no2":17.5,"co":327.0,"o3":52.0,"so2":2.2,"mosquito_risk":10,"arthritis_risk":5,"migraine_risk":7,"frizz_risk":1,"updated_at":"2026-06-10T23:31:53.514408+05:30"}]