[{"city":"Delhi","state":"Delhi","latitude":28.6139,"longitude":77.209,"temp":22.0,"humidity":66,"rain":0.0,"pressure":990.6,"uv_index":5.7,"wind_gusts":25.2,"aqi":160,"pm10":100.6,"pm2_5":71.9,"mosquito_risk":3,"arthritis_risk":5,"migraine_risk":3,"frizz_risk":0,"updated_at":"2026-03-21T11:13:05.223461+05:30"},{"city":"Mumbai","state":"Maharashtra","latitude":19.076,"longitude":72.8777,"temp":28.3,"humidity":59,"rain":0.0,"pressure":1012.2,"uv_index":7.85,"wind_gusts":29.5,"aqi":79,"pm10":49.2,"pm2_5":25.2,"mosquito_risk":4,"arthritis_risk":0,"migraine_risk":4,"frizz_risk":1,"updated_at":"2026-03-21T11:13:05.223500+05:30"},{"city":"Bangalore","state":"Karnataka","latitude":12.9716,"longitude":77.5946,"temp":28.0,"humidity":54,"rain":0.0,"pressure":915.3,"uv_index":8.55,"wind_gusts":37.1,"aqi":90,"pm10":28.4,"pm2_5":22.4,"mosquito_risk":4,"arthritis_risk":5,"migraine_risk":7,"frizz_risk":1,"updated_at":"2026-03-21T11:13:05.223516+05:30"},{"city":"Hyderabad","state":"Telangana","latitude":17.385,"longitude":78.4867,"temp":31.1,"humidity":40,"rain":0.0,"pressure":957.1,"uv_index":8.85,"wind_gusts":24.1,"aqi":83,"pm10":21.7,"pm2_5":13.3,"mosquito_risk":0,"arthritis_risk":5,"migraine_risk":7,"frizz_risk":0,"updated_at":"2026-03-21T11:13:05.223526+05:30"},{"city":"Chennai","state":"Tamil Nadu","latitude":13.0827,"longitude":80.2707,"temp":32.4,"humidity":56,"rain":0.0,"pressure":1011.0,"uv_index":9.15,"wind_gusts":34.6,"aqi":39,"pm10":13.0,"pm2_5":8.6,"mosquito_risk":0,"arthritis_risk":0,"migraine_risk":4,"frizz_risk":1,"updated_at":"2026-03-21T11:13:05.223535+05:30"},{"city":"Kolkata","state":"West Bengal","latitude":22.5726,"longitude":88.3639,"temp":24.5,"humidity":77,"rain":0.0,"pressure":1011.6,"uv_index":7.5,"wind_gusts":25.9,"aqi":66,"pm10":8.9,"pm2_5":8.5,"mosquito_risk":3,"arthritis_risk":0,"migraine_risk":4,"frizz_risk":1,"updated_at":"2026-03-21T11:13:05.223544+05:30"},{"city":"Pune","state":"Maharashtra","latitude":18.5204,"longitude":73.8567,"temp":29.5,"humidity":41,"rain":0.0,"pressure":952.5,"uv_index":8.4,"wind_gusts":28.8,"aqi":90,"pm10":45.3,"pm2_5":17.8,"mosquito_risk":4,"arthritis_risk":5,"migraine_risk":7,"frizz_risk":0,"updated_at":"2026-03-21T11:13:05.223556+05:30"},{"city":"Ahmedabad","state":"Gujarat","latitude":23.0225,"longitude":72.5714,"temp":30.2,"humidity":37,"rain":0.0,"pressure":1008.2,"uv_index":7.7,"wind_gusts":14.0,"aqi":69,"pm10":27.1,"pm2_5":13.7,"mosquito_risk":0,"arthritis_risk":0,"migraine_risk":4,"frizz_risk":0,"updated_at":"2026-03-21T11:13:05.223565+05:30"},{"city":"Jaipur","state":"Rajasthan","latitude":26.9124,"longitude":75.7873,"temp":23.8,"humidity":60,"rain":0.0,"pressure":966.7,"uv_index":6.5,"wind_gusts":24.1,"aqi":72,"pm10":53.4,"pm2_5":18.9,"mosquito_risk":0,"arthritis_risk":5,"migraine_risk":7,"frizz_risk":0,"updated_at":"2026-03-21T11:13:05.223572+05:30"},{"city":"Lucknow","state":"Uttar Pradesh","latitude":26.8467,"longitude":80.9462,"temp":20.9,"humidity":75,"rain":0.0,"pressure":1001.1,"uv_index":6.25,"wind_gusts":24.5,"aqi":121,"pm10":73.8,"pm2_5":35.9,"mosquito_risk":3,"arthritis_risk":5,"migraine_risk":4,"frizz_risk":1,"updated_at":"2026-03-21T11:13:05.223579+05:30"},{"city":"Kanpur","state":"Uttar Pradesh","latitude":26.4499,"longitude":80.3319,"temp":22.3,"humidity":72,"rain":0.0,"pressure":999.2,"uv_index":6.7,"wind_gusts":23.8,"aqi":120,"pm10":95.7,"pm2_5":33.3,"mosquito_risk":3,"arthritis_risk":5,"migraine_risk":7,"frizz_risk":1,"updated_at":"2026-03-21T11:13:05.223586+05:30"},{"city":"Chandigarh","state":"Chandigarh","latitude":30.7333,"longitude":76.7794,"temp":21.1,"humidity":66,"rain":0.0,"pressure":976.0,"uv_index":6.35,"wind_gusts":28.8,"aqi":79,"pm10":15.1,"pm2_5":10.0,"mosquito_risk":3,"arthritis_risk":5,"migraine_risk":7,"frizz_risk":0,"updated_at":"2026-03-21T11:13:05.223593+05:30"},{"city":"Srinagar","state":"Jammu and Kashmir","latitude":34.0837,"longitude":74.7973,"temp":10.4,"humidity":72,"rain":0.0,"pressure":844.1,"uv_index":6.55,"wind_gusts":13.7,"aqi":58,"pm10":17.7,"pm2_5":15.5,"mosquito_risk":3,"arthritis_risk":5,"migraine_risk":7,"frizz_risk":0,"updated_at":"2026-03-21T11:13:05.223600+05:30"},{"city":"Jammu","state":"Jammu and Kashmir","latitude":32.7266,"longitude":74.857,"temp":20.9,"humidity":63,"rain":0.0,"pressure":979.6,"uv_index":6.8,"wind_gusts":18.7,"aqi":85,"pm10":26.7,"pm2_5":18.5,"mosquito_risk":3,"arthritis_risk":5,"migraine_risk":7,"frizz_risk":0,"updated_at":"2026-03-21T11:13:05.223607+05:30"},{"city":"Amritsar","state":"Punjab","latitude":31.634,"longitude":74.8723,"temp":21.6,"humidity":71,"rain":0.0,"pressure":988.3,"uv_index":6.2,"wind_gusts":13.7,"aqi":98,"pm10":61.2,"pm2_5":38.4,"mosquito_risk":3,"arthritis_risk":5,"migraine_risk":7,"frizz_risk":1,"updated_at":"2026-03-21T11:13:05.223613+05:30"},{"city":"Ludhiana","state":"Punjab","latitude":30.901,"longitude":75.8573,"temp":20.7,"humidity":73,"rain":0.0,"pressure":986.4,"uv_index":5.75,"wind_gusts":22.3,"aqi":131,"pm10":38.0,"pm2_5":25.6,"mosquito_risk":3,"arthritis_risk":5,"migraine_risk":3,"frizz_risk":0,"updated_at":"2026-03-21T11:13:05.223620+05:30"},{"city":"Jalandhar","state":"Punjab","latitude":31.326,"longitude":75.5762,"temp":20.8,"humidity":70,"rain":0.0,"pressure":987.4,"uv_index":6.1,"wind_gusts":18.4,"aqi":114,"pm10":44.0,"pm2_5":25.7,"mosquito_risk":3,"arthritis_risk":5,"migraine_risk":7,"frizz_risk":0,"updated_at":"2026-03-21T11:13:05.223629+05:30"},{"city":"Dehradun","state":"Uttarakhand","latitude":30.6284,"longitude":78.0322,"temp":13.9,"humidity":62,"rain":0.0,"pressure":832.3,"uv_index":6.7,"wind_gusts":22.3,"aqi":43,"pm10":2.3,"pm2_5":1.2,"mosquito_risk":3,"arthritis_risk":5,"migraine_risk":7,"frizz_risk":0,"updated_at":"2026-03-21T11:13:05.223637+05:30"},{"city":"Shimla","state":"Himachal Pradesh","latitude":31.1048,"longitude":77.1734,"temp":12.3,"humidity":62,"rain":0.0,"pressure":786.5,"uv_index":6.35,"wind_gusts":32.0,"aqi":42,"pm10":8.7,"pm2_5":3.3,"mosquito_risk":3,"arthritis_risk":5,"migraine_risk":7,"frizz_risk":0,"updated_at":"2026-03-21T11:13:05.223644+05:30"},{"city":"Manali","state":"Himachal Pradesh","latitude":32.2396,"longitude":77.1887,"temp":14.1,"humidity":42,"rain":0.0,"pressure":819.4,"uv_index":8.55,"wind_gusts":22.0,"aqi":43,"pm10":4.5,"pm2_5":2.5,"mosquito_risk":0,"arthritis_risk":5,"migraine_risk":7,"frizz_risk":0,"updated_at":"2026-03-21T11:13:05.223651+05:30"},{"city":"Gurgaon","state":"Haryana","latitude":28.4595,"longitude":77.0266,"temp":21.1,"humidity":77,"rain":0.0,"pressure":989.1,"uv_index":5.85,"wind_gusts":21.6,"aqi":165,"pm10":103.8,"pm2_5":78.9,"mosquito_risk":3,"arthritis_risk":5,"migraine_risk":3,"frizz_risk":1,"updated_at":"2026-03-21T11:13:05.223657+05:30"},{"city":"Noida","state":"Uttar Pradesh","latitude":28.5355,"longitude":77.391,"temp":21.9,"humidity":69,"rain":0.0,"pressure":992.2,"uv_index":6.0,"wind_gusts":23.8,"aqi":165,"pm10":103.8,"pm2_5":78.9,"mosquito_risk":3,"arthritis_risk":5,"migraine_risk":3,"frizz_risk":0,"updated_at":"2026-03-21T11:13:05.223666+05:30"},{"city":"Ghaziabad","state":"Uttar Pradesh","latitude":28.6692,"longitude":77.4538,"temp":20.8,"humidity":76,"rain":0.0,"pressure":990.4,"uv_index":5.7,"wind_gusts":22.7,"aqi":161,"pm10":82.2,"pm2_5":67.5,"mosquito_risk":3,"arthritis_risk":5,"migraine_risk":3,"frizz_risk":1,"updated_at":"2026-03-21T11:13:05.223672+05:30"},{"city":"Faridabad","state":"Haryana","latitude":28.4089,"longitude":77.3178,"temp":21.7,"humidity":73,"rain":0.0,"pressure":991.5,"uv_index":6.3,"wind_gusts":23.8,"aqi":165,"pm10":103.8,"pm2_5":78.9,"mosquito_risk":3,"arthritis_risk":5,"migraine_risk":7,"frizz_risk":1,"updated_at":"2026-03-21T11:13:05.223678+05:30"},{"city":"Meerut","state":"Uttar Pradesh","latitude":28.9845,"longitude":77.7064,"temp":21.2,"humidity":77,"rain":0.0,"pressure":989.0,"uv_index":6.05,"wind_gusts":23.0,"aqi":161,"pm10":82.2,"pm2_5":67.5,"mosquito_risk":3,"arthritis_risk":5,"migraine_risk":7,"frizz_risk":1,"updated_at":"2026-03-21T11:13:05.223684+05:30"},{"city":"Agra","state":"Uttar Pradesh","latitude":27.1767,"longitude":78.0081,"temp":23.6,"humidity":62,"rain":0.0,"pressure":995.7,"uv_index":6.8,"wind_gusts":29.5,"aqi":151,"pm10":187.7,"pm2_5":58.4,"mosquito_risk":3,"arthritis_risk":5,"migraine_risk":7,"frizz_risk":0,"updated_at":"2026-03-21T11:13:05.223691+05:30"},{"city":"Varanasi","state":"Uttar Pradesh","latitude":25.3176,"longitude":82.9739,"temp":20.5,"humidity":80,"rain":0.0,"pressure":1005.3,"uv_index":5.1,"wind_gusts":25.9,"aqi":96,"pm10":50.1,"pm2_5":29.2,"mosquito_risk":3,"arthritis_risk":5,"migraine_risk":0,"frizz_risk":1,"updated_at":"2026-03-21T11:13:05.223700+05:30"},{"city":"Prayagraj","state":"Uttar Pradesh","latitude":25.4358,"longitude":81.8463,"temp":22.1,"humidity":78,"rain":0.0,"pressure":1003.5,"uv_index":7.35,"wind_gusts":26.3,"aqi":97,"pm10":77.5,"pm2_5":31.3,"mosquito_risk":3,"arthritis_risk":5,"migraine_risk":4,"frizz_risk":1,"updated_at":"2026-03-21T11:13:05.223706+05:30"},{"city":"Gorakhpur","state":"Uttar Pradesh","latitude":26.7606,"longitude":83.3732,"temp":20.4,"humidity":82,"rain":0.0,"pressure":1005.2,"uv_index":5.65,"wind_gusts":21.2,"aqi":122,"pm10":66.1,"pm2_5":38.1,"mosquito_risk":3,"arthritis_risk":5,"migraine_risk":0,"frizz_risk":1,"updated_at":"2026-03-21T11:13:05.223713+05:30"},{"city":"Bareilly","state":"Uttar Pradesh","latitude":28.367,"longitude":79.4304,"temp":22.0,"humidity":70,"rain":0.0,"pressure":994.0,"uv_index":6.55,"wind_gusts":19.8,"aqi":150,"pm10":56.6,"pm2_5":40.0,"mosquito_risk":3,"arthritis_risk":5,"migraine_risk":7,"frizz_risk":1,"updated_at":"2026-03-21T11:13:05.223720+05:30"},{"city":"Aligarh","state":"Uttar Pradesh","latitude":27.8974,"longitude":78.088,"temp":21.4,"humidity":76,"rain":0.0,"pressure":993.2,"uv_index":6.4,"wind_gusts":24.8,"aqi":160,"pm10":86.6,"pm2_5":71.2,"mosquito_risk":3,"arthritis_risk":5,"migraine_risk":7,"frizz_risk":1,"updated_at":"2026-03-21T11:13:05.223728+05:30"},{"city":"Moradabad","state":"Uttar Pradesh","latitude":28.8386,"longitude":78.7733,"temp":21.6,"humidity":69,"rain":0.0,"pressure":990.9,"uv_index":6.45,"wind_gusts":19.4,"aqi":153,"pm10":59.6,"pm2_5":43.4,"mosquito_risk":3,"arthritis_risk":5,"migraine_risk":7,"frizz_risk":0,"updated_at":"2026-03-21T11:13:05.223735+05:30"},{"city":"Saharanpur","state":"Uttar Pradesh","latitude":29.9637,"longitude":77.546,"temp":20.7,"humidity":73,"rain":0.0,"pressure":983.0,"uv_index":6.1,"wind_gusts":27.4,"aqi":157,"pm10":61.5,"pm2_5":57.4,"mosquito_risk":3,"arthritis_risk":5,"migraine_risk":7,"frizz_risk":0,"updated_at":"2026-03-21T11:13:05.223740+05:30"},{"city":"Jhansi","state":"Uttar Pradesh","latitude":25.4484,"longitude":78.5685,"temp":24.1,"humidity":56,"rain":0.0,"pressure":985.2,"uv_index":7.4,"wind_gusts":26.3,"aqi":121,"pm10":53.7,"pm2_5":27.7,"mosquito_risk":0,"arthritis_risk":5,"migraine_risk":7,"frizz_risk":0,"updated_at":"2026-03-21T11:13:08.542709+05:30"},{"city":"Surat","state":"Gujarat","latitude":21.1702,"longitude":72.8311,"temp":29.9,"humidity":48,"rain":0.0,"pressure":1011.9,"uv_index":7.55,"wind_gusts":27.4,"aqi":114,"pm10":41.1,"pm2_5":33.9,"mosquito_risk":4,"arthritis_risk":0,"migraine_risk":4,"frizz_risk":1,"updated_at":"2026-03-21T11:13:08.542742+05:30"},{"city":"Vadodara","state":"Gujarat","latitude":22.3072,"longitude":73.1812,"temp":31.4,"humidity":35,"rain":0.0,"pressure":1010.0,"uv_index":7.35,"wind_gusts":14.0,"aqi":72,"pm10":28.2,"pm2_5":15.1,"mosquito_risk":0,"arthritis_risk":0,"migraine_risk":4,"frizz_risk":0,"updated_at":"2026-03-21T11:13:08.542754+05:30"},{"city":"Rajkot","state":"Gujarat","latitude":22.3039,"longitude":70.8022,"temp":28.7,"humidity":54,"rain":0.0,"pressure":999.9,"uv_index":7.0,"wind_gusts":22.7,"aqi":64,"pm10":17.7,"pm2_5":7.0,"mosquito_risk":4,"arthritis_risk":5,"migraine_risk":7,"frizz_risk":1,"updated_at":"2026-03-21T11:13:08.542764+05:30"},{"city":"Thane","state":"Maharashtra","latitude":19.2183,"longitude":72.9781,"temp":31.9,"humidity":37,"rain":0.0,"pressure":1011.7,"uv_index":7.85,"wind_gusts":42.8,"aqi":79,"pm10":49.2,"pm2_5":25.2,"mosquito_risk":0,"arthritis_risk":0,"migraine_risk":4,"frizz_risk":0,"updated_at":"2026-03-21T11:13:08.542772+05:30"},{"city":"Nagpur","state":"Maharashtra","latitude":21.1458,"longitude":79.0882,"temp":28.2,"humidity":44,"rain":0.0,"pressure":978.9,"uv_index":8.3,"wind_gusts":24.8,"aqi":69,"pm10":48.0,"pm2_5":20.0,"mosquito_risk":4,"arthritis_risk":5,"migraine_risk":7,"frizz_risk":0,"updated_at":"2026-03-21T11:13:08.542781+05:30"},{"city":"Nashik","state":"Maharashtra","latitude":19.9975,"longitude":73.7898,"temp":27.2,"humidity":41,"rain":0.0,"pressure":949.9,"uv_index":8.05,"wind_gusts":24.1,"aqi":66,"pm10":19.6,"pm2_5":8.6,"mosquito_risk":4,"arthritis_risk":5,"migraine_risk":7,"frizz_risk":0,"updated_at":"2026-03-21T11:13:08.542790+05:30"},{"city":"Aurangabad","state":"Maharashtra","latitude":19.8762,"longitude":75.3433,"temp":28.8,"humidity":35,"rain":0.0,"pressure":948.6,"uv_index":8.6,"wind_gusts":24.5,"aqi":62,"pm10":16.2,"pm2_5":9.1,"mosquito_risk":4,"arthritis_risk":5,"migraine_risk":7,"frizz_risk":0,"updated_at":"2026-03-21T11:13:08.542798+05:30"},{"city":"Solapur","state":"Maharashtra","latitude":17.6599,"longitude":75.9064,"temp":30.8,"humidity":38,"rain":0.0,"pressure":961.4,"uv_index":8.75,"wind_gusts":27.7,"aqi":67,"pm10":36.2,"pm2_5":16.4,"mosquito_risk":0,"arthritis_risk":5,"migraine_risk":7,"frizz_risk":0,"updated_at":"2026-03-21T11:13:08.542807+05:30"},{"city":"Kolhapur","state":"Maharashtra","latitude":16.705,"longitude":74.2433,"temp":28.2,"humidity":46,"rain":0.0,"pressure":952.0,"uv_index":8.85,"wind_gusts":28.1,"aqi":79,"pm10":37.5,"pm2_5":20.7,"mosquito_risk":4,"arthritis_risk":5,"migraine_risk":7,"frizz_risk":0,"updated_at":"2026-03-21T11:13:08.542815+05:30"},{"city":"Goa","state":"Goa","latitude":15.2993,"longitude":74.124,"temp":31.6,"humidity":47,"rain":0.0,"pressure":1001.3,"uv_index":8.85,"wind_gusts":35.6,"aqi":72,"pm10":25.2,"pm2_5":15.8,"mosquito_risk":0,"arthritis_risk":5,"migraine_risk":4,"frizz_risk":1,"updated_at":"2026-03-21T11:13:08.542823+05:30"},{"city":"Jodhpur","state":"Rajasthan","latitude":26.2389,"longitude":73.0243,"temp":26.9,"humidity":51,"rain":0.0,"pressure":989.5,"uv_index":6.65,"wind_gusts":20.5,"aqi":67,"pm10":141.6,"pm2_5":24.7,"mosquito_risk":4,"arthritis_risk":5,"migraine_risk":7,"frizz_risk":0,"updated_at":"2026-03-21T11:13:08.542832+05:30"},{"city":"Udaipur","state":"Rajasthan","latitude":24.5854,"longitude":73.7125,"temp":26.1,"humidity":39,"rain":0.0,"pressure":952.3,"uv_index":6.9,"wind_gusts":11.9,"aqi":53,"pm10":42.3,"pm2_5":11.9,"mosquito_risk":4,"arthritis_risk":5,"migraine_risk":7,"frizz_risk":0,"updated_at":"2026-03-21T11:13:08.542840+05:30"},{"city":"Kota","state":"Rajasthan","latitude":25.2138,"longitude":75.8648,"temp":27.5,"humidity":46,"rain":0.0,"pressure":985.9,"uv_index":7.5,"wind_gusts":19.1,"aqi":82,"pm10":45.3,"pm2_5":19.4,"mosquito_risk":4,"arthritis_risk":5,"migraine_risk":7,"frizz_risk":0,"updated_at":"2026-03-21T11:13:08.542848+05:30"},{"city":"Bikaner","state":"Rajasthan","latitude":28.0229,"longitude":73.3119,"temp":27.2,"humidity":46,"rain":0.0,"pressure":987.9,"uv_index":6.25,"wind_gusts":23.4,"aqi":56,"pm10":54.0,"pm2_5":15.6,"mosquito_risk":4,"arthritis_risk":5,"migraine_risk":7,"frizz_risk":0,"updated_at":"2026-03-21T11:13:08.542856+05:30"},{"city":"Ajmer","state":"Rajasthan","latitude":26.4499,"longitude":74.6399,"temp":25.8,"humidity":51,"rain":0.0,"pressure":960.7,"uv_index":7.25,"wind_gusts":21.6,"aqi":66,"pm10":29.5,"pm2_5":13.0,"mosquito_risk":4,"arthritis_risk":5,"migraine_risk":7,"frizz_risk":0,"updated_at":"2026-03-21T11:13:08.542864+05:30"},{"city":"Gwalior","state":"Madhya Pradesh","latitude":26.2183,"longitude":78.1828,"temp":24.4,"humidity":54,"rain":0.0,"pressure":990.7,"uv_index":7.1,"wind_gusts":27.0,"aqi":88,"pm10":43.1,"pm2_5":21.5,"mosquito_risk":0,"arthritis_risk":5,"migraine_risk":7,"frizz_risk":0,"updated_at":"2026-03-21T11:13:08.542871+05:30"},{"city":"Indore","state":"Madhya Pradesh","latitude":22.7196,"longitude":75.8577,"temp":26.7,"humidity":44,"rain":0.0,"pressure":953.6,"uv_index":7.95,"wind_gusts":22.7,"aqi":67,"pm10":25.6,"pm2_5":12.6,"mosquito_risk":4,"arthritis_risk":5,"migraine_risk":7,"frizz_risk":0,"updated_at":"2026-03-21T11:13:08.542879+05:30"},{"city":"Bhopal","state":"Madhya Pradesh","latitude":23.2599,"longitude":77.4126,"temp":26.6,"humidity":41,"rain":0.0,"pressure":959.8,"uv_index":7.9,"wind_gusts":25.6,"aqi":72,"pm10":31.2,"pm2_5":12.8,"mosquito_risk":4,"arthritis_risk":5,"migraine_risk":7,"frizz_risk":0,"updated_at":"2026-03-21T11:13:08.542888+05:30"},{"city":"Jabalpur","state":"Madhya Pradesh","latitude":23.1815,"longitude":79.9864,"temp":24.8,"humidity":54,"rain":0.0,"pressure":967.6,"uv_index":8.0,"wind_gusts":36.0,"aqi":65,"pm10":42.5,"pm2_5":21.3,"mosquito_risk":0,"arthritis_risk":5,"migraine_risk":7,"frizz_risk":0,"updated_at":"2026-03-21T11:13:08.542895+05:30"},{"city":"Ujjain","state":"Madhya Pradesh","latitude":23.1765,"longitude":75.7885,"temp":26.2,"humidity":51,"rain":0.0,"pressure":959.6,"uv_index":7.65,"wind_gusts":19.4,"aqi":67,"pm10":29.0,"pm2_5":13.9,"mosquito_risk":4,"arthritis_risk":5,"migraine_risk":7,"frizz_risk":0,"updated_at":"2026-03-21T11:13:08.542922+05:30"},{"city":"Visakhapatnam","state":"Andhra Pradesh","latitude":17.6868,"longitude":83.2185,"temp":31.0,"humidity":54,"rain":0.0,"pressure":1008.2,"uv_index":8.8,"wind_gusts":33.1,"aqi":73,"pm10":32.4,"pm2_5":26.6,"mosquito_risk":0,"arthritis_risk":0,"migraine_risk":4,"frizz_risk":1,"updated_at":"2026-03-21T11:13:08.542932+05:30"},{"city":"Vijayawada","state":"Andhra Pradesh","latitude":16.5062,"longitude":80.648,"temp":31.1,"humidity":58,"rain":0.0,"pressure":1006.6,"uv_index":8.85,"wind_gusts":32.4,"aqi":58,"pm10":16.1,"pm2_5":10.9,"mosquito_risk":0,"arthritis_risk":5,"migraine_risk":4,"frizz_risk":1,"updated_at":"2026-03-21T11:13:08.542941+05:30"},{"city":"Guntur","state":"Andhra Pradesh","latitude":16.3067,"longitude":80.4365,"temp":32.0,"humidity":55,"rain":0.0,"pressure":1007.5,"uv_index":8.85,"wind_gusts":23.8,"aqi":53,"pm10":15.5,"pm2_5":10.1,"mosquito_risk":0,"arthritis_risk":5,"migraine_risk":4,"frizz_risk":1,"updated_at":"2026-03-21T11:13:08.542949+05:30"},{"city":"Nellore","state":"Andhra Pradesh","latitude":14.4426,"longitude":79.9865,"temp":33.2,"humidity":54,"rain":0.0,"pressure":1009.2,"uv_index":9.05,"wind_gusts":37.8,"aqi":34,"pm10":18.2,"pm2_5":13.6,"mosquito_risk":0,"arthritis_risk":0,"migraine_risk":4,"frizz_risk":1,"updated_at":"2026-03-21T11:13:08.542958+05:30"},{"city":"Kurnool","state":"Andhra Pradesh","latitude":15.8281,"longitude":78.0373,"temp":33.6,"humidity":37,"rain":0.0,"pressure":980.2,"uv_index":8.9,"wind_gusts":18.7,"aqi":70,"pm10":20.7,"pm2_5":16.1,"mosquito_risk":0,"arthritis_risk":5,"migraine_risk":7,"frizz_risk":1,"updated_at":"2026-03-21T11:13:08.542967+05:30"},{"city":"Kakinada","state":"Andhra Pradesh","latitude":16.9891,"longitude":82.2475,"temp":31.3,"humidity":58,"rain":0.0,"pressure":1011.8,"uv_index":8.85,"wind_gusts":23.8,"aqi":46,"pm10":13.0,"pm2_5":9.4,"mosquito_risk":0,"arthritis_risk":0,"migraine_risk":4,"frizz_risk":1,"updated_at":"2026-03-21T11:13:08.542975+05:30"},{"city":"Tirupati","state":"Andhra Pradesh","latitude":13.6288,"longitude":79.4192,"temp":30.9,"humidity":58,"rain":0.0,"pressure":995.4,"uv_index":9.15,"wind_gusts":26.3,"aqi":70,"pm10":18.6,"pm2_5":15.7,"mosquito_risk":0,"arthritis_risk":5,"migraine_risk":7,"frizz_risk":1,"updated_at":"2026-03-21T11:13:08.542983+05:30"},{"city":"Warangal","state":"Telangana","latitude":17.9689,"longitude":79.5941,"temp":28.3,"humidity":63,"rain":0.0,"pressure":983.5,"uv_index":8.65,"wind_gusts":22.0,"aqi":117,"pm10":18.0,"pm2_5":15.3,"mosquito_risk":7,"arthritis_risk":5,"migraine_risk":7,"frizz_risk":1,"updated_at":"2026-03-21T11:13:08.542991+05:30"},{"city":"Nizamabad","state":"Telangana","latitude":18.6725,"longitude":78.0941,"temp":30.8,"humidity":39,"rain":0.0,"pressure":969.2,"uv_index":8.6,"wind_gusts":34.9,"aqi":101,"pm10":37.5,"pm2_5":26.4,"mosquito_risk":0,"arthritis_risk":5,"migraine_risk":7,"frizz_risk":0,"updated_at":"2026-03-21T11:13:08.542998+05:30"},{"city":"Mysore","state":"Karnataka","latitude":12.2958,"longitude":76.6396,"temp":29.4,"humidity":47,"rain":0.0,"pressure":931.8,"uv_index":9.4,"wind_gusts":40.3,"aqi":81,"pm10":23.4,"pm2_5":19.0,"mosquito_risk":4,"arthritis_risk":5,"migraine_risk":7,"frizz_risk":1,"updated_at":"2026-03-21T11:13:08.543007+05:30"},{"city":"Mangalore","state":"Karnataka","latitude":12.9141,"longitude":74.856,"temp":28.8,"humidity":74,"rain":0.0,"pressure":1009.6,"uv_index":9.05,"wind_gusts":30.2,"aqi":66,"pm10":27.7,"pm2_5":18.9,"mosquito_risk":7,"arthritis_risk":0,"migraine_risk":4,"frizz_risk":1,"updated_at":"2026-03-21T11:13:08.543014+05:30"},{"city":"Hubli-Dharwad","state":"Karnataka","latitude":15.3647,"longitude":75.124,"temp":30.1,"humidity":36,"rain":0.0,"pressure":944.5,"uv_index":9.05,"wind_gusts":28.8,"aqi":64,"pm10":29.5,"pm2_5":15.3,"mosquito_risk":0,"arthritis_risk":5,"migraine_risk":7,"frizz_risk":0,"updated_at":"2026-03-21T11:13:08.543022+05:30"},{"city":"Belgaum","state":"Karnataka","latitude":15.8497,"longitude":74.4977,"temp":28.8,"humidity":33,"rain":0.0,"pressure":929.7,"uv_index":9.1,"wind_gusts":36.7,"aqi":69,"pm10":32.8,"pm2_5":16.0,"mosquito_risk":4,"arthritis_risk":5,"migraine_risk":7,"frizz_risk":0,"updated_at":"2026-03-21T11:13:11.864302+05:30"},{"city":"Coimbatore","state":"Tamil Nadu","latitude":11.0168,"longitude":76.9558,"temp":30.7,"humidity":51,"rain":0.0,"pressure":965.1,"uv_index":9.35,"wind_gusts":43.6,"aqi":74,"pm10":21.9,"pm2_5":17.2,"mosquito_risk":0,"arthritis_risk":5,"migraine_risk":7,"frizz_risk":1,"updated_at":"2026-03-21T11:13:11.864331+05:30"},{"city":"Madurai","state":"Tamil Nadu","latitude":9.9252,"longitude":78.1198,"temp":32.2,"humidity":50,"rain":0.0,"pressure":996.4,"uv_index":9.35,"wind_gusts":38.5,"aqi":70,"pm10":19.2,"pm2_5":15.8,"mosquito_risk":0,"arthritis_risk":5,"migraine_risk":7,"frizz_risk":1,"updated_at":"2026-03-21T11:13:11.864340+05:30"},{"city":"Trichy","state":"Tamil Nadu","latitude":10.7905,"longitude":78.7047,"temp":32.3,"humidity":52,"rain":0.0,"pressure":1003.2,"uv_index":9.15,"wind_gusts":27.4,"aqi":63,"pm10":11.2,"pm2_5":9.7,"mosquito_risk":0,"arthritis_risk":5,"migraine_risk":4,"frizz_risk":1,"updated_at":"2026-03-21T11:13:11.864347+05:30"},{"city":"Salem","state":"Tamil Nadu","latitude":11.6643,"longitude":78.146,"temp":31.9,"humidity":51,"rain":0.0,"pressure":980.7,"uv_index":9.3,"wind_gusts":26.6,"aqi":82,"pm10":19.2,"pm2_5":16.4,"mosquito_risk":0,"arthritis_risk":5,"migraine_risk":7,"frizz_risk":1,"updated_at":"2026-03-21T11:13:11.864354+05:30"},{"city":"Tirunelveli","state":"Tamil Nadu","latitude":8.7139,"longitude":77.7567,"temp":33.2,"humidity":47,"rain":0.0,"pressure":1006.3,"uv_index":9.3,"wind_gusts":46.8,"aqi":93,"pm10":25.0,"pm2_5":21.2,"mosquito_risk":0,"arthritis_risk":5,"migraine_risk":4,"frizz_risk":1,"updated_at":"2026-03-21T11:13:11.864361+05:30"},{"city":"Vellore","state":"Tamil Nadu","latitude":12.9165,"longitude":79.1325,"temp":31.0,"humidity":55,"rain":0.0,"pressure":988.3,"uv_index":9.2,"wind_gusts":30.2,"aqi":97,"pm10":31.7,"pm2_5":29.4,"mosquito_risk":0,"arthritis_risk":5,"migraine_risk":7,"frizz_risk":1,"updated_at":"2026-03-21T11:13:11.864368+05:30"},{"city":"Erode","state":"Tamil Nadu","latitude":11.341,"longitude":77.7172,"temp":32.4,"humidity":52,"rain":0.0,"pressure":992.4,"uv_index":9.3,"wind_gusts":27.0,"aqi":61,"pm10":15.3,"pm2_5":12.3,"mosquito_risk":0,"arthritis_risk":5,"migraine_risk":7,"frizz_risk":1,"updated_at":"2026-03-21T11:13:11.864374+05:30"},{"city":"Kochi","state":"Kerala","latitude":9.9312,"longitude":76.2673,"temp":28.7,"humidity":73,"rain":0.0,"pressure":1011.3,"uv_index":9.15,"wind_gusts":31.7,"aqi":76,"pm10":20.7,"pm2_5":15.9,"mosquito_risk":7,"arthritis_risk":0,"migraine_risk":4,"frizz_risk":1,"updated_at":"2026-03-21T11:13:11.864381+05:30"},{"city":"Thiruvananthapuram","state":"Kerala","latitude":8.5241,"longitude":76.9366,"temp":28.3,"humidity":75,"rain":0.0,"pressure":1010.5,"uv_index":8.3,"wind_gusts":24.8,"aqi":66,"pm10":28.5,"pm2_5":21.9,"mosquito_risk":7,"arthritis_risk":0,"migraine_risk":4,"frizz_risk":1,"updated_at":"2026-03-21T11:13:11.864387+05:30"},{"city":"Kozhikode","state":"Kerala","latitude":11.2588,"longitude":75.7804,"temp":30.3,"humidity":68,"rain":0.0,"pressure":1010.5,"uv_index":9.05,"wind_gusts":29.9,"aqi":59,"pm10":25.3,"pm2_5":18.7,"mosquito_risk":3,"arthritis_risk":0,"migraine_risk":4,"frizz_risk":1,"updated_at":"2026-03-21T11:13:11.864394+05:30"},{"city":"Thrissur","state":"Kerala","latitude":10.5276,"longitude":76.2144,"temp":33.6,"humidity":48,"rain":0.0,"pressure":1009.3,"uv_index":9.15,"wind_gusts":37.4,"aqi":73,"pm10":18.8,"pm2_5":14.2,"mosquito_risk":0,"arthritis_risk":0,"migraine_risk":4,"frizz_risk":1,"updated_at":"2026-03-21T11:13:11.864400+05:30"},{"city":"Kannur","state":"Kerala","latitude":11.8745,"longitude":75.3704,"temp":31.7,"humidity":57,"rain":0.0,"pressure":1009.9,"uv_index":9.1,"wind_gusts":33.8,"aqi":66,"pm10":25.2,"pm2_5":18.3,"mosquito_risk":0,"arthritis_risk":0,"migraine_risk":4,"frizz_risk":1,"updated_at":"2026-03-21T11:13:11.864407+05:30"},{"city":"Patna","state":"Bihar","latitude":25.5941,"longitude":85.1376,"temp":22.3,"humidity":77,"rain":0.0,"pressure":1007.8,"uv_index":6.7,"wind_gusts":24.5,"aqi":150,"pm10":66.4,"pm2_5":49.8,"mosquito_risk":3,"arthritis_risk":5,"migraine_risk":4,"frizz_risk":1,"updated_at":"2026-03-21T11:13:11.864413+05:30"},{"city":"Gaya","state":"Bihar","latitude":24.7914,"longitude":85.0002,"temp":23.1,"humidity":74,"rain":0.0,"pressure":1000.5,"uv_index":7.7,"wind_gusts":26.6,"aqi":118,"pm10":53.7,"pm2_5":36.7,"mosquito_risk":3,"arthritis_risk":5,"migraine_risk":4,"frizz_risk":1,"updated_at":"2026-03-21T11:13:11.864419+05:30"},{"city":"Muzaffarpur","state":"Bihar","latitude":26.1209,"longitude":85.3647,"temp":20.9,"humidity":84,"rain":0.0,"pressure":1008.0,"uv_index":3.65,"wind_gusts":23.8,"aqi":151,"pm10":61.5,"pm2_5":47.4,"mosquito_risk":3,"arthritis_risk":0,"migraine_risk":0,"frizz_risk":1,"updated_at":"2026-03-21T11:13:11.864426+05:30"},{"city":"Bhagalpur","state":"Bihar","latitude":25.2425,"longitude":87.0117,"temp":23.4,"humidity":73,"rain":0.0,"pressure":1008.2,"uv_index":5.85,"wind_gusts":24.5,"aqi":134,"pm10":39.2,"pm2_5":35.4,"mosquito_risk":3,"arthritis_risk":0,"migraine_risk":0,"frizz_risk":1,"updated_at":"2026-03-21T11:13:11.864432+05:30"},{"city":"Ranchi","state":"Jharkhand","latitude":23.3441,"longitude":85.3096,"temp":25.0,"humidity":53,"rain":0.0,"pressure":941.9,"uv_index":8.35,"wind_gusts":39.6,"aqi":95,"pm10":37.4,"pm2_5":26.5,"mosquito_risk":4,"arthritis_risk":5,"migraine_risk":7,"frizz_risk":0,"updated_at":"2026-03-21T11:13:11.864438+05:30"},{"city":"Jamshedpur","state":"Jharkhand","latitude":22.8046,"longitude":86.2029,"temp":27.2,"humidity":60,"rain":0.0,"pressure":996.1,"uv_index":8.15,"wind_gusts":35.3,"aqi":148,"pm10":52.4,"pm2_5":46.7,"mosquito_risk":4,"arthritis_risk":5,"migraine_risk":7,"frizz_risk":1,"updated_at":"2026-03-21T11:13:11.864444+05:30"},{"city":"Dhanbad","state":"Jharkhand","latitude":23.7957,"longitude":86.4304,"temp":24.8,"humidity":62,"rain":0.0,"pressure":985.3,"uv_index":7.6,"wind_gusts":33.8,"aqi":151,"pm10":48.1,"pm2_5":43.3,"mosquito_risk":3,"arthritis_risk":5,"migraine_risk":7,"frizz_risk":1,"updated_at":"2026-03-21T11:13:11.864451+05:30"},{"city":"Bokaro","state":"Jharkhand","latitude":23.6693,"longitude":86.1511,"temp":25.7,"humidity":60,"rain":0.0,"pressure":989.3,"uv_index":5.8,"wind_gusts":37.8,"aqi":135,"pm10":47.4,"pm2_5":40.4,"mosquito_risk":4,"arthritis_risk":5,"migraine_risk":3,"frizz_risk":1,"updated_at":"2026-03-21T11:13:11.864457+05:30"},{"city":"Bhubaneswar","state":"Odisha","latitude":20.2961,"longitude":85.8245,"temp":29.7,"humidity":56,"rain":0.0,"pressure":1007.6,"uv_index":8.55,"wind_gusts":26.6,"aqi":69,"pm10":49.9,"pm2_5":41.7,"mosquito_risk":4,"arthritis_risk":5,"migraine_risk":4,"frizz_risk":1,"updated_at":"2026-03-21T11:13:11.864463+05:30"},{"city":"Cuttack","state":"Odisha","latitude":20.4625,"longitude":85.8828,"temp":29.6,"humidity":56,"rain":0.0,"pressure":1009.6,"uv_index":8.6,"wind_gusts":22.7,"aqi":69,"pm10":49.9,"pm2_5":41.7,"mosquito_risk":4,"arthritis_risk":0,"migraine_risk":4,"frizz_risk":1,"updated_at":"2026-03-21T11:13:11.864469+05:30"},{"city":"Rourkela","state":"Odisha","latitude":22.2604,"longitude":84.8536,"temp":28.6,"humidity":51,"rain":0.0,"pressure":990.1,"uv_index":8.15,"wind_gusts":31.7,"aqi":107,"pm10":51.6,"pm2_5":39.8,"mosquito_risk":4,"arthritis_risk":5,"migraine_risk":7,"frizz_risk":1,"updated_at":"2026-03-21T11:13:11.864475+05:30"},{"city":"Raipur","state":"Chhattisgarh","latitude":21.2514,"longitude":81.6296,"temp":28.6,"humidity":45,"rain":0.0,"pressure":980.0,"uv_index":8.35,"wind_gusts":28.1,"aqi":126,"pm10":52.9,"pm2_5":31.5,"mosquito_risk":4,"arthritis_risk":5,"migraine_risk":7,"frizz_risk":0,"updated_at":"2026-03-21T11:13:11.864480+05:30"},{"city":"Bhilai","state":"Chhattisgarh","latitude":21.1938,"longitude":81.3509,"temp":28.8,"humidity":46,"rain":0.0,"pressure":980.5,"uv_index":8.35,"wind_gusts":28.8,"aqi":115,"pm10":60.8,"pm2_5":29.8,"mosquito_risk":4,"arthritis_risk":5,"migraine_risk":7,"frizz_risk":0,"updated_at":"2026-03-21T11:13:11.864486+05:30"},{"city":"Guwahati","state":"Assam","latitude":26.1158,"longitude":91.7086,"temp":23.9,"humidity":78,"rain":0.0,"pressure":1009.3,"uv_index":2.65,"wind_gusts":17.3,"aqi":94,"pm10":40.5,"pm2_5":29.2,"mosquito_risk":3,"arthritis_risk":0,"migraine_risk":0,"frizz_risk":1,"updated_at":"2026-03-21T11:13:11.864492+05:30"},{"city":"Agartala","state":"Tripura","latitude":23.8315,"longitude":91.2868,"temp":25.7,"humidity":70,"rain":0.0,"pressure":1012.6,"uv_index":5.1,"wind_gusts":21.6,"aqi":112,"pm10":50.5,"pm2_5":38.8,"mosquito_risk":7,"arthritis_risk":0,"migraine_risk":0,"frizz_risk":1,"updated_at":"2026-03-21T11:13:11.864498+05:30"},{"city":"Shillong","state":"Meghalaya","latitude":25.5788,"longitude":91.8933,"temp":15.8,"humidity":60,"rain":0.0,"pressure":860.4,"uv_index":3.35,"wind_gusts":21.2,"aqi":76,"pm10":42.7,"pm2_5":27.1,"mosquito_risk":0,"arthritis_risk":5,"migraine_risk":3,"frizz_risk":0,"updated_at":"2026-03-21T11:13:11.864505+05:30"},{"city":"Imphal","state":"Manipur","latitude":24.817,"longitude":93.9368,"temp":22.5,"humidity":50,"rain":0.0,"pressure":928.1,"uv_index":7.45,"wind_gusts":25.2,"aqi":86,"pm10":38.0,"pm2_5":21.2,"mosquito_risk":0,"arthritis_risk":5,"migraine_risk":7,"frizz_risk":0,"updated_at":"2026-03-21T11:13:11.864511+05:30"},{"city":"Aizawl","state":"Mizoram","latitude":23.7271,"longitude":92.7176,"temp":23.6,"humidity":48,"rain":0.0,"pressure":897.8,"uv_index":5.8,"wind_gusts":28.1,"aqi":108,"pm10":61.5,"pm2_5":43.2,"mosquito_risk":0,"arthritis_risk":5,"migraine_risk":3,"frizz_risk":0,"updated_at":"2026-03-21T11:13:11.864517+05:30"},{"city":"Kohima","state":"Nagaland","latitude":25.6701,"longitude":94.1077,"temp":17.8,"humidity":76,"rain":0.0,"pressure":859.8,"uv_index":7.0,"wind_gusts":60.8,"aqi":75,"pm10":44.2,"pm2_5":24.3,"mosquito_risk":3,"arthritis_risk":5,"migraine_risk":7,"frizz_risk":0,"updated_at":"2026-03-21T11:13:11.864525+05:30"},{"city":"Gangtok","state":"Sikkim","latitude":27.3314,"longitude":88.6138,"temp":12.1,"humidity":88,"rain":0.4,"pressure":840.6,"uv_index":1.95,"wind_gusts":16.6,"aqi":103,"pm10":18.6,"pm2_5":14.1,"mosquito_risk":6,"arthritis_risk":10,"migraine_risk":3,"frizz_risk":0,"updated_at":"2026-03-21T11:13:11.864535+05:30"},{"city":"Siliguri","state":"West Bengal","latitude":26.7271,"longitude":88.3953,"temp":18.3,"humidity":86,"rain":0.0,"pressure":1001.8,"uv_index":0.45,"wind_gusts":29.2,"aqi":83,"pm10":37.7,"pm2_5":29.5,"mosquito_risk":3,"arthritis_risk":10,"migraine_risk":0,"frizz_risk":0,"updated_at":"2026-03-21T11:13:15.180727+05:30"},{"city":"Durgapur","state":"West Bengal","latitude":23.5204,"longitude":87.3119,"temp":24.5,"humidity":70,"rain":0.0,"pressure":1000.9,"uv_index":7.65,"wind_gusts":24.5,"aqi":151,"pm10":40.5,"pm2_5":37.6,"mosquito_risk":3,"arthritis_risk":5,"migraine_risk":4,"frizz_risk":1,"updated_at":"2026-03-21T11:13:15.180756+05:30"},{"city":"Asansol","state":"West Bengal","latitude":23.6739,"longitude":86.9524,"temp":24.7,"humidity":69,"rain":0.0,"pressure":999.5,"uv_index":6.2,"wind_gusts":27.4,"aqi":151,"pm10":44.6,"pm2_5":40.7,"mosquito_risk":3,"arthritis_risk":5,"migraine_risk":7,"frizz_risk":1,"updated_at":"2026-03-21T11:13:15.180765+05:30"},{"city":"Pondicherry","state":"Puducherry","latitude":11.9139,"longitude":79.8145,"temp":31.2,"humidity":63,"rain":0.0,"pressure":1012.2,"uv_index":9.15,"wind_gusts":28.8,"aqi":44,"pm10":11.6,"pm2_5":7.5,"mosquito_risk":3,"arthritis_risk":0,"migraine_risk":4,"frizz_risk":1,"updated_at":"2026-03-21T11:13:15.180774+05:30"},{"city":"Port Blair","state":"Andaman and Nicobar Islands","latitude":11.6234,"longitude":92.7265,"temp":28.9,"humidity":73,"rain":0.0,"pressure":1010.6,"uv_index":9.1,"wind_gusts":15.5,"aqi":54,"pm10":18.5,"pm2_5":14.3,"mosquito_risk":7,"arthritis_risk":0,"migraine_risk":4,"frizz_risk":1,"updated_at":"2026-03-21T11:13:15.180782+05:30"},{"city":"Haridwar","state":"Uttarakhand","latitude":29.9457,"longitude":78.1642,"temp":22.6,"humidity":64,"rain":0.0,"pressure":980.9,"uv_index":6.15,"wind_gusts":22.7,"aqi":100,"pm10":18.0,"pm2_5":14.6,"mosquito_risk":3,"arthritis_risk":5,"migraine_risk":7,"frizz_risk":0,"updated_at":"2026-03-21T11:13:15.180789+05:30"},{"city":"Rishikesh","state":"Uttarakhand","latitude":30.0869,"longitude":78.2676,"temp":22.0,"humidity":62,"rain":0.0,"pressure":973.1,"uv_index":6.15,"wind_gusts":22.0,"aqi":63,"pm10":7.9,"pm2_5":5.0,"mosquito_risk":3,"arthritis_risk":5,"migraine_risk":7,"frizz_risk":0,"updated_at":"2026-03-21T11:13:15.180797+05:30"},{"city":"Nainital","state":"Uttarakhand","latitude":29.3919,"longitude":79.4542,"temp":13.1,"humidity":87,"rain":0.0,"pressure":807.4,"uv_index":6.9,"wind_gusts":34.2,"aqi":71,"pm10":15.0,"pm2_5":8.9,"mosquito_risk":3,"arthritis_risk":10,"migraine_risk":7,"frizz_risk":0,"updated_at":"2026-03-21T11:13:15.180804+05:30"},{"city":"Mussoorie","state":"Uttarakhand","latitude":30.4599,"longitude":78.0664,"temp":14.4,"humidity":63,"rain":0.0,"pressure":805.0,"uv_index":6.55,"wind_gusts":27.4,"aqi":57,"pm10":6.5,"pm2_5":4.2,"mosquito_risk":3,"arthritis_risk":5,"migraine_risk":7,"frizz_risk":0,"updated_at":"2026-03-21T11:13:15.180811+05:30"},{"city":"Dharamshala","state":"Himachal Pradesh","latitude":32.219,"longitude":76.3234,"temp":15.7,"humidity":69,"rain":0.0,"pressure":872.1,"uv_index":6.2,"wind_gusts":18.0,"aqi":42,"pm10":9.2,"pm2_5":3.2,"mosquito_risk":3,"arthritis_risk":5,"migraine_risk":7,"frizz_risk":0,"updated_at":"2026-03-21T11:13:15.180818+05:30"},{"city":"Dalhousie","state":"Himachal Pradesh","latitude":32.5387,"longitude":75.971,"temp":13.8,"humidity":53,"rain":0.0,"pressure":805.9,"uv_index":6.35,"wind_gusts":19.8,"aqi":72,"pm10":15.2,"pm2_5":8.6,"mosquito_risk":0,"arthritis_risk":5,"migraine_risk":7,"frizz_risk":0,"updated_at":"2026-03-21T11:13:15.180826+05:30"},{"city":"Patiala","state":"Punjab","latitude":30.3398,"longitude":76.3869,"temp":20.5,"humidity":76,"rain":0.0,"pressure":985.7,"uv_index":5.65,"wind_gusts":22.3,"aqi":145,"pm10":54.2,"pm2_5":47.4,"mosquito_risk":3,"arthritis_risk":5,"migraine_risk":3,"frizz_risk":1,"updated_at":"2026-03-21T11:13:15.180833+05:30"},{"city":"Bhatinda","state":"Punjab","latitude":30.211,"longitude":74.9455,"temp":22.3,"humidity":67,"rain":0.0,"pressure":991.4,"uv_index":5.5,"wind_gusts":18.0,"aqi":138,"pm10":71.0,"pm2_5":46.4,"mosquito_risk":3,"arthritis_risk":5,"migraine_risk":3,"frizz_risk":0,"updated_at":"2026-03-21T11:13:15.180839+05:30"},{"city":"Rohtak","state":"Haryana","latitude":28.8955,"longitude":76.6066,"temp":21.0,"humidity":79,"rain":0.0,"pressure":989.5,"uv_index":5.75,"wind_gusts":23.0,"aqi":160,"pm10":84.5,"pm2_5":66.6,"mosquito_risk":3,"arthritis_risk":5,"migraine_risk":3,"frizz_risk":1,"updated_at":"2026-03-21T11:13:15.180846+05:30"},{"city":"Panipat","state":"Haryana","latitude":29.3909,"longitude":76.9635,"temp":20.8,"humidity":80,"rain":0.0,"pressure":988.0,"uv_index":6.15,"wind_gusts":25.6,"aqi":158,"pm10":81.7,"pm2_5":68.9,"mosquito_risk":3,"arthritis_risk":5,"migraine_risk":7,"frizz_risk":1,"updated_at":"2026-03-21T11:13:15.180852+05:30"},{"city":"Mathura","state":"Uttar Pradesh","latitude":27.4924,"longitude":77.6737,"temp":22.7,"humidity":67,"rain":0.0,"pressure":994.8,"uv_index":6.7,"wind_gusts":25.6,"aqi":145,"pm10":81.7,"pm2_5":61.9,"mosquito_risk":3,"arthritis_risk":5,"migraine_risk":7,"frizz_risk":1,"updated_at":"2026-03-21T11:13:15.180859+05:30"},{"city":"Vrindavan","state":"Uttar Pradesh","latitude":27.5823,"longitude":77.7027,"temp":22.2,"humidity":70,"rain":0.0,"pressure":995.2,"uv_index":6.65,"wind_gusts":26.6,"aqi":145,"pm10":81.7,"pm2_5":61.9,"mosquito_risk":3,"arthritis_risk":5,"migraine_risk":7,"frizz_risk":1,"updated_at":"2026-03-21T11:13:15.180865+05:30"},{"city":"Ayodhya","state":"Uttar Pradesh","latitude":26.7922,"longitude":82.1998,"temp":20.0,"humidity":84,"rain":0.0,"pressure":1003.2,"uv_index":6.9,"wind_gusts":22.0,"aqi":108,"pm10":73.1,"pm2_5":41.0,"mosquito_risk":3,"arthritis_risk":5,"migraine_risk":4,"frizz_risk":1,"updated_at":"2026-03-21T11:13:15.180872+05:30"},{"city":"Ratlam","state":"Madhya Pradesh","latitude":23.3315,"longitude":75.0367,"temp":27.2,"humidity":47,"rain":0.0,"pressure":960.3,"uv_index":7.35,"wind_gusts":21.2,"aqi":62,"pm10":27.2,"pm2_5":12.5,"mosquito_risk":4,"arthritis_risk":5,"migraine_risk":7,"frizz_risk":0,"updated_at":"2026-03-21T11:13:15.180879+05:30"},{"city":"Sagar","state":"Madhya Pradesh","latitude":23.8388,"longitude":78.7378,"temp":25.0,"humidity":47,"rain":0.0,"pressure":956.4,"uv_index":7.9,"wind_gusts":27.7,"aqi":94,"pm10":40.0,"pm2_5":17.8,"mosquito_risk":4,"arthritis_risk":5,"migraine_risk":7,"frizz_risk":0,"updated_at":"2026-03-21T11:13:15.180885+05:30"},{"city":"Satna","state":"Madhya Pradesh","latitude":24.6005,"longitude":80.8322,"temp":22.4,"humidity":65,"rain":0.0,"pressure":977.9,"uv_index":7.8,"wind_gusts":32.8,"aqi":78,"pm10":43.0,"pm2_5":18.5,"mosquito_risk":3,"arthritis_risk":5,"migraine_risk":7,"frizz_risk":0,"updated_at":"2026-03-21T11:13:15.180892+05:30"},{"city":"Akola","state":"Maharashtra","latitude":20.7002,"longitude":77.0082,"temp":30.0,"humidity":38,"rain":0.0,"pressure":980.5,"uv_index":8.25,"wind_gusts":22.3,"aqi":65,"pm10":31.0,"pm2_5":16.1,"mosquito_risk":4,"arthritis_risk":5,"migraine_risk":7,"frizz_risk":0,"updated_at":"2026-03-21T11:13:15.180899+05:30"},{"city":"Amravati","state":"Maharashtra","latitude":20.9374,"longitude":77.7796,"temp":29.9,"humidity":35,"rain":0.0,"pressure":972.7,"uv_index":8.3,"wind_gusts":25.2,"aqi":66,"pm10":32.5,"pm2_5":15.7,"mosquito_risk":4,"arthritis_risk":5,"migraine_risk":7,"frizz_risk":0,"updated_at":"2026-03-21T11:13:15.180925+05:30"},{"city":"Latur","state":"Maharashtra","latitude":18.4088,"longitude":76.5604,"temp":28.9,"humidity":38,"rain":0.0,"pressure":944.3,"uv_index":8.65,"wind_gusts":34.2,"aqi":74,"pm10":34.7,"pm2_5":15.9,"mosquito_risk":4,"arthritis_risk":5,"migraine_risk":7,"frizz_risk":0,"updated_at":"2026-03-21T11:13:15.180932+05:30"},{"city":"Nanded","state":"Maharashtra","latitude":19.1383,"longitude":77.3091,"temp":31.2,"humidity":34,"rain":0.0,"pressure":973.4,"uv_index":8.5,"wind_gusts":28.1,"aqi":67,"pm10":33.1,"pm2_5":13.8,"mosquito_risk":0,"arthritis_risk":5,"migraine_risk":7,"frizz_risk":0,"updated_at":"2026-03-21T11:13:15.180939+05:30"},{"city":"Gulbarga","state":"Karnataka","latitude":17.3297,"longitude":76.8343,"temp":31.6,"humidity":35,"rain":0.0,"pressure":962.6,"uv_index":8.75,"wind_gusts":42.1,"aqi":69,"pm10":30.6,"pm2_5":21.5,"mosquito_risk":0,"arthritis_risk":5,"migraine_risk":7,"frizz_risk":0,"updated_at":"2026-03-21T11:13:15.180945+05:30"},{"city":"Bidar","state":"Karnataka","latitude":17.9104,"longitude":77.5199,"temp":29.8,"humidity":34,"rain":0.0,"pressure":939.7,"uv_index":8.75,"wind_gusts":40.3,"aqi":86,"pm10":34.3,"pm2_5":22.4,"mosquito_risk":4,"arthritis_risk":5,"migraine_risk":7,"frizz_risk":0,"updated_at":"2026-03-21T11:13:15.180951+05:30"},{"city":"Hospet","state":"Karnataka","latitude":15.2689,"longitude":76.3909,"temp":30.0,"humidity":45,"rain":0.0,"pressure":959.5,"uv_index":9.0,"wind_gusts":19.4,"aqi":77,"pm10":33.6,"pm2_5":20.5,"mosquito_risk":4,"arthritis_risk":5,"migraine_risk":7,"frizz_risk":1,"updated_at":"2026-03-21T11:13:15.180958+05:30"},{"city":"Tirupur","state":"Tamil Nadu","latitude":11.1085,"longitude":77.3411,"temp":31.9,"humidity":51,"rain":0.0,"pressure":978.6,"uv_index":9.4,"wind_gusts":33.1,"aqi":79,"pm10":19.9,"pm2_5":16.8,"mosquito_risk":0,"arthritis_risk":5,"migraine_risk":7,"frizz_risk":1,"updated_at":"2026-03-21T11:13:15.180964+05:30"},{"city":"Alappuzha","state":"Kerala","latitude":9.4981,"longitude":76.3388,"temp":29.0,"humidity":71,"rain":0.0,"pressure":1011.3,"uv_index":9.1,"wind_gusts":28.1,"aqi":78,"pm10":29.0,"pm2_5":22.5,"mosquito_risk":7,"arthritis_risk":0,"migraine_risk":4,"frizz_risk":1,"updated_at":"2026-03-21T11:13:15.180971+05:30"},{"city":"Munnar","state":"Kerala","latitude":10.0889,"longitude":77.0595,"temp":28.8,"humidity":46,"rain":0.0,"pressure":861.4,"uv_index":9.65,"wind_gusts":29.2,"aqi":65,"pm10":18.3,"pm2_5":13.1,"mosquito_risk":4,"arthritis_risk":5,"migraine_risk":7,"frizz_risk":0,"updated_at":"2026-03-21T11:13:15.180978+05:30"},{"city":"Silchar","state":"Assam","latitude":24.8333,"longitude":92.7789,"temp":27.1,"humidity":58,"rain":0.0,"pressure":1011.0,"uv_index":6.8,"wind_gusts":19.8,"aqi":87,"pm10":40.0,"pm2_5":27.0,"mosquito_risk":4,"arthritis_risk":0,"migraine_risk":4,"frizz_risk":1,"updated_at":"2026-03-21T11:13:15.180984+05:30"},{"city":"Dibrugarh","state":"Assam","latitude":27.4728,"longitude":94.912,"temp":25.6,"humidity":68,"rain":0.0,"pressure":1002.0,"uv_index":6.3,"wind_gusts":16.2,"aqi":94,"pm10":49.0,"pm2_5":28.9,"mosquito_risk":7,"arthritis_risk":5,"migraine_risk":4,"frizz_risk":1,"updated_at":"2026-03-21T11:13:15.180991+05:30"}]