[{"city":"Delhi","state":"Delhi","latitude":28.6139,"longitude":77.209,"temp":25.3,"humidity":97,"rain":2.1,"pressure":972.6,"uv_index":1.6,"wind_gusts":35.3,"aqi":91,"pm10":15.3,"pm2_5":15.3,"no2":14.5,"co":322.0,"o3":75.0,"so2":5.3,"mosquito_risk":10,"arthritis_risk":5,"migraine_risk":3,"frizz_risk":1,"updated_at":"2026-07-09T05:42:53.735763+05:30"},{"city":"Mumbai","state":"Maharashtra","latitude":19.076,"longitude":72.8777,"temp":27.8,"humidity":86,"rain":0.0,"pressure":1003.9,"uv_index":7.45,"wind_gusts":52.2,"aqi":61,"pm10":36.2,"pm2_5":15.3,"no2":3.7,"co":109.0,"o3":38.0,"so2":3.0,"mosquito_risk":7,"arthritis_risk":5,"migraine_risk":4,"frizz_risk":1,"updated_at":"2026-07-09T05:42:53.735821+05:30"},{"city":"Bangalore","state":"Karnataka","latitude":12.9716,"longitude":77.5946,"temp":20.9,"humidity":89,"rain":0.0,"pressure":910.9,"uv_index":5.8,"wind_gusts":50.4,"aqi":22,"pm10":4.8,"pm2_5":3.0,"no2":4.7,"co":142.0,"o3":37.0,"so2":3.1,"mosquito_risk":3,"arthritis_risk":5,"migraine_risk":3,"frizz_risk":1,"updated_at":"2026-07-09T05:42:53.735839+05:30"},{"city":"Hyderabad","state":"Telangana","latitude":17.385,"longitude":78.4867,"temp":24.5,"humidity":87,"rain":0.0,"pressure":950.0,"uv_index":6.85,"wind_gusts":44.6,"aqi":28,"pm10":3.5,"pm2_5":3.0,"no2":6.7,"co":160.0,"o3":40.0,"so2":3.2,"mosquito_risk":3,"arthritis_risk":5,"migraine_risk":7,"frizz_risk":1,"updated_at":"2026-07-09T05:42:53.735850+05:30"},{"city":"Chennai","state":"Tamil Nadu","latitude":13.0827,"longitude":80.2707,"temp":30.6,"humidity":54,"rain":0.0,"pressure":1005.5,"uv_index":8.75,"wind_gusts":44.6,"aqi":69,"pm10":16.9,"pm2_5":12.1,"no2":15.8,"co":166.0,"o3":27.0,"so2":9.4,"mosquito_risk":0,"arthritis_risk":5,"migraine_risk":4,"frizz_risk":1,"updated_at":"2026-07-09T05:42:53.735868+05:30"},{"city":"Kolkata","state":"West Bengal","latitude":22.5726,"longitude":88.3639,"temp":27.3,"humidity":93,"rain":0.0,"pressure":1000.8,"uv_index":1.15,"wind_gusts":33.1,"aqi":70,"pm10":23.1,"pm2_5":18.1,"no2":7.8,"co":184.0,"o3":58.0,"so2":6.2,"mosquito_risk":7,"arthritis_risk":5,"migraine_risk":0,"frizz_risk":1,"updated_at":"2026-07-09T05:42:53.735878+05:30"},{"city":"Pune","state":"Maharashtra","latitude":18.5204,"longitude":73.8567,"temp":23.8,"humidity":90,"rain":0.0,"pressure":943.6,"uv_index":6.35,"wind_gusts":51.8,"aqi":19,"pm10":4.0,"pm2_5":2.1,"no2":4.0,"co":102.0,"o3":33.0,"so2":3.5,"mosquito_risk":3,"arthritis_risk":5,"migraine_risk":7,"frizz_risk":1,"updated_at":"2026-07-09T05:42:53.735887+05:30"},{"city":"Ahmedabad","state":"Gujarat","latitude":23.0225,"longitude":72.5714,"temp":26.9,"humidity":85,"rain":0.0,"pressure":995.2,"uv_index":7.15,"wind_gusts":38.9,"aqi":81,"pm10":48.1,"pm2_5":24.3,"no2":7.6,"co":130.0,"o3":37.0,"so2":5.6,"mosquito_risk":7,"arthritis_risk":5,"migraine_risk":7,"frizz_risk":1,"updated_at":"2026-07-09T05:42:53.735896+05:30"},{"city":"Jaipur","state":"Rajasthan","latitude":26.9124,"longitude":75.7873,"temp":26.5,"humidity":82,"rain":0.0,"pressure":950.1,"uv_index":7.2,"wind_gusts":43.9,"aqi":115,"pm10":112.2,"pm2_5":46.0,"no2":8.2,"co":191.0,"o3":59.0,"so2":4.0,"mosquito_risk":7,"arthritis_risk":5,"migraine_risk":7,"frizz_risk":1,"updated_at":"2026-07-09T05:42:53.735905+05:30"},{"city":"Lucknow","state":"Uttar Pradesh","latitude":26.8467,"longitude":80.9462,"temp":26.1,"humidity":97,"rain":0.1,"pressure":984.7,"uv_index":5.95,"wind_gusts":31.7,"aqi":72,"pm10":29.5,"pm2_5":28.8,"no2":12.8,"co":269.0,"o3":62.0,"so2":8.9,"mosquito_risk":10,"arthritis_risk":5,"migraine_risk":3,"frizz_risk":1,"updated_at":"2026-07-09T05:42:53.735919+05:30"},{"city":"Kanpur","state":"Uttar Pradesh","latitude":26.4499,"longitude":80.3319,"temp":26.5,"humidity":95,"rain":0.1,"pressure":982.6,"uv_index":7.1,"wind_gusts":28.8,"aqi":60,"pm10":13.0,"pm2_5":11.9,"no2":10.6,"co":281.0,"o3":69.0,"so2":4.2,"mosquito_risk":10,"arthritis_risk":5,"migraine_risk":7,"frizz_risk":1,"updated_at":"2026-07-09T05:42:53.735928+05:30"},{"city":"Chandigarh","state":"Chandigarh","latitude":30.7333,"longitude":76.7794,"temp":26.5,"humidity":93,"rain":0.0,"pressure":960.5,"uv_index":1.05,"wind_gusts":22.3,"aqi":132,"pm10":61.0,"pm2_5":60.1,"no2":51.2,"co":326.0,"o3":19.0,"so2":12.5,"mosquito_risk":7,"arthritis_risk":5,"migraine_risk":3,"frizz_risk":1,"updated_at":"2026-07-09T05:42:53.735936+05:30"},{"city":"Srinagar","state":"Jammu and Kashmir","latitude":34.0837,"longitude":74.7973,"temp":18.6,"humidity":98,"rain":0.0,"pressure":836.5,"uv_index":9.05,"wind_gusts":22.0,"aqi":82,"pm10":39.8,"pm2_5":36.8,"no2":16.5,"co":441.0,"o3":59.0,"so2":2.5,"mosquito_risk":3,"arthritis_risk":10,"migraine_risk":7,"frizz_risk":1,"updated_at":"2026-07-09T05:42:53.735944+05:30"},{"city":"Jammu","state":"Jammu and Kashmir","latitude":32.7266,"longitude":74.857,"temp":25.2,"humidity":94,"rain":0.0,"pressure":964.6,"uv_index":8.65,"wind_gusts":26.3,"aqi":153,"pm10":60.8,"pm2_5":56.2,"no2":52.4,"co":432.0,"o3":8.0,"so2":5.0,"mosquito_risk":7,"arthritis_risk":5,"migraine_risk":7,"frizz_risk":1,"updated_at":"2026-07-09T05:42:53.735953+05:30"},{"city":"Amritsar","state":"Punjab","latitude":31.634,"longitude":74.8723,"temp":26.6,"humidity":94,"rain":0.0,"pressure":972.4,"uv_index":8.5,"wind_gusts":25.9,"aqi":160,"pm10":93.1,"pm2_5":89.6,"no2":45.2,"co":754.0,"o3":16.0,"so2":11.4,"mosquito_risk":7,"arthritis_risk":5,"migraine_risk":7,"frizz_risk":1,"updated_at":"2026-07-09T05:42:53.735961+05:30"},{"city":"Ludhiana","state":"Punjab","latitude":30.901,"longitude":75.8573,"temp":27.7,"humidity":97,"rain":0.0,"pressure":970.2,"uv_index":2.9,"wind_gusts":28.8,"aqi":151,"pm10":104.5,"pm2_5":101.7,"no2":48.9,"co":778.0,"o3":12.0,"so2":19.5,"mosquito_risk":7,"arthritis_risk":5,"migraine_risk":3,"frizz_risk":1,"updated_at":"2026-07-09T05:42:53.735968+05:30"},{"city":"Jalandhar","state":"Punjab","latitude":31.326,"longitude":75.5762,"temp":27.2,"humidity":96,"rain":0.0,"pressure":971.3,"uv_index":6.9,"wind_gusts":29.2,"aqi":153,"pm10":102.7,"pm2_5":99.0,"no2":47.7,"co":816.0,"o3":16.0,"so2":17.2,"mosquito_risk":7,"arthritis_risk":5,"migraine_risk":7,"frizz_risk":1,"updated_at":"2026-07-09T05:42:53.735977+05:30"},{"city":"Dehradun","state":"Uttarakhand","latitude":30.6284,"longitude":78.0322,"temp":18.4,"humidity":98,"rain":0.6,"pressure":824.3,"uv_index":2.4,"wind_gusts":19.8,"aqi":75,"pm10":29.3,"pm2_5":29.1,"no2":33.1,"co":273.0,"o3":24.0,"so2":0.7,"mosquito_risk":6,"arthritis_risk":10,"migraine_risk":3,"frizz_risk":1,"updated_at":"2026-07-09T05:42:53.735985+05:30"},{"city":"Shimla","state":"Himachal Pradesh","latitude":31.1048,"longitude":77.1734,"temp":15.8,"humidity":96,"rain":0.1,"pressure":779.0,"uv_index":0.95,"wind_gusts":15.5,"aqi":66,"pm10":13.2,"pm2_5":12.8,"no2":7.2,"co":274.0,"o3":87.0,"so2":1.2,"mosquito_risk":6,"arthritis_risk":10,"migraine_risk":3,"frizz_risk":0,"updated_at":"2026-07-09T05:42:53.735994+05:30"},{"city":"Manali","state":"Himachal Pradesh","latitude":32.2396,"longitude":77.1887,"temp":20.2,"humidity":76,"rain":0.0,"pressure":814.5,"uv_index":6.75,"wind_gusts":29.5,"aqi":45,"pm10":2.3,"pm2_5":2.3,"no2":25.3,"co":283.0,"o3":60.0,"so2":0.3,"mosquito_risk":3,"arthritis_risk":5,"migraine_risk":7,"frizz_risk":0,"updated_at":"2026-07-09T05:42:53.736003+05:30"},{"city":"Gurgaon","state":"Haryana","latitude":28.4595,"longitude":77.0266,"temp":25.3,"humidity":97,"rain":2.5,"pressure":970.9,"uv_index":3.5,"wind_gusts":38.5,"aqi":92,"pm10":15.1,"pm2_5":15.1,"no2":20.6,"co":301.0,"o3":66.0,"so2":12.6,"mosquito_risk":10,"arthritis_risk":5,"migraine_risk":3,"frizz_risk":1,"updated_at":"2026-07-09T05:42:53.736011+05:30"},{"city":"Noida","state":"Uttar Pradesh","latitude":28.5355,"longitude":77.391,"temp":25.5,"humidity":97,"rain":0.2,"pressure":973.6,"uv_index":1.35,"wind_gusts":44.3,"aqi":92,"pm10":15.1,"pm2_5":15.1,"no2":20.6,"co":302.0,"o3":66.0,"so2":12.6,"mosquito_risk":10,"arthritis_risk":5,"migraine_risk":3,"frizz_risk":1,"updated_at":"2026-07-09T05:42:53.736019+05:30"},{"city":"Ghaziabad","state":"Uttar Pradesh","latitude":28.6692,"longitude":77.4538,"temp":25.4,"humidity":96,"rain":0.6,"pressure":972.0,"uv_index":0.65,"wind_gusts":46.8,"aqi":79,"pm10":14.2,"pm2_5":14.2,"no2":11.5,"co":283.0,"o3":76.0,"so2":1.4,"mosquito_risk":10,"arthritis_risk":5,"migraine_risk":3,"frizz_risk":1,"updated_at":"2026-07-09T05:42:53.736029+05:30"},{"city":"Faridabad","state":"Haryana","latitude":28.4089,"longitude":77.3178,"temp":25.4,"humidity":98,"rain":0.6,"pressure":972.9,"uv_index":2.75,"wind_gusts":43.6,"aqi":92,"pm10":15.1,"pm2_5":15.1,"no2":20.6,"co":303.0,"o3":66.0,"so2":12.6,"mosquito_risk":10,"arthritis_risk":5,"migraine_risk":3,"frizz_risk":1,"updated_at":"2026-07-09T05:42:53.736037+05:30"},{"city":"Meerut","state":"Uttar Pradesh","latitude":28.9845,"longitude":77.7064,"temp":25.5,"humidity":94,"rain":4.4,"pressure":971.4,"uv_index":1.8,"wind_gusts":40.7,"aqi":79,"pm10":14.2,"pm2_5":14.2,"no2":11.5,"co":260.0,"o3":76.0,"so2":1.4,"mosquito_risk":10,"arthritis_risk":5,"migraine_risk":3,"frizz_risk":1,"updated_at":"2026-07-09T05:42:53.736045+05:30"},{"city":"Agra","state":"Uttar Pradesh","latitude":27.1767,"longitude":78.0081,"temp":26.1,"humidity":96,"rain":0.1,"pressure":975.8,"uv_index":7.3,"wind_gusts":66.2,"aqi":75,"pm10":16.6,"pm2_5":16.6,"no2":16.7,"co":281.0,"o3":58.0,"so2":9.5,"mosquito_risk":10,"arthritis_risk":5,"migraine_risk":7,"frizz_risk":1,"updated_at":"2026-07-09T05:42:53.736053+05:30"},{"city":"Varanasi","state":"Uttar Pradesh","latitude":25.3176,"longitude":82.9739,"temp":27.8,"humidity":86,"rain":0.0,"pressure":990.3,"uv_index":7.55,"wind_gusts":36.4,"aqi":80,"pm10":32.8,"pm2_5":30.9,"no2":28.5,"co":358.0,"o3":27.0,"so2":30.8,"mosquito_risk":7,"arthritis_risk":5,"migraine_risk":7,"frizz_risk":1,"updated_at":"2026-07-09T05:42:53.736061+05:30"},{"city":"Prayagraj","state":"Uttar Pradesh","latitude":25.4358,"longitude":81.8463,"temp":27.7,"humidity":90,"rain":0.0,"pressure":988.0,"uv_index":6.65,"wind_gusts":30.6,"aqi":81,"pm10":36.7,"pm2_5":35.3,"no2":20.4,"co":293.0,"o3":38.0,"so2":11.5,"mosquito_risk":7,"arthritis_risk":5,"migraine_risk":7,"frizz_risk":1,"updated_at":"2026-07-09T05:42:53.736070+05:30"},{"city":"Gorakhpur","state":"Uttar Pradesh","latitude":26.7606,"longitude":83.3732,"temp":25.9,"humidity":97,"rain":0.0,"pressure":990.8,"uv_index":7.45,"wind_gusts":29.9,"aqi":74,"pm10":22.9,"pm2_5":22.5,"no2":14.8,"co":274.0,"o3":59.0,"so2":8.2,"mosquito_risk":7,"arthritis_risk":5,"migraine_risk":7,"frizz_risk":1,"updated_at":"2026-07-09T05:42:53.736078+05:30"},{"city":"Bareilly","state":"Uttar Pradesh","latitude":28.367,"longitude":79.4304,"temp":25.9,"humidity":96,"rain":0.1,"pressure":977.3,"uv_index":6.3,"wind_gusts":56.9,"aqi":66,"pm10":10.2,"pm2_5":10.1,"no2":6.6,"co":244.0,"o3":93.0,"so2":6.3,"mosquito_risk":10,"arthritis_risk":5,"migraine_risk":7,"frizz_risk":1,"updated_at":"2026-07-09T05:42:53.736087+05:30"},{"city":"Aligarh","state":"Uttar Pradesh","latitude":27.8974,"longitude":78.088,"temp":25.8,"humidity":97,"rain":0.3,"pressure":973.6,"uv_index":6.4,"wind_gusts":33.8,"aqi":74,"pm10":19.9,"pm2_5":19.8,"no2":13.3,"co":279.0,"o3":59.0,"so2":3.5,"mosquito_risk":10,"arthritis_risk":5,"migraine_risk":7,"frizz_risk":1,"updated_at":"2026-07-09T05:42:53.736094+05:30"},{"city":"Moradabad","state":"Uttar Pradesh","latitude":28.8386,"longitude":78.7733,"temp":25.4,"humidity":95,"rain":0.1,"pressure":974.1,"uv_index":7.6,"wind_gusts":56.5,"aqi":68,"pm10":8.3,"pm2_5":8.3,"no2":6.7,"co":240.0,"o3":93.0,"so2":6.0,"mosquito_risk":10,"arthritis_risk":5,"migraine_risk":7,"frizz_risk":1,"updated_at":"2026-07-09T05:42:53.736102+05:30"},{"city":"Saharanpur","state":"Uttar Pradesh","latitude":29.9637,"longitude":77.546,"temp":26.0,"humidity":95,"rain":0.6,"pressure":966.7,"uv_index":0.6,"wind_gusts":27.4,"aqi":94,"pm10":35.4,"pm2_5":35.3,"no2":26.8,"co":253.0,"o3":41.0,"so2":4.1,"mosquito_risk":10,"arthritis_risk":5,"migraine_risk":3,"frizz_risk":1,"updated_at":"2026-07-09T05:42:53.736109+05:30"},{"city":"Jhansi","state":"Uttar Pradesh","latitude":25.4484,"longitude":78.5685,"temp":26.2,"humidity":94,"rain":0.0,"pressure":968.6,"uv_index":4.95,"wind_gusts":53.3,"aqi":52,"pm10":47.1,"pm2_5":25.8,"no2":6.9,"co":191.0,"o3":68.0,"so2":6.1,"mosquito_risk":7,"arthritis_risk":5,"migraine_risk":3,"frizz_risk":1,"updated_at":"2026-07-09T05:42:57.058687+05:30"},{"city":"Surat","state":"Gujarat","latitude":21.1702,"longitude":72.8311,"temp":28.2,"humidity":87,"rain":0.0,"pressure":1000.7,"uv_index":7.1,"wind_gusts":56.9,"aqi":74,"pm10":37.4,"pm2_5":21.0,"no2":18.6,"co":282.0,"o3":24.0,"so2":32.3,"mosquito_risk":7,"arthritis_risk":5,"migraine_risk":4,"frizz_risk":1,"updated_at":"2026-07-09T05:42:57.058725+05:30"},{"city":"Vadodara","state":"Gujarat","latitude":22.3072,"longitude":73.1812,"temp":27.7,"humidity":85,"rain":0.0,"pressure":997.8,"uv_index":6.4,"wind_gusts":46.1,"aqi":72,"pm10":35.2,"pm2_5":17.5,"no2":7.2,"co":136.0,"o3":35.0,"so2":4.5,"mosquito_risk":7,"arthritis_risk":5,"migraine_risk":7,"frizz_risk":1,"updated_at":"2026-07-09T05:42:57.058738+05:30"},{"city":"Rajkot","state":"Gujarat","latitude":22.3039,"longitude":70.8022,"temp":27.0,"humidity":86,"rain":0.0,"pressure":987.6,"uv_index":7.65,"wind_gusts":48.6,"aqi":73,"pm10":29.7,"pm2_5":13.4,"no2":3.9,"co":94.0,"o3":37.0,"so2":3.3,"mosquito_risk":7,"arthritis_risk":5,"migraine_risk":7,"frizz_risk":1,"updated_at":"2026-07-09T05:42:57.058750+05:30"},{"city":"Thane","state":"Maharashtra","latitude":19.2183,"longitude":72.9781,"temp":26.7,"humidity":92,"rain":0.1,"pressure":1003.2,"uv_index":6.9,"wind_gusts":43.6,"aqi":61,"pm10":36.2,"pm2_5":15.3,"no2":3.7,"co":120.0,"o3":38.0,"so2":3.0,"mosquito_risk":10,"arthritis_risk":5,"migraine_risk":4,"frizz_risk":1,"updated_at":"2026-07-09T05:42:57.058761+05:30"},{"city":"Nagpur","state":"Maharashtra","latitude":21.1458,"longitude":79.0882,"temp":25.8,"humidity":84,"rain":0.0,"pressure":967.7,"uv_index":7.3,"wind_gusts":49.3,"aqi":50,"pm10":20.6,"pm2_5":14.1,"no2":15.5,"co":179.0,"o3":40.0,"so2":17.3,"mosquito_risk":7,"arthritis_risk":5,"migraine_risk":7,"frizz_risk":1,"updated_at":"2026-07-09T05:42:57.058771+05:30"},{"city":"Nashik","state":"Maharashtra","latitude":19.9975,"longitude":73.7898,"temp":23.7,"humidity":97,"rain":0.0,"pressure":940.5,"uv_index":6.1,"wind_gusts":56.9,"aqi":32,"pm10":9.2,"pm2_5":4.8,"no2":5.6,"co":97.0,"o3":30.0,"so2":2.7,"mosquito_risk":3,"arthritis_risk":5,"migraine_risk":7,"frizz_risk":1,"updated_at":"2026-07-09T05:42:57.058782+05:30"},{"city":"Aurangabad","state":"Maharashtra","latitude":19.8762,"longitude":75.3433,"temp":24.0,"humidity":89,"rain":0.0,"pressure":939.6,"uv_index":7.4,"wind_gusts":52.9,"aqi":30,"pm10":21.5,"pm2_5":9.8,"no2":8.7,"co":138.0,"o3":27.0,"so2":9.9,"mosquito_risk":3,"arthritis_risk":5,"migraine_risk":7,"frizz_risk":1,"updated_at":"2026-07-09T05:42:57.058791+05:30"},{"city":"Solapur","state":"Maharashtra","latitude":17.6599,"longitude":75.9064,"temp":25.0,"humidity":82,"rain":0.0,"pressure":954.0,"uv_index":5.5,"wind_gusts":45.4,"aqi":22,"pm10":5.3,"pm2_5":3.8,"no2":6.9,"co":124.0,"o3":27.0,"so2":2.6,"mosquito_risk":7,"arthritis_risk":5,"migraine_risk":3,"frizz_risk":1,"updated_at":"2026-07-09T05:42:57.058802+05:30"},{"city":"Kolhapur","state":"Maharashtra","latitude":16.705,"longitude":74.2433,"temp":22.9,"humidity":95,"rain":0.0,"pressure":944.8,"uv_index":7.4,"wind_gusts":55.8,"aqi":20,"pm10":3.6,"pm2_5":2.3,"no2":2.8,"co":104.0,"o3":35.0,"so2":1.8,"mosquito_risk":3,"arthritis_risk":5,"migraine_risk":7,"frizz_risk":1,"updated_at":"2026-07-09T05:42:57.058812+05:30"},{"city":"Goa","state":"Goa","latitude":15.2993,"longitude":74.124,"temp":23.8,"humidity":99,"rain":0.1,"pressure":996.8,"uv_index":6.15,"wind_gusts":36.4,"aqi":53,"pm10":26.4,"pm2_5":14.2,"no2":2.2,"co":263.0,"o3":43.0,"so2":1.0,"mosquito_risk":6,"arthritis_risk":5,"migraine_risk":7,"frizz_risk":1,"updated_at":"2026-07-09T05:42:57.058822+05:30"},{"city":"Jodhpur","state":"Rajasthan","latitude":26.2389,"longitude":73.0243,"temp":28.4,"humidity":76,"rain":0.0,"pressure":974.3,"uv_index":8.5,"wind_gusts":49.3,"aqi":151,"pm10":295.2,"pm2_5":78.7,"no2":3.9,"co":129.0,"o3":58.0,"so2":3.3,"mosquito_risk":7,"arthritis_risk":5,"migraine_risk":7,"frizz_risk":1,"updated_at":"2026-07-09T05:42:57.058832+05:30"},{"city":"Udaipur","state":"Rajasthan","latitude":24.5854,"longitude":73.7125,"temp":24.8,"humidity":87,"rain":0.0,"pressure":939.3,"uv_index":8.15,"wind_gusts":43.9,"aqi":82,"pm10":44.4,"pm2_5":24.2,"no2":6.0,"co":117.0,"o3":49.0,"so2":4.1,"mosquito_risk":3,"arthritis_risk":5,"migraine_risk":7,"frizz_risk":1,"updated_at":"2026-07-09T05:42:57.058842+05:30"},{"city":"Kota","state":"Rajasthan","latitude":25.2138,"longitude":75.8648,"temp":27.6,"humidity":90,"rain":0.1,"pressure":969.8,"uv_index":7.65,"wind_gusts":41.0,"aqi":77,"pm10":41.0,"pm2_5":25.8,"no2":9.3,"co":191.0,"o3":54.0,"so2":10.9,"mosquito_risk":10,"arthritis_risk":5,"migraine_risk":7,"frizz_risk":1,"updated_at":"2026-07-09T05:42:57.058852+05:30"},{"city":"Bikaner","state":"Rajasthan","latitude":28.0229,"longitude":73.3119,"temp":29.4,"humidity":66,"rain":0.0,"pressure":972.5,"uv_index":8.3,"wind_gusts":37.8,"aqi":156,"pm10":298.0,"pm2_5":92.0,"no2":4.6,"co":138.0,"o3":50.0,"so2":2.4,"mosquito_risk":7,"arthritis_risk":5,"migraine_risk":7,"frizz_risk":1,"updated_at":"2026-07-09T05:42:57.058862+05:30"},{"city":"Ajmer","state":"Rajasthan","latitude":26.4499,"longitude":74.6399,"temp":25.5,"humidity":87,"rain":0.0,"pressure":946.0,"uv_index":8.3,"wind_gusts":51.5,"aqi":123,"pm10":62.6,"pm2_5":29.3,"no2":5.4,"co":146.0,"o3":66.0,"so2":3.8,"mosquito_risk":7,"arthritis_risk":5,"migraine_risk":7,"frizz_risk":1,"updated_at":"2026-07-09T05:42:57.058872+05:30"},{"city":"Gwalior","state":"Madhya Pradesh","latitude":26.2183,"longitude":78.1828,"temp":26.3,"humidity":92,"rain":0.0,"pressure":972.7,"uv_index":8.2,"wind_gusts":51.1,"aqi":57,"pm10":23.4,"pm2_5":15.8,"no2":10.1,"co":202.0,"o3":66.0,"so2":5.9,"mosquito_risk":7,"arthritis_risk":5,"migraine_risk":7,"frizz_risk":1,"updated_at":"2026-07-09T05:42:57.058881+05:30"},{"city":"Indore","state":"Madhya Pradesh","latitude":22.7196,"longitude":75.8577,"temp":24.8,"humidity":93,"rain":0.0,"pressure":941.5,"uv_index":6.1,"wind_gusts":48.6,"aqi":57,"pm10":12.8,"pm2_5":9.3,"no2":10.8,"co":163.0,"o3":31.0,"so2":13.9,"mosquito_risk":3,"arthritis_risk":5,"migraine_risk":7,"frizz_risk":1,"updated_at":"2026-07-09T05:42:57.058891+05:30"},{"city":"Bhopal","state":"Madhya Pradesh","latitude":23.2599,"longitude":77.4126,"temp":24.8,"humidity":87,"rain":0.0,"pressure":946.4,"uv_index":6.35,"wind_gusts":42.1,"aqi":60,"pm10":27.4,"pm2_5":17.4,"no2":9.1,"co":242.0,"o3":43.0,"so2":6.7,"mosquito_risk":3,"arthritis_risk":5,"migraine_risk":7,"frizz_risk":1,"updated_at":"2026-07-09T05:42:57.058900+05:30"},{"city":"Jabalpur","state":"Madhya Pradesh","latitude":23.1815,"longitude":79.9864,"temp":24.2,"humidity":95,"rain":0.0,"pressure":954.6,"uv_index":7.5,"wind_gusts":41.0,"aqi":52,"pm10":11.5,"pm2_5":7.9,"no2":4.1,"co":212.0,"o3":78.0,"so2":1.9,"mosquito_risk":3,"arthritis_risk":5,"migraine_risk":7,"frizz_risk":1,"updated_at":"2026-07-09T05:42:57.058910+05:30"},{"city":"Ujjain","state":"Madhya Pradesh","latitude":23.1765,"longitude":75.7885,"temp":25.3,"humidity":91,"rain":0.0,"pressure":946.8,"uv_index":7.65,"wind_gusts":47.2,"aqi":60,"pm10":16.6,"pm2_5":11.8,"no2":11.7,"co":188.0,"o3":29.0,"so2":14.5,"mosquito_risk":7,"arthritis_risk":5,"migraine_risk":7,"frizz_risk":1,"updated_at":"2026-07-09T05:42:57.058920+05:30"},{"city":"Visakhapatnam","state":"Andhra Pradesh","latitude":17.6868,"longitude":83.2185,"temp":27.3,"humidity":86,"rain":0.0,"pressure":1000.1,"uv_index":8.25,"wind_gusts":46.1,"aqi":78,"pm10":43.4,"pm2_5":30.4,"no2":17.4,"co":315.0,"o3":74.0,"so2":32.1,"mosquito_risk":7,"arthritis_risk":5,"migraine_risk":4,"frizz_risk":1,"updated_at":"2026-07-09T05:42:57.058930+05:30"},{"city":"Vijayawada","state":"Andhra Pradesh","latitude":16.5062,"longitude":80.648,"temp":29.5,"humidity":64,"rain":0.0,"pressure":999.4,"uv_index":6.35,"wind_gusts":40.7,"aqi":60,"pm10":23.7,"pm2_5":18.1,"no2":12.0,"co":163.0,"o3":33.0,"so2":6.0,"mosquito_risk":7,"arthritis_risk":5,"migraine_risk":7,"frizz_risk":1,"updated_at":"2026-07-09T05:42:57.058940+05:30"},{"city":"Guntur","state":"Andhra Pradesh","latitude":16.3067,"longitude":80.4365,"temp":30.4,"humidity":58,"rain":0.0,"pressure":1000.7,"uv_index":6.5,"wind_gusts":43.6,"aqi":62,"pm10":18.9,"pm2_5":13.4,"no2":10.3,"co":140.0,"o3":30.0,"so2":6.4,"mosquito_risk":0,"arthritis_risk":5,"migraine_risk":4,"frizz_risk":1,"updated_at":"2026-07-09T05:42:57.058950+05:30"},{"city":"Nellore","state":"Andhra Pradesh","latitude":14.4426,"longitude":79.9865,"temp":29.5,"humidity":59,"rain":0.0,"pressure":1003.9,"uv_index":8.1,"wind_gusts":48.2,"aqi":39,"pm10":18.2,"pm2_5":9.2,"no2":4.9,"co":112.0,"o3":36.0,"so2":3.2,"mosquito_risk":4,"arthritis_risk":5,"migraine_risk":4,"frizz_risk":1,"updated_at":"2026-07-09T05:42:57.058960+05:30"},{"city":"Kurnool","state":"Andhra Pradesh","latitude":15.8281,"longitude":78.0373,"temp":26.5,"humidity":74,"rain":0.0,"pressure":975.0,"uv_index":6.55,"wind_gusts":49.7,"aqi":29,"pm10":3.9,"pm2_5":2.9,"no2":6.0,"co":110.0,"o3":31.0,"so2":2.7,"mosquito_risk":7,"arthritis_risk":5,"migraine_risk":7,"frizz_risk":1,"updated_at":"2026-07-09T05:42:57.058971+05:30"},{"city":"Kakinada","state":"Andhra Pradesh","latitude":16.9891,"longitude":82.2475,"temp":28.5,"humidity":83,"rain":0.0,"pressure":1003.7,"uv_index":8.25,"wind_gusts":47.5,"aqi":69,"pm10":26.6,"pm2_5":18.1,"no2":5.1,"co":189.0,"o3":65.0,"so2":3.1,"mosquito_risk":7,"arthritis_risk":5,"migraine_risk":4,"frizz_risk":1,"updated_at":"2026-07-09T05:42:57.058980+05:30"},{"city":"Tirupati","state":"Andhra Pradesh","latitude":13.6288,"longitude":79.4192,"temp":27.9,"humidity":62,"rain":0.0,"pressure":989.7,"uv_index":8.05,"wind_gusts":43.2,"aqi":41,"pm10":15.0,"pm2_5":9.0,"no2":9.1,"co":115.0,"o3":27.0,"so2":2.5,"mosquito_risk":7,"arthritis_risk":5,"migraine_risk":7,"frizz_risk":1,"updated_at":"2026-07-09T05:42:57.058990+05:30"},{"city":"Warangal","state":"Telangana","latitude":17.9689,"longitude":79.5941,"temp":25.7,"humidity":92,"rain":0.1,"pressure":975.0,"uv_index":8.3,"wind_gusts":33.5,"aqi":43,"pm10":10.4,"pm2_5":9.0,"no2":9.1,"co":186.0,"o3":50.0,"so2":3.6,"mosquito_risk":10,"arthritis_risk":5,"migraine_risk":7,"frizz_risk":1,"updated_at":"2026-07-09T05:42:57.059000+05:30"},{"city":"Nizamabad","state":"Telangana","latitude":18.6725,"longitude":78.0941,"temp":25.3,"humidity":84,"rain":0.0,"pressure":961.1,"uv_index":6.25,"wind_gusts":44.3,"aqi":32,"pm10":11.1,"pm2_5":8.1,"no2":10.9,"co":162.0,"o3":35.0,"so2":7.1,"mosquito_risk":7,"arthritis_risk":5,"migraine_risk":7,"frizz_risk":1,"updated_at":"2026-07-09T05:42:57.059009+05:30"},{"city":"Mysore","state":"Karnataka","latitude":12.2958,"longitude":76.6396,"temp":21.2,"humidity":91,"rain":0.0,"pressure":928.2,"uv_index":7.1,"wind_gusts":45.0,"aqi":18,"pm10":4.5,"pm2_5":2.8,"no2":2.6,"co":93.0,"o3":40.0,"so2":1.4,"mosquito_risk":3,"arthritis_risk":5,"migraine_risk":7,"frizz_risk":1,"updated_at":"2026-07-09T05:42:57.059019+05:30"},{"city":"Mangalore","state":"Karnataka","latitude":12.9141,"longitude":74.856,"temp":23.3,"humidity":99,"rain":0.3,"pressure":1007.1,"uv_index":8.6,"wind_gusts":34.9,"aqi":58,"pm10":23.5,"pm2_5":13.6,"no2":6.7,"co":185.0,"o3":30.0,"so2":2.5,"mosquito_risk":6,"arthritis_risk":5,"migraine_risk":4,"frizz_risk":1,"updated_at":"2026-07-09T05:42:57.059028+05:30"},{"city":"Hubli-Dharwad","state":"Karnataka","latitude":15.3647,"longitude":75.124,"temp":22.1,"humidity":96,"rain":0.0,"pressure":938.9,"uv_index":6.6,"wind_gusts":55.8,"aqi":17,"pm10":2.3,"pm2_5":1.5,"no2":2.9,"co":99.0,"o3":36.0,"so2":1.2,"mosquito_risk":3,"arthritis_risk":5,"migraine_risk":7,"frizz_risk":1,"updated_at":"2026-07-09T05:42:57.059038+05:30"},{"city":"Belgaum","state":"Karnataka","latitude":15.8497,"longitude":74.4977,"temp":21.2,"humidity":98,"rain":0.0,"pressure":923.2,"uv_index":6.5,"wind_gusts":57.6,"aqi":18,"pm10":2.9,"pm2_5":1.9,"no2":2.6,"co":109.0,"o3":36.0,"so2":1.2,"mosquito_risk":3,"arthritis_risk":5,"migraine_risk":7,"frizz_risk":1,"updated_at":"2026-07-09T05:43:00.397512+05:30"},{"city":"Coimbatore","state":"Tamil Nadu","latitude":11.0168,"longitude":76.9558,"temp":22.0,"humidity":98,"rain":0.0,"pressure":961.4,"uv_index":8.7,"wind_gusts":51.8,"aqi":22,"pm10":9.2,"pm2_5":5.9,"no2":5.9,"co":178.0,"o3":27.0,"so2":2.3,"mosquito_risk":3,"arthritis_risk":5,"migraine_risk":7,"frizz_risk":1,"updated_at":"2026-07-09T05:43:00.397553+05:30"},{"city":"Madurai","state":"Tamil Nadu","latitude":9.9252,"longitude":78.1198,"temp":27.7,"humidity":66,"rain":0.0,"pressure":992.6,"uv_index":8.65,"wind_gusts":45.4,"aqi":55,"pm10":15.0,"pm2_5":14.2,"no2":25.7,"co":132.0,"o3":1.0,"so2":5.2,"mosquito_risk":7,"arthritis_risk":5,"migraine_risk":7,"frizz_risk":1,"updated_at":"2026-07-09T05:43:00.397570+05:30"},{"city":"Trichy","state":"Tamil Nadu","latitude":10.7905,"longitude":78.7047,"temp":28.2,"humidity":64,"rain":0.0,"pressure":999.3,"uv_index":5.75,"wind_gusts":54.0,"aqi":37,"pm10":10.5,"pm2_5":6.7,"no2":4.6,"co":91.0,"o3":35.0,"so2":2.8,"mosquito_risk":7,"arthritis_risk":5,"migraine_risk":3,"frizz_risk":1,"updated_at":"2026-07-09T05:43:00.397583+05:30"},{"city":"Salem","state":"Tamil Nadu","latitude":11.6643,"longitude":78.146,"temp":24.0,"humidity":87,"rain":0.0,"pressure":977.5,"uv_index":8.2,"wind_gusts":32.8,"aqi":53,"pm10":17.8,"pm2_5":14.4,"no2":19.6,"co":185.0,"o3":17.0,"so2":6.7,"mosquito_risk":3,"arthritis_risk":5,"migraine_risk":7,"frizz_risk":1,"updated_at":"2026-07-09T05:43:00.397596+05:30"},{"city":"Tirunelveli","state":"Tamil Nadu","latitude":8.7139,"longitude":77.7567,"temp":28.1,"humidity":66,"rain":0.0,"pressure":1003.0,"uv_index":8.6,"wind_gusts":51.1,"aqi":34,"pm10":10.3,"pm2_5":6.5,"no2":5.0,"co":182.0,"o3":30.0,"so2":1.9,"mosquito_risk":7,"arthritis_risk":5,"migraine_risk":4,"frizz_risk":1,"updated_at":"2026-07-09T05:43:00.397608+05:30"},{"city":"Vellore","state":"Tamil Nadu","latitude":12.9165,"longitude":79.1325,"temp":27.5,"humidity":63,"rain":0.0,"pressure":983.3,"uv_index":8.5,"wind_gusts":44.3,"aqi":38,"pm10":10.6,"pm2_5":6.7,"no2":7.9,"co":126.0,"o3":31.0,"so2":3.6,"mosquito_risk":7,"arthritis_risk":5,"migraine_risk":7,"frizz_risk":1,"updated_at":"2026-07-09T05:43:00.397620+05:30"},{"city":"Erode","state":"Tamil Nadu","latitude":11.341,"longitude":77.7172,"temp":24.6,"humidity":82,"rain":0.0,"pressure":989.3,"uv_index":8.6,"wind_gusts":49.0,"aqi":42,"pm10":17.1,"pm2_5":13.3,"no2":13.5,"co":155.0,"o3":24.0,"so2":4.0,"mosquito_risk":3,"arthritis_risk":5,"migraine_risk":7,"frizz_risk":1,"updated_at":"2026-07-09T05:43:00.397632+05:30"},{"city":"Kochi","state":"Kerala","latitude":9.9312,"longitude":76.2673,"temp":24.3,"humidity":97,"rain":0.0,"pressure":1010.0,"uv_index":8.4,"wind_gusts":34.2,"aqi":51,"pm10":11.5,"pm2_5":9.4,"no2":13.6,"co":141.0,"o3":8.0,"so2":4.3,"mosquito_risk":3,"arthritis_risk":0,"migraine_risk":4,"frizz_risk":1,"updated_at":"2026-07-09T05:43:00.397662+05:30"},{"city":"Thiruvananthapuram","state":"Kerala","latitude":8.5241,"longitude":76.9366,"temp":24.1,"humidity":93,"rain":0.0,"pressure":1009.1,"uv_index":8.3,"wind_gusts":45.4,"aqi":45,"pm10":14.1,"pm2_5":8.8,"no2":5.4,"co":167.0,"o3":33.0,"so2":2.6,"mosquito_risk":3,"arthritis_risk":0,"migraine_risk":4,"frizz_risk":1,"updated_at":"2026-07-09T05:43:00.397676+05:30"},{"city":"Kozhikode","state":"Kerala","latitude":11.2588,"longitude":75.7804,"temp":23.5,"humidity":97,"rain":0.1,"pressure":1009.2,"uv_index":8.15,"wind_gusts":37.4,"aqi":43,"pm10":16.6,"pm2_5":8.7,"no2":2.0,"co":289.0,"o3":43.0,"so2":1.4,"mosquito_risk":6,"arthritis_risk":0,"migraine_risk":4,"frizz_risk":1,"updated_at":"2026-07-09T05:43:00.397687+05:30"},{"city":"Thrissur","state":"Kerala","latitude":10.5276,"longitude":76.2144,"temp":23.3,"humidity":99,"rain":0.0,"pressure":1008.5,"uv_index":8.55,"wind_gusts":38.5,"aqi":51,"pm10":15.1,"pm2_5":12.6,"no2":12.1,"co":378.0,"o3":10.0,"so2":3.2,"mosquito_risk":3,"arthritis_risk":0,"migraine_risk":4,"frizz_risk":1,"updated_at":"2026-07-09T05:43:00.397700+05:30"},{"city":"Kannur","state":"Kerala","latitude":11.8745,"longitude":75.3704,"temp":23.1,"humidity":98,"rain":0.1,"pressure":1008.5,"uv_index":8.25,"wind_gusts":34.6,"aqi":50,"pm10":14.0,"pm2_5":7.6,"no2":5.2,"co":150.0,"o3":30.0,"so2":1.9,"mosquito_risk":6,"arthritis_risk":0,"migraine_risk":4,"frizz_risk":1,"updated_at":"2026-07-09T05:43:00.397711+05:30"},{"city":"Patna","state":"Bihar","latitude":25.5941,"longitude":85.1376,"temp":27.3,"humidity":94,"rain":0.0,"pressure":994.1,"uv_index":7.65,"wind_gusts":24.5,"aqi":78,"pm10":39.3,"pm2_5":37.6,"no2":21.4,"co":290.0,"o3":41.0,"so2":12.5,"mosquito_risk":7,"arthritis_risk":5,"migraine_risk":7,"frizz_risk":1,"updated_at":"2026-07-09T05:43:00.397722+05:30"},{"city":"Gaya","state":"Bihar","latitude":24.7914,"longitude":85.0002,"temp":28.0,"humidity":86,"rain":0.0,"pressure":987.3,"uv_index":7.95,"wind_gusts":30.2,"aqi":74,"pm10":39.1,"pm2_5":34.6,"no2":17.5,"co":298.0,"o3":36.0,"so2":12.8,"mosquito_risk":7,"arthritis_risk":5,"migraine_risk":7,"frizz_risk":1,"updated_at":"2026-07-09T05:43:00.397733+05:30"},{"city":"Muzaffarpur","state":"Bihar","latitude":26.1209,"longitude":85.3647,"temp":27.2,"humidity":97,"rain":0.1,"pressure":994.1,"uv_index":8.25,"wind_gusts":28.4,"aqi":83,"pm10":29.0,"pm2_5":28.2,"no2":17.1,"co":285.0,"o3":54.0,"so2":10.4,"mosquito_risk":10,"arthritis_risk":5,"migraine_risk":7,"frizz_risk":1,"updated_at":"2026-07-09T05:43:00.397745+05:30"},{"city":"Bhagalpur","state":"Bihar","latitude":25.2425,"longitude":87.0117,"temp":27.1,"humidity":99,"rain":0.1,"pressure":995.2,"uv_index":6.7,"wind_gusts":24.5,"aqi":88,"pm10":39.7,"pm2_5":36.7,"no2":20.9,"co":408.0,"o3":35.0,"so2":16.1,"mosquito_risk":10,"arthritis_risk":5,"migraine_risk":7,"frizz_risk":1,"updated_at":"2026-07-09T05:43:00.397755+05:30"},{"city":"Ranchi","state":"Jharkhand","latitude":23.3441,"longitude":85.3096,"temp":23.7,"humidity":93,"rain":0.0,"pressure":932.3,"uv_index":7.95,"wind_gusts":39.6,"aqi":66,"pm10":26.6,"pm2_5":22.6,"no2":8.7,"co":164.0,"o3":56.0,"so2":10.6,"mosquito_risk":3,"arthritis_risk":5,"migraine_risk":7,"frizz_risk":1,"updated_at":"2026-07-09T05:43:00.397766+05:30"},{"city":"Jamshedpur","state":"Jharkhand","latitude":22.8046,"longitude":86.2029,"temp":27.2,"humidity":89,"rain":0.0,"pressure":985.4,"uv_index":6.1,"wind_gusts":36.4,"aqi":87,"pm10":41.1,"pm2_5":34.0,"no2":21.2,"co":481.0,"o3":49.0,"so2":28.5,"mosquito_risk":7,"arthritis_risk":5,"migraine_risk":7,"frizz_risk":1,"updated_at":"2026-07-09T05:43:00.397777+05:30"},{"city":"Dhanbad","state":"Jharkhand","latitude":23.7957,"longitude":86.4304,"temp":26.8,"humidity":92,"rain":0.1,"pressure":974.3,"uv_index":7.6,"wind_gusts":37.8,"aqi":135,"pm10":78.9,"pm2_5":69.6,"no2":51.2,"co":1744.0,"o3":13.0,"so2":119.2,"mosquito_risk":10,"arthritis_risk":5,"migraine_risk":7,"frizz_risk":1,"updated_at":"2026-07-09T05:43:00.397788+05:30"},{"city":"Bokaro","state":"Jharkhand","latitude":23.6693,"longitude":86.1511,"temp":27.3,"humidity":88,"rain":0.1,"pressure":978.1,"uv_index":7.9,"wind_gusts":34.2,"aqi":104,"pm10":67.3,"pm2_5":55.4,"no2":32.7,"co":913.0,"o3":28.0,"so2":82.5,"mosquito_risk":10,"arthritis_risk":5,"migraine_risk":7,"frizz_risk":1,"updated_at":"2026-07-09T05:43:00.397798+05:30"},{"city":"Bhubaneswar","state":"Odisha","latitude":20.2961,"longitude":85.8245,"temp":27.2,"humidity":81,"rain":0.0,"pressure":998.0,"uv_index":3.6,"wind_gusts":51.5,"aqi":70,"pm10":20.0,"pm2_5":14.7,"no2":6.4,"co":185.0,"o3":65.0,"so2":6.6,"mosquito_risk":7,"arthritis_risk":5,"migraine_risk":3,"frizz_risk":1,"updated_at":"2026-07-09T05:43:00.397808+05:30"},{"city":"Cuttack","state":"Odisha","latitude":20.4625,"longitude":85.8828,"temp":26.6,"humidity":90,"rain":0.1,"pressure":999.7,"uv_index":7.05,"wind_gusts":43.6,"aqi":70,"pm10":20.0,"pm2_5":14.7,"no2":6.4,"co":176.0,"o3":65.0,"so2":6.6,"mosquito_risk":10,"arthritis_risk":5,"migraine_risk":7,"frizz_risk":1,"updated_at":"2026-07-09T05:43:00.397818+05:30"},{"city":"Rourkela","state":"Odisha","latitude":22.2604,"longitude":84.8536,"temp":26.2,"humidity":96,"rain":0.1,"pressure":979.6,"uv_index":6.75,"wind_gusts":40.0,"aqi":73,"pm10":33.1,"pm2_5":26.4,"no2":10.2,"co":239.0,"o3":46.0,"so2":6.4,"mosquito_risk":10,"arthritis_risk":5,"migraine_risk":7,"frizz_risk":1,"updated_at":"2026-07-09T05:43:00.397828+05:30"},{"city":"Raipur","state":"Chhattisgarh","latitude":21.2514,"longitude":81.6296,"temp":25.4,"humidity":93,"rain":0.0,"pressure":969.1,"uv_index":7.45,"wind_gusts":45.7,"aqi":63,"pm10":26.4,"pm2_5":25.7,"no2":28.8,"co":475.0,"o3":44.0,"so2":47.5,"mosquito_risk":7,"arthritis_risk":5,"migraine_risk":7,"frizz_risk":1,"updated_at":"2026-07-09T05:43:00.397838+05:30"},{"city":"Bhilai","state":"Chhattisgarh","latitude":21.1938,"longitude":81.3509,"temp":25.5,"humidity":91,"rain":0.0,"pressure":969.6,"uv_index":7.65,"wind_gusts":47.5,"aqi":65,"pm10":26.1,"pm2_5":25.1,"no2":26.0,"co":635.0,"o3":46.0,"so2":42.6,"mosquito_risk":7,"arthritis_risk":5,"migraine_risk":7,"frizz_risk":1,"updated_at":"2026-07-09T05:43:00.397847+05:30"},{"city":"Guwahati","state":"Assam","latitude":26.1158,"longitude":91.7086,"temp":26.2,"humidity":98,"rain":0.1,"pressure":996.7,"uv_index":4.5,"wind_gusts":17.3,"aqi":55,"pm10":17.5,"pm2_5":17.1,"no2":8.4,"co":224.0,"o3":47.0,"so2":2.5,"mosquito_risk":10,"arthritis_risk":5,"migraine_risk":3,"frizz_risk":1,"updated_at":"2026-07-09T05:43:00.397857+05:30"},{"city":"Agartala","state":"Tripura","latitude":23.8315,"longitude":91.2868,"temp":24.0,"humidity":99,"rain":0.8,"pressure":1002.4,"uv_index":0.8,"wind_gusts":42.8,"aqi":50,"pm10":10.9,"pm2_5":8.7,"no2":8.8,"co":137.0,"o3":47.0,"so2":2.5,"mosquito_risk":6,"arthritis_risk":5,"migraine_risk":0,"frizz_risk":1,"updated_at":"2026-07-09T05:43:00.397867+05:30"},{"city":"Shillong","state":"Meghalaya","latitude":25.5788,"longitude":91.8933,"temp":20.3,"humidity":98,"rain":0.0,"pressure":854.2,"uv_index":1.7,"wind_gusts":33.1,"aqi":26,"pm10":1.6,"pm2_5":1.6,"no2":4.6,"co":137.0,"o3":50.0,"so2":3.3,"mosquito_risk":3,"arthritis_risk":5,"migraine_risk":3,"frizz_risk":1,"updated_at":"2026-07-09T05:43:00.397876+05:30"},{"city":"Imphal","state":"Manipur","latitude":24.817,"longitude":93.9368,"temp":22.4,"humidity":100,"rain":0.0,"pressure":920.0,"uv_index":3.3,"wind_gusts":32.4,"aqi":31,"pm10":8.4,"pm2_5":7.9,"no2":7.8,"co":230.0,"o3":35.0,"so2":2.6,"mosquito_risk":3,"arthritis_risk":5,"migraine_risk":3,"frizz_risk":1,"updated_at":"2026-07-09T05:43:00.397886+05:30"},{"city":"Aizawl","state":"Mizoram","latitude":23.7271,"longitude":92.7176,"temp":19.5,"humidity":99,"rain":0.1,"pressure":889.4,"uv_index":0.4,"wind_gusts":46.1,"aqi":23,"pm10":0.6,"pm2_5":0.6,"no2":1.7,"co":110.0,"o3":52.0,"so2":0.5,"mosquito_risk":6,"arthritis_risk":10,"migraine_risk":3,"frizz_risk":1,"updated_at":"2026-07-09T05:43:00.397895+05:30"},{"city":"Kohima","state":"Nagaland","latitude":25.6701,"longitude":94.1077,"temp":21.7,"humidity":93,"rain":0.0,"pressure":853.0,"uv_index":2.35,"wind_gusts":22.7,"aqi":21,"pm10":3.6,"pm2_5":3.3,"no2":4.2,"co":267.0,"o3":46.0,"so2":1.2,"mosquito_risk":3,"arthritis_risk":5,"migraine_risk":3,"frizz_risk":1,"updated_at":"2026-07-09T05:43:00.397905+05:30"},{"city":"Gangtok","state":"Sikkim","latitude":27.3314,"longitude":88.6138,"temp":18.6,"humidity":98,"rain":0.3,"pressure":834.9,"uv_index":4.4,"wind_gusts":25.9,"aqi":43,"pm10":3.8,"pm2_5":3.8,"no2":3.4,"co":207.0,"o3":97.0,"so2":1.2,"mosquito_risk":6,"arthritis_risk":10,"migraine_risk":3,"frizz_risk":1,"updated_at":"2026-07-09T05:43:00.397915+05:30"},{"city":"Siliguri","state":"West Bengal","latitude":26.7271,"longitude":88.3953,"temp":25.1,"humidity":97,"rain":0.8,"pressure":988.1,"uv_index":7.45,"wind_gusts":25.6,"aqi":62,"pm10":15.8,"pm2_5":15.7,"no2":7.6,"co":326.0,"o3":91.0,"so2":4.6,"mosquito_risk":10,"arthritis_risk":5,"migraine_risk":7,"frizz_risk":1,"updated_at":"2026-07-09T05:43:03.752968+05:30"},{"city":"Durgapur","state":"West Bengal","latitude":23.5204,"longitude":87.3119,"temp":26.2,"humidity":96,"rain":0.2,"pressure":989.4,"uv_index":2.3,"wind_gusts":36.4,"aqi":101,"pm10":44.9,"pm2_5":40.2,"no2":31.5,"co":492.0,"o3":36.0,"so2":45.2,"mosquito_risk":10,"arthritis_risk":5,"migraine_risk":3,"frizz_risk":1,"updated_at":"2026-07-09T05:43:03.753011+05:30"},{"city":"Asansol","state":"West Bengal","latitude":23.6739,"longitude":86.9524,"temp":26.3,"humidity":95,"rain":0.1,"pressure":988.0,"uv_index":6.15,"wind_gusts":36.7,"aqi":99,"pm10":48.3,"pm2_5":42.4,"no2":34.8,"co":282.0,"o3":27.0,"so2":47.3,"mosquito_risk":10,"arthritis_risk":5,"migraine_risk":7,"frizz_risk":1,"updated_at":"2026-07-09T05:43:03.753028+05:30"},{"city":"Pondicherry","state":"Puducherry","latitude":11.9139,"longitude":79.8145,"temp":28.5,"humidity":71,"rain":0.0,"pressure":1007.3,"uv_index":7.4,"wind_gusts":45.7,"aqi":71,"pm10":18.9,"pm2_5":15.1,"no2":20.1,"co":137.0,"o3":17.0,"so2":8.0,"mosquito_risk":7,"arthritis_risk":5,"migraine_risk":4,"frizz_risk":1,"updated_at":"2026-07-09T05:43:03.753041+05:30"},{"city":"Port Blair","state":"Andaman and Nicobar Islands","latitude":11.6234,"longitude":92.7265,"temp":27.4,"humidity":83,"rain":0.0,"pressure":1008.2,"uv_index":8.65,"wind_gusts":41.8,"aqi":59,"pm10":22.3,"pm2_5":13.4,"no2":0.2,"co":94.0,"o3":58.0,"so2":0.4,"mosquito_risk":7,"arthritis_risk":0,"migraine_risk":4,"frizz_risk":1,"updated_at":"2026-07-09T05:43:03.753054+05:30"},{"city":"Haridwar","state":"Uttarakhand","latitude":29.9457,"longitude":78.1642,"temp":26.1,"humidity":97,"rain":0.6,"pressure":965.2,"uv_index":2.25,"wind_gusts":22.0,"aqi":71,"pm10":28.8,"pm2_5":28.7,"no2":23.2,"co":284.0,"o3":35.0,"so2":1.4,"mosquito_risk":10,"arthritis_risk":5,"migraine_risk":3,"frizz_risk":1,"updated_at":"2026-07-09T05:43:03.753066+05:30"},{"city":"Rishikesh","state":"Uttarakhand","latitude":30.0869,"longitude":78.2676,"temp":25.8,"humidity":91,"rain":0.6,"pressure":957.9,"uv_index":3.0,"wind_gusts":14.0,"aqi":44,"pm10":14.4,"pm2_5":14.4,"no2":11.5,"co":207.0,"o3":65.0,"so2":0.8,"mosquito_risk":10,"arthritis_risk":5,"migraine_risk":3,"frizz_risk":1,"updated_at":"2026-07-09T05:43:03.753079+05:30"},{"city":"Nainital","state":"Uttarakhand","latitude":29.3919,"longitude":79.4542,"temp":16.9,"humidity":100,"rain":0.4,"pressure":799.8,"uv_index":7.7,"wind_gusts":52.2,"aqi":50,"pm10":5.9,"pm2_5":5.7,"no2":4.2,"co":196.0,"o3":96.0,"so2":1.6,"mosquito_risk":6,"arthritis_risk":10,"migraine_risk":7,"frizz_risk":1,"updated_at":"2026-07-09T05:43:03.753090+05:30"},{"city":"Mussoorie","state":"Uttarakhand","latitude":30.4599,"longitude":78.0664,"temp":16.6,"humidity":99,"rain":0.2,"pressure":797.0,"uv_index":2.1,"wind_gusts":33.1,"aqi":70,"pm10":37.0,"pm2_5":36.9,"no2":28.9,"co":270.0,"o3":36.0,"so2":4.1,"mosquito_risk":6,"arthritis_risk":10,"migraine_risk":3,"frizz_risk":1,"updated_at":"2026-07-09T05:43:03.753100+05:30"},{"city":"Dharamshala","state":"Himachal Pradesh","latitude":32.219,"longitude":76.3234,"temp":21.7,"humidity":91,"rain":0.0,"pressure":863.3,"uv_index":7.15,"wind_gusts":36.4,"aqi":45,"pm10":9.4,"pm2_5":8.5,"no2":13.8,"co":444.0,"o3":15.0,"so2":0.2,"mosquito_risk":3,"arthritis_risk":5,"migraine_risk":7,"frizz_risk":1,"updated_at":"2026-07-09T05:43:03.753111+05:30"},{"city":"Dalhousie","state":"Himachal Pradesh","latitude":32.5387,"longitude":75.971,"temp":16.7,"humidity":90,"rain":0.0,"pressure":798.7,"uv_index":7.95,"wind_gusts":29.9,"aqi":103,"pm10":39.2,"pm2_5":37.0,"no2":36.0,"co":489.0,"o3":21.0,"so2":2.5,"mosquito_risk":3,"arthritis_risk":10,"migraine_risk":7,"frizz_risk":0,"updated_at":"2026-07-09T05:43:03.753122+05:30"},{"city":"Patiala","state":"Punjab","latitude":30.3398,"longitude":76.3869,"temp":27.1,"humidity":93,"rain":0.0,"pressure":969.6,"uv_index":2.3,"wind_gusts":23.4,"aqi":149,"pm10":93.8,"pm2_5":92.0,"no2":51.3,"co":564.0,"o3":7.0,"so2":13.7,"mosquito_risk":7,"arthritis_risk":5,"migraine_risk":3,"frizz_risk":1,"updated_at":"2026-07-09T05:43:03.753132+05:30"},{"city":"Bhatinda","state":"Punjab","latitude":30.211,"longitude":74.9455,"temp":28.8,"humidity":86,"rain":0.0,"pressure":975.1,"uv_index":5.4,"wind_gusts":43.6,"aqi":351,"pm10":153.2,"pm2_5":54.7,"no2":27.3,"co":451.0,"o3":45.0,"so2":11.0,"mosquito_risk":7,"arthritis_risk":5,"migraine_risk":3,"frizz_risk":1,"updated_at":"2026-07-09T05:43:03.753142+05:30"},{"city":"Rohtak","state":"Haryana","latitude":28.8955,"longitude":76.6066,"temp":26.2,"humidity":95,"rain":0.1,"pressure":972.2,"uv_index":4.95,"wind_gusts":33.8,"aqi":93,"pm10":19.1,"pm2_5":19.0,"no2":16.7,"co":277.0,"o3":68.0,"so2":6.0,"mosquito_risk":10,"arthritis_risk":5,"migraine_risk":3,"frizz_risk":1,"updated_at":"2026-07-09T05:43:03.753152+05:30"},{"city":"Panipat","state":"Haryana","latitude":29.3909,"longitude":76.9635,"temp":26.2,"humidity":94,"rain":0.3,"pressure":970.9,"uv_index":1.35,"wind_gusts":28.1,"aqi":90,"pm10":27.1,"pm2_5":26.9,"no2":21.9,"co":260.0,"o3":55.0,"so2":7.2,"mosquito_risk":10,"arthritis_risk":5,"migraine_risk":3,"frizz_risk":1,"updated_at":"2026-07-09T05:43:03.753162+05:30"},{"city":"Mathura","state":"Uttar Pradesh","latitude":27.4924,"longitude":77.6737,"temp":26.0,"humidity":98,"rain":0.1,"pressure":974.4,"uv_index":6.5,"wind_gusts":42.8,"aqi":73,"pm10":15.8,"pm2_5":15.8,"no2":18.7,"co":271.0,"o3":58.0,"so2":8.9,"mosquito_risk":10,"arthritis_risk":5,"migraine_risk":7,"frizz_risk":1,"updated_at":"2026-07-09T05:43:03.753172+05:30"},{"city":"Vrindavan","state":"Uttar Pradesh","latitude":27.5823,"longitude":77.7027,"temp":25.9,"humidity":97,"rain":0.2,"pressure":975.0,"uv_index":6.25,"wind_gusts":40.3,"aqi":73,"pm10":15.8,"pm2_5":15.8,"no2":18.7,"co":268.0,"o3":58.0,"so2":8.9,"mosquito_risk":10,"arthritis_risk":5,"migraine_risk":7,"frizz_risk":1,"updated_at":"2026-07-09T05:43:03.753181+05:30"},{"city":"Ayodhya","state":"Uttar Pradesh","latitude":26.7922,"longitude":82.1998,"temp":26.2,"humidity":97,"rain":0.0,"pressure":988.1,"uv_index":8.15,"wind_gusts":32.0,"aqi":79,"pm10":35.9,"pm2_5":34.8,"no2":16.4,"co":268.0,"o3":52.0,"so2":11.5,"mosquito_risk":7,"arthritis_risk":5,"migraine_risk":7,"frizz_risk":1,"updated_at":"2026-07-09T05:43:03.753191+05:30"},{"city":"Ratlam","state":"Madhya Pradesh","latitude":23.3315,"longitude":75.0367,"temp":24.8,"humidity":97,"rain":0.3,"pressure":947.9,"uv_index":8.5,"wind_gusts":49.7,"aqi":62,"pm10":20.6,"pm2_5":14.2,"no2":12.0,"co":162.0,"o3":28.0,"so2":13.7,"mosquito_risk":6,"arthritis_risk":5,"migraine_risk":7,"frizz_risk":1,"updated_at":"2026-07-09T05:43:03.753200+05:30"},{"city":"Sagar","state":"Madhya Pradesh","latitude":23.8388,"longitude":78.7378,"temp":24.3,"humidity":93,"rain":0.0,"pressure":942.4,"uv_index":5.05,"wind_gusts":51.1,"aqi":52,"pm10":22.6,"pm2_5":15.4,"no2":6.0,"co":175.0,"o3":63.0,"so2":4.9,"mosquito_risk":3,"arthritis_risk":5,"migraine_risk":3,"frizz_risk":1,"updated_at":"2026-07-09T05:43:03.753209+05:30"},{"city":"Satna","state":"Madhya Pradesh","latitude":24.6005,"longitude":80.8322,"temp":26.0,"humidity":89,"rain":0.0,"pressure":963.5,"uv_index":7.65,"wind_gusts":47.9,"aqi":54,"pm10":13.2,"pm2_5":10.6,"no2":5.7,"co":219.0,"o3":71.0,"so2":3.7,"mosquito_risk":7,"arthritis_risk":5,"migraine_risk":7,"frizz_risk":1,"updated_at":"2026-07-09T05:43:03.753219+05:30"},{"city":"Akola","state":"Maharashtra","latitude":20.7002,"longitude":77.0082,"temp":26.1,"humidity":82,"rain":0.0,"pressure":970.0,"uv_index":6.6,"wind_gusts":52.6,"aqi":40,"pm10":13.9,"pm2_5":7.3,"no2":9.4,"co":124.0,"o3":30.0,"so2":6.9,"mosquito_risk":7,"arthritis_risk":5,"migraine_risk":7,"frizz_risk":1,"updated_at":"2026-07-09T05:43:03.753229+05:30"},{"city":"Amravati","state":"Maharashtra","latitude":20.9374,"longitude":77.7796,"temp":25.5,"humidity":85,"rain":0.0,"pressure":962.1,"uv_index":7.05,"wind_gusts":49.7,"aqi":40,"pm10":12.4,"pm2_5":7.7,"no2":10.3,"co":154.0,"o3":32.0,"so2":7.3,"mosquito_risk":7,"arthritis_risk":5,"migraine_risk":7,"frizz_risk":1,"updated_at":"2026-07-09T05:43:03.753240+05:30"},{"city":"Latur","state":"Maharashtra","latitude":18.4088,"longitude":76.5604,"temp":23.9,"humidity":88,"rain":0.0,"pressure":935.9,"uv_index":5.7,"wind_gusts":45.7,"aqi":26,"pm10":12.8,"pm2_5":6.4,"no2":5.8,"co":144.0,"o3":29.0,"so2":4.0,"mosquito_risk":3,"arthritis_risk":5,"migraine_risk":3,"frizz_risk":1,"updated_at":"2026-07-09T05:43:03.753251+05:30"},{"city":"Nanded","state":"Maharashtra","latitude":19.1383,"longitude":77.3091,"temp":25.2,"humidity":85,"rain":0.0,"pressure":964.5,"uv_index":5.85,"wind_gusts":42.8,"aqi":34,"pm10":13.2,"pm2_5":7.5,"no2":10.2,"co":136.0,"o3":28.0,"so2":6.3,"mosquito_risk":7,"arthritis_risk":5,"migraine_risk":3,"frizz_risk":1,"updated_at":"2026-07-09T05:43:03.753261+05:30"},{"city":"Gulbarga","state":"Karnataka","latitude":17.3297,"longitude":76.8343,"temp":24.5,"humidity":84,"rain":0.0,"pressure":955.8,"uv_index":5.25,"wind_gusts":51.1,"aqi":22,"pm10":3.0,"pm2_5":2.4,"no2":5.6,"co":113.0,"o3":31.0,"so2":3.0,"mosquito_risk":3,"arthritis_risk":5,"migraine_risk":3,"frizz_risk":1,"updated_at":"2026-07-09T05:43:03.753271+05:30"},{"city":"Bidar","state":"Karnataka","latitude":17.9104,"longitude":77.5199,"temp":23.2,"humidity":94,"rain":0.0,"pressure":931.9,"uv_index":4.45,"wind_gusts":45.4,"aqi":29,"pm10":8.9,"pm2_5":5.5,"no2":7.1,"co":125.0,"o3":33.0,"so2":3.6,"mosquito_risk":3,"arthritis_risk":5,"migraine_risk":3,"frizz_risk":1,"updated_at":"2026-07-09T05:43:03.753281+05:30"},{"city":"Hospet","state":"Karnataka","latitude":15.2689,"longitude":76.3909,"temp":23.8,"humidity":86,"rain":0.0,"pressure":954.3,"uv_index":7.5,"wind_gusts":52.9,"aqi":18,"pm10":2.5,"pm2_5":2.0,"no2":3.3,"co":91.0,"o3":36.0,"so2":1.5,"mosquito_risk":3,"arthritis_risk":5,"migraine_risk":7,"frizz_risk":1,"updated_at":"2026-07-09T05:43:03.753291+05:30"},{"city":"Tirupur","state":"Tamil Nadu","latitude":11.1085,"longitude":77.3411,"temp":23.2,"humidity":90,"rain":0.0,"pressure":975.3,"uv_index":8.4,"wind_gusts":61.2,"aqi":45,"pm10":19.0,"pm2_5":15.7,"no2":17.3,"co":147.0,"o3":17.0,"so2":5.0,"mosquito_risk":3,"arthritis_risk":5,"migraine_risk":7,"frizz_risk":1,"updated_at":"2026-07-09T05:43:03.753300+05:30"},{"city":"Alappuzha","state":"Kerala","latitude":9.4981,"longitude":76.3388,"temp":24.9,"humidity":98,"rain":0.0,"pressure":1009.9,"uv_index":8.5,"wind_gusts":36.7,"aqi":52,"pm10":15.4,"pm2_5":9.8,"no2":7.3,"co":104.0,"o3":29.0,"so2":4.3,"mosquito_risk":3,"arthritis_risk":0,"migraine_risk":4,"frizz_risk":1,"updated_at":"2026-07-09T05:43:03.753310+05:30"},{"city":"Munnar","state":"Kerala","latitude":10.0889,"longitude":77.0595,"temp":16.0,"humidity":99,"rain":0.1,"pressure":856.9,"uv_index":8.3,"wind_gusts":38.9,"aqi":19,"pm10":5.8,"pm2_5":3.8,"no2":4.2,"co":82.0,"o3":21.0,"so2":0.8,"mosquito_risk":6,"arthritis_risk":10,"migraine_risk":7,"frizz_risk":0,"updated_at":"2026-07-09T05:43:03.753321+05:30"},{"city":"Silchar","state":"Assam","latitude":24.8333,"longitude":92.7789,"temp":26.2,"humidity":94,"rain":0.0,"pressure":1001.4,"uv_index":0.45,"wind_gusts":27.7,"aqi":32,"pm10":6.2,"pm2_5":5.7,"no2":6.1,"co":215.0,"o3":51.0,"so2":2.6,"mosquito_risk":7,"arthritis_risk":5,"migraine_risk":0,"frizz_risk":1,"updated_at":"2026-07-09T05:43:03.753331+05:30"},{"city":"Dibrugarh","state":"Assam","latitude":27.4728,"longitude":94.912,"temp":26.0,"humidity":97,"rain":0.0,"pressure":991.1,"uv_index":5.95,"wind_gusts":32.8,"aqi":53,"pm10":14.7,"pm2_5":14.1,"no2":8.2,"co":195.0,"o3":59.0,"so2":1.6,"mosquito_risk":7,"arthritis_risk":5,"migraine_risk":3,"frizz_risk":1,"updated_at":"2026-07-09T05:43:03.753341+05:30"}]