[{"city":"Delhi","state":"Delhi","latitude":28.6139,"longitude":77.209,"temp":29.0,"humidity":37,"rain":0.0,"pressure":982.1,"uv_index":6.85,"wind_gusts":40.7,"aqi":153,"pm10":165.3,"pm2_5":32.1,"mosquito_risk":4,"arthritis_risk":5,"migraine_risk":7,"frizz_risk":0,"updated_at":"2026-04-05T14:19:41.586827+05:30"},{"city":"Mumbai","state":"Maharashtra","latitude":19.076,"longitude":72.8777,"temp":27.9,"humidity":67,"rain":0.0,"pressure":1009.0,"uv_index":7.9,"wind_gusts":23.8,"aqi":69,"pm10":42.4,"pm2_5":21.9,"mosquito_risk":7,"arthritis_risk":0,"migraine_risk":4,"frizz_risk":1,"updated_at":"2026-04-05T14:19:41.586875+05:30"},{"city":"Bangalore","state":"Karnataka","latitude":12.9716,"longitude":77.5946,"temp":30.5,"humidity":48,"rain":0.0,"pressure":911.5,"uv_index":9.65,"wind_gusts":32.4,"aqi":110,"pm10":36.0,"pm2_5":30.3,"mosquito_risk":0,"arthritis_risk":5,"migraine_risk":7,"frizz_risk":1,"updated_at":"2026-04-05T14:19:41.586890+05:30"},{"city":"Hyderabad","state":"Telangana","latitude":17.385,"longitude":78.4867,"temp":35.6,"humidity":31,"rain":0.0,"pressure":952.0,"uv_index":9.1,"wind_gusts":27.4,"aqi":130,"pm10":42.3,"pm2_5":35.0,"mosquito_risk":0,"arthritis_risk":5,"migraine_risk":10,"frizz_risk":0,"updated_at":"2026-04-05T14:19:41.586900+05:30"},{"city":"Chennai","state":"Tamil Nadu","latitude":13.0827,"longitude":80.2707,"temp":36.1,"humidity":48,"rain":0.0,"pressure":1004.7,"uv_index":9.3,"wind_gusts":31.7,"aqi":58,"pm10":27.2,"pm2_5":22.1,"mosquito_risk":0,"arthritis_risk":5,"migraine_risk":7,"frizz_risk":1,"updated_at":"2026-04-05T14:19:41.586910+05:30"},{"city":"Kolkata","state":"West Bengal","latitude":22.5726,"longitude":88.3639,"temp":34.3,"humidity":44,"rain":0.0,"pressure":1003.3,"uv_index":8.6,"wind_gusts":29.2,"aqi":141,"pm10":54.5,"pm2_5":35.2,"mosquito_risk":0,"arthritis_risk":5,"migraine_risk":4,"frizz_risk":1,"updated_at":"2026-04-05T14:19:41.586917+05:30"},{"city":"Pune","state":"Maharashtra","latitude":18.5204,"longitude":73.8567,"temp":32.9,"humidity":36,"rain":0.0,"pressure":948.7,"uv_index":8.5,"wind_gusts":40.7,"aqi":79,"pm10":49.4,"pm2_5":21.8,"mosquito_risk":0,"arthritis_risk":5,"migraine_risk":7,"frizz_risk":0,"updated_at":"2026-04-05T14:19:41.586926+05:30"},{"city":"Ahmedabad","state":"Gujarat","latitude":23.0225,"longitude":72.5714,"temp":34.7,"humidity":21,"rain":0.0,"pressure":1002.0,"uv_index":7.9,"wind_gusts":25.6,"aqi":55,"pm10":38.4,"pm2_5":11.5,"mosquito_risk":0,"arthritis_risk":5,"migraine_risk":4,"frizz_risk":0,"updated_at":"2026-04-05T14:19:41.586933+05:30"},{"city":"Jaipur","state":"Rajasthan","latitude":26.9124,"longitude":75.7873,"temp":30.7,"humidity":22,"rain":0.0,"pressure":959.1,"uv_index":7.55,"wind_gusts":37.8,"aqi":80,"pm10":156.5,"pm2_5":21.0,"mosquito_risk":0,"arthritis_risk":5,"migraine_risk":7,"frizz_risk":0,"updated_at":"2026-04-05T14:19:41.586939+05:30"},{"city":"Lucknow","state":"Uttar Pradesh","latitude":26.8467,"longitude":80.9462,"temp":29.6,"humidity":48,"rain":0.0,"pressure":992.1,"uv_index":7.4,"wind_gusts":46.8,"aqi":117,"pm10":75.9,"pm2_5":19.9,"mosquito_risk":4,"arthritis_risk":5,"migraine_risk":7,"frizz_risk":1,"updated_at":"2026-04-05T14:19:41.586945+05:30"},{"city":"Kanpur","state":"Uttar Pradesh","latitude":26.4499,"longitude":80.3319,"temp":30.0,"humidity":48,"rain":0.0,"pressure":990.4,"uv_index":7.45,"wind_gusts":40.7,"aqi":137,"pm10":236.1,"pm2_5":33.9,"mosquito_risk":4,"arthritis_risk":5,"migraine_risk":7,"frizz_risk":1,"updated_at":"2026-04-05T14:19:41.586951+05:30"},{"city":"Chandigarh","state":"Chandigarh","latitude":30.7333,"longitude":76.7794,"temp":29.8,"humidity":28,"rain":0.0,"pressure":967.7,"uv_index":6.85,"wind_gusts":31.7,"aqi":76,"pm10":61.0,"pm2_5":15.9,"mosquito_risk":4,"arthritis_risk":5,"migraine_risk":7,"frizz_risk":0,"updated_at":"2026-04-05T14:19:41.586957+05:30"},{"city":"Srinagar","state":"Jammu and Kashmir","latitude":34.0837,"longitude":74.7973,"temp":16.1,"humidity":57,"rain":0.0,"pressure":840.2,"uv_index":7.1,"wind_gusts":19.1,"aqi":61,"pm10":26.2,"pm2_5":9.1,"mosquito_risk":0,"arthritis_risk":5,"migraine_risk":7,"frizz_risk":0,"updated_at":"2026-04-05T14:19:41.586963+05:30"},{"city":"Jammu","state":"Jammu and Kashmir","latitude":32.7266,"longitude":74.857,"temp":28.9,"humidity":35,"rain":0.0,"pressure":972.6,"uv_index":7.5,"wind_gusts":28.4,"aqi":65,"pm10":49.4,"pm2_5":13.7,"mosquito_risk":4,"arthritis_risk":5,"migraine_risk":7,"frizz_risk":0,"updated_at":"2026-04-05T14:19:41.586969+05:30"},{"city":"Amritsar","state":"Punjab","latitude":31.634,"longitude":74.8723,"temp":28.6,"humidity":34,"rain":0.0,"pressure":980.8,"uv_index":7.45,"wind_gusts":26.3,"aqi":98,"pm10":70.3,"pm2_5":21.8,"mosquito_risk":4,"arthritis_risk":5,"migraine_risk":7,"frizz_risk":0,"updated_at":"2026-04-05T14:19:41.586974+05:30"},{"city":"Ludhiana","state":"Punjab","latitude":30.901,"longitude":75.8573,"temp":28.9,"humidity":34,"rain":0.0,"pressure":978.6,"uv_index":7.05,"wind_gusts":31.0,"aqi":92,"pm10":83.6,"pm2_5":20.3,"mosquito_risk":4,"arthritis_risk":5,"migraine_risk":7,"frizz_risk":0,"updated_at":"2026-04-05T14:19:41.586979+05:30"},{"city":"Jalandhar","state":"Punjab","latitude":31.326,"longitude":75.5762,"temp":28.9,"humidity":34,"rain":0.0,"pressure":979.7,"uv_index":7.25,"wind_gusts":24.8,"aqi":86,"pm10":73.3,"pm2_5":18.3,"mosquito_risk":4,"arthritis_risk":5,"migraine_risk":7,"frizz_risk":0,"updated_at":"2026-04-05T14:19:41.586986+05:30"},{"city":"Dehradun","state":"Uttarakhand","latitude":30.6284,"longitude":78.0322,"temp":17.7,"humidity":62,"rain":0.0,"pressure":829.1,"uv_index":6.65,"wind_gusts":39.2,"aqi":49,"pm10":17.7,"pm2_5":6.1,"mosquito_risk":3,"arthritis_risk":5,"migraine_risk":7,"frizz_risk":0,"updated_at":"2026-04-05T14:19:41.586992+05:30"},{"city":"Shimla","state":"Himachal Pradesh","latitude":31.1048,"longitude":77.1734,"temp":15.1,"humidity":66,"rain":0.0,"pressure":783.5,"uv_index":5.35,"wind_gusts":32.0,"aqi":50,"pm10":29.4,"pm2_5":8.3,"mosquito_risk":3,"arthritis_risk":5,"migraine_risk":3,"frizz_risk":0,"updated_at":"2026-04-05T14:19:41.586998+05:30"},{"city":"Manali","state":"Himachal Pradesh","latitude":32.2396,"longitude":77.1887,"temp":18.0,"humidity":54,"rain":0.0,"pressure":817.8,"uv_index":9.4,"wind_gusts":27.4,"aqi":57,"pm10":11.0,"pm2_5":4.3,"mosquito_risk":0,"arthritis_risk":5,"migraine_risk":7,"frizz_risk":0,"updated_at":"2026-04-05T14:19:41.587004+05:30"},{"city":"Gurgaon","state":"Haryana","latitude":28.4595,"longitude":77.0266,"temp":28.0,"humidity":45,"rain":0.0,"pressure":981.2,"uv_index":6.65,"wind_gusts":35.6,"aqi":188,"pm10":489.9,"pm2_5":65.2,"mosquito_risk":4,"arthritis_risk":5,"migraine_risk":7,"frizz_risk":0,"updated_at":"2026-04-05T14:19:41.587009+05:30"},{"city":"Noida","state":"Uttar Pradesh","latitude":28.5355,"longitude":77.391,"temp":29.5,"humidity":37,"rain":0.0,"pressure":983.7,"uv_index":6.9,"wind_gusts":39.2,"aqi":188,"pm10":489.9,"pm2_5":65.2,"mosquito_risk":4,"arthritis_risk":5,"migraine_risk":7,"frizz_risk":0,"updated_at":"2026-04-05T14:19:41.587014+05:30"},{"city":"Ghaziabad","state":"Uttar Pradesh","latitude":28.6692,"longitude":77.4538,"temp":30.0,"humidity":36,"rain":0.0,"pressure":981.8,"uv_index":6.05,"wind_gusts":42.1,"aqi":149,"pm10":121.1,"pm2_5":26.1,"mosquito_risk":4,"arthritis_risk":5,"migraine_risk":7,"frizz_risk":0,"updated_at":"2026-04-05T14:19:41.587019+05:30"},{"city":"Faridabad","state":"Haryana","latitude":28.4089,"longitude":77.3178,"temp":28.5,"humidity":42,"rain":0.0,"pressure":983.2,"uv_index":6.2,"wind_gusts":36.4,"aqi":188,"pm10":489.9,"pm2_5":65.2,"mosquito_risk":4,"arthritis_risk":5,"migraine_risk":7,"frizz_risk":0,"updated_at":"2026-04-05T14:19:41.587025+05:30"},{"city":"Meerut","state":"Uttar Pradesh","latitude":28.9845,"longitude":77.7064,"temp":31.0,"humidity":30,"rain":0.0,"pressure":980.2,"uv_index":6.5,"wind_gusts":34.6,"aqi":149,"pm10":121.1,"pm2_5":26.1,"mosquito_risk":0,"arthritis_risk":5,"migraine_risk":7,"frizz_risk":0,"updated_at":"2026-04-05T14:19:41.587030+05:30"},{"city":"Agra","state":"Uttar Pradesh","latitude":27.1767,"longitude":78.0081,"temp":30.3,"humidity":44,"rain":0.0,"pressure":987.1,"uv_index":7.3,"wind_gusts":32.4,"aqi":311,"pm10":294.3,"pm2_5":41.7,"mosquito_risk":0,"arthritis_risk":5,"migraine_risk":7,"frizz_risk":1,"updated_at":"2026-04-05T14:19:41.587036+05:30"},{"city":"Varanasi","state":"Uttar Pradesh","latitude":25.3176,"longitude":82.9739,"temp":32.1,"humidity":47,"rain":0.0,"pressure":995.4,"uv_index":8.1,"wind_gusts":35.6,"aqi":84,"pm10":36.6,"pm2_5":19.4,"mosquito_risk":0,"arthritis_risk":5,"migraine_risk":7,"frizz_risk":1,"updated_at":"2026-04-05T14:19:41.587044+05:30"},{"city":"Prayagraj","state":"Uttar Pradesh","latitude":25.4358,"longitude":81.8463,"temp":31.5,"humidity":47,"rain":0.0,"pressure":994.4,"uv_index":7.95,"wind_gusts":32.4,"aqi":87,"pm10":37.8,"pm2_5":17.5,"mosquito_risk":0,"arthritis_risk":5,"migraine_risk":7,"frizz_risk":1,"updated_at":"2026-04-05T14:19:41.587049+05:30"},{"city":"Gorakhpur","state":"Uttar Pradesh","latitude":26.7606,"longitude":83.3732,"temp":33.8,"humidity":25,"rain":0.0,"pressure":994.9,"uv_index":7.85,"wind_gusts":45.4,"aqi":99,"pm10":57.5,"pm2_5":18.3,"mosquito_risk":0,"arthritis_risk":5,"migraine_risk":7,"frizz_risk":0,"updated_at":"2026-04-05T14:19:41.587054+05:30"},{"city":"Bareilly","state":"Uttar Pradesh","latitude":28.367,"longitude":79.4304,"temp":28.8,"humidity":47,"rain":0.0,"pressure":985.8,"uv_index":7.2,"wind_gusts":35.3,"aqi":81,"pm10":34.6,"pm2_5":13.5,"mosquito_risk":4,"arthritis_risk":5,"migraine_risk":7,"frizz_risk":1,"updated_at":"2026-04-05T14:19:41.587060+05:30"},{"city":"Aligarh","state":"Uttar Pradesh","latitude":27.8974,"longitude":78.088,"temp":24.1,"humidity":67,"rain":0.0,"pressure":985.3,"uv_index":7.1,"wind_gusts":45.0,"aqi":186,"pm10":199.3,"pm2_5":40.3,"mosquito_risk":3,"arthritis_risk":5,"migraine_risk":7,"frizz_risk":1,"updated_at":"2026-04-05T14:19:41.587067+05:30"},{"city":"Moradabad","state":"Uttar Pradesh","latitude":28.8386,"longitude":78.7733,"temp":29.8,"humidity":39,"rain":0.0,"pressure":982.3,"uv_index":7.0,"wind_gusts":26.3,"aqi":91,"pm10":43.0,"pm2_5":12.5,"mosquito_risk":4,"arthritis_risk":5,"migraine_risk":7,"frizz_risk":0,"updated_at":"2026-04-05T14:19:41.587072+05:30"},{"city":"Saharanpur","state":"Uttar Pradesh","latitude":29.9637,"longitude":77.546,"temp":31.4,"humidity":24,"rain":0.0,"pressure":973.8,"uv_index":6.6,"wind_gusts":30.6,"aqi":90,"pm10":61.9,"pm2_5":16.5,"mosquito_risk":0,"arthritis_risk":5,"migraine_risk":7,"frizz_risk":0,"updated_at":"2026-04-05T14:19:41.587077+05:30"},{"city":"Jhansi","state":"Uttar Pradesh","latitude":25.4484,"longitude":78.5685,"temp":33.3,"humidity":24,"rain":0.0,"pressure":976.1,"uv_index":7.85,"wind_gusts":28.4,"aqi":59,"pm10":24.2,"pm2_5":11.8,"mosquito_risk":0,"arthritis_risk":5,"migraine_risk":7,"frizz_risk":0,"updated_at":"2026-04-05T14:19:44.882747+05:30"},{"city":"Surat","state":"Gujarat","latitude":21.1702,"longitude":72.8311,"temp":29.9,"humidity":47,"rain":0.0,"pressure":1007.6,"uv_index":7.65,"wind_gusts":27.7,"aqi":79,"pm10":42.3,"pm2_5":33.5,"mosquito_risk":4,"arthritis_risk":5,"migraine_risk":4,"frizz_risk":1,"updated_at":"2026-04-05T14:19:44.882778+05:30"},{"city":"Vadodara","state":"Gujarat","latitude":22.3072,"longitude":73.1812,"temp":34.0,"humidity":29,"rain":0.0,"pressure":1004.3,"uv_index":7.9,"wind_gusts":20.5,"aqi":77,"pm10":28.1,"pm2_5":12.2,"mosquito_risk":0,"arthritis_risk":5,"migraine_risk":4,"frizz_risk":0,"updated_at":"2026-04-05T14:19:44.882787+05:30"},{"city":"Rajkot","state":"Gujarat","latitude":22.3039,"longitude":70.8022,"temp":33.3,"humidity":28,"rain":0.0,"pressure":994.7,"uv_index":7.65,"wind_gusts":33.5,"aqi":47,"pm10":31.9,"pm2_5":9.6,"mosquito_risk":0,"arthritis_risk":5,"migraine_risk":7,"frizz_risk":0,"updated_at":"2026-04-05T14:19:44.882796+05:30"},{"city":"Thane","state":"Maharashtra","latitude":19.2183,"longitude":72.9781,"temp":30.7,"humidity":51,"rain":0.0,"pressure":1008.5,"uv_index":7.9,"wind_gusts":34.6,"aqi":69,"pm10":42.4,"pm2_5":21.9,"mosquito_risk":0,"arthritis_risk":0,"migraine_risk":4,"frizz_risk":1,"updated_at":"2026-04-05T14:19:44.882804+05:30"},{"city":"Nagpur","state":"Maharashtra","latitude":21.1458,"longitude":79.0882,"temp":34.6,"humidity":30,"rain":0.0,"pressure":971.7,"uv_index":8.7,"wind_gusts":31.3,"aqi":98,"pm10":38.2,"pm2_5":27.8,"mosquito_risk":0,"arthritis_risk":5,"migraine_risk":7,"frizz_risk":0,"updated_at":"2026-04-05T14:19:44.882811+05:30"},{"city":"Nashik","state":"Maharashtra","latitude":19.9975,"longitude":73.7898,"temp":29.8,"humidity":41,"rain":0.0,"pressure":945.6,"uv_index":8.15,"wind_gusts":36.4,"aqi":53,"pm10":43.9,"pm2_5":14.6,"mosquito_risk":4,"arthritis_risk":5,"migraine_risk":7,"frizz_risk":0,"updated_at":"2026-04-05T14:19:44.882818+05:30"},{"city":"Aurangabad","state":"Maharashtra","latitude":19.8762,"longitude":75.3433,"temp":33.7,"humidity":27,"rain":0.0,"pressure":943.4,"uv_index":8.85,"wind_gusts":40.0,"aqi":58,"pm10":47.5,"pm2_5":15.5,"mosquito_risk":0,"arthritis_risk":5,"migraine_risk":7,"frizz_risk":0,"updated_at":"2026-04-05T14:19:44.882826+05:30"},{"city":"Solapur","state":"Maharashtra","latitude":17.6599,"longitude":75.9064,"temp":35.9,"humidity":23,"rain":0.0,"pressure":956.4,"uv_index":8.6,"wind_gusts":29.9,"aqi":79,"pm10":24.7,"pm2_5":13.3,"mosquito_risk":0,"arthritis_risk":5,"migraine_risk":10,"frizz_risk":0,"updated_at":"2026-04-05T14:19:44.882833+05:30"},{"city":"Kolhapur","state":"Maharashtra","latitude":16.705,"longitude":74.2433,"temp":32.1,"humidity":35,"rain":0.0,"pressure":948.2,"uv_index":9.05,"wind_gusts":44.6,"aqi":71,"pm10":34.2,"pm2_5":17.5,"mosquito_risk":0,"arthritis_risk":5,"migraine_risk":7,"frizz_risk":0,"updated_at":"2026-04-05T14:19:44.882840+05:30"},{"city":"Goa","state":"Goa","latitude":15.2993,"longitude":74.124,"temp":32.1,"humidity":56,"rain":0.0,"pressure":998.1,"uv_index":9.05,"wind_gusts":37.4,"aqi":63,"pm10":36.7,"pm2_5":15.6,"mosquito_risk":0,"arthritis_risk":5,"migraine_risk":7,"frizz_risk":1,"updated_at":"2026-04-05T14:19:44.882847+05:30"},{"city":"Jodhpur","state":"Rajasthan","latitude":26.2389,"longitude":73.0243,"temp":32.0,"humidity":23,"rain":0.0,"pressure":983.3,"uv_index":7.6,"wind_gusts":26.3,"aqi":77,"pm10":75.9,"pm2_5":12.3,"mosquito_risk":0,"arthritis_risk":5,"migraine_risk":7,"frizz_risk":0,"updated_at":"2026-04-05T14:19:44.882853+05:30"},{"city":"Udaipur","state":"Rajasthan","latitude":24.5854,"longitude":73.7125,"temp":29.0,"humidity":26,"rain":0.0,"pressure":947.0,"uv_index":8.3,"wind_gusts":35.3,"aqi":48,"pm10":43.8,"pm2_5":8.7,"mosquito_risk":4,"arthritis_risk":5,"migraine_risk":7,"frizz_risk":0,"updated_at":"2026-04-05T14:19:44.882860+05:30"},{"city":"Kota","state":"Rajasthan","latitude":25.2138,"longitude":75.8648,"temp":33.5,"humidity":18,"rain":0.0,"pressure":977.7,"uv_index":7.6,"wind_gusts":29.9,"aqi":62,"pm10":58.6,"pm2_5":13.1,"mosquito_risk":0,"arthritis_risk":5,"migraine_risk":7,"frizz_risk":0,"updated_at":"2026-04-05T14:19:44.882867+05:30"},{"city":"Bikaner","state":"Rajasthan","latitude":28.0229,"longitude":73.3119,"temp":31.1,"humidity":26,"rain":0.0,"pressure":982.5,"uv_index":7.6,"wind_gusts":27.4,"aqi":50,"pm10":20.6,"pm2_5":10.0,"mosquito_risk":0,"arthritis_risk":5,"migraine_risk":7,"frizz_risk":0,"updated_at":"2026-04-05T14:19:44.882874+05:30"},{"city":"Ajmer","state":"Rajasthan","latitude":26.4499,"longitude":74.6399,"temp":30.1,"humidity":25,"rain":0.0,"pressure":954.4,"uv_index":7.75,"wind_gusts":30.6,"aqi":51,"pm10":61.2,"pm2_5":12.3,"mosquito_risk":0,"arthritis_risk":5,"migraine_risk":7,"frizz_risk":0,"updated_at":"2026-04-05T14:19:44.882880+05:30"},{"city":"Gwalior","state":"Madhya Pradesh","latitude":26.2183,"longitude":78.1828,"temp":32.7,"humidity":27,"rain":0.0,"pressure":981.4,"uv_index":7.6,"wind_gusts":50.8,"aqi":65,"pm10":39.3,"pm2_5":13.6,"mosquito_risk":0,"arthritis_risk":5,"migraine_risk":7,"frizz_risk":0,"updated_at":"2026-04-05T14:19:44.882887+05:30"},{"city":"Indore","state":"Madhya Pradesh","latitude":22.7196,"longitude":75.8577,"temp":30.7,"humidity":26,"rain":0.0,"pressure":947.7,"uv_index":8.3,"wind_gusts":29.5,"aqi":63,"pm10":16.2,"pm2_5":9.3,"mosquito_risk":0,"arthritis_risk":5,"migraine_risk":7,"frizz_risk":0,"updated_at":"2026-04-05T14:19:44.882894+05:30"},{"city":"Bhopal","state":"Madhya Pradesh","latitude":23.2599,"longitude":77.4126,"temp":32.4,"humidity":24,"rain":0.0,"pressure":952.9,"uv_index":8.3,"wind_gusts":34.6,"aqi":60,"pm10":17.5,"pm2_5":8.4,"mosquito_risk":0,"arthritis_risk":5,"migraine_risk":7,"frizz_risk":0,"updated_at":"2026-04-05T14:19:44.882901+05:30"},{"city":"Jabalpur","state":"Madhya Pradesh","latitude":23.1815,"longitude":79.9864,"temp":32.0,"humidity":37,"rain":0.0,"pressure":960.5,"uv_index":8.5,"wind_gusts":33.5,"aqi":76,"pm10":45.2,"pm2_5":18.9,"mosquito_risk":0,"arthritis_risk":5,"migraine_risk":7,"frizz_risk":0,"updated_at":"2026-04-05T14:19:44.882907+05:30"},{"city":"Ujjain","state":"Madhya Pradesh","latitude":23.1765,"longitude":75.7885,"temp":31.3,"humidity":22,"rain":0.0,"pressure":953.3,"uv_index":8.2,"wind_gusts":32.4,"aqi":61,"pm10":18.3,"pm2_5":7.5,"mosquito_risk":0,"arthritis_risk":5,"migraine_risk":7,"frizz_risk":0,"updated_at":"2026-04-05T14:19:44.882914+05:30"},{"city":"Visakhapatnam","state":"Andhra Pradesh","latitude":17.6868,"longitude":83.2185,"temp":32.1,"humidity":63,"rain":0.0,"pressure":1001.9,"uv_index":9.1,"wind_gusts":36.7,"aqi":74,"pm10":37.5,"pm2_5":32.1,"mosquito_risk":3,"arthritis_risk":5,"migraine_risk":4,"frizz_risk":1,"updated_at":"2026-04-05T14:19:44.882921+05:30"},{"city":"Vijayawada","state":"Andhra Pradesh","latitude":16.5062,"longitude":80.648,"temp":34.0,"humidity":55,"rain":0.0,"pressure":1000.4,"uv_index":8.45,"wind_gusts":23.8,"aqi":71,"pm10":36.0,"pm2_5":30.2,"mosquito_risk":0,"arthritis_risk":5,"migraine_risk":4,"frizz_risk":1,"updated_at":"2026-04-05T14:19:44.882928+05:30"},{"city":"Guntur","state":"Andhra Pradesh","latitude":16.3067,"longitude":80.4365,"temp":37.5,"humidity":32,"rain":0.0,"pressure":1000.7,"uv_index":8.7,"wind_gusts":33.5,"aqi":70,"pm10":37.6,"pm2_5":31.0,"mosquito_risk":0,"arthritis_risk":5,"migraine_risk":7,"frizz_risk":1,"updated_at":"2026-04-05T14:19:44.882935+05:30"},{"city":"Nellore","state":"Andhra Pradesh","latitude":14.4426,"longitude":79.9865,"temp":36.3,"humidity":43,"rain":0.0,"pressure":1003.3,"uv_index":9.3,"wind_gusts":27.7,"aqi":60,"pm10":31.0,"pm2_5":26.7,"mosquito_risk":0,"arthritis_risk":5,"migraine_risk":7,"frizz_risk":1,"updated_at":"2026-04-05T14:19:44.882942+05:30"},{"city":"Kurnool","state":"Andhra Pradesh","latitude":15.8281,"longitude":78.0373,"temp":38.4,"humidity":26,"rain":0.0,"pressure":974.5,"uv_index":9.2,"wind_gusts":33.8,"aqi":85,"pm10":46.9,"pm2_5":39.1,"mosquito_risk":0,"arthritis_risk":5,"migraine_risk":10,"frizz_risk":0,"updated_at":"2026-04-05T14:19:44.882950+05:30"},{"city":"Kakinada","state":"Andhra Pradesh","latitude":16.9891,"longitude":82.2475,"temp":32.9,"humidity":61,"rain":0.0,"pressure":1005.5,"uv_index":9.15,"wind_gusts":29.9,"aqi":54,"pm10":23.1,"pm2_5":17.2,"mosquito_risk":3,"arthritis_risk":5,"migraine_risk":4,"frizz_risk":1,"updated_at":"2026-04-05T14:19:44.882957+05:30"},{"city":"Tirupati","state":"Andhra Pradesh","latitude":13.6288,"longitude":79.4192,"temp":36.1,"humidity":40,"rain":0.0,"pressure":989.3,"uv_index":8.6,"wind_gusts":36.0,"aqi":76,"pm10":30.2,"pm2_5":25.1,"mosquito_risk":0,"arthritis_risk":5,"migraine_risk":10,"frizz_risk":1,"updated_at":"2026-04-05T14:19:44.882964+05:30"},{"city":"Warangal","state":"Telangana","latitude":17.9689,"longitude":79.5941,"temp":35.1,"humidity":43,"rain":0.0,"pressure":976.9,"uv_index":8.8,"wind_gusts":37.4,"aqi":151,"pm10":71.5,"pm2_5":58.2,"mosquito_risk":0,"arthritis_risk":5,"migraine_risk":10,"frizz_risk":1,"updated_at":"2026-04-05T14:19:44.882971+05:30"},{"city":"Nizamabad","state":"Telangana","latitude":18.6725,"longitude":78.0941,"temp":35.2,"humidity":28,"rain":0.0,"pressure":963.8,"uv_index":8.85,"wind_gusts":55.1,"aqi":117,"pm10":32.5,"pm2_5":23.0,"mosquito_risk":0,"arthritis_risk":5,"migraine_risk":10,"frizz_risk":0,"updated_at":"2026-04-05T14:19:44.882977+05:30"},{"city":"Mysore","state":"Karnataka","latitude":12.2958,"longitude":76.6396,"temp":31.9,"humidity":42,"rain":0.0,"pressure":928.0,"uv_index":9.15,"wind_gusts":33.1,"aqi":79,"pm10":32.0,"pm2_5":26.7,"mosquito_risk":0,"arthritis_risk":5,"migraine_risk":7,"frizz_risk":1,"updated_at":"2026-04-05T14:19:44.882984+05:30"},{"city":"Mangalore","state":"Karnataka","latitude":12.9141,"longitude":74.856,"temp":29.2,"humidity":76,"rain":0.0,"pressure":1006.2,"uv_index":9.15,"wind_gusts":34.2,"aqi":66,"pm10":26.3,"pm2_5":14.4,"mosquito_risk":7,"arthritis_risk":5,"migraine_risk":4,"frizz_risk":1,"updated_at":"2026-04-05T14:19:44.882990+05:30"},{"city":"Hubli-Dharwad","state":"Karnataka","latitude":15.3647,"longitude":75.124,"temp":33.7,"humidity":30,"rain":0.0,"pressure":940.7,"uv_index":9.25,"wind_gusts":37.1,"aqi":65,"pm10":21.5,"pm2_5":17.1,"mosquito_risk":0,"arthritis_risk":5,"migraine_risk":7,"frizz_risk":0,"updated_at":"2026-04-05T14:19:44.882998+05:30"},{"city":"Belgaum","state":"Karnataka","latitude":15.8497,"longitude":74.4977,"temp":31.3,"humidity":36,"rain":0.0,"pressure":926.3,"uv_index":9.3,"wind_gusts":38.5,"aqi":61,"pm10":23.4,"pm2_5":13.9,"mosquito_risk":0,"arthritis_risk":5,"migraine_risk":7,"frizz_risk":0,"updated_at":"2026-04-05T14:19:48.177883+05:30"},{"city":"Coimbatore","state":"Tamil Nadu","latitude":11.0168,"longitude":76.9558,"temp":34.0,"humidity":43,"rain":0.0,"pressure":960.6,"uv_index":9.5,"wind_gusts":49.7,"aqi":75,"pm10":28.6,"pm2_5":24.9,"mosquito_risk":0,"arthritis_risk":5,"migraine_risk":7,"frizz_risk":1,"updated_at":"2026-04-05T14:19:48.177913+05:30"},{"city":"Madurai","state":"Tamil Nadu","latitude":9.9252,"longitude":78.1198,"temp":37.7,"humidity":35,"rain":0.0,"pressure":990.2,"uv_index":2.05,"wind_gusts":28.4,"aqi":75,"pm10":23.9,"pm2_5":21.2,"mosquito_risk":0,"arthritis_risk":5,"migraine_risk":6,"frizz_risk":1,"updated_at":"2026-04-05T14:19:48.177922+05:30"},{"city":"Trichy","state":"Tamil Nadu","latitude":10.7905,"longitude":78.7047,"temp":38.4,"humidity":34,"rain":0.0,"pressure":996.5,"uv_index":9.2,"wind_gusts":38.5,"aqi":91,"pm10":37.1,"pm2_5":32.5,"mosquito_risk":0,"arthritis_risk":5,"migraine_risk":10,"frizz_risk":1,"updated_at":"2026-04-05T14:19:48.177930+05:30"},{"city":"Salem","state":"Tamil Nadu","latitude":11.6643,"longitude":78.146,"temp":37.4,"humidity":35,"rain":0.0,"pressure":974.9,"uv_index":9.2,"wind_gusts":27.0,"aqi":94,"pm10":40.7,"pm2_5":35.2,"mosquito_risk":0,"arthritis_risk":5,"migraine_risk":10,"frizz_risk":1,"updated_at":"2026-04-05T14:19:48.177938+05:30"},{"city":"Tirunelveli","state":"Tamil Nadu","latitude":8.7139,"longitude":77.7567,"temp":39.0,"humidity":28,"rain":0.0,"pressure":1000.1,"uv_index":9.4,"wind_gusts":24.5,"aqi":62,"pm10":15.4,"pm2_5":13.6,"mosquito_risk":0,"arthritis_risk":5,"migraine_risk":7,"frizz_risk":1,"updated_at":"2026-04-05T14:19:48.177945+05:30"},{"city":"Vellore","state":"Tamil Nadu","latitude":12.9165,"longitude":79.1325,"temp":35.8,"humidity":38,"rain":0.0,"pressure":982.2,"uv_index":9.45,"wind_gusts":36.4,"aqi":109,"pm10":40.6,"pm2_5":35.6,"mosquito_risk":0,"arthritis_risk":5,"migraine_risk":10,"frizz_risk":1,"updated_at":"2026-04-05T14:19:48.177952+05:30"},{"city":"Erode","state":"Tamil Nadu","latitude":11.341,"longitude":77.7172,"temp":38.9,"humidity":32,"rain":0.0,"pressure":985.9,"uv_index":9.45,"wind_gusts":29.5,"aqi":85,"pm10":35.0,"pm2_5":30.2,"mosquito_risk":0,"arthritis_risk":5,"migraine_risk":10,"frizz_risk":1,"updated_at":"2026-04-05T14:19:48.177959+05:30"},{"city":"Kochi","state":"Kerala","latitude":9.9312,"longitude":76.2673,"temp":29.4,"humidity":77,"rain":0.0,"pressure":1007.5,"uv_index":8.25,"wind_gusts":29.9,"aqi":65,"pm10":18.5,"pm2_5":15.3,"mosquito_risk":7,"arthritis_risk":5,"migraine_risk":4,"frizz_risk":1,"updated_at":"2026-04-05T14:19:48.177967+05:30"},{"city":"Thiruvananthapuram","state":"Kerala","latitude":8.5241,"longitude":76.9366,"temp":29.2,"humidity":78,"rain":0.0,"pressure":1006.5,"uv_index":9.2,"wind_gusts":36.0,"aqi":53,"pm10":20.6,"pm2_5":15.3,"mosquito_risk":7,"arthritis_risk":5,"migraine_risk":4,"frizz_risk":1,"updated_at":"2026-04-05T14:19:48.177974+05:30"},{"city":"Kozhikode","state":"Kerala","latitude":11.2588,"longitude":75.7804,"temp":30.4,"humidity":75,"rain":0.0,"pressure":1007.0,"uv_index":9.2,"wind_gusts":32.4,"aqi":56,"pm10":27.6,"pm2_5":16.8,"mosquito_risk":3,"arthritis_risk":5,"migraine_risk":4,"frizz_risk":1,"updated_at":"2026-04-05T14:19:48.177980+05:30"},{"city":"Thrissur","state":"Kerala","latitude":10.5276,"longitude":76.2144,"temp":33.3,"humidity":60,"rain":0.0,"pressure":1006.0,"uv_index":9.15,"wind_gusts":35.6,"aqi":63,"pm10":21.8,"pm2_5":18.2,"mosquito_risk":0,"arthritis_risk":5,"migraine_risk":4,"frizz_risk":1,"updated_at":"2026-04-05T14:19:48.177988+05:30"},{"city":"Kannur","state":"Kerala","latitude":11.8745,"longitude":75.3704,"temp":31.6,"humidity":65,"rain":0.0,"pressure":1006.4,"uv_index":9.2,"wind_gusts":36.7,"aqi":68,"pm10":29.7,"pm2_5":16.5,"mosquito_risk":3,"arthritis_risk":5,"migraine_risk":4,"frizz_risk":1,"updated_at":"2026-04-05T14:19:48.177995+05:30"},{"city":"Patna","state":"Bihar","latitude":25.5941,"longitude":85.1376,"temp":34.6,"humidity":34,"rain":0.0,"pressure":997.2,"uv_index":8.25,"wind_gusts":45.0,"aqi":85,"pm10":31.5,"pm2_5":17.2,"mosquito_risk":0,"arthritis_risk":5,"migraine_risk":7,"frizz_risk":1,"updated_at":"2026-04-05T14:19:48.178001+05:30"},{"city":"Gaya","state":"Bihar","latitude":24.7914,"longitude":85.0002,"temp":34.6,"humidity":33,"rain":0.0,"pressure":991.1,"uv_index":8.35,"wind_gusts":46.8,"aqi":76,"pm10":29.5,"pm2_5":20.1,"mosquito_risk":0,"arthritis_risk":5,"migraine_risk":7,"frizz_risk":0,"updated_at":"2026-04-05T14:19:48.178009+05:30"},{"city":"Muzaffarpur","state":"Bihar","latitude":26.1209,"longitude":85.3647,"temp":35.1,"humidity":27,"rain":0.0,"pressure":996.8,"uv_index":8.2,"wind_gusts":34.6,"aqi":88,"pm10":40.3,"pm2_5":16.6,"mosquito_risk":0,"arthritis_risk":5,"migraine_risk":10,"frizz_risk":0,"updated_at":"2026-04-05T14:19:48.178015+05:30"},{"city":"Bhagalpur","state":"Bihar","latitude":25.2425,"longitude":87.0117,"temp":34.3,"humidity":36,"rain":0.0,"pressure":997.8,"uv_index":8.35,"wind_gusts":34.6,"aqi":83,"pm10":41.7,"pm2_5":21.4,"mosquito_risk":0,"arthritis_risk":5,"migraine_risk":7,"frizz_risk":1,"updated_at":"2026-04-05T14:19:48.178022+05:30"},{"city":"Ranchi","state":"Jharkhand","latitude":23.3441,"longitude":85.3096,"temp":31.5,"humidity":40,"rain":0.0,"pressure":936.5,"uv_index":8.9,"wind_gusts":46.4,"aqi":67,"pm10":42.5,"pm2_5":24.4,"mosquito_risk":0,"arthritis_risk":5,"migraine_risk":7,"frizz_risk":1,"updated_at":"2026-04-05T14:19:48.178028+05:30"},{"city":"Jamshedpur","state":"Jharkhand","latitude":22.8046,"longitude":86.2029,"temp":34.7,"humidity":38,"rain":0.0,"pressure":988.9,"uv_index":8.6,"wind_gusts":23.4,"aqi":108,"pm10":52.7,"pm2_5":32.0,"mosquito_risk":0,"arthritis_risk":5,"migraine_risk":7,"frizz_risk":1,"updated_at":"2026-04-05T14:19:48.178035+05:30"},{"city":"Dhanbad","state":"Jharkhand","latitude":23.7957,"longitude":86.4304,"temp":35.0,"humidity":31,"rain":0.0,"pressure":977.8,"uv_index":8.7,"wind_gusts":39.6,"aqi":103,"pm10":45.9,"pm2_5":27.3,"mosquito_risk":0,"arthritis_risk":5,"migraine_risk":7,"frizz_risk":0,"updated_at":"2026-04-05T14:19:48.178042+05:30"},{"city":"Bokaro","state":"Jharkhand","latitude":23.6693,"longitude":86.1511,"temp":34.7,"humidity":33,"rain":0.0,"pressure":981.6,"uv_index":8.65,"wind_gusts":53.6,"aqi":101,"pm10":42.1,"pm2_5":26.4,"mosquito_risk":0,"arthritis_risk":5,"migraine_risk":7,"frizz_risk":0,"updated_at":"2026-04-05T14:19:48.178049+05:30"},{"city":"Bhubaneswar","state":"Odisha","latitude":20.2961,"longitude":85.8245,"temp":28.4,"humidity":78,"rain":0.0,"pressure":1002.5,"uv_index":8.65,"wind_gusts":26.3,"aqi":102,"pm10":57.6,"pm2_5":51.8,"mosquito_risk":7,"arthritis_risk":5,"migraine_risk":4,"frizz_risk":1,"updated_at":"2026-04-05T14:19:48.178055+05:30"},{"city":"Cuttack","state":"Odisha","latitude":20.4625,"longitude":85.8828,"temp":28.7,"humidity":74,"rain":0.0,"pressure":1004.5,"uv_index":8.6,"wind_gusts":28.8,"aqi":102,"pm10":57.6,"pm2_5":51.8,"mosquito_risk":7,"arthritis_risk":5,"migraine_risk":4,"frizz_risk":1,"updated_at":"2026-04-05T14:19:48.178062+05:30"},{"city":"Rourkela","state":"Odisha","latitude":22.2604,"longitude":84.8536,"temp":34.9,"humidity":40,"rain":0.0,"pressure":983.1,"uv_index":8.65,"wind_gusts":33.8,"aqi":88,"pm10":40.7,"pm2_5":30.0,"mosquito_risk":0,"arthritis_risk":5,"migraine_risk":7,"frizz_risk":1,"updated_at":"2026-04-05T14:19:48.178068+05:30"},{"city":"Raipur","state":"Chhattisgarh","latitude":21.2514,"longitude":81.6296,"temp":35.8,"humidity":32,"rain":0.0,"pressure":972.4,"uv_index":8.7,"wind_gusts":31.3,"aqi":144,"pm10":39.3,"pm2_5":33.5,"mosquito_risk":0,"arthritis_risk":5,"migraine_risk":10,"frizz_risk":1,"updated_at":"2026-04-05T14:19:48.178075+05:30"},{"city":"Bhilai","state":"Chhattisgarh","latitude":21.1938,"longitude":81.3509,"temp":35.8,"humidity":34,"rain":0.0,"pressure":972.8,"uv_index":8.7,"wind_gusts":32.0,"aqi":137,"pm10":37.3,"pm2_5":30.3,"mosquito_risk":0,"arthritis_risk":5,"migraine_risk":10,"frizz_risk":1,"updated_at":"2026-04-05T14:19:48.178082+05:30"},{"city":"Guwahati","state":"Assam","latitude":26.1158,"longitude":91.7086,"temp":32.9,"humidity":51,"rain":0.0,"pressure":995.6,"uv_index":7.45,"wind_gusts":51.8,"aqi":143,"pm10":39.7,"pm2_5":26.2,"mosquito_risk":0,"arthritis_risk":5,"migraine_risk":7,"frizz_risk":1,"updated_at":"2026-04-05T14:19:48.178088+05:30"},{"city":"Agartala","state":"Tripura","latitude":23.8315,"longitude":91.2868,"temp":29.3,"humidity":79,"rain":0.0,"pressure":1003.7,"uv_index":8.4,"wind_gusts":27.0,"aqi":113,"pm10":67.5,"pm2_5":55.9,"mosquito_risk":7,"arthritis_risk":5,"migraine_risk":4,"frizz_risk":1,"updated_at":"2026-04-05T14:19:48.178095+05:30"},{"city":"Shillong","state":"Meghalaya","latitude":25.5788,"longitude":91.8933,"temp":20.3,"humidity":58,"rain":0.0,"pressure":854.9,"uv_index":8.1,"wind_gusts":67.3,"aqi":102,"pm10":36.4,"pm2_5":24.4,"mosquito_risk":0,"arthritis_risk":5,"migraine_risk":7,"frizz_risk":0,"updated_at":"2026-04-05T14:19:48.178101+05:30"},{"city":"Imphal","state":"Manipur","latitude":24.817,"longitude":93.9368,"temp":21.8,"humidity":78,"rain":0.0,"pressure":921.4,"uv_index":8.85,"wind_gusts":83.9,"aqi":140,"pm10":46.3,"pm2_5":36.9,"mosquito_risk":3,"arthritis_risk":5,"migraine_risk":7,"frizz_risk":1,"updated_at":"2026-04-05T14:19:48.178106+05:30"},{"city":"Aizawl","state":"Mizoram","latitude":23.7271,"longitude":92.7176,"temp":22.3,"humidity":79,"rain":0.0,"pressure":892.3,"uv_index":8.5,"wind_gusts":55.8,"aqi":144,"pm10":51.6,"pm2_5":40.6,"mosquito_risk":3,"arthritis_risk":5,"migraine_risk":7,"frizz_risk":1,"updated_at":"2026-04-05T14:19:48.178111+05:30"},{"city":"Kohima","state":"Nagaland","latitude":25.6701,"longitude":94.1077,"temp":22.0,"humidity":55,"rain":0.0,"pressure":853.5,"uv_index":8.2,"wind_gusts":95.0,"aqi":107,"pm10":37.6,"pm2_5":27.6,"mosquito_risk":0,"arthritis_risk":5,"migraine_risk":7,"frizz_risk":0,"updated_at":"2026-04-05T14:19:48.178117+05:30"},{"city":"Gangtok","state":"Sikkim","latitude":27.3314,"longitude":88.6138,"temp":18.9,"humidity":78,"rain":0.0,"pressure":835.5,"uv_index":8.35,"wind_gusts":19.8,"aqi":107,"pm10":37.8,"pm2_5":26.0,"mosquito_risk":3,"arthritis_risk":5,"migraine_risk":7,"frizz_risk":0,"updated_at":"2026-04-05T14:19:48.178122+05:30"},{"city":"Siliguri","state":"West Bengal","latitude":26.7271,"longitude":88.3953,"temp":28.2,"humidity":57,"rain":0.0,"pressure":989.3,"uv_index":8.2,"wind_gusts":34.9,"aqi":157,"pm10":63.8,"pm2_5":45.8,"mosquito_risk":4,"arthritis_risk":5,"migraine_risk":7,"frizz_risk":1,"updated_at":"2026-04-05T14:19:51.477650+05:30"},{"city":"Durgapur","state":"West Bengal","latitude":23.5204,"longitude":87.3119,"temp":35.5,"humidity":32,"rain":0.0,"pressure":992.6,"uv_index":8.0,"wind_gusts":38.2,"aqi":113,"pm10":51.5,"pm2_5":25.5,"mosquito_risk":0,"arthritis_risk":5,"migraine_risk":10,"frizz_risk":1,"updated_at":"2026-04-05T14:19:51.477679+05:30"},{"city":"Asansol","state":"West Bengal","latitude":23.6739,"longitude":86.9524,"temp":35.3,"humidity":34,"rain":0.0,"pressure":991.1,"uv_index":8.05,"wind_gusts":36.0,"aqi":90,"pm10":48.1,"pm2_5":25.4,"mosquito_risk":0,"arthritis_risk":5,"migraine_risk":10,"frizz_risk":1,"updated_at":"2026-04-05T14:19:51.477687+05:30"},{"city":"Pondicherry","state":"Puducherry","latitude":11.9139,"longitude":79.8145,"temp":37.8,"humidity":38,"rain":0.0,"pressure":1004.8,"uv_index":9.35,"wind_gusts":27.7,"aqi":56,"pm10":28.5,"pm2_5":25.3,"mosquito_risk":0,"arthritis_risk":5,"migraine_risk":7,"frizz_risk":1,"updated_at":"2026-04-05T14:19:51.477695+05:30"},{"city":"Port Blair","state":"Andaman and Nicobar Islands","latitude":11.6234,"longitude":92.7265,"temp":29.5,"humidity":71,"rain":0.0,"pressure":1004.8,"uv_index":9.25,"wind_gusts":19.8,"aqi":45,"pm10":16.5,"pm2_5":11.2,"mosquito_risk":7,"arthritis_risk":5,"migraine_risk":4,"frizz_risk":1,"updated_at":"2026-04-05T14:19:51.477703+05:30"},{"city":"Haridwar","state":"Uttarakhand","latitude":29.9457,"longitude":78.1642,"temp":29.7,"humidity":35,"rain":0.0,"pressure":973.1,"uv_index":6.7,"wind_gusts":18.7,"aqi":65,"pm10":41.6,"pm2_5":12.1,"mosquito_risk":4,"arthritis_risk":5,"migraine_risk":7,"frizz_risk":0,"updated_at":"2026-04-05T14:19:51.477711+05:30"},{"city":"Rishikesh","state":"Uttarakhand","latitude":30.0869,"longitude":78.2676,"temp":28.0,"humidity":42,"rain":0.0,"pressure":966.1,"uv_index":6.65,"wind_gusts":22.3,"aqi":47,"pm10":34.3,"pm2_5":9.7,"mosquito_risk":4,"arthritis_risk":5,"migraine_risk":7,"frizz_risk":0,"updated_at":"2026-04-05T14:19:51.477719+05:30"},{"city":"Nainital","state":"Uttarakhand","latitude":29.3919,"longitude":79.4542,"temp":18.9,"humidity":67,"rain":0.0,"pressure":805.0,"uv_index":6.8,"wind_gusts":28.1,"aqi":51,"pm10":27.8,"pm2_5":10.0,"mosquito_risk":3,"arthritis_risk":5,"migraine_risk":7,"frizz_risk":0,"updated_at":"2026-04-05T14:19:51.477726+05:30"},{"city":"Mussoorie","state":"Uttarakhand","latitude":30.4599,"longitude":78.0664,"temp":19.1,"humidity":54,"rain":0.0,"pressure":802.2,"uv_index":5.8,"wind_gusts":45.7,"aqi":50,"pm10":30.6,"pm2_5":9.4,"mosquito_risk":0,"arthritis_risk":5,"migraine_risk":3,"frizz_risk":0,"updated_at":"2026-04-05T14:19:51.477733+05:30"},{"city":"Dharamshala","state":"Himachal Pradesh","latitude":32.219,"longitude":76.3234,"temp":19.5,"humidity":65,"rain":0.0,"pressure":868.4,"uv_index":7.3,"wind_gusts":32.8,"aqi":52,"pm10":17.3,"pm2_5":5.8,"mosquito_risk":3,"arthritis_risk":5,"migraine_risk":7,"frizz_risk":0,"updated_at":"2026-04-05T14:19:51.477740+05:30"},{"city":"Dalhousie","state":"Himachal Pradesh","latitude":32.5387,"longitude":75.971,"temp":18.1,"humidity":52,"rain":0.0,"pressure":803.1,"uv_index":7.25,"wind_gusts":25.2,"aqi":57,"pm10":44.5,"pm2_5":11.8,"mosquito_risk":0,"arthritis_risk":5,"migraine_risk":7,"frizz_risk":0,"updated_at":"2026-04-05T14:19:51.477748+05:30"},{"city":"Patiala","state":"Punjab","latitude":30.3398,"longitude":76.3869,"temp":29.5,"humidity":32,"rain":0.0,"pressure":977.6,"uv_index":6.75,"wind_gusts":34.2,"aqi":110,"pm10":328.8,"pm2_5":38.1,"mosquito_risk":4,"arthritis_risk":5,"migraine_risk":7,"frizz_risk":0,"updated_at":"2026-04-05T14:19:51.477755+05:30"},{"city":"Bhatinda","state":"Punjab","latitude":30.211,"longitude":74.9455,"temp":28.9,"humidity":34,"rain":0.0,"pressure":983.9,"uv_index":7.3,"wind_gusts":30.2,"aqi":89,"pm10":78.7,"pm2_5":21.1,"mosquito_risk":4,"arthritis_risk":5,"migraine_risk":7,"frizz_risk":0,"updated_at":"2026-04-05T14:19:51.477762+05:30"},{"city":"Rohtak","state":"Haryana","latitude":28.8955,"longitude":76.6066,"temp":29.9,"humidity":36,"rain":0.0,"pressure":981.2,"uv_index":5.7,"wind_gusts":36.7,"aqi":152,"pm10":221.2,"pm2_5":36.8,"mosquito_risk":4,"arthritis_risk":5,"migraine_risk":3,"frizz_risk":0,"updated_at":"2026-04-05T14:19:51.477769+05:30"},{"city":"Panipat","state":"Haryana","latitude":29.3909,"longitude":76.9635,"temp":30.5,"humidity":31,"rain":0.0,"pressure":979.4,"uv_index":6.75,"wind_gusts":32.0,"aqi":220,"pm10":368.8,"pm2_5":45.1,"mosquito_risk":0,"arthritis_risk":5,"migraine_risk":7,"frizz_risk":0,"updated_at":"2026-04-05T14:19:51.477776+05:30"},{"city":"Mathura","state":"Uttar Pradesh","latitude":27.4924,"longitude":77.6737,"temp":27.6,"humidity":54,"rain":0.0,"pressure":986.8,"uv_index":6.3,"wind_gusts":31.7,"aqi":236,"pm10":249.6,"pm2_5":43.3,"mosquito_risk":4,"arthritis_risk":5,"migraine_risk":7,"frizz_risk":1,"updated_at":"2026-04-05T14:19:51.477783+05:30"},{"city":"Vrindavan","state":"Uttar Pradesh","latitude":27.5823,"longitude":77.7027,"temp":24.4,"humidity":64,"rain":0.0,"pressure":987.3,"uv_index":6.05,"wind_gusts":42.5,"aqi":236,"pm10":249.6,"pm2_5":43.3,"mosquito_risk":3,"arthritis_risk":5,"migraine_risk":7,"frizz_risk":1,"updated_at":"2026-04-05T14:19:51.477790+05:30"},{"city":"Ayodhya","state":"Uttar Pradesh","latitude":26.7922,"longitude":82.1998,"temp":32.2,"humidity":37,"rain":0.0,"pressure":993.3,"uv_index":7.6,"wind_gusts":46.1,"aqi":108,"pm10":42.3,"pm2_5":15.1,"mosquito_risk":0,"arthritis_risk":5,"migraine_risk":7,"frizz_risk":0,"updated_at":"2026-04-05T14:19:51.477797+05:30"},{"city":"Ratlam","state":"Madhya Pradesh","latitude":23.3315,"longitude":75.0367,"temp":31.3,"humidity":25,"rain":0.0,"pressure":954.7,"uv_index":8.1,"wind_gusts":33.5,"aqi":56,"pm10":17.7,"pm2_5":6.8,"mosquito_risk":0,"arthritis_risk":5,"migraine_risk":7,"frizz_risk":0,"updated_at":"2026-04-05T14:19:51.477804+05:30"},{"city":"Sagar","state":"Madhya Pradesh","latitude":23.8388,"longitude":78.7378,"temp":32.4,"humidity":24,"rain":0.0,"pressure":949.1,"uv_index":7.8,"wind_gusts":34.2,"aqi":59,"pm10":13.5,"pm2_5":6.8,"mosquito_risk":0,"arthritis_risk":5,"migraine_risk":7,"frizz_risk":0,"updated_at":"2026-04-05T14:19:51.477811+05:30"},{"city":"Satna","state":"Madhya Pradesh","latitude":24.6005,"longitude":80.8322,"temp":31.8,"humidity":38,"rain":0.0,"pressure":969.6,"uv_index":8.3,"wind_gusts":30.2,"aqi":71,"pm10":32.9,"pm2_5":12.4,"mosquito_risk":0,"arthritis_risk":5,"migraine_risk":7,"frizz_risk":0,"updated_at":"2026-04-05T14:19:51.477818+05:30"},{"city":"Akola","state":"Maharashtra","latitude":20.7002,"longitude":77.0082,"temp":35.7,"humidity":27,"rain":0.0,"pressure":973.9,"uv_index":8.65,"wind_gusts":33.8,"aqi":73,"pm10":43.7,"pm2_5":15.4,"mosquito_risk":0,"arthritis_risk":5,"migraine_risk":10,"frizz_risk":0,"updated_at":"2026-04-05T14:19:51.477825+05:30"},{"city":"Amravati","state":"Maharashtra","latitude":20.9374,"longitude":77.7796,"temp":35.8,"humidity":26,"rain":0.0,"pressure":965.9,"uv_index":8.65,"wind_gusts":34.2,"aqi":80,"pm10":40.7,"pm2_5":15.3,"mosquito_risk":0,"arthritis_risk":5,"migraine_risk":10,"frizz_risk":0,"updated_at":"2026-04-05T14:19:51.477834+05:30"},{"city":"Latur","state":"Maharashtra","latitude":18.4088,"longitude":76.5604,"temp":33.8,"humidity":23,"rain":0.0,"pressure":939.4,"uv_index":9.0,"wind_gusts":30.2,"aqi":93,"pm10":33.4,"pm2_5":14.8,"mosquito_risk":0,"arthritis_risk":5,"migraine_risk":7,"frizz_risk":0,"updated_at":"2026-04-05T14:19:51.477841+05:30"},{"city":"Nanded","state":"Maharashtra","latitude":19.1383,"longitude":77.3091,"temp":35.6,"humidity":26,"rain":0.0,"pressure":967.6,"uv_index":8.85,"wind_gusts":28.4,"aqi":102,"pm10":32.6,"pm2_5":17.9,"mosquito_risk":0,"arthritis_risk":5,"migraine_risk":10,"frizz_risk":0,"updated_at":"2026-04-05T14:19:51.477848+05:30"},{"city":"Gulbarga","state":"Karnataka","latitude":17.3297,"longitude":76.8343,"temp":36.1,"humidity":22,"rain":0.0,"pressure":957.8,"uv_index":8.95,"wind_gusts":34.6,"aqi":110,"pm10":41.6,"pm2_5":32.1,"mosquito_risk":0,"arthritis_risk":5,"migraine_risk":10,"frizz_risk":0,"updated_at":"2026-04-05T14:19:51.477855+05:30"},{"city":"Bidar","state":"Karnataka","latitude":17.9104,"longitude":77.5199,"temp":34.7,"humidity":24,"rain":0.0,"pressure":935.0,"uv_index":8.9,"wind_gusts":33.5,"aqi":129,"pm10":45.3,"pm2_5":35.0,"mosquito_risk":0,"arthritis_risk":5,"migraine_risk":7,"frizz_risk":0,"updated_at":"2026-04-05T14:19:51.477861+05:30"},{"city":"Hospet","state":"Karnataka","latitude":15.2689,"longitude":76.3909,"temp":34.6,"humidity":30,"rain":0.0,"pressure":955.3,"uv_index":9.2,"wind_gusts":27.0,"aqi":82,"pm10":25.6,"pm2_5":21.1,"mosquito_risk":0,"arthritis_risk":5,"migraine_risk":7,"frizz_risk":0,"updated_at":"2026-04-05T14:19:51.477868+05:30"},{"city":"Tirupur","state":"Tamil Nadu","latitude":11.1085,"longitude":77.3411,"temp":36.4,"humidity":37,"rain":0.0,"pressure":973.0,"uv_index":9.55,"wind_gusts":36.0,"aqi":82,"pm10":32.4,"pm2_5":27.8,"mosquito_risk":0,"arthritis_risk":5,"migraine_risk":10,"frizz_risk":1,"updated_at":"2026-04-05T14:19:51.477875+05:30"},{"city":"Alappuzha","state":"Kerala","latitude":9.4981,"longitude":76.3388,"temp":29.4,"humidity":78,"rain":0.0,"pressure":1007.6,"uv_index":8.9,"wind_gusts":28.8,"aqi":62,"pm10":21.3,"pm2_5":16.6,"mosquito_risk":7,"arthritis_risk":5,"migraine_risk":4,"frizz_risk":1,"updated_at":"2026-04-05T14:19:51.477882+05:30"},{"city":"Munnar","state":"Kerala","latitude":10.0889,"longitude":77.0595,"temp":27.0,"humidity":64,"rain":0.0,"pressure":858.0,"uv_index":9.75,"wind_gusts":38.5,"aqi":59,"pm10":19.3,"pm2_5":17.0,"mosquito_risk":7,"arthritis_risk":5,"migraine_risk":7,"frizz_risk":1,"updated_at":"2026-04-05T14:19:51.477889+05:30"},{"city":"Silchar","state":"Assam","latitude":24.8333,"longitude":92.7789,"temp":27.7,"humidity":78,"rain":0.0,"pressure":1003.0,"uv_index":8.4,"wind_gusts":33.1,"aqi":156,"pm10":65.0,"pm2_5":57.5,"mosquito_risk":7,"arthritis_risk":5,"migraine_risk":4,"frizz_risk":1,"updated_at":"2026-04-05T14:19:51.477896+05:30"},{"city":"Dibrugarh","state":"Assam","latitude":27.4728,"longitude":94.912,"temp":23.7,"humidity":87,"rain":0.0,"pressure":991.2,"uv_index":7.5,"wind_gusts":50.4,"aqi":152,"pm10":51.3,"pm2_5":38.9,"mosquito_risk":3,"arthritis_risk":5,"migraine_risk":7,"frizz_risk":1,"updated_at":"2026-04-05T14:19:51.477903+05:30"}]