[{"city":"Delhi","state":"Delhi","latitude":28.6139,"longitude":77.209,"temp":30.5,"humidity":33,"rain":0.0,"pressure":984.8,"uv_index":6.0,"wind_gusts":28.8,"aqi":393,"pm10":285.9,"pm2_5":63.8,"mosquito_risk":0,"arthritis_risk":5,"migraine_risk":3,"frizz_risk":0,"updated_at":"2026-03-13T13:20:59.169364+05:30"},{"city":"Mumbai","state":"Maharashtra","latitude":19.076,"longitude":72.8777,"temp":28.9,"humidity":72,"rain":0.0,"pressure":1007.9,"uv_index":7.65,"wind_gusts":26.6,"aqi":154,"pm10":74.5,"pm2_5":72.2,"mosquito_risk":7,"arthritis_risk":5,"migraine_risk":4,"frizz_risk":1,"updated_at":"2026-03-13T13:20:59.169407+05:30"},{"city":"Bangalore","state":"Karnataka","latitude":12.9716,"longitude":77.5946,"temp":32.3,"humidity":22,"rain":0.0,"pressure":912.9,"uv_index":9.3,"wind_gusts":28.4,"aqi":81,"pm10":44.9,"pm2_5":34.5,"mosquito_risk":0,"arthritis_risk":5,"migraine_risk":7,"frizz_risk":0,"updated_at":"2026-03-13T13:20:59.169422+05:30"},{"city":"Hyderabad","state":"Telangana","latitude":17.385,"longitude":78.4867,"temp":37.0,"humidity":14,"rain":0.0,"pressure":954.0,"uv_index":8.65,"wind_gusts":18.7,"aqi":100,"pm10":47.3,"pm2_5":32.5,"mosquito_risk":0,"arthritis_risk":5,"migraine_risk":10,"frizz_risk":0,"updated_at":"2026-03-13T13:20:59.169432+05:30"},{"city":"Chennai","state":"Tamil Nadu","latitude":13.0827,"longitude":80.2707,"temp":33.1,"humidity":52,"rain":0.0,"pressure":1008.2,"uv_index":9.05,"wind_gusts":30.6,"aqi":69,"pm10":18.7,"pm2_5":14.6,"mosquito_risk":0,"arthritis_risk":0,"migraine_risk":4,"frizz_risk":1,"updated_at":"2026-03-13T13:20:59.169444+05:30"},{"city":"Kolkata","state":"West Bengal","latitude":22.5726,"longitude":88.3639,"temp":33.7,"humidity":53,"rain":0.0,"pressure":1005.1,"uv_index":8.0,"wind_gusts":28.4,"aqi":147,"pm10":61.0,"pm2_5":44.4,"mosquito_risk":0,"arthritis_risk":5,"migraine_risk":4,"frizz_risk":1,"updated_at":"2026-03-13T13:20:59.169453+05:30"},{"city":"Pune","state":"Maharashtra","latitude":18.5204,"longitude":73.8567,"temp":38.1,"humidity":16,"rain":0.0,"pressure":949.1,"uv_index":8.2,"wind_gusts":26.6,"aqi":148,"pm10":25.4,"pm2_5":21.0,"mosquito_risk":0,"arthritis_risk":5,"migraine_risk":10,"frizz_risk":0,"updated_at":"2026-03-13T13:20:59.169462+05:30"},{"city":"Ahmedabad","state":"Gujarat","latitude":23.0225,"longitude":72.5714,"temp":36.8,"humidity":23,"rain":0.0,"pressure":1002.7,"uv_index":7.5,"wind_gusts":21.6,"aqi":93,"pm10":83.6,"pm2_5":35.7,"mosquito_risk":0,"arthritis_risk":5,"migraine_risk":7,"frizz_risk":0,"updated_at":"2026-03-13T13:20:59.169485+05:30"},{"city":"Jaipur","state":"Rajasthan","latitude":26.9124,"longitude":75.7873,"temp":34.8,"humidity":24,"rain":0.0,"pressure":961.4,"uv_index":6.95,"wind_gusts":24.5,"aqi":117,"pm10":125.7,"pm2_5":33.2,"mosquito_risk":0,"arthritis_risk":5,"migraine_risk":7,"frizz_risk":0,"updated_at":"2026-03-13T13:20:59.169493+05:30"},{"city":"Lucknow","state":"Uttar Pradesh","latitude":26.8467,"longitude":80.9462,"temp":33.2,"humidity":38,"rain":0.0,"pressure":994.1,"uv_index":5.95,"wind_gusts":26.6,"aqi":174,"pm10":213.3,"pm2_5":70.1,"mosquito_risk":0,"arthritis_risk":5,"migraine_risk":3,"frizz_risk":1,"updated_at":"2026-03-13T13:20:59.169501+05:30"},{"city":"Kanpur","state":"Uttar Pradesh","latitude":26.4499,"longitude":80.3319,"temp":33.2,"humidity":41,"rain":0.0,"pressure":992.7,"uv_index":6.35,"wind_gusts":21.2,"aqi":293,"pm10":301.7,"pm2_5":75.0,"mosquito_risk":0,"arthritis_risk":5,"migraine_risk":7,"frizz_risk":1,"updated_at":"2026-03-13T13:20:59.169508+05:30"},{"city":"Chandigarh","state":"Chandigarh","latitude":30.7333,"longitude":76.7794,"temp":29.6,"humidity":40,"rain":0.0,"pressure":970.3,"uv_index":5.15,"wind_gusts":30.6,"aqi":84,"pm10":47.0,"pm2_5":22.1,"mosquito_risk":4,"arthritis_risk":5,"migraine_risk":3,"frizz_risk":0,"updated_at":"2026-03-13T13:20:59.169516+05:30"},{"city":"Srinagar","state":"Jammu and Kashmir","latitude":34.0837,"longitude":74.7973,"temp":14.8,"humidity":59,"rain":0.0,"pressure":844.6,"uv_index":6.85,"wind_gusts":14.0,"aqi":68,"pm10":24.9,"pm2_5":14.6,"mosquito_risk":0,"arthritis_risk":5,"migraine_risk":7,"frizz_risk":0,"updated_at":"2026-03-13T13:20:59.169523+05:30"},{"city":"Jammu","state":"Jammu and Kashmir","latitude":32.7266,"longitude":74.857,"temp":30.0,"humidity":32,"rain":0.0,"pressure":974.9,"uv_index":6.45,"wind_gusts":23.0,"aqi":81,"pm10":25.0,"pm2_5":11.1,"mosquito_risk":4,"arthritis_risk":5,"migraine_risk":7,"frizz_risk":0,"updated_at":"2026-03-13T13:20:59.169531+05:30"},{"city":"Amritsar","state":"Punjab","latitude":31.634,"longitude":74.8723,"temp":27.7,"humidity":48,"rain":0.0,"pressure":983.4,"uv_index":6.05,"wind_gusts":23.8,"aqi":104,"pm10":32.5,"pm2_5":18.4,"mosquito_risk":4,"arthritis_risk":5,"migraine_risk":7,"frizz_risk":0,"updated_at":"2026-03-13T13:20:59.169538+05:30"},{"city":"Ludhiana","state":"Punjab","latitude":30.901,"longitude":75.8573,"temp":29.0,"humidity":41,"rain":0.0,"pressure":980.8,"uv_index":5.75,"wind_gusts":28.8,"aqi":113,"pm10":48.9,"pm2_5":30.6,"mosquito_risk":4,"arthritis_risk":5,"migraine_risk":3,"frizz_risk":0,"updated_at":"2026-03-13T13:20:59.169544+05:30"},{"city":"Jalandhar","state":"Punjab","latitude":31.326,"longitude":75.5762,"temp":28.2,"humidity":43,"rain":0.0,"pressure":982.1,"uv_index":5.65,"wind_gusts":26.6,"aqi":114,"pm10":61.9,"pm2_5":27.8,"mosquito_risk":4,"arthritis_risk":5,"migraine_risk":3,"frizz_risk":0,"updated_at":"2026-03-13T13:20:59.169553+05:30"},{"city":"Dehradun","state":"Uttarakhand","latitude":30.6284,"longitude":78.0322,"temp":22.3,"humidity":31,"rain":0.0,"pressure":832.5,"uv_index":6.0,"wind_gusts":28.1,"aqi":43,"pm10":36.0,"pm2_5":11.3,"mosquito_risk":0,"arthritis_risk":5,"migraine_risk":3,"frizz_risk":0,"updated_at":"2026-03-13T13:20:59.169559+05:30"},{"city":"Shimla","state":"Himachal Pradesh","latitude":31.1048,"longitude":77.1734,"temp":20.0,"humidity":34,"rain":0.0,"pressure":787.6,"uv_index":5.2,"wind_gusts":38.5,"aqi":56,"pm10":31.8,"pm2_5":9.5,"mosquito_risk":0,"arthritis_risk":5,"migraine_risk":3,"frizz_risk":0,"updated_at":"2026-03-13T13:20:59.169566+05:30"},{"city":"Manali","state":"Himachal Pradesh","latitude":32.2396,"longitude":77.1887,"temp":20.3,"humidity":16,"rain":0.0,"pressure":822.4,"uv_index":8.15,"wind_gusts":38.5,"aqi":47,"pm10":19.8,"pm2_5":6.9,"mosquito_risk":0,"arthritis_risk":5,"migraine_risk":7,"frizz_risk":1,"updated_at":"2026-03-13T13:20:59.169573+05:30"},{"city":"Gurgaon","state":"Haryana","latitude":28.4595,"longitude":77.0266,"temp":30.8,"humidity":33,"rain":0.0,"pressure":983.5,"uv_index":6.1,"wind_gusts":26.6,"aqi":1196,"pm10":1080.3,"pm2_5":127.1,"mosquito_risk":0,"arthritis_risk":5,"migraine_risk":7,"frizz_risk":0,"updated_at":"2026-03-13T13:20:59.169579+05:30"},{"city":"Noida","state":"Uttar Pradesh","latitude":28.5355,"longitude":77.391,"temp":31.1,"humidity":30,"rain":0.0,"pressure":986.2,"uv_index":5.95,"wind_gusts":28.4,"aqi":1196,"pm10":1080.3,"pm2_5":127.1,"mosquito_risk":0,"arthritis_risk":5,"migraine_risk":3,"frizz_risk":0,"updated_at":"2026-03-13T13:20:59.169586+05:30"},{"city":"Ghaziabad","state":"Uttar Pradesh","latitude":28.6692,"longitude":77.4538,"temp":30.4,"humidity":35,"rain":0.0,"pressure":984.3,"uv_index":5.85,"wind_gusts":27.7,"aqi":238,"pm10":191.4,"pm2_5":51.9,"mosquito_risk":0,"arthritis_risk":5,"migraine_risk":3,"frizz_risk":0,"updated_at":"2026-03-13T13:20:59.169592+05:30"},{"city":"Faridabad","state":"Haryana","latitude":28.4089,"longitude":77.3178,"temp":30.7,"humidity":31,"rain":0.0,"pressure":985.6,"uv_index":6.0,"wind_gusts":27.0,"aqi":1196,"pm10":1080.3,"pm2_5":127.1,"mosquito_risk":0,"arthritis_risk":5,"migraine_risk":3,"frizz_risk":0,"updated_at":"2026-03-13T13:20:59.169599+05:30"},{"city":"Meerut","state":"Uttar Pradesh","latitude":28.9845,"longitude":77.7064,"temp":30.4,"humidity":40,"rain":0.0,"pressure":982.8,"uv_index":5.3,"wind_gusts":28.8,"aqi":238,"pm10":191.4,"pm2_5":51.9,"mosquito_risk":0,"arthritis_risk":5,"migraine_risk":3,"frizz_risk":0,"updated_at":"2026-03-13T13:20:59.169605+05:30"},{"city":"Agra","state":"Uttar Pradesh","latitude":27.1767,"longitude":78.0081,"temp":34.1,"humidity":33,"rain":0.0,"pressure":989.3,"uv_index":6.2,"wind_gusts":22.0,"aqi":563,"pm10":642.6,"pm2_5":105.9,"mosquito_risk":0,"arthritis_risk":5,"migraine_risk":7,"frizz_risk":0,"updated_at":"2026-03-13T13:20:59.169611+05:30"},{"city":"Varanasi","state":"Uttar Pradesh","latitude":25.3176,"longitude":82.9739,"temp":34.7,"humidity":29,"rain":0.0,"pressure":997.7,"uv_index":7.35,"wind_gusts":26.6,"aqi":133,"pm10":381.8,"pm2_5":67.3,"mosquito_risk":0,"arthritis_risk":5,"migraine_risk":7,"frizz_risk":0,"updated_at":"2026-03-13T13:20:59.169620+05:30"},{"city":"Prayagraj","state":"Uttar Pradesh","latitude":25.4358,"longitude":81.8463,"temp":34.9,"humidity":30,"rain":0.0,"pressure":996.3,"uv_index":7.05,"wind_gusts":22.0,"aqi":151,"pm10":449.8,"pm2_5":80.3,"mosquito_risk":0,"arthritis_risk":5,"migraine_risk":7,"frizz_risk":0,"updated_at":"2026-03-13T13:20:59.169627+05:30"},{"city":"Gorakhpur","state":"Uttar Pradesh","latitude":26.7606,"longitude":83.3732,"temp":32.1,"humidity":51,"rain":0.0,"pressure":996.9,"uv_index":7.0,"wind_gusts":28.1,"aqi":180,"pm10":150.9,"pm2_5":99.7,"mosquito_risk":0,"arthritis_risk":5,"migraine_risk":7,"frizz_risk":1,"updated_at":"2026-03-13T13:20:59.169636+05:30"},{"city":"Bareilly","state":"Uttar Pradesh","latitude":28.367,"longitude":79.4304,"temp":31.9,"humidity":39,"rain":0.0,"pressure":987.5,"uv_index":6.4,"wind_gusts":26.6,"aqi":154,"pm10":92.4,"pm2_5":53.6,"mosquito_risk":0,"arthritis_risk":5,"migraine_risk":7,"frizz_risk":1,"updated_at":"2026-03-13T13:20:59.169643+05:30"},{"city":"Aligarh","state":"Uttar Pradesh","latitude":27.8974,"longitude":78.088,"temp":33.4,"humidity":24,"rain":0.0,"pressure":986.9,"uv_index":6.0,"wind_gusts":29.2,"aqi":655,"pm10":570.0,"pm2_5":94.5,"mosquito_risk":0,"arthritis_risk":5,"migraine_risk":3,"frizz_risk":0,"updated_at":"2026-03-13T13:20:59.169650+05:30"},{"city":"Moradabad","state":"Uttar Pradesh","latitude":28.8386,"longitude":78.7733,"temp":31.3,"humidity":36,"rain":0.0,"pressure":984.5,"uv_index":5.65,"wind_gusts":27.0,"aqi":152,"pm10":73.1,"pm2_5":45.4,"mosquito_risk":0,"arthritis_risk":5,"migraine_risk":3,"frizz_risk":0,"updated_at":"2026-03-13T13:20:59.169657+05:30"},{"city":"Saharanpur","state":"Uttar Pradesh","latitude":29.9637,"longitude":77.546,"temp":29.4,"humidity":43,"rain":0.0,"pressure":976.8,"uv_index":4.85,"wind_gusts":28.1,"aqi":141,"pm10":63.1,"pm2_5":30.2,"mosquito_risk":4,"arthritis_risk":5,"migraine_risk":3,"frizz_risk":0,"updated_at":"2026-03-13T13:20:59.169663+05:30"},{"city":"Jhansi","state":"Uttar Pradesh","latitude":25.4484,"longitude":78.5685,"temp":34.9,"humidity":25,"rain":0.0,"pressure":979.4,"uv_index":6.85,"wind_gusts":18.7,"aqi":62,"pm10":205.8,"pm2_5":51.3,"mosquito_risk":0,"arthritis_risk":5,"migraine_risk":7,"frizz_risk":0,"updated_at":"2026-03-13T13:21:02.392026+05:30"},{"city":"Surat","state":"Gujarat","latitude":21.1702,"longitude":72.8311,"temp":35.1,"humidity":33,"rain":0.0,"pressure":1007.2,"uv_index":7.35,"wind_gusts":23.8,"aqi":147,"pm10":60.5,"pm2_5":52.4,"mosquito_risk":0,"arthritis_risk":5,"migraine_risk":7,"frizz_risk":1,"updated_at":"2026-03-13T13:21:02.392056+05:30"},{"city":"Vadodara","state":"Gujarat","latitude":22.3072,"longitude":73.1812,"temp":38.5,"humidity":19,"rain":0.0,"pressure":1004.7,"uv_index":7.5,"wind_gusts":22.0,"aqi":108,"pm10":35.0,"pm2_5":19.7,"mosquito_risk":0,"arthritis_risk":5,"migraine_risk":7,"frizz_risk":0,"updated_at":"2026-03-13T13:21:02.392066+05:30"},{"city":"Rajkot","state":"Gujarat","latitude":22.3039,"longitude":70.8022,"temp":35.8,"humidity":22,"rain":0.0,"pressure":995.3,"uv_index":7.3,"wind_gusts":30.2,"aqi":85,"pm10":69.6,"pm2_5":26.5,"mosquito_risk":0,"arthritis_risk":5,"migraine_risk":10,"frizz_risk":0,"updated_at":"2026-03-13T13:21:02.392074+05:30"},{"city":"Thane","state":"Maharashtra","latitude":19.2183,"longitude":72.9781,"temp":34.9,"humidity":41,"rain":0.0,"pressure":1007.6,"uv_index":7.65,"wind_gusts":38.9,"aqi":154,"pm10":74.5,"pm2_5":72.2,"mosquito_risk":0,"arthritis_risk":5,"migraine_risk":4,"frizz_risk":1,"updated_at":"2026-03-13T13:21:02.392081+05:30"},{"city":"Nagpur","state":"Maharashtra","latitude":21.1458,"longitude":79.0882,"temp":37.4,"humidity":16,"rain":0.0,"pressure":973.8,"uv_index":8.05,"wind_gusts":18.7,"aqi":90,"pm10":27.6,"pm2_5":19.0,"mosquito_risk":0,"arthritis_risk":5,"migraine_risk":10,"frizz_risk":0,"updated_at":"2026-03-13T13:21:02.392088+05:30"},{"city":"Nashik","state":"Maharashtra","latitude":19.9975,"longitude":73.7898,"temp":36.1,"humidity":16,"rain":0.0,"pressure":946.6,"uv_index":7.85,"wind_gusts":32.4,"aqi":74,"pm10":18.3,"pm2_5":15.2,"mosquito_risk":0,"arthritis_risk":5,"migraine_risk":10,"frizz_risk":0,"updated_at":"2026-03-13T13:21:02.392094+05:30"},{"city":"Aurangabad","state":"Maharashtra","latitude":19.8762,"longitude":75.3433,"temp":36.1,"humidity":16,"rain":0.0,"pressure":945.2,"uv_index":8.35,"wind_gusts":29.5,"aqi":98,"pm10":20.9,"pm2_5":19.0,"mosquito_risk":0,"arthritis_risk":5,"migraine_risk":10,"frizz_risk":0,"updated_at":"2026-03-13T13:21:02.392100+05:30"},{"city":"Solapur","state":"Maharashtra","latitude":17.6599,"longitude":75.9064,"temp":35.9,"humidity":26,"rain":0.0,"pressure":957.7,"uv_index":8.6,"wind_gusts":24.8,"aqi":90,"pm10":36.0,"pm2_5":29.3,"mosquito_risk":0,"arthritis_risk":5,"migraine_risk":10,"frizz_risk":0,"updated_at":"2026-03-13T13:21:02.392107+05:30"},{"city":"Kolhapur","state":"Maharashtra","latitude":16.705,"longitude":74.2433,"temp":34.7,"humidity":25,"rain":0.0,"pressure":948.4,"uv_index":8.7,"wind_gusts":44.6,"aqi":153,"pm10":35.6,"pm2_5":30.3,"mosquito_risk":0,"arthritis_risk":5,"migraine_risk":7,"frizz_risk":0,"updated_at":"2026-03-13T13:21:02.392114+05:30"},{"city":"Goa","state":"Goa","latitude":15.2993,"longitude":74.124,"temp":31.9,"humidity":63,"rain":0.0,"pressure":998.1,"uv_index":8.7,"wind_gusts":32.8,"aqi":141,"pm10":47.1,"pm2_5":40.5,"mosquito_risk":3,"arthritis_risk":5,"migraine_risk":7,"frizz_risk":1,"updated_at":"2026-03-13T13:21:02.392122+05:30"},{"city":"Jodhpur","state":"Rajasthan","latitude":26.2389,"longitude":73.0243,"temp":35.8,"humidity":25,"rain":0.0,"pressure":984.2,"uv_index":6.9,"wind_gusts":19.4,"aqi":74,"pm10":128.5,"pm2_5":32.1,"mosquito_risk":0,"arthritis_risk":5,"migraine_risk":10,"frizz_risk":0,"updated_at":"2026-03-13T13:21:02.392129+05:30"},{"city":"Udaipur","state":"Rajasthan","latitude":24.5854,"longitude":73.7125,"temp":35.2,"humidity":16,"rain":0.0,"pressure":948.3,"uv_index":7.85,"wind_gusts":32.8,"aqi":50,"pm10":46.1,"pm2_5":18.2,"mosquito_risk":0,"arthritis_risk":5,"migraine_risk":10,"frizz_risk":0,"updated_at":"2026-03-13T13:21:02.392135+05:30"},{"city":"Kota","state":"Rajasthan","latitude":25.2138,"longitude":75.8648,"temp":36.7,"humidity":15,"rain":0.0,"pressure":980.0,"uv_index":7.1,"wind_gusts":16.6,"aqi":70,"pm10":73.8,"pm2_5":22.9,"mosquito_risk":0,"arthritis_risk":5,"migraine_risk":10,"frizz_risk":0,"updated_at":"2026-03-13T13:21:02.392141+05:30"},{"city":"Bikaner","state":"Rajasthan","latitude":28.0229,"longitude":73.3119,"temp":32.8,"humidity":25,"rain":0.0,"pressure":984.3,"uv_index":6.6,"wind_gusts":24.8,"aqi":82,"pm10":45.5,"pm2_5":25.7,"mosquito_risk":0,"arthritis_risk":5,"migraine_risk":7,"frizz_risk":0,"updated_at":"2026-03-13T13:21:02.392148+05:30"},{"city":"Ajmer","state":"Rajasthan","latitude":26.4499,"longitude":74.6399,"temp":33.9,"humidity":26,"rain":0.0,"pressure":956.1,"uv_index":7.05,"wind_gusts":19.4,"aqi":67,"pm10":124.3,"pm2_5":36.8,"mosquito_risk":0,"arthritis_risk":5,"migraine_risk":7,"frizz_risk":0,"updated_at":"2026-03-13T13:21:02.392154+05:30"},{"city":"Gwalior","state":"Madhya Pradesh","latitude":26.2183,"longitude":78.1828,"temp":32.5,"humidity":41,"rain":0.0,"pressure":985.0,"uv_index":6.8,"wind_gusts":20.2,"aqi":91,"pm10":173.2,"pm2_5":58.0,"mosquito_risk":0,"arthritis_risk":5,"migraine_risk":7,"frizz_risk":1,"updated_at":"2026-03-13T13:21:02.392160+05:30"},{"city":"Indore","state":"Madhya Pradesh","latitude":22.7196,"longitude":75.8577,"temp":36.2,"humidity":12,"rain":0.0,"pressure":949.9,"uv_index":7.75,"wind_gusts":32.4,"aqi":59,"pm10":9.1,"pm2_5":8.1,"mosquito_risk":0,"arthritis_risk":5,"migraine_risk":10,"frizz_risk":0,"updated_at":"2026-03-13T13:21:02.392166+05:30"},{"city":"Bhopal","state":"Madhya Pradesh","latitude":23.2599,"longitude":77.4126,"temp":36.1,"humidity":14,"rain":0.0,"pressure":955.5,"uv_index":7.55,"wind_gusts":29.9,"aqi":77,"pm10":18.3,"pm2_5":16.6,"mosquito_risk":0,"arthritis_risk":5,"migraine_risk":10,"frizz_risk":0,"updated_at":"2026-03-13T13:21:02.392172+05:30"},{"city":"Jabalpur","state":"Madhya Pradesh","latitude":23.1815,"longitude":79.9864,"temp":35.6,"humidity":17,"rain":0.0,"pressure":962.7,"uv_index":7.75,"wind_gusts":18.7,"aqi":79,"pm10":20.2,"pm2_5":14.4,"mosquito_risk":0,"arthritis_risk":5,"migraine_risk":10,"frizz_risk":0,"updated_at":"2026-03-13T13:21:02.392179+05:30"},{"city":"Ujjain","state":"Madhya Pradesh","latitude":23.1765,"longitude":75.7885,"temp":35.4,"humidity":13,"rain":0.0,"pressure":955.5,"uv_index":7.7,"wind_gusts":25.2,"aqi":56,"pm10":10.2,"pm2_5":6.2,"mosquito_risk":0,"arthritis_risk":5,"migraine_risk":10,"frizz_risk":0,"updated_at":"2026-03-13T13:21:02.392185+05:30"},{"city":"Visakhapatnam","state":"Andhra Pradesh","latitude":17.6868,"longitude":83.2185,"temp":32.7,"humidity":53,"rain":0.0,"pressure":1004.3,"uv_index":8.65,"wind_gusts":39.6,"aqi":92,"pm10":34.1,"pm2_5":28.4,"mosquito_risk":0,"arthritis_risk":5,"migraine_risk":4,"frizz_risk":1,"updated_at":"2026-03-13T13:21:02.392191+05:30"},{"city":"Vijayawada","state":"Andhra Pradesh","latitude":16.5062,"longitude":80.648,"temp":34.9,"humidity":46,"rain":0.0,"pressure":1002.9,"uv_index":8.75,"wind_gusts":29.9,"aqi":92,"pm10":28.2,"pm2_5":22.9,"mosquito_risk":0,"arthritis_risk":5,"migraine_risk":4,"frizz_risk":1,"updated_at":"2026-03-13T13:21:02.392197+05:30"},{"city":"Guntur","state":"Andhra Pradesh","latitude":16.3067,"longitude":80.4365,"temp":35.3,"humidity":41,"rain":0.0,"pressure":1004.3,"uv_index":8.75,"wind_gusts":31.0,"aqi":84,"pm10":32.6,"pm2_5":25.6,"mosquito_risk":0,"arthritis_risk":5,"migraine_risk":7,"frizz_risk":1,"updated_at":"2026-03-13T13:21:02.392203+05:30"},{"city":"Nellore","state":"Andhra Pradesh","latitude":14.4426,"longitude":79.9865,"temp":35.7,"humidity":39,"rain":0.0,"pressure":1006.2,"uv_index":8.9,"wind_gusts":28.8,"aqi":75,"pm10":29.6,"pm2_5":25.8,"mosquito_risk":0,"arthritis_risk":5,"migraine_risk":7,"frizz_risk":1,"updated_at":"2026-03-13T13:21:02.392210+05:30"},{"city":"Kurnool","state":"Andhra Pradesh","latitude":15.8281,"longitude":78.0373,"temp":38.3,"humidity":17,"rain":0.0,"pressure":977.1,"uv_index":8.75,"wind_gusts":23.8,"aqi":93,"pm10":43.1,"pm2_5":32.4,"mosquito_risk":0,"arthritis_risk":5,"migraine_risk":10,"frizz_risk":0,"updated_at":"2026-03-13T13:21:02.392217+05:30"},{"city":"Kakinada","state":"Andhra Pradesh","latitude":16.9891,"longitude":82.2475,"temp":34.8,"humidity":48,"rain":0.0,"pressure":1007.9,"uv_index":8.7,"wind_gusts":31.3,"aqi":80,"pm10":23.3,"pm2_5":18.3,"mosquito_risk":0,"arthritis_risk":5,"migraine_risk":4,"frizz_risk":1,"updated_at":"2026-03-13T13:21:02.392223+05:30"},{"city":"Tirupati","state":"Andhra Pradesh","latitude":13.6288,"longitude":79.4192,"temp":35.0,"humidity":32,"rain":0.0,"pressure":992.1,"uv_index":9.05,"wind_gusts":32.4,"aqi":101,"pm10":24.7,"pm2_5":21.4,"mosquito_risk":0,"arthritis_risk":5,"migraine_risk":7,"frizz_risk":0,"updated_at":"2026-03-13T13:21:02.392229+05:30"},{"city":"Warangal","state":"Telangana","latitude":17.9689,"longitude":79.5941,"temp":36.0,"humidity":35,"rain":0.0,"pressure":979.0,"uv_index":8.5,"wind_gusts":29.5,"aqi":114,"pm10":42.0,"pm2_5":33.5,"mosquito_risk":0,"arthritis_risk":5,"migraine_risk":10,"frizz_risk":1,"updated_at":"2026-03-13T13:21:02.392235+05:30"},{"city":"Nizamabad","state":"Telangana","latitude":18.6725,"longitude":78.0941,"temp":36.0,"humidity":26,"rain":0.0,"pressure":965.4,"uv_index":8.4,"wind_gusts":23.4,"aqi":121,"pm10":40.2,"pm2_5":33.6,"mosquito_risk":0,"arthritis_risk":5,"migraine_risk":10,"frizz_risk":0,"updated_at":"2026-03-13T13:21:02.392241+05:30"},{"city":"Mysore","state":"Karnataka","latitude":12.2958,"longitude":76.6396,"temp":32.7,"humidity":23,"rain":0.0,"pressure":929.3,"uv_index":9.3,"wind_gusts":32.0,"aqi":75,"pm10":39.8,"pm2_5":30.7,"mosquito_risk":0,"arthritis_risk":5,"migraine_risk":7,"frizz_risk":0,"updated_at":"2026-03-13T13:21:02.392247+05:30"},{"city":"Mangalore","state":"Karnataka","latitude":12.9141,"longitude":74.856,"temp":28.8,"humidity":83,"rain":0.0,"pressure":1006.1,"uv_index":8.95,"wind_gusts":24.8,"aqi":116,"pm10":42.1,"pm2_5":36.4,"mosquito_risk":7,"arthritis_risk":5,"migraine_risk":4,"frizz_risk":1,"updated_at":"2026-03-13T13:21:02.392253+05:30"},{"city":"Hubli-Dharwad","state":"Karnataka","latitude":15.3647,"longitude":75.124,"temp":34.7,"humidity":27,"rain":0.0,"pressure":941.5,"uv_index":8.9,"wind_gusts":29.9,"aqi":74,"pm10":32.9,"pm2_5":27.0,"mosquito_risk":0,"arthritis_risk":5,"migraine_risk":7,"frizz_risk":0,"updated_at":"2026-03-13T13:21:02.392260+05:30"},{"city":"Belgaum","state":"Karnataka","latitude":15.8497,"longitude":74.4977,"temp":35.8,"humidity":19,"rain":0.0,"pressure":926.8,"uv_index":8.95,"wind_gusts":43.6,"aqi":114,"pm10":29.4,"pm2_5":24.4,"mosquito_risk":0,"arthritis_risk":5,"migraine_risk":10,"frizz_risk":0,"updated_at":"2026-03-13T13:21:05.612105+05:30"},{"city":"Coimbatore","state":"Tamil Nadu","latitude":11.0168,"longitude":76.9558,"temp":33.9,"humidity":29,"rain":0.0,"pressure":962.2,"uv_index":9.25,"wind_gusts":41.0,"aqi":78,"pm10":34.1,"pm2_5":26.3,"mosquito_risk":0,"arthritis_risk":5,"migraine_risk":7,"frizz_risk":0,"updated_at":"2026-03-13T13:21:05.612136+05:30"},{"city":"Madurai","state":"Tamil Nadu","latitude":9.9252,"longitude":78.1198,"temp":34.4,"humidity":42,"rain":0.0,"pressure":993.0,"uv_index":9.25,"wind_gusts":26.6,"aqi":83,"pm10":16.5,"pm2_5":12.6,"mosquito_risk":0,"arthritis_risk":5,"migraine_risk":7,"frizz_risk":1,"updated_at":"2026-03-13T13:21:05.612145+05:30"},{"city":"Trichy","state":"Tamil Nadu","latitude":10.7905,"longitude":78.7047,"temp":33.4,"humidity":48,"rain":0.0,"pressure":1000.2,"uv_index":9.15,"wind_gusts":23.8,"aqi":88,"pm10":21.0,"pm2_5":17.2,"mosquito_risk":0,"arthritis_risk":5,"migraine_risk":4,"frizz_risk":1,"updated_at":"2026-03-13T13:21:05.612153+05:30"},{"city":"Salem","state":"Tamil Nadu","latitude":11.6643,"longitude":78.146,"temp":33.7,"humidity":42,"rain":0.0,"pressure":977.8,"uv_index":9.2,"wind_gusts":24.1,"aqi":98,"pm10":40.6,"pm2_5":34.2,"mosquito_risk":0,"arthritis_risk":5,"migraine_risk":7,"frizz_risk":1,"updated_at":"2026-03-13T13:21:05.612160+05:30"},{"city":"Tirunelveli","state":"Tamil Nadu","latitude":8.7139,"longitude":77.7567,"temp":33.5,"humidity":47,"rain":0.0,"pressure":1003.3,"uv_index":9.2,"wind_gusts":29.9,"aqi":64,"pm10":13.0,"pm2_5":10.1,"mosquito_risk":0,"arthritis_risk":5,"migraine_risk":4,"frizz_risk":1,"updated_at":"2026-03-13T13:21:05.612168+05:30"},{"city":"Vellore","state":"Tamil Nadu","latitude":12.9165,"longitude":79.1325,"temp":34.7,"humidity":31,"rain":0.0,"pressure":985.1,"uv_index":9.1,"wind_gusts":32.8,"aqi":105,"pm10":28.6,"pm2_5":25.2,"mosquito_risk":0,"arthritis_risk":5,"migraine_risk":7,"frizz_risk":0,"updated_at":"2026-03-13T13:21:05.612174+05:30"},{"city":"Erode","state":"Tamil Nadu","latitude":11.341,"longitude":77.7172,"temp":34.6,"humidity":40,"rain":0.0,"pressure":989.3,"uv_index":9.15,"wind_gusts":22.3,"aqi":84,"pm10":30.9,"pm2_5":26.3,"mosquito_risk":0,"arthritis_risk":5,"migraine_risk":7,"frizz_risk":1,"updated_at":"2026-03-13T13:21:05.612182+05:30"},{"city":"Kochi","state":"Kerala","latitude":9.9312,"longitude":76.2673,"temp":28.5,"humidity":81,"rain":0.0,"pressure":1008.1,"uv_index":9.1,"wind_gusts":33.5,"aqi":98,"pm10":31.1,"pm2_5":27.8,"mosquito_risk":7,"arthritis_risk":0,"migraine_risk":4,"frizz_risk":1,"updated_at":"2026-03-13T13:21:05.612189+05:30"},{"city":"Thiruvananthapuram","state":"Kerala","latitude":8.5241,"longitude":76.9366,"temp":28.6,"humidity":77,"rain":0.0,"pressure":1007.4,"uv_index":9.1,"wind_gusts":24.1,"aqi":58,"pm10":22.9,"pm2_5":19.7,"mosquito_risk":7,"arthritis_risk":5,"migraine_risk":4,"frizz_risk":1,"updated_at":"2026-03-13T13:21:05.612196+05:30"},{"city":"Kozhikode","state":"Kerala","latitude":11.2588,"longitude":75.7804,"temp":29.7,"humidity":76,"rain":0.0,"pressure":1007.3,"uv_index":8.95,"wind_gusts":30.6,"aqi":96,"pm10":33.2,"pm2_5":30.4,"mosquito_risk":7,"arthritis_risk":5,"migraine_risk":4,"frizz_risk":1,"updated_at":"2026-03-13T13:21:05.612202+05:30"},{"city":"Thrissur","state":"Kerala","latitude":10.5276,"longitude":76.2144,"temp":33.1,"humidity":60,"rain":0.0,"pressure":1006.3,"uv_index":9.05,"wind_gusts":37.8,"aqi":97,"pm10":33.8,"pm2_5":28.8,"mosquito_risk":0,"arthritis_risk":5,"migraine_risk":4,"frizz_risk":1,"updated_at":"2026-03-13T13:21:05.612209+05:30"},{"city":"Kannur","state":"Kerala","latitude":11.8745,"longitude":75.3704,"temp":30.9,"humidity":69,"rain":0.0,"pressure":1006.9,"uv_index":9.0,"wind_gusts":29.5,"aqi":106,"pm10":37.4,"pm2_5":32.4,"mosquito_risk":3,"arthritis_risk":5,"migraine_risk":4,"frizz_risk":1,"updated_at":"2026-03-13T13:21:05.612215+05:30"},{"city":"Patna","state":"Bihar","latitude":25.5941,"longitude":85.1376,"temp":32.8,"humidity":43,"rain":0.0,"pressure":1000.0,"uv_index":7.5,"wind_gusts":25.2,"aqi":178,"pm10":141.6,"pm2_5":99.4,"mosquito_risk":0,"arthritis_risk":5,"migraine_risk":4,"frizz_risk":1,"updated_at":"2026-03-13T13:21:05.612222+05:30"},{"city":"Gaya","state":"Bihar","latitude":24.7914,"longitude":85.0002,"temp":33.5,"humidity":31,"rain":0.0,"pressure":993.8,"uv_index":7.6,"wind_gusts":23.0,"aqi":152,"pm10":175.1,"pm2_5":51.0,"mosquito_risk":0,"arthritis_risk":5,"migraine_risk":7,"frizz_risk":0,"updated_at":"2026-03-13T13:21:05.612228+05:30"},{"city":"Muzaffarpur","state":"Bihar","latitude":26.1209,"longitude":85.3647,"temp":32.0,"humidity":49,"rain":0.0,"pressure":1000.1,"uv_index":7.45,"wind_gusts":24.8,"aqi":184,"pm10":127.6,"pm2_5":94.3,"mosquito_risk":0,"arthritis_risk":5,"migraine_risk":4,"frizz_risk":1,"updated_at":"2026-03-13T13:21:05.612234+05:30"},{"city":"Bhagalpur","state":"Bihar","latitude":25.2425,"longitude":87.0117,"temp":33.1,"humidity":48,"rain":0.0,"pressure":1000.1,"uv_index":7.5,"wind_gusts":26.6,"aqi":176,"pm10":121.5,"pm2_5":90.3,"mosquito_risk":0,"arthritis_risk":5,"migraine_risk":4,"frizz_risk":1,"updated_at":"2026-03-13T13:21:05.612241+05:30"},{"city":"Ranchi","state":"Jharkhand","latitude":23.3441,"longitude":85.3096,"temp":33.5,"humidity":16,"rain":0.0,"pressure":938.7,"uv_index":8.2,"wind_gusts":29.9,"aqi":88,"pm10":31.2,"pm2_5":12.8,"mosquito_risk":0,"arthritis_risk":5,"migraine_risk":7,"frizz_risk":0,"updated_at":"2026-03-13T13:21:05.612247+05:30"},{"city":"Jamshedpur","state":"Jharkhand","latitude":22.8046,"longitude":86.2029,"temp":35.8,"humidity":26,"rain":0.0,"pressure":990.3,"uv_index":8.1,"wind_gusts":16.6,"aqi":162,"pm10":82.4,"pm2_5":43.3,"mosquito_risk":0,"arthritis_risk":5,"migraine_risk":10,"frizz_risk":0,"updated_at":"2026-03-13T13:21:05.612253+05:30"},{"city":"Dhanbad","state":"Jharkhand","latitude":23.7957,"longitude":86.4304,"temp":36.0,"humidity":20,"rain":0.0,"pressure":979.5,"uv_index":8.0,"wind_gusts":29.9,"aqi":176,"pm10":107.3,"pm2_5":52.5,"mosquito_risk":0,"arthritis_risk":5,"migraine_risk":10,"frizz_risk":0,"updated_at":"2026-03-13T13:21:05.612259+05:30"},{"city":"Bokaro","state":"Jharkhand","latitude":23.6693,"longitude":86.1511,"temp":35.8,"humidity":18,"rain":0.0,"pressure":983.5,"uv_index":8.0,"wind_gusts":31.0,"aqi":157,"pm10":75.9,"pm2_5":30.2,"mosquito_risk":0,"arthritis_risk":5,"migraine_risk":10,"frizz_risk":0,"updated_at":"2026-03-13T13:21:05.612265+05:30"},{"city":"Bhubaneswar","state":"Odisha","latitude":20.2961,"longitude":85.8245,"temp":33.3,"humidity":54,"rain":0.0,"pressure":1002.9,"uv_index":8.4,"wind_gusts":34.9,"aqi":112,"pm10":42.6,"pm2_5":34.1,"mosquito_risk":0,"arthritis_risk":5,"migraine_risk":4,"frizz_risk":1,"updated_at":"2026-03-13T13:21:05.612271+05:30"},{"city":"Cuttack","state":"Odisha","latitude":20.4625,"longitude":85.8828,"temp":35.5,"humidity":46,"rain":0.0,"pressure":1004.2,"uv_index":8.45,"wind_gusts":30.6,"aqi":112,"pm10":42.6,"pm2_5":34.1,"mosquito_risk":0,"arthritis_risk":5,"migraine_risk":7,"frizz_risk":1,"updated_at":"2026-03-13T13:21:05.612278+05:30"},{"city":"Rourkela","state":"Odisha","latitude":22.2604,"longitude":84.8536,"temp":37.5,"humidity":16,"rain":0.0,"pressure":984.7,"uv_index":8.0,"wind_gusts":26.3,"aqi":106,"pm10":60.1,"pm2_5":22.6,"mosquito_risk":0,"arthritis_risk":5,"migraine_risk":10,"frizz_risk":0,"updated_at":"2026-03-13T13:21:05.612284+05:30"},{"city":"Raipur","state":"Chhattisgarh","latitude":21.2514,"longitude":81.6296,"temp":38.1,"humidity":15,"rain":0.0,"pressure":974.8,"uv_index":8.15,"wind_gusts":17.6,"aqi":145,"pm10":60.1,"pm2_5":38.2,"mosquito_risk":0,"arthritis_risk":5,"migraine_risk":10,"frizz_risk":0,"updated_at":"2026-03-13T13:21:05.612290+05:30"},{"city":"Bhilai","state":"Chhattisgarh","latitude":21.1938,"longitude":81.3509,"temp":38.6,"humidity":15,"rain":0.0,"pressure":975.2,"uv_index":8.15,"wind_gusts":13.3,"aqi":144,"pm10":52.0,"pm2_5":34.8,"mosquito_risk":0,"arthritis_risk":5,"migraine_risk":10,"frizz_risk":0,"updated_at":"2026-03-13T13:21:05.612296+05:30"},{"city":"Guwahati","state":"Assam","latitude":26.1158,"longitude":91.7086,"temp":24.2,"humidity":85,"rain":0.0,"pressure":1001.8,"uv_index":6.9,"wind_gusts":32.8,"aqi":160,"pm10":63.1,"pm2_5":57.6,"mosquito_risk":3,"arthritis_risk":5,"migraine_risk":4,"frizz_risk":1,"updated_at":"2026-03-13T13:21:05.612302+05:30"},{"city":"Agartala","state":"Tripura","latitude":23.8315,"longitude":91.2868,"temp":27.6,"humidity":76,"rain":0.0,"pressure":1006.7,"uv_index":7.6,"wind_gusts":28.1,"aqi":147,"pm10":38.6,"pm2_5":33.9,"mosquito_risk":7,"arthritis_risk":5,"migraine_risk":4,"frizz_risk":1,"updated_at":"2026-03-13T13:21:05.612308+05:30"},{"city":"Shillong","state":"Meghalaya","latitude":25.5788,"longitude":91.8933,"temp":16.8,"humidity":73,"rain":0.0,"pressure":855.6,"uv_index":7.0,"wind_gusts":54.0,"aqi":152,"pm10":40.5,"pm2_5":35.7,"mosquito_risk":3,"arthritis_risk":5,"migraine_risk":7,"frizz_risk":0,"updated_at":"2026-03-13T13:21:05.612314+05:30"},{"city":"Imphal","state":"Manipur","latitude":24.817,"longitude":93.9368,"temp":22.2,"humidity":69,"rain":0.0,"pressure":922.9,"uv_index":7.4,"wind_gusts":62.6,"aqi":156,"pm10":71.0,"pm2_5":58.4,"mosquito_risk":3,"arthritis_risk":5,"migraine_risk":7,"frizz_risk":1,"updated_at":"2026-03-13T13:21:05.612321+05:30"},{"city":"Aizawl","state":"Mizoram","latitude":23.7271,"longitude":92.7176,"temp":23.7,"humidity":59,"rain":0.0,"pressure":893.5,"uv_index":7.15,"wind_gusts":72.4,"aqi":154,"pm10":66.4,"pm2_5":55.1,"mosquito_risk":0,"arthritis_risk":5,"migraine_risk":7,"frizz_risk":0,"updated_at":"2026-03-13T13:21:05.612327+05:30"},{"city":"Kohima","state":"Nagaland","latitude":25.6701,"longitude":94.1077,"temp":17.8,"humidity":83,"rain":0.0,"pressure":854.2,"uv_index":6.25,"wind_gusts":81.4,"aqi":136,"pm10":61.7,"pm2_5":52.4,"mosquito_risk":3,"arthritis_risk":10,"migraine_risk":7,"frizz_risk":0,"updated_at":"2026-03-13T13:21:05.612334+05:30"},{"city":"Gangtok","state":"Sikkim","latitude":27.3314,"longitude":88.6138,"temp":17.2,"humidity":80,"rain":0.0,"pressure":836.6,"uv_index":4.55,"wind_gusts":17.3,"aqi":114,"pm10":31.8,"pm2_5":28.8,"mosquito_risk":3,"arthritis_risk":5,"migraine_risk":3,"frizz_risk":0,"updated_at":"2026-03-13T13:21:05.612340+05:30"},{"city":"Siliguri","state":"West Bengal","latitude":26.7271,"longitude":88.3953,"temp":22.4,"humidity":77,"rain":0.0,"pressure":993.9,"uv_index":7.3,"wind_gusts":30.6,"aqi":160,"pm10":57.0,"pm2_5":52.0,"mosquito_risk":3,"arthritis_risk":5,"migraine_risk":7,"frizz_risk":1,"updated_at":"2026-03-13T13:21:08.831968+05:30"},{"city":"Durgapur","state":"West Bengal","latitude":23.5204,"longitude":87.3119,"temp":36.5,"humidity":21,"rain":0.0,"pressure":994.0,"uv_index":7.95,"wind_gusts":29.2,"aqi":177,"pm10":123.4,"pm2_5":74.3,"mosquito_risk":0,"arthritis_risk":5,"migraine_risk":10,"frizz_risk":0,"updated_at":"2026-03-13T13:21:08.831997+05:30"},{"city":"Asansol","state":"West Bengal","latitude":23.6739,"longitude":86.9524,"temp":36.1,"humidity":21,"rain":0.0,"pressure":992.7,"uv_index":7.95,"wind_gusts":27.0,"aqi":175,"pm10":121.5,"pm2_5":64.3,"mosquito_risk":0,"arthritis_risk":5,"migraine_risk":10,"frizz_risk":0,"updated_at":"2026-03-13T13:21:08.832007+05:30"},{"city":"Pondicherry","state":"Puducherry","latitude":11.9139,"longitude":79.8145,"temp":33.8,"humidity":51,"rain":0.0,"pressure":1009.0,"uv_index":9.0,"wind_gusts":27.7,"aqi":65,"pm10":17.9,"pm2_5":12.7,"mosquito_risk":0,"arthritis_risk":0,"migraine_risk":4,"frizz_risk":1,"updated_at":"2026-03-13T13:21:08.832015+05:30"},{"city":"Port Blair","state":"Andaman and Nicobar Islands","latitude":11.6234,"longitude":92.7265,"temp":28.8,"humidity":71,"rain":0.0,"pressure":1007.0,"uv_index":8.95,"wind_gusts":23.4,"aqi":62,"pm10":11.5,"pm2_5":9.1,"mosquito_risk":7,"arthritis_risk":5,"migraine_risk":4,"frizz_risk":1,"updated_at":"2026-03-13T13:21:08.832023+05:30"},{"city":"Haridwar","state":"Uttarakhand","latitude":29.9457,"longitude":78.1642,"temp":30.5,"humidity":38,"rain":0.0,"pressure":975.1,"uv_index":5.45,"wind_gusts":28.4,"aqi":94,"pm10":49.2,"pm2_5":21.0,"mosquito_risk":0,"arthritis_risk":5,"migraine_risk":3,"frizz_risk":0,"updated_at":"2026-03-13T13:21:08.832030+05:30"},{"city":"Rishikesh","state":"Uttarakhand","latitude":30.0869,"longitude":78.2676,"temp":30.9,"humidity":32,"rain":0.0,"pressure":967.7,"uv_index":5.7,"wind_gusts":28.4,"aqi":70,"pm10":41.1,"pm2_5":14.8,"mosquito_risk":0,"arthritis_risk":5,"migraine_risk":3,"frizz_risk":0,"updated_at":"2026-03-13T13:21:08.832038+05:30"},{"city":"Nainital","state":"Uttarakhand","latitude":29.3919,"longitude":79.4542,"temp":23.3,"humidity":50,"rain":0.0,"pressure":808.7,"uv_index":6.7,"wind_gusts":44.3,"aqi":91,"pm10":42.7,"pm2_5":21.8,"mosquito_risk":0,"arthritis_risk":5,"migraine_risk":7,"frizz_risk":0,"updated_at":"2026-03-13T13:21:08.832045+05:30"},{"city":"Mussoorie","state":"Uttarakhand","latitude":30.4599,"longitude":78.0664,"temp":22.9,"humidity":35,"rain":0.0,"pressure":805.8,"uv_index":5.45,"wind_gusts":30.2,"aqi":72,"pm10":42.5,"pm2_5":14.1,"mosquito_risk":0,"arthritis_risk":5,"migraine_risk":3,"frizz_risk":0,"updated_at":"2026-03-13T13:21:08.832052+05:30"},{"city":"Dharamshala","state":"Himachal Pradesh","latitude":32.219,"longitude":76.3234,"temp":24.5,"humidity":32,"rain":0.0,"pressure":871.4,"uv_index":6.0,"wind_gusts":26.6,"aqi":46,"pm10":22.3,"pm2_5":6.8,"mosquito_risk":0,"arthritis_risk":5,"migraine_risk":3,"frizz_risk":0,"updated_at":"2026-03-13T13:21:08.832059+05:30"},{"city":"Dalhousie","state":"Himachal Pradesh","latitude":32.5387,"longitude":75.971,"temp":22.8,"humidity":26,"rain":0.0,"pressure":806.8,"uv_index":6.45,"wind_gusts":31.0,"aqi":75,"pm10":31.7,"pm2_5":13.5,"mosquito_risk":0,"arthritis_risk":5,"migraine_risk":7,"frizz_risk":0,"updated_at":"2026-03-13T13:21:08.832067+05:30"},{"city":"Patiala","state":"Punjab","latitude":30.3398,"longitude":76.3869,"temp":29.3,"humidity":38,"rain":0.0,"pressure":979.9,"uv_index":5.2,"wind_gusts":29.2,"aqi":233,"pm10":468.5,"pm2_5":66.1,"mosquito_risk":4,"arthritis_risk":5,"migraine_risk":3,"frizz_risk":0,"updated_at":"2026-03-13T13:21:08.832074+05:30"},{"city":"Bhatinda","state":"Punjab","latitude":30.211,"longitude":74.9455,"temp":28.8,"humidity":42,"rain":0.0,"pressure":986.5,"uv_index":6.05,"wind_gusts":27.7,"aqi":136,"pm10":53.3,"pm2_5":27.5,"mosquito_risk":4,"arthritis_risk":5,"migraine_risk":7,"frizz_risk":0,"updated_at":"2026-03-13T13:21:08.832080+05:30"},{"city":"Rohtak","state":"Haryana","latitude":28.8955,"longitude":76.6066,"temp":29.9,"humidity":35,"rain":0.0,"pressure":984.0,"uv_index":5.35,"wind_gusts":24.8,"aqi":535,"pm10":391.2,"pm2_5":68.5,"mosquito_risk":4,"arthritis_risk":5,"migraine_risk":3,"frizz_risk":0,"updated_at":"2026-03-13T13:21:08.832087+05:30"},{"city":"Panipat","state":"Haryana","latitude":29.3909,"longitude":76.9635,"temp":29.9,"humidity":40,"rain":0.0,"pressure":982.1,"uv_index":5.15,"wind_gusts":25.9,"aqi":898,"pm10":692.9,"pm2_5":90.3,"mosquito_risk":4,"arthritis_risk":5,"migraine_risk":3,"frizz_risk":0,"updated_at":"2026-03-13T13:21:08.832093+05:30"},{"city":"Mathura","state":"Uttar Pradesh","latitude":27.4924,"longitude":77.6737,"temp":33.6,"humidity":26,"rain":0.0,"pressure":988.4,"uv_index":5.8,"wind_gusts":26.3,"aqi":642,"pm10":784.2,"pm2_5":113.9,"mosquito_risk":0,"arthritis_risk":5,"migraine_risk":3,"frizz_risk":0,"updated_at":"2026-03-13T13:21:08.832100+05:30"},{"city":"Vrindavan","state":"Uttar Pradesh","latitude":27.5823,"longitude":77.7027,"temp":33.6,"humidity":23,"rain":0.0,"pressure":988.9,"uv_index":5.85,"wind_gusts":29.2,"aqi":642,"pm10":784.2,"pm2_5":113.9,"mosquito_risk":0,"arthritis_risk":5,"migraine_risk":3,"frizz_risk":0,"updated_at":"2026-03-13T13:21:08.832106+05:30"},{"city":"Ayodhya","state":"Uttar Pradesh","latitude":26.7922,"longitude":82.1998,"temp":32.4,"humidity":46,"rain":0.0,"pressure":995.5,"uv_index":6.4,"wind_gusts":28.8,"aqi":160,"pm10":285.0,"pm2_5":100.4,"mosquito_risk":0,"arthritis_risk":5,"migraine_risk":7,"frizz_risk":1,"updated_at":"2026-03-13T13:21:08.832113+05:30"},{"city":"Ratlam","state":"Madhya Pradesh","latitude":23.3315,"longitude":75.0367,"temp":35.4,"humidity":15,"rain":0.0,"pressure":956.5,"uv_index":7.6,"wind_gusts":29.2,"aqi":51,"pm10":16.2,"pm2_5":8.0,"mosquito_risk":0,"arthritis_risk":5,"migraine_risk":10,"frizz_risk":0,"updated_at":"2026-03-13T13:21:08.832119+05:30"},{"city":"Sagar","state":"Madhya Pradesh","latitude":23.8388,"longitude":78.7378,"temp":36.2,"humidity":14,"rain":0.0,"pressure":951.7,"uv_index":7.5,"wind_gusts":28.1,"aqi":58,"pm10":13.9,"pm2_5":11.3,"mosquito_risk":0,"arthritis_risk":5,"migraine_risk":10,"frizz_risk":0,"updated_at":"2026-03-13T13:21:08.832126+05:30"},{"city":"Satna","state":"Madhya Pradesh","latitude":24.6005,"longitude":80.8322,"temp":37.0,"humidity":13,"rain":0.0,"pressure":972.0,"uv_index":7.15,"wind_gusts":29.9,"aqi":65,"pm10":95.7,"pm2_5":19.9,"mosquito_risk":0,"arthritis_risk":5,"migraine_risk":10,"frizz_risk":0,"updated_at":"2026-03-13T13:21:08.832132+05:30"},{"city":"Akola","state":"Maharashtra","latitude":20.7002,"longitude":77.0082,"temp":38.8,"humidity":16,"rain":0.0,"pressure":975.5,"uv_index":8.05,"wind_gusts":20.2,"aqi":79,"pm10":23.1,"pm2_5":17.2,"mosquito_risk":0,"arthritis_risk":5,"migraine_risk":10,"frizz_risk":0,"updated_at":"2026-03-13T13:21:08.832139+05:30"},{"city":"Amravati","state":"Maharashtra","latitude":20.9374,"longitude":77.7796,"temp":38.4,"humidity":15,"rain":0.0,"pressure":968.1,"uv_index":8.0,"wind_gusts":14.0,"aqi":86,"pm10":24.0,"pm2_5":16.8,"mosquito_risk":0,"arthritis_risk":5,"migraine_risk":10,"frizz_risk":0,"updated_at":"2026-03-13T13:21:08.832146+05:30"},{"city":"Latur","state":"Maharashtra","latitude":18.4088,"longitude":76.5604,"temp":34.3,"humidity":26,"rain":0.0,"pressure":940.9,"uv_index":8.5,"wind_gusts":21.2,"aqi":97,"pm10":40.3,"pm2_5":31.1,"mosquito_risk":0,"arthritis_risk":5,"migraine_risk":7,"frizz_risk":0,"updated_at":"2026-03-13T13:21:08.832152+05:30"},{"city":"Nanded","state":"Maharashtra","latitude":19.1383,"longitude":77.3091,"temp":37.9,"humidity":21,"rain":0.0,"pressure":969.3,"uv_index":8.3,"wind_gusts":20.9,"aqi":109,"pm10":25.1,"pm2_5":21.8,"mosquito_risk":0,"arthritis_risk":5,"migraine_risk":10,"frizz_risk":0,"updated_at":"2026-03-13T13:21:08.832158+05:30"},{"city":"Gulbarga","state":"Karnataka","latitude":17.3297,"longitude":76.8343,"temp":37.2,"humidity":21,"rain":0.0,"pressure":959.3,"uv_index":8.6,"wind_gusts":32.0,"aqi":91,"pm10":34.8,"pm2_5":27.8,"mosquito_risk":0,"arthritis_risk":5,"migraine_risk":10,"frizz_risk":0,"updated_at":"2026-03-13T13:21:08.832164+05:30"},{"city":"Bidar","state":"Karnataka","latitude":17.9104,"longitude":77.5199,"temp":35.2,"humidity":23,"rain":0.0,"pressure":936.5,"uv_index":8.55,"wind_gusts":26.6,"aqi":102,"pm10":28.9,"pm2_5":22.3,"mosquito_risk":0,"arthritis_risk":5,"migraine_risk":10,"frizz_risk":0,"updated_at":"2026-03-13T13:21:08.832170+05:30"},{"city":"Hospet","state":"Karnataka","latitude":15.2689,"longitude":76.3909,"temp":34.4,"humidity":31,"rain":0.0,"pressure":956.4,"uv_index":8.9,"wind_gusts":24.1,"aqi":87,"pm10":35.4,"pm2_5":28.2,"mosquito_risk":0,"arthritis_risk":5,"migraine_risk":7,"frizz_risk":0,"updated_at":"2026-03-13T13:21:08.832176+05:30"},{"city":"Tirupur","state":"Tamil Nadu","latitude":11.1085,"longitude":77.3411,"temp":34.7,"humidity":36,"rain":0.0,"pressure":975.6,"uv_index":9.25,"wind_gusts":29.9,"aqi":88,"pm10":35.0,"pm2_5":28.8,"mosquito_risk":0,"arthritis_risk":5,"migraine_risk":7,"frizz_risk":1,"updated_at":"2026-03-13T13:21:08.832182+05:30"},{"city":"Alappuzha","state":"Kerala","latitude":9.4981,"longitude":76.3388,"temp":28.5,"humidity":79,"rain":0.0,"pressure":1008.3,"uv_index":9.1,"wind_gusts":27.7,"aqi":91,"pm10":29.4,"pm2_5":27.6,"mosquito_risk":7,"arthritis_risk":0,"migraine_risk":4,"frizz_risk":1,"updated_at":"2026-03-13T13:21:08.832188+05:30"},{"city":"Munnar","state":"Kerala","latitude":10.0889,"longitude":77.0595,"temp":31.4,"humidity":23,"rain":0.0,"pressure":859.4,"uv_index":9.55,"wind_gusts":24.1,"aqi":72,"pm10":17.6,"pm2_5":13.9,"mosquito_risk":0,"arthritis_risk":5,"migraine_risk":7,"frizz_risk":0,"updated_at":"2026-03-13T13:21:08.832195+05:30"},{"city":"Silchar","state":"Assam","latitude":24.8333,"longitude":92.7789,"temp":26.4,"humidity":75,"rain":0.0,"pressure":1005.3,"uv_index":7.75,"wind_gusts":36.4,"aqi":165,"pm10":109.0,"pm2_5":89.2,"mosquito_risk":7,"arthritis_risk":5,"migraine_risk":4,"frizz_risk":1,"updated_at":"2026-03-13T13:21:08.832201+05:30"},{"city":"Dibrugarh","state":"Assam","latitude":27.4728,"longitude":94.912,"temp":23.5,"humidity":80,"rain":0.0,"pressure":996.1,"uv_index":5.5,"wind_gusts":24.8,"aqi":140,"pm10":68.7,"pm2_5":61.5,"mosquito_risk":3,"arthritis_risk":5,"migraine_risk":3,"frizz_risk":1,"updated_at":"2026-03-13T13:21:08.832207+05:30"}]