[{"city":"Delhi","state":"Delhi","latitude":28.6139,"longitude":77.209,"temp":26.2,"humidity":57,"rain":0.0,"pressure":985.3,"uv_index":7.55,"wind_gusts":23.8,"aqi":139,"pm10":111.3,"pm2_5":69.2,"no2":30.8,"co":818.0,"o3":147.0,"so2":50.4,"mosquito_risk":4,"arthritis_risk":5,"migraine_risk":7,"frizz_risk":1,"updated_at":"2026-05-06T08:58:05.161461+05:30"},{"city":"Mumbai","state":"Maharashtra","latitude":19.076,"longitude":72.8777,"temp":29.5,"humidity":65,"rain":0.0,"pressure":1008.9,"uv_index":7.9,"wind_gusts":46.8,"aqi":80,"pm10":68.0,"pm2_5":30.0,"no2":11.0,"co":334.0,"o3":81.0,"so2":50.5,"mosquito_risk":7,"arthritis_risk":0,"migraine_risk":4,"frizz_risk":1,"updated_at":"2026-05-06T08:58:05.161509+05:30"},{"city":"Bangalore","state":"Karnataka","latitude":12.9716,"longitude":77.5946,"temp":27.0,"humidity":56,"rain":0.0,"pressure":912.6,"uv_index":9.55,"wind_gusts":30.6,"aqi":115,"pm10":54.4,"pm2_5":36.9,"no2":24.1,"co":576.0,"o3":105.0,"so2":19.8,"mosquito_risk":4,"arthritis_risk":5,"migraine_risk":7,"frizz_risk":1,"updated_at":"2026-05-06T08:58:05.161524+05:30"},{"city":"Hyderabad","state":"Telangana","latitude":17.385,"longitude":78.4867,"temp":28.8,"humidity":64,"rain":0.0,"pressure":954.2,"uv_index":9.3,"wind_gusts":30.6,"aqi":78,"pm10":35.2,"pm2_5":24.4,"no2":6.4,"co":498.0,"o3":103.0,"so2":7.2,"mosquito_risk":7,"arthritis_risk":5,"migraine_risk":7,"frizz_risk":1,"updated_at":"2026-05-06T08:58:05.161534+05:30"},{"city":"Chennai","state":"Tamil Nadu","latitude":13.0827,"longitude":80.2707,"temp":31.6,"humidity":62,"rain":0.0,"pressure":1007.3,"uv_index":9.25,"wind_gusts":41.8,"aqi":57,"pm10":17.9,"pm2_5":11.5,"no2":4.6,"co":268.0,"o3":89.0,"so2":6.4,"mosquito_risk":3,"arthritis_risk":5,"migraine_risk":4,"frizz_risk":1,"updated_at":"2026-05-06T08:58:05.161543+05:30"},{"city":"Kolkata","state":"West Bengal","latitude":22.5726,"longitude":88.3639,"temp":29.0,"humidity":79,"rain":0.0,"pressure":1007.6,"uv_index":8.95,"wind_gusts":31.3,"aqi":88,"pm10":25.4,"pm2_5":20.0,"no2":6.7,"co":434.0,"o3":81.0,"so2":14.8,"mosquito_risk":7,"arthritis_risk":5,"migraine_risk":4,"frizz_risk":1,"updated_at":"2026-05-06T08:58:05.161554+05:30"},{"city":"Pune","state":"Maharashtra","latitude":18.5204,"longitude":73.8567,"temp":26.0,"humidity":58,"rain":0.0,"pressure":948.7,"uv_index":8.5,"wind_gusts":50.4,"aqi":66,"pm10":61.2,"pm2_5":26.0,"no2":12.3,"co":314.0,"o3":74.0,"so2":15.9,"mosquito_risk":4,"arthritis_risk":5,"migraine_risk":7,"frizz_risk":1,"updated_at":"2026-05-06T08:58:05.161561+05:30"},{"city":"Ahmedabad","state":"Gujarat","latitude":23.0225,"longitude":72.5714,"temp":30.3,"humidity":62,"rain":0.0,"pressure":1002.6,"uv_index":8.1,"wind_gusts":23.4,"aqi":93,"pm10":61.7,"pm2_5":24.3,"no2":7.8,"co":278.0,"o3":85.0,"so2":8.2,"mosquito_risk":3,"arthritis_risk":5,"migraine_risk":4,"frizz_risk":1,"updated_at":"2026-05-06T08:58:05.161570+05:30"},{"city":"Jaipur","state":"Rajasthan","latitude":26.9124,"longitude":75.7873,"temp":26.5,"humidity":55,"rain":0.0,"pressure":961.9,"uv_index":8.1,"wind_gusts":32.8,"aqi":115,"pm10":124.8,"pm2_5":38.1,"no2":7.0,"co":499.0,"o3":128.0,"so2":7.8,"mosquito_risk":4,"arthritis_risk":5,"migraine_risk":7,"frizz_risk":1,"updated_at":"2026-05-06T08:58:05.161577+05:30"},{"city":"Lucknow","state":"Uttar Pradesh","latitude":26.8467,"longitude":80.9462,"temp":26.0,"humidity":71,"rain":0.0,"pressure":995.3,"uv_index":8.05,"wind_gusts":35.6,"aqi":136,"pm10":69.6,"pm2_5":49.1,"no2":8.3,"co":450.0,"o3":157.0,"so2":19.2,"mosquito_risk":7,"arthritis_risk":5,"migraine_risk":7,"frizz_risk":1,"updated_at":"2026-05-06T08:58:05.161584+05:30"},{"city":"Kanpur","state":"Uttar Pradesh","latitude":26.4499,"longitude":80.3319,"temp":26.1,"humidity":68,"rain":0.0,"pressure":993.7,"uv_index":8.05,"wind_gusts":22.3,"aqi":122,"pm10":77.1,"pm2_5":40.7,"no2":6.4,"co":445.0,"o3":143.0,"so2":12.6,"mosquito_risk":7,"arthritis_risk":5,"migraine_risk":7,"frizz_risk":1,"updated_at":"2026-05-06T08:58:05.161591+05:30"},{"city":"Chandigarh","state":"Chandigarh","latitude":30.7333,"longitude":76.7794,"temp":27.2,"humidity":38,"rain":0.0,"pressure":970.9,"uv_index":7.5,"wind_gusts":40.7,"aqi":71,"pm10":60.8,"pm2_5":22.8,"no2":8.3,"co":548.0,"o3":142.0,"so2":14.6,"mosquito_risk":4,"arthritis_risk":5,"migraine_risk":7,"frizz_risk":0,"updated_at":"2026-05-06T08:58:05.161598+05:30"},{"city":"Srinagar","state":"Jammu and Kashmir","latitude":34.0837,"longitude":74.7973,"temp":13.1,"humidity":72,"rain":0.0,"pressure":843.8,"uv_index":8.65,"wind_gusts":25.6,"aqi":75,"pm10":23.7,"pm2_5":18.1,"no2":6.8,"co":475.0,"o3":114.0,"so2":5.5,"mosquito_risk":3,"arthritis_risk":5,"migraine_risk":7,"frizz_risk":0,"updated_at":"2026-05-06T08:58:05.161606+05:30"},{"city":"Jammu","state":"Jammu and Kashmir","latitude":32.7266,"longitude":74.857,"temp":25.6,"humidity":42,"rain":0.0,"pressure":974.8,"uv_index":8.25,"wind_gusts":30.6,"aqi":61,"pm10":26.5,"pm2_5":19.4,"no2":11.5,"co":316.0,"o3":100.0,"so2":3.5,"mosquito_risk":4,"arthritis_risk":5,"migraine_risk":7,"frizz_risk":0,"updated_at":"2026-05-06T08:58:05.161612+05:30"},{"city":"Amritsar","state":"Punjab","latitude":31.634,"longitude":74.8723,"temp":26.1,"humidity":51,"rain":0.0,"pressure":982.8,"uv_index":8.15,"wind_gusts":32.4,"aqi":110,"pm10":121.5,"pm2_5":50.4,"no2":10.6,"co":540.0,"o3":101.0,"so2":10.2,"mosquito_risk":4,"arthritis_risk":5,"migraine_risk":7,"frizz_risk":0,"updated_at":"2026-05-06T08:58:05.161618+05:30"},{"city":"Ludhiana","state":"Punjab","latitude":30.901,"longitude":75.8573,"temp":24.6,"humidity":68,"rain":0.0,"pressure":980.9,"uv_index":7.8,"wind_gusts":34.6,"aqi":125,"pm10":132.2,"pm2_5":45.9,"no2":9.4,"co":710.0,"o3":117.0,"so2":8.2,"mosquito_risk":3,"arthritis_risk":5,"migraine_risk":7,"frizz_risk":1,"updated_at":"2026-05-06T08:58:05.161625+05:30"},{"city":"Jalandhar","state":"Punjab","latitude":31.326,"longitude":75.5762,"temp":25.2,"humidity":62,"rain":0.0,"pressure":981.9,"uv_index":7.95,"wind_gusts":24.8,"aqi":118,"pm10":221.7,"pm2_5":57.9,"no2":7.6,"co":828.0,"o3":111.0,"so2":10.1,"mosquito_risk":7,"arthritis_risk":5,"migraine_risk":7,"frizz_risk":1,"updated_at":"2026-05-06T08:58:05.161631+05:30"},{"city":"Dehradun","state":"Uttarakhand","latitude":30.6284,"longitude":78.0322,"temp":17.2,"humidity":54,"rain":0.0,"pressure":831.7,"uv_index":7.45,"wind_gusts":34.9,"aqi":58,"pm10":23.5,"pm2_5":6.4,"no2":2.0,"co":184.0,"o3":133.0,"so2":0.2,"mosquito_risk":0,"arthritis_risk":5,"migraine_risk":7,"frizz_risk":0,"updated_at":"2026-05-06T08:58:05.161638+05:30"},{"city":"Shimla","state":"Himachal Pradesh","latitude":31.1048,"longitude":77.1734,"temp":14.2,"humidity":48,"rain":0.0,"pressure":785.4,"uv_index":7.45,"wind_gusts":44.6,"aqi":64,"pm10":41.9,"pm2_5":11.6,"no2":2.0,"co":195.0,"o3":138.0,"so2":0.7,"mosquito_risk":0,"arthritis_risk":5,"migraine_risk":7,"frizz_risk":0,"updated_at":"2026-05-06T08:58:05.161644+05:30"},{"city":"Manali","state":"Himachal Pradesh","latitude":32.2396,"longitude":77.1887,"temp":14.6,"humidity":36,"rain":0.0,"pressure":817.9,"uv_index":9.55,"wind_gusts":37.8,"aqi":83,"pm10":4.0,"pm2_5":3.0,"no2":10.3,"co":186.0,"o3":136.0,"so2":0.4,"mosquito_risk":0,"arthritis_risk":5,"migraine_risk":7,"frizz_risk":1,"updated_at":"2026-05-06T08:58:05.161651+05:30"},{"city":"Gurgaon","state":"Haryana","latitude":28.4595,"longitude":77.0266,"temp":27.0,"humidity":51,"rain":0.0,"pressure":983.7,"uv_index":7.65,"wind_gusts":24.5,"aqi":155,"pm10":196.0,"pm2_5":77.8,"no2":29.5,"co":679.0,"o3":139.0,"so2":52.4,"mosquito_risk":4,"arthritis_risk":5,"migraine_risk":7,"frizz_risk":1,"updated_at":"2026-05-06T08:58:05.161657+05:30"},{"city":"Noida","state":"Uttar Pradesh","latitude":28.5355,"longitude":77.391,"temp":26.2,"humidity":56,"rain":0.0,"pressure":986.9,"uv_index":7.55,"wind_gusts":21.6,"aqi":155,"pm10":196.0,"pm2_5":77.8,"no2":29.5,"co":1143.0,"o3":139.0,"so2":52.4,"mosquito_risk":4,"arthritis_risk":5,"migraine_risk":7,"frizz_risk":1,"updated_at":"2026-05-06T08:58:05.161663+05:30"},{"city":"Ghaziabad","state":"Uttar Pradesh","latitude":28.6692,"longitude":77.4538,"temp":26.6,"humidity":52,"rain":0.0,"pressure":985.1,"uv_index":7.55,"wind_gusts":25.2,"aqi":120,"pm10":97.6,"pm2_5":51.5,"no2":14.3,"co":445.0,"o3":153.0,"so2":25.5,"mosquito_risk":4,"arthritis_risk":5,"migraine_risk":7,"frizz_risk":0,"updated_at":"2026-05-06T08:58:05.161669+05:30"},{"city":"Faridabad","state":"Haryana","latitude":28.4089,"longitude":77.3178,"temp":26.0,"humidity":57,"rain":0.0,"pressure":986.1,"uv_index":7.6,"wind_gusts":20.5,"aqi":155,"pm10":196.0,"pm2_5":77.8,"no2":29.5,"co":906.0,"o3":139.0,"so2":52.4,"mosquito_risk":4,"arthritis_risk":5,"migraine_risk":7,"frizz_risk":1,"updated_at":"2026-05-06T08:58:05.161675+05:30"},{"city":"Meerut","state":"Uttar Pradesh","latitude":28.9845,"longitude":77.7064,"temp":26.0,"humidity":57,"rain":0.0,"pressure":983.8,"uv_index":7.45,"wind_gusts":28.4,"aqi":120,"pm10":97.6,"pm2_5":51.5,"no2":14.3,"co":446.0,"o3":153.0,"so2":25.5,"mosquito_risk":4,"arthritis_risk":5,"migraine_risk":7,"frizz_risk":1,"updated_at":"2026-05-06T08:58:05.161681+05:30"},{"city":"Agra","state":"Uttar Pradesh","latitude":27.1767,"longitude":78.0081,"temp":26.8,"humidity":65,"rain":0.0,"pressure":990.0,"uv_index":7.9,"wind_gusts":19.1,"aqi":179,"pm10":160.2,"pm2_5":66.6,"no2":10.5,"co":503.0,"o3":137.0,"so2":22.0,"mosquito_risk":7,"arthritis_risk":5,"migraine_risk":7,"frizz_risk":1,"updated_at":"2026-05-06T08:58:05.161687+05:30"},{"city":"Varanasi","state":"Uttar Pradesh","latitude":25.3176,"longitude":82.9739,"temp":26.8,"humidity":71,"rain":0.0,"pressure":999.9,"uv_index":8.6,"wind_gusts":43.2,"aqi":152,"pm10":87.5,"pm2_5":61.9,"no2":10.0,"co":413.0,"o3":142.0,"so2":30.1,"mosquito_risk":7,"arthritis_risk":5,"migraine_risk":7,"frizz_risk":1,"updated_at":"2026-05-06T08:58:05.161693+05:30"},{"city":"Prayagraj","state":"Uttar Pradesh","latitude":25.4358,"longitude":81.8463,"temp":27.0,"humidity":68,"rain":0.0,"pressure":998.3,"uv_index":8.45,"wind_gusts":25.2,"aqi":137,"pm10":74.0,"pm2_5":47.8,"no2":7.8,"co":392.0,"o3":144.0,"so2":17.7,"mosquito_risk":7,"arthritis_risk":5,"migraine_risk":7,"frizz_risk":1,"updated_at":"2026-05-06T08:58:05.161701+05:30"},{"city":"Gorakhpur","state":"Uttar Pradesh","latitude":26.7606,"longitude":83.3732,"temp":26.4,"humidity":68,"rain":0.0,"pressure":999.5,"uv_index":8.45,"wind_gusts":40.3,"aqi":119,"pm10":43.8,"pm2_5":37.6,"no2":8.1,"co":352.0,"o3":156.0,"so2":13.4,"mosquito_risk":7,"arthritis_risk":5,"migraine_risk":7,"frizz_risk":1,"updated_at":"2026-05-06T08:58:05.161706+05:30"},{"city":"Bareilly","state":"Uttar Pradesh","latitude":28.367,"longitude":79.4304,"temp":26.4,"humidity":55,"rain":0.0,"pressure":988.9,"uv_index":7.85,"wind_gusts":28.1,"aqi":133,"pm10":87.3,"pm2_5":52.0,"no2":9.0,"co":408.0,"o3":156.0,"so2":19.1,"mosquito_risk":4,"arthritis_risk":5,"migraine_risk":7,"frizz_risk":1,"updated_at":"2026-05-06T08:58:05.161712+05:30"},{"city":"Aligarh","state":"Uttar Pradesh","latitude":27.8974,"longitude":78.088,"temp":27.7,"humidity":56,"rain":0.0,"pressure":987.8,"uv_index":7.7,"wind_gusts":25.6,"aqi":152,"pm10":109.2,"pm2_5":53.8,"no2":7.7,"co":394.0,"o3":153.0,"so2":23.6,"mosquito_risk":4,"arthritis_risk":5,"migraine_risk":7,"frizz_risk":1,"updated_at":"2026-05-06T08:58:05.161718+05:30"},{"city":"Moradabad","state":"Uttar Pradesh","latitude":28.8386,"longitude":78.7733,"temp":25.8,"humidity":55,"rain":0.0,"pressure":985.8,"uv_index":7.65,"wind_gusts":28.1,"aqi":149,"pm10":84.3,"pm2_5":56.2,"no2":10.8,"co":416.0,"o3":143.0,"so2":18.1,"mosquito_risk":4,"arthritis_risk":5,"migraine_risk":7,"frizz_risk":0,"updated_at":"2026-05-06T08:58:05.161724+05:30"},{"city":"Saharanpur","state":"Uttar Pradesh","latitude":29.9637,"longitude":77.546,"temp":24.9,"humidity":58,"rain":0.0,"pressure":977.9,"uv_index":7.25,"wind_gusts":28.1,"aqi":97,"pm10":90.8,"pm2_5":44.8,"no2":10.1,"co":439.0,"o3":130.0,"so2":11.5,"mosquito_risk":0,"arthritis_risk":5,"migraine_risk":7,"frizz_risk":0,"updated_at":"2026-05-06T08:58:05.161730+05:30"},{"city":"Jhansi","state":"Uttar Pradesh","latitude":25.4484,"longitude":78.5685,"temp":28.2,"humidity":55,"rain":0.0,"pressure":980.0,"uv_index":8.35,"wind_gusts":28.1,"aqi":106,"pm10":50.2,"pm2_5":31.9,"no2":3.0,"co":336.0,"o3":125.0,"so2":16.0,"mosquito_risk":4,"arthritis_risk":5,"migraine_risk":7,"frizz_risk":1,"updated_at":"2026-05-06T08:58:08.465588+05:30"},{"city":"Surat","state":"Gujarat","latitude":21.1702,"longitude":72.8311,"temp":31.2,"humidity":66,"rain":0.0,"pressure":1007.1,"uv_index":7.7,"wind_gusts":33.5,"aqi":85,"pm10":78.0,"pm2_5":38.3,"no2":34.5,"co":592.0,"o3":42.0,"so2":81.5,"mosquito_risk":3,"arthritis_risk":5,"migraine_risk":4,"frizz_risk":1,"updated_at":"2026-05-06T08:58:08.465616+05:30"},{"city":"Vadodara","state":"Gujarat","latitude":22.3072,"longitude":73.1812,"temp":30.4,"humidity":71,"rain":0.0,"pressure":1004.9,"uv_index":8.05,"wind_gusts":28.4,"aqi":78,"pm10":42.6,"pm2_5":22.8,"no2":12.1,"co":268.0,"o3":57.0,"so2":18.8,"mosquito_risk":3,"arthritis_risk":5,"migraine_risk":4,"frizz_risk":1,"updated_at":"2026-05-06T08:58:08.465625+05:30"},{"city":"Rajkot","state":"Gujarat","latitude":22.3039,"longitude":70.8022,"temp":28.7,"humidity":67,"rain":0.0,"pressure":994.9,"uv_index":7.7,"wind_gusts":42.1,"aqi":68,"pm10":70.1,"pm2_5":21.7,"no2":4.1,"co":178.0,"o3":66.0,"so2":5.2,"mosquito_risk":7,"arthritis_risk":5,"migraine_risk":7,"frizz_risk":1,"updated_at":"2026-05-06T08:58:08.465632+05:30"},{"city":"Thane","state":"Maharashtra","latitude":19.2183,"longitude":72.9781,"temp":29.4,"humidity":67,"rain":0.0,"pressure":1008.4,"uv_index":7.9,"wind_gusts":43.2,"aqi":80,"pm10":68.0,"pm2_5":30.0,"no2":11.0,"co":226.0,"o3":81.0,"so2":50.5,"mosquito_risk":7,"arthritis_risk":0,"migraine_risk":4,"frizz_risk":1,"updated_at":"2026-05-06T08:58:08.465638+05:30"},{"city":"Nagpur","state":"Maharashtra","latitude":21.1458,"longitude":79.0882,"temp":32.8,"humidity":34,"rain":0.0,"pressure":973.9,"uv_index":8.9,"wind_gusts":31.3,"aqi":71,"pm10":49.9,"pm2_5":39.0,"no2":9.2,"co":266.0,"o3":140.0,"so2":18.5,"mosquito_risk":0,"arthritis_risk":5,"migraine_risk":7,"frizz_risk":0,"updated_at":"2026-05-06T08:58:08.465645+05:30"},{"city":"Nashik","state":"Maharashtra","latitude":19.9975,"longitude":73.7898,"temp":26.6,"humidity":58,"rain":0.0,"pressure":946.7,"uv_index":8.2,"wind_gusts":40.7,"aqi":69,"pm10":63.6,"pm2_5":22.8,"no2":4.1,"co":224.0,"o3":79.0,"so2":1.4,"mosquito_risk":4,"arthritis_risk":5,"migraine_risk":7,"frizz_risk":1,"updated_at":"2026-05-06T08:58:08.465651+05:30"},{"city":"Aurangabad","state":"Maharashtra","latitude":19.8762,"longitude":75.3433,"temp":30.9,"humidity":32,"rain":0.0,"pressure":945.3,"uv_index":9.05,"wind_gusts":42.1,"aqi":63,"pm10":57.3,"pm2_5":21.6,"no2":4.0,"co":219.0,"o3":106.0,"so2":8.3,"mosquito_risk":0,"arthritis_risk":5,"migraine_risk":7,"frizz_risk":0,"updated_at":"2026-05-06T08:58:08.465658+05:30"},{"city":"Solapur","state":"Maharashtra","latitude":17.6599,"longitude":75.9064,"temp":32.1,"humidity":37,"rain":0.0,"pressure":957.5,"uv_index":9.05,"wind_gusts":50.0,"aqi":60,"pm10":31.9,"pm2_5":16.3,"no2":4.5,"co":211.0,"o3":100.0,"so2":8.6,"mosquito_risk":0,"arthritis_risk":5,"migraine_risk":7,"frizz_risk":0,"updated_at":"2026-05-06T08:58:08.465665+05:30"},{"city":"Kolhapur","state":"Maharashtra","latitude":16.705,"longitude":74.2433,"temp":27.4,"humidity":58,"rain":0.0,"pressure":948.6,"uv_index":8.95,"wind_gusts":55.1,"aqi":63,"pm10":52.5,"pm2_5":24.8,"no2":7.7,"co":264.0,"o3":67.0,"so2":2.9,"mosquito_risk":4,"arthritis_risk":5,"migraine_risk":7,"frizz_risk":1,"updated_at":"2026-05-06T08:58:08.465671+05:30"},{"city":"Goa","state":"Goa","latitude":15.2993,"longitude":74.124,"temp":30.5,"humidity":64,"rain":0.0,"pressure":998.3,"uv_index":8.3,"wind_gusts":42.1,"aqi":65,"pm10":53.2,"pm2_5":23.2,"no2":4.2,"co":167.0,"o3":68.0,"so2":2.3,"mosquito_risk":3,"arthritis_risk":5,"migraine_risk":7,"frizz_risk":1,"updated_at":"2026-05-06T08:58:08.465677+05:30"},{"city":"Jodhpur","state":"Rajasthan","latitude":26.2389,"longitude":73.0243,"temp":29.8,"humidity":31,"rain":0.0,"pressure":984.4,"uv_index":8.3,"wind_gusts":26.3,"aqi":88,"pm10":75.0,"pm2_5":25.7,"no2":5.3,"co":359.0,"o3":103.0,"so2":5.6,"mosquito_risk":4,"arthritis_risk":5,"migraine_risk":7,"frizz_risk":0,"updated_at":"2026-05-06T08:58:08.465683+05:30"},{"city":"Udaipur","state":"Rajasthan","latitude":24.5854,"longitude":73.7125,"temp":27.5,"humidity":43,"rain":0.0,"pressure":948.1,"uv_index":8.75,"wind_gusts":22.3,"aqi":79,"pm10":61.9,"pm2_5":21.9,"no2":3.1,"co":272.0,"o3":113.0,"so2":6.0,"mosquito_risk":4,"arthritis_risk":5,"migraine_risk":7,"frizz_risk":0,"updated_at":"2026-05-06T08:58:08.465689+05:30"},{"city":"Kota","state":"Rajasthan","latitude":25.2138,"longitude":75.8648,"temp":30.1,"humidity":44,"rain":0.0,"pressure":980.4,"uv_index":8.3,"wind_gusts":28.8,"aqi":81,"pm10":38.3,"pm2_5":26.4,"no2":4.3,"co":409.0,"o3":112.0,"so2":12.8,"mosquito_risk":0,"arthritis_risk":5,"migraine_risk":7,"frizz_risk":1,"updated_at":"2026-05-06T08:58:08.465695+05:30"},{"city":"Bikaner","state":"Rajasthan","latitude":28.0229,"longitude":73.3119,"temp":28.2,"humidity":39,"rain":0.0,"pressure":983.7,"uv_index":8.25,"wind_gusts":27.0,"aqi":82,"pm10":179.7,"pm2_5":40.6,"no2":2.5,"co":382.0,"o3":113.0,"so2":6.5,"mosquito_risk":4,"arthritis_risk":5,"migraine_risk":7,"frizz_risk":0,"updated_at":"2026-05-06T08:58:08.465701+05:30"},{"city":"Ajmer","state":"Rajasthan","latitude":26.4499,"longitude":74.6399,"temp":27.7,"humidity":45,"rain":0.0,"pressure":956.7,"uv_index":8.25,"wind_gusts":35.3,"aqi":71,"pm10":70.3,"pm2_5":26.6,"no2":4.0,"co":306.0,"o3":112.0,"so2":5.0,"mosquito_risk":4,"arthritis_risk":5,"migraine_risk":7,"frizz_risk":0,"updated_at":"2026-05-06T08:58:08.465707+05:30"},{"city":"Gwalior","state":"Madhya Pradesh","latitude":26.2183,"longitude":78.1828,"temp":27.1,"humidity":64,"rain":0.0,"pressure":985.2,"uv_index":8.1,"wind_gusts":19.1,"aqi":101,"pm10":64.0,"pm2_5":33.5,"no2":3.7,"co":373.0,"o3":119.0,"so2":10.9,"mosquito_risk":7,"arthritis_risk":5,"migraine_risk":7,"frizz_risk":1,"updated_at":"2026-05-06T08:58:08.465713+05:30"},{"city":"Indore","state":"Madhya Pradesh","latitude":22.7196,"longitude":75.8577,"temp":31.7,"humidity":29,"rain":0.0,"pressure":949.7,"uv_index":8.6,"wind_gusts":32.4,"aqi":75,"pm10":63.3,"pm2_5":26.4,"no2":4.5,"co":390.0,"o3":130.0,"so2":10.5,"mosquito_risk":0,"arthritis_risk":5,"migraine_risk":7,"frizz_risk":0,"updated_at":"2026-05-06T08:58:08.465718+05:30"},{"city":"Bhopal","state":"Madhya Pradesh","latitude":23.2599,"longitude":77.4126,"temp":29.8,"humidity":42,"rain":0.0,"pressure":955.2,"uv_index":8.65,"wind_gusts":37.8,"aqi":68,"pm10":43.4,"pm2_5":25.7,"no2":2.5,"co":335.0,"o3":136.0,"so2":7.5,"mosquito_risk":4,"arthritis_risk":5,"migraine_risk":7,"frizz_risk":0,"updated_at":"2026-05-06T08:58:08.465724+05:30"},{"city":"Jabalpur","state":"Madhya Pradesh","latitude":23.1815,"longitude":79.9864,"temp":30.9,"humidity":40,"rain":0.0,"pressure":962.8,"uv_index":8.8,"wind_gusts":34.9,"aqi":84,"pm10":54.5,"pm2_5":36.4,"no2":4.3,"co":260.0,"o3":140.0,"so2":10.4,"mosquito_risk":0,"arthritis_risk":5,"migraine_risk":7,"frizz_risk":0,"updated_at":"2026-05-06T08:58:08.465730+05:30"},{"city":"Ujjain","state":"Madhya Pradesh","latitude":23.1765,"longitude":75.7885,"temp":31.4,"humidity":32,"rain":0.0,"pressure":955.3,"uv_index":8.55,"wind_gusts":30.6,"aqi":84,"pm10":86.6,"pm2_5":33.3,"no2":4.1,"co":283.0,"o3":110.0,"so2":7.9,"mosquito_risk":0,"arthritis_risk":5,"migraine_risk":7,"frizz_risk":0,"updated_at":"2026-05-06T08:58:08.465737+05:30"},{"city":"Visakhapatnam","state":"Andhra Pradesh","latitude":17.6868,"longitude":83.2185,"temp":30.8,"humidity":69,"rain":0.0,"pressure":1004.6,"uv_index":9.15,"wind_gusts":34.2,"aqi":78,"pm10":36.6,"pm2_5":28.6,"no2":26.3,"co":462.0,"o3":52.0,"so2":17.2,"mosquito_risk":3,"arthritis_risk":5,"migraine_risk":4,"frizz_risk":1,"updated_at":"2026-05-06T08:58:08.465743+05:30"},{"city":"Vijayawada","state":"Andhra Pradesh","latitude":16.5062,"longitude":80.648,"temp":32.5,"humidity":62,"rain":0.0,"pressure":1003.0,"uv_index":9.2,"wind_gusts":36.4,"aqi":69,"pm10":19.3,"pm2_5":13.4,"no2":3.8,"co":202.0,"o3":81.0,"so2":6.2,"mosquito_risk":3,"arthritis_risk":5,"migraine_risk":4,"frizz_risk":1,"updated_at":"2026-05-06T08:58:08.465750+05:30"},{"city":"Guntur","state":"Andhra Pradesh","latitude":16.3067,"longitude":80.4365,"temp":32.8,"humidity":59,"rain":0.0,"pressure":1004.2,"uv_index":9.2,"wind_gusts":37.1,"aqi":73,"pm10":19.9,"pm2_5":14.1,"no2":2.6,"co":195.0,"o3":88.0,"so2":2.9,"mosquito_risk":0,"arthritis_risk":5,"migraine_risk":4,"frizz_risk":1,"updated_at":"2026-05-06T08:58:08.465756+05:30"},{"city":"Nellore","state":"Andhra Pradesh","latitude":14.4426,"longitude":79.9865,"temp":32.3,"humidity":58,"rain":0.0,"pressure":1006.2,"uv_index":9.25,"wind_gusts":41.4,"aqi":66,"pm10":15.3,"pm2_5":11.5,"no2":5.4,"co":200.0,"o3":84.0,"so2":10.5,"mosquito_risk":0,"arthritis_risk":5,"migraine_risk":4,"frizz_risk":1,"updated_at":"2026-05-06T08:58:08.465762+05:30"},{"city":"Kurnool","state":"Andhra Pradesh","latitude":15.8281,"longitude":78.0373,"temp":32.8,"humidity":50,"rain":0.0,"pressure":976.8,"uv_index":9.2,"wind_gusts":37.4,"aqi":75,"pm10":30.0,"pm2_5":23.8,"no2":3.1,"co":244.0,"o3":116.0,"so2":12.0,"mosquito_risk":0,"arthritis_risk":5,"migraine_risk":7,"frizz_risk":1,"updated_at":"2026-05-06T08:58:08.465769+05:30"},{"city":"Kakinada","state":"Andhra Pradesh","latitude":16.9891,"longitude":82.2475,"temp":31.0,"humidity":73,"rain":0.0,"pressure":1008.2,"uv_index":9.15,"wind_gusts":33.1,"aqi":54,"pm10":16.6,"pm2_5":9.4,"no2":2.1,"co":186.0,"o3":59.0,"so2":1.2,"mosquito_risk":3,"arthritis_risk":0,"migraine_risk":4,"frizz_risk":1,"updated_at":"2026-05-06T08:58:08.465775+05:30"},{"city":"Tirupati","state":"Andhra Pradesh","latitude":13.6288,"longitude":79.4192,"temp":31.5,"humidity":57,"rain":0.0,"pressure":991.5,"uv_index":9.3,"wind_gusts":32.8,"aqi":91,"pm10":15.7,"pm2_5":11.8,"no2":6.4,"co":205.0,"o3":74.0,"so2":5.1,"mosquito_risk":0,"arthritis_risk":5,"migraine_risk":7,"frizz_risk":1,"updated_at":"2026-05-06T08:58:08.465781+05:30"},{"city":"Warangal","state":"Telangana","latitude":17.9689,"longitude":79.5941,"temp":31.0,"humidity":62,"rain":0.0,"pressure":979.5,"uv_index":9.2,"wind_gusts":43.6,"aqi":79,"pm10":23.7,"pm2_5":18.9,"no2":4.2,"co":227.0,"o3":84.0,"so2":5.9,"mosquito_risk":3,"arthritis_risk":5,"migraine_risk":7,"frizz_risk":1,"updated_at":"2026-05-06T08:58:08.465787+05:30"},{"city":"Nizamabad","state":"Telangana","latitude":18.6725,"longitude":78.0941,"temp":32.4,"humidity":44,"rain":0.0,"pressure":965.5,"uv_index":9.15,"wind_gusts":42.1,"aqi":90,"pm10":42.8,"pm2_5":32.4,"no2":5.5,"co":295.0,"o3":115.0,"so2":7.8,"mosquito_risk":0,"arthritis_risk":5,"migraine_risk":7,"frizz_risk":1,"updated_at":"2026-05-06T08:58:08.465792+05:30"},{"city":"Mysore","state":"Karnataka","latitude":12.2958,"longitude":76.6396,"temp":26.6,"humidity":70,"rain":0.0,"pressure":929.0,"uv_index":9.4,"wind_gusts":27.4,"aqi":69,"pm10":43.8,"pm2_5":23.1,"no2":7.4,"co":247.0,"o3":86.0,"so2":2.3,"mosquito_risk":7,"arthritis_risk":5,"migraine_risk":7,"frizz_risk":1,"updated_at":"2026-05-06T08:58:08.465798+05:30"},{"city":"Mangalore","state":"Karnataka","latitude":12.9141,"longitude":74.856,"temp":31.0,"humidity":64,"rain":0.0,"pressure":1006.5,"uv_index":9.05,"wind_gusts":52.6,"aqi":65,"pm10":45.5,"pm2_5":20.5,"no2":3.2,"co":158.0,"o3":70.0,"so2":1.7,"mosquito_risk":3,"arthritis_risk":5,"migraine_risk":4,"frizz_risk":1,"updated_at":"2026-05-06T08:58:08.465804+05:30"},{"city":"Hubli-Dharwad","state":"Karnataka","latitude":15.3647,"longitude":75.124,"temp":27.2,"humidity":60,"rain":0.0,"pressure":941.6,"uv_index":9.05,"wind_gusts":45.4,"aqi":60,"pm10":58.2,"pm2_5":21.1,"no2":5.9,"co":190.0,"o3":76.0,"so2":3.0,"mosquito_risk":4,"arthritis_risk":5,"migraine_risk":7,"frizz_risk":1,"updated_at":"2026-05-06T08:58:08.465810+05:30"},{"city":"Belgaum","state":"Karnataka","latitude":15.8497,"longitude":74.4977,"temp":26.1,"humidity":63,"rain":0.0,"pressure":926.6,"uv_index":8.8,"wind_gusts":48.2,"aqi":60,"pm10":60.3,"pm2_5":21.2,"no2":5.1,"co":181.0,"o3":79.0,"so2":2.9,"mosquito_risk":7,"arthritis_risk":5,"migraine_risk":7,"frizz_risk":1,"updated_at":"2026-05-06T08:58:11.774091+05:30"},{"city":"Coimbatore","state":"Tamil Nadu","latitude":11.0168,"longitude":76.9558,"temp":27.0,"humidity":79,"rain":0.0,"pressure":961.9,"uv_index":9.35,"wind_gusts":27.4,"aqi":66,"pm10":42.5,"pm2_5":23.0,"no2":5.5,"co":328.0,"o3":125.0,"so2":7.8,"mosquito_risk":7,"arthritis_risk":5,"migraine_risk":7,"frizz_risk":1,"updated_at":"2026-05-06T08:58:11.774122+05:30"},{"city":"Madurai","state":"Tamil Nadu","latitude":9.9252,"longitude":78.1198,"temp":31.4,"humidity":59,"rain":0.0,"pressure":992.6,"uv_index":8.9,"wind_gusts":41.8,"aqi":86,"pm10":48.8,"pm2_5":27.4,"no2":10.3,"co":337.0,"o3":96.0,"so2":9.4,"mosquito_risk":0,"arthritis_risk":5,"migraine_risk":7,"frizz_risk":1,"updated_at":"2026-05-06T08:58:11.774132+05:30"},{"city":"Trichy","state":"Tamil Nadu","latitude":10.7905,"longitude":78.7047,"temp":30.8,"humidity":63,"rain":0.0,"pressure":999.4,"uv_index":8.9,"wind_gusts":33.1,"aqi":85,"pm10":35.0,"pm2_5":18.9,"no2":5.7,"co":361.0,"o3":95.0,"so2":4.8,"mosquito_risk":3,"arthritis_risk":5,"migraine_risk":7,"frizz_risk":1,"updated_at":"2026-05-06T08:58:11.774141+05:30"},{"city":"Salem","state":"Tamil Nadu","latitude":11.6643,"longitude":78.146,"temp":30.4,"humidity":58,"rain":0.0,"pressure":977.6,"uv_index":9.25,"wind_gusts":42.5,"aqi":92,"pm10":42.8,"pm2_5":30.6,"no2":10.3,"co":312.0,"o3":113.0,"so2":21.8,"mosquito_risk":0,"arthritis_risk":5,"migraine_risk":7,"frizz_risk":1,"updated_at":"2026-05-06T08:58:11.774149+05:30"},{"city":"Tirunelveli","state":"Tamil Nadu","latitude":8.7139,"longitude":77.7567,"temp":32.9,"humidity":52,"rain":0.0,"pressure":1002.2,"uv_index":8.8,"wind_gusts":47.2,"aqi":59,"pm10":15.2,"pm2_5":10.9,"no2":4.2,"co":250.0,"o3":95.0,"so2":1.3,"mosquito_risk":0,"arthritis_risk":5,"migraine_risk":4,"frizz_risk":1,"updated_at":"2026-05-06T08:58:11.774158+05:30"},{"city":"Vellore","state":"Tamil Nadu","latitude":12.9165,"longitude":79.1325,"temp":31.0,"humidity":56,"rain":0.0,"pressure":984.8,"uv_index":9.3,"wind_gusts":34.6,"aqi":102,"pm10":25.2,"pm2_5":20.1,"no2":5.1,"co":267.0,"o3":88.0,"so2":10.3,"mosquito_risk":0,"arthritis_risk":5,"migraine_risk":7,"frizz_risk":1,"updated_at":"2026-05-06T08:58:11.774165+05:30"},{"city":"Erode","state":"Tamil Nadu","latitude":11.341,"longitude":77.7172,"temp":31.2,"humidity":53,"rain":0.0,"pressure":989.1,"uv_index":9.25,"wind_gusts":32.8,"aqi":78,"pm10":40.9,"pm2_5":26.4,"no2":8.5,"co":392.0,"o3":107.0,"so2":7.3,"mosquito_risk":0,"arthritis_risk":5,"migraine_risk":7,"frizz_risk":1,"updated_at":"2026-05-06T08:58:11.774174+05:30"},{"city":"Kochi","state":"Kerala","latitude":9.9312,"longitude":76.2673,"temp":28.6,"humidity":84,"rain":0.0,"pressure":1008.0,"uv_index":7.95,"wind_gusts":36.7,"aqi":61,"pm10":29.4,"pm2_5":17.4,"no2":8.9,"co":216.0,"o3":73.0,"so2":4.2,"mosquito_risk":7,"arthritis_risk":0,"migraine_risk":4,"frizz_risk":1,"updated_at":"2026-05-06T08:58:11.774183+05:30"},{"city":"Thiruvananthapuram","state":"Kerala","latitude":8.5241,"longitude":76.9366,"temp":28.7,"humidity":78,"rain":0.0,"pressure":1007.1,"uv_index":8.35,"wind_gusts":35.6,"aqi":51,"pm10":17.9,"pm2_5":10.6,"no2":4.8,"co":285.0,"o3":82.0,"so2":3.2,"mosquito_risk":7,"arthritis_risk":5,"migraine_risk":4,"frizz_risk":1,"updated_at":"2026-05-06T08:58:11.774190+05:30"},{"city":"Kozhikode","state":"Kerala","latitude":11.2588,"longitude":75.7804,"temp":29.4,"humidity":77,"rain":0.0,"pressure":1007.3,"uv_index":9.05,"wind_gusts":43.6,"aqi":64,"pm10":38.6,"pm2_5":17.8,"no2":2.1,"co":235.0,"o3":65.0,"so2":1.9,"mosquito_risk":7,"arthritis_risk":5,"migraine_risk":4,"frizz_risk":1,"updated_at":"2026-05-06T08:58:11.774198+05:30"},{"city":"Thrissur","state":"Kerala","latitude":10.5276,"longitude":76.2144,"temp":29.1,"humidity":76,"rain":0.0,"pressure":1006.7,"uv_index":9.05,"wind_gusts":35.6,"aqi":67,"pm10":36.6,"pm2_5":21.1,"no2":7.2,"co":214.0,"o3":68.0,"so2":3.3,"mosquito_risk":7,"arthritis_risk":5,"migraine_risk":4,"frizz_risk":1,"updated_at":"2026-05-06T08:58:11.774207+05:30"},{"city":"Kannur","state":"Kerala","latitude":11.8745,"longitude":75.3704,"temp":31.5,"humidity":63,"rain":0.0,"pressure":1006.4,"uv_index":9.05,"wind_gusts":51.5,"aqi":65,"pm10":38.0,"pm2_5":18.6,"no2":3.9,"co":191.0,"o3":63.0,"so2":1.6,"mosquito_risk":3,"arthritis_risk":5,"migraine_risk":4,"frizz_risk":1,"updated_at":"2026-05-06T08:58:11.774214+05:30"},{"city":"Patna","state":"Bihar","latitude":25.5941,"longitude":85.1376,"temp":26.9,"humidity":71,"rain":0.0,"pressure":1002.8,"uv_index":8.7,"wind_gusts":49.3,"aqi":144,"pm10":47.8,"pm2_5":35.0,"no2":7.1,"co":400.0,"o3":152.0,"so2":14.4,"mosquito_risk":7,"arthritis_risk":5,"migraine_risk":4,"frizz_risk":1,"updated_at":"2026-05-06T08:58:11.774222+05:30"},{"city":"Gaya","state":"Bihar","latitude":24.7914,"longitude":85.0002,"temp":26.6,"humidity":68,"rain":0.0,"pressure":996.4,"uv_index":8.75,"wind_gusts":50.4,"aqi":138,"pm10":55.3,"pm2_5":39.0,"no2":5.3,"co":387.0,"o3":165.0,"so2":14.0,"mosquito_risk":7,"arthritis_risk":5,"migraine_risk":7,"frizz_risk":1,"updated_at":"2026-05-06T08:58:11.774229+05:30"},{"city":"Muzaffarpur","state":"Bihar","latitude":26.1209,"longitude":85.3647,"temp":26.2,"humidity":72,"rain":0.0,"pressure":1002.8,"uv_index":8.7,"wind_gusts":46.8,"aqi":141,"pm10":47.3,"pm2_5":36.1,"no2":7.4,"co":384.0,"o3":145.0,"so2":13.9,"mosquito_risk":7,"arthritis_risk":5,"migraine_risk":4,"frizz_risk":1,"updated_at":"2026-05-06T08:58:11.774236+05:30"},{"city":"Bhagalpur","state":"Bihar","latitude":25.2425,"longitude":87.0117,"temp":26.6,"humidity":72,"rain":0.0,"pressure":1003.7,"uv_index":8.7,"wind_gusts":28.8,"aqi":108,"pm10":50.3,"pm2_5":42.6,"no2":9.0,"co":462.0,"o3":125.0,"so2":24.9,"mosquito_risk":7,"arthritis_risk":5,"migraine_risk":4,"frizz_risk":1,"updated_at":"2026-05-06T08:58:11.774243+05:30"},{"city":"Ranchi","state":"Jharkhand","latitude":23.3441,"longitude":85.3096,"temp":27.8,"humidity":55,"rain":0.0,"pressure":939.3,"uv_index":9.2,"wind_gusts":41.0,"aqi":105,"pm10":45.9,"pm2_5":34.3,"no2":3.6,"co":292.0,"o3":136.0,"so2":28.6,"mosquito_risk":4,"arthritis_risk":5,"migraine_risk":7,"frizz_risk":1,"updated_at":"2026-05-06T08:58:11.774250+05:30"},{"city":"Jamshedpur","state":"Jharkhand","latitude":22.8046,"longitude":86.2029,"temp":28.7,"humidity":65,"rain":0.0,"pressure":992.5,"uv_index":9.05,"wind_gusts":24.8,"aqi":102,"pm10":41.2,"pm2_5":33.9,"no2":10.7,"co":418.0,"o3":124.0,"so2":42.9,"mosquito_risk":7,"arthritis_risk":5,"migraine_risk":7,"frizz_risk":1,"updated_at":"2026-05-06T08:58:11.774258+05:30"},{"city":"Dhanbad","state":"Jharkhand","latitude":23.7957,"longitude":86.4304,"temp":28.1,"humidity":62,"rain":0.0,"pressure":981.9,"uv_index":8.95,"wind_gusts":27.4,"aqi":157,"pm10":82.2,"pm2_5":61.5,"no2":30.3,"co":492.0,"o3":136.0,"so2":70.6,"mosquito_risk":7,"arthritis_risk":5,"migraine_risk":7,"frizz_risk":1,"updated_at":"2026-05-06T08:58:11.774265+05:30"},{"city":"Bokaro","state":"Jharkhand","latitude":23.6693,"longitude":86.1511,"temp":29.0,"humidity":57,"rain":0.0,"pressure":985.7,"uv_index":9.0,"wind_gusts":29.9,"aqi":155,"pm10":75.0,"pm2_5":54.2,"no2":24.3,"co":610.0,"o3":138.0,"so2":58.0,"mosquito_risk":4,"arthritis_risk":5,"migraine_risk":7,"frizz_risk":1,"updated_at":"2026-05-06T08:58:11.774273+05:30"},{"city":"Bhubaneswar","state":"Odisha","latitude":20.2961,"longitude":85.8245,"temp":29.9,"humidity":71,"rain":0.0,"pressure":1003.7,"uv_index":9.1,"wind_gusts":33.8,"aqi":51,"pm10":19.3,"pm2_5":14.8,"no2":4.6,"co":255.0,"o3":78.0,"so2":4.7,"mosquito_risk":7,"arthritis_risk":5,"migraine_risk":4,"frizz_risk":1,"updated_at":"2026-05-06T08:58:11.774280+05:30"},{"city":"Cuttack","state":"Odisha","latitude":20.4625,"longitude":85.8828,"temp":29.6,"humidity":73,"rain":0.0,"pressure":1005.5,"uv_index":9.15,"wind_gusts":31.0,"aqi":51,"pm10":19.3,"pm2_5":14.8,"no2":4.6,"co":269.0,"o3":78.0,"so2":4.7,"mosquito_risk":7,"arthritis_risk":5,"migraine_risk":4,"frizz_risk":1,"updated_at":"2026-05-06T08:58:11.774287+05:30"},{"city":"Rourkela","state":"Odisha","latitude":22.2604,"longitude":84.8536,"temp":30.0,"humidity":58,"rain":0.0,"pressure":986.4,"uv_index":8.95,"wind_gusts":36.7,"aqi":110,"pm10":44.5,"pm2_5":37.3,"no2":4.8,"co":319.0,"o3":137.0,"so2":71.5,"mosquito_risk":4,"arthritis_risk":5,"migraine_risk":7,"frizz_risk":1,"updated_at":"2026-05-06T08:58:11.774295+05:30"},{"city":"Raipur","state":"Chhattisgarh","latitude":21.2514,"longitude":81.6296,"temp":32.2,"humidity":40,"rain":0.0,"pressure":975.9,"uv_index":9.0,"wind_gusts":36.7,"aqi":110,"pm10":53.7,"pm2_5":40.4,"no2":20.5,"co":300.0,"o3":107.0,"so2":9.0,"mosquito_risk":0,"arthritis_risk":5,"migraine_risk":7,"frizz_risk":1,"updated_at":"2026-05-06T08:58:11.774302+05:30"},{"city":"Bhilai","state":"Chhattisgarh","latitude":21.1938,"longitude":81.3509,"temp":31.5,"humidity":44,"rain":0.0,"pressure":976.3,"uv_index":9.0,"wind_gusts":34.2,"aqi":117,"pm10":62.2,"pm2_5":49.8,"no2":41.5,"co":409.0,"o3":88.0,"so2":13.2,"mosquito_risk":0,"arthritis_risk":5,"migraine_risk":7,"frizz_risk":1,"updated_at":"2026-05-06T08:58:11.774309+05:30"},{"city":"Guwahati","state":"Assam","latitude":26.1158,"longitude":91.7086,"temp":26.2,"humidity":75,"rain":0.0,"pressure":1004.3,"uv_index":8.65,"wind_gusts":25.9,"aqi":80,"pm10":25.7,"pm2_5":19.3,"no2":1.5,"co":272.0,"o3":124.0,"so2":1.2,"mosquito_risk":7,"arthritis_risk":5,"migraine_risk":4,"frizz_risk":1,"updated_at":"2026-05-06T08:58:11.774316+05:30"},{"city":"Agartala","state":"Tripura","latitude":23.8315,"longitude":91.2868,"temp":28.8,"humidity":69,"rain":0.0,"pressure":1008.5,"uv_index":8.85,"wind_gusts":37.1,"aqi":82,"pm10":20.6,"pm2_5":16.6,"no2":7.3,"co":229.0,"o3":90.0,"so2":2.8,"mosquito_risk":7,"arthritis_risk":0,"migraine_risk":4,"frizz_risk":1,"updated_at":"2026-05-06T08:58:11.774323+05:30"},{"city":"Shillong","state":"Meghalaya","latitude":25.5788,"longitude":91.8933,"temp":21.7,"humidity":58,"rain":0.0,"pressure":859.7,"uv_index":8.25,"wind_gusts":26.6,"aqi":77,"pm10":21.8,"pm2_5":15.2,"no2":1.5,"co":250.0,"o3":130.0,"so2":1.5,"mosquito_risk":0,"arthritis_risk":5,"migraine_risk":7,"frizz_risk":0,"updated_at":"2026-05-06T08:58:11.774331+05:30"},{"city":"Imphal","state":"Manipur","latitude":24.817,"longitude":93.9368,"temp":24.6,"humidity":68,"rain":0.0,"pressure":925.6,"uv_index":8.85,"wind_gusts":26.3,"aqi":80,"pm10":21.4,"pm2_5":14.6,"no2":1.2,"co":219.0,"o3":91.0,"so2":1.1,"mosquito_risk":3,"arthritis_risk":5,"migraine_risk":7,"frizz_risk":1,"updated_at":"2026-05-06T08:58:11.774338+05:30"},{"city":"Aizawl","state":"Mizoram","latitude":23.7271,"longitude":92.7176,"temp":23.3,"humidity":59,"rain":0.0,"pressure":895.3,"uv_index":8.75,"wind_gusts":22.0,"aqi":65,"pm10":23.7,"pm2_5":13.7,"no2":0.9,"co":181.0,"o3":96.0,"so2":2.0,"mosquito_risk":0,"arthritis_risk":5,"migraine_risk":7,"frizz_risk":0,"updated_at":"2026-05-06T08:58:11.774345+05:30"},{"city":"Kohima","state":"Nagaland","latitude":25.6701,"longitude":94.1077,"temp":22.0,"humidity":65,"rain":0.0,"pressure":858.1,"uv_index":9.15,"wind_gusts":27.7,"aqi":75,"pm10":27.5,"pm2_5":16.6,"no2":0.9,"co":227.0,"o3":107.0,"so2":1.5,"mosquito_risk":3,"arthritis_risk":5,"migraine_risk":7,"frizz_risk":0,"updated_at":"2026-05-06T08:58:11.774352+05:30"},{"city":"Gangtok","state":"Sikkim","latitude":27.3314,"longitude":88.6138,"temp":16.7,"humidity":80,"rain":0.0,"pressure":839.2,"uv_index":8.7,"wind_gusts":34.9,"aqi":53,"pm10":23.5,"pm2_5":14.0,"no2":2.3,"co":300.0,"o3":121.0,"so2":0.7,"mosquito_risk":3,"arthritis_risk":5,"migraine_risk":7,"frizz_risk":0,"updated_at":"2026-05-06T08:58:11.774359+05:30"},{"city":"Siliguri","state":"West Bengal","latitude":26.7271,"longitude":88.3953,"temp":24.8,"humidity":81,"rain":0.0,"pressure":994.9,"uv_index":8.4,"wind_gusts":18.0,"aqi":96,"pm10":45.2,"pm2_5":34.8,"no2":6.4,"co":570.0,"o3":123.0,"so2":4.1,"mosquito_risk":3,"arthritis_risk":5,"migraine_risk":7,"frizz_risk":1,"updated_at":"2026-05-06T08:58:15.090889+05:30"},{"city":"Durgapur","state":"West Bengal","latitude":23.5204,"longitude":87.3119,"temp":27.9,"humidity":72,"rain":0.0,"pressure":997.0,"uv_index":8.9,"wind_gusts":25.6,"aqi":134,"pm10":61.2,"pm2_5":51.8,"no2":35.6,"co":1011.0,"o3":87.0,"so2":85.6,"mosquito_risk":7,"arthritis_risk":5,"migraine_risk":7,"frizz_risk":1,"updated_at":"2026-05-06T08:58:15.090922+05:30"},{"city":"Asansol","state":"West Bengal","latitude":23.6739,"longitude":86.9524,"temp":28.3,"humidity":66,"rain":0.0,"pressure":995.7,"uv_index":8.95,"wind_gusts":25.9,"aqi":130,"pm10":72.4,"pm2_5":56.6,"no2":30.3,"co":372.0,"o3":120.0,"so2":78.1,"mosquito_risk":7,"arthritis_risk":5,"migraine_risk":7,"frizz_risk":1,"updated_at":"2026-05-06T08:58:15.090932+05:30"},{"city":"Pondicherry","state":"Puducherry","latitude":11.9139,"longitude":79.8145,"temp":30.1,"humidity":71,"rain":0.0,"pressure":1008.4,"uv_index":8.75,"wind_gusts":35.3,"aqi":54,"pm10":17.2,"pm2_5":11.7,"no2":7.7,"co":246.0,"o3":92.0,"so2":8.9,"mosquito_risk":3,"arthritis_risk":0,"migraine_risk":4,"frizz_risk":1,"updated_at":"2026-05-06T08:58:15.090941+05:30"},{"city":"Port Blair","state":"Andaman and Nicobar Islands","latitude":11.6234,"longitude":92.7265,"temp":31.0,"humidity":70,"rain":0.0,"pressure":1006.9,"uv_index":9.05,"wind_gusts":35.6,"aqi":30,"pm10":7.0,"pm2_5":5.4,"no2":0.4,"co":144.0,"o3":68.0,"so2":0.2,"mosquito_risk":3,"arthritis_risk":5,"migraine_risk":4,"frizz_risk":1,"updated_at":"2026-05-06T08:58:15.090950+05:30"},{"city":"Haridwar","state":"Uttarakhand","latitude":29.9457,"longitude":78.1642,"temp":25.5,"humidity":53,"rain":0.0,"pressure":976.1,"uv_index":7.35,"wind_gusts":27.7,"aqi":77,"pm10":72.2,"pm2_5":25.3,"no2":3.6,"co":274.0,"o3":136.0,"so2":5.9,"mosquito_risk":4,"arthritis_risk":5,"migraine_risk":7,"frizz_risk":0,"updated_at":"2026-05-06T08:58:15.090959+05:30"},{"city":"Rishikesh","state":"Uttarakhand","latitude":30.0869,"longitude":78.2676,"temp":24.7,"humidity":54,"rain":0.0,"pressure":968.7,"uv_index":7.45,"wind_gusts":24.5,"aqi":71,"pm10":61.5,"pm2_5":18.3,"no2":1.6,"co":233.0,"o3":134.0,"so2":2.0,"mosquito_risk":0,"arthritis_risk":5,"migraine_risk":7,"frizz_risk":0,"updated_at":"2026-05-06T08:58:15.090967+05:30"},{"city":"Nainital","state":"Uttarakhand","latitude":29.3919,"longitude":79.4542,"temp":16.3,"humidity":48,"rain":0.0,"pressure":806.8,"uv_index":6.55,"wind_gusts":31.0,"aqi":73,"pm10":68.7,"pm2_5":19.9,"no2":2.1,"co":196.0,"o3":140.0,"so2":3.4,"mosquito_risk":0,"arthritis_risk":5,"migraine_risk":7,"frizz_risk":0,"updated_at":"2026-05-06T08:58:15.090975+05:30"},{"city":"Mussoorie","state":"Uttarakhand","latitude":30.4599,"longitude":78.0664,"temp":16.1,"humidity":46,"rain":0.0,"pressure":803.9,"uv_index":7.3,"wind_gusts":38.9,"aqi":68,"pm10":38.2,"pm2_5":14.3,"no2":3.5,"co":179.0,"o3":140.0,"so2":5.0,"mosquito_risk":0,"arthritis_risk":5,"migraine_risk":7,"frizz_risk":0,"updated_at":"2026-05-06T08:58:15.090983+05:30"},{"city":"Dharamshala","state":"Himachal Pradesh","latitude":32.219,"longitude":76.3234,"temp":18.6,"humidity":55,"rain":0.0,"pressure":869.9,"uv_index":8.15,"wind_gusts":40.7,"aqi":35,"pm10":20.8,"pm2_5":6.2,"no2":1.0,"co":227.0,"o3":147.0,"so2":1.1,"mosquito_risk":0,"arthritis_risk":5,"migraine_risk":7,"frizz_risk":0,"updated_at":"2026-05-06T08:58:15.090990+05:30"},{"city":"Dalhousie","state":"Himachal Pradesh","latitude":32.5387,"longitude":75.971,"temp":15.5,"humidity":53,"rain":0.0,"pressure":805.2,"uv_index":8.35,"wind_gusts":33.5,"aqi":55,"pm10":32.0,"pm2_5":10.6,"no2":3.6,"co":253.0,"o3":144.0,"so2":2.2,"mosquito_risk":0,"arthritis_risk":5,"migraine_risk":7,"frizz_risk":0,"updated_at":"2026-05-06T08:58:15.090999+05:30"},{"city":"Patiala","state":"Punjab","latitude":30.3398,"longitude":76.3869,"temp":25.6,"humidity":58,"rain":0.0,"pressure":980.5,"uv_index":7.45,"wind_gusts":37.1,"aqi":248,"pm10":118.3,"pm2_5":37.3,"no2":6.3,"co":415.0,"o3":127.0,"so2":7.6,"mosquito_risk":4,"arthritis_risk":5,"migraine_risk":7,"frizz_risk":1,"updated_at":"2026-05-06T08:58:15.091005+05:30"},{"city":"Bhatinda","state":"Punjab","latitude":30.211,"longitude":74.9455,"temp":28.3,"humidity":41,"rain":0.0,"pressure":985.8,"uv_index":8.1,"wind_gusts":25.9,"aqi":153,"pm10":460.1,"pm2_5":91.3,"no2":6.3,"co":438.0,"o3":109.0,"so2":8.0,"mosquito_risk":4,"arthritis_risk":5,"migraine_risk":7,"frizz_risk":0,"updated_at":"2026-05-06T08:58:15.091012+05:30"},{"city":"Rohtak","state":"Haryana","latitude":28.8955,"longitude":76.6066,"temp":26.9,"humidity":51,"rain":0.0,"pressure":984.1,"uv_index":7.55,"wind_gusts":25.2,"aqi":153,"pm10":141.1,"pm2_5":74.5,"no2":16.4,"co":482.0,"o3":149.0,"so2":47.9,"mosquito_risk":4,"arthritis_risk":5,"migraine_risk":7,"frizz_risk":0,"updated_at":"2026-05-06T08:58:15.091020+05:30"},{"city":"Panipat","state":"Haryana","latitude":29.3909,"longitude":76.9635,"temp":26.0,"humidity":53,"rain":0.0,"pressure":982.9,"uv_index":7.4,"wind_gusts":26.6,"aqi":418,"pm10":161.6,"pm2_5":59.5,"no2":10.2,"co":484.0,"o3":146.0,"so2":28.0,"mosquito_risk":4,"arthritis_risk":5,"migraine_risk":7,"frizz_risk":0,"updated_at":"2026-05-06T08:58:15.091027+05:30"},{"city":"Mathura","state":"Uttar Pradesh","latitude":27.4924,"longitude":77.6737,"temp":27.3,"humidity":58,"rain":0.0,"pressure":989.1,"uv_index":7.8,"wind_gusts":25.9,"aqi":151,"pm10":138.8,"pm2_5":56.0,"no2":9.0,"co":464.0,"o3":133.0,"so2":14.6,"mosquito_risk":4,"arthritis_risk":5,"migraine_risk":7,"frizz_risk":1,"updated_at":"2026-05-06T08:58:15.091035+05:30"},{"city":"Vrindavan","state":"Uttar Pradesh","latitude":27.5823,"longitude":77.7027,"temp":27.5,"humidity":56,"rain":0.0,"pressure":989.6,"uv_index":7.8,"wind_gusts":25.6,"aqi":151,"pm10":138.8,"pm2_5":56.0,"no2":9.0,"co":421.0,"o3":133.0,"so2":14.6,"mosquito_risk":4,"arthritis_risk":5,"migraine_risk":7,"frizz_risk":1,"updated_at":"2026-05-06T08:58:15.091042+05:30"},{"city":"Ayodhya","state":"Uttar Pradesh","latitude":26.7922,"longitude":82.1998,"temp":26.0,"humidity":69,"rain":0.0,"pressure":997.6,"uv_index":8.2,"wind_gusts":34.9,"aqi":120,"pm10":60.3,"pm2_5":49.0,"no2":7.7,"co":365.0,"o3":141.0,"so2":13.8,"mosquito_risk":7,"arthritis_risk":5,"migraine_risk":7,"frizz_risk":1,"updated_at":"2026-05-06T08:58:15.091049+05:30"},{"city":"Ratlam","state":"Madhya Pradesh","latitude":23.3315,"longitude":75.0367,"temp":29.9,"humidity":37,"rain":0.0,"pressure":956.4,"uv_index":8.45,"wind_gusts":28.1,"aqi":77,"pm10":59.0,"pm2_5":26.6,"no2":5.0,"co":226.0,"o3":93.0,"so2":15.9,"mosquito_risk":4,"arthritis_risk":5,"migraine_risk":7,"frizz_risk":0,"updated_at":"2026-05-06T08:58:15.091056+05:30"},{"city":"Sagar","state":"Madhya Pradesh","latitude":23.8388,"longitude":78.7378,"temp":29.8,"humidity":36,"rain":0.0,"pressure":952.0,"uv_index":8.65,"wind_gusts":36.0,"aqi":77,"pm10":49.6,"pm2_5":28.2,"no2":2.0,"co":222.0,"o3":146.0,"so2":8.6,"mosquito_risk":4,"arthritis_risk":5,"migraine_risk":7,"frizz_risk":0,"updated_at":"2026-05-06T08:58:15.091063+05:30"},{"city":"Satna","state":"Madhya Pradesh","latitude":24.6005,"longitude":80.8322,"temp":26.9,"humidity":62,"rain":0.0,"pressure":973.0,"uv_index":8.7,"wind_gusts":33.8,"aqi":122,"pm10":70.5,"pm2_5":42.8,"no2":3.3,"co":312.0,"o3":162.0,"so2":13.9,"mosquito_risk":7,"arthritis_risk":5,"migraine_risk":7,"frizz_risk":1,"updated_at":"2026-05-06T08:58:15.091070+05:30"},{"city":"Akola","state":"Maharashtra","latitude":20.7002,"longitude":77.0082,"temp":33.3,"humidity":32,"rain":0.0,"pressure":975.6,"uv_index":8.85,"wind_gusts":40.7,"aqi":61,"pm10":40.5,"pm2_5":18.7,"no2":4.8,"co":208.0,"o3":112.0,"so2":9.4,"mosquito_risk":0,"arthritis_risk":5,"migraine_risk":7,"frizz_risk":0,"updated_at":"2026-05-06T08:58:15.091078+05:30"},{"city":"Amravati","state":"Maharashtra","latitude":20.9374,"longitude":77.7796,"temp":32.8,"humidity":28,"rain":0.0,"pressure":968.2,"uv_index":8.85,"wind_gusts":30.6,"aqi":65,"pm10":37.4,"pm2_5":18.5,"no2":5.5,"co":220.0,"o3":113.0,"so2":6.3,"mosquito_risk":0,"arthritis_risk":5,"migraine_risk":7,"frizz_risk":0,"updated_at":"2026-05-06T08:58:15.091086+05:30"},{"city":"Latur","state":"Maharashtra","latitude":18.4088,"longitude":76.5604,"temp":32.5,"humidity":27,"rain":0.0,"pressure":940.6,"uv_index":9.05,"wind_gusts":39.2,"aqi":65,"pm10":35.6,"pm2_5":18.0,"no2":4.5,"co":189.0,"o3":104.0,"so2":16.6,"mosquito_risk":0,"arthritis_risk":5,"migraine_risk":7,"frizz_risk":0,"updated_at":"2026-05-06T08:58:15.091093+05:30"},{"city":"Nanded","state":"Maharashtra","latitude":19.1383,"longitude":77.3091,"temp":33.0,"humidity":31,"rain":0.0,"pressure":969.4,"uv_index":9.0,"wind_gusts":29.5,"aqi":68,"pm10":46.0,"pm2_5":28.7,"no2":8.4,"co":222.0,"o3":117.0,"so2":9.9,"mosquito_risk":0,"arthritis_risk":5,"migraine_risk":7,"frizz_risk":0,"updated_at":"2026-05-06T08:58:15.091100+05:30"},{"city":"Gulbarga","state":"Karnataka","latitude":17.3297,"longitude":76.8343,"temp":31.5,"humidity":38,"rain":0.0,"pressure":958.9,"uv_index":9.1,"wind_gusts":40.0,"aqi":63,"pm10":32.5,"pm2_5":19.6,"no2":9.6,"co":294.0,"o3":92.0,"so2":10.7,"mosquito_risk":0,"arthritis_risk":5,"migraine_risk":7,"frizz_risk":0,"updated_at":"2026-05-06T08:58:15.091107+05:30"},{"city":"Bidar","state":"Karnataka","latitude":17.9104,"longitude":77.5199,"temp":31.1,"humidity":42,"rain":0.0,"pressure":936.5,"uv_index":9.15,"wind_gusts":37.8,"aqi":81,"pm10":41.3,"pm2_5":30.2,"no2":6.3,"co":246.0,"o3":111.0,"so2":6.9,"mosquito_risk":0,"arthritis_risk":5,"migraine_risk":7,"frizz_risk":1,"updated_at":"2026-05-06T08:58:15.091113+05:30"},{"city":"Hospet","state":"Karnataka","latitude":15.2689,"longitude":76.3909,"temp":27.8,"humidity":65,"rain":0.0,"pressure":956.4,"uv_index":8.85,"wind_gusts":43.2,"aqi":67,"pm10":43.7,"pm2_5":18.0,"no2":6.6,"co":219.0,"o3":69.0,"so2":4.0,"mosquito_risk":7,"arthritis_risk":5,"migraine_risk":7,"frizz_risk":1,"updated_at":"2026-05-06T08:58:15.091119+05:30"},{"city":"Tirupur","state":"Tamil Nadu","latitude":11.1085,"longitude":77.3411,"temp":29.6,"humidity":62,"rain":0.0,"pressure":975.3,"uv_index":9.35,"wind_gusts":28.8,"aqi":78,"pm10":35.5,"pm2_5":23.5,"no2":9.8,"co":306.0,"o3":113.0,"so2":8.9,"mosquito_risk":7,"arthritis_risk":5,"migraine_risk":7,"frizz_risk":1,"updated_at":"2026-05-06T08:58:15.091124+05:30"},{"city":"Alappuzha","state":"Kerala","latitude":9.4981,"longitude":76.3388,"temp":28.9,"humidity":80,"rain":0.0,"pressure":1007.9,"uv_index":8.65,"wind_gusts":35.6,"aqi":57,"pm10":25.8,"pm2_5":15.5,"no2":8.3,"co":145.0,"o3":83.0,"so2":4.9,"mosquito_risk":7,"arthritis_risk":5,"migraine_risk":4,"frizz_risk":1,"updated_at":"2026-05-06T08:58:15.091130+05:30"},{"city":"Munnar","state":"Kerala","latitude":10.0889,"longitude":77.0595,"temp":21.4,"humidity":71,"rain":0.0,"pressure":857.4,"uv_index":6.35,"wind_gusts":21.2,"aqi":61,"pm10":29.7,"pm2_5":15.2,"no2":3.1,"co":228.0,"o3":108.0,"so2":2.3,"mosquito_risk":3,"arthritis_risk":5,"migraine_risk":7,"frizz_risk":0,"updated_at":"2026-05-06T08:58:15.091136+05:30"},{"city":"Silchar","state":"Assam","latitude":24.8333,"longitude":92.7789,"temp":28.0,"humidity":71,"rain":0.0,"pressure":1007.7,"uv_index":8.75,"wind_gusts":21.6,"aqi":110,"pm10":35.4,"pm2_5":25.1,"no2":1.8,"co":239.0,"o3":104.0,"so2":4.3,"mosquito_risk":7,"arthritis_risk":5,"migraine_risk":4,"frizz_risk":1,"updated_at":"2026-05-06T08:58:15.091141+05:30"},{"city":"Dibrugarh","state":"Assam","latitude":27.4728,"longitude":94.912,"temp":24.2,"humidity":81,"rain":0.1,"pressure":999.0,"uv_index":8.8,"wind_gusts":25.6,"aqi":72,"pm10":33.8,"pm2_5":19.7,"no2":1.7,"co":247.0,"o3":122.0,"so2":1.0,"mosquito_risk":6,"arthritis_risk":5,"migraine_risk":7,"frizz_risk":1,"updated_at":"2026-05-06T08:58:15.091147+05:30"}]