[{"city":"Delhi","state":"Delhi","latitude":28.6139,"longitude":77.209,"temp":28.4,"humidity":22,"rain":0.0,"pressure":987.0,"uv_index":5.5,"aqi":158,"mosquito_risk":4,"arthritis_risk":5,"migraine_risk":3,"frizz_risk":0,"updated_at":"2026-02-25T15:28:26.004158+05:30"},{"city":"Mumbai","state":"Maharashtra","latitude":19.076,"longitude":72.8777,"temp":27.2,"humidity":72,"rain":0.0,"pressure":1009.4,"uv_index":7.25,"aqi":100,"mosquito_risk":7,"arthritis_risk":0,"migraine_risk":4,"frizz_risk":1,"updated_at":"2026-02-25T15:28:26.004202+05:30"},{"city":"Bangalore","state":"Karnataka","latitude":12.9716,"longitude":77.5946,"temp":29.3,"humidity":34,"rain":0.0,"pressure":911.8,"uv_index":8.7,"aqi":99,"mosquito_risk":4,"arthritis_risk":5,"migraine_risk":7,"frizz_risk":0,"updated_at":"2026-02-25T15:28:26.004218+05:30"},{"city":"Hyderabad","state":"Telangana","latitude":17.385,"longitude":78.4867,"temp":25.7,"humidity":56,"rain":0.0,"pressure":954.6,"uv_index":8.05,"aqi":146,"mosquito_risk":4,"arthritis_risk":5,"migraine_risk":7,"frizz_risk":1,"updated_at":"2026-02-25T15:28:26.004228+05:30"},{"city":"Chennai","state":"Tamil Nadu","latitude":13.0827,"longitude":80.2707,"temp":31.0,"humidity":56,"rain":0.0,"pressure":1008.1,"uv_index":8.55,"aqi":55,"mosquito_risk":0,"arthritis_risk":0,"migraine_risk":4,"frizz_risk":1,"updated_at":"2026-02-25T15:28:26.004238+05:30"},{"city":"Kolkata","state":"West Bengal","latitude":22.5726,"longitude":88.3639,"temp":29.7,"humidity":43,"rain":0.0,"pressure":1007.4,"uv_index":7.35,"aqi":185,"mosquito_risk":4,"arthritis_risk":5,"migraine_risk":4,"frizz_risk":0,"updated_at":"2026-02-25T15:28:26.004246+05:30"},{"city":"Pune","state":"Maharashtra","latitude":18.5204,"longitude":73.8567,"temp":33.7,"humidity":20,"rain":0.0,"pressure":949.2,"uv_index":7.75,"aqi":127,"mosquito_risk":0,"arthritis_risk":5,"migraine_risk":7,"frizz_risk":0,"updated_at":"2026-02-25T15:28:26.004254+05:30"},{"city":"Ahmedabad","state":"Gujarat","latitude":23.0225,"longitude":72.5714,"temp":35.1,"humidity":20,"rain":0.0,"pressure":1002.9,"uv_index":7.05,"aqi":82,"mosquito_risk":0,"arthritis_risk":5,"migraine_risk":7,"frizz_risk":0,"updated_at":"2026-02-25T15:28:26.004261+05:30"},{"city":"Jaipur","state":"Rajasthan","latitude":26.9124,"longitude":75.7873,"temp":30.3,"humidity":19,"rain":0.0,"pressure":963.0,"uv_index":6.35,"aqi":108,"mosquito_risk":0,"arthritis_risk":5,"migraine_risk":7,"frizz_risk":0,"updated_at":"2026-02-25T15:28:26.004268+05:30"},{"city":"Lucknow","state":"Uttar Pradesh","latitude":26.8467,"longitude":80.9462,"temp":29.6,"humidity":31,"rain":0.0,"pressure":997.0,"uv_index":5.95,"aqi":164,"mosquito_risk":4,"arthritis_risk":5,"migraine_risk":3,"frizz_risk":0,"updated_at":"2026-02-25T15:28:26.004282+05:30"},{"city":"Kanpur","state":"Uttar Pradesh","latitude":26.4499,"longitude":80.3319,"temp":29.5,"humidity":29,"rain":0.0,"pressure":995.4,"uv_index":6.0,"aqi":161,"mosquito_risk":4,"arthritis_risk":5,"migraine_risk":3,"frizz_risk":0,"updated_at":"2026-02-25T15:28:26.004289+05:30"},{"city":"Chandigarh","state":"Chandigarh","latitude":30.7333,"longitude":76.7794,"temp":26.5,"humidity":44,"rain":0.0,"pressure":972.4,"uv_index":5.45,"aqi":151,"mosquito_risk":4,"arthritis_risk":5,"migraine_risk":3,"frizz_risk":0,"updated_at":"2026-02-25T15:28:26.004296+05:30"},{"city":"Srinagar","state":"Jammu and Kashmir","latitude":34.0837,"longitude":74.7973,"temp":16.9,"humidity":31,"rain":0.0,"pressure":843.2,"uv_index":6.3,"aqi":153,"mosquito_risk":0,"arthritis_risk":5,"migraine_risk":7,"frizz_risk":1,"updated_at":"2026-02-25T15:28:26.004304+05:30"},{"city":"Jammu","state":"Jammu and Kashmir","latitude":32.7266,"longitude":74.857,"temp":25.9,"humidity":55,"rain":0.0,"pressure":976.3,"uv_index":6.0,"aqi":152,"mosquito_risk":4,"arthritis_risk":5,"migraine_risk":3,"frizz_risk":1,"updated_at":"2026-02-25T15:28:26.004312+05:30"},{"city":"Amritsar","state":"Punjab","latitude":31.634,"longitude":74.8723,"temp":26.0,"humidity":52,"rain":0.0,"pressure":985.1,"uv_index":5.95,"aqi":189,"mosquito_risk":4,"arthritis_risk":5,"migraine_risk":3,"frizz_risk":0,"updated_at":"2026-02-25T15:28:26.004318+05:30"},{"city":"Ludhiana","state":"Punjab","latitude":30.901,"longitude":75.8573,"temp":26.7,"humidity":42,"rain":0.0,"pressure":982.9,"uv_index":5.65,"aqi":177,"mosquito_risk":4,"arthritis_risk":5,"migraine_risk":3,"frizz_risk":0,"updated_at":"2026-02-25T15:28:26.004326+05:30"},{"city":"Jalandhar","state":"Punjab","latitude":31.326,"longitude":75.5762,"temp":26.2,"humidity":51,"rain":0.0,"pressure":984.0,"uv_index":5.8,"aqi":181,"mosquito_risk":4,"arthritis_risk":5,"migraine_risk":3,"frizz_risk":0,"updated_at":"2026-02-25T15:28:26.004335+05:30"},{"city":"Dehradun","state":"Uttarakhand","latitude":30.6284,"longitude":78.0322,"temp":16.6,"humidity":59,"rain":0.0,"pressure":831.5,"uv_index":5.75,"aqi":85,"mosquito_risk":0,"arthritis_risk":5,"migraine_risk":3,"frizz_risk":0,"updated_at":"2026-02-25T15:28:26.004343+05:30"},{"city":"Shimla","state":"Himachal Pradesh","latitude":31.1048,"longitude":77.1734,"temp":14.8,"humidity":57,"rain":0.0,"pressure":785.9,"uv_index":5.85,"aqi":103,"mosquito_risk":0,"arthritis_risk":5,"migraine_risk":3,"frizz_risk":0,"updated_at":"2026-02-25T15:28:26.004350+05:30"},{"city":"Manali","state":"Himachal Pradesh","latitude":32.2396,"longitude":77.1887,"temp":18.6,"humidity":43,"rain":0.0,"pressure":820.3,"uv_index":7.5,"aqi":55,"mosquito_risk":0,"arthritis_risk":5,"migraine_risk":7,"frizz_risk":0,"updated_at":"2026-02-25T15:28:26.004360+05:30"},{"city":"Gurgaon","state":"Haryana","latitude":28.4595,"longitude":77.0266,"temp":28.4,"humidity":23,"rain":0.0,"pressure":985.5,"uv_index":5.65,"aqi":163,"mosquito_risk":4,"arthritis_risk":5,"migraine_risk":3,"frizz_risk":0,"updated_at":"2026-02-25T15:28:26.004366+05:30"},{"city":"Noida","state":"Uttar Pradesh","latitude":28.5355,"longitude":77.391,"temp":28.9,"humidity":20,"rain":0.0,"pressure":988.5,"uv_index":5.55,"aqi":163,"mosquito_risk":4,"arthritis_risk":5,"migraine_risk":3,"frizz_risk":0,"updated_at":"2026-02-25T15:28:26.004373+05:30"},{"city":"Ghaziabad","state":"Uttar Pradesh","latitude":28.6692,"longitude":77.4538,"temp":27.7,"humidity":27,"rain":0.0,"pressure":986.8,"uv_index":5.5,"aqi":157,"mosquito_risk":4,"arthritis_risk":5,"migraine_risk":3,"frizz_risk":0,"updated_at":"2026-02-25T15:28:26.004380+05:30"},{"city":"Faridabad","state":"Haryana","latitude":28.4089,"longitude":77.3178,"temp":27.9,"humidity":27,"rain":0.0,"pressure":987.8,"uv_index":5.55,"aqi":163,"mosquito_risk":4,"arthritis_risk":5,"migraine_risk":3,"frizz_risk":0,"updated_at":"2026-02-25T15:28:26.004388+05:30"},{"city":"Meerut","state":"Uttar Pradesh","latitude":28.9845,"longitude":77.7064,"temp":27.1,"humidity":38,"rain":0.0,"pressure":985.5,"uv_index":5.4,"aqi":157,"mosquito_risk":4,"arthritis_risk":5,"migraine_risk":3,"frizz_risk":0,"updated_at":"2026-02-25T15:28:26.004395+05:30"},{"city":"Agra","state":"Uttar Pradesh","latitude":27.1767,"longitude":78.0081,"temp":29.3,"humidity":35,"rain":0.0,"pressure":991.7,"uv_index":5.85,"aqi":171,"mosquito_risk":4,"arthritis_risk":5,"migraine_risk":3,"frizz_risk":0,"updated_at":"2026-02-25T15:28:26.004401+05:30"},{"city":"Varanasi","state":"Uttar Pradesh","latitude":25.3176,"longitude":82.9739,"temp":28.0,"humidity":39,"rain":0.0,"pressure":1001.4,"uv_index":6.65,"aqi":155,"mosquito_risk":4,"arthritis_risk":5,"migraine_risk":4,"frizz_risk":0,"updated_at":"2026-02-25T15:28:26.004408+05:30"},{"city":"Prayagraj","state":"Uttar Pradesh","latitude":25.4358,"longitude":81.8463,"temp":28.3,"humidity":37,"rain":0.0,"pressure":999.9,"uv_index":6.5,"aqi":167,"mosquito_risk":4,"arthritis_risk":5,"migraine_risk":7,"frizz_risk":0,"updated_at":"2026-02-25T15:28:26.004415+05:30"},{"city":"Gorakhpur","state":"Uttar Pradesh","latitude":26.7606,"longitude":83.3732,"temp":27.9,"humidity":43,"rain":0.0,"pressure":1000.2,"uv_index":6.35,"aqi":172,"mosquito_risk":4,"arthritis_risk":5,"migraine_risk":4,"frizz_risk":0,"updated_at":"2026-02-25T15:28:26.004422+05:30"},{"city":"Bareilly","state":"Uttar Pradesh","latitude":28.367,"longitude":79.4304,"temp":27.7,"humidity":28,"rain":0.0,"pressure":990.4,"uv_index":5.65,"aqi":168,"mosquito_risk":4,"arthritis_risk":5,"migraine_risk":3,"frizz_risk":0,"updated_at":"2026-02-25T15:28:26.004431+05:30"},{"city":"Aligarh","state":"Uttar Pradesh","latitude":27.8974,"longitude":78.088,"temp":28.2,"humidity":31,"rain":0.0,"pressure":989.6,"uv_index":5.6,"aqi":164,"mosquito_risk":4,"arthritis_risk":5,"migraine_risk":3,"frizz_risk":0,"updated_at":"2026-02-25T15:28:26.004438+05:30"},{"city":"Moradabad","state":"Uttar Pradesh","latitude":28.8386,"longitude":78.7733,"temp":27.2,"humidity":31,"rain":0.0,"pressure":987.3,"uv_index":5.5,"aqi":173,"mosquito_risk":4,"arthritis_risk":5,"migraine_risk":3,"frizz_risk":0,"updated_at":"2026-02-25T15:28:26.004444+05:30"},{"city":"Saharanpur","state":"Uttar Pradesh","latitude":29.9637,"longitude":77.546,"temp":26.8,"humidity":36,"rain":0.0,"pressure":979.3,"uv_index":5.15,"aqi":163,"mosquito_risk":4,"arthritis_risk":5,"migraine_risk":3,"frizz_risk":0,"updated_at":"2026-02-25T15:28:26.004450+05:30"},{"city":"Jhansi","state":"Uttar Pradesh","latitude":25.4484,"longitude":78.5685,"temp":30.2,"humidity":24,"rain":0.0,"pressure":981.5,"uv_index":6.45,"aqi":123,"mosquito_risk":0,"arthritis_risk":5,"migraine_risk":7,"frizz_risk":0,"updated_at":"2026-02-25T15:28:29.288435+05:30"},{"city":"Surat","state":"Gujarat","latitude":21.1702,"longitude":72.8311,"temp":31.2,"humidity":39,"rain":0.0,"pressure":1008.1,"uv_index":7.0,"aqi":153,"mosquito_risk":0,"arthritis_risk":0,"migraine_risk":4,"frizz_risk":0,"updated_at":"2026-02-25T15:28:29.288472+05:30"},{"city":"Vadodara","state":"Gujarat","latitude":22.3072,"longitude":73.1812,"temp":36.2,"humidity":20,"rain":0.0,"pressure":1004.8,"uv_index":7.05,"aqi":86,"mosquito_risk":0,"arthritis_risk":5,"migraine_risk":7,"frizz_risk":0,"updated_at":"2026-02-25T15:28:29.288484+05:30"},{"city":"Rajkot","state":"Gujarat","latitude":22.3039,"longitude":70.8022,"temp":34.8,"humidity":19,"rain":0.0,"pressure":995.0,"uv_index":6.95,"aqi":63,"mosquito_risk":0,"arthritis_risk":5,"migraine_risk":7,"frizz_risk":0,"updated_at":"2026-02-25T15:28:29.288493+05:30"},{"city":"Thane","state":"Maharashtra","latitude":19.2183,"longitude":72.9781,"temp":30.5,"humidity":48,"rain":0.0,"pressure":1009.1,"uv_index":7.25,"aqi":100,"mosquito_risk":0,"arthritis_risk":0,"migraine_risk":4,"frizz_risk":1,"updated_at":"2026-02-25T15:28:29.288502+05:30"},{"city":"Nagpur","state":"Maharashtra","latitude":21.1458,"longitude":79.0882,"temp":27.1,"humidity":44,"rain":0.0,"pressure":975.6,"uv_index":6.5,"aqi":124,"mosquito_risk":4,"arthritis_risk":5,"migraine_risk":7,"frizz_risk":0,"updated_at":"2026-02-25T15:28:29.288510+05:30"},{"city":"Nashik","state":"Maharashtra","latitude":19.9975,"longitude":73.7898,"temp":31.8,"humidity":23,"rain":0.0,"pressure":946.1,"uv_index":7.4,"aqi":110,"mosquito_risk":0,"arthritis_risk":5,"migraine_risk":7,"frizz_risk":0,"updated_at":"2026-02-25T15:28:29.288518+05:30"},{"city":"Aurangabad","state":"Maharashtra","latitude":19.8762,"longitude":75.3433,"temp":30.2,"humidity":28,"rain":0.0,"pressure":945.1,"uv_index":7.35,"aqi":104,"mosquito_risk":0,"arthritis_risk":5,"migraine_risk":7,"frizz_risk":0,"updated_at":"2026-02-25T15:28:29.288527+05:30"},{"city":"Solapur","state":"Maharashtra","latitude":17.6599,"longitude":75.9064,"temp":30.9,"humidity":39,"rain":0.0,"pressure":957.9,"uv_index":7.85,"aqi":129,"mosquito_risk":0,"arthritis_risk":5,"migraine_risk":7,"frizz_risk":0,"updated_at":"2026-02-25T15:28:29.288536+05:30"},{"city":"Kolhapur","state":"Maharashtra","latitude":16.705,"longitude":74.2433,"temp":31.9,"humidity":27,"rain":0.0,"pressure":948.5,"uv_index":8.2,"aqi":151,"mosquito_risk":0,"arthritis_risk":5,"migraine_risk":7,"frizz_risk":0,"updated_at":"2026-02-25T15:28:29.288545+05:30"},{"city":"Goa","state":"Goa","latitude":15.2993,"longitude":74.124,"temp":30.7,"humidity":64,"rain":0.0,"pressure":998.1,"uv_index":8.2,"aqi":151,"mosquito_risk":3,"arthritis_risk":5,"migraine_risk":7,"frizz_risk":1,"updated_at":"2026-02-25T15:28:29.288553+05:30"},{"city":"Jodhpur","state":"Rajasthan","latitude":26.2389,"longitude":73.0243,"temp":33.4,"humidity":18,"rain":0.0,"pressure":985.3,"uv_index":6.6,"aqi":65,"mosquito_risk":0,"arthritis_risk":5,"migraine_risk":7,"frizz_risk":0,"updated_at":"2026-02-25T15:28:29.288562+05:30"},{"city":"Udaipur","state":"Rajasthan","latitude":24.5854,"longitude":73.7125,"temp":28.5,"humidity":26,"rain":0.0,"pressure":948.6,"uv_index":7.25,"aqi":44,"mosquito_risk":4,"arthritis_risk":5,"migraine_risk":7,"frizz_risk":0,"updated_at":"2026-02-25T15:28:29.288570+05:30"},{"city":"Kota","state":"Rajasthan","latitude":25.2138,"longitude":75.8648,"temp":31.4,"humidity":25,"rain":0.0,"pressure":981.6,"uv_index":6.65,"aqi":97,"mosquito_risk":0,"arthritis_risk":5,"migraine_risk":7,"frizz_risk":0,"updated_at":"2026-02-25T15:28:29.288578+05:30"},{"city":"Bikaner","state":"Rajasthan","latitude":28.0229,"longitude":73.3119,"temp":31.7,"humidity":18,"rain":0.0,"pressure":984.9,"uv_index":6.25,"aqi":57,"mosquito_risk":0,"arthritis_risk":5,"migraine_risk":7,"frizz_risk":0,"updated_at":"2026-02-25T15:28:29.288587+05:30"},{"city":"Ajmer","state":"Rajasthan","latitude":26.4499,"longitude":74.6399,"temp":30.6,"humidity":20,"rain":0.0,"pressure":957.4,"uv_index":6.6,"aqi":90,"mosquito_risk":0,"arthritis_risk":5,"migraine_risk":7,"frizz_risk":0,"updated_at":"2026-02-25T15:28:29.288595+05:30"},{"city":"Gwalior","state":"Madhya Pradesh","latitude":26.2183,"longitude":78.1828,"temp":29.2,"humidity":29,"rain":0.0,"pressure":986.9,"uv_index":6.2,"aqi":138,"mosquito_risk":4,"arthritis_risk":5,"migraine_risk":7,"frizz_risk":0,"updated_at":"2026-02-25T15:28:29.288604+05:30"},{"city":"Indore","state":"Madhya Pradesh","latitude":22.7196,"longitude":75.8577,"temp":29.4,"humidity":28,"rain":0.0,"pressure":950.0,"uv_index":7.2,"aqi":99,"mosquito_risk":4,"arthritis_risk":5,"migraine_risk":7,"frizz_risk":0,"updated_at":"2026-02-25T15:28:29.288612+05:30"},{"city":"Bhopal","state":"Madhya Pradesh","latitude":23.2599,"longitude":77.4126,"temp":29.8,"humidity":24,"rain":0.0,"pressure":956.1,"uv_index":7.05,"aqi":77,"mosquito_risk":4,"arthritis_risk":5,"migraine_risk":7,"frizz_risk":0,"updated_at":"2026-02-25T15:28:29.288621+05:30"},{"city":"Jabalpur","state":"Madhya Pradesh","latitude":23.1815,"longitude":79.9864,"temp":29.8,"humidity":25,"rain":0.0,"pressure":964.1,"uv_index":7.1,"aqi":79,"mosquito_risk":4,"arthritis_risk":5,"migraine_risk":7,"frizz_risk":0,"updated_at":"2026-02-25T15:28:29.288628+05:30"},{"city":"Ujjain","state":"Madhya Pradesh","latitude":23.1765,"longitude":75.7885,"temp":30.0,"humidity":26,"rain":0.0,"pressure":955.9,"uv_index":7.1,"aqi":112,"mosquito_risk":4,"arthritis_risk":5,"migraine_risk":7,"frizz_risk":0,"updated_at":"2026-02-25T15:28:29.288638+05:30"},{"city":"Visakhapatnam","state":"Andhra Pradesh","latitude":17.6868,"longitude":83.2185,"temp":29.0,"humidity":61,"rain":0.0,"pressure":1005.0,"uv_index":8.05,"aqi":130,"mosquito_risk":7,"arthritis_risk":5,"migraine_risk":4,"frizz_risk":1,"updated_at":"2026-02-25T15:28:29.288645+05:30"},{"city":"Vijayawada","state":"Andhra Pradesh","latitude":16.5062,"longitude":80.648,"temp":32.1,"humidity":43,"rain":0.0,"pressure":1003.4,"uv_index":8.15,"aqi":129,"mosquito_risk":0,"arthritis_risk":5,"migraine_risk":4,"frizz_risk":1,"updated_at":"2026-02-25T15:28:29.288653+05:30"},{"city":"Guntur","state":"Andhra Pradesh","latitude":16.3067,"longitude":80.4365,"temp":32.8,"humidity":39,"rain":0.0,"pressure":1004.5,"uv_index":8.15,"aqi":124,"mosquito_risk":0,"arthritis_risk":5,"migraine_risk":4,"frizz_risk":1,"updated_at":"2026-02-25T15:28:29.288662+05:30"},{"city":"Nellore","state":"Andhra Pradesh","latitude":14.4426,"longitude":79.9865,"temp":32.3,"humidity":45,"rain":0.0,"pressure":1006.8,"uv_index":8.4,"aqi":60,"mosquito_risk":0,"arthritis_risk":5,"migraine_risk":4,"frizz_risk":1,"updated_at":"2026-02-25T15:28:29.288669+05:30"},{"city":"Kurnool","state":"Andhra Pradesh","latitude":15.8281,"longitude":78.0373,"temp":32.8,"humidity":38,"rain":0.0,"pressure":977.5,"uv_index":8.2,"aqi":110,"mosquito_risk":0,"arthritis_risk":5,"migraine_risk":7,"frizz_risk":1,"updated_at":"2026-02-25T15:28:29.288676+05:30"},{"city":"Kakinada","state":"Andhra Pradesh","latitude":16.9891,"longitude":82.2475,"temp":29.7,"humidity":57,"rain":0.0,"pressure":1008.6,"uv_index":8.05,"aqi":61,"mosquito_risk":4,"arthritis_risk":0,"migraine_risk":4,"frizz_risk":1,"updated_at":"2026-02-25T15:28:29.288683+05:30"},{"city":"Tirupati","state":"Andhra Pradesh","latitude":13.6288,"longitude":79.4192,"temp":32.1,"humidity":40,"rain":0.0,"pressure":991.7,"uv_index":8.5,"aqi":81,"mosquito_risk":0,"arthritis_risk":5,"migraine_risk":7,"frizz_risk":1,"updated_at":"2026-02-25T15:28:29.288690+05:30"},{"city":"Warangal","state":"Telangana","latitude":17.9689,"longitude":79.5941,"temp":32.2,"humidity":40,"rain":0.0,"pressure":979.7,"uv_index":7.8,"aqi":155,"mosquito_risk":0,"arthritis_risk":5,"migraine_risk":7,"frizz_risk":1,"updated_at":"2026-02-25T15:28:29.288696+05:30"},{"city":"Nizamabad","state":"Telangana","latitude":18.6725,"longitude":78.0941,"temp":31.9,"humidity":31,"rain":0.0,"pressure":965.8,"uv_index":7.75,"aqi":155,"mosquito_risk":0,"arthritis_risk":5,"migraine_risk":7,"frizz_risk":0,"updated_at":"2026-02-25T15:28:29.288702+05:30"},{"city":"Mysore","state":"Karnataka","latitude":12.2958,"longitude":76.6396,"temp":30.5,"humidity":40,"rain":0.0,"pressure":928.2,"uv_index":8.85,"aqi":109,"mosquito_risk":0,"arthritis_risk":5,"migraine_risk":7,"frizz_risk":0,"updated_at":"2026-02-25T15:28:29.288709+05:30"},{"city":"Mangalore","state":"Karnataka","latitude":12.9141,"longitude":74.856,"temp":28.7,"humidity":80,"rain":0.0,"pressure":1006.1,"uv_index":8.45,"aqi":119,"mosquito_risk":7,"arthritis_risk":5,"migraine_risk":4,"frizz_risk":1,"updated_at":"2026-02-25T15:28:29.288715+05:30"},{"city":"Hubli-Dharwad","state":"Karnataka","latitude":15.3647,"longitude":75.124,"temp":32.2,"humidity":29,"rain":0.0,"pressure":940.8,"uv_index":8.15,"aqi":114,"mosquito_risk":0,"arthritis_risk":5,"migraine_risk":7,"frizz_risk":0,"updated_at":"2026-02-25T15:28:29.288722+05:30"},{"city":"Belgaum","state":"Karnataka","latitude":15.8497,"longitude":74.4977,"temp":28.8,"humidity":46,"rain":0.0,"pressure":926.2,"uv_index":8.4,"aqi":139,"mosquito_risk":4,"arthritis_risk":5,"migraine_risk":7,"frizz_risk":1,"updated_at":"2026-02-25T15:28:32.531678+05:30"},{"city":"Coimbatore","state":"Tamil Nadu","latitude":11.0168,"longitude":76.9558,"temp":28.9,"humidity":62,"rain":0.0,"pressure":961.5,"uv_index":8.9,"aqi":109,"mosquito_risk":7,"arthritis_risk":5,"migraine_risk":7,"frizz_risk":1,"updated_at":"2026-02-25T15:28:32.531713+05:30"},{"city":"Madurai","state":"Tamil Nadu","latitude":9.9252,"longitude":78.1198,"temp":33.1,"humidity":46,"rain":0.0,"pressure":992.1,"uv_index":8.9,"aqi":94,"mosquito_risk":0,"arthritis_risk":5,"migraine_risk":7,"frizz_risk":1,"updated_at":"2026-02-25T15:28:32.531724+05:30"},{"city":"Trichy","state":"Tamil Nadu","latitude":10.7905,"longitude":78.7047,"temp":32.7,"humidity":48,"rain":0.0,"pressure":999.2,"uv_index":8.75,"aqi":70,"mosquito_risk":0,"arthritis_risk":5,"migraine_risk":7,"frizz_risk":1,"updated_at":"2026-02-25T15:28:32.531734+05:30"},{"city":"Salem","state":"Tamil Nadu","latitude":11.6643,"longitude":78.146,"temp":32.9,"humidity":45,"rain":0.0,"pressure":976.6,"uv_index":8.75,"aqi":88,"mosquito_risk":0,"arthritis_risk":5,"migraine_risk":7,"frizz_risk":1,"updated_at":"2026-02-25T15:28:32.531743+05:30"},{"city":"Tirunelveli","state":"Tamil Nadu","latitude":8.7139,"longitude":77.7567,"temp":31.0,"humidity":63,"rain":0.0,"pressure":1003.1,"uv_index":8.9,"aqi":72,"mosquito_risk":3,"arthritis_risk":5,"migraine_risk":4,"frizz_risk":1,"updated_at":"2026-02-25T15:28:32.531751+05:30"},{"city":"Vellore","state":"Tamil Nadu","latitude":12.9165,"longitude":79.1325,"temp":32.2,"humidity":38,"rain":0.0,"pressure":984.6,"uv_index":8.6,"aqi":96,"mosquito_risk":0,"arthritis_risk":5,"migraine_risk":7,"frizz_risk":1,"updated_at":"2026-02-25T15:28:32.531758+05:30"},{"city":"Erode","state":"Tamil Nadu","latitude":11.341,"longitude":77.7172,"temp":34.7,"humidity":36,"rain":0.0,"pressure":988.1,"uv_index":8.8,"aqi":87,"mosquito_risk":0,"arthritis_risk":5,"migraine_risk":7,"frizz_risk":1,"updated_at":"2026-02-25T15:28:32.531765+05:30"},{"city":"Kochi","state":"Kerala","latitude":9.9312,"longitude":76.2673,"temp":28.2,"humidity":79,"rain":0.0,"pressure":1008.1,"uv_index":8.6,"aqi":90,"mosquito_risk":7,"arthritis_risk":0,"migraine_risk":4,"frizz_risk":1,"updated_at":"2026-02-25T15:28:32.531772+05:30"},{"city":"Thiruvananthapuram","state":"Kerala","latitude":8.5241,"longitude":76.9366,"temp":27.8,"humidity":82,"rain":0.0,"pressure":1007.7,"uv_index":8.8,"aqi":105,"mosquito_risk":7,"arthritis_risk":5,"migraine_risk":4,"frizz_risk":1,"updated_at":"2026-02-25T15:28:32.531778+05:30"},{"city":"Kozhikode","state":"Kerala","latitude":11.2588,"longitude":75.7804,"temp":29.4,"humidity":74,"rain":0.0,"pressure":1007.2,"uv_index":8.6,"aqi":93,"mosquito_risk":7,"arthritis_risk":5,"migraine_risk":4,"frizz_risk":1,"updated_at":"2026-02-25T15:28:32.531785+05:30"},{"city":"Thrissur","state":"Kerala","latitude":10.5276,"longitude":76.2144,"temp":31.5,"humidity":63,"rain":0.0,"pressure":1006.4,"uv_index":8.7,"aqi":84,"mosquito_risk":3,"arthritis_risk":5,"migraine_risk":4,"frizz_risk":1,"updated_at":"2026-02-25T15:28:32.531792+05:30"},{"city":"Kannur","state":"Kerala","latitude":11.8745,"longitude":75.3704,"temp":30.1,"humidity":70,"rain":0.0,"pressure":1006.5,"uv_index":8.55,"aqi":104,"mosquito_risk":3,"arthritis_risk":5,"migraine_risk":4,"frizz_risk":1,"updated_at":"2026-02-25T15:28:32.531818+05:30"},{"city":"Patna","state":"Bihar","latitude":25.5941,"longitude":85.1376,"temp":27.5,"humidity":37,"rain":0.0,"pressure":1003.7,"uv_index":6.8,"aqi":167,"mosquito_risk":4,"arthritis_risk":5,"migraine_risk":4,"frizz_risk":0,"updated_at":"2026-02-25T15:28:32.531826+05:30"},{"city":"Gaya","state":"Bihar","latitude":24.7914,"longitude":85.0002,"temp":26.5,"humidity":43,"rain":0.0,"pressure":997.4,"uv_index":6.9,"aqi":152,"mosquito_risk":4,"arthritis_risk":5,"migraine_risk":7,"frizz_risk":0,"updated_at":"2026-02-25T15:28:32.531833+05:30"},{"city":"Muzaffarpur","state":"Bihar","latitude":26.1209,"longitude":85.3647,"temp":28.0,"humidity":38,"rain":0.0,"pressure":1003.4,"uv_index":6.75,"aqi":172,"mosquito_risk":4,"arthritis_risk":5,"migraine_risk":4,"frizz_risk":0,"updated_at":"2026-02-25T15:28:32.531839+05:30"},{"city":"Bhagalpur","state":"Bihar","latitude":25.2425,"longitude":87.0117,"temp":26.9,"humidity":41,"rain":0.0,"pressure":1004.0,"uv_index":6.85,"aqi":158,"mosquito_risk":4,"arthritis_risk":5,"migraine_risk":4,"frizz_risk":0,"updated_at":"2026-02-25T15:28:32.531846+05:30"},{"city":"Ranchi","state":"Jharkhand","latitude":23.3441,"longitude":85.3096,"temp":26.0,"humidity":24,"rain":0.0,"pressure":939.6,"uv_index":7.55,"aqi":100,"mosquito_risk":4,"arthritis_risk":5,"migraine_risk":7,"frizz_risk":0,"updated_at":"2026-02-25T15:28:32.531852+05:30"},{"city":"Jamshedpur","state":"Jharkhand","latitude":22.8046,"longitude":86.2029,"temp":30.4,"humidity":29,"rain":0.0,"pressure":992.5,"uv_index":7.45,"aqi":155,"mosquito_risk":0,"arthritis_risk":5,"migraine_risk":7,"frizz_risk":0,"updated_at":"2026-02-25T15:28:32.531859+05:30"},{"city":"Dhanbad","state":"Jharkhand","latitude":23.7957,"longitude":86.4304,"temp":29.4,"humidity":28,"rain":0.0,"pressure":981.9,"uv_index":7.35,"aqi":152,"mosquito_risk":4,"arthritis_risk":5,"migraine_risk":7,"frizz_risk":0,"updated_at":"2026-02-25T15:28:32.531867+05:30"},{"city":"Bokaro","state":"Jharkhand","latitude":23.6693,"longitude":86.1511,"temp":29.1,"humidity":27,"rain":0.0,"pressure":985.9,"uv_index":7.35,"aqi":150,"mosquito_risk":4,"arthritis_risk":5,"migraine_risk":7,"frizz_risk":0,"updated_at":"2026-02-25T15:28:32.531873+05:30"},{"city":"Bhubaneswar","state":"Odisha","latitude":20.2961,"longitude":85.8245,"temp":32.1,"humidity":36,"rain":0.0,"pressure":1003.4,"uv_index":7.75,"aqi":156,"mosquito_risk":0,"arthritis_risk":5,"migraine_risk":4,"frizz_risk":0,"updated_at":"2026-02-25T15:28:32.531880+05:30"},{"city":"Cuttack","state":"Odisha","latitude":20.4625,"longitude":85.8828,"temp":32.4,"humidity":34,"rain":0.0,"pressure":1005.5,"uv_index":7.8,"aqi":156,"mosquito_risk":0,"arthritis_risk":5,"migraine_risk":4,"frizz_risk":0,"updated_at":"2026-02-25T15:28:32.531886+05:30"},{"city":"Rourkela","state":"Odisha","latitude":22.2604,"longitude":84.8536,"temp":31.8,"humidity":22,"rain":0.0,"pressure":986.6,"uv_index":7.35,"aqi":94,"mosquito_risk":0,"arthritis_risk":5,"migraine_risk":7,"frizz_risk":0,"updated_at":"2026-02-25T15:28:32.531893+05:30"},{"city":"Raipur","state":"Chhattisgarh","latitude":21.2514,"longitude":81.6296,"temp":31.2,"humidity":26,"rain":0.0,"pressure":976.7,"uv_index":7.5,"aqi":157,"mosquito_risk":0,"arthritis_risk":5,"migraine_risk":7,"frizz_risk":0,"updated_at":"2026-02-25T15:28:32.531899+05:30"},{"city":"Bhilai","state":"Chhattisgarh","latitude":21.1938,"longitude":81.3509,"temp":30.9,"humidity":28,"rain":0.0,"pressure":977.1,"uv_index":7.5,"aqi":157,"mosquito_risk":0,"arthritis_risk":5,"migraine_risk":7,"frizz_risk":0,"updated_at":"2026-02-25T15:28:32.531905+05:30"},{"city":"Guwahati","state":"Assam","latitude":26.1158,"longitude":91.7086,"temp":28.0,"humidity":46,"rain":0.0,"pressure":1002.1,"uv_index":6.75,"aqi":160,"mosquito_risk":4,"arthritis_risk":5,"migraine_risk":4,"frizz_risk":0,"updated_at":"2026-02-25T15:28:32.531911+05:30"},{"city":"Agartala","state":"Tripura","latitude":23.8315,"longitude":91.2868,"temp":29.3,"humidity":37,"rain":0.0,"pressure":1006.9,"uv_index":7.1,"aqi":158,"mosquito_risk":4,"arthritis_risk":5,"migraine_risk":4,"frizz_risk":0,"updated_at":"2026-02-25T15:28:32.531918+05:30"},{"city":"Shillong","state":"Meghalaya","latitude":25.5788,"longitude":91.8933,"temp":13.8,"humidity":69,"rain":0.0,"pressure":855.1,"uv_index":6.15,"aqi":142,"mosquito_risk":3,"arthritis_risk":5,"migraine_risk":7,"frizz_risk":0,"updated_at":"2026-02-25T15:28:32.531924+05:30"},{"city":"Imphal","state":"Manipur","latitude":24.817,"longitude":93.9368,"temp":21.7,"humidity":36,"rain":0.0,"pressure":922.6,"uv_index":7.3,"aqi":167,"mosquito_risk":0,"arthritis_risk":5,"migraine_risk":7,"frizz_risk":0,"updated_at":"2026-02-25T15:28:32.531931+05:30"},{"city":"Aizawl","state":"Mizoram","latitude":23.7271,"longitude":92.7176,"temp":23.5,"humidity":32,"rain":0.0,"pressure":893.1,"uv_index":7.3,"aqi":159,"mosquito_risk":0,"arthritis_risk":5,"migraine_risk":7,"frizz_risk":0,"updated_at":"2026-02-25T15:28:32.531937+05:30"},{"city":"Kohima","state":"Nagaland","latitude":25.6701,"longitude":94.1077,"temp":14.9,"humidity":81,"rain":0.0,"pressure":853.8,"uv_index":6.65,"aqi":159,"mosquito_risk":3,"arthritis_risk":10,"migraine_risk":7,"frizz_risk":0,"updated_at":"2026-02-25T15:28:32.531944+05:30"},{"city":"Gangtok","state":"Sikkim","latitude":27.3314,"longitude":88.6138,"temp":16.7,"humidity":46,"rain":0.0,"pressure":837.3,"uv_index":7.05,"aqi":132,"mosquito_risk":0,"arthritis_risk":5,"migraine_risk":7,"frizz_risk":0,"updated_at":"2026-02-25T15:28:32.531951+05:30"},{"city":"Siliguri","state":"West Bengal","latitude":26.7271,"longitude":88.3953,"temp":23.8,"humidity":44,"rain":0.0,"pressure":995.2,"uv_index":6.75,"aqi":167,"mosquito_risk":0,"arthritis_risk":5,"migraine_risk":7,"frizz_risk":0,"updated_at":"2026-02-25T15:28:35.779377+05:30"},{"city":"Durgapur","state":"West Bengal","latitude":23.5204,"longitude":87.3119,"temp":30.4,"humidity":26,"rain":0.0,"pressure":996.7,"uv_index":7.35,"aqi":161,"mosquito_risk":0,"arthritis_risk":5,"migraine_risk":7,"frizz_risk":0,"updated_at":"2026-02-25T15:28:35.779408+05:30"},{"city":"Asansol","state":"West Bengal","latitude":23.6739,"longitude":86.9524,"temp":30.3,"humidity":26,"rain":0.0,"pressure":995.4,"uv_index":7.35,"aqi":153,"mosquito_risk":0,"arthritis_risk":5,"migraine_risk":7,"frizz_risk":0,"updated_at":"2026-02-25T15:28:35.779418+05:30"},{"city":"Pondicherry","state":"Puducherry","latitude":11.9139,"longitude":79.8145,"temp":32.7,"humidity":50,"rain":0.0,"pressure":1008.2,"uv_index":8.6,"aqi":51,"mosquito_risk":0,"arthritis_risk":0,"migraine_risk":4,"frizz_risk":1,"updated_at":"2026-02-25T15:28:35.779427+05:30"},{"city":"Port Blair","state":"Andaman and Nicobar Islands","latitude":11.6234,"longitude":92.7265,"temp":27.4,"humidity":81,"rain":0.0,"pressure":1005.5,"uv_index":8.6,"aqi":28,"mosquito_risk":7,"arthritis_risk":5,"migraine_risk":4,"frizz_risk":1,"updated_at":"2026-02-25T15:28:35.779436+05:30"},{"city":"Haridwar","state":"Uttarakhand","latitude":29.9457,"longitude":78.1642,"temp":27.0,"humidity":39,"rain":0.0,"pressure":977.5,"uv_index":5.3,"aqi":147,"mosquito_risk":4,"arthritis_risk":5,"migraine_risk":3,"frizz_risk":0,"updated_at":"2026-02-25T15:28:35.779443+05:30"},{"city":"Rishikesh","state":"Uttarakhand","latitude":30.0869,"longitude":78.2676,"temp":26.1,"humidity":43,"rain":0.0,"pressure":970.0,"uv_index":5.35,"aqi":128,"mosquito_risk":4,"arthritis_risk":5,"migraine_risk":3,"frizz_risk":0,"updated_at":"2026-02-25T15:28:35.779450+05:30"},{"city":"Nainital","state":"Uttarakhand","latitude":29.3919,"longitude":79.4542,"temp":18.1,"humidity":53,"rain":0.0,"pressure":807.6,"uv_index":6.1,"aqi":129,"mosquito_risk":0,"arthritis_risk":5,"migraine_risk":7,"frizz_risk":0,"updated_at":"2026-02-25T15:28:35.779457+05:30"},{"city":"Mussoorie","state":"Uttarakhand","latitude":30.4599,"longitude":78.0664,"temp":16.8,"humidity":57,"rain":0.0,"pressure":804.2,"uv_index":5.65,"aqi":123,"mosquito_risk":0,"arthritis_risk":5,"migraine_risk":3,"frizz_risk":0,"updated_at":"2026-02-25T15:28:35.779464+05:30"},{"city":"Dharamshala","state":"Himachal Pradesh","latitude":32.219,"longitude":76.3234,"temp":19.5,"humidity":66,"rain":0.0,"pressure":871.2,"uv_index":5.9,"aqi":70,"mosquito_risk":3,"arthritis_risk":5,"migraine_risk":3,"frizz_risk":0,"updated_at":"2026-02-25T15:28:35.779471+05:30"},{"city":"Dalhousie","state":"Himachal Pradesh","latitude":32.5387,"longitude":75.971,"temp":18.6,"humidity":53,"rain":0.0,"pressure":806.3,"uv_index":6.1,"aqi":136,"mosquito_risk":0,"arthritis_risk":5,"migraine_risk":7,"frizz_risk":0,"updated_at":"2026-02-25T15:28:35.779480+05:30"},{"city":"Patiala","state":"Punjab","latitude":30.3398,"longitude":76.3869,"temp":26.7,"humidity":42,"rain":0.0,"pressure":982.2,"uv_index":5.35,"aqi":173,"mosquito_risk":4,"arthritis_risk":5,"migraine_risk":3,"frizz_risk":0,"updated_at":"2026-02-25T15:28:35.779487+05:30"},{"city":"Bhatinda","state":"Punjab","latitude":30.211,"longitude":74.9455,"temp":28.4,"humidity":35,"rain":0.0,"pressure":987.9,"uv_index":6.0,"aqi":158,"mosquito_risk":4,"arthritis_risk":5,"migraine_risk":3,"frizz_risk":0,"updated_at":"2026-02-25T15:28:35.779494+05:30"},{"city":"Rohtak","state":"Haryana","latitude":28.8955,"longitude":76.6066,"temp":28.5,"humidity":23,"rain":0.0,"pressure":985.8,"uv_index":5.55,"aqi":158,"mosquito_risk":4,"arthritis_risk":5,"migraine_risk":3,"frizz_risk":0,"updated_at":"2026-02-25T15:28:35.779501+05:30"},{"city":"Panipat","state":"Haryana","latitude":29.3909,"longitude":76.9635,"temp":26.9,"humidity":41,"rain":0.0,"pressure":984.4,"uv_index":5.3,"aqi":161,"mosquito_risk":4,"arthritis_risk":5,"migraine_risk":3,"frizz_risk":0,"updated_at":"2026-02-25T15:28:35.779508+05:30"},{"city":"Mathura","state":"Uttar Pradesh","latitude":27.4924,"longitude":77.6737,"temp":29.2,"humidity":34,"rain":0.0,"pressure":990.7,"uv_index":5.8,"aqi":163,"mosquito_risk":4,"arthritis_risk":5,"migraine_risk":3,"frizz_risk":0,"updated_at":"2026-02-25T15:28:35.779514+05:30"},{"city":"Vrindavan","state":"Uttar Pradesh","latitude":27.5823,"longitude":77.7027,"temp":28.8,"humidity":33,"rain":0.0,"pressure":991.2,"uv_index":5.75,"aqi":163,"mosquito_risk":4,"arthritis_risk":5,"migraine_risk":3,"frizz_risk":0,"updated_at":"2026-02-25T15:28:35.779521+05:30"},{"city":"Ayodhya","state":"Uttar Pradesh","latitude":26.7922,"longitude":82.1998,"temp":28.7,"humidity":38,"rain":0.0,"pressure":998.6,"uv_index":6.15,"aqi":175,"mosquito_risk":4,"arthritis_risk":5,"migraine_risk":7,"frizz_risk":0,"updated_at":"2026-02-25T15:28:35.779531+05:30"},{"city":"Ratlam","state":"Madhya Pradesh","latitude":23.3315,"longitude":75.0367,"temp":31.0,"humidity":24,"rain":0.0,"pressure":956.5,"uv_index":7.05,"aqi":98,"mosquito_risk":0,"arthritis_risk":5,"migraine_risk":7,"frizz_risk":0,"updated_at":"2026-02-25T15:28:35.779538+05:30"},{"city":"Sagar","state":"Madhya Pradesh","latitude":23.8388,"longitude":78.7378,"temp":28.6,"humidity":27,"rain":0.0,"pressure":953.2,"uv_index":6.95,"aqi":82,"mosquito_risk":4,"arthritis_risk":5,"migraine_risk":7,"frizz_risk":0,"updated_at":"2026-02-25T15:28:35.779545+05:30"},{"city":"Satna","state":"Madhya Pradesh","latitude":24.6005,"longitude":80.8322,"temp":29.8,"humidity":20,"rain":0.0,"pressure":974.5,"uv_index":6.9,"aqi":85,"mosquito_risk":4,"arthritis_risk":5,"migraine_risk":7,"frizz_risk":0,"updated_at":"2026-02-25T15:28:35.779552+05:30"},{"city":"Akola","state":"Maharashtra","latitude":20.7002,"longitude":77.0082,"temp":32.9,"humidity":27,"rain":0.0,"pressure":976.0,"uv_index":7.45,"aqi":97,"mosquito_risk":0,"arthritis_risk":5,"migraine_risk":7,"frizz_risk":0,"updated_at":"2026-02-25T15:28:35.779560+05:30"},{"city":"Amravati","state":"Maharashtra","latitude":20.9374,"longitude":77.7796,"temp":27.3,"humidity":49,"rain":0.2,"pressure":969.1,"uv_index":7.4,"aqi":107,"mosquito_risk":7,"arthritis_risk":5,"migraine_risk":7,"frizz_risk":0,"updated_at":"2026-02-25T15:28:35.779567+05:30"},{"city":"Latur","state":"Maharashtra","latitude":18.4088,"longitude":76.5604,"temp":27.0,"humidity":49,"rain":0.0,"pressure":941.3,"uv_index":6.5,"aqi":139,"mosquito_risk":4,"arthritis_risk":5,"migraine_risk":7,"frizz_risk":0,"updated_at":"2026-02-25T15:28:35.779574+05:30"},{"city":"Nanded","state":"Maharashtra","latitude":19.1383,"longitude":77.3091,"temp":31.4,"humidity":33,"rain":0.0,"pressure":969.6,"uv_index":7.7,"aqi":151,"mosquito_risk":0,"arthritis_risk":5,"migraine_risk":7,"frizz_risk":0,"updated_at":"2026-02-25T15:28:35.779580+05:30"},{"city":"Gulbarga","state":"Karnataka","latitude":17.3297,"longitude":76.8343,"temp":30.5,"humidity":37,"rain":0.0,"pressure":959.6,"uv_index":4.55,"aqi":128,"mosquito_risk":0,"arthritis_risk":5,"migraine_risk":3,"frizz_risk":0,"updated_at":"2026-02-25T15:28:35.779587+05:30"},{"city":"Bidar","state":"Karnataka","latitude":17.9104,"longitude":77.5199,"temp":28.2,"humidity":43,"rain":0.0,"pressure":936.9,"uv_index":7.85,"aqi":152,"mosquito_risk":4,"arthritis_risk":5,"migraine_risk":7,"frizz_risk":0,"updated_at":"2026-02-25T15:28:35.779593+05:30"},{"city":"Hospet","state":"Karnataka","latitude":15.2689,"longitude":76.3909,"temp":32.2,"humidity":30,"rain":0.0,"pressure":956.0,"uv_index":8.2,"aqi":95,"mosquito_risk":0,"arthritis_risk":5,"migraine_risk":7,"frizz_risk":0,"updated_at":"2026-02-25T15:28:35.779600+05:30"},{"city":"Tirupur","state":"Tamil Nadu","latitude":11.1085,"longitude":77.3411,"temp":32.8,"humidity":44,"rain":0.0,"pressure":974.4,"uv_index":8.9,"aqi":121,"mosquito_risk":0,"arthritis_risk":5,"migraine_risk":7,"frizz_risk":1,"updated_at":"2026-02-25T15:28:35.779606+05:30"},{"city":"Alappuzha","state":"Kerala","latitude":9.4981,"longitude":76.3388,"temp":28.2,"humidity":78,"rain":0.0,"pressure":1008.4,"uv_index":8.65,"aqi":101,"mosquito_risk":7,"arthritis_risk":0,"migraine_risk":4,"frizz_risk":1,"updated_at":"2026-02-25T15:28:35.779613+05:30"},{"city":"Munnar","state":"Kerala","latitude":10.0889,"longitude":77.0595,"temp":25.0,"humidity":70,"rain":0.0,"pressure":857.4,"uv_index":9.15,"aqi":95,"mosquito_risk":7,"arthritis_risk":5,"migraine_risk":7,"frizz_risk":1,"updated_at":"2026-02-25T15:28:35.779619+05:30"},{"city":"Silchar","state":"Assam","latitude":24.8333,"longitude":92.7789,"temp":29.3,"humidity":36,"rain":0.0,"pressure":1004.9,"uv_index":7.05,"aqi":163,"mosquito_risk":4,"arthritis_risk":5,"migraine_risk":4,"frizz_risk":0,"updated_at":"2026-02-25T15:28:35.779626+05:30"},{"city":"Dibrugarh","state":"Assam","latitude":27.4728,"longitude":94.912,"temp":26.0,"humidity":61,"rain":0.0,"pressure":995.7,"uv_index":6.75,"aqi":142,"mosquito_risk":7,"arthritis_risk":5,"migraine_risk":7,"frizz_risk":1,"updated_at":"2026-02-25T15:28:35.779632+05:30"}]