[{"city":"Delhi","state":"Delhi","latitude":28.6139,"longitude":77.209,"temp":34.2,"humidity":45,"rain":0.0,"pressure":976.9,"uv_index":7.75,"wind_gusts":33.5,"aqi":244,"pm10":328.8,"pm2_5":93.1,"no2":41.1,"co":297.0,"o3":74.0,"so2":21.2,"mosquito_risk":0,"arthritis_risk":5,"migraine_risk":7,"frizz_risk":1,"updated_at":"2026-06-24T21:03:31.814383+05:30"},{"city":"Mumbai","state":"Maharashtra","latitude":19.076,"longitude":72.8777,"temp":26.6,"humidity":85,"rain":0.0,"pressure":1006.2,"uv_index":3.6,"wind_gusts":29.2,"aqi":50,"pm10":39.5,"pm2_5":14.1,"no2":14.0,"co":305.0,"o3":48.0,"so2":10.5,"mosquito_risk":7,"arthritis_risk":5,"migraine_risk":0,"frizz_risk":1,"updated_at":"2026-06-24T21:03:31.814475+05:30"},{"city":"Bangalore","state":"Karnataka","latitude":12.9716,"longitude":77.5946,"temp":23.3,"humidity":75,"rain":0.0,"pressure":911.4,"uv_index":7.95,"wind_gusts":53.6,"aqi":31,"pm10":8.3,"pm2_5":6.7,"no2":16.2,"co":387.0,"o3":37.0,"so2":4.5,"mosquito_risk":3,"arthritis_risk":5,"migraine_risk":7,"frizz_risk":1,"updated_at":"2026-06-24T21:03:31.814502+05:30"},{"city":"Hyderabad","state":"Telangana","latitude":17.385,"longitude":78.4867,"temp":25.9,"humidity":78,"rain":0.0,"pressure":951.0,"uv_index":6.8,"wind_gusts":45.7,"aqi":38,"pm10":7.3,"pm2_5":6.6,"no2":8.7,"co":401.0,"o3":62.0,"so2":3.2,"mosquito_risk":7,"arthritis_risk":5,"migraine_risk":7,"frizz_risk":1,"updated_at":"2026-06-24T21:03:31.814527+05:30"},{"city":"Chennai","state":"Tamil Nadu","latitude":13.0827,"longitude":80.2707,"temp":28.4,"humidity":73,"rain":0.0,"pressure":1005.8,"uv_index":8.8,"wind_gusts":39.2,"aqi":63,"pm10":25.8,"pm2_5":19.9,"no2":17.9,"co":286.0,"o3":83.0,"so2":9.1,"mosquito_risk":7,"arthritis_risk":5,"migraine_risk":4,"frizz_risk":1,"updated_at":"2026-06-24T21:03:31.814545+05:30"},{"city":"Kolkata","state":"West Bengal","latitude":22.5726,"longitude":88.3639,"temp":29.1,"humidity":86,"rain":0.0,"pressure":1001.5,"uv_index":8.85,"wind_gusts":37.4,"aqi":152,"pm10":50.4,"pm2_5":47.3,"no2":12.3,"co":456.0,"o3":111.0,"so2":14.2,"mosquito_risk":7,"arthritis_risk":5,"migraine_risk":4,"frizz_risk":1,"updated_at":"2026-06-24T21:03:31.814561+05:30"},{"city":"Pune","state":"Maharashtra","latitude":18.5204,"longitude":73.8567,"temp":22.7,"humidity":85,"rain":0.0,"pressure":945.7,"uv_index":1.0,"wind_gusts":34.6,"aqi":22,"pm10":10.5,"pm2_5":8.8,"no2":23.5,"co":206.0,"o3":28.0,"so2":9.4,"mosquito_risk":3,"arthritis_risk":5,"migraine_risk":3,"frizz_risk":1,"updated_at":"2026-06-24T21:03:31.814576+05:30"},{"city":"Ahmedabad","state":"Gujarat","latitude":23.0225,"longitude":72.5714,"temp":31.4,"humidity":70,"rain":0.0,"pressure":996.5,"uv_index":8.0,"wind_gusts":42.5,"aqi":70,"pm10":48.8,"pm2_5":25.2,"no2":10.1,"co":150.0,"o3":68.0,"so2":4.6,"mosquito_risk":3,"arthritis_risk":5,"migraine_risk":7,"frizz_risk":1,"updated_at":"2026-06-24T21:03:31.814589+05:30"},{"city":"Jaipur","state":"Rajasthan","latitude":26.9124,"longitude":75.7873,"temp":30.8,"humidity":53,"rain":0.0,"pressure":954.4,"uv_index":8.2,"wind_gusts":49.3,"aqi":113,"pm10":125.3,"pm2_5":53.6,"no2":40.7,"co":1015.0,"o3":36.0,"so2":13.0,"mosquito_risk":0,"arthritis_risk":5,"migraine_risk":7,"frizz_risk":1,"updated_at":"2026-06-24T21:03:31.814599+05:30"},{"city":"Lucknow","state":"Uttar Pradesh","latitude":26.8467,"longitude":80.9462,"temp":36.6,"humidity":38,"rain":0.0,"pressure":987.4,"uv_index":8.3,"wind_gusts":27.4,"aqi":158,"pm10":163.0,"pm2_5":60.8,"no2":16.5,"co":272.0,"o3":78.0,"so2":6.8,"mosquito_risk":0,"arthritis_risk":5,"migraine_risk":10,"frizz_risk":1,"updated_at":"2026-06-24T21:03:31.814615+05:30"},{"city":"Kanpur","state":"Uttar Pradesh","latitude":26.4499,"longitude":80.3319,"temp":36.2,"humidity":34,"rain":0.0,"pressure":985.6,"uv_index":8.3,"wind_gusts":31.7,"aqi":160,"pm10":154.1,"pm2_5":51.7,"no2":18.4,"co":275.0,"o3":71.0,"so2":6.9,"mosquito_risk":0,"arthritis_risk":5,"migraine_risk":10,"frizz_risk":1,"updated_at":"2026-06-24T21:03:31.814624+05:30"},{"city":"Chandigarh","state":"Chandigarh","latitude":30.7333,"longitude":76.7794,"temp":29.5,"humidity":64,"rain":0.0,"pressure":962.7,"uv_index":7.8,"wind_gusts":25.2,"aqi":186,"pm10":162.1,"pm2_5":71.9,"no2":38.6,"co":828.0,"o3":125.0,"so2":17.5,"mosquito_risk":7,"arthritis_risk":5,"migraine_risk":7,"frizz_risk":1,"updated_at":"2026-06-24T21:03:31.814632+05:30"},{"city":"Srinagar","state":"Jammu and Kashmir","latitude":34.0837,"longitude":74.7973,"temp":22.6,"humidity":69,"rain":0.0,"pressure":836.6,"uv_index":9.1,"wind_gusts":22.0,"aqi":103,"pm10":23.2,"pm2_5":21.3,"no2":24.5,"co":1500.0,"o3":79.0,"so2":3.8,"mosquito_risk":3,"arthritis_risk":5,"migraine_risk":7,"frizz_risk":1,"updated_at":"2026-06-24T21:03:31.814641+05:30"},{"city":"Jammu","state":"Jammu and Kashmir","latitude":32.7266,"longitude":74.857,"temp":33.4,"humidity":43,"rain":0.0,"pressure":965.8,"uv_index":8.65,"wind_gusts":31.3,"aqi":113,"pm10":54.9,"pm2_5":42.1,"no2":45.9,"co":606.0,"o3":81.0,"so2":7.4,"mosquito_risk":0,"arthritis_risk":5,"migraine_risk":7,"frizz_risk":1,"updated_at":"2026-06-24T21:03:31.814657+05:30"},{"city":"Amritsar","state":"Punjab","latitude":31.634,"longitude":74.8723,"temp":31.1,"humidity":59,"rain":0.0,"pressure":973.2,"uv_index":8.45,"wind_gusts":41.4,"aqi":145,"pm10":78.7,"pm2_5":54.9,"no2":34.5,"co":514.0,"o3":84.0,"so2":9.8,"mosquito_risk":0,"arthritis_risk":5,"migraine_risk":7,"frizz_risk":1,"updated_at":"2026-06-24T21:03:31.814669+05:30"},{"city":"Ludhiana","state":"Punjab","latitude":30.901,"longitude":75.8573,"temp":33.6,"humidity":42,"rain":0.0,"pressure":971.9,"uv_index":8.05,"wind_gusts":34.9,"aqi":158,"pm10":173.2,"pm2_5":81.3,"no2":41.8,"co":752.0,"o3":86.0,"so2":11.0,"mosquito_risk":0,"arthritis_risk":5,"migraine_risk":7,"frizz_risk":1,"updated_at":"2026-06-24T21:03:31.814681+05:30"},{"city":"Jalandhar","state":"Punjab","latitude":31.326,"longitude":75.5762,"temp":32.3,"humidity":50,"rain":0.0,"pressure":972.8,"uv_index":8.25,"wind_gusts":29.9,"aqi":154,"pm10":88.0,"pm2_5":52.7,"no2":26.3,"co":733.0,"o3":101.0,"so2":7.8,"mosquito_risk":0,"arthritis_risk":5,"migraine_risk":7,"frizz_risk":1,"updated_at":"2026-06-24T21:03:31.814692+05:30"},{"city":"Dehradun","state":"Uttarakhand","latitude":30.6284,"longitude":78.0322,"temp":16.6,"humidity":98,"rain":0.0,"pressure":826.2,"uv_index":7.65,"wind_gusts":27.0,"aqi":125,"pm10":27.2,"pm2_5":26.1,"no2":16.3,"co":228.0,"o3":110.0,"so2":3.0,"mosquito_risk":3,"arthritis_risk":10,"migraine_risk":7,"frizz_risk":1,"updated_at":"2026-06-24T21:03:31.814706+05:30"},{"city":"Shimla","state":"Himachal Pradesh","latitude":31.1048,"longitude":77.1734,"temp":14.1,"humidity":97,"rain":0.0,"pressure":780.4,"uv_index":7.7,"wind_gusts":36.7,"aqi":154,"pm10":53.6,"pm2_5":39.1,"no2":23.8,"co":451.0,"o3":116.0,"so2":7.5,"mosquito_risk":3,"arthritis_risk":10,"migraine_risk":7,"frizz_risk":0,"updated_at":"2026-06-24T21:03:31.814719+05:30"},{"city":"Manali","state":"Himachal Pradesh","latitude":32.2396,"longitude":77.1887,"temp":16.8,"humidity":91,"rain":0.0,"pressure":815.5,"uv_index":9.15,"wind_gusts":36.4,"aqi":46,"pm10":24.2,"pm2_5":22.2,"no2":88.8,"co":286.0,"o3":14.0,"so2":0.0,"mosquito_risk":3,"arthritis_risk":10,"migraine_risk":7,"frizz_risk":0,"updated_at":"2026-06-24T21:03:31.814736+05:30"},{"city":"Gurgaon","state":"Haryana","latitude":28.4595,"longitude":77.0266,"temp":32.8,"humidity":44,"rain":0.0,"pressure":975.3,"uv_index":7.8,"wind_gusts":30.2,"aqi":637,"pm10":445.2,"pm2_5":107.3,"no2":65.3,"co":913.0,"o3":46.0,"so2":19.2,"mosquito_risk":0,"arthritis_risk":5,"migraine_risk":7,"frizz_risk":1,"updated_at":"2026-06-24T21:03:31.814752+05:30"},{"city":"Noida","state":"Uttar Pradesh","latitude":28.5355,"longitude":77.391,"temp":30.8,"humidity":61,"rain":0.0,"pressure":978.3,"uv_index":7.75,"wind_gusts":25.9,"aqi":637,"pm10":445.2,"pm2_5":107.3,"no2":65.3,"co":779.0,"o3":46.0,"so2":19.2,"mosquito_risk":3,"arthritis_risk":5,"migraine_risk":7,"frizz_risk":1,"updated_at":"2026-06-24T21:03:31.814762+05:30"},{"city":"Ghaziabad","state":"Uttar Pradesh","latitude":28.6692,"longitude":77.4538,"temp":31.2,"humidity":59,"rain":0.0,"pressure":976.6,"uv_index":7.75,"wind_gusts":26.3,"aqi":264,"pm10":292.4,"pm2_5":101.5,"no2":34.7,"co":626.0,"o3":86.0,"so2":20.5,"mosquito_risk":0,"arthritis_risk":5,"migraine_risk":7,"frizz_risk":1,"updated_at":"2026-06-24T21:03:31.814770+05:30"},{"city":"Faridabad","state":"Haryana","latitude":28.4089,"longitude":77.3178,"temp":33.4,"humidity":44,"rain":0.0,"pressure":977.7,"uv_index":7.8,"wind_gusts":30.6,"aqi":637,"pm10":445.2,"pm2_5":107.3,"no2":65.3,"co":808.0,"o3":46.0,"so2":19.2,"mosquito_risk":0,"arthritis_risk":5,"migraine_risk":7,"frizz_risk":1,"updated_at":"2026-06-24T21:03:31.814779+05:30"},{"city":"Meerut","state":"Uttar Pradesh","latitude":28.9845,"longitude":77.7064,"temp":32.2,"humidity":51,"rain":0.0,"pressure":975.6,"uv_index":7.7,"wind_gusts":29.9,"aqi":264,"pm10":292.4,"pm2_5":101.5,"no2":34.7,"co":477.0,"o3":86.0,"so2":20.5,"mosquito_risk":0,"arthritis_risk":5,"migraine_risk":7,"frizz_risk":1,"updated_at":"2026-06-24T21:03:31.814787+05:30"},{"city":"Agra","state":"Uttar Pradesh","latitude":27.1767,"longitude":78.0081,"temp":33.2,"humidity":42,"rain":0.0,"pressure":981.9,"uv_index":8.1,"wind_gusts":27.0,"aqi":386,"pm10":379.0,"pm2_5":99.7,"no2":62.4,"co":417.0,"o3":33.0,"so2":17.3,"mosquito_risk":0,"arthritis_risk":5,"migraine_risk":7,"frizz_risk":1,"updated_at":"2026-06-24T21:03:31.814796+05:30"},{"city":"Varanasi","state":"Uttar Pradesh","latitude":25.3176,"longitude":82.9739,"temp":36.1,"humidity":37,"rain":0.0,"pressure":991.5,"uv_index":8.75,"wind_gusts":37.8,"aqi":111,"pm10":192.8,"pm2_5":87.3,"no2":45.1,"co":756.0,"o3":70.0,"so2":20.9,"mosquito_risk":0,"arthritis_risk":5,"migraine_risk":10,"frizz_risk":1,"updated_at":"2026-06-24T21:03:31.814806+05:30"},{"city":"Prayagraj","state":"Uttar Pradesh","latitude":25.4358,"longitude":81.8463,"temp":36.2,"humidity":36,"rain":0.0,"pressure":989.8,"uv_index":8.65,"wind_gusts":37.1,"aqi":115,"pm10":142.0,"pm2_5":62.9,"no2":27.6,"co":317.0,"o3":69.0,"so2":13.9,"mosquito_risk":0,"arthritis_risk":5,"migraine_risk":10,"frizz_risk":1,"updated_at":"2026-06-24T21:03:31.814815+05:30"},{"city":"Gorakhpur","state":"Uttar Pradesh","latitude":26.7606,"longitude":83.3732,"temp":33.1,"humidity":52,"rain":0.0,"pressure":991.4,"uv_index":8.6,"wind_gusts":23.0,"aqi":157,"pm10":156.5,"pm2_5":89.2,"no2":43.9,"co":390.0,"o3":75.0,"so2":19.7,"mosquito_risk":0,"arthritis_risk":5,"migraine_risk":7,"frizz_risk":1,"updated_at":"2026-06-24T21:03:31.814823+05:30"},{"city":"Bareilly","state":"Uttar Pradesh","latitude":28.367,"longitude":79.4304,"temp":32.0,"humidity":49,"rain":0.0,"pressure":980.9,"uv_index":7.9,"wind_gusts":28.4,"aqi":158,"pm10":232.8,"pm2_5":85.7,"no2":22.7,"co":437.0,"o3":92.0,"so2":12.3,"mosquito_risk":0,"arthritis_risk":5,"migraine_risk":7,"frizz_risk":1,"updated_at":"2026-06-24T21:03:31.814832+05:30"},{"city":"Aligarh","state":"Uttar Pradesh","latitude":27.8974,"longitude":78.088,"temp":31.7,"humidity":54,"rain":0.0,"pressure":979.7,"uv_index":7.8,"wind_gusts":25.2,"aqi":435,"pm10":547.6,"pm2_5":134.6,"no2":56.6,"co":560.0,"o3":51.0,"so2":17.4,"mosquito_risk":0,"arthritis_risk":5,"migraine_risk":7,"frizz_risk":1,"updated_at":"2026-06-24T21:03:31.814840+05:30"},{"city":"Moradabad","state":"Uttar Pradesh","latitude":28.8386,"longitude":78.7733,"temp":32.8,"humidity":46,"rain":0.0,"pressure":977.8,"uv_index":7.9,"wind_gusts":25.6,"aqi":186,"pm10":237.5,"pm2_5":99.7,"no2":28.5,"co":416.0,"o3":104.0,"so2":15.9,"mosquito_risk":0,"arthritis_risk":5,"migraine_risk":7,"frizz_risk":1,"updated_at":"2026-06-24T21:03:31.814848+05:30"},{"city":"Saharanpur","state":"Uttar Pradesh","latitude":29.9637,"longitude":77.546,"temp":30.3,"humidity":66,"rain":0.0,"pressure":969.6,"uv_index":7.45,"wind_gusts":29.5,"aqi":183,"pm10":162.5,"pm2_5":80.6,"no2":38.5,"co":645.0,"o3":110.0,"so2":20.5,"mosquito_risk":3,"arthritis_risk":5,"migraine_risk":7,"frizz_risk":1,"updated_at":"2026-06-24T21:03:31.814855+05:30"},{"city":"Jhansi","state":"Uttar Pradesh","latitude":25.4484,"longitude":78.5685,"temp":33.6,"humidity":46,"rain":0.0,"pressure":972.3,"uv_index":8.45,"wind_gusts":30.6,"aqi":76,"pm10":54.9,"pm2_5":26.4,"no2":10.4,"co":347.0,"o3":61.0,"so2":4.1,"mosquito_risk":0,"arthritis_risk":5,"migraine_risk":7,"frizz_risk":1,"updated_at":"2026-06-24T21:03:35.046699+05:30"},{"city":"Surat","state":"Gujarat","latitude":21.1702,"longitude":72.8311,"temp":28.5,"humidity":83,"rain":0.0,"pressure":1002.6,"uv_index":7.1,"wind_gusts":50.4,"aqi":79,"pm10":32.5,"pm2_5":18.6,"no2":20.9,"co":197.0,"o3":33.0,"so2":33.1,"mosquito_risk":7,"arthritis_risk":5,"migraine_risk":4,"frizz_risk":1,"updated_at":"2026-06-24T21:03:35.046737+05:30"},{"city":"Vadodara","state":"Gujarat","latitude":22.3072,"longitude":73.1812,"temp":29.6,"humidity":73,"rain":0.0,"pressure":999.6,"uv_index":6.1,"wind_gusts":55.8,"aqi":74,"pm10":33.1,"pm2_5":20.9,"no2":17.0,"co":170.0,"o3":49.0,"so2":20.6,"mosquito_risk":7,"arthritis_risk":5,"migraine_risk":7,"frizz_risk":1,"updated_at":"2026-06-24T21:03:35.046749+05:30"},{"city":"Rajkot","state":"Gujarat","latitude":22.3039,"longitude":70.8022,"temp":29.6,"humidity":74,"rain":0.0,"pressure":989.2,"uv_index":7.5,"wind_gusts":43.6,"aqi":67,"pm10":44.8,"pm2_5":20.6,"no2":4.2,"co":124.0,"o3":55.0,"so2":4.1,"mosquito_risk":7,"arthritis_risk":5,"migraine_risk":7,"frizz_risk":1,"updated_at":"2026-06-24T21:03:35.046757+05:30"},{"city":"Thane","state":"Maharashtra","latitude":19.2183,"longitude":72.9781,"temp":25.4,"humidity":86,"rain":0.0,"pressure":1005.6,"uv_index":3.65,"wind_gusts":22.3,"aqi":50,"pm10":39.5,"pm2_5":14.1,"no2":14.0,"co":406.0,"o3":48.0,"so2":10.5,"mosquito_risk":7,"arthritis_risk":5,"migraine_risk":0,"frizz_risk":1,"updated_at":"2026-06-24T21:03:35.046765+05:30"},{"city":"Nagpur","state":"Maharashtra","latitude":21.1458,"longitude":79.0882,"temp":26.7,"humidity":92,"rain":0.1,"pressure":969.9,"uv_index":8.7,"wind_gusts":33.1,"aqi":40,"pm10":16.8,"pm2_5":15.6,"no2":23.0,"co":402.0,"o3":53.0,"so2":18.8,"mosquito_risk":10,"arthritis_risk":5,"migraine_risk":7,"frizz_risk":1,"updated_at":"2026-06-24T21:03:35.046774+05:30"},{"city":"Nashik","state":"Maharashtra","latitude":19.9975,"longitude":73.7898,"temp":22.7,"humidity":88,"rain":0.0,"pressure":942.7,"uv_index":1.15,"wind_gusts":39.2,"aqi":41,"pm10":25.0,"pm2_5":14.2,"no2":12.3,"co":211.0,"o3":77.0,"so2":13.8,"mosquito_risk":3,"arthritis_risk":5,"migraine_risk":3,"frizz_risk":1,"updated_at":"2026-06-24T21:03:35.046781+05:30"},{"city":"Aurangabad","state":"Maharashtra","latitude":19.8762,"longitude":75.3433,"temp":25.3,"humidity":75,"rain":0.0,"pressure":941.3,"uv_index":7.5,"wind_gusts":45.7,"aqi":53,"pm10":44.2,"pm2_5":23.2,"no2":10.1,"co":220.0,"o3":67.0,"so2":6.2,"mosquito_risk":7,"arthritis_risk":5,"migraine_risk":7,"frizz_risk":1,"updated_at":"2026-06-24T21:03:35.046789+05:30"},{"city":"Solapur","state":"Maharashtra","latitude":17.6599,"longitude":75.9064,"temp":27.4,"humidity":64,"rain":0.0,"pressure":955.4,"uv_index":5.3,"wind_gusts":48.2,"aqi":33,"pm10":4.5,"pm2_5":4.3,"no2":7.2,"co":187.0,"o3":50.0,"so2":2.4,"mosquito_risk":7,"arthritis_risk":5,"migraine_risk":3,"frizz_risk":1,"updated_at":"2026-06-24T21:03:35.046797+05:30"},{"city":"Kolhapur","state":"Maharashtra","latitude":16.705,"longitude":74.2433,"temp":22.4,"humidity":92,"rain":0.0,"pressure":946.6,"uv_index":4.65,"wind_gusts":49.3,"aqi":26,"pm10":7.2,"pm2_5":6.4,"no2":9.6,"co":199.0,"o3":43.0,"so2":2.6,"mosquito_risk":3,"arthritis_risk":5,"migraine_risk":3,"frizz_risk":1,"updated_at":"2026-06-24T21:03:35.046805+05:30"},{"city":"Goa","state":"Goa","latitude":15.2993,"longitude":74.124,"temp":24.2,"humidity":98,"rain":0.1,"pressure":998.0,"uv_index":4.6,"wind_gusts":29.5,"aqi":38,"pm10":18.0,"pm2_5":11.0,"no2":4.5,"co":229.0,"o3":45.0,"so2":1.2,"mosquito_risk":6,"arthritis_risk":5,"migraine_risk":3,"frizz_risk":1,"updated_at":"2026-06-24T21:03:35.046812+05:30"},{"city":"Jodhpur","state":"Rajasthan","latitude":26.2389,"longitude":73.0243,"temp":34.9,"humidity":39,"rain":0.0,"pressure":976.3,"uv_index":8.4,"wind_gusts":42.1,"aqi":144,"pm10":233.3,"pm2_5":54.8,"no2":8.7,"co":176.0,"o3":56.0,"so2":2.1,"mosquito_risk":0,"arthritis_risk":5,"migraine_risk":7,"frizz_risk":1,"updated_at":"2026-06-24T21:03:35.046819+05:30"},{"city":"Udaipur","state":"Rajasthan","latitude":24.5854,"longitude":73.7125,"temp":30.9,"humidity":48,"rain":0.0,"pressure":941.7,"uv_index":8.75,"wind_gusts":34.6,"aqi":74,"pm10":49.7,"pm2_5":21.9,"no2":5.4,"co":236.0,"o3":66.0,"so2":2.2,"mosquito_risk":0,"arthritis_risk":5,"migraine_risk":7,"frizz_risk":1,"updated_at":"2026-06-24T21:03:35.046827+05:30"},{"city":"Kota","state":"Rajasthan","latitude":25.2138,"longitude":75.8648,"temp":31.3,"humidity":56,"rain":0.0,"pressure":973.5,"uv_index":8.3,"wind_gusts":40.7,"aqi":82,"pm10":78.9,"pm2_5":42.4,"no2":22.3,"co":244.0,"o3":58.0,"so2":6.9,"mosquito_risk":0,"arthritis_risk":5,"migraine_risk":7,"frizz_risk":1,"updated_at":"2026-06-24T21:03:35.046834+05:30"},{"city":"Bikaner","state":"Rajasthan","latitude":28.0229,"longitude":73.3119,"temp":31.5,"humidity":58,"rain":0.0,"pressure":974.4,"uv_index":8.45,"wind_gusts":30.6,"aqi":156,"pm10":140.2,"pm2_5":45.9,"no2":9.3,"co":145.0,"o3":58.0,"so2":3.2,"mosquito_risk":0,"arthritis_risk":5,"migraine_risk":7,"frizz_risk":1,"updated_at":"2026-06-24T21:03:35.046840+05:30"},{"city":"Ajmer","state":"Rajasthan","latitude":26.4499,"longitude":74.6399,"temp":29.6,"humidity":60,"rain":0.0,"pressure":949.1,"uv_index":8.3,"wind_gusts":44.6,"aqi":90,"pm10":99.9,"pm2_5":36.6,"no2":14.5,"co":227.0,"o3":57.0,"so2":3.6,"mosquito_risk":4,"arthritis_risk":5,"migraine_risk":7,"frizz_risk":1,"updated_at":"2026-06-24T21:03:35.046847+05:30"},{"city":"Gwalior","state":"Madhya Pradesh","latitude":26.2183,"longitude":78.1828,"temp":34.3,"humidity":37,"rain":0.0,"pressure":977.4,"uv_index":8.25,"wind_gusts":33.5,"aqi":99,"pm10":78.9,"pm2_5":31.4,"no2":10.6,"co":256.0,"o3":61.0,"so2":3.9,"mosquito_risk":0,"arthritis_risk":5,"migraine_risk":7,"frizz_risk":1,"updated_at":"2026-06-24T21:03:35.046854+05:30"},{"city":"Indore","state":"Madhya Pradesh","latitude":22.7196,"longitude":75.8577,"temp":25.6,"humidity":84,"rain":0.0,"pressure":944.5,"uv_index":2.35,"wind_gusts":45.0,"aqi":77,"pm10":23.8,"pm2_5":18.7,"no2":16.2,"co":561.0,"o3":59.0,"so2":2.4,"mosquito_risk":7,"arthritis_risk":5,"migraine_risk":3,"frizz_risk":1,"updated_at":"2026-06-24T21:03:35.046862+05:30"},{"city":"Bhopal","state":"Madhya Pradesh","latitude":23.2599,"longitude":77.4126,"temp":24.6,"humidity":96,"rain":0.1,"pressure":949.9,"uv_index":7.2,"wind_gusts":48.2,"aqi":60,"pm10":31.1,"pm2_5":21.9,"no2":6.1,"co":379.0,"o3":86.0,"so2":3.0,"mosquito_risk":6,"arthritis_risk":5,"migraine_risk":7,"frizz_risk":1,"updated_at":"2026-06-24T21:03:35.046869+05:30"},{"city":"Jabalpur","state":"Madhya Pradesh","latitude":23.1815,"longitude":79.9864,"temp":29.0,"humidity":74,"rain":0.0,"pressure":957.5,"uv_index":8.8,"wind_gusts":41.0,"aqi":51,"pm10":23.9,"pm2_5":17.9,"no2":7.7,"co":218.0,"o3":79.0,"so2":3.5,"mosquito_risk":7,"arthritis_risk":5,"migraine_risk":7,"frizz_risk":1,"updated_at":"2026-06-24T21:03:35.046876+05:30"},{"city":"Ujjain","state":"Madhya Pradesh","latitude":23.1765,"longitude":75.7885,"temp":26.3,"humidity":80,"rain":0.1,"pressure":949.8,"uv_index":2.65,"wind_gusts":35.3,"aqi":77,"pm10":41.8,"pm2_5":28.5,"no2":10.4,"co":249.0,"o3":62.0,"so2":4.2,"mosquito_risk":10,"arthritis_risk":5,"migraine_risk":3,"frizz_risk":1,"updated_at":"2026-06-24T21:03:35.046884+05:30"},{"city":"Visakhapatnam","state":"Andhra Pradesh","latitude":17.6868,"longitude":83.2185,"temp":30.6,"humidity":65,"rain":0.0,"pressure":1000.1,"uv_index":8.75,"wind_gusts":41.4,"aqi":71,"pm10":29.3,"pm2_5":24.2,"no2":27.7,"co":337.0,"o3":63.0,"so2":38.3,"mosquito_risk":3,"arthritis_risk":5,"migraine_risk":4,"frizz_risk":1,"updated_at":"2026-06-24T21:03:35.046892+05:30"},{"city":"Vijayawada","state":"Andhra Pradesh","latitude":16.5062,"longitude":80.648,"temp":30.6,"humidity":66,"rain":0.0,"pressure":999.7,"uv_index":8.1,"wind_gusts":42.1,"aqi":61,"pm10":22.0,"pm2_5":19.8,"no2":15.2,"co":287.0,"o3":49.0,"so2":5.5,"mosquito_risk":3,"arthritis_risk":5,"migraine_risk":7,"frizz_risk":1,"updated_at":"2026-06-24T21:03:35.046899+05:30"},{"city":"Guntur","state":"Andhra Pradesh","latitude":16.3067,"longitude":80.4365,"temp":31.0,"humidity":61,"rain":0.1,"pressure":1000.9,"uv_index":8.3,"wind_gusts":40.7,"aqi":55,"pm10":22.3,"pm2_5":20.3,"no2":17.8,"co":245.0,"o3":45.0,"so2":6.2,"mosquito_risk":6,"arthritis_risk":5,"migraine_risk":4,"frizz_risk":1,"updated_at":"2026-06-24T21:03:35.046906+05:30"},{"city":"Nellore","state":"Andhra Pradesh","latitude":14.4426,"longitude":79.9865,"temp":32.7,"humidity":48,"rain":0.0,"pressure":1003.6,"uv_index":8.7,"wind_gusts":44.6,"aqi":48,"pm10":13.2,"pm2_5":9.8,"no2":8.1,"co":147.0,"o3":49.0,"so2":3.6,"mosquito_risk":0,"arthritis_risk":5,"migraine_risk":4,"frizz_risk":1,"updated_at":"2026-06-24T21:03:35.046914+05:30"},{"city":"Kurnool","state":"Andhra Pradesh","latitude":15.8281,"longitude":78.0373,"temp":29.6,"humidity":57,"rain":0.0,"pressure":975.3,"uv_index":7.05,"wind_gusts":48.6,"aqi":33,"pm10":11.6,"pm2_5":7.9,"no2":6.3,"co":140.0,"o3":57.0,"so2":2.2,"mosquito_risk":4,"arthritis_risk":5,"migraine_risk":7,"frizz_risk":1,"updated_at":"2026-06-24T21:03:35.046924+05:30"},{"city":"Kakinada","state":"Andhra Pradesh","latitude":16.9891,"longitude":82.2475,"temp":28.9,"humidity":73,"rain":0.0,"pressure":1004.4,"uv_index":8.1,"wind_gusts":38.5,"aqi":62,"pm10":18.2,"pm2_5":13.9,"no2":5.2,"co":439.0,"o3":74.0,"so2":3.8,"mosquito_risk":7,"arthritis_risk":5,"migraine_risk":4,"frizz_risk":1,"updated_at":"2026-06-24T21:03:35.046931+05:30"},{"city":"Tirupati","state":"Andhra Pradesh","latitude":13.6288,"longitude":79.4192,"temp":26.1,"humidity":91,"rain":0.0,"pressure":989.6,"uv_index":8.7,"wind_gusts":40.7,"aqi":51,"pm10":15.9,"pm2_5":13.2,"no2":16.5,"co":190.0,"o3":42.0,"so2":3.1,"mosquito_risk":7,"arthritis_risk":5,"migraine_risk":7,"frizz_risk":1,"updated_at":"2026-06-24T21:03:35.046937+05:30"},{"city":"Warangal","state":"Telangana","latitude":17.9689,"longitude":79.5941,"temp":25.9,"humidity":89,"rain":0.1,"pressure":976.3,"uv_index":8.05,"wind_gusts":37.8,"aqi":39,"pm10":14.3,"pm2_5":13.2,"no2":11.2,"co":363.0,"o3":59.0,"so2":3.1,"mosquito_risk":10,"arthritis_risk":5,"migraine_risk":7,"frizz_risk":1,"updated_at":"2026-06-24T21:03:35.046944+05:30"},{"city":"Nizamabad","state":"Telangana","latitude":18.6725,"longitude":78.0941,"temp":26.1,"humidity":74,"rain":0.0,"pressure":962.5,"uv_index":5.05,"wind_gusts":45.0,"aqi":33,"pm10":21.7,"pm2_5":14.2,"no2":8.5,"co":226.0,"o3":60.0,"so2":3.9,"mosquito_risk":7,"arthritis_risk":5,"migraine_risk":3,"frizz_risk":1,"updated_at":"2026-06-24T21:03:35.046950+05:30"},{"city":"Mysore","state":"Karnataka","latitude":12.2958,"longitude":76.6396,"temp":22.5,"humidity":87,"rain":0.0,"pressure":928.5,"uv_index":4.95,"wind_gusts":49.3,"aqi":29,"pm10":5.4,"pm2_5":4.5,"no2":10.1,"co":141.0,"o3":41.0,"so2":2.2,"mosquito_risk":3,"arthritis_risk":5,"migraine_risk":3,"frizz_risk":1,"updated_at":"2026-06-24T21:03:35.046958+05:30"},{"city":"Mangalore","state":"Karnataka","latitude":12.9141,"longitude":74.856,"temp":25.9,"humidity":92,"rain":0.0,"pressure":1007.3,"uv_index":8.25,"wind_gusts":41.0,"aqi":42,"pm10":24.9,"pm2_5":15.1,"no2":10.2,"co":273.0,"o3":34.0,"so2":2.4,"mosquito_risk":7,"arthritis_risk":5,"migraine_risk":4,"frizz_risk":1,"updated_at":"2026-06-24T21:03:35.046964+05:30"},{"city":"Hubli-Dharwad","state":"Karnataka","latitude":15.3647,"longitude":75.124,"temp":21.7,"humidity":94,"rain":0.0,"pressure":940.0,"uv_index":7.85,"wind_gusts":58.7,"aqi":25,"pm10":3.3,"pm2_5":2.5,"no2":5.6,"co":139.0,"o3":43.0,"so2":1.1,"mosquito_risk":3,"arthritis_risk":5,"migraine_risk":7,"frizz_risk":1,"updated_at":"2026-06-24T21:03:35.046971+05:30"},{"city":"Belgaum","state":"Karnataka","latitude":15.8497,"longitude":74.4977,"temp":20.9,"humidity":99,"rain":0.0,"pressure":924.4,"uv_index":6.15,"wind_gusts":46.1,"aqi":25,"pm10":5.7,"pm2_5":4.4,"no2":7.0,"co":139.0,"o3":42.0,"so2":1.9,"mosquito_risk":3,"arthritis_risk":5,"migraine_risk":7,"frizz_risk":1,"updated_at":"2026-06-24T21:03:38.278998+05:30"},{"city":"Coimbatore","state":"Tamil Nadu","latitude":11.0168,"longitude":76.9558,"temp":23.7,"humidity":93,"rain":0.0,"pressure":961.6,"uv_index":8.45,"wind_gusts":46.1,"aqi":34,"pm10":5.3,"pm2_5":4.8,"no2":8.6,"co":192.0,"o3":44.0,"so2":3.2,"mosquito_risk":3,"arthritis_risk":5,"migraine_risk":7,"frizz_risk":1,"updated_at":"2026-06-24T21:03:38.279036+05:30"},{"city":"Madurai","state":"Tamil Nadu","latitude":9.9252,"longitude":78.1198,"temp":28.2,"humidity":72,"rain":0.0,"pressure":992.9,"uv_index":8.0,"wind_gusts":35.6,"aqi":65,"pm10":28.0,"pm2_5":25.8,"no2":51.8,"co":208.0,"o3":7.0,"so2":8.5,"mosquito_risk":7,"arthritis_risk":5,"migraine_risk":7,"frizz_risk":1,"updated_at":"2026-06-24T21:03:38.279048+05:30"},{"city":"Trichy","state":"Tamil Nadu","latitude":10.7905,"longitude":78.7047,"temp":27.8,"humidity":79,"rain":0.0,"pressure":999.6,"uv_index":8.05,"wind_gusts":46.4,"aqi":38,"pm10":17.6,"pm2_5":15.0,"no2":16.3,"co":141.0,"o3":51.0,"so2":4.0,"mosquito_risk":7,"arthritis_risk":5,"migraine_risk":7,"frizz_risk":1,"updated_at":"2026-06-24T21:03:38.279057+05:30"},{"city":"Salem","state":"Tamil Nadu","latitude":11.6643,"longitude":78.146,"temp":27.6,"humidity":71,"rain":0.0,"pressure":977.1,"uv_index":8.75,"wind_gusts":36.7,"aqi":56,"pm10":23.7,"pm2_5":19.8,"no2":23.7,"co":591.0,"o3":57.0,"so2":8.0,"mosquito_risk":7,"arthritis_risk":5,"migraine_risk":7,"frizz_risk":1,"updated_at":"2026-06-24T21:03:38.279066+05:30"},{"city":"Tirunelveli","state":"Tamil Nadu","latitude":8.7139,"longitude":77.7567,"temp":29.2,"humidity":64,"rain":0.0,"pressure":1003.5,"uv_index":8.15,"wind_gusts":42.8,"aqi":32,"pm10":5.2,"pm2_5":4.7,"no2":6.8,"co":192.0,"o3":46.0,"so2":1.8,"mosquito_risk":7,"arthritis_risk":5,"migraine_risk":4,"frizz_risk":1,"updated_at":"2026-06-24T21:03:38.279075+05:30"},{"city":"Vellore","state":"Tamil Nadu","latitude":12.9165,"longitude":79.1325,"temp":25.9,"humidity":90,"rain":0.0,"pressure":983.2,"uv_index":8.2,"wind_gusts":40.7,"aqi":47,"pm10":17.9,"pm2_5":14.9,"no2":14.5,"co":329.0,"o3":53.0,"so2":4.3,"mosquito_risk":7,"arthritis_risk":5,"migraine_risk":7,"frizz_risk":1,"updated_at":"2026-06-24T21:03:38.279083+05:30"},{"city":"Erode","state":"Tamil Nadu","latitude":11.341,"longitude":77.7172,"temp":26.7,"humidity":76,"rain":0.0,"pressure":988.9,"uv_index":8.7,"wind_gusts":40.3,"aqi":51,"pm10":14.1,"pm2_5":12.2,"no2":18.5,"co":226.0,"o3":42.0,"so2":3.6,"mosquito_risk":7,"arthritis_risk":5,"migraine_risk":7,"frizz_risk":1,"updated_at":"2026-06-24T21:03:38.279091+05:30"},{"city":"Kochi","state":"Kerala","latitude":9.9312,"longitude":76.2673,"temp":26.5,"humidity":91,"rain":0.0,"pressure":1010.1,"uv_index":7.15,"wind_gusts":35.6,"aqi":48,"pm10":15.0,"pm2_5":12.9,"no2":18.8,"co":243.0,"o3":22.0,"so2":4.7,"mosquito_risk":7,"arthritis_risk":0,"migraine_risk":4,"frizz_risk":1,"updated_at":"2026-06-24T21:03:38.279101+05:30"},{"city":"Thiruvananthapuram","state":"Kerala","latitude":8.5241,"longitude":76.9366,"temp":25.1,"humidity":94,"rain":0.0,"pressure":1009.8,"uv_index":7.9,"wind_gusts":43.2,"aqi":33,"pm10":8.5,"pm2_5":5.5,"no2":3.4,"co":181.0,"o3":48.0,"so2":1.3,"mosquito_risk":7,"arthritis_risk":0,"migraine_risk":4,"frizz_risk":1,"updated_at":"2026-06-24T21:03:38.279108+05:30"},{"city":"Kozhikode","state":"Kerala","latitude":11.2588,"longitude":75.7804,"temp":24.6,"humidity":99,"rain":0.1,"pressure":1009.2,"uv_index":8.35,"wind_gusts":34.9,"aqi":27,"pm10":7.1,"pm2_5":4.6,"no2":2.0,"co":324.0,"o3":52.0,"so2":0.9,"mosquito_risk":6,"arthritis_risk":0,"migraine_risk":4,"frizz_risk":1,"updated_at":"2026-06-24T21:03:38.279115+05:30"},{"city":"Thrissur","state":"Kerala","latitude":10.5276,"longitude":76.2144,"temp":25.1,"humidity":99,"rain":0.0,"pressure":1008.3,"uv_index":7.6,"wind_gusts":31.3,"aqi":51,"pm10":15.3,"pm2_5":13.9,"no2":14.9,"co":441.0,"o3":26.0,"so2":3.6,"mosquito_risk":7,"arthritis_risk":0,"migraine_risk":4,"frizz_risk":1,"updated_at":"2026-06-24T21:03:38.279123+05:30"},{"city":"Kannur","state":"Kerala","latitude":11.8745,"longitude":75.3704,"temp":25.4,"humidity":96,"rain":0.1,"pressure":1008.3,"uv_index":8.0,"wind_gusts":34.6,"aqi":36,"pm10":11.1,"pm2_5":8.4,"no2":12.3,"co":421.0,"o3":33.0,"so2":2.0,"mosquito_risk":10,"arthritis_risk":0,"migraine_risk":4,"frizz_risk":1,"updated_at":"2026-06-24T21:03:38.279130+05:30"},{"city":"Patna","state":"Bihar","latitude":25.5941,"longitude":85.1376,"temp":34.3,"humidity":51,"rain":0.0,"pressure":994.6,"uv_index":8.8,"wind_gusts":32.0,"aqi":161,"pm10":154.1,"pm2_5":96.2,"no2":64.9,"co":754.0,"o3":50.0,"so2":26.4,"mosquito_risk":0,"arthritis_risk":5,"migraine_risk":7,"frizz_risk":1,"updated_at":"2026-06-24T21:03:38.279137+05:30"},{"city":"Gaya","state":"Bihar","latitude":24.7914,"longitude":85.0002,"temp":32.3,"humidity":56,"rain":0.0,"pressure":988.5,"uv_index":8.9,"wind_gusts":34.6,"aqi":126,"pm10":84.1,"pm2_5":54.7,"no2":18.6,"co":486.0,"o3":74.0,"so2":9.9,"mosquito_risk":0,"arthritis_risk":5,"migraine_risk":7,"frizz_risk":1,"updated_at":"2026-06-24T21:03:38.279145+05:30"},{"city":"Muzaffarpur","state":"Bihar","latitude":26.1209,"longitude":85.3647,"temp":31.2,"humidity":69,"rain":0.0,"pressure":994.7,"uv_index":8.8,"wind_gusts":30.2,"aqi":162,"pm10":111.1,"pm2_5":81.5,"no2":37.5,"co":823.0,"o3":100.0,"so2":19.5,"mosquito_risk":3,"arthritis_risk":5,"migraine_risk":7,"frizz_risk":1,"updated_at":"2026-06-24T21:03:38.279152+05:30"},{"city":"Bhagalpur","state":"Bihar","latitude":25.2425,"longitude":87.0117,"temp":31.5,"humidity":73,"rain":0.0,"pressure":995.7,"uv_index":8.8,"wind_gusts":26.3,"aqi":153,"pm10":118.0,"pm2_5":67.5,"no2":26.5,"co":595.0,"o3":93.0,"so2":15.4,"mosquito_risk":3,"arthritis_risk":5,"migraine_risk":7,"frizz_risk":1,"updated_at":"2026-06-24T21:03:38.279159+05:30"},{"city":"Ranchi","state":"Jharkhand","latitude":23.3441,"longitude":85.3096,"temp":24.8,"humidity":88,"rain":0.0,"pressure":934.1,"uv_index":9.15,"wind_gusts":33.5,"aqi":91,"pm10":22.2,"pm2_5":21.1,"no2":8.7,"co":248.0,"o3":86.0,"so2":4.1,"mosquito_risk":3,"arthritis_risk":5,"migraine_risk":7,"frizz_risk":1,"updated_at":"2026-06-24T21:03:38.279167+05:30"},{"city":"Jamshedpur","state":"Jharkhand","latitude":22.8046,"longitude":86.2029,"temp":28.6,"humidity":84,"rain":0.0,"pressure":986.7,"uv_index":9.05,"wind_gusts":32.4,"aqi":127,"pm10":42.8,"pm2_5":38.1,"no2":16.1,"co":391.0,"o3":103.0,"so2":27.7,"mosquito_risk":7,"arthritis_risk":5,"migraine_risk":7,"frizz_risk":1,"updated_at":"2026-06-24T21:03:38.279174+05:30"},{"city":"Dhanbad","state":"Jharkhand","latitude":23.7957,"longitude":86.4304,"temp":29.3,"humidity":77,"rain":0.0,"pressure":975.7,"uv_index":9.05,"wind_gusts":29.5,"aqi":152,"pm10":73.3,"pm2_5":62.9,"no2":48.0,"co":623.0,"o3":68.0,"so2":98.4,"mosquito_risk":7,"arthritis_risk":5,"migraine_risk":7,"frizz_risk":1,"updated_at":"2026-06-24T21:03:38.279180+05:30"},{"city":"Bokaro","state":"Jharkhand","latitude":23.6693,"longitude":86.1511,"temp":29.7,"humidity":72,"rain":0.0,"pressure":979.5,"uv_index":8.95,"wind_gusts":32.4,"aqi":136,"pm10":53.1,"pm2_5":43.2,"no2":30.9,"co":204.0,"o3":66.0,"so2":65.3,"mosquito_risk":7,"arthritis_risk":5,"migraine_risk":7,"frizz_risk":1,"updated_at":"2026-06-24T21:03:38.279188+05:30"},{"city":"Bhubaneswar","state":"Odisha","latitude":20.2961,"longitude":85.8245,"temp":29.0,"humidity":82,"rain":0.0,"pressure":998.7,"uv_index":8.9,"wind_gusts":24.1,"aqi":118,"pm10":27.1,"pm2_5":26.4,"no2":13.4,"co":503.0,"o3":92.0,"so2":8.2,"mosquito_risk":7,"arthritis_risk":5,"migraine_risk":7,"frizz_risk":1,"updated_at":"2026-06-24T21:03:38.279195+05:30"},{"city":"Cuttack","state":"Odisha","latitude":20.4625,"longitude":85.8828,"temp":29.6,"humidity":80,"rain":0.0,"pressure":1000.3,"uv_index":9.1,"wind_gusts":30.6,"aqi":118,"pm10":27.1,"pm2_5":26.4,"no2":13.4,"co":519.0,"o3":92.0,"so2":8.2,"mosquito_risk":7,"arthritis_risk":5,"migraine_risk":4,"frizz_risk":1,"updated_at":"2026-06-24T21:03:38.279203+05:30"},{"city":"Rourkela","state":"Odisha","latitude":22.2604,"longitude":84.8536,"temp":29.2,"humidity":78,"rain":0.0,"pressure":980.7,"uv_index":8.95,"wind_gusts":28.8,"aqi":111,"pm10":33.9,"pm2_5":33.1,"no2":11.7,"co":732.0,"o3":100.0,"so2":7.7,"mosquito_risk":7,"arthritis_risk":5,"migraine_risk":7,"frizz_risk":1,"updated_at":"2026-06-24T21:03:38.279209+05:30"},{"city":"Raipur","state":"Chhattisgarh","latitude":21.2514,"longitude":81.6296,"temp":31.1,"humidity":57,"rain":0.0,"pressure":971.2,"uv_index":8.9,"wind_gusts":34.6,"aqi":59,"pm10":19.4,"pm2_5":19.4,"no2":30.8,"co":185.0,"o3":44.0,"so2":43.4,"mosquito_risk":0,"arthritis_risk":5,"migraine_risk":7,"frizz_risk":1,"updated_at":"2026-06-24T21:03:38.279216+05:30"},{"city":"Bhilai","state":"Chhattisgarh","latitude":21.1938,"longitude":81.3509,"temp":30.9,"humidity":56,"rain":0.0,"pressure":971.6,"uv_index":8.9,"wind_gusts":38.2,"aqi":54,"pm10":20.4,"pm2_5":20.4,"no2":32.8,"co":399.0,"o3":41.0,"so2":45.9,"mosquito_risk":0,"arthritis_risk":5,"migraine_risk":7,"frizz_risk":1,"updated_at":"2026-06-24T21:03:38.279223+05:30"},{"city":"Guwahati","state":"Assam","latitude":26.1158,"longitude":91.7086,"temp":26.4,"humidity":96,"rain":0.1,"pressure":997.7,"uv_index":8.75,"wind_gusts":24.5,"aqi":59,"pm10":34.2,"pm2_5":27.9,"no2":13.7,"co":603.0,"o3":49.0,"so2":2.8,"mosquito_risk":10,"arthritis_risk":5,"migraine_risk":7,"frizz_risk":1,"updated_at":"2026-06-24T21:03:38.279229+05:30"},{"city":"Agartala","state":"Tripura","latitude":23.8315,"longitude":91.2868,"temp":27.2,"humidity":89,"rain":0.0,"pressure":1002.5,"uv_index":4.85,"wind_gusts":27.0,"aqi":71,"pm10":34.1,"pm2_5":29.8,"no2":12.2,"co":321.0,"o3":80.0,"so2":5.8,"mosquito_risk":7,"arthritis_risk":5,"migraine_risk":0,"frizz_risk":1,"updated_at":"2026-06-24T21:03:38.279235+05:30"},{"city":"Shillong","state":"Meghalaya","latitude":25.5788,"longitude":91.8933,"temp":20.0,"humidity":98,"rain":0.0,"pressure":855.0,"uv_index":8.1,"wind_gusts":17.6,"aqi":48,"pm10":18.8,"pm2_5":14.1,"no2":8.7,"co":459.0,"o3":76.0,"so2":2.3,"mosquito_risk":3,"arthritis_risk":5,"migraine_risk":7,"frizz_risk":1,"updated_at":"2026-06-24T21:03:38.279241+05:30"},{"city":"Imphal","state":"Manipur","latitude":24.817,"longitude":93.9368,"temp":23.8,"humidity":94,"rain":0.0,"pressure":920.4,"uv_index":7.3,"wind_gusts":19.1,"aqi":47,"pm10":22.5,"pm2_5":21.2,"no2":22.1,"co":609.0,"o3":34.0,"so2":4.1,"mosquito_risk":3,"arthritis_risk":5,"migraine_risk":7,"frizz_risk":1,"updated_at":"2026-06-24T21:03:38.279249+05:30"},{"city":"Aizawl","state":"Mizoram","latitude":23.7271,"longitude":92.7176,"temp":20.1,"humidity":94,"rain":0.0,"pressure":889.6,"uv_index":4.7,"wind_gusts":18.4,"aqi":38,"pm10":15.1,"pm2_5":11.2,"no2":8.5,"co":222.0,"o3":49.0,"so2":1.0,"mosquito_risk":3,"arthritis_risk":5,"migraine_risk":3,"frizz_risk":1,"updated_at":"2026-06-24T21:03:38.279255+05:30"},{"city":"Kohima","state":"Nagaland","latitude":25.6701,"longitude":94.1077,"temp":20.4,"humidity":93,"rain":0.0,"pressure":853.4,"uv_index":7.05,"wind_gusts":27.4,"aqi":38,"pm10":14.8,"pm2_5":13.4,"no2":16.9,"co":412.0,"o3":43.0,"so2":1.6,"mosquito_risk":3,"arthritis_risk":5,"migraine_risk":7,"frizz_risk":1,"updated_at":"2026-06-24T21:03:38.279262+05:30"},{"city":"Gangtok","state":"Sikkim","latitude":27.3314,"longitude":88.6138,"temp":17.5,"humidity":95,"rain":0.0,"pressure":834.9,"uv_index":9.2,"wind_gusts":34.9,"aqi":86,"pm10":11.2,"pm2_5":9.3,"no2":15.0,"co":508.0,"o3":93.0,"so2":2.9,"mosquito_risk":3,"arthritis_risk":10,"migraine_risk":7,"frizz_risk":1,"updated_at":"2026-06-24T21:03:38.279268+05:30"},{"city":"Siliguri","state":"West Bengal","latitude":26.7271,"longitude":88.3953,"temp":25.8,"humidity":97,"rain":0.1,"pressure":989.3,"uv_index":8.75,"wind_gusts":23.8,"aqi":89,"pm10":42.8,"pm2_5":30.5,"no2":15.9,"co":824.0,"o3":92.0,"so2":4.2,"mosquito_risk":10,"arthritis_risk":5,"migraine_risk":7,"frizz_risk":1,"updated_at":"2026-06-24T21:03:41.510957+05:30"},{"city":"Durgapur","state":"West Bengal","latitude":23.5204,"longitude":87.3119,"temp":28.3,"humidity":86,"rain":0.0,"pressure":990.6,"uv_index":9.0,"wind_gusts":27.0,"aqi":191,"pm10":75.0,"pm2_5":68.7,"no2":30.1,"co":741.0,"o3":105.0,"so2":54.0,"mosquito_risk":7,"arthritis_risk":5,"migraine_risk":7,"frizz_risk":1,"updated_at":"2026-06-24T21:03:41.510997+05:30"},{"city":"Asansol","state":"West Bengal","latitude":23.6739,"longitude":86.9524,"temp":28.7,"humidity":82,"rain":0.0,"pressure":989.2,"uv_index":9.0,"wind_gusts":28.1,"aqi":154,"pm10":66.1,"pm2_5":58.8,"no2":30.3,"co":378.0,"o3":99.0,"so2":51.8,"mosquito_risk":7,"arthritis_risk":5,"migraine_risk":7,"frizz_risk":1,"updated_at":"2026-06-24T21:03:41.511010+05:30"},{"city":"Pondicherry","state":"Puducherry","latitude":11.9139,"longitude":79.8145,"temp":29.3,"humidity":69,"rain":0.0,"pressure":1007.3,"uv_index":7.9,"wind_gusts":36.4,"aqi":80,"pm10":22.9,"pm2_5":18.0,"no2":11.6,"co":305.0,"o3":91.0,"so2":5.2,"mosquito_risk":7,"arthritis_risk":5,"migraine_risk":4,"frizz_risk":1,"updated_at":"2026-06-24T21:03:41.511018+05:30"},{"city":"Port Blair","state":"Andaman and Nicobar Islands","latitude":11.6234,"longitude":92.7265,"temp":26.9,"humidity":88,"rain":0.0,"pressure":1007.2,"uv_index":8.65,"wind_gusts":44.6,"aqi":30,"pm10":12.7,"pm2_5":7.6,"no2":0.3,"co":96.0,"o3":47.0,"so2":0.4,"mosquito_risk":7,"arthritis_risk":5,"migraine_risk":4,"frizz_risk":1,"updated_at":"2026-06-24T21:03:41.511027+05:30"},{"city":"Haridwar","state":"Uttarakhand","latitude":29.9457,"longitude":78.1642,"temp":28.1,"humidity":73,"rain":0.0,"pressure":968.0,"uv_index":7.6,"wind_gusts":25.6,"aqi":179,"pm10":91.5,"pm2_5":55.6,"no2":19.3,"co":564.0,"o3":130.0,"so2":14.3,"mosquito_risk":7,"arthritis_risk":5,"migraine_risk":7,"frizz_risk":1,"updated_at":"2026-06-24T21:03:41.511034+05:30"},{"city":"Rishikesh","state":"Uttarakhand","latitude":30.0869,"longitude":78.2676,"temp":27.1,"humidity":75,"rain":0.0,"pressure":961.0,"uv_index":7.7,"wind_gusts":25.9,"aqi":171,"pm10":67.8,"pm2_5":40.7,"no2":9.8,"co":376.0,"o3":156.0,"so2":10.3,"mosquito_risk":7,"arthritis_risk":5,"migraine_risk":7,"frizz_risk":1,"updated_at":"2026-06-24T21:03:41.511042+05:30"},{"city":"Nainital","state":"Uttarakhand","latitude":29.3919,"longitude":79.4542,"temp":15.4,"humidity":100,"rain":0.0,"pressure":802.2,"uv_index":8.05,"wind_gusts":27.4,"aqi":160,"pm10":100.4,"pm2_5":44.8,"no2":11.2,"co":363.0,"o3":116.0,"so2":7.0,"mosquito_risk":3,"arthritis_risk":10,"migraine_risk":7,"frizz_risk":0,"updated_at":"2026-06-24T21:03:41.511050+05:30"},{"city":"Mussoorie","state":"Uttarakhand","latitude":30.4599,"longitude":78.0664,"temp":15.2,"humidity":98,"rain":0.0,"pressure":799.1,"uv_index":7.55,"wind_gusts":31.3,"aqi":163,"pm10":56.3,"pm2_5":39.0,"no2":18.3,"co":352.0,"o3":141.0,"so2":10.7,"mosquito_risk":3,"arthritis_risk":10,"migraine_risk":7,"frizz_risk":0,"updated_at":"2026-06-24T21:03:41.511058+05:30"},{"city":"Dharamshala","state":"Himachal Pradesh","latitude":32.219,"longitude":76.3234,"temp":21.0,"humidity":85,"rain":0.0,"pressure":864.9,"uv_index":8.5,"wind_gusts":34.2,"aqi":97,"pm10":15.0,"pm2_5":13.2,"no2":15.2,"co":408.0,"o3":73.0,"so2":0.8,"mosquito_risk":3,"arthritis_risk":5,"migraine_risk":7,"frizz_risk":1,"updated_at":"2026-06-24T21:03:41.511066+05:30"},{"city":"Dalhousie","state":"Himachal Pradesh","latitude":32.5387,"longitude":75.971,"temp":16.7,"humidity":90,"rain":0.0,"pressure":801.3,"uv_index":8.2,"wind_gusts":33.5,"aqi":140,"pm10":40.0,"pm2_5":30.5,"no2":27.7,"co":642.0,"o3":119.0,"so2":3.9,"mosquito_risk":3,"arthritis_risk":10,"migraine_risk":7,"frizz_risk":0,"updated_at":"2026-06-24T21:03:41.511075+05:30"},{"city":"Patiala","state":"Punjab","latitude":30.3398,"longitude":76.3869,"temp":32.6,"humidity":49,"rain":0.0,"pressure":971.8,"uv_index":7.65,"wind_gusts":35.3,"aqi":190,"pm10":344.6,"pm2_5":105.5,"no2":35.8,"co":566.0,"o3":88.0,"so2":12.0,"mosquito_risk":0,"arthritis_risk":5,"migraine_risk":7,"frizz_risk":1,"updated_at":"2026-06-24T21:03:41.511085+05:30"},{"city":"Bhatinda","state":"Punjab","latitude":30.211,"longitude":74.9455,"temp":34.0,"humidity":40,"rain":0.0,"pressure":976.6,"uv_index":8.25,"wind_gusts":32.4,"aqi":151,"pm10":171.8,"pm2_5":79.9,"no2":46.9,"co":313.0,"o3":69.0,"so2":16.3,"mosquito_risk":0,"arthritis_risk":5,"migraine_risk":7,"frizz_risk":1,"updated_at":"2026-06-24T21:03:41.511094+05:30"},{"city":"Rohtak","state":"Haryana","latitude":28.8955,"longitude":76.6066,"temp":32.0,"humidity":57,"rain":0.0,"pressure":975.4,"uv_index":7.75,"wind_gusts":29.2,"aqi":274,"pm10":321.3,"pm2_5":96.6,"no2":75.6,"co":542.0,"o3":21.0,"so2":13.9,"mosquito_risk":0,"arthritis_risk":5,"migraine_risk":7,"frizz_risk":1,"updated_at":"2026-06-24T21:03:41.511101+05:30"},{"city":"Panipat","state":"Haryana","latitude":29.3909,"longitude":76.9635,"temp":31.2,"humidity":61,"rain":0.0,"pressure":974.1,"uv_index":7.6,"wind_gusts":28.8,"aqi":587,"pm10":371.6,"pm2_5":107.1,"no2":47.6,"co":497.0,"o3":53.0,"so2":15.6,"mosquito_risk":3,"arthritis_risk":5,"migraine_risk":7,"frizz_risk":1,"updated_at":"2026-06-24T21:03:41.511108+05:30"},{"city":"Mathura","state":"Uttar Pradesh","latitude":27.4924,"longitude":77.6737,"temp":31.4,"humidity":59,"rain":0.0,"pressure":980.9,"uv_index":8.05,"wind_gusts":20.2,"aqi":402,"pm10":443.3,"pm2_5":105.9,"no2":83.1,"co":551.0,"o3":7.0,"so2":9.9,"mosquito_risk":0,"arthritis_risk":5,"migraine_risk":7,"frizz_risk":1,"updated_at":"2026-06-24T21:03:41.511115+05:30"},{"city":"Vrindavan","state":"Uttar Pradesh","latitude":27.5823,"longitude":77.7027,"temp":31.4,"humidity":57,"rain":0.0,"pressure":981.3,"uv_index":8.0,"wind_gusts":18.7,"aqi":402,"pm10":443.3,"pm2_5":105.9,"no2":83.1,"co":614.0,"o3":7.0,"so2":9.9,"mosquito_risk":0,"arthritis_risk":5,"migraine_risk":7,"frizz_risk":1,"updated_at":"2026-06-24T21:03:41.511122+05:30"},{"city":"Ayodhya","state":"Uttar Pradesh","latitude":26.7922,"longitude":82.1998,"temp":31.7,"humidity":61,"rain":0.0,"pressure":989.5,"uv_index":8.35,"wind_gusts":28.8,"aqi":159,"pm10":149.9,"pm2_5":71.0,"no2":24.1,"co":358.0,"o3":86.0,"so2":10.8,"mosquito_risk":3,"arthritis_risk":5,"migraine_risk":7,"frizz_risk":1,"updated_at":"2026-06-24T21:03:41.511129+05:30"},{"city":"Ratlam","state":"Madhya Pradesh","latitude":23.3315,"longitude":75.0367,"temp":25.7,"humidity":86,"rain":0.0,"pressure":950.5,"uv_index":7.65,"wind_gusts":44.3,"aqi":75,"pm10":45.4,"pm2_5":27.2,"no2":5.4,"co":180.0,"o3":75.0,"so2":4.2,"mosquito_risk":7,"arthritis_risk":5,"migraine_risk":7,"frizz_risk":1,"updated_at":"2026-06-24T21:03:41.511136+05:30"},{"city":"Sagar","state":"Madhya Pradesh","latitude":23.8388,"longitude":78.7378,"temp":24.8,"humidity":89,"rain":0.2,"pressure":946.3,"uv_index":8.65,"wind_gusts":44.3,"aqi":61,"pm10":31.4,"pm2_5":22.1,"no2":8.4,"co":206.0,"o3":76.0,"so2":3.2,"mosquito_risk":6,"arthritis_risk":5,"migraine_risk":7,"frizz_risk":1,"updated_at":"2026-06-24T21:03:41.511148+05:30"},{"city":"Satna","state":"Madhya Pradesh","latitude":24.6005,"longitude":80.8322,"temp":30.9,"humidity":62,"rain":0.0,"pressure":966.7,"uv_index":8.75,"wind_gusts":28.4,"aqi":79,"pm10":44.7,"pm2_5":27.4,"no2":11.1,"co":203.0,"o3":71.0,"so2":3.3,"mosquito_risk":3,"arthritis_risk":5,"migraine_risk":7,"frizz_risk":1,"updated_at":"2026-06-24T21:03:41.511155+05:30"},{"city":"Akola","state":"Maharashtra","latitude":20.7002,"longitude":77.0082,"temp":25.5,"humidity":94,"rain":0.1,"pressure":972.2,"uv_index":8.5,"wind_gusts":37.8,"aqi":42,"pm10":26.3,"pm2_5":20.0,"no2":12.8,"co":253.0,"o3":58.0,"so2":5.3,"mosquito_risk":10,"arthritis_risk":5,"migraine_risk":7,"frizz_risk":1,"updated_at":"2026-06-24T21:03:41.511163+05:30"},{"city":"Amravati","state":"Maharashtra","latitude":20.9374,"longitude":77.7796,"temp":24.8,"humidity":96,"rain":0.1,"pressure":964.2,"uv_index":8.65,"wind_gusts":36.7,"aqi":44,"pm10":19.6,"pm2_5":15.0,"no2":10.5,"co":207.0,"o3":64.0,"so2":4.7,"mosquito_risk":6,"arthritis_risk":5,"migraine_risk":7,"frizz_risk":1,"updated_at":"2026-06-24T21:03:41.511171+05:30"},{"city":"Latur","state":"Maharashtra","latitude":18.4088,"longitude":76.5604,"temp":27.2,"humidity":60,"rain":0.0,"pressure":937.6,"uv_index":2.45,"wind_gusts":41.8,"aqi":37,"pm10":18.0,"pm2_5":11.7,"no2":6.2,"co":224.0,"o3":68.0,"so2":2.2,"mosquito_risk":4,"arthritis_risk":5,"migraine_risk":3,"frizz_risk":1,"updated_at":"2026-06-24T21:03:41.511180+05:30"},{"city":"Nanded","state":"Maharashtra","latitude":19.1383,"longitude":77.3091,"temp":24.8,"humidity":92,"rain":0.1,"pressure":966.1,"uv_index":7.3,"wind_gusts":37.8,"aqi":33,"pm10":30.6,"pm2_5":18.9,"no2":9.4,"co":301.0,"o3":59.0,"so2":3.0,"mosquito_risk":6,"arthritis_risk":5,"migraine_risk":7,"frizz_risk":1,"updated_at":"2026-06-24T21:03:41.511186+05:30"},{"city":"Gulbarga","state":"Karnataka","latitude":17.3297,"longitude":76.8343,"temp":27.1,"humidity":64,"rain":0.0,"pressure":956.7,"uv_index":5.15,"wind_gusts":46.4,"aqi":33,"pm10":4.4,"pm2_5":4.0,"no2":8.9,"co":145.0,"o3":51.0,"so2":2.6,"mosquito_risk":7,"arthritis_risk":5,"migraine_risk":3,"frizz_risk":1,"updated_at":"2026-06-24T21:03:41.511193+05:30"},{"city":"Bidar","state":"Karnataka","latitude":17.9104,"longitude":77.5199,"temp":24.9,"humidity":84,"rain":0.0,"pressure":933.3,"uv_index":7.55,"wind_gusts":46.4,"aqi":40,"pm10":20.8,"pm2_5":12.7,"no2":8.1,"co":379.0,"o3":68.0,"so2":4.0,"mosquito_risk":3,"arthritis_risk":5,"migraine_risk":7,"frizz_risk":1,"updated_at":"2026-06-24T21:03:41.511201+05:30"},{"city":"Hospet","state":"Karnataka","latitude":15.2689,"longitude":76.3909,"temp":24.8,"humidity":78,"rain":0.0,"pressure":955.2,"uv_index":7.3,"wind_gusts":54.7,"aqi":28,"pm10":5.0,"pm2_5":3.7,"no2":6.0,"co":126.0,"o3":44.0,"so2":1.7,"mosquito_risk":3,"arthritis_risk":5,"migraine_risk":7,"frizz_risk":1,"updated_at":"2026-06-24T21:03:41.511208+05:30"},{"city":"Tirupur","state":"Tamil Nadu","latitude":11.1085,"longitude":77.3411,"temp":25.0,"humidity":86,"rain":0.0,"pressure":975.0,"uv_index":8.8,"wind_gusts":46.4,"aqi":56,"pm10":15.4,"pm2_5":13.6,"no2":21.5,"co":171.0,"o3":37.0,"so2":4.7,"mosquito_risk":7,"arthritis_risk":5,"migraine_risk":7,"frizz_risk":1,"updated_at":"2026-06-24T21:03:41.511215+05:30"},{"city":"Alappuzha","state":"Kerala","latitude":9.4981,"longitude":76.3388,"temp":26.5,"humidity":90,"rain":0.0,"pressure":1010.2,"uv_index":7.3,"wind_gusts":34.6,"aqi":38,"pm10":11.1,"pm2_5":8.5,"no2":9.4,"co":85.0,"o3":40.0,"so2":2.5,"mosquito_risk":7,"arthritis_risk":0,"migraine_risk":4,"frizz_risk":1,"updated_at":"2026-06-24T21:03:41.511223+05:30"},{"city":"Munnar","state":"Kerala","latitude":10.0889,"longitude":77.0595,"temp":16.6,"humidity":98,"rain":0.0,"pressure":856.8,"uv_index":7.65,"wind_gusts":41.4,"aqi":25,"pm10":4.8,"pm2_5":4.6,"no2":9.2,"co":116.0,"o3":34.0,"so2":1.9,"mosquito_risk":3,"arthritis_risk":10,"migraine_risk":7,"frizz_risk":1,"updated_at":"2026-06-24T21:03:41.511230+05:30"},{"city":"Silchar","state":"Assam","latitude":24.8333,"longitude":92.7789,"temp":27.0,"humidity":91,"rain":0.0,"pressure":1001.5,"uv_index":8.15,"wind_gusts":16.9,"aqi":64,"pm10":34.8,"pm2_5":26.4,"no2":10.2,"co":607.0,"o3":64.0,"so2":5.2,"mosquito_risk":7,"arthritis_risk":5,"migraine_risk":4,"frizz_risk":1,"updated_at":"2026-06-24T21:03:41.511237+05:30"},{"city":"Dibrugarh","state":"Assam","latitude":27.4728,"longitude":94.912,"temp":26.1,"humidity":96,"rain":0.0,"pressure":991.5,"uv_index":8.95,"wind_gusts":20.2,"aqi":63,"pm10":22.6,"pm2_5":21.5,"no2":18.0,"co":356.0,"o3":51.0,"so2":3.0,"mosquito_risk":7,"arthritis_risk":5,"migraine_risk":7,"frizz_risk":1,"updated_at":"2026-06-24T21:03:41.511244+05:30"}]