[{"city":"Delhi","state":"Delhi","latitude":28.6139,"longitude":77.209,"temp":35.3,"humidity":50,"rain":0.0,"pressure":973.7,"uv_index":6.85,"wind_gusts":24.8,"aqi":120,"pm10":104.8,"pm2_5":40.6,"no2":14.1,"co":494.0,"o3":160.0,"so2":26.1,"mosquito_risk":0,"arthritis_risk":5,"migraine_risk":10,"frizz_risk":1,"updated_at":"2026-07-03T17:04:37.745795+05:30"},{"city":"Mumbai","state":"Maharashtra","latitude":19.076,"longitude":72.8777,"temp":26.3,"humidity":90,"rain":0.2,"pressure":1004.1,"uv_index":0.95,"wind_gusts":42.8,"aqi":45,"pm10":18.6,"pm2_5":10.1,"no2":6.8,"co":269.0,"o3":56.0,"so2":3.6,"mosquito_risk":10,"arthritis_risk":5,"migraine_risk":0,"frizz_risk":1,"updated_at":"2026-07-03T17:04:37.745849+05:30"},{"city":"Bangalore","state":"Karnataka","latitude":12.9716,"longitude":77.5946,"temp":23.8,"humidity":77,"rain":0.2,"pressure":909.8,"uv_index":6.75,"wind_gusts":61.9,"aqi":30,"pm10":10.0,"pm2_5":6.5,"no2":11.5,"co":499.0,"o3":58.0,"so2":2.6,"mosquito_risk":6,"arthritis_risk":5,"migraine_risk":7,"frizz_risk":1,"updated_at":"2026-07-03T17:04:37.745867+05:30"},{"city":"Hyderabad","state":"Telangana","latitude":17.385,"longitude":78.4867,"temp":25.1,"humidity":84,"rain":0.0,"pressure":947.4,"uv_index":2.8,"wind_gusts":62.3,"aqi":25,"pm10":5.3,"pm2_5":4.7,"no2":8.4,"co":294.0,"o3":54.0,"so2":3.3,"mosquito_risk":7,"arthritis_risk":5,"migraine_risk":3,"frizz_risk":1,"updated_at":"2026-07-03T17:04:37.745878+05:30"},{"city":"Chennai","state":"Tamil Nadu","latitude":13.0827,"longitude":80.2707,"temp":28.2,"humidity":88,"rain":0.3,"pressure":1003.8,"uv_index":7.55,"wind_gusts":49.0,"aqi":54,"pm10":24.3,"pm2_5":17.1,"no2":8.3,"co":250.0,"o3":92.0,"so2":7.1,"mosquito_risk":10,"arthritis_risk":5,"migraine_risk":4,"frizz_risk":1,"updated_at":"2026-07-03T17:04:37.745887+05:30"},{"city":"Kolkata","state":"West Bengal","latitude":22.5726,"longitude":88.3639,"temp":30.5,"humidity":80,"rain":0.0,"pressure":995.2,"uv_index":7.45,"wind_gusts":41.0,"aqi":59,"pm10":10.6,"pm2_5":9.8,"no2":6.8,"co":424.0,"o3":67.0,"so2":6.0,"mosquito_risk":3,"arthritis_risk":5,"migraine_risk":7,"frizz_risk":1,"updated_at":"2026-07-03T17:04:37.745904+05:30"},{"city":"Pune","state":"Maharashtra","latitude":18.5204,"longitude":73.8567,"temp":24.1,"humidity":90,"rain":0.0,"pressure":943.3,"uv_index":1.45,"wind_gusts":45.7,"aqi":24,"pm10":2.9,"pm2_5":2.5,"no2":8.0,"co":174.0,"o3":46.0,"so2":3.9,"mosquito_risk":3,"arthritis_risk":5,"migraine_risk":3,"frizz_risk":1,"updated_at":"2026-07-03T17:04:37.745913+05:30"},{"city":"Ahmedabad","state":"Gujarat","latitude":23.0225,"longitude":72.5714,"temp":27.3,"humidity":92,"rain":0.1,"pressure":994.9,"uv_index":2.45,"wind_gusts":53.6,"aqi":61,"pm10":70.8,"pm2_5":28.8,"no2":9.9,"co":169.0,"o3":71.0,"so2":8.5,"mosquito_risk":10,"arthritis_risk":5,"migraine_risk":3,"frizz_risk":1,"updated_at":"2026-07-03T17:04:37.745921+05:30"},{"city":"Jaipur","state":"Rajasthan","latitude":26.9124,"longitude":75.7873,"temp":33.2,"humidity":55,"rain":0.0,"pressure":951.3,"uv_index":6.6,"wind_gusts":42.1,"aqi":108,"pm10":126.7,"pm2_5":45.4,"no2":7.8,"co":183.0,"o3":102.0,"so2":3.9,"mosquito_risk":0,"arthritis_risk":5,"migraine_risk":7,"frizz_risk":1,"updated_at":"2026-07-03T17:04:37.745929+05:30"},{"city":"Lucknow","state":"Uttar Pradesh","latitude":26.8467,"longitude":80.9462,"temp":34.6,"humidity":60,"rain":0.0,"pressure":983.5,"uv_index":7.85,"wind_gusts":28.8,"aqi":104,"pm10":17.6,"pm2_5":17.3,"no2":2.2,"co":297.0,"o3":144.0,"so2":4.9,"mosquito_risk":0,"arthritis_risk":5,"migraine_risk":7,"frizz_risk":1,"updated_at":"2026-07-03T17:04:37.745939+05:30"},{"city":"Kanpur","state":"Uttar Pradesh","latitude":26.4499,"longitude":80.3319,"temp":34.4,"humidity":62,"rain":0.1,"pressure":981.7,"uv_index":7.65,"wind_gusts":27.7,"aqi":112,"pm10":24.2,"pm2_5":17.7,"no2":2.5,"co":294.0,"o3":146.0,"so2":5.3,"mosquito_risk":6,"arthritis_risk":5,"migraine_risk":7,"frizz_risk":1,"updated_at":"2026-07-03T17:04:37.745948+05:30"},{"city":"Chandigarh","state":"Chandigarh","latitude":30.7333,"longitude":76.7794,"temp":29.2,"humidity":87,"rain":0.2,"pressure":961.7,"uv_index":7.7,"wind_gusts":29.2,"aqi":133,"pm10":23.4,"pm2_5":22.9,"no2":1.5,"co":414.0,"o3":170.0,"so2":6.3,"mosquito_risk":10,"arthritis_risk":5,"migraine_risk":7,"frizz_risk":1,"updated_at":"2026-07-03T17:04:37.745955+05:30"},{"city":"Srinagar","state":"Jammu and Kashmir","latitude":34.0837,"longitude":74.7973,"temp":29.1,"humidity":44,"rain":0.0,"pressure":839.6,"uv_index":9.05,"wind_gusts":19.1,"aqi":137,"pm10":11.4,"pm2_5":9.5,"no2":3.1,"co":286.0,"o3":153.0,"so2":2.0,"mosquito_risk":4,"arthritis_risk":5,"migraine_risk":7,"frizz_risk":0,"updated_at":"2026-07-03T17:04:37.745962+05:30"},{"city":"Jammu","state":"Jammu and Kashmir","latitude":32.7266,"longitude":74.857,"temp":36.1,"humidity":41,"rain":0.0,"pressure":964.8,"uv_index":8.6,"wind_gusts":26.3,"aqi":157,"pm10":21.6,"pm2_5":15.2,"no2":0.5,"co":343.0,"o3":186.0,"so2":3.2,"mosquito_risk":0,"arthritis_risk":5,"migraine_risk":10,"frizz_risk":1,"updated_at":"2026-07-03T17:04:37.745969+05:30"},{"city":"Amritsar","state":"Punjab","latitude":31.634,"longitude":74.8723,"temp":34.9,"humidity":54,"rain":0.0,"pressure":972.7,"uv_index":8.4,"wind_gusts":31.3,"aqi":151,"pm10":25.2,"pm2_5":18.7,"no2":0.9,"co":297.0,"o3":163.0,"so2":3.4,"mosquito_risk":0,"arthritis_risk":5,"migraine_risk":7,"frizz_risk":1,"updated_at":"2026-07-03T17:04:37.745976+05:30"},{"city":"Ludhiana","state":"Punjab","latitude":30.901,"longitude":75.8573,"temp":34.4,"humidity":56,"rain":0.0,"pressure":970.7,"uv_index":7.95,"wind_gusts":25.9,"aqi":114,"pm10":24.2,"pm2_5":22.8,"no2":2.1,"co":342.0,"o3":150.0,"so2":4.7,"mosquito_risk":0,"arthritis_risk":5,"migraine_risk":7,"frizz_risk":1,"updated_at":"2026-07-03T17:04:37.746021+05:30"},{"city":"Jalandhar","state":"Punjab","latitude":31.326,"longitude":75.5762,"temp":34.6,"humidity":54,"rain":0.0,"pressure":971.8,"uv_index":8.15,"wind_gusts":23.4,"aqi":126,"pm10":23.6,"pm2_5":22.5,"no2":2.0,"co":299.0,"o3":159.0,"so2":3.6,"mosquito_risk":0,"arthritis_risk":5,"migraine_risk":7,"frizz_risk":1,"updated_at":"2026-07-03T17:04:37.746037+05:30"},{"city":"Dehradun","state":"Uttarakhand","latitude":30.6284,"longitude":78.0322,"temp":23.7,"humidity":78,"rain":0.0,"pressure":828.0,"uv_index":7.8,"wind_gusts":27.0,"aqi":87,"pm10":10.9,"pm2_5":10.5,"no2":1.8,"co":233.0,"o3":129.0,"so2":1.4,"mosquito_risk":3,"arthritis_risk":5,"migraine_risk":7,"frizz_risk":1,"updated_at":"2026-07-03T17:04:37.746044+05:30"},{"city":"Shimla","state":"Himachal Pradesh","latitude":31.1048,"longitude":77.1734,"temp":16.7,"humidity":98,"rain":0.4,"pressure":782.0,"uv_index":7.6,"wind_gusts":29.9,"aqi":94,"pm10":12.8,"pm2_5":12.1,"no2":3.8,"co":236.0,"o3":133.0,"so2":2.9,"mosquito_risk":6,"arthritis_risk":10,"migraine_risk":7,"frizz_risk":1,"updated_at":"2026-07-03T17:04:37.746051+05:30"},{"city":"Manali","state":"Himachal Pradesh","latitude":32.2396,"longitude":77.1887,"temp":24.6,"humidity":77,"rain":0.1,"pressure":818.2,"uv_index":9.55,"wind_gusts":36.4,"aqi":91,"pm10":28.1,"pm2_5":27.8,"no2":35.1,"co":193.0,"o3":137.0,"so2":1.3,"mosquito_risk":6,"arthritis_risk":5,"migraine_risk":7,"frizz_risk":1,"updated_at":"2026-07-03T17:04:37.746059+05:30"},{"city":"Gurgaon","state":"Haryana","latitude":28.4595,"longitude":77.0266,"temp":34.8,"humidity":54,"rain":0.0,"pressure":972.3,"uv_index":7.6,"wind_gusts":22.3,"aqi":148,"pm10":252.4,"pm2_5":54.0,"no2":9.3,"co":413.0,"o3":151.0,"so2":14.3,"mosquito_risk":0,"arthritis_risk":5,"migraine_risk":7,"frizz_risk":1,"updated_at":"2026-07-03T17:04:37.746066+05:30"},{"city":"Noida","state":"Uttar Pradesh","latitude":28.5355,"longitude":77.391,"temp":34.6,"humidity":57,"rain":0.0,"pressure":975.2,"uv_index":5.8,"wind_gusts":24.8,"aqi":148,"pm10":252.4,"pm2_5":54.0,"no2":9.3,"co":338.0,"o3":151.0,"so2":14.3,"mosquito_risk":0,"arthritis_risk":5,"migraine_risk":3,"frizz_risk":1,"updated_at":"2026-07-03T17:04:37.746072+05:30"},{"city":"Ghaziabad","state":"Uttar Pradesh","latitude":28.6692,"longitude":77.4538,"temp":34.3,"humidity":58,"rain":0.0,"pressure":973.6,"uv_index":6.4,"wind_gusts":24.8,"aqi":86,"pm10":54.9,"pm2_5":28.1,"no2":6.6,"co":264.0,"o3":144.0,"so2":13.9,"mosquito_risk":0,"arthritis_risk":5,"migraine_risk":7,"frizz_risk":1,"updated_at":"2026-07-03T17:04:37.746079+05:30"},{"city":"Faridabad","state":"Haryana","latitude":28.4089,"longitude":77.3178,"temp":35.3,"humidity":51,"rain":0.0,"pressure":974.5,"uv_index":5.8,"wind_gusts":26.3,"aqi":148,"pm10":252.4,"pm2_5":54.0,"no2":9.3,"co":340.0,"o3":151.0,"so2":14.3,"mosquito_risk":0,"arthritis_risk":5,"migraine_risk":6,"frizz_risk":1,"updated_at":"2026-07-03T17:04:37.746086+05:30"},{"city":"Meerut","state":"Uttar Pradesh","latitude":28.9845,"longitude":77.7064,"temp":33.7,"humidity":61,"rain":0.0,"pressure":972.7,"uv_index":5.8,"wind_gusts":26.6,"aqi":86,"pm10":54.9,"pm2_5":28.1,"no2":6.6,"co":330.0,"o3":144.0,"so2":13.9,"mosquito_risk":3,"arthritis_risk":5,"migraine_risk":3,"frizz_risk":1,"updated_at":"2026-07-03T17:04:37.746093+05:30"},{"city":"Agra","state":"Uttar Pradesh","latitude":27.1767,"longitude":78.0081,"temp":34.2,"humidity":59,"rain":0.0,"pressure":978.3,"uv_index":6.45,"wind_gusts":16.2,"aqi":129,"pm10":46.4,"pm2_5":26.4,"no2":3.3,"co":297.0,"o3":158.0,"so2":5.6,"mosquito_risk":0,"arthritis_risk":5,"migraine_risk":7,"frizz_risk":1,"updated_at":"2026-07-03T17:04:37.746100+05:30"},{"city":"Varanasi","state":"Uttar Pradesh","latitude":25.3176,"longitude":82.9739,"temp":34.9,"humidity":57,"rain":0.0,"pressure":986.2,"uv_index":7.05,"wind_gusts":31.7,"aqi":90,"pm10":23.1,"pm2_5":22.4,"no2":2.8,"co":337.0,"o3":135.0,"so2":7.0,"mosquito_risk":0,"arthritis_risk":5,"migraine_risk":7,"frizz_risk":1,"updated_at":"2026-07-03T17:04:37.746107+05:30"},{"city":"Prayagraj","state":"Uttar Pradesh","latitude":25.4358,"longitude":81.8463,"temp":34.3,"humidity":62,"rain":0.0,"pressure":985.1,"uv_index":7.15,"wind_gusts":29.5,"aqi":92,"pm10":23.5,"pm2_5":23.1,"no2":3.3,"co":339.0,"o3":151.0,"so2":6.1,"mosquito_risk":3,"arthritis_risk":5,"migraine_risk":7,"frizz_risk":1,"updated_at":"2026-07-03T17:04:37.746115+05:30"},{"city":"Gorakhpur","state":"Uttar Pradesh","latitude":26.7606,"longitude":83.3732,"temp":34.4,"humidity":60,"rain":0.0,"pressure":987.0,"uv_index":8.15,"wind_gusts":33.8,"aqi":95,"pm10":18.2,"pm2_5":17.9,"no2":3.0,"co":307.0,"o3":150.0,"so2":4.9,"mosquito_risk":0,"arthritis_risk":5,"migraine_risk":7,"frizz_risk":1,"updated_at":"2026-07-03T17:04:37.746121+05:30"},{"city":"Bareilly","state":"Uttar Pradesh","latitude":28.367,"longitude":79.4304,"temp":34.3,"humidity":60,"rain":0.0,"pressure":977.6,"uv_index":7.4,"wind_gusts":23.4,"aqi":101,"pm10":19.4,"pm2_5":19.2,"no2":3.3,"co":300.0,"o3":153.0,"so2":9.3,"mosquito_risk":0,"arthritis_risk":5,"migraine_risk":7,"frizz_risk":1,"updated_at":"2026-07-03T17:04:37.746130+05:30"},{"city":"Aligarh","state":"Uttar Pradesh","latitude":27.8974,"longitude":78.088,"temp":34.2,"humidity":58,"rain":0.0,"pressure":976.3,"uv_index":6.4,"wind_gusts":21.2,"aqi":103,"pm10":35.5,"pm2_5":23.9,"no2":4.3,"co":287.0,"o3":153.0,"so2":10.7,"mosquito_risk":0,"arthritis_risk":5,"migraine_risk":7,"frizz_risk":1,"updated_at":"2026-07-03T17:04:37.746137+05:30"},{"city":"Moradabad","state":"Uttar Pradesh","latitude":28.8386,"longitude":78.7733,"temp":34.1,"humidity":59,"rain":0.0,"pressure":974.8,"uv_index":7.8,"wind_gusts":23.4,"aqi":110,"pm10":21.3,"pm2_5":20.8,"no2":6.1,"co":296.0,"o3":158.0,"so2":16.0,"mosquito_risk":0,"arthritis_risk":5,"migraine_risk":7,"frizz_risk":1,"updated_at":"2026-07-03T17:04:37.746144+05:30"},{"city":"Saharanpur","state":"Uttar Pradesh","latitude":29.9637,"longitude":77.546,"temp":33.3,"humidity":62,"rain":0.0,"pressure":967.7,"uv_index":7.1,"wind_gusts":27.7,"aqi":94,"pm10":27.0,"pm2_5":25.2,"no2":1.7,"co":370.0,"o3":138.0,"so2":4.2,"mosquito_risk":3,"arthritis_risk":5,"migraine_risk":7,"frizz_risk":1,"updated_at":"2026-07-03T17:04:37.746150+05:30"},{"city":"Jhansi","state":"Uttar Pradesh","latitude":25.4484,"longitude":78.5685,"temp":32.7,"humidity":66,"rain":0.0,"pressure":968.5,"uv_index":8.05,"wind_gusts":26.6,"aqi":81,"pm10":24.2,"pm2_5":18.3,"no2":3.0,"co":235.0,"o3":145.0,"so2":7.7,"mosquito_risk":3,"arthritis_risk":5,"migraine_risk":7,"frizz_risk":1,"updated_at":"2026-07-03T17:04:41.115671+05:30"},{"city":"Surat","state":"Gujarat","latitude":21.1702,"longitude":72.8311,"temp":27.7,"humidity":90,"rain":0.1,"pressure":1000.5,"uv_index":0.8,"wind_gusts":37.8,"aqi":67,"pm10":22.2,"pm2_5":18.2,"no2":31.8,"co":492.0,"o3":28.0,"so2":49.0,"mosquito_risk":10,"arthritis_risk":5,"migraine_risk":0,"frizz_risk":1,"updated_at":"2026-07-03T17:04:41.115704+05:30"},{"city":"Vadodara","state":"Gujarat","latitude":22.3072,"longitude":73.1812,"temp":29.5,"humidity":79,"rain":0.0,"pressure":997.3,"uv_index":1.65,"wind_gusts":41.4,"aqi":55,"pm10":45.8,"pm2_5":26.3,"no2":21.3,"co":223.0,"o3":57.0,"so2":10.7,"mosquito_risk":7,"arthritis_risk":5,"migraine_risk":3,"frizz_risk":1,"updated_at":"2026-07-03T17:04:41.115714+05:30"},{"city":"Rajkot","state":"Gujarat","latitude":22.3039,"longitude":70.8022,"temp":26.4,"humidity":95,"rain":0.3,"pressure":988.2,"uv_index":6.65,"wind_gusts":36.4,"aqi":53,"pm10":24.6,"pm2_5":12.0,"no2":3.5,"co":133.0,"o3":74.0,"so2":4.7,"mosquito_risk":10,"arthritis_risk":5,"migraine_risk":7,"frizz_risk":1,"updated_at":"2026-07-03T17:04:41.115723+05:30"},{"city":"Thane","state":"Maharashtra","latitude":19.2183,"longitude":72.9781,"temp":25.8,"humidity":94,"rain":0.3,"pressure":1003.4,"uv_index":0.75,"wind_gusts":31.0,"aqi":45,"pm10":18.6,"pm2_5":10.1,"no2":6.8,"co":276.0,"o3":56.0,"so2":3.6,"mosquito_risk":10,"arthritis_risk":5,"migraine_risk":0,"frizz_risk":1,"updated_at":"2026-07-03T17:04:41.115732+05:30"},{"city":"Nagpur","state":"Maharashtra","latitude":21.1458,"longitude":79.0882,"temp":28.0,"humidity":81,"rain":0.1,"pressure":964.1,"uv_index":1.85,"wind_gusts":31.3,"aqi":36,"pm10":11.3,"pm2_5":9.8,"no2":14.7,"co":259.0,"o3":74.0,"so2":13.5,"mosquito_risk":10,"arthritis_risk":5,"migraine_risk":3,"frizz_risk":1,"updated_at":"2026-07-03T17:04:41.115739+05:30"},{"city":"Nashik","state":"Maharashtra","latitude":19.9975,"longitude":73.7898,"temp":23.5,"humidity":94,"rain":0.3,"pressure":939.8,"uv_index":0.6,"wind_gusts":37.1,"aqi":23,"pm10":2.6,"pm2_5":1.9,"no2":5.2,"co":170.0,"o3":50.0,"so2":0.9,"mosquito_risk":6,"arthritis_risk":5,"migraine_risk":3,"frizz_risk":1,"updated_at":"2026-07-03T17:04:41.115747+05:30"},{"city":"Aurangabad","state":"Maharashtra","latitude":19.8762,"longitude":75.3433,"temp":23.8,"humidity":93,"rain":0.1,"pressure":938.1,"uv_index":1.65,"wind_gusts":50.0,"aqi":28,"pm10":5.1,"pm2_5":4.0,"no2":4.1,"co":151.0,"o3":67.0,"so2":2.7,"mosquito_risk":6,"arthritis_risk":5,"migraine_risk":3,"frizz_risk":1,"updated_at":"2026-07-03T17:04:41.115755+05:30"},{"city":"Solapur","state":"Maharashtra","latitude":17.6599,"longitude":75.9064,"temp":25.3,"humidity":88,"rain":0.2,"pressure":952.4,"uv_index":6.3,"wind_gusts":41.0,"aqi":24,"pm10":3.9,"pm2_5":2.9,"no2":3.5,"co":120.0,"o3":57.0,"so2":1.8,"mosquito_risk":10,"arthritis_risk":5,"migraine_risk":7,"frizz_risk":1,"updated_at":"2026-07-03T17:04:41.115763+05:30"},{"city":"Kolhapur","state":"Maharashtra","latitude":16.705,"longitude":74.2433,"temp":23.2,"humidity":90,"rain":0.1,"pressure":944.7,"uv_index":6.85,"wind_gusts":47.5,"aqi":23,"pm10":5.8,"pm2_5":4.2,"no2":6.3,"co":147.0,"o3":44.0,"so2":1.6,"mosquito_risk":6,"arthritis_risk":5,"migraine_risk":7,"frizz_risk":1,"updated_at":"2026-07-03T17:04:41.115770+05:30"},{"city":"Goa","state":"Goa","latitude":15.2993,"longitude":74.124,"temp":25.0,"humidity":96,"rain":0.0,"pressure":997.0,"uv_index":4.8,"wind_gusts":34.6,"aqi":58,"pm10":22.3,"pm2_5":11.0,"no2":1.8,"co":128.0,"o3":57.0,"so2":1.0,"mosquito_risk":7,"arthritis_risk":5,"migraine_risk":3,"frizz_risk":1,"updated_at":"2026-07-03T17:04:41.115779+05:30"},{"city":"Jodhpur","state":"Rajasthan","latitude":26.2389,"longitude":73.0243,"temp":37.0,"humidity":44,"rain":0.0,"pressure":973.3,"uv_index":8.4,"wind_gusts":31.3,"aqi":105,"pm10":232.4,"pm2_5":58.0,"no2":1.0,"co":119.0,"o3":89.0,"so2":1.6,"mosquito_risk":0,"arthritis_risk":5,"migraine_risk":10,"frizz_risk":1,"updated_at":"2026-07-03T17:04:41.115786+05:30"},{"city":"Udaipur","state":"Rajasthan","latitude":24.5854,"longitude":73.7125,"temp":30.8,"humidity":58,"rain":0.0,"pressure":939.1,"uv_index":7.75,"wind_gusts":37.4,"aqi":68,"pm10":83.8,"pm2_5":29.6,"no2":1.6,"co":125.0,"o3":82.0,"so2":3.7,"mosquito_risk":0,"arthritis_risk":5,"migraine_risk":7,"frizz_risk":1,"updated_at":"2026-07-03T17:04:41.115794+05:30"},{"city":"Kota","state":"Rajasthan","latitude":25.2138,"longitude":75.8648,"temp":32.7,"humidity":57,"rain":0.0,"pressure":969.9,"uv_index":7.65,"wind_gusts":34.6,"aqi":71,"pm10":141.6,"pm2_5":46.9,"no2":1.5,"co":145.0,"o3":104.0,"so2":3.0,"mosquito_risk":0,"arthritis_risk":5,"migraine_risk":7,"frizz_risk":1,"updated_at":"2026-07-03T17:04:41.115801+05:30"},{"city":"Bikaner","state":"Rajasthan","latitude":28.0229,"longitude":73.3119,"temp":39.8,"humidity":32,"rain":0.1,"pressure":972.0,"uv_index":8.4,"wind_gusts":45.4,"aqi":115,"pm10":142.0,"pm2_5":41.1,"no2":0.5,"co":151.0,"o3":94.0,"so2":2.3,"mosquito_risk":3,"arthritis_risk":5,"migraine_risk":10,"frizz_risk":1,"updated_at":"2026-07-03T17:04:41.115809+05:30"},{"city":"Ajmer","state":"Rajasthan","latitude":26.4499,"longitude":74.6399,"temp":32.6,"humidity":57,"rain":0.0,"pressure":946.5,"uv_index":7.95,"wind_gusts":30.6,"aqi":85,"pm10":145.8,"pm2_5":44.8,"no2":0.5,"co":161.0,"o3":100.0,"so2":2.6,"mosquito_risk":0,"arthritis_risk":5,"migraine_risk":7,"frizz_risk":1,"updated_at":"2026-07-03T17:04:41.115817+05:30"},{"city":"Gwalior","state":"Madhya Pradesh","latitude":26.2183,"longitude":78.1828,"temp":33.5,"humidity":59,"rain":0.0,"pressure":973.7,"uv_index":7.8,"wind_gusts":18.7,"aqi":98,"pm10":46.9,"pm2_5":19.7,"no2":1.6,"co":260.0,"o3":133.0,"so2":3.3,"mosquito_risk":0,"arthritis_risk":5,"migraine_risk":7,"frizz_risk":1,"updated_at":"2026-07-03T17:04:41.115825+05:30"},{"city":"Indore","state":"Madhya Pradesh","latitude":22.7196,"longitude":75.8577,"temp":26.4,"humidity":84,"rain":0.0,"pressure":940.5,"uv_index":2.55,"wind_gusts":34.9,"aqi":60,"pm10":27.3,"pm2_5":15.8,"no2":7.0,"co":258.0,"o3":82.0,"so2":2.2,"mosquito_risk":7,"arthritis_risk":5,"migraine_risk":3,"frizz_risk":1,"updated_at":"2026-07-03T17:04:41.115832+05:30"},{"city":"Bhopal","state":"Madhya Pradesh","latitude":23.2599,"longitude":77.4126,"temp":27.3,"humidity":86,"rain":0.2,"pressure":944.8,"uv_index":5.8,"wind_gusts":33.8,"aqi":60,"pm10":24.8,"pm2_5":16.3,"no2":4.1,"co":246.0,"o3":95.0,"so2":3.9,"mosquito_risk":10,"arthritis_risk":5,"migraine_risk":3,"frizz_risk":1,"updated_at":"2026-07-03T17:04:41.115839+05:30"},{"city":"Jabalpur","state":"Madhya Pradesh","latitude":23.1815,"longitude":79.9864,"temp":27.4,"humidity":92,"rain":0.2,"pressure":951.8,"uv_index":8.15,"wind_gusts":27.0,"aqi":56,"pm10":11.3,"pm2_5":10.8,"no2":2.1,"co":249.0,"o3":126.0,"so2":3.4,"mosquito_risk":10,"arthritis_risk":5,"migraine_risk":7,"frizz_risk":1,"updated_at":"2026-07-03T17:04:41.115846+05:30"},{"city":"Ujjain","state":"Madhya Pradesh","latitude":23.1765,"longitude":75.7885,"temp":29.3,"humidity":69,"rain":0.0,"pressure":945.9,"uv_index":7.25,"wind_gusts":33.1,"aqi":60,"pm10":39.3,"pm2_5":19.2,"no2":3.8,"co":217.0,"o3":79.0,"so2":1.9,"mosquito_risk":7,"arthritis_risk":5,"migraine_risk":7,"frizz_risk":1,"updated_at":"2026-07-03T17:04:41.115855+05:30"},{"city":"Visakhapatnam","state":"Andhra Pradesh","latitude":17.6868,"longitude":83.2185,"temp":29.5,"humidity":75,"rain":0.0,"pressure":994.5,"uv_index":2.15,"wind_gusts":57.6,"aqi":51,"pm10":11.5,"pm2_5":10.1,"no2":14.9,"co":274.0,"o3":63.0,"so2":27.4,"mosquito_risk":7,"arthritis_risk":5,"migraine_risk":3,"frizz_risk":1,"updated_at":"2026-07-03T17:04:41.115862+05:30"},{"city":"Vijayawada","state":"Andhra Pradesh","latitude":16.5062,"longitude":80.648,"temp":31.1,"humidity":63,"rain":0.0,"pressure":995.9,"uv_index":4.7,"wind_gusts":53.3,"aqi":46,"pm10":12.4,"pm2_5":10.3,"no2":6.7,"co":151.0,"o3":66.0,"so2":5.8,"mosquito_risk":3,"arthritis_risk":5,"migraine_risk":3,"frizz_risk":1,"updated_at":"2026-07-03T17:04:41.115869+05:30"},{"city":"Guntur","state":"Andhra Pradesh","latitude":16.3067,"longitude":80.4365,"temp":29.6,"humidity":74,"rain":0.0,"pressure":997.4,"uv_index":5.25,"wind_gusts":48.6,"aqi":39,"pm10":13.1,"pm2_5":9.7,"no2":6.9,"co":159.0,"o3":60.0,"so2":6.1,"mosquito_risk":7,"arthritis_risk":5,"migraine_risk":3,"frizz_risk":1,"updated_at":"2026-07-03T17:04:41.115876+05:30"},{"city":"Nellore","state":"Andhra Pradesh","latitude":14.4426,"longitude":79.9865,"temp":34.5,"humidity":46,"rain":0.0,"pressure":1000.3,"uv_index":8.65,"wind_gusts":49.3,"aqi":35,"pm10":17.0,"pm2_5":9.5,"no2":2.6,"co":110.0,"o3":82.0,"so2":2.8,"mosquito_risk":0,"arthritis_risk":5,"migraine_risk":4,"frizz_risk":1,"updated_at":"2026-07-03T17:04:41.115885+05:30"},{"city":"Kurnool","state":"Andhra Pradesh","latitude":15.8281,"longitude":78.0373,"temp":25.6,"humidity":85,"rain":0.0,"pressure":972.6,"uv_index":6.8,"wind_gusts":57.6,"aqi":30,"pm10":9.3,"pm2_5":5.6,"no2":3.9,"co":119.0,"o3":72.0,"so2":4.1,"mosquito_risk":7,"arthritis_risk":5,"migraine_risk":7,"frizz_risk":1,"updated_at":"2026-07-03T17:04:41.115893+05:30"},{"city":"Kakinada","state":"Andhra Pradesh","latitude":16.9891,"longitude":82.2475,"temp":28.4,"humidity":78,"rain":0.2,"pressure":999.6,"uv_index":6.0,"wind_gusts":55.4,"aqi":47,"pm10":13.3,"pm2_5":10.2,"no2":5.2,"co":179.0,"o3":83.0,"so2":6.2,"mosquito_risk":10,"arthritis_risk":5,"migraine_risk":3,"frizz_risk":1,"updated_at":"2026-07-03T17:04:41.115901+05:30"},{"city":"Tirupati","state":"Andhra Pradesh","latitude":13.6288,"longitude":79.4192,"temp":28.6,"humidity":78,"rain":0.0,"pressure":987.1,"uv_index":8.9,"wind_gusts":49.3,"aqi":40,"pm10":14.5,"pm2_5":9.2,"no2":5.7,"co":128.0,"o3":76.0,"so2":1.8,"mosquito_risk":7,"arthritis_risk":5,"migraine_risk":7,"frizz_risk":1,"updated_at":"2026-07-03T17:04:41.115908+05:30"},{"city":"Warangal","state":"Telangana","latitude":17.9689,"longitude":79.5941,"temp":27.1,"humidity":82,"rain":0.2,"pressure":971.8,"uv_index":2.0,"wind_gusts":52.2,"aqi":31,"pm10":5.1,"pm2_5":4.8,"no2":5.1,"co":167.0,"o3":57.0,"so2":1.6,"mosquito_risk":10,"arthritis_risk":5,"migraine_risk":3,"frizz_risk":1,"updated_at":"2026-07-03T17:04:41.115915+05:30"},{"city":"Nizamabad","state":"Telangana","latitude":18.6725,"longitude":78.0941,"temp":25.5,"humidity":91,"rain":0.1,"pressure":958.3,"uv_index":0.85,"wind_gusts":58.0,"aqi":29,"pm10":6.5,"pm2_5":5.7,"no2":5.4,"co":159.0,"o3":61.0,"so2":4.6,"mosquito_risk":10,"arthritis_risk":5,"migraine_risk":3,"frizz_risk":1,"updated_at":"2026-07-03T17:04:41.115923+05:30"},{"city":"Mysore","state":"Karnataka","latitude":12.2958,"longitude":76.6396,"temp":24.7,"humidity":75,"rain":0.0,"pressure":927.3,"uv_index":6.0,"wind_gusts":58.0,"aqi":29,"pm10":5.1,"pm2_5":3.3,"no2":4.7,"co":136.0,"o3":59.0,"so2":1.2,"mosquito_risk":3,"arthritis_risk":5,"migraine_risk":3,"frizz_risk":1,"updated_at":"2026-07-03T17:04:41.115930+05:30"},{"city":"Mangalore","state":"Karnataka","latitude":12.9141,"longitude":74.856,"temp":25.6,"humidity":93,"rain":0.3,"pressure":1006.8,"uv_index":6.8,"wind_gusts":48.2,"aqi":49,"pm10":14.5,"pm2_5":7.4,"no2":3.0,"co":111.0,"o3":50.0,"so2":1.0,"mosquito_risk":10,"arthritis_risk":5,"migraine_risk":4,"frizz_risk":1,"updated_at":"2026-07-03T17:04:41.115937+05:30"},{"city":"Hubli-Dharwad","state":"Karnataka","latitude":15.3647,"longitude":75.124,"temp":23.9,"humidity":87,"rain":0.1,"pressure":938.3,"uv_index":7.4,"wind_gusts":66.2,"aqi":25,"pm10":6.1,"pm2_5":3.6,"no2":4.4,"co":110.0,"o3":51.0,"so2":0.9,"mosquito_risk":6,"arthritis_risk":5,"migraine_risk":7,"frizz_risk":1,"updated_at":"2026-07-03T17:04:41.115944+05:30"},{"city":"Belgaum","state":"Karnataka","latitude":15.8497,"longitude":74.4977,"temp":22.7,"humidity":90,"rain":0.1,"pressure":923.2,"uv_index":4.6,"wind_gusts":59.8,"aqi":23,"pm10":6.4,"pm2_5":4.6,"no2":4.3,"co":109.0,"o3":47.0,"so2":1.0,"mosquito_risk":6,"arthritis_risk":5,"migraine_risk":3,"frizz_risk":1,"updated_at":"2026-07-03T17:04:44.481827+05:30"},{"city":"Coimbatore","state":"Tamil Nadu","latitude":11.0168,"longitude":76.9558,"temp":25.8,"humidity":82,"rain":0.0,"pressure":960.4,"uv_index":7.4,"wind_gusts":62.6,"aqi":27,"pm10":4.8,"pm2_5":3.7,"no2":4.2,"co":160.0,"o3":57.0,"so2":1.6,"mosquito_risk":7,"arthritis_risk":5,"migraine_risk":7,"frizz_risk":1,"updated_at":"2026-07-03T17:04:44.481862+05:30"},{"city":"Madurai","state":"Tamil Nadu","latitude":9.9252,"longitude":78.1198,"temp":33.5,"humidity":45,"rain":0.0,"pressure":990.7,"uv_index":8.7,"wind_gusts":70.2,"aqi":35,"pm10":9.1,"pm2_5":5.2,"no2":3.6,"co":122.0,"o3":71.0,"so2":1.5,"mosquito_risk":0,"arthritis_risk":5,"migraine_risk":7,"frizz_risk":1,"updated_at":"2026-07-03T17:04:44.481873+05:30"},{"city":"Trichy","state":"Tamil Nadu","latitude":10.7905,"longitude":78.7047,"temp":34.3,"humidity":43,"rain":0.0,"pressure":997.0,"uv_index":7.35,"wind_gusts":69.1,"aqi":31,"pm10":9.4,"pm2_5":5.3,"no2":3.0,"co":112.0,"o3":65.0,"so2":1.4,"mosquito_risk":0,"arthritis_risk":5,"migraine_risk":7,"frizz_risk":1,"updated_at":"2026-07-03T17:04:44.481882+05:30"},{"city":"Salem","state":"Tamil Nadu","latitude":11.6643,"longitude":78.146,"temp":26.7,"humidity":88,"rain":0.2,"pressure":975.5,"uv_index":6.15,"wind_gusts":42.1,"aqi":40,"pm10":8.2,"pm2_5":5.8,"no2":5.1,"co":174.0,"o3":79.0,"so2":3.3,"mosquito_risk":10,"arthritis_risk":5,"migraine_risk":7,"frizz_risk":1,"updated_at":"2026-07-03T17:04:44.481891+05:30"},{"city":"Tirunelveli","state":"Tamil Nadu","latitude":8.7139,"longitude":77.7567,"temp":32.7,"humidity":50,"rain":0.0,"pressure":1001.9,"uv_index":8.4,"wind_gusts":54.7,"aqi":28,"pm10":15.4,"pm2_5":8.3,"no2":2.4,"co":109.0,"o3":62.0,"so2":1.1,"mosquito_risk":0,"arthritis_risk":5,"migraine_risk":4,"frizz_risk":1,"updated_at":"2026-07-03T17:04:44.481899+05:30"},{"city":"Vellore","state":"Tamil Nadu","latitude":12.9165,"longitude":79.1325,"temp":27.1,"humidity":88,"rain":0.1,"pressure":981.3,"uv_index":7.35,"wind_gusts":54.4,"aqi":32,"pm10":12.7,"pm2_5":7.8,"no2":4.5,"co":155.0,"o3":80.0,"so2":1.9,"mosquito_risk":10,"arthritis_risk":5,"migraine_risk":7,"frizz_risk":1,"updated_at":"2026-07-03T17:04:44.481907+05:30"},{"city":"Erode","state":"Tamil Nadu","latitude":11.341,"longitude":77.7172,"temp":31.2,"humidity":55,"rain":0.1,"pressure":987.0,"uv_index":6.45,"wind_gusts":40.0,"aqi":32,"pm10":8.0,"pm2_5":5.4,"no2":3.8,"co":149.0,"o3":72.0,"so2":1.6,"mosquito_risk":3,"arthritis_risk":5,"migraine_risk":7,"frizz_risk":1,"updated_at":"2026-07-03T17:04:44.481915+05:30"},{"city":"Kochi","state":"Kerala","latitude":9.9312,"longitude":76.2673,"temp":26.6,"humidity":86,"rain":0.0,"pressure":1009.5,"uv_index":7.95,"wind_gusts":42.1,"aqi":42,"pm10":15.5,"pm2_5":8.9,"no2":6.2,"co":132.0,"o3":46.0,"so2":2.1,"mosquito_risk":7,"arthritis_risk":0,"migraine_risk":4,"frizz_risk":1,"updated_at":"2026-07-03T17:04:44.481923+05:30"},{"city":"Thiruvananthapuram","state":"Kerala","latitude":8.5241,"longitude":76.9366,"temp":26.0,"humidity":87,"rain":0.1,"pressure":1009.2,"uv_index":8.05,"wind_gusts":43.6,"aqi":33,"pm10":18.8,"pm2_5":9.4,"no2":2.0,"co":109.0,"o3":52.0,"so2":0.7,"mosquito_risk":10,"arthritis_risk":0,"migraine_risk":4,"frizz_risk":1,"updated_at":"2026-07-03T17:04:44.481931+05:30"},{"city":"Kozhikode","state":"Kerala","latitude":11.2588,"longitude":75.7804,"temp":25.7,"humidity":95,"rain":0.2,"pressure":1008.6,"uv_index":1.1,"wind_gusts":42.5,"aqi":29,"pm10":14.1,"pm2_5":6.6,"no2":0.8,"co":117.0,"o3":54.0,"so2":0.3,"mosquito_risk":10,"arthritis_risk":0,"migraine_risk":0,"frizz_risk":1,"updated_at":"2026-07-03T17:04:44.481938+05:30"},{"city":"Thrissur","state":"Kerala","latitude":10.5276,"longitude":76.2144,"temp":25.8,"humidity":95,"rain":0.0,"pressure":1008.0,"uv_index":5.6,"wind_gusts":42.5,"aqi":40,"pm10":12.3,"pm2_5":7.6,"no2":4.2,"co":128.0,"o3":45.0,"so2":1.2,"mosquito_risk":7,"arthritis_risk":0,"migraine_risk":0,"frizz_risk":1,"updated_at":"2026-07-03T17:04:44.481947+05:30"},{"city":"Kannur","state":"Kerala","latitude":11.8745,"longitude":75.3704,"temp":25.7,"humidity":94,"rain":0.1,"pressure":1007.6,"uv_index":2.0,"wind_gusts":48.6,"aqi":35,"pm10":14.0,"pm2_5":7.0,"no2":2.5,"co":126.0,"o3":50.0,"so2":0.6,"mosquito_risk":10,"arthritis_risk":5,"migraine_risk":0,"frizz_risk":1,"updated_at":"2026-07-03T17:04:44.481954+05:30"},{"city":"Patna","state":"Bihar","latitude":25.5941,"longitude":85.1376,"temp":34.0,"humidity":63,"rain":0.0,"pressure":989.6,"uv_index":7.65,"wind_gusts":32.0,"aqi":116,"pm10":24.0,"pm2_5":23.2,"no2":4.6,"co":291.0,"o3":155.0,"so2":9.9,"mosquito_risk":3,"arthritis_risk":5,"migraine_risk":7,"frizz_risk":1,"updated_at":"2026-07-03T17:04:44.481962+05:30"},{"city":"Gaya","state":"Bihar","latitude":24.7914,"longitude":85.0002,"temp":34.6,"humidity":58,"rain":0.0,"pressure":982.8,"uv_index":6.8,"wind_gusts":32.0,"aqi":71,"pm10":14.9,"pm2_5":14.4,"no2":3.4,"co":228.0,"o3":117.0,"so2":4.7,"mosquito_risk":0,"arthritis_risk":5,"migraine_risk":7,"frizz_risk":1,"updated_at":"2026-07-03T17:04:44.481969+05:30"},{"city":"Muzaffarpur","state":"Bihar","latitude":26.1209,"longitude":85.3647,"temp":34.1,"humidity":64,"rain":0.0,"pressure":989.8,"uv_index":7.95,"wind_gusts":34.6,"aqi":121,"pm10":23.6,"pm2_5":22.8,"no2":6.4,"co":264.0,"o3":140.0,"so2":8.3,"mosquito_risk":3,"arthritis_risk":5,"migraine_risk":7,"frizz_risk":1,"updated_at":"2026-07-03T17:04:44.481976+05:30"},{"city":"Bhagalpur","state":"Bihar","latitude":25.2425,"longitude":87.0117,"temp":33.4,"humidity":66,"rain":0.0,"pressure":990.7,"uv_index":7.8,"wind_gusts":34.2,"aqi":75,"pm10":14.8,"pm2_5":14.0,"no2":5.6,"co":235.0,"o3":128.0,"so2":10.9,"mosquito_risk":3,"arthritis_risk":5,"migraine_risk":7,"frizz_risk":1,"updated_at":"2026-07-03T17:04:44.481983+05:30"},{"city":"Ranchi","state":"Jharkhand","latitude":23.3441,"longitude":85.3096,"temp":27.2,"humidity":80,"rain":0.1,"pressure":928.8,"uv_index":8.85,"wind_gusts":39.2,"aqi":72,"pm10":21.1,"pm2_5":20.8,"no2":5.8,"co":262.0,"o3":126.0,"so2":17.7,"mosquito_risk":10,"arthritis_risk":5,"migraine_risk":7,"frizz_risk":1,"updated_at":"2026-07-03T17:04:44.482018+05:30"},{"city":"Jamshedpur","state":"Jharkhand","latitude":22.8046,"longitude":86.2029,"temp":28.4,"humidity":87,"rain":0.1,"pressure":980.8,"uv_index":6.35,"wind_gusts":36.7,"aqi":60,"pm10":11.2,"pm2_5":11.1,"no2":5.3,"co":231.0,"o3":97.0,"so2":6.0,"mosquito_risk":10,"arthritis_risk":5,"migraine_risk":7,"frizz_risk":1,"updated_at":"2026-07-03T17:04:44.482027+05:30"},{"city":"Dhanbad","state":"Jharkhand","latitude":23.7957,"longitude":86.4304,"temp":30.4,"humidity":78,"rain":0.1,"pressure":969.9,"uv_index":5.8,"wind_gusts":34.2,"aqi":100,"pm10":28.3,"pm2_5":27.8,"no2":21.0,"co":230.0,"o3":113.0,"so2":54.0,"mosquito_risk":6,"arthritis_risk":5,"migraine_risk":3,"frizz_risk":1,"updated_at":"2026-07-03T17:04:44.482034+05:30"},{"city":"Bokaro","state":"Jharkhand","latitude":23.6693,"longitude":86.1511,"temp":30.9,"humidity":72,"rain":0.0,"pressure":973.6,"uv_index":5.65,"wind_gusts":36.4,"aqi":110,"pm10":34.8,"pm2_5":34.3,"no2":21.4,"co":196.0,"o3":131.0,"so2":65.6,"mosquito_risk":3,"arthritis_risk":5,"migraine_risk":3,"frizz_risk":1,"updated_at":"2026-07-03T17:04:44.482041+05:30"},{"city":"Bhubaneswar","state":"Odisha","latitude":20.2961,"longitude":85.8245,"temp":26.8,"humidity":95,"rain":0.1,"pressure":991.2,"uv_index":6.8,"wind_gusts":28.1,"aqi":74,"pm10":16.1,"pm2_5":16.1,"no2":9.9,"co":276.0,"o3":99.0,"so2":7.8,"mosquito_risk":10,"arthritis_risk":5,"migraine_risk":7,"frizz_risk":1,"updated_at":"2026-07-03T17:04:44.482049+05:30"},{"city":"Cuttack","state":"Odisha","latitude":20.4625,"longitude":85.8828,"temp":27.4,"humidity":92,"rain":0.1,"pressure":993.0,"uv_index":6.95,"wind_gusts":24.1,"aqi":74,"pm10":16.1,"pm2_5":16.1,"no2":9.9,"co":331.0,"o3":99.0,"so2":7.8,"mosquito_risk":10,"arthritis_risk":5,"migraine_risk":7,"frizz_risk":1,"updated_at":"2026-07-03T17:04:44.482056+05:30"},{"city":"Rourkela","state":"Odisha","latitude":22.2604,"longitude":84.8536,"temp":28.0,"humidity":89,"rain":0.1,"pressure":974.7,"uv_index":7.0,"wind_gusts":32.0,"aqi":84,"pm10":13.6,"pm2_5":13.4,"no2":7.8,"co":471.0,"o3":113.0,"so2":14.4,"mosquito_risk":10,"arthritis_risk":5,"migraine_risk":7,"frizz_risk":1,"updated_at":"2026-07-03T17:04:44.482063+05:30"},{"city":"Raipur","state":"Chhattisgarh","latitude":21.2514,"longitude":81.6296,"temp":26.9,"humidity":92,"rain":0.2,"pressure":964.6,"uv_index":0.8,"wind_gusts":32.4,"aqi":72,"pm10":22.2,"pm2_5":21.5,"no2":28.5,"co":257.0,"o3":66.0,"so2":49.1,"mosquito_risk":10,"arthritis_risk":5,"migraine_risk":3,"frizz_risk":1,"updated_at":"2026-07-03T17:04:44.482070+05:30"},{"city":"Bhilai","state":"Chhattisgarh","latitude":21.1938,"longitude":81.3509,"temp":26.5,"humidity":94,"rain":0.2,"pressure":965.0,"uv_index":1.7,"wind_gusts":40.0,"aqi":64,"pm10":15.4,"pm2_5":14.6,"no2":21.1,"co":669.0,"o3":82.0,"so2":42.5,"mosquito_risk":10,"arthritis_risk":5,"migraine_risk":3,"frizz_risk":1,"updated_at":"2026-07-03T17:04:44.482078+05:30"},{"city":"Guwahati","state":"Assam","latitude":26.1158,"longitude":91.7086,"temp":31.4,"humidity":77,"rain":0.0,"pressure":992.1,"uv_index":8.55,"wind_gusts":30.6,"aqi":54,"pm10":9.1,"pm2_5":8.9,"no2":3.2,"co":252.0,"o3":111.0,"so2":1.8,"mosquito_risk":3,"arthritis_risk":5,"migraine_risk":7,"frizz_risk":1,"updated_at":"2026-07-03T17:04:44.482086+05:30"},{"city":"Agartala","state":"Tripura","latitude":23.8315,"longitude":91.2868,"temp":30.5,"humidity":77,"rain":0.1,"pressure":996.7,"uv_index":7.55,"wind_gusts":30.2,"aqi":52,"pm10":7.5,"pm2_5":7.3,"no2":6.6,"co":181.0,"o3":89.0,"so2":1.2,"mosquito_risk":6,"arthritis_risk":5,"migraine_risk":7,"frizz_risk":1,"updated_at":"2026-07-03T17:04:44.482093+05:30"},{"city":"Shillong","state":"Meghalaya","latitude":25.5788,"longitude":91.8933,"temp":22.6,"humidity":91,"rain":0.0,"pressure":852.6,"uv_index":6.75,"wind_gusts":27.7,"aqi":42,"pm10":6.6,"pm2_5":6.4,"no2":4.9,"co":183.0,"o3":85.0,"so2":1.4,"mosquito_risk":3,"arthritis_risk":5,"migraine_risk":7,"frizz_risk":1,"updated_at":"2026-07-03T17:04:44.482100+05:30"},{"city":"Imphal","state":"Manipur","latitude":24.817,"longitude":93.9368,"temp":27.4,"humidity":74,"rain":0.0,"pressure":917.2,"uv_index":9.1,"wind_gusts":27.4,"aqi":53,"pm10":3.4,"pm2_5":3.4,"no2":2.0,"co":185.0,"o3":73.0,"so2":0.8,"mosquito_risk":7,"arthritis_risk":5,"migraine_risk":7,"frizz_risk":1,"updated_at":"2026-07-03T17:04:44.482108+05:30"},{"city":"Aizawl","state":"Mizoram","latitude":23.7271,"longitude":92.7176,"temp":23.4,"humidity":90,"rain":0.1,"pressure":885.8,"uv_index":8.4,"wind_gusts":19.1,"aqi":32,"pm10":6.2,"pm2_5":6.2,"no2":2.9,"co":152.0,"o3":56.0,"so2":0.3,"mosquito_risk":6,"arthritis_risk":5,"migraine_risk":7,"frizz_risk":1,"updated_at":"2026-07-03T17:04:44.482116+05:30"},{"city":"Kohima","state":"Nagaland","latitude":25.6701,"longitude":94.1077,"temp":23.6,"humidity":92,"rain":0.0,"pressure":850.8,"uv_index":7.8,"wind_gusts":22.7,"aqi":36,"pm10":5.0,"pm2_5":4.9,"no2":2.5,"co":153.0,"o3":69.0,"so2":0.4,"mosquito_risk":3,"arthritis_risk":5,"migraine_risk":7,"frizz_risk":1,"updated_at":"2026-07-03T17:04:44.482123+05:30"},{"city":"Gangtok","state":"Sikkim","latitude":27.3314,"longitude":88.6138,"temp":22.2,"humidity":89,"rain":0.0,"pressure":833.9,"uv_index":8.95,"wind_gusts":30.6,"aqi":48,"pm10":4.2,"pm2_5":4.1,"no2":4.9,"co":207.0,"o3":95.0,"so2":0.7,"mosquito_risk":3,"arthritis_risk":5,"migraine_risk":7,"frizz_risk":1,"updated_at":"2026-07-03T17:04:44.482131+05:30"},{"city":"Siliguri","state":"West Bengal","latitude":26.7271,"longitude":88.3953,"temp":31.7,"humidity":79,"rain":0.0,"pressure":983.3,"uv_index":8.55,"wind_gusts":25.6,"aqi":80,"pm10":14.6,"pm2_5":14.1,"no2":2.9,"co":420.0,"o3":127.0,"so2":2.4,"mosquito_risk":3,"arthritis_risk":5,"migraine_risk":7,"frizz_risk":1,"updated_at":"2026-07-03T17:04:47.846630+05:30"},{"city":"Durgapur","state":"West Bengal","latitude":23.5204,"longitude":87.3119,"temp":30.4,"humidity":79,"rain":0.1,"pressure":984.9,"uv_index":6.5,"wind_gusts":36.7,"aqi":90,"pm10":15.2,"pm2_5":14.8,"no2":14.1,"co":253.0,"o3":91.0,"so2":20.6,"mosquito_risk":6,"arthritis_risk":5,"migraine_risk":7,"frizz_risk":1,"updated_at":"2026-07-03T17:04:47.846663+05:30"},{"city":"Asansol","state":"West Bengal","latitude":23.6739,"longitude":86.9524,"temp":31.1,"humidity":75,"rain":0.0,"pressure":983.4,"uv_index":6.7,"wind_gusts":37.4,"aqi":87,"pm10":18.7,"pm2_5":18.3,"no2":14.8,"co":232.0,"o3":106.0,"so2":23.8,"mosquito_risk":3,"arthritis_risk":5,"migraine_risk":7,"frizz_risk":1,"updated_at":"2026-07-03T17:04:47.846675+05:30"},{"city":"Pondicherry","state":"Puducherry","latitude":11.9139,"longitude":79.8145,"temp":28.8,"humidity":85,"rain":0.1,"pressure":1005.7,"uv_index":7.5,"wind_gusts":43.2,"aqi":51,"pm10":18.7,"pm2_5":14.8,"no2":9.3,"co":207.0,"o3":97.0,"so2":11.4,"mosquito_risk":10,"arthritis_risk":5,"migraine_risk":4,"frizz_risk":1,"updated_at":"2026-07-03T17:04:47.846684+05:30"},{"city":"Port Blair","state":"Andaman and Nicobar Islands","latitude":11.6234,"longitude":92.7265,"temp":28.7,"humidity":78,"rain":0.0,"pressure":1004.3,"uv_index":5.9,"wind_gusts":50.8,"aqi":39,"pm10":24.4,"pm2_5":11.1,"no2":0.5,"co":100.0,"o3":52.0,"so2":0.5,"mosquito_risk":7,"arthritis_risk":5,"migraine_risk":0,"frizz_risk":1,"updated_at":"2026-07-03T17:04:47.846692+05:30"},{"city":"Haridwar","state":"Uttarakhand","latitude":29.9457,"longitude":78.1642,"temp":33.7,"humidity":61,"rain":0.0,"pressure":966.0,"uv_index":7.25,"wind_gusts":23.8,"aqi":81,"pm10":24.6,"pm2_5":24.0,"no2":2.7,"co":328.0,"o3":129.0,"so2":5.8,"mosquito_risk":3,"arthritis_risk":5,"migraine_risk":7,"frizz_risk":1,"updated_at":"2026-07-03T17:04:47.846699+05:30"},{"city":"Rishikesh","state":"Uttarakhand","latitude":30.0869,"longitude":78.2676,"temp":32.2,"humidity":64,"rain":0.0,"pressure":959.0,"uv_index":6.95,"wind_gusts":20.2,"aqi":68,"pm10":21.0,"pm2_5":20.6,"no2":1.9,"co":295.0,"o3":123.0,"so2":4.8,"mosquito_risk":3,"arthritis_risk":5,"migraine_risk":7,"frizz_risk":1,"updated_at":"2026-07-03T17:04:47.846706+05:30"},{"city":"Nainital","state":"Uttarakhand","latitude":29.3919,"longitude":79.4542,"temp":20.5,"humidity":87,"rain":0.1,"pressure":803.0,"uv_index":7.65,"wind_gusts":26.6,"aqi":84,"pm10":13.6,"pm2_5":13.4,"no2":1.6,"co":263.0,"o3":124.0,"so2":2.2,"mosquito_risk":6,"arthritis_risk":5,"migraine_risk":7,"frizz_risk":1,"updated_at":"2026-07-03T17:04:47.846714+05:30"},{"city":"Mussoorie","state":"Uttarakhand","latitude":30.4599,"longitude":78.0664,"temp":20.3,"humidity":95,"rain":0.1,"pressure":800.7,"uv_index":6.75,"wind_gusts":32.0,"aqi":90,"pm10":18.4,"pm2_5":18.2,"no2":2.0,"co":252.0,"o3":135.0,"so2":3.9,"mosquito_risk":6,"arthritis_risk":5,"migraine_risk":7,"frizz_risk":1,"updated_at":"2026-07-03T17:04:47.846721+05:30"},{"city":"Dharamshala","state":"Himachal Pradesh","latitude":32.219,"longitude":76.3234,"temp":25.4,"humidity":81,"rain":0.1,"pressure":865.5,"uv_index":8.45,"wind_gusts":36.4,"aqi":89,"pm10":5.6,"pm2_5":4.9,"no2":1.8,"co":268.0,"o3":123.0,"so2":0.5,"mosquito_risk":10,"arthritis_risk":5,"migraine_risk":7,"frizz_risk":1,"updated_at":"2026-07-03T17:04:47.846728+05:30"},{"city":"Dalhousie","state":"Himachal Pradesh","latitude":32.5387,"longitude":75.971,"temp":22.0,"humidity":82,"rain":0.0,"pressure":803.3,"uv_index":8.7,"wind_gusts":35.3,"aqi":127,"pm10":12.4,"pm2_5":10.6,"no2":2.2,"co":275.0,"o3":161.0,"so2":1.8,"mosquito_risk":3,"arthritis_risk":5,"migraine_risk":7,"frizz_risk":1,"updated_at":"2026-07-03T17:04:47.846736+05:30"},{"city":"Patiala","state":"Punjab","latitude":30.3398,"longitude":76.3869,"temp":32.8,"humidity":68,"rain":0.0,"pressure":970.4,"uv_index":7.6,"wind_gusts":24.8,"aqi":106,"pm10":27.9,"pm2_5":24.0,"no2":2.1,"co":310.0,"o3":161.0,"so2":7.4,"mosquito_risk":3,"arthritis_risk":5,"migraine_risk":7,"frizz_risk":1,"updated_at":"2026-07-03T17:04:47.846743+05:30"},{"city":"Bhatinda","state":"Punjab","latitude":30.211,"longitude":74.9455,"temp":36.0,"humidity":51,"rain":0.0,"pressure":975.0,"uv_index":8.25,"wind_gusts":36.7,"aqi":151,"pm10":39.3,"pm2_5":23.8,"no2":3.9,"co":278.0,"o3":184.0,"so2":13.6,"mosquito_risk":0,"arthritis_risk":5,"migraine_risk":10,"frizz_risk":1,"updated_at":"2026-07-03T17:04:47.846751+05:30"},{"city":"Rohtak","state":"Haryana","latitude":28.8955,"longitude":76.6066,"temp":35.1,"humidity":53,"rain":0.0,"pressure":972.5,"uv_index":6.65,"wind_gusts":21.6,"aqi":163,"pm10":100.1,"pm2_5":42.7,"no2":4.9,"co":396.0,"o3":206.0,"so2":16.7,"mosquito_risk":0,"arthritis_risk":5,"migraine_risk":10,"frizz_risk":1,"updated_at":"2026-07-03T17:04:47.846758+05:30"},{"city":"Panipat","state":"Haryana","latitude":29.3909,"longitude":76.9635,"temp":33.4,"humidity":64,"rain":0.0,"pressure":971.7,"uv_index":6.85,"wind_gusts":28.1,"aqi":412,"pm10":61.7,"pm2_5":36.3,"no2":5.8,"co":278.0,"o3":206.0,"so2":21.5,"mosquito_risk":3,"arthritis_risk":5,"migraine_risk":7,"frizz_risk":1,"updated_at":"2026-07-03T17:04:47.846766+05:30"},{"city":"Mathura","state":"Uttar Pradesh","latitude":27.4924,"longitude":77.6737,"temp":34.8,"humidity":53,"rain":0.0,"pressure":977.3,"uv_index":6.9,"wind_gusts":24.1,"aqi":151,"pm10":53.6,"pm2_5":26.3,"no2":3.6,"co":292.0,"o3":151.0,"so2":5.0,"mosquito_risk":0,"arthritis_risk":5,"migraine_risk":7,"frizz_risk":1,"updated_at":"2026-07-03T17:04:47.846773+05:30"},{"city":"Vrindavan","state":"Uttar Pradesh","latitude":27.5823,"longitude":77.7027,"temp":34.8,"humidity":54,"rain":0.0,"pressure":977.8,"uv_index":6.75,"wind_gusts":22.7,"aqi":151,"pm10":53.6,"pm2_5":26.3,"no2":3.6,"co":290.0,"o3":151.0,"so2":5.0,"mosquito_risk":0,"arthritis_risk":5,"migraine_risk":7,"frizz_risk":1,"updated_at":"2026-07-03T17:04:47.846780+05:30"},{"city":"Ayodhya","state":"Uttar Pradesh","latitude":26.7922,"longitude":82.1998,"temp":34.5,"humidity":60,"rain":0.0,"pressure":985.2,"uv_index":7.65,"wind_gusts":28.1,"aqi":91,"pm10":20.6,"pm2_5":20.4,"no2":4.0,"co":291.0,"o3":137.0,"so2":4.1,"mosquito_risk":0,"arthritis_risk":5,"migraine_risk":7,"frizz_risk":1,"updated_at":"2026-07-03T17:04:47.846787+05:30"},{"city":"Ratlam","state":"Madhya Pradesh","latitude":23.3315,"longitude":75.0367,"temp":29.6,"humidity":71,"rain":0.1,"pressure":947.2,"uv_index":1.45,"wind_gusts":34.9,"aqi":57,"pm10":51.1,"pm2_5":21.4,"no2":2.0,"co":148.0,"o3":80.0,"so2":1.7,"mosquito_risk":10,"arthritis_risk":5,"migraine_risk":3,"frizz_risk":1,"updated_at":"2026-07-03T17:04:47.846794+05:30"},{"city":"Sagar","state":"Madhya Pradesh","latitude":23.8388,"longitude":78.7378,"temp":27.8,"humidity":83,"rain":0.0,"pressure":941.0,"uv_index":7.65,"wind_gusts":32.4,"aqi":52,"pm10":14.3,"pm2_5":11.8,"no2":3.0,"co":209.0,"o3":112.0,"so2":2.5,"mosquito_risk":7,"arthritis_risk":5,"migraine_risk":7,"frizz_risk":1,"updated_at":"2026-07-03T17:04:47.846801+05:30"},{"city":"Satna","state":"Madhya Pradesh","latitude":24.6005,"longitude":80.8322,"temp":30.6,"humidity":77,"rain":0.0,"pressure":961.4,"uv_index":8.2,"wind_gusts":26.6,"aqi":83,"pm10":14.0,"pm2_5":13.8,"no2":2.7,"co":243.0,"o3":127.0,"so2":4.7,"mosquito_risk":3,"arthritis_risk":5,"migraine_risk":7,"frizz_risk":1,"updated_at":"2026-07-03T17:04:47.846808+05:30"},{"city":"Akola","state":"Maharashtra","latitude":20.7002,"longitude":77.0082,"temp":26.1,"humidity":94,"rain":0.2,"pressure":967.7,"uv_index":3.5,"wind_gusts":42.8,"aqi":28,"pm10":8.4,"pm2_5":7.2,"no2":5.8,"co":161.0,"o3":87.0,"so2":9.4,"mosquito_risk":10,"arthritis_risk":5,"migraine_risk":3,"frizz_risk":1,"updated_at":"2026-07-03T17:04:47.846816+05:30"},{"city":"Amravati","state":"Maharashtra","latitude":20.9374,"longitude":77.7796,"temp":25.9,"humidity":94,"rain":0.1,"pressure":959.2,"uv_index":4.55,"wind_gusts":38.9,"aqi":29,"pm10":8.0,"pm2_5":6.7,"no2":7.1,"co":180.0,"o3":81.0,"so2":8.2,"mosquito_risk":10,"arthritis_risk":5,"migraine_risk":3,"frizz_risk":1,"updated_at":"2026-07-03T17:04:47.846825+05:30"},{"city":"Latur","state":"Maharashtra","latitude":18.4088,"longitude":76.5604,"temp":24.2,"humidity":90,"rain":0.1,"pressure":934.3,"uv_index":1.0,"wind_gusts":50.8,"aqi":22,"pm10":4.4,"pm2_5":3.8,"no2":4.3,"co":133.0,"o3":54.0,"so2":1.3,"mosquito_risk":6,"arthritis_risk":5,"migraine_risk":3,"frizz_risk":1,"updated_at":"2026-07-03T17:04:47.846832+05:30"},{"city":"Nanded","state":"Maharashtra","latitude":19.1383,"longitude":77.3091,"temp":25.9,"humidity":91,"rain":0.1,"pressure":962.3,"uv_index":0.7,"wind_gusts":50.0,"aqi":29,"pm10":5.7,"pm2_5":5.2,"no2":4.5,"co":161.0,"o3":75.0,"so2":3.5,"mosquito_risk":10,"arthritis_risk":5,"migraine_risk":3,"frizz_risk":1,"updated_at":"2026-07-03T17:04:47.846840+05:30"},{"city":"Gulbarga","state":"Karnataka","latitude":17.3297,"longitude":76.8343,"temp":24.7,"humidity":89,"rain":0.0,"pressure":953.9,"uv_index":6.5,"wind_gusts":52.2,"aqi":25,"pm10":6.6,"pm2_5":4.5,"no2":6.3,"co":158.0,"o3":56.0,"so2":2.6,"mosquito_risk":3,"arthritis_risk":5,"migraine_risk":7,"frizz_risk":1,"updated_at":"2026-07-03T17:04:47.846847+05:30"},{"city":"Bidar","state":"Karnataka","latitude":17.9104,"longitude":77.5199,"temp":24.8,"humidity":85,"rain":0.1,"pressure":930.0,"uv_index":2.3,"wind_gusts":56.2,"aqi":24,"pm10":3.9,"pm2_5":3.4,"no2":7.2,"co":147.0,"o3":51.0,"so2":1.3,"mosquito_risk":6,"arthritis_risk":5,"migraine_risk":3,"frizz_risk":1,"updated_at":"2026-07-03T17:04:47.846853+05:30"},{"city":"Hospet","state":"Karnataka","latitude":15.2689,"longitude":76.3909,"temp":27.9,"humidity":69,"rain":0.0,"pressure":952.5,"uv_index":8.15,"wind_gusts":63.7,"aqi":27,"pm10":6.2,"pm2_5":3.5,"no2":2.5,"co":113.0,"o3":61.0,"so2":1.3,"mosquito_risk":7,"arthritis_risk":5,"migraine_risk":7,"frizz_risk":1,"updated_at":"2026-07-03T17:04:47.846860+05:30"},{"city":"Tirupur","state":"Tamil Nadu","latitude":11.1085,"longitude":77.3411,"temp":28.3,"humidity":68,"rain":0.0,"pressure":973.5,"uv_index":8.0,"wind_gusts":66.2,"aqi":34,"pm10":7.7,"pm2_5":5.6,"no2":4.2,"co":139.0,"o3":73.0,"so2":2.2,"mosquito_risk":7,"arthritis_risk":5,"migraine_risk":7,"frizz_risk":1,"updated_at":"2026-07-03T17:04:47.846867+05:30"},{"city":"Alappuzha","state":"Kerala","latitude":9.4981,"longitude":76.3388,"temp":26.6,"humidity":88,"rain":0.1,"pressure":1009.7,"uv_index":8.45,"wind_gusts":42.8,"aqi":40,"pm10":18.4,"pm2_5":9.7,"no2":3.9,"co":90.0,"o3":52.0,"so2":1.4,"mosquito_risk":10,"arthritis_risk":0,"migraine_risk":4,"frizz_risk":1,"updated_at":"2026-07-03T17:04:47.846874+05:30"},{"city":"Munnar","state":"Kerala","latitude":10.0889,"longitude":77.0595,"temp":17.2,"humidity":99,"rain":0.4,"pressure":856.3,"uv_index":0.7,"wind_gusts":49.3,"aqi":26,"pm10":5.4,"pm2_5":3.6,"no2":3.3,"co":114.0,"o3":60.0,"so2":1.1,"mosquito_risk":6,"arthritis_risk":10,"migraine_risk":3,"frizz_risk":1,"updated_at":"2026-07-03T17:04:47.846881+05:30"},{"city":"Silchar","state":"Assam","latitude":24.8333,"longitude":92.7789,"temp":33.4,"humidity":69,"rain":0.0,"pressure":994.6,"uv_index":8.45,"wind_gusts":27.0,"aqi":68,"pm10":9.1,"pm2_5":9.0,"no2":5.6,"co":211.0,"o3":79.0,"so2":2.8,"mosquito_risk":3,"arthritis_risk":5,"migraine_risk":7,"frizz_risk":1,"updated_at":"2026-07-03T17:04:47.846888+05:30"},{"city":"Dibrugarh","state":"Assam","latitude":27.4728,"longitude":94.912,"temp":33.6,"humidity":68,"rain":0.0,"pressure":986.0,"uv_index":8.85,"wind_gusts":32.8,"aqi":71,"pm10":8.2,"pm2_5":8.1,"no2":4.4,"co":233.0,"o3":105.0,"so2":1.4,"mosquito_risk":3,"arthritis_risk":5,"migraine_risk":7,"frizz_risk":1,"updated_at":"2026-07-03T17:04:47.846895+05:30"}]