[{"city":"Delhi","state":"Delhi","latitude":28.6139,"longitude":77.209,"temp":27.3,"humidity":51,"rain":0.0,"pressure":980.0,"uv_index":6.8,"wind_gusts":24.8,"aqi":214,"pm10":350.2,"pm2_5":70.8,"mosquito_risk":4,"arthritis_risk":5,"migraine_risk":7,"frizz_risk":1,"updated_at":"2026-04-19T03:08:47.757864+05:30"},{"city":"Mumbai","state":"Maharashtra","latitude":19.076,"longitude":72.8777,"temp":29.7,"humidity":78,"rain":0.0,"pressure":1005.9,"uv_index":6.6,"wind_gusts":23.4,"aqi":90,"pm10":55.9,"pm2_5":23.4,"mosquito_risk":7,"arthritis_risk":5,"migraine_risk":4,"frizz_risk":1,"updated_at":"2026-04-19T03:08:47.757907+05:30"},{"city":"Bangalore","state":"Karnataka","latitude":12.9716,"longitude":77.5946,"temp":24.2,"humidity":61,"rain":0.0,"pressure":910.3,"uv_index":9.6,"wind_gusts":25.6,"aqi":92,"pm10":27.1,"pm2_5":23.2,"mosquito_risk":3,"arthritis_risk":5,"migraine_risk":7,"frizz_risk":1,"updated_at":"2026-04-19T03:08:47.757923+05:30"},{"city":"Hyderabad","state":"Telangana","latitude":17.385,"longitude":78.4867,"temp":27.2,"humidity":61,"rain":0.0,"pressure":951.4,"uv_index":9.3,"wind_gusts":53.3,"aqi":97,"pm10":32.8,"pm2_5":28.0,"mosquito_risk":7,"arthritis_risk":5,"migraine_risk":7,"frizz_risk":1,"updated_at":"2026-04-19T03:08:47.757934+05:30"},{"city":"Chennai","state":"Tamil Nadu","latitude":13.0827,"longitude":80.2707,"temp":27.4,"humidity":89,"rain":0.0,"pressure":1005.8,"uv_index":9.3,"wind_gusts":34.2,"aqi":35,"pm10":12.0,"pm2_5":7.8,"mosquito_risk":7,"arthritis_risk":5,"migraine_risk":4,"frizz_risk":1,"updated_at":"2026-04-19T03:08:47.757944+05:30"},{"city":"Kolkata","state":"West Bengal","latitude":22.5726,"longitude":88.3639,"temp":27.2,"humidity":92,"rain":0.0,"pressure":1003.0,"uv_index":8.9,"wind_gusts":29.5,"aqi":79,"pm10":20.9,"pm2_5":16.2,"mosquito_risk":7,"arthritis_risk":5,"migraine_risk":4,"frizz_risk":1,"updated_at":"2026-04-19T03:08:47.757956+05:30"},{"city":"Pune","state":"Maharashtra","latitude":18.5204,"longitude":73.8567,"temp":26.7,"humidity":87,"rain":0.0,"pressure":946.7,"uv_index":8.55,"wind_gusts":32.0,"aqi":109,"pm10":43.9,"pm2_5":34.9,"mosquito_risk":7,"arthritis_risk":5,"migraine_risk":7,"frizz_risk":1,"updated_at":"2026-04-19T03:08:47.757964+05:30"},{"city":"Ahmedabad","state":"Gujarat","latitude":23.0225,"longitude":72.5714,"temp":26.8,"humidity":38,"rain":0.0,"pressure":1000.5,"uv_index":8.05,"wind_gusts":24.8,"aqi":61,"pm10":14.7,"pm2_5":9.7,"mosquito_risk":4,"arthritis_risk":5,"migraine_risk":4,"frizz_risk":0,"updated_at":"2026-04-19T03:08:47.757972+05:30"},{"city":"Jaipur","state":"Rajasthan","latitude":26.9124,"longitude":75.7873,"temp":29.0,"humidity":28,"rain":0.0,"pressure":957.6,"uv_index":7.7,"wind_gusts":39.2,"aqi":175,"pm10":186.3,"pm2_5":31.8,"mosquito_risk":4,"arthritis_risk":5,"migraine_risk":7,"frizz_risk":0,"updated_at":"2026-04-19T03:08:47.757980+05:30"},{"city":"Lucknow","state":"Uttar Pradesh","latitude":26.8467,"longitude":80.9462,"temp":26.7,"humidity":61,"rain":0.0,"pressure":989.9,"uv_index":7.85,"wind_gusts":28.4,"aqi":113,"pm10":268.2,"pm2_5":62.4,"mosquito_risk":7,"arthritis_risk":5,"migraine_risk":7,"frizz_risk":1,"updated_at":"2026-04-19T03:08:47.757989+05:30"},{"city":"Kanpur","state":"Uttar Pradesh","latitude":26.4499,"longitude":80.3319,"temp":24.5,"humidity":69,"rain":0.0,"pressure":988.1,"uv_index":7.9,"wind_gusts":22.3,"aqi":154,"pm10":351.1,"pm2_5":72.4,"mosquito_risk":3,"arthritis_risk":5,"migraine_risk":7,"frizz_risk":1,"updated_at":"2026-04-19T03:08:47.757996+05:30"},{"city":"Chandigarh","state":"Chandigarh","latitude":30.7333,"longitude":76.7794,"temp":22.4,"humidity":57,"rain":0.0,"pressure":966.1,"uv_index":6.25,"wind_gusts":27.0,"aqi":62,"pm10":30.2,"pm2_5":22.0,"mosquito_risk":0,"arthritis_risk":5,"migraine_risk":7,"frizz_risk":0,"updated_at":"2026-04-19T03:08:47.758004+05:30"},{"city":"Srinagar","state":"Jammu and Kashmir","latitude":34.0837,"longitude":74.7973,"temp":10.7,"humidity":93,"rain":0.1,"pressure":842.9,"uv_index":7.0,"wind_gusts":17.3,"aqi":75,"pm10":30.3,"pm2_5":16.5,"mosquito_risk":6,"arthritis_risk":10,"migraine_risk":7,"frizz_risk":0,"updated_at":"2026-04-19T03:08:47.758011+05:30"},{"city":"Jammu","state":"Jammu and Kashmir","latitude":32.7266,"longitude":74.857,"temp":23.3,"humidity":53,"rain":0.0,"pressure":971.5,"uv_index":5.5,"wind_gusts":42.8,"aqi":66,"pm10":25.1,"pm2_5":18.1,"mosquito_risk":0,"arthritis_risk":5,"migraine_risk":3,"frizz_risk":0,"updated_at":"2026-04-19T03:08:47.758019+05:30"},{"city":"Amritsar","state":"Punjab","latitude":31.634,"longitude":74.8723,"temp":22.1,"humidity":57,"rain":0.0,"pressure":979.1,"uv_index":6.75,"wind_gusts":32.4,"aqi":68,"pm10":44.0,"pm2_5":31.2,"mosquito_risk":0,"arthritis_risk":5,"migraine_risk":7,"frizz_risk":0,"updated_at":"2026-04-19T03:08:47.758026+05:30"},{"city":"Ludhiana","state":"Punjab","latitude":30.901,"longitude":75.8573,"temp":25.4,"humidity":55,"rain":0.0,"pressure":976.3,"uv_index":6.75,"wind_gusts":30.6,"aqi":82,"pm10":101.5,"pm2_5":61.7,"mosquito_risk":4,"arthritis_risk":5,"migraine_risk":7,"frizz_risk":0,"updated_at":"2026-04-19T03:08:47.758056+05:30"},{"city":"Jalandhar","state":"Punjab","latitude":31.326,"longitude":75.5762,"temp":23.3,"humidity":61,"rain":0.0,"pressure":977.4,"uv_index":7.2,"wind_gusts":32.0,"aqi":75,"pm10":58.9,"pm2_5":31.8,"mosquito_risk":3,"arthritis_risk":5,"migraine_risk":7,"frizz_risk":0,"updated_at":"2026-04-19T03:08:47.758065+05:30"},{"city":"Dehradun","state":"Uttarakhand","latitude":30.6284,"longitude":78.0322,"temp":17.1,"humidity":37,"rain":0.0,"pressure":830.1,"uv_index":6.15,"wind_gusts":38.5,"aqi":36,"pm10":13.9,"pm2_5":9.6,"mosquito_risk":0,"arthritis_risk":5,"migraine_risk":7,"frizz_risk":0,"updated_at":"2026-04-19T03:08:47.758072+05:30"},{"city":"Shimla","state":"Himachal Pradesh","latitude":31.1048,"longitude":77.1734,"temp":14.8,"humidity":49,"rain":0.0,"pressure":784.0,"uv_index":5.8,"wind_gusts":41.4,"aqi":52,"pm10":20.3,"pm2_5":13.8,"mosquito_risk":0,"arthritis_risk":5,"migraine_risk":3,"frizz_risk":0,"updated_at":"2026-04-19T03:08:47.758079+05:30"},{"city":"Manali","state":"Himachal Pradesh","latitude":32.2396,"longitude":77.1887,"temp":16.4,"humidity":31,"rain":0.0,"pressure":821.5,"uv_index":7.95,"wind_gusts":43.6,"aqi":42,"pm10":16.0,"pm2_5":6.2,"mosquito_risk":0,"arthritis_risk":5,"migraine_risk":7,"frizz_risk":1,"updated_at":"2026-04-19T03:08:47.758086+05:30"},{"city":"Gurgaon","state":"Haryana","latitude":28.4595,"longitude":77.0266,"temp":23.6,"humidity":65,"rain":0.0,"pressure":978.2,"uv_index":6.85,"wind_gusts":23.4,"aqi":493,"pm10":419.1,"pm2_5":85.0,"mosquito_risk":3,"arthritis_risk":5,"migraine_risk":7,"frizz_risk":1,"updated_at":"2026-04-19T03:08:47.758093+05:30"},{"city":"Noida","state":"Uttar Pradesh","latitude":28.5355,"longitude":77.391,"temp":27.2,"humidity":49,"rain":0.0,"pressure":981.6,"uv_index":6.35,"wind_gusts":24.8,"aqi":493,"pm10":419.1,"pm2_5":85.0,"mosquito_risk":4,"arthritis_risk":5,"migraine_risk":7,"frizz_risk":0,"updated_at":"2026-04-19T03:08:47.758099+05:30"},{"city":"Ghaziabad","state":"Uttar Pradesh","latitude":28.6692,"longitude":77.4538,"temp":25.1,"humidity":58,"rain":0.0,"pressure":979.6,"uv_index":6.65,"wind_gusts":26.3,"aqi":159,"pm10":324.1,"pm2_5":66.1,"mosquito_risk":4,"arthritis_risk":5,"migraine_risk":7,"frizz_risk":1,"updated_at":"2026-04-19T03:08:47.758106+05:30"},{"city":"Faridabad","state":"Haryana","latitude":28.4089,"longitude":77.3178,"temp":25.3,"humidity":53,"rain":0.0,"pressure":980.7,"uv_index":5.95,"wind_gusts":24.1,"aqi":493,"pm10":419.1,"pm2_5":85.0,"mosquito_risk":4,"arthritis_risk":5,"migraine_risk":3,"frizz_risk":0,"updated_at":"2026-04-19T03:08:47.758113+05:30"},{"city":"Meerut","state":"Uttar Pradesh","latitude":28.9845,"longitude":77.7064,"temp":24.1,"humidity":62,"rain":0.0,"pressure":978.4,"uv_index":6.0,"wind_gusts":27.7,"aqi":159,"pm10":324.1,"pm2_5":66.1,"mosquito_risk":3,"arthritis_risk":5,"migraine_risk":3,"frizz_risk":1,"updated_at":"2026-04-19T03:08:47.758120+05:30"},{"city":"Agra","state":"Uttar Pradesh","latitude":27.1767,"longitude":78.0081,"temp":25.3,"humidity":63,"rain":0.0,"pressure":984.5,"uv_index":7.75,"wind_gusts":30.2,"aqi":416,"pm10":601.6,"pm2_5":87.3,"mosquito_risk":7,"arthritis_risk":5,"migraine_risk":7,"frizz_risk":1,"updated_at":"2026-04-19T03:08:47.758131+05:30"},{"city":"Varanasi","state":"Uttar Pradesh","latitude":25.3176,"longitude":82.9739,"temp":26.0,"humidity":58,"rain":0.0,"pressure":994.0,"uv_index":8.5,"wind_gusts":27.7,"aqi":112,"pm10":114.3,"pm2_5":46.0,"mosquito_risk":4,"arthritis_risk":5,"migraine_risk":7,"frizz_risk":1,"updated_at":"2026-04-19T03:08:47.758141+05:30"},{"city":"Prayagraj","state":"Uttar Pradesh","latitude":25.4358,"longitude":81.8463,"temp":28.1,"humidity":51,"rain":0.0,"pressure":992.5,"uv_index":8.35,"wind_gusts":24.5,"aqi":98,"pm10":156.9,"pm2_5":42.5,"mosquito_risk":4,"arthritis_risk":5,"migraine_risk":7,"frizz_risk":1,"updated_at":"2026-04-19T03:08:47.758149+05:30"},{"city":"Gorakhpur","state":"Uttar Pradesh","latitude":26.7606,"longitude":83.3732,"temp":26.1,"humidity":84,"rain":0.0,"pressure":993.8,"uv_index":8.3,"wind_gusts":28.8,"aqi":130,"pm10":75.0,"pm2_5":51.7,"mosquito_risk":7,"arthritis_risk":5,"migraine_risk":7,"frizz_risk":1,"updated_at":"2026-04-19T03:08:47.758156+05:30"},{"city":"Bareilly","state":"Uttar Pradesh","latitude":28.367,"longitude":79.4304,"temp":24.0,"humidity":65,"rain":0.0,"pressure":983.1,"uv_index":7.3,"wind_gusts":27.7,"aqi":83,"pm10":95.0,"pm2_5":39.5,"mosquito_risk":3,"arthritis_risk":5,"migraine_risk":7,"frizz_risk":1,"updated_at":"2026-04-19T03:08:47.758162+05:30"},{"city":"Aligarh","state":"Uttar Pradesh","latitude":27.8974,"longitude":78.088,"temp":26.1,"humidity":49,"rain":0.0,"pressure":982.2,"uv_index":7.45,"wind_gusts":28.4,"aqi":249,"pm10":286.8,"pm2_5":92.2,"mosquito_risk":4,"arthritis_risk":5,"migraine_risk":7,"frizz_risk":0,"updated_at":"2026-04-19T03:08:47.758168+05:30"},{"city":"Moradabad","state":"Uttar Pradesh","latitude":28.8386,"longitude":78.7733,"temp":23.8,"humidity":64,"rain":0.0,"pressure":980.2,"uv_index":6.75,"wind_gusts":22.7,"aqi":102,"pm10":112.9,"pm2_5":47.3,"mosquito_risk":3,"arthritis_risk":5,"migraine_risk":7,"frizz_risk":1,"updated_at":"2026-04-19T03:08:47.758175+05:30"},{"city":"Saharanpur","state":"Uttar Pradesh","latitude":29.9637,"longitude":77.546,"temp":21.7,"humidity":68,"rain":0.0,"pressure":972.8,"uv_index":6.9,"wind_gusts":40.7,"aqi":103,"pm10":86.4,"pm2_5":51.0,"mosquito_risk":3,"arthritis_risk":5,"migraine_risk":7,"frizz_risk":0,"updated_at":"2026-04-19T03:08:47.758181+05:30"},{"city":"Jhansi","state":"Uttar Pradesh","latitude":25.4484,"longitude":78.5685,"temp":26.2,"humidity":59,"rain":0.0,"pressure":975.0,"uv_index":8.25,"wind_gusts":32.0,"aqi":90,"pm10":52.9,"pm2_5":22.9,"mosquito_risk":4,"arthritis_risk":5,"migraine_risk":7,"frizz_risk":1,"updated_at":"2026-04-19T03:08:51.015257+05:30"},{"city":"Surat","state":"Gujarat","latitude":21.1702,"longitude":72.8311,"temp":28.6,"humidity":74,"rain":0.0,"pressure":1004.6,"uv_index":7.85,"wind_gusts":27.4,"aqi":110,"pm10":34.7,"pm2_5":23.2,"mosquito_risk":7,"arthritis_risk":5,"migraine_risk":4,"frizz_risk":1,"updated_at":"2026-04-19T03:08:51.015288+05:30"},{"city":"Vadodara","state":"Gujarat","latitude":22.3072,"longitude":73.1812,"temp":27.5,"humidity":71,"rain":0.0,"pressure":1002.4,"uv_index":8.05,"wind_gusts":28.1,"aqi":95,"pm10":45.6,"pm2_5":37.1,"mosquito_risk":7,"arthritis_risk":5,"migraine_risk":4,"frizz_risk":1,"updated_at":"2026-04-19T03:08:51.015298+05:30"},{"city":"Rajkot","state":"Gujarat","latitude":22.3039,"longitude":70.8022,"temp":23.9,"humidity":75,"rain":0.0,"pressure":993.4,"uv_index":7.65,"wind_gusts":24.5,"aqi":55,"pm10":21.9,"pm2_5":12.0,"mosquito_risk":3,"arthritis_risk":5,"migraine_risk":7,"frizz_risk":1,"updated_at":"2026-04-19T03:08:51.015306+05:30"},{"city":"Thane","state":"Maharashtra","latitude":19.2183,"longitude":72.9781,"temp":27.3,"humidity":83,"rain":0.0,"pressure":1005.5,"uv_index":6.2,"wind_gusts":35.6,"aqi":90,"pm10":55.9,"pm2_5":23.4,"mosquito_risk":7,"arthritis_risk":5,"migraine_risk":4,"frizz_risk":1,"updated_at":"2026-04-19T03:08:51.015313+05:30"},{"city":"Nagpur","state":"Maharashtra","latitude":21.1458,"longitude":79.0882,"temp":28.4,"humidity":64,"rain":0.0,"pressure":970.7,"uv_index":8.9,"wind_gusts":23.4,"aqi":88,"pm10":30.9,"pm2_5":28.3,"mosquito_risk":7,"arthritis_risk":5,"migraine_risk":7,"frizz_risk":1,"updated_at":"2026-04-19T03:08:51.015320+05:30"},{"city":"Nashik","state":"Maharashtra","latitude":19.9975,"longitude":73.7898,"temp":26.0,"humidity":74,"rain":0.0,"pressure":944.0,"uv_index":8.25,"wind_gusts":28.8,"aqi":73,"pm10":42.0,"pm2_5":29.5,"mosquito_risk":7,"arthritis_risk":5,"migraine_risk":7,"frizz_risk":1,"updated_at":"2026-04-19T03:08:51.015327+05:30"},{"city":"Aurangabad","state":"Maharashtra","latitude":19.8762,"longitude":75.3433,"temp":28.7,"humidity":34,"rain":0.0,"pressure":942.4,"uv_index":9.05,"wind_gusts":23.8,"aqi":60,"pm10":25.8,"pm2_5":19.8,"mosquito_risk":4,"arthritis_risk":5,"migraine_risk":7,"frizz_risk":0,"updated_at":"2026-04-19T03:08:51.015334+05:30"},{"city":"Solapur","state":"Maharashtra","latitude":17.6599,"longitude":75.9064,"temp":27.7,"humidity":66,"rain":0.0,"pressure":955.2,"uv_index":9.0,"wind_gusts":57.2,"aqi":115,"pm10":57.6,"pm2_5":51.2,"mosquito_risk":7,"arthritis_risk":5,"migraine_risk":7,"frizz_risk":1,"updated_at":"2026-04-19T03:08:51.015341+05:30"},{"city":"Kolhapur","state":"Maharashtra","latitude":16.705,"longitude":74.2433,"temp":23.8,"humidity":93,"rain":0.0,"pressure":945.6,"uv_index":9.05,"wind_gusts":38.2,"aqi":99,"pm10":53.8,"pm2_5":40.0,"mosquito_risk":3,"arthritis_risk":5,"migraine_risk":7,"frizz_risk":1,"updated_at":"2026-04-19T03:08:51.015348+05:30"},{"city":"Goa","state":"Goa","latitude":15.2993,"longitude":74.124,"temp":27.6,"humidity":86,"rain":0.0,"pressure":995.4,"uv_index":9.05,"wind_gusts":29.5,"aqi":81,"pm10":71.0,"pm2_5":35.6,"mosquito_risk":7,"arthritis_risk":5,"migraine_risk":7,"frizz_risk":1,"updated_at":"2026-04-19T03:08:51.015355+05:30"},{"city":"Jodhpur","state":"Rajasthan","latitude":26.2389,"longitude":73.0243,"temp":27.5,"humidity":32,"rain":0.0,"pressure":981.3,"uv_index":7.6,"wind_gusts":29.2,"aqi":99,"pm10":170.9,"pm2_5":27.9,"mosquito_risk":4,"arthritis_risk":5,"migraine_risk":7,"frizz_risk":0,"updated_at":"2026-04-19T03:08:51.015362+05:30"},{"city":"Udaipur","state":"Rajasthan","latitude":24.5854,"longitude":73.7125,"temp":26.5,"humidity":29,"rain":0.0,"pressure":945.7,"uv_index":8.5,"wind_gusts":33.8,"aqi":48,"pm10":19.2,"pm2_5":8.9,"mosquito_risk":4,"arthritis_risk":5,"migraine_risk":7,"frizz_risk":0,"updated_at":"2026-04-19T03:08:51.015369+05:30"},{"city":"Kota","state":"Rajasthan","latitude":25.2138,"longitude":75.8648,"temp":27.7,"humidity":42,"rain":0.0,"pressure":976.4,"uv_index":8.2,"wind_gusts":31.3,"aqi":89,"pm10":65.9,"pm2_5":32.1,"mosquito_risk":4,"arthritis_risk":5,"migraine_risk":7,"frizz_risk":0,"updated_at":"2026-04-19T03:08:51.015375+05:30"},{"city":"Bikaner","state":"Rajasthan","latitude":28.0229,"longitude":73.3119,"temp":29.2,"humidity":24,"rain":0.0,"pressure":979.7,"uv_index":8.0,"wind_gusts":32.4,"aqi":80,"pm10":282.2,"pm2_5":58.3,"mosquito_risk":4,"arthritis_risk":5,"migraine_risk":7,"frizz_risk":0,"updated_at":"2026-04-19T03:08:51.015381+05:30"},{"city":"Ajmer","state":"Rajasthan","latitude":26.4499,"longitude":74.6399,"temp":27.7,"humidity":31,"rain":0.0,"pressure":953.4,"uv_index":6.95,"wind_gusts":33.5,"aqi":63,"pm10":72.2,"pm2_5":15.3,"mosquito_risk":4,"arthritis_risk":5,"migraine_risk":7,"frizz_risk":0,"updated_at":"2026-04-19T03:08:51.015388+05:30"},{"city":"Gwalior","state":"Madhya Pradesh","latitude":26.2183,"longitude":78.1828,"temp":25.8,"humidity":62,"rain":0.0,"pressure":979.9,"uv_index":7.3,"wind_gusts":37.4,"aqi":109,"pm10":56.5,"pm2_5":17.4,"mosquito_risk":7,"arthritis_risk":5,"migraine_risk":7,"frizz_risk":1,"updated_at":"2026-04-19T03:08:51.015394+05:30"},{"city":"Indore","state":"Madhya Pradesh","latitude":22.7196,"longitude":75.8577,"temp":25.3,"humidity":53,"rain":0.0,"pressure":946.4,"uv_index":8.6,"wind_gusts":31.0,"aqi":57,"pm10":21.5,"pm2_5":16.3,"mosquito_risk":4,"arthritis_risk":5,"migraine_risk":7,"frizz_risk":0,"updated_at":"2026-04-19T03:08:51.015400+05:30"},{"city":"Bhopal","state":"Madhya Pradesh","latitude":23.2599,"longitude":77.4126,"temp":26.0,"humidity":42,"rain":0.0,"pressure":951.6,"uv_index":8.6,"wind_gusts":30.6,"aqi":63,"pm10":23.3,"pm2_5":22.2,"mosquito_risk":4,"arthritis_risk":5,"migraine_risk":7,"frizz_risk":0,"updated_at":"2026-04-19T03:08:51.015406+05:30"},{"city":"Jabalpur","state":"Madhya Pradesh","latitude":23.1815,"longitude":79.9864,"temp":28.4,"humidity":50,"rain":0.0,"pressure":958.9,"uv_index":8.75,"wind_gusts":28.8,"aqi":72,"pm10":18.8,"pm2_5":16.2,"mosquito_risk":4,"arthritis_risk":5,"migraine_risk":7,"frizz_risk":1,"updated_at":"2026-04-19T03:08:51.015412+05:30"},{"city":"Ujjain","state":"Madhya Pradesh","latitude":23.1765,"longitude":75.7885,"temp":25.6,"humidity":54,"rain":0.0,"pressure":952.0,"uv_index":8.5,"wind_gusts":31.7,"aqi":59,"pm10":18.7,"pm2_5":13.3,"mosquito_risk":4,"arthritis_risk":5,"migraine_risk":7,"frizz_risk":0,"updated_at":"2026-04-19T03:08:51.015419+05:30"},{"city":"Visakhapatnam","state":"Andhra Pradesh","latitude":17.6868,"longitude":83.2185,"temp":27.2,"humidity":90,"rain":0.0,"pressure":1002.0,"uv_index":9.2,"wind_gusts":38.9,"aqi":61,"pm10":18.3,"pm2_5":13.4,"mosquito_risk":7,"arthritis_risk":5,"migraine_risk":4,"frizz_risk":1,"updated_at":"2026-04-19T03:08:51.015425+05:30"},{"city":"Vijayawada","state":"Andhra Pradesh","latitude":16.5062,"longitude":80.648,"temp":27.0,"humidity":89,"rain":0.0,"pressure":1001.4,"uv_index":9.25,"wind_gusts":27.4,"aqi":57,"pm10":12.4,"pm2_5":9.4,"mosquito_risk":7,"arthritis_risk":5,"migraine_risk":4,"frizz_risk":1,"updated_at":"2026-04-19T03:08:51.015431+05:30"},{"city":"Guntur","state":"Andhra Pradesh","latitude":16.3067,"longitude":80.4365,"temp":27.2,"humidity":90,"rain":0.0,"pressure":1002.2,"uv_index":9.25,"wind_gusts":31.0,"aqi":59,"pm10":12.3,"pm2_5":9.1,"mosquito_risk":7,"arthritis_risk":5,"migraine_risk":4,"frizz_risk":1,"updated_at":"2026-04-19T03:08:51.015437+05:30"},{"city":"Nellore","state":"Andhra Pradesh","latitude":14.4426,"longitude":79.9865,"temp":26.9,"humidity":87,"rain":0.0,"pressure":1004.0,"uv_index":9.3,"wind_gusts":36.4,"aqi":51,"pm10":10.0,"pm2_5":7.5,"mosquito_risk":7,"arthritis_risk":5,"migraine_risk":4,"frizz_risk":1,"updated_at":"2026-04-19T03:08:51.015444+05:30"},{"city":"Kurnool","state":"Andhra Pradesh","latitude":15.8281,"longitude":78.0373,"temp":31.2,"humidity":63,"rain":0.0,"pressure":974.7,"uv_index":9.25,"wind_gusts":25.6,"aqi":88,"pm10":23.0,"pm2_5":20.8,"mosquito_risk":3,"arthritis_risk":5,"migraine_risk":7,"frizz_risk":1,"updated_at":"2026-04-19T03:08:51.015452+05:30"},{"city":"Kakinada","state":"Andhra Pradesh","latitude":16.9891,"longitude":82.2475,"temp":27.1,"humidity":88,"rain":0.0,"pressure":1006.1,"uv_index":9.2,"wind_gusts":30.2,"aqi":51,"pm10":15.8,"pm2_5":10.0,"mosquito_risk":7,"arthritis_risk":5,"migraine_risk":4,"frizz_risk":1,"updated_at":"2026-04-19T03:08:51.015458+05:30"},{"city":"Tirupati","state":"Andhra Pradesh","latitude":13.6288,"longitude":79.4192,"temp":25.6,"humidity":87,"rain":0.0,"pressure":990.5,"uv_index":9.35,"wind_gusts":31.3,"aqi":62,"pm10":21.5,"pm2_5":19.2,"mosquito_risk":7,"arthritis_risk":5,"migraine_risk":7,"frizz_risk":1,"updated_at":"2026-04-19T03:08:51.015464+05:30"},{"city":"Warangal","state":"Telangana","latitude":17.9689,"longitude":79.5941,"temp":27.6,"humidity":73,"rain":0.0,"pressure":977.2,"uv_index":9.15,"wind_gusts":29.5,"aqi":83,"pm10":24.9,"pm2_5":21.7,"mosquito_risk":7,"arthritis_risk":5,"migraine_risk":7,"frizz_risk":1,"updated_at":"2026-04-19T03:08:51.015470+05:30"},{"city":"Nizamabad","state":"Telangana","latitude":18.6725,"longitude":78.0941,"temp":28.2,"humidity":59,"rain":0.0,"pressure":963.6,"uv_index":9.1,"wind_gusts":33.1,"aqi":106,"pm10":42.8,"pm2_5":39.1,"mosquito_risk":4,"arthritis_risk":5,"migraine_risk":7,"frizz_risk":1,"updated_at":"2026-04-19T03:08:51.015477+05:30"},{"city":"Mysore","state":"Karnataka","latitude":12.2958,"longitude":76.6396,"temp":24.0,"humidity":89,"rain":0.0,"pressure":927.1,"uv_index":9.5,"wind_gusts":41.4,"aqi":88,"pm10":34.9,"pm2_5":32.5,"mosquito_risk":3,"arthritis_risk":5,"migraine_risk":7,"frizz_risk":1,"updated_at":"2026-04-19T03:08:51.015483+05:30"},{"city":"Mangalore","state":"Karnataka","latitude":12.9141,"longitude":74.856,"temp":30.4,"humidity":78,"rain":0.0,"pressure":1004.5,"uv_index":9.15,"wind_gusts":24.5,"aqi":64,"pm10":40.2,"pm2_5":24.2,"mosquito_risk":3,"arthritis_risk":5,"migraine_risk":4,"frizz_risk":1,"updated_at":"2026-04-19T03:08:51.015489+05:30"},{"city":"Hubli-Dharwad","state":"Karnataka","latitude":15.3647,"longitude":75.124,"temp":24.0,"humidity":92,"rain":0.0,"pressure":939.0,"uv_index":9.25,"wind_gusts":36.0,"aqi":68,"pm10":34.1,"pm2_5":23.0,"mosquito_risk":3,"arthritis_risk":5,"migraine_risk":7,"frizz_risk":1,"updated_at":"2026-04-19T03:08:51.015496+05:30"},{"city":"Belgaum","state":"Karnataka","latitude":15.8497,"longitude":74.4977,"temp":22.7,"humidity":95,"rain":0.0,"pressure":923.3,"uv_index":9.25,"wind_gusts":29.5,"aqi":83,"pm10":50.9,"pm2_5":30.5,"mosquito_risk":3,"arthritis_risk":5,"migraine_risk":7,"frizz_risk":1,"updated_at":"2026-04-19T03:08:54.301869+05:30"},{"city":"Coimbatore","state":"Tamil Nadu","latitude":11.0168,"longitude":76.9558,"temp":24.4,"humidity":93,"rain":0.0,"pressure":960.4,"uv_index":9.45,"wind_gusts":57.2,"aqi":97,"pm10":39.0,"pm2_5":35.4,"mosquito_risk":3,"arthritis_risk":5,"migraine_risk":7,"frizz_risk":1,"updated_at":"2026-04-19T03:08:54.301899+05:30"},{"city":"Madurai","state":"Tamil Nadu","latitude":9.9252,"longitude":78.1198,"temp":26.6,"humidity":90,"rain":0.0,"pressure":991.9,"uv_index":9.3,"wind_gusts":40.7,"aqi":68,"pm10":29.2,"pm2_5":27.4,"mosquito_risk":7,"arthritis_risk":5,"migraine_risk":7,"frizz_risk":1,"updated_at":"2026-04-19T03:08:54.301909+05:30"},{"city":"Trichy","state":"Tamil Nadu","latitude":10.7905,"longitude":78.7047,"temp":26.2,"humidity":90,"rain":0.0,"pressure":998.5,"uv_index":9.3,"wind_gusts":22.0,"aqi":52,"pm10":17.3,"pm2_5":15.8,"mosquito_risk":7,"arthritis_risk":5,"migraine_risk":7,"frizz_risk":1,"updated_at":"2026-04-19T03:08:54.301916+05:30"},{"city":"Salem","state":"Tamil Nadu","latitude":11.6643,"longitude":78.146,"temp":25.3,"humidity":87,"rain":0.0,"pressure":975.9,"uv_index":9.4,"wind_gusts":17.6,"aqi":73,"pm10":22.8,"pm2_5":20.8,"mosquito_risk":7,"arthritis_risk":5,"migraine_risk":7,"frizz_risk":1,"updated_at":"2026-04-19T03:08:54.301923+05:30"},{"city":"Tirunelveli","state":"Tamil Nadu","latitude":8.7139,"longitude":77.7567,"temp":26.0,"humidity":83,"rain":0.0,"pressure":1001.9,"uv_index":9.25,"wind_gusts":48.2,"aqi":80,"pm10":27.9,"pm2_5":24.1,"mosquito_risk":7,"arthritis_risk":5,"migraine_risk":4,"frizz_risk":1,"updated_at":"2026-04-19T03:08:54.301930+05:30"},{"city":"Vellore","state":"Tamil Nadu","latitude":12.9165,"longitude":79.1325,"temp":24.7,"humidity":94,"rain":0.0,"pressure":983.5,"uv_index":9.4,"wind_gusts":28.1,"aqi":84,"pm10":39.9,"pm2_5":38.1,"mosquito_risk":3,"arthritis_risk":5,"migraine_risk":7,"frizz_risk":1,"updated_at":"2026-04-19T03:08:54.301937+05:30"},{"city":"Erode","state":"Tamil Nadu","latitude":11.341,"longitude":77.7172,"temp":27.4,"humidity":81,"rain":0.0,"pressure":987.8,"uv_index":9.35,"wind_gusts":28.1,"aqi":63,"pm10":14.4,"pm2_5":13.4,"mosquito_risk":7,"arthritis_risk":5,"migraine_risk":7,"frizz_risk":1,"updated_at":"2026-04-19T03:08:54.301944+05:30"},{"city":"Kochi","state":"Kerala","latitude":9.9312,"longitude":76.2673,"temp":28.6,"humidity":83,"rain":0.0,"pressure":1007.0,"uv_index":9.15,"wind_gusts":27.0,"aqi":78,"pm10":24.4,"pm2_5":20.1,"mosquito_risk":7,"arthritis_risk":5,"migraine_risk":4,"frizz_risk":1,"updated_at":"2026-04-19T03:08:54.301950+05:30"},{"city":"Thiruvananthapuram","state":"Kerala","latitude":8.5241,"longitude":76.9366,"temp":28.4,"humidity":85,"rain":0.0,"pressure":1006.3,"uv_index":9.1,"wind_gusts":27.0,"aqi":73,"pm10":29.2,"pm2_5":19.4,"mosquito_risk":7,"arthritis_risk":5,"migraine_risk":4,"frizz_risk":1,"updated_at":"2026-04-19T03:08:54.301957+05:30"},{"city":"Kozhikode","state":"Kerala","latitude":11.2588,"longitude":75.7804,"temp":29.6,"humidity":82,"rain":0.0,"pressure":1005.9,"uv_index":9.15,"wind_gusts":29.5,"aqi":67,"pm10":26.8,"pm2_5":17.2,"mosquito_risk":7,"arthritis_risk":5,"migraine_risk":4,"frizz_risk":1,"updated_at":"2026-04-19T03:08:54.301963+05:30"},{"city":"Thrissur","state":"Kerala","latitude":10.5276,"longitude":76.2144,"temp":28.4,"humidity":88,"rain":0.0,"pressure":1005.2,"uv_index":9.15,"wind_gusts":35.3,"aqi":77,"pm10":28.2,"pm2_5":23.9,"mosquito_risk":7,"arthritis_risk":5,"migraine_risk":4,"frizz_risk":1,"updated_at":"2026-04-19T03:08:54.301970+05:30"},{"city":"Kannur","state":"Kerala","latitude":11.8745,"longitude":75.3704,"temp":29.4,"humidity":82,"rain":0.0,"pressure":1005.1,"uv_index":9.1,"wind_gusts":31.0,"aqi":69,"pm10":29.5,"pm2_5":21.2,"mosquito_risk":7,"arthritis_risk":5,"migraine_risk":4,"frizz_risk":1,"updated_at":"2026-04-19T03:08:54.301977+05:30"},{"city":"Patna","state":"Bihar","latitude":25.5941,"longitude":85.1376,"temp":27.6,"humidity":85,"rain":0.0,"pressure":997.0,"uv_index":8.6,"wind_gusts":25.9,"aqi":140,"pm10":51.6,"pm2_5":47.8,"mosquito_risk":7,"arthritis_risk":5,"migraine_risk":7,"frizz_risk":1,"updated_at":"2026-04-19T03:08:54.301984+05:30"},{"city":"Gaya","state":"Bihar","latitude":24.7914,"longitude":85.0002,"temp":27.1,"humidity":65,"rain":0.0,"pressure":990.2,"uv_index":8.7,"wind_gusts":27.0,"aqi":100,"pm10":56.7,"pm2_5":44.9,"mosquito_risk":7,"arthritis_risk":5,"migraine_risk":7,"frizz_risk":1,"updated_at":"2026-04-19T03:08:54.301991+05:30"},{"city":"Muzaffarpur","state":"Bihar","latitude":26.1209,"longitude":85.3647,"temp":26.1,"humidity":89,"rain":0.0,"pressure":997.1,"uv_index":8.6,"wind_gusts":29.9,"aqi":152,"pm10":52.9,"pm2_5":48.3,"mosquito_risk":7,"arthritis_risk":5,"migraine_risk":7,"frizz_risk":1,"updated_at":"2026-04-19T03:08:54.301997+05:30"},{"city":"Bhagalpur","state":"Bihar","latitude":25.2425,"longitude":87.0117,"temp":26.1,"humidity":92,"rain":0.0,"pressure":998.2,"uv_index":8.65,"wind_gusts":30.2,"aqi":147,"pm10":54.6,"pm2_5":50.6,"mosquito_risk":7,"arthritis_risk":5,"migraine_risk":7,"frizz_risk":1,"updated_at":"2026-04-19T03:08:54.302003+05:30"},{"city":"Ranchi","state":"Jharkhand","latitude":23.3441,"longitude":85.3096,"temp":26.5,"humidity":47,"rain":0.0,"pressure":935.8,"uv_index":9.2,"wind_gusts":42.8,"aqi":80,"pm10":72.6,"pm2_5":30.3,"mosquito_risk":4,"arthritis_risk":5,"migraine_risk":7,"frizz_risk":0,"updated_at":"2026-04-19T03:08:54.302010+05:30"},{"city":"Jamshedpur","state":"Jharkhand","latitude":22.8046,"longitude":86.2029,"temp":28.1,"humidity":92,"rain":0.0,"pressure":988.0,"uv_index":9.0,"wind_gusts":32.8,"aqi":111,"pm10":51.3,"pm2_5":42.0,"mosquito_risk":7,"arthritis_risk":5,"migraine_risk":7,"frizz_risk":1,"updated_at":"2026-04-19T03:08:54.302016+05:30"},{"city":"Dhanbad","state":"Jharkhand","latitude":23.7957,"longitude":86.4304,"temp":28.5,"humidity":86,"rain":0.0,"pressure":976.7,"uv_index":8.95,"wind_gusts":39.6,"aqi":154,"pm10":99.2,"pm2_5":88.5,"mosquito_risk":7,"arthritis_risk":5,"migraine_risk":7,"frizz_risk":1,"updated_at":"2026-04-19T03:08:54.302022+05:30"},{"city":"Bokaro","state":"Jharkhand","latitude":23.6693,"longitude":86.1511,"temp":28.0,"humidity":87,"rain":0.0,"pressure":980.8,"uv_index":8.95,"wind_gusts":42.8,"aqi":152,"pm10":106.2,"pm2_5":74.5,"mosquito_risk":7,"arthritis_risk":5,"migraine_risk":7,"frizz_risk":1,"updated_at":"2026-04-19T03:08:54.302028+05:30"},{"city":"Bhubaneswar","state":"Odisha","latitude":20.2961,"longitude":85.8245,"temp":26.9,"humidity":93,"rain":0.0,"pressure":1000.3,"uv_index":9.1,"wind_gusts":30.6,"aqi":61,"pm10":18.6,"pm2_5":13.8,"mosquito_risk":7,"arthritis_risk":5,"migraine_risk":4,"frizz_risk":1,"updated_at":"2026-04-19T03:08:54.302056+05:30"},{"city":"Cuttack","state":"Odisha","latitude":20.4625,"longitude":85.8828,"temp":27.2,"humidity":93,"rain":0.0,"pressure":1002.3,"uv_index":9.15,"wind_gusts":27.4,"aqi":61,"pm10":18.6,"pm2_5":13.8,"mosquito_risk":7,"arthritis_risk":5,"migraine_risk":4,"frizz_risk":1,"updated_at":"2026-04-19T03:08:54.302063+05:30"},{"city":"Rourkela","state":"Odisha","latitude":22.2604,"longitude":84.8536,"temp":28.8,"humidity":75,"rain":0.0,"pressure":982.5,"uv_index":8.9,"wind_gusts":47.5,"aqi":126,"pm10":76.8,"pm2_5":54.4,"mosquito_risk":7,"arthritis_risk":5,"migraine_risk":7,"frizz_risk":1,"updated_at":"2026-04-19T03:08:54.302069+05:30"},{"city":"Raipur","state":"Chhattisgarh","latitude":21.2514,"longitude":81.6296,"temp":28.1,"humidity":62,"rain":0.0,"pressure":972.1,"uv_index":8.7,"wind_gusts":38.2,"aqi":143,"pm10":65.7,"pm2_5":54.8,"mosquito_risk":7,"arthritis_risk":5,"migraine_risk":7,"frizz_risk":1,"updated_at":"2026-04-19T03:08:54.302076+05:30"},{"city":"Bhilai","state":"Chhattisgarh","latitude":21.1938,"longitude":81.3509,"temp":27.4,"humidity":64,"rain":0.0,"pressure":972.4,"uv_index":8.45,"wind_gusts":33.5,"aqi":151,"pm10":74.3,"pm2_5":60.8,"mosquito_risk":7,"arthritis_risk":5,"migraine_risk":7,"frizz_risk":1,"updated_at":"2026-04-19T03:08:54.302082+05:30"},{"city":"Guwahati","state":"Assam","latitude":26.1158,"longitude":91.7086,"temp":24.5,"humidity":92,"rain":0.0,"pressure":999.9,"uv_index":8.55,"wind_gusts":25.2,"aqi":132,"pm10":28.9,"pm2_5":24.4,"mosquito_risk":3,"arthritis_risk":5,"migraine_risk":7,"frizz_risk":1,"updated_at":"2026-04-19T03:08:54.302088+05:30"},{"city":"Agartala","state":"Tripura","latitude":23.8315,"longitude":91.2868,"temp":25.0,"humidity":95,"rain":0.0,"pressure":1004.4,"uv_index":8.75,"wind_gusts":26.3,"aqi":118,"pm10":57.7,"pm2_5":51.8,"mosquito_risk":7,"arthritis_risk":5,"migraine_risk":4,"frizz_risk":1,"updated_at":"2026-04-19T03:08:54.302095+05:30"},{"city":"Shillong","state":"Meghalaya","latitude":25.5788,"longitude":91.8933,"temp":14.9,"humidity":95,"rain":0.0,"pressure":854.4,"uv_index":8.15,"wind_gusts":43.9,"aqi":118,"pm10":28.6,"pm2_5":22.6,"mosquito_risk":3,"arthritis_risk":10,"migraine_risk":7,"frizz_risk":0,"updated_at":"2026-04-19T03:08:54.302102+05:30"},{"city":"Imphal","state":"Manipur","latitude":24.817,"longitude":93.9368,"temp":18.6,"humidity":83,"rain":0.0,"pressure":921.9,"uv_index":8.5,"wind_gusts":56.5,"aqi":150,"pm10":77.3,"pm2_5":65.0,"mosquito_risk":3,"arthritis_risk":10,"migraine_risk":7,"frizz_risk":0,"updated_at":"2026-04-19T03:08:54.302108+05:30"},{"city":"Aizawl","state":"Mizoram","latitude":23.7271,"longitude":92.7176,"temp":19.6,"humidity":87,"rain":0.0,"pressure":891.3,"uv_index":8.3,"wind_gusts":41.0,"aqi":125,"pm10":66.4,"pm2_5":53.2,"mosquito_risk":3,"arthritis_risk":10,"migraine_risk":7,"frizz_risk":1,"updated_at":"2026-04-19T03:08:54.302114+05:30"},{"city":"Kohima","state":"Nagaland","latitude":25.6701,"longitude":94.1077,"temp":16.1,"humidity":87,"rain":0.0,"pressure":853.7,"uv_index":8.2,"wind_gusts":46.1,"aqi":126,"pm10":58.9,"pm2_5":45.2,"mosquito_risk":3,"arthritis_risk":10,"migraine_risk":7,"frizz_risk":0,"updated_at":"2026-04-19T03:08:54.302121+05:30"},{"city":"Gangtok","state":"Sikkim","latitude":27.3314,"longitude":88.6138,"temp":15.8,"humidity":92,"rain":0.0,"pressure":835.3,"uv_index":8.9,"wind_gusts":22.0,"aqi":100,"pm10":28.6,"pm2_5":23.6,"mosquito_risk":3,"arthritis_risk":10,"migraine_risk":7,"frizz_risk":0,"updated_at":"2026-04-19T03:08:54.302127+05:30"},{"city":"Siliguri","state":"West Bengal","latitude":26.7271,"longitude":88.3953,"temp":21.5,"humidity":87,"rain":0.0,"pressure":992.5,"uv_index":8.45,"wind_gusts":22.0,"aqi":155,"pm10":88.0,"pm2_5":69.2,"mosquito_risk":3,"arthritis_risk":5,"migraine_risk":7,"frizz_risk":1,"updated_at":"2026-04-19T03:08:57.568513+05:30"},{"city":"Durgapur","state":"West Bengal","latitude":23.5204,"longitude":87.3119,"temp":27.3,"humidity":91,"rain":0.0,"pressure":991.9,"uv_index":8.9,"wind_gusts":38.5,"aqi":122,"pm10":30.5,"pm2_5":28.3,"mosquito_risk":7,"arthritis_risk":5,"migraine_risk":7,"frizz_risk":1,"updated_at":"2026-04-19T03:08:57.568542+05:30"},{"city":"Asansol","state":"West Bengal","latitude":23.6739,"longitude":86.9524,"temp":27.9,"humidity":88,"rain":0.0,"pressure":990.4,"uv_index":8.95,"wind_gusts":39.6,"aqi":133,"pm10":40.5,"pm2_5":39.1,"mosquito_risk":7,"arthritis_risk":5,"migraine_risk":7,"frizz_risk":1,"updated_at":"2026-04-19T03:08:57.568552+05:30"},{"city":"Pondicherry","state":"Puducherry","latitude":11.9139,"longitude":79.8145,"temp":26.2,"humidity":96,"rain":0.0,"pressure":1007.3,"uv_index":9.25,"wind_gusts":31.3,"aqi":30,"pm10":9.7,"pm2_5":6.0,"mosquito_risk":7,"arthritis_risk":5,"migraine_risk":4,"frizz_risk":1,"updated_at":"2026-04-19T03:08:57.568559+05:30"},{"city":"Port Blair","state":"Andaman and Nicobar Islands","latitude":11.6234,"longitude":92.7265,"temp":29.3,"humidity":76,"rain":0.0,"pressure":1005.4,"uv_index":9.15,"wind_gusts":15.5,"aqi":56,"pm10":19.2,"pm2_5":14.8,"mosquito_risk":7,"arthritis_risk":5,"migraine_risk":4,"frizz_risk":1,"updated_at":"2026-04-19T03:08:57.568567+05:30"},{"city":"Haridwar","state":"Uttarakhand","latitude":29.9457,"longitude":78.1642,"temp":22.4,"humidity":63,"rain":0.0,"pressure":971.7,"uv_index":6.65,"wind_gusts":31.3,"aqi":64,"pm10":31.4,"pm2_5":21.7,"mosquito_risk":3,"arthritis_risk":5,"migraine_risk":7,"frizz_risk":0,"updated_at":"2026-04-19T03:08:57.568574+05:30"},{"city":"Rishikesh","state":"Uttarakhand","latitude":30.0869,"longitude":78.2676,"temp":22.3,"humidity":61,"rain":0.0,"pressure":964.9,"uv_index":6.7,"wind_gusts":34.2,"aqi":56,"pm10":32.4,"pm2_5":19.5,"mosquito_risk":3,"arthritis_risk":5,"migraine_risk":7,"frizz_risk":0,"updated_at":"2026-04-19T03:08:57.568581+05:30"},{"city":"Nainital","state":"Uttarakhand","latitude":29.3919,"longitude":79.4542,"temp":23.5,"humidity":29,"rain":0.0,"pressure":806.8,"uv_index":7.55,"wind_gusts":59.0,"aqi":67,"pm10":44.2,"pm2_5":17.3,"mosquito_risk":0,"arthritis_risk":5,"migraine_risk":7,"frizz_risk":0,"updated_at":"2026-04-19T03:08:57.568589+05:30"},{"city":"Mussoorie","state":"Uttarakhand","latitude":30.4599,"longitude":78.0664,"temp":19.7,"humidity":36,"rain":0.0,"pressure":803.2,"uv_index":6.65,"wind_gusts":42.1,"aqi":59,"pm10":22.6,"pm2_5":18.2,"mosquito_risk":0,"arthritis_risk":5,"migraine_risk":7,"frizz_risk":0,"updated_at":"2026-04-19T03:08:57.568596+05:30"},{"city":"Dharamshala","state":"Himachal Pradesh","latitude":32.219,"longitude":76.3234,"temp":23.3,"humidity":24,"rain":0.0,"pressure":869.3,"uv_index":6.5,"wind_gusts":31.3,"aqi":42,"pm10":20.8,"pm2_5":8.1,"mosquito_risk":0,"arthritis_risk":5,"migraine_risk":7,"frizz_risk":0,"updated_at":"2026-04-19T03:08:57.568602+05:30"},{"city":"Dalhousie","state":"Himachal Pradesh","latitude":32.5387,"longitude":75.971,"temp":19.2,"humidity":24,"rain":0.0,"pressure":804.0,"uv_index":5.6,"wind_gusts":25.6,"aqi":56,"pm10":35.5,"pm2_5":18.8,"mosquito_risk":0,"arthritis_risk":5,"migraine_risk":3,"frizz_risk":1,"updated_at":"2026-04-19T03:08:57.568611+05:30"},{"city":"Patiala","state":"Punjab","latitude":30.3398,"longitude":76.3869,"temp":23.2,"humidity":64,"rain":0.0,"pressure":975.4,"uv_index":6.75,"wind_gusts":33.1,"aqi":127,"pm10":73.1,"pm2_5":68.5,"mosquito_risk":3,"arthritis_risk":5,"migraine_risk":7,"frizz_risk":0,"updated_at":"2026-04-19T03:08:57.568617+05:30"},{"city":"Bhatinda","state":"Punjab","latitude":30.211,"longitude":74.9455,"temp":24.4,"humidity":58,"rain":0.0,"pressure":981.3,"uv_index":7.7,"wind_gusts":29.2,"aqi":82,"pm10":57.2,"pm2_5":28.5,"mosquito_risk":0,"arthritis_risk":5,"migraine_risk":7,"frizz_risk":0,"updated_at":"2026-04-19T03:08:57.568624+05:30"},{"city":"Rohtak","state":"Haryana","latitude":28.8955,"longitude":76.6066,"temp":22.7,"humidity":70,"rain":0.0,"pressure":978.6,"uv_index":6.6,"wind_gusts":33.5,"aqi":288,"pm10":472.2,"pm2_5":79.6,"mosquito_risk":3,"arthritis_risk":5,"migraine_risk":7,"frizz_risk":1,"updated_at":"2026-04-19T03:08:57.568630+05:30"},{"city":"Panipat","state":"Haryana","latitude":29.3909,"longitude":76.9635,"temp":24.0,"humidity":61,"rain":0.0,"pressure":977.5,"uv_index":6.2,"wind_gusts":46.1,"aqi":444,"pm10":784.2,"pm2_5":110.4,"mosquito_risk":3,"arthritis_risk":5,"migraine_risk":7,"frizz_risk":0,"updated_at":"2026-04-19T03:08:57.568636+05:30"},{"city":"Mathura","state":"Uttar Pradesh","latitude":27.4924,"longitude":77.6737,"temp":25.2,"humidity":58,"rain":0.0,"pressure":983.5,"uv_index":7.4,"wind_gusts":27.0,"aqi":286,"pm10":359.5,"pm2_5":86.1,"mosquito_risk":4,"arthritis_risk":5,"migraine_risk":7,"frizz_risk":1,"updated_at":"2026-04-19T03:08:57.568643+05:30"},{"city":"Vrindavan","state":"Uttar Pradesh","latitude":27.5823,"longitude":77.7027,"temp":25.8,"humidity":57,"rain":0.0,"pressure":983.9,"uv_index":7.3,"wind_gusts":29.2,"aqi":286,"pm10":359.5,"pm2_5":86.1,"mosquito_risk":4,"arthritis_risk":5,"migraine_risk":7,"frizz_risk":1,"updated_at":"2026-04-19T03:08:57.568650+05:30"},{"city":"Ayodhya","state":"Uttar Pradesh","latitude":26.7922,"longitude":82.1998,"temp":25.2,"humidity":83,"rain":0.0,"pressure":991.8,"uv_index":8.05,"wind_gusts":32.4,"aqi":94,"pm10":168.1,"pm2_5":46.2,"mosquito_risk":7,"arthritis_risk":5,"migraine_risk":7,"frizz_risk":1,"updated_at":"2026-04-19T03:08:57.568656+05:30"},{"city":"Ratlam","state":"Madhya Pradesh","latitude":23.3315,"longitude":75.0367,"temp":27.5,"humidity":46,"rain":0.0,"pressure":952.9,"uv_index":8.45,"wind_gusts":23.0,"aqi":49,"pm10":16.2,"pm2_5":11.0,"mosquito_risk":4,"arthritis_risk":5,"migraine_risk":7,"frizz_risk":0,"updated_at":"2026-04-19T03:08:57.568662+05:30"},{"city":"Sagar","state":"Madhya Pradesh","latitude":23.8388,"longitude":78.7378,"temp":27.3,"humidity":50,"rain":0.0,"pressure":947.6,"uv_index":8.6,"wind_gusts":31.0,"aqi":61,"pm10":22.2,"pm2_5":20.5,"mosquito_risk":4,"arthritis_risk":5,"migraine_risk":7,"frizz_risk":0,"updated_at":"2026-04-19T03:08:57.568669+05:30"},{"city":"Satna","state":"Madhya Pradesh","latitude":24.6005,"longitude":80.8322,"temp":28.7,"humidity":47,"rain":0.0,"pressure":968.7,"uv_index":8.65,"wind_gusts":30.2,"aqi":76,"pm10":117.6,"pm2_5":31.4,"mosquito_risk":4,"arthritis_risk":5,"migraine_risk":7,"frizz_risk":1,"updated_at":"2026-04-19T03:08:57.568675+05:30"},{"city":"Akola","state":"Maharashtra","latitude":20.7002,"longitude":77.0082,"temp":27.9,"humidity":56,"rain":0.0,"pressure":972.4,"uv_index":8.85,"wind_gusts":23.0,"aqi":66,"pm10":31.3,"pm2_5":27.1,"mosquito_risk":4,"arthritis_risk":5,"migraine_risk":7,"frizz_risk":1,"updated_at":"2026-04-19T03:08:57.568682+05:30"},{"city":"Amravati","state":"Maharashtra","latitude":20.9374,"longitude":77.7796,"temp":26.1,"humidity":45,"rain":0.0,"pressure":964.7,"uv_index":8.85,"wind_gusts":28.8,"aqi":68,"pm10":35.3,"pm2_5":31.0,"mosquito_risk":4,"arthritis_risk":5,"migraine_risk":7,"frizz_risk":0,"updated_at":"2026-04-19T03:08:57.568689+05:30"},{"city":"Latur","state":"Maharashtra","latitude":18.4088,"longitude":76.5604,"temp":25.1,"humidity":69,"rain":0.0,"pressure":937.8,"uv_index":8.85,"wind_gusts":25.2,"aqi":96,"pm10":51.7,"pm2_5":46.2,"mosquito_risk":7,"arthritis_risk":5,"migraine_risk":7,"frizz_risk":1,"updated_at":"2026-04-19T03:08:57.568697+05:30"},{"city":"Nanded","state":"Maharashtra","latitude":19.1383,"longitude":77.3091,"temp":26.9,"humidity":65,"rain":0.0,"pressure":966.6,"uv_index":9.0,"wind_gusts":25.9,"aqi":87,"pm10":56.9,"pm2_5":50.9,"mosquito_risk":7,"arthritis_risk":5,"migraine_risk":7,"frizz_risk":1,"updated_at":"2026-04-19T03:08:57.568703+05:30"},{"city":"Gulbarga","state":"Karnataka","latitude":17.3297,"longitude":76.8343,"temp":28.3,"humidity":60,"rain":0.0,"pressure":956.6,"uv_index":9.1,"wind_gusts":34.6,"aqi":95,"pm10":46.3,"pm2_5":41.3,"mosquito_risk":4,"arthritis_risk":5,"migraine_risk":7,"frizz_risk":1,"updated_at":"2026-04-19T03:08:57.568709+05:30"},{"city":"Bidar","state":"Karnataka","latitude":17.9104,"longitude":77.5199,"temp":27.0,"humidity":65,"rain":0.0,"pressure":933.5,"uv_index":9.15,"wind_gusts":45.4,"aqi":101,"pm10":43.1,"pm2_5":38.8,"mosquito_risk":7,"arthritis_risk":5,"migraine_risk":7,"frizz_risk":1,"updated_at":"2026-04-19T03:08:57.568715+05:30"},{"city":"Hospet","state":"Karnataka","latitude":15.2689,"longitude":76.3909,"temp":27.9,"humidity":82,"rain":0.0,"pressure":954.0,"uv_index":9.3,"wind_gusts":43.9,"aqi":88,"pm10":34.0,"pm2_5":31.3,"mosquito_risk":7,"arthritis_risk":5,"migraine_risk":7,"frizz_risk":1,"updated_at":"2026-04-19T03:08:57.568721+05:30"},{"city":"Tirupur","state":"Tamil Nadu","latitude":11.1085,"longitude":77.3411,"temp":26.6,"humidity":88,"rain":0.0,"pressure":973.9,"uv_index":9.45,"wind_gusts":31.0,"aqi":82,"pm10":27.3,"pm2_5":24.2,"mosquito_risk":7,"arthritis_risk":5,"migraine_risk":7,"frizz_risk":1,"updated_at":"2026-04-19T03:08:57.568727+05:30"},{"city":"Alappuzha","state":"Kerala","latitude":9.4981,"longitude":76.3388,"temp":28.2,"humidity":82,"rain":0.0,"pressure":1007.1,"uv_index":9.05,"wind_gusts":24.8,"aqi":82,"pm10":37.3,"pm2_5":28.5,"mosquito_risk":7,"arthritis_risk":5,"migraine_risk":4,"frizz_risk":1,"updated_at":"2026-04-19T03:08:57.568733+05:30"},{"city":"Munnar","state":"Kerala","latitude":10.0889,"longitude":77.0595,"temp":21.2,"humidity":86,"rain":0.0,"pressure":855.5,"uv_index":9.7,"wind_gusts":34.9,"aqi":84,"pm10":34.2,"pm2_5":30.6,"mosquito_risk":3,"arthritis_risk":5,"migraine_risk":7,"frizz_risk":1,"updated_at":"2026-04-19T03:08:57.568740+05:30"},{"city":"Silchar","state":"Assam","latitude":24.8333,"longitude":92.7789,"temp":24.9,"humidity":90,"rain":0.0,"pressure":1003.7,"uv_index":8.8,"wind_gusts":25.9,"aqi":158,"pm10":92.7,"pm2_5":74.7,"mosquito_risk":3,"arthritis_risk":5,"migraine_risk":4,"frizz_risk":1,"updated_at":"2026-04-19T03:08:57.568746+05:30"},{"city":"Dibrugarh","state":"Assam","latitude":27.4728,"longitude":94.912,"temp":23.6,"humidity":94,"rain":0.0,"pressure":995.2,"uv_index":8.65,"wind_gusts":24.8,"aqi":122,"pm10":68.2,"pm2_5":55.8,"mosquito_risk":3,"arthritis_risk":5,"migraine_risk":7,"frizz_risk":1,"updated_at":"2026-04-19T03:08:57.568753+05:30"}]