[{"city":"Delhi","state":"Delhi","latitude":28.6139,"longitude":77.209,"temp":38.7,"humidity":19,"rain":0.0,"pressure":977.7,"uv_index":7.7,"wind_gusts":39.6,"aqi":410,"pm10":618.4,"pm2_5":94.8,"no2":7.1,"co":310.0,"o3":127.0,"so2":8.3,"mosquito_risk":0,"arthritis_risk":5,"migraine_risk":10,"frizz_risk":0,"updated_at":"2026-05-16T17:24:26.526096+05:30"},{"city":"Mumbai","state":"Maharashtra","latitude":19.076,"longitude":72.8777,"temp":31.5,"humidity":68,"rain":0.0,"pressure":1002.7,"uv_index":7.85,"wind_gusts":50.4,"aqi":60,"pm10":40.4,"pm2_5":16.4,"no2":7.8,"co":196.0,"o3":79.0,"so2":4.5,"mosquito_risk":3,"arthritis_risk":5,"migraine_risk":4,"frizz_risk":1,"updated_at":"2026-05-16T17:24:26.526136+05:30"},{"city":"Bangalore","state":"Karnataka","latitude":12.9716,"longitude":77.5946,"temp":32.7,"humidity":29,"rain":0.0,"pressure":907.5,"uv_index":8.8,"wind_gusts":43.2,"aqi":150,"pm10":103.6,"pm2_5":56.8,"no2":13.3,"co":338.0,"o3":135.0,"so2":10.1,"mosquito_risk":0,"arthritis_risk":5,"migraine_risk":7,"frizz_risk":0,"updated_at":"2026-05-16T17:24:26.526148+05:30"},{"city":"Hyderabad","state":"Telangana","latitude":17.385,"longitude":78.4867,"temp":36.5,"humidity":32,"rain":0.1,"pressure":947.9,"uv_index":9.3,"wind_gusts":22.7,"aqi":152,"pm10":64.3,"pm2_5":39.1,"no2":3.7,"co":372.0,"o3":167.0,"so2":6.5,"mosquito_risk":3,"arthritis_risk":5,"migraine_risk":10,"frizz_risk":1,"updated_at":"2026-05-16T17:24:26.526156+05:30"},{"city":"Chennai","state":"Tamil Nadu","latitude":13.0827,"longitude":80.2707,"temp":31.0,"humidity":69,"rain":0.0,"pressure":1001.1,"uv_index":8.85,"wind_gusts":32.4,"aqi":40,"pm10":11.3,"pm2_5":7.8,"no2":6.9,"co":177.0,"o3":87.0,"so2":10.7,"mosquito_risk":3,"arthritis_risk":5,"migraine_risk":4,"frizz_risk":1,"updated_at":"2026-05-16T17:24:26.526163+05:30"},{"city":"Kolkata","state":"West Bengal","latitude":22.5726,"longitude":88.3639,"temp":31.8,"humidity":69,"rain":0.0,"pressure":999.7,"uv_index":9.0,"wind_gusts":35.3,"aqi":60,"pm10":30.6,"pm2_5":18.9,"no2":4.0,"co":255.0,"o3":79.0,"so2":5.4,"mosquito_risk":3,"arthritis_risk":5,"migraine_risk":7,"frizz_risk":1,"updated_at":"2026-05-16T17:24:26.526169+05:30"},{"city":"Pune","state":"Maharashtra","latitude":18.5204,"longitude":73.8567,"temp":36.1,"humidity":30,"rain":0.1,"pressure":943.3,"uv_index":8.5,"wind_gusts":36.7,"aqi":71,"pm10":29.9,"pm2_5":18.9,"no2":2.5,"co":189.0,"o3":144.0,"so2":5.7,"mosquito_risk":3,"arthritis_risk":5,"migraine_risk":10,"frizz_risk":0,"updated_at":"2026-05-16T17:24:26.526175+05:30"},{"city":"Ahmedabad","state":"Gujarat","latitude":23.0225,"longitude":72.5714,"temp":40.7,"humidity":19,"rain":0.0,"pressure":995.3,"uv_index":8.15,"wind_gusts":31.0,"aqi":56,"pm10":56.9,"pm2_5":17.6,"no2":1.2,"co":156.0,"o3":106.0,"so2":2.5,"mosquito_risk":0,"arthritis_risk":5,"migraine_risk":10,"frizz_risk":0,"updated_at":"2026-05-16T17:24:26.526181+05:30"},{"city":"Jaipur","state":"Rajasthan","latitude":26.9124,"longitude":75.7873,"temp":39.2,"humidity":14,"rain":0.0,"pressure":955.2,"uv_index":8.25,"wind_gusts":30.2,"aqi":166,"pm10":192.3,"pm2_5":36.6,"no2":0.0,"co":184.0,"o3":136.0,"so2":3.4,"mosquito_risk":0,"arthritis_risk":5,"migraine_risk":10,"frizz_risk":0,"updated_at":"2026-05-16T17:24:26.526190+05:30"},{"city":"Lucknow","state":"Uttar Pradesh","latitude":26.8467,"longitude":80.9462,"temp":38.8,"humidity":24,"rain":0.0,"pressure":986.8,"uv_index":8.2,"wind_gusts":31.7,"aqi":154,"pm10":197.4,"pm2_5":53.6,"no2":4.5,"co":276.0,"o3":141.0,"so2":9.4,"mosquito_risk":0,"arthritis_risk":5,"migraine_risk":10,"frizz_risk":0,"updated_at":"2026-05-16T17:24:26.526195+05:30"},{"city":"Kanpur","state":"Uttar Pradesh","latitude":26.4499,"longitude":80.3319,"temp":40.0,"humidity":19,"rain":0.0,"pressure":985.1,"uv_index":8.2,"wind_gusts":34.2,"aqi":151,"pm10":292.4,"pm2_5":55.8,"no2":3.1,"co":227.0,"o3":139.0,"so2":7.8,"mosquito_risk":0,"arthritis_risk":5,"migraine_risk":10,"frizz_risk":0,"updated_at":"2026-05-16T17:24:26.526200+05:30"},{"city":"Chandigarh","state":"Chandigarh","latitude":30.7333,"longitude":76.7794,"temp":34.2,"humidity":29,"rain":0.0,"pressure":964.4,"uv_index":7.7,"wind_gusts":39.2,"aqi":132,"pm10":49.8,"pm2_5":21.9,"no2":2.3,"co":282.0,"o3":157.0,"so2":7.4,"mosquito_risk":0,"arthritis_risk":5,"migraine_risk":7,"frizz_risk":0,"updated_at":"2026-05-16T17:24:26.526205+05:30"},{"city":"Srinagar","state":"Jammu and Kashmir","latitude":34.0837,"longitude":74.7973,"temp":20.2,"humidity":60,"rain":0.0,"pressure":842.5,"uv_index":8.9,"wind_gusts":36.0,"aqi":96,"pm10":15.9,"pm2_5":9.5,"no2":2.8,"co":299.0,"o3":123.0,"so2":1.2,"mosquito_risk":0,"arthritis_risk":5,"migraine_risk":7,"frizz_risk":0,"updated_at":"2026-05-16T17:24:26.526211+05:30"},{"city":"Jammu","state":"Jammu and Kashmir","latitude":32.7266,"longitude":74.857,"temp":34.8,"humidity":25,"rain":0.0,"pressure":968.7,"uv_index":8.45,"wind_gusts":25.9,"aqi":96,"pm10":22.7,"pm2_5":11.7,"no2":0.0,"co":213.0,"o3":153.0,"so2":2.4,"mosquito_risk":0,"arthritis_risk":5,"migraine_risk":7,"frizz_risk":0,"updated_at":"2026-05-16T17:24:26.526215+05:30"},{"city":"Amritsar","state":"Punjab","latitude":31.634,"longitude":74.8723,"temp":36.2,"humidity":27,"rain":0.0,"pressure":976.0,"uv_index":8.35,"wind_gusts":25.9,"aqi":132,"pm10":61.0,"pm2_5":24.0,"no2":0.2,"co":227.0,"o3":174.0,"so2":7.4,"mosquito_risk":0,"arthritis_risk":5,"migraine_risk":10,"frizz_risk":0,"updated_at":"2026-05-16T17:24:26.526220+05:30"},{"city":"Ludhiana","state":"Punjab","latitude":30.901,"longitude":75.8573,"temp":36.2,"humidity":24,"rain":0.0,"pressure":974.1,"uv_index":7.95,"wind_gusts":42.1,"aqi":113,"pm10":90.1,"pm2_5":27.1,"no2":1.1,"co":279.0,"o3":148.0,"so2":3.6,"mosquito_risk":0,"arthritis_risk":5,"migraine_risk":10,"frizz_risk":0,"updated_at":"2026-05-16T17:24:26.526225+05:30"},{"city":"Jalandhar","state":"Punjab","latitude":31.326,"longitude":75.5762,"temp":36.0,"humidity":24,"rain":0.0,"pressure":975.2,"uv_index":8.15,"wind_gusts":30.2,"aqi":134,"pm10":81.7,"pm2_5":26.9,"no2":1.7,"co":286.0,"o3":160.0,"so2":5.8,"mosquito_risk":0,"arthritis_risk":5,"migraine_risk":10,"frizz_risk":0,"updated_at":"2026-05-16T17:24:26.526229+05:30"},{"city":"Dehradun","state":"Uttarakhand","latitude":30.6284,"longitude":78.0322,"temp":21.9,"humidity":50,"rain":0.0,"pressure":829.7,"uv_index":8.1,"wind_gusts":33.1,"aqi":83,"pm10":42.5,"pm2_5":16.3,"no2":1.4,"co":185.0,"o3":131.0,"so2":3.1,"mosquito_risk":0,"arthritis_risk":5,"migraine_risk":7,"frizz_risk":0,"updated_at":"2026-05-16T17:24:26.526234+05:30"},{"city":"Shimla","state":"Himachal Pradesh","latitude":31.1048,"longitude":77.1734,"temp":19.5,"humidity":41,"rain":0.0,"pressure":784.7,"uv_index":8.2,"wind_gusts":46.4,"aqi":87,"pm10":56.7,"pm2_5":20.2,"no2":0.7,"co":167.0,"o3":138.0,"so2":3.4,"mosquito_risk":0,"arthritis_risk":5,"migraine_risk":7,"frizz_risk":0,"updated_at":"2026-05-16T17:24:26.526245+05:30"},{"city":"Manali","state":"Himachal Pradesh","latitude":32.2396,"longitude":77.1887,"temp":17.5,"humidity":63,"rain":0.0,"pressure":817.2,"uv_index":9.9,"wind_gusts":37.8,"aqi":111,"pm10":20.4,"pm2_5":10.6,"no2":0.0,"co":135.0,"o3":163.0,"so2":0.4,"mosquito_risk":3,"arthritis_risk":5,"migraine_risk":7,"frizz_risk":0,"updated_at":"2026-05-16T17:24:26.526251+05:30"},{"city":"Gurgaon","state":"Haryana","latitude":28.4595,"longitude":77.0266,"temp":38.0,"humidity":20,"rain":0.0,"pressure":976.3,"uv_index":7.8,"wind_gusts":38.2,"aqi":637,"pm10":1333.7,"pm2_5":169.0,"no2":6.8,"co":339.0,"o3":136.0,"so2":8.1,"mosquito_risk":0,"arthritis_risk":5,"migraine_risk":10,"frizz_risk":0,"updated_at":"2026-05-16T17:24:26.526256+05:30"},{"city":"Noida","state":"Uttar Pradesh","latitude":28.5355,"longitude":77.391,"temp":37.2,"humidity":24,"rain":0.0,"pressure":978.8,"uv_index":7.7,"wind_gusts":31.0,"aqi":637,"pm10":1333.7,"pm2_5":169.0,"no2":6.8,"co":378.0,"o3":136.0,"so2":8.1,"mosquito_risk":0,"arthritis_risk":5,"migraine_risk":10,"frizz_risk":0,"updated_at":"2026-05-16T17:24:26.526261+05:30"},{"city":"Ghaziabad","state":"Uttar Pradesh","latitude":28.6692,"longitude":77.4538,"temp":36.3,"humidity":27,"rain":0.0,"pressure":977.2,"uv_index":7.7,"wind_gusts":37.1,"aqi":192,"pm10":534.6,"pm2_5":87.8,"no2":5.0,"co":256.0,"o3":142.0,"so2":11.3,"mosquito_risk":0,"arthritis_risk":5,"migraine_risk":10,"frizz_risk":0,"updated_at":"2026-05-16T17:24:26.526268+05:30"},{"city":"Faridabad","state":"Haryana","latitude":28.4089,"longitude":77.3178,"temp":38.6,"humidity":18,"rain":0.0,"pressure":978.2,"uv_index":7.75,"wind_gusts":40.0,"aqi":637,"pm10":1333.7,"pm2_5":169.0,"no2":6.8,"co":268.0,"o3":136.0,"so2":8.1,"mosquito_risk":0,"arthritis_risk":5,"migraine_risk":10,"frizz_risk":0,"updated_at":"2026-05-16T17:24:26.526273+05:30"},{"city":"Meerut","state":"Uttar Pradesh","latitude":28.9845,"longitude":77.7064,"temp":36.8,"humidity":24,"rain":0.0,"pressure":976.0,"uv_index":7.6,"wind_gusts":41.4,"aqi":192,"pm10":534.6,"pm2_5":87.8,"no2":5.0,"co":227.0,"o3":142.0,"so2":11.3,"mosquito_risk":0,"arthritis_risk":5,"migraine_risk":10,"frizz_risk":0,"updated_at":"2026-05-16T17:24:26.526277+05:30"},{"city":"Agra","state":"Uttar Pradesh","latitude":27.1767,"longitude":78.0081,"temp":39.4,"humidity":18,"rain":0.0,"pressure":981.8,"uv_index":8.05,"wind_gusts":34.2,"aqi":430,"pm10":508.5,"pm2_5":74.7,"no2":6.7,"co":241.0,"o3":135.0,"so2":8.0,"mosquito_risk":0,"arthritis_risk":5,"migraine_risk":10,"frizz_risk":0,"updated_at":"2026-05-16T17:24:26.526282+05:30"},{"city":"Varanasi","state":"Uttar Pradesh","latitude":25.3176,"longitude":82.9739,"temp":39.7,"humidity":18,"rain":0.0,"pressure":990.2,"uv_index":8.7,"wind_gusts":39.6,"aqi":157,"pm10":183.0,"pm2_5":48.8,"no2":2.8,"co":274.0,"o3":154.0,"so2":9.6,"mosquito_risk":0,"arthritis_risk":5,"migraine_risk":10,"frizz_risk":0,"updated_at":"2026-05-16T17:24:26.526287+05:30"},{"city":"Prayagraj","state":"Uttar Pradesh","latitude":25.4358,"longitude":81.8463,"temp":39.6,"humidity":21,"rain":0.0,"pressure":988.9,"uv_index":8.6,"wind_gusts":33.5,"aqi":155,"pm10":164.8,"pm2_5":45.8,"no2":2.9,"co":228.0,"o3":146.0,"so2":10.1,"mosquito_risk":0,"arthritis_risk":5,"migraine_risk":10,"frizz_risk":0,"updated_at":"2026-05-16T17:24:26.526292+05:30"},{"city":"Gorakhpur","state":"Uttar Pradesh","latitude":26.7606,"longitude":83.3732,"temp":35.7,"humidity":48,"rain":0.0,"pressure":989.7,"uv_index":8.55,"wind_gusts":27.0,"aqi":157,"pm10":116.4,"pm2_5":39.9,"no2":2.6,"co":310.0,"o3":149.0,"so2":8.4,"mosquito_risk":0,"arthritis_risk":5,"migraine_risk":10,"frizz_risk":1,"updated_at":"2026-05-16T17:24:26.526299+05:30"},{"city":"Bareilly","state":"Uttar Pradesh","latitude":28.367,"longitude":79.4304,"temp":34.4,"humidity":41,"rain":0.0,"pressure":981.0,"uv_index":8.0,"wind_gusts":28.8,"aqi":144,"pm10":59.0,"pm2_5":39.7,"no2":3.1,"co":276.0,"o3":166.0,"so2":10.1,"mosquito_risk":0,"arthritis_risk":5,"migraine_risk":7,"frizz_risk":1,"updated_at":"2026-05-16T17:24:26.526304+05:30"},{"city":"Aligarh","state":"Uttar Pradesh","latitude":27.8974,"longitude":78.088,"temp":37.2,"humidity":25,"rain":0.0,"pressure":979.7,"uv_index":7.85,"wind_gusts":33.1,"aqi":253,"pm10":814.0,"pm2_5":117.1,"no2":3.5,"co":291.0,"o3":163.0,"so2":11.7,"mosquito_risk":0,"arthritis_risk":5,"migraine_risk":10,"frizz_risk":0,"updated_at":"2026-05-16T17:24:26.526309+05:30"},{"city":"Moradabad","state":"Uttar Pradesh","latitude":28.8386,"longitude":78.7733,"temp":35.5,"humidity":33,"rain":0.0,"pressure":978.1,"uv_index":7.85,"wind_gusts":37.4,"aqi":154,"pm10":83.8,"pm2_5":43.4,"no2":4.0,"co":278.0,"o3":150.0,"so2":8.8,"mosquito_risk":0,"arthritis_risk":5,"migraine_risk":10,"frizz_risk":1,"updated_at":"2026-05-16T17:24:26.526316+05:30"},{"city":"Saharanpur","state":"Uttar Pradesh","latitude":29.9637,"longitude":77.546,"temp":34.0,"humidity":33,"rain":0.0,"pressure":970.5,"uv_index":7.4,"wind_gusts":35.3,"aqi":143,"pm10":132.7,"pm2_5":40.3,"no2":6.0,"co":233.0,"o3":147.0,"so2":11.6,"mosquito_risk":0,"arthritis_risk":5,"migraine_risk":7,"frizz_risk":0,"updated_at":"2026-05-16T17:24:26.526321+05:30"},{"city":"Jhansi","state":"Uttar Pradesh","latitude":25.4484,"longitude":78.5685,"temp":39.8,"humidity":20,"rain":0.0,"pressure":972.3,"uv_index":8.5,"wind_gusts":23.0,"aqi":95,"pm10":73.1,"pm2_5":24.9,"no2":1.1,"co":181.0,"o3":136.0,"so2":7.5,"mosquito_risk":0,"arthritis_risk":5,"migraine_risk":10,"frizz_risk":0,"updated_at":"2026-05-16T17:24:29.883566+05:30"},{"city":"Surat","state":"Gujarat","latitude":21.1702,"longitude":72.8311,"temp":39.0,"humidity":23,"rain":0.0,"pressure":1000.0,"uv_index":7.75,"wind_gusts":36.7,"aqi":77,"pm10":75.9,"pm2_5":43.4,"no2":27.6,"co":199.0,"o3":97.0,"so2":74.2,"mosquito_risk":0,"arthritis_risk":5,"migraine_risk":7,"frizz_risk":0,"updated_at":"2026-05-16T17:24:29.883599+05:30"},{"city":"Vadodara","state":"Gujarat","latitude":22.3072,"longitude":73.1812,"temp":40.8,"humidity":18,"rain":0.0,"pressure":997.3,"uv_index":8.1,"wind_gusts":29.9,"aqi":61,"pm10":61.2,"pm2_5":23.9,"no2":1.4,"co":182.0,"o3":141.0,"so2":7.8,"mosquito_risk":0,"arthritis_risk":5,"migraine_risk":10,"frizz_risk":0,"updated_at":"2026-05-16T17:24:29.883607+05:30"},{"city":"Rajkot","state":"Gujarat","latitude":22.3039,"longitude":70.8022,"temp":39.1,"humidity":17,"rain":0.0,"pressure":988.8,"uv_index":7.75,"wind_gusts":38.5,"aqi":52,"pm10":48.2,"pm2_5":15.7,"no2":1.0,"co":127.0,"o3":108.0,"so2":4.3,"mosquito_risk":0,"arthritis_risk":5,"migraine_risk":10,"frizz_risk":0,"updated_at":"2026-05-16T17:24:29.883613+05:30"},{"city":"Thane","state":"Maharashtra","latitude":19.2183,"longitude":72.9781,"temp":33.7,"humidity":57,"rain":0.0,"pressure":1001.8,"uv_index":7.9,"wind_gusts":44.3,"aqi":60,"pm10":40.4,"pm2_5":16.4,"no2":7.8,"co":164.0,"o3":79.0,"so2":4.5,"mosquito_risk":0,"arthritis_risk":5,"migraine_risk":4,"frizz_risk":1,"updated_at":"2026-05-16T17:24:29.883620+05:30"},{"city":"Nagpur","state":"Maharashtra","latitude":21.1458,"longitude":79.0882,"temp":41.6,"humidity":17,"rain":0.0,"pressure":966.2,"uv_index":8.95,"wind_gusts":38.2,"aqi":154,"pm10":60.8,"pm2_5":31.3,"no2":4.7,"co":183.0,"o3":181.0,"so2":23.7,"mosquito_risk":0,"arthritis_risk":5,"migraine_risk":10,"frizz_risk":0,"updated_at":"2026-05-16T17:24:29.883626+05:30"},{"city":"Nashik","state":"Maharashtra","latitude":19.9975,"longitude":73.7898,"temp":36.2,"humidity":29,"rain":0.0,"pressure":941.0,"uv_index":8.2,"wind_gusts":38.2,"aqi":47,"pm10":31.1,"pm2_5":16.6,"no2":1.4,"co":157.0,"o3":126.0,"so2":4.2,"mosquito_risk":0,"arthritis_risk":5,"migraine_risk":10,"frizz_risk":0,"updated_at":"2026-05-16T17:24:29.883632+05:30"},{"city":"Aurangabad","state":"Maharashtra","latitude":19.8762,"longitude":75.3433,"temp":38.0,"humidity":22,"rain":0.0,"pressure":939.4,"uv_index":9.1,"wind_gusts":37.1,"aqi":54,"pm10":30.4,"pm2_5":16.4,"no2":0.8,"co":168.0,"o3":124.0,"so2":3.4,"mosquito_risk":0,"arthritis_risk":5,"migraine_risk":10,"frizz_risk":0,"updated_at":"2026-05-16T17:24:29.883638+05:30"},{"city":"Solapur","state":"Maharashtra","latitude":17.6599,"longitude":75.9064,"temp":40.6,"humidity":16,"rain":0.0,"pressure":950.9,"uv_index":8.65,"wind_gusts":30.6,"aqi":102,"pm10":27.2,"pm2_5":16.7,"no2":0.0,"co":151.0,"o3":156.0,"so2":5.3,"mosquito_risk":0,"arthritis_risk":5,"migraine_risk":10,"frizz_risk":0,"updated_at":"2026-05-16T17:24:29.883645+05:30"},{"city":"Kolhapur","state":"Maharashtra","latitude":16.705,"longitude":74.2433,"temp":33.3,"humidity":47,"rain":0.0,"pressure":942.8,"uv_index":8.75,"wind_gusts":50.0,"aqi":97,"pm10":34.1,"pm2_5":21.0,"no2":2.8,"co":165.0,"o3":153.0,"so2":5.4,"mosquito_risk":0,"arthritis_risk":5,"migraine_risk":7,"frizz_risk":1,"updated_at":"2026-05-16T17:24:29.883650+05:30"},{"city":"Goa","state":"Goa","latitude":15.2993,"longitude":74.124,"temp":32.4,"humidity":61,"rain":0.0,"pressure":992.1,"uv_index":8.9,"wind_gusts":34.9,"aqi":65,"pm10":23.8,"pm2_5":14.4,"no2":1.1,"co":116.0,"o3":67.0,"so2":1.4,"mosquito_risk":3,"arthritis_risk":5,"migraine_risk":7,"frizz_risk":1,"updated_at":"2026-05-16T17:24:29.883656+05:30"},{"city":"Jodhpur","state":"Rajasthan","latitude":26.2389,"longitude":73.0243,"temp":40.3,"humidity":19,"rain":0.0,"pressure":977.3,"uv_index":8.4,"wind_gusts":31.0,"aqi":122,"pm10":173.2,"pm2_5":32.7,"no2":0.3,"co":132.0,"o3":111.0,"so2":1.8,"mosquito_risk":0,"arthritis_risk":5,"migraine_risk":10,"frizz_risk":0,"updated_at":"2026-05-16T17:24:29.883662+05:30"},{"city":"Udaipur","state":"Rajasthan","latitude":24.5854,"longitude":73.7125,"temp":36.8,"humidity":21,"rain":0.0,"pressure":942.0,"uv_index":8.85,"wind_gusts":32.8,"aqi":50,"pm10":43.9,"pm2_5":14.1,"no2":0.5,"co":129.0,"o3":107.0,"so2":2.5,"mosquito_risk":0,"arthritis_risk":5,"migraine_risk":10,"frizz_risk":0,"updated_at":"2026-05-16T17:24:29.883667+05:30"},{"city":"Kota","state":"Rajasthan","latitude":25.2138,"longitude":75.8648,"temp":41.5,"humidity":15,"rain":0.0,"pressure":972.2,"uv_index":8.45,"wind_gusts":29.5,"aqi":64,"pm10":93.4,"pm2_5":25.7,"no2":0.1,"co":135.0,"o3":134.0,"so2":5.4,"mosquito_risk":0,"arthritis_risk":5,"migraine_risk":10,"frizz_risk":0,"updated_at":"2026-05-16T17:24:29.883673+05:30"},{"city":"Bikaner","state":"Rajasthan","latitude":28.0229,"longitude":73.3119,"temp":40.8,"humidity":13,"rain":0.0,"pressure":976.3,"uv_index":8.4,"wind_gusts":24.8,"aqi":94,"pm10":149.0,"pm2_5":34.8,"no2":0.0,"co":146.0,"o3":117.0,"so2":3.6,"mosquito_risk":0,"arthritis_risk":5,"migraine_risk":10,"frizz_risk":0,"updated_at":"2026-05-16T17:24:29.883678+05:30"},{"city":"Ajmer","state":"Rajasthan","latitude":26.4499,"longitude":74.6399,"temp":37.6,"humidity":19,"rain":0.0,"pressure":950.3,"uv_index":8.4,"wind_gusts":34.2,"aqi":76,"pm10":103.4,"pm2_5":26.0,"no2":0.0,"co":143.0,"o3":122.0,"so2":2.0,"mosquito_risk":0,"arthritis_risk":5,"migraine_risk":10,"frizz_risk":0,"updated_at":"2026-05-16T17:24:29.883684+05:30"},{"city":"Gwalior","state":"Madhya Pradesh","latitude":26.2183,"longitude":78.1828,"temp":39.7,"humidity":16,"rain":0.0,"pressure":977.3,"uv_index":8.25,"wind_gusts":38.2,"aqi":109,"pm10":115.0,"pm2_5":31.3,"no2":0.0,"co":172.0,"o3":130.0,"so2":4.0,"mosquito_risk":0,"arthritis_risk":5,"migraine_risk":10,"frizz_risk":0,"updated_at":"2026-05-16T17:24:29.883690+05:30"},{"city":"Indore","state":"Madhya Pradesh","latitude":22.7196,"longitude":75.8577,"temp":38.0,"humidity":17,"rain":0.0,"pressure":943.6,"uv_index":8.7,"wind_gusts":37.4,"aqi":54,"pm10":23.5,"pm2_5":11.6,"no2":1.2,"co":175.0,"o3":124.0,"so2":2.3,"mosquito_risk":0,"arthritis_risk":5,"migraine_risk":10,"frizz_risk":0,"updated_at":"2026-05-16T17:24:29.883695+05:30"},{"city":"Bhopal","state":"Madhya Pradesh","latitude":23.2599,"longitude":77.4126,"temp":39.7,"humidity":14,"rain":0.0,"pressure":948.3,"uv_index":8.7,"wind_gusts":39.6,"aqi":71,"pm10":32.1,"pm2_5":13.2,"no2":0.4,"co":179.0,"o3":126.0,"so2":3.2,"mosquito_risk":0,"arthritis_risk":5,"migraine_risk":10,"frizz_risk":0,"updated_at":"2026-05-16T17:24:29.883700+05:30"},{"city":"Jabalpur","state":"Madhya Pradesh","latitude":23.1815,"longitude":79.9864,"temp":39.0,"humidity":19,"rain":0.0,"pressure":955.9,"uv_index":8.85,"wind_gusts":34.2,"aqi":120,"pm10":56.5,"pm2_5":25.9,"no2":1.2,"co":173.0,"o3":139.0,"so2":4.1,"mosquito_risk":0,"arthritis_risk":5,"migraine_risk":10,"frizz_risk":0,"updated_at":"2026-05-16T17:24:29.883705+05:30"},{"city":"Ujjain","state":"Madhya Pradesh","latitude":23.1765,"longitude":75.7885,"temp":38.5,"humidity":14,"rain":0.0,"pressure":948.9,"uv_index":8.65,"wind_gusts":38.5,"aqi":48,"pm10":25.5,"pm2_5":11.6,"no2":0.6,"co":139.0,"o3":119.0,"so2":2.0,"mosquito_risk":0,"arthritis_risk":5,"migraine_risk":10,"frizz_risk":0,"updated_at":"2026-05-16T17:24:29.883711+05:30"},{"city":"Visakhapatnam","state":"Andhra Pradesh","latitude":17.6868,"longitude":83.2185,"temp":31.8,"humidity":70,"rain":0.0,"pressure":998.6,"uv_index":9.15,"wind_gusts":40.0,"aqi":64,"pm10":15.5,"pm2_5":11.5,"no2":11.9,"co":274.0,"o3":67.0,"so2":30.7,"mosquito_risk":3,"arthritis_risk":5,"migraine_risk":7,"frizz_risk":1,"updated_at":"2026-05-16T17:24:29.883717+05:30"},{"city":"Vijayawada","state":"Andhra Pradesh","latitude":16.5062,"longitude":80.648,"temp":35.9,"humidity":47,"rain":0.0,"pressure":996.1,"uv_index":8.85,"wind_gusts":33.5,"aqi":60,"pm10":17.4,"pm2_5":11.9,"no2":3.0,"co":175.0,"o3":94.0,"so2":5.6,"mosquito_risk":0,"arthritis_risk":5,"migraine_risk":10,"frizz_risk":1,"updated_at":"2026-05-16T17:24:29.883722+05:30"},{"city":"Guntur","state":"Andhra Pradesh","latitude":16.3067,"longitude":80.4365,"temp":35.0,"humidity":54,"rain":0.0,"pressure":997.3,"uv_index":8.9,"wind_gusts":33.1,"aqi":65,"pm10":20.8,"pm2_5":12.8,"no2":2.2,"co":255.0,"o3":94.0,"so2":3.0,"mosquito_risk":0,"arthritis_risk":5,"migraine_risk":7,"frizz_risk":1,"updated_at":"2026-05-16T17:24:29.883727+05:30"},{"city":"Nellore","state":"Andhra Pradesh","latitude":14.4426,"longitude":79.9865,"temp":32.8,"humidity":63,"rain":0.0,"pressure":999.5,"uv_index":7.65,"wind_gusts":35.6,"aqi":39,"pm10":14.1,"pm2_5":9.6,"no2":2.1,"co":137.0,"o3":109.0,"so2":5.5,"mosquito_risk":3,"arthritis_risk":5,"migraine_risk":7,"frizz_risk":1,"updated_at":"2026-05-16T17:24:29.883734+05:30"},{"city":"Kurnool","state":"Andhra Pradesh","latitude":15.8281,"longitude":78.0373,"temp":34.3,"humidity":49,"rain":0.1,"pressure":971.1,"uv_index":8.25,"wind_gusts":34.9,"aqi":137,"pm10":82.2,"pm2_5":44.5,"no2":1.4,"co":214.0,"o3":137.0,"so2":5.6,"mosquito_risk":3,"arthritis_risk":5,"migraine_risk":7,"frizz_risk":1,"updated_at":"2026-05-16T17:24:29.883740+05:30"},{"city":"Kakinada","state":"Andhra Pradesh","latitude":16.9891,"longitude":82.2475,"temp":33.0,"humidity":64,"rain":0.0,"pressure":1001.9,"uv_index":9.15,"wind_gusts":37.8,"aqi":35,"pm10":12.7,"pm2_5":8.2,"no2":1.3,"co":159.0,"o3":76.0,"so2":1.1,"mosquito_risk":3,"arthritis_risk":5,"migraine_risk":4,"frizz_risk":1,"updated_at":"2026-05-16T17:24:29.883746+05:30"},{"city":"Tirupati","state":"Andhra Pradesh","latitude":13.6288,"longitude":79.4192,"temp":35.0,"humidity":42,"rain":0.0,"pressure":984.4,"uv_index":9.25,"wind_gusts":32.0,"aqi":49,"pm10":18.9,"pm2_5":12.2,"no2":3.1,"co":163.0,"o3":133.0,"so2":8.4,"mosquito_risk":0,"arthritis_risk":5,"migraine_risk":7,"frizz_risk":1,"updated_at":"2026-05-16T17:24:29.883751+05:30"},{"city":"Warangal","state":"Telangana","latitude":17.9689,"longitude":79.5941,"temp":36.9,"humidity":41,"rain":0.0,"pressure":972.5,"uv_index":9.1,"wind_gusts":33.8,"aqi":125,"pm10":56.8,"pm2_5":36.7,"no2":2.2,"co":218.0,"o3":126.0,"so2":6.2,"mosquito_risk":0,"arthritis_risk":5,"migraine_risk":10,"frizz_risk":1,"updated_at":"2026-05-16T17:24:29.883756+05:30"},{"city":"Nizamabad","state":"Telangana","latitude":18.6725,"longitude":78.0941,"temp":38.9,"humidity":20,"rain":0.0,"pressure":958.5,"uv_index":9.0,"wind_gusts":30.6,"aqi":107,"pm10":29.5,"pm2_5":15.2,"no2":0.0,"co":163.0,"o3":148.0,"so2":4.3,"mosquito_risk":0,"arthritis_risk":5,"migraine_risk":10,"frizz_risk":0,"updated_at":"2026-05-16T17:24:29.883761+05:30"},{"city":"Mysore","state":"Karnataka","latitude":12.2958,"longitude":76.6396,"temp":27.0,"humidity":64,"rain":0.0,"pressure":923.9,"uv_index":8.0,"wind_gusts":33.8,"aqi":107,"pm10":82.0,"pm2_5":48.8,"no2":7.0,"co":313.0,"o3":139.0,"so2":6.1,"mosquito_risk":7,"arthritis_risk":5,"migraine_risk":7,"frizz_risk":1,"updated_at":"2026-05-16T17:24:29.883766+05:30"},{"city":"Mangalore","state":"Karnataka","latitude":12.9141,"longitude":74.856,"temp":27.4,"humidity":94,"rain":0.4,"pressure":1001.8,"uv_index":7.7,"wind_gusts":35.6,"aqi":61,"pm10":26.1,"pm2_5":17.1,"no2":1.7,"co":224.0,"o3":77.0,"so2":1.4,"mosquito_risk":10,"arthritis_risk":5,"migraine_risk":4,"frizz_risk":1,"updated_at":"2026-05-16T17:24:29.883772+05:30"},{"city":"Hubli-Dharwad","state":"Karnataka","latitude":15.3647,"longitude":75.124,"temp":29.4,"humidity":62,"rain":0.1,"pressure":935.6,"uv_index":8.2,"wind_gusts":42.8,"aqi":102,"pm10":36.1,"pm2_5":23.6,"no2":3.3,"co":229.0,"o3":160.0,"so2":4.6,"mosquito_risk":10,"arthritis_risk":5,"migraine_risk":7,"frizz_risk":1,"updated_at":"2026-05-16T17:24:29.883777+05:30"},{"city":"Belgaum","state":"Karnataka","latitude":15.8497,"longitude":74.4977,"temp":30.4,"humidity":52,"rain":0.0,"pressure":921.3,"uv_index":9.2,"wind_gusts":45.0,"aqi":85,"pm10":35.6,"pm2_5":21.2,"no2":2.7,"co":178.0,"o3":138.0,"so2":4.6,"mosquito_risk":0,"arthritis_risk":5,"migraine_risk":7,"frizz_risk":1,"updated_at":"2026-05-16T17:24:33.249167+05:30"},{"city":"Coimbatore","state":"Tamil Nadu","latitude":11.0168,"longitude":76.9558,"temp":30.2,"humidity":58,"rain":0.0,"pressure":956.4,"uv_index":9.05,"wind_gusts":40.7,"aqi":90,"pm10":69.4,"pm2_5":35.5,"no2":3.5,"co":280.0,"o3":130.0,"so2":5.0,"mosquito_risk":0,"arthritis_risk":5,"migraine_risk":7,"frizz_risk":1,"updated_at":"2026-05-16T17:24:33.249199+05:30"},{"city":"Madurai","state":"Tamil Nadu","latitude":9.9252,"longitude":78.1198,"temp":32.7,"humidity":49,"rain":0.0,"pressure":986.9,"uv_index":8.75,"wind_gusts":33.5,"aqi":95,"pm10":41.3,"pm2_5":21.3,"no2":12.8,"co":293.0,"o3":111.0,"so2":3.9,"mosquito_risk":0,"arthritis_risk":5,"migraine_risk":7,"frizz_risk":1,"updated_at":"2026-05-16T17:24:33.249208+05:30"},{"city":"Trichy","state":"Tamil Nadu","latitude":10.7905,"longitude":78.7047,"temp":31.4,"humidity":68,"rain":0.0,"pressure":993.4,"uv_index":2.7,"wind_gusts":27.4,"aqi":90,"pm10":39.8,"pm2_5":23.3,"no2":8.1,"co":306.0,"o3":121.0,"so2":5.1,"mosquito_risk":3,"arthritis_risk":5,"migraine_risk":3,"frizz_risk":1,"updated_at":"2026-05-16T17:24:33.249215+05:30"},{"city":"Salem","state":"Tamil Nadu","latitude":11.6643,"longitude":78.146,"temp":32.7,"humidity":49,"rain":0.0,"pressure":971.0,"uv_index":8.95,"wind_gusts":27.0,"aqi":134,"pm10":76.6,"pm2_5":42.0,"no2":9.8,"co":350.0,"o3":146.0,"so2":22.1,"mosquito_risk":0,"arthritis_risk":5,"migraine_risk":7,"frizz_risk":1,"updated_at":"2026-05-16T17:24:33.249221+05:30"},{"city":"Tirunelveli","state":"Tamil Nadu","latitude":8.7139,"longitude":77.7567,"temp":32.8,"humidity":50,"rain":0.0,"pressure":996.8,"uv_index":8.3,"wind_gusts":31.3,"aqi":58,"pm10":24.0,"pm2_5":13.6,"no2":3.6,"co":269.0,"o3":110.0,"so2":1.3,"mosquito_risk":0,"arthritis_risk":5,"migraine_risk":7,"frizz_risk":1,"updated_at":"2026-05-16T17:24:33.249228+05:30"},{"city":"Vellore","state":"Tamil Nadu","latitude":12.9165,"longitude":79.1325,"temp":33.6,"humidity":46,"rain":0.0,"pressure":978.0,"uv_index":9.25,"wind_gusts":35.6,"aqi":86,"pm10":26.1,"pm2_5":13.0,"no2":4.0,"co":201.0,"o3":103.0,"so2":4.3,"mosquito_risk":0,"arthritis_risk":5,"migraine_risk":7,"frizz_risk":1,"updated_at":"2026-05-16T17:24:33.249234+05:30"},{"city":"Erode","state":"Tamil Nadu","latitude":11.341,"longitude":77.7172,"temp":33.8,"humidity":43,"rain":0.0,"pressure":982.5,"uv_index":6.85,"wind_gusts":24.5,"aqi":104,"pm10":79.4,"pm2_5":40.9,"no2":5.4,"co":346.0,"o3":145.0,"so2":5.4,"mosquito_risk":0,"arthritis_risk":5,"migraine_risk":7,"frizz_risk":1,"updated_at":"2026-05-16T17:24:33.249240+05:30"},{"city":"Kochi","state":"Kerala","latitude":9.9312,"longitude":76.2673,"temp":26.9,"humidity":89,"rain":0.3,"pressure":1003.9,"uv_index":7.3,"wind_gusts":31.3,"aqi":66,"pm10":25.6,"pm2_5":16.5,"no2":6.2,"co":242.0,"o3":112.0,"so2":4.6,"mosquito_risk":10,"arthritis_risk":5,"migraine_risk":4,"frizz_risk":1,"updated_at":"2026-05-16T17:24:33.249247+05:30"},{"city":"Thiruvananthapuram","state":"Kerala","latitude":8.5241,"longitude":76.9366,"temp":26.8,"humidity":85,"rain":0.1,"pressure":1003.2,"uv_index":7.25,"wind_gusts":32.0,"aqi":52,"pm10":14.3,"pm2_5":7.9,"no2":1.9,"co":213.0,"o3":104.0,"so2":0.8,"mosquito_risk":10,"arthritis_risk":5,"migraine_risk":4,"frizz_risk":1,"updated_at":"2026-05-16T17:24:33.249253+05:30"},{"city":"Kozhikode","state":"Kerala","latitude":11.2588,"longitude":75.7804,"temp":27.6,"humidity":84,"rain":0.1,"pressure":1002.9,"uv_index":8.3,"wind_gusts":44.3,"aqi":65,"pm10":15.9,"pm2_5":10.6,"no2":1.5,"co":193.0,"o3":109.0,"so2":1.7,"mosquito_risk":10,"arthritis_risk":5,"migraine_risk":4,"frizz_risk":1,"updated_at":"2026-05-16T17:24:33.249258+05:30"},{"city":"Thrissur","state":"Kerala","latitude":10.5276,"longitude":76.2144,"temp":27.6,"humidity":81,"rain":0.0,"pressure":1002.0,"uv_index":8.7,"wind_gusts":37.1,"aqi":71,"pm10":33.3,"pm2_5":21.0,"no2":6.5,"co":217.0,"o3":113.0,"so2":3.4,"mosquito_risk":7,"arthritis_risk":5,"migraine_risk":4,"frizz_risk":1,"updated_at":"2026-05-16T17:24:33.249265+05:30"},{"city":"Kannur","state":"Kerala","latitude":11.8745,"longitude":75.3704,"temp":25.5,"humidity":97,"rain":0.0,"pressure":1002.6,"uv_index":8.7,"wind_gusts":36.4,"aqi":67,"pm10":20.7,"pm2_5":15.0,"no2":3.1,"co":184.0,"o3":92.0,"so2":1.6,"mosquito_risk":7,"arthritis_risk":5,"migraine_risk":4,"frizz_risk":1,"updated_at":"2026-05-16T17:24:33.249272+05:30"},{"city":"Patna","state":"Bihar","latitude":25.5941,"longitude":85.1376,"temp":35.5,"humidity":48,"rain":0.0,"pressure":993.2,"uv_index":8.8,"wind_gusts":22.7,"aqi":161,"pm10":95.7,"pm2_5":46.6,"no2":8.1,"co":401.0,"o3":152.0,"so2":8.7,"mosquito_risk":0,"arthritis_risk":5,"migraine_risk":10,"frizz_risk":1,"updated_at":"2026-05-16T17:24:33.249277+05:30"},{"city":"Gaya","state":"Bihar","latitude":24.7914,"longitude":85.0002,"temp":36.7,"humidity":38,"rain":0.0,"pressure":986.5,"uv_index":8.85,"wind_gusts":29.2,"aqi":155,"pm10":102.0,"pm2_5":36.4,"no2":3.5,"co":303.0,"o3":138.0,"so2":6.2,"mosquito_risk":0,"arthritis_risk":5,"migraine_risk":10,"frizz_risk":1,"updated_at":"2026-05-16T17:24:33.249283+05:30"},{"city":"Muzaffarpur","state":"Bihar","latitude":26.1209,"longitude":85.3647,"temp":33.5,"humidity":63,"rain":0.0,"pressure":993.5,"uv_index":8.8,"wind_gusts":33.5,"aqi":159,"pm10":83.1,"pm2_5":51.2,"no2":11.5,"co":438.0,"o3":146.0,"so2":10.0,"mosquito_risk":3,"arthritis_risk":5,"migraine_risk":7,"frizz_risk":1,"updated_at":"2026-05-16T17:24:33.249288+05:30"},{"city":"Bhagalpur","state":"Bihar","latitude":25.2425,"longitude":87.0117,"temp":32.8,"humidity":61,"rain":0.0,"pressure":994.2,"uv_index":8.8,"wind_gusts":29.9,"aqi":172,"pm10":76.6,"pm2_5":52.7,"no2":6.7,"co":354.0,"o3":187.0,"so2":18.6,"mosquito_risk":3,"arthritis_risk":5,"migraine_risk":7,"frizz_risk":1,"updated_at":"2026-05-16T17:24:33.249293+05:30"},{"city":"Ranchi","state":"Jharkhand","latitude":23.3441,"longitude":85.3096,"temp":32.1,"humidity":38,"rain":0.0,"pressure":933.0,"uv_index":9.3,"wind_gusts":32.8,"aqi":146,"pm10":57.0,"pm2_5":26.4,"no2":3.8,"co":300.0,"o3":126.0,"so2":7.0,"mosquito_risk":0,"arthritis_risk":5,"migraine_risk":7,"frizz_risk":1,"updated_at":"2026-05-16T17:24:33.249299+05:30"},{"city":"Jamshedpur","state":"Jharkhand","latitude":22.8046,"longitude":86.2029,"temp":35.4,"humidity":41,"rain":0.0,"pressure":983.8,"uv_index":9.15,"wind_gusts":27.0,"aqi":155,"pm10":80.1,"pm2_5":50.8,"no2":10.7,"co":331.0,"o3":155.0,"so2":18.4,"mosquito_risk":0,"arthritis_risk":5,"migraine_risk":10,"frizz_risk":1,"updated_at":"2026-05-16T17:24:33.249304+05:30"},{"city":"Dhanbad","state":"Jharkhand","latitude":23.7957,"longitude":86.4304,"temp":35.5,"humidity":46,"rain":0.0,"pressure":973.0,"uv_index":9.05,"wind_gusts":25.9,"aqi":170,"pm10":77.1,"pm2_5":41.0,"no2":22.0,"co":350.0,"o3":127.0,"so2":70.9,"mosquito_risk":0,"arthritis_risk":5,"migraine_risk":10,"frizz_risk":1,"updated_at":"2026-05-16T17:24:33.249310+05:30"},{"city":"Bokaro","state":"Jharkhand","latitude":23.6693,"longitude":86.1511,"temp":34.7,"humidity":55,"rain":0.0,"pressure":976.8,"uv_index":9.1,"wind_gusts":25.9,"aqi":164,"pm10":77.5,"pm2_5":38.2,"no2":16.8,"co":357.0,"o3":131.0,"so2":74.9,"mosquito_risk":0,"arthritis_risk":5,"migraine_risk":7,"frizz_risk":1,"updated_at":"2026-05-16T17:24:33.249315+05:30"},{"city":"Bhubaneswar","state":"Odisha","latitude":20.2961,"longitude":85.8245,"temp":31.8,"humidity":68,"rain":0.0,"pressure":997.0,"uv_index":9.2,"wind_gusts":47.2,"aqi":46,"pm10":19.7,"pm2_5":9.9,"no2":2.8,"co":169.0,"o3":62.0,"so2":2.2,"mosquito_risk":3,"arthritis_risk":5,"migraine_risk":7,"frizz_risk":1,"updated_at":"2026-05-16T17:24:33.249321+05:30"},{"city":"Cuttack","state":"Odisha","latitude":20.4625,"longitude":85.8828,"temp":32.4,"humidity":65,"rain":0.0,"pressure":998.6,"uv_index":9.25,"wind_gusts":45.4,"aqi":46,"pm10":19.7,"pm2_5":9.9,"no2":2.8,"co":184.0,"o3":62.0,"so2":2.2,"mosquito_risk":3,"arthritis_risk":5,"migraine_risk":7,"frizz_risk":1,"updated_at":"2026-05-16T17:24:33.249326+05:30"},{"city":"Rourkela","state":"Odisha","latitude":22.2604,"longitude":84.8536,"temp":34.2,"humidity":48,"rain":0.0,"pressure":978.8,"uv_index":8.55,"wind_gusts":38.2,"aqi":157,"pm10":77.5,"pm2_5":50.5,"no2":7.3,"co":352.0,"o3":169.0,"so2":13.3,"mosquito_risk":0,"arthritis_risk":5,"migraine_risk":7,"frizz_risk":1,"updated_at":"2026-05-16T17:24:33.249331+05:30"},{"city":"Raipur","state":"Chhattisgarh","latitude":21.2514,"longitude":81.6296,"temp":39.5,"humidity":26,"rain":0.0,"pressure":968.4,"uv_index":9.05,"wind_gusts":30.2,"aqi":162,"pm10":105.9,"pm2_5":69.6,"no2":9.6,"co":286.0,"o3":195.0,"so2":36.9,"mosquito_risk":0,"arthritis_risk":5,"migraine_risk":10,"frizz_risk":1,"updated_at":"2026-05-16T17:24:33.249337+05:30"},{"city":"Bhilai","state":"Chhattisgarh","latitude":21.1938,"longitude":81.3509,"temp":38.7,"humidity":29,"rain":0.0,"pressure":968.7,"uv_index":9.05,"wind_gusts":28.4,"aqi":157,"pm10":97.8,"pm2_5":61.7,"no2":10.1,"co":564.0,"o3":168.0,"so2":35.5,"mosquito_risk":0,"arthritis_risk":5,"migraine_risk":10,"frizz_risk":1,"updated_at":"2026-05-16T17:24:33.249342+05:30"},{"city":"Guwahati","state":"Assam","latitude":26.1158,"longitude":91.7086,"temp":24.5,"humidity":95,"rain":0.0,"pressure":996.4,"uv_index":6.9,"wind_gusts":26.3,"aqi":78,"pm10":18.9,"pm2_5":14.3,"no2":2.8,"co":322.0,"o3":114.0,"so2":3.2,"mosquito_risk":3,"arthritis_risk":5,"migraine_risk":7,"frizz_risk":1,"updated_at":"2026-05-16T17:24:33.249348+05:30"},{"city":"Agartala","state":"Tripura","latitude":23.8315,"longitude":91.2868,"temp":30.4,"humidity":84,"rain":0.0,"pressure":1000.2,"uv_index":6.8,"wind_gusts":28.4,"aqi":70,"pm10":32.1,"pm2_5":22.4,"no2":7.7,"co":196.0,"o3":104.0,"so2":3.5,"mosquito_risk":3,"arthritis_risk":5,"migraine_risk":4,"frizz_risk":1,"updated_at":"2026-05-16T17:24:33.249354+05:30"},{"city":"Shillong","state":"Meghalaya","latitude":25.5788,"longitude":91.8933,"temp":21.6,"humidity":74,"rain":0.0,"pressure":853.6,"uv_index":8.1,"wind_gusts":40.3,"aqi":62,"pm10":20.4,"pm2_5":13.8,"no2":2.8,"co":275.0,"o3":113.0,"so2":3.6,"mosquito_risk":3,"arthritis_risk":5,"migraine_risk":7,"frizz_risk":1,"updated_at":"2026-05-16T17:24:33.249358+05:30"},{"city":"Imphal","state":"Manipur","latitude":24.817,"longitude":93.9368,"temp":25.2,"humidity":71,"rain":0.0,"pressure":919.1,"uv_index":8.75,"wind_gusts":32.4,"aqi":83,"pm10":24.8,"pm2_5":13.7,"no2":1.8,"co":215.0,"o3":92.0,"so2":2.5,"mosquito_risk":7,"arthritis_risk":5,"migraine_risk":7,"frizz_risk":1,"updated_at":"2026-05-16T17:24:33.249364+05:30"},{"city":"Aizawl","state":"Mizoram","latitude":23.7271,"longitude":92.7176,"temp":22.5,"humidity":90,"rain":0.1,"pressure":888.7,"uv_index":9.15,"wind_gusts":31.3,"aqi":57,"pm10":31.8,"pm2_5":16.5,"no2":2.7,"co":166.0,"o3":92.0,"so2":2.8,"mosquito_risk":6,"arthritis_risk":5,"migraine_risk":7,"frizz_risk":1,"updated_at":"2026-05-16T17:24:33.249370+05:30"},{"city":"Kohima","state":"Nagaland","latitude":25.6701,"longitude":94.1077,"temp":19.9,"humidity":98,"rain":0.1,"pressure":851.8,"uv_index":9.2,"wind_gusts":26.3,"aqi":57,"pm10":25.9,"pm2_5":14.1,"no2":3.3,"co":221.0,"o3":86.0,"so2":2.2,"mosquito_risk":6,"arthritis_risk":10,"migraine_risk":7,"frizz_risk":1,"updated_at":"2026-05-16T17:24:33.249376+05:30"},{"city":"Gangtok","state":"Sikkim","latitude":27.3314,"longitude":88.6138,"temp":17.3,"humidity":95,"rain":0.0,"pressure":833.1,"uv_index":9.1,"wind_gusts":36.0,"aqi":99,"pm10":12.3,"pm2_5":10.2,"no2":4.6,"co":316.0,"o3":121.0,"so2":1.5,"mosquito_risk":3,"arthritis_risk":10,"migraine_risk":7,"frizz_risk":1,"updated_at":"2026-05-16T17:24:33.249381+05:30"},{"city":"Siliguri","state":"West Bengal","latitude":26.7271,"longitude":88.3953,"temp":26.4,"humidity":83,"rain":0.0,"pressure":987.0,"uv_index":8.65,"wind_gusts":23.8,"aqi":116,"pm10":27.5,"pm2_5":20.1,"no2":5.2,"co":546.0,"o3":131.0,"so2":3.8,"mosquito_risk":7,"arthritis_risk":5,"migraine_risk":7,"frizz_risk":1,"updated_at":"2026-05-16T17:24:36.614723+05:30"},{"city":"Durgapur","state":"West Bengal","latitude":23.5204,"longitude":87.3119,"temp":35.2,"humidity":53,"rain":0.0,"pressure":987.8,"uv_index":9.05,"wind_gusts":33.8,"aqi":195,"pm10":118.7,"pm2_5":78.0,"no2":24.8,"co":646.0,"o3":185.0,"so2":44.0,"mosquito_risk":0,"arthritis_risk":5,"migraine_risk":10,"frizz_risk":1,"updated_at":"2026-05-16T17:24:36.614756+05:30"},{"city":"Asansol","state":"West Bengal","latitude":23.6739,"longitude":86.9524,"temp":35.9,"humidity":42,"rain":0.0,"pressure":986.2,"uv_index":9.05,"wind_gusts":31.7,"aqi":180,"pm10":91.7,"pm2_5":56.7,"no2":21.8,"co":564.0,"o3":147.0,"so2":27.9,"mosquito_risk":0,"arthritis_risk":5,"migraine_risk":10,"frizz_risk":1,"updated_at":"2026-05-16T17:24:36.614765+05:30"},{"city":"Pondicherry","state":"Puducherry","latitude":11.9139,"longitude":79.8145,"temp":29.4,"humidity":79,"rain":0.0,"pressure":1002.3,"uv_index":9.05,"wind_gusts":41.8,"aqi":74,"pm10":13.0,"pm2_5":10.3,"no2":2.7,"co":234.0,"o3":111.0,"so2":4.7,"mosquito_risk":7,"arthritis_risk":5,"migraine_risk":4,"frizz_risk":1,"updated_at":"2026-05-16T17:24:36.614772+05:30"},{"city":"Port Blair","state":"Andaman and Nicobar Islands","latitude":11.6234,"longitude":92.7265,"temp":29.0,"humidity":79,"rain":0.0,"pressure":1003.7,"uv_index":5.6,"wind_gusts":41.0,"aqi":27,"pm10":10.4,"pm2_5":6.4,"no2":0.6,"co":132.0,"o3":57.0,"so2":0.2,"mosquito_risk":7,"arthritis_risk":5,"migraine_risk":0,"frizz_risk":1,"updated_at":"2026-05-16T17:24:36.614779+05:30"},{"city":"Haridwar","state":"Uttarakhand","latitude":29.9457,"longitude":78.1642,"temp":34.0,"humidity":34,"rain":0.0,"pressure":968.7,"uv_index":7.5,"wind_gusts":32.4,"aqi":135,"pm10":58.9,"pm2_5":31.1,"no2":2.6,"co":228.0,"o3":160.0,"so2":9.9,"mosquito_risk":0,"arthritis_risk":5,"migraine_risk":7,"frizz_risk":0,"updated_at":"2026-05-16T17:24:36.614786+05:30"},{"city":"Rishikesh","state":"Uttarakhand","latitude":30.0869,"longitude":78.2676,"temp":33.3,"humidity":39,"rain":0.0,"pressure":961.7,"uv_index":7.6,"wind_gusts":28.1,"aqi":106,"pm10":40.5,"pm2_5":24.1,"no2":0.7,"co":201.0,"o3":158.0,"so2":6.6,"mosquito_risk":0,"arthritis_risk":5,"migraine_risk":7,"frizz_risk":1,"updated_at":"2026-05-16T17:24:36.614792+05:30"},{"city":"Nainital","state":"Uttarakhand","latitude":29.3919,"longitude":79.4542,"temp":21.5,"humidity":38,"rain":0.0,"pressure":804.9,"uv_index":8.45,"wind_gusts":47.2,"aqi":123,"pm10":49.5,"pm2_5":24.4,"no2":1.5,"co":199.0,"o3":146.0,"so2":5.8,"mosquito_risk":0,"arthritis_risk":5,"migraine_risk":7,"frizz_risk":0,"updated_at":"2026-05-16T17:24:36.614798+05:30"},{"city":"Mussoorie","state":"Uttarakhand","latitude":30.4599,"longitude":78.0664,"temp":20.2,"humidity":51,"rain":0.0,"pressure":802.6,"uv_index":8.0,"wind_gusts":46.8,"aqi":120,"pm10":45.8,"pm2_5":27.4,"no2":1.4,"co":180.0,"o3":160.0,"so2":7.3,"mosquito_risk":0,"arthritis_risk":5,"migraine_risk":7,"frizz_risk":0,"updated_at":"2026-05-16T17:24:36.614804+05:30"},{"city":"Dharamshala","state":"Himachal Pradesh","latitude":32.219,"longitude":76.3234,"temp":24.5,"humidity":44,"rain":0.0,"pressure":867.8,"uv_index":8.35,"wind_gusts":35.6,"aqi":83,"pm10":31.2,"pm2_5":12.4,"no2":0.0,"co":176.0,"o3":131.0,"so2":0.9,"mosquito_risk":0,"arthritis_risk":5,"migraine_risk":7,"frizz_risk":0,"updated_at":"2026-05-16T17:24:36.614810+05:30"},{"city":"Dalhousie","state":"Himachal Pradesh","latitude":32.5387,"longitude":75.971,"temp":20.4,"humidity":45,"rain":0.0,"pressure":804.9,"uv_index":8.6,"wind_gusts":40.3,"aqi":103,"pm10":39.0,"pm2_5":16.9,"no2":0.3,"co":149.0,"o3":150.0,"so2":1.7,"mosquito_risk":0,"arthritis_risk":5,"migraine_risk":7,"frizz_risk":0,"updated_at":"2026-05-16T17:24:36.614816+05:30"},{"city":"Patiala","state":"Punjab","latitude":30.3398,"longitude":76.3869,"temp":36.2,"humidity":23,"rain":0.0,"pressure":973.5,"uv_index":7.6,"wind_gusts":43.9,"aqi":243,"pm10":735.7,"pm2_5":88.9,"no2":1.5,"co":227.0,"o3":142.0,"so2":4.5,"mosquito_risk":0,"arthritis_risk":5,"migraine_risk":10,"frizz_risk":0,"updated_at":"2026-05-16T17:24:36.614822+05:30"},{"city":"Bhatinda","state":"Punjab","latitude":30.211,"longitude":74.9455,"temp":37.7,"humidity":23,"rain":0.0,"pressure":978.8,"uv_index":8.25,"wind_gusts":29.9,"aqi":108,"pm10":82.4,"pm2_5":27.2,"no2":1.6,"co":242.0,"o3":136.0,"so2":6.6,"mosquito_risk":0,"arthritis_risk":5,"migraine_risk":10,"frizz_risk":0,"updated_at":"2026-05-16T17:24:36.614828+05:30"},{"city":"Rohtak","state":"Haryana","latitude":28.8955,"longitude":76.6066,"temp":37.3,"humidity":24,"rain":0.0,"pressure":976.7,"uv_index":7.75,"wind_gusts":34.9,"aqi":549,"pm10":907.1,"pm2_5":113.6,"no2":4.1,"co":257.0,"o3":124.0,"so2":4.6,"mosquito_risk":0,"arthritis_risk":5,"migraine_risk":10,"frizz_risk":0,"updated_at":"2026-05-16T17:24:36.614834+05:30"},{"city":"Panipat","state":"Haryana","latitude":29.3909,"longitude":76.9635,"temp":36.8,"humidity":24,"rain":0.0,"pressure":975.2,"uv_index":7.55,"wind_gusts":37.8,"aqi":1003,"pm10":2138.3,"pm2_5":236.6,"no2":3.5,"co":223.0,"o3":122.0,"so2":7.0,"mosquito_risk":0,"arthritis_risk":5,"migraine_risk":10,"frizz_risk":0,"updated_at":"2026-05-16T17:24:36.614839+05:30"},{"city":"Mathura","state":"Uttar Pradesh","latitude":27.4924,"longitude":77.6737,"temp":38.5,"humidity":21,"rain":0.0,"pressure":981.1,"uv_index":8.0,"wind_gusts":34.2,"aqi":467,"pm10":564.4,"pm2_5":78.9,"no2":4.0,"co":248.0,"o3":131.0,"so2":4.2,"mosquito_risk":0,"arthritis_risk":5,"migraine_risk":10,"frizz_risk":0,"updated_at":"2026-05-16T17:24:36.614845+05:30"},{"city":"Vrindavan","state":"Uttar Pradesh","latitude":27.5823,"longitude":77.7027,"temp":38.0,"humidity":23,"rain":0.0,"pressure":981.5,"uv_index":7.95,"wind_gusts":33.1,"aqi":467,"pm10":564.4,"pm2_5":78.9,"no2":4.0,"co":270.0,"o3":131.0,"so2":4.2,"mosquito_risk":0,"arthritis_risk":5,"migraine_risk":10,"frizz_risk":0,"updated_at":"2026-05-16T17:24:36.614850+05:30"},{"city":"Ayodhya","state":"Uttar Pradesh","latitude":26.7922,"longitude":82.1998,"temp":36.3,"humidity":35,"rain":0.0,"pressure":988.2,"uv_index":8.35,"wind_gusts":31.3,"aqi":159,"pm10":169.0,"pm2_5":53.0,"no2":2.3,"co":290.0,"o3":157.0,"so2":11.9,"mosquito_risk":0,"arthritis_risk":5,"migraine_risk":10,"frizz_risk":1,"updated_at":"2026-05-16T17:24:36.614856+05:30"},{"city":"Ratlam","state":"Madhya Pradesh","latitude":23.3315,"longitude":75.0367,"temp":36.8,"humidity":23,"rain":0.0,"pressure":950.4,"uv_index":8.55,"wind_gusts":33.5,"aqi":49,"pm10":30.3,"pm2_5":12.8,"no2":0.4,"co":131.0,"o3":114.0,"so2":1.8,"mosquito_risk":0,"arthritis_risk":5,"migraine_risk":10,"frizz_risk":0,"updated_at":"2026-05-16T17:24:36.614862+05:30"},{"city":"Sagar","state":"Madhya Pradesh","latitude":23.8388,"longitude":78.7378,"temp":39.0,"humidity":15,"rain":0.0,"pressure":945.1,"uv_index":8.75,"wind_gusts":34.9,"aqi":95,"pm10":36.3,"pm2_5":15.5,"no2":0.2,"co":178.0,"o3":133.0,"so2":3.5,"mosquito_risk":0,"arthritis_risk":5,"migraine_risk":10,"frizz_risk":0,"updated_at":"2026-05-16T17:24:36.614867+05:30"},{"city":"Satna","state":"Madhya Pradesh","latitude":24.6005,"longitude":80.8322,"temp":38.6,"humidity":21,"rain":0.0,"pressure":965.7,"uv_index":8.75,"wind_gusts":34.9,"aqi":121,"pm10":71.5,"pm2_5":30.0,"no2":0.6,"co":190.0,"o3":131.0,"so2":5.3,"mosquito_risk":0,"arthritis_risk":5,"migraine_risk":10,"frizz_risk":0,"updated_at":"2026-05-16T17:24:36.614872+05:30"},{"city":"Akola","state":"Maharashtra","latitude":20.7002,"longitude":77.0082,"temp":41.5,"humidity":16,"rain":0.0,"pressure":968.4,"uv_index":8.15,"wind_gusts":42.1,"aqi":86,"pm10":23.2,"pm2_5":12.9,"no2":1.5,"co":165.0,"o3":136.0,"so2":5.1,"mosquito_risk":0,"arthritis_risk":5,"migraine_risk":10,"frizz_risk":0,"updated_at":"2026-05-16T17:24:36.614878+05:30"},{"city":"Amravati","state":"Maharashtra","latitude":20.9374,"longitude":77.7796,"temp":42.5,"humidity":12,"rain":0.0,"pressure":960.2,"uv_index":8.9,"wind_gusts":36.7,"aqi":93,"pm10":26.1,"pm2_5":12.7,"no2":1.1,"co":163.0,"o3":141.0,"so2":6.6,"mosquito_risk":0,"arthritis_risk":5,"migraine_risk":10,"frizz_risk":0,"updated_at":"2026-05-16T17:24:36.614885+05:30"},{"city":"Latur","state":"Maharashtra","latitude":18.4088,"longitude":76.5604,"temp":38.7,"humidity":18,"rain":0.0,"pressure":934.7,"uv_index":8.7,"wind_gusts":38.2,"aqi":104,"pm10":24.7,"pm2_5":15.3,"no2":1.0,"co":161.0,"o3":154.0,"so2":6.6,"mosquito_risk":0,"arthritis_risk":5,"migraine_risk":10,"frizz_risk":0,"updated_at":"2026-05-16T17:24:36.614890+05:30"},{"city":"Nanded","state":"Maharashtra","latitude":19.1383,"longitude":77.3091,"temp":40.2,"humidity":16,"rain":0.0,"pressure":962.1,"uv_index":8.4,"wind_gusts":30.6,"aqi":116,"pm10":26.8,"pm2_5":14.1,"no2":0.0,"co":141.0,"o3":146.0,"so2":4.6,"mosquito_risk":0,"arthritis_risk":5,"migraine_risk":10,"frizz_risk":0,"updated_at":"2026-05-16T17:24:36.614895+05:30"},{"city":"Gulbarga","state":"Karnataka","latitude":17.3297,"longitude":76.8343,"temp":38.9,"humidity":19,"rain":0.0,"pressure":952.9,"uv_index":8.2,"wind_gusts":37.4,"aqi":117,"pm10":24.7,"pm2_5":15.2,"no2":1.3,"co":173.0,"o3":156.0,"so2":5.6,"mosquito_risk":0,"arthritis_risk":5,"migraine_risk":10,"frizz_risk":0,"updated_at":"2026-05-16T17:24:36.614900+05:30"},{"city":"Bidar","state":"Karnataka","latitude":17.9104,"longitude":77.5199,"temp":37.1,"humidity":22,"rain":0.0,"pressure":930.8,"uv_index":9.1,"wind_gusts":31.7,"aqi":113,"pm10":23.9,"pm2_5":15.0,"no2":0.0,"co":186.0,"o3":155.0,"so2":5.0,"mosquito_risk":0,"arthritis_risk":5,"migraine_risk":10,"frizz_risk":0,"updated_at":"2026-05-16T17:24:36.614905+05:30"},{"city":"Hospet","state":"Karnataka","latitude":15.2689,"longitude":76.3909,"temp":32.2,"humidity":47,"rain":0.1,"pressure":950.4,"uv_index":8.0,"wind_gusts":38.2,"aqi":139,"pm10":68.9,"pm2_5":44.8,"no2":7.7,"co":273.0,"o3":175.0,"so2":15.5,"mosquito_risk":3,"arthritis_risk":5,"migraine_risk":7,"frizz_risk":1,"updated_at":"2026-05-16T17:24:36.614910+05:30"},{"city":"Tirupur","state":"Tamil Nadu","latitude":11.1085,"longitude":77.3411,"temp":33.0,"humidity":46,"rain":0.0,"pressure":969.2,"uv_index":6.85,"wind_gusts":34.2,"aqi":102,"pm10":80.6,"pm2_5":40.9,"no2":4.4,"co":277.0,"o3":143.0,"so2":5.7,"mosquito_risk":0,"arthritis_risk":5,"migraine_risk":7,"frizz_risk":1,"updated_at":"2026-05-16T17:24:36.614914+05:30"},{"city":"Alappuzha","state":"Kerala","latitude":9.4981,"longitude":76.3388,"temp":25.8,"humidity":95,"rain":0.3,"pressure":1004.2,"uv_index":8.55,"wind_gusts":30.6,"aqi":60,"pm10":18.7,"pm2_5":11.6,"no2":3.8,"co":164.0,"o3":111.0,"so2":2.7,"mosquito_risk":10,"arthritis_risk":5,"migraine_risk":4,"frizz_risk":1,"updated_at":"2026-05-16T17:24:36.614919+05:30"},{"city":"Munnar","state":"Kerala","latitude":10.0889,"longitude":77.0595,"temp":19.4,"humidity":92,"rain":0.0,"pressure":853.0,"uv_index":4.6,"wind_gusts":28.8,"aqi":64,"pm10":51.5,"pm2_5":25.4,"no2":7.4,"co":200.0,"o3":89.0,"so2":2.2,"mosquito_risk":3,"arthritis_risk":10,"migraine_risk":3,"frizz_risk":1,"updated_at":"2026-05-16T17:24:36.614925+05:30"},{"city":"Silchar","state":"Assam","latitude":24.8333,"longitude":92.7789,"temp":28.8,"humidity":79,"rain":0.0,"pressure":999.7,"uv_index":8.75,"wind_gusts":31.0,"aqi":73,"pm10":24.8,"pm2_5":13.8,"no2":3.4,"co":237.0,"o3":94.0,"so2":3.7,"mosquito_risk":7,"arthritis_risk":5,"migraine_risk":7,"frizz_risk":1,"updated_at":"2026-05-16T17:24:36.614929+05:30"},{"city":"Dibrugarh","state":"Assam","latitude":27.4728,"longitude":94.912,"temp":27.5,"humidity":73,"rain":0.0,"pressure":990.5,"uv_index":8.9,"wind_gusts":24.1,"aqi":93,"pm10":22.2,"pm2_5":16.0,"no2":4.4,"co":244.0,"o3":105.0,"so2":2.0,"mosquito_risk":7,"arthritis_risk":5,"migraine_risk":7,"frizz_risk":1,"updated_at":"2026-05-16T17:24:36.614934+05:30"}]