[{"city":"Delhi","state":"Delhi","latitude":28.6139,"longitude":77.209,"temp":40.3,"humidity":20,"rain":0.0,"pressure":976.5,"uv_index":7.7,"wind_gusts":48.2,"aqi":594,"pm10":1020.7,"pm2_5":146.2,"no2":4.8,"co":267.0,"o3":126.0,"so2":8.4,"mosquito_risk":0,"arthritis_risk":5,"migraine_risk":10,"frizz_risk":0,"updated_at":"2026-05-17T16:40:22.517590+05:30"},{"city":"Mumbai","state":"Maharashtra","latitude":19.076,"longitude":72.8777,"temp":32.3,"humidity":66,"rain":0.0,"pressure":1002.6,"uv_index":7.45,"wind_gusts":45.4,"aqi":61,"pm10":44.5,"pm2_5":19.6,"no2":5.9,"co":190.0,"o3":93.0,"so2":4.4,"mosquito_risk":3,"arthritis_risk":5,"migraine_risk":4,"frizz_risk":1,"updated_at":"2026-05-17T16:40:22.517645+05:30"},{"city":"Bangalore","state":"Karnataka","latitude":12.9716,"longitude":77.5946,"temp":33.9,"humidity":29,"rain":0.0,"pressure":907.3,"uv_index":9.45,"wind_gusts":35.3,"aqi":99,"pm10":21.9,"pm2_5":13.5,"no2":7.2,"co":254.0,"o3":119.0,"so2":5.4,"mosquito_risk":0,"arthritis_risk":5,"migraine_risk":7,"frizz_risk":0,"updated_at":"2026-05-17T16:40:22.517662+05:30"},{"city":"Hyderabad","state":"Telangana","latitude":17.385,"longitude":78.4867,"temp":35.5,"humidity":36,"rain":0.0,"pressure":948.2,"uv_index":9.3,"wind_gusts":23.4,"aqi":74,"pm10":39.8,"pm2_5":22.5,"no2":2.3,"co":266.0,"o3":143.0,"so2":4.9,"mosquito_risk":0,"arthritis_risk":5,"migraine_risk":10,"frizz_risk":1,"updated_at":"2026-05-17T16:40:22.517673+05:30"},{"city":"Chennai","state":"Tamil Nadu","latitude":13.0827,"longitude":80.2707,"temp":32.4,"humidity":61,"rain":0.0,"pressure":1000.8,"uv_index":9.15,"wind_gusts":43.9,"aqi":74,"pm10":26.4,"pm2_5":18.3,"no2":3.1,"co":195.0,"o3":116.0,"so2":6.1,"mosquito_risk":3,"arthritis_risk":5,"migraine_risk":4,"frizz_risk":1,"updated_at":"2026-05-17T16:40:22.517683+05:30"},{"city":"Kolkata","state":"West Bengal","latitude":22.5726,"longitude":88.3639,"temp":28.7,"humidity":90,"rain":0.6,"pressure":1000.1,"uv_index":8.95,"wind_gusts":36.4,"aqi":64,"pm10":32.1,"pm2_5":21.2,"no2":4.0,"co":267.0,"o3":101.0,"so2":7.2,"mosquito_risk":10,"arthritis_risk":5,"migraine_risk":4,"frizz_risk":1,"updated_at":"2026-05-17T16:40:22.517693+05:30"},{"city":"Pune","state":"Maharashtra","latitude":18.5204,"longitude":73.8567,"temp":37.0,"humidity":25,"rain":0.0,"pressure":943.5,"uv_index":8.5,"wind_gusts":43.9,"aqi":97,"pm10":29.9,"pm2_5":17.9,"no2":1.7,"co":178.0,"o3":147.0,"so2":6.7,"mosquito_risk":0,"arthritis_risk":5,"migraine_risk":10,"frizz_risk":0,"updated_at":"2026-05-17T16:40:22.517701+05:30"},{"city":"Ahmedabad","state":"Gujarat","latitude":23.0225,"longitude":72.5714,"temp":42.1,"humidity":20,"rain":0.0,"pressure":995.7,"uv_index":8.15,"wind_gusts":29.9,"aqi":61,"pm10":49.9,"pm2_5":17.7,"no2":1.0,"co":150.0,"o3":111.0,"so2":3.2,"mosquito_risk":0,"arthritis_risk":5,"migraine_risk":10,"frizz_risk":0,"updated_at":"2026-05-17T16:40:22.517710+05:30"},{"city":"Jaipur","state":"Rajasthan","latitude":26.9124,"longitude":75.7873,"temp":40.8,"humidity":14,"rain":0.0,"pressure":955.1,"uv_index":8.25,"wind_gusts":39.2,"aqi":121,"pm10":150.9,"pm2_5":29.5,"no2":0.2,"co":160.0,"o3":125.0,"so2":3.2,"mosquito_risk":0,"arthritis_risk":5,"migraine_risk":10,"frizz_risk":0,"updated_at":"2026-05-17T16:40:22.517730+05:30"},{"city":"Lucknow","state":"Uttar Pradesh","latitude":26.8467,"longitude":80.9462,"temp":39.9,"humidity":22,"rain":0.0,"pressure":985.5,"uv_index":8.2,"wind_gusts":48.2,"aqi":149,"pm10":222.1,"pm2_5":53.0,"no2":2.8,"co":264.0,"o3":136.0,"so2":7.1,"mosquito_risk":0,"arthritis_risk":5,"migraine_risk":10,"frizz_risk":0,"updated_at":"2026-05-17T16:40:22.517739+05:30"},{"city":"Kanpur","state":"Uttar Pradesh","latitude":26.4499,"longitude":80.3319,"temp":41.2,"humidity":17,"rain":0.0,"pressure":984.0,"uv_index":8.2,"wind_gusts":46.1,"aqi":168,"pm10":650.1,"pm2_5":92.0,"no2":1.9,"co":216.0,"o3":134.0,"so2":7.0,"mosquito_risk":0,"arthritis_risk":5,"migraine_risk":10,"frizz_risk":0,"updated_at":"2026-05-17T16:40:22.517748+05:30"},{"city":"Chandigarh","state":"Chandigarh","latitude":30.7333,"longitude":76.7794,"temp":37.1,"humidity":21,"rain":0.0,"pressure":962.8,"uv_index":7.7,"wind_gusts":42.5,"aqi":131,"pm10":19.7,"pm2_5":13.1,"no2":1.7,"co":280.0,"o3":154.0,"so2":6.1,"mosquito_risk":0,"arthritis_risk":5,"migraine_risk":10,"frizz_risk":0,"updated_at":"2026-05-17T16:40:22.517760+05:30"},{"city":"Srinagar","state":"Jammu and Kashmir","latitude":34.0837,"longitude":74.7973,"temp":26.2,"humidity":37,"rain":0.0,"pressure":842.0,"uv_index":8.9,"wind_gusts":17.3,"aqi":80,"pm10":12.3,"pm2_5":7.1,"no2":0.6,"co":274.0,"o3":135.0,"so2":1.7,"mosquito_risk":4,"arthritis_risk":5,"migraine_risk":7,"frizz_risk":0,"updated_at":"2026-05-17T16:40:22.517769+05:30"},{"city":"Jammu","state":"Jammu and Kashmir","latitude":32.7266,"longitude":74.857,"temp":38.0,"humidity":19,"rain":0.0,"pressure":966.6,"uv_index":8.5,"wind_gusts":38.2,"aqi":100,"pm10":18.3,"pm2_5":10.0,"no2":1.2,"co":195.0,"o3":146.0,"so2":2.7,"mosquito_risk":0,"arthritis_risk":5,"migraine_risk":10,"frizz_risk":0,"updated_at":"2026-05-17T16:40:22.517777+05:30"},{"city":"Amritsar","state":"Punjab","latitude":31.634,"longitude":74.8723,"temp":38.8,"humidity":21,"rain":0.0,"pressure":974.5,"uv_index":8.4,"wind_gusts":30.6,"aqi":119,"pm10":46.4,"pm2_5":21.0,"no2":0.8,"co":249.0,"o3":158.0,"so2":7.5,"mosquito_risk":0,"arthritis_risk":5,"migraine_risk":10,"frizz_risk":0,"updated_at":"2026-05-17T16:40:22.517785+05:30"},{"city":"Ludhiana","state":"Punjab","latitude":30.901,"longitude":75.8573,"temp":38.5,"humidity":20,"rain":0.0,"pressure":972.5,"uv_index":8.0,"wind_gusts":38.9,"aqi":105,"pm10":83.8,"pm2_5":24.3,"no2":1.0,"co":265.0,"o3":145.0,"so2":4.9,"mosquito_risk":0,"arthritis_risk":5,"migraine_risk":10,"frizz_risk":0,"updated_at":"2026-05-17T16:40:22.517792+05:30"},{"city":"Jalandhar","state":"Punjab","latitude":31.326,"longitude":75.5762,"temp":38.7,"humidity":21,"rain":0.0,"pressure":973.5,"uv_index":8.15,"wind_gusts":34.9,"aqi":112,"pm10":86.4,"pm2_5":25.3,"no2":1.3,"co":255.0,"o3":151.0,"so2":6.2,"mosquito_risk":0,"arthritis_risk":5,"migraine_risk":10,"frizz_risk":0,"updated_at":"2026-05-17T16:40:22.517800+05:30"},{"city":"Dehradun","state":"Uttarakhand","latitude":30.6284,"longitude":78.0322,"temp":24.9,"humidity":37,"rain":0.0,"pressure":829.3,"uv_index":8.15,"wind_gusts":45.0,"aqi":93,"pm10":11.4,"pm2_5":7.2,"no2":0.0,"co":208.0,"o3":146.0,"so2":2.3,"mosquito_risk":0,"arthritis_risk":5,"migraine_risk":7,"frizz_risk":0,"updated_at":"2026-05-17T16:40:22.517807+05:30"},{"city":"Shimla","state":"Himachal Pradesh","latitude":31.1048,"longitude":77.1734,"temp":22.7,"humidity":34,"rain":0.0,"pressure":785.2,"uv_index":8.25,"wind_gusts":49.3,"aqi":108,"pm10":16.9,"pm2_5":9.9,"no2":0.5,"co":185.0,"o3":145.0,"so2":2.5,"mosquito_risk":0,"arthritis_risk":5,"migraine_risk":7,"frizz_risk":0,"updated_at":"2026-05-17T16:40:22.517817+05:30"},{"city":"Manali","state":"Himachal Pradesh","latitude":32.2396,"longitude":77.1887,"temp":21.6,"humidity":47,"rain":0.0,"pressure":817.3,"uv_index":9.85,"wind_gusts":39.6,"aqi":114,"pm10":11.3,"pm2_5":7.3,"no2":3.9,"co":148.0,"o3":149.0,"so2":0.4,"mosquito_risk":0,"arthritis_risk":5,"migraine_risk":7,"frizz_risk":0,"updated_at":"2026-05-17T16:40:22.517826+05:30"},{"city":"Gurgaon","state":"Haryana","latitude":28.4595,"longitude":77.0266,"temp":40.0,"humidity":21,"rain":0.0,"pressure":975.0,"uv_index":7.8,"wind_gusts":46.1,"aqi":1053,"pm10":2600.3,"pm2_5":313.9,"no2":4.2,"co":264.0,"o3":128.0,"so2":7.7,"mosquito_risk":0,"arthritis_risk":5,"migraine_risk":10,"frizz_risk":0,"updated_at":"2026-05-17T16:40:22.517836+05:30"},{"city":"Noida","state":"Uttar Pradesh","latitude":28.5355,"longitude":77.391,"temp":39.3,"humidity":24,"rain":0.0,"pressure":977.5,"uv_index":7.75,"wind_gusts":39.6,"aqi":1053,"pm10":2600.3,"pm2_5":313.9,"no2":4.2,"co":298.0,"o3":128.0,"so2":7.7,"mosquito_risk":0,"arthritis_risk":5,"migraine_risk":10,"frizz_risk":0,"updated_at":"2026-05-17T16:40:22.517844+05:30"},{"city":"Ghaziabad","state":"Uttar Pradesh","latitude":28.6692,"longitude":77.4538,"temp":38.8,"humidity":25,"rain":0.0,"pressure":975.9,"uv_index":7.7,"wind_gusts":45.0,"aqi":442,"pm10":927.6,"pm2_5":135.5,"no2":4.0,"co":260.0,"o3":133.0,"so2":10.3,"mosquito_risk":0,"arthritis_risk":5,"migraine_risk":10,"frizz_risk":0,"updated_at":"2026-05-17T16:40:22.517852+05:30"},{"city":"Faridabad","state":"Haryana","latitude":28.4089,"longitude":77.3178,"temp":40.2,"humidity":21,"rain":0.0,"pressure":977.0,"uv_index":7.75,"wind_gusts":49.3,"aqi":1053,"pm10":2600.3,"pm2_5":313.9,"no2":4.2,"co":261.0,"o3":128.0,"so2":7.7,"mosquito_risk":0,"arthritis_risk":5,"migraine_risk":10,"frizz_risk":0,"updated_at":"2026-05-17T16:40:22.517860+05:30"},{"city":"Meerut","state":"Uttar Pradesh","latitude":28.9845,"longitude":77.7064,"temp":38.7,"humidity":23,"rain":0.0,"pressure":974.8,"uv_index":7.65,"wind_gusts":48.2,"aqi":442,"pm10":927.6,"pm2_5":135.5,"no2":4.0,"co":287.0,"o3":133.0,"so2":10.3,"mosquito_risk":0,"arthritis_risk":5,"migraine_risk":10,"frizz_risk":0,"updated_at":"2026-05-17T16:40:22.517867+05:30"},{"city":"Agra","state":"Uttar Pradesh","latitude":27.1767,"longitude":78.0081,"temp":40.7,"humidity":19,"rain":0.0,"pressure":981.1,"uv_index":8.05,"wind_gusts":41.8,"aqi":762,"pm10":990.9,"pm2_5":116.2,"no2":3.4,"co":190.0,"o3":120.0,"so2":5.1,"mosquito_risk":0,"arthritis_risk":5,"migraine_risk":10,"frizz_risk":0,"updated_at":"2026-05-17T16:40:22.517875+05:30"},{"city":"Varanasi","state":"Uttar Pradesh","latitude":25.3176,"longitude":82.9739,"temp":41.2,"humidity":16,"rain":0.0,"pressure":989.1,"uv_index":8.7,"wind_gusts":49.7,"aqi":152,"pm10":170.4,"pm2_5":43.3,"no2":2.7,"co":210.0,"o3":148.0,"so2":8.3,"mosquito_risk":0,"arthritis_risk":5,"migraine_risk":10,"frizz_risk":0,"updated_at":"2026-05-17T16:40:22.517883+05:30"},{"city":"Prayagraj","state":"Uttar Pradesh","latitude":25.4358,"longitude":81.8463,"temp":41.2,"humidity":16,"rain":0.0,"pressure":987.9,"uv_index":8.6,"wind_gusts":41.0,"aqi":153,"pm10":134.6,"pm2_5":35.9,"no2":2.2,"co":196.0,"o3":138.0,"so2":6.1,"mosquito_risk":0,"arthritis_risk":5,"migraine_risk":10,"frizz_risk":0,"updated_at":"2026-05-17T16:40:22.517891+05:30"},{"city":"Gorakhpur","state":"Uttar Pradesh","latitude":26.7606,"longitude":83.3732,"temp":37.5,"humidity":28,"rain":0.0,"pressure":988.3,"uv_index":8.6,"wind_gusts":40.3,"aqi":158,"pm10":53.9,"pm2_5":24.0,"no2":2.5,"co":251.0,"o3":146.0,"so2":6.6,"mosquito_risk":0,"arthritis_risk":5,"migraine_risk":10,"frizz_risk":0,"updated_at":"2026-05-17T16:40:22.517901+05:30"},{"city":"Bareilly","state":"Uttar Pradesh","latitude":28.367,"longitude":79.4304,"temp":36.2,"humidity":34,"rain":0.0,"pressure":979.4,"uv_index":8.0,"wind_gusts":37.1,"aqi":137,"pm10":51.1,"pm2_5":28.1,"no2":2.4,"co":289.0,"o3":162.0,"so2":8.5,"mosquito_risk":0,"arthritis_risk":5,"migraine_risk":10,"frizz_risk":1,"updated_at":"2026-05-17T16:40:22.517909+05:30"},{"city":"Aligarh","state":"Uttar Pradesh","latitude":27.8974,"longitude":78.088,"temp":39.0,"humidity":24,"rain":0.0,"pressure":978.9,"uv_index":7.9,"wind_gusts":45.4,"aqi":683,"pm10":1505.0,"pm2_5":190.0,"no2":3.0,"co":231.0,"o3":142.0,"so2":8.9,"mosquito_risk":0,"arthritis_risk":5,"migraine_risk":10,"frizz_risk":0,"updated_at":"2026-05-17T16:40:22.517916+05:30"},{"city":"Moradabad","state":"Uttar Pradesh","latitude":28.8386,"longitude":78.7733,"temp":37.2,"humidity":29,"rain":0.0,"pressure":976.6,"uv_index":7.85,"wind_gusts":43.6,"aqi":146,"pm10":191.4,"pm2_5":48.1,"no2":3.2,"co":299.0,"o3":142.0,"so2":7.3,"mosquito_risk":0,"arthritis_risk":5,"migraine_risk":10,"frizz_risk":0,"updated_at":"2026-05-17T16:40:22.517923+05:30"},{"city":"Saharanpur","state":"Uttar Pradesh","latitude":29.9637,"longitude":77.546,"temp":36.4,"humidity":27,"rain":0.0,"pressure":968.9,"uv_index":7.35,"wind_gusts":44.6,"aqi":124,"pm10":164.8,"pm2_5":35.5,"no2":3.5,"co":244.0,"o3":144.0,"so2":7.9,"mosquito_risk":0,"arthritis_risk":5,"migraine_risk":10,"frizz_risk":0,"updated_at":"2026-05-17T16:40:22.517930+05:30"},{"city":"Jhansi","state":"Uttar Pradesh","latitude":25.4484,"longitude":78.5685,"temp":41.0,"humidity":15,"rain":0.0,"pressure":971.8,"uv_index":8.45,"wind_gusts":31.0,"aqi":125,"pm10":148.1,"pm2_5":33.6,"no2":1.1,"co":175.0,"o3":124.0,"so2":5.2,"mosquito_risk":0,"arthritis_risk":5,"migraine_risk":10,"frizz_risk":0,"updated_at":"2026-05-17T16:40:25.792472+05:30"},{"city":"Surat","state":"Gujarat","latitude":21.1702,"longitude":72.8311,"temp":42.1,"humidity":13,"rain":0.0,"pressure":999.9,"uv_index":7.75,"wind_gusts":40.7,"aqi":85,"pm10":68.0,"pm2_5":40.2,"no2":19.2,"co":276.0,"o3":140.0,"so2":51.3,"mosquito_risk":0,"arthritis_risk":5,"migraine_risk":10,"frizz_risk":0,"updated_at":"2026-05-17T16:40:25.792502+05:30"},{"city":"Vadodara","state":"Gujarat","latitude":22.3072,"longitude":73.1812,"temp":42.5,"humidity":19,"rain":0.0,"pressure":997.2,"uv_index":8.1,"wind_gusts":29.9,"aqi":70,"pm10":45.1,"pm2_5":19.4,"no2":1.0,"co":156.0,"o3":145.0,"so2":6.5,"mosquito_risk":0,"arthritis_risk":5,"migraine_risk":10,"frizz_risk":0,"updated_at":"2026-05-17T16:40:25.792513+05:30"},{"city":"Rajkot","state":"Gujarat","latitude":22.3039,"longitude":70.8022,"temp":40.2,"humidity":15,"rain":0.0,"pressure":989.5,"uv_index":7.15,"wind_gusts":37.8,"aqi":54,"pm10":50.8,"pm2_5":17.2,"no2":0.7,"co":125.0,"o3":113.0,"so2":3.1,"mosquito_risk":0,"arthritis_risk":5,"migraine_risk":10,"frizz_risk":0,"updated_at":"2026-05-17T16:40:25.792522+05:30"},{"city":"Thane","state":"Maharashtra","latitude":19.2183,"longitude":72.9781,"temp":35.7,"humidity":51,"rain":0.0,"pressure":1001.5,"uv_index":7.55,"wind_gusts":39.2,"aqi":61,"pm10":44.5,"pm2_5":19.6,"no2":5.9,"co":171.0,"o3":93.0,"so2":4.4,"mosquito_risk":0,"arthritis_risk":5,"migraine_risk":7,"frizz_risk":1,"updated_at":"2026-05-17T16:40:25.792530+05:30"},{"city":"Nagpur","state":"Maharashtra","latitude":21.1458,"longitude":79.0882,"temp":42.6,"humidity":13,"rain":0.0,"pressure":966.2,"uv_index":8.95,"wind_gusts":33.1,"aqi":109,"pm10":19.3,"pm2_5":12.4,"no2":4.6,"co":170.0,"o3":154.0,"so2":18.0,"mosquito_risk":0,"arthritis_risk":5,"migraine_risk":10,"frizz_risk":0,"updated_at":"2026-05-17T16:40:25.792538+05:30"},{"city":"Nashik","state":"Maharashtra","latitude":19.9975,"longitude":73.7898,"temp":37.6,"humidity":21,"rain":0.0,"pressure":941.4,"uv_index":8.2,"wind_gusts":41.4,"aqi":62,"pm10":28.5,"pm2_5":14.9,"no2":1.0,"co":168.0,"o3":147.0,"so2":5.3,"mosquito_risk":0,"arthritis_risk":5,"migraine_risk":10,"frizz_risk":0,"updated_at":"2026-05-17T16:40:25.792546+05:30"},{"city":"Aurangabad","state":"Maharashtra","latitude":19.8762,"longitude":75.3433,"temp":39.7,"humidity":14,"rain":0.0,"pressure":939.5,"uv_index":9.05,"wind_gusts":37.1,"aqi":91,"pm10":18.6,"pm2_5":9.3,"no2":0.8,"co":142.0,"o3":133.0,"so2":3.5,"mosquito_risk":0,"arthritis_risk":5,"migraine_risk":10,"frizz_risk":0,"updated_at":"2026-05-17T16:40:25.792553+05:30"},{"city":"Solapur","state":"Maharashtra","latitude":17.6599,"longitude":75.9064,"temp":41.3,"humidity":16,"rain":0.0,"pressure":950.8,"uv_index":9.1,"wind_gusts":33.8,"aqi":128,"pm10":22.4,"pm2_5":16.9,"no2":0.7,"co":155.0,"o3":155.0,"so2":6.4,"mosquito_risk":0,"arthritis_risk":5,"migraine_risk":10,"frizz_risk":0,"updated_at":"2026-05-17T16:40:25.792562+05:30"},{"city":"Kolhapur","state":"Maharashtra","latitude":16.705,"longitude":74.2433,"temp":34.3,"humidity":43,"rain":0.0,"pressure":942.4,"uv_index":8.95,"wind_gusts":46.4,"aqi":85,"pm10":24.2,"pm2_5":16.9,"no2":1.9,"co":169.0,"o3":150.0,"so2":5.5,"mosquito_risk":0,"arthritis_risk":5,"migraine_risk":7,"frizz_risk":1,"updated_at":"2026-05-17T16:40:25.792569+05:30"},{"city":"Goa","state":"Goa","latitude":15.2993,"longitude":74.124,"temp":32.1,"humidity":65,"rain":0.0,"pressure":992.6,"uv_index":8.9,"wind_gusts":43.9,"aqi":56,"pm10":36.3,"pm2_5":16.4,"no2":0.9,"co":128.0,"o3":70.0,"so2":1.4,"mosquito_risk":3,"arthritis_risk":5,"migraine_risk":7,"frizz_risk":1,"updated_at":"2026-05-17T16:40:25.792576+05:30"},{"city":"Jodhpur","state":"Rajasthan","latitude":26.2389,"longitude":73.0243,"temp":42.0,"humidity":15,"rain":0.0,"pressure":977.7,"uv_index":8.4,"wind_gusts":34.2,"aqi":73,"pm10":107.3,"pm2_5":23.2,"no2":0.2,"co":137.0,"o3":116.0,"so2":3.2,"mosquito_risk":0,"arthritis_risk":5,"migraine_risk":10,"frizz_risk":0,"updated_at":"2026-05-17T16:40:25.792584+05:30"},{"city":"Udaipur","state":"Rajasthan","latitude":24.5854,"longitude":73.7125,"temp":39.0,"humidity":17,"rain":0.0,"pressure":942.4,"uv_index":8.85,"wind_gusts":33.5,"aqi":52,"pm10":65.2,"pm2_5":17.3,"no2":0.4,"co":138.0,"o3":115.0,"so2":2.9,"mosquito_risk":0,"arthritis_risk":5,"migraine_risk":10,"frizz_risk":0,"updated_at":"2026-05-17T16:40:25.792591+05:30"},{"city":"Kota","state":"Rajasthan","latitude":25.2138,"longitude":75.8648,"temp":42.3,"humidity":13,"rain":0.0,"pressure":972.9,"uv_index":8.4,"wind_gusts":31.7,"aqi":104,"pm10":122.9,"pm2_5":27.2,"no2":0.1,"co":171.0,"o3":130.0,"so2":3.2,"mosquito_risk":0,"arthritis_risk":5,"migraine_risk":10,"frizz_risk":0,"updated_at":"2026-05-17T16:40:25.792598+05:30"},{"city":"Bikaner","state":"Rajasthan","latitude":28.0229,"longitude":73.3119,"temp":43.0,"humidity":13,"rain":0.0,"pressure":975.8,"uv_index":8.4,"wind_gusts":37.8,"aqi":81,"pm10":105.2,"pm2_5":23.4,"no2":0.1,"co":138.0,"o3":104.0,"so2":1.8,"mosquito_risk":0,"arthritis_risk":5,"migraine_risk":10,"frizz_risk":0,"updated_at":"2026-05-17T16:40:25.792606+05:30"},{"city":"Ajmer","state":"Rajasthan","latitude":26.4499,"longitude":74.6399,"temp":39.8,"humidity":14,"rain":0.0,"pressure":950.5,"uv_index":8.4,"wind_gusts":33.1,"aqi":86,"pm10":74.3,"pm2_5":21.8,"no2":0.1,"co":140.0,"o3":125.0,"so2":3.3,"mosquito_risk":0,"arthritis_risk":5,"migraine_risk":10,"frizz_risk":0,"updated_at":"2026-05-17T16:40:25.792613+05:30"},{"city":"Gwalior","state":"Madhya Pradesh","latitude":26.2183,"longitude":78.1828,"temp":41.5,"humidity":14,"rain":0.0,"pressure":976.7,"uv_index":8.25,"wind_gusts":37.4,"aqi":305,"pm10":123.9,"pm2_5":31.3,"no2":0.6,"co":187.0,"o3":121.0,"so2":3.7,"mosquito_risk":0,"arthritis_risk":5,"migraine_risk":10,"frizz_risk":0,"updated_at":"2026-05-17T16:40:25.792621+05:30"},{"city":"Indore","state":"Madhya Pradesh","latitude":22.7196,"longitude":75.8577,"temp":41.3,"humidity":13,"rain":0.0,"pressure":942.6,"uv_index":8.7,"wind_gusts":36.0,"aqi":71,"pm10":32.7,"pm2_5":12.7,"no2":0.2,"co":163.0,"o3":133.0,"so2":3.0,"mosquito_risk":0,"arthritis_risk":5,"migraine_risk":10,"frizz_risk":0,"updated_at":"2026-05-17T16:40:25.792628+05:30"},{"city":"Bhopal","state":"Madhya Pradesh","latitude":23.2599,"longitude":77.4126,"temp":41.4,"humidity":13,"rain":0.0,"pressure":947.9,"uv_index":8.7,"wind_gusts":33.1,"aqi":76,"pm10":23.1,"pm2_5":11.3,"no2":0.5,"co":156.0,"o3":134.0,"so2":3.2,"mosquito_risk":0,"arthritis_risk":5,"migraine_risk":10,"frizz_risk":0,"updated_at":"2026-05-17T16:40:25.792635+05:30"},{"city":"Jabalpur","state":"Madhya Pradesh","latitude":23.1815,"longitude":79.9864,"temp":40.4,"humidity":16,"rain":0.0,"pressure":955.4,"uv_index":8.9,"wind_gusts":41.4,"aqi":101,"pm10":34.1,"pm2_5":17.0,"no2":0.8,"co":170.0,"o3":135.0,"so2":3.4,"mosquito_risk":0,"arthritis_risk":5,"migraine_risk":10,"frizz_risk":0,"updated_at":"2026-05-17T16:40:25.792642+05:30"},{"city":"Ujjain","state":"Madhya Pradesh","latitude":23.1765,"longitude":75.7885,"temp":41.3,"humidity":14,"rain":0.0,"pressure":948.3,"uv_index":8.65,"wind_gusts":38.2,"aqi":71,"pm10":55.8,"pm2_5":18.5,"no2":0.4,"co":155.0,"o3":136.0,"so2":4.8,"mosquito_risk":0,"arthritis_risk":5,"migraine_risk":10,"frizz_risk":0,"updated_at":"2026-05-17T16:40:25.792651+05:30"},{"city":"Visakhapatnam","state":"Andhra Pradesh","latitude":17.6868,"longitude":83.2185,"temp":32.5,"humidity":64,"rain":0.0,"pressure":997.6,"uv_index":8.6,"wind_gusts":43.6,"aqi":59,"pm10":20.7,"pm2_5":15.0,"no2":9.3,"co":278.0,"o3":81.0,"so2":23.9,"mosquito_risk":3,"arthritis_risk":5,"migraine_risk":7,"frizz_risk":1,"updated_at":"2026-05-17T16:40:25.792658+05:30"},{"city":"Vijayawada","state":"Andhra Pradesh","latitude":16.5062,"longitude":80.648,"temp":36.7,"humidity":43,"rain":0.1,"pressure":995.8,"uv_index":9.2,"wind_gusts":36.0,"aqi":48,"pm10":18.2,"pm2_5":13.3,"no2":2.6,"co":212.0,"o3":94.0,"so2":4.8,"mosquito_risk":3,"arthritis_risk":5,"migraine_risk":10,"frizz_risk":1,"updated_at":"2026-05-17T16:40:25.792665+05:30"},{"city":"Guntur","state":"Andhra Pradesh","latitude":16.3067,"longitude":80.4365,"temp":36.2,"humidity":46,"rain":0.1,"pressure":997.1,"uv_index":9.2,"wind_gusts":32.0,"aqi":45,"pm10":16.4,"pm2_5":11.9,"no2":1.8,"co":216.0,"o3":92.0,"so2":2.0,"mosquito_risk":3,"arthritis_risk":5,"migraine_risk":10,"frizz_risk":1,"updated_at":"2026-05-17T16:40:25.792673+05:30"},{"city":"Nellore","state":"Andhra Pradesh","latitude":14.4426,"longitude":79.9865,"temp":34.7,"humidity":51,"rain":0.0,"pressure":999.2,"uv_index":9.1,"wind_gusts":39.2,"aqi":90,"pm10":25.8,"pm2_5":18.6,"no2":1.4,"co":211.0,"o3":127.0,"so2":4.7,"mosquito_risk":0,"arthritis_risk":5,"migraine_risk":7,"frizz_risk":1,"updated_at":"2026-05-17T16:40:25.792681+05:30"},{"city":"Kurnool","state":"Andhra Pradesh","latitude":15.8281,"longitude":78.0373,"temp":37.6,"humidity":33,"rain":0.0,"pressure":970.5,"uv_index":9.2,"wind_gusts":32.8,"aqi":62,"pm10":37.0,"pm2_5":17.8,"no2":0.6,"co":175.0,"o3":110.0,"so2":2.2,"mosquito_risk":0,"arthritis_risk":5,"migraine_risk":10,"frizz_risk":1,"updated_at":"2026-05-17T16:40:25.792690+05:30"},{"city":"Kakinada","state":"Andhra Pradesh","latitude":16.9891,"longitude":82.2475,"temp":35.2,"humidity":52,"rain":0.1,"pressure":1000.8,"uv_index":8.7,"wind_gusts":42.1,"aqi":42,"pm10":18.5,"pm2_5":11.9,"no2":1.1,"co":196.0,"o3":84.0,"so2":1.5,"mosquito_risk":3,"arthritis_risk":5,"migraine_risk":7,"frizz_risk":1,"updated_at":"2026-05-17T16:40:25.792698+05:30"},{"city":"Tirupati","state":"Andhra Pradesh","latitude":13.6288,"longitude":79.4192,"temp":35.5,"humidity":41,"rain":0.0,"pressure":984.2,"uv_index":9.25,"wind_gusts":31.3,"aqi":90,"pm10":25.8,"pm2_5":21.0,"no2":4.7,"co":242.0,"o3":136.0,"so2":9.3,"mosquito_risk":0,"arthritis_risk":5,"migraine_risk":10,"frizz_risk":1,"updated_at":"2026-05-17T16:40:25.792706+05:30"},{"city":"Warangal","state":"Telangana","latitude":17.9689,"longitude":79.5941,"temp":36.3,"humidity":43,"rain":0.0,"pressure":972.9,"uv_index":8.8,"wind_gusts":31.0,"aqi":69,"pm10":32.4,"pm2_5":19.7,"no2":1.6,"co":198.0,"o3":126.0,"so2":4.1,"mosquito_risk":0,"arthritis_risk":5,"migraine_risk":10,"frizz_risk":1,"updated_at":"2026-05-17T16:40:25.792713+05:30"},{"city":"Nizamabad","state":"Telangana","latitude":18.6725,"longitude":78.0941,"temp":39.2,"humidity":21,"rain":0.0,"pressure":959.0,"uv_index":9.15,"wind_gusts":33.1,"aqi":106,"pm10":29.9,"pm2_5":22.3,"no2":0.8,"co":212.0,"o3":157.0,"so2":5.4,"mosquito_risk":0,"arthritis_risk":5,"migraine_risk":10,"frizz_risk":0,"updated_at":"2026-05-17T16:40:25.792720+05:30"},{"city":"Mysore","state":"Karnataka","latitude":12.2958,"longitude":76.6396,"temp":32.5,"humidity":36,"rain":0.0,"pressure":923.6,"uv_index":8.9,"wind_gusts":36.7,"aqi":93,"pm10":37.4,"pm2_5":21.8,"no2":3.6,"co":224.0,"o3":143.0,"so2":4.2,"mosquito_risk":0,"arthritis_risk":5,"migraine_risk":7,"frizz_risk":0,"updated_at":"2026-05-17T16:40:25.792727+05:30"},{"city":"Mangalore","state":"Karnataka","latitude":12.9141,"longitude":74.856,"temp":27.5,"humidity":85,"rain":0.1,"pressure":1002.2,"uv_index":8.7,"wind_gusts":37.4,"aqi":65,"pm10":20.2,"pm2_5":11.4,"no2":2.4,"co":173.0,"o3":72.0,"so2":1.5,"mosquito_risk":10,"arthritis_risk":5,"migraine_risk":4,"frizz_risk":1,"updated_at":"2026-05-17T16:40:25.792734+05:30"},{"city":"Hubli-Dharwad","state":"Karnataka","latitude":15.3647,"longitude":75.124,"temp":36.0,"humidity":31,"rain":0.0,"pressure":935.9,"uv_index":9.15,"wind_gusts":55.4,"aqi":81,"pm10":27.2,"pm2_5":19.4,"no2":2.8,"co":219.0,"o3":117.0,"so2":3.2,"mosquito_risk":0,"arthritis_risk":5,"migraine_risk":10,"frizz_risk":1,"updated_at":"2026-05-17T16:40:25.792742+05:30"},{"city":"Belgaum","state":"Karnataka","latitude":15.8497,"longitude":74.4977,"temp":33.3,"humidity":39,"rain":0.0,"pressure":921.0,"uv_index":9.15,"wind_gusts":52.2,"aqi":74,"pm10":26.5,"pm2_5":17.7,"no2":2.6,"co":171.0,"o3":129.0,"so2":4.8,"mosquito_risk":0,"arthritis_risk":5,"migraine_risk":7,"frizz_risk":1,"updated_at":"2026-05-17T16:40:29.075454+05:30"},{"city":"Coimbatore","state":"Tamil Nadu","latitude":11.0168,"longitude":76.9558,"temp":28.5,"humidity":71,"rain":0.1,"pressure":957.1,"uv_index":8.7,"wind_gusts":47.2,"aqi":80,"pm10":13.1,"pm2_5":10.5,"no2":4.4,"co":221.0,"o3":99.0,"so2":2.9,"mosquito_risk":10,"arthritis_risk":5,"migraine_risk":7,"frizz_risk":1,"updated_at":"2026-05-17T16:40:29.075488+05:30"},{"city":"Madurai","state":"Tamil Nadu","latitude":9.9252,"longitude":78.1198,"temp":31.1,"humidity":65,"rain":0.0,"pressure":987.4,"uv_index":8.75,"wind_gusts":28.1,"aqi":97,"pm10":20.8,"pm2_5":15.7,"no2":6.0,"co":255.0,"o3":121.0,"so2":4.1,"mosquito_risk":3,"arthritis_risk":5,"migraine_risk":7,"frizz_risk":1,"updated_at":"2026-05-17T16:40:29.075501+05:30"},{"city":"Trichy","state":"Tamil Nadu","latitude":10.7905,"longitude":78.7047,"temp":33.6,"humidity":54,"rain":0.1,"pressure":993.2,"uv_index":8.35,"wind_gusts":28.1,"aqi":87,"pm10":33.1,"pm2_5":21.9,"no2":4.3,"co":215.0,"o3":116.0,"so2":3.1,"mosquito_risk":3,"arthritis_risk":5,"migraine_risk":7,"frizz_risk":1,"updated_at":"2026-05-17T16:40:29.075512+05:30"},{"city":"Salem","state":"Tamil Nadu","latitude":11.6643,"longitude":78.146,"temp":34.4,"humidity":45,"rain":0.0,"pressure":971.2,"uv_index":8.55,"wind_gusts":30.2,"aqi":126,"pm10":39.7,"pm2_5":26.9,"no2":6.1,"co":261.0,"o3":161.0,"so2":13.8,"mosquito_risk":0,"arthritis_risk":5,"migraine_risk":7,"frizz_risk":1,"updated_at":"2026-05-17T16:40:29.075521+05:30"},{"city":"Tirunelveli","state":"Tamil Nadu","latitude":8.7139,"longitude":77.7567,"temp":33.2,"humidity":55,"rain":0.1,"pressure":997.4,"uv_index":8.95,"wind_gusts":39.2,"aqi":48,"pm10":6.2,"pm2_5":5.0,"no2":2.3,"co":210.0,"o3":81.0,"so2":0.8,"mosquito_risk":3,"arthritis_risk":5,"migraine_risk":7,"frizz_risk":1,"updated_at":"2026-05-17T16:40:29.075530+05:30"},{"city":"Vellore","state":"Tamil Nadu","latitude":12.9165,"longitude":79.1325,"temp":34.5,"humidity":44,"rain":0.0,"pressure":977.9,"uv_index":9.2,"wind_gusts":27.0,"aqi":96,"pm10":28.9,"pm2_5":25.2,"no2":2.9,"co":245.0,"o3":146.0,"so2":11.6,"mosquito_risk":0,"arthritis_risk":5,"migraine_risk":7,"frizz_risk":1,"updated_at":"2026-05-17T16:40:29.075539+05:30"},{"city":"Erode","state":"Tamil Nadu","latitude":11.341,"longitude":77.7172,"temp":35.5,"humidity":43,"rain":0.0,"pressure":982.5,"uv_index":8.55,"wind_gusts":33.8,"aqi":107,"pm10":39.8,"pm2_5":23.6,"no2":4.1,"co":289.0,"o3":147.0,"so2":4.1,"mosquito_risk":0,"arthritis_risk":5,"migraine_risk":10,"frizz_risk":1,"updated_at":"2026-05-17T16:40:29.075548+05:30"},{"city":"Kochi","state":"Kerala","latitude":9.9312,"longitude":76.2673,"temp":27.3,"humidity":87,"rain":0.1,"pressure":1004.8,"uv_index":8.65,"wind_gusts":34.9,"aqi":52,"pm10":11.7,"pm2_5":8.2,"no2":3.8,"co":170.0,"o3":87.0,"so2":3.2,"mosquito_risk":10,"arthritis_risk":5,"migraine_risk":4,"frizz_risk":1,"updated_at":"2026-05-17T16:40:29.075557+05:30"},{"city":"Thiruvananthapuram","state":"Kerala","latitude":8.5241,"longitude":76.9366,"temp":27.7,"humidity":81,"rain":0.1,"pressure":1004.3,"uv_index":8.3,"wind_gusts":38.2,"aqi":46,"pm10":14.6,"pm2_5":9.3,"no2":1.3,"co":156.0,"o3":82.0,"so2":0.5,"mosquito_risk":10,"arthritis_risk":5,"migraine_risk":4,"frizz_risk":1,"updated_at":"2026-05-17T16:40:29.075566+05:30"},{"city":"Kozhikode","state":"Kerala","latitude":11.2588,"longitude":75.7804,"temp":26.1,"humidity":95,"rain":0.4,"pressure":1003.9,"uv_index":8.9,"wind_gusts":40.7,"aqi":50,"pm10":18.9,"pm2_5":10.9,"no2":0.8,"co":141.0,"o3":86.0,"so2":0.9,"mosquito_risk":10,"arthritis_risk":5,"migraine_risk":4,"frizz_risk":1,"updated_at":"2026-05-17T16:40:29.075575+05:30"},{"city":"Thrissur","state":"Kerala","latitude":10.5276,"longitude":76.2144,"temp":27.5,"humidity":82,"rain":0.1,"pressure":1003.1,"uv_index":8.9,"wind_gusts":35.3,"aqi":55,"pm10":11.0,"pm2_5":8.8,"no2":5.9,"co":160.0,"o3":71.0,"so2":2.6,"mosquito_risk":10,"arthritis_risk":5,"migraine_risk":4,"frizz_risk":1,"updated_at":"2026-05-17T16:40:29.075586+05:30"},{"city":"Kannur","state":"Kerala","latitude":11.8745,"longitude":75.3704,"temp":29.0,"humidity":79,"rain":0.0,"pressure":1002.4,"uv_index":8.95,"wind_gusts":43.6,"aqi":58,"pm10":20.7,"pm2_5":13.4,"no2":3.2,"co":173.0,"o3":82.0,"so2":1.5,"mosquito_risk":7,"arthritis_risk":5,"migraine_risk":4,"frizz_risk":1,"updated_at":"2026-05-17T16:40:29.075595+05:30"},{"city":"Patna","state":"Bihar","latitude":25.5941,"longitude":85.1376,"temp":38.3,"humidity":26,"rain":0.0,"pressure":991.2,"uv_index":8.8,"wind_gusts":40.3,"aqi":173,"pm10":140.6,"pm2_5":50.8,"no2":6.0,"co":284.0,"o3":152.0,"so2":8.6,"mosquito_risk":0,"arthritis_risk":5,"migraine_risk":10,"frizz_risk":0,"updated_at":"2026-05-17T16:40:29.075604+05:30"},{"city":"Gaya","state":"Bihar","latitude":24.7914,"longitude":85.0002,"temp":39.7,"humidity":21,"rain":0.0,"pressure":984.9,"uv_index":8.85,"wind_gusts":43.2,"aqi":150,"pm10":97.6,"pm2_5":34.8,"no2":3.3,"co":278.0,"o3":149.0,"so2":9.4,"mosquito_risk":0,"arthritis_risk":5,"migraine_risk":10,"frizz_risk":0,"updated_at":"2026-05-17T16:40:29.075613+05:30"},{"city":"Muzaffarpur","state":"Bihar","latitude":26.1209,"longitude":85.3647,"temp":35.5,"humidity":49,"rain":0.0,"pressure":991.4,"uv_index":8.8,"wind_gusts":32.0,"aqi":177,"pm10":117.6,"pm2_5":52.7,"no2":7.7,"co":377.0,"o3":158.0,"so2":10.3,"mosquito_risk":0,"arthritis_risk":5,"migraine_risk":10,"frizz_risk":1,"updated_at":"2026-05-17T16:40:29.075621+05:30"},{"city":"Bhagalpur","state":"Bihar","latitude":25.2425,"longitude":87.0117,"temp":34.4,"humidity":55,"rain":0.0,"pressure":992.8,"uv_index":8.8,"wind_gusts":28.8,"aqi":175,"pm10":136.0,"pm2_5":50.9,"no2":4.7,"co":313.0,"o3":176.0,"so2":13.9,"mosquito_risk":0,"arthritis_risk":5,"migraine_risk":7,"frizz_risk":1,"updated_at":"2026-05-17T16:40:29.075628+05:30"},{"city":"Ranchi","state":"Jharkhand","latitude":23.3441,"longitude":85.3096,"temp":33.3,"humidity":36,"rain":0.0,"pressure":932.4,"uv_index":9.3,"wind_gusts":41.8,"aqi":133,"pm10":75.0,"pm2_5":47.8,"no2":3.1,"co":232.0,"o3":149.0,"so2":11.3,"mosquito_risk":0,"arthritis_risk":5,"migraine_risk":7,"frizz_risk":1,"updated_at":"2026-05-17T16:40:29.075635+05:30"},{"city":"Jamshedpur","state":"Jharkhand","latitude":22.8046,"longitude":86.2029,"temp":35.7,"humidity":44,"rain":0.0,"pressure":983.7,"uv_index":9.1,"wind_gusts":53.3,"aqi":152,"pm10":70.3,"pm2_5":51.1,"no2":5.6,"co":298.0,"o3":155.0,"so2":15.8,"mosquito_risk":0,"arthritis_risk":5,"migraine_risk":10,"frizz_risk":1,"updated_at":"2026-05-17T16:40:29.075642+05:30"},{"city":"Dhanbad","state":"Jharkhand","latitude":23.7957,"longitude":86.4304,"temp":37.2,"humidity":33,"rain":0.0,"pressure":972.2,"uv_index":9.05,"wind_gusts":43.2,"aqi":151,"pm10":80.8,"pm2_5":46.1,"no2":18.3,"co":209.0,"o3":135.0,"so2":62.3,"mosquito_risk":0,"arthritis_risk":5,"migraine_risk":10,"frizz_risk":1,"updated_at":"2026-05-17T16:40:29.075649+05:30"},{"city":"Bokaro","state":"Jharkhand","latitude":23.6693,"longitude":86.1511,"temp":36.4,"humidity":38,"rain":0.0,"pressure":976.0,"uv_index":9.05,"wind_gusts":48.6,"aqi":152,"pm10":76.6,"pm2_5":44.2,"no2":15.2,"co":258.0,"o3":139.0,"so2":64.8,"mosquito_risk":0,"arthritis_risk":5,"migraine_risk":10,"frizz_risk":1,"updated_at":"2026-05-17T16:40:29.075656+05:30"},{"city":"Bhubaneswar","state":"Odisha","latitude":20.2961,"longitude":85.8245,"temp":34.5,"humidity":55,"rain":0.0,"pressure":995.7,"uv_index":8.95,"wind_gusts":42.1,"aqi":51,"pm10":27.2,"pm2_5":17.8,"no2":3.0,"co":192.0,"o3":100.0,"so2":7.1,"mosquito_risk":0,"arthritis_risk":5,"migraine_risk":7,"frizz_risk":1,"updated_at":"2026-05-17T16:40:29.075662+05:30"},{"city":"Cuttack","state":"Odisha","latitude":20.4625,"longitude":85.8828,"temp":35.8,"humidity":53,"rain":0.0,"pressure":997.0,"uv_index":9.0,"wind_gusts":42.5,"aqi":51,"pm10":27.2,"pm2_5":17.8,"no2":3.0,"co":210.0,"o3":100.0,"so2":7.1,"mosquito_risk":0,"arthritis_risk":5,"migraine_risk":10,"frizz_risk":1,"updated_at":"2026-05-17T16:40:29.075669+05:30"},{"city":"Rourkela","state":"Odisha","latitude":22.2604,"longitude":84.8536,"temp":35.9,"humidity":46,"rain":0.0,"pressure":978.1,"uv_index":9.05,"wind_gusts":41.4,"aqi":158,"pm10":78.2,"pm2_5":56.0,"no2":5.3,"co":349.0,"o3":168.0,"so2":13.7,"mosquito_risk":0,"arthritis_risk":5,"migraine_risk":10,"frizz_risk":1,"updated_at":"2026-05-17T16:40:29.075675+05:30"},{"city":"Raipur","state":"Chhattisgarh","latitude":21.2514,"longitude":81.6296,"temp":39.7,"humidity":22,"rain":0.0,"pressure":968.3,"uv_index":9.05,"wind_gusts":32.4,"aqi":131,"pm10":51.1,"pm2_5":37.0,"no2":8.7,"co":183.0,"o3":160.0,"so2":27.6,"mosquito_risk":0,"arthritis_risk":5,"migraine_risk":10,"frizz_risk":0,"updated_at":"2026-05-17T16:40:29.075682+05:30"},{"city":"Bhilai","state":"Chhattisgarh","latitude":21.1938,"longitude":81.3509,"temp":39.0,"humidity":25,"rain":0.0,"pressure":968.6,"uv_index":9.0,"wind_gusts":31.7,"aqi":125,"pm10":35.6,"pm2_5":26.5,"no2":8.1,"co":388.0,"o3":146.0,"so2":23.9,"mosquito_risk":0,"arthritis_risk":5,"migraine_risk":10,"frizz_risk":0,"updated_at":"2026-05-17T16:40:29.075688+05:30"},{"city":"Guwahati","state":"Assam","latitude":26.1158,"longitude":91.7086,"temp":25.0,"humidity":92,"rain":0.1,"pressure":995.3,"uv_index":8.75,"wind_gusts":25.6,"aqi":86,"pm10":26.3,"pm2_5":18.3,"no2":3.1,"co":334.0,"o3":117.0,"so2":3.9,"mosquito_risk":10,"arthritis_risk":5,"migraine_risk":7,"frizz_risk":1,"updated_at":"2026-05-17T16:40:29.075695+05:30"},{"city":"Agartala","state":"Tripura","latitude":23.8315,"longitude":91.2868,"temp":29.6,"humidity":87,"rain":0.3,"pressure":998.7,"uv_index":8.9,"wind_gusts":30.6,"aqi":71,"pm10":31.9,"pm2_5":21.9,"no2":6.5,"co":260.0,"o3":101.0,"so2":3.5,"mosquito_risk":10,"arthritis_risk":5,"migraine_risk":7,"frizz_risk":1,"updated_at":"2026-05-17T16:40:29.075702+05:30"},{"city":"Shillong","state":"Meghalaya","latitude":25.5788,"longitude":91.8933,"temp":22.7,"humidity":69,"rain":0.0,"pressure":852.9,"uv_index":9.15,"wind_gusts":45.4,"aqi":59,"pm10":26.7,"pm2_5":17.4,"no2":3.2,"co":289.0,"o3":108.0,"so2":3.9,"mosquito_risk":3,"arthritis_risk":5,"migraine_risk":7,"frizz_risk":1,"updated_at":"2026-05-17T16:40:29.075708+05:30"},{"city":"Imphal","state":"Manipur","latitude":24.817,"longitude":93.9368,"temp":27.0,"humidity":65,"rain":0.0,"pressure":918.0,"uv_index":9.0,"wind_gusts":37.8,"aqi":71,"pm10":29.3,"pm2_5":17.9,"no2":2.1,"co":249.0,"o3":96.0,"so2":3.9,"mosquito_risk":7,"arthritis_risk":5,"migraine_risk":7,"frizz_risk":1,"updated_at":"2026-05-17T16:40:29.075715+05:30"},{"city":"Aizawl","state":"Mizoram","latitude":23.7271,"longitude":92.7176,"temp":26.1,"humidity":62,"rain":0.0,"pressure":888.2,"uv_index":9.05,"wind_gusts":34.2,"aqi":50,"pm10":34.5,"pm2_5":18.4,"no2":1.7,"co":191.0,"o3":93.0,"so2":3.0,"mosquito_risk":7,"arthritis_risk":5,"migraine_risk":7,"frizz_risk":1,"updated_at":"2026-05-17T16:40:29.075722+05:30"},{"city":"Kohima","state":"Nagaland","latitude":25.6701,"longitude":94.1077,"temp":21.8,"humidity":87,"rain":0.0,"pressure":851.5,"uv_index":8.7,"wind_gusts":32.4,"aqi":66,"pm10":29.7,"pm2_5":16.7,"no2":2.3,"co":234.0,"o3":97.0,"so2":2.6,"mosquito_risk":3,"arthritis_risk":5,"migraine_risk":7,"frizz_risk":1,"updated_at":"2026-05-17T16:40:29.075729+05:30"},{"city":"Gangtok","state":"Sikkim","latitude":27.3314,"longitude":88.6138,"temp":18.2,"humidity":93,"rain":0.1,"pressure":832.1,"uv_index":9.15,"wind_gusts":33.8,"aqi":98,"pm10":8.3,"pm2_5":6.8,"no2":1.5,"co":305.0,"o3":131.0,"so2":2.1,"mosquito_risk":6,"arthritis_risk":10,"migraine_risk":7,"frizz_risk":1,"updated_at":"2026-05-17T16:40:29.075736+05:30"},{"city":"Siliguri","state":"West Bengal","latitude":26.7271,"longitude":88.3953,"temp":27.0,"humidity":79,"rain":0.0,"pressure":985.8,"uv_index":8.7,"wind_gusts":31.0,"aqi":113,"pm10":35.5,"pm2_5":27.4,"no2":3.8,"co":416.0,"o3":129.0,"so2":5.6,"mosquito_risk":7,"arthritis_risk":5,"migraine_risk":7,"frizz_risk":1,"updated_at":"2026-05-17T16:40:32.357247+05:30"},{"city":"Durgapur","state":"West Bengal","latitude":23.5204,"longitude":87.3119,"temp":33.8,"humidity":53,"rain":0.0,"pressure":987.3,"uv_index":8.95,"wind_gusts":48.2,"aqi":170,"pm10":101.0,"pm2_5":61.0,"no2":16.9,"co":371.0,"o3":158.0,"so2":34.0,"mosquito_risk":0,"arthritis_risk":5,"migraine_risk":7,"frizz_risk":1,"updated_at":"2026-05-17T16:40:32.357279+05:30"},{"city":"Asansol","state":"West Bengal","latitude":23.6739,"longitude":86.9524,"temp":36.8,"humidity":36,"rain":0.0,"pressure":985.6,"uv_index":9.0,"wind_gusts":40.0,"aqi":158,"pm10":86.4,"pm2_5":53.2,"no2":16.5,"co":273.0,"o3":146.0,"so2":28.3,"mosquito_risk":0,"arthritis_risk":5,"migraine_risk":10,"frizz_risk":1,"updated_at":"2026-05-17T16:40:32.357291+05:30"},{"city":"Pondicherry","state":"Puducherry","latitude":11.9139,"longitude":79.8145,"temp":30.9,"humidity":73,"rain":0.0,"pressure":1001.9,"uv_index":9.05,"wind_gusts":36.0,"aqi":92,"pm10":31.8,"pm2_5":21.3,"no2":1.5,"co":216.0,"o3":128.0,"so2":3.4,"mosquito_risk":3,"arthritis_risk":5,"migraine_risk":4,"frizz_risk":1,"updated_at":"2026-05-17T16:40:32.357300+05:30"},{"city":"Port Blair","state":"Andaman and Nicobar Islands","latitude":11.6234,"longitude":92.7265,"temp":27.1,"humidity":91,"rain":0.1,"pressure":1004.2,"uv_index":1.25,"wind_gusts":38.5,"aqi":30,"pm10":6.2,"pm2_5":3.7,"no2":0.5,"co":120.0,"o3":54.0,"so2":0.2,"mosquito_risk":10,"arthritis_risk":5,"migraine_risk":0,"frizz_risk":1,"updated_at":"2026-05-17T16:40:32.357309+05:30"},{"city":"Haridwar","state":"Uttarakhand","latitude":29.9457,"longitude":78.1642,"temp":36.2,"humidity":29,"rain":0.0,"pressure":967.3,"uv_index":7.5,"wind_gusts":35.6,"aqi":149,"pm10":49.6,"pm2_5":16.4,"no2":2.4,"co":236.0,"o3":155.0,"so2":7.5,"mosquito_risk":0,"arthritis_risk":5,"migraine_risk":10,"frizz_risk":0,"updated_at":"2026-05-17T16:40:32.357317+05:30"},{"city":"Rishikesh","state":"Uttarakhand","latitude":30.0869,"longitude":78.2676,"temp":35.4,"humidity":27,"rain":0.0,"pressure":960.3,"uv_index":7.65,"wind_gusts":32.8,"aqi":139,"pm10":17.9,"pm2_5":12.3,"no2":0.8,"co":219.0,"o3":165.0,"so2":6.5,"mosquito_risk":0,"arthritis_risk":5,"migraine_risk":10,"frizz_risk":0,"updated_at":"2026-05-17T16:40:32.357325+05:30"},{"city":"Nainital","state":"Uttarakhand","latitude":29.3919,"longitude":79.4542,"temp":23.0,"humidity":45,"rain":0.0,"pressure":804.6,"uv_index":8.5,"wind_gusts":36.7,"aqi":143,"pm10":23.9,"pm2_5":15.3,"no2":1.3,"co":224.0,"o3":168.0,"so2":6.5,"mosquito_risk":0,"arthritis_risk":5,"migraine_risk":7,"frizz_risk":0,"updated_at":"2026-05-17T16:40:32.357333+05:30"},{"city":"Mussoorie","state":"Uttarakhand","latitude":30.4599,"longitude":78.0664,"temp":22.6,"humidity":39,"rain":0.0,"pressure":802.4,"uv_index":8.05,"wind_gusts":53.3,"aqi":138,"pm10":13.8,"pm2_5":10.9,"no2":1.0,"co":214.0,"o3":157.0,"so2":5.2,"mosquito_risk":0,"arthritis_risk":5,"migraine_risk":7,"frizz_risk":0,"updated_at":"2026-05-17T16:40:32.357340+05:30"},{"city":"Dharamshala","state":"Himachal Pradesh","latitude":32.219,"longitude":76.3234,"temp":27.1,"humidity":38,"rain":0.0,"pressure":867.4,"uv_index":8.4,"wind_gusts":41.4,"aqi":94,"pm10":18.1,"pm2_5":10.6,"no2":0.1,"co":176.0,"o3":147.0,"so2":1.4,"mosquito_risk":4,"arthritis_risk":5,"migraine_risk":7,"frizz_risk":0,"updated_at":"2026-05-17T16:40:32.357347+05:30"},{"city":"Dalhousie","state":"Himachal Pradesh","latitude":32.5387,"longitude":75.971,"temp":23.3,"humidity":41,"rain":0.0,"pressure":805.1,"uv_index":8.65,"wind_gusts":38.2,"aqi":117,"pm10":21.4,"pm2_5":12.2,"no2":0.5,"co":172.0,"o3":155.0,"so2":2.1,"mosquito_risk":0,"arthritis_risk":5,"migraine_risk":7,"frizz_risk":0,"updated_at":"2026-05-17T16:40:32.357356+05:30"},{"city":"Patiala","state":"Punjab","latitude":30.3398,"longitude":76.3869,"temp":39.0,"humidity":20,"rain":0.0,"pressure":971.9,"uv_index":7.6,"wind_gusts":42.5,"aqi":563,"pm10":1262.9,"pm2_5":142.5,"no2":1.2,"co":258.0,"o3":139.0,"so2":5.2,"mosquito_risk":0,"arthritis_risk":5,"migraine_risk":10,"frizz_risk":0,"updated_at":"2026-05-17T16:40:32.357363+05:30"},{"city":"Bhatinda","state":"Punjab","latitude":30.211,"longitude":74.9455,"temp":39.7,"humidity":22,"rain":0.0,"pressure":977.5,"uv_index":8.25,"wind_gusts":37.4,"aqi":96,"pm10":55.4,"pm2_5":21.2,"no2":1.4,"co":222.0,"o3":128.0,"so2":6.8,"mosquito_risk":0,"arthritis_risk":5,"migraine_risk":10,"frizz_risk":0,"updated_at":"2026-05-17T16:40:32.357371+05:30"},{"city":"Rohtak","state":"Haryana","latitude":28.8955,"longitude":76.6066,"temp":39.2,"humidity":23,"rain":0.0,"pressure":975.5,"uv_index":7.75,"wind_gusts":47.2,"aqi":757,"pm10":1013.3,"pm2_5":129.5,"no2":2.5,"co":233.0,"o3":125.0,"so2":5.3,"mosquito_risk":0,"arthritis_risk":5,"migraine_risk":10,"frizz_risk":0,"updated_at":"2026-05-17T16:40:32.357379+05:30"},{"city":"Panipat","state":"Haryana","latitude":29.3909,"longitude":76.9635,"temp":38.7,"humidity":23,"rain":0.0,"pressure":973.7,"uv_index":7.6,"wind_gusts":49.7,"aqi":1639,"pm10":3017.5,"pm2_5":341.8,"no2":2.9,"co":253.0,"o3":125.0,"so2":8.2,"mosquito_risk":0,"arthritis_risk":5,"migraine_risk":10,"frizz_risk":0,"updated_at":"2026-05-17T16:40:32.357386+05:30"},{"city":"Mathura","state":"Uttar Pradesh","latitude":27.4924,"longitude":77.6737,"temp":40.3,"humidity":18,"rain":0.0,"pressure":980.2,"uv_index":8.0,"wind_gusts":42.8,"aqi":780,"pm10":568.1,"pm2_5":81.7,"no2":1.9,"co":184.0,"o3":120.0,"so2":4.4,"mosquito_risk":0,"arthritis_risk":5,"migraine_risk":10,"frizz_risk":0,"updated_at":"2026-05-17T16:40:32.357392+05:30"},{"city":"Vrindavan","state":"Uttar Pradesh","latitude":27.5823,"longitude":77.7027,"temp":39.9,"humidity":20,"rain":0.0,"pressure":980.6,"uv_index":7.95,"wind_gusts":41.0,"aqi":780,"pm10":568.1,"pm2_5":81.7,"no2":1.9,"co":201.0,"o3":120.0,"so2":4.4,"mosquito_risk":0,"arthritis_risk":5,"migraine_risk":10,"frizz_risk":0,"updated_at":"2026-05-17T16:40:32.357399+05:30"},{"city":"Ayodhya","state":"Uttar Pradesh","latitude":26.7922,"longitude":82.1998,"temp":37.8,"humidity":29,"rain":0.0,"pressure":986.9,"uv_index":8.35,"wind_gusts":41.8,"aqi":144,"pm10":66.4,"pm2_5":29.1,"no2":2.0,"co":255.0,"o3":148.0,"so2":7.3,"mosquito_risk":0,"arthritis_risk":5,"migraine_risk":10,"frizz_risk":1,"updated_at":"2026-05-17T16:40:32.357407+05:30"},{"city":"Ratlam","state":"Madhya Pradesh","latitude":23.3315,"longitude":75.0367,"temp":41.0,"humidity":13,"rain":0.0,"pressure":949.2,"uv_index":8.55,"wind_gusts":34.2,"aqi":64,"pm10":63.6,"pm2_5":20.2,"no2":0.4,"co":160.0,"o3":134.0,"so2":5.0,"mosquito_risk":0,"arthritis_risk":5,"migraine_risk":10,"frizz_risk":0,"updated_at":"2026-05-17T16:40:32.357413+05:30"},{"city":"Sagar","state":"Madhya Pradesh","latitude":23.8388,"longitude":78.7378,"temp":39.8,"humidity":16,"rain":0.0,"pressure":945.1,"uv_index":8.75,"wind_gusts":37.1,"aqi":84,"pm10":88.9,"pm2_5":24.4,"no2":0.4,"co":152.0,"o3":133.0,"so2":3.9,"mosquito_risk":0,"arthritis_risk":5,"migraine_risk":10,"frizz_risk":0,"updated_at":"2026-05-17T16:40:32.357420+05:30"},{"city":"Satna","state":"Madhya Pradesh","latitude":24.6005,"longitude":80.8322,"temp":39.8,"humidity":16,"rain":0.0,"pressure":965.0,"uv_index":8.75,"wind_gusts":48.2,"aqi":109,"pm10":170.4,"pm2_5":36.6,"no2":0.6,"co":183.0,"o3":132.0,"so2":4.1,"mosquito_risk":0,"arthritis_risk":5,"migraine_risk":10,"frizz_risk":0,"updated_at":"2026-05-17T16:40:32.357428+05:30"},{"city":"Akola","state":"Maharashtra","latitude":20.7002,"longitude":77.0082,"temp":42.5,"humidity":13,"rain":0.0,"pressure":968.4,"uv_index":8.95,"wind_gusts":32.0,"aqi":99,"pm10":16.6,"pm2_5":10.5,"no2":1.1,"co":147.0,"o3":142.0,"so2":4.8,"mosquito_risk":0,"arthritis_risk":5,"migraine_risk":10,"frizz_risk":0,"updated_at":"2026-05-17T16:40:32.357435+05:30"},{"city":"Amravati","state":"Maharashtra","latitude":20.9374,"longitude":77.7796,"temp":42.2,"humidity":15,"rain":0.0,"pressure":960.8,"uv_index":8.95,"wind_gusts":28.1,"aqi":96,"pm10":17.3,"pm2_5":11.4,"no2":0.7,"co":148.0,"o3":147.0,"so2":6.5,"mosquito_risk":0,"arthritis_risk":5,"migraine_risk":10,"frizz_risk":0,"updated_at":"2026-05-17T16:40:32.357443+05:30"},{"city":"Latur","state":"Maharashtra","latitude":18.4088,"longitude":76.5604,"temp":39.7,"humidity":18,"rain":0.0,"pressure":934.9,"uv_index":9.1,"wind_gusts":37.8,"aqi":107,"pm10":18.0,"pm2_5":12.7,"no2":0.8,"co":152.0,"o3":151.0,"so2":6.0,"mosquito_risk":0,"arthritis_risk":5,"migraine_risk":10,"frizz_risk":0,"updated_at":"2026-05-17T16:40:32.357450+05:30"},{"city":"Nanded","state":"Maharashtra","latitude":19.1383,"longitude":77.3091,"temp":40.8,"humidity":18,"rain":0.0,"pressure":962.4,"uv_index":9.0,"wind_gusts":34.9,"aqi":105,"pm10":16.8,"pm2_5":11.7,"no2":0.0,"co":168.0,"o3":145.0,"so2":4.1,"mosquito_risk":0,"arthritis_risk":5,"migraine_risk":10,"frizz_risk":0,"updated_at":"2026-05-17T16:40:32.357457+05:30"},{"city":"Gulbarga","state":"Karnataka","latitude":17.3297,"longitude":76.8343,"temp":39.5,"humidity":21,"rain":0.0,"pressure":952.7,"uv_index":9.1,"wind_gusts":34.2,"aqi":114,"pm10":37.5,"pm2_5":26.3,"no2":1.6,"co":190.0,"o3":159.0,"so2":7.9,"mosquito_risk":0,"arthritis_risk":5,"migraine_risk":10,"frizz_risk":0,"updated_at":"2026-05-17T16:40:32.357464+05:30"},{"city":"Bidar","state":"Karnataka","latitude":17.9104,"longitude":77.5199,"temp":38.5,"humidity":20,"rain":0.0,"pressure":930.7,"uv_index":9.15,"wind_gusts":34.2,"aqi":102,"pm10":33.8,"pm2_5":23.8,"no2":1.1,"co":218.0,"o3":155.0,"so2":6.9,"mosquito_risk":0,"arthritis_risk":5,"migraine_risk":10,"frizz_risk":0,"updated_at":"2026-05-17T16:40:32.357471+05:30"},{"city":"Hospet","state":"Karnataka","latitude":15.2689,"longitude":76.3909,"temp":34.5,"humidity":43,"rain":0.0,"pressure":950.0,"uv_index":9.2,"wind_gusts":61.9,"aqi":92,"pm10":44.5,"pm2_5":32.1,"no2":3.1,"co":249.0,"o3":168.0,"so2":15.8,"mosquito_risk":0,"arthritis_risk":5,"migraine_risk":7,"frizz_risk":1,"updated_at":"2026-05-17T16:40:32.357478+05:30"},{"city":"Tirupur","state":"Tamil Nadu","latitude":11.1085,"longitude":77.3411,"temp":31.0,"humidity":62,"rain":0.0,"pressure":969.5,"uv_index":8.9,"wind_gusts":48.6,"aqi":114,"pm10":34.2,"pm2_5":23.6,"no2":5.4,"co":207.0,"o3":130.0,"so2":4.4,"mosquito_risk":3,"arthritis_risk":5,"migraine_risk":7,"frizz_risk":1,"updated_at":"2026-05-17T16:40:32.357484+05:30"},{"city":"Alappuzha","state":"Kerala","latitude":9.4981,"longitude":76.3388,"temp":27.4,"humidity":90,"rain":0.2,"pressure":1005.1,"uv_index":8.65,"wind_gusts":29.5,"aqi":51,"pm10":11.3,"pm2_5":7.4,"no2":2.6,"co":138.0,"o3":83.0,"so2":1.3,"mosquito_risk":10,"arthritis_risk":5,"migraine_risk":4,"frizz_risk":1,"updated_at":"2026-05-17T16:40:32.357491+05:30"},{"city":"Munnar","state":"Kerala","latitude":10.0889,"longitude":77.0595,"temp":18.5,"humidity":100,"rain":0.2,"pressure":853.4,"uv_index":7.8,"wind_gusts":25.6,"aqi":53,"pm10":9.5,"pm2_5":7.8,"no2":2.8,"co":193.0,"o3":85.0,"so2":1.3,"mosquito_risk":6,"arthritis_risk":10,"migraine_risk":7,"frizz_risk":1,"updated_at":"2026-05-17T16:40:32.357499+05:30"},{"city":"Silchar","state":"Assam","latitude":24.8333,"longitude":92.7789,"temp":29.0,"humidity":80,"rain":0.1,"pressure":998.1,"uv_index":8.9,"wind_gusts":27.7,"aqi":66,"pm10":23.9,"pm2_5":14.5,"no2":1.9,"co":230.0,"o3":103.0,"so2":4.2,"mosquito_risk":10,"arthritis_risk":5,"migraine_risk":7,"frizz_risk":1,"updated_at":"2026-05-17T16:40:32.357506+05:30"},{"city":"Dibrugarh","state":"Assam","latitude":27.4728,"longitude":94.912,"temp":25.3,"humidity":90,"rain":0.1,"pressure":990.7,"uv_index":5.05,"wind_gusts":27.0,"aqi":75,"pm10":29.9,"pm2_5":20.4,"no2":5.7,"co":240.0,"o3":91.0,"so2":2.2,"mosquito_risk":10,"arthritis_risk":5,"migraine_risk":3,"frizz_risk":1,"updated_at":"2026-05-17T16:40:32.357512+05:30"}]