[{"city":"Delhi","state":"Delhi","latitude":28.6139,"longitude":77.209,"temp":34.9,"humidity":48,"rain":0.0,"pressure":974.4,"uv_index":7.8,"wind_gusts":46.4,"aqi":677,"pm10":651.9,"pm2_5":150.9,"no2":23.7,"co":418.0,"o3":125.0,"so2":22.6,"mosquito_risk":0,"arthritis_risk":5,"migraine_risk":7,"frizz_risk":1,"updated_at":"2026-06-11T19:31:18.989519+05:30"},{"city":"Mumbai","state":"Maharashtra","latitude":19.076,"longitude":72.8777,"temp":31.0,"humidity":66,"rain":0.0,"pressure":1005.3,"uv_index":7.7,"wind_gusts":41.8,"aqi":76,"pm10":57.2,"pm2_5":25.2,"no2":7.2,"co":185.0,"o3":53.0,"so2":5.2,"mosquito_risk":3,"arthritis_risk":5,"migraine_risk":4,"frizz_risk":1,"updated_at":"2026-06-11T19:31:18.989563+05:30"},{"city":"Bangalore","state":"Karnataka","latitude":12.9716,"longitude":77.5946,"temp":22.0,"humidity":96,"rain":0.4,"pressure":911.2,"uv_index":7.0,"wind_gusts":40.0,"aqi":47,"pm10":11.8,"pm2_5":9.4,"no2":27.9,"co":732.0,"o3":36.0,"so2":4.6,"mosquito_risk":6,"arthritis_risk":5,"migraine_risk":7,"frizz_risk":1,"updated_at":"2026-06-11T19:31:18.989578+05:30"},{"city":"Hyderabad","state":"Telangana","latitude":17.385,"longitude":78.4867,"temp":33.3,"humidity":45,"rain":0.0,"pressure":949.7,"uv_index":8.8,"wind_gusts":36.4,"aqi":74,"pm10":50.9,"pm2_5":34.2,"no2":27.0,"co":717.0,"o3":71.0,"so2":7.2,"mosquito_risk":0,"arthritis_risk":5,"migraine_risk":7,"frizz_risk":1,"updated_at":"2026-06-11T19:31:18.989588+05:30"},{"city":"Chennai","state":"Tamil Nadu","latitude":13.0827,"longitude":80.2707,"temp":32.4,"humidity":60,"rain":0.0,"pressure":1004.4,"uv_index":7.55,"wind_gusts":41.4,"aqi":66,"pm10":27.9,"pm2_5":20.3,"no2":12.4,"co":568.0,"o3":95.0,"so2":7.8,"mosquito_risk":0,"arthritis_risk":5,"migraine_risk":4,"frizz_risk":1,"updated_at":"2026-06-11T19:31:18.989596+05:30"},{"city":"Kolkata","state":"West Bengal","latitude":22.5726,"longitude":88.3639,"temp":27.2,"humidity":92,"rain":0.0,"pressure":1003.4,"uv_index":8.95,"wind_gusts":32.0,"aqi":125,"pm10":45.2,"pm2_5":38.5,"no2":11.7,"co":691.0,"o3":65.0,"so2":8.5,"mosquito_risk":7,"arthritis_risk":5,"migraine_risk":4,"frizz_risk":1,"updated_at":"2026-06-11T19:31:18.989604+05:30"},{"city":"Pune","state":"Maharashtra","latitude":18.5204,"longitude":73.8567,"temp":28.2,"humidity":63,"rain":0.0,"pressure":945.8,"uv_index":8.3,"wind_gusts":45.0,"aqi":58,"pm10":49.9,"pm2_5":21.5,"no2":5.9,"co":148.0,"o3":60.0,"so2":4.6,"mosquito_risk":7,"arthritis_risk":5,"migraine_risk":7,"frizz_risk":1,"updated_at":"2026-06-11T19:31:18.989611+05:30"},{"city":"Ahmedabad","state":"Gujarat","latitude":23.0225,"longitude":72.5714,"temp":33.4,"humidity":59,"rain":0.0,"pressure":994.4,"uv_index":8.05,"wind_gusts":49.7,"aqi":74,"pm10":64.3,"pm2_5":26.8,"no2":6.2,"co":149.0,"o3":87.0,"so2":5.4,"mosquito_risk":0,"arthritis_risk":5,"migraine_risk":7,"frizz_risk":1,"updated_at":"2026-06-11T19:31:18.989619+05:30"},{"city":"Jaipur","state":"Rajasthan","latitude":26.9124,"longitude":75.7873,"temp":38.0,"humidity":30,"rain":0.0,"pressure":951.2,"uv_index":8.25,"wind_gusts":40.7,"aqi":127,"pm10":95.2,"pm2_5":39.1,"no2":10.6,"co":311.0,"o3":80.0,"so2":5.7,"mosquito_risk":0,"arthritis_risk":5,"migraine_risk":10,"frizz_risk":1,"updated_at":"2026-06-11T19:31:18.989630+05:30"},{"city":"Lucknow","state":"Uttar Pradesh","latitude":26.8467,"longitude":80.9462,"temp":33.8,"humidity":53,"rain":0.0,"pressure":987.2,"uv_index":8.3,"wind_gusts":53.3,"aqi":155,"pm10":65.9,"pm2_5":47.3,"no2":7.5,"co":316.0,"o3":147.0,"so2":10.5,"mosquito_risk":0,"arthritis_risk":5,"migraine_risk":7,"frizz_risk":1,"updated_at":"2026-06-11T19:31:18.989638+05:30"},{"city":"Kanpur","state":"Uttar Pradesh","latitude":26.4499,"longitude":80.3319,"temp":34.9,"humidity":51,"rain":0.1,"pressure":985.1,"uv_index":8.3,"wind_gusts":47.2,"aqi":158,"pm10":239.3,"pm2_5":63.3,"no2":9.1,"co":333.0,"o3":136.0,"so2":9.8,"mosquito_risk":3,"arthritis_risk":5,"migraine_risk":7,"frizz_risk":1,"updated_at":"2026-06-11T19:31:18.989645+05:30"},{"city":"Chandigarh","state":"Chandigarh","latitude":30.7333,"longitude":76.7794,"temp":30.6,"humidity":70,"rain":0.1,"pressure":962.2,"uv_index":7.85,"wind_gusts":55.1,"aqi":151,"pm10":99.7,"pm2_5":52.5,"no2":12.2,"co":437.0,"o3":126.0,"so2":8.5,"mosquito_risk":6,"arthritis_risk":5,"migraine_risk":7,"frizz_risk":1,"updated_at":"2026-06-11T19:31:18.989653+05:30"},{"city":"Srinagar","state":"Jammu and Kashmir","latitude":34.0837,"longitude":74.7973,"temp":24.7,"humidity":56,"rain":0.0,"pressure":838.3,"uv_index":9.05,"wind_gusts":24.1,"aqi":121,"pm10":21.6,"pm2_5":18.5,"no2":24.0,"co":934.0,"o3":93.0,"so2":3.6,"mosquito_risk":0,"arthritis_risk":5,"migraine_risk":7,"frizz_risk":0,"updated_at":"2026-06-11T19:31:18.989660+05:30"},{"city":"Jammu","state":"Jammu and Kashmir","latitude":32.7266,"longitude":74.857,"temp":33.8,"humidity":43,"rain":0.0,"pressure":964.4,"uv_index":8.15,"wind_gusts":41.0,"aqi":173,"pm10":48.4,"pm2_5":32.7,"no2":22.7,"co":310.0,"o3":123.0,"so2":7.1,"mosquito_risk":0,"arthritis_risk":5,"migraine_risk":7,"frizz_risk":1,"updated_at":"2026-06-11T19:31:18.989667+05:30"},{"city":"Amritsar","state":"Punjab","latitude":31.634,"longitude":74.8723,"temp":28.1,"humidity":73,"rain":0.0,"pressure":971.6,"uv_index":8.5,"wind_gusts":56.2,"aqi":165,"pm10":227.2,"pm2_5":93.4,"no2":7.4,"co":349.0,"o3":143.0,"so2":7.3,"mosquito_risk":7,"arthritis_risk":5,"migraine_risk":7,"frizz_risk":1,"updated_at":"2026-06-11T19:31:18.989673+05:30"},{"city":"Ludhiana","state":"Punjab","latitude":30.901,"longitude":75.8573,"temp":28.7,"humidity":84,"rain":0.3,"pressure":971.8,"uv_index":8.05,"wind_gusts":52.6,"aqi":658,"pm10":411.6,"pm2_5":124.8,"no2":8.9,"co":410.0,"o3":144.0,"so2":11.6,"mosquito_risk":10,"arthritis_risk":5,"migraine_risk":7,"frizz_risk":1,"updated_at":"2026-06-11T19:31:18.989680+05:30"},{"city":"Jalandhar","state":"Punjab","latitude":31.326,"longitude":75.5762,"temp":28.4,"humidity":78,"rain":0.2,"pressure":970.3,"uv_index":8.25,"wind_gusts":47.2,"aqi":414,"pm10":442.4,"pm2_5":136.4,"no2":9.9,"co":422.0,"o3":143.0,"so2":10.1,"mosquito_risk":10,"arthritis_risk":5,"migraine_risk":7,"frizz_risk":1,"updated_at":"2026-06-11T19:31:18.989686+05:30"},{"city":"Dehradun","state":"Uttarakhand","latitude":30.6284,"longitude":78.0322,"temp":20.1,"humidity":86,"rain":0.0,"pressure":827.7,"uv_index":7.9,"wind_gusts":36.0,"aqi":135,"pm10":67.5,"pm2_5":29.2,"no2":12.6,"co":195.0,"o3":122.0,"so2":3.3,"mosquito_risk":3,"arthritis_risk":5,"migraine_risk":7,"frizz_risk":1,"updated_at":"2026-06-11T19:31:18.989693+05:30"},{"city":"Shimla","state":"Himachal Pradesh","latitude":31.1048,"longitude":77.1734,"temp":17.8,"humidity":72,"rain":0.0,"pressure":782.6,"uv_index":8.25,"wind_gusts":38.2,"aqi":145,"pm10":37.1,"pm2_5":29.6,"no2":14.4,"co":259.0,"o3":119.0,"so2":5.5,"mosquito_risk":3,"arthritis_risk":5,"migraine_risk":7,"frizz_risk":0,"updated_at":"2026-06-11T19:31:18.989703+05:30"},{"city":"Manali","state":"Himachal Pradesh","latitude":32.2396,"longitude":77.1887,"temp":19.0,"humidity":65,"rain":0.0,"pressure":817.2,"uv_index":9.3,"wind_gusts":35.6,"aqi":89,"pm10":5.5,"pm2_5":4.7,"no2":65.8,"co":227.0,"o3":63.0,"so2":0.4,"mosquito_risk":3,"arthritis_risk":5,"migraine_risk":7,"frizz_risk":0,"updated_at":"2026-06-11T19:31:18.989709+05:30"},{"city":"Gurgaon","state":"Haryana","latitude":28.4595,"longitude":77.0266,"temp":36.4,"humidity":42,"rain":0.0,"pressure":972.1,"uv_index":7.9,"wind_gusts":54.4,"aqi":1243,"pm10":925.7,"pm2_5":183.9,"no2":41.5,"co":524.0,"o3":81.0,"so2":19.4,"mosquito_risk":0,"arthritis_risk":5,"migraine_risk":10,"frizz_risk":1,"updated_at":"2026-06-11T19:31:18.989716+05:30"},{"city":"Noida","state":"Uttar Pradesh","latitude":28.5355,"longitude":77.391,"temp":35.4,"humidity":51,"rain":0.0,"pressure":975.5,"uv_index":7.85,"wind_gusts":51.5,"aqi":1243,"pm10":925.7,"pm2_5":183.9,"no2":41.5,"co":357.0,"o3":81.0,"so2":19.4,"mosquito_risk":0,"arthritis_risk":5,"migraine_risk":10,"frizz_risk":1,"updated_at":"2026-06-11T19:31:18.989724+05:30"},{"city":"Ghaziabad","state":"Uttar Pradesh","latitude":28.6692,"longitude":77.4538,"temp":34.1,"humidity":55,"rain":0.0,"pressure":974.1,"uv_index":7.85,"wind_gusts":47.5,"aqi":576,"pm10":676.1,"pm2_5":146.7,"no2":8.5,"co":281.0,"o3":142.0,"so2":11.2,"mosquito_risk":0,"arthritis_risk":5,"migraine_risk":7,"frizz_risk":1,"updated_at":"2026-06-11T19:31:18.989730+05:30"},{"city":"Faridabad","state":"Haryana","latitude":28.4089,"longitude":77.3178,"temp":35.7,"humidity":47,"rain":0.0,"pressure":974.9,"uv_index":7.9,"wind_gusts":58.0,"aqi":1243,"pm10":925.7,"pm2_5":183.9,"no2":41.5,"co":353.0,"o3":81.0,"so2":19.4,"mosquito_risk":0,"arthritis_risk":5,"migraine_risk":10,"frizz_risk":1,"updated_at":"2026-06-11T19:31:18.989736+05:30"},{"city":"Meerut","state":"Uttar Pradesh","latitude":28.9845,"longitude":77.7064,"temp":27.9,"humidity":77,"rain":0.0,"pressure":974.9,"uv_index":7.75,"wind_gusts":51.8,"aqi":576,"pm10":676.1,"pm2_5":146.7,"no2":8.5,"co":313.0,"o3":142.0,"so2":11.2,"mosquito_risk":7,"arthritis_risk":5,"migraine_risk":7,"frizz_risk":1,"updated_at":"2026-06-11T19:31:18.989743+05:30"},{"city":"Agra","state":"Uttar Pradesh","latitude":27.1767,"longitude":78.0081,"temp":39.0,"humidity":31,"rain":0.0,"pressure":978.5,"uv_index":8.2,"wind_gusts":76.0,"aqi":558,"pm10":135.5,"pm2_5":50.9,"no2":27.7,"co":274.0,"o3":54.0,"so2":9.9,"mosquito_risk":0,"arthritis_risk":5,"migraine_risk":10,"frizz_risk":1,"updated_at":"2026-06-11T19:31:18.989749+05:30"},{"city":"Varanasi","state":"Uttar Pradesh","latitude":25.3176,"longitude":82.9739,"temp":34.4,"humidity":51,"rain":0.0,"pressure":991.4,"uv_index":8.8,"wind_gusts":42.1,"aqi":201,"pm10":78.7,"pm2_5":66.1,"no2":15.5,"co":457.0,"o3":148.0,"so2":18.6,"mosquito_risk":0,"arthritis_risk":5,"migraine_risk":7,"frizz_risk":1,"updated_at":"2026-06-11T19:31:18.989755+05:30"},{"city":"Prayagraj","state":"Uttar Pradesh","latitude":25.4358,"longitude":81.8463,"temp":36.2,"humidity":45,"rain":0.0,"pressure":989.2,"uv_index":8.6,"wind_gusts":35.3,"aqi":199,"pm10":68.7,"pm2_5":56.8,"no2":12.2,"co":416.0,"o3":151.0,"so2":13.8,"mosquito_risk":0,"arthritis_risk":5,"migraine_risk":10,"frizz_risk":1,"updated_at":"2026-06-11T19:31:18.989762+05:30"},{"city":"Gorakhpur","state":"Uttar Pradesh","latitude":26.7606,"longitude":83.3732,"temp":30.2,"humidity":70,"rain":0.0,"pressure":992.1,"uv_index":8.7,"wind_gusts":46.1,"aqi":144,"pm10":55.4,"pm2_5":33.6,"no2":11.0,"co":412.0,"o3":125.0,"so2":9.6,"mosquito_risk":3,"arthritis_risk":5,"migraine_risk":7,"frizz_risk":1,"updated_at":"2026-06-11T19:31:18.989770+05:30"},{"city":"Bareilly","state":"Uttar Pradesh","latitude":28.367,"longitude":79.4304,"temp":33.8,"humidity":52,"rain":0.0,"pressure":979.7,"uv_index":7.05,"wind_gusts":45.7,"aqi":161,"pm10":203.5,"pm2_5":68.9,"no2":5.5,"co":320.0,"o3":143.0,"so2":10.3,"mosquito_risk":0,"arthritis_risk":5,"migraine_risk":7,"frizz_risk":1,"updated_at":"2026-06-11T19:31:18.989776+05:30"},{"city":"Aligarh","state":"Uttar Pradesh","latitude":27.8974,"longitude":78.088,"temp":33.3,"humidity":57,"rain":0.1,"pressure":976.5,"uv_index":8.0,"wind_gusts":65.2,"aqi":819,"pm10":821.4,"pm2_5":150.4,"no2":11.1,"co":274.0,"o3":117.0,"so2":9.1,"mosquito_risk":3,"arthritis_risk":5,"migraine_risk":7,"frizz_risk":1,"updated_at":"2026-06-11T19:31:18.989782+05:30"},{"city":"Moradabad","state":"Uttar Pradesh","latitude":28.8386,"longitude":78.7733,"temp":34.1,"humidity":49,"rain":0.0,"pressure":976.8,"uv_index":7.95,"wind_gusts":51.5,"aqi":161,"pm10":131.3,"pm2_5":62.9,"no2":9.1,"co":301.0,"o3":137.0,"so2":11.5,"mosquito_risk":0,"arthritis_risk":5,"migraine_risk":7,"frizz_risk":1,"updated_at":"2026-06-11T19:31:18.989788+05:30"},{"city":"Saharanpur","state":"Uttar Pradesh","latitude":29.9637,"longitude":77.546,"temp":29.4,"humidity":66,"rain":0.0,"pressure":970.0,"uv_index":7.5,"wind_gusts":55.4,"aqi":141,"pm10":151.8,"pm2_5":67.8,"no2":8.7,"co":269.0,"o3":130.0,"so2":9.1,"mosquito_risk":7,"arthritis_risk":5,"migraine_risk":7,"frizz_risk":1,"updated_at":"2026-06-11T19:31:18.989794+05:30"},{"city":"Jhansi","state":"Uttar Pradesh","latitude":25.4484,"longitude":78.5685,"temp":36.5,"humidity":41,"rain":0.0,"pressure":970.1,"uv_index":8.55,"wind_gusts":38.9,"aqi":69,"pm10":29.9,"pm2_5":20.7,"no2":7.7,"co":159.0,"o3":76.0,"so2":5.7,"mosquito_risk":0,"arthritis_risk":5,"migraine_risk":10,"frizz_risk":1,"updated_at":"2026-06-11T19:31:22.259616+05:30"},{"city":"Surat","state":"Gujarat","latitude":21.1702,"longitude":72.8311,"temp":31.2,"humidity":68,"rain":0.0,"pressure":1001.6,"uv_index":6.7,"wind_gusts":56.9,"aqi":85,"pm10":50.2,"pm2_5":27.2,"no2":14.7,"co":170.0,"o3":43.0,"so2":27.5,"mosquito_risk":3,"arthritis_risk":5,"migraine_risk":4,"frizz_risk":1,"updated_at":"2026-06-11T19:31:22.259648+05:30"},{"city":"Vadodara","state":"Gujarat","latitude":22.3072,"longitude":73.1812,"temp":32.7,"humidity":59,"rain":0.0,"pressure":997.7,"uv_index":8.05,"wind_gusts":52.6,"aqi":81,"pm10":45.8,"pm2_5":27.0,"no2":10.9,"co":185.0,"o3":65.0,"so2":15.3,"mosquito_risk":0,"arthritis_risk":5,"migraine_risk":7,"frizz_risk":1,"updated_at":"2026-06-11T19:31:22.259658+05:30"},{"city":"Rajkot","state":"Gujarat","latitude":22.3039,"longitude":70.8022,"temp":34.4,"humidity":49,"rain":0.0,"pressure":987.5,"uv_index":7.55,"wind_gusts":51.1,"aqi":71,"pm10":56.2,"pm2_5":21.6,"no2":3.7,"co":112.0,"o3":72.0,"so2":4.9,"mosquito_risk":0,"arthritis_risk":5,"migraine_risk":7,"frizz_risk":1,"updated_at":"2026-06-11T19:31:22.259666+05:30"},{"city":"Thane","state":"Maharashtra","latitude":19.2183,"longitude":72.9781,"temp":31.5,"humidity":62,"rain":0.0,"pressure":1004.6,"uv_index":7.7,"wind_gusts":40.3,"aqi":76,"pm10":57.2,"pm2_5":25.2,"no2":7.2,"co":166.0,"o3":53.0,"so2":5.2,"mosquito_risk":3,"arthritis_risk":5,"migraine_risk":4,"frizz_risk":1,"updated_at":"2026-06-11T19:31:22.259674+05:30"},{"city":"Nagpur","state":"Maharashtra","latitude":21.1458,"longitude":79.0882,"temp":38.5,"humidity":27,"rain":0.0,"pressure":967.4,"uv_index":8.9,"wind_gusts":35.6,"aqi":112,"pm10":34.9,"pm2_5":22.5,"no2":11.3,"co":220.0,"o3":103.0,"so2":15.4,"mosquito_risk":0,"arthritis_risk":5,"migraine_risk":10,"frizz_risk":1,"updated_at":"2026-06-11T19:31:22.259683+05:30"},{"city":"Nashik","state":"Maharashtra","latitude":19.9975,"longitude":73.7898,"temp":28.3,"humidity":62,"rain":0.0,"pressure":942.3,"uv_index":8.05,"wind_gusts":46.4,"aqi":63,"pm10":47.8,"pm2_5":22.4,"no2":4.3,"co":123.0,"o3":58.0,"so2":2.1,"mosquito_risk":7,"arthritis_risk":5,"migraine_risk":7,"frizz_risk":1,"updated_at":"2026-06-11T19:31:22.259690+05:30"},{"city":"Aurangabad","state":"Maharashtra","latitude":19.8762,"longitude":75.3433,"temp":34.6,"humidity":32,"rain":0.0,"pressure":940.0,"uv_index":8.95,"wind_gusts":48.2,"aqi":75,"pm10":55.4,"pm2_5":24.8,"no2":3.3,"co":149.0,"o3":104.0,"so2":5.3,"mosquito_risk":0,"arthritis_risk":5,"migraine_risk":7,"frizz_risk":0,"updated_at":"2026-06-11T19:31:22.259698+05:30"},{"city":"Solapur","state":"Maharashtra","latitude":17.6599,"longitude":75.9064,"temp":33.8,"humidity":30,"rain":0.0,"pressure":953.0,"uv_index":8.9,"wind_gusts":49.3,"aqi":57,"pm10":41.3,"pm2_5":24.4,"no2":21.2,"co":243.0,"o3":73.0,"so2":5.3,"mosquito_risk":0,"arthritis_risk":5,"migraine_risk":7,"frizz_risk":0,"updated_at":"2026-06-11T19:31:22.259707+05:30"},{"city":"Kolhapur","state":"Maharashtra","latitude":16.705,"longitude":74.2433,"temp":25.9,"humidity":81,"rain":0.0,"pressure":946.1,"uv_index":8.75,"wind_gusts":45.4,"aqi":46,"pm10":36.2,"pm2_5":19.7,"no2":4.7,"co":160.0,"o3":56.0,"so2":2.3,"mosquito_risk":7,"arthritis_risk":5,"migraine_risk":7,"frizz_risk":1,"updated_at":"2026-06-11T19:31:22.259715+05:30"},{"city":"Goa","state":"Goa","latitude":15.2993,"longitude":74.124,"temp":25.9,"humidity":97,"rain":0.0,"pressure":997.1,"uv_index":8.0,"wind_gusts":32.8,"aqi":63,"pm10":37.0,"pm2_5":18.2,"no2":3.3,"co":266.0,"o3":51.0,"so2":1.4,"mosquito_risk":7,"arthritis_risk":5,"migraine_risk":7,"frizz_risk":1,"updated_at":"2026-06-11T19:31:22.259723+05:30"},{"city":"Jodhpur","state":"Rajasthan","latitude":26.2389,"longitude":73.0243,"temp":37.9,"humidity":36,"rain":0.0,"pressure":973.4,"uv_index":8.45,"wind_gusts":50.4,"aqi":173,"pm10":274.7,"pm2_5":58.7,"no2":3.8,"co":151.0,"o3":81.0,"so2":2.4,"mosquito_risk":0,"arthritis_risk":5,"migraine_risk":10,"frizz_risk":1,"updated_at":"2026-06-11T19:31:22.259731+05:30"},{"city":"Udaipur","state":"Rajasthan","latitude":24.5854,"longitude":73.7125,"temp":33.5,"humidity":45,"rain":0.0,"pressure":940.0,"uv_index":8.85,"wind_gusts":44.6,"aqi":79,"pm10":49.1,"pm2_5":24.0,"no2":2.9,"co":134.0,"o3":101.0,"so2":5.4,"mosquito_risk":0,"arthritis_risk":5,"migraine_risk":7,"frizz_risk":1,"updated_at":"2026-06-11T19:31:22.259739+05:30"},{"city":"Kota","state":"Rajasthan","latitude":25.2138,"longitude":75.8648,"temp":37.5,"humidity":37,"rain":0.0,"pressure":970.5,"uv_index":8.4,"wind_gusts":40.3,"aqi":83,"pm10":55.1,"pm2_5":31.3,"no2":5.0,"co":177.0,"o3":92.0,"so2":5.6,"mosquito_risk":0,"arthritis_risk":5,"migraine_risk":10,"frizz_risk":1,"updated_at":"2026-06-11T19:31:22.259746+05:30"},{"city":"Bikaner","state":"Rajasthan","latitude":28.0229,"longitude":73.3119,"temp":40.6,"humidity":20,"rain":0.0,"pressure":970.4,"uv_index":8.5,"wind_gusts":46.8,"aqi":161,"pm10":240.3,"pm2_5":75.9,"no2":1.7,"co":124.0,"o3":93.0,"so2":3.2,"mosquito_risk":0,"arthritis_risk":5,"migraine_risk":10,"frizz_risk":0,"updated_at":"2026-06-11T19:31:22.259754+05:30"},{"city":"Ajmer","state":"Rajasthan","latitude":26.4499,"longitude":74.6399,"temp":34.5,"humidity":41,"rain":0.0,"pressure":946.7,"uv_index":8.4,"wind_gusts":52.2,"aqi":72,"pm10":54.5,"pm2_5":28.2,"no2":3.7,"co":140.0,"o3":92.0,"so2":3.3,"mosquito_risk":0,"arthritis_risk":5,"migraine_risk":7,"frizz_risk":1,"updated_at":"2026-06-11T19:31:22.259761+05:30"},{"city":"Gwalior","state":"Madhya Pradesh","latitude":26.2183,"longitude":78.1828,"temp":37.6,"humidity":37,"rain":0.0,"pressure":974.7,"uv_index":8.3,"wind_gusts":45.4,"aqi":74,"pm10":55.1,"pm2_5":28.6,"no2":5.0,"co":161.0,"o3":86.0,"so2":6.2,"mosquito_risk":0,"arthritis_risk":5,"migraine_risk":10,"frizz_risk":1,"updated_at":"2026-06-11T19:31:22.259769+05:30"},{"city":"Indore","state":"Madhya Pradesh","latitude":22.7196,"longitude":75.8577,"temp":34.6,"humidity":40,"rain":0.0,"pressure":942.9,"uv_index":8.65,"wind_gusts":46.1,"aqi":78,"pm10":70.8,"pm2_5":33.4,"no2":4.3,"co":221.0,"o3":98.0,"so2":6.4,"mosquito_risk":0,"arthritis_risk":5,"migraine_risk":7,"frizz_risk":1,"updated_at":"2026-06-11T19:31:22.259777+05:30"},{"city":"Bhopal","state":"Madhya Pradesh","latitude":23.2599,"longitude":77.4126,"temp":34.3,"humidity":45,"rain":0.0,"pressure":947.8,"uv_index":8.7,"wind_gusts":41.8,"aqi":73,"pm10":26.3,"pm2_5":18.6,"no2":5.7,"co":240.0,"o3":84.0,"so2":3.3,"mosquito_risk":0,"arthritis_risk":5,"migraine_risk":7,"frizz_risk":1,"updated_at":"2026-06-11T19:31:22.259785+05:30"},{"city":"Jabalpur","state":"Madhya Pradesh","latitude":23.1815,"longitude":79.9864,"temp":35.1,"humidity":37,"rain":0.0,"pressure":955.7,"uv_index":8.9,"wind_gusts":36.7,"aqi":75,"pm10":25.5,"pm2_5":18.2,"no2":6.9,"co":221.0,"o3":94.0,"so2":4.2,"mosquito_risk":0,"arthritis_risk":5,"migraine_risk":10,"frizz_risk":1,"updated_at":"2026-06-11T19:31:22.259792+05:30"},{"city":"Ujjain","state":"Madhya Pradesh","latitude":23.1765,"longitude":75.7885,"temp":34.4,"humidity":40,"rain":0.0,"pressure":948.0,"uv_index":8.6,"wind_gusts":45.4,"aqi":81,"pm10":66.4,"pm2_5":34.1,"no2":2.5,"co":177.0,"o3":101.0,"so2":5.6,"mosquito_risk":0,"arthritis_risk":5,"migraine_risk":7,"frizz_risk":1,"updated_at":"2026-06-11T19:31:22.259801+05:30"},{"city":"Visakhapatnam","state":"Andhra Pradesh","latitude":17.6868,"longitude":83.2185,"temp":32.0,"humidity":77,"rain":0.0,"pressure":998.5,"uv_index":6.9,"wind_gusts":32.8,"aqi":163,"pm10":75.7,"pm2_5":59.8,"no2":48.9,"co":566.0,"o3":99.0,"so2":63.3,"mosquito_risk":3,"arthritis_risk":5,"migraine_risk":7,"frizz_risk":1,"updated_at":"2026-06-11T19:31:22.259808+05:30"},{"city":"Vijayawada","state":"Andhra Pradesh","latitude":16.5062,"longitude":80.648,"temp":34.7,"humidity":48,"rain":0.0,"pressure":997.9,"uv_index":8.3,"wind_gusts":43.6,"aqi":106,"pm10":49.4,"pm2_5":38.3,"no2":11.3,"co":314.0,"o3":92.0,"so2":7.5,"mosquito_risk":0,"arthritis_risk":5,"migraine_risk":7,"frizz_risk":1,"updated_at":"2026-06-11T19:31:22.259816+05:30"},{"city":"Guntur","state":"Andhra Pradesh","latitude":16.3067,"longitude":80.4365,"temp":34.0,"humidity":55,"rain":0.0,"pressure":999.1,"uv_index":8.5,"wind_gusts":40.7,"aqi":93,"pm10":63.8,"pm2_5":48.1,"no2":14.0,"co":325.0,"o3":85.0,"so2":7.0,"mosquito_risk":0,"arthritis_risk":5,"migraine_risk":7,"frizz_risk":1,"updated_at":"2026-06-11T19:31:22.259823+05:30"},{"city":"Nellore","state":"Andhra Pradesh","latitude":14.4426,"longitude":79.9865,"temp":32.8,"humidity":56,"rain":0.0,"pressure":1002.3,"uv_index":5.55,"wind_gusts":39.2,"aqi":62,"pm10":31.5,"pm2_5":20.4,"no2":6.0,"co":227.0,"o3":104.0,"so2":5.6,"mosquito_risk":0,"arthritis_risk":5,"migraine_risk":0,"frizz_risk":1,"updated_at":"2026-06-11T19:31:22.259831+05:30"},{"city":"Kurnool","state":"Andhra Pradesh","latitude":15.8281,"longitude":78.0373,"temp":32.7,"humidity":50,"rain":0.0,"pressure":972.9,"uv_index":8.25,"wind_gusts":55.8,"aqi":62,"pm10":50.8,"pm2_5":28.6,"no2":17.1,"co":179.0,"o3":87.0,"so2":9.1,"mosquito_risk":0,"arthritis_risk":5,"migraine_risk":7,"frizz_risk":1,"updated_at":"2026-06-11T19:31:22.259839+05:30"},{"city":"Kakinada","state":"Andhra Pradesh","latitude":16.9891,"longitude":82.2475,"temp":33.6,"humidity":62,"rain":0.0,"pressure":1002.0,"uv_index":8.55,"wind_gusts":40.3,"aqi":107,"pm10":42.1,"pm2_5":30.2,"no2":8.7,"co":282.0,"o3":105.0,"so2":5.0,"mosquito_risk":3,"arthritis_risk":5,"migraine_risk":4,"frizz_risk":1,"updated_at":"2026-06-11T19:31:22.259846+05:30"},{"city":"Tirupati","state":"Andhra Pradesh","latitude":13.6288,"longitude":79.4192,"temp":27.3,"humidity":93,"rain":0.0,"pressure":988.9,"uv_index":7.05,"wind_gusts":43.6,"aqi":58,"pm10":24.9,"pm2_5":17.3,"no2":13.1,"co":230.0,"o3":69.0,"so2":2.6,"mosquito_risk":7,"arthritis_risk":5,"migraine_risk":7,"frizz_risk":1,"updated_at":"2026-06-11T19:31:22.259853+05:30"},{"city":"Warangal","state":"Telangana","latitude":17.9689,"longitude":79.5941,"temp":32.6,"humidity":60,"rain":0.0,"pressure":974.1,"uv_index":8.6,"wind_gusts":48.2,"aqi":99,"pm10":75.2,"pm2_5":54.4,"no2":21.0,"co":201.0,"o3":78.0,"so2":8.3,"mosquito_risk":0,"arthritis_risk":5,"migraine_risk":7,"frizz_risk":1,"updated_at":"2026-06-11T19:31:22.259859+05:30"},{"city":"Nizamabad","state":"Telangana","latitude":18.6725,"longitude":78.0941,"temp":35.3,"humidity":32,"rain":0.0,"pressure":960.2,"uv_index":7.9,"wind_gusts":38.2,"aqi":77,"pm10":51.1,"pm2_5":32.5,"no2":18.9,"co":313.0,"o3":87.0,"so2":6.6,"mosquito_risk":0,"arthritis_risk":5,"migraine_risk":10,"frizz_risk":1,"updated_at":"2026-06-11T19:31:22.259866+05:30"},{"city":"Mysore","state":"Karnataka","latitude":12.2958,"longitude":76.6396,"temp":22.9,"humidity":94,"rain":0.1,"pressure":927.9,"uv_index":9.05,"wind_gusts":46.8,"aqi":32,"pm10":9.7,"pm2_5":7.2,"no2":13.1,"co":192.0,"o3":46.0,"so2":2.0,"mosquito_risk":6,"arthritis_risk":5,"migraine_risk":7,"frizz_risk":1,"updated_at":"2026-06-11T19:31:22.259873+05:30"},{"city":"Mangalore","state":"Karnataka","latitude":12.9141,"longitude":74.856,"temp":25.1,"humidity":99,"rain":0.0,"pressure":1007.0,"uv_index":8.65,"wind_gusts":31.3,"aqi":40,"pm10":19.7,"pm2_5":11.6,"no2":8.2,"co":295.0,"o3":43.0,"so2":2.5,"mosquito_risk":7,"arthritis_risk":5,"migraine_risk":4,"frizz_risk":1,"updated_at":"2026-06-11T19:31:22.259880+05:30"},{"city":"Hubli-Dharwad","state":"Karnataka","latitude":15.3647,"longitude":75.124,"temp":25.3,"humidity":80,"rain":0.0,"pressure":939.6,"uv_index":8.7,"wind_gusts":43.9,"aqi":37,"pm10":22.4,"pm2_5":13.5,"no2":5.4,"co":156.0,"o3":55.0,"so2":1.4,"mosquito_risk":7,"arthritis_risk":5,"migraine_risk":7,"frizz_risk":1,"updated_at":"2026-06-11T19:31:22.259887+05:30"},{"city":"Belgaum","state":"Karnataka","latitude":15.8497,"longitude":74.4977,"temp":23.7,"humidity":87,"rain":0.0,"pressure":924.4,"uv_index":6.65,"wind_gusts":46.1,"aqi":47,"pm10":30.2,"pm2_5":15.5,"no2":4.9,"co":117.0,"o3":52.0,"so2":1.6,"mosquito_risk":3,"arthritis_risk":5,"migraine_risk":7,"frizz_risk":1,"updated_at":"2026-06-11T19:31:25.535367+05:30"},{"city":"Coimbatore","state":"Tamil Nadu","latitude":11.0168,"longitude":76.9558,"temp":24.2,"humidity":91,"rain":0.0,"pressure":961.1,"uv_index":7.95,"wind_gusts":55.8,"aqi":37,"pm10":5.6,"pm2_5":4.7,"no2":7.6,"co":201.0,"o3":55.0,"so2":2.8,"mosquito_risk":3,"arthritis_risk":5,"migraine_risk":7,"frizz_risk":1,"updated_at":"2026-06-11T19:31:25.535400+05:30"},{"city":"Madurai","state":"Tamil Nadu","latitude":9.9252,"longitude":78.1198,"temp":31.8,"humidity":52,"rain":0.0,"pressure":991.9,"uv_index":7.3,"wind_gusts":39.6,"aqi":43,"pm10":18.3,"pm2_5":9.3,"no2":6.5,"co":159.0,"o3":69.0,"so2":2.5,"mosquito_risk":0,"arthritis_risk":5,"migraine_risk":7,"frizz_risk":1,"updated_at":"2026-06-11T19:31:25.535411+05:30"},{"city":"Trichy","state":"Tamil Nadu","latitude":10.7905,"longitude":78.7047,"temp":28.6,"humidity":86,"rain":0.2,"pressure":999.1,"uv_index":7.25,"wind_gusts":39.2,"aqi":41,"pm10":24.3,"pm2_5":13.2,"no2":10.3,"co":225.0,"o3":68.0,"so2":3.2,"mosquito_risk":10,"arthritis_risk":5,"migraine_risk":7,"frizz_risk":1,"updated_at":"2026-06-11T19:31:25.535421+05:30"},{"city":"Salem","state":"Tamil Nadu","latitude":11.6643,"longitude":78.146,"temp":25.1,"humidity":95,"rain":0.0,"pressure":977.2,"uv_index":7.3,"wind_gusts":40.3,"aqi":54,"pm10":19.7,"pm2_5":12.7,"no2":13.1,"co":289.0,"o3":67.0,"so2":5.3,"mosquito_risk":7,"arthritis_risk":5,"migraine_risk":7,"frizz_risk":1,"updated_at":"2026-06-11T19:31:25.535429+05:30"},{"city":"Tirunelveli","state":"Tamil Nadu","latitude":8.7139,"longitude":77.7567,"temp":30.6,"humidity":61,"rain":0.0,"pressure":1002.9,"uv_index":6.75,"wind_gusts":42.8,"aqi":31,"pm10":4.5,"pm2_5":3.7,"no2":5.7,"co":170.0,"o3":48.0,"so2":1.3,"mosquito_risk":3,"arthritis_risk":5,"migraine_risk":4,"frizz_risk":1,"updated_at":"2026-06-11T19:31:25.535460+05:30"},{"city":"Vellore","state":"Tamil Nadu","latitude":12.9165,"longitude":79.1325,"temp":26.6,"humidity":94,"rain":0.0,"pressure":983.5,"uv_index":8.4,"wind_gusts":45.0,"aqi":59,"pm10":30.6,"pm2_5":21.7,"no2":11.6,"co":240.0,"o3":69.0,"so2":2.8,"mosquito_risk":7,"arthritis_risk":5,"migraine_risk":7,"frizz_risk":1,"updated_at":"2026-06-11T19:31:25.535470+05:30"},{"city":"Erode","state":"Tamil Nadu","latitude":11.341,"longitude":77.7172,"temp":28.3,"humidity":78,"rain":0.1,"pressure":988.9,"uv_index":8.3,"wind_gusts":42.1,"aqi":43,"pm10":14.3,"pm2_5":9.9,"no2":12.7,"co":277.0,"o3":58.0,"so2":3.2,"mosquito_risk":10,"arthritis_risk":5,"migraine_risk":7,"frizz_risk":1,"updated_at":"2026-06-11T19:31:25.535478+05:30"},{"city":"Kochi","state":"Kerala","latitude":9.9312,"longitude":76.2673,"temp":25.9,"humidity":90,"rain":0.1,"pressure":1010.3,"uv_index":7.1,"wind_gusts":32.8,"aqi":42,"pm10":13.2,"pm2_5":9.7,"no2":19.2,"co":192.0,"o3":26.0,"so2":4.1,"mosquito_risk":10,"arthritis_risk":0,"migraine_risk":4,"frizz_risk":1,"updated_at":"2026-06-11T19:31:25.535487+05:30"},{"city":"Thiruvananthapuram","state":"Kerala","latitude":8.5241,"longitude":76.9366,"temp":25.0,"humidity":94,"rain":0.1,"pressure":1009.8,"uv_index":7.7,"wind_gusts":40.7,"aqi":27,"pm10":11.2,"pm2_5":5.6,"no2":1.7,"co":117.0,"o3":59.0,"so2":0.5,"mosquito_risk":10,"arthritis_risk":0,"migraine_risk":4,"frizz_risk":1,"updated_at":"2026-06-11T19:31:25.535494+05:30"},{"city":"Kozhikode","state":"Kerala","latitude":11.2588,"longitude":75.7804,"temp":25.0,"humidity":99,"rain":0.1,"pressure":1008.8,"uv_index":7.0,"wind_gusts":34.6,"aqi":30,"pm10":8.1,"pm2_5":4.2,"no2":1.6,"co":338.0,"o3":60.0,"so2":0.8,"mosquito_risk":10,"arthritis_risk":0,"migraine_risk":4,"frizz_risk":1,"updated_at":"2026-06-11T19:31:25.535501+05:30"},{"city":"Thrissur","state":"Kerala","latitude":10.5276,"longitude":76.2144,"temp":24.5,"humidity":99,"rain":0.0,"pressure":1008.5,"uv_index":7.25,"wind_gusts":33.1,"aqi":37,"pm10":12.8,"pm2_5":9.6,"no2":9.9,"co":381.0,"o3":42.0,"so2":2.4,"mosquito_risk":3,"arthritis_risk":0,"migraine_risk":4,"frizz_risk":1,"updated_at":"2026-06-11T19:31:25.535510+05:30"},{"city":"Kannur","state":"Kerala","latitude":11.8745,"longitude":75.3704,"temp":25.6,"humidity":97,"rain":0.0,"pressure":1007.7,"uv_index":8.7,"wind_gusts":28.1,"aqi":33,"pm10":17.8,"pm2_5":11.1,"no2":17.1,"co":407.0,"o3":31.0,"so2":2.8,"mosquito_risk":7,"arthritis_risk":5,"migraine_risk":4,"frizz_risk":1,"updated_at":"2026-06-11T19:31:25.535516+05:30"},{"city":"Patna","state":"Bihar","latitude":25.5941,"longitude":85.1376,"temp":30.0,"humidity":76,"rain":0.0,"pressure":995.7,"uv_index":8.85,"wind_gusts":44.6,"aqi":173,"pm10":75.2,"pm2_5":48.4,"no2":16.2,"co":536.0,"o3":133.0,"so2":17.6,"mosquito_risk":7,"arthritis_risk":5,"migraine_risk":7,"frizz_risk":1,"updated_at":"2026-06-11T19:31:25.535523+05:30"},{"city":"Gaya","state":"Bihar","latitude":24.7914,"longitude":85.0002,"temp":30.8,"humidity":74,"rain":0.0,"pressure":988.9,"uv_index":8.9,"wind_gusts":49.0,"aqi":206,"pm10":91.7,"pm2_5":68.5,"no2":11.6,"co":482.0,"o3":144.0,"so2":15.9,"mosquito_risk":3,"arthritis_risk":5,"migraine_risk":7,"frizz_risk":1,"updated_at":"2026-06-11T19:31:25.535530+05:30"},{"city":"Muzaffarpur","state":"Bihar","latitude":26.1209,"longitude":85.3647,"temp":29.7,"humidity":77,"rain":0.0,"pressure":996.0,"uv_index":8.85,"wind_gusts":45.7,"aqi":145,"pm10":83.4,"pm2_5":49.8,"no2":24.4,"co":513.0,"o3":106.0,"so2":16.6,"mosquito_risk":7,"arthritis_risk":5,"migraine_risk":7,"frizz_risk":1,"updated_at":"2026-06-11T19:31:25.535537+05:30"},{"city":"Bhagalpur","state":"Bihar","latitude":25.2425,"longitude":87.0117,"temp":30.1,"humidity":75,"rain":0.0,"pressure":996.7,"uv_index":8.75,"wind_gusts":37.4,"aqi":169,"pm10":85.4,"pm2_5":62.9,"no2":15.1,"co":461.0,"o3":140.0,"so2":21.9,"mosquito_risk":3,"arthritis_risk":5,"migraine_risk":7,"frizz_risk":1,"updated_at":"2026-06-11T19:31:25.535544+05:30"},{"city":"Ranchi","state":"Jharkhand","latitude":23.3441,"longitude":85.3096,"temp":26.8,"humidity":72,"rain":0.0,"pressure":934.0,"uv_index":9.0,"wind_gusts":40.7,"aqi":139,"pm10":81.5,"pm2_5":47.8,"no2":18.7,"co":464.0,"o3":104.0,"so2":11.8,"mosquito_risk":7,"arthritis_risk":5,"migraine_risk":7,"frizz_risk":1,"updated_at":"2026-06-11T19:31:25.535552+05:30"},{"city":"Jamshedpur","state":"Jharkhand","latitude":22.8046,"longitude":86.2029,"temp":27.6,"humidity":86,"rain":0.1,"pressure":987.6,"uv_index":8.5,"wind_gusts":37.8,"aqi":192,"pm10":93.1,"pm2_5":69.2,"no2":17.6,"co":440.0,"o3":117.0,"so2":23.7,"mosquito_risk":10,"arthritis_risk":5,"migraine_risk":7,"frizz_risk":1,"updated_at":"2026-06-11T19:31:25.535558+05:30"},{"city":"Dhanbad","state":"Jharkhand","latitude":23.7957,"longitude":86.4304,"temp":27.2,"humidity":89,"rain":0.0,"pressure":976.4,"uv_index":8.45,"wind_gusts":36.0,"aqi":198,"pm10":92.4,"pm2_5":71.0,"no2":42.8,"co":475.0,"o3":110.0,"so2":108.2,"mosquito_risk":7,"arthritis_risk":5,"migraine_risk":7,"frizz_risk":1,"updated_at":"2026-06-11T19:31:25.535565+05:30"},{"city":"Bokaro","state":"Jharkhand","latitude":23.6693,"longitude":86.1511,"temp":28.2,"humidity":80,"rain":0.0,"pressure":980.3,"uv_index":8.85,"wind_gusts":48.2,"aqi":215,"pm10":111.1,"pm2_5":86.4,"no2":41.1,"co":855.0,"o3":140.0,"so2":123.4,"mosquito_risk":7,"arthritis_risk":5,"migraine_risk":7,"frizz_risk":1,"updated_at":"2026-06-11T19:31:25.535572+05:30"},{"city":"Bhubaneswar","state":"Odisha","latitude":20.2961,"longitude":85.8245,"temp":30.6,"humidity":87,"rain":0.0,"pressure":997.9,"uv_index":9.05,"wind_gusts":45.4,"aqi":158,"pm10":45.5,"pm2_5":37.5,"no2":11.3,"co":506.0,"o3":94.0,"so2":5.4,"mosquito_risk":3,"arthritis_risk":5,"migraine_risk":7,"frizz_risk":1,"updated_at":"2026-06-11T19:31:25.535580+05:30"},{"city":"Cuttack","state":"Odisha","latitude":20.4625,"longitude":85.8828,"temp":30.0,"humidity":91,"rain":0.3,"pressure":999.4,"uv_index":9.15,"wind_gusts":43.2,"aqi":158,"pm10":45.5,"pm2_5":37.5,"no2":11.3,"co":472.0,"o3":94.0,"so2":5.4,"mosquito_risk":10,"arthritis_risk":5,"migraine_risk":7,"frizz_risk":1,"updated_at":"2026-06-11T19:31:25.535586+05:30"},{"city":"Rourkela","state":"Odisha","latitude":22.2604,"longitude":84.8536,"temp":29.3,"humidity":78,"rain":0.0,"pressure":980.4,"uv_index":8.5,"wind_gusts":33.1,"aqi":152,"pm10":93.8,"pm2_5":79.6,"no2":32.3,"co":985.0,"o3":87.0,"so2":18.6,"mosquito_risk":7,"arthritis_risk":5,"migraine_risk":7,"frizz_risk":1,"updated_at":"2026-06-11T19:31:25.535593+05:30"},{"city":"Raipur","state":"Chhattisgarh","latitude":21.2514,"longitude":81.6296,"temp":30.3,"humidity":56,"rain":0.1,"pressure":970.6,"uv_index":8.9,"wind_gusts":43.2,"aqi":138,"pm10":64.5,"pm2_5":52.3,"no2":34.5,"co":544.0,"o3":91.0,"so2":51.8,"mosquito_risk":3,"arthritis_risk":5,"migraine_risk":7,"frizz_risk":1,"updated_at":"2026-06-11T19:31:25.535600+05:30"},{"city":"Bhilai","state":"Chhattisgarh","latitude":21.1938,"longitude":81.3509,"temp":36.9,"humidity":32,"rain":0.0,"pressure":970.1,"uv_index":8.9,"wind_gusts":40.3,"aqi":111,"pm10":67.5,"pm2_5":51.7,"no2":38.6,"co":767.0,"o3":78.0,"so2":48.3,"mosquito_risk":0,"arthritis_risk":5,"migraine_risk":10,"frizz_risk":1,"updated_at":"2026-06-11T19:31:25.535607+05:30"},{"city":"Guwahati","state":"Assam","latitude":26.1158,"longitude":91.7086,"temp":26.3,"humidity":96,"rain":0.3,"pressure":998.7,"uv_index":8.75,"wind_gusts":22.7,"aqi":83,"pm10":21.5,"pm2_5":16.9,"no2":8.1,"co":577.0,"o3":75.0,"so2":1.9,"mosquito_risk":10,"arthritis_risk":5,"migraine_risk":7,"frizz_risk":1,"updated_at":"2026-06-11T19:31:25.535614+05:30"},{"city":"Agartala","state":"Tripura","latitude":23.8315,"longitude":91.2868,"temp":26.7,"humidity":95,"rain":0.0,"pressure":1003.4,"uv_index":8.85,"wind_gusts":27.4,"aqi":94,"pm10":59.3,"pm2_5":52.3,"no2":28.4,"co":240.0,"o3":69.0,"so2":4.3,"mosquito_risk":7,"arthritis_risk":5,"migraine_risk":4,"frizz_risk":1,"updated_at":"2026-06-11T19:31:25.535621+05:30"},{"city":"Shillong","state":"Meghalaya","latitude":25.5788,"longitude":91.8933,"temp":19.8,"humidity":98,"rain":0.0,"pressure":855.8,"uv_index":8.4,"wind_gusts":22.7,"aqi":66,"pm10":28.5,"pm2_5":22.1,"no2":9.3,"co":381.0,"o3":78.0,"so2":2.6,"mosquito_risk":3,"arthritis_risk":10,"migraine_risk":7,"frizz_risk":1,"updated_at":"2026-06-11T19:31:25.535628+05:30"},{"city":"Imphal","state":"Manipur","latitude":24.817,"longitude":93.9368,"temp":23.2,"humidity":97,"rain":0.0,"pressure":921.9,"uv_index":9.1,"wind_gusts":25.6,"aqi":85,"pm10":25.7,"pm2_5":19.8,"no2":13.1,"co":397.0,"o3":55.0,"so2":2.9,"mosquito_risk":3,"arthritis_risk":5,"migraine_risk":7,"frizz_risk":1,"updated_at":"2026-06-11T19:31:25.535636+05:30"},{"city":"Aizawl","state":"Mizoram","latitude":23.7271,"longitude":92.7176,"temp":20.3,"humidity":98,"rain":0.0,"pressure":890.4,"uv_index":9.0,"wind_gusts":22.3,"aqi":68,"pm10":29.0,"pm2_5":22.6,"no2":9.2,"co":218.0,"o3":51.0,"so2":1.6,"mosquito_risk":3,"arthritis_risk":5,"migraine_risk":7,"frizz_risk":1,"updated_at":"2026-06-11T19:31:25.535643+05:30"},{"city":"Kohima","state":"Nagaland","latitude":25.6701,"longitude":94.1077,"temp":20.2,"humidity":96,"rain":0.0,"pressure":854.3,"uv_index":9.25,"wind_gusts":24.8,"aqi":63,"pm10":26.5,"pm2_5":20.1,"no2":12.3,"co":338.0,"o3":60.0,"so2":1.8,"mosquito_risk":3,"arthritis_risk":5,"migraine_risk":7,"frizz_risk":1,"updated_at":"2026-06-11T19:31:25.535650+05:30"},{"city":"Gangtok","state":"Sikkim","latitude":27.3314,"longitude":88.6138,"temp":17.8,"humidity":90,"rain":0.1,"pressure":836.2,"uv_index":9.25,"wind_gusts":40.0,"aqi":100,"pm10":19.6,"pm2_5":13.7,"no2":8.5,"co":364.0,"o3":124.0,"so2":2.9,"mosquito_risk":6,"arthritis_risk":10,"migraine_risk":7,"frizz_risk":1,"updated_at":"2026-06-11T19:31:25.535657+05:30"},{"city":"Siliguri","state":"West Bengal","latitude":26.7271,"longitude":88.3953,"temp":27.0,"humidity":85,"rain":0.0,"pressure":990.0,"uv_index":8.75,"wind_gusts":28.1,"aqi":122,"pm10":55.1,"pm2_5":37.3,"no2":17.7,"co":558.0,"o3":112.0,"so2":6.3,"mosquito_risk":7,"arthritis_risk":5,"migraine_risk":7,"frizz_risk":1,"updated_at":"2026-06-11T19:31:28.808109+05:30"},{"city":"Durgapur","state":"West Bengal","latitude":23.5204,"longitude":87.3119,"temp":26.2,"humidity":96,"rain":0.2,"pressure":991.3,"uv_index":8.95,"wind_gusts":46.1,"aqi":159,"pm10":103.6,"pm2_5":78.9,"no2":33.3,"co":445.0,"o3":109.0,"so2":41.4,"mosquito_risk":10,"arthritis_risk":5,"migraine_risk":7,"frizz_risk":1,"updated_at":"2026-06-11T19:31:28.808145+05:30"},{"city":"Asansol","state":"West Bengal","latitude":23.6739,"longitude":86.9524,"temp":26.5,"humidity":94,"rain":0.0,"pressure":990.0,"uv_index":8.85,"wind_gusts":45.0,"aqi":164,"pm10":88.7,"pm2_5":64.3,"no2":31.0,"co":585.0,"o3":109.0,"so2":41.7,"mosquito_risk":7,"arthritis_risk":5,"migraine_risk":7,"frizz_risk":1,"updated_at":"2026-06-11T19:31:28.808158+05:30"},{"city":"Pondicherry","state":"Puducherry","latitude":11.9139,"longitude":79.8145,"temp":31.0,"humidity":69,"rain":0.0,"pressure":1006.7,"uv_index":6.95,"wind_gusts":44.6,"aqi":66,"pm10":21.6,"pm2_5":14.7,"no2":13.0,"co":240.0,"o3":78.0,"so2":5.4,"mosquito_risk":3,"arthritis_risk":5,"migraine_risk":4,"frizz_risk":1,"updated_at":"2026-06-11T19:31:28.808170+05:30"},{"city":"Port Blair","state":"Andaman and Nicobar Islands","latitude":11.6234,"longitude":92.7265,"temp":26.9,"humidity":87,"rain":0.0,"pressure":1008.5,"uv_index":2.05,"wind_gusts":56.5,"aqi":22,"pm10":10.7,"pm2_5":6.0,"no2":0.4,"co":92.0,"o3":50.0,"so2":0.2,"mosquito_risk":7,"arthritis_risk":0,"migraine_risk":0,"frizz_risk":1,"updated_at":"2026-06-11T19:31:28.808181+05:30"},{"city":"Haridwar","state":"Uttarakhand","latitude":29.9457,"longitude":78.1642,"temp":32.0,"humidity":54,"rain":0.0,"pressure":968.4,"uv_index":7.65,"wind_gusts":55.4,"aqi":138,"pm10":150.9,"pm2_5":65.0,"no2":8.6,"co":240.0,"o3":124.0,"so2":8.8,"mosquito_risk":0,"arthritis_risk":5,"migraine_risk":7,"frizz_risk":1,"updated_at":"2026-06-11T19:31:28.808191+05:30"},{"city":"Rishikesh","state":"Uttarakhand","latitude":30.0869,"longitude":78.2676,"temp":30.0,"humidity":63,"rain":0.0,"pressure":961.0,"uv_index":7.7,"wind_gusts":44.6,"aqi":125,"pm10":183.5,"pm2_5":59.8,"no2":5.2,"co":246.0,"o3":140.0,"so2":7.4,"mosquito_risk":7,"arthritis_risk":5,"migraine_risk":7,"frizz_risk":1,"updated_at":"2026-06-11T19:31:28.808201+05:30"},{"city":"Nainital","state":"Uttarakhand","latitude":29.3919,"longitude":79.4542,"temp":15.2,"humidity":100,"rain":0.0,"pressure":801.7,"uv_index":8.1,"wind_gusts":35.3,"aqi":129,"pm10":136.4,"pm2_5":48.8,"no2":4.6,"co":218.0,"o3":127.0,"so2":4.1,"mosquito_risk":3,"arthritis_risk":10,"migraine_risk":7,"frizz_risk":0,"updated_at":"2026-06-11T19:31:28.808211+05:30"},{"city":"Mussoorie","state":"Uttarakhand","latitude":30.4599,"longitude":78.0664,"temp":17.5,"humidity":95,"rain":0.0,"pressure":800.4,"uv_index":8.15,"wind_gusts":44.3,"aqi":128,"pm10":146.7,"pm2_5":56.7,"no2":17.8,"co":237.0,"o3":107.0,"so2":8.2,"mosquito_risk":3,"arthritis_risk":10,"migraine_risk":7,"frizz_risk":1,"updated_at":"2026-06-11T19:31:28.808219+05:30"},{"city":"Dharamshala","state":"Himachal Pradesh","latitude":32.219,"longitude":76.3234,"temp":23.9,"humidity":56,"rain":0.0,"pressure":865.0,"uv_index":8.2,"wind_gusts":35.6,"aqi":141,"pm10":23.0,"pm2_5":17.9,"no2":11.4,"co":282.0,"o3":101.0,"so2":1.7,"mosquito_risk":0,"arthritis_risk":5,"migraine_risk":7,"frizz_risk":0,"updated_at":"2026-06-11T19:31:28.808226+05:30"},{"city":"Dalhousie","state":"Himachal Pradesh","latitude":32.5387,"longitude":75.971,"temp":19.5,"humidity":61,"rain":0.0,"pressure":801.6,"uv_index":8.4,"wind_gusts":35.6,"aqi":177,"pm10":38.1,"pm2_5":26.8,"no2":14.1,"co":347.0,"o3":157.0,"so2":4.3,"mosquito_risk":3,"arthritis_risk":5,"migraine_risk":7,"frizz_risk":0,"updated_at":"2026-06-11T19:31:28.808234+05:30"},{"city":"Patiala","state":"Punjab","latitude":30.3398,"longitude":76.3869,"temp":28.1,"humidity":79,"rain":0.4,"pressure":971.4,"uv_index":7.65,"wind_gusts":54.4,"aqi":1770,"pm10":240.3,"pm2_5":86.6,"no2":6.2,"co":234.0,"o3":145.0,"so2":10.6,"mosquito_risk":10,"arthritis_risk":5,"migraine_risk":7,"frizz_risk":1,"updated_at":"2026-06-11T19:31:28.808242+05:30"},{"city":"Bhatinda","state":"Punjab","latitude":30.211,"longitude":74.9455,"temp":27.9,"humidity":69,"rain":0.0,"pressure":975.6,"uv_index":8.35,"wind_gusts":87.1,"aqi":169,"pm10":592.3,"pm2_5":141.6,"no2":8.0,"co":253.0,"o3":138.0,"so2":11.9,"mosquito_risk":7,"arthritis_risk":5,"migraine_risk":7,"frizz_risk":1,"updated_at":"2026-06-11T19:31:28.808249+05:30"},{"city":"Rohtak","state":"Haryana","latitude":28.8955,"longitude":76.6066,"temp":34.3,"humidity":51,"rain":0.0,"pressure":972.6,"uv_index":7.85,"wind_gusts":44.6,"aqi":766,"pm10":631.4,"pm2_5":165.8,"no2":30.8,"co":378.0,"o3":112.0,"so2":17.8,"mosquito_risk":0,"arthritis_risk":5,"migraine_risk":7,"frizz_risk":1,"updated_at":"2026-06-11T19:31:28.808256+05:30"},{"city":"Panipat","state":"Haryana","latitude":29.3909,"longitude":76.9635,"temp":29.1,"humidity":71,"rain":0.1,"pressure":973.3,"uv_index":7.7,"wind_gusts":44.3,"aqi":1798,"pm10":405.1,"pm2_5":124.8,"no2":14.5,"co":296.0,"o3":145.0,"so2":15.7,"mosquito_risk":10,"arthritis_risk":5,"migraine_risk":7,"frizz_risk":1,"updated_at":"2026-06-11T19:31:28.808263+05:30"},{"city":"Mathura","state":"Uttar Pradesh","latitude":27.4924,"longitude":77.6737,"temp":35.7,"humidity":47,"rain":0.0,"pressure":977.1,"uv_index":8.15,"wind_gusts":69.1,"aqi":486,"pm10":187.7,"pm2_5":59.1,"no2":38.7,"co":305.0,"o3":39.0,"so2":5.9,"mosquito_risk":0,"arthritis_risk":5,"migraine_risk":10,"frizz_risk":1,"updated_at":"2026-06-11T19:31:28.808269+05:30"},{"city":"Vrindavan","state":"Uttar Pradesh","latitude":27.5823,"longitude":77.7027,"temp":35.4,"humidity":49,"rain":0.0,"pressure":977.5,"uv_index":8.1,"wind_gusts":69.8,"aqi":486,"pm10":187.7,"pm2_5":59.1,"no2":38.7,"co":309.0,"o3":39.0,"so2":5.9,"mosquito_risk":0,"arthritis_risk":5,"migraine_risk":10,"frizz_risk":1,"updated_at":"2026-06-11T19:31:28.808276+05:30"},{"city":"Ayodhya","state":"Uttar Pradesh","latitude":26.7922,"longitude":82.1998,"temp":30.7,"humidity":67,"rain":0.0,"pressure":989.8,"uv_index":8.05,"wind_gusts":43.2,"aqi":166,"pm10":82.7,"pm2_5":44.2,"no2":7.9,"co":393.0,"o3":144.0,"so2":9.3,"mosquito_risk":3,"arthritis_risk":5,"migraine_risk":7,"frizz_risk":1,"updated_at":"2026-06-11T19:31:28.808283+05:30"},{"city":"Ratlam","state":"Madhya Pradesh","latitude":23.3315,"longitude":75.0367,"temp":33.6,"humidity":45,"rain":0.0,"pressure":949.0,"uv_index":8.55,"wind_gusts":48.2,"aqi":81,"pm10":61.7,"pm2_5":32.6,"no2":2.0,"co":128.0,"o3":103.0,"so2":5.3,"mosquito_risk":0,"arthritis_risk":5,"migraine_risk":7,"frizz_risk":1,"updated_at":"2026-06-11T19:31:28.808290+05:30"},{"city":"Sagar","state":"Madhya Pradesh","latitude":23.8388,"longitude":78.7378,"temp":35.0,"humidity":37,"rain":0.0,"pressure":944.3,"uv_index":8.75,"wind_gusts":42.8,"aqi":65,"pm10":23.1,"pm2_5":16.3,"no2":5.2,"co":146.0,"o3":87.0,"so2":2.8,"mosquito_risk":0,"arthritis_risk":5,"migraine_risk":7,"frizz_risk":1,"updated_at":"2026-06-11T19:31:28.808296+05:30"},{"city":"Satna","state":"Madhya Pradesh","latitude":24.6005,"longitude":80.8322,"temp":33.9,"humidity":48,"rain":0.0,"pressure":964.9,"uv_index":8.85,"wind_gusts":52.2,"aqi":72,"pm10":40.3,"pm2_5":27.4,"no2":7.2,"co":250.0,"o3":104.0,"so2":5.1,"mosquito_risk":0,"arthritis_risk":5,"migraine_risk":7,"frizz_risk":1,"updated_at":"2026-06-11T19:31:28.808304+05:30"},{"city":"Akola","state":"Maharashtra","latitude":20.7002,"longitude":77.0082,"temp":38.2,"humidity":30,"rain":0.0,"pressure":968.7,"uv_index":8.8,"wind_gusts":43.2,"aqi":70,"pm10":33.9,"pm2_5":21.8,"no2":10.4,"co":220.0,"o3":93.0,"so2":7.1,"mosquito_risk":0,"arthritis_risk":5,"migraine_risk":10,"frizz_risk":1,"updated_at":"2026-06-11T19:31:28.808311+05:30"},{"city":"Amravati","state":"Maharashtra","latitude":20.9374,"longitude":77.7796,"temp":36.9,"humidity":33,"rain":0.0,"pressure":961.8,"uv_index":8.85,"wind_gusts":43.6,"aqi":70,"pm10":35.4,"pm2_5":22.7,"no2":13.8,"co":223.0,"o3":91.0,"so2":7.8,"mosquito_risk":0,"arthritis_risk":5,"migraine_risk":10,"frizz_risk":1,"updated_at":"2026-06-11T19:31:28.808319+05:30"},{"city":"Latur","state":"Maharashtra","latitude":18.4088,"longitude":76.5604,"temp":31.7,"humidity":45,"rain":0.0,"pressure":935.7,"uv_index":8.85,"wind_gusts":37.8,"aqi":65,"pm10":36.9,"pm2_5":22.5,"no2":9.2,"co":301.0,"o3":81.0,"so2":2.6,"mosquito_risk":0,"arthritis_risk":5,"migraine_risk":7,"frizz_risk":1,"updated_at":"2026-06-11T19:31:28.808327+05:30"},{"city":"Nanded","state":"Maharashtra","latitude":19.1383,"longitude":77.3091,"temp":36.0,"humidity":27,"rain":0.0,"pressure":963.5,"uv_index":8.85,"wind_gusts":43.9,"aqi":73,"pm10":43.2,"pm2_5":27.1,"no2":15.9,"co":383.0,"o3":89.0,"so2":5.3,"mosquito_risk":0,"arthritis_risk":5,"migraine_risk":10,"frizz_risk":0,"updated_at":"2026-06-11T19:31:28.808334+05:30"},{"city":"Gulbarga","state":"Karnataka","latitude":17.3297,"longitude":76.8343,"temp":31.4,"humidity":51,"rain":0.0,"pressure":954.6,"uv_index":8.25,"wind_gusts":39.6,"aqi":57,"pm10":41.7,"pm2_5":22.3,"no2":22.7,"co":276.0,"o3":70.0,"so2":3.8,"mosquito_risk":0,"arthritis_risk":5,"migraine_risk":7,"frizz_risk":1,"updated_at":"2026-06-11T19:31:28.808340+05:30"},{"city":"Bidar","state":"Karnataka","latitude":17.9104,"longitude":77.5199,"temp":31.7,"humidity":41,"rain":0.0,"pressure":931.8,"uv_index":8.95,"wind_gusts":37.8,"aqi":71,"pm10":44.6,"pm2_5":28.7,"no2":15.9,"co":256.0,"o3":81.0,"so2":3.1,"mosquito_risk":0,"arthritis_risk":5,"migraine_risk":7,"frizz_risk":1,"updated_at":"2026-06-11T19:31:28.808347+05:30"},{"city":"Hospet","state":"Karnataka","latitude":15.2689,"longitude":76.3909,"temp":27.4,"humidity":73,"rain":0.0,"pressure":954.0,"uv_index":8.8,"wind_gusts":54.7,"aqi":47,"pm10":25.2,"pm2_5":15.9,"no2":5.7,"co":149.0,"o3":72.0,"so2":1.8,"mosquito_risk":7,"arthritis_risk":5,"migraine_risk":7,"frizz_risk":1,"updated_at":"2026-06-11T19:31:28.808354+05:30"},{"city":"Tirupur","state":"Tamil Nadu","latitude":11.1085,"longitude":77.3411,"temp":26.4,"humidity":78,"rain":0.0,"pressure":974.9,"uv_index":8.35,"wind_gusts":60.1,"aqi":42,"pm10":13.6,"pm2_5":10.1,"no2":13.5,"co":179.0,"o3":53.0,"so2":3.9,"mosquito_risk":7,"arthritis_risk":5,"migraine_risk":7,"frizz_risk":1,"updated_at":"2026-06-11T19:31:28.808361+05:30"},{"city":"Alappuzha","state":"Kerala","latitude":9.4981,"longitude":76.3388,"temp":25.9,"humidity":94,"rain":0.2,"pressure":1010.2,"uv_index":7.1,"wind_gusts":36.4,"aqi":33,"pm10":12.3,"pm2_5":7.3,"no2":8.4,"co":92.0,"o3":47.0,"so2":2.0,"mosquito_risk":10,"arthritis_risk":0,"migraine_risk":4,"frizz_risk":1,"updated_at":"2026-06-11T19:31:28.808368+05:30"},{"city":"Munnar","state":"Kerala","latitude":10.0889,"longitude":77.0595,"temp":17.4,"humidity":100,"rain":0.2,"pressure":856.9,"uv_index":6.65,"wind_gusts":37.8,"aqi":31,"pm10":5.1,"pm2_5":4.4,"no2":7.1,"co":118.0,"o3":53.0,"so2":1.7,"mosquito_risk":6,"arthritis_risk":10,"migraine_risk":7,"frizz_risk":1,"updated_at":"2026-06-11T19:31:28.808375+05:30"},{"city":"Silchar","state":"Assam","latitude":24.8333,"longitude":92.7789,"temp":25.5,"humidity":97,"rain":0.1,"pressure":1003.0,"uv_index":8.8,"wind_gusts":31.0,"aqi":88,"pm10":55.2,"pm2_5":40.9,"no2":10.7,"co":260.0,"o3":91.0,"so2":8.1,"mosquito_risk":10,"arthritis_risk":5,"migraine_risk":4,"frizz_risk":1,"updated_at":"2026-06-11T19:31:28.808382+05:30"},{"city":"Dibrugarh","state":"Assam","latitude":27.4728,"longitude":94.912,"temp":26.9,"humidity":85,"rain":0.0,"pressure":992.9,"uv_index":8.7,"wind_gusts":23.4,"aqi":65,"pm10":21.8,"pm2_5":20.5,"no2":13.2,"co":279.0,"o3":55.0,"so2":2.1,"mosquito_risk":7,"arthritis_risk":5,"migraine_risk":7,"frizz_risk":1,"updated_at":"2026-06-11T19:31:28.808388+05:30"}]