[{"city":"Delhi","state":"Delhi","latitude":28.6139,"longitude":77.209,"temp":24.5,"humidity":62,"rain":0.0,"pressure":986.0,"uv_index":5.8,"wind_gusts":32.8,"aqi":336,"pm10":208.2,"pm2_5":56.9,"mosquito_risk":3,"arthritis_risk":5,"migraine_risk":3,"frizz_risk":1,"updated_at":"2026-04-03T23:07:35.928991+05:30"},{"city":"Mumbai","state":"Maharashtra","latitude":19.076,"longitude":72.8777,"temp":27.8,"humidity":78,"rain":0.0,"pressure":1010.8,"uv_index":7.45,"wind_gusts":24.5,"aqi":79,"pm10":56.8,"pm2_5":22.6,"mosquito_risk":7,"arthritis_risk":0,"migraine_risk":4,"frizz_risk":1,"updated_at":"2026-04-03T23:07:35.929032+05:30"},{"city":"Bangalore","state":"Karnataka","latitude":12.9716,"longitude":77.5946,"temp":25.2,"humidity":60,"rain":0.0,"pressure":913.5,"uv_index":9.6,"wind_gusts":28.8,"aqi":103,"pm10":50.2,"pm2_5":46.7,"mosquito_risk":4,"arthritis_risk":5,"migraine_risk":7,"frizz_risk":1,"updated_at":"2026-04-03T23:07:35.929047+05:30"},{"city":"Hyderabad","state":"Telangana","latitude":17.385,"longitude":78.4867,"temp":28.9,"humidity":46,"rain":0.0,"pressure":954.2,"uv_index":8.85,"wind_gusts":18.7,"aqi":74,"pm10":37.1,"pm2_5":33.2,"mosquito_risk":4,"arthritis_risk":5,"migraine_risk":7,"frizz_risk":1,"updated_at":"2026-04-03T23:07:35.929058+05:30"},{"city":"Chennai","state":"Tamil Nadu","latitude":13.0827,"longitude":80.2707,"temp":28.4,"humidity":79,"rain":0.0,"pressure":1009.2,"uv_index":9.3,"wind_gusts":36.7,"aqi":44,"pm10":10.9,"pm2_5":8.1,"mosquito_risk":7,"arthritis_risk":0,"migraine_risk":4,"frizz_risk":1,"updated_at":"2026-04-03T23:07:35.929067+05:30"},{"city":"Kolkata","state":"West Bengal","latitude":22.5726,"longitude":88.3639,"temp":27.4,"humidity":91,"rain":0.0,"pressure":1006.0,"uv_index":8.65,"wind_gusts":19.8,"aqi":72,"pm10":17.2,"pm2_5":15.1,"mosquito_risk":7,"arthritis_risk":5,"migraine_risk":4,"frizz_risk":1,"updated_at":"2026-04-03T23:07:35.929076+05:30"},{"city":"Pune","state":"Maharashtra","latitude":18.5204,"longitude":73.8567,"temp":24.3,"humidity":68,"rain":0.0,"pressure":950.4,"uv_index":8.5,"wind_gusts":36.4,"aqi":128,"pm10":38.3,"pm2_5":32.2,"mosquito_risk":3,"arthritis_risk":5,"migraine_risk":7,"frizz_risk":1,"updated_at":"2026-04-03T23:07:35.929105+05:30"},{"city":"Ahmedabad","state":"Gujarat","latitude":23.0225,"longitude":72.5714,"temp":27.0,"humidity":58,"rain":0.0,"pressure":1004.0,"uv_index":7.2,"wind_gusts":42.1,"aqi":65,"pm10":28.9,"pm2_5":14.6,"mosquito_risk":4,"arthritis_risk":5,"migraine_risk":4,"frizz_risk":1,"updated_at":"2026-04-03T23:07:35.929114+05:30"},{"city":"Jaipur","state":"Rajasthan","latitude":26.9124,"longitude":75.7873,"temp":23.5,"humidity":75,"rain":0.0,"pressure":962.1,"uv_index":7.45,"wind_gusts":55.8,"aqi":132,"pm10":115.0,"pm2_5":37.7,"mosquito_risk":3,"arthritis_risk":5,"migraine_risk":7,"frizz_risk":1,"updated_at":"2026-04-03T23:07:35.929121+05:30"},{"city":"Lucknow","state":"Uttar Pradesh","latitude":26.8467,"longitude":80.9462,"temp":27.2,"humidity":57,"rain":0.0,"pressure":994.9,"uv_index":6.75,"wind_gusts":28.8,"aqi":112,"pm10":205.4,"pm2_5":52.6,"mosquito_risk":4,"arthritis_risk":5,"migraine_risk":7,"frizz_risk":1,"updated_at":"2026-04-03T23:07:35.929130+05:30"},{"city":"Kanpur","state":"Uttar Pradesh","latitude":26.4499,"longitude":80.3319,"temp":25.8,"humidity":68,"rain":0.0,"pressure":993.6,"uv_index":5.2,"wind_gusts":29.5,"aqi":160,"pm10":358.6,"pm2_5":63.1,"mosquito_risk":7,"arthritis_risk":5,"migraine_risk":3,"frizz_risk":1,"updated_at":"2026-04-03T23:07:35.929137+05:30"},{"city":"Chandigarh","state":"Chandigarh","latitude":30.7333,"longitude":76.7794,"temp":21.1,"humidity":77,"rain":0.0,"pressure":971.7,"uv_index":5.85,"wind_gusts":49.3,"aqi":78,"pm10":68.2,"pm2_5":36.8,"mosquito_risk":3,"arthritis_risk":5,"migraine_risk":3,"frizz_risk":1,"updated_at":"2026-04-03T23:07:35.929145+05:30"},{"city":"Srinagar","state":"Jammu and Kashmir","latitude":34.0837,"longitude":74.7973,"temp":9.4,"humidity":90,"rain":0.4,"pressure":841.4,"uv_index":6.65,"wind_gusts":35.3,"aqi":98,"pm10":40.0,"pm2_5":34.9,"mosquito_risk":6,"arthritis_risk":10,"migraine_risk":7,"frizz_risk":0,"updated_at":"2026-04-03T23:07:35.929152+05:30"},{"city":"Jammu","state":"Jammu and Kashmir","latitude":32.7266,"longitude":74.857,"temp":19.3,"humidity":86,"rain":0.0,"pressure":976.1,"uv_index":5.1,"wind_gusts":35.3,"aqi":68,"pm10":35.0,"pm2_5":20.4,"mosquito_risk":3,"arthritis_risk":10,"migraine_risk":3,"frizz_risk":1,"updated_at":"2026-04-03T23:07:35.929160+05:30"},{"city":"Amritsar","state":"Punjab","latitude":31.634,"longitude":74.8723,"temp":19.0,"humidity":96,"rain":0.0,"pressure":983.6,"uv_index":4.55,"wind_gusts":57.6,"aqi":85,"pm10":65.2,"pm2_5":22.9,"mosquito_risk":3,"arthritis_risk":10,"migraine_risk":3,"frizz_risk":1,"updated_at":"2026-04-03T23:07:35.929166+05:30"},{"city":"Ludhiana","state":"Punjab","latitude":30.901,"longitude":75.8573,"temp":19.9,"humidity":91,"rain":0.0,"pressure":982.1,"uv_index":4.9,"wind_gusts":45.4,"aqi":103,"pm10":182.5,"pm2_5":44.0,"mosquito_risk":3,"arthritis_risk":10,"migraine_risk":3,"frizz_risk":1,"updated_at":"2026-04-03T23:07:35.929175+05:30"},{"city":"Jalandhar","state":"Punjab","latitude":31.326,"longitude":75.5762,"temp":19.7,"humidity":93,"rain":0.0,"pressure":983.2,"uv_index":5.85,"wind_gusts":41.8,"aqi":87,"pm10":104.3,"pm2_5":37.8,"mosquito_risk":3,"arthritis_risk":10,"migraine_risk":3,"frizz_risk":1,"updated_at":"2026-04-03T23:07:35.929184+05:30"},{"city":"Dehradun","state":"Uttarakhand","latitude":30.6284,"longitude":78.0322,"temp":15.3,"humidity":72,"rain":0.0,"pressure":832.4,"uv_index":5.7,"wind_gusts":33.1,"aqi":71,"pm10":32.9,"pm2_5":17.8,"mosquito_risk":3,"arthritis_risk":5,"migraine_risk":3,"frizz_risk":0,"updated_at":"2026-04-03T23:07:35.929191+05:30"},{"city":"Shimla","state":"Himachal Pradesh","latitude":31.1048,"longitude":77.1734,"temp":13.0,"humidity":84,"rain":0.0,"pressure":785.6,"uv_index":5.95,"wind_gusts":48.6,"aqi":71,"pm10":27.1,"pm2_5":16.9,"mosquito_risk":3,"arthritis_risk":10,"migraine_risk":3,"frizz_risk":0,"updated_at":"2026-04-03T23:07:35.929198+05:30"},{"city":"Manali","state":"Himachal Pradesh","latitude":32.2396,"longitude":77.1887,"temp":13.5,"humidity":89,"rain":0.1,"pressure":821.7,"uv_index":7.1,"wind_gusts":46.1,"aqi":50,"pm10":7.9,"pm2_5":4.3,"mosquito_risk":6,"arthritis_risk":10,"migraine_risk":7,"frizz_risk":0,"updated_at":"2026-04-03T23:07:35.929205+05:30"},{"city":"Gurgaon","state":"Haryana","latitude":28.4595,"longitude":77.0266,"temp":22.9,"humidity":69,"rain":0.0,"pressure":984.3,"uv_index":6.45,"wind_gusts":32.0,"aqi":710,"pm10":255.2,"pm2_5":68.9,"mosquito_risk":3,"arthritis_risk":5,"migraine_risk":7,"frizz_risk":1,"updated_at":"2026-04-03T23:07:35.929212+05:30"},{"city":"Noida","state":"Uttar Pradesh","latitude":28.5355,"longitude":77.391,"temp":24.4,"humidity":63,"rain":0.0,"pressure":987.5,"uv_index":6.1,"wind_gusts":29.5,"aqi":710,"pm10":255.2,"pm2_5":68.9,"mosquito_risk":3,"arthritis_risk":5,"migraine_risk":7,"frizz_risk":1,"updated_at":"2026-04-03T23:07:35.929218+05:30"},{"city":"Ghaziabad","state":"Uttar Pradesh","latitude":28.6692,"longitude":77.4538,"temp":24.0,"humidity":65,"rain":0.0,"pressure":985.5,"uv_index":6.25,"wind_gusts":30.6,"aqi":232,"pm10":276.6,"pm2_5":78.0,"mosquito_risk":3,"arthritis_risk":5,"migraine_risk":7,"frizz_risk":1,"updated_at":"2026-04-03T23:07:35.929225+05:30"},{"city":"Faridabad","state":"Haryana","latitude":28.4089,"longitude":77.3178,"temp":23.6,"humidity":65,"rain":0.0,"pressure":986.8,"uv_index":6.5,"wind_gusts":30.2,"aqi":710,"pm10":255.2,"pm2_5":68.9,"mosquito_risk":3,"arthritis_risk":5,"migraine_risk":7,"frizz_risk":1,"updated_at":"2026-04-03T23:07:35.929231+05:30"},{"city":"Meerut","state":"Uttar Pradesh","latitude":28.9845,"longitude":77.7064,"temp":22.9,"humidity":68,"rain":0.0,"pressure":984.1,"uv_index":6.1,"wind_gusts":26.3,"aqi":232,"pm10":276.6,"pm2_5":78.0,"mosquito_risk":3,"arthritis_risk":5,"migraine_risk":7,"frizz_risk":1,"updated_at":"2026-04-03T23:07:35.929237+05:30"},{"city":"Agra","state":"Uttar Pradesh","latitude":27.1767,"longitude":78.0081,"temp":25.5,"humidity":57,"rain":0.0,"pressure":990.7,"uv_index":7.35,"wind_gusts":35.6,"aqi":664,"pm10":584.9,"pm2_5":86.1,"mosquito_risk":4,"arthritis_risk":5,"migraine_risk":7,"frizz_risk":1,"updated_at":"2026-04-03T23:07:35.929244+05:30"},{"city":"Varanasi","state":"Uttar Pradesh","latitude":25.3176,"longitude":82.9739,"temp":26.5,"humidity":69,"rain":0.0,"pressure":998.6,"uv_index":7.8,"wind_gusts":32.0,"aqi":86,"pm10":38.1,"pm2_5":32.8,"mosquito_risk":7,"arthritis_risk":5,"migraine_risk":7,"frizz_risk":1,"updated_at":"2026-04-03T23:07:35.929253+05:30"},{"city":"Prayagraj","state":"Uttar Pradesh","latitude":25.4358,"longitude":81.8463,"temp":28.3,"humidity":61,"rain":0.0,"pressure":997.5,"uv_index":7.25,"wind_gusts":36.7,"aqi":88,"pm10":58.6,"pm2_5":45.4,"mosquito_risk":7,"arthritis_risk":5,"migraine_risk":7,"frizz_risk":1,"updated_at":"2026-04-03T23:07:35.929260+05:30"},{"city":"Gorakhpur","state":"Uttar Pradesh","latitude":26.7606,"longitude":83.3732,"temp":25.6,"humidity":63,"rain":0.0,"pressure":997.6,"uv_index":7.1,"wind_gusts":39.6,"aqi":96,"pm10":57.0,"pm2_5":28.8,"mosquito_risk":7,"arthritis_risk":5,"migraine_risk":7,"frizz_risk":1,"updated_at":"2026-04-03T23:07:35.929267+05:30"},{"city":"Bareilly","state":"Uttar Pradesh","latitude":28.367,"longitude":79.4304,"temp":23.6,"humidity":78,"rain":0.0,"pressure":989.0,"uv_index":6.25,"wind_gusts":19.1,"aqi":124,"pm10":99.9,"pm2_5":51.7,"mosquito_risk":3,"arthritis_risk":5,"migraine_risk":7,"frizz_risk":1,"updated_at":"2026-04-03T23:07:35.929273+05:30"},{"city":"Aligarh","state":"Uttar Pradesh","latitude":27.8974,"longitude":78.088,"temp":23.9,"humidity":63,"rain":0.0,"pressure":988.3,"uv_index":7.1,"wind_gusts":28.1,"aqi":608,"pm10":370.7,"pm2_5":71.7,"mosquito_risk":3,"arthritis_risk":5,"migraine_risk":7,"frizz_risk":1,"updated_at":"2026-04-03T23:07:35.929279+05:30"},{"city":"Moradabad","state":"Uttar Pradesh","latitude":28.8386,"longitude":78.7733,"temp":23.0,"humidity":83,"rain":0.0,"pressure":986.0,"uv_index":6.05,"wind_gusts":20.5,"aqi":150,"pm10":174.2,"pm2_5":59.8,"mosquito_risk":3,"arthritis_risk":5,"migraine_risk":7,"frizz_risk":1,"updated_at":"2026-04-03T23:07:35.929286+05:30"},{"city":"Saharanpur","state":"Uttar Pradesh","latitude":29.9637,"longitude":77.546,"temp":22.6,"humidity":74,"rain":0.0,"pressure":978.6,"uv_index":6.55,"wind_gusts":29.9,"aqi":132,"pm10":158.8,"pm2_5":63.3,"mosquito_risk":3,"arthritis_risk":5,"migraine_risk":7,"frizz_risk":1,"updated_at":"2026-04-03T23:07:35.929291+05:30"},{"city":"Jhansi","state":"Uttar Pradesh","latitude":25.4484,"longitude":78.5685,"temp":26.2,"humidity":57,"rain":0.0,"pressure":981.0,"uv_index":7.7,"wind_gusts":40.3,"aqi":66,"pm10":39.8,"pm2_5":24.4,"mosquito_risk":4,"arthritis_risk":5,"migraine_risk":7,"frizz_risk":1,"updated_at":"2026-04-03T23:07:39.232563+05:30"},{"city":"Surat","state":"Gujarat","latitude":21.1702,"longitude":72.8311,"temp":26.9,"humidity":83,"rain":0.0,"pressure":1008.9,"uv_index":7.65,"wind_gusts":30.6,"aqi":94,"pm10":34.9,"pm2_5":23.2,"mosquito_risk":7,"arthritis_risk":0,"migraine_risk":4,"frizz_risk":1,"updated_at":"2026-04-03T23:07:39.232591+05:30"},{"city":"Vadodara","state":"Gujarat","latitude":22.3072,"longitude":73.1812,"temp":26.9,"humidity":71,"rain":0.0,"pressure":1006.3,"uv_index":7.85,"wind_gusts":33.1,"aqi":77,"pm10":58.9,"pm2_5":34.0,"mosquito_risk":7,"arthritis_risk":5,"migraine_risk":4,"frizz_risk":1,"updated_at":"2026-04-03T23:07:39.232601+05:30"},{"city":"Rajkot","state":"Gujarat","latitude":22.3039,"longitude":70.8022,"temp":24.9,"humidity":73,"rain":0.0,"pressure":996.4,"uv_index":7.15,"wind_gusts":45.4,"aqi":59,"pm10":16.3,"pm2_5":9.7,"mosquito_risk":3,"arthritis_risk":5,"migraine_risk":7,"frizz_risk":1,"updated_at":"2026-04-03T23:07:39.232609+05:30"},{"city":"Thane","state":"Maharashtra","latitude":19.2183,"longitude":72.9781,"temp":26.7,"humidity":81,"rain":0.0,"pressure":1010.3,"uv_index":7.6,"wind_gusts":37.1,"aqi":79,"pm10":56.8,"pm2_5":22.6,"mosquito_risk":7,"arthritis_risk":0,"migraine_risk":4,"frizz_risk":1,"updated_at":"2026-04-03T23:07:39.232616+05:30"},{"city":"Nagpur","state":"Maharashtra","latitude":21.1458,"longitude":79.0882,"temp":27.2,"humidity":70,"rain":0.0,"pressure":975.2,"uv_index":8.7,"wind_gusts":23.4,"aqi":98,"pm10":47.5,"pm2_5":42.1,"mosquito_risk":7,"arthritis_risk":5,"migraine_risk":7,"frizz_risk":1,"updated_at":"2026-04-03T23:07:39.232624+05:30"},{"city":"Nashik","state":"Maharashtra","latitude":19.9975,"longitude":73.7898,"temp":22.5,"humidity":81,"rain":0.0,"pressure":947.6,"uv_index":7.95,"wind_gusts":40.0,"aqi":66,"pm10":38.3,"pm2_5":20.0,"mosquito_risk":3,"arthritis_risk":5,"migraine_risk":7,"frizz_risk":1,"updated_at":"2026-04-03T23:07:39.232631+05:30"},{"city":"Aurangabad","state":"Maharashtra","latitude":19.8762,"longitude":75.3433,"temp":26.1,"humidity":56,"rain":0.0,"pressure":946.0,"uv_index":8.85,"wind_gusts":30.2,"aqi":99,"pm10":51.0,"pm2_5":44.7,"mosquito_risk":4,"arthritis_risk":5,"migraine_risk":7,"frizz_risk":1,"updated_at":"2026-04-03T23:07:39.232638+05:30"},{"city":"Solapur","state":"Maharashtra","latitude":17.6599,"longitude":75.9064,"temp":26.1,"humidity":65,"rain":0.0,"pressure":959.1,"uv_index":8.95,"wind_gusts":31.7,"aqi":122,"pm10":47.3,"pm2_5":42.3,"mosquito_risk":7,"arthritis_risk":5,"migraine_risk":7,"frizz_risk":1,"updated_at":"2026-04-03T23:07:39.232645+05:30"},{"city":"Kolhapur","state":"Maharashtra","latitude":16.705,"longitude":74.2433,"temp":22.6,"humidity":89,"rain":0.0,"pressure":949.7,"uv_index":8.95,"wind_gusts":34.6,"aqi":131,"pm10":40.5,"pm2_5":37.4,"mosquito_risk":3,"arthritis_risk":5,"migraine_risk":7,"frizz_risk":1,"updated_at":"2026-04-03T23:07:39.232651+05:30"},{"city":"Goa","state":"Goa","latitude":15.2993,"longitude":74.124,"temp":28.4,"humidity":73,"rain":0.0,"pressure":1000.2,"uv_index":9.0,"wind_gusts":31.7,"aqi":77,"pm10":31.8,"pm2_5":25.3,"mosquito_risk":7,"arthritis_risk":5,"migraine_risk":4,"frizz_risk":1,"updated_at":"2026-04-03T23:07:39.232659+05:30"},{"city":"Jodhpur","state":"Rajasthan","latitude":26.2389,"longitude":73.0243,"temp":23.3,"humidity":62,"rain":0.0,"pressure":985.3,"uv_index":6.9,"wind_gusts":44.6,"aqi":137,"pm10":206.3,"pm2_5":33.4,"mosquito_risk":3,"arthritis_risk":5,"migraine_risk":7,"frizz_risk":0,"updated_at":"2026-04-03T23:07:39.232665+05:30"},{"city":"Udaipur","state":"Rajasthan","latitude":24.5854,"longitude":73.7125,"temp":22.2,"humidity":61,"rain":0.0,"pressure":948.2,"uv_index":8.1,"wind_gusts":54.7,"aqi":54,"pm10":36.0,"pm2_5":13.9,"mosquito_risk":3,"arthritis_risk":5,"migraine_risk":7,"frizz_risk":0,"updated_at":"2026-04-03T23:07:39.232673+05:30"},{"city":"Kota","state":"Rajasthan","latitude":25.2138,"longitude":75.8648,"temp":26.6,"humidity":60,"rain":0.0,"pressure":981.1,"uv_index":7.85,"wind_gusts":48.2,"aqi":56,"pm10":44.0,"pm2_5":23.1,"mosquito_risk":4,"arthritis_risk":5,"migraine_risk":7,"frizz_risk":1,"updated_at":"2026-04-03T23:07:39.232679+05:30"},{"city":"Bikaner","state":"Rajasthan","latitude":28.0229,"longitude":73.3119,"temp":20.2,"humidity":76,"rain":0.0,"pressure":984.5,"uv_index":7.15,"wind_gusts":54.7,"aqi":64,"pm10":105.2,"pm2_5":27.4,"mosquito_risk":3,"arthritis_risk":5,"migraine_risk":7,"frizz_risk":0,"updated_at":"2026-04-03T23:07:39.232686+05:30"},{"city":"Ajmer","state":"Rajasthan","latitude":26.4499,"longitude":74.6399,"temp":22.6,"humidity":76,"rain":0.0,"pressure":956.5,"uv_index":7.55,"wind_gusts":59.8,"aqi":83,"pm10":46.6,"pm2_5":19.6,"mosquito_risk":3,"arthritis_risk":5,"migraine_risk":7,"frizz_risk":1,"updated_at":"2026-04-03T23:07:39.232693+05:30"},{"city":"Gwalior","state":"Madhya Pradesh","latitude":26.2183,"longitude":78.1828,"temp":24.2,"humidity":72,"rain":0.0,"pressure":986.6,"uv_index":7.65,"wind_gusts":42.1,"aqi":70,"pm10":123.9,"pm2_5":37.0,"mosquito_risk":3,"arthritis_risk":5,"migraine_risk":7,"frizz_risk":1,"updated_at":"2026-04-03T23:07:39.232699+05:30"},{"city":"Indore","state":"Madhya Pradesh","latitude":22.7196,"longitude":75.8577,"temp":24.4,"humidity":66,"rain":0.0,"pressure":950.0,"uv_index":8.3,"wind_gusts":37.1,"aqi":73,"pm10":28.0,"pm2_5":21.4,"mosquito_risk":3,"arthritis_risk":5,"migraine_risk":7,"frizz_risk":1,"updated_at":"2026-04-03T23:07:39.232706+05:30"},{"city":"Bhopal","state":"Madhya Pradesh","latitude":23.2599,"longitude":77.4126,"temp":26.2,"humidity":57,"rain":0.0,"pressure":955.9,"uv_index":7.9,"wind_gusts":31.7,"aqi":67,"pm10":36.4,"pm2_5":32.7,"mosquito_risk":4,"arthritis_risk":5,"migraine_risk":7,"frizz_risk":1,"updated_at":"2026-04-03T23:07:39.232713+05:30"},{"city":"Jabalpur","state":"Madhya Pradesh","latitude":23.1815,"longitude":79.9864,"temp":27.4,"humidity":59,"rain":0.0,"pressure":963.9,"uv_index":8.3,"wind_gusts":29.5,"aqi":75,"pm10":40.9,"pm2_5":36.1,"mosquito_risk":4,"arthritis_risk":5,"migraine_risk":7,"frizz_risk":1,"updated_at":"2026-04-03T23:07:39.232720+05:30"},{"city":"Ujjain","state":"Madhya Pradesh","latitude":23.1765,"longitude":75.7885,"temp":24.6,"humidity":65,"rain":0.0,"pressure":955.8,"uv_index":8.2,"wind_gusts":36.0,"aqi":71,"pm10":29.8,"pm2_5":19.7,"mosquito_risk":3,"arthritis_risk":5,"migraine_risk":7,"frizz_risk":1,"updated_at":"2026-04-03T23:07:39.232727+05:30"},{"city":"Visakhapatnam","state":"Andhra Pradesh","latitude":17.6868,"longitude":83.2185,"temp":27.0,"humidity":89,"rain":0.0,"pressure":1005.9,"uv_index":9.0,"wind_gusts":41.8,"aqi":59,"pm10":14.2,"pm2_5":12.1,"mosquito_risk":7,"arthritis_risk":5,"migraine_risk":4,"frizz_risk":1,"updated_at":"2026-04-03T23:07:39.232734+05:30"},{"city":"Vijayawada","state":"Andhra Pradesh","latitude":16.5062,"longitude":80.648,"temp":27.4,"humidity":79,"rain":0.0,"pressure":1004.4,"uv_index":8.5,"wind_gusts":25.9,"aqi":44,"pm10":10.4,"pm2_5":9.4,"mosquito_risk":7,"arthritis_risk":5,"migraine_risk":4,"frizz_risk":1,"updated_at":"2026-04-03T23:07:39.232741+05:30"},{"city":"Guntur","state":"Andhra Pradesh","latitude":16.3067,"longitude":80.4365,"temp":26.9,"humidity":86,"rain":0.0,"pressure":1005.6,"uv_index":8.45,"wind_gusts":32.8,"aqi":40,"pm10":11.0,"pm2_5":10.1,"mosquito_risk":7,"arthritis_risk":5,"migraine_risk":4,"frizz_risk":1,"updated_at":"2026-04-03T23:07:39.232748+05:30"},{"city":"Nellore","state":"Andhra Pradesh","latitude":14.4426,"longitude":79.9865,"temp":27.3,"humidity":87,"rain":0.0,"pressure":1007.8,"uv_index":9.25,"wind_gusts":34.2,"aqi":49,"pm10":8.4,"pm2_5":6.3,"mosquito_risk":7,"arthritis_risk":5,"migraine_risk":4,"frizz_risk":1,"updated_at":"2026-04-03T23:07:39.232756+05:30"},{"city":"Kurnool","state":"Andhra Pradesh","latitude":15.8281,"longitude":78.0373,"temp":31.4,"humidity":38,"rain":0.0,"pressure":977.3,"uv_index":8.8,"wind_gusts":20.5,"aqi":54,"pm10":36.9,"pm2_5":30.2,"mosquito_risk":0,"arthritis_risk":5,"migraine_risk":7,"frizz_risk":0,"updated_at":"2026-04-03T23:07:39.232763+05:30"},{"city":"Kakinada","state":"Andhra Pradesh","latitude":16.9891,"longitude":82.2475,"temp":26.1,"humidity":90,"rain":0.0,"pressure":1009.7,"uv_index":8.85,"wind_gusts":39.6,"aqi":31,"pm10":7.2,"pm2_5":5.2,"mosquito_risk":7,"arthritis_risk":0,"migraine_risk":4,"frizz_risk":1,"updated_at":"2026-04-03T23:07:39.232771+05:30"},{"city":"Tirupati","state":"Andhra Pradesh","latitude":13.6288,"longitude":79.4192,"temp":26.9,"humidity":62,"rain":0.0,"pressure":994.2,"uv_index":9.35,"wind_gusts":28.1,"aqi":59,"pm10":17.6,"pm2_5":16.8,"mosquito_risk":7,"arthritis_risk":5,"migraine_risk":7,"frizz_risk":1,"updated_at":"2026-04-03T23:07:39.232778+05:30"},{"city":"Warangal","state":"Telangana","latitude":17.9689,"longitude":79.5941,"temp":29.8,"humidity":60,"rain":0.0,"pressure":979.5,"uv_index":8.75,"wind_gusts":17.6,"aqi":72,"pm10":45.3,"pm2_5":42.0,"mosquito_risk":4,"arthritis_risk":5,"migraine_risk":7,"frizz_risk":1,"updated_at":"2026-04-03T23:07:39.232784+05:30"},{"city":"Nizamabad","state":"Telangana","latitude":18.6725,"longitude":78.0941,"temp":27.6,"humidity":67,"rain":0.0,"pressure":966.5,"uv_index":8.4,"wind_gusts":30.6,"aqi":107,"pm10":70.1,"pm2_5":62.6,"mosquito_risk":7,"arthritis_risk":5,"migraine_risk":7,"frizz_risk":1,"updated_at":"2026-04-03T23:07:39.232791+05:30"},{"city":"Mysore","state":"Karnataka","latitude":12.2958,"longitude":76.6396,"temp":23.9,"humidity":84,"rain":0.0,"pressure":930.2,"uv_index":9.5,"wind_gusts":40.0,"aqi":98,"pm10":28.6,"pm2_5":26.7,"mosquito_risk":3,"arthritis_risk":5,"migraine_risk":7,"frizz_risk":1,"updated_at":"2026-04-03T23:07:39.232797+05:30"},{"city":"Mangalore","state":"Karnataka","latitude":12.9141,"longitude":74.856,"temp":29.0,"humidity":82,"rain":0.0,"pressure":1008.9,"uv_index":9.15,"wind_gusts":24.5,"aqi":66,"pm10":23.2,"pm2_5":18.3,"mosquito_risk":7,"arthritis_risk":0,"migraine_risk":4,"frizz_risk":1,"updated_at":"2026-04-03T23:07:39.232804+05:30"},{"city":"Hubli-Dharwad","state":"Karnataka","latitude":15.3647,"longitude":75.124,"temp":24.2,"humidity":87,"rain":0.0,"pressure":942.8,"uv_index":9.2,"wind_gusts":38.9,"aqi":116,"pm10":22.6,"pm2_5":21.2,"mosquito_risk":3,"arthritis_risk":5,"migraine_risk":7,"frizz_risk":1,"updated_at":"2026-04-03T23:07:39.232811+05:30"},{"city":"Belgaum","state":"Karnataka","latitude":15.8497,"longitude":74.4977,"temp":22.6,"humidity":93,"rain":0.0,"pressure":927.4,"uv_index":9.25,"wind_gusts":33.1,"aqi":99,"pm10":30.2,"pm2_5":27.2,"mosquito_risk":3,"arthritis_risk":5,"migraine_risk":7,"frizz_risk":1,"updated_at":"2026-04-03T23:07:42.534373+05:30"},{"city":"Coimbatore","state":"Tamil Nadu","latitude":11.0168,"longitude":76.9558,"temp":25.9,"humidity":75,"rain":0.0,"pressure":963.9,"uv_index":9.45,"wind_gusts":51.1,"aqi":86,"pm10":28.2,"pm2_5":26.3,"mosquito_risk":7,"arthritis_risk":5,"migraine_risk":7,"frizz_risk":1,"updated_at":"2026-04-03T23:07:42.534449+05:30"},{"city":"Madurai","state":"Tamil Nadu","latitude":9.9252,"longitude":78.1198,"temp":25.7,"humidity":81,"rain":0.0,"pressure":996.3,"uv_index":9.2,"wind_gusts":37.1,"aqi":72,"pm10":20.5,"pm2_5":19.6,"mosquito_risk":7,"arthritis_risk":5,"migraine_risk":7,"frizz_risk":1,"updated_at":"2026-04-03T23:07:42.534464+05:30"},{"city":"Trichy","state":"Tamil Nadu","latitude":10.7905,"longitude":78.7047,"temp":28.4,"humidity":77,"rain":0.0,"pressure":1002.5,"uv_index":9.4,"wind_gusts":30.2,"aqi":65,"pm10":13.6,"pm2_5":13.0,"mosquito_risk":7,"arthritis_risk":5,"migraine_risk":4,"frizz_risk":1,"updated_at":"2026-04-03T23:07:42.534474+05:30"},{"city":"Salem","state":"Tamil Nadu","latitude":11.6643,"longitude":78.146,"temp":29.0,"humidity":63,"rain":0.0,"pressure":979.6,"uv_index":9.45,"wind_gusts":38.5,"aqi":103,"pm10":17.4,"pm2_5":16.5,"mosquito_risk":7,"arthritis_risk":5,"migraine_risk":7,"frizz_risk":1,"updated_at":"2026-04-03T23:07:42.534484+05:30"},{"city":"Tirunelveli","state":"Tamil Nadu","latitude":8.7139,"longitude":77.7567,"temp":27.0,"humidity":87,"rain":0.0,"pressure":1006.2,"uv_index":9.35,"wind_gusts":37.1,"aqi":65,"pm10":23.9,"pm2_5":22.4,"mosquito_risk":7,"arthritis_risk":5,"migraine_risk":4,"frizz_risk":1,"updated_at":"2026-04-03T23:07:42.534491+05:30"},{"city":"Vellore","state":"Tamil Nadu","latitude":12.9165,"longitude":79.1325,"temp":27.2,"humidity":69,"rain":0.0,"pressure":987.1,"uv_index":9.4,"wind_gusts":29.5,"aqi":98,"pm10":25.0,"pm2_5":24.3,"mosquito_risk":7,"arthritis_risk":5,"migraine_risk":7,"frizz_risk":1,"updated_at":"2026-04-03T23:07:42.534498+05:30"},{"city":"Erode","state":"Tamil Nadu","latitude":11.341,"longitude":77.7172,"temp":28.5,"humidity":66,"rain":0.0,"pressure":991.6,"uv_index":9.4,"wind_gusts":40.3,"aqi":97,"pm10":24.2,"pm2_5":22.8,"mosquito_risk":7,"arthritis_risk":5,"migraine_risk":7,"frizz_risk":1,"updated_at":"2026-04-03T23:07:42.534505+05:30"},{"city":"Kochi","state":"Kerala","latitude":9.9312,"longitude":76.2673,"temp":28.3,"humidity":82,"rain":0.0,"pressure":1011.3,"uv_index":9.05,"wind_gusts":24.1,"aqi":68,"pm10":26.6,"pm2_5":25.3,"mosquito_risk":7,"arthritis_risk":0,"migraine_risk":4,"frizz_risk":1,"updated_at":"2026-04-03T23:07:42.534512+05:30"},{"city":"Thiruvananthapuram","state":"Kerala","latitude":8.5241,"longitude":76.9366,"temp":28.6,"humidity":80,"rain":0.0,"pressure":1010.7,"uv_index":9.0,"wind_gusts":23.8,"aqi":78,"pm10":22.3,"pm2_5":18.3,"mosquito_risk":7,"arthritis_risk":0,"migraine_risk":4,"frizz_risk":1,"updated_at":"2026-04-03T23:07:42.534518+05:30"},{"city":"Kozhikode","state":"Kerala","latitude":11.2588,"longitude":75.7804,"temp":29.2,"humidity":80,"rain":0.0,"pressure":1010.1,"uv_index":9.15,"wind_gusts":25.2,"aqi":60,"pm10":19.7,"pm2_5":16.4,"mosquito_risk":7,"arthritis_risk":0,"migraine_risk":4,"frizz_risk":1,"updated_at":"2026-04-03T23:07:42.534525+05:30"},{"city":"Thrissur","state":"Kerala","latitude":10.5276,"longitude":76.2144,"temp":28.4,"humidity":83,"rain":0.0,"pressure":1009.4,"uv_index":9.2,"wind_gusts":30.2,"aqi":67,"pm10":28.0,"pm2_5":26.5,"mosquito_risk":7,"arthritis_risk":0,"migraine_risk":4,"frizz_risk":1,"updated_at":"2026-04-03T23:07:42.534532+05:30"},{"city":"Kannur","state":"Kerala","latitude":11.8745,"longitude":75.3704,"temp":28.5,"humidity":78,"rain":0.0,"pressure":1009.4,"uv_index":9.15,"wind_gusts":27.4,"aqi":71,"pm10":35.2,"pm2_5":32.2,"mosquito_risk":7,"arthritis_risk":0,"migraine_risk":4,"frizz_risk":1,"updated_at":"2026-04-03T23:07:42.534539+05:30"},{"city":"Patna","state":"Bihar","latitude":25.5941,"longitude":85.1376,"temp":27.8,"humidity":60,"rain":0.0,"pressure":1000.4,"uv_index":8.3,"wind_gusts":36.4,"aqi":98,"pm10":26.8,"pm2_5":24.4,"mosquito_risk":4,"arthritis_risk":5,"migraine_risk":4,"frizz_risk":1,"updated_at":"2026-04-03T23:07:42.534546+05:30"},{"city":"Gaya","state":"Bihar","latitude":24.7914,"longitude":85.0002,"temp":27.0,"humidity":65,"rain":0.0,"pressure":994.6,"uv_index":8.4,"wind_gusts":27.0,"aqi":102,"pm10":30.2,"pm2_5":28.1,"mosquito_risk":7,"arthritis_risk":5,"migraine_risk":7,"frizz_risk":1,"updated_at":"2026-04-03T23:07:42.534553+05:30"},{"city":"Muzaffarpur","state":"Bihar","latitude":26.1209,"longitude":85.3647,"temp":26.2,"humidity":61,"rain":0.0,"pressure":1000.2,"uv_index":8.25,"wind_gusts":39.2,"aqi":84,"pm10":25.7,"pm2_5":22.4,"mosquito_risk":7,"arthritis_risk":5,"migraine_risk":4,"frizz_risk":1,"updated_at":"2026-04-03T23:07:42.534559+05:30"},{"city":"Bhagalpur","state":"Bihar","latitude":25.2425,"longitude":87.0117,"temp":27.0,"humidity":64,"rain":0.0,"pressure":1000.5,"uv_index":8.3,"wind_gusts":23.8,"aqi":83,"pm10":30.9,"pm2_5":26.5,"mosquito_risk":7,"arthritis_risk":5,"migraine_risk":4,"frizz_risk":1,"updated_at":"2026-04-03T23:07:42.534566+05:30"},{"city":"Ranchi","state":"Jharkhand","latitude":23.3441,"longitude":85.3096,"temp":26.3,"humidity":53,"rain":0.0,"pressure":939.4,"uv_index":8.95,"wind_gusts":26.6,"aqi":90,"pm10":33.8,"pm2_5":27.8,"mosquito_risk":4,"arthritis_risk":5,"migraine_risk":7,"frizz_risk":0,"updated_at":"2026-04-03T23:07:42.534573+05:30"},{"city":"Jamshedpur","state":"Jharkhand","latitude":22.8046,"longitude":86.2029,"temp":29.1,"humidity":60,"rain":0.0,"pressure":991.2,"uv_index":8.8,"wind_gusts":23.4,"aqi":109,"pm10":37.6,"pm2_5":32.7,"mosquito_risk":4,"arthritis_risk":5,"migraine_risk":7,"frizz_risk":1,"updated_at":"2026-04-03T23:07:42.534580+05:30"},{"city":"Dhanbad","state":"Jharkhand","latitude":23.7957,"longitude":86.4304,"temp":29.6,"humidity":48,"rain":0.0,"pressure":980.1,"uv_index":8.7,"wind_gusts":21.6,"aqi":147,"pm10":42.1,"pm2_5":38.4,"mosquito_risk":4,"arthritis_risk":5,"migraine_risk":7,"frizz_risk":1,"updated_at":"2026-04-03T23:07:42.534586+05:30"},{"city":"Bokaro","state":"Jharkhand","latitude":23.6693,"longitude":86.1511,"temp":30.3,"humidity":44,"rain":0.0,"pressure":984.6,"uv_index":8.7,"wind_gusts":19.8,"aqi":144,"pm10":46.2,"pm2_5":42.3,"mosquito_risk":0,"arthritis_risk":5,"migraine_risk":7,"frizz_risk":1,"updated_at":"2026-04-03T23:07:42.534593+05:30"},{"city":"Bhubaneswar","state":"Odisha","latitude":20.2961,"longitude":85.8245,"temp":27.4,"humidity":89,"rain":0.0,"pressure":1003.8,"uv_index":8.95,"wind_gusts":30.2,"aqi":67,"pm10":15.1,"pm2_5":13.6,"mosquito_risk":7,"arthritis_risk":5,"migraine_risk":4,"frizz_risk":1,"updated_at":"2026-04-03T23:07:42.534600+05:30"},{"city":"Cuttack","state":"Odisha","latitude":20.4625,"longitude":85.8828,"temp":27.9,"humidity":86,"rain":0.0,"pressure":1005.7,"uv_index":9.0,"wind_gusts":37.8,"aqi":67,"pm10":15.1,"pm2_5":13.6,"mosquito_risk":7,"arthritis_risk":5,"migraine_risk":4,"frizz_risk":1,"updated_at":"2026-04-03T23:07:42.534606+05:30"},{"city":"Rourkela","state":"Odisha","latitude":22.2604,"longitude":84.8536,"temp":28.7,"humidity":60,"rain":0.0,"pressure":985.8,"uv_index":8.7,"wind_gusts":26.6,"aqi":121,"pm10":48.8,"pm2_5":44.0,"mosquito_risk":4,"arthritis_risk":5,"migraine_risk":7,"frizz_risk":1,"updated_at":"2026-04-03T23:07:42.534613+05:30"},{"city":"Raipur","state":"Chhattisgarh","latitude":21.2514,"longitude":81.6296,"temp":27.7,"humidity":62,"rain":0.0,"pressure":977.1,"uv_index":8.8,"wind_gusts":33.8,"aqi":144,"pm10":83.8,"pm2_5":79.4,"mosquito_risk":7,"arthritis_risk":5,"migraine_risk":7,"frizz_risk":1,"updated_at":"2026-04-03T23:07:42.534620+05:30"},{"city":"Bhilai","state":"Chhattisgarh","latitude":21.1938,"longitude":81.3509,"temp":27.1,"humidity":63,"rain":0.0,"pressure":977.1,"uv_index":8.8,"wind_gusts":27.7,"aqi":116,"pm10":44.5,"pm2_5":41.7,"mosquito_risk":7,"arthritis_risk":5,"migraine_risk":7,"frizz_risk":1,"updated_at":"2026-04-03T23:07:42.534626+05:30"},{"city":"Guwahati","state":"Assam","latitude":26.1158,"longitude":91.7086,"temp":25.9,"humidity":86,"rain":0.0,"pressure":1002.3,"uv_index":8.25,"wind_gusts":43.6,"aqi":143,"pm10":60.8,"pm2_5":55.4,"mosquito_risk":7,"arthritis_risk":5,"migraine_risk":4,"frizz_risk":1,"updated_at":"2026-04-03T23:07:42.534633+05:30"},{"city":"Agartala","state":"Tripura","latitude":23.8315,"longitude":91.2868,"temp":27.1,"humidity":90,"rain":0.0,"pressure":1005.9,"uv_index":8.45,"wind_gusts":23.8,"aqi":70,"pm10":21.9,"pm2_5":19.7,"mosquito_risk":7,"arthritis_risk":5,"migraine_risk":4,"frizz_risk":1,"updated_at":"2026-04-03T23:07:42.534639+05:30"},{"city":"Shillong","state":"Meghalaya","latitude":25.5788,"longitude":91.8933,"temp":15.7,"humidity":88,"rain":0.0,"pressure":857.2,"uv_index":8.55,"wind_gusts":55.1,"aqi":107,"pm10":49.1,"pm2_5":43.2,"mosquito_risk":3,"arthritis_risk":10,"migraine_risk":7,"frizz_risk":0,"updated_at":"2026-04-03T23:07:42.534646+05:30"},{"city":"Imphal","state":"Manipur","latitude":24.817,"longitude":93.9368,"temp":20.0,"humidity":81,"rain":0.0,"pressure":924.2,"uv_index":8.85,"wind_gusts":60.8,"aqi":113,"pm10":73.1,"pm2_5":62.9,"mosquito_risk":3,"arthritis_risk":5,"migraine_risk":7,"frizz_risk":1,"updated_at":"2026-04-03T23:07:42.534653+05:30"},{"city":"Aizawl","state":"Mizoram","latitude":23.7271,"longitude":92.7176,"temp":20.8,"humidity":81,"rain":0.0,"pressure":893.6,"uv_index":8.7,"wind_gusts":52.9,"aqi":116,"pm10":57.5,"pm2_5":43.5,"mosquito_risk":3,"arthritis_risk":5,"migraine_risk":7,"frizz_risk":1,"updated_at":"2026-04-03T23:07:42.534660+05:30"},{"city":"Kohima","state":"Nagaland","latitude":25.6701,"longitude":94.1077,"temp":16.3,"humidity":89,"rain":0.0,"pressure":855.7,"uv_index":8.75,"wind_gusts":80.3,"aqi":99,"pm10":49.5,"pm2_5":42.5,"mosquito_risk":3,"arthritis_risk":10,"migraine_risk":7,"frizz_risk":0,"updated_at":"2026-04-03T23:07:42.534666+05:30"},{"city":"Gangtok","state":"Sikkim","latitude":27.3314,"longitude":88.6138,"temp":16.6,"humidity":92,"rain":0.0,"pressure":838.1,"uv_index":7.55,"wind_gusts":19.1,"aqi":105,"pm10":57.4,"pm2_5":47.6,"mosquito_risk":3,"arthritis_risk":10,"migraine_risk":7,"frizz_risk":0,"updated_at":"2026-04-03T23:07:42.534673+05:30"},{"city":"Siliguri","state":"West Bengal","latitude":26.7271,"longitude":88.3953,"temp":22.8,"humidity":75,"rain":0.0,"pressure":994.1,"uv_index":8.2,"wind_gusts":18.7,"aqi":154,"pm10":89.2,"pm2_5":73.8,"mosquito_risk":3,"arthritis_risk":5,"migraine_risk":7,"frizz_risk":1,"updated_at":"2026-04-03T23:07:45.839883+05:30"},{"city":"Durgapur","state":"West Bengal","latitude":23.5204,"longitude":87.3119,"temp":30.1,"humidity":65,"rain":0.0,"pressure":994.8,"uv_index":8.65,"wind_gusts":17.3,"aqi":158,"pm10":88.9,"pm2_5":83.6,"mosquito_risk":3,"arthritis_risk":5,"migraine_risk":7,"frizz_risk":1,"updated_at":"2026-04-03T23:07:45.839916+05:30"},{"city":"Asansol","state":"West Bengal","latitude":23.6739,"longitude":86.9524,"temp":30.8,"humidity":59,"rain":0.0,"pressure":993.2,"uv_index":8.65,"wind_gusts":16.9,"aqi":138,"pm10":49.2,"pm2_5":44.7,"mosquito_risk":0,"arthritis_risk":5,"migraine_risk":7,"frizz_risk":1,"updated_at":"2026-04-03T23:07:45.839929+05:30"},{"city":"Pondicherry","state":"Puducherry","latitude":11.9139,"longitude":79.8145,"temp":26.6,"humidity":93,"rain":0.0,"pressure":1010.8,"uv_index":9.3,"wind_gusts":34.6,"aqi":47,"pm10":11.1,"pm2_5":7.8,"mosquito_risk":7,"arthritis_risk":0,"migraine_risk":4,"frizz_risk":1,"updated_at":"2026-04-03T23:07:45.839939+05:30"},{"city":"Port Blair","state":"Andaman and Nicobar Islands","latitude":11.6234,"longitude":92.7265,"temp":28.8,"humidity":75,"rain":0.0,"pressure":1008.5,"uv_index":9.2,"wind_gusts":22.7,"aqi":41,"pm10":19.2,"pm2_5":10.4,"mosquito_risk":7,"arthritis_risk":0,"migraine_risk":4,"frizz_risk":1,"updated_at":"2026-04-03T23:07:45.839949+05:30"},{"city":"Haridwar","state":"Uttarakhand","latitude":29.9457,"longitude":78.1642,"temp":22.4,"humidity":83,"rain":0.0,"pressure":977.2,"uv_index":6.15,"wind_gusts":22.0,"aqi":105,"pm10":95.2,"pm2_5":52.4,"mosquito_risk":3,"arthritis_risk":5,"migraine_risk":7,"frizz_risk":1,"updated_at":"2026-04-03T23:07:45.839958+05:30"},{"city":"Rishikesh","state":"Uttarakhand","latitude":30.0869,"longitude":78.2676,"temp":21.9,"humidity":69,"rain":0.0,"pressure":970.0,"uv_index":5.6,"wind_gusts":23.8,"aqi":120,"pm10":87.5,"pm2_5":41.7,"mosquito_risk":3,"arthritis_risk":5,"migraine_risk":3,"frizz_risk":0,"updated_at":"2026-04-03T23:07:45.839968+05:30"},{"city":"Nainital","state":"Uttarakhand","latitude":29.3919,"longitude":79.4542,"temp":19.2,"humidity":45,"rain":0.0,"pressure":808.5,"uv_index":5.0,"wind_gusts":36.4,"aqi":106,"pm10":60.8,"pm2_5":31.0,"mosquito_risk":0,"arthritis_risk":5,"migraine_risk":3,"frizz_risk":0,"updated_at":"2026-04-03T23:07:45.839977+05:30"},{"city":"Mussoorie","state":"Uttarakhand","latitude":30.4599,"longitude":78.0664,"temp":16.4,"humidity":64,"rain":0.0,"pressure":805.0,"uv_index":5.6,"wind_gusts":45.0,"aqi":112,"pm10":64.7,"pm2_5":39.7,"mosquito_risk":3,"arthritis_risk":5,"migraine_risk":3,"frizz_risk":0,"updated_at":"2026-04-03T23:07:45.839986+05:30"},{"city":"Dharamshala","state":"Himachal Pradesh","latitude":32.219,"longitude":76.3234,"temp":17.4,"humidity":71,"rain":0.0,"pressure":870.7,"uv_index":4.55,"wind_gusts":48.6,"aqi":49,"pm10":11.4,"pm2_5":5.9,"mosquito_risk":3,"arthritis_risk":5,"migraine_risk":3,"frizz_risk":0,"updated_at":"2026-04-03T23:07:45.839995+05:30"},{"city":"Dalhousie","state":"Himachal Pradesh","latitude":32.5387,"longitude":75.971,"temp":13.3,"humidity":83,"rain":0.0,"pressure":804.7,"uv_index":4.95,"wind_gusts":43.6,"aqi":57,"pm10":24.6,"pm2_5":16.5,"mosquito_risk":3,"arthritis_risk":10,"migraine_risk":3,"frizz_risk":0,"updated_at":"2026-04-03T23:07:45.840005+05:30"},{"city":"Patiala","state":"Punjab","latitude":30.3398,"longitude":76.3869,"temp":20.4,"humidity":87,"rain":0.0,"pressure":981.4,"uv_index":5.55,"wind_gusts":42.8,"aqi":128,"pm10":218.9,"pm2_5":42.4,"mosquito_risk":3,"arthritis_risk":5,"migraine_risk":3,"frizz_risk":1,"updated_at":"2026-04-03T23:07:45.840014+05:30"},{"city":"Bhatinda","state":"Punjab","latitude":30.211,"longitude":74.9455,"temp":19.8,"humidity":92,"rain":0.0,"pressure":986.6,"uv_index":6.45,"wind_gusts":44.6,"aqi":85,"pm10":139.2,"pm2_5":35.4,"mosquito_risk":3,"arthritis_risk":10,"migraine_risk":7,"frizz_risk":1,"updated_at":"2026-04-03T23:07:45.840023+05:30"},{"city":"Rohtak","state":"Haryana","latitude":28.8955,"longitude":76.6066,"temp":21.8,"humidity":83,"rain":0.0,"pressure":984.7,"uv_index":5.9,"wind_gusts":31.7,"aqi":463,"pm10":193.7,"pm2_5":54.5,"mosquito_risk":3,"arthritis_risk":5,"migraine_risk":3,"frizz_risk":1,"updated_at":"2026-04-03T23:07:45.840032+05:30"},{"city":"Panipat","state":"Haryana","latitude":29.3909,"longitude":76.9635,"temp":21.3,"humidity":83,"rain":0.0,"pressure":983.4,"uv_index":6.2,"wind_gusts":43.9,"aqi":815,"pm10":663.1,"pm2_5":88.5,"mosquito_risk":3,"arthritis_risk":5,"migraine_risk":7,"frizz_risk":1,"updated_at":"2026-04-03T23:07:45.840041+05:30"},{"city":"Mathura","state":"Uttar Pradesh","latitude":27.4924,"longitude":77.6737,"temp":25.4,"humidity":57,"rain":0.0,"pressure":989.8,"uv_index":7.25,"wind_gusts":31.7,"aqi":597,"pm10":166.7,"pm2_5":42.8,"mosquito_risk":4,"arthritis_risk":5,"migraine_risk":7,"frizz_risk":1,"updated_at":"2026-04-03T23:07:45.840050+05:30"},{"city":"Vrindavan","state":"Uttar Pradesh","latitude":27.5823,"longitude":77.7027,"temp":24.6,"humidity":61,"rain":0.0,"pressure":990.3,"uv_index":7.2,"wind_gusts":34.9,"aqi":597,"pm10":166.7,"pm2_5":42.8,"mosquito_risk":3,"arthritis_risk":5,"migraine_risk":7,"frizz_risk":1,"updated_at":"2026-04-03T23:07:45.840059+05:30"},{"city":"Ayodhya","state":"Uttar Pradesh","latitude":26.7922,"longitude":82.1998,"temp":25.3,"humidity":67,"rain":0.0,"pressure":996.2,"uv_index":6.6,"wind_gusts":36.0,"aqi":79,"pm10":101.3,"pm2_5":38.4,"mosquito_risk":7,"arthritis_risk":5,"migraine_risk":7,"frizz_risk":1,"updated_at":"2026-04-03T23:07:45.840067+05:30"},{"city":"Ratlam","state":"Madhya Pradesh","latitude":23.3315,"longitude":75.0367,"temp":25.1,"humidity":58,"rain":0.0,"pressure":956.6,"uv_index":8.15,"wind_gusts":42.8,"aqi":68,"pm10":33.4,"pm2_5":19.7,"mosquito_risk":4,"arthritis_risk":5,"migraine_risk":7,"frizz_risk":1,"updated_at":"2026-04-03T23:07:45.840076+05:30"},{"city":"Sagar","state":"Madhya Pradesh","latitude":23.8388,"longitude":78.7378,"temp":26.7,"humidity":54,"rain":0.0,"pressure":952.5,"uv_index":7.5,"wind_gusts":26.6,"aqi":67,"pm10":28.1,"pm2_5":25.0,"mosquito_risk":4,"arthritis_risk":5,"migraine_risk":7,"frizz_risk":1,"updated_at":"2026-04-03T23:07:45.840084+05:30"},{"city":"Satna","state":"Madhya Pradesh","latitude":24.6005,"longitude":80.8322,"temp":27.3,"humidity":59,"rain":0.0,"pressure":973.5,"uv_index":7.65,"wind_gusts":40.7,"aqi":75,"pm10":28.9,"pm2_5":25.5,"mosquito_risk":4,"arthritis_risk":5,"migraine_risk":7,"frizz_risk":1,"updated_at":"2026-04-03T23:07:45.840093+05:30"},{"city":"Akola","state":"Maharashtra","latitude":20.7002,"longitude":77.0082,"temp":27.8,"humidity":63,"rain":0.0,"pressure":977.2,"uv_index":8.6,"wind_gusts":44.6,"aqi":101,"pm10":37.1,"pm2_5":34.0,"mosquito_risk":7,"arthritis_risk":5,"migraine_risk":7,"frizz_risk":1,"updated_at":"2026-04-03T23:07:45.840102+05:30"},{"city":"Amravati","state":"Maharashtra","latitude":20.9374,"longitude":77.7796,"temp":26.5,"humidity":64,"rain":0.0,"pressure":969.3,"uv_index":8.65,"wind_gusts":43.6,"aqi":105,"pm10":38.5,"pm2_5":35.0,"mosquito_risk":7,"arthritis_risk":5,"migraine_risk":7,"frizz_risk":1,"updated_at":"2026-04-03T23:07:45.840111+05:30"},{"city":"Latur","state":"Maharashtra","latitude":18.4088,"longitude":76.5604,"temp":24.8,"humidity":76,"rain":0.0,"pressure":942.0,"uv_index":8.8,"wind_gusts":33.5,"aqi":98,"pm10":48.3,"pm2_5":43.5,"mosquito_risk":3,"arthritis_risk":5,"migraine_risk":7,"frizz_risk":1,"updated_at":"2026-04-03T23:07:45.840120+05:30"},{"city":"Nanded","state":"Maharashtra","latitude":19.1383,"longitude":77.3091,"temp":25.5,"humidity":74,"rain":0.0,"pressure":970.9,"uv_index":8.3,"wind_gusts":39.6,"aqi":97,"pm10":38.1,"pm2_5":35.2,"mosquito_risk":7,"arthritis_risk":5,"migraine_risk":7,"frizz_risk":1,"updated_at":"2026-04-03T23:07:45.840128+05:30"},{"city":"Gulbarga","state":"Karnataka","latitude":17.3297,"longitude":76.8343,"temp":29.8,"humidity":48,"rain":0.0,"pressure":960.3,"uv_index":8.5,"wind_gusts":37.1,"aqi":128,"pm10":26.1,"pm2_5":23.3,"mosquito_risk":4,"arthritis_risk":5,"migraine_risk":7,"frizz_risk":1,"updated_at":"2026-04-03T23:07:45.840137+05:30"},{"city":"Bidar","state":"Karnataka","latitude":17.9104,"longitude":77.5199,"temp":25.2,"humidity":73,"rain":0.0,"pressure":937.6,"uv_index":8.3,"wind_gusts":33.1,"aqi":89,"pm10":52.9,"pm2_5":47.0,"mosquito_risk":7,"arthritis_risk":5,"migraine_risk":7,"frizz_risk":1,"updated_at":"2026-04-03T23:07:45.840145+05:30"},{"city":"Hospet","state":"Karnataka","latitude":15.2689,"longitude":76.3909,"temp":28.3,"humidity":62,"rain":0.0,"pressure":957.5,"uv_index":9.2,"wind_gusts":32.8,"aqi":138,"pm10":40.7,"pm2_5":38.1,"mosquito_risk":7,"arthritis_risk":5,"migraine_risk":7,"frizz_risk":1,"updated_at":"2026-04-03T23:07:45.840153+05:30"},{"city":"Tirupur","state":"Tamil Nadu","latitude":11.1085,"longitude":77.3411,"temp":27.9,"humidity":69,"rain":0.0,"pressure":977.2,"uv_index":9.5,"wind_gusts":41.4,"aqi":111,"pm10":31.2,"pm2_5":29.6,"mosquito_risk":7,"arthritis_risk":5,"migraine_risk":7,"frizz_risk":1,"updated_at":"2026-04-03T23:07:45.840162+05:30"},{"city":"Alappuzha","state":"Kerala","latitude":9.4981,"longitude":76.3388,"temp":28.3,"humidity":81,"rain":0.0,"pressure":1011.5,"uv_index":9.2,"wind_gusts":23.0,"aqi":64,"pm10":25.6,"pm2_5":21.9,"mosquito_risk":7,"arthritis_risk":0,"migraine_risk":4,"frizz_risk":1,"updated_at":"2026-04-03T23:07:45.840170+05:30"},{"city":"Munnar","state":"Kerala","latitude":10.0889,"longitude":77.0595,"temp":21.3,"humidity":92,"rain":0.0,"pressure":859.1,"uv_index":8.0,"wind_gusts":29.2,"aqi":62,"pm10":25.3,"pm2_5":24.7,"mosquito_risk":3,"arthritis_risk":5,"migraine_risk":7,"frizz_risk":1,"updated_at":"2026-04-03T23:07:45.840179+05:30"},{"city":"Silchar","state":"Assam","latitude":24.8333,"longitude":92.7789,"temp":25.6,"humidity":83,"rain":0.0,"pressure":1005.4,"uv_index":8.5,"wind_gusts":29.2,"aqi":150,"pm10":84.8,"pm2_5":69.8,"mosquito_risk":7,"arthritis_risk":5,"migraine_risk":4,"frizz_risk":1,"updated_at":"2026-04-03T23:07:45.840188+05:30"},{"city":"Dibrugarh","state":"Assam","latitude":27.4728,"longitude":94.912,"temp":23.5,"humidity":91,"rain":0.0,"pressure":997.1,"uv_index":8.3,"wind_gusts":12.6,"aqi":97,"pm10":44.2,"pm2_5":39.8,"mosquito_risk":3,"arthritis_risk":5,"migraine_risk":7,"frizz_risk":1,"updated_at":"2026-04-03T23:07:45.840196+05:30"}]