[{"city":"Delhi","state":"Delhi","latitude":28.6139,"longitude":77.209,"temp":23.4,"humidity":80,"rain":0.0,"pressure":985.1,"uv_index":7.05,"wind_gusts":41.0,"aqi":179,"pm10":123.4,"pm2_5":56.3,"no2":41.7,"co":631.0,"o3":107.0,"so2":34.0,"mosquito_risk":3,"arthritis_risk":5,"migraine_risk":7,"frizz_risk":1,"updated_at":"2026-05-05T21:29:32.930863+05:30"},{"city":"Mumbai","state":"Maharashtra","latitude":19.076,"longitude":72.8777,"temp":28.8,"humidity":75,"rain":0.0,"pressure":1008.6,"uv_index":7.85,"wind_gusts":40.7,"aqi":71,"pm10":70.3,"pm2_5":23.2,"no2":8.9,"co":242.0,"o3":65.0,"so2":21.1,"mosquito_risk":7,"arthritis_risk":0,"migraine_risk":4,"frizz_risk":1,"updated_at":"2026-05-05T21:29:32.930909+05:30"},{"city":"Bangalore","state":"Karnataka","latitude":12.9716,"longitude":77.5946,"temp":27.5,"humidity":45,"rain":0.0,"pressure":912.3,"uv_index":8.85,"wind_gusts":34.2,"aqi":116,"pm10":94.8,"pm2_5":64.7,"no2":110.4,"co":463.0,"o3":24.0,"so2":23.3,"mosquito_risk":4,"arthritis_risk":5,"migraine_risk":7,"frizz_risk":0,"updated_at":"2026-05-05T21:29:32.930926+05:30"},{"city":"Hyderabad","state":"Telangana","latitude":17.385,"longitude":78.4867,"temp":30.0,"humidity":45,"rain":0.0,"pressure":953.2,"uv_index":9.25,"wind_gusts":38.2,"aqi":133,"pm10":63.6,"pm2_5":40.5,"no2":45.5,"co":327.0,"o3":69.0,"so2":15.8,"mosquito_risk":4,"arthritis_risk":5,"migraine_risk":7,"frizz_risk":1,"updated_at":"2026-05-05T21:29:32.930938+05:30"},{"city":"Chennai","state":"Tamil Nadu","latitude":13.0827,"longitude":80.2707,"temp":29.1,"humidity":82,"rain":0.0,"pressure":1007.7,"uv_index":8.7,"wind_gusts":36.7,"aqi":72,"pm10":21.5,"pm2_5":13.6,"no2":6.8,"co":198.0,"o3":72.0,"so2":5.1,"mosquito_risk":7,"arthritis_risk":5,"migraine_risk":4,"frizz_risk":1,"updated_at":"2026-05-05T21:29:32.930948+05:30"},{"city":"Kolkata","state":"West Bengal","latitude":22.5726,"longitude":88.3639,"temp":26.1,"humidity":88,"rain":0.0,"pressure":1008.1,"uv_index":8.65,"wind_gusts":45.7,"aqi":78,"pm10":27.3,"pm2_5":24.9,"no2":15.7,"co":495.0,"o3":53.0,"so2":10.5,"mosquito_risk":7,"arthritis_risk":0,"migraine_risk":4,"frizz_risk":1,"updated_at":"2026-05-05T21:29:32.930962+05:30"},{"city":"Pune","state":"Maharashtra","latitude":18.5204,"longitude":73.8567,"temp":26.2,"humidity":74,"rain":0.0,"pressure":948.1,"uv_index":8.45,"wind_gusts":45.0,"aqi":56,"pm10":38.3,"pm2_5":17.2,"no2":7.9,"co":216.0,"o3":86.0,"so2":7.3,"mosquito_risk":7,"arthritis_risk":5,"migraine_risk":7,"frizz_risk":1,"updated_at":"2026-05-05T21:29:32.930971+05:30"},{"city":"Ahmedabad","state":"Gujarat","latitude":23.0225,"longitude":72.5714,"temp":35.8,"humidity":23,"rain":0.0,"pressure":1000.8,"uv_index":8.1,"wind_gusts":29.9,"aqi":85,"pm10":141.6,"pm2_5":48.7,"no2":37.8,"co":355.0,"o3":70.0,"so2":13.1,"mosquito_risk":0,"arthritis_risk":5,"migraine_risk":7,"frizz_risk":0,"updated_at":"2026-05-05T21:29:32.930982+05:30"},{"city":"Jaipur","state":"Rajasthan","latitude":26.9124,"longitude":75.7873,"temp":24.7,"humidity":61,"rain":0.0,"pressure":961.1,"uv_index":8.05,"wind_gusts":35.3,"aqi":146,"pm10":151.3,"pm2_5":42.0,"no2":22.2,"co":340.0,"o3":84.0,"so2":6.9,"mosquito_risk":3,"arthritis_risk":5,"migraine_risk":7,"frizz_risk":1,"updated_at":"2026-05-05T21:29:32.930992+05:30"},{"city":"Lucknow","state":"Uttar Pradesh","latitude":26.8467,"longitude":80.9462,"temp":24.3,"humidity":83,"rain":0.0,"pressure":995.3,"uv_index":6.25,"wind_gusts":28.4,"aqi":145,"pm10":78.2,"pm2_5":62.6,"no2":29.7,"co":538.0,"o3":97.0,"so2":21.3,"mosquito_risk":3,"arthritis_risk":5,"migraine_risk":7,"frizz_risk":1,"updated_at":"2026-05-05T21:29:32.931001+05:30"},{"city":"Kanpur","state":"Uttar Pradesh","latitude":26.4499,"longitude":80.3319,"temp":24.7,"humidity":83,"rain":0.0,"pressure":993.5,"uv_index":8.05,"wind_gusts":31.3,"aqi":151,"pm10":101.3,"pm2_5":51.5,"no2":17.3,"co":447.0,"o3":116.0,"so2":13.1,"mosquito_risk":3,"arthritis_risk":5,"migraine_risk":7,"frizz_risk":1,"updated_at":"2026-05-05T21:29:32.931009+05:30"},{"city":"Chandigarh","state":"Chandigarh","latitude":30.7333,"longitude":76.7794,"temp":21.5,"humidity":66,"rain":0.0,"pressure":971.3,"uv_index":7.3,"wind_gusts":42.1,"aqi":122,"pm10":64.5,"pm2_5":33.6,"no2":34.8,"co":527.0,"o3":84.0,"so2":6.2,"mosquito_risk":3,"arthritis_risk":5,"migraine_risk":7,"frizz_risk":0,"updated_at":"2026-05-05T21:29:32.931018+05:30"},{"city":"Srinagar","state":"Jammu and Kashmir","latitude":34.0837,"longitude":74.7973,"temp":12.3,"humidity":81,"rain":0.0,"pressure":842.3,"uv_index":8.7,"wind_gusts":25.2,"aqi":89,"pm10":21.0,"pm2_5":17.8,"no2":21.5,"co":1539.0,"o3":79.0,"so2":4.6,"mosquito_risk":3,"arthritis_risk":10,"migraine_risk":7,"frizz_risk":0,"updated_at":"2026-05-05T21:29:32.931026+05:30"},{"city":"Jammu","state":"Jammu and Kashmir","latitude":32.7266,"longitude":74.857,"temp":23.0,"humidity":50,"rain":0.0,"pressure":974.4,"uv_index":8.3,"wind_gusts":30.2,"aqi":124,"pm10":42.1,"pm2_5":20.3,"no2":18.5,"co":361.0,"o3":97.0,"so2":3.1,"mosquito_risk":0,"arthritis_risk":5,"migraine_risk":7,"frizz_risk":0,"updated_at":"2026-05-05T21:29:32.931034+05:30"},{"city":"Amritsar","state":"Punjab","latitude":31.634,"longitude":74.8723,"temp":24.6,"humidity":56,"rain":0.0,"pressure":982.8,"uv_index":8.2,"wind_gusts":45.0,"aqi":136,"pm10":74.3,"pm2_5":31.9,"no2":6.3,"co":529.0,"o3":129.0,"so2":6.7,"mosquito_risk":0,"arthritis_risk":5,"migraine_risk":7,"frizz_risk":0,"updated_at":"2026-05-05T21:29:32.931041+05:30"},{"city":"Ludhiana","state":"Punjab","latitude":30.901,"longitude":75.8573,"temp":23.6,"humidity":64,"rain":0.0,"pressure":981.0,"uv_index":7.8,"wind_gusts":33.8,"aqi":128,"pm10":96.9,"pm2_5":47.0,"no2":17.2,"co":765.0,"o3":105.0,"so2":16.3,"mosquito_risk":3,"arthritis_risk":5,"migraine_risk":7,"frizz_risk":1,"updated_at":"2026-05-05T21:29:32.931049+05:30"},{"city":"Jalandhar","state":"Punjab","latitude":31.326,"longitude":75.5762,"temp":23.6,"humidity":57,"rain":0.0,"pressure":981.7,"uv_index":7.95,"wind_gusts":41.8,"aqi":142,"pm10":109.0,"pm2_5":41.1,"no2":11.0,"co":1224.0,"o3":120.0,"so2":11.5,"mosquito_risk":0,"arthritis_risk":5,"migraine_risk":7,"frizz_risk":0,"updated_at":"2026-05-05T21:29:32.931056+05:30"},{"city":"Dehradun","state":"Uttarakhand","latitude":30.6284,"longitude":78.0322,"temp":9.4,"humidity":97,"rain":0.0,"pressure":828.3,"uv_index":7.35,"wind_gusts":35.3,"aqi":106,"pm10":77.3,"pm2_5":22.4,"no2":21.7,"co":202.0,"o3":107.0,"so2":1.9,"mosquito_risk":3,"arthritis_risk":10,"migraine_risk":7,"frizz_risk":0,"updated_at":"2026-05-05T21:29:32.931066+05:30"},{"city":"Shimla","state":"Himachal Pradesh","latitude":31.1048,"longitude":77.1734,"temp":9.5,"humidity":72,"rain":0.0,"pressure":783.3,"uv_index":4.75,"wind_gusts":37.8,"aqi":102,"pm10":58.9,"pm2_5":22.2,"no2":21.1,"co":356.0,"o3":91.0,"so2":2.4,"mosquito_risk":3,"arthritis_risk":5,"migraine_risk":3,"frizz_risk":0,"updated_at":"2026-05-05T21:29:32.931073+05:30"},{"city":"Manali","state":"Himachal Pradesh","latitude":32.2396,"longitude":77.1887,"temp":8.4,"humidity":75,"rain":0.0,"pressure":815.9,"uv_index":9.65,"wind_gusts":43.2,"aqi":140,"pm10":20.0,"pm2_5":7.1,"no2":16.4,"co":331.0,"o3":137.0,"so2":0.6,"mosquito_risk":3,"arthritis_risk":5,"migraine_risk":7,"frizz_risk":0,"updated_at":"2026-05-05T21:29:32.931080+05:30"},{"city":"Gurgaon","state":"Haryana","latitude":28.4595,"longitude":77.0266,"temp":23.4,"humidity":78,"rain":0.0,"pressure":983.3,"uv_index":7.55,"wind_gusts":32.4,"aqi":292,"pm10":124.3,"pm2_5":60.3,"no2":42.6,"co":801.0,"o3":103.0,"so2":30.7,"mosquito_risk":3,"arthritis_risk":5,"migraine_risk":7,"frizz_risk":1,"updated_at":"2026-05-05T21:29:32.931088+05:30"},{"city":"Noida","state":"Uttar Pradesh","latitude":28.5355,"longitude":77.391,"temp":21.9,"humidity":81,"rain":0.0,"pressure":986.3,"uv_index":7.25,"wind_gusts":40.7,"aqi":292,"pm10":124.3,"pm2_5":60.3,"no2":42.6,"co":917.0,"o3":103.0,"so2":30.7,"mosquito_risk":3,"arthritis_risk":5,"migraine_risk":7,"frizz_risk":1,"updated_at":"2026-05-05T21:29:32.931096+05:30"},{"city":"Ghaziabad","state":"Uttar Pradesh","latitude":28.6692,"longitude":77.4538,"temp":21.9,"humidity":80,"rain":0.0,"pressure":984.6,"uv_index":6.95,"wind_gusts":47.5,"aqi":143,"pm10":109.9,"pm2_5":46.7,"no2":18.3,"co":415.0,"o3":107.0,"so2":13.7,"mosquito_risk":3,"arthritis_risk":5,"migraine_risk":7,"frizz_risk":1,"updated_at":"2026-05-05T21:29:32.931103+05:30"},{"city":"Faridabad","state":"Haryana","latitude":28.4089,"longitude":77.3178,"temp":22.8,"humidity":79,"rain":0.0,"pressure":985.6,"uv_index":7.0,"wind_gusts":35.6,"aqi":292,"pm10":124.3,"pm2_5":60.3,"no2":42.6,"co":771.0,"o3":103.0,"so2":30.7,"mosquito_risk":3,"arthritis_risk":5,"migraine_risk":7,"frizz_risk":1,"updated_at":"2026-05-05T21:29:32.931110+05:30"},{"city":"Meerut","state":"Uttar Pradesh","latitude":28.9845,"longitude":77.7064,"temp":22.1,"humidity":81,"rain":0.0,"pressure":983.6,"uv_index":4.2,"wind_gusts":50.0,"aqi":143,"pm10":109.9,"pm2_5":46.7,"no2":18.3,"co":431.0,"o3":107.0,"so2":13.7,"mosquito_risk":3,"arthritis_risk":5,"migraine_risk":3,"frizz_risk":1,"updated_at":"2026-05-05T21:29:32.931116+05:30"},{"city":"Agra","state":"Uttar Pradesh","latitude":27.1767,"longitude":78.0081,"temp":24.9,"humidity":75,"rain":0.0,"pressure":989.7,"uv_index":7.9,"wind_gusts":35.6,"aqi":299,"pm10":289.6,"pm2_5":69.4,"no2":16.7,"co":645.0,"o3":103.0,"so2":16.6,"mosquito_risk":3,"arthritis_risk":5,"migraine_risk":7,"frizz_risk":1,"updated_at":"2026-05-05T21:29:32.931122+05:30"},{"city":"Varanasi","state":"Uttar Pradesh","latitude":25.3176,"longitude":82.9739,"temp":25.9,"humidity":76,"rain":0.0,"pressure":999.0,"uv_index":8.4,"wind_gusts":33.8,"aqi":179,"pm10":61.7,"pm2_5":45.6,"no2":10.3,"co":952.0,"o3":130.0,"so2":14.6,"mosquito_risk":7,"arthritis_risk":5,"migraine_risk":7,"frizz_risk":1,"updated_at":"2026-05-05T21:29:32.931129+05:30"},{"city":"Prayagraj","state":"Uttar Pradesh","latitude":25.4358,"longitude":81.8463,"temp":26.5,"humidity":73,"rain":0.0,"pressure":997.5,"uv_index":8.2,"wind_gusts":29.9,"aqi":141,"pm10":60.5,"pm2_5":46.0,"no2":13.5,"co":465.0,"o3":106.0,"so2":12.9,"mosquito_risk":7,"arthritis_risk":5,"migraine_risk":7,"frizz_risk":1,"updated_at":"2026-05-05T21:29:32.931138+05:30"},{"city":"Gorakhpur","state":"Uttar Pradesh","latitude":26.7606,"longitude":83.3732,"temp":24.2,"humidity":80,"rain":0.0,"pressure":998.6,"uv_index":7.8,"wind_gusts":22.7,"aqi":144,"pm10":47.7,"pm2_5":41.9,"no2":22.0,"co":590.0,"o3":84.0,"so2":10.4,"mosquito_risk":3,"arthritis_risk":5,"migraine_risk":7,"frizz_risk":1,"updated_at":"2026-05-05T21:29:32.931145+05:30"},{"city":"Bareilly","state":"Uttar Pradesh","latitude":28.367,"longitude":79.4304,"temp":22.5,"humidity":71,"rain":0.0,"pressure":988.5,"uv_index":7.5,"wind_gusts":37.8,"aqi":141,"pm10":75.0,"pm2_5":57.0,"no2":28.3,"co":392.0,"o3":97.0,"so2":14.9,"mosquito_risk":3,"arthritis_risk":5,"migraine_risk":7,"frizz_risk":1,"updated_at":"2026-05-05T21:29:32.931172+05:30"},{"city":"Aligarh","state":"Uttar Pradesh","latitude":27.8974,"longitude":78.088,"temp":24.5,"humidity":72,"rain":0.0,"pressure":987.7,"uv_index":7.15,"wind_gusts":41.8,"aqi":178,"pm10":134.1,"pm2_5":56.0,"no2":16.4,"co":438.0,"o3":100.0,"so2":16.0,"mosquito_risk":3,"arthritis_risk":5,"migraine_risk":7,"frizz_risk":1,"updated_at":"2026-05-05T21:29:32.931180+05:30"},{"city":"Moradabad","state":"Uttar Pradesh","latitude":28.8386,"longitude":78.7733,"temp":21.5,"humidity":81,"rain":0.0,"pressure":985.6,"uv_index":6.4,"wind_gusts":46.4,"aqi":150,"pm10":76.1,"pm2_5":56.7,"no2":24.1,"co":502.0,"o3":111.0,"so2":21.2,"mosquito_risk":3,"arthritis_risk":5,"migraine_risk":7,"frizz_risk":1,"updated_at":"2026-05-05T21:29:32.931187+05:30"},{"city":"Saharanpur","state":"Uttar Pradesh","latitude":29.9637,"longitude":77.546,"temp":21.5,"humidity":77,"rain":0.0,"pressure":978.0,"uv_index":6.85,"wind_gusts":45.7,"aqi":117,"pm10":48.3,"pm2_5":26.9,"no2":8.1,"co":688.0,"o3":127.0,"so2":7.0,"mosquito_risk":3,"arthritis_risk":5,"migraine_risk":7,"frizz_risk":1,"updated_at":"2026-05-05T21:29:32.931194+05:30"},{"city":"Jhansi","state":"Uttar Pradesh","latitude":25.4484,"longitude":78.5685,"temp":27.4,"humidity":50,"rain":0.0,"pressure":979.3,"uv_index":7.9,"wind_gusts":34.6,"aqi":139,"pm10":82.2,"pm2_5":35.4,"no2":3.4,"co":327.0,"o3":124.0,"so2":8.3,"mosquito_risk":4,"arthritis_risk":5,"migraine_risk":7,"frizz_risk":0,"updated_at":"2026-05-05T21:29:36.208113+05:30"},{"city":"Surat","state":"Gujarat","latitude":21.1702,"longitude":72.8311,"temp":28.6,"humidity":78,"rain":0.0,"pressure":1006.2,"uv_index":7.7,"wind_gusts":41.4,"aqi":79,"pm10":52.6,"pm2_5":27.8,"no2":30.0,"co":302.0,"o3":46.0,"so2":46.1,"mosquito_risk":7,"arthritis_risk":5,"migraine_risk":4,"frizz_risk":1,"updated_at":"2026-05-05T21:29:36.208165+05:30"},{"city":"Vadodara","state":"Gujarat","latitude":22.3072,"longitude":73.1812,"temp":31.8,"humidity":53,"rain":0.0,"pressure":1003.0,"uv_index":8.05,"wind_gusts":36.7,"aqi":81,"pm10":57.7,"pm2_5":30.5,"no2":18.6,"co":619.0,"o3":83.0,"so2":13.2,"mosquito_risk":0,"arthritis_risk":5,"migraine_risk":4,"frizz_risk":1,"updated_at":"2026-05-05T21:29:36.208177+05:30"},{"city":"Rajkot","state":"Gujarat","latitude":22.3039,"longitude":70.8022,"temp":29.2,"humidity":68,"rain":0.0,"pressure":993.2,"uv_index":7.7,"wind_gusts":43.6,"aqi":91,"pm10":57.2,"pm2_5":21.0,"no2":5.8,"co":173.0,"o3":98.0,"so2":7.2,"mosquito_risk":7,"arthritis_risk":5,"migraine_risk":7,"frizz_risk":1,"updated_at":"2026-05-05T21:29:36.208186+05:30"},{"city":"Thane","state":"Maharashtra","latitude":19.2183,"longitude":72.9781,"temp":28.8,"humidity":73,"rain":0.0,"pressure":1008.0,"uv_index":7.85,"wind_gusts":38.2,"aqi":71,"pm10":70.3,"pm2_5":23.2,"no2":8.9,"co":220.0,"o3":65.0,"so2":21.1,"mosquito_risk":7,"arthritis_risk":0,"migraine_risk":4,"frizz_risk":1,"updated_at":"2026-05-05T21:29:36.208194+05:30"},{"city":"Nagpur","state":"Maharashtra","latitude":21.1458,"longitude":79.0882,"temp":34.4,"humidity":21,"rain":0.0,"pressure":972.5,"uv_index":8.9,"wind_gusts":33.1,"aqi":128,"pm10":49.4,"pm2_5":27.3,"no2":18.4,"co":261.0,"o3":88.0,"so2":15.3,"mosquito_risk":0,"arthritis_risk":5,"migraine_risk":7,"frizz_risk":0,"updated_at":"2026-05-05T21:29:36.208202+05:30"},{"city":"Nashik","state":"Maharashtra","latitude":19.9975,"longitude":73.7898,"temp":27.0,"humidity":70,"rain":0.0,"pressure":945.9,"uv_index":8.2,"wind_gusts":40.0,"aqi":62,"pm10":39.0,"pm2_5":17.0,"no2":5.0,"co":171.0,"o3":73.0,"so2":1.0,"mosquito_risk":7,"arthritis_risk":5,"migraine_risk":7,"frizz_risk":1,"updated_at":"2026-05-05T21:29:36.208209+05:30"},{"city":"Aurangabad","state":"Maharashtra","latitude":19.8762,"longitude":75.3433,"temp":32.1,"humidity":23,"rain":0.0,"pressure":943.6,"uv_index":9.0,"wind_gusts":38.2,"aqi":73,"pm10":47.4,"pm2_5":19.9,"no2":6.4,"co":178.0,"o3":96.0,"so2":3.5,"mosquito_risk":0,"arthritis_risk":5,"migraine_risk":7,"frizz_risk":0,"updated_at":"2026-05-05T21:29:36.208216+05:30"},{"city":"Solapur","state":"Maharashtra","latitude":17.6599,"longitude":75.9064,"temp":33.5,"humidity":16,"rain":0.0,"pressure":955.3,"uv_index":9.1,"wind_gusts":35.6,"aqi":78,"pm10":58.6,"pm2_5":23.2,"no2":15.6,"co":334.0,"o3":78.0,"so2":3.9,"mosquito_risk":0,"arthritis_risk":5,"migraine_risk":7,"frizz_risk":0,"updated_at":"2026-05-05T21:29:36.208223+05:30"},{"city":"Kolhapur","state":"Maharashtra","latitude":16.705,"longitude":74.2433,"temp":25.3,"humidity":80,"rain":0.0,"pressure":947.9,"uv_index":8.95,"wind_gusts":46.8,"aqi":61,"pm10":32.7,"pm2_5":16.2,"no2":8.3,"co":178.0,"o3":66.0,"so2":2.9,"mosquito_risk":7,"arthritis_risk":5,"migraine_risk":7,"frizz_risk":1,"updated_at":"2026-05-05T21:29:36.208230+05:30"},{"city":"Goa","state":"Goa","latitude":15.2993,"longitude":74.124,"temp":29.5,"humidity":75,"rain":0.0,"pressure":998.2,"uv_index":8.9,"wind_gusts":35.6,"aqi":67,"pm10":35.7,"pm2_5":17.2,"no2":3.4,"co":167.0,"o3":58.0,"so2":1.3,"mosquito_risk":7,"arthritis_risk":5,"migraine_risk":7,"frizz_risk":1,"updated_at":"2026-05-05T21:29:36.208237+05:30"},{"city":"Jodhpur","state":"Rajasthan","latitude":26.2389,"longitude":73.0243,"temp":33.1,"humidity":27,"rain":0.0,"pressure":983.4,"uv_index":8.3,"wind_gusts":47.5,"aqi":109,"pm10":243.1,"pm2_5":44.0,"no2":19.4,"co":355.0,"o3":98.0,"so2":5.8,"mosquito_risk":0,"arthritis_risk":5,"migraine_risk":7,"frizz_risk":0,"updated_at":"2026-05-05T21:29:36.208244+05:30"},{"city":"Udaipur","state":"Rajasthan","latitude":24.5854,"longitude":73.7125,"temp":25.7,"humidity":52,"rain":0.0,"pressure":946.5,"uv_index":8.75,"wind_gusts":40.7,"aqi":95,"pm10":90.6,"pm2_5":30.4,"no2":2.4,"co":288.0,"o3":121.0,"so2":5.1,"mosquito_risk":4,"arthritis_risk":5,"migraine_risk":7,"frizz_risk":0,"updated_at":"2026-05-05T21:29:36.208251+05:30"},{"city":"Kota","state":"Rajasthan","latitude":25.2138,"longitude":75.8648,"temp":28.6,"humidity":46,"rain":0.0,"pressure":979.4,"uv_index":8.3,"wind_gusts":28.8,"aqi":121,"pm10":70.1,"pm2_5":29.7,"no2":9.2,"co":309.0,"o3":95.0,"so2":5.2,"mosquito_risk":4,"arthritis_risk":5,"migraine_risk":7,"frizz_risk":0,"updated_at":"2026-05-05T21:29:36.208258+05:30"},{"city":"Bikaner","state":"Rajasthan","latitude":28.0229,"longitude":73.3119,"temp":30.3,"humidity":32,"rain":0.0,"pressure":983.7,"uv_index":8.2,"wind_gusts":30.6,"aqi":123,"pm10":94.5,"pm2_5":33.6,"no2":2.1,"co":342.0,"o3":143.0,"so2":6.3,"mosquito_risk":0,"arthritis_risk":5,"migraine_risk":7,"frizz_risk":0,"updated_at":"2026-05-05T21:29:36.208265+05:30"},{"city":"Ajmer","state":"Rajasthan","latitude":26.4499,"longitude":74.6399,"temp":27.6,"humidity":34,"rain":0.0,"pressure":955.7,"uv_index":8.2,"wind_gusts":37.4,"aqi":106,"pm10":70.1,"pm2_5":26.3,"no2":10.3,"co":273.0,"o3":104.0,"so2":5.0,"mosquito_risk":4,"arthritis_risk":5,"migraine_risk":7,"frizz_risk":0,"updated_at":"2026-05-05T21:29:36.208272+05:30"},{"city":"Gwalior","state":"Madhya Pradesh","latitude":26.2183,"longitude":78.1828,"temp":24.5,"humidity":74,"rain":0.0,"pressure":984.9,"uv_index":8.1,"wind_gusts":42.8,"aqi":116,"pm10":165.8,"pm2_5":47.0,"no2":5.7,"co":471.0,"o3":120.0,"so2":5.7,"mosquito_risk":3,"arthritis_risk":5,"migraine_risk":7,"frizz_risk":1,"updated_at":"2026-05-05T21:29:36.208278+05:30"},{"city":"Indore","state":"Madhya Pradesh","latitude":22.7196,"longitude":75.8577,"temp":30.1,"humidity":31,"rain":0.0,"pressure":948.6,"uv_index":8.6,"wind_gusts":44.3,"aqi":92,"pm10":30.7,"pm2_5":17.6,"no2":8.5,"co":251.0,"o3":97.0,"so2":4.9,"mosquito_risk":0,"arthritis_risk":5,"migraine_risk":7,"frizz_risk":0,"updated_at":"2026-05-05T21:29:36.208285+05:30"},{"city":"Bhopal","state":"Madhya Pradesh","latitude":23.2599,"longitude":77.4126,"temp":29.0,"humidity":40,"rain":0.0,"pressure":953.7,"uv_index":8.65,"wind_gusts":37.8,"aqi":90,"pm10":39.8,"pm2_5":17.5,"no2":4.3,"co":244.0,"o3":107.0,"so2":3.3,"mosquito_risk":4,"arthritis_risk":5,"migraine_risk":7,"frizz_risk":0,"updated_at":"2026-05-05T21:29:36.208292+05:30"},{"city":"Jabalpur","state":"Madhya Pradesh","latitude":23.1815,"longitude":79.9864,"temp":28.9,"humidity":42,"rain":0.0,"pressure":962.3,"uv_index":8.3,"wind_gusts":33.5,"aqi":132,"pm10":41.9,"pm2_5":27.8,"no2":6.2,"co":232.0,"o3":124.0,"so2":6.1,"mosquito_risk":4,"arthritis_risk":5,"migraine_risk":7,"frizz_risk":0,"updated_at":"2026-05-05T21:29:36.208298+05:30"},{"city":"Ujjain","state":"Madhya Pradesh","latitude":23.1765,"longitude":75.7885,"temp":29.1,"humidity":38,"rain":0.0,"pressure":954.3,"uv_index":8.55,"wind_gusts":46.1,"aqi":88,"pm10":34.6,"pm2_5":18.2,"no2":4.3,"co":217.0,"o3":103.0,"so2":3.6,"mosquito_risk":4,"arthritis_risk":5,"migraine_risk":7,"frizz_risk":0,"updated_at":"2026-05-05T21:29:36.208306+05:30"},{"city":"Visakhapatnam","state":"Andhra Pradesh","latitude":17.6868,"longitude":83.2185,"temp":27.1,"humidity":86,"rain":0.0,"pressure":1005.7,"uv_index":9.2,"wind_gusts":37.4,"aqi":78,"pm10":37.1,"pm2_5":28.3,"no2":35.5,"co":375.0,"o3":38.0,"so2":9.7,"mosquito_risk":7,"arthritis_risk":5,"migraine_risk":4,"frizz_risk":1,"updated_at":"2026-05-05T21:29:36.208313+05:30"},{"city":"Vijayawada","state":"Andhra Pradesh","latitude":16.5062,"longitude":80.648,"temp":30.0,"humidity":74,"rain":0.0,"pressure":1003.2,"uv_index":9.2,"wind_gusts":35.3,"aqi":77,"pm10":28.6,"pm2_5":23.9,"no2":8.2,"co":215.0,"o3":75.0,"so2":7.9,"mosquito_risk":7,"arthritis_risk":5,"migraine_risk":4,"frizz_risk":1,"updated_at":"2026-05-05T21:29:36.208319+05:30"},{"city":"Guntur","state":"Andhra Pradesh","latitude":16.3067,"longitude":80.4365,"temp":29.7,"humidity":76,"rain":0.0,"pressure":1004.3,"uv_index":9.2,"wind_gusts":37.8,"aqi":92,"pm10":38.6,"pm2_5":31.5,"no2":7.3,"co":213.0,"o3":89.0,"so2":8.1,"mosquito_risk":7,"arthritis_risk":5,"migraine_risk":4,"frizz_risk":1,"updated_at":"2026-05-05T21:29:36.208326+05:30"},{"city":"Nellore","state":"Andhra Pradesh","latitude":14.4426,"longitude":79.9865,"temp":28.5,"humidity":88,"rain":0.0,"pressure":1006.4,"uv_index":9.0,"wind_gusts":39.6,"aqi":85,"pm10":24.3,"pm2_5":17.5,"no2":4.3,"co":199.0,"o3":84.0,"so2":5.4,"mosquito_risk":7,"arthritis_risk":5,"migraine_risk":4,"frizz_risk":1,"updated_at":"2026-05-05T21:29:36.208333+05:30"},{"city":"Kurnool","state":"Andhra Pradesh","latitude":15.8281,"longitude":78.0373,"temp":31.2,"humidity":43,"rain":0.0,"pressure":976.1,"uv_index":9.2,"wind_gusts":45.0,"aqi":138,"pm10":51.3,"pm2_5":27.9,"no2":15.0,"co":236.0,"o3":102.0,"so2":7.8,"mosquito_risk":0,"arthritis_risk":5,"migraine_risk":7,"frizz_risk":1,"updated_at":"2026-05-05T21:29:36.208340+05:30"},{"city":"Kakinada","state":"Andhra Pradesh","latitude":16.9891,"longitude":82.2475,"temp":27.9,"humidity":88,"rain":0.0,"pressure":1008.9,"uv_index":9.15,"wind_gusts":29.9,"aqi":63,"pm10":25.3,"pm2_5":16.6,"no2":3.0,"co":282.0,"o3":69.0,"so2":1.5,"mosquito_risk":7,"arthritis_risk":0,"migraine_risk":4,"frizz_risk":1,"updated_at":"2026-05-05T21:29:36.208346+05:30"},{"city":"Tirupati","state":"Andhra Pradesh","latitude":13.6288,"longitude":79.4192,"temp":30.5,"humidity":57,"rain":0.0,"pressure":991.6,"uv_index":8.8,"wind_gusts":29.9,"aqi":147,"pm10":67.3,"pm2_5":54.9,"no2":27.8,"co":297.0,"o3":79.0,"so2":12.2,"mosquito_risk":0,"arthritis_risk":5,"migraine_risk":7,"frizz_risk":1,"updated_at":"2026-05-05T21:29:36.208353+05:30"},{"city":"Warangal","state":"Telangana","latitude":17.9689,"longitude":79.5941,"temp":30.2,"humidity":52,"rain":0.0,"pressure":978.5,"uv_index":9.15,"wind_gusts":47.9,"aqi":112,"pm10":43.0,"pm2_5":31.7,"no2":9.6,"co":287.0,"o3":113.0,"so2":8.8,"mosquito_risk":0,"arthritis_risk":5,"migraine_risk":7,"frizz_risk":1,"updated_at":"2026-05-05T21:29:36.208359+05:30"},{"city":"Nizamabad","state":"Telangana","latitude":18.6725,"longitude":78.0941,"temp":33.4,"humidity":25,"rain":0.0,"pressure":963.9,"uv_index":9.1,"wind_gusts":32.8,"aqi":106,"pm10":62.6,"pm2_5":32.1,"no2":16.7,"co":300.0,"o3":89.0,"so2":7.2,"mosquito_risk":0,"arthritis_risk":5,"migraine_risk":7,"frizz_risk":0,"updated_at":"2026-05-05T21:29:36.208365+05:30"},{"city":"Mysore","state":"Karnataka","latitude":12.2958,"longitude":76.6396,"temp":24.7,"humidity":71,"rain":0.0,"pressure":928.7,"uv_index":9.35,"wind_gusts":29.5,"aqi":97,"pm10":63.1,"pm2_5":38.6,"no2":48.2,"co":224.0,"o3":63.0,"so2":7.6,"mosquito_risk":3,"arthritis_risk":5,"migraine_risk":7,"frizz_risk":1,"updated_at":"2026-05-05T21:29:36.208372+05:30"},{"city":"Mangalore","state":"Karnataka","latitude":12.9141,"longitude":74.856,"temp":29.6,"humidity":75,"rain":0.0,"pressure":1006.7,"uv_index":8.85,"wind_gusts":48.2,"aqi":64,"pm10":33.5,"pm2_5":15.7,"no2":2.8,"co":157.0,"o3":60.0,"so2":1.2,"mosquito_risk":7,"arthritis_risk":5,"migraine_risk":4,"frizz_risk":1,"updated_at":"2026-05-05T21:29:36.208378+05:30"},{"city":"Hubli-Dharwad","state":"Karnataka","latitude":15.3647,"longitude":75.124,"temp":26.1,"humidity":73,"rain":0.0,"pressure":940.5,"uv_index":9.2,"wind_gusts":52.9,"aqi":59,"pm10":25.8,"pm2_5":14.3,"no2":6.9,"co":195.0,"o3":73.0,"so2":2.2,"mosquito_risk":7,"arthritis_risk":5,"migraine_risk":7,"frizz_risk":1,"updated_at":"2026-05-05T21:29:36.208385+05:30"},{"city":"Belgaum","state":"Karnataka","latitude":15.8497,"longitude":74.4977,"temp":24.2,"humidity":82,"rain":0.0,"pressure":925.8,"uv_index":9.2,"wind_gusts":55.1,"aqi":60,"pm10":27.9,"pm2_5":14.7,"no2":7.8,"co":182.0,"o3":56.0,"so2":2.2,"mosquito_risk":3,"arthritis_risk":5,"migraine_risk":7,"frizz_risk":1,"updated_at":"2026-05-05T21:29:39.501245+05:30"},{"city":"Coimbatore","state":"Tamil Nadu","latitude":11.0168,"longitude":76.9558,"temp":24.2,"humidity":96,"rain":0.0,"pressure":962.2,"uv_index":9.0,"wind_gusts":39.2,"aqi":71,"pm10":34.7,"pm2_5":21.9,"no2":15.2,"co":282.0,"o3":70.0,"so2":5.6,"mosquito_risk":3,"arthritis_risk":5,"migraine_risk":7,"frizz_risk":1,"updated_at":"2026-05-05T21:29:39.501281+05:30"},{"city":"Madurai","state":"Tamil Nadu","latitude":9.9252,"longitude":78.1198,"temp":27.1,"humidity":88,"rain":0.0,"pressure":993.5,"uv_index":5.7,"wind_gusts":50.8,"aqi":125,"pm10":39.5,"pm2_5":28.6,"no2":13.2,"co":299.0,"o3":101.0,"so2":5.0,"mosquito_risk":7,"arthritis_risk":5,"migraine_risk":3,"frizz_risk":1,"updated_at":"2026-05-05T21:29:39.501293+05:30"},{"city":"Trichy","state":"Tamil Nadu","latitude":10.7905,"longitude":78.7047,"temp":27.4,"humidity":75,"rain":0.0,"pressure":1000.4,"uv_index":8.75,"wind_gusts":34.6,"aqi":136,"pm10":63.1,"pm2_5":43.4,"no2":19.9,"co":279.0,"o3":103.0,"so2":7.1,"mosquito_risk":7,"arthritis_risk":5,"migraine_risk":4,"frizz_risk":1,"updated_at":"2026-05-05T21:29:39.501302+05:30"},{"city":"Salem","state":"Tamil Nadu","latitude":11.6643,"longitude":78.146,"temp":25.9,"humidity":76,"rain":0.0,"pressure":978.1,"uv_index":9.2,"wind_gusts":39.6,"aqi":152,"pm10":63.3,"pm2_5":39.6,"no2":15.4,"co":309.0,"o3":108.0,"so2":10.0,"mosquito_risk":7,"arthritis_risk":5,"migraine_risk":7,"frizz_risk":1,"updated_at":"2026-05-05T21:29:39.501310+05:30"},{"city":"Tirunelveli","state":"Tamil Nadu","latitude":8.7139,"longitude":77.7567,"temp":29.2,"humidity":67,"rain":0.0,"pressure":1003.4,"uv_index":8.75,"wind_gusts":46.4,"aqi":76,"pm10":41.1,"pm2_5":24.5,"no2":11.2,"co":347.0,"o3":83.0,"so2":6.0,"mosquito_risk":7,"arthritis_risk":5,"migraine_risk":4,"frizz_risk":1,"updated_at":"2026-05-05T21:29:39.501317+05:30"},{"city":"Vellore","state":"Tamil Nadu","latitude":12.9165,"longitude":79.1325,"temp":28.6,"humidity":71,"rain":0.0,"pressure":984.9,"uv_index":9.05,"wind_gusts":37.8,"aqi":152,"pm10":58.3,"pm2_5":48.3,"no2":16.1,"co":290.0,"o3":97.0,"so2":9.5,"mosquito_risk":7,"arthritis_risk":5,"migraine_risk":7,"frizz_risk":1,"updated_at":"2026-05-05T21:29:39.501325+05:30"},{"city":"Erode","state":"Tamil Nadu","latitude":11.341,"longitude":77.7172,"temp":28.0,"humidity":69,"rain":0.0,"pressure":989.7,"uv_index":9.0,"wind_gusts":37.8,"aqi":139,"pm10":50.3,"pm2_5":27.1,"no2":11.6,"co":283.0,"o3":113.0,"so2":2.9,"mosquito_risk":7,"arthritis_risk":5,"migraine_risk":7,"frizz_risk":1,"updated_at":"2026-05-05T21:29:39.501332+05:30"},{"city":"Kochi","state":"Kerala","latitude":9.9312,"longitude":76.2673,"temp":26.7,"humidity":92,"rain":0.0,"pressure":1009.2,"uv_index":2.85,"wind_gusts":27.0,"aqi":58,"pm10":34.7,"pm2_5":25.6,"no2":29.3,"co":354.0,"o3":36.0,"so2":6.2,"mosquito_risk":7,"arthritis_risk":0,"migraine_risk":0,"frizz_risk":1,"updated_at":"2026-05-05T21:29:39.501339+05:30"},{"city":"Thiruvananthapuram","state":"Kerala","latitude":8.5241,"longitude":76.9366,"temp":25.7,"humidity":91,"rain":0.0,"pressure":1008.6,"uv_index":8.4,"wind_gusts":29.9,"aqi":62,"pm10":22.0,"pm2_5":10.2,"no2":3.2,"co":339.0,"o3":95.0,"so2":1.9,"mosquito_risk":7,"arthritis_risk":0,"migraine_risk":4,"frizz_risk":1,"updated_at":"2026-05-05T21:29:39.501347+05:30"},{"city":"Kozhikode","state":"Kerala","latitude":11.2588,"longitude":75.7804,"temp":27.0,"humidity":88,"rain":0.0,"pressure":1008.2,"uv_index":8.7,"wind_gusts":35.6,"aqi":57,"pm10":37.7,"pm2_5":16.6,"no2":3.1,"co":363.0,"o3":68.0,"so2":1.9,"mosquito_risk":7,"arthritis_risk":0,"migraine_risk":4,"frizz_risk":1,"updated_at":"2026-05-05T21:29:39.501353+05:30"},{"city":"Thrissur","state":"Kerala","latitude":10.5276,"longitude":76.2144,"temp":25.4,"humidity":99,"rain":0.0,"pressure":1007.5,"uv_index":2.75,"wind_gusts":27.4,"aqi":55,"pm10":43.8,"pm2_5":32.1,"no2":24.8,"co":383.0,"o3":43.0,"so2":5.1,"mosquito_risk":7,"arthritis_risk":5,"migraine_risk":0,"frizz_risk":1,"updated_at":"2026-05-05T21:29:39.501361+05:30"},{"city":"Kannur","state":"Kerala","latitude":11.8745,"longitude":75.3704,"temp":29.4,"humidity":73,"rain":0.0,"pressure":1007.3,"uv_index":8.9,"wind_gusts":43.9,"aqi":64,"pm10":43.1,"pm2_5":19.8,"no2":6.8,"co":196.0,"o3":52.0,"so2":1.7,"mosquito_risk":7,"arthritis_risk":5,"migraine_risk":4,"frizz_risk":1,"updated_at":"2026-05-05T21:29:39.501369+05:30"},{"city":"Patna","state":"Bihar","latitude":25.5941,"longitude":85.1376,"temp":26.1,"humidity":76,"rain":0.0,"pressure":1001.7,"uv_index":8.7,"wind_gusts":29.2,"aqi":177,"pm10":95.5,"pm2_5":77.3,"no2":37.5,"co":736.0,"o3":102.0,"so2":23.6,"mosquito_risk":7,"arthritis_risk":5,"migraine_risk":4,"frizz_risk":1,"updated_at":"2026-05-05T21:29:39.501376+05:30"},{"city":"Gaya","state":"Bihar","latitude":24.7914,"longitude":85.0002,"temp":26.2,"humidity":69,"rain":0.0,"pressure":995.5,"uv_index":8.75,"wind_gusts":31.7,"aqi":166,"pm10":65.9,"pm2_5":47.5,"no2":11.4,"co":571.0,"o3":124.0,"so2":12.1,"mosquito_risk":7,"arthritis_risk":5,"migraine_risk":7,"frizz_risk":1,"updated_at":"2026-05-05T21:29:39.501383+05:30"},{"city":"Muzaffarpur","state":"Bihar","latitude":26.1209,"longitude":85.3647,"temp":25.0,"humidity":77,"rain":0.0,"pressure":1001.6,"uv_index":8.5,"wind_gusts":30.6,"aqi":160,"pm10":105.2,"pm2_5":88.5,"no2":44.5,"co":758.0,"o3":90.0,"so2":26.4,"mosquito_risk":7,"arthritis_risk":5,"migraine_risk":4,"frizz_risk":1,"updated_at":"2026-05-05T21:29:39.501389+05:30"},{"city":"Bhagalpur","state":"Bihar","latitude":25.2425,"longitude":87.0117,"temp":26.3,"humidity":79,"rain":0.0,"pressure":1002.7,"uv_index":8.6,"wind_gusts":25.9,"aqi":172,"pm10":57.2,"pm2_5":50.1,"no2":17.3,"co":377.0,"o3":114.0,"so2":13.2,"mosquito_risk":7,"arthritis_risk":5,"migraine_risk":4,"frizz_risk":1,"updated_at":"2026-05-05T21:29:39.501394+05:30"},{"city":"Ranchi","state":"Jharkhand","latitude":23.3441,"longitude":85.3096,"temp":21.9,"humidity":79,"rain":0.0,"pressure":939.6,"uv_index":9.2,"wind_gusts":31.7,"aqi":147,"pm10":61.5,"pm2_5":42.6,"no2":6.8,"co":295.0,"o3":130.0,"so2":8.0,"mosquito_risk":3,"arthritis_risk":5,"migraine_risk":7,"frizz_risk":1,"updated_at":"2026-05-05T21:29:39.501401+05:30"},{"city":"Jamshedpur","state":"Jharkhand","latitude":22.8046,"longitude":86.2029,"temp":25.5,"humidity":76,"rain":0.0,"pressure":993.2,"uv_index":8.95,"wind_gusts":29.5,"aqi":161,"pm10":41.6,"pm2_5":35.7,"no2":15.1,"co":712.0,"o3":109.0,"so2":20.1,"mosquito_risk":7,"arthritis_risk":5,"migraine_risk":7,"frizz_risk":1,"updated_at":"2026-05-05T21:29:39.501408+05:30"},{"city":"Dhanbad","state":"Jharkhand","latitude":23.7957,"longitude":86.4304,"temp":25.4,"humidity":82,"rain":0.0,"pressure":981.8,"uv_index":8.8,"wind_gusts":28.8,"aqi":170,"pm10":75.0,"pm2_5":67.1,"no2":46.4,"co":835.0,"o3":104.0,"so2":64.9,"mosquito_risk":7,"arthritis_risk":5,"migraine_risk":7,"frizz_risk":1,"updated_at":"2026-05-05T21:29:39.501414+05:30"},{"city":"Bokaro","state":"Jharkhand","latitude":23.6693,"longitude":86.1511,"temp":26.1,"humidity":76,"rain":0.0,"pressure":985.6,"uv_index":9.0,"wind_gusts":28.4,"aqi":204,"pm10":73.1,"pm2_5":62.6,"no2":34.0,"co":2200.0,"o3":129.0,"so2":47.4,"mosquito_risk":7,"arthritis_risk":5,"migraine_risk":7,"frizz_risk":1,"updated_at":"2026-05-05T21:29:39.501422+05:30"},{"city":"Bhubaneswar","state":"Odisha","latitude":20.2961,"longitude":85.8245,"temp":24.4,"humidity":92,"rain":0.0,"pressure":1005.0,"uv_index":9.1,"wind_gusts":33.8,"aqi":42,"pm10":14.8,"pm2_5":12.0,"no2":8.7,"co":423.0,"o3":46.0,"so2":3.5,"mosquito_risk":3,"arthritis_risk":5,"migraine_risk":4,"frizz_risk":1,"updated_at":"2026-05-05T21:29:39.501430+05:30"},{"city":"Cuttack","state":"Odisha","latitude":20.4625,"longitude":85.8828,"temp":24.9,"humidity":91,"rain":0.0,"pressure":1006.8,"uv_index":9.15,"wind_gusts":29.5,"aqi":42,"pm10":14.8,"pm2_5":12.0,"no2":8.7,"co":224.0,"o3":46.0,"so2":3.5,"mosquito_risk":3,"arthritis_risk":5,"migraine_risk":4,"frizz_risk":1,"updated_at":"2026-05-05T21:29:39.501436+05:30"},{"city":"Rourkela","state":"Odisha","latitude":22.2604,"longitude":84.8536,"temp":24.0,"humidity":77,"rain":0.0,"pressure":988.7,"uv_index":8.95,"wind_gusts":42.5,"aqi":150,"pm10":50.2,"pm2_5":37.1,"no2":7.8,"co":878.0,"o3":140.0,"so2":29.3,"mosquito_risk":3,"arthritis_risk":5,"migraine_risk":7,"frizz_risk":1,"updated_at":"2026-05-05T21:29:39.501444+05:30"},{"city":"Raipur","state":"Chhattisgarh","latitude":21.2514,"longitude":81.6296,"temp":28.5,"humidity":53,"rain":0.0,"pressure":974.9,"uv_index":8.95,"wind_gusts":50.4,"aqi":146,"pm10":54.6,"pm2_5":41.1,"no2":26.2,"co":304.0,"o3":84.0,"so2":9.4,"mosquito_risk":4,"arthritis_risk":5,"migraine_risk":7,"frizz_risk":1,"updated_at":"2026-05-05T21:29:39.501452+05:30"},{"city":"Bhilai","state":"Chhattisgarh","latitude":21.1938,"longitude":81.3509,"temp":28.1,"humidity":55,"rain":0.0,"pressure":974.9,"uv_index":8.95,"wind_gusts":43.9,"aqi":127,"pm10":60.8,"pm2_5":47.0,"no2":37.7,"co":360.0,"o3":69.0,"so2":10.2,"mosquito_risk":4,"arthritis_risk":5,"migraine_risk":7,"frizz_risk":1,"updated_at":"2026-05-05T21:29:39.501458+05:30"},{"city":"Guwahati","state":"Assam","latitude":26.1158,"longitude":91.7086,"temp":23.6,"humidity":83,"rain":0.0,"pressure":1003.1,"uv_index":8.65,"wind_gusts":28.1,"aqi":73,"pm10":31.8,"pm2_5":26.7,"no2":9.5,"co":357.0,"o3":67.0,"so2":2.0,"mosquito_risk":3,"arthritis_risk":5,"migraine_risk":4,"frizz_risk":1,"updated_at":"2026-05-05T21:29:39.501464+05:30"},{"city":"Agartala","state":"Tripura","latitude":23.8315,"longitude":91.2868,"temp":24.5,"humidity":92,"rain":0.0,"pressure":1008.5,"uv_index":8.75,"wind_gusts":23.0,"aqi":122,"pm10":34.8,"pm2_5":32.2,"no2":22.1,"co":374.0,"o3":58.0,"so2":5.8,"mosquito_risk":3,"arthritis_risk":0,"migraine_risk":4,"frizz_risk":1,"updated_at":"2026-05-05T21:29:39.501471+05:30"},{"city":"Shillong","state":"Meghalaya","latitude":25.5788,"longitude":91.8933,"temp":14.8,"humidity":97,"rain":0.0,"pressure":857.0,"uv_index":8.6,"wind_gusts":29.9,"aqi":73,"pm10":27.8,"pm2_5":23.3,"no2":12.8,"co":600.0,"o3":72.0,"so2":2.2,"mosquito_risk":3,"arthritis_risk":10,"migraine_risk":7,"frizz_risk":0,"updated_at":"2026-05-05T21:29:39.501477+05:30"},{"city":"Imphal","state":"Manipur","latitude":24.817,"longitude":93.9368,"temp":21.0,"humidity":86,"rain":0.0,"pressure":924.4,"uv_index":9.2,"wind_gusts":25.9,"aqi":94,"pm10":38.3,"pm2_5":29.3,"no2":14.2,"co":695.0,"o3":59.0,"so2":3.7,"mosquito_risk":3,"arthritis_risk":5,"migraine_risk":7,"frizz_risk":1,"updated_at":"2026-05-05T21:29:39.501484+05:30"},{"city":"Aizawl","state":"Mizoram","latitude":23.7271,"longitude":92.7176,"temp":19.3,"humidity":81,"rain":0.0,"pressure":894.1,"uv_index":9.05,"wind_gusts":33.8,"aqi":71,"pm10":22.1,"pm2_5":17.2,"no2":9.2,"co":278.0,"o3":44.0,"so2":0.8,"mosquito_risk":3,"arthritis_risk":10,"migraine_risk":7,"frizz_risk":0,"updated_at":"2026-05-05T21:29:39.501491+05:30"},{"city":"Kohima","state":"Nagaland","latitude":25.6701,"longitude":94.1077,"temp":16.0,"humidity":97,"rain":0.0,"pressure":855.6,"uv_index":9.15,"wind_gusts":30.6,"aqi":64,"pm10":41.0,"pm2_5":24.9,"no2":14.1,"co":419.0,"o3":71.0,"so2":2.3,"mosquito_risk":3,"arthritis_risk":10,"migraine_risk":7,"frizz_risk":0,"updated_at":"2026-05-05T21:29:39.501498+05:30"},{"city":"Gangtok","state":"Sikkim","latitude":27.3314,"longitude":88.6138,"temp":12.6,"humidity":99,"rain":0.0,"pressure":837.0,"uv_index":9.0,"wind_gusts":33.5,"aqi":74,"pm10":19.9,"pm2_5":16.4,"no2":16.8,"co":416.0,"o3":85.0,"so2":1.4,"mosquito_risk":3,"arthritis_risk":10,"migraine_risk":7,"frizz_risk":0,"updated_at":"2026-05-05T21:29:39.501504+05:30"},{"city":"Siliguri","state":"West Bengal","latitude":26.7271,"longitude":88.3953,"temp":24.5,"humidity":76,"rain":0.0,"pressure":994.7,"uv_index":8.6,"wind_gusts":29.5,"aqi":86,"pm10":48.3,"pm2_5":39.9,"no2":23.2,"co":1528.0,"o3":90.0,"so2":5.3,"mosquito_risk":3,"arthritis_risk":5,"migraine_risk":7,"frizz_risk":1,"updated_at":"2026-05-05T21:29:42.785871+05:30"},{"city":"Durgapur","state":"West Bengal","latitude":23.5204,"longitude":87.3119,"temp":25.0,"humidity":86,"rain":0.0,"pressure":996.9,"uv_index":7.65,"wind_gusts":28.1,"aqi":136,"pm10":51.3,"pm2_5":48.8,"no2":30.5,"co":901.0,"o3":87.0,"so2":41.5,"mosquito_risk":7,"arthritis_risk":5,"migraine_risk":7,"frizz_risk":1,"updated_at":"2026-05-05T21:29:42.786013+05:30"},{"city":"Asansol","state":"West Bengal","latitude":23.6739,"longitude":86.9524,"temp":25.0,"humidity":84,"rain":0.0,"pressure":995.4,"uv_index":8.5,"wind_gusts":32.0,"aqi":142,"pm10":52.7,"pm2_5":48.4,"no2":34.3,"co":525.0,"o3":86.0,"so2":53.7,"mosquito_risk":7,"arthritis_risk":5,"migraine_risk":7,"frizz_risk":1,"updated_at":"2026-05-05T21:29:42.786025+05:30"},{"city":"Pondicherry","state":"Puducherry","latitude":11.9139,"longitude":79.8145,"temp":28.4,"humidity":84,"rain":0.0,"pressure":1008.9,"uv_index":8.9,"wind_gusts":46.8,"aqi":73,"pm10":24.3,"pm2_5":14.4,"no2":2.0,"co":197.0,"o3":79.0,"so2":0.4,"mosquito_risk":7,"arthritis_risk":0,"migraine_risk":4,"frizz_risk":1,"updated_at":"2026-05-05T21:29:42.786034+05:30"},{"city":"Port Blair","state":"Andaman and Nicobar Islands","latitude":11.6234,"longitude":92.7265,"temp":26.9,"humidity":89,"rain":0.0,"pressure":1008.3,"uv_index":8.4,"wind_gusts":38.9,"aqi":29,"pm10":5.2,"pm2_5":4.5,"no2":0.9,"co":414.0,"o3":60.0,"so2":1.5,"mosquito_risk":7,"arthritis_risk":0,"migraine_risk":4,"frizz_risk":1,"updated_at":"2026-05-05T21:29:42.786043+05:30"},{"city":"Haridwar","state":"Uttarakhand","latitude":29.9457,"longitude":78.1642,"temp":20.4,"humidity":81,"rain":0.0,"pressure":976.1,"uv_index":5.9,"wind_gusts":35.3,"aqi":114,"pm10":60.5,"pm2_5":27.1,"no2":6.3,"co":394.0,"o3":123.0,"so2":4.9,"mosquito_risk":3,"arthritis_risk":5,"migraine_risk":3,"frizz_risk":1,"updated_at":"2026-05-05T21:29:42.786052+05:30"},{"city":"Rishikesh","state":"Uttarakhand","latitude":30.0869,"longitude":78.2676,"temp":18.2,"humidity":82,"rain":0.0,"pressure":968.4,"uv_index":6.15,"wind_gusts":33.1,"aqi":99,"pm10":56.9,"pm2_5":24.2,"no2":9.6,"co":372.0,"o3":98.0,"so2":2.4,"mosquito_risk":3,"arthritis_risk":10,"migraine_risk":7,"frizz_risk":0,"updated_at":"2026-05-05T21:29:42.786061+05:30"},{"city":"Nainital","state":"Uttarakhand","latitude":29.3919,"longitude":79.4542,"temp":9.2,"humidity":91,"rain":0.0,"pressure":803.5,"uv_index":6.55,"wind_gusts":32.4,"aqi":112,"pm10":56.9,"pm2_5":32.6,"no2":17.8,"co":307.0,"o3":96.0,"so2":5.6,"mosquito_risk":3,"arthritis_risk":10,"migraine_risk":7,"frizz_risk":0,"updated_at":"2026-05-05T21:29:42.786068+05:30"},{"city":"Mussoorie","state":"Uttarakhand","latitude":30.4599,"longitude":78.0664,"temp":8.2,"humidity":91,"rain":0.0,"pressure":800.2,"uv_index":7.35,"wind_gusts":37.1,"aqi":114,"pm10":68.7,"pm2_5":24.0,"no2":11.8,"co":324.0,"o3":115.0,"so2":6.4,"mosquito_risk":3,"arthritis_risk":10,"migraine_risk":7,"frizz_risk":0,"updated_at":"2026-05-05T21:29:42.786077+05:30"},{"city":"Dharamshala","state":"Himachal Pradesh","latitude":32.219,"longitude":76.3234,"temp":15.5,"humidity":60,"rain":0.0,"pressure":869.2,"uv_index":7.5,"wind_gusts":45.0,"aqi":114,"pm10":46.3,"pm2_5":15.8,"no2":11.5,"co":269.0,"o3":115.0,"so2":1.5,"mosquito_risk":0,"arthritis_risk":5,"migraine_risk":7,"frizz_risk":0,"updated_at":"2026-05-05T21:29:42.786084+05:30"},{"city":"Dalhousie","state":"Himachal Pradesh","latitude":32.5387,"longitude":75.971,"temp":9.9,"humidity":74,"rain":0.0,"pressure":802.9,"uv_index":6.15,"wind_gusts":41.4,"aqi":120,"pm10":56.7,"pm2_5":24.3,"no2":31.0,"co":570.0,"o3":105.0,"so2":3.3,"mosquito_risk":3,"arthritis_risk":5,"migraine_risk":7,"frizz_risk":0,"updated_at":"2026-05-05T21:29:42.786092+05:30"},{"city":"Patiala","state":"Punjab","latitude":30.3398,"longitude":76.3869,"temp":23.9,"humidity":61,"rain":0.0,"pressure":980.9,"uv_index":6.95,"wind_gusts":66.6,"aqi":433,"pm10":264.5,"pm2_5":48.8,"no2":10.3,"co":342.0,"o3":114.0,"so2":7.8,"mosquito_risk":3,"arthritis_risk":5,"migraine_risk":7,"frizz_risk":0,"updated_at":"2026-05-05T21:29:42.786124+05:30"},{"city":"Bhatinda","state":"Punjab","latitude":30.211,"longitude":74.9455,"temp":26.4,"humidity":44,"rain":0.0,"pressure":986.1,"uv_index":8.1,"wind_gusts":37.4,"aqi":300,"pm10":137.8,"pm2_5":48.1,"no2":9.0,"co":330.0,"o3":124.0,"so2":9.9,"mosquito_risk":4,"arthritis_risk":5,"migraine_risk":7,"frizz_risk":0,"updated_at":"2026-05-05T21:29:42.786134+05:30"},{"city":"Rohtak","state":"Haryana","latitude":28.8955,"longitude":76.6066,"temp":24.0,"humidity":65,"rain":0.0,"pressure":983.9,"uv_index":7.55,"wind_gusts":37.1,"aqi":193,"pm10":482.4,"pm2_5":82.4,"no2":26.6,"co":427.0,"o3":140.0,"so2":34.7,"mosquito_risk":3,"arthritis_risk":5,"migraine_risk":7,"frizz_risk":1,"updated_at":"2026-05-05T21:29:42.786142+05:30"},{"city":"Panipat","state":"Haryana","latitude":29.3909,"longitude":76.9635,"temp":22.0,"humidity":81,"rain":0.0,"pressure":982.7,"uv_index":6.65,"wind_gusts":42.8,"aqi":629,"pm10":1214.4,"pm2_5":140.2,"no2":14.4,"co":406.0,"o3":124.0,"so2":16.4,"mosquito_risk":3,"arthritis_risk":5,"migraine_risk":7,"frizz_risk":1,"updated_at":"2026-05-05T21:29:42.786213+05:30"},{"city":"Mathura","state":"Uttar Pradesh","latitude":27.4924,"longitude":77.6737,"temp":24.8,"humidity":67,"rain":0.0,"pressure":988.6,"uv_index":7.6,"wind_gusts":33.8,"aqi":202,"pm10":181.6,"pm2_5":53.3,"no2":20.2,"co":441.0,"o3":101.0,"so2":11.6,"mosquito_risk":3,"arthritis_risk":5,"migraine_risk":7,"frizz_risk":1,"updated_at":"2026-05-05T21:29:42.786220+05:30"},{"city":"Vrindavan","state":"Uttar Pradesh","latitude":27.5823,"longitude":77.7027,"temp":25.1,"humidity":64,"rain":0.0,"pressure":989.1,"uv_index":7.45,"wind_gusts":32.8,"aqi":202,"pm10":181.6,"pm2_5":53.3,"no2":20.2,"co":430.0,"o3":101.0,"so2":11.6,"mosquito_risk":7,"arthritis_risk":5,"migraine_risk":7,"frizz_risk":1,"updated_at":"2026-05-05T21:29:42.786228+05:30"},{"city":"Ayodhya","state":"Uttar Pradesh","latitude":26.7922,"longitude":82.1998,"temp":23.2,"humidity":85,"rain":0.0,"pressure":997.2,"uv_index":4.65,"wind_gusts":23.4,"aqi":122,"pm10":43.8,"pm2_5":36.7,"no2":17.0,"co":657.0,"o3":94.0,"so2":7.9,"mosquito_risk":3,"arthritis_risk":5,"migraine_risk":3,"frizz_risk":1,"updated_at":"2026-05-05T21:29:42.786236+05:30"},{"city":"Ratlam","state":"Madhya Pradesh","latitude":23.3315,"longitude":75.0367,"temp":27.7,"humidity":48,"rain":0.0,"pressure":955.0,"uv_index":8.45,"wind_gusts":47.2,"aqi":87,"pm10":42.5,"pm2_5":18.7,"no2":2.1,"co":196.0,"o3":113.0,"so2":3.2,"mosquito_risk":4,"arthritis_risk":5,"migraine_risk":7,"frizz_risk":0,"updated_at":"2026-05-05T21:29:42.786243+05:30"},{"city":"Sagar","state":"Madhya Pradesh","latitude":23.8388,"longitude":78.7378,"temp":27.0,"humidity":48,"rain":0.0,"pressure":951.2,"uv_index":8.65,"wind_gusts":42.1,"aqi":112,"pm10":58.7,"pm2_5":40.4,"no2":2.3,"co":271.0,"o3":146.0,"so2":7.3,"mosquito_risk":4,"arthritis_risk":5,"migraine_risk":7,"frizz_risk":0,"updated_at":"2026-05-05T21:29:42.786250+05:30"},{"city":"Satna","state":"Madhya Pradesh","latitude":24.6005,"longitude":80.8322,"temp":25.8,"humidity":68,"rain":0.0,"pressure":972.7,"uv_index":8.7,"wind_gusts":39.2,"aqi":167,"pm10":52.4,"pm2_5":39.1,"no2":7.3,"co":304.0,"o3":129.0,"so2":8.8,"mosquito_risk":7,"arthritis_risk":5,"migraine_risk":7,"frizz_risk":1,"updated_at":"2026-05-05T21:29:42.786257+05:30"},{"city":"Akola","state":"Maharashtra","latitude":20.7002,"longitude":77.0082,"temp":33.5,"humidity":27,"rain":0.0,"pressure":974.3,"uv_index":8.9,"wind_gusts":38.5,"aqi":93,"pm10":35.2,"pm2_5":18.2,"no2":7.8,"co":187.0,"o3":98.0,"so2":8.5,"mosquito_risk":0,"arthritis_risk":5,"migraine_risk":7,"frizz_risk":0,"updated_at":"2026-05-05T21:29:42.786266+05:30"},{"city":"Amravati","state":"Maharashtra","latitude":20.9374,"longitude":77.7796,"temp":33.0,"humidity":24,"rain":0.0,"pressure":966.8,"uv_index":8.85,"wind_gusts":38.2,"aqi":98,"pm10":38.5,"pm2_5":19.9,"no2":11.2,"co":204.0,"o3":94.0,"so2":8.4,"mosquito_risk":0,"arthritis_risk":5,"migraine_risk":7,"frizz_risk":0,"updated_at":"2026-05-05T21:29:42.786274+05:30"},{"city":"Latur","state":"Maharashtra","latitude":18.4088,"longitude":76.5604,"temp":31.6,"humidity":23,"rain":0.0,"pressure":938.9,"uv_index":9.05,"wind_gusts":38.5,"aqi":84,"pm10":52.0,"pm2_5":24.1,"no2":11.9,"co":217.0,"o3":88.0,"so2":10.7,"mosquito_risk":0,"arthritis_risk":5,"migraine_risk":7,"frizz_risk":0,"updated_at":"2026-05-05T21:29:42.786281+05:30"},{"city":"Nanded","state":"Maharashtra","latitude":19.1383,"longitude":77.3091,"temp":33.4,"humidity":24,"rain":0.0,"pressure":967.4,"uv_index":8.95,"wind_gusts":33.1,"aqi":80,"pm10":68.9,"pm2_5":31.1,"no2":21.7,"co":502.0,"o3":73.0,"so2":5.3,"mosquito_risk":0,"arthritis_risk":5,"migraine_risk":7,"frizz_risk":0,"updated_at":"2026-05-05T21:29:42.786301+05:30"},{"city":"Gulbarga","state":"Karnataka","latitude":17.3297,"longitude":76.8343,"temp":33.7,"humidity":20,"rain":0.0,"pressure":957.4,"uv_index":9.1,"wind_gusts":36.7,"aqi":104,"pm10":46.8,"pm2_5":22.8,"no2":19.8,"co":208.0,"o3":87.0,"so2":7.0,"mosquito_risk":0,"arthritis_risk":5,"migraine_risk":7,"frizz_risk":0,"updated_at":"2026-05-05T21:29:42.786311+05:30"},{"city":"Bidar","state":"Karnataka","latitude":17.9104,"longitude":77.5199,"temp":31.5,"humidity":24,"rain":0.0,"pressure":935.0,"uv_index":9.15,"wind_gusts":32.4,"aqi":103,"pm10":67.1,"pm2_5":38.6,"no2":30.6,"co":297.0,"o3":82.0,"so2":7.4,"mosquito_risk":0,"arthritis_risk":5,"migraine_risk":7,"frizz_risk":0,"updated_at":"2026-05-05T21:29:42.786321+05:30"},{"city":"Hospet","state":"Karnataka","latitude":15.2689,"longitude":76.3909,"temp":29.7,"humidity":30,"rain":0.0,"pressure":953.9,"uv_index":9.25,"wind_gusts":28.4,"aqi":83,"pm10":71.2,"pm2_5":38.3,"no2":42.4,"co":603.0,"o3":65.0,"so2":7.8,"mosquito_risk":4,"arthritis_risk":5,"migraine_risk":7,"frizz_risk":0,"updated_at":"2026-05-05T21:29:42.786331+05:30"},{"city":"Tirupur","state":"Tamil Nadu","latitude":11.1085,"longitude":77.3411,"temp":25.9,"humidity":83,"rain":0.0,"pressure":975.5,"uv_index":9.3,"wind_gusts":55.4,"aqi":118,"pm10":36.3,"pm2_5":23.8,"no2":16.6,"co":298.0,"o3":81.0,"so2":5.7,"mosquito_risk":7,"arthritis_risk":5,"migraine_risk":7,"frizz_risk":1,"updated_at":"2026-05-05T21:29:42.786341+05:30"},{"city":"Alappuzha","state":"Kerala","latitude":9.4981,"longitude":76.3388,"temp":26.1,"humidity":94,"rain":0.0,"pressure":1009.1,"uv_index":7.75,"wind_gusts":31.0,"aqi":54,"pm10":31.5,"pm2_5":17.2,"no2":12.9,"co":136.0,"o3":65.0,"so2":4.2,"mosquito_risk":7,"arthritis_risk":0,"migraine_risk":4,"frizz_risk":1,"updated_at":"2026-05-05T21:29:42.786350+05:30"},{"city":"Munnar","state":"Kerala","latitude":10.0889,"longitude":77.0595,"temp":17.4,"humidity":98,"rain":0.0,"pressure":856.5,"uv_index":6.95,"wind_gusts":24.5,"aqi":68,"pm10":31.8,"pm2_5":23.6,"no2":13.7,"co":338.0,"o3":58.0,"so2":2.8,"mosquito_risk":3,"arthritis_risk":10,"migraine_risk":7,"frizz_risk":1,"updated_at":"2026-05-05T21:29:42.786360+05:30"},{"city":"Silchar","state":"Assam","latitude":24.8333,"longitude":92.7789,"temp":24.0,"humidity":87,"rain":0.1,"pressure":1007.3,"uv_index":8.85,"wind_gusts":25.9,"aqi":99,"pm10":41.8,"pm2_5":33.9,"no2":10.7,"co":279.0,"o3":72.0,"so2":5.9,"mosquito_risk":6,"arthritis_risk":5,"migraine_risk":4,"frizz_risk":1,"updated_at":"2026-05-05T21:29:42.786369+05:30"},{"city":"Dibrugarh","state":"Assam","latitude":27.4728,"longitude":94.912,"temp":21.9,"humidity":95,"rain":0.1,"pressure":997.2,"uv_index":8.35,"wind_gusts":34.9,"aqi":56,"pm10":39.0,"pm2_5":35.2,"no2":26.4,"co":259.0,"o3":26.0,"so2":2.9,"mosquito_risk":6,"arthritis_risk":5,"migraine_risk":7,"frizz_risk":1,"updated_at":"2026-05-05T21:29:42.786380+05:30"}]