[{"city":"Delhi","state":"Delhi","latitude":28.6139,"longitude":77.209,"temp":35.9,"humidity":33,"rain":0.0,"pressure":977.1,"uv_index":7.55,"wind_gusts":30.2,"aqi":169,"pm10":288.7,"pm2_5":86.6,"no2":6.2,"co":333.0,"o3":213.0,"so2":24.1,"mosquito_risk":0,"arthritis_risk":5,"migraine_risk":10,"frizz_risk":1,"updated_at":"2026-06-05T15:26:14.850954+05:30"},{"city":"Mumbai","state":"Maharashtra","latitude":19.076,"longitude":72.8777,"temp":33.1,"humidity":63,"rain":0.0,"pressure":1003.6,"uv_index":7.65,"wind_gusts":42.5,"aqi":64,"pm10":44.8,"pm2_5":23.3,"no2":4.8,"co":159.0,"o3":101.0,"so2":8.7,"mosquito_risk":3,"arthritis_risk":5,"migraine_risk":4,"frizz_risk":1,"updated_at":"2026-06-05T15:26:14.851004+05:30"},{"city":"Bangalore","state":"Karnataka","latitude":12.9716,"longitude":77.5946,"temp":24.6,"humidity":79,"rain":0.1,"pressure":909.1,"uv_index":8.65,"wind_gusts":51.8,"aqi":28,"pm10":6.1,"pm2_5":4.0,"no2":3.2,"co":233.0,"o3":82.0,"so2":2.2,"mosquito_risk":6,"arthritis_risk":5,"migraine_risk":7,"frizz_risk":1,"updated_at":"2026-06-05T15:26:14.851020+05:30"},{"city":"Hyderabad","state":"Telangana","latitude":17.385,"longitude":78.4867,"temp":32.8,"humidity":46,"rain":0.0,"pressure":948.6,"uv_index":5.3,"wind_gusts":37.8,"aqi":63,"pm10":57.6,"pm2_5":33.9,"no2":2.4,"co":256.0,"o3":126.0,"so2":3.8,"mosquito_risk":0,"arthritis_risk":5,"migraine_risk":3,"frizz_risk":1,"updated_at":"2026-06-05T15:26:14.851030+05:30"},{"city":"Chennai","state":"Tamil Nadu","latitude":13.0827,"longitude":80.2707,"temp":38.8,"humidity":32,"rain":0.2,"pressure":1000.7,"uv_index":8.45,"wind_gusts":48.6,"aqi":58,"pm10":23.7,"pm2_5":17.4,"no2":3.0,"co":242.0,"o3":134.0,"so2":5.1,"mosquito_risk":3,"arthritis_risk":5,"migraine_risk":7,"frizz_risk":1,"updated_at":"2026-06-05T15:26:14.851039+05:30"},{"city":"Kolkata","state":"West Bengal","latitude":22.5726,"longitude":88.3639,"temp":33.7,"humidity":60,"rain":0.0,"pressure":998.1,"uv_index":8.65,"wind_gusts":32.8,"aqi":118,"pm10":42.4,"pm2_5":37.3,"no2":7.4,"co":436.0,"o3":133.0,"so2":11.0,"mosquito_risk":0,"arthritis_risk":5,"migraine_risk":7,"frizz_risk":1,"updated_at":"2026-06-05T15:26:14.851048+05:30"},{"city":"Pune","state":"Maharashtra","latitude":18.5204,"longitude":73.8567,"temp":33.7,"humidity":44,"rain":0.0,"pressure":944.0,"uv_index":8.25,"wind_gusts":50.4,"aqi":47,"pm10":28.6,"pm2_5":13.6,"no2":1.7,"co":148.0,"o3":109.0,"so2":4.1,"mosquito_risk":0,"arthritis_risk":5,"migraine_risk":7,"frizz_risk":1,"updated_at":"2026-06-05T15:26:14.851055+05:30"},{"city":"Ahmedabad","state":"Gujarat","latitude":23.0225,"longitude":72.5714,"temp":39.2,"humidity":34,"rain":0.0,"pressure":995.1,"uv_index":8.1,"wind_gusts":39.2,"aqi":78,"pm10":71.0,"pm2_5":29.9,"no2":1.4,"co":137.0,"o3":94.0,"so2":3.3,"mosquito_risk":0,"arthritis_risk":5,"migraine_risk":10,"frizz_risk":1,"updated_at":"2026-06-05T15:26:14.851063+05:30"},{"city":"Jaipur","state":"Rajasthan","latitude":26.9124,"longitude":75.7873,"temp":35.9,"humidity":29,"rain":0.0,"pressure":954.5,"uv_index":8.2,"wind_gusts":34.9,"aqi":93,"pm10":220.7,"pm2_5":52.2,"no2":1.0,"co":146.0,"o3":103.0,"so2":3.1,"mosquito_risk":0,"arthritis_risk":5,"migraine_risk":10,"frizz_risk":0,"updated_at":"2026-06-05T15:26:14.851080+05:30"},{"city":"Lucknow","state":"Uttar Pradesh","latitude":26.8467,"longitude":80.9462,"temp":38.2,"humidity":33,"rain":0.0,"pressure":985.5,"uv_index":8.35,"wind_gusts":31.0,"aqi":151,"pm10":109.2,"pm2_5":37.1,"no2":1.5,"co":276.0,"o3":156.0,"so2":5.8,"mosquito_risk":0,"arthritis_risk":5,"migraine_risk":10,"frizz_risk":1,"updated_at":"2026-06-05T15:26:14.851087+05:30"},{"city":"Kanpur","state":"Uttar Pradesh","latitude":26.4499,"longitude":80.3319,"temp":37.9,"humidity":31,"rain":0.0,"pressure":984.0,"uv_index":8.35,"wind_gusts":27.0,"aqi":145,"pm10":208.6,"pm2_5":48.1,"no2":1.5,"co":228.0,"o3":154.0,"so2":5.9,"mosquito_risk":0,"arthritis_risk":5,"migraine_risk":10,"frizz_risk":1,"updated_at":"2026-06-05T15:26:14.851094+05:30"},{"city":"Chandigarh","state":"Chandigarh","latitude":30.7333,"longitude":76.7794,"temp":34.5,"humidity":35,"rain":0.0,"pressure":963.6,"uv_index":7.75,"wind_gusts":25.2,"aqi":143,"pm10":123.9,"pm2_5":42.7,"no2":2.1,"co":325.0,"o3":196.0,"so2":9.8,"mosquito_risk":0,"arthritis_risk":5,"migraine_risk":7,"frizz_risk":1,"updated_at":"2026-06-05T15:26:14.851102+05:30"},{"city":"Srinagar","state":"Jammu and Kashmir","latitude":34.0837,"longitude":74.7973,"temp":17.8,"humidity":82,"rain":0.1,"pressure":840.8,"uv_index":9.0,"wind_gusts":31.3,"aqi":76,"pm10":26.4,"pm2_5":17.2,"no2":2.4,"co":245.0,"o3":134.0,"so2":2.2,"mosquito_risk":6,"arthritis_risk":10,"migraine_risk":7,"frizz_risk":0,"updated_at":"2026-06-05T15:26:14.851110+05:30"},{"city":"Jammu","state":"Jammu and Kashmir","latitude":32.7266,"longitude":74.857,"temp":35.0,"humidity":30,"rain":0.0,"pressure":967.6,"uv_index":8.55,"wind_gusts":30.2,"aqi":128,"pm10":71.0,"pm2_5":31.9,"no2":1.5,"co":246.0,"o3":150.0,"so2":3.7,"mosquito_risk":0,"arthritis_risk":5,"migraine_risk":7,"frizz_risk":0,"updated_at":"2026-06-05T15:26:14.851117+05:30"},{"city":"Amritsar","state":"Punjab","latitude":31.634,"longitude":74.8723,"temp":35.4,"humidity":34,"rain":0.0,"pressure":975.4,"uv_index":8.45,"wind_gusts":28.1,"aqi":138,"pm10":110.6,"pm2_5":42.4,"no2":1.3,"co":296.0,"o3":163.0,"so2":6.5,"mosquito_risk":0,"arthritis_risk":5,"migraine_risk":10,"frizz_risk":1,"updated_at":"2026-06-05T15:26:14.851123+05:30"},{"city":"Ludhiana","state":"Punjab","latitude":30.901,"longitude":75.8573,"temp":36.2,"humidity":31,"rain":0.0,"pressure":973.1,"uv_index":8.0,"wind_gusts":37.8,"aqi":152,"pm10":258.0,"pm2_5":65.0,"no2":1.6,"co":353.0,"o3":182.0,"so2":9.7,"mosquito_risk":0,"arthritis_risk":5,"migraine_risk":10,"frizz_risk":1,"updated_at":"2026-06-05T15:26:14.851130+05:30"},{"city":"Jalandhar","state":"Punjab","latitude":31.326,"longitude":75.5762,"temp":36.2,"humidity":30,"rain":0.0,"pressure":974.0,"uv_index":8.2,"wind_gusts":27.7,"aqi":142,"pm10":170.4,"pm2_5":53.6,"no2":1.6,"co":333.0,"o3":182.0,"so2":8.6,"mosquito_risk":0,"arthritis_risk":5,"migraine_risk":10,"frizz_risk":0,"updated_at":"2026-06-05T15:26:14.851137+05:30"},{"city":"Dehradun","state":"Uttarakhand","latitude":30.6284,"longitude":78.0322,"temp":23.1,"humidity":49,"rain":0.0,"pressure":829.0,"uv_index":3.95,"wind_gusts":25.6,"aqi":95,"pm10":43.1,"pm2_5":19.7,"no2":0.9,"co":214.0,"o3":155.0,"so2":2.2,"mosquito_risk":0,"arthritis_risk":5,"migraine_risk":3,"frizz_risk":0,"updated_at":"2026-06-05T15:26:14.851143+05:30"},{"city":"Shimla","state":"Himachal Pradesh","latitude":31.1048,"longitude":77.1734,"temp":15.7,"humidity":82,"rain":0.1,"pressure":782.2,"uv_index":5.65,"wind_gusts":32.4,"aqi":135,"pm10":49.7,"pm2_5":27.8,"no2":1.3,"co":245.0,"o3":176.0,"so2":7.6,"mosquito_risk":6,"arthritis_risk":10,"migraine_risk":3,"frizz_risk":0,"updated_at":"2026-06-05T15:26:14.851161+05:30"},{"city":"Manali","state":"Himachal Pradesh","latitude":32.2396,"longitude":77.1887,"temp":22.3,"humidity":59,"rain":0.0,"pressure":818.1,"uv_index":5.8,"wind_gusts":39.6,"aqi":119,"pm10":18.3,"pm2_5":12.3,"no2":1.9,"co":151.0,"o3":169.0,"so2":0.5,"mosquito_risk":0,"arthritis_risk":5,"migraine_risk":3,"frizz_risk":0,"updated_at":"2026-06-05T15:26:14.851167+05:30"},{"city":"Gurgaon","state":"Haryana","latitude":28.4595,"longitude":77.0266,"temp":35.1,"humidity":34,"rain":0.0,"pressure":975.7,"uv_index":7.75,"wind_gusts":29.9,"aqi":695,"pm10":422.8,"pm2_5":84.8,"no2":5.0,"co":225.0,"o3":169.0,"so2":14.8,"mosquito_risk":0,"arthritis_risk":5,"migraine_risk":10,"frizz_risk":1,"updated_at":"2026-06-05T15:26:14.851174+05:30"},{"city":"Noida","state":"Uttar Pradesh","latitude":28.5355,"longitude":77.391,"temp":34.5,"humidity":40,"rain":0.0,"pressure":978.5,"uv_index":7.1,"wind_gusts":23.0,"aqi":695,"pm10":422.8,"pm2_5":84.8,"no2":5.0,"co":406.0,"o3":169.0,"so2":14.8,"mosquito_risk":0,"arthritis_risk":5,"migraine_risk":7,"frizz_risk":1,"updated_at":"2026-06-05T15:26:14.851181+05:30"},{"city":"Ghaziabad","state":"Uttar Pradesh","latitude":28.6692,"longitude":77.4538,"temp":33.0,"humidity":48,"rain":0.0,"pressure":977.0,"uv_index":6.75,"wind_gusts":25.2,"aqi":159,"pm10":311.1,"pm2_5":92.7,"no2":4.4,"co":263.0,"o3":227.0,"so2":30.1,"mosquito_risk":0,"arthritis_risk":5,"migraine_risk":7,"frizz_risk":1,"updated_at":"2026-06-05T15:26:14.851188+05:30"},{"city":"Faridabad","state":"Haryana","latitude":28.4089,"longitude":77.3178,"temp":35.5,"humidity":33,"rain":0.0,"pressure":977.7,"uv_index":6.4,"wind_gusts":27.7,"aqi":695,"pm10":422.8,"pm2_5":84.8,"no2":5.0,"co":263.0,"o3":169.0,"so2":14.8,"mosquito_risk":0,"arthritis_risk":5,"migraine_risk":10,"frizz_risk":1,"updated_at":"2026-06-05T15:26:14.851194+05:30"},{"city":"Meerut","state":"Uttar Pradesh","latitude":28.9845,"longitude":77.7064,"temp":31.7,"humidity":57,"rain":0.0,"pressure":975.9,"uv_index":6.4,"wind_gusts":31.7,"aqi":159,"pm10":311.1,"pm2_5":92.7,"no2":4.4,"co":300.0,"o3":227.0,"so2":30.1,"mosquito_risk":0,"arthritis_risk":5,"migraine_risk":7,"frizz_risk":1,"updated_at":"2026-06-05T15:26:14.851204+05:30"},{"city":"Agra","state":"Uttar Pradesh","latitude":27.1767,"longitude":78.0081,"temp":34.0,"humidity":35,"rain":0.0,"pressure":982.1,"uv_index":7.65,"wind_gusts":31.3,"aqi":166,"pm10":312.9,"pm2_5":54.0,"no2":1.6,"co":160.0,"o3":123.0,"so2":3.4,"mosquito_risk":0,"arthritis_risk":5,"migraine_risk":7,"frizz_risk":1,"updated_at":"2026-06-05T15:26:14.851210+05:30"},{"city":"Varanasi","state":"Uttar Pradesh","latitude":25.3176,"longitude":82.9739,"temp":40.4,"humidity":26,"rain":0.0,"pressure":988.6,"uv_index":8.8,"wind_gusts":24.8,"aqi":146,"pm10":72.9,"pm2_5":33.6,"no2":1.6,"co":279.0,"o3":176.0,"so2":8.2,"mosquito_risk":0,"arthritis_risk":5,"migraine_risk":10,"frizz_risk":1,"updated_at":"2026-06-05T15:26:14.851217+05:30"},{"city":"Prayagraj","state":"Uttar Pradesh","latitude":25.4358,"longitude":81.8463,"temp":39.4,"humidity":28,"rain":0.0,"pressure":987.6,"uv_index":8.5,"wind_gusts":31.3,"aqi":150,"pm10":91.5,"pm2_5":37.6,"no2":1.6,"co":221.0,"o3":171.0,"so2":9.1,"mosquito_risk":0,"arthritis_risk":5,"migraine_risk":10,"frizz_risk":1,"updated_at":"2026-06-05T15:26:14.851223+05:30"},{"city":"Gorakhpur","state":"Uttar Pradesh","latitude":26.7606,"longitude":83.3732,"temp":37.4,"humidity":35,"rain":0.0,"pressure":988.7,"uv_index":8.45,"wind_gusts":23.8,"aqi":153,"pm10":92.2,"pm2_5":51.3,"no2":1.7,"co":287.0,"o3":195.0,"so2":7.9,"mosquito_risk":0,"arthritis_risk":5,"migraine_risk":10,"frizz_risk":1,"updated_at":"2026-06-05T15:26:14.851233+05:30"},{"city":"Bareilly","state":"Uttar Pradesh","latitude":28.367,"longitude":79.4304,"temp":33.2,"humidity":51,"rain":0.0,"pressure":980.4,"uv_index":5.8,"wind_gusts":34.6,"aqi":137,"pm10":164.4,"pm2_5":55.5,"no2":1.5,"co":278.0,"o3":179.0,"so2":8.9,"mosquito_risk":0,"arthritis_risk":5,"migraine_risk":3,"frizz_risk":1,"updated_at":"2026-06-05T15:26:14.851239+05:30"},{"city":"Aligarh","state":"Uttar Pradesh","latitude":27.8974,"longitude":78.088,"temp":33.7,"humidity":43,"rain":0.0,"pressure":979.5,"uv_index":7.65,"wind_gusts":25.9,"aqi":154,"pm10":423.8,"pm2_5":72.4,"no2":1.9,"co":184.0,"o3":139.0,"so2":8.1,"mosquito_risk":0,"arthritis_risk":5,"migraine_risk":7,"frizz_risk":1,"updated_at":"2026-06-05T15:26:14.851245+05:30"},{"city":"Moradabad","state":"Uttar Pradesh","latitude":28.8386,"longitude":78.7733,"temp":33.6,"humidity":47,"rain":0.0,"pressure":977.5,"uv_index":5.9,"wind_gusts":34.6,"aqi":153,"pm10":177.9,"pm2_5":61.9,"no2":2.6,"co":299.0,"o3":214.0,"so2":17.0,"mosquito_risk":0,"arthritis_risk":5,"migraine_risk":3,"frizz_risk":1,"updated_at":"2026-06-05T15:26:14.851251+05:30"},{"city":"Saharanpur","state":"Uttar Pradesh","latitude":29.9637,"longitude":77.546,"temp":30.7,"humidity":57,"rain":0.0,"pressure":970.5,"uv_index":6.85,"wind_gusts":35.6,"aqi":146,"pm10":130.9,"pm2_5":45.9,"no2":2.2,"co":293.0,"o3":187.0,"so2":9.6,"mosquito_risk":0,"arthritis_risk":5,"migraine_risk":7,"frizz_risk":1,"updated_at":"2026-06-05T15:26:14.851257+05:30"},{"city":"Jhansi","state":"Uttar Pradesh","latitude":25.4484,"longitude":78.5685,"temp":35.4,"humidity":39,"rain":0.0,"pressure":971.6,"uv_index":8.5,"wind_gusts":34.6,"aqi":75,"pm10":88.9,"pm2_5":30.4,"no2":0.9,"co":134.0,"o3":109.0,"so2":5.1,"mosquito_risk":0,"arthritis_risk":5,"migraine_risk":10,"frizz_risk":1,"updated_at":"2026-06-05T15:26:18.089076+05:30"},{"city":"Surat","state":"Gujarat","latitude":21.1702,"longitude":72.8311,"temp":34.8,"humidity":51,"rain":0.0,"pressure":1001.2,"uv_index":7.55,"wind_gusts":49.0,"aqi":86,"pm10":50.3,"pm2_5":27.0,"no2":8.5,"co":221.0,"o3":60.0,"so2":28.8,"mosquito_risk":0,"arthritis_risk":5,"migraine_risk":4,"frizz_risk":1,"updated_at":"2026-06-05T15:26:18.089112+05:30"},{"city":"Vadodara","state":"Gujarat","latitude":22.3072,"longitude":73.1812,"temp":38.4,"humidity":37,"rain":0.0,"pressure":997.7,"uv_index":8.0,"wind_gusts":42.5,"aqi":83,"pm10":68.5,"pm2_5":30.7,"no2":1.5,"co":139.0,"o3":98.0,"so2":3.9,"mosquito_risk":0,"arthritis_risk":5,"migraine_risk":10,"frizz_risk":1,"updated_at":"2026-06-05T15:26:18.089124+05:30"},{"city":"Rajkot","state":"Gujarat","latitude":22.3039,"longitude":70.8022,"temp":39.7,"humidity":32,"rain":0.0,"pressure":987.5,"uv_index":7.55,"wind_gusts":42.1,"aqi":76,"pm10":71.2,"pm2_5":29.6,"no2":0.9,"co":108.0,"o3":89.0,"so2":3.2,"mosquito_risk":0,"arthritis_risk":5,"migraine_risk":10,"frizz_risk":1,"updated_at":"2026-06-05T15:26:18.089132+05:30"},{"city":"Thane","state":"Maharashtra","latitude":19.2183,"longitude":72.9781,"temp":35.2,"humidity":52,"rain":0.0,"pressure":1002.6,"uv_index":7.7,"wind_gusts":41.8,"aqi":64,"pm10":44.8,"pm2_5":23.3,"no2":4.8,"co":157.0,"o3":101.0,"so2":8.7,"mosquito_risk":0,"arthritis_risk":5,"migraine_risk":7,"frizz_risk":1,"updated_at":"2026-06-05T15:26:18.089140+05:30"},{"city":"Nagpur","state":"Maharashtra","latitude":21.1458,"longitude":79.0882,"temp":38.5,"humidity":26,"rain":0.0,"pressure":966.7,"uv_index":8.9,"wind_gusts":43.6,"aqi":89,"pm10":64.7,"pm2_5":33.8,"no2":3.6,"co":155.0,"o3":142.0,"so2":16.1,"mosquito_risk":0,"arthritis_risk":5,"migraine_risk":10,"frizz_risk":0,"updated_at":"2026-06-05T15:26:18.089148+05:30"},{"city":"Nashik","state":"Maharashtra","latitude":19.9975,"longitude":73.7898,"temp":34.5,"humidity":40,"rain":0.0,"pressure":941.3,"uv_index":8.0,"wind_gusts":45.4,"aqi":61,"pm10":36.3,"pm2_5":19.3,"no2":1.3,"co":152.0,"o3":117.0,"so2":5.0,"mosquito_risk":0,"arthritis_risk":5,"migraine_risk":7,"frizz_risk":1,"updated_at":"2026-06-05T15:26:18.089157+05:30"},{"city":"Aurangabad","state":"Maharashtra","latitude":19.8762,"longitude":75.3433,"temp":37.4,"humidity":29,"rain":0.0,"pressure":939.3,"uv_index":8.95,"wind_gusts":39.2,"aqi":71,"pm10":44.9,"pm2_5":22.0,"no2":1.1,"co":138.0,"o3":129.0,"so2":6.3,"mosquito_risk":0,"arthritis_risk":5,"migraine_risk":10,"frizz_risk":1,"updated_at":"2026-06-05T15:26:18.089165+05:30"},{"city":"Solapur","state":"Maharashtra","latitude":17.6599,"longitude":75.9064,"temp":36.5,"humidity":38,"rain":0.0,"pressure":952.3,"uv_index":8.8,"wind_gusts":32.0,"aqi":52,"pm10":38.2,"pm2_5":19.0,"no2":1.2,"co":145.0,"o3":120.0,"so2":3.2,"mosquito_risk":0,"arthritis_risk":5,"migraine_risk":10,"frizz_risk":1,"updated_at":"2026-06-05T15:26:18.089172+05:30"},{"city":"Kolhapur","state":"Maharashtra","latitude":16.705,"longitude":74.2433,"temp":30.7,"humidity":59,"rain":0.1,"pressure":944.1,"uv_index":8.6,"wind_gusts":50.8,"aqi":36,"pm10":16.7,"pm2_5":9.4,"no2":1.5,"co":141.0,"o3":95.0,"so2":1.4,"mosquito_risk":3,"arthritis_risk":5,"migraine_risk":7,"frizz_risk":1,"updated_at":"2026-06-05T15:26:18.089180+05:30"},{"city":"Goa","state":"Goa","latitude":15.2993,"longitude":74.124,"temp":28.2,"humidity":84,"rain":0.1,"pressure":994.8,"uv_index":7.2,"wind_gusts":28.1,"aqi":30,"pm10":9.5,"pm2_5":4.9,"no2":1.1,"co":132.0,"o3":60.0,"so2":0.6,"mosquito_risk":10,"arthritis_risk":5,"migraine_risk":7,"frizz_risk":1,"updated_at":"2026-06-05T15:26:18.089187+05:30"},{"city":"Jodhpur","state":"Rajasthan","latitude":26.2389,"longitude":73.0243,"temp":38.6,"humidity":35,"rain":0.0,"pressure":976.2,"uv_index":8.45,"wind_gusts":38.2,"aqi":150,"pm10":313.9,"pm2_5":58.7,"no2":0.6,"co":119.0,"o3":89.0,"so2":1.6,"mosquito_risk":0,"arthritis_risk":5,"migraine_risk":10,"frizz_risk":1,"updated_at":"2026-06-05T15:26:18.089195+05:30"},{"city":"Udaipur","state":"Rajasthan","latitude":24.5854,"longitude":73.7125,"temp":34.2,"humidity":45,"rain":0.0,"pressure":941.6,"uv_index":8.85,"wind_gusts":41.0,"aqi":77,"pm10":71.9,"pm2_5":29.3,"no2":0.6,"co":136.0,"o3":91.0,"so2":2.9,"mosquito_risk":0,"arthritis_risk":5,"migraine_risk":7,"frizz_risk":1,"updated_at":"2026-06-05T15:26:18.089202+05:30"},{"city":"Kota","state":"Rajasthan","latitude":25.2138,"longitude":75.8648,"temp":37.7,"humidity":25,"rain":0.0,"pressure":972.3,"uv_index":7.75,"wind_gusts":33.8,"aqi":89,"pm10":102.7,"pm2_5":35.3,"no2":0.8,"co":140.0,"o3":115.0,"so2":6.2,"mosquito_risk":0,"arthritis_risk":5,"migraine_risk":10,"frizz_risk":0,"updated_at":"2026-06-05T15:26:18.089210+05:30"},{"city":"Bikaner","state":"Rajasthan","latitude":28.0229,"longitude":73.3119,"temp":38.8,"humidity":29,"rain":0.0,"pressure":975.0,"uv_index":8.45,"wind_gusts":42.8,"aqi":158,"pm10":217.5,"pm2_5":76.6,"no2":0.3,"co":124.0,"o3":89.0,"so2":3.7,"mosquito_risk":0,"arthritis_risk":5,"migraine_risk":10,"frizz_risk":1,"updated_at":"2026-06-05T15:26:18.089217+05:30"},{"city":"Ajmer","state":"Rajasthan","latitude":26.4499,"longitude":74.6399,"temp":35.2,"humidity":38,"rain":0.0,"pressure":949.4,"uv_index":8.35,"wind_gusts":47.9,"aqi":81,"pm10":178.8,"pm2_5":44.4,"no2":0.6,"co":126.0,"o3":96.0,"so2":2.4,"mosquito_risk":0,"arthritis_risk":5,"migraine_risk":10,"frizz_risk":1,"updated_at":"2026-06-05T15:26:18.089225+05:30"},{"city":"Gwalior","state":"Madhya Pradesh","latitude":26.2183,"longitude":78.1828,"temp":33.8,"humidity":38,"rain":0.0,"pressure":977.4,"uv_index":8.3,"wind_gusts":44.6,"aqi":81,"pm10":108.5,"pm2_5":33.2,"no2":0.6,"co":140.0,"o3":103.0,"so2":2.7,"mosquito_risk":0,"arthritis_risk":5,"migraine_risk":7,"frizz_risk":1,"updated_at":"2026-06-05T15:26:18.089232+05:30"},{"city":"Indore","state":"Madhya Pradesh","latitude":22.7196,"longitude":75.8577,"temp":35.0,"humidity":34,"rain":0.0,"pressure":942.8,"uv_index":8.65,"wind_gusts":45.7,"aqi":91,"pm10":72.9,"pm2_5":29.6,"no2":1.0,"co":166.0,"o3":100.0,"so2":3.3,"mosquito_risk":0,"arthritis_risk":5,"migraine_risk":7,"frizz_risk":1,"updated_at":"2026-06-05T15:26:18.089239+05:30"},{"city":"Bhopal","state":"Madhya Pradesh","latitude":23.2599,"longitude":77.4126,"temp":34.9,"humidity":33,"rain":0.0,"pressure":947.9,"uv_index":8.7,"wind_gusts":43.9,"aqi":85,"pm10":50.5,"pm2_5":23.4,"no2":0.7,"co":173.0,"o3":105.0,"so2":3.2,"mosquito_risk":0,"arthritis_risk":5,"migraine_risk":7,"frizz_risk":1,"updated_at":"2026-06-05T15:26:18.089246+05:30"},{"city":"Jabalpur","state":"Madhya Pradesh","latitude":23.1815,"longitude":79.9864,"temp":36.8,"humidity":33,"rain":0.0,"pressure":955.0,"uv_index":8.9,"wind_gusts":33.5,"aqi":91,"pm10":62.6,"pm2_5":30.4,"no2":0.8,"co":172.0,"o3":118.0,"so2":4.2,"mosquito_risk":0,"arthritis_risk":5,"migraine_risk":10,"frizz_risk":1,"updated_at":"2026-06-05T15:26:18.089253+05:30"},{"city":"Ujjain","state":"Madhya Pradesh","latitude":23.1765,"longitude":75.7885,"temp":35.2,"humidity":37,"rain":0.0,"pressure":948.3,"uv_index":8.55,"wind_gusts":45.0,"aqi":88,"pm10":67.1,"pm2_5":27.6,"no2":0.6,"co":137.0,"o3":97.0,"so2":3.4,"mosquito_risk":0,"arthritis_risk":5,"migraine_risk":10,"frizz_risk":1,"updated_at":"2026-06-05T15:26:18.089261+05:30"},{"city":"Visakhapatnam","state":"Andhra Pradesh","latitude":17.6868,"longitude":83.2185,"temp":37.9,"humidity":39,"rain":0.1,"pressure":995.3,"uv_index":8.9,"wind_gusts":42.1,"aqi":104,"pm10":38.6,"pm2_5":32.4,"no2":7.0,"co":448.0,"o3":197.0,"so2":31.7,"mosquito_risk":3,"arthritis_risk":5,"migraine_risk":10,"frizz_risk":1,"updated_at":"2026-06-05T15:26:18.089268+05:30"},{"city":"Vijayawada","state":"Andhra Pradesh","latitude":16.5062,"longitude":80.648,"temp":38.5,"humidity":37,"rain":0.0,"pressure":995.3,"uv_index":8.95,"wind_gusts":55.1,"aqi":66,"pm10":16.5,"pm2_5":12.5,"no2":1.5,"co":180.0,"o3":132.0,"so2":5.1,"mosquito_risk":0,"arthritis_risk":5,"migraine_risk":10,"frizz_risk":1,"updated_at":"2026-06-05T15:26:18.089281+05:30"},{"city":"Guntur","state":"Andhra Pradesh","latitude":16.3067,"longitude":80.4365,"temp":38.0,"humidity":36,"rain":0.0,"pressure":996.7,"uv_index":9.0,"wind_gusts":51.8,"aqi":61,"pm10":15.9,"pm2_5":11.1,"no2":1.2,"co":177.0,"o3":126.0,"so2":3.8,"mosquito_risk":0,"arthritis_risk":5,"migraine_risk":10,"frizz_risk":1,"updated_at":"2026-06-05T15:26:18.089287+05:30"},{"city":"Nellore","state":"Andhra Pradesh","latitude":14.4426,"longitude":79.9865,"temp":37.9,"humidity":35,"rain":0.0,"pressure":999.1,"uv_index":8.55,"wind_gusts":42.8,"aqi":53,"pm10":14.9,"pm2_5":11.0,"no2":2.4,"co":123.0,"o3":113.0,"so2":4.7,"mosquito_risk":0,"arthritis_risk":5,"migraine_risk":10,"frizz_risk":1,"updated_at":"2026-06-05T15:26:18.089296+05:30"},{"city":"Kurnool","state":"Andhra Pradesh","latitude":15.8281,"longitude":78.0373,"temp":36.1,"humidity":40,"rain":0.0,"pressure":971.4,"uv_index":9.0,"wind_gusts":41.0,"aqi":38,"pm10":11.4,"pm2_5":7.7,"no2":1.0,"co":141.0,"o3":106.0,"so2":3.4,"mosquito_risk":0,"arthritis_risk":5,"migraine_risk":10,"frizz_risk":1,"updated_at":"2026-06-05T15:26:18.089318+05:30"},{"city":"Kakinada","state":"Andhra Pradesh","latitude":16.9891,"longitude":82.2475,"temp":36.7,"humidity":45,"rain":0.0,"pressure":999.6,"uv_index":9.1,"wind_gusts":46.4,"aqi":93,"pm10":22.2,"pm2_5":18.3,"no2":2.0,"co":212.0,"o3":146.0,"so2":4.2,"mosquito_risk":0,"arthritis_risk":5,"migraine_risk":10,"frizz_risk":1,"updated_at":"2026-06-05T15:26:18.089327+05:30"},{"city":"Tirupati","state":"Andhra Pradesh","latitude":13.6288,"longitude":79.4192,"temp":34.8,"humidity":46,"rain":0.1,"pressure":985.0,"uv_index":8.65,"wind_gusts":42.8,"aqi":53,"pm10":9.9,"pm2_5":5.3,"no2":1.5,"co":116.0,"o3":74.0,"so2":0.8,"mosquito_risk":3,"arthritis_risk":5,"migraine_risk":7,"frizz_risk":1,"updated_at":"2026-06-05T15:26:18.089334+05:30"},{"city":"Warangal","state":"Telangana","latitude":17.9689,"longitude":79.5941,"temp":36.3,"humidity":36,"rain":0.0,"pressure":972.6,"uv_index":8.2,"wind_gusts":31.3,"aqi":79,"pm10":61.7,"pm2_5":32.4,"no2":1.3,"co":190.0,"o3":135.0,"so2":4.8,"mosquito_risk":0,"arthritis_risk":5,"migraine_risk":10,"frizz_risk":1,"updated_at":"2026-06-05T15:26:18.089341+05:30"},{"city":"Nizamabad","state":"Telangana","latitude":18.6725,"longitude":78.0941,"temp":36.2,"humidity":37,"rain":0.0,"pressure":959.4,"uv_index":8.8,"wind_gusts":34.9,"aqi":84,"pm10":72.2,"pm2_5":38.0,"no2":1.2,"co":156.0,"o3":114.0,"so2":2.9,"mosquito_risk":0,"arthritis_risk":5,"migraine_risk":10,"frizz_risk":1,"updated_at":"2026-06-05T15:26:18.089348+05:30"},{"city":"Mysore","state":"Karnataka","latitude":12.2958,"longitude":76.6396,"temp":24.8,"humidity":83,"rain":0.1,"pressure":926.1,"uv_index":8.3,"wind_gusts":59.4,"aqi":26,"pm10":4.3,"pm2_5":2.5,"no2":1.8,"co":116.0,"o3":67.0,"so2":1.0,"mosquito_risk":6,"arthritis_risk":5,"migraine_risk":7,"frizz_risk":1,"updated_at":"2026-06-05T15:26:18.089355+05:30"},{"city":"Mangalore","state":"Karnataka","latitude":12.9141,"longitude":74.856,"temp":25.9,"humidity":95,"rain":0.1,"pressure":1005.3,"uv_index":2.0,"wind_gusts":33.5,"aqi":28,"pm10":10.4,"pm2_5":5.6,"no2":2.1,"co":109.0,"o3":56.0,"so2":1.0,"mosquito_risk":10,"arthritis_risk":5,"migraine_risk":0,"frizz_risk":1,"updated_at":"2026-06-05T15:26:18.089363+05:30"},{"city":"Hubli-Dharwad","state":"Karnataka","latitude":15.3647,"longitude":75.124,"temp":25.7,"humidity":85,"rain":0.3,"pressure":937.8,"uv_index":8.5,"wind_gusts":50.0,"aqi":29,"pm10":4.5,"pm2_5":2.7,"no2":1.4,"co":125.0,"o3":73.0,"so2":0.6,"mosquito_risk":10,"arthritis_risk":5,"migraine_risk":7,"frizz_risk":1,"updated_at":"2026-06-05T15:26:18.089371+05:30"},{"city":"Belgaum","state":"Karnataka","latitude":15.8497,"longitude":74.4977,"temp":27.7,"humidity":67,"rain":0.1,"pressure":922.7,"uv_index":8.9,"wind_gusts":38.2,"aqi":29,"pm10":11.6,"pm2_5":6.8,"no2":1.9,"co":134.0,"o3":74.0,"so2":1.5,"mosquito_risk":10,"arthritis_risk":5,"migraine_risk":7,"frizz_risk":1,"updated_at":"2026-06-05T15:26:21.327345+05:30"},{"city":"Coimbatore","state":"Tamil Nadu","latitude":11.0168,"longitude":76.9558,"temp":30.0,"humidity":58,"rain":0.0,"pressure":958.9,"uv_index":6.9,"wind_gusts":61.2,"aqi":24,"pm10":2.6,"pm2_5":2.1,"no2":2.1,"co":154.0,"o3":58.0,"so2":1.4,"mosquito_risk":4,"arthritis_risk":5,"migraine_risk":7,"frizz_risk":1,"updated_at":"2026-06-05T15:26:21.327381+05:30"},{"city":"Madurai","state":"Tamil Nadu","latitude":9.9252,"longitude":78.1198,"temp":35.1,"humidity":40,"rain":0.0,"pressure":988.9,"uv_index":8.05,"wind_gusts":62.6,"aqi":30,"pm10":6.3,"pm2_5":3.9,"no2":2.0,"co":120.0,"o3":81.0,"so2":1.5,"mosquito_risk":0,"arthritis_risk":5,"migraine_risk":10,"frizz_risk":1,"updated_at":"2026-06-05T15:26:21.327393+05:30"},{"city":"Trichy","state":"Tamil Nadu","latitude":10.7905,"longitude":78.7047,"temp":35.6,"humidity":42,"rain":0.0,"pressure":995.1,"uv_index":8.1,"wind_gusts":55.8,"aqi":29,"pm10":6.6,"pm2_5":3.9,"no2":1.4,"co":108.0,"o3":79.0,"so2":1.4,"mosquito_risk":0,"arthritis_risk":5,"migraine_risk":10,"frizz_risk":1,"updated_at":"2026-06-05T15:26:21.327402+05:30"},{"city":"Salem","state":"Tamil Nadu","latitude":11.6643,"longitude":78.146,"temp":31.5,"humidity":60,"rain":0.1,"pressure":973.4,"uv_index":7.45,"wind_gusts":39.2,"aqi":38,"pm10":7.0,"pm2_5":5.2,"no2":2.6,"co":156.0,"o3":93.0,"so2":4.7,"mosquito_risk":3,"arthritis_risk":5,"migraine_risk":7,"frizz_risk":1,"updated_at":"2026-06-05T15:26:21.327410+05:30"},{"city":"Tirunelveli","state":"Tamil Nadu","latitude":8.7139,"longitude":77.7567,"temp":36.0,"humidity":38,"rain":0.0,"pressure":999.8,"uv_index":8.45,"wind_gusts":45.4,"aqi":23,"pm10":3.4,"pm2_5":2.2,"no2":1.4,"co":108.0,"o3":59.0,"so2":0.8,"mosquito_risk":0,"arthritis_risk":5,"migraine_risk":10,"frizz_risk":1,"updated_at":"2026-06-05T15:26:21.327418+05:30"},{"city":"Vellore","state":"Tamil Nadu","latitude":12.9165,"longitude":79.1325,"temp":32.0,"humidity":54,"rain":0.1,"pressure":979.8,"uv_index":8.6,"wind_gusts":69.1,"aqi":45,"pm10":10.3,"pm2_5":6.3,"no2":1.4,"co":147.0,"o3":93.0,"so2":1.8,"mosquito_risk":3,"arthritis_risk":5,"migraine_risk":7,"frizz_risk":1,"updated_at":"2026-06-05T15:26:21.327426+05:30"},{"city":"Erode","state":"Tamil Nadu","latitude":11.341,"longitude":77.7172,"temp":33.7,"humidity":48,"rain":0.0,"pressure":985.0,"uv_index":8.4,"wind_gusts":54.7,"aqi":27,"pm10":4.3,"pm2_5":3.1,"no2":2.1,"co":144.0,"o3":72.0,"so2":1.4,"mosquito_risk":0,"arthritis_risk":5,"migraine_risk":7,"frizz_risk":1,"updated_at":"2026-06-05T15:26:21.327434+05:30"},{"city":"Kochi","state":"Kerala","latitude":9.9312,"longitude":76.2673,"temp":27.6,"humidity":84,"rain":0.2,"pressure":1007.9,"uv_index":4.15,"wind_gusts":35.3,"aqi":36,"pm10":11.7,"pm2_5":7.7,"no2":6.2,"co":114.0,"o3":41.0,"so2":2.2,"mosquito_risk":10,"arthritis_risk":5,"migraine_risk":0,"frizz_risk":1,"updated_at":"2026-06-05T15:26:21.327442+05:30"},{"city":"Thiruvananthapuram","state":"Kerala","latitude":8.5241,"longitude":76.9366,"temp":27.4,"humidity":80,"rain":0.0,"pressure":1007.0,"uv_index":3.85,"wind_gusts":58.7,"aqi":26,"pm10":11.7,"pm2_5":5.8,"no2":1.2,"co":100.0,"o3":53.0,"so2":0.5,"mosquito_risk":7,"arthritis_risk":5,"migraine_risk":0,"frizz_risk":1,"updated_at":"2026-06-05T15:26:21.327449+05:30"},{"city":"Kozhikode","state":"Kerala","latitude":11.2588,"longitude":75.7804,"temp":25.7,"humidity":99,"rain":0.3,"pressure":1007.4,"uv_index":8.35,"wind_gusts":24.5,"aqi":25,"pm10":12.4,"pm2_5":5.3,"no2":0.6,"co":116.0,"o3":56.0,"so2":0.4,"mosquito_risk":10,"arthritis_risk":5,"migraine_risk":4,"frizz_risk":1,"updated_at":"2026-06-05T15:26:21.327457+05:30"},{"city":"Thrissur","state":"Kerala","latitude":10.5276,"longitude":76.2144,"temp":25.8,"humidity":95,"rain":0.1,"pressure":1006.4,"uv_index":8.25,"wind_gusts":32.4,"aqi":33,"pm10":9.1,"pm2_5":5.9,"no2":3.9,"co":122.0,"o3":43.0,"so2":1.4,"mosquito_risk":10,"arthritis_risk":5,"migraine_risk":4,"frizz_risk":1,"updated_at":"2026-06-05T15:26:21.327465+05:30"},{"city":"Kannur","state":"Kerala","latitude":11.8745,"longitude":75.3704,"temp":26.3,"humidity":95,"rain":0.1,"pressure":1006.3,"uv_index":5.7,"wind_gusts":41.0,"aqi":26,"pm10":10.8,"pm2_5":5.1,"no2":1.8,"co":109.0,"o3":54.0,"so2":0.7,"mosquito_risk":10,"arthritis_risk":5,"migraine_risk":0,"frizz_risk":1,"updated_at":"2026-06-05T15:26:21.327472+05:30"},{"city":"Patna","state":"Bihar","latitude":25.5941,"longitude":85.1376,"temp":36.8,"humidity":46,"rain":0.0,"pressure":991.6,"uv_index":8.9,"wind_gusts":37.4,"aqi":161,"pm10":86.1,"pm2_5":59.8,"no2":2.3,"co":258.0,"o3":198.0,"so2":9.8,"mosquito_risk":0,"arthritis_risk":5,"migraine_risk":10,"frizz_risk":1,"updated_at":"2026-06-05T15:26:21.327479+05:30"},{"city":"Gaya","state":"Bihar","latitude":24.7914,"longitude":85.0002,"temp":37.5,"humidity":40,"rain":0.0,"pressure":985.3,"uv_index":8.95,"wind_gusts":59.0,"aqi":165,"pm10":72.4,"pm2_5":45.9,"no2":1.3,"co":231.0,"o3":164.0,"so2":6.3,"mosquito_risk":0,"arthritis_risk":5,"migraine_risk":10,"frizz_risk":1,"updated_at":"2026-06-05T15:26:21.327486+05:30"},{"city":"Muzaffarpur","state":"Bihar","latitude":26.1209,"longitude":85.3647,"temp":35.9,"humidity":49,"rain":0.0,"pressure":991.7,"uv_index":8.85,"wind_gusts":28.4,"aqi":158,"pm10":86.6,"pm2_5":64.5,"no2":2.7,"co":270.0,"o3":207.0,"so2":12.1,"mosquito_risk":0,"arthritis_risk":5,"migraine_risk":10,"frizz_risk":1,"updated_at":"2026-06-05T15:26:21.327494+05:30"},{"city":"Bhagalpur","state":"Bihar","latitude":25.2425,"longitude":87.0117,"temp":35.2,"humidity":56,"rain":0.1,"pressure":992.4,"uv_index":8.85,"wind_gusts":36.4,"aqi":154,"pm10":64.3,"pm2_5":54.1,"no2":4.1,"co":362.0,"o3":216.0,"so2":22.4,"mosquito_risk":3,"arthritis_risk":5,"migraine_risk":10,"frizz_risk":1,"updated_at":"2026-06-05T15:26:21.327500+05:30"},{"city":"Ranchi","state":"Jharkhand","latitude":23.3441,"longitude":85.3096,"temp":32.9,"humidity":45,"rain":0.0,"pressure":931.4,"uv_index":9.3,"wind_gusts":35.3,"aqi":126,"pm10":48.1,"pm2_5":33.2,"no2":1.6,"co":218.0,"o3":163.0,"so2":7.7,"mosquito_risk":0,"arthritis_risk":5,"migraine_risk":7,"frizz_risk":1,"updated_at":"2026-06-05T15:26:21.327507+05:30"},{"city":"Jamshedpur","state":"Jharkhand","latitude":22.8046,"longitude":86.2029,"temp":37.4,"humidity":38,"rain":0.0,"pressure":982.4,"uv_index":9.0,"wind_gusts":34.2,"aqi":151,"pm10":63.6,"pm2_5":51.3,"no2":3.1,"co":233.0,"o3":212.0,"so2":23.1,"mosquito_risk":0,"arthritis_risk":5,"migraine_risk":10,"frizz_risk":1,"updated_at":"2026-06-05T15:26:21.327513+05:30"},{"city":"Dhanbad","state":"Jharkhand","latitude":23.7957,"longitude":86.4304,"temp":38.1,"humidity":34,"rain":0.0,"pressure":971.7,"uv_index":9.05,"wind_gusts":38.9,"aqi":161,"pm10":93.4,"pm2_5":79.6,"no2":9.5,"co":264.0,"o3":233.0,"so2":50.6,"mosquito_risk":0,"arthritis_risk":5,"migraine_risk":10,"frizz_risk":1,"updated_at":"2026-06-05T15:26:21.327520+05:30"},{"city":"Bokaro","state":"Jharkhand","latitude":23.6693,"longitude":86.1511,"temp":36.9,"humidity":42,"rain":0.1,"pressure":975.6,"uv_index":9.1,"wind_gusts":30.6,"aqi":160,"pm10":96.6,"pm2_5":78.7,"no2":9.7,"co":230.0,"o3":236.0,"so2":55.8,"mosquito_risk":3,"arthritis_risk":5,"migraine_risk":10,"frizz_risk":1,"updated_at":"2026-06-05T15:26:21.327526+05:30"},{"city":"Bhubaneswar","state":"Odisha","latitude":20.2961,"longitude":85.8245,"temp":35.3,"humidity":55,"rain":0.0,"pressure":994.3,"uv_index":9.05,"wind_gusts":27.0,"aqi":129,"pm10":38.5,"pm2_5":31.5,"no2":2.6,"co":243.0,"o3":186.0,"so2":9.7,"mosquito_risk":0,"arthritis_risk":5,"migraine_risk":10,"frizz_risk":1,"updated_at":"2026-06-05T15:26:21.327533+05:30"},{"city":"Cuttack","state":"Odisha","latitude":20.4625,"longitude":85.8828,"temp":34.6,"humidity":60,"rain":0.0,"pressure":996.2,"uv_index":9.15,"wind_gusts":30.2,"aqi":129,"pm10":38.5,"pm2_5":31.5,"no2":2.6,"co":251.0,"o3":186.0,"so2":9.7,"mosquito_risk":0,"arthritis_risk":5,"migraine_risk":7,"frizz_risk":1,"updated_at":"2026-06-05T15:26:21.327539+05:30"},{"city":"Rourkela","state":"Odisha","latitude":22.2604,"longitude":84.8536,"temp":38.8,"humidity":33,"rain":0.0,"pressure":976.5,"uv_index":9.0,"wind_gusts":29.2,"aqi":116,"pm10":43.1,"pm2_5":31.1,"no2":1.6,"co":229.0,"o3":172.0,"so2":10.6,"mosquito_risk":0,"arthritis_risk":5,"migraine_risk":10,"frizz_risk":1,"updated_at":"2026-06-05T15:26:21.327546+05:30"},{"city":"Raipur","state":"Chhattisgarh","latitude":21.2514,"longitude":81.6296,"temp":39.8,"humidity":23,"rain":0.0,"pressure":967.4,"uv_index":9.0,"wind_gusts":35.3,"aqi":104,"pm10":66.1,"pm2_5":37.6,"no2":5.1,"co":197.0,"o3":165.0,"so2":27.2,"mosquito_risk":0,"arthritis_risk":5,"migraine_risk":10,"frizz_risk":0,"updated_at":"2026-06-05T15:26:21.327552+05:30"},{"city":"Bhilai","state":"Chhattisgarh","latitude":21.1938,"longitude":81.3509,"temp":38.7,"humidity":25,"rain":0.0,"pressure":968.0,"uv_index":9.0,"wind_gusts":34.9,"aqi":101,"pm10":64.3,"pm2_5":34.6,"no2":5.6,"co":300.0,"o3":145.0,"so2":24.3,"mosquito_risk":0,"arthritis_risk":5,"migraine_risk":10,"frizz_risk":0,"updated_at":"2026-06-05T15:26:21.327560+05:30"},{"city":"Guwahati","state":"Assam","latitude":26.1158,"longitude":91.7086,"temp":31.6,"humidity":66,"rain":0.0,"pressure":993.6,"uv_index":8.8,"wind_gusts":28.1,"aqi":108,"pm10":30.5,"pm2_5":27.4,"no2":1.7,"co":374.0,"o3":147.0,"so2":2.7,"mosquito_risk":3,"arthritis_risk":5,"migraine_risk":7,"frizz_risk":1,"updated_at":"2026-06-05T15:26:21.327567+05:30"},{"city":"Agartala","state":"Tripura","latitude":23.8315,"longitude":91.2868,"temp":31.4,"humidity":75,"rain":0.0,"pressure":998.3,"uv_index":8.9,"wind_gusts":36.0,"aqi":113,"pm10":34.3,"pm2_5":27.6,"no2":5.3,"co":259.0,"o3":168.0,"so2":2.9,"mosquito_risk":3,"arthritis_risk":5,"migraine_risk":7,"frizz_risk":1,"updated_at":"2026-06-05T15:26:21.327573+05:30"},{"city":"Shillong","state":"Meghalaya","latitude":25.5788,"longitude":91.8933,"temp":24.0,"humidity":77,"rain":0.0,"pressure":853.5,"uv_index":8.8,"wind_gusts":23.4,"aqi":91,"pm10":22.7,"pm2_5":20.3,"no2":2.6,"co":281.0,"o3":129.0,"so2":1.8,"mosquito_risk":3,"arthritis_risk":5,"migraine_risk":7,"frizz_risk":1,"updated_at":"2026-06-05T15:26:21.327581+05:30"},{"city":"Imphal","state":"Manipur","latitude":24.817,"longitude":93.9368,"temp":29.1,"humidity":63,"rain":0.1,"pressure":917.1,"uv_index":8.75,"wind_gusts":27.4,"aqi":117,"pm10":41.1,"pm2_5":34.2,"no2":1.3,"co":241.0,"o3":135.0,"so2":3.2,"mosquito_risk":10,"arthritis_risk":5,"migraine_risk":7,"frizz_risk":1,"updated_at":"2026-06-05T15:26:21.327587+05:30"},{"city":"Aizawl","state":"Mizoram","latitude":23.7271,"longitude":92.7176,"temp":26.7,"humidity":63,"rain":0.1,"pressure":887.4,"uv_index":9.1,"wind_gusts":26.3,"aqi":94,"pm10":52.2,"pm2_5":39.5,"no2":0.8,"co":208.0,"o3":128.0,"so2":4.0,"mosquito_risk":10,"arthritis_risk":5,"migraine_risk":7,"frizz_risk":1,"updated_at":"2026-06-05T15:26:21.327594+05:30"},{"city":"Kohima","state":"Nagaland","latitude":25.6701,"longitude":94.1077,"temp":22.6,"humidity":89,"rain":0.0,"pressure":851.4,"uv_index":8.7,"wind_gusts":28.8,"aqi":76,"pm10":36.4,"pm2_5":29.9,"no2":0.9,"co":277.0,"o3":132.0,"so2":3.0,"mosquito_risk":3,"arthritis_risk":5,"migraine_risk":7,"frizz_risk":1,"updated_at":"2026-06-05T15:26:21.327600+05:30"},{"city":"Gangtok","state":"Sikkim","latitude":27.3314,"longitude":88.6138,"temp":20.8,"humidity":88,"rain":0.2,"pressure":833.1,"uv_index":9.25,"wind_gusts":37.1,"aqi":113,"pm10":15.6,"pm2_5":13.4,"no2":1.1,"co":283.0,"o3":150.0,"so2":2.6,"mosquito_risk":6,"arthritis_risk":5,"migraine_risk":7,"frizz_risk":1,"updated_at":"2026-06-05T15:26:21.327607+05:30"},{"city":"Siliguri","state":"West Bengal","latitude":26.7271,"longitude":88.3953,"temp":30.2,"humidity":73,"rain":0.0,"pressure":985.4,"uv_index":8.8,"wind_gusts":23.4,"aqi":133,"pm10":36.9,"pm2_5":31.8,"no2":2.1,"co":440.0,"o3":166.0,"so2":6.2,"mosquito_risk":3,"arthritis_risk":5,"migraine_risk":7,"frizz_risk":1,"updated_at":"2026-06-05T15:26:24.568471+05:30"},{"city":"Durgapur","state":"West Bengal","latitude":23.5204,"longitude":87.3119,"temp":34.0,"humidity":59,"rain":0.0,"pressure":986.9,"uv_index":9.0,"wind_gusts":32.4,"aqi":161,"pm10":91.7,"pm2_5":84.8,"no2":11.4,"co":607.0,"o3":269.0,"so2":60.1,"mosquito_risk":0,"arthritis_risk":5,"migraine_risk":7,"frizz_risk":1,"updated_at":"2026-06-05T15:26:24.568509+05:30"},{"city":"Asansol","state":"West Bengal","latitude":23.6739,"longitude":86.9524,"temp":35.7,"humidity":49,"rain":0.0,"pressure":985.2,"uv_index":9.0,"wind_gusts":32.0,"aqi":159,"pm10":88.7,"pm2_5":79.9,"no2":9.9,"co":388.0,"o3":253.0,"so2":50.3,"mosquito_risk":0,"arthritis_risk":5,"migraine_risk":10,"frizz_risk":1,"updated_at":"2026-06-05T15:26:24.568521+05:30"},{"city":"Pondicherry","state":"Puducherry","latitude":11.9139,"longitude":79.8145,"temp":36.4,"humidity":42,"rain":0.0,"pressure":1002.7,"uv_index":8.45,"wind_gusts":49.3,"aqi":58,"pm10":25.3,"pm2_5":20.4,"no2":3.5,"co":168.0,"o3":147.0,"so2":10.8,"mosquito_risk":0,"arthritis_risk":5,"migraine_risk":7,"frizz_risk":1,"updated_at":"2026-06-05T15:26:24.568530+05:30"},{"city":"Port Blair","state":"Andaman and Nicobar Islands","latitude":11.6234,"longitude":92.7265,"temp":25.0,"humidity":97,"rain":0.2,"pressure":1004.0,"uv_index":1.85,"wind_gusts":47.2,"aqi":31,"pm10":6.2,"pm2_5":3.9,"no2":0.3,"co":105.0,"o3":62.0,"so2":0.5,"mosquito_risk":10,"arthritis_risk":5,"migraine_risk":0,"frizz_risk":1,"updated_at":"2026-06-05T15:26:24.568540+05:30"},{"city":"Haridwar","state":"Uttarakhand","latitude":29.9457,"longitude":78.1642,"temp":31.2,"humidity":53,"rain":0.0,"pressure":968.5,"uv_index":6.95,"wind_gusts":33.1,"aqi":121,"pm10":118.7,"pm2_5":41.2,"no2":1.2,"co":237.0,"o3":171.0,"so2":5.6,"mosquito_risk":0,"arthritis_risk":5,"migraine_risk":7,"frizz_risk":1,"updated_at":"2026-06-05T15:26:24.568549+05:30"},{"city":"Rishikesh","state":"Uttarakhand","latitude":30.0869,"longitude":78.2676,"temp":30.9,"humidity":47,"rain":0.0,"pressure":961.3,"uv_index":7.05,"wind_gusts":33.1,"aqi":111,"pm10":101.7,"pm2_5":35.5,"no2":0.7,"co":209.0,"o3":160.0,"so2":4.9,"mosquito_risk":0,"arthritis_risk":5,"migraine_risk":7,"frizz_risk":1,"updated_at":"2026-06-05T15:26:24.568556+05:30"},{"city":"Nainital","state":"Uttarakhand","latitude":29.3919,"longitude":79.4542,"temp":18.5,"humidity":81,"rain":0.0,"pressure":803.4,"uv_index":7.3,"wind_gusts":27.0,"aqi":120,"pm10":55.6,"pm2_5":36.2,"no2":1.5,"co":211.0,"o3":180.0,"so2":7.5,"mosquito_risk":3,"arthritis_risk":10,"migraine_risk":7,"frizz_risk":0,"updated_at":"2026-06-05T15:26:24.568564+05:30"},{"city":"Mussoorie","state":"Uttarakhand","latitude":30.4599,"longitude":78.0664,"temp":19.2,"humidity":68,"rain":0.0,"pressure":801.3,"uv_index":6.45,"wind_gusts":26.3,"aqi":120,"pm10":79.9,"pm2_5":31.4,"no2":1.2,"co":226.0,"o3":168.0,"so2":4.3,"mosquito_risk":3,"arthritis_risk":5,"migraine_risk":7,"frizz_risk":0,"updated_at":"2026-06-05T15:26:24.568573+05:30"},{"city":"Dharamshala","state":"Himachal Pradesh","latitude":32.219,"longitude":76.3234,"temp":25.9,"humidity":39,"rain":0.0,"pressure":867.1,"uv_index":8.45,"wind_gusts":38.2,"aqi":96,"pm10":29.2,"pm2_5":13.7,"no2":0.6,"co":210.0,"o3":144.0,"so2":1.5,"mosquito_risk":4,"arthritis_risk":5,"migraine_risk":7,"frizz_risk":0,"updated_at":"2026-06-05T15:26:24.568580+05:30"},{"city":"Dalhousie","state":"Himachal Pradesh","latitude":32.5387,"longitude":75.971,"temp":20.6,"humidity":52,"rain":0.0,"pressure":804.4,"uv_index":7.0,"wind_gusts":38.2,"aqi":95,"pm10":55.4,"pm2_5":23.1,"no2":1.2,"co":213.0,"o3":146.0,"so2":2.7,"mosquito_risk":0,"arthritis_risk":5,"migraine_risk":7,"frizz_risk":0,"updated_at":"2026-06-05T15:26:24.568588+05:30"},{"city":"Patiala","state":"Punjab","latitude":30.3398,"longitude":76.3869,"temp":35.7,"humidity":35,"rain":0.0,"pressure":972.5,"uv_index":7.65,"wind_gusts":29.2,"aqi":186,"pm10":372.5,"pm2_5":78.0,"no2":1.4,"co":272.0,"o3":189.0,"so2":11.3,"mosquito_risk":0,"arthritis_risk":5,"migraine_risk":10,"frizz_risk":1,"updated_at":"2026-06-05T15:26:24.568597+05:30"},{"city":"Bhatinda","state":"Punjab","latitude":30.211,"longitude":74.9455,"temp":37.5,"humidity":30,"rain":0.0,"pressure":977.7,"uv_index":8.25,"wind_gusts":22.7,"aqi":241,"pm10":328.8,"pm2_5":91.7,"no2":2.7,"co":263.0,"o3":179.0,"so2":18.4,"mosquito_risk":0,"arthritis_risk":5,"migraine_risk":10,"frizz_risk":1,"updated_at":"2026-06-05T15:26:24.568603+05:30"},{"city":"Rohtak","state":"Haryana","latitude":28.8955,"longitude":76.6066,"temp":35.7,"humidity":32,"rain":0.0,"pressure":975.9,"uv_index":7.7,"wind_gusts":23.0,"aqi":254,"pm10":278.5,"pm2_5":59.8,"no2":2.0,"co":236.0,"o3":137.0,"so2":3.8,"mosquito_risk":0,"arthritis_risk":5,"migraine_risk":10,"frizz_risk":1,"updated_at":"2026-06-05T15:26:24.568613+05:30"},{"city":"Panipat","state":"Haryana","latitude":29.3909,"longitude":76.9635,"temp":33.7,"humidity":48,"rain":0.0,"pressure":974.7,"uv_index":7.55,"wind_gusts":29.9,"aqi":313,"pm10":411.6,"pm2_5":91.3,"no2":3.4,"co":320.0,"o3":184.0,"so2":22.3,"mosquito_risk":0,"arthritis_risk":5,"migraine_risk":7,"frizz_risk":1,"updated_at":"2026-06-05T15:26:24.568620+05:30"},{"city":"Mathura","state":"Uttar Pradesh","latitude":27.4924,"longitude":77.6737,"temp":34.2,"humidity":39,"rain":0.0,"pressure":980.9,"uv_index":7.3,"wind_gusts":29.2,"aqi":260,"pm10":289.6,"pm2_5":52.5,"no2":1.5,"co":169.0,"o3":116.0,"so2":2.5,"mosquito_risk":0,"arthritis_risk":5,"migraine_risk":7,"frizz_risk":1,"updated_at":"2026-06-05T15:26:24.568627+05:30"},{"city":"Vrindavan","state":"Uttar Pradesh","latitude":27.5823,"longitude":77.7027,"temp":34.6,"humidity":37,"rain":0.0,"pressure":981.3,"uv_index":7.5,"wind_gusts":28.1,"aqi":260,"pm10":289.6,"pm2_5":52.5,"no2":1.5,"co":169.0,"o3":116.0,"so2":2.5,"mosquito_risk":0,"arthritis_risk":5,"migraine_risk":7,"frizz_risk":1,"updated_at":"2026-06-05T15:26:24.568633+05:30"},{"city":"Ayodhya","state":"Uttar Pradesh","latitude":26.7922,"longitude":82.1998,"temp":36.4,"humidity":42,"rain":0.0,"pressure":987.1,"uv_index":8.05,"wind_gusts":29.5,"aqi":155,"pm10":107.3,"pm2_5":42.8,"no2":1.3,"co":273.0,"o3":165.0,"so2":6.7,"mosquito_risk":0,"arthritis_risk":5,"migraine_risk":10,"frizz_risk":1,"updated_at":"2026-06-05T15:26:24.568641+05:30"},{"city":"Ratlam","state":"Madhya Pradesh","latitude":23.3315,"longitude":75.0367,"temp":34.8,"humidity":41,"rain":0.0,"pressure":949.7,"uv_index":8.45,"wind_gusts":41.4,"aqi":86,"pm10":65.2,"pm2_5":27.9,"no2":0.5,"co":127.0,"o3":99.0,"so2":3.6,"mosquito_risk":0,"arthritis_risk":5,"migraine_risk":7,"frizz_risk":1,"updated_at":"2026-06-05T15:26:24.568647+05:30"},{"city":"Sagar","state":"Madhya Pradesh","latitude":23.8388,"longitude":78.7378,"temp":34.1,"humidity":41,"rain":0.1,"pressure":944.2,"uv_index":8.75,"wind_gusts":39.6,"aqi":82,"pm10":55.1,"pm2_5":25.2,"no2":0.7,"co":149.0,"o3":109.0,"so2":3.0,"mosquito_risk":3,"arthritis_risk":5,"migraine_risk":7,"frizz_risk":1,"updated_at":"2026-06-05T15:26:24.568654+05:30"},{"city":"Satna","state":"Madhya Pradesh","latitude":24.6005,"longitude":80.8322,"temp":37.2,"humidity":30,"rain":0.0,"pressure":964.4,"uv_index":8.85,"wind_gusts":37.8,"aqi":90,"pm10":75.9,"pm2_5":29.0,"no2":0.7,"co":153.0,"o3":115.0,"so2":2.7,"mosquito_risk":0,"arthritis_risk":5,"migraine_risk":10,"frizz_risk":1,"updated_at":"2026-06-05T15:26:24.568660+05:30"},{"city":"Akola","state":"Maharashtra","latitude":20.7002,"longitude":77.0082,"temp":38.2,"humidity":29,"rain":0.0,"pressure":968.7,"uv_index":8.8,"wind_gusts":45.7,"aqi":86,"pm10":59.5,"pm2_5":26.6,"no2":1.2,"co":134.0,"o3":110.0,"so2":4.8,"mosquito_risk":0,"arthritis_risk":5,"migraine_risk":10,"frizz_risk":1,"updated_at":"2026-06-05T15:26:24.568668+05:30"},{"city":"Amravati","state":"Maharashtra","latitude":20.9374,"longitude":77.7796,"temp":38.7,"humidity":26,"rain":0.0,"pressure":961.1,"uv_index":8.85,"wind_gusts":51.1,"aqi":90,"pm10":57.4,"pm2_5":26.3,"no2":1.4,"co":148.0,"o3":118.0,"so2":6.0,"mosquito_risk":0,"arthritis_risk":5,"migraine_risk":10,"frizz_risk":0,"updated_at":"2026-06-05T15:26:24.568676+05:30"},{"city":"Latur","state":"Maharashtra","latitude":18.4088,"longitude":76.5604,"temp":34.8,"humidity":40,"rain":0.0,"pressure":935.4,"uv_index":8.95,"wind_gusts":35.3,"aqi":67,"pm10":47.1,"pm2_5":22.2,"no2":1.0,"co":151.0,"o3":113.0,"so2":3.5,"mosquito_risk":0,"arthritis_risk":5,"migraine_risk":7,"frizz_risk":1,"updated_at":"2026-06-05T15:26:24.568683+05:30"},{"city":"Nanded","state":"Maharashtra","latitude":19.1383,"longitude":77.3091,"temp":37.1,"humidity":32,"rain":0.0,"pressure":962.9,"uv_index":8.95,"wind_gusts":31.0,"aqi":89,"pm10":58.0,"pm2_5":27.9,"no2":1.0,"co":153.0,"o3":119.0,"so2":2.9,"mosquito_risk":0,"arthritis_risk":5,"migraine_risk":10,"frizz_risk":1,"updated_at":"2026-06-05T15:26:24.568689+05:30"},{"city":"Gulbarga","state":"Karnataka","latitude":17.3297,"longitude":76.8343,"temp":35.7,"humidity":41,"rain":0.0,"pressure":953.6,"uv_index":7.25,"wind_gusts":45.0,"aqi":51,"pm10":33.4,"pm2_5":17.8,"no2":1.7,"co":161.0,"o3":117.0,"so2":3.1,"mosquito_risk":0,"arthritis_risk":5,"migraine_risk":10,"frizz_risk":1,"updated_at":"2026-06-05T15:26:24.568695+05:30"},{"city":"Bidar","state":"Karnataka","latitude":17.9104,"longitude":77.5199,"temp":33.4,"humidity":45,"rain":0.0,"pressure":931.4,"uv_index":6.35,"wind_gusts":43.9,"aqi":69,"pm10":48.9,"pm2_5":27.1,"no2":1.5,"co":169.0,"o3":129.0,"so2":5.0,"mosquito_risk":0,"arthritis_risk":5,"migraine_risk":7,"frizz_risk":1,"updated_at":"2026-06-05T15:26:24.568702+05:30"},{"city":"Hospet","state":"Karnataka","latitude":15.2689,"longitude":76.3909,"temp":26.7,"humidity":82,"rain":0.2,"pressure":952.4,"uv_index":8.35,"wind_gusts":45.7,"aqi":29,"pm10":6.6,"pm2_5":4.0,"no2":1.2,"co":130.0,"o3":84.0,"so2":1.5,"mosquito_risk":10,"arthritis_risk":5,"migraine_risk":7,"frizz_risk":1,"updated_at":"2026-06-05T15:26:24.568709+05:30"},{"city":"Tirupur","state":"Tamil Nadu","latitude":11.1085,"longitude":77.3411,"temp":31.5,"humidity":54,"rain":0.0,"pressure":971.5,"uv_index":8.6,"wind_gusts":64.1,"aqi":27,"pm10":4.2,"pm2_5":3.3,"no2":2.4,"co":144.0,"o3":69.0,"so2":1.8,"mosquito_risk":0,"arthritis_risk":5,"migraine_risk":7,"frizz_risk":1,"updated_at":"2026-06-05T15:26:24.568715+05:30"},{"city":"Alappuzha","state":"Kerala","latitude":9.4981,"longitude":76.3388,"temp":26.7,"humidity":94,"rain":0.2,"pressure":1008.0,"uv_index":6.4,"wind_gusts":38.5,"aqi":30,"pm10":12.3,"pm2_5":6.4,"no2":3.1,"co":90.0,"o3":47.0,"so2":1.0,"mosquito_risk":10,"arthritis_risk":0,"migraine_risk":4,"frizz_risk":1,"updated_at":"2026-06-05T15:26:24.568722+05:30"},{"city":"Munnar","state":"Kerala","latitude":10.0889,"longitude":77.0595,"temp":17.8,"humidity":92,"rain":0.1,"pressure":855.5,"uv_index":7.3,"wind_gusts":48.2,"aqi":22,"pm10":2.4,"pm2_5":1.9,"no2":2.9,"co":107.0,"o3":53.0,"so2":1.0,"mosquito_risk":6,"arthritis_risk":10,"migraine_risk":7,"frizz_risk":1,"updated_at":"2026-06-05T15:26:24.568730+05:30"},{"city":"Silchar","state":"Assam","latitude":24.8333,"longitude":92.7789,"temp":33.3,"humidity":61,"rain":0.0,"pressure":996.3,"uv_index":7.9,"wind_gusts":31.0,"aqi":123,"pm10":40.2,"pm2_5":32.7,"no2":1.4,"co":246.0,"o3":136.0,"so2":4.4,"mosquito_risk":3,"arthritis_risk":5,"migraine_risk":7,"frizz_risk":1,"updated_at":"2026-06-05T15:26:24.568736+05:30"},{"city":"Dibrugarh","state":"Assam","latitude":27.4728,"longitude":94.912,"temp":30.9,"humidity":64,"rain":0.0,"pressure":988.0,"uv_index":8.95,"wind_gusts":19.4,"aqi":135,"pm10":34.5,"pm2_5":29.4,"no2":1.3,"co":274.0,"o3":142.0,"so2":2.5,"mosquito_risk":3,"arthritis_risk":5,"migraine_risk":7,"frizz_risk":1,"updated_at":"2026-06-05T15:26:24.568743+05:30"}]