[{"city":"Delhi","state":"Delhi","latitude":28.6139,"longitude":77.209,"temp":25.9,"humidity":96,"rain":0.4,"pressure":973.5,"uv_index":4.75,"wind_gusts":25.2,"aqi":112,"pm10":45.9,"pm2_5":45.5,"no2":44.5,"co":624.0,"o3":41.0,"so2":18.8,"mosquito_risk":10,"arthritis_risk":5,"migraine_risk":3,"frizz_risk":1,"updated_at":"2026-07-08T23:49:51.933835+05:30"},{"city":"Mumbai","state":"Maharashtra","latitude":19.076,"longitude":72.8777,"temp":28.0,"humidity":89,"rain":0.0,"pressure":1004.4,"uv_index":5.85,"wind_gusts":60.1,"aqi":61,"pm10":33.1,"pm2_5":15.6,"no2":6.1,"co":166.0,"o3":37.0,"so2":4.5,"mosquito_risk":7,"arthritis_risk":5,"migraine_risk":0,"frizz_risk":1,"updated_at":"2026-07-08T23:49:51.933875+05:30"},{"city":"Bangalore","state":"Karnataka","latitude":12.9716,"longitude":77.5946,"temp":21.5,"humidity":87,"rain":0.0,"pressure":911.2,"uv_index":5.95,"wind_gusts":62.6,"aqi":23,"pm10":7.4,"pm2_5":5.8,"no2":10.8,"co":229.0,"o3":33.0,"so2":3.8,"mosquito_risk":3,"arthritis_risk":5,"migraine_risk":3,"frizz_risk":1,"updated_at":"2026-07-08T23:49:51.933891+05:30"},{"city":"Hyderabad","state":"Telangana","latitude":17.385,"longitude":78.4867,"temp":24.8,"humidity":85,"rain":0.0,"pressure":949.7,"uv_index":8.45,"wind_gusts":62.6,"aqi":32,"pm10":9.0,"pm2_5":6.7,"no2":8.2,"co":251.0,"o3":44.0,"so2":4.5,"mosquito_risk":3,"arthritis_risk":5,"migraine_risk":7,"frizz_risk":1,"updated_at":"2026-07-08T23:49:51.933901+05:30"},{"city":"Chennai","state":"Tamil Nadu","latitude":13.0827,"longitude":80.2707,"temp":31.6,"humidity":54,"rain":0.0,"pressure":1005.0,"uv_index":8.2,"wind_gusts":52.2,"aqi":65,"pm10":19.4,"pm2_5":14.4,"no2":14.9,"co":343.0,"o3":53.0,"so2":7.1,"mosquito_risk":0,"arthritis_risk":5,"migraine_risk":4,"frizz_risk":1,"updated_at":"2026-07-08T23:49:51.933909+05:30"},{"city":"Kolkata","state":"West Bengal","latitude":22.5726,"longitude":88.3639,"temp":27.8,"humidity":94,"rain":0.0,"pressure":1000.8,"uv_index":7.2,"wind_gusts":40.0,"aqi":69,"pm10":23.3,"pm2_5":17.3,"no2":6.1,"co":175.0,"o3":64.0,"so2":5.9,"mosquito_risk":7,"arthritis_risk":5,"migraine_risk":4,"frizz_risk":1,"updated_at":"2026-07-08T23:49:51.933918+05:30"},{"city":"Pune","state":"Maharashtra","latitude":18.5204,"longitude":73.8567,"temp":24.1,"humidity":90,"rain":0.0,"pressure":944.7,"uv_index":7.75,"wind_gusts":59.0,"aqi":19,"pm10":3.5,"pm2_5":2.8,"no2":7.6,"co":141.0,"o3":37.0,"so2":5.7,"mosquito_risk":3,"arthritis_risk":5,"migraine_risk":7,"frizz_risk":1,"updated_at":"2026-07-08T23:49:51.933924+05:30"},{"city":"Ahmedabad","state":"Gujarat","latitude":23.0225,"longitude":72.5714,"temp":29.1,"humidity":79,"rain":0.0,"pressure":994.5,"uv_index":6.85,"wind_gusts":40.0,"aqi":78,"pm10":43.4,"pm2_5":23.8,"no2":8.1,"co":281.0,"o3":54.0,"so2":5.5,"mosquito_risk":7,"arthritis_risk":5,"migraine_risk":7,"frizz_risk":1,"updated_at":"2026-07-08T23:49:51.933931+05:30"},{"city":"Jaipur","state":"Rajasthan","latitude":26.9124,"longitude":75.7873,"temp":27.7,"humidity":87,"rain":0.0,"pressure":951.0,"uv_index":8.1,"wind_gusts":36.7,"aqi":97,"pm10":89.9,"pm2_5":42.5,"no2":32.1,"co":481.0,"o3":43.0,"so2":11.3,"mosquito_risk":7,"arthritis_risk":5,"migraine_risk":7,"frizz_risk":1,"updated_at":"2026-07-08T23:49:51.933938+05:30"},{"city":"Lucknow","state":"Uttar Pradesh","latitude":26.8467,"longitude":80.9462,"temp":26.5,"humidity":97,"rain":0.3,"pressure":985.0,"uv_index":6.65,"wind_gusts":47.9,"aqi":69,"pm10":16.5,"pm2_5":16.5,"no2":12.7,"co":303.0,"o3":76.0,"so2":7.0,"mosquito_risk":10,"arthritis_risk":5,"migraine_risk":7,"frizz_risk":1,"updated_at":"2026-07-08T23:49:51.933949+05:30"},{"city":"Kanpur","state":"Uttar Pradesh","latitude":26.4499,"longitude":80.3319,"temp":27.3,"humidity":92,"rain":0.0,"pressure":982.4,"uv_index":7.35,"wind_gusts":43.9,"aqi":59,"pm10":12.3,"pm2_5":12.1,"no2":11.5,"co":340.0,"o3":74.0,"so2":4.2,"mosquito_risk":7,"arthritis_risk":5,"migraine_risk":7,"frizz_risk":1,"updated_at":"2026-07-08T23:49:51.933956+05:30"},{"city":"Chandigarh","state":"Chandigarh","latitude":30.7333,"longitude":76.7794,"temp":27.1,"humidity":90,"rain":0.0,"pressure":960.8,"uv_index":4.6,"wind_gusts":29.2,"aqi":123,"pm10":61.7,"pm2_5":61.5,"no2":70.3,"co":787.0,"o3":12.0,"so2":17.4,"mosquito_risk":7,"arthritis_risk":5,"migraine_risk":3,"frizz_risk":1,"updated_at":"2026-07-08T23:49:51.933963+05:30"},{"city":"Srinagar","state":"Jammu and Kashmir","latitude":34.0837,"longitude":74.7973,"temp":20.6,"humidity":75,"rain":0.0,"pressure":834.7,"uv_index":9.1,"wind_gusts":26.6,"aqi":80,"pm10":31.5,"pm2_5":28.4,"no2":28.4,"co":1187.0,"o3":52.0,"so2":4.7,"mosquito_risk":3,"arthritis_risk":5,"migraine_risk":7,"frizz_risk":0,"updated_at":"2026-07-08T23:49:51.933970+05:30"},{"city":"Jammu","state":"Jammu and Kashmir","latitude":32.7266,"longitude":74.857,"temp":27.0,"humidity":90,"rain":0.0,"pressure":964.3,"uv_index":8.2,"wind_gusts":31.7,"aqi":151,"pm10":91.3,"pm2_5":77.3,"no2":28.7,"co":602.0,"o3":99.0,"so2":9.2,"mosquito_risk":7,"arthritis_risk":5,"migraine_risk":7,"frizz_risk":1,"updated_at":"2026-07-08T23:49:51.933977+05:30"},{"city":"Amritsar","state":"Punjab","latitude":31.634,"longitude":74.8723,"temp":28.2,"humidity":87,"rain":0.0,"pressure":971.8,"uv_index":8.4,"wind_gusts":38.9,"aqi":164,"pm10":61.5,"pm2_5":55.2,"no2":21.3,"co":654.0,"o3":77.0,"so2":9.2,"mosquito_risk":7,"arthritis_risk":5,"migraine_risk":7,"frizz_risk":1,"updated_at":"2026-07-08T23:49:51.933984+05:30"},{"city":"Ludhiana","state":"Punjab","latitude":30.901,"longitude":75.8573,"temp":28.1,"humidity":90,"rain":0.0,"pressure":970.2,"uv_index":5.95,"wind_gusts":28.1,"aqi":145,"pm10":72.4,"pm2_5":68.0,"no2":51.8,"co":725.0,"o3":16.0,"so2":16.2,"mosquito_risk":7,"arthritis_risk":5,"migraine_risk":3,"frizz_risk":1,"updated_at":"2026-07-08T23:49:51.933998+05:30"},{"city":"Jalandhar","state":"Punjab","latitude":31.326,"longitude":75.5762,"temp":27.6,"humidity":90,"rain":0.0,"pressure":971.1,"uv_index":7.45,"wind_gusts":32.4,"aqi":151,"pm10":50.6,"pm2_5":50.6,"no2":35.3,"co":734.0,"o3":45.0,"so2":14.3,"mosquito_risk":7,"arthritis_risk":5,"migraine_risk":7,"frizz_risk":1,"updated_at":"2026-07-08T23:49:51.934014+05:30"},{"city":"Dehradun","state":"Uttarakhand","latitude":30.6284,"longitude":78.0322,"temp":18.9,"humidity":96,"rain":0.2,"pressure":825.5,"uv_index":1.35,"wind_gusts":17.6,"aqi":60,"pm10":17.0,"pm2_5":16.9,"no2":39.8,"co":314.0,"o3":39.0,"so2":1.8,"mosquito_risk":6,"arthritis_risk":10,"migraine_risk":3,"frizz_risk":1,"updated_at":"2026-07-08T23:49:51.934028+05:30"},{"city":"Shimla","state":"Himachal Pradesh","latitude":31.1048,"longitude":77.1734,"temp":15.8,"humidity":96,"rain":0.0,"pressure":779.7,"uv_index":3.3,"wind_gusts":17.3,"aqi":58,"pm10":8.4,"pm2_5":8.1,"no2":26.7,"co":606.0,"o3":55.0,"so2":1.3,"mosquito_risk":3,"arthritis_risk":10,"migraine_risk":3,"frizz_risk":0,"updated_at":"2026-07-08T23:49:51.934044+05:30"},{"city":"Manali","state":"Himachal Pradesh","latitude":32.2396,"longitude":77.1887,"temp":20.5,"humidity":82,"rain":0.5,"pressure":815.2,"uv_index":6.75,"wind_gusts":39.6,"aqi":48,"pm10":6.7,"pm2_5":6.7,"no2":96.5,"co":427.0,"o3":11.0,"so2":0.1,"mosquito_risk":6,"arthritis_risk":5,"migraine_risk":7,"frizz_risk":1,"updated_at":"2026-07-08T23:49:51.934054+05:30"},{"city":"Gurgaon","state":"Haryana","latitude":28.4595,"longitude":77.0266,"temp":25.7,"humidity":98,"rain":0.5,"pressure":971.9,"uv_index":6.45,"wind_gusts":27.7,"aqi":119,"pm10":47.1,"pm2_5":46.8,"no2":51.4,"co":664.0,"o3":44.0,"so2":20.9,"mosquito_risk":10,"arthritis_risk":5,"migraine_risk":7,"frizz_risk":1,"updated_at":"2026-07-08T23:49:51.934061+05:30"},{"city":"Noida","state":"Uttar Pradesh","latitude":28.5355,"longitude":77.391,"temp":26.0,"humidity":95,"rain":1.0,"pressure":974.5,"uv_index":5.75,"wind_gusts":32.4,"aqi":119,"pm10":47.1,"pm2_5":46.8,"no2":51.4,"co":582.0,"o3":44.0,"so2":20.9,"mosquito_risk":10,"arthritis_risk":5,"migraine_risk":3,"frizz_risk":1,"updated_at":"2026-07-08T23:49:51.934067+05:30"},{"city":"Ghaziabad","state":"Uttar Pradesh","latitude":28.6692,"longitude":77.4538,"temp":25.9,"humidity":96,"rain":3.4,"pressure":972.9,"uv_index":6.5,"wind_gusts":29.5,"aqi":100,"pm10":32.6,"pm2_5":32.1,"no2":18.6,"co":356.0,"o3":65.0,"so2":6.6,"mosquito_risk":10,"arthritis_risk":5,"migraine_risk":7,"frizz_risk":1,"updated_at":"2026-07-08T23:49:51.934073+05:30"},{"city":"Faridabad","state":"Haryana","latitude":28.4089,"longitude":77.3178,"temp":26.1,"humidity":95,"rain":0.6,"pressure":973.9,"uv_index":3.65,"wind_gusts":32.4,"aqi":119,"pm10":47.1,"pm2_5":46.8,"no2":51.4,"co":495.0,"o3":44.0,"so2":20.9,"mosquito_risk":10,"arthritis_risk":5,"migraine_risk":3,"frizz_risk":1,"updated_at":"2026-07-08T23:49:51.934079+05:30"},{"city":"Meerut","state":"Uttar Pradesh","latitude":28.9845,"longitude":77.7064,"temp":26.0,"humidity":96,"rain":0.8,"pressure":972.3,"uv_index":7.4,"wind_gusts":29.2,"aqi":100,"pm10":32.6,"pm2_5":32.1,"no2":18.6,"co":351.0,"o3":65.0,"so2":6.6,"mosquito_risk":10,"arthritis_risk":5,"migraine_risk":7,"frizz_risk":1,"updated_at":"2026-07-08T23:49:51.934085+05:30"},{"city":"Agra","state":"Uttar Pradesh","latitude":27.1767,"longitude":78.0081,"temp":26.3,"humidity":97,"rain":0.0,"pressure":977.4,"uv_index":6.0,"wind_gusts":31.7,"aqi":75,"pm10":19.0,"pm2_5":18.4,"no2":16.1,"co":300.0,"o3":79.0,"so2":8.0,"mosquito_risk":7,"arthritis_risk":5,"migraine_risk":3,"frizz_risk":1,"updated_at":"2026-07-08T23:49:51.934091+05:30"},{"city":"Varanasi","state":"Uttar Pradesh","latitude":25.3176,"longitude":82.9739,"temp":27.4,"humidity":95,"rain":0.0,"pressure":990.2,"uv_index":5.6,"wind_gusts":25.9,"aqi":62,"pm10":23.6,"pm2_5":23.3,"no2":37.7,"co":532.0,"o3":30.0,"so2":32.7,"mosquito_risk":7,"arthritis_risk":5,"migraine_risk":3,"frizz_risk":1,"updated_at":"2026-07-08T23:49:51.934098+05:30"},{"city":"Prayagraj","state":"Uttar Pradesh","latitude":25.4358,"longitude":81.8463,"temp":27.8,"humidity":91,"rain":0.3,"pressure":988.2,"uv_index":6.65,"wind_gusts":37.4,"aqi":59,"pm10":18.4,"pm2_5":18.3,"no2":19.2,"co":254.0,"o3":52.0,"so2":10.1,"mosquito_risk":10,"arthritis_risk":5,"migraine_risk":7,"frizz_risk":1,"updated_at":"2026-07-08T23:49:51.934105+05:30"},{"city":"Gorakhpur","state":"Uttar Pradesh","latitude":26.7606,"longitude":83.3732,"temp":26.7,"humidity":97,"rain":0.1,"pressure":990.6,"uv_index":6.6,"wind_gusts":36.4,"aqi":76,"pm10":19.6,"pm2_5":19.5,"no2":11.5,"co":238.0,"o3":85.0,"so2":5.2,"mosquito_risk":10,"arthritis_risk":5,"migraine_risk":7,"frizz_risk":1,"updated_at":"2026-07-08T23:49:51.934111+05:30"},{"city":"Bareilly","state":"Uttar Pradesh","latitude":28.367,"longitude":79.4304,"temp":25.9,"humidity":97,"rain":0.2,"pressure":978.1,"uv_index":6.1,"wind_gusts":47.2,"aqi":68,"pm10":17.5,"pm2_5":17.2,"no2":9.1,"co":243.0,"o3":93.0,"so2":4.7,"mosquito_risk":10,"arthritis_risk":5,"migraine_risk":7,"frizz_risk":1,"updated_at":"2026-07-08T23:49:51.934125+05:30"},{"city":"Aligarh","state":"Uttar Pradesh","latitude":27.8974,"longitude":78.088,"temp":26.0,"humidity":97,"rain":0.1,"pressure":975.2,"uv_index":5.8,"wind_gusts":37.1,"aqi":80,"pm10":19.1,"pm2_5":19.0,"no2":15.2,"co":306.0,"o3":77.0,"so2":8.0,"mosquito_risk":10,"arthritis_risk":5,"migraine_risk":3,"frizz_risk":1,"updated_at":"2026-07-08T23:49:51.934132+05:30"},{"city":"Moradabad","state":"Uttar Pradesh","latitude":28.8386,"longitude":78.7733,"temp":25.9,"humidity":95,"rain":0.1,"pressure":974.6,"uv_index":7.25,"wind_gusts":44.6,"aqi":80,"pm10":17.6,"pm2_5":17.3,"no2":9.0,"co":264.0,"o3":93.0,"so2":5.7,"mosquito_risk":10,"arthritis_risk":5,"migraine_risk":7,"frizz_risk":1,"updated_at":"2026-07-08T23:49:51.934138+05:30"},{"city":"Saharanpur","state":"Uttar Pradesh","latitude":29.9637,"longitude":77.546,"temp":27.2,"humidity":94,"rain":0.2,"pressure":967.6,"uv_index":2.35,"wind_gusts":25.6,"aqi":105,"pm10":79.4,"pm2_5":78.0,"no2":70.2,"co":633.0,"o3":2.0,"so2":20.4,"mosquito_risk":10,"arthritis_risk":5,"migraine_risk":3,"frizz_risk":1,"updated_at":"2026-07-08T23:49:51.934144+05:30"},{"city":"Jhansi","state":"Uttar Pradesh","latitude":25.4484,"longitude":78.5685,"temp":27.4,"humidity":84,"rain":0.0,"pressure":968.4,"uv_index":7.85,"wind_gusts":45.0,"aqi":49,"pm10":10.0,"pm2_5":9.8,"no2":6.8,"co":244.0,"o3":91.0,"so2":3.8,"mosquito_risk":7,"arthritis_risk":5,"migraine_risk":7,"frizz_risk":1,"updated_at":"2026-07-08T23:49:55.355973+05:30"},{"city":"Surat","state":"Gujarat","latitude":21.1702,"longitude":72.8311,"temp":28.9,"humidity":86,"rain":0.0,"pressure":1000.5,"uv_index":1.8,"wind_gusts":47.2,"aqi":76,"pm10":33.1,"pm2_5":20.4,"no2":19.5,"co":276.0,"o3":28.0,"so2":31.5,"mosquito_risk":7,"arthritis_risk":5,"migraine_risk":0,"frizz_risk":1,"updated_at":"2026-07-08T23:49:55.356007+05:30"},{"city":"Vadodara","state":"Gujarat","latitude":22.3072,"longitude":73.1812,"temp":29.0,"humidity":84,"rain":0.0,"pressure":997.2,"uv_index":6.75,"wind_gusts":37.1,"aqi":75,"pm10":40.2,"pm2_5":23.6,"no2":14.4,"co":163.0,"o3":36.0,"so2":9.9,"mosquito_risk":7,"arthritis_risk":5,"migraine_risk":7,"frizz_risk":1,"updated_at":"2026-07-08T23:49:55.356018+05:30"},{"city":"Rajkot","state":"Gujarat","latitude":22.3039,"longitude":70.8022,"temp":27.6,"humidity":84,"rain":0.0,"pressure":987.1,"uv_index":5.85,"wind_gusts":46.4,"aqi":69,"pm10":38.6,"pm2_5":20.3,"no2":5.3,"co":115.0,"o3":44.0,"so2":5.1,"mosquito_risk":7,"arthritis_risk":5,"migraine_risk":3,"frizz_risk":1,"updated_at":"2026-07-08T23:49:55.356027+05:30"},{"city":"Thane","state":"Maharashtra","latitude":19.2183,"longitude":72.9781,"temp":26.9,"humidity":96,"rain":0.0,"pressure":1003.7,"uv_index":4.75,"wind_gusts":39.6,"aqi":61,"pm10":33.1,"pm2_5":15.6,"no2":6.1,"co":183.0,"o3":37.0,"so2":4.5,"mosquito_risk":7,"arthritis_risk":5,"migraine_risk":0,"frizz_risk":1,"updated_at":"2026-07-08T23:49:55.356036+05:30"},{"city":"Nagpur","state":"Maharashtra","latitude":21.1458,"longitude":79.0882,"temp":26.3,"humidity":88,"rain":0.4,"pressure":967.6,"uv_index":8.2,"wind_gusts":47.2,"aqi":37,"pm10":10.1,"pm2_5":9.6,"no2":15.2,"co":254.0,"o3":53.0,"so2":10.4,"mosquito_risk":10,"arthritis_risk":5,"migraine_risk":7,"frizz_risk":1,"updated_at":"2026-07-08T23:49:55.356045+05:30"},{"city":"Nashik","state":"Maharashtra","latitude":19.9975,"longitude":73.7898,"temp":24.1,"humidity":97,"rain":0.0,"pressure":940.4,"uv_index":0.85,"wind_gusts":46.4,"aqi":29,"pm10":8.8,"pm2_5":5.4,"no2":9.5,"co":128.0,"o3":28.0,"so2":3.9,"mosquito_risk":3,"arthritis_risk":5,"migraine_risk":3,"frizz_risk":1,"updated_at":"2026-07-08T23:49:55.356053+05:30"},{"city":"Aurangabad","state":"Maharashtra","latitude":19.8762,"longitude":75.3433,"temp":24.3,"humidity":87,"rain":0.0,"pressure":939.8,"uv_index":6.7,"wind_gusts":45.7,"aqi":27,"pm10":15.4,"pm2_5":8.3,"no2":9.2,"co":209.0,"o3":36.0,"so2":8.6,"mosquito_risk":3,"arthritis_risk":5,"migraine_risk":7,"frizz_risk":1,"updated_at":"2026-07-08T23:49:55.356060+05:30"},{"city":"Solapur","state":"Maharashtra","latitude":17.6599,"longitude":75.9064,"temp":25.4,"humidity":86,"rain":0.0,"pressure":954.2,"uv_index":7.7,"wind_gusts":63.4,"aqi":24,"pm10":5.8,"pm2_5":4.7,"no2":6.9,"co":134.0,"o3":33.0,"so2":2.7,"mosquito_risk":7,"arthritis_risk":5,"migraine_risk":7,"frizz_risk":1,"updated_at":"2026-07-08T23:49:55.356069+05:30"},{"city":"Kolhapur","state":"Maharashtra","latitude":16.705,"longitude":74.2433,"temp":22.8,"humidity":94,"rain":0.0,"pressure":945.8,"uv_index":7.4,"wind_gusts":63.0,"aqi":19,"pm10":4.3,"pm2_5":3.6,"no2":5.0,"co":136.0,"o3":38.0,"so2":2.2,"mosquito_risk":3,"arthritis_risk":5,"migraine_risk":7,"frizz_risk":1,"updated_at":"2026-07-08T23:49:55.356077+05:30"},{"city":"Goa","state":"Goa","latitude":15.2993,"longitude":74.124,"temp":24.5,"humidity":98,"rain":0.1,"pressure":998.1,"uv_index":8.1,"wind_gusts":44.3,"aqi":52,"pm10":28.9,"pm2_5":16.2,"no2":3.2,"co":282.0,"o3":42.0,"so2":1.1,"mosquito_risk":6,"arthritis_risk":5,"migraine_risk":7,"frizz_risk":1,"updated_at":"2026-07-08T23:49:55.356085+05:30"},{"city":"Jodhpur","state":"Rajasthan","latitude":26.2389,"longitude":73.0243,"temp":25.2,"humidity":96,"rain":0.0,"pressure":974.1,"uv_index":6.9,"wind_gusts":56.2,"aqi":150,"pm10":227.2,"pm2_5":57.7,"no2":4.9,"co":207.0,"o3":75.0,"so2":2.5,"mosquito_risk":7,"arthritis_risk":5,"migraine_risk":7,"frizz_risk":1,"updated_at":"2026-07-08T23:49:55.356092+05:30"},{"city":"Udaipur","state":"Rajasthan","latitude":24.5854,"longitude":73.7125,"temp":26.5,"humidity":80,"rain":0.0,"pressure":939.6,"uv_index":8.15,"wind_gusts":37.1,"aqi":73,"pm10":46.1,"pm2_5":26.7,"no2":8.4,"co":150.0,"o3":72.0,"so2":7.6,"mosquito_risk":7,"arthritis_risk":5,"migraine_risk":7,"frizz_risk":1,"updated_at":"2026-07-08T23:49:55.356100+05:30"},{"city":"Kota","state":"Rajasthan","latitude":25.2138,"longitude":75.8648,"temp":26.4,"humidity":89,"rain":0.0,"pressure":970.3,"uv_index":7.6,"wind_gusts":39.6,"aqi":72,"pm10":41.2,"pm2_5":28.1,"no2":11.7,"co":206.0,"o3":64.0,"so2":4.7,"mosquito_risk":7,"arthritis_risk":5,"migraine_risk":7,"frizz_risk":1,"updated_at":"2026-07-08T23:49:55.356108+05:30"},{"city":"Bikaner","state":"Rajasthan","latitude":28.0229,"longitude":73.3119,"temp":29.9,"humidity":78,"rain":0.0,"pressure":972.1,"uv_index":8.05,"wind_gusts":30.6,"aqi":152,"pm10":96.2,"pm2_5":46.2,"no2":3.5,"co":175.0,"o3":72.0,"so2":2.9,"mosquito_risk":7,"arthritis_risk":5,"migraine_risk":7,"frizz_risk":1,"updated_at":"2026-07-08T23:49:55.356115+05:30"},{"city":"Ajmer","state":"Rajasthan","latitude":26.4499,"longitude":74.6399,"temp":25.6,"humidity":87,"rain":0.0,"pressure":946.4,"uv_index":7.9,"wind_gusts":39.6,"aqi":118,"pm10":89.9,"pm2_5":43.8,"no2":10.2,"co":198.0,"o3":62.0,"so2":4.7,"mosquito_risk":7,"arthritis_risk":5,"migraine_risk":7,"frizz_risk":1,"updated_at":"2026-07-08T23:49:55.356123+05:30"},{"city":"Gwalior","state":"Madhya Pradesh","latitude":26.2183,"longitude":78.1828,"temp":26.3,"humidity":93,"rain":0.0,"pressure":973.2,"uv_index":7.15,"wind_gusts":24.8,"aqi":59,"pm10":19.8,"pm2_5":19.0,"no2":11.4,"co":285.0,"o3":84.0,"so2":5.0,"mosquito_risk":7,"arthritis_risk":5,"migraine_risk":7,"frizz_risk":1,"updated_at":"2026-07-08T23:49:55.356131+05:30"},{"city":"Indore","state":"Madhya Pradesh","latitude":22.7196,"longitude":75.8577,"temp":23.8,"humidity":96,"rain":0.4,"pressure":941.4,"uv_index":4.95,"wind_gusts":46.8,"aqi":61,"pm10":39.0,"pm2_5":23.0,"no2":10.7,"co":282.0,"o3":55.0,"so2":9.8,"mosquito_risk":6,"arthritis_risk":5,"migraine_risk":3,"frizz_risk":1,"updated_at":"2026-07-08T23:49:55.356139+05:30"},{"city":"Bhopal","state":"Madhya Pradesh","latitude":23.2599,"longitude":77.4126,"temp":24.4,"humidity":93,"rain":0.1,"pressure":946.5,"uv_index":0.5,"wind_gusts":44.6,"aqi":61,"pm10":30.4,"pm2_5":19.2,"no2":7.7,"co":224.0,"o3":69.0,"so2":4.0,"mosquito_risk":6,"arthritis_risk":5,"migraine_risk":3,"frizz_risk":1,"updated_at":"2026-07-08T23:49:55.356146+05:30"},{"city":"Jabalpur","state":"Madhya Pradesh","latitude":23.1815,"longitude":79.9864,"temp":24.8,"humidity":97,"rain":0.3,"pressure":954.3,"uv_index":5.95,"wind_gusts":43.6,"aqi":45,"pm10":10.4,"pm2_5":10.2,"no2":7.4,"co":272.0,"o3":75.0,"so2":2.2,"mosquito_risk":6,"arthritis_risk":5,"migraine_risk":3,"frizz_risk":1,"updated_at":"2026-07-08T23:49:55.356154+05:30"},{"city":"Ujjain","state":"Madhya Pradesh","latitude":23.1765,"longitude":75.7885,"temp":25.5,"humidity":90,"rain":0.0,"pressure":947.0,"uv_index":1.25,"wind_gusts":43.6,"aqi":61,"pm10":33.3,"pm2_5":20.4,"no2":9.2,"co":226.0,"o3":52.0,"so2":9.1,"mosquito_risk":7,"arthritis_risk":5,"migraine_risk":3,"frizz_risk":1,"updated_at":"2026-07-08T23:49:55.356162+05:30"},{"city":"Visakhapatnam","state":"Andhra Pradesh","latitude":17.6868,"longitude":83.2185,"temp":28.1,"humidity":82,"rain":0.0,"pressure":1000.0,"uv_index":9.0,"wind_gusts":50.4,"aqi":75,"pm10":32.8,"pm2_5":23.3,"no2":12.5,"co":231.0,"o3":84.0,"so2":23.2,"mosquito_risk":7,"arthritis_risk":5,"migraine_risk":4,"frizz_risk":1,"updated_at":"2026-07-08T23:49:55.356170+05:30"},{"city":"Vijayawada","state":"Andhra Pradesh","latitude":16.5062,"longitude":80.648,"temp":29.7,"humidity":83,"rain":0.0,"pressure":998.6,"uv_index":6.3,"wind_gusts":49.3,"aqi":55,"pm10":25.3,"pm2_5":19.4,"no2":7.5,"co":181.0,"o3":81.0,"so2":5.1,"mosquito_risk":7,"arthritis_risk":5,"migraine_risk":7,"frizz_risk":1,"updated_at":"2026-07-08T23:49:55.356177+05:30"},{"city":"Guntur","state":"Andhra Pradesh","latitude":16.3067,"longitude":80.4365,"temp":32.8,"humidity":48,"rain":0.0,"pressure":999.6,"uv_index":5.45,"wind_gusts":53.3,"aqi":54,"pm10":20.3,"pm2_5":16.8,"no2":11.6,"co":191.0,"o3":58.0,"so2":4.2,"mosquito_risk":0,"arthritis_risk":5,"migraine_risk":3,"frizz_risk":1,"updated_at":"2026-07-08T23:49:55.356185+05:30"},{"city":"Nellore","state":"Andhra Pradesh","latitude":14.4426,"longitude":79.9865,"temp":32.4,"humidity":50,"rain":0.0,"pressure":1002.7,"uv_index":8.5,"wind_gusts":48.2,"aqi":39,"pm10":12.7,"pm2_5":8.6,"no2":7.6,"co":174.0,"o3":41.0,"so2":3.7,"mosquito_risk":0,"arthritis_risk":5,"migraine_risk":4,"frizz_risk":1,"updated_at":"2026-07-08T23:49:55.356193+05:30"},{"city":"Kurnool","state":"Andhra Pradesh","latitude":15.8281,"longitude":78.0373,"temp":28.4,"humidity":66,"rain":0.0,"pressure":974.6,"uv_index":4.7,"wind_gusts":60.8,"aqi":29,"pm10":7.0,"pm2_5":5.1,"no2":5.8,"co":124.0,"o3":38.0,"so2":2.2,"mosquito_risk":7,"arthritis_risk":5,"migraine_risk":3,"frizz_risk":1,"updated_at":"2026-07-08T23:49:55.356202+05:30"},{"city":"Kakinada","state":"Andhra Pradesh","latitude":16.9891,"longitude":82.2475,"temp":29.3,"humidity":75,"rain":0.0,"pressure":1003.4,"uv_index":8.45,"wind_gusts":52.6,"aqi":65,"pm10":37.5,"pm2_5":23.8,"no2":2.1,"co":175.0,"o3":99.0,"so2":3.5,"mosquito_risk":7,"arthritis_risk":5,"migraine_risk":4,"frizz_risk":1,"updated_at":"2026-07-08T23:49:55.356209+05:30"},{"city":"Tirupati","state":"Andhra Pradesh","latitude":13.6288,"longitude":79.4192,"temp":30.1,"humidity":58,"rain":0.0,"pressure":989.2,"uv_index":8.4,"wind_gusts":46.1,"aqi":38,"pm10":14.7,"pm2_5":12.0,"no2":16.6,"co":123.0,"o3":32.0,"so2":3.3,"mosquito_risk":0,"arthritis_risk":5,"migraine_risk":7,"frizz_risk":1,"updated_at":"2026-07-08T23:49:55.356217+05:30"},{"city":"Warangal","state":"Telangana","latitude":17.9689,"longitude":79.5941,"temp":28.7,"humidity":67,"rain":0.0,"pressure":974.2,"uv_index":5.55,"wind_gusts":54.0,"aqi":35,"pm10":16.2,"pm2_5":13.6,"no2":11.4,"co":246.0,"o3":47.0,"so2":4.1,"mosquito_risk":7,"arthritis_risk":5,"migraine_risk":3,"frizz_risk":1,"updated_at":"2026-07-08T23:49:55.356224+05:30"},{"city":"Nizamabad","state":"Telangana","latitude":18.6725,"longitude":78.0941,"temp":26.1,"humidity":85,"rain":0.0,"pressure":960.4,"uv_index":5.6,"wind_gusts":59.8,"aqi":30,"pm10":10.2,"pm2_5":8.5,"no2":9.6,"co":246.0,"o3":50.0,"so2":5.4,"mosquito_risk":7,"arthritis_risk":5,"migraine_risk":3,"frizz_risk":1,"updated_at":"2026-07-08T23:49:55.356232+05:30"},{"city":"Mysore","state":"Karnataka","latitude":12.2958,"longitude":76.6396,"temp":21.5,"humidity":91,"rain":0.0,"pressure":928.8,"uv_index":6.15,"wind_gusts":55.8,"aqi":21,"pm10":6.3,"pm2_5":4.5,"no2":5.9,"co":123.0,"o3":36.0,"so2":1.8,"mosquito_risk":3,"arthritis_risk":5,"migraine_risk":7,"frizz_risk":1,"updated_at":"2026-07-08T23:49:55.356239+05:30"},{"city":"Mangalore","state":"Karnataka","latitude":12.9141,"longitude":74.856,"temp":23.7,"humidity":98,"rain":0.4,"pressure":1008.2,"uv_index":8.65,"wind_gusts":52.6,"aqi":56,"pm10":24.0,"pm2_5":15.3,"no2":10.8,"co":326.0,"o3":27.0,"so2":2.8,"mosquito_risk":6,"arthritis_risk":0,"migraine_risk":4,"frizz_risk":1,"updated_at":"2026-07-08T23:49:55.356247+05:30"},{"city":"Hubli-Dharwad","state":"Karnataka","latitude":15.3647,"longitude":75.124,"temp":22.3,"humidity":96,"rain":0.0,"pressure":939.7,"uv_index":7.3,"wind_gusts":71.3,"aqi":19,"pm10":4.4,"pm2_5":3.1,"no2":4.5,"co":112.0,"o3":37.0,"so2":1.3,"mosquito_risk":3,"arthritis_risk":5,"migraine_risk":7,"frizz_risk":1,"updated_at":"2026-07-08T23:49:55.356254+05:30"},{"city":"Belgaum","state":"Karnataka","latitude":15.8497,"longitude":74.4977,"temp":20.9,"humidity":99,"rain":0.1,"pressure":924.1,"uv_index":2.5,"wind_gusts":64.1,"aqi":18,"pm10":4.5,"pm2_5":3.2,"no2":4.3,"co":103.0,"o3":37.0,"so2":1.4,"mosquito_risk":6,"arthritis_risk":5,"migraine_risk":3,"frizz_risk":1,"updated_at":"2026-07-08T23:49:58.812247+05:30"},{"city":"Coimbatore","state":"Tamil Nadu","latitude":11.0168,"longitude":76.9558,"temp":22.7,"humidity":96,"rain":0.0,"pressure":962.0,"uv_index":8.8,"wind_gusts":51.1,"aqi":28,"pm10":12.3,"pm2_5":9.2,"no2":10.3,"co":221.0,"o3":25.0,"so2":3.2,"mosquito_risk":3,"arthritis_risk":5,"migraine_risk":7,"frizz_risk":1,"updated_at":"2026-07-08T23:49:58.812302+05:30"},{"city":"Madurai","state":"Tamil Nadu","latitude":9.9252,"longitude":78.1198,"temp":29.3,"humidity":59,"rain":0.0,"pressure":993.1,"uv_index":8.7,"wind_gusts":52.2,"aqi":64,"pm10":13.7,"pm2_5":10.6,"no2":16.7,"co":150.0,"o3":19.0,"so2":5.0,"mosquito_risk":4,"arthritis_risk":5,"migraine_risk":7,"frizz_risk":1,"updated_at":"2026-07-08T23:49:58.812315+05:30"},{"city":"Trichy","state":"Tamil Nadu","latitude":10.7905,"longitude":78.7047,"temp":28.7,"humidity":65,"rain":0.0,"pressure":999.7,"uv_index":8.75,"wind_gusts":69.1,"aqi":47,"pm10":15.3,"pm2_5":9.0,"no2":5.6,"co":125.0,"o3":37.0,"so2":2.5,"mosquito_risk":7,"arthritis_risk":5,"migraine_risk":7,"frizz_risk":1,"updated_at":"2026-07-08T23:49:58.812326+05:30"},{"city":"Salem","state":"Tamil Nadu","latitude":11.6643,"longitude":78.146,"temp":25.5,"humidity":85,"rain":0.0,"pressure":977.6,"uv_index":8.55,"wind_gusts":43.9,"aqi":57,"pm10":17.9,"pm2_5":12.7,"no2":13.7,"co":326.0,"o3":31.0,"so2":6.1,"mosquito_risk":7,"arthritis_risk":5,"migraine_risk":7,"frizz_risk":1,"updated_at":"2026-07-08T23:49:58.812336+05:30"},{"city":"Tirunelveli","state":"Tamil Nadu","latitude":8.7139,"longitude":77.7567,"temp":29.3,"humidity":62,"rain":0.0,"pressure":1003.7,"uv_index":8.65,"wind_gusts":55.8,"aqi":42,"pm10":14.5,"pm2_5":9.8,"no2":6.7,"co":155.0,"o3":34.0,"so2":2.3,"mosquito_risk":7,"arthritis_risk":5,"migraine_risk":4,"frizz_risk":1,"updated_at":"2026-07-08T23:49:58.812345+05:30"},{"city":"Vellore","state":"Tamil Nadu","latitude":12.9165,"longitude":79.1325,"temp":29.6,"humidity":55,"rain":0.0,"pressure":983.2,"uv_index":8.9,"wind_gusts":50.4,"aqi":40,"pm10":12.7,"pm2_5":8.7,"no2":9.4,"co":129.0,"o3":40.0,"so2":3.4,"mosquito_risk":4,"arthritis_risk":5,"migraine_risk":7,"frizz_risk":1,"updated_at":"2026-07-08T23:49:58.812354+05:30"},{"city":"Erode","state":"Tamil Nadu","latitude":11.341,"longitude":77.7172,"temp":25.4,"humidity":82,"rain":0.0,"pressure":989.6,"uv_index":8.8,"wind_gusts":50.4,"aqi":51,"pm10":18.7,"pm2_5":14.3,"no2":16.3,"co":203.0,"o3":26.0,"so2":4.1,"mosquito_risk":7,"arthritis_risk":5,"migraine_risk":7,"frizz_risk":1,"updated_at":"2026-07-08T23:49:58.812364+05:30"},{"city":"Kochi","state":"Kerala","latitude":9.9312,"longitude":76.2673,"temp":25.1,"humidity":97,"rain":0.1,"pressure":1011.0,"uv_index":8.5,"wind_gusts":40.3,"aqi":58,"pm10":22.9,"pm2_5":19.3,"no2":22.2,"co":303.0,"o3":12.0,"so2":6.2,"mosquito_risk":10,"arthritis_risk":0,"migraine_risk":4,"frizz_risk":1,"updated_at":"2026-07-08T23:49:58.812374+05:30"},{"city":"Thiruvananthapuram","state":"Kerala","latitude":8.5241,"longitude":76.9366,"temp":24.4,"humidity":95,"rain":0.0,"pressure":1010.0,"uv_index":8.45,"wind_gusts":56.2,"aqi":47,"pm10":17.9,"pm2_5":11.4,"no2":6.1,"co":232.0,"o3":38.0,"so2":2.5,"mosquito_risk":3,"arthritis_risk":0,"migraine_risk":4,"frizz_risk":1,"updated_at":"2026-07-08T23:49:58.812382+05:30"},{"city":"Kozhikode","state":"Kerala","latitude":11.2588,"longitude":75.7804,"temp":24.0,"humidity":95,"rain":0.1,"pressure":1010.1,"uv_index":8.15,"wind_gusts":38.9,"aqi":48,"pm10":21.4,"pm2_5":13.8,"no2":4.2,"co":369.0,"o3":39.0,"so2":1.7,"mosquito_risk":6,"arthritis_risk":0,"migraine_risk":4,"frizz_risk":1,"updated_at":"2026-07-08T23:49:58.812390+05:30"},{"city":"Thrissur","state":"Kerala","latitude":10.5276,"longitude":76.2144,"temp":24.1,"humidity":99,"rain":0.1,"pressure":1009.4,"uv_index":8.45,"wind_gusts":40.0,"aqi":58,"pm10":27.8,"pm2_5":24.1,"no2":20.7,"co":826.0,"o3":10.0,"so2":5.1,"mosquito_risk":6,"arthritis_risk":0,"migraine_risk":4,"frizz_risk":1,"updated_at":"2026-07-08T23:49:58.812400+05:30"},{"city":"Kannur","state":"Kerala","latitude":11.8745,"longitude":75.3704,"temp":23.8,"humidity":98,"rain":0.0,"pressure":1009.3,"uv_index":8.25,"wind_gusts":29.9,"aqi":51,"pm10":29.3,"pm2_5":22.1,"no2":22.5,"co":243.0,"o3":13.0,"so2":4.6,"mosquito_risk":3,"arthritis_risk":0,"migraine_risk":4,"frizz_risk":1,"updated_at":"2026-07-08T23:49:58.812409+05:30"},{"city":"Patna","state":"Bihar","latitude":25.5941,"longitude":85.1376,"temp":27.8,"humidity":94,"rain":0.2,"pressure":994.5,"uv_index":7.25,"wind_gusts":26.6,"aqi":83,"pm10":30.6,"pm2_5":30.3,"no2":23.9,"co":259.0,"o3":47.0,"so2":11.9,"mosquito_risk":10,"arthritis_risk":5,"migraine_risk":7,"frizz_risk":1,"updated_at":"2026-07-08T23:49:58.812418+05:30"},{"city":"Gaya","state":"Bihar","latitude":24.7914,"longitude":85.0002,"temp":27.6,"humidity":93,"rain":0.0,"pressure":987.0,"uv_index":6.95,"wind_gusts":32.4,"aqi":62,"pm10":25.7,"pm2_5":24.4,"no2":18.4,"co":331.0,"o3":48.0,"so2":15.3,"mosquito_risk":7,"arthritis_risk":5,"migraine_risk":7,"frizz_risk":1,"updated_at":"2026-07-08T23:49:58.812426+05:30"},{"city":"Muzaffarpur","state":"Bihar","latitude":26.1209,"longitude":85.3647,"temp":27.0,"humidity":96,"rain":0.1,"pressure":994.8,"uv_index":7.65,"wind_gusts":27.7,"aqi":81,"pm10":29.9,"pm2_5":29.6,"no2":20.6,"co":408.0,"o3":58.0,"so2":9.6,"mosquito_risk":10,"arthritis_risk":5,"migraine_risk":7,"frizz_risk":1,"updated_at":"2026-07-08T23:49:58.812435+05:30"},{"city":"Bhagalpur","state":"Bihar","latitude":25.2425,"longitude":87.0117,"temp":26.9,"humidity":97,"rain":0.1,"pressure":995.8,"uv_index":6.1,"wind_gusts":23.0,"aqi":93,"pm10":35.4,"pm2_5":34.2,"no2":21.2,"co":358.0,"o3":55.0,"so2":18.5,"mosquito_risk":10,"arthritis_risk":5,"migraine_risk":7,"frizz_risk":1,"updated_at":"2026-07-08T23:49:58.812443+05:30"},{"city":"Ranchi","state":"Jharkhand","latitude":23.3441,"longitude":85.3096,"temp":25.3,"humidity":81,"rain":0.0,"pressure":932.3,"uv_index":8.0,"wind_gusts":47.5,"aqi":55,"pm10":13.7,"pm2_5":12.2,"no2":9.3,"co":184.0,"o3":62.0,"so2":10.0,"mosquito_risk":7,"arthritis_risk":5,"migraine_risk":7,"frizz_risk":1,"updated_at":"2026-07-08T23:49:58.812452+05:30"},{"city":"Jamshedpur","state":"Jharkhand","latitude":22.8046,"longitude":86.2029,"temp":28.1,"humidity":84,"rain":0.0,"pressure":985.2,"uv_index":5.35,"wind_gusts":36.0,"aqi":77,"pm10":35.6,"pm2_5":31.3,"no2":25.1,"co":520.0,"o3":46.0,"so2":28.5,"mosquito_risk":7,"arthritis_risk":5,"migraine_risk":3,"frizz_risk":1,"updated_at":"2026-07-08T23:49:58.812460+05:30"},{"city":"Dhanbad","state":"Jharkhand","latitude":23.7957,"longitude":86.4304,"temp":26.3,"humidity":97,"rain":0.0,"pressure":974.2,"uv_index":7.3,"wind_gusts":34.9,"aqi":118,"pm10":50.3,"pm2_5":47.5,"no2":48.8,"co":528.0,"o3":26.0,"so2":104.1,"mosquito_risk":7,"arthritis_risk":5,"migraine_risk":7,"frizz_risk":1,"updated_at":"2026-07-08T23:49:58.812469+05:30"},{"city":"Bokaro","state":"Jharkhand","latitude":23.6693,"longitude":86.1511,"temp":26.7,"humidity":96,"rain":0.0,"pressure":978.0,"uv_index":8.0,"wind_gusts":34.2,"aqi":93,"pm10":53.9,"pm2_5":49.5,"no2":50.8,"co":2382.0,"o3":18.0,"so2":98.8,"mosquito_risk":7,"arthritis_risk":5,"migraine_risk":7,"frizz_risk":1,"updated_at":"2026-07-08T23:49:58.812477+05:30"},{"city":"Bhubaneswar","state":"Odisha","latitude":20.2961,"longitude":85.8245,"temp":28.2,"humidity":81,"rain":0.0,"pressure":997.8,"uv_index":7.85,"wind_gusts":56.9,"aqi":67,"pm10":22.1,"pm2_5":15.9,"no2":4.8,"co":131.0,"o3":68.0,"so2":4.1,"mosquito_risk":7,"arthritis_risk":5,"migraine_risk":7,"frizz_risk":1,"updated_at":"2026-07-08T23:49:58.812486+05:30"},{"city":"Cuttack","state":"Odisha","latitude":20.4625,"longitude":85.8828,"temp":28.3,"humidity":80,"rain":0.0,"pressure":999.4,"uv_index":7.45,"wind_gusts":47.2,"aqi":67,"pm10":22.1,"pm2_5":15.9,"no2":4.8,"co":139.0,"o3":68.0,"so2":4.1,"mosquito_risk":7,"arthritis_risk":5,"migraine_risk":7,"frizz_risk":1,"updated_at":"2026-07-08T23:49:58.812494+05:30"},{"city":"Rourkela","state":"Odisha","latitude":22.2604,"longitude":84.8536,"temp":27.7,"humidity":83,"rain":0.0,"pressure":979.3,"uv_index":6.2,"wind_gusts":43.9,"aqi":60,"pm10":24.6,"pm2_5":21.2,"no2":16.4,"co":250.0,"o3":41.0,"so2":8.0,"mosquito_risk":7,"arthritis_risk":5,"migraine_risk":7,"frizz_risk":1,"updated_at":"2026-07-08T23:49:58.812503+05:30"},{"city":"Raipur","state":"Chhattisgarh","latitude":21.2514,"longitude":81.6296,"temp":27.6,"humidity":77,"rain":0.0,"pressure":968.5,"uv_index":6.9,"wind_gusts":55.1,"aqi":53,"pm10":12.9,"pm2_5":12.8,"no2":19.1,"co":205.0,"o3":60.0,"so2":32.5,"mosquito_risk":7,"arthritis_risk":5,"migraine_risk":7,"frizz_risk":1,"updated_at":"2026-07-08T23:49:58.812511+05:30"},{"city":"Bhilai","state":"Chhattisgarh","latitude":21.1938,"longitude":81.3509,"temp":27.4,"humidity":77,"rain":0.0,"pressure":968.9,"uv_index":8.05,"wind_gusts":58.7,"aqi":52,"pm10":11.3,"pm2_5":11.2,"no2":17.9,"co":374.0,"o3":63.0,"so2":30.6,"mosquito_risk":7,"arthritis_risk":5,"migraine_risk":7,"frizz_risk":1,"updated_at":"2026-07-08T23:49:58.812518+05:30"},{"city":"Guwahati","state":"Assam","latitude":26.1158,"longitude":91.7086,"temp":26.8,"humidity":97,"rain":0.0,"pressure":996.7,"uv_index":6.3,"wind_gusts":20.2,"aqi":49,"pm10":11.8,"pm2_5":11.4,"no2":10.0,"co":220.0,"o3":44.0,"so2":2.3,"mosquito_risk":7,"arthritis_risk":5,"migraine_risk":7,"frizz_risk":1,"updated_at":"2026-07-08T23:49:58.812526+05:30"},{"city":"Agartala","state":"Tripura","latitude":23.8315,"longitude":91.2868,"temp":24.6,"humidity":99,"rain":0.4,"pressure":1002.7,"uv_index":5.95,"wind_gusts":36.4,"aqi":50,"pm10":7.4,"pm2_5":6.6,"no2":7.5,"co":149.0,"o3":57.0,"so2":1.0,"mosquito_risk":6,"arthritis_risk":5,"migraine_risk":0,"frizz_risk":1,"updated_at":"2026-07-08T23:49:58.812533+05:30"},{"city":"Shillong","state":"Meghalaya","latitude":25.5788,"longitude":91.8933,"temp":20.5,"humidity":93,"rain":0.0,"pressure":854.5,"uv_index":2.85,"wind_gusts":25.9,"aqi":28,"pm10":1.7,"pm2_5":1.6,"no2":7.0,"co":227.0,"o3":54.0,"so2":2.8,"mosquito_risk":3,"arthritis_risk":5,"migraine_risk":3,"frizz_risk":1,"updated_at":"2026-07-08T23:49:58.812540+05:30"},{"city":"Imphal","state":"Manipur","latitude":24.817,"longitude":93.9368,"temp":22.9,"humidity":98,"rain":0.0,"pressure":920.3,"uv_index":1.15,"wind_gusts":29.5,"aqi":23,"pm10":7.9,"pm2_5":7.4,"no2":9.0,"co":351.0,"o3":38.0,"so2":1.8,"mosquito_risk":3,"arthritis_risk":5,"migraine_risk":3,"frizz_risk":1,"updated_at":"2026-07-08T23:49:58.812548+05:30"},{"city":"Aizawl","state":"Mizoram","latitude":23.7271,"longitude":92.7176,"temp":18.7,"humidity":98,"rain":0.1,"pressure":889.5,"uv_index":0.95,"wind_gusts":41.4,"aqi":25,"pm10":0.9,"pm2_5":0.8,"no2":2.5,"co":117.0,"o3":52.0,"so2":0.6,"mosquito_risk":6,"arthritis_risk":10,"migraine_risk":3,"frizz_risk":1,"updated_at":"2026-07-08T23:49:58.812556+05:30"},{"city":"Kohima","state":"Nagaland","latitude":25.6701,"longitude":94.1077,"temp":20.9,"humidity":93,"rain":0.0,"pressure":852.9,"uv_index":6.2,"wind_gusts":19.1,"aqi":22,"pm10":2.0,"pm2_5":1.9,"no2":4.5,"co":304.0,"o3":48.0,"so2":1.0,"mosquito_risk":3,"arthritis_risk":5,"migraine_risk":7,"frizz_risk":1,"updated_at":"2026-07-08T23:49:58.812563+05:30"},{"city":"Gangtok","state":"Sikkim","latitude":27.3314,"longitude":88.6138,"temp":19.2,"humidity":97,"rain":0.1,"pressure":834.5,"uv_index":5.2,"wind_gusts":32.4,"aqi":43,"pm10":5.4,"pm2_5":5.4,"no2":5.3,"co":302.0,"o3":92.0,"so2":2.0,"mosquito_risk":6,"arthritis_risk":10,"migraine_risk":3,"frizz_risk":1,"updated_at":"2026-07-08T23:49:58.812570+05:30"},{"city":"Siliguri","state":"West Bengal","latitude":26.7271,"longitude":88.3953,"temp":25.4,"humidity":97,"rain":0.1,"pressure":987.7,"uv_index":7.35,"wind_gusts":27.0,"aqi":59,"pm10":22.5,"pm2_5":22.4,"no2":13.4,"co":379.0,"o3":83.0,"so2":5.3,"mosquito_risk":10,"arthritis_risk":5,"migraine_risk":7,"frizz_risk":1,"updated_at":"2026-07-08T23:50:04.114869+05:30"},{"city":"Durgapur","state":"West Bengal","latitude":23.5204,"longitude":87.3119,"temp":27.3,"humidity":95,"rain":0.1,"pressure":989.4,"uv_index":8.55,"wind_gusts":36.7,"aqi":102,"pm10":37.6,"pm2_5":34.1,"no2":25.3,"co":335.0,"o3":44.0,"so2":30.5,"mosquito_risk":10,"arthritis_risk":5,"migraine_risk":7,"frizz_risk":1,"updated_at":"2026-07-08T23:50:04.114903+05:30"},{"city":"Asansol","state":"West Bengal","latitude":23.6739,"longitude":86.9524,"temp":27.4,"humidity":93,"rain":0.1,"pressure":988.0,"uv_index":7.5,"wind_gusts":35.6,"aqi":97,"pm10":32.5,"pm2_5":29.7,"no2":26.6,"co":718.0,"o3":45.0,"so2":34.2,"mosquito_risk":10,"arthritis_risk":5,"migraine_risk":7,"frizz_risk":1,"updated_at":"2026-07-08T23:50:04.114915+05:30"},{"city":"Pondicherry","state":"Puducherry","latitude":11.9139,"longitude":79.8145,"temp":28.5,"humidity":80,"rain":0.0,"pressure":1007.3,"uv_index":8.0,"wind_gusts":46.4,"aqi":74,"pm10":24.6,"pm2_5":17.8,"no2":18.0,"co":256.0,"o3":50.0,"so2":8.7,"mosquito_risk":7,"arthritis_risk":5,"migraine_risk":4,"frizz_risk":1,"updated_at":"2026-07-08T23:50:04.114926+05:30"},{"city":"Port Blair","state":"Andaman and Nicobar Islands","latitude":11.6234,"longitude":92.7265,"temp":27.9,"humidity":74,"rain":0.0,"pressure":1008.0,"uv_index":7.9,"wind_gusts":38.5,"aqi":59,"pm10":22.1,"pm2_5":13.1,"no2":0.2,"co":90.0,"o3":56.0,"so2":0.4,"mosquito_risk":7,"arthritis_risk":0,"migraine_risk":4,"frizz_risk":1,"updated_at":"2026-07-08T23:50:04.114935+05:30"},{"city":"Haridwar","state":"Uttarakhand","latitude":29.9457,"longitude":78.1642,"temp":26.6,"humidity":97,"rain":0.3,"pressure":966.0,"uv_index":5.2,"wind_gusts":22.3,"aqi":84,"pm10":51.6,"pm2_5":50.5,"no2":51.6,"co":331.0,"o3":26.0,"so2":13.0,"mosquito_risk":10,"arthritis_risk":5,"migraine_risk":3,"frizz_risk":1,"updated_at":"2026-07-08T23:50:04.114946+05:30"},{"city":"Rishikesh","state":"Uttarakhand","latitude":30.0869,"longitude":78.2676,"temp":26.1,"humidity":94,"rain":0.3,"pressure":958.9,"uv_index":5.8,"wind_gusts":14.8,"aqi":57,"pm10":12.6,"pm2_5":12.4,"no2":11.5,"co":454.0,"o3":83.0,"so2":3.8,"mosquito_risk":10,"arthritis_risk":5,"migraine_risk":3,"frizz_risk":1,"updated_at":"2026-07-08T23:50:04.114955+05:30"},{"city":"Nainital","state":"Uttarakhand","latitude":29.3919,"longitude":79.4542,"temp":16.9,"humidity":99,"rain":0.2,"pressure":800.5,"uv_index":8.05,"wind_gusts":39.6,"aqi":48,"pm10":12.7,"pm2_5":12.1,"no2":8.4,"co":253.0,"o3":80.0,"so2":2.8,"mosquito_risk":6,"arthritis_risk":10,"migraine_risk":7,"frizz_risk":1,"updated_at":"2026-07-08T23:50:04.114965+05:30"},{"city":"Mussoorie","state":"Uttarakhand","latitude":30.4599,"longitude":78.0664,"temp":16.8,"humidity":100,"rain":0.1,"pressure":797.9,"uv_index":1.0,"wind_gusts":18.7,"aqi":61,"pm10":24.0,"pm2_5":23.7,"no2":42.6,"co":353.0,"o3":45.0,"so2":9.5,"mosquito_risk":6,"arthritis_risk":10,"migraine_risk":3,"frizz_risk":1,"updated_at":"2026-07-08T23:50:04.114973+05:30"},{"city":"Dharamshala","state":"Himachal Pradesh","latitude":32.219,"longitude":76.3234,"temp":21.8,"humidity":93,"rain":0.0,"pressure":863.5,"uv_index":7.75,"wind_gusts":24.8,"aqi":45,"pm10":8.1,"pm2_5":7.9,"no2":18.7,"co":728.0,"o3":34.0,"so2":0.8,"mosquito_risk":3,"arthritis_risk":5,"migraine_risk":7,"frizz_risk":1,"updated_at":"2026-07-08T23:50:04.114983+05:30"},{"city":"Dalhousie","state":"Himachal Pradesh","latitude":32.5387,"longitude":75.971,"temp":17.1,"humidity":97,"rain":0.0,"pressure":799.4,"uv_index":8.2,"wind_gusts":26.3,"aqi":109,"pm10":54.6,"pm2_5":51.7,"no2":43.5,"co":857.0,"o3":76.0,"so2":5.6,"mosquito_risk":3,"arthritis_risk":10,"migraine_risk":7,"frizz_risk":1,"updated_at":"2026-07-08T23:50:04.114992+05:30"},{"city":"Patiala","state":"Punjab","latitude":30.3398,"longitude":76.3869,"temp":27.5,"humidity":90,"rain":0.0,"pressure":969.8,"uv_index":6.2,"wind_gusts":28.4,"aqi":134,"pm10":56.0,"pm2_5":55.9,"no2":41.9,"co":796.0,"o3":27.0,"so2":12.2,"mosquito_risk":7,"arthritis_risk":5,"migraine_risk":7,"frizz_risk":1,"updated_at":"2026-07-08T23:50:04.115001+05:30"},{"city":"Bhatinda","state":"Punjab","latitude":30.211,"longitude":74.9455,"temp":29.2,"humidity":82,"rain":0.0,"pressure":974.5,"uv_index":8.05,"wind_gusts":37.1,"aqi":513,"pm10":371.6,"pm2_5":90.6,"no2":18.8,"co":472.0,"o3":72.0,"so2":11.3,"mosquito_risk":7,"arthritis_risk":5,"migraine_risk":7,"frizz_risk":1,"updated_at":"2026-07-08T23:50:04.115009+05:30"},{"city":"Rohtak","state":"Haryana","latitude":28.8955,"longitude":76.6066,"temp":26.3,"humidity":95,"rain":0.2,"pressure":972.8,"uv_index":6.05,"wind_gusts":31.3,"aqi":123,"pm10":48.8,"pm2_5":48.7,"no2":45.8,"co":595.0,"o3":34.0,"so2":18.7,"mosquito_risk":10,"arthritis_risk":5,"migraine_risk":7,"frizz_risk":1,"updated_at":"2026-07-08T23:50:04.115018+05:30"},{"city":"Panipat","state":"Haryana","latitude":29.3909,"longitude":76.9635,"temp":26.6,"humidity":95,"rain":0.6,"pressure":971.9,"uv_index":6.0,"wind_gusts":25.2,"aqi":113,"pm10":51.7,"pm2_5":51.5,"no2":39.7,"co":781.0,"o3":32.0,"so2":15.2,"mosquito_risk":10,"arthritis_risk":5,"migraine_risk":3,"frizz_risk":1,"updated_at":"2026-07-08T23:50:04.115027+05:30"},{"city":"Mathura","state":"Uttar Pradesh","latitude":27.4924,"longitude":77.6737,"temp":26.4,"humidity":96,"rain":0.0,"pressure":976.5,"uv_index":4.85,"wind_gusts":37.1,"aqi":85,"pm10":19.6,"pm2_5":19.4,"no2":17.8,"co":306.0,"o3":75.0,"so2":4.2,"mosquito_risk":7,"arthritis_risk":5,"migraine_risk":3,"frizz_risk":1,"updated_at":"2026-07-08T23:50:04.115035+05:30"},{"city":"Vrindavan","state":"Uttar Pradesh","latitude":27.5823,"longitude":77.7027,"temp":26.6,"humidity":94,"rain":0.1,"pressure":976.9,"uv_index":5.2,"wind_gusts":36.4,"aqi":85,"pm10":19.6,"pm2_5":19.4,"no2":17.8,"co":296.0,"o3":75.0,"so2":4.2,"mosquito_risk":10,"arthritis_risk":5,"migraine_risk":3,"frizz_risk":1,"updated_at":"2026-07-08T23:50:04.115044+05:30"},{"city":"Ayodhya","state":"Uttar Pradesh","latitude":26.7922,"longitude":82.1998,"temp":26.9,"humidity":96,"rain":0.3,"pressure":988.2,"uv_index":6.6,"wind_gusts":41.8,"aqi":76,"pm10":20.5,"pm2_5":20.4,"no2":12.2,"co":301.0,"o3":84.0,"so2":5.4,"mosquito_risk":10,"arthritis_risk":5,"migraine_risk":7,"frizz_risk":1,"updated_at":"2026-07-08T23:50:04.115052+05:30"},{"city":"Ratlam","state":"Madhya Pradesh","latitude":23.3315,"longitude":75.0367,"temp":25.1,"humidity":97,"rain":0.4,"pressure":948.0,"uv_index":1.4,"wind_gusts":43.9,"aqi":60,"pm10":30.9,"pm2_5":19.6,"no2":10.4,"co":195.0,"o3":49.0,"so2":11.3,"mosquito_risk":10,"arthritis_risk":5,"migraine_risk":3,"frizz_risk":1,"updated_at":"2026-07-08T23:50:04.115061+05:30"},{"city":"Sagar","state":"Madhya Pradesh","latitude":23.8388,"longitude":78.7378,"temp":24.2,"humidity":97,"rain":0.1,"pressure":942.3,"uv_index":4.55,"wind_gusts":41.8,"aqi":52,"pm10":8.2,"pm2_5":6.6,"no2":4.9,"co":202.0,"o3":82.0,"so2":2.2,"mosquito_risk":6,"arthritis_risk":5,"migraine_risk":3,"frizz_risk":1,"updated_at":"2026-07-08T23:50:04.115069+05:30"},{"city":"Satna","state":"Madhya Pradesh","latitude":24.6005,"longitude":80.8322,"temp":25.8,"humidity":93,"rain":0.0,"pressure":963.2,"uv_index":8.55,"wind_gusts":46.1,"aqi":47,"pm10":10.7,"pm2_5":10.4,"no2":6.7,"co":248.0,"o3":85.0,"so2":5.0,"mosquito_risk":7,"arthritis_risk":5,"migraine_risk":7,"frizz_risk":1,"updated_at":"2026-07-08T23:50:04.115078+05:30"},{"city":"Akola","state":"Maharashtra","latitude":20.7002,"longitude":77.0082,"temp":27.3,"humidity":78,"rain":0.0,"pressure":969.7,"uv_index":6.9,"wind_gusts":38.9,"aqi":32,"pm10":13.5,"pm2_5":11.7,"no2":14.1,"co":263.0,"o3":51.0,"so2":11.8,"mosquito_risk":7,"arthritis_risk":5,"migraine_risk":7,"frizz_risk":1,"updated_at":"2026-07-08T23:50:04.115087+05:30"},{"city":"Amravati","state":"Maharashtra","latitude":20.9374,"longitude":77.7796,"temp":26.1,"humidity":85,"rain":0.0,"pressure":961.9,"uv_index":8.0,"wind_gusts":41.4,"aqi":32,"pm10":13.2,"pm2_5":11.5,"no2":15.3,"co":171.0,"o3":51.0,"so2":13.1,"mosquito_risk":7,"arthritis_risk":5,"migraine_risk":7,"frizz_risk":1,"updated_at":"2026-07-08T23:50:04.115097+05:30"},{"city":"Latur","state":"Maharashtra","latitude":18.4088,"longitude":76.5604,"temp":25.3,"humidity":79,"rain":0.0,"pressure":936.1,"uv_index":5.65,"wind_gusts":60.1,"aqi":30,"pm10":10.0,"pm2_5":6.8,"no2":7.9,"co":165.0,"o3":42.0,"so2":5.2,"mosquito_risk":7,"arthritis_risk":5,"migraine_risk":3,"frizz_risk":1,"updated_at":"2026-07-08T23:50:04.115107+05:30"},{"city":"Nanded","state":"Maharashtra","latitude":19.1383,"longitude":77.3091,"temp":27.1,"humidity":76,"rain":0.0,"pressure":964.1,"uv_index":7.7,"wind_gusts":55.1,"aqi":29,"pm10":9.7,"pm2_5":8.3,"no2":10.7,"co":212.0,"o3":44.0,"so2":4.2,"mosquito_risk":7,"arthritis_risk":5,"migraine_risk":7,"frizz_risk":1,"updated_at":"2026-07-08T23:50:04.115128+05:30"},{"city":"Gulbarga","state":"Karnataka","latitude":17.3297,"longitude":76.8343,"temp":25.1,"humidity":87,"rain":0.0,"pressure":955.8,"uv_index":6.0,"wind_gusts":65.2,"aqi":25,"pm10":6.9,"pm2_5":4.9,"no2":7.4,"co":133.0,"o3":34.0,"so2":3.0,"mosquito_risk":7,"arthritis_risk":5,"migraine_risk":3,"frizz_risk":1,"updated_at":"2026-07-08T23:50:04.115145+05:30"},{"city":"Bidar","state":"Karnataka","latitude":17.9104,"longitude":77.5199,"temp":23.8,"humidity":93,"rain":0.0,"pressure":931.9,"uv_index":7.1,"wind_gusts":64.1,"aqi":31,"pm10":8.7,"pm2_5":6.4,"no2":8.1,"co":177.0,"o3":46.0,"so2":3.2,"mosquito_risk":3,"arthritis_risk":5,"migraine_risk":7,"frizz_risk":1,"updated_at":"2026-07-08T23:50:04.115160+05:30"},{"city":"Hospet","state":"Karnataka","latitude":15.2689,"longitude":76.3909,"temp":24.3,"humidity":85,"rain":0.0,"pressure":954.6,"uv_index":7.25,"wind_gusts":67.7,"aqi":22,"pm10":5.2,"pm2_5":3.6,"no2":4.9,"co":120.0,"o3":36.0,"so2":1.7,"mosquito_risk":3,"arthritis_risk":5,"migraine_risk":7,"frizz_risk":1,"updated_at":"2026-07-08T23:50:04.115172+05:30"},{"city":"Tirupur","state":"Tamil Nadu","latitude":11.1085,"longitude":77.3411,"temp":23.6,"humidity":91,"rain":0.0,"pressure":975.6,"uv_index":8.85,"wind_gusts":56.2,"aqi":52,"pm10":20.1,"pm2_5":16.5,"no2":22.0,"co":179.0,"o3":17.0,"so2":5.7,"mosquito_risk":3,"arthritis_risk":5,"migraine_risk":7,"frizz_risk":1,"updated_at":"2026-07-08T23:50:04.115186+05:30"},{"city":"Alappuzha","state":"Kerala","latitude":9.4981,"longitude":76.3388,"temp":25.6,"humidity":94,"rain":0.0,"pressure":1011.1,"uv_index":8.5,"wind_gusts":43.9,"aqi":55,"pm10":21.1,"pm2_5":15.0,"no2":15.3,"co":209.0,"o3":27.0,"so2":5.9,"mosquito_risk":7,"arthritis_risk":0,"migraine_risk":4,"frizz_risk":1,"updated_at":"2026-07-08T23:50:04.115201+05:30"},{"city":"Munnar","state":"Kerala","latitude":10.0889,"longitude":77.0595,"temp":16.4,"humidity":98,"rain":0.0,"pressure":857.6,"uv_index":6.75,"wind_gusts":60.1,"aqi":27,"pm10":10.4,"pm2_5":7.9,"no2":9.3,"co":90.0,"o3":20.0,"so2":1.4,"mosquito_risk":3,"arthritis_risk":10,"migraine_risk":7,"frizz_risk":1,"updated_at":"2026-07-08T23:50:04.115213+05:30"},{"city":"Silchar","state":"Assam","latitude":24.8333,"longitude":92.7789,"temp":25.6,"humidity":97,"rain":0.2,"pressure":1001.8,"uv_index":1.0,"wind_gusts":37.1,"aqi":27,"pm10":6.5,"pm2_5":6.0,"no2":6.1,"co":208.0,"o3":46.0,"so2":2.3,"mosquito_risk":10,"arthritis_risk":5,"migraine_risk":0,"frizz_risk":1,"updated_at":"2026-07-08T23:50:04.115222+05:30"},{"city":"Dibrugarh","state":"Assam","latitude":27.4728,"longitude":94.912,"temp":25.7,"humidity":99,"rain":0.1,"pressure":990.9,"uv_index":7.55,"wind_gusts":27.7,"aqi":47,"pm10":15.3,"pm2_5":14.8,"no2":15.9,"co":227.0,"o3":37.0,"so2":1.9,"mosquito_risk":10,"arthritis_risk":5,"migraine_risk":7,"frizz_risk":1,"updated_at":"2026-07-08T23:50:04.115230+05:30"}]