[{"city":"Delhi","state":"Delhi","latitude":28.6139,"longitude":77.209,"temp":24.0,"humidity":53,"rain":0.0,"pressure":980.6,"uv_index":6.05,"wind_gusts":22.7,"aqi":138,"pm10":192.8,"pm2_5":90.6,"mosquito_risk":0,"arthritis_risk":5,"migraine_risk":7,"frizz_risk":0,"updated_at":"2026-03-29T01:02:23.165271+05:30"},{"city":"Mumbai","state":"Maharashtra","latitude":19.076,"longitude":72.8777,"temp":27.4,"humidity":80,"rain":0.0,"pressure":1008.0,"uv_index":8.0,"wind_gusts":23.0,"aqi":68,"pm10":58.1,"pm2_5":17.3,"mosquito_risk":7,"arthritis_risk":0,"migraine_risk":4,"frizz_risk":1,"updated_at":"2026-03-29T01:02:23.165320+05:30"},{"city":"Bangalore","state":"Karnataka","latitude":12.9716,"longitude":77.5946,"temp":22.8,"humidity":75,"rain":0.0,"pressure":911.1,"uv_index":9.5,"wind_gusts":31.3,"aqi":114,"pm10":46.7,"pm2_5":42.4,"mosquito_risk":3,"arthritis_risk":5,"migraine_risk":7,"frizz_risk":1,"updated_at":"2026-03-29T01:02:23.165335+05:30"},{"city":"Hyderabad","state":"Telangana","latitude":17.385,"longitude":78.4867,"temp":27.6,"humidity":51,"rain":0.0,"pressure":951.3,"uv_index":9.05,"wind_gusts":24.1,"aqi":108,"pm10":55.4,"pm2_5":50.8,"mosquito_risk":4,"arthritis_risk":5,"migraine_risk":7,"frizz_risk":1,"updated_at":"2026-03-29T01:02:23.165345+05:30"},{"city":"Chennai","state":"Tamil Nadu","latitude":13.0827,"longitude":80.2707,"temp":26.5,"humidity":87,"rain":0.0,"pressure":1006.2,"uv_index":9.3,"wind_gusts":36.0,"aqi":65,"pm10":20.6,"pm2_5":14.6,"mosquito_risk":7,"arthritis_risk":5,"migraine_risk":4,"frizz_risk":1,"updated_at":"2026-03-29T01:02:23.165354+05:30"},{"city":"Kolkata","state":"West Bengal","latitude":22.5726,"longitude":88.3639,"temp":22.8,"humidity":91,"rain":0.0,"pressure":1006.1,"uv_index":8.45,"wind_gusts":27.0,"aqi":139,"pm10":39.3,"pm2_5":35.3,"mosquito_risk":3,"arthritis_risk":5,"migraine_risk":4,"frizz_risk":1,"updated_at":"2026-03-29T01:02:23.165363+05:30"},{"city":"Pune","state":"Maharashtra","latitude":18.5204,"longitude":73.8567,"temp":23.3,"humidity":46,"rain":0.0,"pressure":947.2,"uv_index":8.55,"wind_gusts":32.4,"aqi":70,"pm10":25.3,"pm2_5":21.5,"mosquito_risk":0,"arthritis_risk":5,"migraine_risk":7,"frizz_risk":0,"updated_at":"2026-03-29T01:02:23.165375+05:30"},{"city":"Ahmedabad","state":"Gujarat","latitude":23.0225,"longitude":72.5714,"temp":27.0,"humidity":62,"rain":0.0,"pressure":1000.4,"uv_index":7.85,"wind_gusts":25.9,"aqi":34,"pm10":15.6,"pm2_5":6.8,"mosquito_risk":7,"arthritis_risk":5,"migraine_risk":4,"frizz_risk":1,"updated_at":"2026-03-29T01:02:23.165383+05:30"},{"city":"Jaipur","state":"Rajasthan","latitude":26.9124,"longitude":75.7873,"temp":27.3,"humidity":40,"rain":0.0,"pressure":957.2,"uv_index":7.15,"wind_gusts":33.1,"aqi":86,"pm10":156.5,"pm2_5":32.7,"mosquito_risk":4,"arthritis_risk":5,"migraine_risk":7,"frizz_risk":0,"updated_at":"2026-03-29T01:02:23.165390+05:30"},{"city":"Lucknow","state":"Uttar Pradesh","latitude":26.8467,"longitude":80.9462,"temp":24.3,"humidity":58,"rain":0.0,"pressure":991.7,"uv_index":7.25,"wind_gusts":18.7,"aqi":125,"pm10":235.6,"pm2_5":55.1,"mosquito_risk":0,"arthritis_risk":5,"migraine_risk":7,"frizz_risk":0,"updated_at":"2026-03-29T01:02:23.165398+05:30"},{"city":"Kanpur","state":"Uttar Pradesh","latitude":26.4499,"longitude":80.3319,"temp":23.8,"humidity":63,"rain":0.0,"pressure":989.8,"uv_index":7.1,"wind_gusts":18.0,"aqi":186,"pm10":312.9,"pm2_5":62.9,"mosquito_risk":3,"arthritis_risk":5,"migraine_risk":7,"frizz_risk":1,"updated_at":"2026-03-29T01:02:23.165407+05:30"},{"city":"Chandigarh","state":"Chandigarh","latitude":30.7333,"longitude":76.7794,"temp":21.9,"humidity":75,"rain":0.0,"pressure":966.6,"uv_index":6.6,"wind_gusts":27.4,"aqi":74,"pm10":39.5,"pm2_5":38.3,"mosquito_risk":3,"arthritis_risk":5,"migraine_risk":7,"frizz_risk":1,"updated_at":"2026-03-29T01:02:23.165414+05:30"},{"city":"Srinagar","state":"Jammu and Kashmir","latitude":34.0837,"longitude":74.7973,"temp":11.8,"humidity":83,"rain":0.0,"pressure":836.4,"uv_index":7.4,"wind_gusts":15.8,"aqi":92,"pm10":70.5,"pm2_5":59.5,"mosquito_risk":3,"arthritis_risk":10,"migraine_risk":7,"frizz_risk":0,"updated_at":"2026-03-29T01:02:23.165422+05:30"},{"city":"Jammu","state":"Jammu and Kashmir","latitude":32.7266,"longitude":74.857,"temp":21.7,"humidity":84,"rain":0.0,"pressure":971.1,"uv_index":7.35,"wind_gusts":20.5,"aqi":80,"pm10":48.4,"pm2_5":44.9,"mosquito_risk":3,"arthritis_risk":5,"migraine_risk":7,"frizz_risk":1,"updated_at":"2026-03-29T01:02:23.165430+05:30"},{"city":"Amritsar","state":"Punjab","latitude":31.634,"longitude":74.8723,"temp":22.3,"humidity":71,"rain":0.0,"pressure":978.2,"uv_index":7.3,"wind_gusts":36.7,"aqi":121,"pm10":53.2,"pm2_5":40.5,"mosquito_risk":3,"arthritis_risk":5,"migraine_risk":7,"frizz_risk":1,"updated_at":"2026-03-29T01:02:23.165437+05:30"},{"city":"Ludhiana","state":"Punjab","latitude":30.901,"longitude":75.8573,"temp":22.8,"humidity":69,"rain":0.0,"pressure":976.4,"uv_index":6.95,"wind_gusts":34.6,"aqi":112,"pm10":66.4,"pm2_5":58.7,"mosquito_risk":3,"arthritis_risk":5,"migraine_risk":7,"frizz_risk":1,"updated_at":"2026-03-29T01:02:23.165443+05:30"},{"city":"Jalandhar","state":"Punjab","latitude":31.326,"longitude":75.5762,"temp":22.4,"humidity":72,"rain":0.0,"pressure":977.5,"uv_index":7.15,"wind_gusts":33.8,"aqi":109,"pm10":82.9,"pm2_5":63.6,"mosquito_risk":3,"arthritis_risk":5,"migraine_risk":7,"frizz_risk":1,"updated_at":"2026-03-29T01:02:23.165452+05:30"},{"city":"Dehradun","state":"Uttarakhand","latitude":30.6284,"longitude":78.0322,"temp":13.4,"humidity":86,"rain":0.0,"pressure":827.4,"uv_index":4.8,"wind_gusts":20.9,"aqi":71,"pm10":32.7,"pm2_5":24.8,"mosquito_risk":3,"arthritis_risk":10,"migraine_risk":3,"frizz_risk":0,"updated_at":"2026-03-29T01:02:23.165461+05:30"},{"city":"Shimla","state":"Himachal Pradesh","latitude":31.1048,"longitude":77.1734,"temp":12.5,"humidity":82,"rain":0.0,"pressure":781.7,"uv_index":6.8,"wind_gusts":25.2,"aqi":80,"pm10":36.8,"pm2_5":32.2,"mosquito_risk":3,"arthritis_risk":10,"migraine_risk":7,"frizz_risk":0,"updated_at":"2026-03-29T01:02:23.165468+05:30"},{"city":"Manali","state":"Himachal Pradesh","latitude":32.2396,"longitude":77.1887,"temp":15.4,"humidity":60,"rain":0.0,"pressure":816.9,"uv_index":8.45,"wind_gusts":24.5,"aqi":86,"pm10":33.1,"pm2_5":16.1,"mosquito_risk":0,"arthritis_risk":5,"migraine_risk":7,"frizz_risk":0,"updated_at":"2026-03-29T01:02:23.165475+05:30"},{"city":"Gurgaon","state":"Haryana","latitude":28.4595,"longitude":77.0266,"temp":21.7,"humidity":62,"rain":0.0,"pressure":978.8,"uv_index":6.1,"wind_gusts":24.5,"aqi":278,"pm10":259.8,"pm2_5":93.8,"mosquito_risk":3,"arthritis_risk":5,"migraine_risk":7,"frizz_risk":0,"updated_at":"2026-03-29T01:02:23.165481+05:30"},{"city":"Noida","state":"Uttar Pradesh","latitude":28.5355,"longitude":77.391,"temp":23.3,"humidity":56,"rain":0.0,"pressure":982.1,"uv_index":6.05,"wind_gusts":20.5,"aqi":278,"pm10":259.8,"pm2_5":93.8,"mosquito_risk":0,"arthritis_risk":5,"migraine_risk":7,"frizz_risk":0,"updated_at":"2026-03-29T01:02:23.165488+05:30"},{"city":"Ghaziabad","state":"Uttar Pradesh","latitude":28.6692,"longitude":77.4538,"temp":22.2,"humidity":60,"rain":0.0,"pressure":980.3,"uv_index":6.4,"wind_gusts":20.5,"aqi":133,"pm10":192.3,"pm2_5":91.0,"mosquito_risk":0,"arthritis_risk":5,"migraine_risk":7,"frizz_risk":0,"updated_at":"2026-03-29T01:02:23.165494+05:30"},{"city":"Faridabad","state":"Haryana","latitude":28.4089,"longitude":77.3178,"temp":22.9,"humidity":55,"rain":0.0,"pressure":981.3,"uv_index":6.15,"wind_gusts":20.9,"aqi":278,"pm10":259.8,"pm2_5":93.8,"mosquito_risk":0,"arthritis_risk":5,"migraine_risk":7,"frizz_risk":0,"updated_at":"2026-03-29T01:02:23.165501+05:30"},{"city":"Meerut","state":"Uttar Pradesh","latitude":28.9845,"longitude":77.7064,"temp":21.3,"humidity":69,"rain":0.0,"pressure":979.1,"uv_index":5.75,"wind_gusts":17.6,"aqi":133,"pm10":192.3,"pm2_5":91.0,"mosquito_risk":3,"arthritis_risk":5,"migraine_risk":3,"frizz_risk":0,"updated_at":"2026-03-29T01:02:23.165508+05:30"},{"city":"Agra","state":"Uttar Pradesh","latitude":27.1767,"longitude":78.0081,"temp":22.6,"humidity":62,"rain":0.0,"pressure":985.3,"uv_index":6.95,"wind_gusts":26.3,"aqi":400,"pm10":438.7,"pm2_5":86.6,"mosquito_risk":3,"arthritis_risk":5,"migraine_risk":7,"frizz_risk":0,"updated_at":"2026-03-29T01:02:23.165514+05:30"},{"city":"Varanasi","state":"Uttar Pradesh","latitude":25.3176,"longitude":82.9739,"temp":21.9,"humidity":67,"rain":0.0,"pressure":995.7,"uv_index":7.95,"wind_gusts":24.5,"aqi":90,"pm10":97.3,"pm2_5":53.7,"mosquito_risk":3,"arthritis_risk":5,"migraine_risk":7,"frizz_risk":0,"updated_at":"2026-03-29T01:02:23.165522+05:30"},{"city":"Prayagraj","state":"Uttar Pradesh","latitude":25.4358,"longitude":81.8463,"temp":23.1,"humidity":65,"rain":0.0,"pressure":994.3,"uv_index":7.8,"wind_gusts":21.6,"aqi":94,"pm10":119.2,"pm2_5":64.3,"mosquito_risk":3,"arthritis_risk":5,"migraine_risk":7,"frizz_risk":1,"updated_at":"2026-03-29T01:02:23.165529+05:30"},{"city":"Gorakhpur","state":"Uttar Pradesh","latitude":26.7606,"longitude":83.3732,"temp":21.6,"humidity":84,"rain":0.0,"pressure":996.2,"uv_index":7.3,"wind_gusts":26.3,"aqi":93,"pm10":87.3,"pm2_5":59.1,"mosquito_risk":3,"arthritis_risk":5,"migraine_risk":7,"frizz_risk":1,"updated_at":"2026-03-29T01:02:23.165536+05:30"},{"city":"Bareilly","state":"Uttar Pradesh","latitude":28.367,"longitude":79.4304,"temp":21.7,"humidity":72,"rain":0.0,"pressure":984.9,"uv_index":7.0,"wind_gusts":17.3,"aqi":83,"pm10":124.8,"pm2_5":52.6,"mosquito_risk":3,"arthritis_risk":5,"migraine_risk":7,"frizz_risk":1,"updated_at":"2026-03-29T01:02:23.165542+05:30"},{"city":"Aligarh","state":"Uttar Pradesh","latitude":27.8974,"longitude":78.088,"temp":20.8,"humidity":67,"rain":0.0,"pressure":983.1,"uv_index":6.8,"wind_gusts":16.9,"aqi":270,"pm10":517.8,"pm2_5":109.4,"mosquito_risk":3,"arthritis_risk":5,"migraine_risk":7,"frizz_risk":0,"updated_at":"2026-03-29T01:02:23.165549+05:30"},{"city":"Moradabad","state":"Uttar Pradesh","latitude":28.8386,"longitude":78.7733,"temp":22.1,"humidity":69,"rain":0.0,"pressure":981.7,"uv_index":6.55,"wind_gusts":16.9,"aqi":100,"pm10":95.7,"pm2_5":75.0,"mosquito_risk":3,"arthritis_risk":5,"migraine_risk":7,"frizz_risk":1,"updated_at":"2026-03-29T01:02:23.165556+05:30"},{"city":"Saharanpur","state":"Uttar Pradesh","latitude":29.9637,"longitude":77.546,"temp":20.8,"humidity":79,"rain":0.0,"pressure":973.7,"uv_index":5.7,"wind_gusts":20.5,"aqi":115,"pm10":88.5,"pm2_5":74.0,"mosquito_risk":3,"arthritis_risk":5,"migraine_risk":3,"frizz_risk":1,"updated_at":"2026-03-29T01:02:23.165563+05:30"},{"city":"Jhansi","state":"Uttar Pradesh","latitude":25.4484,"longitude":78.5685,"temp":24.3,"humidity":54,"rain":0.0,"pressure":975.4,"uv_index":7.75,"wind_gusts":27.7,"aqi":87,"pm10":87.3,"pm2_5":26.6,"mosquito_risk":0,"arthritis_risk":5,"migraine_risk":7,"frizz_risk":0,"updated_at":"2026-03-29T01:02:26.469457+05:30"},{"city":"Surat","state":"Gujarat","latitude":21.1702,"longitude":72.8311,"temp":27.2,"humidity":85,"rain":0.0,"pressure":1005.3,"uv_index":7.75,"wind_gusts":25.2,"aqi":78,"pm10":19.4,"pm2_5":16.2,"mosquito_risk":7,"arthritis_risk":5,"migraine_risk":4,"frizz_risk":1,"updated_at":"2026-03-29T01:02:26.469483+05:30"},{"city":"Vadodara","state":"Gujarat","latitude":22.3072,"longitude":73.1812,"temp":26.7,"humidity":80,"rain":0.0,"pressure":1002.8,"uv_index":7.95,"wind_gusts":25.6,"aqi":57,"pm10":29.3,"pm2_5":18.6,"mosquito_risk":7,"arthritis_risk":5,"migraine_risk":4,"frizz_risk":1,"updated_at":"2026-03-29T01:02:26.469492+05:30"},{"city":"Rajkot","state":"Gujarat","latitude":22.3039,"longitude":70.8022,"temp":24.9,"humidity":81,"rain":0.0,"pressure":993.5,"uv_index":7.75,"wind_gusts":32.4,"aqi":33,"pm10":25.6,"pm2_5":8.6,"mosquito_risk":3,"arthritis_risk":5,"migraine_risk":7,"frizz_risk":1,"updated_at":"2026-03-29T01:02:26.469499+05:30"},{"city":"Thane","state":"Maharashtra","latitude":19.2183,"longitude":72.9781,"temp":26.1,"humidity":84,"rain":0.0,"pressure":1007.5,"uv_index":8.0,"wind_gusts":35.6,"aqi":68,"pm10":58.1,"pm2_5":17.3,"mosquito_risk":7,"arthritis_risk":5,"migraine_risk":4,"frizz_risk":1,"updated_at":"2026-03-29T01:02:26.469506+05:30"},{"city":"Nagpur","state":"Maharashtra","latitude":21.1458,"longitude":79.0882,"temp":26.1,"humidity":41,"rain":0.0,"pressure":970.4,"uv_index":8.55,"wind_gusts":15.1,"aqi":65,"pm10":56.2,"pm2_5":45.1,"mosquito_risk":4,"arthritis_risk":5,"migraine_risk":7,"frizz_risk":0,"updated_at":"2026-03-29T01:02:26.469513+05:30"},{"city":"Nashik","state":"Maharashtra","latitude":19.9975,"longitude":73.7898,"temp":21.4,"humidity":65,"rain":0.0,"pressure":944.3,"uv_index":8.25,"wind_gusts":28.4,"aqi":53,"pm10":47.8,"pm2_5":15.0,"mosquito_risk":3,"arthritis_risk":5,"migraine_risk":7,"frizz_risk":0,"updated_at":"2026-03-29T01:02:26.469520+05:30"},{"city":"Aurangabad","state":"Maharashtra","latitude":19.8762,"longitude":75.3433,"temp":25.4,"humidity":33,"rain":0.0,"pressure":942.6,"uv_index":8.75,"wind_gusts":28.1,"aqi":46,"pm10":20.5,"pm2_5":10.0,"mosquito_risk":4,"arthritis_risk":5,"migraine_risk":7,"frizz_risk":0,"updated_at":"2026-03-29T01:02:26.469526+05:30"},{"city":"Solapur","state":"Maharashtra","latitude":17.6599,"longitude":75.9064,"temp":27.6,"humidity":39,"rain":0.0,"pressure":955.6,"uv_index":8.9,"wind_gusts":23.8,"aqi":75,"pm10":20.8,"pm2_5":19.6,"mosquito_risk":4,"arthritis_risk":5,"migraine_risk":7,"frizz_risk":0,"updated_at":"2026-03-29T01:02:26.469533+05:30"},{"city":"Kolhapur","state":"Maharashtra","latitude":16.705,"longitude":74.2433,"temp":20.7,"humidity":77,"rain":0.0,"pressure":946.6,"uv_index":9.0,"wind_gusts":30.6,"aqi":114,"pm10":23.2,"pm2_5":22.4,"mosquito_risk":3,"arthritis_risk":5,"migraine_risk":7,"frizz_risk":1,"updated_at":"2026-03-29T01:02:26.469540+05:30"},{"city":"Goa","state":"Goa","latitude":15.2993,"longitude":74.124,"temp":27.7,"humidity":79,"rain":0.0,"pressure":997.2,"uv_index":8.95,"wind_gusts":37.1,"aqi":100,"pm10":51.8,"pm2_5":46.2,"mosquito_risk":7,"arthritis_risk":5,"migraine_risk":7,"frizz_risk":1,"updated_at":"2026-03-29T01:02:26.469547+05:30"},{"city":"Jodhpur","state":"Rajasthan","latitude":26.2389,"longitude":73.0243,"temp":27.0,"humidity":61,"rain":0.0,"pressure":979.6,"uv_index":7.8,"wind_gusts":39.2,"aqi":87,"pm10":154.1,"pm2_5":23.4,"mosquito_risk":7,"arthritis_risk":5,"migraine_risk":7,"frizz_risk":1,"updated_at":"2026-03-29T01:02:26.469554+05:30"},{"city":"Udaipur","state":"Rajasthan","latitude":24.5854,"longitude":73.7125,"temp":23.7,"humidity":62,"rain":0.0,"pressure":944.5,"uv_index":8.4,"wind_gusts":31.0,"aqi":37,"pm10":21.0,"pm2_5":7.3,"mosquito_risk":3,"arthritis_risk":5,"migraine_risk":7,"frizz_risk":0,"updated_at":"2026-03-29T01:02:26.469560+05:30"},{"city":"Kota","state":"Rajasthan","latitude":25.2138,"longitude":75.8648,"temp":28.2,"humidity":41,"rain":0.0,"pressure":976.4,"uv_index":7.45,"wind_gusts":28.1,"aqi":58,"pm10":48.9,"pm2_5":25.0,"mosquito_risk":4,"arthritis_risk":5,"migraine_risk":7,"frizz_risk":0,"updated_at":"2026-03-29T01:02:26.469566+05:30"},{"city":"Bikaner","state":"Rajasthan","latitude":28.0229,"longitude":73.3119,"temp":28.4,"humidity":38,"rain":0.0,"pressure":977.2,"uv_index":7.55,"wind_gusts":31.3,"aqi":41,"pm10":211.4,"pm2_5":42.1,"mosquito_risk":4,"arthritis_risk":5,"migraine_risk":7,"frizz_risk":0,"updated_at":"2026-03-29T01:02:26.469573+05:30"},{"city":"Ajmer","state":"Rajasthan","latitude":26.4499,"longitude":74.6399,"temp":23.9,"humidity":56,"rain":0.0,"pressure":951.6,"uv_index":7.75,"wind_gusts":40.0,"aqi":42,"pm10":45.3,"pm2_5":11.7,"mosquito_risk":0,"arthritis_risk":5,"migraine_risk":7,"frizz_risk":0,"updated_at":"2026-03-29T01:02:26.469579+05:30"},{"city":"Gwalior","state":"Madhya Pradesh","latitude":26.2183,"longitude":78.1828,"temp":24.5,"humidity":62,"rain":0.0,"pressure":980.8,"uv_index":7.45,"wind_gusts":22.0,"aqi":135,"pm10":254.3,"pm2_5":44.8,"mosquito_risk":3,"arthritis_risk":5,"migraine_risk":7,"frizz_risk":1,"updated_at":"2026-03-29T01:02:26.469585+05:30"},{"city":"Indore","state":"Madhya Pradesh","latitude":22.7196,"longitude":75.8577,"temp":24.0,"humidity":65,"rain":0.0,"pressure":946.3,"uv_index":8.25,"wind_gusts":28.4,"aqi":45,"pm10":21.1,"pm2_5":13.9,"mosquito_risk":3,"arthritis_risk":5,"migraine_risk":7,"frizz_risk":1,"updated_at":"2026-03-29T01:02:26.469591+05:30"},{"city":"Bhopal","state":"Madhya Pradesh","latitude":23.2599,"longitude":77.4126,"temp":25.3,"humidity":49,"rain":0.0,"pressure":951.6,"uv_index":8.2,"wind_gusts":31.7,"aqi":45,"pm10":17.7,"pm2_5":13.0,"mosquito_risk":4,"arthritis_risk":5,"migraine_risk":7,"frizz_risk":0,"updated_at":"2026-03-29T01:02:26.469598+05:30"},{"city":"Jabalpur","state":"Madhya Pradesh","latitude":23.1815,"longitude":79.9864,"temp":25.2,"humidity":56,"rain":0.0,"pressure":958.6,"uv_index":8.3,"wind_gusts":28.8,"aqi":59,"pm10":37.7,"pm2_5":23.2,"mosquito_risk":4,"arthritis_risk":5,"migraine_risk":7,"frizz_risk":0,"updated_at":"2026-03-29T01:02:26.469604+05:30"},{"city":"Ujjain","state":"Madhya Pradesh","latitude":23.1765,"longitude":75.7885,"temp":24.2,"humidity":61,"rain":0.0,"pressure":951.9,"uv_index":8.15,"wind_gusts":27.7,"aqi":43,"pm10":23.0,"pm2_5":13.2,"mosquito_risk":3,"arthritis_risk":5,"migraine_risk":7,"frizz_risk":1,"updated_at":"2026-03-29T01:02:26.469610+05:30"},{"city":"Visakhapatnam","state":"Andhra Pradesh","latitude":17.6868,"longitude":83.2185,"temp":27.1,"humidity":85,"rain":0.0,"pressure":1002.0,"uv_index":9.0,"wind_gusts":41.4,"aqi":90,"pm10":29.3,"pm2_5":20.8,"mosquito_risk":7,"arthritis_risk":5,"migraine_risk":4,"frizz_risk":1,"updated_at":"2026-03-29T01:02:26.469616+05:30"},{"city":"Vijayawada","state":"Andhra Pradesh","latitude":16.5062,"longitude":80.648,"temp":26.2,"humidity":91,"rain":0.0,"pressure":1001.1,"uv_index":9.05,"wind_gusts":25.6,"aqi":85,"pm10":24.1,"pm2_5":18.6,"mosquito_risk":7,"arthritis_risk":5,"migraine_risk":4,"frizz_risk":1,"updated_at":"2026-03-29T01:02:26.469622+05:30"},{"city":"Guntur","state":"Andhra Pradesh","latitude":16.3067,"longitude":80.4365,"temp":26.3,"humidity":91,"rain":0.0,"pressure":1002.1,"uv_index":9.05,"wind_gusts":29.5,"aqi":87,"pm10":26.6,"pm2_5":21.1,"mosquito_risk":7,"arthritis_risk":5,"migraine_risk":4,"frizz_risk":1,"updated_at":"2026-03-29T01:02:26.469628+05:30"},{"city":"Nellore","state":"Andhra Pradesh","latitude":14.4426,"longitude":79.9865,"temp":26.0,"humidity":90,"rain":0.0,"pressure":1004.3,"uv_index":8.9,"wind_gusts":33.1,"aqi":75,"pm10":19.3,"pm2_5":15.1,"mosquito_risk":7,"arthritis_risk":5,"migraine_risk":4,"frizz_risk":1,"updated_at":"2026-03-29T01:02:26.469634+05:30"},{"city":"Kurnool","state":"Andhra Pradesh","latitude":15.8281,"longitude":78.0373,"temp":29.8,"humidity":49,"rain":0.0,"pressure":975.4,"uv_index":9.1,"wind_gusts":24.1,"aqi":120,"pm10":56.6,"pm2_5":48.8,"mosquito_risk":4,"arthritis_risk":5,"migraine_risk":7,"frizz_risk":1,"updated_at":"2026-03-29T01:02:26.469641+05:30"},{"city":"Kakinada","state":"Andhra Pradesh","latitude":16.9891,"longitude":82.2475,"temp":26.0,"humidity":93,"rain":0.0,"pressure":1006.1,"uv_index":9.0,"wind_gusts":29.2,"aqi":71,"pm10":26.4,"pm2_5":16.2,"mosquito_risk":7,"arthritis_risk":5,"migraine_risk":4,"frizz_risk":1,"updated_at":"2026-03-29T01:02:26.469647+05:30"},{"city":"Tirupati","state":"Andhra Pradesh","latitude":13.6288,"longitude":79.4192,"temp":25.3,"humidity":85,"rain":0.0,"pressure":991.0,"uv_index":9.1,"wind_gusts":25.9,"aqi":105,"pm10":45.8,"pm2_5":43.0,"mosquito_risk":7,"arthritis_risk":5,"migraine_risk":7,"frizz_risk":1,"updated_at":"2026-03-29T01:02:26.469653+05:30"},{"city":"Warangal","state":"Telangana","latitude":17.9689,"longitude":79.5941,"temp":27.7,"humidity":69,"rain":0.0,"pressure":976.2,"uv_index":8.9,"wind_gusts":25.9,"aqi":116,"pm10":66.6,"pm2_5":61.2,"mosquito_risk":7,"arthritis_risk":5,"migraine_risk":7,"frizz_risk":1,"updated_at":"2026-03-29T01:02:26.469659+05:30"},{"city":"Nizamabad","state":"Telangana","latitude":18.6725,"longitude":78.0941,"temp":26.7,"humidity":54,"rain":0.0,"pressure":961.8,"uv_index":8.85,"wind_gusts":27.4,"aqi":79,"pm10":35.6,"pm2_5":32.6,"mosquito_risk":4,"arthritis_risk":5,"migraine_risk":7,"frizz_risk":1,"updated_at":"2026-03-29T01:02:26.469665+05:30"},{"city":"Mysore","state":"Karnataka","latitude":12.2958,"longitude":76.6396,"temp":23.3,"humidity":87,"rain":0.0,"pressure":928.1,"uv_index":9.45,"wind_gusts":35.3,"aqi":104,"pm10":42.4,"pm2_5":38.8,"mosquito_risk":3,"arthritis_risk":5,"migraine_risk":7,"frizz_risk":1,"updated_at":"2026-03-29T01:02:26.469671+05:30"},{"city":"Mangalore","state":"Karnataka","latitude":12.9141,"longitude":74.856,"temp":29.2,"humidity":81,"rain":0.0,"pressure":1005.5,"uv_index":9.15,"wind_gusts":32.4,"aqi":96,"pm10":46.2,"pm2_5":41.0,"mosquito_risk":7,"arthritis_risk":5,"migraine_risk":4,"frizz_risk":1,"updated_at":"2026-03-29T01:02:26.469677+05:30"},{"city":"Hubli-Dharwad","state":"Karnataka","latitude":15.3647,"longitude":75.124,"temp":23.8,"humidity":93,"rain":0.0,"pressure":939.8,"uv_index":9.15,"wind_gusts":34.9,"aqi":103,"pm10":36.6,"pm2_5":33.5,"mosquito_risk":3,"arthritis_risk":5,"migraine_risk":7,"frizz_risk":1,"updated_at":"2026-03-29T01:02:26.469683+05:30"},{"city":"Belgaum","state":"Karnataka","latitude":15.8497,"longitude":74.4977,"temp":21.2,"humidity":91,"rain":0.0,"pressure":924.5,"uv_index":9.2,"wind_gusts":37.1,"aqi":116,"pm10":47.6,"pm2_5":43.8,"mosquito_risk":3,"arthritis_risk":5,"migraine_risk":7,"frizz_risk":1,"updated_at":"2026-03-29T01:02:29.773377+05:30"},{"city":"Coimbatore","state":"Tamil Nadu","latitude":11.0168,"longitude":76.9558,"temp":24.6,"humidity":84,"rain":0.0,"pressure":961.4,"uv_index":9.45,"wind_gusts":42.1,"aqi":89,"pm10":37.4,"pm2_5":35.7,"mosquito_risk":3,"arthritis_risk":5,"migraine_risk":7,"frizz_risk":1,"updated_at":"2026-03-29T01:02:29.773403+05:30"},{"city":"Madurai","state":"Tamil Nadu","latitude":9.9252,"longitude":78.1198,"temp":26.3,"humidity":84,"rain":0.0,"pressure":992.0,"uv_index":9.4,"wind_gusts":38.5,"aqi":75,"pm10":24.9,"pm2_5":23.5,"mosquito_risk":7,"arthritis_risk":5,"migraine_risk":7,"frizz_risk":1,"updated_at":"2026-03-29T01:02:29.773412+05:30"},{"city":"Trichy","state":"Tamil Nadu","latitude":10.7905,"longitude":78.7047,"temp":26.0,"humidity":82,"rain":0.0,"pressure":999.0,"uv_index":9.15,"wind_gusts":27.7,"aqi":66,"pm10":15.5,"pm2_5":14.2,"mosquito_risk":7,"arthritis_risk":5,"migraine_risk":7,"frizz_risk":1,"updated_at":"2026-03-29T01:02:29.773419+05:30"},{"city":"Salem","state":"Tamil Nadu","latitude":11.6643,"longitude":78.146,"temp":27.4,"humidity":73,"rain":0.0,"pressure":976.9,"uv_index":9.4,"wind_gusts":30.2,"aqi":107,"pm10":31.2,"pm2_5":27.6,"mosquito_risk":7,"arthritis_risk":5,"migraine_risk":7,"frizz_risk":1,"updated_at":"2026-03-29T01:02:29.773425+05:30"},{"city":"Tirunelveli","state":"Tamil Nadu","latitude":8.7139,"longitude":77.7567,"temp":27.1,"humidity":72,"rain":0.0,"pressure":1001.7,"uv_index":9.35,"wind_gusts":51.5,"aqi":71,"pm10":30.3,"pm2_5":28.1,"mosquito_risk":7,"arthritis_risk":5,"migraine_risk":4,"frizz_risk":1,"updated_at":"2026-03-29T01:02:29.773431+05:30"},{"city":"Vellore","state":"Tamil Nadu","latitude":12.9165,"longitude":79.1325,"temp":25.5,"humidity":86,"rain":0.0,"pressure":983.7,"uv_index":9.35,"wind_gusts":34.9,"aqi":132,"pm10":59.1,"pm2_5":55.9,"mosquito_risk":7,"arthritis_risk":5,"migraine_risk":7,"frizz_risk":1,"updated_at":"2026-03-29T01:02:29.773437+05:30"},{"city":"Erode","state":"Tamil Nadu","latitude":11.341,"longitude":77.7172,"temp":27.7,"humidity":80,"rain":0.0,"pressure":988.4,"uv_index":8.85,"wind_gusts":31.3,"aqi":95,"pm10":41.9,"pm2_5":38.5,"mosquito_risk":7,"arthritis_risk":5,"migraine_risk":7,"frizz_risk":1,"updated_at":"2026-03-29T01:02:29.773443+05:30"},{"city":"Kochi","state":"Kerala","latitude":9.9312,"longitude":76.2673,"temp":28.0,"humidity":81,"rain":0.0,"pressure":1008.2,"uv_index":9.15,"wind_gusts":33.1,"aqi":95,"pm10":45.5,"pm2_5":44.1,"mosquito_risk":7,"arthritis_risk":0,"migraine_risk":4,"frizz_risk":1,"updated_at":"2026-03-29T01:02:29.773449+05:30"},{"city":"Thiruvananthapuram","state":"Kerala","latitude":8.5241,"longitude":76.9366,"temp":28.4,"humidity":82,"rain":0.0,"pressure":1006.9,"uv_index":9.05,"wind_gusts":37.4,"aqi":66,"pm10":28.3,"pm2_5":23.5,"mosquito_risk":7,"arthritis_risk":5,"migraine_risk":4,"frizz_risk":1,"updated_at":"2026-03-29T01:02:29.773459+05:30"},{"city":"Kozhikode","state":"Kerala","latitude":11.2588,"longitude":75.7804,"temp":27.6,"humidity":84,"rain":0.0,"pressure":1007.6,"uv_index":9.15,"wind_gusts":30.2,"aqi":78,"pm10":33.4,"pm2_5":27.2,"mosquito_risk":7,"arthritis_risk":5,"migraine_risk":4,"frizz_risk":1,"updated_at":"2026-03-29T01:02:29.773465+05:30"},{"city":"Thrissur","state":"Kerala","latitude":10.5276,"longitude":76.2144,"temp":26.5,"humidity":91,"rain":0.0,"pressure":1006.8,"uv_index":9.15,"wind_gusts":37.4,"aqi":92,"pm10":53.0,"pm2_5":50.5,"mosquito_risk":7,"arthritis_risk":5,"migraine_risk":4,"frizz_risk":1,"updated_at":"2026-03-29T01:02:29.773472+05:30"},{"city":"Kannur","state":"Kerala","latitude":11.8745,"longitude":75.3704,"temp":28.4,"humidity":83,"rain":0.0,"pressure":1006.2,"uv_index":9.15,"wind_gusts":33.1,"aqi":90,"pm10":44.5,"pm2_5":39.3,"mosquito_risk":7,"arthritis_risk":5,"migraine_risk":4,"frizz_risk":1,"updated_at":"2026-03-29T01:02:29.773478+05:30"},{"city":"Patna","state":"Bihar","latitude":25.5941,"longitude":85.1376,"temp":22.6,"humidity":84,"rain":0.0,"pressure":1000.0,"uv_index":8.1,"wind_gusts":23.8,"aqi":96,"pm10":51.0,"pm2_5":39.2,"mosquito_risk":3,"arthritis_risk":5,"migraine_risk":4,"frizz_risk":1,"updated_at":"2026-03-29T01:02:29.773484+05:30"},{"city":"Gaya","state":"Bihar","latitude":24.7914,"longitude":85.0002,"temp":22.0,"humidity":84,"rain":0.0,"pressure":992.8,"uv_index":8.15,"wind_gusts":17.3,"aqi":83,"pm10":55.1,"pm2_5":36.3,"mosquito_risk":3,"arthritis_risk":5,"migraine_risk":7,"frizz_risk":1,"updated_at":"2026-03-29T01:02:29.773490+05:30"},{"city":"Muzaffarpur","state":"Bihar","latitude":26.1209,"longitude":85.3647,"temp":21.7,"humidity":89,"rain":0.0,"pressure":1000.3,"uv_index":8.05,"wind_gusts":29.5,"aqi":110,"pm10":49.2,"pm2_5":38.8,"mosquito_risk":3,"arthritis_risk":5,"migraine_risk":4,"frizz_risk":1,"updated_at":"2026-03-29T01:02:29.773496+05:30"},{"city":"Bhagalpur","state":"Bihar","latitude":25.2425,"longitude":87.0117,"temp":21.7,"humidity":90,"rain":0.0,"pressure":1001.4,"uv_index":8.1,"wind_gusts":18.7,"aqi":96,"pm10":30.6,"pm2_5":25.2,"mosquito_risk":3,"arthritis_risk":5,"migraine_risk":4,"frizz_risk":1,"updated_at":"2026-03-29T01:02:29.773502+05:30"},{"city":"Ranchi","state":"Jharkhand","latitude":23.3441,"longitude":85.3096,"temp":21.3,"humidity":87,"rain":0.0,"pressure":936.3,"uv_index":8.75,"wind_gusts":34.6,"aqi":92,"pm10":52.5,"pm2_5":38.6,"mosquito_risk":3,"arthritis_risk":5,"migraine_risk":7,"frizz_risk":1,"updated_at":"2026-03-29T01:02:29.773508+05:30"},{"city":"Jamshedpur","state":"Jharkhand","latitude":22.8046,"longitude":86.2029,"temp":24.6,"humidity":82,"rain":0.0,"pressure":989.8,"uv_index":8.55,"wind_gusts":25.9,"aqi":143,"pm10":57.3,"pm2_5":52.9,"mosquito_risk":3,"arthritis_risk":5,"migraine_risk":7,"frizz_risk":1,"updated_at":"2026-03-29T01:02:29.773513+05:30"},{"city":"Dhanbad","state":"Jharkhand","latitude":23.7957,"longitude":86.4304,"temp":23.4,"humidity":78,"rain":0.0,"pressure":979.5,"uv_index":8.5,"wind_gusts":25.9,"aqi":155,"pm10":81.5,"pm2_5":76.1,"mosquito_risk":3,"arthritis_risk":5,"migraine_risk":7,"frizz_risk":1,"updated_at":"2026-03-29T01:02:29.773519+05:30"},{"city":"Bokaro","state":"Jharkhand","latitude":23.6693,"longitude":86.1511,"temp":22.8,"humidity":83,"rain":0.0,"pressure":983.5,"uv_index":8.5,"wind_gusts":22.0,"aqi":150,"pm10":84.1,"pm2_5":79.4,"mosquito_risk":3,"arthritis_risk":5,"migraine_risk":7,"frizz_risk":1,"updated_at":"2026-03-29T01:02:29.773525+05:30"},{"city":"Bhubaneswar","state":"Odisha","latitude":20.2961,"longitude":85.8245,"temp":26.7,"humidity":85,"rain":0.0,"pressure":1000.7,"uv_index":8.8,"wind_gusts":32.0,"aqi":114,"pm10":33.4,"pm2_5":25.6,"mosquito_risk":7,"arthritis_risk":5,"migraine_risk":4,"frizz_risk":1,"updated_at":"2026-03-29T01:02:29.773530+05:30"},{"city":"Cuttack","state":"Odisha","latitude":20.4625,"longitude":85.8828,"temp":26.5,"humidity":85,"rain":0.0,"pressure":1002.7,"uv_index":8.85,"wind_gusts":29.5,"aqi":114,"pm10":33.4,"pm2_5":25.6,"mosquito_risk":7,"arthritis_risk":5,"migraine_risk":4,"frizz_risk":1,"updated_at":"2026-03-29T01:02:29.773536+05:30"},{"city":"Rourkela","state":"Odisha","latitude":22.2604,"longitude":84.8536,"temp":26.5,"humidity":76,"rain":0.0,"pressure":982.9,"uv_index":8.5,"wind_gusts":48.2,"aqi":110,"pm10":49.7,"pm2_5":40.0,"mosquito_risk":7,"arthritis_risk":5,"migraine_risk":7,"frizz_risk":1,"updated_at":"2026-03-29T01:02:29.773542+05:30"},{"city":"Raipur","state":"Chhattisgarh","latitude":21.2514,"longitude":81.6296,"temp":29.1,"humidity":43,"rain":0.0,"pressure":971.6,"uv_index":8.6,"wind_gusts":23.4,"aqi":84,"pm10":34.0,"pm2_5":30.5,"mosquito_risk":4,"arthritis_risk":5,"migraine_risk":7,"frizz_risk":0,"updated_at":"2026-03-29T01:02:29.773547+05:30"},{"city":"Bhilai","state":"Chhattisgarh","latitude":21.1938,"longitude":81.3509,"temp":27.8,"humidity":49,"rain":0.0,"pressure":971.9,"uv_index":8.6,"wind_gusts":28.1,"aqi":74,"pm10":30.5,"pm2_5":27.0,"mosquito_risk":4,"arthritis_risk":5,"migraine_risk":7,"frizz_risk":1,"updated_at":"2026-03-29T01:02:29.773553+05:30"},{"city":"Guwahati","state":"Assam","latitude":26.1158,"longitude":91.7086,"temp":20.6,"humidity":95,"rain":0.0,"pressure":1002.0,"uv_index":7.1,"wind_gusts":25.9,"aqi":121,"pm10":37.5,"pm2_5":33.5,"mosquito_risk":3,"arthritis_risk":5,"migraine_risk":4,"frizz_risk":1,"updated_at":"2026-03-29T01:02:29.773558+05:30"},{"city":"Agartala","state":"Tripura","latitude":23.8315,"longitude":91.2868,"temp":20.5,"humidity":96,"rain":0.0,"pressure":1006.3,"uv_index":8.2,"wind_gusts":35.6,"aqi":137,"pm10":81.5,"pm2_5":75.0,"mosquito_risk":3,"arthritis_risk":5,"migraine_risk":4,"frizz_risk":1,"updated_at":"2026-03-29T01:02:29.773564+05:30"},{"city":"Shillong","state":"Meghalaya","latitude":25.5788,"longitude":91.8933,"temp":10.3,"humidity":90,"rain":0.0,"pressure":852.5,"uv_index":4.1,"wind_gusts":37.8,"aqi":75,"pm10":21.6,"pm2_5":15.3,"mosquito_risk":3,"arthritis_risk":10,"migraine_risk":3,"frizz_risk":0,"updated_at":"2026-03-29T01:02:29.773570+05:30"},{"city":"Imphal","state":"Manipur","latitude":24.817,"longitude":93.9368,"temp":15.1,"humidity":92,"rain":0.0,"pressure":921.6,"uv_index":7.3,"wind_gusts":67.3,"aqi":147,"pm10":47.5,"pm2_5":40.2,"mosquito_risk":3,"arthritis_risk":10,"migraine_risk":7,"frizz_risk":0,"updated_at":"2026-03-29T01:02:29.773575+05:30"},{"city":"Aizawl","state":"Mizoram","latitude":23.7271,"longitude":92.7176,"temp":14.7,"humidity":93,"rain":0.0,"pressure":890.5,"uv_index":7.9,"wind_gusts":55.8,"aqi":117,"pm10":59.8,"pm2_5":47.4,"mosquito_risk":3,"arthritis_risk":10,"migraine_risk":7,"frizz_risk":0,"updated_at":"2026-03-29T01:02:29.773581+05:30"},{"city":"Kohima","state":"Nagaland","latitude":25.6701,"longitude":94.1077,"temp":12.3,"humidity":86,"rain":0.0,"pressure":851.6,"uv_index":6.6,"wind_gusts":79.9,"aqi":102,"pm10":31.0,"pm2_5":23.1,"mosquito_risk":3,"arthritis_risk":10,"migraine_risk":7,"frizz_risk":0,"updated_at":"2026-03-29T01:02:29.773587+05:30"},{"city":"Gangtok","state":"Sikkim","latitude":27.3314,"longitude":88.6138,"temp":10.6,"humidity":87,"rain":0.0,"pressure":833.1,"uv_index":8.15,"wind_gusts":19.8,"aqi":69,"pm10":24.8,"pm2_5":23.2,"mosquito_risk":3,"arthritis_risk":10,"migraine_risk":7,"frizz_risk":0,"updated_at":"2026-03-29T01:02:29.773592+05:30"},{"city":"Siliguri","state":"West Bengal","latitude":26.7271,"longitude":88.3953,"temp":17.1,"humidity":83,"rain":0.0,"pressure":994.2,"uv_index":6.35,"wind_gusts":16.6,"aqi":127,"pm10":40.5,"pm2_5":32.9,"mosquito_risk":3,"arthritis_risk":10,"migraine_risk":7,"frizz_risk":0,"updated_at":"2026-03-29T01:02:33.079071+05:30"},{"city":"Durgapur","state":"West Bengal","latitude":23.5204,"longitude":87.3119,"temp":23.2,"humidity":86,"rain":0.0,"pressure":994.7,"uv_index":8.45,"wind_gusts":22.3,"aqi":145,"pm10":67.8,"pm2_5":61.2,"mosquito_risk":3,"arthritis_risk":5,"migraine_risk":7,"frizz_risk":1,"updated_at":"2026-03-29T01:02:33.079102+05:30"},{"city":"Asansol","state":"West Bengal","latitude":23.6739,"longitude":86.9524,"temp":23.7,"humidity":81,"rain":0.0,"pressure":993.2,"uv_index":8.45,"wind_gusts":23.0,"aqi":150,"pm10":72.2,"pm2_5":66.4,"mosquito_risk":3,"arthritis_risk":5,"migraine_risk":7,"frizz_risk":1,"updated_at":"2026-03-29T01:02:33.079112+05:30"},{"city":"Pondicherry","state":"Puducherry","latitude":11.9139,"longitude":79.8145,"temp":25.3,"humidity":96,"rain":0.0,"pressure":1007.8,"uv_index":9.15,"wind_gusts":33.5,"aqi":59,"pm10":16.5,"pm2_5":11.6,"mosquito_risk":7,"arthritis_risk":5,"migraine_risk":4,"frizz_risk":1,"updated_at":"2026-03-29T01:02:33.079120+05:30"},{"city":"Port Blair","state":"Andaman and Nicobar Islands","latitude":11.6234,"longitude":92.7265,"temp":28.5,"humidity":77,"rain":0.0,"pressure":1005.3,"uv_index":9.15,"wind_gusts":18.0,"aqi":68,"pm10":25.0,"pm2_5":20.3,"mosquito_risk":7,"arthritis_risk":5,"migraine_risk":4,"frizz_risk":1,"updated_at":"2026-03-29T01:02:33.079128+05:30"},{"city":"Haridwar","state":"Uttarakhand","latitude":29.9457,"longitude":78.1642,"temp":21.8,"humidity":76,"rain":0.0,"pressure":972.5,"uv_index":4.2,"wind_gusts":23.8,"aqi":81,"pm10":43.9,"pm2_5":41.1,"mosquito_risk":3,"arthritis_risk":5,"migraine_risk":3,"frizz_risk":1,"updated_at":"2026-03-29T01:02:33.079135+05:30"},{"city":"Rishikesh","state":"Uttarakhand","latitude":30.0869,"longitude":78.2676,"temp":20.8,"humidity":74,"rain":0.0,"pressure":965.4,"uv_index":4.15,"wind_gusts":22.0,"aqi":70,"pm10":34.2,"pm2_5":29.8,"mosquito_risk":3,"arthritis_risk":5,"migraine_risk":3,"frizz_risk":0,"updated_at":"2026-03-29T01:02:33.079183+05:30"},{"city":"Nainital","state":"Uttarakhand","latitude":29.3919,"longitude":79.4542,"temp":16.4,"humidity":69,"rain":0.0,"pressure":803.5,"uv_index":7.25,"wind_gusts":48.6,"aqi":73,"pm10":26.9,"pm2_5":23.6,"mosquito_risk":3,"arthritis_risk":5,"migraine_risk":7,"frizz_risk":0,"updated_at":"2026-03-29T01:02:33.079195+05:30"},{"city":"Mussoorie","state":"Uttarakhand","latitude":30.4599,"longitude":78.0664,"temp":14.9,"humidity":76,"rain":0.0,"pressure":800.2,"uv_index":4.7,"wind_gusts":35.3,"aqi":82,"pm10":48.4,"pm2_5":43.5,"mosquito_risk":3,"arthritis_risk":5,"migraine_risk":3,"frizz_risk":0,"updated_at":"2026-03-29T01:02:33.079202+05:30"},{"city":"Dharamshala","state":"Himachal Pradesh","latitude":32.219,"longitude":76.3234,"temp":18.6,"humidity":65,"rain":0.0,"pressure":866.9,"uv_index":7.05,"wind_gusts":31.0,"aqi":63,"pm10":28.3,"pm2_5":18.6,"mosquito_risk":3,"arthritis_risk":5,"migraine_risk":7,"frizz_risk":0,"updated_at":"2026-03-29T01:02:33.079209+05:30"},{"city":"Dalhousie","state":"Himachal Pradesh","latitude":32.5387,"longitude":75.971,"temp":14.9,"humidity":69,"rain":0.0,"pressure":800.7,"uv_index":7.1,"wind_gusts":22.3,"aqi":65,"pm10":41.4,"pm2_5":37.0,"mosquito_risk":3,"arthritis_risk":5,"migraine_risk":7,"frizz_risk":0,"updated_at":"2026-03-29T01:02:33.079217+05:30"},{"city":"Patiala","state":"Punjab","latitude":30.3398,"longitude":76.3869,"temp":21.3,"humidity":75,"rain":0.0,"pressure":975.8,"uv_index":6.6,"wind_gusts":31.7,"aqi":103,"pm10":205.8,"pm2_5":45.9,"mosquito_risk":3,"arthritis_risk":5,"migraine_risk":7,"frizz_risk":1,"updated_at":"2026-03-29T01:02:33.079224+05:30"},{"city":"Bhatinda","state":"Punjab","latitude":30.211,"longitude":74.9455,"temp":22.7,"humidity":65,"rain":0.0,"pressure":980.2,"uv_index":6.65,"wind_gusts":34.6,"aqi":76,"pm10":43.3,"pm2_5":26.0,"mosquito_risk":3,"arthritis_risk":5,"migraine_risk":7,"frizz_risk":0,"updated_at":"2026-03-29T01:02:33.079231+05:30"},{"city":"Rohtak","state":"Haryana","latitude":28.8955,"longitude":76.6066,"temp":20.8,"humidity":69,"rain":0.0,"pressure":979.0,"uv_index":6.8,"wind_gusts":28.1,"aqi":128,"pm10":176.5,"pm2_5":89.4,"mosquito_risk":3,"arthritis_risk":5,"migraine_risk":7,"frizz_risk":0,"updated_at":"2026-03-29T01:02:33.079238+05:30"},{"city":"Panipat","state":"Haryana","latitude":29.3909,"longitude":76.9635,"temp":20.7,"humidity":69,"rain":0.0,"pressure":977.9,"uv_index":6.55,"wind_gusts":22.7,"aqi":152,"pm10":231.0,"pm2_5":92.7,"mosquito_risk":3,"arthritis_risk":5,"migraine_risk":7,"frizz_risk":0,"updated_at":"2026-03-29T01:02:33.079244+05:30"},{"city":"Mathura","state":"Uttar Pradesh","latitude":27.4924,"longitude":77.6737,"temp":22.1,"humidity":65,"rain":0.0,"pressure":984.3,"uv_index":6.95,"wind_gusts":19.1,"aqi":227,"pm10":393.9,"pm2_5":86.8,"mosquito_risk":3,"arthritis_risk":5,"migraine_risk":7,"frizz_risk":0,"updated_at":"2026-03-29T01:02:33.079250+05:30"},{"city":"Vrindavan","state":"Uttar Pradesh","latitude":27.5823,"longitude":77.7027,"temp":21.7,"humidity":66,"rain":0.0,"pressure":984.9,"uv_index":6.85,"wind_gusts":19.8,"aqi":227,"pm10":393.9,"pm2_5":86.8,"mosquito_risk":3,"arthritis_risk":5,"migraine_risk":7,"frizz_risk":0,"updated_at":"2026-03-29T01:02:33.079257+05:30"},{"city":"Ayodhya","state":"Uttar Pradesh","latitude":26.7922,"longitude":82.1998,"temp":21.6,"humidity":73,"rain":0.0,"pressure":993.7,"uv_index":7.45,"wind_gusts":23.4,"aqi":96,"pm10":132.2,"pm2_5":47.0,"mosquito_risk":3,"arthritis_risk":5,"migraine_risk":7,"frizz_risk":1,"updated_at":"2026-03-29T01:02:33.079263+05:30"},{"city":"Ratlam","state":"Madhya Pradesh","latitude":23.3315,"longitude":75.0367,"temp":25.2,"humidity":58,"rain":0.0,"pressure":952.7,"uv_index":8.1,"wind_gusts":31.3,"aqi":45,"pm10":25.0,"pm2_5":12.6,"mosquito_risk":4,"arthritis_risk":5,"migraine_risk":7,"frizz_risk":1,"updated_at":"2026-03-29T01:02:33.079269+05:30"},{"city":"Sagar","state":"Madhya Pradesh","latitude":23.8388,"longitude":78.7378,"temp":27.4,"humidity":44,"rain":0.0,"pressure":947.6,"uv_index":8.2,"wind_gusts":31.0,"aqi":56,"pm10":43.3,"pm2_5":17.8,"mosquito_risk":4,"arthritis_risk":5,"migraine_risk":7,"frizz_risk":0,"updated_at":"2026-03-29T01:02:33.079276+05:30"},{"city":"Satna","state":"Madhya Pradesh","latitude":24.6005,"longitude":80.8322,"temp":24.6,"humidity":55,"rain":0.0,"pressure":969.4,"uv_index":8.15,"wind_gusts":22.3,"aqi":69,"pm10":63.8,"pm2_5":23.2,"mosquito_risk":0,"arthritis_risk":5,"migraine_risk":7,"frizz_risk":0,"updated_at":"2026-03-29T01:02:33.079282+05:30"},{"city":"Akola","state":"Maharashtra","latitude":20.7002,"longitude":77.0082,"temp":25.8,"humidity":56,"rain":0.0,"pressure":973.2,"uv_index":8.55,"wind_gusts":25.9,"aqi":49,"pm10":21.2,"pm2_5":14.3,"mosquito_risk":4,"arthritis_risk":5,"migraine_risk":7,"frizz_risk":1,"updated_at":"2026-03-29T01:02:33.079289+05:30"},{"city":"Amravati","state":"Maharashtra","latitude":20.9374,"longitude":77.7796,"temp":26.1,"humidity":49,"rain":0.0,"pressure":965.0,"uv_index":8.5,"wind_gusts":23.4,"aqi":47,"pm10":20.7,"pm2_5":13.6,"mosquito_risk":4,"arthritis_risk":5,"migraine_risk":7,"frizz_risk":0,"updated_at":"2026-03-29T01:02:33.079297+05:30"},{"city":"Latur","state":"Maharashtra","latitude":18.4088,"longitude":76.5604,"temp":26.5,"humidity":42,"rain":0.0,"pressure":938.2,"uv_index":8.85,"wind_gusts":26.6,"aqi":72,"pm10":32.7,"pm2_5":31.0,"mosquito_risk":4,"arthritis_risk":5,"migraine_risk":7,"frizz_risk":0,"updated_at":"2026-03-29T01:02:33.079303+05:30"},{"city":"Nanded","state":"Maharashtra","latitude":19.1383,"longitude":77.3091,"temp":26.8,"humidity":46,"rain":0.0,"pressure":966.4,"uv_index":8.7,"wind_gusts":18.4,"aqi":61,"pm10":23.5,"pm2_5":21.8,"mosquito_risk":4,"arthritis_risk":5,"migraine_risk":7,"frizz_risk":0,"updated_at":"2026-03-29T01:02:33.079309+05:30"},{"city":"Gulbarga","state":"Karnataka","latitude":17.3297,"longitude":76.8343,"temp":28.8,"humidity":40,"rain":0.0,"pressure":956.8,"uv_index":8.9,"wind_gusts":32.4,"aqi":85,"pm10":30.2,"pm2_5":27.4,"mosquito_risk":4,"arthritis_risk":5,"migraine_risk":7,"frizz_risk":0,"updated_at":"2026-03-29T01:02:33.079315+05:30"},{"city":"Bidar","state":"Karnataka","latitude":17.9104,"longitude":77.5199,"temp":29.1,"humidity":38,"rain":0.0,"pressure":933.4,"uv_index":8.9,"wind_gusts":29.2,"aqi":80,"pm10":25.4,"pm2_5":23.2,"mosquito_risk":4,"arthritis_risk":5,"migraine_risk":7,"frizz_risk":0,"updated_at":"2026-03-29T01:02:33.079321+05:30"},{"city":"Hospet","state":"Karnataka","latitude":15.2689,"longitude":76.3909,"temp":27.1,"humidity":76,"rain":0.0,"pressure":954.6,"uv_index":9.15,"wind_gusts":18.7,"aqi":115,"pm10":39.8,"pm2_5":36.2,"mosquito_risk":7,"arthritis_risk":5,"migraine_risk":7,"frizz_risk":1,"updated_at":"2026-03-29T01:02:33.079327+05:30"},{"city":"Tirupur","state":"Tamil Nadu","latitude":11.1085,"longitude":77.3411,"temp":26.4,"humidity":79,"rain":0.0,"pressure":974.7,"uv_index":9.4,"wind_gusts":31.7,"aqi":102,"pm10":43.3,"pm2_5":40.2,"mosquito_risk":7,"arthritis_risk":5,"migraine_risk":7,"frizz_risk":1,"updated_at":"2026-03-29T01:02:33.079333+05:30"},{"city":"Alappuzha","state":"Kerala","latitude":9.4981,"longitude":76.3388,"temp":27.7,"humidity":84,"rain":0.0,"pressure":1008.2,"uv_index":9.15,"wind_gusts":29.2,"aqi":87,"pm10":36.2,"pm2_5":32.1,"mosquito_risk":7,"arthritis_risk":0,"migraine_risk":4,"frizz_risk":1,"updated_at":"2026-03-29T01:02:33.079339+05:30"},{"city":"Munnar","state":"Kerala","latitude":10.0889,"longitude":77.0595,"temp":19.9,"humidity":96,"rain":0.0,"pressure":855.8,"uv_index":8.85,"wind_gusts":35.6,"aqi":82,"pm10":43.0,"pm2_5":40.4,"mosquito_risk":3,"arthritis_risk":10,"migraine_risk":7,"frizz_risk":1,"updated_at":"2026-03-29T01:02:33.079346+05:30"},{"city":"Silchar","state":"Assam","latitude":24.8333,"longitude":92.7789,"temp":20.1,"humidity":92,"rain":0.0,"pressure":1005.3,"uv_index":8.0,"wind_gusts":31.0,"aqi":152,"pm10":59.8,"pm2_5":48.5,"mosquito_risk":3,"arthritis_risk":5,"migraine_risk":4,"frizz_risk":1,"updated_at":"2026-03-29T01:02:33.079353+05:30"},{"city":"Dibrugarh","state":"Assam","latitude":27.4728,"longitude":94.912,"temp":19.6,"humidity":86,"rain":0.0,"pressure":995.9,"uv_index":6.55,"wind_gusts":13.0,"aqi":97,"pm10":41.8,"pm2_5":32.8,"mosquito_risk":3,"arthritis_risk":10,"migraine_risk":7,"frizz_risk":1,"updated_at":"2026-03-29T01:02:33.079359+05:30"}]