[{"city":"Delhi","state":"Delhi","latitude":28.6139,"longitude":77.209,"temp":37.8,"humidity":23,"rain":0.0,"pressure":976.9,"uv_index":7.7,"wind_gusts":49.0,"aqi":640,"pm10":1028.2,"pm2_5":176.5,"no2":16.4,"co":295.0,"o3":92.0,"so2":13.6,"mosquito_risk":0,"arthritis_risk":5,"migraine_risk":10,"frizz_risk":0,"updated_at":"2026-05-17T20:29:15.069105+05:30"},{"city":"Mumbai","state":"Maharashtra","latitude":19.076,"longitude":72.8777,"temp":30.0,"humidity":80,"rain":0.0,"pressure":1004.2,"uv_index":7.55,"wind_gusts":46.1,"aqi":62,"pm10":45.2,"pm2_5":20.5,"no2":9.1,"co":243.0,"o3":73.0,"so2":5.7,"mosquito_risk":7,"arthritis_risk":5,"migraine_risk":4,"frizz_risk":1,"updated_at":"2026-05-17T20:29:15.069158+05:30"},{"city":"Bangalore","state":"Karnataka","latitude":12.9716,"longitude":77.5946,"temp":27.4,"humidity":58,"rain":0.1,"pressure":910.2,"uv_index":9.45,"wind_gusts":30.2,"aqi":116,"pm10":48.1,"pm2_5":38.1,"no2":33.4,"co":323.0,"o3":85.0,"so2":9.2,"mosquito_risk":7,"arthritis_risk":5,"migraine_risk":7,"frizz_risk":1,"updated_at":"2026-05-17T20:29:15.069181+05:30"},{"city":"Hyderabad","state":"Telangana","latitude":17.385,"longitude":78.4867,"temp":32.8,"humidity":46,"rain":0.0,"pressure":950.5,"uv_index":9.3,"wind_gusts":29.9,"aqi":102,"pm10":39.1,"pm2_5":26.4,"no2":10.5,"co":281.0,"o3":106.0,"so2":6.4,"mosquito_risk":0,"arthritis_risk":5,"migraine_risk":7,"frizz_risk":1,"updated_at":"2026-05-17T20:29:15.069192+05:30"},{"city":"Chennai","state":"Tamil Nadu","latitude":13.0827,"longitude":80.2707,"temp":30.2,"humidity":78,"rain":0.0,"pressure":1004.3,"uv_index":9.15,"wind_gusts":41.8,"aqi":119,"pm10":33.9,"pm2_5":23.1,"no2":4.2,"co":213.0,"o3":120.0,"so2":7.9,"mosquito_risk":3,"arthritis_risk":5,"migraine_risk":4,"frizz_risk":1,"updated_at":"2026-05-17T20:29:15.069202+05:30"},{"city":"Kolkata","state":"West Bengal","latitude":22.5726,"longitude":88.3639,"temp":29.0,"humidity":87,"rain":0.0,"pressure":1001.5,"uv_index":8.95,"wind_gusts":35.3,"aqi":61,"pm10":29.5,"pm2_5":22.7,"no2":8.4,"co":257.0,"o3":63.0,"so2":7.6,"mosquito_risk":7,"arthritis_risk":5,"migraine_risk":4,"frizz_risk":1,"updated_at":"2026-05-17T20:29:15.069212+05:30"},{"city":"Pune","state":"Maharashtra","latitude":18.5204,"longitude":73.8567,"temp":30.4,"humidity":64,"rain":0.0,"pressure":944.9,"uv_index":8.45,"wind_gusts":39.6,"aqi":122,"pm10":29.0,"pm2_5":19.6,"no2":5.9,"co":194.0,"o3":139.0,"so2":13.5,"mosquito_risk":3,"arthritis_risk":5,"migraine_risk":7,"frizz_risk":1,"updated_at":"2026-05-17T20:29:15.069220+05:30"},{"city":"Ahmedabad","state":"Gujarat","latitude":23.0225,"longitude":72.5714,"temp":39.5,"humidity":22,"rain":0.0,"pressure":996.6,"uv_index":8.15,"wind_gusts":29.9,"aqi":62,"pm10":41.8,"pm2_5":19.3,"no2":7.2,"co":253.0,"o3":83.0,"so2":4.7,"mosquito_risk":0,"arthritis_risk":5,"migraine_risk":10,"frizz_risk":0,"updated_at":"2026-05-17T20:29:15.069230+05:30"},{"city":"Jaipur","state":"Rajasthan","latitude":26.9124,"longitude":75.7873,"temp":37.0,"humidity":18,"rain":0.0,"pressure":955.4,"uv_index":8.25,"wind_gusts":41.8,"aqi":125,"pm10":175.6,"pm2_5":40.9,"no2":9.7,"co":203.0,"o3":82.0,"so2":5.7,"mosquito_risk":0,"arthritis_risk":5,"migraine_risk":10,"frizz_risk":0,"updated_at":"2026-05-17T20:29:15.069244+05:30"},{"city":"Lucknow","state":"Uttar Pradesh","latitude":26.8467,"longitude":80.9462,"temp":35.4,"humidity":30,"rain":0.0,"pressure":986.6,"uv_index":8.2,"wind_gusts":47.5,"aqi":154,"pm10":343.7,"pm2_5":87.8,"no2":10.1,"co":288.0,"o3":105.0,"so2":10.9,"mosquito_risk":0,"arthritis_risk":5,"migraine_risk":10,"frizz_risk":0,"updated_at":"2026-05-17T20:29:15.069252+05:30"},{"city":"Kanpur","state":"Uttar Pradesh","latitude":26.4499,"longitude":80.3319,"temp":36.0,"humidity":26,"rain":0.0,"pressure":985.1,"uv_index":8.2,"wind_gusts":46.1,"aqi":234,"pm10":650.1,"pm2_5":124.3,"no2":7.9,"co":274.0,"o3":104.0,"so2":10.2,"mosquito_risk":0,"arthritis_risk":5,"migraine_risk":10,"frizz_risk":0,"updated_at":"2026-05-17T20:29:15.069260+05:30"},{"city":"Chandigarh","state":"Chandigarh","latitude":30.7333,"longitude":76.7794,"temp":31.5,"humidity":34,"rain":0.0,"pressure":962.7,"uv_index":7.7,"wind_gusts":43.2,"aqi":140,"pm10":23.7,"pm2_5":19.8,"no2":9.1,"co":436.0,"o3":126.0,"so2":9.2,"mosquito_risk":0,"arthritis_risk":5,"migraine_risk":7,"frizz_risk":0,"updated_at":"2026-05-17T20:29:15.069269+05:30"},{"city":"Srinagar","state":"Jammu and Kashmir","latitude":34.0837,"longitude":74.7973,"temp":20.0,"humidity":61,"rain":0.0,"pressure":839.6,"uv_index":8.9,"wind_gusts":18.0,"aqi":97,"pm10":24.3,"pm2_5":19.4,"no2":18.2,"co":824.0,"o3":103.0,"so2":4.2,"mosquito_risk":3,"arthritis_risk":5,"migraine_risk":7,"frizz_risk":0,"updated_at":"2026-05-17T20:29:15.069277+05:30"},{"city":"Jammu","state":"Jammu and Kashmir","latitude":32.7266,"longitude":74.857,"temp":32.3,"humidity":31,"rain":0.0,"pressure":966.6,"uv_index":8.5,"wind_gusts":40.0,"aqi":122,"pm10":29.9,"pm2_5":22.8,"no2":19.6,"co":256.0,"o3":98.0,"so2":5.3,"mosquito_risk":0,"arthritis_risk":5,"migraine_risk":7,"frizz_risk":0,"updated_at":"2026-05-17T20:29:15.069286+05:30"},{"city":"Amritsar","state":"Punjab","latitude":31.634,"longitude":74.8723,"temp":32.6,"humidity":34,"rain":0.0,"pressure":974.5,"uv_index":8.4,"wind_gusts":33.1,"aqi":129,"pm10":37.8,"pm2_5":25.4,"no2":13.1,"co":312.0,"o3":109.0,"so2":7.8,"mosquito_risk":0,"arthritis_risk":5,"migraine_risk":7,"frizz_risk":0,"updated_at":"2026-05-17T20:29:15.069293+05:30"},{"city":"Ludhiana","state":"Punjab","latitude":30.901,"longitude":75.8573,"temp":33.5,"humidity":30,"rain":0.0,"pressure":972.6,"uv_index":7.95,"wind_gusts":42.8,"aqi":113,"pm10":76.8,"pm2_5":32.6,"no2":8.1,"co":398.0,"o3":113.0,"so2":6.6,"mosquito_risk":0,"arthritis_risk":5,"migraine_risk":7,"frizz_risk":0,"updated_at":"2026-05-17T20:29:15.069300+05:30"},{"city":"Jalandhar","state":"Punjab","latitude":31.326,"longitude":75.5762,"temp":32.3,"humidity":38,"rain":0.0,"pressure":973.4,"uv_index":8.15,"wind_gusts":36.7,"aqi":124,"pm10":75.7,"pm2_5":33.1,"no2":9.2,"co":470.0,"o3":113.0,"so2":7.0,"mosquito_risk":0,"arthritis_risk":5,"migraine_risk":7,"frizz_risk":1,"updated_at":"2026-05-17T20:29:15.069314+05:30"},{"city":"Dehradun","state":"Uttarakhand","latitude":30.6284,"longitude":78.0322,"temp":17.6,"humidity":65,"rain":0.0,"pressure":825.4,"uv_index":8.15,"wind_gusts":43.9,"aqi":115,"pm10":15.0,"pm2_5":12.4,"no2":11.8,"co":231.0,"o3":130.0,"so2":4.5,"mosquito_risk":3,"arthritis_risk":5,"migraine_risk":7,"frizz_risk":0,"updated_at":"2026-05-17T20:29:15.069323+05:30"},{"city":"Shimla","state":"Himachal Pradesh","latitude":31.1048,"longitude":77.1734,"temp":16.5,"humidity":48,"rain":0.0,"pressure":782.0,"uv_index":8.25,"wind_gusts":49.0,"aqi":119,"pm10":19.9,"pm2_5":12.7,"no2":5.5,"co":204.0,"o3":133.0,"so2":4.0,"mosquito_risk":0,"arthritis_risk":5,"migraine_risk":7,"frizz_risk":0,"updated_at":"2026-05-17T20:29:15.069333+05:30"},{"city":"Manali","state":"Himachal Pradesh","latitude":32.2396,"longitude":77.1887,"temp":13.8,"humidity":68,"rain":0.0,"pressure":814.8,"uv_index":9.85,"wind_gusts":40.0,"aqi":115,"pm10":8.3,"pm2_5":6.2,"no2":17.2,"co":231.0,"o3":124.0,"so2":0.4,"mosquito_risk":3,"arthritis_risk":5,"migraine_risk":7,"frizz_risk":0,"updated_at":"2026-05-17T20:29:15.069340+05:30"},{"city":"Gurgaon","state":"Haryana","latitude":28.4595,"longitude":77.0266,"temp":35.2,"humidity":28,"rain":0.0,"pressure":975.3,"uv_index":7.8,"wind_gusts":47.2,"aqi":1035,"pm10":1404.4,"pm2_5":221.7,"no2":17.7,"co":265.0,"o3":89.0,"so2":13.3,"mosquito_risk":0,"arthritis_risk":5,"migraine_risk":10,"frizz_risk":0,"updated_at":"2026-05-17T20:29:15.069348+05:30"},{"city":"Noida","state":"Uttar Pradesh","latitude":28.5355,"longitude":77.391,"temp":35.7,"humidity":28,"rain":0.0,"pressure":977.9,"uv_index":7.75,"wind_gusts":43.2,"aqi":1035,"pm10":1404.4,"pm2_5":221.7,"no2":17.7,"co":327.0,"o3":89.0,"so2":13.3,"mosquito_risk":0,"arthritis_risk":5,"migraine_risk":10,"frizz_risk":0,"updated_at":"2026-05-17T20:29:15.069356+05:30"},{"city":"Ghaziabad","state":"Uttar Pradesh","latitude":28.6692,"longitude":77.4538,"temp":33.2,"humidity":38,"rain":0.0,"pressure":976.2,"uv_index":7.7,"wind_gusts":50.4,"aqi":476,"pm10":881.0,"pm2_5":164.4,"no2":13.8,"co":369.0,"o3":93.0,"so2":14.7,"mosquito_risk":0,"arthritis_risk":5,"migraine_risk":7,"frizz_risk":1,"updated_at":"2026-05-17T20:29:15.069363+05:30"},{"city":"Faridabad","state":"Haryana","latitude":28.4089,"longitude":77.3178,"temp":37.8,"humidity":22,"rain":0.0,"pressure":977.4,"uv_index":7.75,"wind_gusts":50.0,"aqi":1035,"pm10":1404.4,"pm2_5":221.7,"no2":17.7,"co":260.0,"o3":89.0,"so2":13.3,"mosquito_risk":0,"arthritis_risk":5,"migraine_risk":10,"frizz_risk":0,"updated_at":"2026-05-17T20:29:15.069373+05:30"},{"city":"Meerut","state":"Uttar Pradesh","latitude":28.9845,"longitude":77.7064,"temp":34.8,"humidity":27,"rain":0.0,"pressure":974.9,"uv_index":7.65,"wind_gusts":50.8,"aqi":476,"pm10":881.0,"pm2_5":164.4,"no2":13.8,"co":265.0,"o3":93.0,"so2":14.7,"mosquito_risk":0,"arthritis_risk":5,"migraine_risk":7,"frizz_risk":0,"updated_at":"2026-05-17T20:29:15.069380+05:30"},{"city":"Agra","state":"Uttar Pradesh","latitude":27.1767,"longitude":78.0081,"temp":36.3,"humidity":25,"rain":0.0,"pressure":981.3,"uv_index":8.05,"wind_gusts":38.9,"aqi":730,"pm10":476.8,"pm2_5":87.3,"no2":16.7,"co":345.0,"o3":74.0,"so2":10.0,"mosquito_risk":0,"arthritis_risk":5,"migraine_risk":10,"frizz_risk":0,"updated_at":"2026-05-17T20:29:15.069387+05:30"},{"city":"Varanasi","state":"Uttar Pradesh","latitude":25.3176,"longitude":82.9739,"temp":37.0,"humidity":23,"rain":0.0,"pressure":990.6,"uv_index":8.7,"wind_gusts":45.7,"aqi":151,"pm10":119.7,"pm2_5":49.2,"no2":17.7,"co":371.0,"o3":93.0,"so2":11.9,"mosquito_risk":0,"arthritis_risk":5,"migraine_risk":10,"frizz_risk":0,"updated_at":"2026-05-17T20:29:15.069395+05:30"},{"city":"Prayagraj","state":"Uttar Pradesh","latitude":25.4358,"longitude":81.8463,"temp":35.6,"humidity":26,"rain":0.0,"pressure":989.4,"uv_index":8.6,"wind_gusts":39.6,"aqi":149,"pm10":111.3,"pm2_5":43.9,"no2":12.9,"co":267.0,"o3":92.0,"so2":10.1,"mosquito_risk":0,"arthritis_risk":5,"migraine_risk":10,"frizz_risk":0,"updated_at":"2026-05-17T20:29:15.069403+05:30"},{"city":"Gorakhpur","state":"Uttar Pradesh","latitude":26.7606,"longitude":83.3732,"temp":31.4,"humidity":51,"rain":0.0,"pressure":989.8,"uv_index":8.6,"wind_gusts":35.6,"aqi":154,"pm10":54.9,"pm2_5":36.2,"no2":11.4,"co":379.0,"o3":112.0,"so2":10.3,"mosquito_risk":0,"arthritis_risk":5,"migraine_risk":7,"frizz_risk":1,"updated_at":"2026-05-17T20:29:15.069412+05:30"},{"city":"Bareilly","state":"Uttar Pradesh","latitude":28.367,"longitude":79.4304,"temp":31.5,"humidity":47,"rain":0.0,"pressure":979.4,"uv_index":8.0,"wind_gusts":37.1,"aqi":143,"pm10":95.7,"pm2_5":43.1,"no2":11.1,"co":374.0,"o3":114.0,"so2":11.1,"mosquito_risk":0,"arthritis_risk":5,"migraine_risk":7,"frizz_risk":1,"updated_at":"2026-05-17T20:29:15.069418+05:30"},{"city":"Aligarh","state":"Uttar Pradesh","latitude":27.8974,"longitude":78.088,"temp":33.7,"humidity":35,"rain":0.0,"pressure":978.8,"uv_index":7.85,"wind_gusts":49.7,"aqi":621,"pm10":1035.6,"pm2_5":171.8,"no2":10.4,"co":278.0,"o3":96.0,"so2":9.2,"mosquito_risk":0,"arthritis_risk":5,"migraine_risk":7,"frizz_risk":0,"updated_at":"2026-05-17T20:29:15.069426+05:30"},{"city":"Moradabad","state":"Uttar Pradesh","latitude":28.8386,"longitude":78.7733,"temp":32.7,"humidity":39,"rain":0.0,"pressure":976.4,"uv_index":7.85,"wind_gusts":45.7,"aqi":151,"pm10":270.1,"pm2_5":75.0,"no2":14.6,"co":419.0,"o3":91.0,"so2":9.3,"mosquito_risk":0,"arthritis_risk":5,"migraine_risk":7,"frizz_risk":1,"updated_at":"2026-05-17T20:29:15.069433+05:30"},{"city":"Saharanpur","state":"Uttar Pradesh","latitude":29.9637,"longitude":77.546,"temp":32.6,"humidity":31,"rain":0.0,"pressure":968.8,"uv_index":7.35,"wind_gusts":42.8,"aqi":129,"pm10":122.9,"pm2_5":36.6,"no2":7.6,"co":287.0,"o3":120.0,"so2":8.6,"mosquito_risk":0,"arthritis_risk":5,"migraine_risk":7,"frizz_risk":0,"updated_at":"2026-05-17T20:29:15.069440+05:30"},{"city":"Jhansi","state":"Uttar Pradesh","latitude":25.4484,"longitude":78.5685,"temp":35.0,"humidity":24,"rain":0.0,"pressure":972.2,"uv_index":8.45,"wind_gusts":34.6,"aqi":119,"pm10":116.6,"pm2_5":35.3,"no2":5.6,"co":276.0,"o3":92.0,"so2":5.4,"mosquito_risk":0,"arthritis_risk":5,"migraine_risk":7,"frizz_risk":0,"updated_at":"2026-05-17T20:29:18.446292+05:30"},{"city":"Surat","state":"Gujarat","latitude":21.1702,"longitude":72.8311,"temp":31.5,"humidity":72,"rain":0.0,"pressure":1001.7,"uv_index":7.75,"wind_gusts":41.4,"aqi":86,"pm10":48.0,"pm2_5":32.5,"no2":27.0,"co":393.0,"o3":74.0,"so2":50.0,"mosquito_risk":3,"arthritis_risk":5,"migraine_risk":4,"frizz_risk":1,"updated_at":"2026-05-17T20:29:18.446327+05:30"},{"city":"Vadodara","state":"Gujarat","latitude":22.3072,"longitude":73.1812,"temp":39.0,"humidity":23,"rain":0.0,"pressure":998.3,"uv_index":8.1,"wind_gusts":31.0,"aqi":96,"pm10":47.7,"pm2_5":25.6,"no2":13.4,"co":361.0,"o3":109.0,"so2":10.8,"mosquito_risk":0,"arthritis_risk":5,"migraine_risk":10,"frizz_risk":0,"updated_at":"2026-05-17T20:29:18.446340+05:30"},{"city":"Rajkot","state":"Gujarat","latitude":22.3039,"longitude":70.8022,"temp":34.0,"humidity":34,"rain":0.0,"pressure":990.4,"uv_index":7.2,"wind_gusts":38.5,"aqi":57,"pm10":45.8,"pm2_5":19.7,"no2":4.4,"co":146.0,"o3":91.0,"so2":6.1,"mosquito_risk":0,"arthritis_risk":5,"migraine_risk":7,"frizz_risk":1,"updated_at":"2026-05-17T20:29:18.446351+05:30"},{"city":"Thane","state":"Maharashtra","latitude":19.2183,"longitude":72.9781,"temp":30.7,"humidity":72,"rain":0.0,"pressure":1003.5,"uv_index":7.6,"wind_gusts":39.2,"aqi":62,"pm10":45.2,"pm2_5":20.5,"no2":9.1,"co":230.0,"o3":73.0,"so2":5.7,"mosquito_risk":3,"arthritis_risk":5,"migraine_risk":4,"frizz_risk":1,"updated_at":"2026-05-17T20:29:18.446361+05:30"},{"city":"Nagpur","state":"Maharashtra","latitude":21.1458,"longitude":79.0882,"temp":38.0,"humidity":21,"rain":0.0,"pressure":968.2,"uv_index":8.95,"wind_gusts":31.7,"aqi":132,"pm10":24.2,"pm2_5":19.2,"no2":14.8,"co":290.0,"o3":99.0,"so2":16.2,"mosquito_risk":0,"arthritis_risk":5,"migraine_risk":10,"frizz_risk":0,"updated_at":"2026-05-17T20:29:18.446370+05:30"},{"city":"Nashik","state":"Maharashtra","latitude":19.9975,"longitude":73.7898,"temp":31.7,"humidity":33,"rain":0.0,"pressure":942.5,"uv_index":8.2,"wind_gusts":42.5,"aqi":86,"pm10":29.1,"pm2_5":17.6,"no2":5.5,"co":182.0,"o3":129.0,"so2":7.3,"mosquito_risk":0,"arthritis_risk":5,"migraine_risk":7,"frizz_risk":0,"updated_at":"2026-05-17T20:29:18.446379+05:30"},{"city":"Aurangabad","state":"Maharashtra","latitude":19.8762,"longitude":75.3433,"temp":34.7,"humidity":20,"rain":0.0,"pressure":940.7,"uv_index":9.05,"wind_gusts":40.7,"aqi":91,"pm10":15.5,"pm2_5":10.1,"no2":4.0,"co":189.0,"o3":115.0,"so2":4.1,"mosquito_risk":0,"arthritis_risk":5,"migraine_risk":7,"frizz_risk":0,"updated_at":"2026-05-17T20:29:18.446387+05:30"},{"city":"Solapur","state":"Maharashtra","latitude":17.6599,"longitude":75.9064,"temp":36.5,"humidity":21,"rain":0.0,"pressure":952.6,"uv_index":9.1,"wind_gusts":33.5,"aqi":133,"pm10":24.6,"pm2_5":20.7,"no2":12.4,"co":185.0,"o3":107.0,"so2":7.1,"mosquito_risk":0,"arthritis_risk":5,"migraine_risk":10,"frizz_risk":0,"updated_at":"2026-05-17T20:29:18.446397+05:30"},{"city":"Kolhapur","state":"Maharashtra","latitude":16.705,"longitude":74.2433,"temp":28.0,"humidity":76,"rain":0.0,"pressure":944.6,"uv_index":8.8,"wind_gusts":45.0,"aqi":111,"pm10":29.1,"pm2_5":19.7,"no2":4.2,"co":174.0,"o3":98.0,"so2":5.5,"mosquito_risk":7,"arthritis_risk":5,"migraine_risk":7,"frizz_risk":1,"updated_at":"2026-05-17T20:29:18.446405+05:30"},{"city":"Goa","state":"Goa","latitude":15.2993,"longitude":74.124,"temp":29.3,"humidity":81,"rain":0.0,"pressure":995.2,"uv_index":8.9,"wind_gusts":34.9,"aqi":56,"pm10":38.4,"pm2_5":16.8,"no2":1.5,"co":162.0,"o3":62.0,"so2":1.3,"mosquito_risk":7,"arthritis_risk":5,"migraine_risk":7,"frizz_risk":1,"updated_at":"2026-05-17T20:29:18.446414+05:30"},{"city":"Jodhpur","state":"Rajasthan","latitude":26.2389,"longitude":73.0243,"temp":38.3,"humidity":19,"rain":0.0,"pressure":978.1,"uv_index":8.45,"wind_gusts":33.5,"aqi":77,"pm10":110.8,"pm2_5":27.2,"no2":5.6,"co":204.0,"o3":87.0,"so2":3.6,"mosquito_risk":0,"arthritis_risk":5,"migraine_risk":10,"frizz_risk":0,"updated_at":"2026-05-17T20:29:18.446423+05:30"},{"city":"Udaipur","state":"Rajasthan","latitude":24.5854,"longitude":73.7125,"temp":34.3,"humidity":24,"rain":0.0,"pressure":943.3,"uv_index":8.85,"wind_gusts":33.5,"aqi":59,"pm10":51.6,"pm2_5":18.8,"no2":4.5,"co":178.0,"o3":92.0,"so2":4.1,"mosquito_risk":0,"arthritis_risk":5,"migraine_risk":7,"frizz_risk":0,"updated_at":"2026-05-17T20:29:18.446432+05:30"},{"city":"Kota","state":"Rajasthan","latitude":25.2138,"longitude":75.8648,"temp":38.1,"humidity":14,"rain":0.0,"pressure":973.6,"uv_index":8.4,"wind_gusts":31.0,"aqi":108,"pm10":131.8,"pm2_5":35.5,"no2":7.8,"co":219.0,"o3":99.0,"so2":4.6,"mosquito_risk":0,"arthritis_risk":5,"migraine_risk":10,"frizz_risk":0,"updated_at":"2026-05-17T20:29:18.446440+05:30"},{"city":"Bikaner","state":"Rajasthan","latitude":28.0229,"longitude":73.3119,"temp":37.7,"humidity":20,"rain":0.0,"pressure":976.5,"uv_index":8.4,"wind_gusts":37.8,"aqi":77,"pm10":61.9,"pm2_5":20.3,"no2":1.7,"co":184.0,"o3":86.0,"so2":2.0,"mosquito_risk":0,"arthritis_risk":5,"migraine_risk":10,"frizz_risk":0,"updated_at":"2026-05-17T20:29:18.446449+05:30"},{"city":"Ajmer","state":"Rajasthan","latitude":26.4499,"longitude":74.6399,"temp":36.2,"humidity":20,"rain":0.0,"pressure":951.0,"uv_index":8.4,"wind_gusts":46.8,"aqi":82,"pm10":81.3,"pm2_5":25.8,"no2":5.5,"co":182.0,"o3":86.0,"so2":2.9,"mosquito_risk":0,"arthritis_risk":5,"migraine_risk":10,"frizz_risk":0,"updated_at":"2026-05-17T20:29:18.446458+05:30"},{"city":"Gwalior","state":"Madhya Pradesh","latitude":26.2183,"longitude":78.1828,"temp":36.8,"humidity":21,"rain":0.0,"pressure":977.3,"uv_index":8.25,"wind_gusts":40.7,"aqi":275,"pm10":88.2,"pm2_5":31.9,"no2":6.0,"co":210.0,"o3":86.0,"so2":5.2,"mosquito_risk":0,"arthritis_risk":5,"migraine_risk":10,"frizz_risk":0,"updated_at":"2026-05-17T20:29:18.446466+05:30"},{"city":"Indore","state":"Madhya Pradesh","latitude":22.7196,"longitude":75.8577,"temp":37.6,"humidity":17,"rain":0.0,"pressure":943.8,"uv_index":8.7,"wind_gusts":43.6,"aqi":83,"pm10":42.4,"pm2_5":21.2,"no2":9.7,"co":442.0,"o3":105.0,"so2":7.5,"mosquito_risk":0,"arthritis_risk":5,"migraine_risk":10,"frizz_risk":0,"updated_at":"2026-05-17T20:29:18.446475+05:30"},{"city":"Bhopal","state":"Madhya Pradesh","latitude":23.2599,"longitude":77.4126,"temp":36.3,"humidity":19,"rain":0.0,"pressure":949.3,"uv_index":8.7,"wind_gusts":38.9,"aqi":81,"pm10":24.3,"pm2_5":15.9,"no2":6.6,"co":240.0,"o3":96.0,"so2":4.4,"mosquito_risk":0,"arthritis_risk":5,"migraine_risk":10,"frizz_risk":0,"updated_at":"2026-05-17T20:29:18.446483+05:30"},{"city":"Jabalpur","state":"Madhya Pradesh","latitude":23.1815,"longitude":79.9864,"temp":34.7,"humidity":25,"rain":0.0,"pressure":956.8,"uv_index":8.9,"wind_gusts":39.2,"aqi":98,"pm10":42.4,"pm2_5":25.4,"no2":10.3,"co":224.0,"o3":100.0,"so2":5.3,"mosquito_risk":0,"arthritis_risk":5,"migraine_risk":7,"frizz_risk":0,"updated_at":"2026-05-17T20:29:18.446492+05:30"},{"city":"Ujjain","state":"Madhya Pradesh","latitude":23.1765,"longitude":75.7885,"temp":37.4,"humidity":17,"rain":0.0,"pressure":949.3,"uv_index":8.65,"wind_gusts":39.6,"aqi":85,"pm10":55.8,"pm2_5":24.6,"no2":3.3,"co":230.0,"o3":111.0,"so2":6.0,"mosquito_risk":0,"arthritis_risk":5,"migraine_risk":10,"frizz_risk":0,"updated_at":"2026-05-17T20:29:18.446501+05:30"},{"city":"Visakhapatnam","state":"Andhra Pradesh","latitude":17.6868,"longitude":83.2185,"temp":30.1,"humidity":79,"rain":0.0,"pressure":1000.8,"uv_index":8.75,"wind_gusts":43.2,"aqi":60,"pm10":24.0,"pm2_5":17.7,"no2":15.0,"co":273.0,"o3":66.0,"so2":28.2,"mosquito_risk":3,"arthritis_risk":5,"migraine_risk":4,"frizz_risk":1,"updated_at":"2026-05-17T20:29:18.446510+05:30"},{"city":"Vijayawada","state":"Andhra Pradesh","latitude":16.5062,"longitude":80.648,"temp":32.1,"humidity":63,"rain":0.0,"pressure":999.1,"uv_index":9.2,"wind_gusts":32.8,"aqi":50,"pm10":20.0,"pm2_5":15.8,"no2":5.8,"co":226.0,"o3":80.0,"so2":7.7,"mosquito_risk":3,"arthritis_risk":5,"migraine_risk":7,"frizz_risk":1,"updated_at":"2026-05-17T20:29:18.446519+05:30"},{"city":"Guntur","state":"Andhra Pradesh","latitude":16.3067,"longitude":80.4365,"temp":31.0,"humidity":68,"rain":0.0,"pressure":1000.3,"uv_index":9.2,"wind_gusts":33.5,"aqi":48,"pm10":19.0,"pm2_5":15.7,"no2":4.8,"co":228.0,"o3":84.0,"so2":5.0,"mosquito_risk":3,"arthritis_risk":5,"migraine_risk":4,"frizz_risk":1,"updated_at":"2026-05-17T20:29:18.446528+05:30"},{"city":"Nellore","state":"Andhra Pradesh","latitude":14.4426,"longitude":79.9865,"temp":30.5,"humidity":75,"rain":0.0,"pressure":1002.9,"uv_index":9.15,"wind_gusts":37.1,"aqi":105,"pm10":29.7,"pm2_5":21.5,"no2":2.3,"co":184.0,"o3":127.0,"so2":5.9,"mosquito_risk":3,"arthritis_risk":5,"migraine_risk":4,"frizz_risk":1,"updated_at":"2026-05-17T20:29:18.446537+05:30"},{"city":"Kurnool","state":"Andhra Pradesh","latitude":15.8281,"longitude":78.0373,"temp":35.5,"humidity":38,"rain":0.0,"pressure":973.2,"uv_index":9.15,"wind_gusts":32.4,"aqi":63,"pm10":36.4,"pm2_5":21.6,"no2":7.4,"co":210.0,"o3":86.0,"so2":3.4,"mosquito_risk":0,"arthritis_risk":5,"migraine_risk":10,"frizz_risk":1,"updated_at":"2026-05-17T20:29:18.446548+05:30"},{"city":"Kakinada","state":"Andhra Pradesh","latitude":16.9891,"longitude":82.2475,"temp":30.7,"humidity":73,"rain":0.0,"pressure":1004.2,"uv_index":8.7,"wind_gusts":36.0,"aqi":43,"pm10":21.8,"pm2_5":14.0,"no2":1.6,"co":206.0,"o3":78.0,"so2":1.5,"mosquito_risk":3,"arthritis_risk":5,"migraine_risk":4,"frizz_risk":1,"updated_at":"2026-05-17T20:29:18.446556+05:30"},{"city":"Tirupati","state":"Andhra Pradesh","latitude":13.6288,"longitude":79.4192,"temp":29.2,"humidity":70,"rain":0.1,"pressure":988.7,"uv_index":9.25,"wind_gusts":29.5,"aqi":105,"pm10":30.2,"pm2_5":27.0,"no2":7.8,"co":278.0,"o3":130.0,"so2":13.2,"mosquito_risk":10,"arthritis_risk":5,"migraine_risk":7,"frizz_risk":1,"updated_at":"2026-05-17T20:29:18.446565+05:30"},{"city":"Warangal","state":"Telangana","latitude":17.9689,"longitude":79.5941,"temp":32.8,"humidity":53,"rain":0.0,"pressure":975.4,"uv_index":8.8,"wind_gusts":31.0,"aqi":76,"pm10":38.2,"pm2_5":30.4,"no2":9.9,"co":404.0,"o3":98.0,"so2":5.5,"mosquito_risk":0,"arthritis_risk":5,"migraine_risk":7,"frizz_risk":1,"updated_at":"2026-05-17T20:29:18.446574+05:30"},{"city":"Nizamabad","state":"Telangana","latitude":18.6725,"longitude":78.0941,"temp":33.5,"humidity":41,"rain":0.0,"pressure":960.7,"uv_index":9.15,"wind_gusts":31.7,"aqi":123,"pm10":37.3,"pm2_5":30.7,"no2":11.5,"co":243.0,"o3":106.0,"so2":6.3,"mosquito_risk":0,"arthritis_risk":5,"migraine_risk":7,"frizz_risk":1,"updated_at":"2026-05-17T20:29:18.446582+05:30"},{"city":"Mysore","state":"Karnataka","latitude":12.2958,"longitude":76.6396,"temp":24.7,"humidity":84,"rain":0.0,"pressure":926.3,"uv_index":9.1,"wind_gusts":36.4,"aqi":97,"pm10":42.0,"pm2_5":29.3,"no2":15.2,"co":313.0,"o3":89.0,"so2":4.7,"mosquito_risk":3,"arthritis_risk":5,"migraine_risk":7,"frizz_risk":1,"updated_at":"2026-05-17T20:29:18.446590+05:30"},{"city":"Mangalore","state":"Karnataka","latitude":12.9141,"longitude":74.856,"temp":26.5,"humidity":95,"rain":0.0,"pressure":1004.5,"uv_index":8.75,"wind_gusts":36.7,"aqi":63,"pm10":22.0,"pm2_5":13.7,"no2":6.2,"co":241.0,"o3":52.0,"so2":2.0,"mosquito_risk":7,"arthritis_risk":5,"migraine_risk":4,"frizz_risk":1,"updated_at":"2026-05-17T20:29:18.446599+05:30"},{"city":"Hubli-Dharwad","state":"Karnataka","latitude":15.3647,"longitude":75.124,"temp":25.3,"humidity":97,"rain":0.2,"pressure":938.9,"uv_index":9.15,"wind_gusts":52.9,"aqi":95,"pm10":13.7,"pm2_5":9.7,"no2":4.6,"co":200.0,"o3":79.0,"so2":2.8,"mosquito_risk":10,"arthritis_risk":5,"migraine_risk":7,"frizz_risk":1,"updated_at":"2026-05-17T20:29:18.446608+05:30"},{"city":"Belgaum","state":"Karnataka","latitude":15.8497,"longitude":74.4977,"temp":24.6,"humidity":95,"rain":0.0,"pressure":923.2,"uv_index":9.15,"wind_gusts":44.6,"aqi":80,"pm10":27.3,"pm2_5":17.1,"no2":3.9,"co":174.0,"o3":77.0,"so2":3.3,"mosquito_risk":3,"arthritis_risk":5,"migraine_risk":7,"frizz_risk":1,"updated_at":"2026-05-17T20:29:21.837619+05:30"},{"city":"Coimbatore","state":"Tamil Nadu","latitude":11.0168,"longitude":76.9558,"temp":25.2,"humidity":87,"rain":0.0,"pressure":959.3,"uv_index":8.7,"wind_gusts":48.2,"aqi":53,"pm10":5.5,"pm2_5":4.8,"no2":6.8,"co":223.0,"o3":68.0,"so2":2.9,"mosquito_risk":7,"arthritis_risk":5,"migraine_risk":7,"frizz_risk":1,"updated_at":"2026-05-17T20:29:21.837653+05:30"},{"city":"Madurai","state":"Tamil Nadu","latitude":9.9252,"longitude":78.1198,"temp":27.0,"humidity":92,"rain":0.0,"pressure":990.3,"uv_index":8.5,"wind_gusts":32.4,"aqi":93,"pm10":29.0,"pm2_5":21.7,"no2":21.0,"co":486.0,"o3":74.0,"so2":6.6,"mosquito_risk":7,"arthritis_risk":5,"migraine_risk":7,"frizz_risk":1,"updated_at":"2026-05-17T20:29:21.837667+05:30"},{"city":"Trichy","state":"Tamil Nadu","latitude":10.7905,"longitude":78.7047,"temp":28.1,"humidity":91,"rain":0.0,"pressure":997.2,"uv_index":8.45,"wind_gusts":40.0,"aqi":82,"pm10":21.9,"pm2_5":19.3,"no2":10.7,"co":287.0,"o3":89.0,"so2":4.7,"mosquito_risk":7,"arthritis_risk":5,"migraine_risk":7,"frizz_risk":1,"updated_at":"2026-05-17T20:29:21.837678+05:30"},{"city":"Salem","state":"Tamil Nadu","latitude":11.6643,"longitude":78.146,"temp":26.6,"humidity":80,"rain":0.0,"pressure":975.0,"uv_index":8.5,"wind_gusts":43.2,"aqi":141,"pm10":35.5,"pm2_5":26.1,"no2":9.8,"co":310.0,"o3":126.0,"so2":8.1,"mosquito_risk":7,"arthritis_risk":5,"migraine_risk":7,"frizz_risk":1,"updated_at":"2026-05-17T20:29:21.837689+05:30"},{"city":"Tirunelveli","state":"Tamil Nadu","latitude":8.7139,"longitude":77.7567,"temp":29.8,"humidity":67,"rain":0.0,"pressure":1000.7,"uv_index":8.95,"wind_gusts":28.8,"aqi":41,"pm10":6.0,"pm2_5":5.3,"no2":4.3,"co":288.0,"o3":72.0,"so2":1.1,"mosquito_risk":7,"arthritis_risk":5,"migraine_risk":4,"frizz_risk":1,"updated_at":"2026-05-17T20:29:21.837698+05:30"},{"city":"Vellore","state":"Tamil Nadu","latitude":12.9165,"longitude":79.1325,"temp":27.1,"humidity":95,"rain":0.1,"pressure":981.9,"uv_index":9.2,"wind_gusts":23.4,"aqi":95,"pm10":34.2,"pm2_5":27.9,"no2":7.8,"co":336.0,"o3":106.0,"so2":6.4,"mosquito_risk":10,"arthritis_risk":5,"migraine_risk":7,"frizz_risk":1,"updated_at":"2026-05-17T20:29:21.837706+05:30"},{"city":"Erode","state":"Tamil Nadu","latitude":11.341,"longitude":77.7172,"temp":28.8,"humidity":70,"rain":0.0,"pressure":986.6,"uv_index":8.55,"wind_gusts":34.6,"aqi":103,"pm10":17.5,"pm2_5":13.8,"no2":9.7,"co":397.0,"o3":91.0,"so2":2.9,"mosquito_risk":7,"arthritis_risk":5,"migraine_risk":7,"frizz_risk":1,"updated_at":"2026-05-17T20:29:21.837713+05:30"},{"city":"Kochi","state":"Kerala","latitude":9.9312,"longitude":76.2673,"temp":26.2,"humidity":94,"rain":0.1,"pressure":1007.2,"uv_index":8.7,"wind_gusts":28.4,"aqi":52,"pm10":18.3,"pm2_5":15.0,"no2":14.2,"co":261.0,"o3":48.0,"so2":4.7,"mosquito_risk":10,"arthritis_risk":5,"migraine_risk":4,"frizz_risk":1,"updated_at":"2026-05-17T20:29:21.837721+05:30"},{"city":"Thiruvananthapuram","state":"Kerala","latitude":8.5241,"longitude":76.9366,"temp":25.6,"humidity":96,"rain":0.1,"pressure":1006.9,"uv_index":8.3,"wind_gusts":33.5,"aqi":42,"pm10":12.3,"pm2_5":7.6,"no2":1.6,"co":170.0,"o3":79.0,"so2":0.6,"mosquito_risk":10,"arthritis_risk":5,"migraine_risk":4,"frizz_risk":1,"updated_at":"2026-05-17T20:29:21.837728+05:30"},{"city":"Kozhikode","state":"Kerala","latitude":11.2588,"longitude":75.7804,"temp":26.0,"humidity":99,"rain":0.0,"pressure":1005.8,"uv_index":8.65,"wind_gusts":40.7,"aqi":51,"pm10":21.3,"pm2_5":12.3,"no2":1.1,"co":430.0,"o3":79.0,"so2":0.8,"mosquito_risk":7,"arthritis_risk":5,"migraine_risk":4,"frizz_risk":1,"updated_at":"2026-05-17T20:29:21.837735+05:30"},{"city":"Thrissur","state":"Kerala","latitude":10.5276,"longitude":76.2144,"temp":25.3,"humidity":99,"rain":0.2,"pressure":1005.4,"uv_index":8.75,"wind_gusts":30.2,"aqi":53,"pm10":14.8,"pm2_5":12.3,"no2":10.7,"co":316.0,"o3":52.0,"so2":3.5,"mosquito_risk":10,"arthritis_risk":5,"migraine_risk":4,"frizz_risk":1,"updated_at":"2026-05-17T20:29:21.837744+05:30"},{"city":"Kannur","state":"Kerala","latitude":11.8745,"longitude":75.3704,"temp":27.4,"humidity":93,"rain":0.0,"pressure":1004.6,"uv_index":8.9,"wind_gusts":37.1,"aqi":58,"pm10":22.4,"pm2_5":14.8,"no2":11.2,"co":254.0,"o3":52.0,"so2":2.7,"mosquito_risk":7,"arthritis_risk":5,"migraine_risk":4,"frizz_risk":1,"updated_at":"2026-05-17T20:29:21.837751+05:30"},{"city":"Patna","state":"Bihar","latitude":25.5941,"longitude":85.1376,"temp":31.2,"humidity":67,"rain":0.0,"pressure":993.8,"uv_index":8.8,"wind_gusts":39.2,"aqi":150,"pm10":105.2,"pm2_5":55.8,"no2":30.9,"co":454.0,"o3":81.0,"so2":17.1,"mosquito_risk":3,"arthritis_risk":5,"migraine_risk":7,"frizz_risk":1,"updated_at":"2026-05-17T20:29:21.837758+05:30"},{"city":"Gaya","state":"Bihar","latitude":24.7914,"longitude":85.0002,"temp":31.7,"humidity":37,"rain":0.0,"pressure":987.3,"uv_index":8.85,"wind_gusts":40.0,"aqi":152,"pm10":99.4,"pm2_5":43.4,"no2":13.3,"co":450.0,"o3":96.0,"so2":9.4,"mosquito_risk":0,"arthritis_risk":5,"migraine_risk":7,"frizz_risk":0,"updated_at":"2026-05-17T20:29:21.837765+05:30"},{"city":"Muzaffarpur","state":"Bihar","latitude":26.1209,"longitude":85.3647,"temp":30.2,"humidity":71,"rain":0.0,"pressure":993.7,"uv_index":8.8,"wind_gusts":24.8,"aqi":158,"pm10":122.0,"pm2_5":71.7,"no2":38.4,"co":686.0,"o3":83.0,"so2":20.2,"mosquito_risk":3,"arthritis_risk":5,"migraine_risk":7,"frizz_risk":1,"updated_at":"2026-05-17T20:29:21.837772+05:30"},{"city":"Bhagalpur","state":"Bihar","latitude":25.2425,"longitude":87.0117,"temp":29.9,"humidity":75,"rain":0.0,"pressure":995.1,"uv_index":8.8,"wind_gusts":25.6,"aqi":164,"pm10":79.9,"pm2_5":55.3,"no2":9.3,"co":451.0,"o3":139.0,"so2":13.1,"mosquito_risk":7,"arthritis_risk":5,"migraine_risk":7,"frizz_risk":1,"updated_at":"2026-05-17T20:29:21.837779+05:30"},{"city":"Ranchi","state":"Jharkhand","latitude":23.3441,"longitude":85.3096,"temp":26.2,"humidity":65,"rain":0.0,"pressure":933.6,"uv_index":9.3,"wind_gusts":41.8,"aqi":127,"pm10":68.2,"pm2_5":50.2,"no2":12.8,"co":440.0,"o3":96.0,"so2":9.4,"mosquito_risk":7,"arthritis_risk":5,"migraine_risk":7,"frizz_risk":1,"updated_at":"2026-05-17T20:29:21.837786+05:30"},{"city":"Jamshedpur","state":"Jharkhand","latitude":22.8046,"longitude":86.2029,"temp":30.8,"humidity":62,"rain":0.0,"pressure":986.0,"uv_index":9.1,"wind_gusts":34.6,"aqi":151,"pm10":78.2,"pm2_5":60.3,"no2":17.6,"co":451.0,"o3":108.0,"so2":18.8,"mosquito_risk":3,"arthritis_risk":5,"migraine_risk":7,"frizz_risk":1,"updated_at":"2026-05-17T20:29:21.837793+05:30"},{"city":"Dhanbad","state":"Jharkhand","latitude":23.7957,"longitude":86.4304,"temp":31.1,"humidity":51,"rain":0.0,"pressure":974.1,"uv_index":9.05,"wind_gusts":38.9,"aqi":148,"pm10":92.7,"pm2_5":70.1,"no2":44.7,"co":311.0,"o3":70.0,"so2":109.2,"mosquito_risk":0,"arthritis_risk":5,"migraine_risk":7,"frizz_risk":1,"updated_at":"2026-05-17T20:29:21.837800+05:30"},{"city":"Bokaro","state":"Jharkhand","latitude":23.6693,"longitude":86.1511,"temp":30.5,"humidity":52,"rain":0.0,"pressure":977.8,"uv_index":9.05,"wind_gusts":48.6,"aqi":151,"pm10":86.8,"pm2_5":63.1,"no2":35.2,"co":496.0,"o3":77.0,"so2":87.3,"mosquito_risk":0,"arthritis_risk":5,"migraine_risk":7,"frizz_risk":1,"updated_at":"2026-05-17T20:29:21.837807+05:30"},{"city":"Bhubaneswar","state":"Odisha","latitude":20.2961,"longitude":85.8245,"temp":30.0,"humidity":80,"rain":0.0,"pressure":999.3,"uv_index":8.8,"wind_gusts":45.4,"aqi":58,"pm10":19.6,"pm2_5":14.6,"no2":5.0,"co":198.0,"o3":81.0,"so2":5.5,"mosquito_risk":7,"arthritis_risk":5,"migraine_risk":7,"frizz_risk":1,"updated_at":"2026-05-17T20:29:21.837814+05:30"},{"city":"Cuttack","state":"Odisha","latitude":20.4625,"longitude":85.8828,"temp":30.5,"humidity":75,"rain":0.0,"pressure":1001.0,"uv_index":8.95,"wind_gusts":45.4,"aqi":58,"pm10":19.6,"pm2_5":14.6,"no2":5.0,"co":222.0,"o3":81.0,"so2":5.5,"mosquito_risk":3,"arthritis_risk":5,"migraine_risk":4,"frizz_risk":1,"updated_at":"2026-05-17T20:29:21.837821+05:30"},{"city":"Rourkela","state":"Odisha","latitude":22.2604,"longitude":84.8536,"temp":31.2,"humidity":66,"rain":0.0,"pressure":980.3,"uv_index":9.0,"wind_gusts":33.5,"aqi":165,"pm10":97.8,"pm2_5":73.8,"no2":17.3,"co":408.0,"o3":142.0,"so2":16.5,"mosquito_risk":3,"arthritis_risk":5,"migraine_risk":7,"frizz_risk":1,"updated_at":"2026-05-17T20:29:21.837828+05:30"},{"city":"Raipur","state":"Chhattisgarh","latitude":21.2514,"longitude":81.6296,"temp":33.6,"humidity":48,"rain":0.0,"pressure":969.8,"uv_index":9.0,"wind_gusts":32.4,"aqi":136,"pm10":59.3,"pm2_5":50.4,"no2":29.4,"co":405.0,"o3":92.0,"so2":37.5,"mosquito_risk":0,"arthritis_risk":5,"migraine_risk":7,"frizz_risk":1,"updated_at":"2026-05-17T20:29:21.837834+05:30"},{"city":"Bhilai","state":"Chhattisgarh","latitude":21.1938,"longitude":81.3509,"temp":33.3,"humidity":49,"rain":0.0,"pressure":970.1,"uv_index":9.0,"wind_gusts":31.7,"aqi":111,"pm10":49.5,"pm2_5":43.2,"no2":32.2,"co":429.0,"o3":79.0,"so2":37.1,"mosquito_risk":0,"arthritis_risk":5,"migraine_risk":7,"frizz_risk":1,"updated_at":"2026-05-17T20:29:21.837841+05:30"},{"city":"Guwahati","state":"Assam","latitude":26.1158,"longitude":91.7086,"temp":23.5,"humidity":98,"rain":0.1,"pressure":999.1,"uv_index":8.75,"wind_gusts":25.2,"aqi":86,"pm10":29.3,"pm2_5":23.6,"no2":5.5,"co":312.0,"o3":88.0,"so2":3.9,"mosquito_risk":6,"arthritis_risk":5,"migraine_risk":7,"frizz_risk":1,"updated_at":"2026-05-17T20:29:21.837848+05:30"},{"city":"Agartala","state":"Tripura","latitude":23.8315,"longitude":91.2868,"temp":28.0,"humidity":82,"rain":0.0,"pressure":1002.5,"uv_index":8.9,"wind_gusts":28.8,"aqi":69,"pm10":36.9,"pm2_5":31.8,"no2":21.0,"co":259.0,"o3":49.0,"so2":4.6,"mosquito_risk":7,"arthritis_risk":5,"migraine_risk":4,"frizz_risk":1,"updated_at":"2026-05-17T20:29:21.837855+05:30"},{"city":"Shillong","state":"Meghalaya","latitude":25.5788,"longitude":91.8933,"temp":17.2,"humidity":95,"rain":0.0,"pressure":854.0,"uv_index":9.15,"wind_gusts":45.4,"aqi":63,"pm10":24.2,"pm2_5":19.5,"no2":6.5,"co":305.0,"o3":84.0,"so2":3.9,"mosquito_risk":3,"arthritis_risk":10,"migraine_risk":7,"frizz_risk":1,"updated_at":"2026-05-17T20:29:21.837862+05:30"},{"city":"Imphal","state":"Manipur","latitude":24.817,"longitude":93.9368,"temp":22.2,"humidity":93,"rain":0.0,"pressure":920.4,"uv_index":9.0,"wind_gusts":31.0,"aqi":71,"pm10":46.6,"pm2_5":34.9,"no2":19.3,"co":684.0,"o3":57.0,"so2":7.1,"mosquito_risk":3,"arthritis_risk":5,"migraine_risk":7,"frizz_risk":1,"updated_at":"2026-05-17T20:29:21.837870+05:30"},{"city":"Aizawl","state":"Mizoram","latitude":23.7271,"longitude":92.7176,"temp":21.4,"humidity":84,"rain":0.0,"pressure":890.2,"uv_index":9.05,"wind_gusts":28.8,"aqi":52,"pm10":32.0,"pm2_5":20.4,"no2":3.8,"co":236.0,"o3":84.0,"so2":3.5,"mosquito_risk":3,"arthritis_risk":5,"migraine_risk":7,"frizz_risk":1,"updated_at":"2026-05-17T20:29:21.837877+05:30"},{"city":"Kohima","state":"Nagaland","latitude":25.6701,"longitude":94.1077,"temp":17.3,"humidity":92,"rain":0.0,"pressure":852.1,"uv_index":8.7,"wind_gusts":29.9,"aqi":62,"pm10":30.4,"pm2_5":20.3,"no2":11.1,"co":333.0,"o3":52.0,"so2":3.1,"mosquito_risk":3,"arthritis_risk":10,"migraine_risk":7,"frizz_risk":0,"updated_at":"2026-05-17T20:29:21.837884+05:30"},{"city":"Gangtok","state":"Sikkim","latitude":27.3314,"longitude":88.6138,"temp":15.7,"humidity":97,"rain":0.5,"pressure":833.8,"uv_index":9.1,"wind_gusts":38.2,"aqi":89,"pm10":26.7,"pm2_5":21.7,"no2":10.0,"co":437.0,"o3":101.0,"so2":2.3,"mosquito_risk":6,"arthritis_risk":10,"migraine_risk":7,"frizz_risk":0,"updated_at":"2026-05-17T20:29:21.837891+05:30"},{"city":"Siliguri","state":"West Bengal","latitude":26.7271,"longitude":88.3953,"temp":24.3,"humidity":94,"rain":0.1,"pressure":988.7,"uv_index":8.7,"wind_gusts":31.0,"aqi":103,"pm10":38.6,"pm2_5":31.9,"no2":11.0,"co":540.0,"o3":110.0,"so2":5.5,"mosquito_risk":6,"arthritis_risk":5,"migraine_risk":7,"frizz_risk":1,"updated_at":"2026-05-17T20:29:25.216317+05:30"},{"city":"Durgapur","state":"West Bengal","latitude":23.5204,"longitude":87.3119,"temp":30.0,"humidity":71,"rain":0.0,"pressure":989.7,"uv_index":8.95,"wind_gusts":35.6,"aqi":157,"pm10":74.7,"pm2_5":63.3,"no2":22.1,"co":550.0,"o3":125.0,"so2":41.6,"mosquito_risk":7,"arthritis_risk":5,"migraine_risk":7,"frizz_risk":1,"updated_at":"2026-05-17T20:29:25.216350+05:30"},{"city":"Asansol","state":"West Bengal","latitude":23.6739,"longitude":86.9524,"temp":30.9,"humidity":58,"rain":0.0,"pressure":987.8,"uv_index":9.0,"wind_gusts":38.2,"aqi":135,"pm10":69.8,"pm2_5":54.6,"no2":24.5,"co":351.0,"o3":101.0,"so2":39.7,"mosquito_risk":0,"arthritis_risk":5,"migraine_risk":7,"frizz_risk":1,"updated_at":"2026-05-17T20:29:25.216362+05:30"},{"city":"Pondicherry","state":"Puducherry","latitude":11.9139,"longitude":79.8145,"temp":29.2,"humidity":80,"rain":0.0,"pressure":1005.4,"uv_index":9.05,"wind_gusts":43.2,"aqi":113,"pm10":25.8,"pm2_5":17.7,"no2":4.3,"co":357.0,"o3":108.0,"so2":3.6,"mosquito_risk":7,"arthritis_risk":5,"migraine_risk":4,"frizz_risk":1,"updated_at":"2026-05-17T20:29:25.216372+05:30"},{"city":"Port Blair","state":"Andaman and Nicobar Islands","latitude":11.6234,"longitude":92.7265,"temp":26.2,"humidity":97,"rain":0.0,"pressure":1006.2,"uv_index":2.0,"wind_gusts":41.0,"aqi":28,"pm10":5.1,"pm2_5":3.1,"no2":0.4,"co":116.0,"o3":47.0,"so2":0.2,"mosquito_risk":7,"arthritis_risk":5,"migraine_risk":0,"frizz_risk":1,"updated_at":"2026-05-17T20:29:25.216381+05:30"},{"city":"Haridwar","state":"Uttarakhand","latitude":29.9457,"longitude":78.1642,"temp":30.2,"humidity":41,"rain":0.0,"pressure":966.8,"uv_index":7.5,"wind_gusts":34.6,"aqi":144,"pm10":46.6,"pm2_5":21.4,"no2":6.9,"co":271.0,"o3":127.0,"so2":8.6,"mosquito_risk":0,"arthritis_risk":5,"migraine_risk":7,"frizz_risk":0,"updated_at":"2026-05-17T20:29:25.216390+05:30"},{"city":"Rishikesh","state":"Uttarakhand","latitude":30.0869,"longitude":78.2676,"temp":29.1,"humidity":45,"rain":0.0,"pressure":959.7,"uv_index":7.65,"wind_gusts":32.4,"aqi":142,"pm10":38.1,"pm2_5":16.2,"no2":4.7,"co":289.0,"o3":146.0,"so2":7.7,"mosquito_risk":4,"arthritis_risk":5,"migraine_risk":7,"frizz_risk":0,"updated_at":"2026-05-17T20:29:25.216398+05:30"},{"city":"Nainital","state":"Uttarakhand","latitude":29.3919,"longitude":79.4542,"temp":17.0,"humidity":64,"rain":0.0,"pressure":801.9,"uv_index":8.5,"wind_gusts":38.9,"aqi":147,"pm10":72.2,"pm2_5":25.0,"no2":4.2,"co":242.0,"o3":142.0,"so2":6.3,"mosquito_risk":3,"arthritis_risk":5,"migraine_risk":7,"frizz_risk":0,"updated_at":"2026-05-17T20:29:25.216406+05:30"},{"city":"Mussoorie","state":"Uttarakhand","latitude":30.4599,"longitude":78.0664,"temp":16.8,"humidity":64,"rain":0.0,"pressure":799.0,"uv_index":8.05,"wind_gusts":55.1,"aqi":142,"pm10":21.1,"pm2_5":16.5,"no2":8.1,"co":314.0,"o3":136.0,"so2":7.6,"mosquito_risk":3,"arthritis_risk":5,"migraine_risk":7,"frizz_risk":0,"updated_at":"2026-05-17T20:29:25.216414+05:30"},{"city":"Dharamshala","state":"Himachal Pradesh","latitude":32.219,"longitude":76.3234,"temp":22.1,"humidity":50,"rain":0.0,"pressure":865.5,"uv_index":8.4,"wind_gusts":44.3,"aqi":103,"pm10":20.9,"pm2_5":15.6,"no2":7.7,"co":226.0,"o3":95.0,"so2":1.8,"mosquito_risk":0,"arthritis_risk":5,"migraine_risk":7,"frizz_risk":0,"updated_at":"2026-05-17T20:29:25.216422+05:30"},{"city":"Dalhousie","state":"Himachal Pradesh","latitude":32.5387,"longitude":75.971,"temp":17.9,"humidity":57,"rain":0.0,"pressure":802.6,"uv_index":8.65,"wind_gusts":38.5,"aqi":131,"pm10":26.0,"pm2_5":17.6,"no2":12.4,"co":327.0,"o3":129.0,"so2":3.3,"mosquito_risk":0,"arthritis_risk":5,"migraine_risk":7,"frizz_risk":0,"updated_at":"2026-05-17T20:29:25.216431+05:30"},{"city":"Patiala","state":"Punjab","latitude":30.3398,"longitude":76.3869,"temp":33.2,"humidity":30,"rain":0.0,"pressure":972.1,"uv_index":7.6,"wind_gusts":45.7,"aqi":579,"pm10":884.8,"pm2_5":133.6,"no2":5.7,"co":355.0,"o3":111.0,"so2":6.3,"mosquito_risk":0,"arthritis_risk":5,"migraine_risk":7,"frizz_risk":0,"updated_at":"2026-05-17T20:29:25.216438+05:30"},{"city":"Bhatinda","state":"Punjab","latitude":30.211,"longitude":74.9455,"temp":33.5,"humidity":39,"rain":0.0,"pressure":977.9,"uv_index":8.25,"wind_gusts":38.2,"aqi":104,"pm10":51.7,"pm2_5":25.7,"no2":5.9,"co":302.0,"o3":103.0,"so2":7.2,"mosquito_risk":0,"arthritis_risk":5,"migraine_risk":7,"frizz_risk":1,"updated_at":"2026-05-17T20:29:25.216446+05:30"},{"city":"Rohtak","state":"Haryana","latitude":28.8955,"longitude":76.6066,"temp":34.3,"humidity":28,"rain":0.0,"pressure":975.5,"uv_index":7.75,"wind_gusts":46.8,"aqi":820,"pm10":1046.8,"pm2_5":169.5,"no2":12.1,"co":332.0,"o3":94.0,"so2":7.5,"mosquito_risk":0,"arthritis_risk":5,"migraine_risk":7,"frizz_risk":0,"updated_at":"2026-05-17T20:29:25.216453+05:30"},{"city":"Panipat","state":"Haryana","latitude":29.3909,"longitude":76.9635,"temp":35.0,"humidity":25,"rain":0.0,"pressure":974.0,"uv_index":7.6,"wind_gusts":50.0,"aqi":1750,"pm10":2220.3,"pm2_5":324.1,"no2":8.4,"co":243.0,"o3":100.0,"so2":8.6,"mosquito_risk":0,"arthritis_risk":5,"migraine_risk":7,"frizz_risk":0,"updated_at":"2026-05-17T20:29:25.216460+05:30"},{"city":"Mathura","state":"Uttar Pradesh","latitude":27.4924,"longitude":77.6737,"temp":34.8,"humidity":29,"rain":0.0,"pressure":980.3,"uv_index":8.0,"wind_gusts":43.6,"aqi":700,"pm10":918.3,"pm2_5":142.5,"no2":9.6,"co":392.0,"o3":86.0,"so2":5.4,"mosquito_risk":0,"arthritis_risk":5,"migraine_risk":7,"frizz_risk":0,"updated_at":"2026-05-17T20:29:25.216467+05:30"},{"city":"Vrindavan","state":"Uttar Pradesh","latitude":27.5823,"longitude":77.7027,"temp":33.5,"humidity":34,"rain":0.0,"pressure":980.6,"uv_index":7.95,"wind_gusts":41.4,"aqi":700,"pm10":918.3,"pm2_5":142.5,"no2":9.6,"co":327.0,"o3":86.0,"so2":5.4,"mosquito_risk":0,"arthritis_risk":5,"migraine_risk":7,"frizz_risk":0,"updated_at":"2026-05-17T20:29:25.216475+05:30"},{"city":"Ayodhya","state":"Uttar Pradesh","latitude":26.7922,"longitude":82.1998,"temp":31.8,"humidity":52,"rain":0.0,"pressure":987.9,"uv_index":8.35,"wind_gusts":39.2,"aqi":145,"pm10":96.4,"pm2_5":45.8,"no2":9.1,"co":359.0,"o3":111.0,"so2":9.6,"mosquito_risk":0,"arthritis_risk":5,"migraine_risk":7,"frizz_risk":1,"updated_at":"2026-05-17T20:29:25.216482+05:30"},{"city":"Ratlam","state":"Madhya Pradesh","latitude":23.3315,"longitude":75.0367,"temp":35.5,"humidity":18,"rain":0.0,"pressure":950.0,"uv_index":8.55,"wind_gusts":36.4,"aqi":76,"pm10":51.6,"pm2_5":22.5,"no2":2.6,"co":168.0,"o3":104.0,"so2":4.8,"mosquito_risk":0,"arthritis_risk":5,"migraine_risk":10,"frizz_risk":0,"updated_at":"2026-05-17T20:29:25.216490+05:30"},{"city":"Sagar","state":"Madhya Pradesh","latitude":23.8388,"longitude":78.7378,"temp":34.8,"humidity":23,"rain":0.0,"pressure":946.1,"uv_index":8.75,"wind_gusts":44.6,"aqi":94,"pm10":76.6,"pm2_5":26.3,"no2":3.7,"co":184.0,"o3":106.0,"so2":3.7,"mosquito_risk":0,"arthritis_risk":5,"migraine_risk":7,"frizz_risk":0,"updated_at":"2026-05-17T20:29:25.216497+05:30"},{"city":"Satna","state":"Madhya Pradesh","latitude":24.6005,"longitude":80.8322,"temp":35.0,"humidity":22,"rain":0.0,"pressure":966.3,"uv_index":8.75,"wind_gusts":47.9,"aqi":103,"pm10":104.8,"pm2_5":30.7,"no2":7.4,"co":247.0,"o3":96.0,"so2":3.2,"mosquito_risk":0,"arthritis_risk":5,"migraine_risk":7,"frizz_risk":0,"updated_at":"2026-05-17T20:29:25.216504+05:30"},{"city":"Akola","state":"Maharashtra","latitude":20.7002,"longitude":77.0082,"temp":38.0,"humidity":17,"rain":0.0,"pressure":970.0,"uv_index":8.9,"wind_gusts":33.8,"aqi":106,"pm10":19.2,"pm2_5":14.2,"no2":8.7,"co":233.0,"o3":103.0,"so2":5.5,"mosquito_risk":0,"arthritis_risk":5,"migraine_risk":10,"frizz_risk":0,"updated_at":"2026-05-17T20:29:25.216512+05:30"},{"city":"Amravati","state":"Maharashtra","latitude":20.9374,"longitude":77.7796,"temp":37.8,"humidity":18,"rain":0.0,"pressure":962.5,"uv_index":8.95,"wind_gusts":28.1,"aqi":110,"pm10":23.2,"pm2_5":17.7,"no2":15.9,"co":249.0,"o3":99.0,"so2":7.8,"mosquito_risk":0,"arthritis_risk":5,"migraine_risk":10,"frizz_risk":0,"updated_at":"2026-05-17T20:29:25.216520+05:30"},{"city":"Latur","state":"Maharashtra","latitude":18.4088,"longitude":76.5604,"temp":34.4,"humidity":23,"rain":0.0,"pressure":936.0,"uv_index":9.1,"wind_gusts":37.8,"aqi":118,"pm10":21.3,"pm2_5":17.1,"no2":8.5,"co":246.0,"o3":112.0,"so2":6.9,"mosquito_risk":0,"arthritis_risk":5,"migraine_risk":7,"frizz_risk":0,"updated_at":"2026-05-17T20:29:25.216527+05:30"},{"city":"Nanded","state":"Maharashtra","latitude":19.1383,"longitude":77.3091,"temp":36.5,"humidity":25,"rain":0.0,"pressure":963.6,"uv_index":8.95,"wind_gusts":32.8,"aqi":115,"pm10":25.1,"pm2_5":20.7,"no2":17.4,"co":368.0,"o3":103.0,"so2":7.1,"mosquito_risk":0,"arthritis_risk":5,"migraine_risk":10,"frizz_risk":0,"updated_at":"2026-05-17T20:29:25.216534+05:30"},{"city":"Gulbarga","state":"Karnataka","latitude":17.3297,"longitude":76.8343,"temp":33.8,"humidity":39,"rain":0.0,"pressure":954.8,"uv_index":9.1,"wind_gusts":42.5,"aqi":143,"pm10":38.3,"pm2_5":28.8,"no2":11.1,"co":253.0,"o3":117.0,"so2":8.3,"mosquito_risk":0,"arthritis_risk":5,"migraine_risk":7,"frizz_risk":1,"updated_at":"2026-05-17T20:29:25.216541+05:30"},{"city":"Bidar","state":"Karnataka","latitude":17.9104,"longitude":77.5199,"temp":32.5,"humidity":39,"rain":0.0,"pressure":932.4,"uv_index":9.15,"wind_gusts":33.1,"aqi":130,"pm10":38.9,"pm2_5":31.8,"no2":11.3,"co":241.0,"o3":112.0,"so2":6.9,"mosquito_risk":0,"arthritis_risk":5,"migraine_risk":7,"frizz_risk":1,"updated_at":"2026-05-17T20:29:25.216548+05:30"},{"city":"Hospet","state":"Karnataka","latitude":15.2689,"longitude":76.3909,"temp":25.0,"humidity":81,"rain":0.0,"pressure":953.9,"uv_index":9.2,"wind_gusts":62.6,"aqi":122,"pm10":46.4,"pm2_5":34.5,"no2":17.0,"co":238.0,"o3":109.0,"so2":14.1,"mosquito_risk":7,"arthritis_risk":5,"migraine_risk":7,"frizz_risk":1,"updated_at":"2026-05-17T20:29:25.216555+05:30"},{"city":"Tirupur","state":"Tamil Nadu","latitude":11.1085,"longitude":77.3411,"temp":26.3,"humidity":84,"rain":0.0,"pressure":972.6,"uv_index":8.6,"wind_gusts":52.9,"aqi":91,"pm10":17.5,"pm2_5":13.4,"no2":9.4,"co":212.0,"o3":82.0,"so2":3.8,"mosquito_risk":7,"arthritis_risk":5,"migraine_risk":7,"frizz_risk":1,"updated_at":"2026-05-17T20:29:25.216561+05:30"},{"city":"Alappuzha","state":"Kerala","latitude":9.4981,"longitude":76.3388,"temp":26.3,"humidity":92,"rain":0.0,"pressure":1007.4,"uv_index":8.5,"wind_gusts":24.5,"aqi":51,"pm10":15.5,"pm2_5":11.6,"no2":7.8,"co":132.0,"o3":65.0,"so2":2.1,"mosquito_risk":7,"arthritis_risk":5,"migraine_risk":4,"frizz_risk":1,"updated_at":"2026-05-17T20:29:25.216569+05:30"},{"city":"Munnar","state":"Kerala","latitude":10.0889,"longitude":77.0595,"temp":18.0,"humidity":99,"rain":0.1,"pressure":855.1,"uv_index":7.8,"wind_gusts":25.6,"aqi":43,"pm10":4.8,"pm2_5":4.6,"no2":6.6,"co":210.0,"o3":61.0,"so2":1.6,"mosquito_risk":6,"arthritis_risk":10,"migraine_risk":7,"frizz_risk":1,"updated_at":"2026-05-17T20:29:25.216577+05:30"},{"city":"Silchar","state":"Assam","latitude":24.8333,"longitude":92.7789,"temp":26.2,"humidity":96,"rain":0.0,"pressure":1002.0,"uv_index":8.9,"wind_gusts":27.7,"aqi":67,"pm10":40.2,"pm2_5":31.1,"no2":7.0,"co":347.0,"o3":78.0,"so2":4.4,"mosquito_risk":7,"arthritis_risk":5,"migraine_risk":4,"frizz_risk":1,"updated_at":"2026-05-17T20:29:25.216583+05:30"},{"city":"Dibrugarh","state":"Assam","latitude":27.4728,"longitude":94.912,"temp":22.8,"humidity":93,"rain":0.0,"pressure":993.2,"uv_index":5.7,"wind_gusts":30.2,"aqi":72,"pm10":32.9,"pm2_5":30.0,"no2":15.0,"co":363.0,"o3":58.0,"so2":2.6,"mosquito_risk":3,"arthritis_risk":5,"migraine_risk":3,"frizz_risk":1,"updated_at":"2026-05-17T20:29:25.216591+05:30"}]