[{"city":"Delhi","state":"Delhi","latitude":28.6139,"longitude":77.209,"temp":38.2,"humidity":17,"rain":0.0,"pressure":977.1,"uv_index":7.7,"wind_gusts":43.6,"aqi":602,"pm10":558.8,"pm2_5":120.1,"no2":49.9,"co":526.0,"o3":63.0,"so2":24.2,"mosquito_risk":0,"arthritis_risk":5,"migraine_risk":10,"frizz_risk":0,"updated_at":"2026-05-24T20:36:20.673137+05:30"},{"city":"Mumbai","state":"Maharashtra","latitude":19.076,"longitude":72.8777,"temp":30.7,"humidity":72,"rain":0.0,"pressure":1009.2,"uv_index":6.75,"wind_gusts":42.8,"aqi":39,"pm10":16.1,"pm2_5":11.1,"no2":6.9,"co":215.0,"o3":44.0,"so2":5.3,"mosquito_risk":3,"arthritis_risk":0,"migraine_risk":4,"frizz_risk":1,"updated_at":"2026-05-24T20:36:20.673177+05:30"},{"city":"Bangalore","state":"Karnataka","latitude":12.9716,"longitude":77.5946,"temp":21.9,"humidity":96,"rain":0.1,"pressure":913.8,"uv_index":4.75,"wind_gusts":34.6,"aqi":53,"pm10":28.5,"pm2_5":26.0,"no2":34.4,"co":439.0,"o3":48.0,"so2":10.2,"mosquito_risk":6,"arthritis_risk":5,"migraine_risk":3,"frizz_risk":1,"updated_at":"2026-05-24T20:36:20.673192+05:30"},{"city":"Hyderabad","state":"Telangana","latitude":17.385,"longitude":78.4867,"temp":33.7,"humidity":33,"rain":0.0,"pressure":952.6,"uv_index":9.2,"wind_gusts":47.5,"aqi":70,"pm10":29.5,"pm2_5":24.6,"no2":18.8,"co":316.0,"o3":70.0,"so2":8.2,"mosquito_risk":0,"arthritis_risk":5,"migraine_risk":7,"frizz_risk":0,"updated_at":"2026-05-24T20:36:20.673202+05:30"},{"city":"Chennai","state":"Tamil Nadu","latitude":13.0827,"longitude":80.2707,"temp":30.8,"humidity":71,"rain":0.0,"pressure":1005.9,"uv_index":8.6,"wind_gusts":55.8,"aqi":135,"pm10":30.3,"pm2_5":25.2,"no2":11.2,"co":377.0,"o3":126.0,"so2":9.2,"mosquito_risk":3,"arthritis_risk":5,"migraine_risk":4,"frizz_risk":1,"updated_at":"2026-05-24T20:36:20.673211+05:30"},{"city":"Kolkata","state":"West Bengal","latitude":22.5726,"longitude":88.3639,"temp":29.5,"humidity":89,"rain":0.0,"pressure":1003.4,"uv_index":8.95,"wind_gusts":38.2,"aqi":91,"pm10":38.3,"pm2_5":32.5,"no2":6.5,"co":301.0,"o3":97.0,"so2":7.2,"mosquito_risk":7,"arthritis_risk":5,"migraine_risk":4,"frizz_risk":1,"updated_at":"2026-05-24T20:36:20.673219+05:30"},{"city":"Pune","state":"Maharashtra","latitude":18.5204,"longitude":73.8567,"temp":26.8,"humidity":77,"rain":0.0,"pressure":949.3,"uv_index":8.1,"wind_gusts":52.2,"aqi":41,"pm10":12.8,"pm2_5":9.9,"no2":7.7,"co":205.0,"o3":65.0,"so2":9.6,"mosquito_risk":7,"arthritis_risk":5,"migraine_risk":7,"frizz_risk":1,"updated_at":"2026-05-24T20:36:20.673226+05:30"},{"city":"Ahmedabad","state":"Gujarat","latitude":23.0225,"longitude":72.5714,"temp":38.2,"humidity":31,"rain":0.0,"pressure":999.9,"uv_index":8.15,"wind_gusts":37.1,"aqi":53,"pm10":12.3,"pm2_5":9.5,"no2":4.1,"co":161.0,"o3":61.0,"so2":2.7,"mosquito_risk":0,"arthritis_risk":5,"migraine_risk":10,"frizz_risk":1,"updated_at":"2026-05-24T20:36:20.673233+05:30"},{"city":"Jaipur","state":"Rajasthan","latitude":26.9124,"longitude":75.7873,"temp":37.5,"humidity":18,"rain":0.0,"pressure":957.5,"uv_index":8.25,"wind_gusts":50.0,"aqi":205,"pm10":348.3,"pm2_5":74.3,"no2":4.9,"co":169.0,"o3":87.0,"so2":4.0,"mosquito_risk":0,"arthritis_risk":5,"migraine_risk":10,"frizz_risk":0,"updated_at":"2026-05-24T20:36:20.673245+05:30"},{"city":"Lucknow","state":"Uttar Pradesh","latitude":26.8467,"longitude":80.9462,"temp":36.8,"humidity":26,"rain":0.0,"pressure":988.6,"uv_index":8.2,"wind_gusts":49.0,"aqi":192,"pm10":448.9,"pm2_5":99.2,"no2":13.2,"co":309.0,"o3":102.0,"so2":10.8,"mosquito_risk":0,"arthritis_risk":5,"migraine_risk":10,"frizz_risk":0,"updated_at":"2026-05-24T20:36:20.673252+05:30"},{"city":"Kanpur","state":"Uttar Pradesh","latitude":26.4499,"longitude":80.3319,"temp":37.7,"humidity":22,"rain":0.0,"pressure":986.9,"uv_index":8.2,"wind_gusts":43.2,"aqi":490,"pm10":601.6,"pm2_5":110.8,"no2":14.4,"co":228.0,"o3":92.0,"so2":10.1,"mosquito_risk":0,"arthritis_risk":5,"migraine_risk":10,"frizz_risk":0,"updated_at":"2026-05-24T20:36:20.673259+05:30"},{"city":"Chandigarh","state":"Chandigarh","latitude":30.7333,"longitude":76.7794,"temp":31.9,"humidity":29,"rain":0.0,"pressure":963.3,"uv_index":7.75,"wind_gusts":51.5,"aqi":98,"pm10":71.2,"pm2_5":37.5,"no2":21.7,"co":442.0,"o3":89.0,"so2":10.8,"mosquito_risk":0,"arthritis_risk":5,"migraine_risk":7,"frizz_risk":0,"updated_at":"2026-05-24T20:36:20.673267+05:30"},{"city":"Srinagar","state":"Jammu and Kashmir","latitude":34.0837,"longitude":74.7973,"temp":18.5,"humidity":65,"rain":0.0,"pressure":842.3,"uv_index":8.7,"wind_gusts":25.2,"aqi":78,"pm10":18.5,"pm2_5":12.4,"no2":10.5,"co":385.0,"o3":82.0,"so2":2.4,"mosquito_risk":3,"arthritis_risk":5,"migraine_risk":7,"frizz_risk":0,"updated_at":"2026-05-24T20:36:20.673274+05:30"},{"city":"Jammu","state":"Jammu and Kashmir","latitude":32.7266,"longitude":74.857,"temp":32.3,"humidity":28,"rain":0.0,"pressure":968.3,"uv_index":8.55,"wind_gusts":35.3,"aqi":85,"pm10":63.8,"pm2_5":36.4,"no2":23.6,"co":409.0,"o3":74.0,"so2":6.2,"mosquito_risk":0,"arthritis_risk":5,"migraine_risk":7,"frizz_risk":0,"updated_at":"2026-05-24T20:36:20.673280+05:30"},{"city":"Amritsar","state":"Punjab","latitude":31.634,"longitude":74.8723,"temp":32.8,"humidity":31,"rain":0.0,"pressure":975.7,"uv_index":8.4,"wind_gusts":49.3,"aqi":91,"pm10":73.1,"pm2_5":44.7,"no2":25.2,"co":396.0,"o3":69.0,"so2":7.0,"mosquito_risk":0,"arthritis_risk":5,"migraine_risk":7,"frizz_risk":0,"updated_at":"2026-05-24T20:36:20.673287+05:30"},{"city":"Ludhiana","state":"Punjab","latitude":30.901,"longitude":75.8573,"temp":33.7,"humidity":32,"rain":0.0,"pressure":973.3,"uv_index":8.0,"wind_gusts":40.7,"aqi":90,"pm10":59.5,"pm2_5":39.3,"no2":18.8,"co":312.0,"o3":80.0,"so2":8.0,"mosquito_risk":0,"arthritis_risk":5,"migraine_risk":7,"frizz_risk":0,"updated_at":"2026-05-24T20:36:20.673296+05:30"},{"city":"Jalandhar","state":"Punjab","latitude":31.326,"longitude":75.5762,"temp":34.3,"humidity":24,"rain":0.0,"pressure":974.4,"uv_index":8.2,"wind_gusts":54.7,"aqi":92,"pm10":91.7,"pm2_5":50.9,"no2":29.0,"co":312.0,"o3":75.0,"so2":7.7,"mosquito_risk":0,"arthritis_risk":5,"migraine_risk":7,"frizz_risk":0,"updated_at":"2026-05-24T20:36:20.673306+05:30"},{"city":"Dehradun","state":"Uttarakhand","latitude":30.6284,"longitude":78.0322,"temp":21.2,"humidity":42,"rain":0.0,"pressure":829.8,"uv_index":8.2,"wind_gusts":44.3,"aqi":61,"pm10":85.2,"pm2_5":24.3,"no2":18.8,"co":176.0,"o3":80.0,"so2":1.8,"mosquito_risk":0,"arthritis_risk":5,"migraine_risk":7,"frizz_risk":0,"updated_at":"2026-05-24T20:36:20.673315+05:30"},{"city":"Shimla","state":"Himachal Pradesh","latitude":31.1048,"longitude":77.1734,"temp":17.5,"humidity":37,"rain":0.0,"pressure":784.1,"uv_index":8.25,"wind_gusts":65.5,"aqi":68,"pm10":97.6,"pm2_5":27.1,"no2":12.6,"co":229.0,"o3":89.0,"so2":3.2,"mosquito_risk":0,"arthritis_risk":5,"migraine_risk":7,"frizz_risk":0,"updated_at":"2026-05-24T20:36:20.673326+05:30"},{"city":"Manali","state":"Himachal Pradesh","latitude":32.2396,"longitude":77.1887,"temp":13.9,"humidity":72,"rain":0.0,"pressure":818.2,"uv_index":9.65,"wind_gusts":45.0,"aqi":96,"pm10":13.0,"pm2_5":5.7,"no2":17.7,"co":214.0,"o3":108.0,"so2":0.3,"mosquito_risk":3,"arthritis_risk":5,"migraine_risk":7,"frizz_risk":0,"updated_at":"2026-05-24T20:36:20.673333+05:30"},{"city":"Gurgaon","state":"Haryana","latitude":28.4595,"longitude":77.0266,"temp":35.7,"humidity":24,"rain":0.0,"pressure":975.5,"uv_index":7.8,"wind_gusts":42.5,"aqi":1168,"pm10":791.6,"pm2_5":168.1,"no2":49.5,"co":465.0,"o3":44.0,"so2":19.6,"mosquito_risk":0,"arthritis_risk":5,"migraine_risk":10,"frizz_risk":0,"updated_at":"2026-05-24T20:36:20.673339+05:30"},{"city":"Noida","state":"Uttar Pradesh","latitude":28.5355,"longitude":77.391,"temp":35.8,"humidity":23,"rain":0.0,"pressure":978.6,"uv_index":7.75,"wind_gusts":40.7,"aqi":1168,"pm10":791.6,"pm2_5":168.1,"no2":49.5,"co":568.0,"o3":44.0,"so2":19.6,"mosquito_risk":0,"arthritis_risk":5,"migraine_risk":10,"frizz_risk":0,"updated_at":"2026-05-24T20:36:20.673346+05:30"},{"city":"Ghaziabad","state":"Uttar Pradesh","latitude":28.6692,"longitude":77.4538,"temp":35.0,"humidity":26,"rain":0.0,"pressure":976.7,"uv_index":7.7,"wind_gusts":45.7,"aqi":450,"pm10":588.6,"pm2_5":118.0,"no2":33.1,"co":380.0,"o3":89.0,"so2":22.6,"mosquito_risk":0,"arthritis_risk":5,"migraine_risk":7,"frizz_risk":0,"updated_at":"2026-05-24T20:36:20.673352+05:30"},{"city":"Faridabad","state":"Haryana","latitude":28.4089,"longitude":77.3178,"temp":37.1,"humidity":21,"rain":0.0,"pressure":978.1,"uv_index":7.8,"wind_gusts":46.4,"aqi":1168,"pm10":791.6,"pm2_5":168.1,"no2":49.5,"co":313.0,"o3":44.0,"so2":19.6,"mosquito_risk":0,"arthritis_risk":5,"migraine_risk":10,"frizz_risk":0,"updated_at":"2026-05-24T20:36:20.673359+05:30"},{"city":"Meerut","state":"Uttar Pradesh","latitude":28.9845,"longitude":77.7064,"temp":34.5,"humidity":30,"rain":0.0,"pressure":975.9,"uv_index":7.65,"wind_gusts":51.1,"aqi":450,"pm10":588.6,"pm2_5":118.0,"no2":33.1,"co":319.0,"o3":89.0,"so2":22.6,"mosquito_risk":0,"arthritis_risk":5,"migraine_risk":7,"frizz_risk":0,"updated_at":"2026-05-24T20:36:20.673365+05:30"},{"city":"Agra","state":"Uttar Pradesh","latitude":27.1767,"longitude":78.0081,"temp":37.5,"humidity":22,"rain":0.0,"pressure":982.8,"uv_index":8.05,"wind_gusts":46.1,"aqi":706,"pm10":538.3,"pm2_5":113.4,"no2":33.3,"co":235.0,"o3":53.0,"so2":15.2,"mosquito_risk":0,"arthritis_risk":5,"migraine_risk":10,"frizz_risk":0,"updated_at":"2026-05-24T20:36:20.673371+05:30"},{"city":"Varanasi","state":"Uttar Pradesh","latitude":25.3176,"longitude":82.9739,"temp":38.3,"humidity":18,"rain":0.0,"pressure":992.7,"uv_index":8.75,"wind_gusts":49.3,"aqi":153,"pm10":91.3,"pm2_5":42.7,"no2":15.2,"co":262.0,"o3":90.0,"so2":11.3,"mosquito_risk":0,"arthritis_risk":5,"migraine_risk":10,"frizz_risk":0,"updated_at":"2026-05-24T20:36:20.673378+05:30"},{"city":"Prayagraj","state":"Uttar Pradesh","latitude":25.4358,"longitude":81.8463,"temp":36.1,"humidity":24,"rain":0.0,"pressure":991.3,"uv_index":8.6,"wind_gusts":45.0,"aqi":154,"pm10":123.9,"pm2_5":46.1,"no2":13.5,"co":247.0,"o3":91.0,"so2":10.2,"mosquito_risk":0,"arthritis_risk":5,"migraine_risk":10,"frizz_risk":0,"updated_at":"2026-05-24T20:36:20.673384+05:30"},{"city":"Gorakhpur","state":"Uttar Pradesh","latitude":26.7606,"longitude":83.3732,"temp":32.5,"humidity":44,"rain":0.0,"pressure":992.3,"uv_index":8.6,"wind_gusts":35.3,"aqi":152,"pm10":71.7,"pm2_5":52.0,"no2":17.3,"co":362.0,"o3":97.0,"so2":11.0,"mosquito_risk":0,"arthritis_risk":5,"migraine_risk":7,"frizz_risk":1,"updated_at":"2026-05-24T20:36:20.673393+05:30"},{"city":"Bareilly","state":"Uttar Pradesh","latitude":28.367,"longitude":79.4304,"temp":35.2,"humidity":24,"rain":0.0,"pressure":981.4,"uv_index":8.05,"wind_gusts":43.6,"aqi":148,"pm10":158.8,"pm2_5":57.4,"no2":16.2,"co":269.0,"o3":103.0,"so2":11.9,"mosquito_risk":0,"arthritis_risk":5,"migraine_risk":10,"frizz_risk":0,"updated_at":"2026-05-24T20:36:20.673400+05:30"},{"city":"Aligarh","state":"Uttar Pradesh","latitude":27.8974,"longitude":78.088,"temp":35.6,"humidity":39,"rain":0.0,"pressure":980.3,"uv_index":7.9,"wind_gusts":50.8,"aqi":797,"pm10":1017.0,"pm2_5":180.7,"no2":29.8,"co":402.0,"o3":67.0,"so2":12.7,"mosquito_risk":0,"arthritis_risk":5,"migraine_risk":10,"frizz_risk":1,"updated_at":"2026-05-24T20:36:20.673407+05:30"},{"city":"Moradabad","state":"Uttar Pradesh","latitude":28.8386,"longitude":78.7733,"temp":35.0,"humidity":23,"rain":0.0,"pressure":978.4,"uv_index":7.85,"wind_gusts":51.1,"aqi":150,"pm10":264.5,"pm2_5":78.9,"no2":22.1,"co":422.0,"o3":81.0,"so2":10.7,"mosquito_risk":0,"arthritis_risk":5,"migraine_risk":7,"frizz_risk":0,"updated_at":"2026-05-24T20:36:20.673413+05:30"},{"city":"Saharanpur","state":"Uttar Pradesh","latitude":29.9637,"longitude":77.546,"temp":34.7,"humidity":23,"rain":0.0,"pressure":970.3,"uv_index":7.4,"wind_gusts":56.5,"aqi":99,"pm10":175.6,"pm2_5":52.7,"no2":20.1,"co":354.0,"o3":91.0,"so2":12.8,"mosquito_risk":0,"arthritis_risk":5,"migraine_risk":7,"frizz_risk":0,"updated_at":"2026-05-24T20:36:20.673419+05:30"},{"city":"Jhansi","state":"Uttar Pradesh","latitude":25.4484,"longitude":78.5685,"temp":37.7,"humidity":19,"rain":0.0,"pressure":974.6,"uv_index":8.45,"wind_gusts":45.7,"aqi":92,"pm10":51.1,"pm2_5":28.8,"no2":5.1,"co":202.0,"o3":72.0,"so2":3.5,"mosquito_risk":0,"arthritis_risk":5,"migraine_risk":10,"frizz_risk":0,"updated_at":"2026-05-24T20:36:23.941630+05:30"},{"city":"Surat","state":"Gujarat","latitude":21.1702,"longitude":72.8311,"temp":30.9,"humidity":75,"rain":0.0,"pressure":1005.8,"uv_index":7.65,"wind_gusts":45.0,"aqi":55,"pm10":19.4,"pm2_5":15.7,"no2":20.1,"co":205.0,"o3":31.0,"so2":33.5,"mosquito_risk":3,"arthritis_risk":5,"migraine_risk":4,"frizz_risk":1,"updated_at":"2026-05-24T20:36:23.941662+05:30"},{"city":"Vadodara","state":"Gujarat","latitude":22.3072,"longitude":73.1812,"temp":33.7,"humidity":56,"rain":0.0,"pressure":1002.6,"uv_index":8.1,"wind_gusts":43.6,"aqi":48,"pm10":17.4,"pm2_5":13.9,"no2":11.6,"co":154.0,"o3":58.0,"so2":13.9,"mosquito_risk":0,"arthritis_risk":5,"migraine_risk":4,"frizz_risk":1,"updated_at":"2026-05-24T20:36:23.941675+05:30"},{"city":"Rajkot","state":"Gujarat","latitude":22.3039,"longitude":70.8022,"temp":31.5,"humidity":64,"rain":0.0,"pressure":993.5,"uv_index":7.7,"wind_gusts":49.0,"aqi":55,"pm10":19.6,"pm2_5":14.0,"no2":4.6,"co":141.0,"o3":59.0,"so2":5.9,"mosquito_risk":3,"arthritis_risk":5,"migraine_risk":7,"frizz_risk":1,"updated_at":"2026-05-24T20:36:23.941685+05:30"},{"city":"Thane","state":"Maharashtra","latitude":19.2183,"longitude":72.9781,"temp":30.6,"humidity":72,"rain":0.0,"pressure":1008.6,"uv_index":7.1,"wind_gusts":40.3,"aqi":39,"pm10":16.1,"pm2_5":11.1,"no2":6.9,"co":191.0,"o3":44.0,"so2":5.3,"mosquito_risk":3,"arthritis_risk":0,"migraine_risk":4,"frizz_risk":1,"updated_at":"2026-05-24T20:36:23.941695+05:30"},{"city":"Nagpur","state":"Maharashtra","latitude":21.1458,"longitude":79.0882,"temp":39.5,"humidity":17,"rain":0.0,"pressure":970.5,"uv_index":8.9,"wind_gusts":47.2,"aqi":87,"pm10":38.8,"pm2_5":22.9,"no2":8.1,"co":226.0,"o3":100.0,"so2":10.1,"mosquito_risk":0,"arthritis_risk":5,"migraine_risk":10,"frizz_risk":0,"updated_at":"2026-05-24T20:36:23.941706+05:30"},{"city":"Nashik","state":"Maharashtra","latitude":19.9975,"longitude":73.7898,"temp":27.5,"humidity":76,"rain":0.0,"pressure":946.6,"uv_index":8.1,"wind_gusts":42.5,"aqi":30,"pm10":9.3,"pm2_5":6.7,"no2":3.0,"co":160.0,"o3":47.0,"so2":0.9,"mosquito_risk":7,"arthritis_risk":5,"migraine_risk":7,"frizz_risk":1,"updated_at":"2026-05-24T20:36:23.941716+05:30"},{"city":"Aurangabad","state":"Maharashtra","latitude":19.8762,"longitude":75.3433,"temp":34.0,"humidity":31,"rain":0.0,"pressure":944.1,"uv_index":8.95,"wind_gusts":43.2,"aqi":47,"pm10":13.4,"pm2_5":8.6,"no2":3.4,"co":141.0,"o3":71.0,"so2":2.2,"mosquito_risk":0,"arthritis_risk":5,"migraine_risk":7,"frizz_risk":0,"updated_at":"2026-05-24T20:36:23.941724+05:30"},{"city":"Solapur","state":"Maharashtra","latitude":17.6599,"longitude":75.9064,"temp":31.5,"humidity":50,"rain":0.0,"pressure":957.1,"uv_index":9.0,"wind_gusts":41.0,"aqi":60,"pm10":19.5,"pm2_5":15.1,"no2":7.1,"co":173.0,"o3":78.0,"so2":3.7,"mosquito_risk":0,"arthritis_risk":5,"migraine_risk":7,"frizz_risk":1,"updated_at":"2026-05-24T20:36:23.941731+05:30"},{"city":"Kolhapur","state":"Maharashtra","latitude":16.705,"longitude":74.2433,"temp":26.2,"humidity":79,"rain":0.0,"pressure":948.8,"uv_index":8.75,"wind_gusts":39.2,"aqi":39,"pm10":12.1,"pm2_5":9.6,"no2":5.2,"co":201.0,"o3":52.0,"so2":2.4,"mosquito_risk":7,"arthritis_risk":5,"migraine_risk":7,"frizz_risk":1,"updated_at":"2026-05-24T20:36:23.941738+05:30"},{"city":"Goa","state":"Goa","latitude":15.2993,"longitude":74.124,"temp":28.1,"humidity":85,"rain":0.0,"pressure":999.1,"uv_index":5.75,"wind_gusts":28.8,"aqi":46,"pm10":18.0,"pm2_5":13.3,"no2":4.1,"co":212.0,"o3":46.0,"so2":1.4,"mosquito_risk":7,"arthritis_risk":5,"migraine_risk":3,"frizz_risk":1,"updated_at":"2026-05-24T20:36:23.941746+05:30"},{"city":"Jodhpur","state":"Rajasthan","latitude":26.2389,"longitude":73.0243,"temp":36.8,"humidity":23,"rain":0.0,"pressure":979.9,"uv_index":8.45,"wind_gusts":54.7,"aqi":203,"pm10":356.7,"pm2_5":73.3,"no2":3.3,"co":141.0,"o3":80.0,"so2":2.1,"mosquito_risk":0,"arthritis_risk":5,"migraine_risk":10,"frizz_risk":0,"updated_at":"2026-05-24T20:36:23.941753+05:30"},{"city":"Udaipur","state":"Rajasthan","latitude":24.5854,"longitude":73.7125,"temp":33.6,"humidity":32,"rain":0.0,"pressure":945.7,"uv_index":8.8,"wind_gusts":54.0,"aqi":71,"pm10":18.2,"pm2_5":10.7,"no2":2.2,"co":150.0,"o3":70.0,"so2":1.7,"mosquito_risk":0,"arthritis_risk":5,"migraine_risk":7,"frizz_risk":0,"updated_at":"2026-05-24T20:36:23.941761+05:30"},{"city":"Kota","state":"Rajasthan","latitude":25.2138,"longitude":75.8648,"temp":38.0,"humidity":20,"rain":0.0,"pressure":976.0,"uv_index":8.4,"wind_gusts":42.8,"aqi":90,"pm10":78.0,"pm2_5":34.5,"no2":7.3,"co":220.0,"o3":73.0,"so2":4.6,"mosquito_risk":0,"arthritis_risk":5,"migraine_risk":10,"frizz_risk":0,"updated_at":"2026-05-24T20:36:23.941791+05:30"},{"city":"Bikaner","state":"Rajasthan","latitude":28.0229,"longitude":73.3119,"temp":39.0,"humidity":15,"rain":0.0,"pressure":976.6,"uv_index":8.45,"wind_gusts":59.8,"aqi":159,"pm10":342.7,"pm2_5":121.5,"no2":1.0,"co":132.0,"o3":93.0,"so2":1.8,"mosquito_risk":0,"arthritis_risk":5,"migraine_risk":10,"frizz_risk":0,"updated_at":"2026-05-24T20:36:23.941800+05:30"},{"city":"Ajmer","state":"Rajasthan","latitude":26.4499,"longitude":74.6399,"temp":34.4,"humidity":26,"rain":0.0,"pressure":952.9,"uv_index":8.4,"wind_gusts":62.6,"aqi":100,"pm10":93.6,"pm2_5":32.7,"no2":2.7,"co":150.0,"o3":87.0,"so2":2.4,"mosquito_risk":0,"arthritis_risk":5,"migraine_risk":7,"frizz_risk":0,"updated_at":"2026-05-24T20:36:23.941808+05:30"},{"city":"Gwalior","state":"Madhya Pradesh","latitude":26.2183,"longitude":78.1828,"temp":38.7,"humidity":18,"rain":0.0,"pressure":979.3,"uv_index":8.25,"wind_gusts":46.1,"aqi":103,"pm10":63.6,"pm2_5":30.4,"no2":4.5,"co":168.0,"o3":79.0,"so2":3.6,"mosquito_risk":0,"arthritis_risk":5,"migraine_risk":10,"frizz_risk":0,"updated_at":"2026-05-24T20:36:23.941816+05:30"},{"city":"Indore","state":"Madhya Pradesh","latitude":22.7196,"longitude":75.8577,"temp":35.2,"humidity":28,"rain":0.0,"pressure":947.8,"uv_index":8.7,"wind_gusts":44.6,"aqi":67,"pm10":46.2,"pm2_5":24.4,"no2":3.9,"co":204.0,"o3":98.0,"so2":5.2,"mosquito_risk":0,"arthritis_risk":5,"migraine_risk":10,"frizz_risk":0,"updated_at":"2026-05-24T20:36:23.941823+05:30"},{"city":"Bhopal","state":"Madhya Pradesh","latitude":23.2599,"longitude":77.4126,"temp":36.0,"humidity":20,"rain":0.0,"pressure":951.9,"uv_index":8.7,"wind_gusts":45.7,"aqi":80,"pm10":79.2,"pm2_5":32.7,"no2":6.3,"co":262.0,"o3":82.0,"so2":4.2,"mosquito_risk":0,"arthritis_risk":5,"migraine_risk":10,"frizz_risk":0,"updated_at":"2026-05-24T20:36:23.941830+05:30"},{"city":"Jabalpur","state":"Madhya Pradesh","latitude":23.1815,"longitude":79.9864,"temp":35.8,"humidity":19,"rain":0.0,"pressure":959.1,"uv_index":8.85,"wind_gusts":38.9,"aqi":87,"pm10":74.0,"pm2_5":31.9,"no2":7.4,"co":173.0,"o3":86.0,"so2":3.9,"mosquito_risk":0,"arthritis_risk":5,"migraine_risk":10,"frizz_risk":0,"updated_at":"2026-05-24T20:36:23.941837+05:30"},{"city":"Ujjain","state":"Madhya Pradesh","latitude":23.1765,"longitude":75.7885,"temp":35.3,"humidity":28,"rain":0.0,"pressure":953.3,"uv_index":8.6,"wind_gusts":45.4,"aqi":66,"pm10":43.2,"pm2_5":22.7,"no2":2.6,"co":217.0,"o3":95.0,"so2":4.6,"mosquito_risk":0,"arthritis_risk":5,"migraine_risk":10,"frizz_risk":0,"updated_at":"2026-05-24T20:36:23.941845+05:30"},{"city":"Visakhapatnam","state":"Andhra Pradesh","latitude":17.6868,"longitude":83.2185,"temp":32.0,"humidity":75,"rain":0.0,"pressure":1000.4,"uv_index":8.9,"wind_gusts":32.8,"aqi":159,"pm10":50.9,"pm2_5":44.0,"no2":31.9,"co":435.0,"o3":110.0,"so2":51.8,"mosquito_risk":3,"arthritis_risk":5,"migraine_risk":4,"frizz_risk":1,"updated_at":"2026-05-24T20:36:23.941852+05:30"},{"city":"Vijayawada","state":"Andhra Pradesh","latitude":16.5062,"longitude":80.648,"temp":36.4,"humidity":39,"rain":0.0,"pressure":998.7,"uv_index":9.1,"wind_gusts":49.3,"aqi":102,"pm10":47.8,"pm2_5":40.7,"no2":16.4,"co":354.0,"o3":79.0,"so2":8.7,"mosquito_risk":0,"arthritis_risk":5,"migraine_risk":10,"frizz_risk":1,"updated_at":"2026-05-24T20:36:23.941859+05:30"},{"city":"Guntur","state":"Andhra Pradesh","latitude":16.3067,"longitude":80.4365,"temp":36.1,"humidity":38,"rain":0.0,"pressure":1000.1,"uv_index":9.15,"wind_gusts":49.0,"aqi":94,"pm10":46.3,"pm2_5":38.8,"no2":17.6,"co":265.0,"o3":72.0,"so2":8.2,"mosquito_risk":0,"arthritis_risk":5,"migraine_risk":7,"frizz_risk":1,"updated_at":"2026-05-24T20:36:23.941867+05:30"},{"city":"Nellore","state":"Andhra Pradesh","latitude":14.4426,"longitude":79.9865,"temp":33.5,"humidity":50,"rain":0.0,"pressure":1003.9,"uv_index":9.05,"wind_gusts":45.0,"aqi":110,"pm10":27.6,"pm2_5":23.4,"no2":5.2,"co":238.0,"o3":116.0,"so2":5.3,"mosquito_risk":0,"arthritis_risk":5,"migraine_risk":4,"frizz_risk":1,"updated_at":"2026-05-24T20:36:23.941879+05:30"},{"city":"Kurnool","state":"Andhra Pradesh","latitude":15.8281,"longitude":78.0373,"temp":28.2,"humidity":82,"rain":0.0,"pressure":976.7,"uv_index":9.0,"wind_gusts":47.2,"aqi":78,"pm10":24.2,"pm2_5":20.4,"no2":9.9,"co":180.0,"o3":85.0,"so2":7.1,"mosquito_risk":7,"arthritis_risk":5,"migraine_risk":7,"frizz_risk":1,"updated_at":"2026-05-24T20:36:23.941888+05:30"},{"city":"Kakinada","state":"Andhra Pradesh","latitude":16.9891,"longitude":82.2475,"temp":33.2,"humidity":70,"rain":0.0,"pressure":1003.1,"uv_index":8.8,"wind_gusts":36.4,"aqi":137,"pm10":33.4,"pm2_5":26.2,"no2":3.6,"co":678.0,"o3":128.0,"so2":3.1,"mosquito_risk":3,"arthritis_risk":5,"migraine_risk":4,"frizz_risk":1,"updated_at":"2026-05-24T20:36:23.941895+05:30"},{"city":"Tirupati","state":"Andhra Pradesh","latitude":13.6288,"longitude":79.4192,"temp":30.5,"humidity":65,"rain":0.0,"pressure":990.5,"uv_index":9.1,"wind_gusts":42.5,"aqi":117,"pm10":34.3,"pm2_5":31.7,"no2":10.1,"co":464.0,"o3":94.0,"so2":4.7,"mosquito_risk":3,"arthritis_risk":5,"migraine_risk":7,"frizz_risk":1,"updated_at":"2026-05-24T20:36:23.941902+05:30"},{"city":"Warangal","state":"Telangana","latitude":17.9689,"longitude":79.5941,"temp":35.5,"humidity":29,"rain":0.0,"pressure":976.1,"uv_index":9.0,"wind_gusts":49.3,"aqi":94,"pm10":48.7,"pm2_5":34.2,"no2":11.9,"co":356.0,"o3":84.0,"so2":6.8,"mosquito_risk":0,"arthritis_risk":5,"migraine_risk":10,"frizz_risk":0,"updated_at":"2026-05-24T20:36:23.941909+05:30"},{"city":"Nizamabad","state":"Telangana","latitude":18.6725,"longitude":78.0941,"temp":35.3,"humidity":27,"rain":0.0,"pressure":963.3,"uv_index":9.1,"wind_gusts":45.4,"aqi":75,"pm10":43.9,"pm2_5":26.3,"no2":11.1,"co":251.0,"o3":74.0,"so2":4.3,"mosquito_risk":0,"arthritis_risk":5,"migraine_risk":10,"frizz_risk":0,"updated_at":"2026-05-24T20:36:23.941916+05:30"},{"city":"Mysore","state":"Karnataka","latitude":12.2958,"longitude":76.6396,"temp":23.0,"humidity":95,"rain":0.0,"pressure":930.7,"uv_index":9.0,"wind_gusts":37.8,"aqi":39,"pm10":17.5,"pm2_5":15.8,"no2":20.2,"co":271.0,"o3":49.0,"so2":4.2,"mosquito_risk":3,"arthritis_risk":5,"migraine_risk":7,"frizz_risk":1,"updated_at":"2026-05-24T20:36:23.941924+05:30"},{"city":"Mangalore","state":"Karnataka","latitude":12.9141,"longitude":74.856,"temp":27.2,"humidity":88,"rain":0.0,"pressure":1008.6,"uv_index":7.7,"wind_gusts":36.7,"aqi":53,"pm10":14.3,"pm2_5":10.8,"no2":7.4,"co":276.0,"o3":43.0,"so2":3.0,"mosquito_risk":7,"arthritis_risk":0,"migraine_risk":4,"frizz_risk":1,"updated_at":"2026-05-24T20:36:23.941931+05:30"},{"city":"Hubli-Dharwad","state":"Karnataka","latitude":15.3647,"longitude":75.124,"temp":26.2,"humidity":75,"rain":0.0,"pressure":941.8,"uv_index":8.95,"wind_gusts":35.6,"aqi":35,"pm10":10.4,"pm2_5":8.6,"no2":6.4,"co":170.0,"o3":51.0,"so2":1.7,"mosquito_risk":7,"arthritis_risk":5,"migraine_risk":7,"frizz_risk":1,"updated_at":"2026-05-24T20:36:23.941938+05:30"},{"city":"Belgaum","state":"Karnataka","latitude":15.8497,"longitude":74.4977,"temp":25.8,"humidity":75,"rain":0.0,"pressure":926.9,"uv_index":9.1,"wind_gusts":39.6,"aqi":33,"pm10":12.1,"pm2_5":10.2,"no2":7.7,"co":166.0,"o3":43.0,"so2":2.0,"mosquito_risk":7,"arthritis_risk":5,"migraine_risk":7,"frizz_risk":1,"updated_at":"2026-05-24T20:36:27.190797+05:30"},{"city":"Coimbatore","state":"Tamil Nadu","latitude":11.0168,"longitude":76.9558,"temp":25.0,"humidity":89,"rain":0.0,"pressure":964.4,"uv_index":8.5,"wind_gusts":49.7,"aqi":35,"pm10":8.8,"pm2_5":7.7,"no2":7.3,"co":186.0,"o3":51.0,"so2":3.0,"mosquito_risk":7,"arthritis_risk":5,"migraine_risk":7,"frizz_risk":1,"updated_at":"2026-05-24T20:36:27.190836+05:30"},{"city":"Madurai","state":"Tamil Nadu","latitude":9.9252,"longitude":78.1198,"temp":30.9,"humidity":60,"rain":0.0,"pressure":994.0,"uv_index":8.85,"wind_gusts":63.7,"aqi":58,"pm10":22.5,"pm2_5":18.9,"no2":19.1,"co":342.0,"o3":55.0,"so2":4.8,"mosquito_risk":0,"arthritis_risk":5,"migraine_risk":7,"frizz_risk":1,"updated_at":"2026-05-24T20:36:27.190848+05:30"},{"city":"Trichy","state":"Tamil Nadu","latitude":10.7905,"longitude":78.7047,"temp":26.9,"humidity":80,"rain":0.1,"pressure":1000.7,"uv_index":8.3,"wind_gusts":52.6,"aqi":51,"pm10":18.5,"pm2_5":16.2,"no2":11.7,"co":207.0,"o3":66.0,"so2":4.4,"mosquito_risk":10,"arthritis_risk":5,"migraine_risk":4,"frizz_risk":1,"updated_at":"2026-05-24T20:36:27.190857+05:30"},{"city":"Salem","state":"Tamil Nadu","latitude":11.6643,"longitude":78.146,"temp":25.5,"humidity":93,"rain":0.1,"pressure":979.7,"uv_index":8.9,"wind_gusts":33.5,"aqi":64,"pm10":27.1,"pm2_5":22.6,"no2":17.8,"co":239.0,"o3":61.0,"so2":8.0,"mosquito_risk":10,"arthritis_risk":5,"migraine_risk":7,"frizz_risk":1,"updated_at":"2026-05-24T20:36:27.190865+05:30"},{"city":"Tirunelveli","state":"Tamil Nadu","latitude":8.7139,"longitude":77.7567,"temp":30.2,"humidity":59,"rain":0.0,"pressure":1004.0,"uv_index":8.8,"wind_gusts":39.2,"aqi":34,"pm10":7.3,"pm2_5":6.3,"no2":4.7,"co":165.0,"o3":59.0,"so2":1.8,"mosquito_risk":0,"arthritis_risk":5,"migraine_risk":4,"frizz_risk":1,"updated_at":"2026-05-24T20:36:27.190872+05:30"},{"city":"Vellore","state":"Tamil Nadu","latitude":12.9165,"longitude":79.1325,"temp":29.2,"humidity":62,"rain":0.0,"pressure":984.7,"uv_index":9.1,"wind_gusts":47.2,"aqi":65,"pm10":27.6,"pm2_5":25.1,"no2":6.4,"co":251.0,"o3":98.0,"so2":3.4,"mosquito_risk":7,"arthritis_risk":5,"migraine_risk":7,"frizz_risk":1,"updated_at":"2026-05-24T20:36:27.190879+05:30"},{"city":"Erode","state":"Tamil Nadu","latitude":11.341,"longitude":77.7172,"temp":26.2,"humidity":94,"rain":0.4,"pressure":991.3,"uv_index":8.95,"wind_gusts":52.6,"aqi":48,"pm10":15.9,"pm2_5":13.7,"no2":14.4,"co":347.0,"o3":58.0,"so2":3.5,"mosquito_risk":10,"arthritis_risk":5,"migraine_risk":7,"frizz_risk":1,"updated_at":"2026-05-24T20:36:27.190886+05:30"},{"city":"Kochi","state":"Kerala","latitude":9.9312,"longitude":76.2673,"temp":25.6,"humidity":98,"rain":0.0,"pressure":1011.5,"uv_index":8.5,"wind_gusts":39.2,"aqi":51,"pm10":24.3,"pm2_5":22.0,"no2":25.0,"co":334.0,"o3":19.0,"so2":7.5,"mosquito_risk":7,"arthritis_risk":0,"migraine_risk":4,"frizz_risk":1,"updated_at":"2026-05-24T20:36:27.190893+05:30"},{"city":"Thiruvananthapuram","state":"Kerala","latitude":8.5241,"longitude":76.9366,"temp":24.8,"humidity":97,"rain":0.0,"pressure":1011.0,"uv_index":8.4,"wind_gusts":46.4,"aqi":31,"pm10":10.6,"pm2_5":6.6,"no2":3.0,"co":183.0,"o3":55.0,"so2":1.2,"mosquito_risk":3,"arthritis_risk":0,"migraine_risk":4,"frizz_risk":1,"updated_at":"2026-05-24T20:36:27.190900+05:30"},{"city":"Kozhikode","state":"Kerala","latitude":11.2588,"longitude":75.7804,"temp":25.9,"humidity":98,"rain":0.0,"pressure":1010.3,"uv_index":8.05,"wind_gusts":42.1,"aqi":31,"pm10":10.9,"pm2_5":6.9,"no2":1.7,"co":339.0,"o3":60.0,"so2":1.0,"mosquito_risk":7,"arthritis_risk":0,"migraine_risk":4,"frizz_risk":1,"updated_at":"2026-05-24T20:36:27.190907+05:30"},{"city":"Thrissur","state":"Kerala","latitude":10.5276,"longitude":76.2144,"temp":25.5,"humidity":99,"rain":0.0,"pressure":1009.8,"uv_index":8.15,"wind_gusts":36.4,"aqi":53,"pm10":23.6,"pm2_5":21.5,"no2":16.7,"co":414.0,"o3":30.0,"so2":5.1,"mosquito_risk":7,"arthritis_risk":0,"migraine_risk":4,"frizz_risk":1,"updated_at":"2026-05-24T20:36:27.190914+05:30"},{"city":"Kannur","state":"Kerala","latitude":11.8745,"longitude":75.3704,"temp":26.5,"humidity":98,"rain":0.0,"pressure":1009.4,"uv_index":6.6,"wind_gusts":40.7,"aqi":48,"pm10":14.3,"pm2_5":10.9,"no2":9.4,"co":342.0,"o3":40.0,"so2":2.5,"mosquito_risk":7,"arthritis_risk":0,"migraine_risk":4,"frizz_risk":1,"updated_at":"2026-05-24T20:36:27.190921+05:30"},{"city":"Patna","state":"Bihar","latitude":25.5941,"longitude":85.1376,"temp":32.0,"humidity":71,"rain":0.0,"pressure":996.1,"uv_index":8.8,"wind_gusts":30.2,"aqi":169,"pm10":101.3,"pm2_5":65.2,"no2":16.9,"co":464.0,"o3":132.0,"so2":19.1,"mosquito_risk":3,"arthritis_risk":5,"migraine_risk":7,"frizz_risk":1,"updated_at":"2026-05-24T20:36:27.190928+05:30"},{"city":"Gaya","state":"Bihar","latitude":24.7914,"longitude":85.0002,"temp":33.3,"humidity":40,"rain":0.0,"pressure":989.4,"uv_index":8.85,"wind_gusts":31.7,"aqi":158,"pm10":273.8,"pm2_5":98.3,"no2":38.3,"co":468.0,"o3":74.0,"so2":19.6,"mosquito_risk":0,"arthritis_risk":5,"migraine_risk":7,"frizz_risk":1,"updated_at":"2026-05-24T20:36:27.190934+05:30"},{"city":"Muzaffarpur","state":"Bihar","latitude":26.1209,"longitude":85.3647,"temp":30.5,"humidity":70,"rain":0.0,"pressure":996.3,"uv_index":8.8,"wind_gusts":29.9,"aqi":181,"pm10":95.9,"pm2_5":69.8,"no2":18.3,"co":450.0,"o3":129.0,"so2":19.9,"mosquito_risk":3,"arthritis_risk":5,"migraine_risk":7,"frizz_risk":1,"updated_at":"2026-05-24T20:36:27.190941+05:30"},{"city":"Bhagalpur","state":"Bihar","latitude":25.2425,"longitude":87.0117,"temp":31.5,"humidity":75,"rain":0.0,"pressure":997.2,"uv_index":8.8,"wind_gusts":24.1,"aqi":167,"pm10":54.2,"pm2_5":49.9,"no2":10.5,"co":411.0,"o3":126.0,"so2":13.7,"mosquito_risk":3,"arthritis_risk":5,"migraine_risk":7,"frizz_risk":1,"updated_at":"2026-05-24T20:36:27.190948+05:30"},{"city":"Ranchi","state":"Jharkhand","latitude":23.3441,"longitude":85.3096,"temp":28.5,"humidity":53,"rain":0.0,"pressure":935.2,"uv_index":9.25,"wind_gusts":22.7,"aqi":130,"pm10":185.8,"pm2_5":66.4,"no2":23.3,"co":330.0,"o3":81.0,"so2":9.4,"mosquito_risk":4,"arthritis_risk":5,"migraine_risk":7,"frizz_risk":1,"updated_at":"2026-05-24T20:36:27.190954+05:30"},{"city":"Jamshedpur","state":"Jharkhand","latitude":22.8046,"longitude":86.2029,"temp":31.4,"humidity":58,"rain":0.0,"pressure":987.3,"uv_index":9.1,"wind_gusts":38.5,"aqi":169,"pm10":58.0,"pm2_5":43.8,"no2":11.8,"co":883.0,"o3":120.0,"so2":23.2,"mosquito_risk":0,"arthritis_risk":5,"migraine_risk":7,"frizz_risk":1,"updated_at":"2026-05-24T20:36:27.190961+05:30"},{"city":"Dhanbad","state":"Jharkhand","latitude":23.7957,"longitude":86.4304,"temp":32.5,"humidity":50,"rain":0.0,"pressure":976.7,"uv_index":9.0,"wind_gusts":30.2,"aqi":158,"pm10":123.4,"pm2_5":78.5,"no2":44.6,"co":1246.0,"o3":93.0,"so2":90.0,"mosquito_risk":0,"arthritis_risk":5,"migraine_risk":7,"frizz_risk":1,"updated_at":"2026-05-24T20:36:27.190967+05:30"},{"city":"Bokaro","state":"Jharkhand","latitude":23.6693,"longitude":86.1511,"temp":32.7,"humidity":45,"rain":0.0,"pressure":980.0,"uv_index":9.05,"wind_gusts":26.6,"aqi":159,"pm10":247.7,"pm2_5":91.7,"no2":44.2,"co":854.0,"o3":75.0,"so2":67.2,"mosquito_risk":0,"arthritis_risk":5,"migraine_risk":7,"frizz_risk":1,"updated_at":"2026-05-24T20:36:27.190974+05:30"},{"city":"Bhubaneswar","state":"Odisha","latitude":20.2961,"longitude":85.8245,"temp":30.2,"humidity":85,"rain":0.0,"pressure":1000.1,"uv_index":9.1,"wind_gusts":41.8,"aqi":81,"pm10":31.9,"pm2_5":25.8,"no2":5.3,"co":271.0,"o3":84.0,"so2":4.4,"mosquito_risk":3,"arthritis_risk":5,"migraine_risk":4,"frizz_risk":1,"updated_at":"2026-05-24T20:36:27.190980+05:30"},{"city":"Cuttack","state":"Odisha","latitude":20.4625,"longitude":85.8828,"temp":30.2,"humidity":85,"rain":0.0,"pressure":1001.9,"uv_index":9.2,"wind_gusts":39.2,"aqi":81,"pm10":31.9,"pm2_5":25.8,"no2":5.3,"co":275.0,"o3":84.0,"so2":4.4,"mosquito_risk":3,"arthritis_risk":5,"migraine_risk":4,"frizz_risk":1,"updated_at":"2026-05-24T20:36:27.190987+05:30"},{"city":"Rourkela","state":"Odisha","latitude":22.2604,"longitude":84.8536,"temp":33.1,"humidity":47,"rain":0.0,"pressure":981.1,"uv_index":8.95,"wind_gusts":42.5,"aqi":145,"pm10":162.5,"pm2_5":72.6,"no2":21.7,"co":720.0,"o3":94.0,"so2":16.4,"mosquito_risk":0,"arthritis_risk":5,"migraine_risk":7,"frizz_risk":1,"updated_at":"2026-05-24T20:36:27.190994+05:30"},{"city":"Raipur","state":"Chhattisgarh","latitude":21.2514,"longitude":81.6296,"temp":38.1,"humidity":25,"rain":0.0,"pressure":971.3,"uv_index":8.95,"wind_gusts":37.4,"aqi":121,"pm10":94.1,"pm2_5":62.4,"no2":43.5,"co":323.0,"o3":43.0,"so2":45.0,"mosquito_risk":0,"arthritis_risk":5,"migraine_risk":10,"frizz_risk":0,"updated_at":"2026-05-24T20:36:27.191000+05:30"},{"city":"Bhilai","state":"Chhattisgarh","latitude":21.1938,"longitude":81.3509,"temp":35.1,"humidity":33,"rain":0.0,"pressure":971.5,"uv_index":8.95,"wind_gusts":29.5,"aqi":110,"pm10":67.8,"pm2_5":46.4,"no2":32.4,"co":472.0,"o3":63.0,"so2":39.7,"mosquito_risk":0,"arthritis_risk":5,"migraine_risk":10,"frizz_risk":1,"updated_at":"2026-05-24T20:36:27.191007+05:30"},{"city":"Guwahati","state":"Assam","latitude":26.1158,"longitude":91.7086,"temp":23.5,"humidity":98,"rain":0.5,"pressure":1000.3,"uv_index":8.75,"wind_gusts":27.7,"aqi":58,"pm10":25.6,"pm2_5":22.1,"no2":10.2,"co":446.0,"o3":60.0,"so2":3.8,"mosquito_risk":6,"arthritis_risk":5,"migraine_risk":4,"frizz_risk":1,"updated_at":"2026-05-24T20:36:27.191014+05:30"},{"city":"Agartala","state":"Tripura","latitude":23.8315,"longitude":91.2868,"temp":26.8,"humidity":91,"rain":0.0,"pressure":1005.5,"uv_index":7.15,"wind_gusts":37.8,"aqi":68,"pm10":27.4,"pm2_5":20.9,"no2":11.2,"co":191.0,"o3":50.0,"so2":2.3,"mosquito_risk":7,"arthritis_risk":5,"migraine_risk":4,"frizz_risk":1,"updated_at":"2026-05-24T20:36:27.191021+05:30"},{"city":"Shillong","state":"Meghalaya","latitude":25.5788,"longitude":91.8933,"temp":19.6,"humidity":94,"rain":0.0,"pressure":856.7,"uv_index":9.15,"wind_gusts":49.0,"aqi":49,"pm10":11.8,"pm2_5":8.6,"no2":5.2,"co":205.0,"o3":86.0,"so2":2.8,"mosquito_risk":3,"arthritis_risk":10,"migraine_risk":7,"frizz_risk":1,"updated_at":"2026-05-24T20:36:27.191029+05:30"},{"city":"Imphal","state":"Manipur","latitude":24.817,"longitude":93.9368,"temp":22.6,"humidity":91,"rain":0.0,"pressure":922.8,"uv_index":9.05,"wind_gusts":36.7,"aqi":77,"pm10":32.5,"pm2_5":22.8,"no2":11.0,"co":266.0,"o3":45.0,"so2":3.2,"mosquito_risk":3,"arthritis_risk":5,"migraine_risk":7,"frizz_risk":1,"updated_at":"2026-05-24T20:36:27.191036+05:30"},{"city":"Aizawl","state":"Mizoram","latitude":23.7271,"longitude":92.7176,"temp":20.1,"humidity":93,"rain":0.0,"pressure":892.3,"uv_index":8.65,"wind_gusts":38.9,"aqi":61,"pm10":16.1,"pm2_5":9.3,"no2":3.2,"co":179.0,"o3":69.0,"so2":1.3,"mosquito_risk":3,"arthritis_risk":5,"migraine_risk":7,"frizz_risk":1,"updated_at":"2026-05-24T20:36:27.191042+05:30"},{"city":"Kohima","state":"Nagaland","latitude":25.6701,"longitude":94.1077,"temp":18.0,"humidity":85,"rain":0.0,"pressure":854.0,"uv_index":9.3,"wind_gusts":34.2,"aqi":57,"pm10":34.8,"pm2_5":18.9,"no2":8.1,"co":364.0,"o3":48.0,"so2":1.8,"mosquito_risk":3,"arthritis_risk":10,"migraine_risk":7,"frizz_risk":0,"updated_at":"2026-05-24T20:36:27.191049+05:30"},{"city":"Gangtok","state":"Sikkim","latitude":27.3314,"longitude":88.6138,"temp":16.6,"humidity":80,"rain":0.1,"pressure":836.7,"uv_index":8.8,"wind_gusts":38.2,"aqi":97,"pm10":54.8,"pm2_5":28.5,"no2":7.7,"co":411.0,"o3":119.0,"so2":3.7,"mosquito_risk":6,"arthritis_risk":5,"migraine_risk":7,"frizz_risk":0,"updated_at":"2026-05-24T20:36:27.191055+05:30"},{"city":"Siliguri","state":"West Bengal","latitude":26.7271,"longitude":88.3953,"temp":26.0,"humidity":82,"rain":0.0,"pressure":990.7,"uv_index":8.7,"wind_gusts":24.1,"aqi":119,"pm10":66.6,"pm2_5":41.2,"no2":10.5,"co":491.0,"o3":127.0,"so2":8.3,"mosquito_risk":7,"arthritis_risk":5,"migraine_risk":7,"frizz_risk":1,"updated_at":"2026-05-24T20:36:30.452943+05:30"},{"city":"Durgapur","state":"West Bengal","latitude":23.5204,"longitude":87.3119,"temp":29.1,"humidity":83,"rain":0.0,"pressure":991.7,"uv_index":8.9,"wind_gusts":32.8,"aqi":200,"pm10":52.6,"pm2_5":47.3,"no2":17.5,"co":418.0,"o3":99.0,"so2":31.3,"mosquito_risk":7,"arthritis_risk":5,"migraine_risk":7,"frizz_risk":1,"updated_at":"2026-05-24T20:36:30.452973+05:30"},{"city":"Asansol","state":"West Bengal","latitude":23.6739,"longitude":86.9524,"temp":29.7,"humidity":80,"rain":0.0,"pressure":990.4,"uv_index":8.9,"wind_gusts":32.8,"aqi":184,"pm10":54.5,"pm2_5":49.4,"no2":18.1,"co":743.0,"o3":116.0,"so2":36.4,"mosquito_risk":7,"arthritis_risk":5,"migraine_risk":7,"frizz_risk":1,"updated_at":"2026-05-24T20:36:30.452983+05:30"},{"city":"Pondicherry","state":"Puducherry","latitude":11.9139,"longitude":79.8145,"temp":30.1,"humidity":65,"rain":0.0,"pressure":1008.2,"uv_index":8.75,"wind_gusts":36.7,"aqi":119,"pm10":31.4,"pm2_5":25.6,"no2":15.7,"co":321.0,"o3":112.0,"so2":18.4,"mosquito_risk":3,"arthritis_risk":0,"migraine_risk":4,"frizz_risk":1,"updated_at":"2026-05-24T20:36:30.452991+05:30"},{"city":"Port Blair","state":"Andaman and Nicobar Islands","latitude":11.6234,"longitude":92.7265,"temp":26.2,"humidity":94,"rain":0.1,"pressure":1009.3,"uv_index":8.9,"wind_gusts":36.7,"aqi":28,"pm10":10.0,"pm2_5":5.5,"no2":0.3,"co":117.0,"o3":59.0,"so2":0.3,"mosquito_risk":10,"arthritis_risk":0,"migraine_risk":4,"frizz_risk":1,"updated_at":"2026-05-24T20:36:30.452999+05:30"},{"city":"Haridwar","state":"Uttarakhand","latitude":29.9457,"longitude":78.1642,"temp":31.9,"humidity":29,"rain":0.0,"pressure":969.0,"uv_index":7.55,"wind_gusts":64.1,"aqi":111,"pm10":79.2,"pm2_5":33.1,"no2":12.3,"co":281.0,"o3":104.0,"so2":11.6,"mosquito_risk":0,"arthritis_risk":5,"migraine_risk":7,"frizz_risk":0,"updated_at":"2026-05-24T20:36:30.453007+05:30"},{"city":"Rishikesh","state":"Uttarakhand","latitude":30.0869,"longitude":78.2676,"temp":29.3,"humidity":35,"rain":0.0,"pressure":962.0,"uv_index":7.65,"wind_gusts":52.2,"aqi":115,"pm10":58.4,"pm2_5":26.0,"no2":6.9,"co":269.0,"o3":121.0,"so2":8.5,"mosquito_risk":4,"arthritis_risk":5,"migraine_risk":7,"frizz_risk":0,"updated_at":"2026-05-24T20:36:30.453016+05:30"},{"city":"Nainital","state":"Uttarakhand","latitude":29.3919,"longitude":79.4542,"temp":18.8,"humidity":44,"rain":0.0,"pressure":804.7,"uv_index":8.5,"wind_gusts":51.5,"aqi":143,"pm10":179.3,"pm2_5":43.7,"no2":7.2,"co":202.0,"o3":120.0,"so2":7.0,"mosquito_risk":0,"arthritis_risk":5,"migraine_risk":7,"frizz_risk":0,"updated_at":"2026-05-24T20:36:30.453023+05:30"},{"city":"Mussoorie","state":"Uttarakhand","latitude":30.4599,"longitude":78.0664,"temp":19.1,"humidity":39,"rain":0.0,"pressure":802.5,"uv_index":8.05,"wind_gusts":63.0,"aqi":90,"pm10":50.5,"pm2_5":26.3,"no2":11.3,"co":207.0,"o3":115.0,"so2":8.9,"mosquito_risk":0,"arthritis_risk":5,"migraine_risk":7,"frizz_risk":0,"updated_at":"2026-05-24T20:36:30.453030+05:30"},{"city":"Dharamshala","state":"Himachal Pradesh","latitude":32.219,"longitude":76.3234,"temp":22.0,"humidity":41,"rain":0.0,"pressure":867.2,"uv_index":8.4,"wind_gusts":43.9,"aqi":62,"pm10":29.6,"pm2_5":14.1,"no2":11.1,"co":220.0,"o3":57.0,"so2":1.4,"mosquito_risk":0,"arthritis_risk":5,"migraine_risk":7,"frizz_risk":0,"updated_at":"2026-05-24T20:36:30.453037+05:30"},{"city":"Dalhousie","state":"Himachal Pradesh","latitude":32.5387,"longitude":75.971,"temp":18.9,"humidity":38,"rain":0.0,"pressure":804.2,"uv_index":8.65,"wind_gusts":36.0,"aqi":78,"pm10":64.3,"pm2_5":27.0,"no2":23.3,"co":388.0,"o3":79.0,"so2":3.3,"mosquito_risk":0,"arthritis_risk":5,"migraine_risk":7,"frizz_risk":0,"updated_at":"2026-05-24T20:36:30.453044+05:30"},{"city":"Patiala","state":"Punjab","latitude":30.3398,"longitude":76.3869,"temp":34.6,"humidity":24,"rain":0.0,"pressure":972.7,"uv_index":7.65,"wind_gusts":50.8,"aqi":423,"pm10":263.6,"pm2_5":58.3,"no2":15.6,"co":272.0,"o3":79.0,"so2":7.6,"mosquito_risk":0,"arthritis_risk":5,"migraine_risk":7,"frizz_risk":0,"updated_at":"2026-05-24T20:36:30.453052+05:30"},{"city":"Bhatinda","state":"Punjab","latitude":30.211,"longitude":74.9455,"temp":35.2,"humidity":26,"rain":0.0,"pressure":977.9,"uv_index":8.3,"wind_gusts":28.1,"aqi":129,"pm10":100.8,"pm2_5":53.7,"no2":19.4,"co":340.0,"o3":77.0,"so2":10.1,"mosquito_risk":0,"arthritis_risk":5,"migraine_risk":10,"frizz_risk":0,"updated_at":"2026-05-24T20:36:30.453059+05:30"},{"city":"Rohtak","state":"Haryana","latitude":28.8955,"longitude":76.6066,"temp":35.0,"humidity":24,"rain":0.0,"pressure":975.5,"uv_index":7.75,"wind_gusts":38.9,"aqi":757,"pm10":510.4,"pm2_5":116.9,"no2":48.4,"co":623.0,"o3":40.0,"so2":12.0,"mosquito_risk":0,"arthritis_risk":5,"migraine_risk":7,"frizz_risk":0,"updated_at":"2026-05-24T20:36:30.453065+05:30"},{"city":"Panipat","state":"Haryana","latitude":29.3909,"longitude":76.9635,"temp":34.2,"humidity":27,"rain":0.0,"pressure":974.7,"uv_index":7.6,"wind_gusts":44.6,"aqi":1540,"pm10":1013.3,"pm2_5":179.7,"no2":37.9,"co":490.0,"o3":57.0,"so2":12.5,"mosquito_risk":0,"arthritis_risk":5,"migraine_risk":7,"frizz_risk":0,"updated_at":"2026-05-24T20:36:30.453072+05:30"},{"city":"Mathura","state":"Uttar Pradesh","latitude":27.4924,"longitude":77.6737,"temp":36.3,"humidity":24,"rain":0.0,"pressure":981.7,"uv_index":8.0,"wind_gusts":45.7,"aqi":628,"pm10":510.4,"pm2_5":107.1,"no2":36.7,"co":401.0,"o3":47.0,"so2":8.6,"mosquito_risk":0,"arthritis_risk":5,"migraine_risk":10,"frizz_risk":0,"updated_at":"2026-05-24T20:36:30.453078+05:30"},{"city":"Vrindavan","state":"Uttar Pradesh","latitude":27.5823,"longitude":77.7027,"temp":35.3,"humidity":25,"rain":0.0,"pressure":982.0,"uv_index":8.0,"wind_gusts":45.0,"aqi":628,"pm10":510.4,"pm2_5":107.1,"no2":36.7,"co":494.0,"o3":47.0,"so2":8.6,"mosquito_risk":0,"arthritis_risk":5,"migraine_risk":10,"frizz_risk":0,"updated_at":"2026-05-24T20:36:30.453085+05:30"},{"city":"Ayodhya","state":"Uttar Pradesh","latitude":26.7922,"longitude":82.1998,"temp":32.7,"humidity":47,"rain":0.0,"pressure":990.2,"uv_index":8.35,"wind_gusts":33.1,"aqi":156,"pm10":155.1,"pm2_5":62.6,"no2":19.6,"co":446.0,"o3":94.0,"so2":11.7,"mosquito_risk":0,"arthritis_risk":5,"migraine_risk":7,"frizz_risk":1,"updated_at":"2026-05-24T20:36:30.453091+05:30"},{"city":"Ratlam","state":"Madhya Pradesh","latitude":23.3315,"longitude":75.0367,"temp":34.2,"humidity":34,"rain":0.0,"pressure":954.1,"uv_index":8.55,"wind_gusts":49.7,"aqi":63,"pm10":38.9,"pm2_5":21.7,"no2":2.4,"co":172.0,"o3":94.0,"so2":4.7,"mosquito_risk":0,"arthritis_risk":5,"migraine_risk":7,"frizz_risk":1,"updated_at":"2026-05-24T20:36:30.453098+05:30"},{"city":"Sagar","state":"Madhya Pradesh","latitude":23.8388,"longitude":78.7378,"temp":35.0,"humidity":20,"rain":0.0,"pressure":948.3,"uv_index":8.75,"wind_gusts":45.7,"aqi":86,"pm10":78.7,"pm2_5":32.5,"no2":9.3,"co":190.0,"o3":80.0,"so2":3.9,"mosquito_risk":0,"arthritis_risk":5,"migraine_risk":7,"frizz_risk":0,"updated_at":"2026-05-24T20:36:30.453104+05:30"},{"city":"Satna","state":"Madhya Pradesh","latitude":24.6005,"longitude":80.8322,"temp":35.2,"humidity":26,"rain":0.0,"pressure":968.1,"uv_index":8.8,"wind_gusts":47.2,"aqi":108,"pm10":50.4,"pm2_5":25.3,"no2":8.9,"co":229.0,"o3":87.0,"so2":3.6,"mosquito_risk":0,"arthritis_risk":5,"migraine_risk":10,"frizz_risk":0,"updated_at":"2026-05-24T20:36:30.453111+05:30"},{"city":"Akola","state":"Maharashtra","latitude":20.7002,"longitude":77.0082,"temp":37.3,"humidity":26,"rain":0.0,"pressure":973.5,"uv_index":8.85,"wind_gusts":51.5,"aqi":60,"pm10":36.1,"pm2_5":21.0,"no2":9.2,"co":153.0,"o3":82.0,"so2":5.5,"mosquito_risk":0,"arthritis_risk":5,"migraine_risk":10,"frizz_risk":0,"updated_at":"2026-05-24T20:36:30.453118+05:30"},{"city":"Amravati","state":"Maharashtra","latitude":20.9374,"longitude":77.7796,"temp":37.7,"humidity":21,"rain":0.0,"pressure":965.4,"uv_index":8.85,"wind_gusts":47.5,"aqi":61,"pm10":38.3,"pm2_5":21.9,"no2":11.2,"co":197.0,"o3":77.0,"so2":6.3,"mosquito_risk":0,"arthritis_risk":5,"migraine_risk":10,"frizz_risk":0,"updated_at":"2026-05-24T20:36:30.453126+05:30"},{"city":"Latur","state":"Maharashtra","latitude":18.4088,"longitude":76.5604,"temp":31.4,"humidity":38,"rain":0.0,"pressure":939.1,"uv_index":9.05,"wind_gusts":38.9,"aqi":66,"pm10":24.6,"pm2_5":16.8,"no2":8.3,"co":321.0,"o3":90.0,"so2":3.7,"mosquito_risk":0,"arthritis_risk":5,"migraine_risk":7,"frizz_risk":0,"updated_at":"2026-05-24T20:36:30.453132+05:30"},{"city":"Nanded","state":"Maharashtra","latitude":19.1383,"longitude":77.3091,"temp":35.5,"humidity":27,"rain":0.0,"pressure":967.1,"uv_index":9.0,"wind_gusts":38.9,"aqi":58,"pm10":34.6,"pm2_5":21.2,"no2":10.7,"co":233.0,"o3":77.0,"so2":3.6,"mosquito_risk":0,"arthritis_risk":5,"migraine_risk":10,"frizz_risk":0,"updated_at":"2026-05-24T20:36:30.453139+05:30"},{"city":"Gulbarga","state":"Karnataka","latitude":17.3297,"longitude":76.8343,"temp":31.5,"humidity":46,"rain":0.0,"pressure":957.8,"uv_index":8.2,"wind_gusts":45.4,"aqi":64,"pm10":26.7,"pm2_5":20.5,"no2":11.0,"co":209.0,"o3":72.0,"so2":3.8,"mosquito_risk":0,"arthritis_risk":5,"migraine_risk":7,"frizz_risk":1,"updated_at":"2026-05-24T20:36:30.453145+05:30"},{"city":"Bidar","state":"Karnataka","latitude":17.9104,"longitude":77.5199,"temp":31.5,"humidity":42,"rain":0.0,"pressure":935.0,"uv_index":9.1,"wind_gusts":46.4,"aqi":72,"pm10":32.0,"pm2_5":23.9,"no2":18.9,"co":203.0,"o3":73.0,"so2":5.7,"mosquito_risk":0,"arthritis_risk":5,"migraine_risk":7,"frizz_risk":1,"updated_at":"2026-05-24T20:36:30.453151+05:30"},{"city":"Hospet","state":"Karnataka","latitude":15.2689,"longitude":76.3909,"temp":28.4,"humidity":63,"rain":0.0,"pressure":956.3,"uv_index":8.95,"wind_gusts":40.0,"aqi":40,"pm10":15.8,"pm2_5":13.6,"no2":6.6,"co":253.0,"o3":70.0,"so2":1.9,"mosquito_risk":7,"arthritis_risk":5,"migraine_risk":7,"frizz_risk":1,"updated_at":"2026-05-24T20:36:30.453158+05:30"},{"city":"Tirupur","state":"Tamil Nadu","latitude":11.1085,"longitude":77.3411,"temp":27.1,"humidity":78,"rain":0.0,"pressure":977.8,"uv_index":8.9,"wind_gusts":52.2,"aqi":49,"pm10":16.2,"pm2_5":13.9,"no2":14.2,"co":169.0,"o3":52.0,"so2":4.4,"mosquito_risk":7,"arthritis_risk":5,"migraine_risk":7,"frizz_risk":1,"updated_at":"2026-05-24T20:36:30.453164+05:30"},{"city":"Alappuzha","state":"Kerala","latitude":9.4981,"longitude":76.3388,"temp":25.9,"humidity":95,"rain":0.1,"pressure":1011.6,"uv_index":8.45,"wind_gusts":37.4,"aqi":42,"pm10":15.6,"pm2_5":12.4,"no2":11.1,"co":101.0,"o3":43.0,"so2":3.3,"mosquito_risk":10,"arthritis_risk":0,"migraine_risk":4,"frizz_risk":1,"updated_at":"2026-05-24T20:36:30.453171+05:30"},{"city":"Munnar","state":"Kerala","latitude":10.0889,"longitude":77.0595,"temp":17.2,"humidity":100,"rain":0.0,"pressure":858.6,"uv_index":8.65,"wind_gusts":31.3,"aqi":28,"pm10":7.3,"pm2_5":6.9,"no2":7.2,"co":146.0,"o3":42.0,"so2":1.4,"mosquito_risk":3,"arthritis_risk":10,"migraine_risk":7,"frizz_risk":1,"updated_at":"2026-05-24T20:36:30.453177+05:30"},{"city":"Silchar","state":"Assam","latitude":24.8333,"longitude":92.7789,"temp":26.5,"humidity":97,"rain":0.1,"pressure":1004.7,"uv_index":8.95,"wind_gusts":31.0,"aqi":63,"pm10":32.1,"pm2_5":21.4,"no2":7.3,"co":316.0,"o3":67.0,"so2":4.9,"mosquito_risk":10,"arthritis_risk":5,"migraine_risk":4,"frizz_risk":1,"updated_at":"2026-05-24T20:36:30.453184+05:30"},{"city":"Dibrugarh","state":"Assam","latitude":27.4728,"longitude":94.912,"temp":24.1,"humidity":87,"rain":0.0,"pressure":994.3,"uv_index":8.45,"wind_gusts":37.1,"aqi":62,"pm10":25.6,"pm2_5":19.6,"no2":11.9,"co":235.0,"o3":59.0,"so2":2.1,"mosquito_risk":3,"arthritis_risk":5,"migraine_risk":7,"frizz_risk":1,"updated_at":"2026-05-24T20:36:30.453190+05:30"}]