[{"city":"Delhi","state":"Delhi","latitude":28.6139,"longitude":77.209,"temp":18.2,"humidity":93,"rain":0.0,"pressure":981.5,"uv_index":6.95,"wind_gusts":28.1,"aqi":303,"pm10":165.3,"pm2_5":48.0,"mosquito_risk":3,"arthritis_risk":10,"migraine_risk":7,"frizz_risk":1,"updated_at":"2026-04-08T04:11:11.076233+05:30"},{"city":"Mumbai","state":"Maharashtra","latitude":19.076,"longitude":72.8777,"temp":28.3,"humidity":76,"rain":0.0,"pressure":1008.6,"uv_index":7.95,"wind_gusts":20.5,"aqi":74,"pm10":80.6,"pm2_5":23.6,"mosquito_risk":7,"arthritis_risk":0,"migraine_risk":4,"frizz_risk":1,"updated_at":"2026-04-08T04:11:11.076271+05:30"},{"city":"Bangalore","state":"Karnataka","latitude":12.9716,"longitude":77.5946,"temp":21.6,"humidity":77,"rain":0.0,"pressure":910.7,"uv_index":9.65,"wind_gusts":23.0,"aqi":46,"pm10":16.1,"pm2_5":15.4,"mosquito_risk":3,"arthritis_risk":5,"migraine_risk":7,"frizz_risk":1,"updated_at":"2026-04-08T04:11:11.076286+05:30"},{"city":"Hyderabad","state":"Telangana","latitude":17.385,"longitude":78.4867,"temp":27.0,"humidity":49,"rain":0.0,"pressure":952.4,"uv_index":9.15,"wind_gusts":25.9,"aqi":83,"pm10":51.5,"pm2_5":36.6,"mosquito_risk":4,"arthritis_risk":5,"migraine_risk":7,"frizz_risk":0,"updated_at":"2026-04-08T04:11:11.076296+05:30"},{"city":"Chennai","state":"Tamil Nadu","latitude":13.0827,"longitude":80.2707,"temp":28.5,"humidity":86,"rain":0.0,"pressure":1006.2,"uv_index":9.15,"wind_gusts":36.7,"aqi":84,"pm10":31.7,"pm2_5":25.5,"mosquito_risk":7,"arthritis_risk":5,"migraine_risk":4,"frizz_risk":1,"updated_at":"2026-04-08T04:11:11.076305+05:30"},{"city":"Kolkata","state":"West Bengal","latitude":22.5726,"longitude":88.3639,"temp":22.0,"humidity":98,"rain":0.0,"pressure":1006.2,"uv_index":8.7,"wind_gusts":24.8,"aqi":113,"pm10":26.8,"pm2_5":24.1,"mosquito_risk":3,"arthritis_risk":5,"migraine_risk":4,"frizz_risk":1,"updated_at":"2026-04-08T04:11:11.076314+05:30"},{"city":"Pune","state":"Maharashtra","latitude":18.5204,"longitude":73.8567,"temp":20.5,"humidity":78,"rain":0.0,"pressure":948.3,"uv_index":8.55,"wind_gusts":40.3,"aqi":76,"pm10":55.4,"pm2_5":24.0,"mosquito_risk":3,"arthritis_risk":5,"migraine_risk":7,"frizz_risk":1,"updated_at":"2026-04-08T04:11:11.076325+05:30"},{"city":"Ahmedabad","state":"Gujarat","latitude":23.0225,"longitude":72.5714,"temp":25.7,"humidity":77,"rain":0.0,"pressure":1000.1,"uv_index":8.0,"wind_gusts":33.1,"aqi":59,"pm10":19.0,"pm2_5":9.7,"mosquito_risk":7,"arthritis_risk":5,"migraine_risk":4,"frizz_risk":1,"updated_at":"2026-04-08T04:11:11.076333+05:30"},{"city":"Jaipur","state":"Rajasthan","latitude":26.9124,"longitude":75.7873,"temp":18.8,"humidity":88,"rain":0.0,"pressure":957.2,"uv_index":7.65,"wind_gusts":36.7,"aqi":134,"pm10":99.9,"pm2_5":31.9,"mosquito_risk":3,"arthritis_risk":10,"migraine_risk":7,"frizz_risk":1,"updated_at":"2026-04-08T04:11:11.076341+05:30"},{"city":"Lucknow","state":"Uttar Pradesh","latitude":26.8467,"longitude":80.9462,"temp":20.6,"humidity":78,"rain":0.1,"pressure":993.2,"uv_index":7.45,"wind_gusts":36.7,"aqi":96,"pm10":70.8,"pm2_5":33.8,"mosquito_risk":6,"arthritis_risk":5,"migraine_risk":7,"frizz_risk":1,"updated_at":"2026-04-08T04:11:11.076348+05:30"},{"city":"Kanpur","state":"Uttar Pradesh","latitude":26.4499,"longitude":80.3319,"temp":20.0,"humidity":85,"rain":0.1,"pressure":991.0,"uv_index":7.5,"wind_gusts":29.5,"aqi":120,"pm10":122.0,"pm2_5":35.2,"mosquito_risk":6,"arthritis_risk":5,"migraine_risk":7,"frizz_risk":1,"updated_at":"2026-04-08T04:11:11.076356+05:30"},{"city":"Chandigarh","state":"Chandigarh","latitude":30.7333,"longitude":76.7794,"temp":16.0,"humidity":94,"rain":0.0,"pressure":967.6,"uv_index":4.75,"wind_gusts":30.6,"aqi":75,"pm10":53.2,"pm2_5":23.3,"mosquito_risk":3,"arthritis_risk":10,"migraine_risk":3,"frizz_risk":0,"updated_at":"2026-04-08T04:11:11.076363+05:30"},{"city":"Srinagar","state":"Jammu and Kashmir","latitude":34.0837,"longitude":74.7973,"temp":8.5,"humidity":91,"rain":0.1,"pressure":834.3,"uv_index":5.8,"wind_gusts":25.6,"aqi":59,"pm10":13.2,"pm2_5":12.6,"mosquito_risk":6,"arthritis_risk":10,"migraine_risk":3,"frizz_risk":0,"updated_at":"2026-04-08T04:11:11.076370+05:30"},{"city":"Jammu","state":"Jammu and Kashmir","latitude":32.7266,"longitude":74.857,"temp":16.2,"humidity":91,"rain":0.0,"pressure":972.9,"uv_index":3.5,"wind_gusts":21.2,"aqi":65,"pm10":49.1,"pm2_5":15.9,"mosquito_risk":3,"arthritis_risk":10,"migraine_risk":3,"frizz_risk":0,"updated_at":"2026-04-08T04:11:11.076378+05:30"},{"city":"Amritsar","state":"Punjab","latitude":31.634,"longitude":74.8723,"temp":15.9,"humidity":95,"rain":0.0,"pressure":980.7,"uv_index":5.95,"wind_gusts":20.9,"aqi":101,"pm10":73.8,"pm2_5":33.5,"mosquito_risk":3,"arthritis_risk":10,"migraine_risk":3,"frizz_risk":0,"updated_at":"2026-04-08T04:11:11.076384+05:30"},{"city":"Ludhiana","state":"Punjab","latitude":30.901,"longitude":75.8573,"temp":16.4,"humidity":91,"rain":0.0,"pressure":977.9,"uv_index":4.85,"wind_gusts":21.2,"aqi":144,"pm10":70.1,"pm2_5":29.7,"mosquito_risk":3,"arthritis_risk":10,"migraine_risk":3,"frizz_risk":0,"updated_at":"2026-04-08T04:11:11.076392+05:30"},{"city":"Jalandhar","state":"Punjab","latitude":31.326,"longitude":75.5762,"temp":16.1,"humidity":93,"rain":0.0,"pressure":979.5,"uv_index":5.4,"wind_gusts":24.1,"aqi":128,"pm10":71.7,"pm2_5":28.7,"mosquito_risk":3,"arthritis_risk":10,"migraine_risk":3,"frizz_risk":0,"updated_at":"2026-04-08T04:11:11.076400+05:30"},{"city":"Dehradun","state":"Uttarakhand","latitude":30.6284,"longitude":78.0322,"temp":9.7,"humidity":82,"rain":0.0,"pressure":825.1,"uv_index":2.7,"wind_gusts":42.5,"aqi":49,"pm10":41.6,"pm2_5":17.8,"mosquito_risk":3,"arthritis_risk":10,"migraine_risk":3,"frizz_risk":0,"updated_at":"2026-04-08T04:11:11.076407+05:30"},{"city":"Shimla","state":"Himachal Pradesh","latitude":31.1048,"longitude":77.1734,"temp":8.1,"humidity":79,"rain":0.0,"pressure":777.9,"uv_index":6.45,"wind_gusts":38.2,"aqi":59,"pm10":37.1,"pm2_5":15.9,"mosquito_risk":3,"arthritis_risk":5,"migraine_risk":7,"frizz_risk":0,"updated_at":"2026-04-08T04:11:11.076413+05:30"},{"city":"Manali","state":"Himachal Pradesh","latitude":32.2396,"longitude":77.1887,"temp":9.9,"humidity":99,"rain":0.2,"pressure":812.2,"uv_index":8.2,"wind_gusts":29.9,"aqi":51,"pm10":12.5,"pm2_5":10.4,"mosquito_risk":6,"arthritis_risk":10,"migraine_risk":7,"frizz_risk":0,"updated_at":"2026-04-08T04:11:11.076420+05:30"},{"city":"Gurgaon","state":"Haryana","latitude":28.4595,"longitude":77.0266,"temp":18.1,"humidity":94,"rain":0.0,"pressure":980.0,"uv_index":7.05,"wind_gusts":23.4,"aqi":1106,"pm10":360.4,"pm2_5":74.3,"mosquito_risk":3,"arthritis_risk":10,"migraine_risk":7,"frizz_risk":1,"updated_at":"2026-04-08T04:11:11.076426+05:30"},{"city":"Noida","state":"Uttar Pradesh","latitude":28.5355,"longitude":77.391,"temp":18.2,"humidity":95,"rain":0.0,"pressure":983.0,"uv_index":6.95,"wind_gusts":27.7,"aqi":1106,"pm10":360.4,"pm2_5":74.3,"mosquito_risk":3,"arthritis_risk":10,"migraine_risk":7,"frizz_risk":1,"updated_at":"2026-04-08T04:11:11.076433+05:30"},{"city":"Ghaziabad","state":"Uttar Pradesh","latitude":28.6692,"longitude":77.4538,"temp":17.3,"humidity":96,"rain":0.0,"pressure":981.2,"uv_index":6.9,"wind_gusts":27.7,"aqi":156,"pm10":144.8,"pm2_5":43.5,"mosquito_risk":3,"arthritis_risk":10,"migraine_risk":7,"frizz_risk":1,"updated_at":"2026-04-08T04:11:11.076438+05:30"},{"city":"Faridabad","state":"Haryana","latitude":28.4089,"longitude":77.3178,"temp":17.7,"humidity":96,"rain":0.0,"pressure":982.2,"uv_index":7.0,"wind_gusts":25.9,"aqi":1106,"pm10":360.4,"pm2_5":74.3,"mosquito_risk":3,"arthritis_risk":10,"migraine_risk":7,"frizz_risk":1,"updated_at":"2026-04-08T04:11:11.076445+05:30"},{"city":"Meerut","state":"Uttar Pradesh","latitude":28.9845,"longitude":77.7064,"temp":16.8,"humidity":94,"rain":0.0,"pressure":980.0,"uv_index":6.2,"wind_gusts":25.6,"aqi":156,"pm10":144.8,"pm2_5":43.5,"mosquito_risk":3,"arthritis_risk":10,"migraine_risk":7,"frizz_risk":0,"updated_at":"2026-04-08T04:11:11.076451+05:30"},{"city":"Agra","state":"Uttar Pradesh","latitude":27.1767,"longitude":78.0081,"temp":19.9,"humidity":93,"rain":0.0,"pressure":986.0,"uv_index":7.35,"wind_gusts":29.9,"aqi":528,"pm10":300.8,"pm2_5":59.3,"mosquito_risk":3,"arthritis_risk":10,"migraine_risk":7,"frizz_risk":1,"updated_at":"2026-04-08T04:11:11.076459+05:30"},{"city":"Varanasi","state":"Uttar Pradesh","latitude":25.3176,"longitude":82.9739,"temp":22.1,"humidity":69,"rain":0.0,"pressure":997.3,"uv_index":6.0,"wind_gusts":35.6,"aqi":85,"pm10":63.1,"pm2_5":31.5,"mosquito_risk":3,"arthritis_risk":5,"migraine_risk":3,"frizz_risk":1,"updated_at":"2026-04-08T04:11:11.076468+05:30"},{"city":"Prayagraj","state":"Uttar Pradesh","latitude":25.4358,"longitude":81.8463,"temp":21.8,"humidity":76,"rain":0.0,"pressure":995.8,"uv_index":7.65,"wind_gusts":36.0,"aqi":85,"pm10":62.2,"pm2_5":27.9,"mosquito_risk":3,"arthritis_risk":5,"migraine_risk":7,"frizz_risk":1,"updated_at":"2026-04-08T04:11:11.076474+05:30"},{"city":"Gorakhpur","state":"Uttar Pradesh","latitude":26.7606,"longitude":83.3732,"temp":22.7,"humidity":66,"rain":0.0,"pressure":996.9,"uv_index":4.85,"wind_gusts":38.5,"aqi":77,"pm10":73.6,"pm2_5":42.5,"mosquito_risk":3,"arthritis_risk":5,"migraine_risk":3,"frizz_risk":0,"updated_at":"2026-04-08T04:11:11.076481+05:30"},{"city":"Bareilly","state":"Uttar Pradesh","latitude":28.367,"longitude":79.4304,"temp":18.5,"humidity":93,"rain":0.1,"pressure":986.0,"uv_index":7.2,"wind_gusts":29.9,"aqi":76,"pm10":129.0,"pm2_5":41.9,"mosquito_risk":6,"arthritis_risk":10,"migraine_risk":7,"frizz_risk":1,"updated_at":"2026-04-08T04:11:11.076487+05:30"},{"city":"Aligarh","state":"Uttar Pradesh","latitude":27.8974,"longitude":78.088,"temp":18.2,"humidity":95,"rain":0.0,"pressure":983.9,"uv_index":7.1,"wind_gusts":28.4,"aqi":358,"pm10":380.0,"pm2_5":75.9,"mosquito_risk":3,"arthritis_risk":10,"migraine_risk":7,"frizz_risk":1,"updated_at":"2026-04-08T04:11:11.076493+05:30"},{"city":"Moradabad","state":"Uttar Pradesh","latitude":28.8386,"longitude":78.7733,"temp":17.8,"humidity":93,"rain":0.0,"pressure":982.3,"uv_index":6.25,"wind_gusts":27.4,"aqi":89,"pm10":85.0,"pm2_5":38.5,"mosquito_risk":3,"arthritis_risk":10,"migraine_risk":7,"frizz_risk":1,"updated_at":"2026-04-08T04:11:11.076499+05:30"},{"city":"Saharanpur","state":"Uttar Pradesh","latitude":29.9637,"longitude":77.546,"temp":16.7,"humidity":94,"rain":0.0,"pressure":974.7,"uv_index":6.45,"wind_gusts":24.8,"aqi":83,"pm10":55.4,"pm2_5":28.2,"mosquito_risk":3,"arthritis_risk":10,"migraine_risk":7,"frizz_risk":0,"updated_at":"2026-04-08T04:11:11.076505+05:30"},{"city":"Jhansi","state":"Uttar Pradesh","latitude":25.4484,"longitude":78.5685,"temp":20.0,"humidity":84,"rain":0.0,"pressure":976.2,"uv_index":7.95,"wind_gusts":42.8,"aqi":76,"pm10":49.0,"pm2_5":24.9,"mosquito_risk":3,"arthritis_risk":5,"migraine_risk":7,"frizz_risk":1,"updated_at":"2026-04-08T04:11:14.296665+05:30"},{"city":"Surat","state":"Gujarat","latitude":21.1702,"longitude":72.8311,"temp":26.8,"humidity":82,"rain":0.0,"pressure":1006.1,"uv_index":7.7,"wind_gusts":42.8,"aqi":68,"pm10":37.5,"pm2_5":20.4,"mosquito_risk":7,"arthritis_risk":5,"migraine_risk":4,"frizz_risk":1,"updated_at":"2026-04-08T04:11:14.296693+05:30"},{"city":"Vadodara","state":"Gujarat","latitude":22.3072,"longitude":73.1812,"temp":26.2,"humidity":82,"rain":0.0,"pressure":1002.9,"uv_index":8.0,"wind_gusts":41.4,"aqi":65,"pm10":22.8,"pm2_5":12.7,"mosquito_risk":7,"arthritis_risk":5,"migraine_risk":4,"frizz_risk":1,"updated_at":"2026-04-08T04:11:14.296702+05:30"},{"city":"Rajkot","state":"Gujarat","latitude":22.3039,"longitude":70.8022,"temp":24.8,"humidity":88,"rain":0.0,"pressure":992.8,"uv_index":7.7,"wind_gusts":36.0,"aqi":55,"pm10":17.2,"pm2_5":8.7,"mosquito_risk":3,"arthritis_risk":5,"migraine_risk":7,"frizz_risk":1,"updated_at":"2026-04-08T04:11:14.296709+05:30"},{"city":"Thane","state":"Maharashtra","latitude":19.2183,"longitude":72.9781,"temp":26.3,"humidity":84,"rain":0.0,"pressure":1008.1,"uv_index":7.95,"wind_gusts":36.7,"aqi":74,"pm10":80.6,"pm2_5":23.6,"mosquito_risk":7,"arthritis_risk":0,"migraine_risk":4,"frizz_risk":1,"updated_at":"2026-04-08T04:11:14.296715+05:30"},{"city":"Nagpur","state":"Maharashtra","latitude":21.1458,"longitude":79.0882,"temp":22.4,"humidity":64,"rain":0.0,"pressure":971.7,"uv_index":8.75,"wind_gusts":35.6,"aqi":71,"pm10":39.7,"pm2_5":24.2,"mosquito_risk":3,"arthritis_risk":5,"migraine_risk":7,"frizz_risk":0,"updated_at":"2026-04-08T04:11:14.296722+05:30"},{"city":"Nashik","state":"Maharashtra","latitude":19.9975,"longitude":73.7898,"temp":21.6,"humidity":89,"rain":0.0,"pressure":945.1,"uv_index":8.2,"wind_gusts":43.9,"aqi":60,"pm10":46.7,"pm2_5":19.4,"mosquito_risk":3,"arthritis_risk":5,"migraine_risk":7,"frizz_risk":1,"updated_at":"2026-04-08T04:11:14.296729+05:30"},{"city":"Aurangabad","state":"Maharashtra","latitude":19.8762,"longitude":75.3433,"temp":22.1,"humidity":69,"rain":0.0,"pressure":943.5,"uv_index":8.9,"wind_gusts":47.9,"aqi":59,"pm10":48.1,"pm2_5":15.9,"mosquito_risk":3,"arthritis_risk":5,"migraine_risk":7,"frizz_risk":1,"updated_at":"2026-04-08T04:11:14.296735+05:30"},{"city":"Solapur","state":"Maharashtra","latitude":17.6599,"longitude":75.9064,"temp":24.5,"humidity":53,"rain":0.0,"pressure":957.0,"uv_index":9.0,"wind_gusts":31.0,"aqi":62,"pm10":39.9,"pm2_5":24.7,"mosquito_risk":0,"arthritis_risk":5,"migraine_risk":7,"frizz_risk":0,"updated_at":"2026-04-08T04:11:14.296741+05:30"},{"city":"Kolhapur","state":"Maharashtra","latitude":16.705,"longitude":74.2433,"temp":18.9,"humidity":92,"rain":0.0,"pressure":947.6,"uv_index":9.0,"wind_gusts":42.8,"aqi":58,"pm10":36.7,"pm2_5":19.5,"mosquito_risk":3,"arthritis_risk":10,"migraine_risk":7,"frizz_risk":1,"updated_at":"2026-04-08T04:11:14.296748+05:30"},{"city":"Goa","state":"Goa","latitude":15.2993,"longitude":74.124,"temp":25.7,"humidity":79,"rain":0.0,"pressure":998.5,"uv_index":9.0,"wind_gusts":38.5,"aqi":54,"pm10":42.0,"pm2_5":19.0,"mosquito_risk":7,"arthritis_risk":5,"migraine_risk":7,"frizz_risk":1,"updated_at":"2026-04-08T04:11:14.296754+05:30"},{"city":"Jodhpur","state":"Rajasthan","latitude":26.2389,"longitude":73.0243,"temp":21.1,"humidity":88,"rain":0.0,"pressure":981.1,"uv_index":7.9,"wind_gusts":24.8,"aqi":107,"pm10":132.2,"pm2_5":32.2,"mosquito_risk":3,"arthritis_risk":5,"migraine_risk":7,"frizz_risk":1,"updated_at":"2026-04-08T04:11:14.296760+05:30"},{"city":"Udaipur","state":"Rajasthan","latitude":24.5854,"longitude":73.7125,"temp":21.7,"humidity":58,"rain":0.0,"pressure":943.3,"uv_index":8.5,"wind_gusts":33.1,"aqi":66,"pm10":22.8,"pm2_5":11.2,"mosquito_risk":0,"arthritis_risk":5,"migraine_risk":7,"frizz_risk":0,"updated_at":"2026-04-08T04:11:14.296766+05:30"},{"city":"Kota","state":"Rajasthan","latitude":25.2138,"longitude":75.8648,"temp":20.8,"humidity":84,"rain":0.0,"pressure":976.2,"uv_index":7.95,"wind_gusts":34.2,"aqi":72,"pm10":42.0,"pm2_5":23.4,"mosquito_risk":3,"arthritis_risk":5,"migraine_risk":7,"frizz_risk":1,"updated_at":"2026-04-08T04:11:14.296771+05:30"},{"city":"Bikaner","state":"Rajasthan","latitude":28.0229,"longitude":73.3119,"temp":19.1,"humidity":83,"rain":0.0,"pressure":979.7,"uv_index":7.7,"wind_gusts":25.6,"aqi":67,"pm10":38.5,"pm2_5":12.6,"mosquito_risk":3,"arthritis_risk":10,"migraine_risk":7,"frizz_risk":1,"updated_at":"2026-04-08T04:11:14.296777+05:30"},{"city":"Ajmer","state":"Rajasthan","latitude":26.4499,"longitude":74.6399,"temp":19.3,"humidity":90,"rain":0.0,"pressure":951.7,"uv_index":7.85,"wind_gusts":30.2,"aqi":66,"pm10":118.7,"pm2_5":25.4,"mosquito_risk":3,"arthritis_risk":10,"migraine_risk":7,"frizz_risk":1,"updated_at":"2026-04-08T04:11:14.296783+05:30"},{"city":"Gwalior","state":"Madhya Pradesh","latitude":26.2183,"longitude":78.1828,"temp":20.3,"humidity":86,"rain":0.0,"pressure":981.6,"uv_index":7.65,"wind_gusts":34.9,"aqi":81,"pm10":42.0,"pm2_5":20.7,"mosquito_risk":3,"arthritis_risk":5,"migraine_risk":7,"frizz_risk":1,"updated_at":"2026-04-08T04:11:14.296789+05:30"},{"city":"Indore","state":"Madhya Pradesh","latitude":22.7196,"longitude":75.8577,"temp":22.5,"humidity":85,"rain":0.0,"pressure":945.9,"uv_index":8.4,"wind_gusts":49.7,"aqi":69,"pm10":48.4,"pm2_5":21.1,"mosquito_risk":3,"arthritis_risk":5,"migraine_risk":7,"frizz_risk":1,"updated_at":"2026-04-08T04:11:14.296795+05:30"},{"city":"Bhopal","state":"Madhya Pradesh","latitude":23.2599,"longitude":77.4126,"temp":23.1,"humidity":74,"rain":0.0,"pressure":951.3,"uv_index":8.3,"wind_gusts":51.1,"aqi":65,"pm10":58.7,"pm2_5":26.6,"mosquito_risk":3,"arthritis_risk":5,"migraine_risk":7,"frizz_risk":1,"updated_at":"2026-04-08T04:11:14.296800+05:30"},{"city":"Jabalpur","state":"Madhya Pradesh","latitude":23.1815,"longitude":79.9864,"temp":24.3,"humidity":52,"rain":0.0,"pressure":959.5,"uv_index":7.95,"wind_gusts":49.0,"aqi":88,"pm10":54.9,"pm2_5":35.7,"mosquito_risk":0,"arthritis_risk":5,"migraine_risk":7,"frizz_risk":0,"updated_at":"2026-04-08T04:11:14.296806+05:30"},{"city":"Ujjain","state":"Madhya Pradesh","latitude":23.1765,"longitude":75.7885,"temp":22.7,"humidity":86,"rain":0.0,"pressure":951.4,"uv_index":8.3,"wind_gusts":47.9,"aqi":68,"pm10":49.1,"pm2_5":21.1,"mosquito_risk":3,"arthritis_risk":5,"migraine_risk":7,"frizz_risk":1,"updated_at":"2026-04-08T04:11:14.296812+05:30"},{"city":"Visakhapatnam","state":"Andhra Pradesh","latitude":17.6868,"longitude":83.2185,"temp":26.5,"humidity":90,"rain":0.0,"pressure":1002.9,"uv_index":9.1,"wind_gusts":45.4,"aqi":72,"pm10":27.9,"pm2_5":22.5,"mosquito_risk":7,"arthritis_risk":5,"migraine_risk":4,"frizz_risk":1,"updated_at":"2026-04-08T04:11:14.296818+05:30"},{"city":"Vijayawada","state":"Andhra Pradesh","latitude":16.5062,"longitude":80.648,"temp":27.9,"humidity":89,"rain":0.0,"pressure":1001.8,"uv_index":9.15,"wind_gusts":28.4,"aqi":100,"pm10":31.7,"pm2_5":28.9,"mosquito_risk":7,"arthritis_risk":5,"migraine_risk":4,"frizz_risk":1,"updated_at":"2026-04-08T04:11:14.296824+05:30"},{"city":"Guntur","state":"Andhra Pradesh","latitude":16.3067,"longitude":80.4365,"temp":27.8,"humidity":90,"rain":0.0,"pressure":1002.9,"uv_index":9.2,"wind_gusts":31.3,"aqi":98,"pm10":29.6,"pm2_5":26.9,"mosquito_risk":7,"arthritis_risk":5,"migraine_risk":4,"frizz_risk":1,"updated_at":"2026-04-08T04:11:14.296830+05:30"},{"city":"Nellore","state":"Andhra Pradesh","latitude":14.4426,"longitude":79.9865,"temp":27.8,"humidity":90,"rain":0.0,"pressure":1004.3,"uv_index":9.3,"wind_gusts":38.5,"aqi":81,"pm10":29.2,"pm2_5":26.7,"mosquito_risk":7,"arthritis_risk":5,"migraine_risk":4,"frizz_risk":1,"updated_at":"2026-04-08T04:11:14.296836+05:30"},{"city":"Kurnool","state":"Andhra Pradesh","latitude":15.8281,"longitude":78.0373,"temp":27.6,"humidity":46,"rain":0.0,"pressure":975.8,"uv_index":9.15,"wind_gusts":25.9,"aqi":65,"pm10":32.6,"pm2_5":31.7,"mosquito_risk":4,"arthritis_risk":5,"migraine_risk":7,"frizz_risk":0,"updated_at":"2026-04-08T04:11:14.296843+05:30"},{"city":"Kakinada","state":"Andhra Pradesh","latitude":16.9891,"longitude":82.2475,"temp":27.0,"humidity":94,"rain":0.0,"pressure":1006.8,"uv_index":9.15,"wind_gusts":29.9,"aqi":63,"pm10":31.7,"pm2_5":25.0,"mosquito_risk":7,"arthritis_risk":5,"migraine_risk":4,"frizz_risk":1,"updated_at":"2026-04-08T04:11:14.296848+05:30"},{"city":"Tirupati","state":"Andhra Pradesh","latitude":13.6288,"longitude":79.4192,"temp":26.5,"humidity":90,"rain":0.0,"pressure":991.0,"uv_index":9.4,"wind_gusts":30.6,"aqi":89,"pm10":44.9,"pm2_5":42.3,"mosquito_risk":7,"arthritis_risk":5,"migraine_risk":7,"frizz_risk":1,"updated_at":"2026-04-08T04:11:14.296854+05:30"},{"city":"Warangal","state":"Telangana","latitude":17.9689,"longitude":79.5941,"temp":26.9,"humidity":80,"rain":0.0,"pressure":977.8,"uv_index":9.05,"wind_gusts":21.2,"aqi":106,"pm10":50.3,"pm2_5":42.4,"mosquito_risk":7,"arthritis_risk":5,"migraine_risk":7,"frizz_risk":1,"updated_at":"2026-04-08T04:11:14.296859+05:30"},{"city":"Nizamabad","state":"Telangana","latitude":18.6725,"longitude":78.0941,"temp":25.7,"humidity":54,"rain":0.0,"pressure":964.1,"uv_index":9.0,"wind_gusts":27.4,"aqi":73,"pm10":54.0,"pm2_5":33.8,"mosquito_risk":4,"arthritis_risk":5,"migraine_risk":7,"frizz_risk":0,"updated_at":"2026-04-08T04:11:14.296865+05:30"},{"city":"Mysore","state":"Karnataka","latitude":12.2958,"longitude":76.6396,"temp":20.5,"humidity":91,"rain":0.0,"pressure":927.6,"uv_index":9.55,"wind_gusts":44.3,"aqi":42,"pm10":14.6,"pm2_5":13.6,"mosquito_risk":3,"arthritis_risk":5,"migraine_risk":7,"frizz_risk":1,"updated_at":"2026-04-08T04:11:14.296870+05:30"},{"city":"Mangalore","state":"Karnataka","latitude":12.9141,"longitude":74.856,"temp":28.6,"humidity":72,"rain":0.0,"pressure":1006.7,"uv_index":9.15,"wind_gusts":31.0,"aqi":56,"pm10":20.0,"pm2_5":14.9,"mosquito_risk":7,"arthritis_risk":5,"migraine_risk":4,"frizz_risk":1,"updated_at":"2026-04-08T04:11:14.296876+05:30"},{"city":"Hubli-Dharwad","state":"Karnataka","latitude":15.3647,"longitude":75.124,"temp":20.3,"humidity":94,"rain":0.0,"pressure":940.6,"uv_index":9.2,"wind_gusts":43.2,"aqi":39,"pm10":17.8,"pm2_5":11.8,"mosquito_risk":3,"arthritis_risk":5,"migraine_risk":7,"frizz_risk":1,"updated_at":"2026-04-08T04:11:14.296882+05:30"},{"city":"Siliguri","state":"West Bengal","latitude":26.7271,"longitude":88.3953,"temp":18.4,"humidity":71,"rain":0.0,"pressure":995.2,"uv_index":7.9,"wind_gusts":22.0,"aqi":80,"pm10":51.6,"pm2_5":39.3,"mosquito_risk":3,"arthritis_risk":5,"migraine_risk":7,"frizz_risk":0,"updated_at":"2026-04-08T04:12:21.287619+05:30"},{"city":"Durgapur","state":"West Bengal","latitude":23.5204,"longitude":87.3119,"temp":21.6,"humidity":95,"rain":0.0,"pressure":995.2,"uv_index":8.65,"wind_gusts":24.1,"aqi":127,"pm10":65.7,"pm2_5":61.9,"mosquito_risk":3,"arthritis_risk":5,"migraine_risk":7,"frizz_risk":1,"updated_at":"2026-04-08T04:12:21.287648+05:30"},{"city":"Asansol","state":"West Bengal","latitude":23.6739,"longitude":86.9524,"temp":21.7,"humidity":91,"rain":0.0,"pressure":993.7,"uv_index":8.7,"wind_gusts":28.1,"aqi":110,"pm10":60.8,"pm2_5":55.8,"mosquito_risk":3,"arthritis_risk":5,"migraine_risk":7,"frizz_risk":1,"updated_at":"2026-04-08T04:12:21.287657+05:30"},{"city":"Pondicherry","state":"Puducherry","latitude":11.9139,"longitude":79.8145,"temp":26.8,"humidity":94,"rain":0.0,"pressure":1007.7,"uv_index":9.3,"wind_gusts":23.8,"aqi":86,"pm10":32.4,"pm2_5":25.3,"mosquito_risk":7,"arthritis_risk":5,"migraine_risk":4,"frizz_risk":1,"updated_at":"2026-04-08T04:12:21.287665+05:30"},{"city":"Port Blair","state":"Andaman and Nicobar Islands","latitude":11.6234,"longitude":92.7265,"temp":29.1,"humidity":69,"rain":0.0,"pressure":1007.4,"uv_index":8.95,"wind_gusts":14.0,"aqi":30,"pm10":8.1,"pm2_5":5.5,"mosquito_risk":7,"arthritis_risk":5,"migraine_risk":4,"frizz_risk":1,"updated_at":"2026-04-08T04:12:21.287672+05:30"},{"city":"Haridwar","state":"Uttarakhand","latitude":29.9457,"longitude":78.1642,"temp":18.2,"humidity":82,"rain":0.0,"pressure":973.2,"uv_index":4.15,"wind_gusts":25.2,"aqi":69,"pm10":48.4,"pm2_5":17.9,"mosquito_risk":3,"arthritis_risk":10,"migraine_risk":3,"frizz_risk":0,"updated_at":"2026-04-08T04:12:21.287679+05:30"},{"city":"Rishikesh","state":"Uttarakhand","latitude":30.0869,"longitude":78.2676,"temp":17.4,"humidity":80,"rain":0.0,"pressure":965.5,"uv_index":4.4,"wind_gusts":24.1,"aqi":61,"pm10":45.6,"pm2_5":17.3,"mosquito_risk":3,"arthritis_risk":5,"migraine_risk":3,"frizz_risk":0,"updated_at":"2026-04-08T04:12:21.287686+05:30"},{"city":"Nainital","state":"Uttarakhand","latitude":29.3919,"longitude":79.4542,"temp":13.4,"humidity":74,"rain":0.0,"pressure":801.7,"uv_index":4.95,"wind_gusts":55.4,"aqi":62,"pm10":37.4,"pm2_5":20.8,"mosquito_risk":3,"arthritis_risk":5,"migraine_risk":3,"frizz_risk":0,"updated_at":"2026-04-08T04:12:21.287693+05:30"},{"city":"Mussoorie","state":"Uttarakhand","latitude":30.4599,"longitude":78.0664,"temp":10.4,"humidity":80,"rain":0.0,"pressure":797.3,"uv_index":3.5,"wind_gusts":49.3,"aqi":60,"pm10":44.8,"pm2_5":18.3,"mosquito_risk":3,"arthritis_risk":5,"migraine_risk":3,"frizz_risk":0,"updated_at":"2026-04-08T04:12:21.287700+05:30"},{"city":"Dharamshala","state":"Himachal Pradesh","latitude":32.219,"longitude":76.3234,"temp":12.4,"humidity":87,"rain":0.0,"pressure":864.9,"uv_index":3.25,"wind_gusts":32.4,"aqi":49,"pm10":9.2,"pm2_5":6.5,"mosquito_risk":3,"arthritis_risk":10,"migraine_risk":3,"frizz_risk":0,"updated_at":"2026-04-08T04:12:21.287706+05:30"},{"city":"Dalhousie","state":"Himachal Pradesh","latitude":32.5387,"longitude":75.971,"temp":9.2,"humidity":72,"rain":0.1,"pressure":798.1,"uv_index":1.45,"wind_gusts":34.9,"aqi":62,"pm10":92.2,"pm2_5":22.4,"mosquito_risk":6,"arthritis_risk":5,"migraine_risk":3,"frizz_risk":0,"updated_at":"2026-04-08T04:12:21.287716+05:30"},{"city":"Patiala","state":"Punjab","latitude":30.3398,"longitude":76.3869,"temp":15.9,"humidity":93,"rain":0.0,"pressure":976.8,"uv_index":2.7,"wind_gusts":26.6,"aqi":246,"pm10":77.3,"pm2_5":32.1,"mosquito_risk":3,"arthritis_risk":10,"migraine_risk":3,"frizz_risk":0,"updated_at":"2026-04-08T04:12:21.287724+05:30"},{"city":"Bhatinda","state":"Punjab","latitude":30.211,"longitude":74.9455,"temp":16.3,"humidity":93,"rain":0.0,"pressure":983.2,"uv_index":7.4,"wind_gusts":24.8,"aqi":131,"pm10":149.0,"pm2_5":44.2,"mosquito_risk":3,"arthritis_risk":10,"migraine_risk":7,"frizz_risk":0,"updated_at":"2026-04-08T04:12:21.287731+05:30"},{"city":"Rohtak","state":"Haryana","latitude":28.8955,"longitude":76.6066,"temp":16.5,"humidity":92,"rain":0.0,"pressure":980.8,"uv_index":6.95,"wind_gusts":24.8,"aqi":416,"pm10":239.3,"pm2_5":56.5,"mosquito_risk":3,"arthritis_risk":10,"migraine_risk":7,"frizz_risk":0,"updated_at":"2026-04-08T04:12:21.287738+05:30"},{"city":"Panipat","state":"Haryana","latitude":29.3909,"longitude":76.9635,"temp":16.2,"humidity":97,"rain":0.0,"pressure":978.9,"uv_index":5.65,"wind_gusts":26.3,"aqi":503,"pm10":116.4,"pm2_5":38.2,"mosquito_risk":3,"arthritis_risk":10,"migraine_risk":3,"frizz_risk":0,"updated_at":"2026-04-08T04:12:21.287745+05:30"},{"city":"Mathura","state":"Uttar Pradesh","latitude":27.4924,"longitude":77.6737,"temp":18.7,"humidity":96,"rain":0.0,"pressure":984.8,"uv_index":7.3,"wind_gusts":29.2,"aqi":562,"pm10":237.0,"pm2_5":56.2,"mosquito_risk":3,"arthritis_risk":10,"migraine_risk":7,"frizz_risk":1,"updated_at":"2026-04-08T04:12:21.287752+05:30"},{"city":"Vrindavan","state":"Uttar Pradesh","latitude":27.5823,"longitude":77.7027,"temp":18.5,"humidity":97,"rain":0.0,"pressure":985.3,"uv_index":7.25,"wind_gusts":28.1,"aqi":562,"pm10":237.0,"pm2_5":56.2,"mosquito_risk":3,"arthritis_risk":10,"migraine_risk":7,"frizz_risk":1,"updated_at":"2026-04-08T04:12:21.287759+05:30"},{"city":"Ayodhya","state":"Uttar Pradesh","latitude":26.7922,"longitude":82.1998,"temp":21.0,"humidity":78,"rain":0.0,"pressure":995.2,"uv_index":7.25,"wind_gusts":40.0,"aqi":88,"pm10":56.6,"pm2_5":28.6,"mosquito_risk":3,"arthritis_risk":5,"migraine_risk":7,"frizz_risk":1,"updated_at":"2026-04-08T04:12:21.287766+05:30"},{"city":"Ratlam","state":"Madhya Pradesh","latitude":23.3315,"longitude":75.0367,"temp":23.1,"humidity":90,"rain":0.0,"pressure":952.2,"uv_index":8.25,"wind_gusts":47.9,"aqi":67,"pm10":50.5,"pm2_5":21.1,"mosquito_risk":3,"arthritis_risk":5,"migraine_risk":7,"frizz_risk":1,"updated_at":"2026-04-08T04:12:21.287773+05:30"},{"city":"Sagar","state":"Madhya Pradesh","latitude":23.8388,"longitude":78.7378,"temp":22.5,"humidity":61,"rain":0.0,"pressure":947.6,"uv_index":8.3,"wind_gusts":50.4,"aqi":60,"pm10":48.2,"pm2_5":23.6,"mosquito_risk":3,"arthritis_risk":5,"migraine_risk":7,"frizz_risk":0,"updated_at":"2026-04-08T04:12:21.287780+05:30"},{"city":"Satna","state":"Madhya Pradesh","latitude":24.6005,"longitude":80.8322,"temp":22.0,"humidity":65,"rain":0.0,"pressure":970.1,"uv_index":8.35,"wind_gusts":42.8,"aqi":62,"pm10":31.5,"pm2_5":23.7,"mosquito_risk":3,"arthritis_risk":5,"migraine_risk":7,"frizz_risk":0,"updated_at":"2026-04-08T04:12:21.287786+05:30"},{"city":"Akola","state":"Maharashtra","latitude":20.7002,"longitude":77.0082,"temp":23.9,"humidity":69,"rain":0.0,"pressure":974.5,"uv_index":8.7,"wind_gusts":45.7,"aqi":64,"pm10":41.4,"pm2_5":18.6,"mosquito_risk":3,"arthritis_risk":5,"migraine_risk":7,"frizz_risk":1,"updated_at":"2026-04-08T04:12:21.287792+05:30"},{"city":"Amravati","state":"Maharashtra","latitude":20.9374,"longitude":77.7796,"temp":22.8,"humidity":66,"rain":0.0,"pressure":966.2,"uv_index":8.7,"wind_gusts":43.2,"aqi":60,"pm10":45.9,"pm2_5":19.8,"mosquito_risk":3,"arthritis_risk":5,"migraine_risk":7,"frizz_risk":1,"updated_at":"2026-04-08T04:12:21.287798+05:30"},{"city":"Latur","state":"Maharashtra","latitude":18.4088,"longitude":76.5604,"temp":21.6,"humidity":62,"rain":0.0,"pressure":939.0,"uv_index":9.0,"wind_gusts":34.9,"aqi":66,"pm10":43.3,"pm2_5":21.4,"mosquito_risk":3,"arthritis_risk":5,"migraine_risk":7,"frizz_risk":0,"updated_at":"2026-04-08T04:12:21.287805+05:30"},{"city":"Nanded","state":"Maharashtra","latitude":19.1383,"longitude":77.3091,"temp":23.6,"humidity":63,"rain":0.0,"pressure":968.1,"uv_index":8.9,"wind_gusts":34.6,"aqi":73,"pm10":44.8,"pm2_5":28.9,"mosquito_risk":3,"arthritis_risk":5,"migraine_risk":7,"frizz_risk":1,"updated_at":"2026-04-08T04:12:21.287812+05:30"},{"city":"Gulbarga","state":"Karnataka","latitude":17.3297,"longitude":76.8343,"temp":26.1,"humidity":40,"rain":0.0,"pressure":958.3,"uv_index":9.05,"wind_gusts":31.3,"aqi":60,"pm10":32.7,"pm2_5":23.4,"mosquito_risk":4,"arthritis_risk":5,"migraine_risk":7,"frizz_risk":0,"updated_at":"2026-04-08T04:12:21.287818+05:30"},{"city":"Bidar","state":"Karnataka","latitude":17.9104,"longitude":77.5199,"temp":24.7,"humidity":45,"rain":0.0,"pressure":934.8,"uv_index":9.05,"wind_gusts":28.8,"aqi":70,"pm10":55.9,"pm2_5":32.4,"mosquito_risk":0,"arthritis_risk":5,"migraine_risk":7,"frizz_risk":0,"updated_at":"2026-04-08T04:12:21.287824+05:30"},{"city":"Hospet","state":"Karnataka","latitude":15.2689,"longitude":76.3909,"temp":23.8,"humidity":78,"rain":0.0,"pressure":956.0,"uv_index":9.25,"wind_gusts":27.0,"aqi":47,"pm10":10.3,"pm2_5":8.2,"mosquito_risk":3,"arthritis_risk":5,"migraine_risk":7,"frizz_risk":1,"updated_at":"2026-04-08T04:12:21.287830+05:30"},{"city":"Tirupur","state":"Tamil Nadu","latitude":11.1085,"longitude":77.3411,"temp":24.9,"humidity":81,"rain":0.0,"pressure":974.6,"uv_index":9.5,"wind_gusts":38.5,"aqi":61,"pm10":20.2,"pm2_5":18.0,"mosquito_risk":3,"arthritis_risk":5,"migraine_risk":7,"frizz_risk":1,"updated_at":"2026-04-08T04:12:21.287837+05:30"},{"city":"Alappuzha","state":"Kerala","latitude":9.4981,"longitude":76.3388,"temp":29.1,"humidity":72,"rain":0.0,"pressure":1008.4,"uv_index":9.2,"wind_gusts":31.0,"aqi":60,"pm10":23.0,"pm2_5":15.5,"mosquito_risk":7,"arthritis_risk":0,"migraine_risk":4,"frizz_risk":1,"updated_at":"2026-04-08T04:12:21.287843+05:30"},{"city":"Munnar","state":"Kerala","latitude":10.0889,"longitude":77.0595,"temp":18.7,"humidity":91,"rain":0.0,"pressure":855.3,"uv_index":7.15,"wind_gusts":38.5,"aqi":60,"pm10":19.7,"pm2_5":16.9,"mosquito_risk":3,"arthritis_risk":10,"migraine_risk":7,"frizz_risk":1,"updated_at":"2026-04-08T04:12:21.287849+05:30"},{"city":"Silchar","state":"Assam","latitude":24.8333,"longitude":92.7789,"temp":20.9,"humidity":83,"rain":0.0,"pressure":1006.6,"uv_index":8.45,"wind_gusts":23.0,"aqi":126,"pm10":53.0,"pm2_5":47.0,"mosquito_risk":3,"arthritis_risk":5,"migraine_risk":4,"frizz_risk":1,"updated_at":"2026-04-08T04:12:21.287856+05:30"},{"city":"Dibrugarh","state":"Assam","latitude":27.4728,"longitude":94.912,"temp":20.0,"humidity":87,"rain":0.0,"pressure":998.6,"uv_index":8.25,"wind_gusts":10.8,"aqi":78,"pm10":15.8,"pm2_5":13.6,"mosquito_risk":3,"arthritis_risk":5,"migraine_risk":7,"frizz_risk":1,"updated_at":"2026-04-08T04:12:21.287862+05:30"}]