[{"city":"Delhi","state":"Delhi","latitude":28.6139,"longitude":77.209,"temp":26.3,"humidity":55,"rain":0.0,"pressure":986.2,"uv_index":6.0,"wind_gusts":28.8,"aqi":385,"pm10":453.6,"pm2_5":105.5,"mosquito_risk":4,"arthritis_risk":5,"migraine_risk":3,"frizz_risk":1,"updated_at":"2026-03-13T10:16:58.126225+05:30"},{"city":"Mumbai","state":"Maharashtra","latitude":19.076,"longitude":72.8777,"temp":28.1,"humidity":75,"rain":0.0,"pressure":1009.6,"uv_index":7.65,"wind_gusts":26.6,"aqi":156,"pm10":61.7,"pm2_5":59.5,"mosquito_risk":7,"arthritis_risk":0,"migraine_risk":4,"frizz_risk":1,"updated_at":"2026-03-13T10:16:58.126279+05:30"},{"city":"Bangalore","state":"Karnataka","latitude":12.9716,"longitude":77.5946,"temp":28.7,"humidity":34,"rain":0.0,"pressure":914.8,"uv_index":9.3,"wind_gusts":28.4,"aqi":76,"pm10":49.5,"pm2_5":38.1,"mosquito_risk":4,"arthritis_risk":5,"migraine_risk":7,"frizz_risk":0,"updated_at":"2026-03-13T10:16:58.126296+05:30"},{"city":"Hyderabad","state":"Telangana","latitude":17.385,"longitude":78.4867,"temp":32.7,"humidity":30,"rain":0.0,"pressure":956.3,"uv_index":8.65,"wind_gusts":18.7,"aqi":99,"pm10":43.8,"pm2_5":37.0,"mosquito_risk":0,"arthritis_risk":5,"migraine_risk":7,"frizz_risk":0,"updated_at":"2026-03-13T10:16:58.126306+05:30"},{"city":"Chennai","state":"Tamil Nadu","latitude":13.0827,"longitude":80.2707,"temp":31.3,"humidity":59,"rain":0.0,"pressure":1010.2,"uv_index":9.05,"wind_gusts":30.6,"aqi":71,"pm10":22.4,"pm2_5":18.3,"mosquito_risk":0,"arthritis_risk":0,"migraine_risk":4,"frizz_risk":1,"updated_at":"2026-03-13T10:16:58.126319+05:30"},{"city":"Kolkata","state":"West Bengal","latitude":22.5726,"longitude":88.3639,"temp":30.2,"humidity":71,"rain":0.0,"pressure":1008.6,"uv_index":8.0,"wind_gusts":28.4,"aqi":150,"pm10":52.4,"pm2_5":41.9,"mosquito_risk":3,"arthritis_risk":0,"migraine_risk":4,"frizz_risk":1,"updated_at":"2026-03-13T10:16:58.126328+05:30"},{"city":"Pune","state":"Maharashtra","latitude":18.5204,"longitude":73.8567,"temp":33.0,"humidity":25,"rain":0.0,"pressure":951.0,"uv_index":8.2,"wind_gusts":26.6,"aqi":151,"pm10":30.0,"pm2_5":28.1,"mosquito_risk":0,"arthritis_risk":5,"migraine_risk":7,"frizz_risk":0,"updated_at":"2026-03-13T10:16:58.126339+05:30"},{"city":"Ahmedabad","state":"Gujarat","latitude":23.0225,"longitude":72.5714,"temp":29.1,"humidity":48,"rain":0.0,"pressure":1005.1,"uv_index":7.45,"wind_gusts":21.6,"aqi":87,"pm10":68.5,"pm2_5":43.1,"mosquito_risk":4,"arthritis_risk":5,"migraine_risk":4,"frizz_risk":1,"updated_at":"2026-03-13T10:16:58.126347+05:30"},{"city":"Jaipur","state":"Rajasthan","latitude":26.9124,"longitude":75.7873,"temp":30.4,"humidity":38,"rain":0.0,"pressure":963.2,"uv_index":6.85,"wind_gusts":24.5,"aqi":118,"pm10":205.8,"pm2_5":56.8,"mosquito_risk":0,"arthritis_risk":5,"migraine_risk":7,"frizz_risk":0,"updated_at":"2026-03-13T10:16:58.126356+05:30"},{"city":"Lucknow","state":"Uttar Pradesh","latitude":26.8467,"longitude":80.9462,"temp":29.1,"humidity":51,"rain":0.0,"pressure":995.9,"uv_index":6.0,"wind_gusts":26.6,"aqi":173,"pm10":365.1,"pm2_5":94.1,"mosquito_risk":4,"arthritis_risk":5,"migraine_risk":3,"frizz_risk":1,"updated_at":"2026-03-13T10:16:58.126365+05:30"},{"city":"Kanpur","state":"Uttar Pradesh","latitude":26.4499,"longitude":80.3319,"temp":28.6,"humidity":60,"rain":0.0,"pressure":994.4,"uv_index":6.35,"wind_gusts":21.2,"aqi":283,"pm10":449.8,"pm2_5":92.2,"mosquito_risk":4,"arthritis_risk":5,"migraine_risk":7,"frizz_risk":1,"updated_at":"2026-03-13T10:16:58.126372+05:30"},{"city":"Chandigarh","state":"Chandigarh","latitude":30.7333,"longitude":76.7794,"temp":24.8,"humidity":56,"rain":0.0,"pressure":971.5,"uv_index":5.25,"wind_gusts":30.6,"aqi":85,"pm10":42.1,"pm2_5":22.5,"mosquito_risk":0,"arthritis_risk":5,"migraine_risk":3,"frizz_risk":0,"updated_at":"2026-03-13T10:16:58.126381+05:30"},{"city":"Srinagar","state":"Jammu and Kashmir","latitude":34.0837,"longitude":74.7973,"temp":10.8,"humidity":78,"rain":0.0,"pressure":845.2,"uv_index":6.9,"wind_gusts":14.0,"aqi":66,"pm10":27.9,"pm2_5":22.2,"mosquito_risk":3,"arthritis_risk":5,"migraine_risk":7,"frizz_risk":0,"updated_at":"2026-03-13T10:16:58.126388+05:30"},{"city":"Jammu","state":"Jammu and Kashmir","latitude":32.7266,"longitude":74.857,"temp":25.2,"humidity":55,"rain":0.0,"pressure":976.6,"uv_index":6.65,"wind_gusts":23.0,"aqi":83,"pm10":22.1,"pm2_5":19.6,"mosquito_risk":4,"arthritis_risk":5,"migraine_risk":7,"frizz_risk":0,"updated_at":"2026-03-13T10:16:58.126396+05:30"},{"city":"Amritsar","state":"Punjab","latitude":31.634,"longitude":74.8723,"temp":24.1,"humidity":65,"rain":0.0,"pressure":984.8,"uv_index":6.65,"wind_gusts":23.8,"aqi":113,"pm10":46.9,"pm2_5":35.2,"mosquito_risk":3,"arthritis_risk":5,"migraine_risk":7,"frizz_risk":1,"updated_at":"2026-03-13T10:16:58.126403+05:30"},{"city":"Ludhiana","state":"Punjab","latitude":30.901,"longitude":75.8573,"temp":24.6,"humidity":53,"rain":0.0,"pressure":982.3,"uv_index":6.25,"wind_gusts":28.8,"aqi":113,"pm10":51.6,"pm2_5":42.3,"mosquito_risk":0,"arthritis_risk":5,"migraine_risk":7,"frizz_risk":0,"updated_at":"2026-03-13T10:16:58.126410+05:30"},{"city":"Jalandhar","state":"Punjab","latitude":31.326,"longitude":75.5762,"temp":24.3,"humidity":64,"rain":0.0,"pressure":983.6,"uv_index":6.0,"wind_gusts":26.6,"aqi":112,"pm10":80.3,"pm2_5":51.6,"mosquito_risk":3,"arthritis_risk":5,"migraine_risk":3,"frizz_risk":1,"updated_at":"2026-03-13T10:16:58.126419+05:30"},{"city":"Dehradun","state":"Uttarakhand","latitude":30.6284,"longitude":78.0322,"temp":19.4,"humidity":29,"rain":0.0,"pressure":832.7,"uv_index":5.35,"wind_gusts":28.1,"aqi":42,"pm10":35.9,"pm2_5":11.4,"mosquito_risk":0,"arthritis_risk":5,"migraine_risk":3,"frizz_risk":0,"updated_at":"2026-03-13T10:16:58.126426+05:30"},{"city":"Shimla","state":"Himachal Pradesh","latitude":31.1048,"longitude":77.1734,"temp":17.9,"humidity":43,"rain":0.0,"pressure":787.6,"uv_index":5.8,"wind_gusts":38.5,"aqi":57,"pm10":30.4,"pm2_5":10.3,"mosquito_risk":0,"arthritis_risk":5,"migraine_risk":3,"frizz_risk":0,"updated_at":"2026-03-13T10:16:58.126432+05:30"},{"city":"Manali","state":"Himachal Pradesh","latitude":32.2396,"longitude":77.1887,"temp":17.4,"humidity":14,"rain":0.0,"pressure":822.2,"uv_index":8.4,"wind_gusts":38.5,"aqi":44,"pm10":13.5,"pm2_5":5.7,"mosquito_risk":0,"arthritis_risk":5,"migraine_risk":7,"frizz_risk":1,"updated_at":"2026-03-13T10:16:58.126439+05:30"},{"city":"Gurgaon","state":"Haryana","latitude":28.4595,"longitude":77.0266,"temp":26.4,"humidity":59,"rain":0.0,"pressure":984.9,"uv_index":6.15,"wind_gusts":26.6,"aqi":1209,"pm10":1307.6,"pm2_5":186.7,"mosquito_risk":4,"arthritis_risk":5,"migraine_risk":7,"frizz_risk":1,"updated_at":"2026-03-13T10:16:58.126447+05:30"},{"city":"Noida","state":"Uttar Pradesh","latitude":28.5355,"longitude":77.391,"temp":27.0,"humidity":53,"rain":0.0,"pressure":987.7,"uv_index":6.1,"wind_gusts":28.4,"aqi":1209,"pm10":1307.6,"pm2_5":186.7,"mosquito_risk":4,"arthritis_risk":5,"migraine_risk":7,"frizz_risk":1,"updated_at":"2026-03-13T10:16:58.126453+05:30"},{"city":"Ghaziabad","state":"Uttar Pradesh","latitude":28.6692,"longitude":77.4538,"temp":25.9,"humidity":60,"rain":0.0,"pressure":985.7,"uv_index":5.85,"wind_gusts":27.7,"aqi":232,"pm10":326.9,"pm2_5":88.9,"mosquito_risk":4,"arthritis_risk":5,"migraine_risk":3,"frizz_risk":1,"updated_at":"2026-03-13T10:16:58.126461+05:30"},{"city":"Faridabad","state":"Haryana","latitude":28.4089,"longitude":77.3178,"temp":26.7,"humidity":56,"rain":0.0,"pressure":987.0,"uv_index":6.1,"wind_gusts":27.0,"aqi":1209,"pm10":1307.6,"pm2_5":186.7,"mosquito_risk":4,"arthritis_risk":5,"migraine_risk":7,"frizz_risk":1,"updated_at":"2026-03-13T10:16:58.126469+05:30"},{"city":"Meerut","state":"Uttar Pradesh","latitude":28.9845,"longitude":77.7064,"temp":25.9,"humidity":58,"rain":0.0,"pressure":984.2,"uv_index":5.35,"wind_gusts":28.8,"aqi":232,"pm10":326.9,"pm2_5":88.9,"mosquito_risk":4,"arthritis_risk":5,"migraine_risk":3,"frizz_risk":1,"updated_at":"2026-03-13T10:16:58.126476+05:30"},{"city":"Agra","state":"Uttar Pradesh","latitude":27.1767,"longitude":78.0081,"temp":28.8,"humidity":54,"rain":0.0,"pressure":991.2,"uv_index":6.1,"wind_gusts":22.0,"aqi":530,"pm10":763.7,"pm2_5":149.5,"mosquito_risk":4,"arthritis_risk":5,"migraine_risk":7,"frizz_risk":1,"updated_at":"2026-03-13T10:16:58.126483+05:30"},{"city":"Varanasi","state":"Uttar Pradesh","latitude":25.3176,"longitude":82.9739,"temp":30.0,"humidity":51,"rain":0.0,"pressure":1000.1,"uv_index":7.3,"wind_gusts":26.6,"aqi":124,"pm10":200.2,"pm2_5":59.3,"mosquito_risk":4,"arthritis_risk":5,"migraine_risk":4,"frizz_risk":1,"updated_at":"2026-03-13T10:16:58.126493+05:30"},{"city":"Prayagraj","state":"Uttar Pradesh","latitude":25.4358,"longitude":81.8463,"temp":29.9,"humidity":50,"rain":0.0,"pressure":998.6,"uv_index":6.8,"wind_gusts":22.0,"aqi":146,"pm10":323.2,"pm2_5":78.0,"mosquito_risk":4,"arthritis_risk":5,"migraine_risk":7,"frizz_risk":1,"updated_at":"2026-03-13T10:16:58.126501+05:30"},{"city":"Gorakhpur","state":"Uttar Pradesh","latitude":26.7606,"longitude":83.3732,"temp":28.2,"humidity":75,"rain":0.0,"pressure":999.4,"uv_index":6.65,"wind_gusts":28.1,"aqi":182,"pm10":127.1,"pm2_5":116.4,"mosquito_risk":7,"arthritis_risk":5,"migraine_risk":7,"frizz_risk":1,"updated_at":"2026-03-13T10:16:58.126508+05:30"},{"city":"Bareilly","state":"Uttar Pradesh","latitude":28.367,"longitude":79.4304,"temp":26.6,"humidity":66,"rain":0.0,"pressure":989.2,"uv_index":5.9,"wind_gusts":26.6,"aqi":153,"pm10":111.1,"pm2_5":66.1,"mosquito_risk":7,"arthritis_risk":5,"migraine_risk":3,"frizz_risk":1,"updated_at":"2026-03-13T10:16:58.126515+05:30"},{"city":"Aligarh","state":"Uttar Pradesh","latitude":27.8974,"longitude":78.088,"temp":28.9,"humidity":53,"rain":0.0,"pressure":988.6,"uv_index":5.95,"wind_gusts":29.2,"aqi":635,"pm10":622.1,"pm2_5":127.6,"mosquito_risk":4,"arthritis_risk":5,"migraine_risk":3,"frizz_risk":1,"updated_at":"2026-03-13T10:16:58.126524+05:30"},{"city":"Moradabad","state":"Uttar Pradesh","latitude":28.8386,"longitude":78.7733,"temp":26.2,"humidity":62,"rain":0.0,"pressure":986.0,"uv_index":5.8,"wind_gusts":27.0,"aqi":152,"pm10":83.1,"pm2_5":59.8,"mosquito_risk":7,"arthritis_risk":5,"migraine_risk":3,"frizz_risk":1,"updated_at":"2026-03-13T10:16:58.126530+05:30"},{"city":"Saharanpur","state":"Uttar Pradesh","latitude":29.9637,"longitude":77.546,"temp":24.7,"humidity":62,"rain":0.0,"pressure":978.3,"uv_index":4.85,"wind_gusts":28.1,"aqi":147,"pm10":61.2,"pm2_5":41.0,"mosquito_risk":3,"arthritis_risk":5,"migraine_risk":3,"frizz_risk":1,"updated_at":"2026-03-13T10:16:58.126537+05:30"},{"city":"Jhansi","state":"Uttar Pradesh","latitude":25.4484,"longitude":78.5685,"temp":30.8,"humidity":29,"rain":0.0,"pressure":981.2,"uv_index":6.4,"wind_gusts":18.7,"aqi":52,"pm10":144.4,"pm2_5":34.7,"mosquito_risk":0,"arthritis_risk":5,"migraine_risk":7,"frizz_risk":0,"updated_at":"2026-03-13T10:17:01.375686+05:30"},{"city":"Surat","state":"Gujarat","latitude":21.1702,"longitude":72.8311,"temp":29.9,"humidity":49,"rain":0.0,"pressure":1009.1,"uv_index":7.35,"wind_gusts":23.8,"aqi":148,"pm10":54.0,"pm2_5":51.7,"mosquito_risk":4,"arthritis_risk":0,"migraine_risk":4,"frizz_risk":1,"updated_at":"2026-03-13T10:17:01.375721+05:30"},{"city":"Vadodara","state":"Gujarat","latitude":22.3072,"longitude":73.1812,"temp":31.4,"humidity":35,"rain":0.0,"pressure":1007.0,"uv_index":7.5,"wind_gusts":22.0,"aqi":106,"pm10":39.7,"pm2_5":32.5,"mosquito_risk":0,"arthritis_risk":5,"migraine_risk":4,"frizz_risk":0,"updated_at":"2026-03-13T10:17:01.375731+05:30"},{"city":"Rajkot","state":"Gujarat","latitude":22.3039,"longitude":70.8022,"temp":29.0,"humidity":46,"rain":0.0,"pressure":997.2,"uv_index":7.3,"wind_gusts":30.2,"aqi":81,"pm10":88.7,"pm2_5":35.2,"mosquito_risk":4,"arthritis_risk":5,"migraine_risk":7,"frizz_risk":1,"updated_at":"2026-03-13T10:17:01.375739+05:30"},{"city":"Thane","state":"Maharashtra","latitude":19.2183,"longitude":72.9781,"temp":31.8,"humidity":44,"rain":0.0,"pressure":1009.3,"uv_index":7.65,"wind_gusts":38.9,"aqi":156,"pm10":61.7,"pm2_5":59.5,"mosquito_risk":0,"arthritis_risk":0,"migraine_risk":4,"frizz_risk":1,"updated_at":"2026-03-13T10:17:01.375746+05:30"},{"city":"Nagpur","state":"Maharashtra","latitude":21.1458,"longitude":79.0882,"temp":33.3,"humidity":26,"rain":0.0,"pressure":976.3,"uv_index":8.05,"wind_gusts":18.7,"aqi":91,"pm10":26.1,"pm2_5":21.3,"mosquito_risk":0,"arthritis_risk":5,"migraine_risk":7,"frizz_risk":0,"updated_at":"2026-03-13T10:17:01.375753+05:30"},{"city":"Nashik","state":"Maharashtra","latitude":19.9975,"longitude":73.7898,"temp":31.6,"humidity":24,"rain":0.0,"pressure":948.4,"uv_index":7.85,"wind_gusts":32.4,"aqi":74,"pm10":21.9,"pm2_5":17.9,"mosquito_risk":0,"arthritis_risk":5,"migraine_risk":7,"frizz_risk":0,"updated_at":"2026-03-13T10:17:01.375760+05:30"},{"city":"Aurangabad","state":"Maharashtra","latitude":19.8762,"longitude":75.3433,"temp":32.5,"humidity":23,"rain":0.0,"pressure":946.9,"uv_index":8.35,"wind_gusts":29.5,"aqi":65,"pm10":24.0,"pm2_5":21.8,"mosquito_risk":0,"arthritis_risk":5,"migraine_risk":7,"frizz_risk":0,"updated_at":"2026-03-13T10:17:01.375767+05:30"},{"city":"Solapur","state":"Maharashtra","latitude":17.6599,"longitude":75.9064,"temp":31.1,"humidity":41,"rain":0.0,"pressure":960.0,"uv_index":8.6,"wind_gusts":24.8,"aqi":91,"pm10":38.4,"pm2_5":32.2,"mosquito_risk":0,"arthritis_risk":5,"migraine_risk":7,"frizz_risk":1,"updated_at":"2026-03-13T10:17:01.375775+05:30"},{"city":"Kolhapur","state":"Maharashtra","latitude":16.705,"longitude":74.2433,"temp":30.3,"humidity":42,"rain":0.0,"pressure":950.2,"uv_index":8.7,"wind_gusts":44.6,"aqi":152,"pm10":81.0,"pm2_5":76.6,"mosquito_risk":0,"arthritis_risk":5,"migraine_risk":7,"frizz_risk":0,"updated_at":"2026-03-13T10:17:01.375800+05:30"},{"city":"Goa","state":"Goa","latitude":15.2993,"longitude":74.124,"temp":30.3,"humidity":68,"rain":0.0,"pressure":999.9,"uv_index":8.7,"wind_gusts":32.8,"aqi":141,"pm10":56.7,"pm2_5":48.7,"mosquito_risk":3,"arthritis_risk":5,"migraine_risk":7,"frizz_risk":1,"updated_at":"2026-03-13T10:17:01.375808+05:30"},{"city":"Jodhpur","state":"Rajasthan","latitude":26.2389,"longitude":73.0243,"temp":29.5,"humidity":34,"rain":0.0,"pressure":986.0,"uv_index":6.25,"wind_gusts":19.4,"aqi":72,"pm10":81.0,"pm2_5":27.3,"mosquito_risk":4,"arthritis_risk":5,"migraine_risk":7,"frizz_risk":0,"updated_at":"2026-03-13T10:17:01.375815+05:30"},{"city":"Udaipur","state":"Rajasthan","latitude":24.5854,"longitude":73.7125,"temp":31.4,"humidity":24,"rain":0.0,"pressure":949.6,"uv_index":7.7,"wind_gusts":32.8,"aqi":43,"pm10":71.0,"pm2_5":24.4,"mosquito_risk":0,"arthritis_risk":5,"migraine_risk":7,"frizz_risk":0,"updated_at":"2026-03-13T10:17:01.375821+05:30"},{"city":"Kota","state":"Rajasthan","latitude":25.2138,"longitude":75.8648,"temp":30.5,"humidity":24,"rain":0.0,"pressure":982.1,"uv_index":7.1,"wind_gusts":16.6,"aqi":70,"pm10":24.2,"pm2_5":16.6,"mosquito_risk":0,"arthritis_risk":5,"migraine_risk":7,"frizz_risk":0,"updated_at":"2026-03-13T10:17:01.375828+05:30"},{"city":"Bikaner","state":"Rajasthan","latitude":28.0229,"longitude":73.3119,"temp":27.3,"humidity":57,"rain":0.0,"pressure":985.7,"uv_index":6.4,"wind_gusts":24.8,"aqi":84,"pm10":65.7,"pm2_5":34.0,"mosquito_risk":4,"arthritis_risk":5,"migraine_risk":7,"frizz_risk":1,"updated_at":"2026-03-13T10:17:01.375835+05:30"},{"city":"Ajmer","state":"Rajasthan","latitude":26.4499,"longitude":74.6399,"temp":30.0,"humidity":35,"rain":0.0,"pressure":957.6,"uv_index":7.05,"wind_gusts":19.4,"aqi":59,"pm10":155.5,"pm2_5":42.5,"mosquito_risk":4,"arthritis_risk":5,"migraine_risk":7,"frizz_risk":0,"updated_at":"2026-03-13T10:17:01.375842+05:30"},{"city":"Gwalior","state":"Madhya Pradesh","latitude":26.2183,"longitude":78.1828,"temp":28.6,"humidity":45,"rain":0.0,"pressure":986.6,"uv_index":6.45,"wind_gusts":20.2,"aqi":72,"pm10":368.8,"pm2_5":91.7,"mosquito_risk":4,"arthritis_risk":5,"migraine_risk":7,"frizz_risk":0,"updated_at":"2026-03-13T10:17:01.375848+05:30"},{"city":"Indore","state":"Madhya Pradesh","latitude":22.7196,"longitude":75.8577,"temp":30.9,"humidity":24,"rain":0.0,"pressure":951.5,"uv_index":7.75,"wind_gusts":32.4,"aqi":62,"pm10":12.3,"pm2_5":10.4,"mosquito_risk":0,"arthritis_risk":5,"migraine_risk":7,"frizz_risk":0,"updated_at":"2026-03-13T10:17:01.375855+05:30"},{"city":"Bhopal","state":"Madhya Pradesh","latitude":23.2599,"longitude":77.4126,"temp":30.5,"humidity":26,"rain":0.0,"pressure":957.1,"uv_index":7.65,"wind_gusts":29.9,"aqi":74,"pm10":25.6,"pm2_5":24.3,"mosquito_risk":0,"arthritis_risk":5,"migraine_risk":7,"frizz_risk":0,"updated_at":"2026-03-13T10:17:01.375861+05:30"},{"city":"Jabalpur","state":"Madhya Pradesh","latitude":23.1815,"longitude":79.9864,"temp":30.5,"humidity":35,"rain":0.0,"pressure":964.7,"uv_index":7.75,"wind_gusts":18.7,"aqi":78,"pm10":35.7,"pm2_5":27.4,"mosquito_risk":0,"arthritis_risk":5,"migraine_risk":7,"frizz_risk":0,"updated_at":"2026-03-13T10:17:01.375868+05:30"},{"city":"Ujjain","state":"Madhya Pradesh","latitude":23.1765,"longitude":75.7885,"temp":29.1,"humidity":34,"rain":0.0,"pressure":956.9,"uv_index":7.7,"wind_gusts":25.2,"aqi":60,"pm10":17.1,"pm2_5":13.4,"mosquito_risk":4,"arthritis_risk":5,"migraine_risk":7,"frizz_risk":0,"updated_at":"2026-03-13T10:17:01.375875+05:30"},{"city":"Visakhapatnam","state":"Andhra Pradesh","latitude":17.6868,"longitude":83.2185,"temp":30.5,"humidity":65,"rain":0.0,"pressure":1007.1,"uv_index":8.65,"wind_gusts":39.6,"aqi":93,"pm10":39.3,"pm2_5":34.8,"mosquito_risk":3,"arthritis_risk":5,"migraine_risk":4,"frizz_risk":1,"updated_at":"2026-03-13T10:17:01.375882+05:30"},{"city":"Vijayawada","state":"Andhra Pradesh","latitude":16.5062,"longitude":80.648,"temp":29.8,"humidity":69,"rain":0.0,"pressure":1005.9,"uv_index":8.7,"wind_gusts":29.9,"aqi":92,"pm10":25.4,"pm2_5":22.5,"mosquito_risk":7,"arthritis_risk":5,"migraine_risk":4,"frizz_risk":1,"updated_at":"2026-03-13T10:17:01.375889+05:30"},{"city":"Guntur","state":"Andhra Pradesh","latitude":16.3067,"longitude":80.4365,"temp":30.7,"humidity":59,"rain":0.0,"pressure":1006.9,"uv_index":8.75,"wind_gusts":31.0,"aqi":84,"pm10":24.4,"pm2_5":21.9,"mosquito_risk":0,"arthritis_risk":5,"migraine_risk":4,"frizz_risk":1,"updated_at":"2026-03-13T10:17:01.375896+05:30"},{"city":"Nellore","state":"Andhra Pradesh","latitude":14.4426,"longitude":79.9865,"temp":31.5,"humidity":56,"rain":0.0,"pressure":1008.8,"uv_index":8.9,"wind_gusts":28.8,"aqi":75,"pm10":27.9,"pm2_5":25.5,"mosquito_risk":0,"arthritis_risk":0,"migraine_risk":4,"frizz_risk":1,"updated_at":"2026-03-13T10:17:01.375903+05:30"},{"city":"Kurnool","state":"Andhra Pradesh","latitude":15.8281,"longitude":78.0373,"temp":33.4,"humidity":34,"rain":0.0,"pressure":979.6,"uv_index":8.75,"wind_gusts":23.8,"aqi":88,"pm10":42.4,"pm2_5":36.7,"mosquito_risk":0,"arthritis_risk":5,"migraine_risk":7,"frizz_risk":0,"updated_at":"2026-03-13T10:17:01.375909+05:30"},{"city":"Kakinada","state":"Andhra Pradesh","latitude":16.9891,"longitude":82.2475,"temp":31.0,"humidity":63,"rain":0.0,"pressure":1010.9,"uv_index":8.7,"wind_gusts":31.3,"aqi":80,"pm10":28.6,"pm2_5":24.9,"mosquito_risk":3,"arthritis_risk":0,"migraine_risk":4,"frizz_risk":1,"updated_at":"2026-03-13T10:17:01.375916+05:30"},{"city":"Tirupati","state":"Andhra Pradesh","latitude":13.6288,"longitude":79.4192,"temp":30.9,"humidity":52,"rain":0.0,"pressure":994.8,"uv_index":9.05,"wind_gusts":32.4,"aqi":102,"pm10":28.9,"pm2_5":26.7,"mosquito_risk":0,"arthritis_risk":5,"migraine_risk":7,"frizz_risk":1,"updated_at":"2026-03-13T10:17:01.375922+05:30"},{"city":"Warangal","state":"Telangana","latitude":17.9689,"longitude":79.5941,"temp":30.6,"humidity":57,"rain":0.0,"pressure":981.5,"uv_index":8.5,"wind_gusts":29.5,"aqi":116,"pm10":34.3,"pm2_5":31.4,"mosquito_risk":0,"arthritis_risk":5,"migraine_risk":7,"frizz_risk":1,"updated_at":"2026-03-13T10:17:01.375928+05:30"},{"city":"Nizamabad","state":"Telangana","latitude":18.6725,"longitude":78.0941,"temp":31.3,"humidity":42,"rain":0.0,"pressure":967.7,"uv_index":8.4,"wind_gusts":23.4,"aqi":119,"pm10":51.1,"pm2_5":44.5,"mosquito_risk":0,"arthritis_risk":5,"migraine_risk":7,"frizz_risk":1,"updated_at":"2026-03-13T10:17:01.375934+05:30"},{"city":"Mysore","state":"Karnataka","latitude":12.2958,"longitude":76.6396,"temp":28.3,"humidity":48,"rain":0.0,"pressure":931.2,"uv_index":9.3,"wind_gusts":32.0,"aqi":72,"pm10":32.8,"pm2_5":28.9,"mosquito_risk":4,"arthritis_risk":5,"migraine_risk":7,"frizz_risk":1,"updated_at":"2026-03-13T10:17:01.375940+05:30"},{"city":"Mangalore","state":"Karnataka","latitude":12.9141,"longitude":74.856,"temp":29.0,"humidity":78,"rain":0.0,"pressure":1008.6,"uv_index":8.95,"wind_gusts":24.8,"aqi":117,"pm10":44.8,"pm2_5":40.3,"mosquito_risk":7,"arthritis_risk":0,"migraine_risk":4,"frizz_risk":1,"updated_at":"2026-03-13T10:17:01.375946+05:30"},{"city":"Hubli-Dharwad","state":"Karnataka","latitude":15.3647,"longitude":75.124,"temp":29.7,"humidity":43,"rain":0.0,"pressure":943.6,"uv_index":8.9,"wind_gusts":29.9,"aqi":73,"pm10":33.3,"pm2_5":28.8,"mosquito_risk":4,"arthritis_risk":5,"migraine_risk":7,"frizz_risk":0,"updated_at":"2026-03-13T10:17:01.375953+05:30"},{"city":"Belgaum","state":"Karnataka","latitude":15.8497,"longitude":74.4977,"temp":31.5,"humidity":25,"rain":0.0,"pressure":928.5,"uv_index":8.95,"wind_gusts":43.6,"aqi":114,"pm10":41.0,"pm2_5":35.0,"mosquito_risk":0,"arthritis_risk":5,"migraine_risk":7,"frizz_risk":0,"updated_at":"2026-03-13T10:17:04.621289+05:30"},{"city":"Coimbatore","state":"Tamil Nadu","latitude":11.0168,"longitude":76.9558,"temp":29.3,"humidity":60,"rain":0.0,"pressure":964.8,"uv_index":9.25,"wind_gusts":41.0,"aqi":75,"pm10":32.4,"pm2_5":26.7,"mosquito_risk":4,"arthritis_risk":5,"migraine_risk":7,"frizz_risk":1,"updated_at":"2026-03-13T10:17:04.621325+05:30"},{"city":"Madurai","state":"Tamil Nadu","latitude":9.9252,"longitude":78.1198,"temp":29.9,"humidity":57,"rain":0.0,"pressure":996.1,"uv_index":9.25,"wind_gusts":26.6,"aqi":83,"pm10":24.9,"pm2_5":19.5,"mosquito_risk":4,"arthritis_risk":5,"migraine_risk":7,"frizz_risk":1,"updated_at":"2026-03-13T10:17:04.621336+05:30"},{"city":"Trichy","state":"Tamil Nadu","latitude":10.7905,"longitude":78.7047,"temp":29.2,"humidity":63,"rain":0.0,"pressure":1003.1,"uv_index":9.15,"wind_gusts":23.8,"aqi":90,"pm10":27.2,"pm2_5":23.6,"mosquito_risk":7,"arthritis_risk":5,"migraine_risk":4,"frizz_risk":1,"updated_at":"2026-03-13T10:17:04.621345+05:30"},{"city":"Salem","state":"Tamil Nadu","latitude":11.6643,"longitude":78.146,"temp":28.9,"humidity":65,"rain":0.0,"pressure":980.5,"uv_index":9.2,"wind_gusts":24.1,"aqi":96,"pm10":36.8,"pm2_5":34.1,"mosquito_risk":7,"arthritis_risk":5,"migraine_risk":7,"frizz_risk":1,"updated_at":"2026-03-13T10:17:04.621352+05:30"},{"city":"Tirunelveli","state":"Tamil Nadu","latitude":8.7139,"longitude":77.7567,"temp":30.8,"humidity":58,"rain":0.0,"pressure":1006.0,"uv_index":9.2,"wind_gusts":29.9,"aqi":65,"pm10":17.1,"pm2_5":14.1,"mosquito_risk":0,"arthritis_risk":5,"migraine_risk":4,"frizz_risk":1,"updated_at":"2026-03-13T10:17:04.621360+05:30"},{"city":"Vellore","state":"Tamil Nadu","latitude":12.9165,"longitude":79.1325,"temp":30.2,"humidity":52,"rain":0.0,"pressure":987.9,"uv_index":9.1,"wind_gusts":32.8,"aqi":103,"pm10":34.5,"pm2_5":31.9,"mosquito_risk":0,"arthritis_risk":5,"migraine_risk":7,"frizz_risk":1,"updated_at":"2026-03-13T10:17:04.621367+05:30"},{"city":"Erode","state":"Tamil Nadu","latitude":11.341,"longitude":77.7172,"temp":29.5,"humidity":64,"rain":0.0,"pressure":992.3,"uv_index":9.15,"wind_gusts":22.3,"aqi":84,"pm10":28.8,"pm2_5":26.0,"mosquito_risk":7,"arthritis_risk":5,"migraine_risk":7,"frizz_risk":1,"updated_at":"2026-03-13T10:17:04.621374+05:30"},{"city":"Kochi","state":"Kerala","latitude":9.9312,"longitude":76.2673,"temp":28.0,"humidity":82,"rain":0.0,"pressure":1010.5,"uv_index":9.1,"wind_gusts":33.5,"aqi":98,"pm10":33.3,"pm2_5":31.7,"mosquito_risk":7,"arthritis_risk":0,"migraine_risk":4,"frizz_risk":1,"updated_at":"2026-03-13T10:17:04.621381+05:30"},{"city":"Thiruvananthapuram","state":"Kerala","latitude":8.5241,"longitude":76.9366,"temp":27.8,"humidity":82,"rain":0.0,"pressure":1009.8,"uv_index":9.1,"wind_gusts":24.1,"aqi":59,"pm10":22.8,"pm2_5":18.9,"mosquito_risk":7,"arthritis_risk":0,"migraine_risk":4,"frizz_risk":1,"updated_at":"2026-03-13T10:17:04.621388+05:30"},{"city":"Kozhikode","state":"Kerala","latitude":11.2588,"longitude":75.7804,"temp":29.1,"humidity":78,"rain":0.0,"pressure":1009.9,"uv_index":9.0,"wind_gusts":30.6,"aqi":99,"pm10":36.4,"pm2_5":33.6,"mosquito_risk":7,"arthritis_risk":0,"migraine_risk":4,"frizz_risk":1,"updated_at":"2026-03-13T10:17:04.621394+05:30"},{"city":"Thrissur","state":"Kerala","latitude":10.5276,"longitude":76.2144,"temp":32.2,"humidity":60,"rain":0.0,"pressure":1008.8,"uv_index":9.05,"wind_gusts":37.8,"aqi":96,"pm10":39.0,"pm2_5":36.4,"mosquito_risk":0,"arthritis_risk":0,"migraine_risk":4,"frizz_risk":1,"updated_at":"2026-03-13T10:17:04.621402+05:30"},{"city":"Kannur","state":"Kerala","latitude":11.8745,"longitude":75.3704,"temp":30.8,"humidity":67,"rain":0.0,"pressure":1009.1,"uv_index":9.0,"wind_gusts":29.5,"aqi":106,"pm10":41.2,"pm2_5":36.9,"mosquito_risk":3,"arthritis_risk":0,"migraine_risk":4,"frizz_risk":1,"updated_at":"2026-03-13T10:17:04.621409+05:30"},{"city":"Patna","state":"Bihar","latitude":25.5941,"longitude":85.1376,"temp":28.8,"humidity":70,"rain":0.0,"pressure":1002.6,"uv_index":7.3,"wind_gusts":25.2,"aqi":181,"pm10":115.9,"pm2_5":100.6,"mosquito_risk":7,"arthritis_risk":5,"migraine_risk":4,"frizz_risk":1,"updated_at":"2026-03-13T10:17:04.621416+05:30"},{"city":"Gaya","state":"Bihar","latitude":24.7914,"longitude":85.0002,"temp":30.5,"humidity":49,"rain":0.0,"pressure":996.2,"uv_index":7.45,"wind_gusts":23.0,"aqi":153,"pm10":144.4,"pm2_5":57.3,"mosquito_risk":0,"arthritis_risk":5,"migraine_risk":7,"frizz_risk":1,"updated_at":"2026-03-13T10:17:04.621423+05:30"},{"city":"Muzaffarpur","state":"Bihar","latitude":26.1209,"longitude":85.3647,"temp":28.0,"humidity":72,"rain":0.0,"pressure":1002.8,"uv_index":7.4,"wind_gusts":24.8,"aqi":189,"pm10":90.8,"pm2_5":81.5,"mosquito_risk":7,"arthritis_risk":5,"migraine_risk":4,"frizz_risk":1,"updated_at":"2026-03-13T10:17:04.621430+05:30"},{"city":"Bhagalpur","state":"Bihar","latitude":25.2425,"longitude":87.0117,"temp":29.8,"humidity":69,"rain":0.0,"pressure":1003.2,"uv_index":7.5,"wind_gusts":26.6,"aqi":178,"pm10":98.3,"pm2_5":87.8,"mosquito_risk":7,"arthritis_risk":5,"migraine_risk":4,"frizz_risk":1,"updated_at":"2026-03-13T10:17:04.621437+05:30"},{"city":"Ranchi","state":"Jharkhand","latitude":23.3441,"longitude":85.3096,"temp":30.6,"humidity":23,"rain":0.0,"pressure":941.2,"uv_index":8.2,"wind_gusts":29.9,"aqi":94,"pm10":81.0,"pm2_5":26.6,"mosquito_risk":0,"arthritis_risk":5,"migraine_risk":7,"frizz_risk":0,"updated_at":"2026-03-13T10:17:04.621444+05:30"},{"city":"Jamshedpur","state":"Jharkhand","latitude":22.8046,"longitude":86.2029,"temp":30.8,"humidity":65,"rain":0.0,"pressure":993.8,"uv_index":8.1,"wind_gusts":16.6,"aqi":162,"pm10":108.0,"pm2_5":88.0,"mosquito_risk":3,"arthritis_risk":5,"migraine_risk":7,"frizz_risk":1,"updated_at":"2026-03-13T10:17:04.621451+05:30"},{"city":"Dhanbad","state":"Jharkhand","latitude":23.7957,"longitude":86.4304,"temp":32.0,"humidity":36,"rain":0.0,"pressure":982.5,"uv_index":8.0,"wind_gusts":29.9,"aqi":176,"pm10":143.0,"pm2_5":117.8,"mosquito_risk":0,"arthritis_risk":5,"migraine_risk":7,"frizz_risk":0,"updated_at":"2026-03-13T10:17:04.621459+05:30"},{"city":"Bokaro","state":"Jharkhand","latitude":23.6693,"longitude":86.1511,"temp":32.4,"humidity":30,"rain":0.0,"pressure":986.6,"uv_index":8.0,"wind_gusts":31.0,"aqi":158,"pm10":127.6,"pm2_5":85.2,"mosquito_risk":0,"arthritis_risk":5,"migraine_risk":7,"frizz_risk":0,"updated_at":"2026-03-13T10:17:04.621466+05:30"},{"city":"Bhubaneswar","state":"Odisha","latitude":20.2961,"longitude":85.8245,"temp":30.4,"humidity":68,"rain":0.0,"pressure":1005.8,"uv_index":8.4,"wind_gusts":34.9,"aqi":119,"pm10":38.9,"pm2_5":31.7,"mosquito_risk":3,"arthritis_risk":5,"migraine_risk":4,"frizz_risk":1,"updated_at":"2026-03-13T10:17:04.621473+05:30"},{"city":"Cuttack","state":"Odisha","latitude":20.4625,"longitude":85.8828,"temp":31.0,"humidity":68,"rain":0.0,"pressure":1007.5,"uv_index":8.45,"wind_gusts":30.6,"aqi":119,"pm10":38.9,"pm2_5":31.7,"mosquito_risk":3,"arthritis_risk":5,"migraine_risk":4,"frizz_risk":1,"updated_at":"2026-03-13T10:17:04.621480+05:30"},{"city":"Rourkela","state":"Odisha","latitude":22.2604,"longitude":84.8536,"temp":32.5,"humidity":40,"rain":0.0,"pressure":988.1,"uv_index":8.0,"wind_gusts":26.3,"aqi":110,"pm10":103.6,"pm2_5":47.6,"mosquito_risk":0,"arthritis_risk":5,"migraine_risk":7,"frizz_risk":1,"updated_at":"2026-03-13T10:17:04.621486+05:30"},{"city":"Raipur","state":"Chhattisgarh","latitude":21.2514,"longitude":81.6296,"temp":33.1,"humidity":31,"rain":0.0,"pressure":977.7,"uv_index":8.15,"wind_gusts":17.6,"aqi":142,"pm10":101.7,"pm2_5":75.4,"mosquito_risk":0,"arthritis_risk":5,"migraine_risk":7,"frizz_risk":0,"updated_at":"2026-03-13T10:17:04.621493+05:30"},{"city":"Bhilai","state":"Chhattisgarh","latitude":21.1938,"longitude":81.3509,"temp":33.2,"humidity":29,"rain":0.0,"pressure":978.0,"uv_index":8.15,"wind_gusts":13.3,"aqi":141,"pm10":102.0,"pm2_5":75.7,"mosquito_risk":0,"arthritis_risk":5,"migraine_risk":7,"frizz_risk":0,"updated_at":"2026-03-13T10:17:04.621500+05:30"},{"city":"Guwahati","state":"Assam","latitude":26.1158,"longitude":91.7086,"temp":25.3,"humidity":81,"rain":0.0,"pressure":1004.5,"uv_index":7.3,"wind_gusts":32.8,"aqi":160,"pm10":66.8,"pm2_5":60.3,"mosquito_risk":7,"arthritis_risk":5,"migraine_risk":4,"frizz_risk":1,"updated_at":"2026-03-13T10:17:04.621506+05:30"},{"city":"Agartala","state":"Tripura","latitude":23.8315,"longitude":91.2868,"temp":24.9,"humidity":86,"rain":0.0,"pressure":1010.1,"uv_index":7.7,"wind_gusts":28.1,"aqi":151,"pm10":37.4,"pm2_5":32.1,"mosquito_risk":3,"arthritis_risk":0,"migraine_risk":4,"frizz_risk":1,"updated_at":"2026-03-13T10:17:04.621512+05:30"},{"city":"Shillong","state":"Meghalaya","latitude":25.5788,"longitude":91.8933,"temp":15.5,"humidity":81,"rain":0.0,"pressure":858.0,"uv_index":7.1,"wind_gusts":54.0,"aqi":154,"pm10":35.7,"pm2_5":30.2,"mosquito_risk":3,"arthritis_risk":10,"migraine_risk":7,"frizz_risk":0,"updated_at":"2026-03-13T10:17:04.621519+05:30"},{"city":"Imphal","state":"Manipur","latitude":24.817,"longitude":93.9368,"temp":21.0,"humidity":76,"rain":0.0,"pressure":926.2,"uv_index":7.0,"wind_gusts":62.6,"aqi":156,"pm10":66.8,"pm2_5":56.8,"mosquito_risk":3,"arthritis_risk":5,"migraine_risk":7,"frizz_risk":1,"updated_at":"2026-03-13T10:17:04.621526+05:30"},{"city":"Aizawl","state":"Mizoram","latitude":23.7271,"longitude":92.7176,"temp":23.8,"humidity":49,"rain":0.0,"pressure":896.3,"uv_index":7.15,"wind_gusts":72.4,"aqi":156,"pm10":63.1,"pm2_5":50.2,"mosquito_risk":0,"arthritis_risk":5,"migraine_risk":7,"frizz_risk":0,"updated_at":"2026-03-13T10:17:04.621532+05:30"},{"city":"Kohima","state":"Nagaland","latitude":25.6701,"longitude":94.1077,"temp":18.6,"humidity":75,"rain":0.0,"pressure":857.4,"uv_index":5.65,"wind_gusts":81.4,"aqi":139,"pm10":47.3,"pm2_5":40.3,"mosquito_risk":3,"arthritis_risk":5,"migraine_risk":3,"frizz_risk":0,"updated_at":"2026-03-13T10:17:04.621538+05:30"},{"city":"Gangtok","state":"Sikkim","latitude":27.3314,"longitude":88.6138,"temp":15.4,"humidity":88,"rain":0.1,"pressure":839.1,"uv_index":3.35,"wind_gusts":17.3,"aqi":110,"pm10":41.8,"pm2_5":37.6,"mosquito_risk":6,"arthritis_risk":10,"migraine_risk":3,"frizz_risk":0,"updated_at":"2026-03-13T10:17:04.621545+05:30"},{"city":"Siliguri","state":"West Bengal","latitude":26.7271,"longitude":88.3953,"temp":21.9,"humidity":81,"rain":0.0,"pressure":997.1,"uv_index":6.8,"wind_gusts":30.6,"aqi":159,"pm10":71.0,"pm2_5":63.1,"mosquito_risk":3,"arthritis_risk":5,"migraine_risk":7,"frizz_risk":1,"updated_at":"2026-03-13T10:17:07.870874+05:30"},{"city":"Durgapur","state":"West Bengal","latitude":23.5204,"longitude":87.3119,"temp":31.2,"humidity":64,"rain":0.0,"pressure":997.6,"uv_index":7.95,"wind_gusts":29.2,"aqi":178,"pm10":102.2,"pm2_5":87.3,"mosquito_risk":3,"arthritis_risk":5,"migraine_risk":7,"frizz_risk":1,"updated_at":"2026-03-13T10:17:07.870908+05:30"},{"city":"Asansol","state":"West Bengal","latitude":23.6739,"longitude":86.9524,"temp":31.2,"humidity":62,"rain":0.0,"pressure":996.1,"uv_index":7.95,"wind_gusts":27.0,"aqi":178,"pm10":104.8,"pm2_5":86.4,"mosquito_risk":3,"arthritis_risk":5,"migraine_risk":7,"frizz_risk":1,"updated_at":"2026-03-13T10:17:07.870918+05:30"},{"city":"Pondicherry","state":"Puducherry","latitude":11.9139,"longitude":79.8145,"temp":30.8,"humidity":62,"rain":0.0,"pressure":1011.6,"uv_index":9.0,"wind_gusts":27.7,"aqi":67,"pm10":19.8,"pm2_5":14.8,"mosquito_risk":3,"arthritis_risk":0,"migraine_risk":4,"frizz_risk":1,"updated_at":"2026-03-13T10:17:07.870926+05:30"},{"city":"Port Blair","state":"Andaman and Nicobar Islands","latitude":11.6234,"longitude":92.7265,"temp":28.9,"humidity":70,"rain":0.0,"pressure":1009.0,"uv_index":8.95,"wind_gusts":23.4,"aqi":57,"pm10":14.7,"pm2_5":11.9,"mosquito_risk":7,"arthritis_risk":0,"migraine_risk":4,"frizz_risk":1,"updated_at":"2026-03-13T10:17:07.870933+05:30"},{"city":"Haridwar","state":"Uttarakhand","latitude":29.9457,"longitude":78.1642,"temp":27.5,"humidity":42,"rain":0.0,"pressure":976.5,"uv_index":5.25,"wind_gusts":28.4,"aqi":97,"pm10":24.1,"pm2_5":16.5,"mosquito_risk":4,"arthritis_risk":5,"migraine_risk":3,"frizz_risk":0,"updated_at":"2026-03-13T10:17:07.870941+05:30"},{"city":"Rishikesh","state":"Uttarakhand","latitude":30.0869,"longitude":78.2676,"temp":28.2,"humidity":34,"rain":0.0,"pressure":969.1,"uv_index":5.25,"wind_gusts":28.4,"aqi":71,"pm10":21.7,"pm2_5":13.3,"mosquito_risk":4,"arthritis_risk":5,"migraine_risk":3,"frizz_risk":0,"updated_at":"2026-03-13T10:17:07.870947+05:30"},{"city":"Nainital","state":"Uttarakhand","latitude":29.3919,"longitude":79.4542,"temp":22.1,"humidity":44,"rain":0.0,"pressure":809.3,"uv_index":6.65,"wind_gusts":44.3,"aqi":93,"pm10":36.0,"pm2_5":17.8,"mosquito_risk":0,"arthritis_risk":5,"migraine_risk":7,"frizz_risk":0,"updated_at":"2026-03-13T10:17:07.870955+05:30"},{"city":"Mussoorie","state":"Uttarakhand","latitude":30.4599,"longitude":78.0664,"temp":21.0,"humidity":31,"rain":0.0,"pressure":805.8,"uv_index":5.35,"wind_gusts":30.2,"aqi":73,"pm10":28.2,"pm2_5":15.3,"mosquito_risk":0,"arthritis_risk":5,"migraine_risk":3,"frizz_risk":0,"updated_at":"2026-03-13T10:17:07.870961+05:30"},{"city":"Dharamshala","state":"Himachal Pradesh","latitude":32.219,"longitude":76.3234,"temp":22.9,"humidity":30,"rain":0.0,"pressure":871.9,"uv_index":6.15,"wind_gusts":26.6,"aqi":46,"pm10":18.9,"pm2_5":6.1,"mosquito_risk":0,"arthritis_risk":5,"migraine_risk":7,"frizz_risk":0,"updated_at":"2026-03-13T10:17:07.870968+05:30"},{"city":"Dalhousie","state":"Himachal Pradesh","latitude":32.5387,"longitude":75.971,"temp":19.6,"humidity":28,"rain":0.0,"pressure":806.7,"uv_index":6.7,"wind_gusts":31.0,"aqi":75,"pm10":21.2,"pm2_5":10.8,"mosquito_risk":0,"arthritis_risk":5,"migraine_risk":7,"frizz_risk":0,"updated_at":"2026-03-13T10:17:07.870976+05:30"},{"city":"Patiala","state":"Punjab","latitude":30.3398,"longitude":76.3869,"temp":24.7,"humidity":58,"rain":0.0,"pressure":981.3,"uv_index":5.25,"wind_gusts":29.2,"aqi":195,"pm10":382.8,"pm2_5":71.0,"mosquito_risk":0,"arthritis_risk":5,"migraine_risk":3,"frizz_risk":0,"updated_at":"2026-03-13T10:17:07.870983+05:30"},{"city":"Bhatinda","state":"Punjab","latitude":30.211,"longitude":74.9455,"temp":25.0,"humidity":64,"rain":0.0,"pressure":987.9,"uv_index":5.9,"wind_gusts":27.7,"aqi":140,"pm10":59.8,"pm2_5":42.1,"mosquito_risk":7,"arthritis_risk":5,"migraine_risk":3,"frizz_risk":1,"updated_at":"2026-03-13T10:17:07.870990+05:30"},{"city":"Rohtak","state":"Haryana","latitude":28.8955,"longitude":76.6066,"temp":26.0,"humidity":59,"rain":0.0,"pressure":985.2,"uv_index":5.95,"wind_gusts":24.8,"aqi":529,"pm10":555.1,"pm2_5":114.6,"mosquito_risk":4,"arthritis_risk":5,"migraine_risk":3,"frizz_risk":1,"updated_at":"2026-03-13T10:17:07.870997+05:30"},{"city":"Panipat","state":"Haryana","latitude":29.3909,"longitude":76.9635,"temp":25.6,"humidity":62,"rain":0.0,"pressure":983.5,"uv_index":5.15,"wind_gusts":25.9,"aqi":872,"pm10":827.0,"pm2_5":134.1,"mosquito_risk":7,"arthritis_risk":5,"migraine_risk":3,"frizz_risk":1,"updated_at":"2026-03-13T10:17:07.871003+05:30"},{"city":"Mathura","state":"Uttar Pradesh","latitude":27.4924,"longitude":77.6737,"temp":28.7,"humidity":53,"rain":0.0,"pressure":990.2,"uv_index":6.1,"wind_gusts":26.3,"aqi":586,"pm10":862.4,"pm2_5":156.0,"mosquito_risk":4,"arthritis_risk":5,"migraine_risk":7,"frizz_risk":1,"updated_at":"2026-03-13T10:17:07.871009+05:30"},{"city":"Vrindavan","state":"Uttar Pradesh","latitude":27.5823,"longitude":77.7027,"temp":29.0,"humidity":52,"rain":0.0,"pressure":990.5,"uv_index":5.9,"wind_gusts":29.2,"aqi":586,"pm10":862.4,"pm2_5":156.0,"mosquito_risk":4,"arthritis_risk":5,"migraine_risk":3,"frizz_risk":1,"updated_at":"2026-03-13T10:17:07.871016+05:30"},{"city":"Ayodhya","state":"Uttar Pradesh","latitude":26.7922,"longitude":82.1998,"temp":28.3,"humidity":59,"rain":0.0,"pressure":997.5,"uv_index":5.95,"wind_gusts":28.8,"aqi":156,"pm10":168.6,"pm2_5":124.8,"mosquito_risk":4,"arthritis_risk":5,"migraine_risk":3,"frizz_risk":1,"updated_at":"2026-03-13T10:17:07.871023+05:30"},{"city":"Ratlam","state":"Madhya Pradesh","latitude":23.3315,"longitude":75.0367,"temp":30.2,"humidity":25,"rain":0.0,"pressure":957.6,"uv_index":7.65,"wind_gusts":29.2,"aqi":52,"pm10":21.7,"pm2_5":12.8,"mosquito_risk":0,"arthritis_risk":5,"migraine_risk":7,"frizz_risk":0,"updated_at":"2026-03-13T10:17:07.871030+05:30"},{"city":"Sagar","state":"Madhya Pradesh","latitude":23.8388,"longitude":78.7378,"temp":31.8,"humidity":26,"rain":0.0,"pressure":953.4,"uv_index":7.4,"wind_gusts":28.1,"aqi":57,"pm10":13.2,"pm2_5":12.7,"mosquito_risk":0,"arthritis_risk":5,"migraine_risk":7,"frizz_risk":0,"updated_at":"2026-03-13T10:17:07.871036+05:30"},{"city":"Satna","state":"Madhya Pradesh","latitude":24.6005,"longitude":80.8322,"temp":32.7,"humidity":29,"rain":0.0,"pressure":974.1,"uv_index":7.45,"wind_gusts":29.9,"aqi":64,"pm10":70.1,"pm2_5":20.0,"mosquito_risk":0,"arthritis_risk":5,"migraine_risk":7,"frizz_risk":0,"updated_at":"2026-03-13T10:17:07.871043+05:30"},{"city":"Akola","state":"Maharashtra","latitude":20.7002,"longitude":77.0082,"temp":33.5,"humidity":28,"rain":0.0,"pressure":977.9,"uv_index":8.05,"wind_gusts":20.2,"aqi":82,"pm10":29.9,"pm2_5":24.8,"mosquito_risk":0,"arthritis_risk":5,"migraine_risk":7,"frizz_risk":0,"updated_at":"2026-03-13T10:17:07.871050+05:30"},{"city":"Amravati","state":"Maharashtra","latitude":20.9374,"longitude":77.7796,"temp":33.6,"humidity":25,"rain":0.0,"pressure":970.6,"uv_index":8.0,"wind_gusts":14.0,"aqi":89,"pm10":33.1,"pm2_5":27.2,"mosquito_risk":0,"arthritis_risk":5,"migraine_risk":7,"frizz_risk":0,"updated_at":"2026-03-13T10:17:07.871057+05:30"},{"city":"Latur","state":"Maharashtra","latitude":18.4088,"longitude":76.5604,"temp":30.6,"humidity":37,"rain":0.0,"pressure":942.7,"uv_index":8.5,"wind_gusts":21.2,"aqi":94,"pm10":47.0,"pm2_5":37.7,"mosquito_risk":0,"arthritis_risk":5,"migraine_risk":7,"frizz_risk":0,"updated_at":"2026-03-13T10:17:07.871064+05:30"},{"city":"Nanded","state":"Maharashtra","latitude":19.1383,"longitude":77.3091,"temp":33.1,"humidity":34,"rain":0.0,"pressure":971.6,"uv_index":8.3,"wind_gusts":20.9,"aqi":110,"pm10":37.1,"pm2_5":34.5,"mosquito_risk":0,"arthritis_risk":5,"migraine_risk":7,"frizz_risk":0,"updated_at":"2026-03-13T10:17:07.871070+05:30"},{"city":"Gulbarga","state":"Karnataka","latitude":17.3297,"longitude":76.8343,"temp":32.3,"humidity":34,"rain":0.0,"pressure":961.6,"uv_index":8.6,"wind_gusts":32.0,"aqi":89,"pm10":41.0,"pm2_5":36.0,"mosquito_risk":0,"arthritis_risk":5,"migraine_risk":7,"frizz_risk":0,"updated_at":"2026-03-13T10:17:07.871076+05:30"},{"city":"Bidar","state":"Karnataka","latitude":17.9104,"longitude":77.5199,"temp":31.5,"humidity":32,"rain":0.0,"pressure":938.7,"uv_index":8.55,"wind_gusts":26.6,"aqi":101,"pm10":42.7,"pm2_5":35.6,"mosquito_risk":0,"arthritis_risk":5,"migraine_risk":7,"frizz_risk":0,"updated_at":"2026-03-13T10:17:07.871082+05:30"},{"city":"Hospet","state":"Karnataka","latitude":15.2689,"longitude":76.3909,"temp":29.2,"humidity":48,"rain":0.0,"pressure":958.5,"uv_index":8.9,"wind_gusts":24.1,"aqi":84,"pm10":37.3,"pm2_5":32.6,"mosquito_risk":4,"arthritis_risk":5,"migraine_risk":7,"frizz_risk":1,"updated_at":"2026-03-13T10:17:07.871088+05:30"},{"city":"Tirupur","state":"Tamil Nadu","latitude":11.1085,"longitude":77.3411,"temp":29.1,"humidity":60,"rain":0.0,"pressure":978.5,"uv_index":9.25,"wind_gusts":29.9,"aqi":88,"pm10":30.4,"pm2_5":27.2,"mosquito_risk":4,"arthritis_risk":5,"migraine_risk":7,"frizz_risk":1,"updated_at":"2026-03-13T10:17:07.871093+05:30"},{"city":"Alappuzha","state":"Kerala","latitude":9.4981,"longitude":76.3388,"temp":28.1,"humidity":80,"rain":0.0,"pressure":1010.6,"uv_index":9.1,"wind_gusts":27.7,"aqi":90,"pm10":32.5,"pm2_5":31.0,"mosquito_risk":7,"arthritis_risk":0,"migraine_risk":4,"frizz_risk":1,"updated_at":"2026-03-13T10:17:07.871099+05:30"},{"city":"Munnar","state":"Kerala","latitude":10.0889,"longitude":77.0595,"temp":28.1,"humidity":39,"rain":0.0,"pressure":860.4,"uv_index":9.55,"wind_gusts":24.1,"aqi":72,"pm10":20.7,"pm2_5":17.8,"mosquito_risk":4,"arthritis_risk":5,"migraine_risk":7,"frizz_risk":0,"updated_at":"2026-03-13T10:17:07.871106+05:30"},{"city":"Silchar","state":"Assam","latitude":24.8333,"longitude":92.7789,"temp":27.1,"humidity":72,"rain":0.0,"pressure":1008.7,"uv_index":7.75,"wind_gusts":36.4,"aqi":165,"pm10":90.1,"pm2_5":78.9,"mosquito_risk":7,"arthritis_risk":0,"migraine_risk":4,"frizz_risk":1,"updated_at":"2026-03-13T10:17:07.871112+05:30"},{"city":"Dibrugarh","state":"Assam","latitude":27.4728,"longitude":94.912,"temp":22.8,"humidity":84,"rain":0.0,"pressure":999.2,"uv_index":5.55,"wind_gusts":24.8,"aqi":136,"pm10":49.6,"pm2_5":44.7,"mosquito_risk":3,"arthritis_risk":5,"migraine_risk":3,"frizz_risk":1,"updated_at":"2026-03-13T10:17:07.871118+05:30"}]