[{"city":"Delhi","state":"Delhi","latitude":28.6139,"longitude":77.209,"temp":20.3,"humidity":64,"rain":0.0,"pressure":983.5,"uv_index":6.9,"wind_gusts":27.0,"aqi":151,"pm10":298.0,"pm2_5":78.5,"mosquito_risk":3,"arthritis_risk":5,"migraine_risk":7,"frizz_risk":0,"updated_at":"2026-04-06T03:05:56.959239+05:30"},{"city":"Mumbai","state":"Maharashtra","latitude":19.076,"longitude":72.8777,"temp":27.8,"humidity":63,"rain":0.0,"pressure":1009.6,"uv_index":7.95,"wind_gusts":23.4,"aqi":65,"pm10":31.1,"pm2_5":17.4,"mosquito_risk":7,"arthritis_risk":0,"migraine_risk":4,"frizz_risk":1,"updated_at":"2026-04-06T03:05:56.959280+05:30"},{"city":"Bangalore","state":"Karnataka","latitude":12.9716,"longitude":77.5946,"temp":23.3,"humidity":78,"rain":0.0,"pressure":910.7,"uv_index":9.6,"wind_gusts":32.0,"aqi":96,"pm10":24.8,"pm2_5":22.9,"mosquito_risk":3,"arthritis_risk":5,"migraine_risk":7,"frizz_risk":1,"updated_at":"2026-04-06T03:05:56.959295+05:30"},{"city":"Hyderabad","state":"Telangana","latitude":17.385,"longitude":78.4867,"temp":26.6,"humidity":68,"rain":0.0,"pressure":951.7,"uv_index":9.2,"wind_gusts":33.5,"aqi":128,"pm10":66.8,"pm2_5":57.3,"mosquito_risk":7,"arthritis_risk":5,"migraine_risk":7,"frizz_risk":1,"updated_at":"2026-04-06T03:05:56.959305+05:30"},{"city":"Chennai","state":"Tamil Nadu","latitude":13.0827,"longitude":80.2707,"temp":28.0,"humidity":88,"rain":0.0,"pressure":1006.0,"uv_index":9.35,"wind_gusts":28.4,"aqi":64,"pm10":20.9,"pm2_5":15.5,"mosquito_risk":7,"arthritis_risk":5,"migraine_risk":4,"frizz_risk":1,"updated_at":"2026-04-06T03:05:56.959314+05:30"},{"city":"Kolkata","state":"West Bengal","latitude":22.5726,"longitude":88.3639,"temp":24.4,"humidity":89,"rain":0.0,"pressure":1004.7,"uv_index":8.65,"wind_gusts":18.4,"aqi":134,"pm10":46.0,"pm2_5":42.5,"mosquito_risk":3,"arthritis_risk":5,"migraine_risk":4,"frizz_risk":1,"updated_at":"2026-04-06T03:05:56.959322+05:30"},{"city":"Pune","state":"Maharashtra","latitude":18.5204,"longitude":73.8567,"temp":20.3,"humidity":81,"rain":0.0,"pressure":948.2,"uv_index":8.55,"wind_gusts":32.4,"aqi":69,"pm10":32.9,"pm2_5":22.3,"mosquito_risk":3,"arthritis_risk":5,"migraine_risk":7,"frizz_risk":1,"updated_at":"2026-04-06T03:05:56.959334+05:30"},{"city":"Ahmedabad","state":"Gujarat","latitude":23.0225,"longitude":72.5714,"temp":23.9,"humidity":48,"rain":0.0,"pressure":1003.2,"uv_index":7.95,"wind_gusts":28.1,"aqi":65,"pm10":38.3,"pm2_5":27.8,"mosquito_risk":0,"arthritis_risk":5,"migraine_risk":4,"frizz_risk":0,"updated_at":"2026-04-06T03:05:56.959341+05:30"},{"city":"Jaipur","state":"Rajasthan","latitude":26.9124,"longitude":75.7873,"temp":22.3,"humidity":47,"rain":0.0,"pressure":960.0,"uv_index":7.55,"wind_gusts":34.2,"aqi":100,"pm10":165.3,"pm2_5":30.3,"mosquito_risk":0,"arthritis_risk":5,"migraine_risk":7,"frizz_risk":0,"updated_at":"2026-04-06T03:05:56.959349+05:30"},{"city":"Lucknow","state":"Uttar Pradesh","latitude":26.8467,"longitude":80.9462,"temp":20.7,"humidity":77,"rain":0.0,"pressure":993.3,"uv_index":7.45,"wind_gusts":31.7,"aqi":92,"pm10":123.9,"pm2_5":43.5,"mosquito_risk":3,"arthritis_risk":5,"migraine_risk":7,"frizz_risk":1,"updated_at":"2026-04-06T03:05:56.959357+05:30"},{"city":"Kanpur","state":"Uttar Pradesh","latitude":26.4499,"longitude":80.3319,"temp":20.4,"humidity":81,"rain":0.0,"pressure":991.9,"uv_index":7.45,"wind_gusts":33.1,"aqi":121,"pm10":227.7,"pm2_5":54.4,"mosquito_risk":3,"arthritis_risk":5,"migraine_risk":7,"frizz_risk":1,"updated_at":"2026-04-06T03:05:56.959364+05:30"},{"city":"Chandigarh","state":"Chandigarh","latitude":30.7333,"longitude":76.7794,"temp":18.4,"humidity":72,"rain":0.0,"pressure":969.2,"uv_index":6.85,"wind_gusts":18.7,"aqi":71,"pm10":37.8,"pm2_5":31.1,"mosquito_risk":3,"arthritis_risk":5,"migraine_risk":7,"frizz_risk":0,"updated_at":"2026-04-06T03:05:56.959371+05:30"},{"city":"Srinagar","state":"Jammu and Kashmir","latitude":34.0837,"longitude":74.7973,"temp":5.5,"humidity":85,"rain":0.0,"pressure":836.2,"uv_index":7.95,"wind_gusts":16.9,"aqi":81,"pm10":61.2,"pm2_5":54.7,"mosquito_risk":3,"arthritis_risk":10,"migraine_risk":7,"frizz_risk":0,"updated_at":"2026-04-06T03:05:56.959379+05:30"},{"city":"Jammu","state":"Jammu and Kashmir","latitude":32.7266,"longitude":74.857,"temp":16.5,"humidity":73,"rain":0.0,"pressure":973.1,"uv_index":7.55,"wind_gusts":20.5,"aqi":71,"pm10":49.2,"pm2_5":39.9,"mosquito_risk":3,"arthritis_risk":5,"migraine_risk":7,"frizz_risk":0,"updated_at":"2026-04-06T03:05:56.959388+05:30"},{"city":"Amritsar","state":"Punjab","latitude":31.634,"longitude":74.8723,"temp":17.1,"humidity":77,"rain":0.0,"pressure":981.5,"uv_index":7.5,"wind_gusts":16.9,"aqi":108,"pm10":112.0,"pm2_5":87.3,"mosquito_risk":3,"arthritis_risk":5,"migraine_risk":7,"frizz_risk":0,"updated_at":"2026-04-06T03:05:56.959395+05:30"},{"city":"Ludhiana","state":"Punjab","latitude":30.901,"longitude":75.8573,"temp":18.6,"humidity":69,"rain":0.0,"pressure":979.5,"uv_index":7.1,"wind_gusts":21.2,"aqi":112,"pm10":114.1,"pm2_5":63.6,"mosquito_risk":3,"arthritis_risk":5,"migraine_risk":7,"frizz_risk":0,"updated_at":"2026-04-06T03:05:56.959401+05:30"},{"city":"Jalandhar","state":"Punjab","latitude":31.326,"longitude":75.5762,"temp":17.2,"humidity":81,"rain":0.0,"pressure":980.7,"uv_index":7.25,"wind_gusts":16.6,"aqi":92,"pm10":77.8,"pm2_5":56.8,"mosquito_risk":3,"arthritis_risk":10,"migraine_risk":7,"frizz_risk":0,"updated_at":"2026-04-06T03:05:56.959409+05:30"},{"city":"Dehradun","state":"Uttarakhand","latitude":30.6284,"longitude":78.0322,"temp":9.4,"humidity":85,"rain":0.0,"pressure":826.7,"uv_index":6.65,"wind_gusts":28.8,"aqi":37,"pm10":17.6,"pm2_5":12.1,"mosquito_risk":3,"arthritis_risk":10,"migraine_risk":7,"frizz_risk":0,"updated_at":"2026-04-06T03:05:56.959416+05:30"},{"city":"Shimla","state":"Himachal Pradesh","latitude":31.1048,"longitude":77.1734,"temp":8.1,"humidity":76,"rain":0.0,"pressure":780.2,"uv_index":6.55,"wind_gusts":29.2,"aqi":46,"pm10":22.3,"pm2_5":15.7,"mosquito_risk":3,"arthritis_risk":5,"migraine_risk":7,"frizz_risk":0,"updated_at":"2026-04-06T03:05:56.959422+05:30"},{"city":"Manali","state":"Himachal Pradesh","latitude":32.2396,"longitude":77.1887,"temp":11.1,"humidity":70,"rain":0.0,"pressure":815.1,"uv_index":9.6,"wind_gusts":29.2,"aqi":41,"pm10":20.7,"pm2_5":14.9,"mosquito_risk":3,"arthritis_risk":5,"migraine_risk":7,"frizz_risk":0,"updated_at":"2026-04-06T03:05:56.959429+05:30"},{"city":"Gurgaon","state":"Haryana","latitude":28.4595,"longitude":77.0266,"temp":17.9,"humidity":76,"rain":0.0,"pressure":981.9,"uv_index":7.05,"wind_gusts":27.7,"aqi":352,"pm10":249.6,"pm2_5":70.8,"mosquito_risk":3,"arthritis_risk":5,"migraine_risk":7,"frizz_risk":0,"updated_at":"2026-04-06T03:05:56.959436+05:30"},{"city":"Noida","state":"Uttar Pradesh","latitude":28.5355,"longitude":77.391,"temp":19.7,"humidity":67,"rain":0.0,"pressure":985.0,"uv_index":6.95,"wind_gusts":25.2,"aqi":352,"pm10":249.6,"pm2_5":70.8,"mosquito_risk":3,"arthritis_risk":5,"migraine_risk":7,"frizz_risk":0,"updated_at":"2026-04-06T03:05:56.959442+05:30"},{"city":"Ghaziabad","state":"Uttar Pradesh","latitude":28.6692,"longitude":77.4538,"temp":19.2,"humidity":70,"rain":0.0,"pressure":983.1,"uv_index":6.9,"wind_gusts":25.2,"aqi":128,"pm10":154.1,"pm2_5":55.5,"mosquito_risk":3,"arthritis_risk":5,"migraine_risk":7,"frizz_risk":0,"updated_at":"2026-04-06T03:05:56.959448+05:30"},{"city":"Faridabad","state":"Haryana","latitude":28.4089,"longitude":77.3178,"temp":19.6,"humidity":65,"rain":0.0,"pressure":984.4,"uv_index":7.0,"wind_gusts":32.8,"aqi":352,"pm10":249.6,"pm2_5":70.8,"mosquito_risk":3,"arthritis_risk":5,"migraine_risk":7,"frizz_risk":0,"updated_at":"2026-04-06T03:05:56.959454+05:30"},{"city":"Meerut","state":"Uttar Pradesh","latitude":28.9845,"longitude":77.7064,"temp":17.8,"humidity":75,"rain":0.0,"pressure":981.7,"uv_index":6.8,"wind_gusts":25.2,"aqi":128,"pm10":154.1,"pm2_5":55.5,"mosquito_risk":3,"arthritis_risk":5,"migraine_risk":7,"frizz_risk":0,"updated_at":"2026-04-06T03:05:56.959460+05:30"},{"city":"Agra","state":"Uttar Pradesh","latitude":27.1767,"longitude":78.0081,"temp":18.6,"humidity":81,"rain":0.0,"pressure":988.5,"uv_index":7.3,"wind_gusts":27.4,"aqi":186,"pm10":212.3,"pm2_5":68.9,"mosquito_risk":3,"arthritis_risk":10,"migraine_risk":7,"frizz_risk":0,"updated_at":"2026-04-06T03:05:56.959467+05:30"},{"city":"Varanasi","state":"Uttar Pradesh","latitude":25.3176,"longitude":82.9739,"temp":22.5,"humidity":77,"rain":0.0,"pressure":997.1,"uv_index":7.9,"wind_gusts":31.7,"aqi":92,"pm10":53.6,"pm2_5":37.7,"mosquito_risk":3,"arthritis_risk":5,"migraine_risk":7,"frizz_risk":1,"updated_at":"2026-04-06T03:05:56.959475+05:30"},{"city":"Prayagraj","state":"Uttar Pradesh","latitude":25.4358,"longitude":81.8463,"temp":23.0,"humidity":75,"rain":0.0,"pressure":995.9,"uv_index":7.55,"wind_gusts":29.9,"aqi":77,"pm10":76.4,"pm2_5":30.0,"mosquito_risk":3,"arthritis_risk":5,"migraine_risk":7,"frizz_risk":1,"updated_at":"2026-04-06T03:05:56.959482+05:30"},{"city":"Gorakhpur","state":"Uttar Pradesh","latitude":26.7606,"longitude":83.3732,"temp":22.6,"humidity":65,"rain":0.0,"pressure":996.0,"uv_index":7.7,"wind_gusts":31.7,"aqi":74,"pm10":47.3,"pm2_5":26.5,"mosquito_risk":3,"arthritis_risk":5,"migraine_risk":7,"frizz_risk":0,"updated_at":"2026-04-06T03:05:56.959489+05:30"},{"city":"Bareilly","state":"Uttar Pradesh","latitude":28.367,"longitude":79.4304,"temp":17.6,"humidity":90,"rain":0.0,"pressure":987.1,"uv_index":7.2,"wind_gusts":29.5,"aqi":93,"pm10":53.3,"pm2_5":40.3,"mosquito_risk":3,"arthritis_risk":10,"migraine_risk":7,"frizz_risk":0,"updated_at":"2026-04-06T03:05:56.959495+05:30"},{"city":"Aligarh","state":"Uttar Pradesh","latitude":27.8974,"longitude":78.088,"temp":18.3,"humidity":79,"rain":0.0,"pressure":985.9,"uv_index":7.1,"wind_gusts":28.1,"aqi":153,"pm10":195.6,"pm2_5":84.5,"mosquito_risk":3,"arthritis_risk":5,"migraine_risk":7,"frizz_risk":0,"updated_at":"2026-04-06T03:05:56.959503+05:30"},{"city":"Moradabad","state":"Uttar Pradesh","latitude":28.8386,"longitude":78.7733,"temp":17.7,"humidity":88,"rain":0.0,"pressure":984.1,"uv_index":7.0,"wind_gusts":27.7,"aqi":95,"pm10":62.2,"pm2_5":46.3,"mosquito_risk":3,"arthritis_risk":10,"migraine_risk":7,"frizz_risk":0,"updated_at":"2026-04-06T03:05:56.959509+05:30"},{"city":"Saharanpur","state":"Uttar Pradesh","latitude":29.9637,"longitude":77.546,"temp":17.8,"humidity":78,"rain":0.0,"pressure":976.2,"uv_index":6.6,"wind_gusts":22.3,"aqi":95,"pm10":109.7,"pm2_5":67.1,"mosquito_risk":3,"arthritis_risk":5,"migraine_risk":7,"frizz_risk":0,"updated_at":"2026-04-06T03:05:56.959516+05:30"},{"city":"Jhansi","state":"Uttar Pradesh","latitude":25.4484,"longitude":78.5685,"temp":21.8,"humidity":73,"rain":0.0,"pressure":977.9,"uv_index":7.9,"wind_gusts":32.8,"aqi":53,"pm10":109.0,"pm2_5":30.9,"mosquito_risk":3,"arthritis_risk":5,"migraine_risk":7,"frizz_risk":1,"updated_at":"2026-04-06T03:06:00.228636+05:30"},{"city":"Surat","state":"Gujarat","latitude":21.1702,"longitude":72.8311,"temp":26.3,"humidity":72,"rain":0.0,"pressure":1007.6,"uv_index":7.7,"wind_gusts":27.4,"aqi":80,"pm10":23.3,"pm2_5":16.7,"mosquito_risk":7,"arthritis_risk":5,"migraine_risk":4,"frizz_risk":1,"updated_at":"2026-04-06T03:06:00.228665+05:30"},{"city":"Vadodara","state":"Gujarat","latitude":22.3072,"longitude":73.1812,"temp":25.2,"humidity":75,"rain":0.0,"pressure":1005.0,"uv_index":7.95,"wind_gusts":28.1,"aqi":77,"pm10":31.5,"pm2_5":27.0,"mosquito_risk":7,"arthritis_risk":5,"migraine_risk":4,"frizz_risk":1,"updated_at":"2026-04-06T03:06:00.228676+05:30"},{"city":"Rajkot","state":"Gujarat","latitude":22.3039,"longitude":70.8022,"temp":22.9,"humidity":84,"rain":0.0,"pressure":996.2,"uv_index":7.7,"wind_gusts":38.5,"aqi":50,"pm10":21.7,"pm2_5":9.2,"mosquito_risk":3,"arthritis_risk":5,"migraine_risk":7,"frizz_risk":1,"updated_at":"2026-04-06T03:06:00.228684+05:30"},{"city":"Thane","state":"Maharashtra","latitude":19.2183,"longitude":72.9781,"temp":26.3,"humidity":66,"rain":0.0,"pressure":1009.1,"uv_index":7.95,"wind_gusts":37.4,"aqi":65,"pm10":31.1,"pm2_5":17.4,"mosquito_risk":7,"arthritis_risk":0,"migraine_risk":4,"frizz_risk":1,"updated_at":"2026-04-06T03:06:00.228691+05:30"},{"city":"Nagpur","state":"Maharashtra","latitude":21.1458,"longitude":79.0882,"temp":25.3,"humidity":53,"rain":0.0,"pressure":971.3,"uv_index":8.65,"wind_gusts":23.0,"aqi":74,"pm10":30.0,"pm2_5":23.2,"mosquito_risk":4,"arthritis_risk":5,"migraine_risk":7,"frizz_risk":0,"updated_at":"2026-04-06T03:06:00.228698+05:30"},{"city":"Nashik","state":"Maharashtra","latitude":19.9975,"longitude":73.7898,"temp":18.7,"humidity":81,"rain":0.0,"pressure":945.6,"uv_index":8.2,"wind_gusts":32.4,"aqi":57,"pm10":29.0,"pm2_5":16.9,"mosquito_risk":3,"arthritis_risk":10,"migraine_risk":7,"frizz_risk":0,"updated_at":"2026-04-06T03:06:00.228705+05:30"},{"city":"Aurangabad","state":"Maharashtra","latitude":19.8762,"longitude":75.3433,"temp":22.7,"humidity":66,"rain":0.0,"pressure":943.7,"uv_index":8.9,"wind_gusts":29.2,"aqi":56,"pm10":15.3,"pm2_5":10.0,"mosquito_risk":3,"arthritis_risk":5,"migraine_risk":7,"frizz_risk":0,"updated_at":"2026-04-06T03:06:00.228712+05:30"},{"city":"Solapur","state":"Maharashtra","latitude":17.6599,"longitude":75.9064,"temp":24.5,"humidity":63,"rain":0.0,"pressure":956.5,"uv_index":9.0,"wind_gusts":33.8,"aqi":57,"pm10":21.8,"pm2_5":15.5,"mosquito_risk":3,"arthritis_risk":5,"migraine_risk":7,"frizz_risk":1,"updated_at":"2026-04-06T03:06:00.228719+05:30"},{"city":"Kolhapur","state":"Maharashtra","latitude":16.705,"longitude":74.2433,"temp":17.8,"humidity":89,"rain":0.0,"pressure":947.3,"uv_index":9.0,"wind_gusts":38.9,"aqi":71,"pm10":45.2,"pm2_5":30.6,"mosquito_risk":3,"arthritis_risk":10,"migraine_risk":7,"frizz_risk":0,"updated_at":"2026-04-06T03:06:00.228726+05:30"},{"city":"Goa","state":"Goa","latitude":15.2993,"longitude":74.124,"temp":25.6,"humidity":83,"rain":0.0,"pressure":998.4,"uv_index":9.0,"wind_gusts":38.5,"aqi":69,"pm10":55.4,"pm2_5":28.7,"mosquito_risk":7,"arthritis_risk":5,"migraine_risk":7,"frizz_risk":1,"updated_at":"2026-04-06T03:06:00.228734+05:30"},{"city":"Jodhpur","state":"Rajasthan","latitude":26.2389,"longitude":73.0243,"temp":23.9,"humidity":40,"rain":0.0,"pressure":983.7,"uv_index":7.85,"wind_gusts":36.7,"aqi":67,"pm10":21.2,"pm2_5":10.9,"mosquito_risk":0,"arthritis_risk":5,"migraine_risk":7,"frizz_risk":0,"updated_at":"2026-04-06T03:06:00.228741+05:30"},{"city":"Udaipur","state":"Rajasthan","latitude":24.5854,"longitude":73.7125,"temp":19.9,"humidity":48,"rain":0.0,"pressure":946.5,"uv_index":8.4,"wind_gusts":35.3,"aqi":49,"pm10":29.0,"pm2_5":11.4,"mosquito_risk":0,"arthritis_risk":5,"migraine_risk":7,"frizz_risk":0,"updated_at":"2026-04-06T03:06:00.228748+05:30"},{"city":"Kota","state":"Rajasthan","latitude":25.2138,"longitude":75.8648,"temp":22.3,"humidity":43,"rain":0.0,"pressure":978.7,"uv_index":7.85,"wind_gusts":24.5,"aqi":67,"pm10":80.1,"pm2_5":27.2,"mosquito_risk":0,"arthritis_risk":5,"migraine_risk":7,"frizz_risk":0,"updated_at":"2026-04-06T03:06:00.228754+05:30"},{"city":"Bikaner","state":"Rajasthan","latitude":28.0229,"longitude":73.3119,"temp":22.5,"humidity":50,"rain":0.0,"pressure":982.6,"uv_index":7.65,"wind_gusts":27.4,"aqi":51,"pm10":34.6,"pm2_5":12.7,"mosquito_risk":0,"arthritis_risk":5,"migraine_risk":7,"frizz_risk":0,"updated_at":"2026-04-06T03:06:00.228761+05:30"},{"city":"Ajmer","state":"Rajasthan","latitude":26.4499,"longitude":74.6399,"temp":21.5,"humidity":52,"rain":0.0,"pressure":954.4,"uv_index":7.75,"wind_gusts":28.1,"aqi":52,"pm10":18.6,"pm2_5":10.6,"mosquito_risk":0,"arthritis_risk":5,"migraine_risk":7,"frizz_risk":0,"updated_at":"2026-04-06T03:06:00.228767+05:30"},{"city":"Gwalior","state":"Madhya Pradesh","latitude":26.2183,"longitude":78.1828,"temp":21.7,"humidity":79,"rain":0.0,"pressure":983.5,"uv_index":7.6,"wind_gusts":21.6,"aqi":71,"pm10":170.4,"pm2_5":44.0,"mosquito_risk":3,"arthritis_risk":5,"migraine_risk":7,"frizz_risk":1,"updated_at":"2026-04-06T03:06:00.228773+05:30"},{"city":"Indore","state":"Madhya Pradesh","latitude":22.7196,"longitude":75.8577,"temp":21.6,"humidity":53,"rain":0.0,"pressure":947.4,"uv_index":8.3,"wind_gusts":29.9,"aqi":59,"pm10":22.3,"pm2_5":15.2,"mosquito_risk":0,"arthritis_risk":5,"migraine_risk":7,"frizz_risk":0,"updated_at":"2026-04-06T03:06:00.228780+05:30"},{"city":"Bhopal","state":"Madhya Pradesh","latitude":23.2599,"longitude":77.4126,"temp":22.5,"humidity":47,"rain":0.0,"pressure":952.8,"uv_index":8.3,"wind_gusts":30.2,"aqi":46,"pm10":16.4,"pm2_5":12.3,"mosquito_risk":0,"arthritis_risk":5,"migraine_risk":7,"frizz_risk":0,"updated_at":"2026-04-06T03:06:00.228786+05:30"},{"city":"Jabalpur","state":"Madhya Pradesh","latitude":23.1815,"longitude":79.9864,"temp":26.5,"humidity":40,"rain":0.0,"pressure":960.2,"uv_index":7.9,"wind_gusts":25.6,"aqi":71,"pm10":28.2,"pm2_5":20.3,"mosquito_risk":4,"arthritis_risk":5,"migraine_risk":7,"frizz_risk":0,"updated_at":"2026-04-06T03:06:00.228792+05:30"},{"city":"Ujjain","state":"Madhya Pradesh","latitude":23.1765,"longitude":75.7885,"temp":21.9,"humidity":54,"rain":0.0,"pressure":953.5,"uv_index":8.2,"wind_gusts":28.4,"aqi":50,"pm10":18.0,"pm2_5":10.2,"mosquito_risk":0,"arthritis_risk":5,"migraine_risk":7,"frizz_risk":0,"updated_at":"2026-04-06T03:06:00.228799+05:30"},{"city":"Visakhapatnam","state":"Andhra Pradesh","latitude":17.6868,"longitude":83.2185,"temp":24.4,"humidity":89,"rain":0.0,"pressure":1003.8,"uv_index":9.1,"wind_gusts":37.4,"aqi":88,"pm10":36.8,"pm2_5":31.9,"mosquito_risk":3,"arthritis_risk":5,"migraine_risk":4,"frizz_risk":1,"updated_at":"2026-04-06T03:06:00.228806+05:30"},{"city":"Vijayawada","state":"Andhra Pradesh","latitude":16.5062,"longitude":80.648,"temp":26.8,"humidity":90,"rain":0.0,"pressure":1001.2,"uv_index":9.15,"wind_gusts":28.4,"aqi":78,"pm10":22.8,"pm2_5":20.9,"mosquito_risk":7,"arthritis_risk":5,"migraine_risk":4,"frizz_risk":1,"updated_at":"2026-04-06T03:06:00.228812+05:30"},{"city":"Guntur","state":"Andhra Pradesh","latitude":16.3067,"longitude":80.4365,"temp":27.3,"humidity":93,"rain":0.0,"pressure":1002.5,"uv_index":9.2,"wind_gusts":29.5,"aqi":79,"pm10":23.5,"pm2_5":21.5,"mosquito_risk":7,"arthritis_risk":5,"migraine_risk":4,"frizz_risk":1,"updated_at":"2026-04-06T03:06:00.228819+05:30"},{"city":"Nellore","state":"Andhra Pradesh","latitude":14.4426,"longitude":79.9865,"temp":27.8,"humidity":91,"rain":0.0,"pressure":1004.2,"uv_index":9.15,"wind_gusts":28.1,"aqi":69,"pm10":20.4,"pm2_5":17.0,"mosquito_risk":7,"arthritis_risk":5,"migraine_risk":4,"frizz_risk":1,"updated_at":"2026-04-06T03:06:00.228826+05:30"},{"city":"Kurnool","state":"Andhra Pradesh","latitude":15.8281,"longitude":78.0373,"temp":29.6,"humidity":49,"rain":0.0,"pressure":975.2,"uv_index":9.2,"wind_gusts":38.2,"aqi":105,"pm10":58.0,"pm2_5":49.5,"mosquito_risk":4,"arthritis_risk":5,"migraine_risk":7,"frizz_risk":1,"updated_at":"2026-04-06T03:06:00.228833+05:30"},{"city":"Kakinada","state":"Andhra Pradesh","latitude":16.9891,"longitude":82.2475,"temp":26.5,"humidity":96,"rain":0.0,"pressure":1006.3,"uv_index":8.55,"wind_gusts":21.6,"aqi":62,"pm10":22.8,"pm2_5":17.2,"mosquito_risk":7,"arthritis_risk":5,"migraine_risk":4,"frizz_risk":1,"updated_at":"2026-04-06T03:06:00.228839+05:30"},{"city":"Tirupati","state":"Andhra Pradesh","latitude":13.6288,"longitude":79.4192,"temp":27.0,"humidity":88,"rain":0.0,"pressure":990.6,"uv_index":8.7,"wind_gusts":24.8,"aqi":95,"pm10":44.1,"pm2_5":42.1,"mosquito_risk":7,"arthritis_risk":5,"migraine_risk":7,"frizz_risk":1,"updated_at":"2026-04-06T03:06:00.228846+05:30"},{"city":"Warangal","state":"Telangana","latitude":17.9689,"longitude":79.5941,"temp":26.7,"humidity":76,"rain":0.0,"pressure":976.6,"uv_index":8.35,"wind_gusts":33.1,"aqi":152,"pm10":81.5,"pm2_5":71.7,"mosquito_risk":7,"arthritis_risk":5,"migraine_risk":7,"frizz_risk":1,"updated_at":"2026-04-06T03:06:00.228852+05:30"},{"city":"Nizamabad","state":"Telangana","latitude":18.6725,"longitude":78.0941,"temp":27.1,"humidity":57,"rain":0.0,"pressure":963.3,"uv_index":8.95,"wind_gusts":29.2,"aqi":102,"pm10":47.6,"pm2_5":38.9,"mosquito_risk":4,"arthritis_risk":5,"migraine_risk":7,"frizz_risk":1,"updated_at":"2026-04-06T03:06:00.228858+05:30"},{"city":"Mysore","state":"Karnataka","latitude":12.2958,"longitude":76.6396,"temp":22.9,"humidity":83,"rain":0.0,"pressure":927.8,"uv_index":9.55,"wind_gusts":39.2,"aqi":74,"pm10":25.5,"pm2_5":22.6,"mosquito_risk":3,"arthritis_risk":5,"migraine_risk":7,"frizz_risk":1,"updated_at":"2026-04-06T03:06:00.228864+05:30"},{"city":"Mangalore","state":"Karnataka","latitude":12.9141,"longitude":74.856,"temp":29.3,"humidity":73,"rain":0.0,"pressure":1006.7,"uv_index":9.2,"wind_gusts":40.0,"aqi":62,"pm10":43.5,"pm2_5":20.6,"mosquito_risk":7,"arthritis_risk":5,"migraine_risk":4,"frizz_risk":1,"updated_at":"2026-04-06T03:06:00.228871+05:30"},{"city":"Hubli-Dharwad","state":"Karnataka","latitude":15.3647,"longitude":75.124,"temp":20.1,"humidity":84,"rain":0.0,"pressure":939.9,"uv_index":9.2,"wind_gusts":35.6,"aqi":59,"pm10":33.1,"pm2_5":18.6,"mosquito_risk":3,"arthritis_risk":5,"migraine_risk":7,"frizz_risk":1,"updated_at":"2026-04-06T03:06:00.228878+05:30"},{"city":"Belgaum","state":"Karnataka","latitude":15.8497,"longitude":74.4977,"temp":18.3,"humidity":82,"rain":0.0,"pressure":924.5,"uv_index":9.25,"wind_gusts":36.7,"aqi":62,"pm10":50.3,"pm2_5":27.1,"mosquito_risk":3,"arthritis_risk":10,"migraine_risk":7,"frizz_risk":0,"updated_at":"2026-04-06T03:06:03.506612+05:30"},{"city":"Coimbatore","state":"Tamil Nadu","latitude":11.0168,"longitude":76.9558,"temp":25.0,"humidity":83,"rain":0.0,"pressure":961.5,"uv_index":9.5,"wind_gusts":52.6,"aqi":72,"pm10":29.6,"pm2_5":25.7,"mosquito_risk":7,"arthritis_risk":5,"migraine_risk":7,"frizz_risk":1,"updated_at":"2026-04-06T03:06:03.506648+05:30"},{"city":"Madurai","state":"Tamil Nadu","latitude":9.9252,"longitude":78.1198,"temp":26.9,"humidity":79,"rain":0.0,"pressure":992.1,"uv_index":9.4,"wind_gusts":21.2,"aqi":80,"pm10":34.1,"pm2_5":32.5,"mosquito_risk":7,"arthritis_risk":5,"migraine_risk":7,"frizz_risk":1,"updated_at":"2026-04-06T03:06:03.506662+05:30"},{"city":"Trichy","state":"Tamil Nadu","latitude":10.7905,"longitude":78.7047,"temp":26.5,"humidity":92,"rain":0.0,"pressure":999.3,"uv_index":9.4,"wind_gusts":27.7,"aqi":105,"pm10":31.5,"pm2_5":30.2,"mosquito_risk":7,"arthritis_risk":5,"migraine_risk":7,"frizz_risk":1,"updated_at":"2026-04-06T03:06:03.506673+05:30"},{"city":"Salem","state":"Tamil Nadu","latitude":11.6643,"longitude":78.146,"temp":26.3,"humidity":79,"rain":0.0,"pressure":977.0,"uv_index":8.7,"wind_gusts":48.2,"aqi":94,"pm10":29.9,"pm2_5":28.2,"mosquito_risk":7,"arthritis_risk":5,"migraine_risk":7,"frizz_risk":1,"updated_at":"2026-04-06T03:06:03.506681+05:30"},{"city":"Tirunelveli","state":"Tamil Nadu","latitude":8.7139,"longitude":77.7567,"temp":27.8,"humidity":70,"rain":0.0,"pressure":1002.0,"uv_index":3.8,"wind_gusts":25.6,"aqi":63,"pm10":18.8,"pm2_5":17.2,"mosquito_risk":7,"arthritis_risk":5,"migraine_risk":0,"frizz_risk":1,"updated_at":"2026-04-06T03:06:03.506689+05:30"},{"city":"Vellore","state":"Tamil Nadu","latitude":12.9165,"longitude":79.1325,"temp":25.6,"humidity":79,"rain":0.0,"pressure":983.6,"uv_index":9.45,"wind_gusts":28.1,"aqi":129,"pm10":64.3,"pm2_5":60.1,"mosquito_risk":7,"arthritis_risk":5,"migraine_risk":7,"frizz_risk":1,"updated_at":"2026-04-06T03:06:03.506696+05:30"},{"city":"Erode","state":"Tamil Nadu","latitude":11.341,"longitude":77.7172,"temp":27.1,"humidity":83,"rain":0.0,"pressure":988.5,"uv_index":9.45,"wind_gusts":36.7,"aqi":79,"pm10":25.8,"pm2_5":23.5,"mosquito_risk":7,"arthritis_risk":5,"migraine_risk":7,"frizz_risk":1,"updated_at":"2026-04-06T03:06:03.506703+05:30"},{"city":"Kochi","state":"Kerala","latitude":9.9312,"longitude":76.2673,"temp":28.9,"humidity":80,"rain":0.0,"pressure":1008.7,"uv_index":8.1,"wind_gusts":39.6,"aqi":68,"pm10":31.0,"pm2_5":26.2,"mosquito_risk":7,"arthritis_risk":0,"migraine_risk":4,"frizz_risk":1,"updated_at":"2026-04-06T03:06:03.506710+05:30"},{"city":"Thiruvananthapuram","state":"Kerala","latitude":8.5241,"longitude":76.9366,"temp":28.1,"humidity":85,"rain":0.0,"pressure":1007.9,"uv_index":6.3,"wind_gusts":42.1,"aqi":52,"pm10":22.4,"pm2_5":14.8,"mosquito_risk":7,"arthritis_risk":5,"migraine_risk":4,"frizz_risk":1,"updated_at":"2026-04-06T03:06:03.506717+05:30"},{"city":"Kozhikode","state":"Kerala","latitude":11.2588,"longitude":75.7804,"temp":29.0,"humidity":79,"rain":0.0,"pressure":1007.7,"uv_index":9.15,"wind_gusts":43.2,"aqi":59,"pm10":29.3,"pm2_5":17.0,"mosquito_risk":7,"arthritis_risk":5,"migraine_risk":4,"frizz_risk":1,"updated_at":"2026-04-06T03:06:03.506724+05:30"},{"city":"Thrissur","state":"Kerala","latitude":10.5276,"longitude":76.2144,"temp":28.0,"humidity":83,"rain":0.0,"pressure":1006.9,"uv_index":9.15,"wind_gusts":43.2,"aqi":66,"pm10":31.9,"pm2_5":24.2,"mosquito_risk":7,"arthritis_risk":5,"migraine_risk":4,"frizz_risk":1,"updated_at":"2026-04-06T03:06:03.506731+05:30"},{"city":"Kannur","state":"Kerala","latitude":11.8745,"longitude":75.3704,"temp":27.8,"humidity":82,"rain":0.0,"pressure":1007.1,"uv_index":9.2,"wind_gusts":48.6,"aqi":63,"pm10":29.5,"pm2_5":15.8,"mosquito_risk":7,"arthritis_risk":5,"migraine_risk":4,"frizz_risk":1,"updated_at":"2026-04-06T03:06:03.506738+05:30"},{"city":"Patna","state":"Bihar","latitude":25.5941,"longitude":85.1376,"temp":25.3,"humidity":58,"rain":0.0,"pressure":999.0,"uv_index":7.9,"wind_gusts":30.6,"aqi":73,"pm10":45.5,"pm2_5":36.9,"mosquito_risk":4,"arthritis_risk":5,"migraine_risk":7,"frizz_risk":1,"updated_at":"2026-04-06T03:06:03.506745+05:30"},{"city":"Gaya","state":"Bihar","latitude":24.7914,"longitude":85.0002,"temp":24.9,"humidity":68,"rain":0.0,"pressure":993.3,"uv_index":6.6,"wind_gusts":31.7,"aqi":73,"pm10":43.7,"pm2_5":29.4,"mosquito_risk":3,"arthritis_risk":5,"migraine_risk":7,"frizz_risk":1,"updated_at":"2026-04-06T03:06:03.506752+05:30"},{"city":"Muzaffarpur","state":"Bihar","latitude":26.1209,"longitude":85.3647,"temp":23.5,"humidity":56,"rain":0.0,"pressure":998.7,"uv_index":7.7,"wind_gusts":25.2,"aqi":68,"pm10":34.1,"pm2_5":26.0,"mosquito_risk":0,"arthritis_risk":5,"migraine_risk":7,"frizz_risk":0,"updated_at":"2026-04-06T03:06:03.506759+05:30"},{"city":"Bhagalpur","state":"Bihar","latitude":25.2425,"longitude":87.0117,"temp":24.6,"humidity":69,"rain":0.0,"pressure":999.8,"uv_index":6.4,"wind_gusts":40.7,"aqi":67,"pm10":27.1,"pm2_5":20.0,"mosquito_risk":3,"arthritis_risk":5,"migraine_risk":7,"frizz_risk":1,"updated_at":"2026-04-06T03:06:03.506765+05:30"},{"city":"Ranchi","state":"Jharkhand","latitude":23.3441,"longitude":85.3096,"temp":22.2,"humidity":79,"rain":0.0,"pressure":936.4,"uv_index":8.0,"wind_gusts":33.5,"aqi":74,"pm10":40.6,"pm2_5":29.3,"mosquito_risk":3,"arthritis_risk":5,"migraine_risk":7,"frizz_risk":1,"updated_at":"2026-04-06T03:06:03.506772+05:30"},{"city":"Jamshedpur","state":"Jharkhand","latitude":22.8046,"longitude":86.2029,"temp":24.9,"humidity":86,"rain":0.0,"pressure":989.7,"uv_index":8.55,"wind_gusts":21.2,"aqi":102,"pm10":66.4,"pm2_5":56.2,"mosquito_risk":3,"arthritis_risk":5,"migraine_risk":7,"frizz_risk":1,"updated_at":"2026-04-06T03:06:03.506778+05:30"},{"city":"Dhanbad","state":"Jharkhand","latitude":23.7957,"longitude":86.4304,"temp":25.8,"humidity":68,"rain":0.0,"pressure":978.1,"uv_index":8.5,"wind_gusts":34.2,"aqi":97,"pm10":66.1,"pm2_5":54.8,"mosquito_risk":7,"arthritis_risk":5,"migraine_risk":7,"frizz_risk":1,"updated_at":"2026-04-06T03:06:03.506784+05:30"},{"city":"Bokaro","state":"Jharkhand","latitude":23.6693,"longitude":86.1511,"temp":25.2,"humidity":71,"rain":0.0,"pressure":982.6,"uv_index":7.85,"wind_gusts":40.3,"aqi":97,"pm10":70.1,"pm2_5":58.1,"mosquito_risk":7,"arthritis_risk":5,"migraine_risk":7,"frizz_risk":1,"updated_at":"2026-04-06T03:06:03.506791+05:30"},{"city":"Bhubaneswar","state":"Odisha","latitude":20.2961,"longitude":85.8245,"temp":26.3,"humidity":96,"rain":0.0,"pressure":1001.5,"uv_index":8.95,"wind_gusts":27.0,"aqi":93,"pm10":25.9,"pm2_5":23.4,"mosquito_risk":7,"arthritis_risk":5,"migraine_risk":4,"frizz_risk":1,"updated_at":"2026-04-06T03:06:03.506798+05:30"},{"city":"Cuttack","state":"Odisha","latitude":20.4625,"longitude":85.8828,"temp":25.8,"humidity":95,"rain":0.0,"pressure":1003.5,"uv_index":8.95,"wind_gusts":25.6,"aqi":93,"pm10":25.9,"pm2_5":23.4,"mosquito_risk":7,"arthritis_risk":5,"migraine_risk":4,"frizz_risk":1,"updated_at":"2026-04-06T03:06:03.506804+05:30"},{"city":"Rourkela","state":"Odisha","latitude":22.2604,"longitude":84.8536,"temp":25.1,"humidity":90,"rain":0.0,"pressure":984.3,"uv_index":8.35,"wind_gusts":49.7,"aqi":94,"pm10":57.9,"pm2_5":48.0,"mosquito_risk":7,"arthritis_risk":5,"migraine_risk":7,"frizz_risk":1,"updated_at":"2026-04-06T03:06:03.506810+05:30"},{"city":"Raipur","state":"Chhattisgarh","latitude":21.2514,"longitude":81.6296,"temp":25.3,"humidity":70,"rain":0.0,"pressure":973.7,"uv_index":8.5,"wind_gusts":26.3,"aqi":148,"pm10":68.9,"pm2_5":62.9,"mosquito_risk":7,"arthritis_risk":5,"migraine_risk":7,"frizz_risk":1,"updated_at":"2026-04-06T03:06:03.506817+05:30"},{"city":"Bhilai","state":"Chhattisgarh","latitude":21.1938,"longitude":81.3509,"temp":24.8,"humidity":74,"rain":0.0,"pressure":973.9,"uv_index":8.65,"wind_gusts":25.6,"aqi":125,"pm10":70.3,"pm2_5":59.3,"mosquito_risk":3,"arthritis_risk":5,"migraine_risk":7,"frizz_risk":1,"updated_at":"2026-04-06T03:06:03.506823+05:30"},{"city":"Guwahati","state":"Assam","latitude":26.1158,"longitude":91.7086,"temp":24.3,"humidity":83,"rain":0.0,"pressure":998.8,"uv_index":8.25,"wind_gusts":28.4,"aqi":98,"pm10":25.2,"pm2_5":21.8,"mosquito_risk":3,"arthritis_risk":5,"migraine_risk":7,"frizz_risk":1,"updated_at":"2026-04-06T03:06:03.506829+05:30"},{"city":"Agartala","state":"Tripura","latitude":23.8315,"longitude":91.2868,"temp":24.0,"humidity":97,"rain":0.0,"pressure":1005.0,"uv_index":8.5,"wind_gusts":41.0,"aqi":112,"pm10":46.6,"pm2_5":44.8,"mosquito_risk":3,"arthritis_risk":5,"migraine_risk":4,"frizz_risk":1,"updated_at":"2026-04-06T03:06:03.506835+05:30"},{"city":"Shillong","state":"Meghalaya","latitude":25.5788,"longitude":91.8933,"temp":13.2,"humidity":86,"rain":0.0,"pressure":853.6,"uv_index":8.65,"wind_gusts":54.4,"aqi":92,"pm10":25.2,"pm2_5":20.3,"mosquito_risk":3,"arthritis_risk":10,"migraine_risk":7,"frizz_risk":0,"updated_at":"2026-04-06T03:06:03.506842+05:30"},{"city":"Imphal","state":"Manipur","latitude":24.817,"longitude":93.9368,"temp":18.4,"humidity":79,"rain":0.0,"pressure":921.7,"uv_index":8.85,"wind_gusts":53.6,"aqi":146,"pm10":74.7,"pm2_5":68.2,"mosquito_risk":3,"arthritis_risk":5,"migraine_risk":7,"frizz_risk":0,"updated_at":"2026-04-06T03:06:03.506848+05:30"},{"city":"Aizawl","state":"Mizoram","latitude":23.7271,"longitude":92.7176,"temp":16.9,"humidity":89,"rain":0.0,"pressure":890.7,"uv_index":8.75,"wind_gusts":34.9,"aqi":138,"pm10":53.4,"pm2_5":47.6,"mosquito_risk":3,"arthritis_risk":10,"migraine_risk":7,"frizz_risk":0,"updated_at":"2026-04-06T03:06:03.506855+05:30"},{"city":"Kohima","state":"Nagaland","latitude":25.6701,"longitude":94.1077,"temp":16.1,"humidity":57,"rain":0.0,"pressure":852.9,"uv_index":8.75,"wind_gusts":79.6,"aqi":108,"pm10":48.8,"pm2_5":42.7,"mosquito_risk":0,"arthritis_risk":5,"migraine_risk":7,"frizz_risk":0,"updated_at":"2026-04-06T03:06:03.506862+05:30"},{"city":"Gangtok","state":"Sikkim","latitude":27.3314,"longitude":88.6138,"temp":12.8,"humidity":83,"rain":0.0,"pressure":834.3,"uv_index":8.55,"wind_gusts":17.3,"aqi":81,"pm10":21.0,"pm2_5":15.8,"mosquito_risk":3,"arthritis_risk":10,"migraine_risk":7,"frizz_risk":0,"updated_at":"2026-04-06T03:06:03.506868+05:30"},{"city":"Siliguri","state":"West Bengal","latitude":26.7271,"longitude":88.3953,"temp":21.4,"humidity":54,"rain":0.0,"pressure":991.5,"uv_index":8.1,"wind_gusts":23.4,"aqi":134,"pm10":37.4,"pm2_5":33.9,"mosquito_risk":0,"arthritis_risk":5,"migraine_risk":7,"frizz_risk":0,"updated_at":"2026-04-06T03:06:06.788966+05:30"},{"city":"Durgapur","state":"West Bengal","latitude":23.5204,"longitude":87.3119,"temp":25.0,"humidity":83,"rain":0.0,"pressure":993.4,"uv_index":8.45,"wind_gusts":34.6,"aqi":96,"pm10":55.3,"pm2_5":44.5,"mosquito_risk":7,"arthritis_risk":5,"migraine_risk":7,"frizz_risk":1,"updated_at":"2026-04-06T03:06:06.788992+05:30"},{"city":"Asansol","state":"West Bengal","latitude":23.6739,"longitude":86.9524,"temp":25.4,"humidity":80,"rain":0.0,"pressure":991.9,"uv_index":8.45,"wind_gusts":31.3,"aqi":87,"pm10":49.7,"pm2_5":39.5,"mosquito_risk":7,"arthritis_risk":5,"migraine_risk":7,"frizz_risk":1,"updated_at":"2026-04-06T03:06:06.789001+05:30"},{"city":"Pondicherry","state":"Puducherry","latitude":11.9139,"longitude":79.8145,"temp":26.1,"humidity":90,"rain":0.0,"pressure":1007.5,"uv_index":9.0,"wind_gusts":26.3,"aqi":66,"pm10":21.2,"pm2_5":17.3,"mosquito_risk":7,"arthritis_risk":5,"migraine_risk":4,"frizz_risk":1,"updated_at":"2026-04-06T03:06:06.789008+05:30"},{"city":"Port Blair","state":"Andaman and Nicobar Islands","latitude":11.6234,"longitude":92.7265,"temp":29.3,"humidity":70,"rain":0.0,"pressure":1005.8,"uv_index":9.2,"wind_gusts":16.2,"aqi":28,"pm10":8.1,"pm2_5":5.4,"mosquito_risk":7,"arthritis_risk":5,"migraine_risk":4,"frizz_risk":1,"updated_at":"2026-04-06T03:06:06.789015+05:30"},{"city":"Haridwar","state":"Uttarakhand","latitude":29.9457,"longitude":78.1642,"temp":17.6,"humidity":77,"rain":0.0,"pressure":974.8,"uv_index":6.7,"wind_gusts":24.5,"aqi":66,"pm10":25.3,"pm2_5":23.2,"mosquito_risk":3,"arthritis_risk":5,"migraine_risk":7,"frizz_risk":0,"updated_at":"2026-04-06T03:06:06.789023+05:30"},{"city":"Rishikesh","state":"Uttarakhand","latitude":30.0869,"longitude":78.2676,"temp":17.2,"humidity":73,"rain":0.0,"pressure":967.3,"uv_index":6.8,"wind_gusts":24.1,"aqi":50,"pm10":23.8,"pm2_5":14.6,"mosquito_risk":3,"arthritis_risk":5,"migraine_risk":7,"frizz_risk":0,"updated_at":"2026-04-06T03:06:06.789030+05:30"},{"city":"Nainital","state":"Uttarakhand","latitude":29.3919,"longitude":79.4542,"temp":14.1,"humidity":69,"rain":0.0,"pressure":803.3,"uv_index":5.75,"wind_gusts":31.0,"aqi":61,"pm10":29.6,"pm2_5":19.6,"mosquito_risk":3,"arthritis_risk":5,"migraine_risk":3,"frizz_risk":0,"updated_at":"2026-04-06T03:06:06.789036+05:30"},{"city":"Mussoorie","state":"Uttarakhand","latitude":30.4599,"longitude":78.0664,"temp":11.4,"humidity":71,"rain":0.0,"pressure":799.5,"uv_index":5.35,"wind_gusts":27.7,"aqi":54,"pm10":26.5,"pm2_5":21.7,"mosquito_risk":3,"arthritis_risk":5,"migraine_risk":3,"frizz_risk":0,"updated_at":"2026-04-06T03:06:06.789042+05:30"},{"city":"Dharamshala","state":"Himachal Pradesh","latitude":32.219,"longitude":76.3234,"temp":15.4,"humidity":56,"rain":0.0,"pressure":867.2,"uv_index":7.45,"wind_gusts":23.0,"aqi":40,"pm10":7.7,"pm2_5":4.8,"mosquito_risk":0,"arthritis_risk":5,"migraine_risk":7,"frizz_risk":0,"updated_at":"2026-04-06T03:06:06.789095+05:30"},{"city":"Dalhousie","state":"Himachal Pradesh","latitude":32.5387,"longitude":75.971,"temp":11.1,"humidity":60,"rain":0.0,"pressure":800.3,"uv_index":6.9,"wind_gusts":21.2,"aqi":57,"pm10":26.5,"pm2_5":19.4,"mosquito_risk":0,"arthritis_risk":5,"migraine_risk":7,"frizz_risk":0,"updated_at":"2026-04-06T03:06:06.789106+05:30"},{"city":"Patiala","state":"Punjab","latitude":30.3398,"longitude":76.3869,"temp":18.0,"humidity":72,"rain":0.0,"pressure":978.9,"uv_index":6.8,"wind_gusts":21.2,"aqi":113,"pm10":110.4,"pm2_5":50.1,"mosquito_risk":3,"arthritis_risk":5,"migraine_risk":7,"frizz_risk":0,"updated_at":"2026-04-06T03:06:06.789113+05:30"},{"city":"Bhatinda","state":"Punjab","latitude":30.211,"longitude":74.9455,"temp":18.9,"humidity":70,"rain":0.0,"pressure":984.4,"uv_index":7.45,"wind_gusts":24.8,"aqi":97,"pm10":72.9,"pm2_5":58.6,"mosquito_risk":3,"arthritis_risk":5,"migraine_risk":7,"frizz_risk":0,"updated_at":"2026-04-06T03:06:06.789120+05:30"},{"city":"Rohtak","state":"Haryana","latitude":28.8955,"longitude":76.6066,"temp":17.9,"humidity":77,"rain":0.0,"pressure":982.3,"uv_index":6.95,"wind_gusts":31.0,"aqi":196,"pm10":436.8,"pm2_5":94.8,"mosquito_risk":3,"arthritis_risk":5,"migraine_risk":7,"frizz_risk":0,"updated_at":"2026-04-06T03:06:06.789125+05:30"},{"city":"Panipat","state":"Haryana","latitude":29.3909,"longitude":76.9635,"temp":17.4,"humidity":75,"rain":0.0,"pressure":980.9,"uv_index":6.75,"wind_gusts":24.1,"aqi":309,"pm10":328.8,"pm2_5":84.5,"mosquito_risk":3,"arthritis_risk":5,"migraine_risk":7,"frizz_risk":0,"updated_at":"2026-04-06T03:06:06.789131+05:30"},{"city":"Mathura","state":"Uttar Pradesh","latitude":27.4924,"longitude":77.6737,"temp":18.7,"humidity":78,"rain":0.0,"pressure":987.5,"uv_index":7.2,"wind_gusts":31.3,"aqi":147,"pm10":324.1,"pm2_5":84.3,"mosquito_risk":3,"arthritis_risk":5,"migraine_risk":7,"frizz_risk":0,"updated_at":"2026-04-06T03:06:06.789138+05:30"},{"city":"Vrindavan","state":"Uttar Pradesh","latitude":27.5823,"longitude":77.7027,"temp":17.7,"humidity":82,"rain":0.0,"pressure":988.0,"uv_index":7.2,"wind_gusts":32.4,"aqi":147,"pm10":324.1,"pm2_5":84.3,"mosquito_risk":3,"arthritis_risk":10,"migraine_risk":7,"frizz_risk":0,"updated_at":"2026-04-06T03:06:06.789144+05:30"},{"city":"Ayodhya","state":"Uttar Pradesh","latitude":26.7922,"longitude":82.1998,"temp":21.5,"humidity":71,"rain":0.0,"pressure":994.7,"uv_index":7.35,"wind_gusts":31.7,"aqi":82,"pm10":86.1,"pm2_5":35.4,"mosquito_risk":3,"arthritis_risk":5,"migraine_risk":7,"frizz_risk":0,"updated_at":"2026-04-06T03:06:06.789150+05:30"},{"city":"Ratlam","state":"Madhya Pradesh","latitude":23.3315,"longitude":75.0367,"temp":24.0,"humidity":49,"rain":0.0,"pressure":954.5,"uv_index":8.2,"wind_gusts":31.7,"aqi":53,"pm10":19.2,"pm2_5":9.6,"mosquito_risk":0,"arthritis_risk":5,"migraine_risk":7,"frizz_risk":0,"updated_at":"2026-04-06T03:06:06.789156+05:30"},{"city":"Sagar","state":"Madhya Pradesh","latitude":23.8388,"longitude":78.7378,"temp":23.8,"humidity":47,"rain":0.0,"pressure":949.1,"uv_index":8.3,"wind_gusts":23.8,"aqi":47,"pm10":26.7,"pm2_5":12.3,"mosquito_risk":0,"arthritis_risk":5,"migraine_risk":7,"frizz_risk":0,"updated_at":"2026-04-06T03:06:06.789162+05:30"},{"city":"Satna","state":"Madhya Pradesh","latitude":24.6005,"longitude":80.8322,"temp":24.4,"humidity":69,"rain":0.0,"pressure":970.7,"uv_index":8.0,"wind_gusts":25.6,"aqi":61,"pm10":98.5,"pm2_5":26.2,"mosquito_risk":3,"arthritis_risk":5,"migraine_risk":7,"frizz_risk":1,"updated_at":"2026-04-06T03:06:06.789168+05:30"},{"city":"Akola","state":"Maharashtra","latitude":20.7002,"longitude":77.0082,"temp":24.3,"humidity":54,"rain":0.0,"pressure":974.5,"uv_index":8.65,"wind_gusts":27.4,"aqi":61,"pm10":26.0,"pm2_5":16.6,"mosquito_risk":0,"arthritis_risk":5,"migraine_risk":7,"frizz_risk":0,"updated_at":"2026-04-06T03:06:06.789175+05:30"},{"city":"Amravati","state":"Maharashtra","latitude":20.9374,"longitude":77.7796,"temp":24.6,"humidity":53,"rain":0.0,"pressure":965.9,"uv_index":8.7,"wind_gusts":25.9,"aqi":61,"pm10":27.4,"pm2_5":17.9,"mosquito_risk":0,"arthritis_risk":5,"migraine_risk":7,"frizz_risk":0,"updated_at":"2026-04-06T03:06:06.789182+05:30"},{"city":"Latur","state":"Maharashtra","latitude":18.4088,"longitude":76.5604,"temp":23.0,"humidity":61,"rain":0.0,"pressure":938.8,"uv_index":9.0,"wind_gusts":30.2,"aqi":69,"pm10":27.4,"pm2_5":20.1,"mosquito_risk":3,"arthritis_risk":5,"migraine_risk":7,"frizz_risk":0,"updated_at":"2026-04-06T03:06:06.789188+05:30"},{"city":"Nanded","state":"Maharashtra","latitude":19.1383,"longitude":77.3091,"temp":24.4,"humidity":61,"rain":0.0,"pressure":967.6,"uv_index":8.85,"wind_gusts":22.3,"aqi":78,"pm10":27.6,"pm2_5":21.1,"mosquito_risk":3,"arthritis_risk":5,"migraine_risk":7,"frizz_risk":1,"updated_at":"2026-04-06T03:06:06.789195+05:30"},{"city":"Gulbarga","state":"Karnataka","latitude":17.3297,"longitude":76.8343,"temp":27.6,"humidity":46,"rain":0.0,"pressure":957.8,"uv_index":9.05,"wind_gusts":32.4,"aqi":71,"pm10":18.2,"pm2_5":14.1,"mosquito_risk":4,"arthritis_risk":5,"migraine_risk":7,"frizz_risk":0,"updated_at":"2026-04-06T03:06:06.789201+05:30"},{"city":"Bidar","state":"Karnataka","latitude":17.9104,"longitude":77.5199,"temp":26.5,"humidity":45,"rain":0.0,"pressure":934.4,"uv_index":9.05,"wind_gusts":32.4,"aqi":91,"pm10":44.5,"pm2_5":35.5,"mosquito_risk":4,"arthritis_risk":5,"migraine_risk":7,"frizz_risk":0,"updated_at":"2026-04-06T03:06:06.789208+05:30"},{"city":"Hospet","state":"Karnataka","latitude":15.2689,"longitude":76.3909,"temp":26.2,"humidity":64,"rain":0.0,"pressure":955.3,"uv_index":9.25,"wind_gusts":33.1,"aqi":58,"pm10":20.7,"pm2_5":15.3,"mosquito_risk":7,"arthritis_risk":5,"migraine_risk":7,"frizz_risk":1,"updated_at":"2026-04-06T03:06:06.789214+05:30"},{"city":"Tirupur","state":"Tamil Nadu","latitude":11.1085,"longitude":77.3411,"temp":25.4,"humidity":88,"rain":0.0,"pressure":974.8,"uv_index":9.55,"wind_gusts":40.0,"aqi":79,"pm10":30.0,"pm2_5":27.3,"mosquito_risk":7,"arthritis_risk":5,"migraine_risk":7,"frizz_risk":1,"updated_at":"2026-04-06T03:06:06.789220+05:30"},{"city":"Alappuzha","state":"Kerala","latitude":9.4981,"longitude":76.3388,"temp":28.8,"humidity":81,"rain":0.0,"pressure":1008.8,"uv_index":5.6,"wind_gusts":36.7,"aqi":63,"pm10":29.3,"pm2_5":21.5,"mosquito_risk":7,"arthritis_risk":0,"migraine_risk":0,"frizz_risk":1,"updated_at":"2026-04-06T03:06:06.789227+05:30"},{"city":"Munnar","state":"Kerala","latitude":10.0889,"longitude":77.0595,"temp":20.3,"humidity":96,"rain":0.0,"pressure":856.5,"uv_index":7.5,"wind_gusts":36.7,"aqi":60,"pm10":20.5,"pm2_5":19.2,"mosquito_risk":3,"arthritis_risk":5,"migraine_risk":7,"frizz_risk":1,"updated_at":"2026-04-06T03:06:06.789233+05:30"},{"city":"Silchar","state":"Assam","latitude":24.8333,"longitude":92.7789,"temp":22.7,"humidity":96,"rain":0.0,"pressure":1004.2,"uv_index":8.5,"wind_gusts":26.6,"aqi":156,"pm10":82.0,"pm2_5":74.3,"mosquito_risk":3,"arthritis_risk":5,"migraine_risk":4,"frizz_risk":1,"updated_at":"2026-04-06T03:06:06.789239+05:30"},{"city":"Dibrugarh","state":"Assam","latitude":27.4728,"longitude":94.912,"temp":21.7,"humidity":91,"rain":0.0,"pressure":993.1,"uv_index":8.3,"wind_gusts":33.8,"aqi":118,"pm10":52.7,"pm2_5":36.8,"mosquito_risk":3,"arthritis_risk":5,"migraine_risk":7,"frizz_risk":1,"updated_at":"2026-04-06T03:06:06.789245+05:30"}]