[{"city":"Delhi","state":"Delhi","latitude":28.6139,"longitude":77.209,"temp":26.1,"humidity":70,"rain":0.0,"pressure":987.1,"uv_index":7.55,"wind_gusts":56.9,"aqi":114,"pm10":150.4,"pm2_5":51.9,"no2":24.7,"co":812.0,"o3":119.0,"so2":25.9,"mosquito_risk":7,"arthritis_risk":5,"migraine_risk":7,"frizz_risk":1,"updated_at":"2026-05-05T09:01:10.281310+05:30"},{"city":"Mumbai","state":"Maharashtra","latitude":19.076,"longitude":72.8777,"temp":31.0,"humidity":64,"rain":0.0,"pressure":1009.2,"uv_index":7.85,"wind_gusts":40.7,"aqi":63,"pm10":69.8,"pm2_5":24.4,"no2":10.1,"co":294.0,"o3":70.0,"so2":19.4,"mosquito_risk":3,"arthritis_risk":0,"migraine_risk":4,"frizz_risk":1,"updated_at":"2026-05-05T09:01:10.281354+05:30"},{"city":"Bangalore","state":"Karnataka","latitude":12.9716,"longitude":77.5946,"temp":25.4,"humidity":68,"rain":0.0,"pressure":913.5,"uv_index":8.5,"wind_gusts":37.1,"aqi":81,"pm10":37.1,"pm2_5":22.2,"no2":11.6,"co":541.0,"o3":81.0,"so2":6.3,"mosquito_risk":7,"arthritis_risk":5,"migraine_risk":7,"frizz_risk":1,"updated_at":"2026-05-05T09:01:10.281371+05:30"},{"city":"Hyderabad","state":"Telangana","latitude":17.385,"longitude":78.4867,"temp":30.9,"humidity":48,"rain":0.0,"pressure":954.5,"uv_index":9.25,"wind_gusts":39.2,"aqi":83,"pm10":44.8,"pm2_5":24.9,"no2":10.7,"co":525.0,"o3":107.0,"so2":8.2,"mosquito_risk":0,"arthritis_risk":5,"migraine_risk":7,"frizz_risk":1,"updated_at":"2026-05-05T09:01:10.281381+05:30"},{"city":"Chennai","state":"Tamil Nadu","latitude":13.0827,"longitude":80.2707,"temp":31.6,"humidity":65,"rain":0.0,"pressure":1007.4,"uv_index":7.45,"wind_gusts":44.6,"aqi":71,"pm10":36.7,"pm2_5":25.0,"no2":8.3,"co":474.0,"o3":100.0,"so2":13.2,"mosquito_risk":3,"arthritis_risk":5,"migraine_risk":4,"frizz_risk":1,"updated_at":"2026-05-05T09:01:10.281389+05:30"},{"city":"Kolkata","state":"West Bengal","latitude":22.5726,"longitude":88.3639,"temp":26.8,"humidity":83,"rain":0.0,"pressure":1010.2,"uv_index":8.9,"wind_gusts":45.7,"aqi":73,"pm10":18.4,"pm2_5":14.2,"no2":8.4,"co":289.0,"o3":65.0,"so2":8.1,"mosquito_risk":7,"arthritis_risk":0,"migraine_risk":4,"frizz_risk":1,"updated_at":"2026-05-05T09:01:10.281398+05:30"},{"city":"Pune","state":"Maharashtra","latitude":18.5204,"longitude":73.8567,"temp":27.7,"humidity":63,"rain":0.0,"pressure":949.3,"uv_index":8.45,"wind_gusts":46.8,"aqi":52,"pm10":43.3,"pm2_5":16.4,"no2":7.1,"co":266.0,"o3":70.0,"so2":9.5,"mosquito_risk":7,"arthritis_risk":5,"migraine_risk":7,"frizz_risk":1,"updated_at":"2026-05-05T09:01:10.281406+05:30"},{"city":"Ahmedabad","state":"Gujarat","latitude":23.0225,"longitude":72.5714,"temp":30.2,"humidity":60,"rain":0.0,"pressure":1002.8,"uv_index":8.1,"wind_gusts":29.5,"aqi":68,"pm10":47.6,"pm2_5":18.7,"no2":4.9,"co":228.0,"o3":69.0,"so2":6.5,"mosquito_risk":0,"arthritis_risk":5,"migraine_risk":4,"frizz_risk":1,"updated_at":"2026-05-05T09:01:10.281416+05:30"},{"city":"Jaipur","state":"Rajasthan","latitude":26.9124,"longitude":75.7873,"temp":27.0,"humidity":48,"rain":0.0,"pressure":962.1,"uv_index":8.1,"wind_gusts":36.4,"aqi":175,"pm10":224.9,"pm2_5":43.0,"no2":3.7,"co":344.0,"o3":121.0,"so2":5.6,"mosquito_risk":4,"arthritis_risk":5,"migraine_risk":7,"frizz_risk":0,"updated_at":"2026-05-05T09:01:10.281424+05:30"},{"city":"Lucknow","state":"Uttar Pradesh","latitude":26.8467,"longitude":80.9462,"temp":22.3,"humidity":85,"rain":0.2,"pressure":997.7,"uv_index":6.55,"wind_gusts":28.4,"aqi":90,"pm10":35.4,"pm2_5":28.6,"no2":8.4,"co":438.0,"o3":98.0,"so2":8.2,"mosquito_risk":6,"arthritis_risk":5,"migraine_risk":7,"frizz_risk":1,"updated_at":"2026-05-05T09:01:10.281432+05:30"},{"city":"Kanpur","state":"Uttar Pradesh","latitude":26.4499,"longitude":80.3319,"temp":23.9,"humidity":78,"rain":0.0,"pressure":995.5,"uv_index":8.0,"wind_gusts":33.8,"aqi":194,"pm10":77.8,"pm2_5":32.5,"no2":8.8,"co":423.0,"o3":99.0,"so2":8.3,"mosquito_risk":3,"arthritis_risk":5,"migraine_risk":7,"frizz_risk":1,"updated_at":"2026-05-05T09:01:10.281440+05:30"},{"city":"Chandigarh","state":"Chandigarh","latitude":30.7333,"longitude":76.7794,"temp":20.9,"humidity":73,"rain":0.0,"pressure":973.7,"uv_index":7.55,"wind_gusts":42.1,"aqi":82,"pm10":39.3,"pm2_5":15.8,"no2":7.3,"co":785.0,"o3":136.0,"so2":7.5,"mosquito_risk":3,"arthritis_risk":5,"migraine_risk":7,"frizz_risk":0,"updated_at":"2026-05-05T09:01:10.281466+05:30"},{"city":"Srinagar","state":"Jammu and Kashmir","latitude":34.0837,"longitude":74.7973,"temp":11.8,"humidity":81,"rain":0.0,"pressure":846.4,"uv_index":8.7,"wind_gusts":26.6,"aqi":54,"pm10":13.5,"pm2_5":10.0,"no2":4.6,"co":319.0,"o3":136.0,"so2":2.4,"mosquito_risk":3,"arthritis_risk":10,"migraine_risk":7,"frizz_risk":0,"updated_at":"2026-05-05T09:01:10.281477+05:30"},{"city":"Jammu","state":"Jammu and Kashmir","latitude":32.7266,"longitude":74.857,"temp":26.8,"humidity":40,"rain":0.0,"pressure":977.4,"uv_index":8.3,"wind_gusts":31.3,"aqi":97,"pm10":25.7,"pm2_5":16.2,"no2":9.8,"co":387.0,"o3":105.0,"so2":2.5,"mosquito_risk":4,"arthritis_risk":5,"migraine_risk":7,"frizz_risk":0,"updated_at":"2026-05-05T09:01:10.281485+05:30"},{"city":"Amritsar","state":"Punjab","latitude":31.634,"longitude":74.8723,"temp":25.5,"humidity":58,"rain":0.0,"pressure":985.2,"uv_index":8.2,"wind_gusts":33.1,"aqi":106,"pm10":63.6,"pm2_5":30.5,"no2":6.1,"co":443.0,"o3":122.0,"so2":15.1,"mosquito_risk":4,"arthritis_risk":5,"migraine_risk":7,"frizz_risk":1,"updated_at":"2026-05-05T09:01:10.281493+05:30"},{"city":"Ludhiana","state":"Punjab","latitude":30.901,"longitude":75.8573,"temp":24.5,"humidity":68,"rain":0.0,"pressure":982.8,"uv_index":7.8,"wind_gusts":37.4,"aqi":112,"pm10":46.6,"pm2_5":31.0,"no2":9.5,"co":592.0,"o3":109.0,"so2":10.4,"mosquito_risk":3,"arthritis_risk":5,"migraine_risk":7,"frizz_risk":1,"updated_at":"2026-05-05T09:01:10.281500+05:30"},{"city":"Jalandhar","state":"Punjab","latitude":31.326,"longitude":75.5762,"temp":24.9,"humidity":66,"rain":0.0,"pressure":983.9,"uv_index":7.95,"wind_gusts":41.8,"aqi":105,"pm10":65.2,"pm2_5":34.2,"no2":8.2,"co":632.0,"o3":113.0,"so2":15.3,"mosquito_risk":3,"arthritis_risk":5,"migraine_risk":7,"frizz_risk":1,"updated_at":"2026-05-05T09:01:10.281506+05:30"},{"city":"Dehradun","state":"Uttarakhand","latitude":30.6284,"longitude":78.0322,"temp":17.1,"humidity":53,"rain":0.0,"pressure":834.0,"uv_index":7.85,"wind_gusts":30.6,"aqi":56,"pm10":7.7,"pm2_5":2.7,"no2":2.3,"co":183.0,"o3":133.0,"so2":0.2,"mosquito_risk":0,"arthritis_risk":5,"migraine_risk":7,"frizz_risk":0,"updated_at":"2026-05-05T09:01:10.281516+05:30"},{"city":"Shimla","state":"Himachal Pradesh","latitude":31.1048,"longitude":77.1734,"temp":11.2,"humidity":77,"rain":0.0,"pressure":785.8,"uv_index":7.6,"wind_gusts":33.5,"aqi":68,"pm10":8.7,"pm2_5":3.7,"no2":3.0,"co":199.0,"o3":132.0,"so2":0.5,"mosquito_risk":3,"arthritis_risk":5,"migraine_risk":7,"frizz_risk":0,"updated_at":"2026-05-05T09:01:10.281523+05:30"},{"city":"Manali","state":"Himachal Pradesh","latitude":32.2396,"longitude":77.1887,"temp":14.9,"humidity":46,"rain":0.0,"pressure":820.2,"uv_index":9.3,"wind_gusts":41.8,"aqi":111,"pm10":6.3,"pm2_5":1.8,"no2":4.0,"co":191.0,"o3":149.0,"so2":0.2,"mosquito_risk":0,"arthritis_risk":5,"migraine_risk":7,"frizz_risk":0,"updated_at":"2026-05-05T09:01:10.281530+05:30"},{"city":"Gurgaon","state":"Haryana","latitude":28.4595,"longitude":77.0266,"temp":27.0,"humidity":64,"rain":0.0,"pressure":985.3,"uv_index":7.65,"wind_gusts":49.7,"aqi":686,"pm10":516.0,"pm2_5":88.5,"no2":19.5,"co":617.0,"o3":118.0,"so2":24.8,"mosquito_risk":7,"arthritis_risk":5,"migraine_risk":7,"frizz_risk":1,"updated_at":"2026-05-05T09:01:10.281536+05:30"},{"city":"Noida","state":"Uttar Pradesh","latitude":28.5355,"longitude":77.391,"temp":26.7,"humidity":66,"rain":0.0,"pressure":988.7,"uv_index":7.55,"wind_gusts":54.0,"aqi":686,"pm10":516.0,"pm2_5":88.5,"no2":19.5,"co":670.0,"o3":118.0,"so2":24.8,"mosquito_risk":7,"arthritis_risk":5,"migraine_risk":7,"frizz_risk":1,"updated_at":"2026-05-05T09:01:10.281543+05:30"},{"city":"Ghaziabad","state":"Uttar Pradesh","latitude":28.6692,"longitude":77.4538,"temp":26.7,"humidity":66,"rain":0.0,"pressure":987.1,"uv_index":7.5,"wind_gusts":61.6,"aqi":96,"pm10":129.0,"pm2_5":41.3,"no2":10.2,"co":439.0,"o3":116.0,"so2":13.9,"mosquito_risk":7,"arthritis_risk":5,"migraine_risk":7,"frizz_risk":1,"updated_at":"2026-05-05T09:01:10.281550+05:30"},{"city":"Faridabad","state":"Haryana","latitude":28.4089,"longitude":77.3178,"temp":26.1,"humidity":70,"rain":0.0,"pressure":987.7,"uv_index":7.6,"wind_gusts":54.4,"aqi":686,"pm10":516.0,"pm2_5":88.5,"no2":19.5,"co":611.0,"o3":118.0,"so2":24.8,"mosquito_risk":7,"arthritis_risk":5,"migraine_risk":7,"frizz_risk":1,"updated_at":"2026-05-05T09:01:10.281558+05:30"},{"city":"Meerut","state":"Uttar Pradesh","latitude":28.9845,"longitude":77.7064,"temp":25.8,"humidity":70,"rain":0.0,"pressure":985.9,"uv_index":7.45,"wind_gusts":43.2,"aqi":96,"pm10":129.0,"pm2_5":41.3,"no2":10.2,"co":503.0,"o3":116.0,"so2":13.9,"mosquito_risk":7,"arthritis_risk":5,"migraine_risk":7,"frizz_risk":1,"updated_at":"2026-05-05T09:01:10.281565+05:30"},{"city":"Agra","state":"Uttar Pradesh","latitude":27.1767,"longitude":78.0081,"temp":26.4,"humidity":68,"rain":0.0,"pressure":991.6,"uv_index":7.9,"wind_gusts":73.4,"aqi":620,"pm10":68.5,"pm2_5":38.3,"no2":7.6,"co":438.0,"o3":117.0,"so2":10.7,"mosquito_risk":7,"arthritis_risk":5,"migraine_risk":7,"frizz_risk":1,"updated_at":"2026-05-05T09:01:10.281572+05:30"},{"city":"Varanasi","state":"Uttar Pradesh","latitude":25.3176,"longitude":82.9739,"temp":25.5,"humidity":75,"rain":0.0,"pressure":1002.4,"uv_index":8.1,"wind_gusts":25.6,"aqi":145,"pm10":47.3,"pm2_5":43.1,"no2":5.8,"co":471.0,"o3":131.0,"so2":15.5,"mosquito_risk":7,"arthritis_risk":5,"migraine_risk":4,"frizz_risk":1,"updated_at":"2026-05-05T09:01:10.281579+05:30"},{"city":"Prayagraj","state":"Uttar Pradesh","latitude":25.4358,"longitude":81.8463,"temp":24.8,"humidity":77,"rain":0.1,"pressure":1000.9,"uv_index":7.95,"wind_gusts":35.6,"aqi":129,"pm10":51.5,"pm2_5":45.5,"no2":5.9,"co":440.0,"o3":124.0,"so2":10.3,"mosquito_risk":6,"arthritis_risk":5,"migraine_risk":4,"frizz_risk":1,"updated_at":"2026-05-05T09:01:10.281588+05:30"},{"city":"Gorakhpur","state":"Uttar Pradesh","latitude":26.7606,"longitude":83.3732,"temp":26.5,"humidity":67,"rain":0.0,"pressure":1002.6,"uv_index":7.0,"wind_gusts":23.4,"aqi":73,"pm10":40.5,"pm2_5":31.5,"no2":3.7,"co":409.0,"o3":134.0,"so2":5.2,"mosquito_risk":7,"arthritis_risk":5,"migraine_risk":4,"frizz_risk":1,"updated_at":"2026-05-05T09:01:10.281595+05:30"},{"city":"Bareilly","state":"Uttar Pradesh","latitude":28.367,"longitude":79.4304,"temp":24.6,"humidity":69,"rain":0.0,"pressure":991.0,"uv_index":7.8,"wind_gusts":37.4,"aqi":93,"pm10":86.4,"pm2_5":30.0,"no2":9.0,"co":383.0,"o3":109.0,"so2":7.3,"mosquito_risk":3,"arthritis_risk":5,"migraine_risk":7,"frizz_risk":1,"updated_at":"2026-05-05T09:01:10.281602+05:30"},{"city":"Aligarh","state":"Uttar Pradesh","latitude":27.8974,"longitude":78.088,"temp":26.5,"humidity":64,"rain":0.0,"pressure":989.5,"uv_index":7.7,"wind_gusts":60.5,"aqi":279,"pm10":475.9,"pm2_5":69.6,"no2":8.3,"co":410.0,"o3":112.0,"so2":23.6,"mosquito_risk":7,"arthritis_risk":5,"migraine_risk":7,"frizz_risk":1,"updated_at":"2026-05-05T09:01:10.281609+05:30"},{"city":"Moradabad","state":"Uttar Pradesh","latitude":28.8386,"longitude":78.7733,"temp":24.9,"humidity":69,"rain":0.0,"pressure":987.7,"uv_index":7.65,"wind_gusts":37.1,"aqi":105,"pm10":46.7,"pm2_5":33.9,"no2":11.2,"co":488.0,"o3":112.0,"so2":11.4,"mosquito_risk":3,"arthritis_risk":5,"migraine_risk":7,"frizz_risk":1,"updated_at":"2026-05-05T09:01:10.281615+05:30"},{"city":"Saharanpur","state":"Uttar Pradesh","latitude":29.9637,"longitude":77.546,"temp":25.2,"humidity":58,"rain":0.0,"pressure":980.3,"uv_index":7.15,"wind_gusts":33.5,"aqi":90,"pm10":36.3,"pm2_5":28.6,"no2":9.3,"co":423.0,"o3":137.0,"so2":7.6,"mosquito_risk":4,"arthritis_risk":5,"migraine_risk":7,"frizz_risk":1,"updated_at":"2026-05-05T09:01:10.281621+05:30"},{"city":"Jhansi","state":"Uttar Pradesh","latitude":25.4484,"longitude":78.5685,"temp":28.3,"humidity":63,"rain":0.0,"pressure":980.9,"uv_index":8.3,"wind_gusts":42.5,"aqi":103,"pm10":67.1,"pm2_5":43.5,"no2":3.6,"co":331.0,"o3":135.0,"so2":18.4,"mosquito_risk":7,"arthritis_risk":5,"migraine_risk":7,"frizz_risk":1,"updated_at":"2026-05-05T09:01:13.532659+05:30"},{"city":"Surat","state":"Gujarat","latitude":21.1702,"longitude":72.8311,"temp":31.9,"humidity":59,"rain":0.0,"pressure":1007.4,"uv_index":7.7,"wind_gusts":42.1,"aqi":68,"pm10":69.6,"pm2_5":27.1,"no2":16.1,"co":265.0,"o3":63.0,"so2":33.8,"mosquito_risk":0,"arthritis_risk":5,"migraine_risk":4,"frizz_risk":1,"updated_at":"2026-05-05T09:01:13.532693+05:30"},{"city":"Vadodara","state":"Gujarat","latitude":22.3072,"longitude":73.1812,"temp":31.4,"humidity":61,"rain":0.0,"pressure":1005.2,"uv_index":8.05,"wind_gusts":38.2,"aqi":63,"pm10":56.9,"pm2_5":21.3,"no2":5.7,"co":185.0,"o3":70.0,"so2":7.9,"mosquito_risk":3,"arthritis_risk":5,"migraine_risk":4,"frizz_risk":1,"updated_at":"2026-05-05T09:01:13.532705+05:30"},{"city":"Rajkot","state":"Gujarat","latitude":22.3039,"longitude":70.8022,"temp":30.0,"humidity":63,"rain":0.0,"pressure":994.4,"uv_index":7.7,"wind_gusts":51.8,"aqi":59,"pm10":62.6,"pm2_5":18.7,"no2":2.1,"co":155.0,"o3":76.0,"so2":2.3,"mosquito_risk":7,"arthritis_risk":5,"migraine_risk":7,"frizz_risk":1,"updated_at":"2026-05-05T09:01:13.532715+05:30"},{"city":"Thane","state":"Maharashtra","latitude":19.2183,"longitude":72.9781,"temp":31.2,"humidity":64,"rain":0.0,"pressure":1008.6,"uv_index":7.85,"wind_gusts":38.5,"aqi":63,"pm10":69.8,"pm2_5":24.4,"no2":10.1,"co":269.0,"o3":70.0,"so2":19.4,"mosquito_risk":3,"arthritis_risk":0,"migraine_risk":4,"frizz_risk":1,"updated_at":"2026-05-05T09:01:13.532724+05:30"},{"city":"Nagpur","state":"Maharashtra","latitude":21.1458,"longitude":79.0882,"temp":34.2,"humidity":20,"rain":0.0,"pressure":973.9,"uv_index":8.9,"wind_gusts":41.8,"aqi":83,"pm10":38.8,"pm2_5":30.4,"no2":13.0,"co":300.0,"o3":131.0,"so2":22.1,"mosquito_risk":0,"arthritis_risk":5,"migraine_risk":7,"frizz_risk":0,"updated_at":"2026-05-05T09:01:13.532733+05:30"},{"city":"Nashik","state":"Maharashtra","latitude":19.9975,"longitude":73.7898,"temp":28.0,"humidity":62,"rain":0.0,"pressure":946.8,"uv_index":8.2,"wind_gusts":44.6,"aqi":57,"pm10":45.5,"pm2_5":19.1,"no2":7.8,"co":188.0,"o3":64.0,"so2":8.2,"mosquito_risk":7,"arthritis_risk":5,"migraine_risk":7,"frizz_risk":1,"updated_at":"2026-05-05T09:01:13.532742+05:30"},{"city":"Aurangabad","state":"Maharashtra","latitude":19.8762,"longitude":75.3433,"temp":30.2,"humidity":38,"rain":0.0,"pressure":945.7,"uv_index":9.05,"wind_gusts":31.7,"aqi":59,"pm10":52.9,"pm2_5":19.8,"no2":7.4,"co":224.0,"o3":72.0,"so2":11.9,"mosquito_risk":0,"arthritis_risk":5,"migraine_risk":7,"frizz_risk":0,"updated_at":"2026-05-05T09:01:13.532751+05:30"},{"city":"Solapur","state":"Maharashtra","latitude":17.6599,"longitude":75.9064,"temp":30.9,"humidity":39,"rain":0.0,"pressure":958.7,"uv_index":9.1,"wind_gusts":42.8,"aqi":52,"pm10":36.7,"pm2_5":13.3,"no2":4.3,"co":202.0,"o3":75.0,"so2":4.5,"mosquito_risk":0,"arthritis_risk":5,"migraine_risk":7,"frizz_risk":0,"updated_at":"2026-05-05T09:01:13.532759+05:30"},{"city":"Kolhapur","state":"Maharashtra","latitude":16.705,"longitude":74.2433,"temp":27.9,"humidity":65,"rain":0.0,"pressure":949.6,"uv_index":8.95,"wind_gusts":45.7,"aqi":58,"pm10":38.2,"pm2_5":17.4,"no2":5.2,"co":185.0,"o3":65.0,"so2":1.8,"mosquito_risk":7,"arthritis_risk":5,"migraine_risk":7,"frizz_risk":1,"updated_at":"2026-05-05T09:01:13.532767+05:30"},{"city":"Goa","state":"Goa","latitude":15.2993,"longitude":74.124,"temp":30.9,"humidity":67,"rain":0.0,"pressure":999.3,"uv_index":8.95,"wind_gusts":34.6,"aqi":68,"pm10":46.8,"pm2_5":20.3,"no2":2.8,"co":155.0,"o3":65.0,"so2":2.1,"mosquito_risk":3,"arthritis_risk":5,"migraine_risk":7,"frizz_risk":1,"updated_at":"2026-05-05T09:01:13.532776+05:30"},{"city":"Jodhpur","state":"Rajasthan","latitude":26.2389,"longitude":73.0243,"temp":29.8,"humidity":45,"rain":0.0,"pressure":983.4,"uv_index":8.3,"wind_gusts":47.5,"aqi":93,"pm10":115.9,"pm2_5":25.6,"no2":3.0,"co":212.0,"o3":112.0,"so2":4.2,"mosquito_risk":4,"arthritis_risk":5,"migraine_risk":7,"frizz_risk":1,"updated_at":"2026-05-05T09:01:13.532784+05:30"},{"city":"Udaipur","state":"Rajasthan","latitude":24.5854,"longitude":73.7125,"temp":25.2,"humidity":63,"rain":0.0,"pressure":947.8,"uv_index":8.75,"wind_gusts":52.6,"aqi":67,"pm10":53.7,"pm2_5":21.2,"no2":2.7,"co":234.0,"o3":110.0,"so2":7.5,"mosquito_risk":7,"arthritis_risk":5,"migraine_risk":7,"frizz_risk":1,"updated_at":"2026-05-05T09:01:13.532792+05:30"},{"city":"Kota","state":"Rajasthan","latitude":25.2138,"longitude":75.8648,"temp":28.0,"humidity":48,"rain":0.0,"pressure":980.7,"uv_index":8.3,"wind_gusts":48.6,"aqi":77,"pm10":59.6,"pm2_5":30.2,"no2":6.9,"co":343.0,"o3":115.0,"so2":25.9,"mosquito_risk":4,"arthritis_risk":5,"migraine_risk":7,"frizz_risk":0,"updated_at":"2026-05-05T09:01:13.532801+05:30"},{"city":"Bikaner","state":"Rajasthan","latitude":28.0229,"longitude":73.3119,"temp":27.9,"humidity":44,"rain":0.0,"pressure":984.1,"uv_index":8.2,"wind_gusts":26.3,"aqi":89,"pm10":44.0,"pm2_5":15.8,"no2":1.8,"co":272.0,"o3":111.0,"so2":5.1,"mosquito_risk":4,"arthritis_risk":5,"migraine_risk":7,"frizz_risk":0,"updated_at":"2026-05-05T09:01:13.532809+05:30"},{"city":"Ajmer","state":"Rajasthan","latitude":26.4499,"longitude":74.6399,"temp":27.1,"humidity":47,"rain":0.0,"pressure":956.3,"uv_index":8.2,"wind_gusts":34.6,"aqi":63,"pm10":56.2,"pm2_5":24.4,"no2":2.6,"co":261.0,"o3":115.0,"so2":9.1,"mosquito_risk":4,"arthritis_risk":5,"migraine_risk":7,"frizz_risk":0,"updated_at":"2026-05-05T09:01:13.532818+05:30"},{"city":"Gwalior","state":"Madhya Pradesh","latitude":26.2183,"longitude":78.1828,"temp":28.8,"humidity":56,"rain":0.0,"pressure":986.3,"uv_index":8.1,"wind_gusts":47.5,"aqi":108,"pm10":73.8,"pm2_5":37.3,"no2":4.0,"co":362.0,"o3":120.0,"so2":8.2,"mosquito_risk":4,"arthritis_risk":5,"migraine_risk":7,"frizz_risk":1,"updated_at":"2026-05-05T09:01:13.532827+05:30"},{"city":"Indore","state":"Madhya Pradesh","latitude":22.7196,"longitude":75.8577,"temp":29.6,"humidity":43,"rain":0.0,"pressure":950.3,"uv_index":8.6,"wind_gusts":43.9,"aqi":70,"pm10":44.0,"pm2_5":23.3,"no2":4.6,"co":291.0,"o3":108.0,"so2":8.3,"mosquito_risk":4,"arthritis_risk":5,"migraine_risk":7,"frizz_risk":0,"updated_at":"2026-05-05T09:01:13.532835+05:30"},{"city":"Bhopal","state":"Madhya Pradesh","latitude":23.2599,"longitude":77.4126,"temp":30.9,"humidity":41,"rain":0.0,"pressure":955.3,"uv_index":8.65,"wind_gusts":41.4,"aqi":62,"pm10":58.3,"pm2_5":31.5,"no2":2.6,"co":396.0,"o3":127.0,"so2":7.4,"mosquito_risk":0,"arthritis_risk":5,"migraine_risk":7,"frizz_risk":1,"updated_at":"2026-05-05T09:01:13.532842+05:30"},{"city":"Jabalpur","state":"Madhya Pradesh","latitude":23.1815,"longitude":79.9864,"temp":31.3,"humidity":42,"rain":0.0,"pressure":962.9,"uv_index":8.2,"wind_gusts":43.2,"aqi":74,"pm10":56.7,"pm2_5":38.0,"no2":4.7,"co":251.0,"o3":135.0,"so2":16.1,"mosquito_risk":0,"arthritis_risk":5,"migraine_risk":7,"frizz_risk":1,"updated_at":"2026-05-05T09:01:13.532850+05:30"},{"city":"Ujjain","state":"Madhya Pradesh","latitude":23.1765,"longitude":75.7885,"temp":28.8,"humidity":45,"rain":0.0,"pressure":955.7,"uv_index":8.55,"wind_gusts":61.6,"aqi":75,"pm10":52.3,"pm2_5":22.6,"no2":3.1,"co":284.0,"o3":111.0,"so2":6.6,"mosquito_risk":4,"arthritis_risk":5,"migraine_risk":7,"frizz_risk":0,"updated_at":"2026-05-05T09:01:13.532858+05:30"},{"city":"Visakhapatnam","state":"Andhra Pradesh","latitude":17.6868,"longitude":83.2185,"temp":31.2,"humidity":68,"rain":0.1,"pressure":1005.4,"uv_index":9.2,"wind_gusts":34.2,"aqi":85,"pm10":36.8,"pm2_5":27.9,"no2":26.2,"co":538.0,"o3":61.0,"so2":17.5,"mosquito_risk":6,"arthritis_risk":5,"migraine_risk":4,"frizz_risk":1,"updated_at":"2026-05-05T09:01:13.532867+05:30"},{"city":"Vijayawada","state":"Andhra Pradesh","latitude":16.5062,"longitude":80.648,"temp":33.0,"humidity":62,"rain":0.0,"pressure":1003.4,"uv_index":9.2,"wind_gusts":36.4,"aqi":81,"pm10":23.9,"pm2_5":17.5,"no2":3.2,"co":195.0,"o3":89.0,"so2":5.1,"mosquito_risk":3,"arthritis_risk":5,"migraine_risk":4,"frizz_risk":1,"updated_at":"2026-05-05T09:01:13.532875+05:30"},{"city":"Guntur","state":"Andhra Pradesh","latitude":16.3067,"longitude":80.4365,"temp":33.8,"humidity":58,"rain":0.0,"pressure":1004.4,"uv_index":9.2,"wind_gusts":38.5,"aqi":80,"pm10":25.3,"pm2_5":18.5,"no2":2.4,"co":200.0,"o3":94.0,"so2":2.3,"mosquito_risk":0,"arthritis_risk":5,"migraine_risk":4,"frizz_risk":1,"updated_at":"2026-05-05T09:01:13.532882+05:30"},{"city":"Nellore","state":"Andhra Pradesh","latitude":14.4426,"longitude":79.9865,"temp":32.8,"humidity":54,"rain":0.0,"pressure":1006.2,"uv_index":8.4,"wind_gusts":38.2,"aqi":75,"pm10":34.2,"pm2_5":26.2,"no2":6.3,"co":262.0,"o3":101.0,"so2":11.7,"mosquito_risk":0,"arthritis_risk":5,"migraine_risk":4,"frizz_risk":1,"updated_at":"2026-05-05T09:01:13.532890+05:30"},{"city":"Kurnool","state":"Andhra Pradesh","latitude":15.8281,"longitude":78.0373,"temp":34.3,"humidity":27,"rain":0.0,"pressure":977.7,"uv_index":9.2,"wind_gusts":41.4,"aqi":77,"pm10":38.0,"pm2_5":19.4,"no2":9.0,"co":212.0,"o3":81.0,"so2":5.2,"mosquito_risk":0,"arthritis_risk":5,"migraine_risk":7,"frizz_risk":0,"updated_at":"2026-05-05T09:01:13.532897+05:30"},{"city":"Kakinada","state":"Andhra Pradesh","latitude":16.9891,"longitude":82.2475,"temp":31.8,"humidity":67,"rain":0.0,"pressure":1008.9,"uv_index":9.15,"wind_gusts":34.6,"aqi":74,"pm10":27.2,"pm2_5":18.5,"no2":1.4,"co":209.0,"o3":93.0,"so2":1.2,"mosquito_risk":3,"arthritis_risk":0,"migraine_risk":4,"frizz_risk":1,"updated_at":"2026-05-05T09:01:13.532904+05:30"},{"city":"Tirupati","state":"Andhra Pradesh","latitude":13.6288,"longitude":79.4192,"temp":31.9,"humidity":49,"rain":0.0,"pressure":992.1,"uv_index":8.1,"wind_gusts":33.8,"aqi":103,"pm10":48.9,"pm2_5":35.4,"no2":7.3,"co":301.0,"o3":117.0,"so2":9.6,"mosquito_risk":0,"arthritis_risk":5,"migraine_risk":7,"frizz_risk":1,"updated_at":"2026-05-05T09:01:13.532911+05:30"},{"city":"Warangal","state":"Telangana","latitude":17.9689,"longitude":79.5941,"temp":32.0,"humidity":58,"rain":0.0,"pressure":980.0,"uv_index":9.05,"wind_gusts":47.5,"aqi":86,"pm10":31.7,"pm2_5":23.3,"no2":4.8,"co":222.0,"o3":100.0,"so2":7.9,"mosquito_risk":0,"arthritis_risk":5,"migraine_risk":7,"frizz_risk":1,"updated_at":"2026-05-05T09:01:13.532917+05:30"},{"city":"Nizamabad","state":"Telangana","latitude":18.6725,"longitude":78.0941,"temp":33.2,"humidity":24,"rain":0.0,"pressure":965.9,"uv_index":9.1,"wind_gusts":36.4,"aqi":90,"pm10":41.1,"pm2_5":29.0,"no2":12.2,"co":290.0,"o3":107.0,"so2":9.0,"mosquito_risk":0,"arthritis_risk":5,"migraine_risk":7,"frizz_risk":0,"updated_at":"2026-05-05T09:01:13.532923+05:30"},{"city":"Mysore","state":"Karnataka","latitude":12.2958,"longitude":76.6396,"temp":26.9,"humidity":66,"rain":0.0,"pressure":930.5,"uv_index":8.8,"wind_gusts":34.9,"aqi":70,"pm10":29.9,"pm2_5":14.3,"no2":4.8,"co":207.0,"o3":78.0,"so2":1.6,"mosquito_risk":7,"arthritis_risk":5,"migraine_risk":7,"frizz_risk":1,"updated_at":"2026-05-05T09:01:13.532930+05:30"},{"city":"Mangalore","state":"Karnataka","latitude":12.9141,"longitude":74.856,"temp":30.9,"humidity":65,"rain":0.0,"pressure":1007.8,"uv_index":7.25,"wind_gusts":47.5,"aqi":64,"pm10":45.8,"pm2_5":17.8,"no2":3.5,"co":200.0,"o3":65.0,"so2":2.2,"mosquito_risk":3,"arthritis_risk":5,"migraine_risk":4,"frizz_risk":1,"updated_at":"2026-05-05T09:01:13.532936+05:30"},{"city":"Hubli-Dharwad","state":"Karnataka","latitude":15.3647,"longitude":75.124,"temp":27.1,"humidity":64,"rain":0.0,"pressure":942.7,"uv_index":9.2,"wind_gusts":50.0,"aqi":56,"pm10":42.1,"pm2_5":16.6,"no2":3.8,"co":181.0,"o3":71.0,"so2":1.3,"mosquito_risk":7,"arthritis_risk":5,"migraine_risk":7,"frizz_risk":1,"updated_at":"2026-05-05T09:01:13.532943+05:30"},{"city":"Belgaum","state":"Karnataka","latitude":15.8497,"longitude":74.4977,"temp":26.5,"humidity":59,"rain":0.0,"pressure":927.7,"uv_index":9.2,"wind_gusts":46.8,"aqi":58,"pm10":45.8,"pm2_5":16.4,"no2":3.5,"co":165.0,"o3":72.0,"so2":2.0,"mosquito_risk":4,"arthritis_risk":5,"migraine_risk":7,"frizz_risk":1,"updated_at":"2026-05-05T09:01:16.792214+05:30"},{"city":"Coimbatore","state":"Tamil Nadu","latitude":11.0168,"longitude":76.9558,"temp":26.0,"humidity":76,"rain":0.0,"pressure":962.7,"uv_index":9.35,"wind_gusts":46.1,"aqi":61,"pm10":21.7,"pm2_5":10.4,"no2":4.3,"co":283.0,"o3":80.0,"so2":2.7,"mosquito_risk":7,"arthritis_risk":5,"migraine_risk":7,"frizz_risk":1,"updated_at":"2026-05-05T09:01:16.792242+05:30"},{"city":"Madurai","state":"Tamil Nadu","latitude":9.9252,"longitude":78.1198,"temp":33.3,"humidity":43,"rain":0.0,"pressure":993.7,"uv_index":3.55,"wind_gusts":29.2,"aqi":86,"pm10":45.2,"pm2_5":27.5,"no2":9.3,"co":342.0,"o3":123.0,"so2":8.0,"mosquito_risk":0,"arthritis_risk":5,"migraine_risk":3,"frizz_risk":1,"updated_at":"2026-05-05T09:01:16.792252+05:30"},{"city":"Trichy","state":"Tamil Nadu","latitude":10.7905,"longitude":78.7047,"temp":31.5,"humidity":56,"rain":0.0,"pressure":1000.3,"uv_index":8.75,"wind_gusts":42.5,"aqi":87,"pm10":29.0,"pm2_5":18.8,"no2":7.1,"co":212.0,"o3":93.0,"so2":6.5,"mosquito_risk":0,"arthritis_risk":5,"migraine_risk":4,"frizz_risk":1,"updated_at":"2026-05-05T09:01:16.792261+05:30"},{"city":"Salem","state":"Tamil Nadu","latitude":11.6643,"longitude":78.146,"temp":29.6,"humidity":50,"rain":0.0,"pressure":978.5,"uv_index":9.3,"wind_gusts":35.3,"aqi":87,"pm10":57.7,"pm2_5":29.2,"no2":11.1,"co":266.0,"o3":105.0,"so2":15.9,"mosquito_risk":4,"arthritis_risk":5,"migraine_risk":7,"frizz_risk":1,"updated_at":"2026-05-05T09:01:16.792268+05:30"},{"city":"Tirunelveli","state":"Tamil Nadu","latitude":8.7139,"longitude":77.7567,"temp":33.8,"humidity":46,"rain":0.0,"pressure":1003.6,"uv_index":3.75,"wind_gusts":41.4,"aqi":80,"pm10":49.2,"pm2_5":19.6,"no2":5.1,"co":220.0,"o3":68.0,"so2":1.6,"mosquito_risk":0,"arthritis_risk":5,"migraine_risk":0,"frizz_risk":1,"updated_at":"2026-05-05T09:01:16.792276+05:30"},{"city":"Vellore","state":"Tamil Nadu","latitude":12.9165,"longitude":79.1325,"temp":30.3,"humidity":52,"rain":0.0,"pressure":985.3,"uv_index":7.6,"wind_gusts":32.4,"aqi":112,"pm10":66.4,"pm2_5":37.3,"no2":6.1,"co":267.0,"o3":129.0,"so2":9.4,"mosquito_risk":0,"arthritis_risk":5,"migraine_risk":7,"frizz_risk":1,"updated_at":"2026-05-05T09:01:16.792283+05:30"},{"city":"Erode","state":"Tamil Nadu","latitude":11.341,"longitude":77.7172,"temp":31.2,"humidity":52,"rain":0.0,"pressure":990.0,"uv_index":9.25,"wind_gusts":47.9,"aqi":73,"pm10":30.0,"pm2_5":17.1,"no2":8.7,"co":310.0,"o3":85.0,"so2":3.6,"mosquito_risk":0,"arthritis_risk":5,"migraine_risk":7,"frizz_risk":1,"updated_at":"2026-05-05T09:01:16.792290+05:30"},{"city":"Kochi","state":"Kerala","latitude":9.9312,"longitude":76.2673,"temp":27.8,"humidity":82,"rain":0.0,"pressure":1009.6,"uv_index":6.1,"wind_gusts":34.2,"aqi":77,"pm10":29.9,"pm2_5":16.1,"no2":9.2,"co":276.0,"o3":66.0,"so2":3.1,"mosquito_risk":7,"arthritis_risk":0,"migraine_risk":4,"frizz_risk":1,"updated_at":"2026-05-05T09:01:16.792298+05:30"},{"city":"Thiruvananthapuram","state":"Kerala","latitude":8.5241,"longitude":76.9366,"temp":29.8,"humidity":69,"rain":0.0,"pressure":1008.9,"uv_index":7.5,"wind_gusts":39.2,"aqi":75,"pm10":46.8,"pm2_5":20.7,"no2":6.4,"co":241.0,"o3":74.0,"so2":4.0,"mosquito_risk":7,"arthritis_risk":0,"migraine_risk":4,"frizz_risk":1,"updated_at":"2026-05-05T09:01:16.792305+05:30"},{"city":"Kozhikode","state":"Kerala","latitude":11.2588,"longitude":75.7804,"temp":28.1,"humidity":80,"rain":0.0,"pressure":1009.0,"uv_index":8.8,"wind_gusts":41.0,"aqi":63,"pm10":39.8,"pm2_5":14.3,"no2":1.5,"co":250.0,"o3":76.0,"so2":1.4,"mosquito_risk":7,"arthritis_risk":0,"migraine_risk":4,"frizz_risk":1,"updated_at":"2026-05-05T09:01:16.792312+05:30"},{"city":"Thrissur","state":"Kerala","latitude":10.5276,"longitude":76.2144,"temp":28.3,"humidity":77,"rain":0.0,"pressure":1008.0,"uv_index":6.15,"wind_gusts":31.7,"aqi":72,"pm10":26.3,"pm2_5":13.9,"no2":6.7,"co":280.0,"o3":66.0,"so2":2.0,"mosquito_risk":7,"arthritis_risk":0,"migraine_risk":4,"frizz_risk":1,"updated_at":"2026-05-05T09:01:16.792319+05:30"},{"city":"Kannur","state":"Kerala","latitude":11.8745,"longitude":75.3704,"temp":30.0,"humidity":68,"rain":0.0,"pressure":1008.3,"uv_index":8.45,"wind_gusts":43.6,"aqi":65,"pm10":48.0,"pm2_5":19.0,"no2":4.4,"co":221.0,"o3":63.0,"so2":2.3,"mosquito_risk":7,"arthritis_risk":0,"migraine_risk":4,"frizz_risk":1,"updated_at":"2026-05-05T09:01:16.792326+05:30"},{"city":"Patna","state":"Bihar","latitude":25.5941,"longitude":85.1376,"temp":26.6,"humidity":74,"rain":0.0,"pressure":1005.1,"uv_index":8.7,"wind_gusts":29.9,"aqi":127,"pm10":44.1,"pm2_5":40.4,"no2":8.6,"co":350.0,"o3":110.0,"so2":14.2,"mosquito_risk":7,"arthritis_risk":5,"migraine_risk":4,"frizz_risk":1,"updated_at":"2026-05-05T09:01:16.792333+05:30"},{"city":"Gaya","state":"Bihar","latitude":24.7914,"longitude":85.0002,"temp":28.3,"humidity":62,"rain":0.0,"pressure":997.9,"uv_index":8.75,"wind_gusts":34.2,"aqi":111,"pm10":35.3,"pm2_5":31.9,"no2":6.7,"co":373.0,"o3":105.0,"so2":15.9,"mosquito_risk":7,"arthritis_risk":5,"migraine_risk":7,"frizz_risk":1,"updated_at":"2026-05-05T09:01:16.792339+05:30"},{"city":"Muzaffarpur","state":"Bihar","latitude":26.1209,"longitude":85.3647,"temp":27.4,"humidity":68,"rain":0.0,"pressure":1005.2,"uv_index":8.1,"wind_gusts":26.6,"aqi":112,"pm10":45.3,"pm2_5":39.5,"no2":6.7,"co":347.0,"o3":118.0,"so2":10.0,"mosquito_risk":7,"arthritis_risk":5,"migraine_risk":4,"frizz_risk":1,"updated_at":"2026-05-05T09:01:16.792346+05:30"},{"city":"Bhagalpur","state":"Bihar","latitude":25.2425,"longitude":87.0117,"temp":27.8,"humidity":65,"rain":0.0,"pressure":1006.1,"uv_index":8.7,"wind_gusts":22.0,"aqi":122,"pm10":34.0,"pm2_5":29.8,"no2":10.5,"co":289.0,"o3":98.0,"so2":10.4,"mosquito_risk":7,"arthritis_risk":5,"migraine_risk":4,"frizz_risk":1,"updated_at":"2026-05-05T09:01:16.792353+05:30"},{"city":"Ranchi","state":"Jharkhand","latitude":23.3441,"longitude":85.3096,"temp":26.9,"humidity":65,"rain":0.0,"pressure":941.1,"uv_index":9.25,"wind_gusts":26.6,"aqi":95,"pm10":41.2,"pm2_5":29.3,"no2":3.5,"co":287.0,"o3":151.0,"so2":18.3,"mosquito_risk":7,"arthritis_risk":5,"migraine_risk":7,"frizz_risk":1,"updated_at":"2026-05-05T09:01:16.792360+05:30"},{"city":"Jamshedpur","state":"Jharkhand","latitude":22.8046,"longitude":86.2029,"temp":28.1,"humidity":66,"rain":0.0,"pressure":994.6,"uv_index":9.05,"wind_gusts":37.4,"aqi":91,"pm10":28.9,"pm2_5":24.3,"no2":13.4,"co":707.0,"o3":94.0,"so2":25.1,"mosquito_risk":7,"arthritis_risk":5,"migraine_risk":7,"frizz_risk":1,"updated_at":"2026-05-05T09:01:16.792367+05:30"},{"city":"Dhanbad","state":"Jharkhand","latitude":23.7957,"longitude":86.4304,"temp":26.8,"humidity":76,"rain":0.0,"pressure":983.8,"uv_index":9.0,"wind_gusts":28.8,"aqi":143,"pm10":46.7,"pm2_5":39.6,"no2":37.8,"co":403.0,"o3":79.0,"so2":74.1,"mosquito_risk":7,"arthritis_risk":5,"migraine_risk":7,"frizz_risk":1,"updated_at":"2026-05-05T09:01:16.792373+05:30"},{"city":"Bokaro","state":"Jharkhand","latitude":23.6693,"longitude":86.1511,"temp":27.5,"humidity":70,"rain":0.0,"pressure":987.6,"uv_index":9.0,"wind_gusts":28.4,"aqi":151,"pm10":57.5,"pm2_5":47.0,"no2":38.9,"co":839.0,"o3":84.0,"so2":81.7,"mosquito_risk":7,"arthritis_risk":5,"migraine_risk":7,"frizz_risk":1,"updated_at":"2026-05-05T09:01:16.792380+05:30"},{"city":"Bhubaneswar","state":"Odisha","latitude":20.2961,"longitude":85.8245,"temp":30.0,"humidity":71,"rain":0.0,"pressure":1005.5,"uv_index":9.1,"wind_gusts":37.4,"aqi":63,"pm10":16.8,"pm2_5":11.8,"no2":3.8,"co":260.0,"o3":77.0,"so2":3.8,"mosquito_risk":7,"arthritis_risk":5,"migraine_risk":4,"frizz_risk":1,"updated_at":"2026-05-05T09:01:16.792387+05:30"},{"city":"Cuttack","state":"Odisha","latitude":20.4625,"longitude":85.8828,"temp":29.7,"humidity":73,"rain":0.0,"pressure":1007.4,"uv_index":9.15,"wind_gusts":38.5,"aqi":63,"pm10":16.8,"pm2_5":11.8,"no2":3.8,"co":231.0,"o3":77.0,"so2":3.8,"mosquito_risk":7,"arthritis_risk":5,"migraine_risk":4,"frizz_risk":1,"updated_at":"2026-05-05T09:01:16.792393+05:30"},{"city":"Rourkela","state":"Odisha","latitude":22.2604,"longitude":84.8536,"temp":28.2,"humidity":67,"rain":0.0,"pressure":988.0,"uv_index":8.95,"wind_gusts":34.2,"aqi":102,"pm10":38.6,"pm2_5":32.2,"no2":6.6,"co":446.0,"o3":138.0,"so2":60.0,"mosquito_risk":7,"arthritis_risk":5,"migraine_risk":7,"frizz_risk":1,"updated_at":"2026-05-05T09:01:16.792400+05:30"},{"city":"Raipur","state":"Chhattisgarh","latitude":21.2514,"longitude":81.6296,"temp":33.0,"humidity":43,"rain":0.0,"pressure":976.5,"uv_index":8.95,"wind_gusts":50.0,"aqi":105,"pm10":51.9,"pm2_5":40.5,"no2":15.9,"co":292.0,"o3":113.0,"so2":9.2,"mosquito_risk":0,"arthritis_risk":5,"migraine_risk":7,"frizz_risk":1,"updated_at":"2026-05-05T09:01:16.792406+05:30"},{"city":"Bhilai","state":"Chhattisgarh","latitude":21.1938,"longitude":81.3509,"temp":32.4,"humidity":43,"rain":0.0,"pressure":977.1,"uv_index":8.95,"wind_gusts":50.4,"aqi":108,"pm10":63.1,"pm2_5":49.7,"no2":33.0,"co":994.0,"o3":102.0,"so2":11.6,"mosquito_risk":0,"arthritis_risk":5,"migraine_risk":7,"frizz_risk":1,"updated_at":"2026-05-05T09:01:16.792413+05:30"},{"city":"Guwahati","state":"Assam","latitude":26.1158,"longitude":91.7086,"temp":23.7,"humidity":85,"rain":0.0,"pressure":1006.8,"uv_index":8.65,"wind_gusts":25.2,"aqi":80,"pm10":26.5,"pm2_5":18.6,"no2":1.8,"co":340.0,"o3":116.0,"so2":1.6,"mosquito_risk":3,"arthritis_risk":5,"migraine_risk":4,"frizz_risk":1,"updated_at":"2026-05-05T09:01:16.792419+05:30"},{"city":"Agartala","state":"Tripura","latitude":23.8315,"longitude":91.2868,"temp":27.4,"humidity":77,"rain":0.0,"pressure":1009.9,"uv_index":8.7,"wind_gusts":25.9,"aqi":127,"pm10":41.1,"pm2_5":32.0,"no2":4.2,"co":235.0,"o3":133.0,"so2":3.3,"mosquito_risk":7,"arthritis_risk":0,"migraine_risk":4,"frizz_risk":1,"updated_at":"2026-05-05T09:01:16.792426+05:30"},{"city":"Shillong","state":"Meghalaya","latitude":25.5788,"longitude":91.8933,"temp":19.7,"humidity":75,"rain":0.0,"pressure":861.0,"uv_index":9.05,"wind_gusts":25.6,"aqi":53,"pm10":36.1,"pm2_5":16.9,"no2":1.3,"co":258.0,"o3":129.0,"so2":1.2,"mosquito_risk":3,"arthritis_risk":5,"migraine_risk":7,"frizz_risk":0,"updated_at":"2026-05-05T09:01:16.792433+05:30"},{"city":"Imphal","state":"Manipur","latitude":24.817,"longitude":93.9368,"temp":23.5,"humidity":73,"rain":0.0,"pressure":927.7,"uv_index":9.2,"wind_gusts":32.0,"aqi":91,"pm10":41.8,"pm2_5":22.4,"no2":1.3,"co":268.0,"o3":116.0,"so2":2.1,"mosquito_risk":3,"arthritis_risk":5,"migraine_risk":7,"frizz_risk":1,"updated_at":"2026-05-05T09:01:16.792440+05:30"},{"city":"Aizawl","state":"Mizoram","latitude":23.7271,"longitude":92.7176,"temp":23.8,"humidity":60,"rain":0.0,"pressure":897.0,"uv_index":9.05,"wind_gusts":27.7,"aqi":73,"pm10":39.2,"pm2_5":20.1,"no2":0.9,"co":209.0,"o3":106.0,"so2":1.2,"mosquito_risk":0,"arthritis_risk":5,"migraine_risk":7,"frizz_risk":0,"updated_at":"2026-05-05T09:01:16.792447+05:30"},{"city":"Kohima","state":"Nagaland","latitude":25.6701,"longitude":94.1077,"temp":21.8,"humidity":71,"rain":0.0,"pressure":859.7,"uv_index":9.15,"wind_gusts":32.0,"aqi":66,"pm10":38.8,"pm2_5":19.1,"no2":0.7,"co":222.0,"o3":114.0,"so2":1.5,"mosquito_risk":3,"arthritis_risk":5,"migraine_risk":7,"frizz_risk":1,"updated_at":"2026-05-05T09:01:16.792474+05:30"},{"city":"Gangtok","state":"Sikkim","latitude":27.3314,"longitude":88.6138,"temp":18.1,"humidity":71,"rain":0.0,"pressure":841.8,"uv_index":9.0,"wind_gusts":42.1,"aqi":60,"pm10":26.7,"pm2_5":15.4,"no2":2.2,"co":259.0,"o3":123.0,"so2":0.6,"mosquito_risk":3,"arthritis_risk":5,"migraine_risk":7,"frizz_risk":0,"updated_at":"2026-05-05T09:01:16.792482+05:30"},{"city":"Siliguri","state":"West Bengal","latitude":26.7271,"longitude":88.3953,"temp":26.5,"humidity":71,"rain":0.0,"pressure":997.7,"uv_index":8.55,"wind_gusts":21.2,"aqi":80,"pm10":42.4,"pm2_5":25.7,"no2":4.1,"co":415.0,"o3":129.0,"so2":1.8,"mosquito_risk":7,"arthritis_risk":5,"migraine_risk":7,"frizz_risk":1,"updated_at":"2026-05-05T09:01:20.035236+05:30"},{"city":"Durgapur","state":"West Bengal","latitude":23.5204,"longitude":87.3119,"temp":26.5,"humidity":77,"rain":0.0,"pressure":999.5,"uv_index":8.95,"wind_gusts":28.4,"aqi":111,"pm10":28.6,"pm2_5":26.8,"no2":26.2,"co":338.0,"o3":56.0,"so2":43.7,"mosquito_risk":7,"arthritis_risk":5,"migraine_risk":7,"frizz_risk":1,"updated_at":"2026-05-05T09:01:20.035266+05:30"},{"city":"Asansol","state":"West Bengal","latitude":23.6739,"longitude":86.9524,"temp":27.6,"humidity":71,"rain":0.0,"pressure":998.0,"uv_index":8.95,"wind_gusts":32.0,"aqi":118,"pm10":29.1,"pm2_5":26.0,"no2":27.6,"co":329.0,"o3":72.0,"so2":53.6,"mosquito_risk":7,"arthritis_risk":5,"migraine_risk":7,"frizz_risk":1,"updated_at":"2026-05-05T09:01:20.035277+05:30"},{"city":"Pondicherry","state":"Puducherry","latitude":11.9139,"longitude":79.8145,"temp":30.0,"humidity":81,"rain":0.0,"pressure":1008.8,"uv_index":9.15,"wind_gusts":36.0,"aqi":75,"pm10":32.4,"pm2_5":20.0,"no2":5.8,"co":355.0,"o3":94.0,"so2":5.1,"mosquito_risk":7,"arthritis_risk":0,"migraine_risk":4,"frizz_risk":1,"updated_at":"2026-05-05T09:01:20.035286+05:30"},{"city":"Port Blair","state":"Andaman and Nicobar Islands","latitude":11.6234,"longitude":92.7265,"temp":29.9,"humidity":70,"rain":0.0,"pressure":1009.4,"uv_index":8.6,"wind_gusts":37.4,"aqi":27,"pm10":7.2,"pm2_5":5.4,"no2":0.5,"co":152.0,"o3":62.0,"so2":0.1,"mosquito_risk":7,"arthritis_risk":0,"migraine_risk":4,"frizz_risk":1,"updated_at":"2026-05-05T09:01:20.035294+05:30"},{"city":"Haridwar","state":"Uttarakhand","latitude":29.9457,"longitude":78.1642,"temp":25.8,"humidity":55,"rain":0.0,"pressure":978.0,"uv_index":7.35,"wind_gusts":24.1,"aqi":74,"pm10":15.9,"pm2_5":12.8,"no2":5.2,"co":221.0,"o3":123.0,"so2":3.4,"mosquito_risk":4,"arthritis_risk":5,"migraine_risk":7,"frizz_risk":1,"updated_at":"2026-05-05T09:01:20.035302+05:30"},{"city":"Rishikesh","state":"Uttarakhand","latitude":30.0869,"longitude":78.2676,"temp":24.7,"humidity":51,"rain":0.0,"pressure":970.6,"uv_index":7.45,"wind_gusts":32.8,"aqi":60,"pm10":6.5,"pm2_5":3.7,"no2":2.0,"co":199.0,"o3":132.0,"so2":0.9,"mosquito_risk":0,"arthritis_risk":5,"migraine_risk":7,"frizz_risk":0,"updated_at":"2026-05-05T09:01:20.035309+05:30"},{"city":"Nainital","state":"Uttarakhand","latitude":29.3919,"longitude":79.4542,"temp":15.5,"humidity":56,"rain":0.0,"pressure":808.7,"uv_index":7.8,"wind_gusts":29.5,"aqi":58,"pm10":11.2,"pm2_5":5.9,"no2":2.1,"co":189.0,"o3":134.0,"so2":2.0,"mosquito_risk":0,"arthritis_risk":5,"migraine_risk":7,"frizz_risk":0,"updated_at":"2026-05-05T09:01:20.035317+05:30"},{"city":"Mussoorie","state":"Uttarakhand","latitude":30.4599,"longitude":78.0664,"temp":15.2,"humidity":57,"rain":0.0,"pressure":806.0,"uv_index":7.6,"wind_gusts":35.3,"aqi":70,"pm10":13.3,"pm2_5":7.5,"no2":4.3,"co":191.0,"o3":138.0,"so2":4.1,"mosquito_risk":0,"arthritis_risk":5,"migraine_risk":7,"frizz_risk":0,"updated_at":"2026-05-05T09:01:20.035324+05:30"},{"city":"Dharamshala","state":"Himachal Pradesh","latitude":32.219,"longitude":76.3234,"temp":19.3,"humidity":48,"rain":0.0,"pressure":871.8,"uv_index":8.2,"wind_gusts":38.2,"aqi":50,"pm10":24.3,"pm2_5":6.0,"no2":1.0,"co":218.0,"o3":149.0,"so2":0.5,"mosquito_risk":0,"arthritis_risk":5,"migraine_risk":7,"frizz_risk":0,"updated_at":"2026-05-05T09:01:20.035331+05:30"},{"city":"Dalhousie","state":"Himachal Pradesh","latitude":32.5387,"longitude":75.971,"temp":15.2,"humidity":53,"rain":0.0,"pressure":807.3,"uv_index":8.45,"wind_gusts":41.8,"aqi":76,"pm10":51.1,"pm2_5":13.5,"no2":3.3,"co":258.0,"o3":148.0,"so2":1.3,"mosquito_risk":0,"arthritis_risk":5,"migraine_risk":7,"frizz_risk":0,"updated_at":"2026-05-05T09:01:20.035339+05:30"},{"city":"Patiala","state":"Punjab","latitude":30.3398,"longitude":76.3869,"temp":24.8,"humidity":54,"rain":0.0,"pressure":982.4,"uv_index":7.45,"wind_gusts":66.6,"aqi":237,"pm10":249.6,"pm2_5":39.7,"no2":6.1,"co":359.0,"o3":115.0,"so2":6.7,"mosquito_risk":0,"arthritis_risk":5,"migraine_risk":7,"frizz_risk":0,"updated_at":"2026-05-05T09:01:20.035346+05:30"},{"city":"Bhatinda","state":"Punjab","latitude":30.211,"longitude":74.9455,"temp":27.1,"humidity":54,"rain":0.0,"pressure":987.6,"uv_index":8.1,"wind_gusts":30.2,"aqi":569,"pm10":312.0,"pm2_5":72.4,"no2":6.0,"co":337.0,"o3":120.0,"so2":11.6,"mosquito_risk":4,"arthritis_risk":5,"migraine_risk":7,"frizz_risk":1,"updated_at":"2026-05-05T09:01:20.035353+05:30"},{"city":"Rohtak","state":"Haryana","latitude":28.8955,"longitude":76.6066,"temp":26.6,"humidity":63,"rain":0.0,"pressure":985.7,"uv_index":7.55,"wind_gusts":59.0,"aqi":280,"pm10":271.9,"pm2_5":60.3,"no2":18.3,"co":471.0,"o3":120.0,"so2":26.7,"mosquito_risk":7,"arthritis_risk":5,"migraine_risk":7,"frizz_risk":1,"updated_at":"2026-05-05T09:01:20.035360+05:30"},{"city":"Panipat","state":"Haryana","latitude":29.3909,"longitude":76.9635,"temp":25.6,"humidity":67,"rain":0.0,"pressure":984.7,"uv_index":7.4,"wind_gusts":48.2,"aqi":681,"pm10":273.8,"pm2_5":49.9,"no2":9.7,"co":390.0,"o3":116.0,"so2":12.6,"mosquito_risk":7,"arthritis_risk":5,"migraine_risk":7,"frizz_risk":1,"updated_at":"2026-05-05T09:01:20.035366+05:30"},{"city":"Mathura","state":"Uttar Pradesh","latitude":27.4924,"longitude":77.6737,"temp":27.1,"humidity":65,"rain":0.0,"pressure":990.7,"uv_index":7.8,"wind_gusts":63.4,"aqi":578,"pm10":407.0,"pm2_5":63.8,"no2":6.8,"co":419.0,"o3":123.0,"so2":11.2,"mosquito_risk":7,"arthritis_risk":5,"migraine_risk":7,"frizz_risk":1,"updated_at":"2026-05-05T09:01:20.035373+05:30"},{"city":"Vrindavan","state":"Uttar Pradesh","latitude":27.5823,"longitude":77.7027,"temp":27.2,"humidity":63,"rain":0.0,"pressure":991.1,"uv_index":7.8,"wind_gusts":65.9,"aqi":578,"pm10":407.0,"pm2_5":63.8,"no2":6.8,"co":416.0,"o3":123.0,"so2":11.2,"mosquito_risk":7,"arthritis_risk":5,"migraine_risk":7,"frizz_risk":1,"updated_at":"2026-05-05T09:01:20.035380+05:30"},{"city":"Ayodhya","state":"Uttar Pradesh","latitude":26.7922,"longitude":82.1998,"temp":21.5,"humidity":91,"rain":0.2,"pressure":999.9,"uv_index":4.95,"wind_gusts":25.2,"aqi":79,"pm10":37.7,"pm2_5":31.5,"no2":4.8,"co":422.0,"o3":124.0,"so2":6.0,"mosquito_risk":6,"arthritis_risk":5,"migraine_risk":3,"frizz_risk":1,"updated_at":"2026-05-05T09:01:20.035387+05:30"},{"city":"Ratlam","state":"Madhya Pradesh","latitude":23.3315,"longitude":75.0367,"temp":27.0,"humidity":67,"rain":0.0,"pressure":956.6,"uv_index":8.5,"wind_gusts":45.0,"aqi":65,"pm10":45.2,"pm2_5":20.1,"no2":2.3,"co":165.0,"o3":107.0,"so2":6.8,"mosquito_risk":7,"arthritis_risk":5,"migraine_risk":7,"frizz_risk":1,"updated_at":"2026-05-05T09:01:20.035394+05:30"},{"city":"Sagar","state":"Madhya Pradesh","latitude":23.8388,"longitude":78.7378,"temp":29.5,"humidity":52,"rain":0.0,"pressure":952.0,"uv_index":8.65,"wind_gusts":35.3,"aqi":72,"pm10":60.3,"pm2_5":38.0,"no2":3.2,"co":306.0,"o3":127.0,"so2":12.9,"mosquito_risk":4,"arthritis_risk":5,"migraine_risk":7,"frizz_risk":1,"updated_at":"2026-05-05T09:01:20.035400+05:30"},{"city":"Satna","state":"Madhya Pradesh","latitude":24.6005,"longitude":80.8322,"temp":24.6,"humidity":70,"rain":0.0,"pressure":974.1,"uv_index":8.7,"wind_gusts":51.1,"aqi":120,"pm10":66.4,"pm2_5":52.5,"no2":6.2,"co":270.0,"o3":122.0,"so2":16.8,"mosquito_risk":3,"arthritis_risk":5,"migraine_risk":7,"frizz_risk":1,"updated_at":"2026-05-05T09:01:20.035407+05:30"},{"city":"Akola","state":"Maharashtra","latitude":20.7002,"longitude":77.0082,"temp":33.0,"humidity":39,"rain":0.0,"pressure":976.0,"uv_index":8.9,"wind_gusts":35.6,"aqi":55,"pm10":38.0,"pm2_5":18.3,"no2":3.7,"co":193.0,"o3":101.0,"so2":14.3,"mosquito_risk":0,"arthritis_risk":5,"migraine_risk":7,"frizz_risk":1,"updated_at":"2026-05-05T09:01:20.035414+05:30"},{"city":"Amravati","state":"Maharashtra","latitude":20.9374,"longitude":77.7796,"temp":33.7,"humidity":26,"rain":0.0,"pressure":968.5,"uv_index":8.85,"wind_gusts":37.8,"aqi":55,"pm10":36.4,"pm2_5":19.2,"no2":4.1,"co":222.0,"o3":107.0,"so2":10.2,"mosquito_risk":0,"arthritis_risk":5,"migraine_risk":7,"frizz_risk":0,"updated_at":"2026-05-05T09:01:20.035422+05:30"},{"city":"Latur","state":"Maharashtra","latitude":18.4088,"longitude":76.5604,"temp":31.8,"humidity":27,"rain":0.0,"pressure":941.6,"uv_index":9.1,"wind_gusts":38.5,"aqi":59,"pm10":59.8,"pm2_5":18.4,"no2":4.6,"co":201.0,"o3":83.0,"so2":6.5,"mosquito_risk":0,"arthritis_risk":5,"migraine_risk":7,"frizz_risk":0,"updated_at":"2026-05-05T09:01:20.035429+05:30"},{"city":"Nanded","state":"Maharashtra","latitude":19.1383,"longitude":77.3091,"temp":33.0,"humidity":32,"rain":0.0,"pressure":970.0,"uv_index":8.95,"wind_gusts":33.1,"aqi":64,"pm10":38.8,"pm2_5":18.5,"no2":4.8,"co":239.0,"o3":92.0,"so2":8.2,"mosquito_risk":0,"arthritis_risk":5,"migraine_risk":7,"frizz_risk":0,"updated_at":"2026-05-05T09:01:20.035435+05:30"},{"city":"Gulbarga","state":"Karnataka","latitude":17.3297,"longitude":76.8343,"temp":32.8,"humidity":25,"rain":0.0,"pressure":960.1,"uv_index":9.15,"wind_gusts":40.3,"aqi":52,"pm10":36.7,"pm2_5":13.2,"no2":5.3,"co":218.0,"o3":76.0,"so2":4.8,"mosquito_risk":0,"arthritis_risk":5,"migraine_risk":7,"frizz_risk":0,"updated_at":"2026-05-05T09:01:20.035442+05:30"},{"city":"Bidar","state":"Karnataka","latitude":17.9104,"longitude":77.5199,"temp":32.0,"humidity":29,"rain":0.0,"pressure":937.1,"uv_index":9.15,"wind_gusts":36.0,"aqi":60,"pm10":45.6,"pm2_5":20.7,"no2":5.9,"co":207.0,"o3":104.0,"so2":11.4,"mosquito_risk":0,"arthritis_risk":5,"migraine_risk":7,"frizz_risk":0,"updated_at":"2026-05-05T09:01:20.035448+05:30"},{"city":"Hospet","state":"Karnataka","latitude":15.2689,"longitude":76.3909,"temp":27.8,"humidity":64,"rain":0.0,"pressure":957.9,"uv_index":9.25,"wind_gusts":34.9,"aqi":61,"pm10":37.8,"pm2_5":15.9,"no2":4.8,"co":195.0,"o3":70.0,"so2":3.0,"mosquito_risk":7,"arthritis_risk":5,"migraine_risk":7,"frizz_risk":1,"updated_at":"2026-05-05T09:01:20.035475+05:30"},{"city":"Tirupur","state":"Tamil Nadu","latitude":11.1085,"longitude":77.3411,"temp":27.8,"humidity":69,"rain":0.0,"pressure":976.1,"uv_index":9.35,"wind_gusts":52.9,"aqi":72,"pm10":31.8,"pm2_5":18.0,"no2":8.5,"co":251.0,"o3":89.0,"so2":4.2,"mosquito_risk":7,"arthritis_risk":5,"migraine_risk":7,"frizz_risk":1,"updated_at":"2026-05-05T09:01:20.035482+05:30"},{"city":"Alappuzha","state":"Kerala","latitude":9.4981,"longitude":76.3388,"temp":29.3,"humidity":73,"rain":0.0,"pressure":1009.6,"uv_index":7.05,"wind_gusts":37.8,"aqi":78,"pm10":32.7,"pm2_5":17.1,"no2":8.4,"co":154.0,"o3":78.0,"so2":4.2,"mosquito_risk":7,"arthritis_risk":0,"migraine_risk":4,"frizz_risk":1,"updated_at":"2026-05-05T09:01:20.035489+05:30"},{"city":"Munnar","state":"Kerala","latitude":10.0889,"longitude":77.0595,"temp":19.7,"humidity":84,"rain":0.0,"pressure":857.9,"uv_index":8.8,"wind_gusts":19.1,"aqi":63,"pm10":16.5,"pm2_5":8.8,"no2":3.1,"co":277.0,"o3":86.0,"so2":1.1,"mosquito_risk":3,"arthritis_risk":10,"migraine_risk":7,"frizz_risk":1,"updated_at":"2026-05-05T09:01:20.035497+05:30"},{"city":"Silchar","state":"Assam","latitude":24.8333,"longitude":92.7789,"temp":28.5,"humidity":64,"rain":0.0,"pressure":1009.1,"uv_index":8.85,"wind_gusts":29.2,"aqi":94,"pm10":43.1,"pm2_5":26.7,"no2":2.0,"co":244.0,"o3":116.0,"so2":4.1,"mosquito_risk":7,"arthritis_risk":0,"migraine_risk":4,"frizz_risk":1,"updated_at":"2026-05-05T09:01:20.035504+05:30"},{"city":"Dibrugarh","state":"Assam","latitude":27.4728,"longitude":94.912,"temp":25.4,"humidity":79,"rain":0.0,"pressure":1000.3,"uv_index":8.8,"wind_gusts":34.6,"aqi":58,"pm10":14.0,"pm2_5":10.6,"no2":2.1,"co":241.0,"o3":114.0,"so2":1.1,"mosquito_risk":7,"arthritis_risk":5,"migraine_risk":4,"frizz_risk":1,"updated_at":"2026-05-05T09:01:20.035511+05:30"}]