[{"city":"Delhi","state":"Delhi","latitude":28.6139,"longitude":77.209,"temp":39.6,"humidity":18,"rain":0.0,"pressure":980.0,"uv_index":7.75,"wind_gusts":53.3,"aqi":420,"pm10":737.6,"pm2_5":109.4,"no2":3.5,"co":238.0,"o3":148.0,"so2":8.7,"mosquito_risk":0,"arthritis_risk":5,"migraine_risk":10,"frizz_risk":0,"updated_at":"2026-05-23T14:33:09.213809+05:30"},{"city":"Mumbai","state":"Maharashtra","latitude":19.076,"longitude":72.8777,"temp":32.8,"humidity":64,"rain":0.0,"pressure":1008.7,"uv_index":7.75,"wind_gusts":32.0,"aqi":51,"pm10":15.7,"pm2_5":11.6,"no2":4.5,"co":179.0,"o3":104.0,"so2":5.7,"mosquito_risk":3,"arthritis_risk":0,"migraine_risk":4,"frizz_risk":1,"updated_at":"2026-05-23T14:33:09.213850+05:30"},{"city":"Bangalore","state":"Karnataka","latitude":12.9716,"longitude":77.5946,"temp":26.0,"humidity":72,"rain":0.1,"pressure":912.8,"uv_index":6.05,"wind_gusts":43.2,"aqi":50,"pm10":36.0,"pm2_5":21.5,"no2":3.5,"co":266.0,"o3":127.0,"so2":3.5,"mosquito_risk":10,"arthritis_risk":5,"migraine_risk":7,"frizz_risk":1,"updated_at":"2026-05-23T14:33:09.213866+05:30"},{"city":"Hyderabad","state":"Telangana","latitude":17.385,"longitude":78.4867,"temp":37.3,"humidity":32,"rain":0.0,"pressure":952.2,"uv_index":9.2,"wind_gusts":59.8,"aqi":88,"pm10":29.4,"pm2_5":23.1,"no2":2.0,"co":234.0,"o3":151.0,"so2":6.5,"mosquito_risk":0,"arthritis_risk":5,"migraine_risk":10,"frizz_risk":1,"updated_at":"2026-05-23T14:33:09.213875+05:30"},{"city":"Chennai","state":"Tamil Nadu","latitude":13.0827,"longitude":80.2707,"temp":36.3,"humidity":42,"rain":0.0,"pressure":1004.6,"uv_index":6.15,"wind_gusts":43.2,"aqi":75,"pm10":42.7,"pm2_5":30.9,"no2":5.0,"co":267.0,"o3":183.0,"so2":7.5,"mosquito_risk":0,"arthritis_risk":5,"migraine_risk":7,"frizz_risk":1,"updated_at":"2026-05-23T14:33:09.213883+05:30"},{"city":"Kolkata","state":"West Bengal","latitude":22.5726,"longitude":88.3639,"temp":35.3,"humidity":62,"rain":0.0,"pressure":1000.1,"uv_index":9.0,"wind_gusts":44.6,"aqi":102,"pm10":70.1,"pm2_5":42.3,"no2":2.1,"co":277.0,"o3":120.0,"so2":6.7,"mosquito_risk":3,"arthritis_risk":5,"migraine_risk":7,"frizz_risk":1,"updated_at":"2026-05-23T14:33:09.213891+05:30"},{"city":"Pune","state":"Maharashtra","latitude":18.5204,"longitude":73.8567,"temp":28.8,"humidity":70,"rain":0.2,"pressure":949.3,"uv_index":8.4,"wind_gusts":46.4,"aqi":46,"pm10":14.4,"pm2_5":10.3,"no2":1.8,"co":174.0,"o3":103.0,"so2":4.3,"mosquito_risk":10,"arthritis_risk":5,"migraine_risk":7,"frizz_risk":1,"updated_at":"2026-05-23T14:33:09.213898+05:30"},{"city":"Ahmedabad","state":"Gujarat","latitude":23.0225,"longitude":72.5714,"temp":41.6,"humidity":21,"rain":0.0,"pressure":1000.5,"uv_index":8.15,"wind_gusts":42.5,"aqi":71,"pm10":39.6,"pm2_5":20.4,"no2":1.3,"co":157.0,"o3":96.0,"so2":2.5,"mosquito_risk":0,"arthritis_risk":5,"migraine_risk":7,"frizz_risk":0,"updated_at":"2026-05-23T14:33:09.213905+05:30"},{"city":"Jaipur","state":"Rajasthan","latitude":26.9124,"longitude":75.7873,"temp":40.7,"humidity":14,"rain":0.0,"pressure":958.1,"uv_index":8.25,"wind_gusts":51.8,"aqi":168,"pm10":368.8,"pm2_5":69.6,"no2":0.9,"co":155.0,"o3":108.0,"so2":2.6,"mosquito_risk":0,"arthritis_risk":5,"migraine_risk":10,"frizz_risk":0,"updated_at":"2026-05-23T14:33:09.213917+05:30"},{"city":"Lucknow","state":"Uttar Pradesh","latitude":26.8467,"longitude":80.9462,"temp":42.2,"humidity":15,"rain":0.0,"pressure":988.1,"uv_index":8.2,"wind_gusts":54.0,"aqi":161,"pm10":156.9,"pm2_5":40.5,"no2":1.3,"co":197.0,"o3":143.0,"so2":7.0,"mosquito_risk":0,"arthritis_risk":5,"migraine_risk":10,"frizz_risk":0,"updated_at":"2026-05-23T14:33:09.213924+05:30"},{"city":"Kanpur","state":"Uttar Pradesh","latitude":26.4499,"longitude":80.3319,"temp":42.5,"humidity":14,"rain":0.0,"pressure":987.0,"uv_index":8.25,"wind_gusts":46.8,"aqi":294,"pm10":691.0,"pm2_5":91.3,"no2":1.1,"co":186.0,"o3":133.0,"so2":4.8,"mosquito_risk":0,"arthritis_risk":5,"migraine_risk":10,"frizz_risk":0,"updated_at":"2026-05-23T14:33:09.213931+05:30"},{"city":"Chandigarh","state":"Chandigarh","latitude":30.7333,"longitude":76.7794,"temp":38.7,"humidity":17,"rain":0.0,"pressure":965.5,"uv_index":7.75,"wind_gusts":39.2,"aqi":89,"pm10":67.1,"pm2_5":24.3,"no2":1.6,"co":212.0,"o3":143.0,"so2":6.1,"mosquito_risk":0,"arthritis_risk":5,"migraine_risk":10,"frizz_risk":0,"updated_at":"2026-05-23T14:33:09.213938+05:30"},{"city":"Srinagar","state":"Jammu and Kashmir","latitude":34.0837,"longitude":74.7973,"temp":22.2,"humidity":48,"rain":0.0,"pressure":844.8,"uv_index":8.85,"wind_gusts":25.2,"aqi":70,"pm10":36.6,"pm2_5":11.6,"no2":1.6,"co":210.0,"o3":124.0,"so2":1.5,"mosquito_risk":0,"arthritis_risk":5,"migraine_risk":7,"frizz_risk":0,"updated_at":"2026-05-23T14:33:09.213944+05:30"},{"city":"Jammu","state":"Jammu and Kashmir","latitude":32.7266,"longitude":74.857,"temp":37.2,"humidity":17,"rain":0.0,"pressure":970.1,"uv_index":8.5,"wind_gusts":49.0,"aqi":84,"pm10":47.5,"pm2_5":16.1,"no2":1.3,"co":167.0,"o3":133.0,"so2":1.8,"mosquito_risk":0,"arthritis_risk":5,"migraine_risk":10,"frizz_risk":0,"updated_at":"2026-05-23T14:33:09.213951+05:30"},{"city":"Amritsar","state":"Punjab","latitude":31.634,"longitude":74.8723,"temp":38.0,"humidity":23,"rain":0.0,"pressure":977.7,"uv_index":8.4,"wind_gusts":23.8,"aqi":147,"pm10":73.8,"pm2_5":28.4,"no2":1.5,"co":208.0,"o3":156.0,"so2":5.6,"mosquito_risk":0,"arthritis_risk":5,"migraine_risk":10,"frizz_risk":0,"updated_at":"2026-05-23T14:33:09.213957+05:30"},{"city":"Ludhiana","state":"Punjab","latitude":30.901,"longitude":75.8573,"temp":39.3,"humidity":17,"rain":0.0,"pressure":975.4,"uv_index":8.0,"wind_gusts":39.2,"aqi":111,"pm10":121.5,"pm2_5":34.1,"no2":1.1,"co":221.0,"o3":131.0,"so2":3.4,"mosquito_risk":0,"arthritis_risk":5,"migraine_risk":10,"frizz_risk":0,"updated_at":"2026-05-23T14:33:09.213963+05:30"},{"city":"Jalandhar","state":"Punjab","latitude":31.326,"longitude":75.5762,"temp":39.3,"humidity":17,"rain":0.0,"pressure":976.6,"uv_index":8.15,"wind_gusts":36.7,"aqi":122,"pm10":85.7,"pm2_5":30.3,"no2":1.1,"co":210.0,"o3":139.0,"so2":3.6,"mosquito_risk":0,"arthritis_risk":5,"migraine_risk":10,"frizz_risk":0,"updated_at":"2026-05-23T14:33:09.213969+05:30"},{"city":"Dehradun","state":"Uttarakhand","latitude":30.6284,"longitude":78.0322,"temp":27.2,"humidity":23,"rain":0.0,"pressure":832.1,"uv_index":8.15,"wind_gusts":46.8,"aqi":66,"pm10":64.0,"pm2_5":18.6,"no2":0.8,"co":174.0,"o3":129.0,"so2":1.5,"mosquito_risk":4,"arthritis_risk":5,"migraine_risk":7,"frizz_risk":0,"updated_at":"2026-05-23T14:33:09.213975+05:30"},{"city":"Shimla","state":"Himachal Pradesh","latitude":31.1048,"longitude":77.1734,"temp":24.2,"humidity":18,"rain":0.0,"pressure":788.0,"uv_index":8.25,"wind_gusts":50.8,"aqi":74,"pm10":55.3,"pm2_5":18.0,"no2":0.9,"co":151.0,"o3":132.0,"so2":2.7,"mosquito_risk":0,"arthritis_risk":5,"migraine_risk":7,"frizz_risk":1,"updated_at":"2026-05-23T14:33:09.213988+05:30"},{"city":"Manali","state":"Himachal Pradesh","latitude":32.2396,"longitude":77.1887,"temp":23.2,"humidity":29,"rain":0.1,"pressure":821.2,"uv_index":9.9,"wind_gusts":47.5,"aqi":60,"pm10":39.9,"pm2_5":10.2,"no2":1.8,"co":126.0,"o3":135.0,"so2":0.4,"mosquito_risk":3,"arthritis_risk":5,"migraine_risk":7,"frizz_risk":0,"updated_at":"2026-05-23T14:33:09.213994+05:30"},{"city":"Gurgaon","state":"Haryana","latitude":28.4595,"longitude":77.0266,"temp":40.4,"humidity":16,"rain":0.0,"pressure":978.4,"uv_index":7.85,"wind_gusts":49.3,"aqi":876,"pm10":1724.8,"pm2_5":208.6,"no2":3.3,"co":223.0,"o3":140.0,"so2":7.2,"mosquito_risk":0,"arthritis_risk":5,"migraine_risk":10,"frizz_risk":0,"updated_at":"2026-05-23T14:33:09.214001+05:30"},{"city":"Noida","state":"Uttar Pradesh","latitude":28.5355,"longitude":77.391,"temp":40.6,"humidity":16,"rain":0.0,"pressure":981.2,"uv_index":7.75,"wind_gusts":51.1,"aqi":876,"pm10":1724.8,"pm2_5":208.6,"no2":3.3,"co":247.0,"o3":140.0,"so2":7.2,"mosquito_risk":0,"arthritis_risk":5,"migraine_risk":10,"frizz_risk":0,"updated_at":"2026-05-23T14:33:09.214009+05:30"},{"city":"Ghaziabad","state":"Uttar Pradesh","latitude":28.6692,"longitude":77.4538,"temp":39.8,"humidity":17,"rain":0.0,"pressure":979.6,"uv_index":7.75,"wind_gusts":60.1,"aqi":164,"pm10":620.3,"pm2_5":95.5,"no2":2.5,"co":200.0,"o3":153.0,"so2":9.6,"mosquito_risk":0,"arthritis_risk":5,"migraine_risk":10,"frizz_risk":0,"updated_at":"2026-05-23T14:33:09.214015+05:30"},{"city":"Faridabad","state":"Haryana","latitude":28.4089,"longitude":77.3178,"temp":40.7,"humidity":16,"rain":0.0,"pressure":980.6,"uv_index":7.8,"wind_gusts":54.4,"aqi":876,"pm10":1724.8,"pm2_5":208.6,"no2":3.3,"co":227.0,"o3":140.0,"so2":7.2,"mosquito_risk":0,"arthritis_risk":5,"migraine_risk":10,"frizz_risk":0,"updated_at":"2026-05-23T14:33:09.214022+05:30"},{"city":"Meerut","state":"Uttar Pradesh","latitude":28.9845,"longitude":77.7064,"temp":39.0,"humidity":19,"rain":0.1,"pressure":978.1,"uv_index":7.45,"wind_gusts":58.7,"aqi":164,"pm10":620.3,"pm2_5":95.5,"no2":2.5,"co":206.0,"o3":153.0,"so2":9.6,"mosquito_risk":3,"arthritis_risk":5,"migraine_risk":10,"frizz_risk":0,"updated_at":"2026-05-23T14:33:09.214028+05:30"},{"city":"Agra","state":"Uttar Pradesh","latitude":27.1767,"longitude":78.0081,"temp":42.1,"humidity":14,"rain":0.0,"pressure":983.8,"uv_index":8.05,"wind_gusts":46.8,"aqi":537,"pm10":925.7,"pm2_5":111.3,"no2":1.4,"co":156.0,"o3":132.0,"so2":4.5,"mosquito_risk":0,"arthritis_risk":5,"migraine_risk":10,"frizz_risk":0,"updated_at":"2026-05-23T14:33:09.214034+05:30"},{"city":"Varanasi","state":"Uttar Pradesh","latitude":25.3176,"longitude":82.9739,"temp":43.2,"humidity":14,"rain":0.0,"pressure":991.4,"uv_index":8.75,"wind_gusts":52.6,"aqi":154,"pm10":320.4,"pm2_5":70.5,"no2":1.5,"co":212.0,"o3":164.0,"so2":8.2,"mosquito_risk":0,"arthritis_risk":5,"migraine_risk":10,"frizz_risk":0,"updated_at":"2026-05-23T14:33:09.214041+05:30"},{"city":"Prayagraj","state":"Uttar Pradesh","latitude":25.4358,"longitude":81.8463,"temp":43.2,"humidity":14,"rain":0.0,"pressure":990.4,"uv_index":8.65,"wind_gusts":44.6,"aqi":150,"pm10":322.2,"pm2_5":71.9,"no2":1.4,"co":190.0,"o3":156.0,"so2":8.0,"mosquito_risk":0,"arthritis_risk":5,"migraine_risk":10,"frizz_risk":0,"updated_at":"2026-05-23T14:33:09.214047+05:30"},{"city":"Gorakhpur","state":"Uttar Pradesh","latitude":26.7606,"longitude":83.3732,"temp":40.1,"humidity":28,"rain":0.0,"pressure":990.7,"uv_index":8.65,"wind_gusts":43.9,"aqi":162,"pm10":137.8,"pm2_5":65.4,"no2":1.9,"co":348.0,"o3":200.0,"so2":11.5,"mosquito_risk":0,"arthritis_risk":5,"migraine_risk":10,"frizz_risk":1,"updated_at":"2026-05-23T14:33:09.214055+05:30"},{"city":"Bareilly","state":"Uttar Pradesh","latitude":28.367,"longitude":79.4304,"temp":39.2,"humidity":18,"rain":0.0,"pressure":982.2,"uv_index":8.05,"wind_gusts":53.6,"aqi":143,"pm10":85.0,"pm2_5":32.8,"no2":1.6,"co":197.0,"o3":161.0,"so2":6.9,"mosquito_risk":0,"arthritis_risk":5,"migraine_risk":10,"frizz_risk":0,"updated_at":"2026-05-23T14:33:09.214062+05:30"},{"city":"Aligarh","state":"Uttar Pradesh","latitude":27.8974,"longitude":78.088,"temp":40.4,"humidity":17,"rain":0.0,"pressure":982.1,"uv_index":7.85,"wind_gusts":45.7,"aqi":463,"pm10":1024.5,"pm2_5":131.8,"no2":1.9,"co":199.0,"o3":152.0,"so2":8.3,"mosquito_risk":0,"arthritis_risk":5,"migraine_risk":10,"frizz_risk":0,"updated_at":"2026-05-23T14:33:09.214070+05:30"},{"city":"Moradabad","state":"Uttar Pradesh","latitude":28.8386,"longitude":78.7733,"temp":39.5,"humidity":19,"rain":0.0,"pressure":979.5,"uv_index":7.85,"wind_gusts":60.1,"aqi":136,"pm10":92.2,"pm2_5":32.6,"no2":1.7,"co":206.0,"o3":148.0,"so2":6.1,"mosquito_risk":0,"arthritis_risk":5,"migraine_risk":10,"frizz_risk":0,"updated_at":"2026-05-23T14:33:09.214076+05:30"},{"city":"Saharanpur","state":"Uttar Pradesh","latitude":29.9637,"longitude":77.546,"temp":38.0,"humidity":20,"rain":0.0,"pressure":972.1,"uv_index":7.4,"wind_gusts":59.8,"aqi":98,"pm10":244.9,"pm2_5":49.9,"no2":2.0,"co":195.0,"o3":149.0,"so2":8.2,"mosquito_risk":0,"arthritis_risk":5,"migraine_risk":10,"frizz_risk":0,"updated_at":"2026-05-23T14:33:09.214082+05:30"},{"city":"Jhansi","state":"Uttar Pradesh","latitude":25.4484,"longitude":78.5685,"temp":42.1,"humidity":15,"rain":0.0,"pressure":974.9,"uv_index":8.5,"wind_gusts":46.8,"aqi":83,"pm10":190.0,"pm2_5":48.2,"no2":0.8,"co":133.0,"o3":121.0,"so2":4.9,"mosquito_risk":0,"arthritis_risk":5,"migraine_risk":10,"frizz_risk":0,"updated_at":"2026-05-23T14:33:12.603919+05:30"},{"city":"Surat","state":"Gujarat","latitude":21.1702,"longitude":72.8311,"temp":36.6,"humidity":48,"rain":0.0,"pressure":1006.2,"uv_index":7.6,"wind_gusts":41.4,"aqi":61,"pm10":19.4,"pm2_5":15.3,"no2":10.1,"co":309.0,"o3":66.0,"so2":35.5,"mosquito_risk":0,"arthritis_risk":5,"migraine_risk":7,"frizz_risk":1,"updated_at":"2026-05-23T14:33:12.603952+05:30"},{"city":"Vadodara","state":"Gujarat","latitude":22.3072,"longitude":73.1812,"temp":41.0,"humidity":31,"rain":0.0,"pressure":1002.5,"uv_index":8.1,"wind_gusts":42.5,"aqi":64,"pm10":28.5,"pm2_5":17.7,"no2":1.5,"co":157.0,"o3":102.0,"so2":4.4,"mosquito_risk":0,"arthritis_risk":5,"migraine_risk":7,"frizz_risk":1,"updated_at":"2026-05-23T14:33:12.603962+05:30"},{"city":"Rajkot","state":"Gujarat","latitude":22.3039,"longitude":70.8022,"temp":40.2,"humidity":35,"rain":0.0,"pressure":993.3,"uv_index":7.65,"wind_gusts":37.8,"aqi":67,"pm10":35.0,"pm2_5":20.7,"no2":0.9,"co":122.0,"o3":98.0,"so2":4.2,"mosquito_risk":0,"arthritis_risk":5,"migraine_risk":10,"frizz_risk":1,"updated_at":"2026-05-23T14:33:12.603971+05:30"},{"city":"Thane","state":"Maharashtra","latitude":19.2183,"longitude":72.9781,"temp":32.8,"humidity":64,"rain":0.0,"pressure":1008.1,"uv_index":7.75,"wind_gusts":27.0,"aqi":51,"pm10":15.7,"pm2_5":11.6,"no2":4.5,"co":170.0,"o3":104.0,"so2":5.7,"mosquito_risk":3,"arthritis_risk":0,"migraine_risk":4,"frizz_risk":1,"updated_at":"2026-05-23T14:33:12.603979+05:30"},{"city":"Nagpur","state":"Maharashtra","latitude":21.1458,"longitude":79.0882,"temp":43.0,"humidity":14,"rain":0.0,"pressure":970.2,"uv_index":8.95,"wind_gusts":56.9,"aqi":76,"pm10":36.3,"pm2_5":18.9,"no2":3.3,"co":164.0,"o3":128.0,"so2":10.3,"mosquito_risk":0,"arthritis_risk":5,"migraine_risk":10,"frizz_risk":0,"updated_at":"2026-05-23T14:33:12.603987+05:30"},{"city":"Nashik","state":"Maharashtra","latitude":19.9975,"longitude":73.7898,"temp":35.0,"humidity":45,"rain":0.0,"pressure":946.3,"uv_index":8.15,"wind_gusts":43.2,"aqi":50,"pm10":14.9,"pm2_5":9.7,"no2":1.0,"co":149.0,"o3":96.0,"so2":1.7,"mosquito_risk":0,"arthritis_risk":5,"migraine_risk":7,"frizz_risk":1,"updated_at":"2026-05-23T14:33:12.603994+05:30"},{"city":"Aurangabad","state":"Maharashtra","latitude":19.8762,"longitude":75.3433,"temp":38.2,"humidity":26,"rain":0.1,"pressure":944.1,"uv_index":9.05,"wind_gusts":45.4,"aqi":59,"pm10":28.5,"pm2_5":17.0,"no2":1.0,"co":147.0,"o3":113.0,"so2":3.1,"mosquito_risk":3,"arthritis_risk":5,"migraine_risk":10,"frizz_risk":0,"updated_at":"2026-05-23T14:33:12.604002+05:30"},{"city":"Solapur","state":"Maharashtra","latitude":17.6599,"longitude":75.9064,"temp":34.1,"humidity":44,"rain":0.0,"pressure":957.1,"uv_index":9.0,"wind_gusts":49.3,"aqi":69,"pm10":24.7,"pm2_5":17.5,"no2":1.8,"co":159.0,"o3":118.0,"so2":3.1,"mosquito_risk":0,"arthritis_risk":5,"migraine_risk":7,"frizz_risk":1,"updated_at":"2026-05-23T14:33:12.604009+05:30"},{"city":"Kolhapur","state":"Maharashtra","latitude":16.705,"longitude":74.2433,"temp":27.4,"humidity":80,"rain":0.2,"pressure":949.3,"uv_index":8.85,"wind_gusts":42.5,"aqi":41,"pm10":21.4,"pm2_5":15.1,"no2":1.9,"co":155.0,"o3":102.0,"so2":1.8,"mosquito_risk":10,"arthritis_risk":5,"migraine_risk":7,"frizz_risk":1,"updated_at":"2026-05-23T14:33:12.604017+05:30"},{"city":"Goa","state":"Goa","latitude":15.2993,"longitude":74.124,"temp":31.1,"humidity":70,"rain":0.0,"pressure":998.5,"uv_index":5.8,"wind_gusts":30.6,"aqi":34,"pm10":6.3,"pm2_5":4.3,"no2":0.6,"co":128.0,"o3":61.0,"so2":0.6,"mosquito_risk":3,"arthritis_risk":5,"migraine_risk":3,"frizz_risk":1,"updated_at":"2026-05-23T14:33:12.604024+05:30"},{"city":"Jodhpur","state":"Rajasthan","latitude":26.2389,"longitude":73.0243,"temp":41.8,"humidity":16,"rain":0.0,"pressure":981.2,"uv_index":8.4,"wind_gusts":42.8,"aqi":169,"pm10":382.8,"pm2_5":74.7,"no2":0.7,"co":131.0,"o3":105.0,"so2":3.5,"mosquito_risk":0,"arthritis_risk":5,"migraine_risk":10,"frizz_risk":0,"updated_at":"2026-05-23T14:33:12.604032+05:30"},{"city":"Udaipur","state":"Rajasthan","latitude":24.5854,"longitude":73.7125,"temp":39.2,"humidity":17,"rain":0.0,"pressure":946.6,"uv_index":8.85,"wind_gusts":39.2,"aqi":89,"pm10":120.1,"pm2_5":34.2,"no2":0.5,"co":129.0,"o3":97.0,"so2":2.1,"mosquito_risk":0,"arthritis_risk":5,"migraine_risk":10,"frizz_risk":0,"updated_at":"2026-05-23T14:33:12.604039+05:30"},{"city":"Kota","state":"Rajasthan","latitude":25.2138,"longitude":75.8648,"temp":42.5,"humidity":15,"rain":0.0,"pressure":976.6,"uv_index":8.4,"wind_gusts":50.0,"aqi":82,"pm10":112.9,"pm2_5":36.7,"no2":0.8,"co":133.0,"o3":110.0,"so2":3.7,"mosquito_risk":0,"arthritis_risk":5,"migraine_risk":10,"frizz_risk":0,"updated_at":"2026-05-23T14:33:12.604046+05:30"},{"city":"Bikaner","state":"Rajasthan","latitude":28.0229,"longitude":73.3119,"temp":43.5,"humidity":11,"rain":0.0,"pressure":978.5,"uv_index":8.35,"wind_gusts":47.2,"aqi":134,"pm10":138.8,"pm2_5":47.3,"no2":0.3,"co":147.0,"o3":105.0,"so2":3.0,"mosquito_risk":0,"arthritis_risk":5,"migraine_risk":10,"frizz_risk":0,"updated_at":"2026-05-23T14:33:12.604054+05:30"},{"city":"Ajmer","state":"Rajasthan","latitude":26.4499,"longitude":74.6399,"temp":38.7,"humidity":18,"rain":0.0,"pressure":953.8,"uv_index":8.4,"wind_gusts":51.8,"aqi":108,"pm10":150.4,"pm2_5":45.5,"no2":0.6,"co":141.0,"o3":108.0,"so2":3.2,"mosquito_risk":0,"arthritis_risk":5,"migraine_risk":10,"frizz_risk":0,"updated_at":"2026-05-23T14:33:12.604061+05:30"},{"city":"Gwalior","state":"Madhya Pradesh","latitude":26.2183,"longitude":78.1828,"temp":41.8,"humidity":14,"rain":0.0,"pressure":979.7,"uv_index":8.25,"wind_gusts":48.2,"aqi":104,"pm10":178.8,"pm2_5":46.2,"no2":0.6,"co":147.0,"o3":125.0,"so2":4.2,"mosquito_risk":0,"arthritis_risk":5,"migraine_risk":10,"frizz_risk":0,"updated_at":"2026-05-23T14:33:12.604068+05:30"},{"city":"Indore","state":"Madhya Pradesh","latitude":22.7196,"longitude":75.8577,"temp":39.6,"humidity":15,"rain":0.0,"pressure":947.8,"uv_index":8.7,"wind_gusts":54.7,"aqi":65,"pm10":40.4,"pm2_5":19.0,"no2":0.9,"co":161.0,"o3":111.0,"so2":3.1,"mosquito_risk":0,"arthritis_risk":5,"migraine_risk":10,"frizz_risk":0,"updated_at":"2026-05-23T14:33:12.604075+05:30"},{"city":"Bhopal","state":"Madhya Pradesh","latitude":23.2599,"longitude":77.4126,"temp":41.1,"humidity":14,"rain":0.0,"pressure":952.3,"uv_index":8.75,"wind_gusts":44.6,"aqi":62,"pm10":59.5,"pm2_5":21.8,"no2":0.6,"co":145.0,"o3":111.0,"so2":2.8,"mosquito_risk":0,"arthritis_risk":5,"migraine_risk":10,"frizz_risk":0,"updated_at":"2026-05-23T14:33:12.604082+05:30"},{"city":"Jabalpur","state":"Madhya Pradesh","latitude":23.1815,"longitude":79.9864,"temp":42.3,"humidity":11,"rain":0.0,"pressure":958.8,"uv_index":8.9,"wind_gusts":41.0,"aqi":62,"pm10":52.3,"pm2_5":19.9,"no2":0.8,"co":135.0,"o3":120.0,"so2":2.6,"mosquito_risk":0,"arthritis_risk":5,"migraine_risk":10,"frizz_risk":0,"updated_at":"2026-05-23T14:33:12.604089+05:30"},{"city":"Ujjain","state":"Madhya Pradesh","latitude":23.1765,"longitude":75.7885,"temp":39.9,"humidity":14,"rain":0.0,"pressure":953.4,"uv_index":8.65,"wind_gusts":51.1,"aqi":66,"pm10":49.6,"pm2_5":21.8,"no2":0.6,"co":137.0,"o3":109.0,"so2":3.1,"mosquito_risk":0,"arthritis_risk":5,"migraine_risk":10,"frizz_risk":0,"updated_at":"2026-05-23T14:33:12.604097+05:30"},{"city":"Visakhapatnam","state":"Andhra Pradesh","latitude":17.6868,"longitude":83.2185,"temp":42.9,"humidity":23,"rain":0.0,"pressure":997.4,"uv_index":9.1,"wind_gusts":32.0,"aqi":142,"pm10":74.5,"pm2_5":65.2,"no2":12.2,"co":559.0,"o3":263.0,"so2":56.5,"mosquito_risk":0,"arthritis_risk":5,"migraine_risk":10,"frizz_risk":1,"updated_at":"2026-05-23T14:33:12.604104+05:30"},{"city":"Vijayawada","state":"Andhra Pradesh","latitude":16.5062,"longitude":80.648,"temp":42.2,"humidity":29,"rain":0.0,"pressure":997.4,"uv_index":8.7,"wind_gusts":44.6,"aqi":87,"pm10":38.8,"pm2_5":33.4,"no2":2.1,"co":217.0,"o3":173.0,"so2":8.9,"mosquito_risk":0,"arthritis_risk":5,"migraine_risk":10,"frizz_risk":1,"updated_at":"2026-05-23T14:33:12.604111+05:30"},{"city":"Guntur","state":"Andhra Pradesh","latitude":16.3067,"longitude":80.4365,"temp":41.8,"humidity":29,"rain":0.0,"pressure":998.8,"uv_index":8.8,"wind_gusts":44.6,"aqi":82,"pm10":36.4,"pm2_5":30.6,"no2":1.7,"co":210.0,"o3":164.0,"so2":7.4,"mosquito_risk":0,"arthritis_risk":5,"migraine_risk":10,"frizz_risk":1,"updated_at":"2026-05-23T14:33:12.604118+05:30"},{"city":"Nellore","state":"Andhra Pradesh","latitude":14.4426,"longitude":79.9865,"temp":37.7,"humidity":36,"rain":0.0,"pressure":1002.5,"uv_index":8.9,"wind_gusts":43.2,"aqi":76,"pm10":35.9,"pm2_5":25.8,"no2":2.2,"co":177.0,"o3":145.0,"so2":5.9,"mosquito_risk":0,"arthritis_risk":5,"migraine_risk":7,"frizz_risk":1,"updated_at":"2026-05-23T14:33:12.604126+05:30"},{"city":"Kurnool","state":"Andhra Pradesh","latitude":15.8281,"longitude":78.0373,"temp":38.2,"humidity":36,"rain":0.0,"pressure":975.3,"uv_index":9.1,"wind_gusts":47.2,"aqi":60,"pm10":29.8,"pm2_5":21.9,"no2":1.6,"co":180.0,"o3":139.0,"so2":7.7,"mosquito_risk":0,"arthritis_risk":5,"migraine_risk":10,"frizz_risk":1,"updated_at":"2026-05-23T14:33:12.604134+05:30"},{"city":"Kakinada","state":"Andhra Pradesh","latitude":16.9891,"longitude":82.2475,"temp":41.5,"humidity":33,"rain":0.0,"pressure":1001.5,"uv_index":9.1,"wind_gusts":47.2,"aqi":119,"pm10":50.3,"pm2_5":41.2,"no2":3.3,"co":255.0,"o3":193.0,"so2":5.6,"mosquito_risk":0,"arthritis_risk":5,"migraine_risk":7,"frizz_risk":1,"updated_at":"2026-05-23T14:33:12.604141+05:30"},{"city":"Tirupati","state":"Andhra Pradesh","latitude":13.6288,"longitude":79.4192,"temp":37.6,"humidity":37,"rain":0.0,"pressure":988.5,"uv_index":8.05,"wind_gusts":37.8,"aqi":72,"pm10":29.4,"pm2_5":20.5,"no2":1.3,"co":169.0,"o3":125.0,"so2":3.1,"mosquito_risk":0,"arthritis_risk":5,"migraine_risk":10,"frizz_risk":1,"updated_at":"2026-05-23T14:33:12.604148+05:30"},{"city":"Warangal","state":"Telangana","latitude":17.9689,"longitude":79.5941,"temp":41.1,"humidity":20,"rain":0.0,"pressure":975.6,"uv_index":9.15,"wind_gusts":49.7,"aqi":102,"pm10":36.7,"pm2_5":30.2,"no2":2.3,"co":234.0,"o3":169.0,"so2":10.4,"mosquito_risk":0,"arthritis_risk":5,"migraine_risk":10,"frizz_risk":0,"updated_at":"2026-05-23T14:33:12.604155+05:30"},{"city":"Nizamabad","state":"Telangana","latitude":18.6725,"longitude":78.0941,"temp":40.1,"humidity":23,"rain":0.0,"pressure":963.2,"uv_index":9.1,"wind_gusts":48.2,"aqi":90,"pm10":30.0,"pm2_5":21.2,"no2":1.1,"co":173.0,"o3":132.0,"so2":4.6,"mosquito_risk":0,"arthritis_risk":5,"migraine_risk":10,"frizz_risk":0,"updated_at":"2026-05-23T14:33:12.604162+05:30"},{"city":"Mysore","state":"Karnataka","latitude":12.2958,"longitude":76.6396,"temp":32.0,"humidity":45,"rain":0.0,"pressure":929.5,"uv_index":8.7,"wind_gusts":41.4,"aqi":33,"pm10":13.4,"pm2_5":7.6,"no2":2.0,"co":151.0,"o3":103.0,"so2":1.4,"mosquito_risk":0,"arthritis_risk":5,"migraine_risk":7,"frizz_risk":1,"updated_at":"2026-05-23T14:33:12.604169+05:30"},{"city":"Mangalore","state":"Karnataka","latitude":12.9141,"longitude":74.856,"temp":29.5,"humidity":79,"rain":0.1,"pressure":1007.6,"uv_index":7.5,"wind_gusts":30.2,"aqi":33,"pm10":8.5,"pm2_5":6.1,"no2":2.2,"co":130.0,"o3":69.0,"so2":1.9,"mosquito_risk":10,"arthritis_risk":5,"migraine_risk":4,"frizz_risk":1,"updated_at":"2026-05-23T14:33:12.604176+05:30"},{"city":"Hubli-Dharwad","state":"Karnataka","latitude":15.3647,"longitude":75.124,"temp":32.4,"humidity":54,"rain":0.0,"pressure":941.6,"uv_index":9.05,"wind_gusts":45.7,"aqi":34,"pm10":13.0,"pm2_5":8.3,"no2":1.3,"co":138.0,"o3":91.0,"so2":0.8,"mosquito_risk":0,"arthritis_risk":5,"migraine_risk":7,"frizz_risk":1,"updated_at":"2026-05-23T14:33:12.604183+05:30"},{"city":"Belgaum","state":"Karnataka","latitude":15.8497,"longitude":74.4977,"temp":30.0,"humidity":62,"rain":0.1,"pressure":926.9,"uv_index":9.05,"wind_gusts":39.2,"aqi":32,"pm10":11.6,"pm2_5":7.6,"no2":1.4,"co":151.0,"o3":83.0,"so2":1.6,"mosquito_risk":10,"arthritis_risk":5,"migraine_risk":7,"frizz_risk":1,"updated_at":"2026-05-23T14:33:16.000312+05:30"},{"city":"Coimbatore","state":"Tamil Nadu","latitude":11.0168,"longitude":76.9558,"temp":32.5,"humidity":51,"rain":0.1,"pressure":962.1,"uv_index":8.9,"wind_gusts":49.3,"aqi":35,"pm10":10.9,"pm2_5":7.5,"no2":1.3,"co":165.0,"o3":93.0,"so2":1.5,"mosquito_risk":3,"arthritis_risk":5,"migraine_risk":7,"frizz_risk":1,"updated_at":"2026-05-23T14:33:16.000344+05:30"},{"city":"Madurai","state":"Tamil Nadu","latitude":9.9252,"longitude":78.1198,"temp":39.1,"humidity":28,"rain":0.0,"pressure":991.1,"uv_index":8.05,"wind_gusts":40.0,"aqi":55,"pm10":13.6,"pm2_5":8.8,"no2":1.9,"co":142.0,"o3":119.0,"so2":1.9,"mosquito_risk":0,"arthritis_risk":5,"migraine_risk":10,"frizz_risk":1,"updated_at":"2026-05-23T14:33:16.000355+05:30"},{"city":"Trichy","state":"Tamil Nadu","latitude":10.7905,"longitude":78.7047,"temp":37.3,"humidity":39,"rain":0.0,"pressure":997.6,"uv_index":8.2,"wind_gusts":46.1,"aqi":37,"pm10":13.6,"pm2_5":8.5,"no2":2.0,"co":155.0,"o3":112.0,"so2":2.3,"mosquito_risk":0,"arthritis_risk":5,"migraine_risk":10,"frizz_risk":1,"updated_at":"2026-05-23T14:33:16.000364+05:30"},{"city":"Salem","state":"Tamil Nadu","latitude":11.6643,"longitude":78.146,"temp":36.5,"humidity":38,"rain":0.0,"pressure":976.9,"uv_index":8.25,"wind_gusts":27.7,"aqi":59,"pm10":14.5,"pm2_5":8.3,"no2":2.3,"co":151.0,"o3":118.0,"so2":5.3,"mosquito_risk":0,"arthritis_risk":5,"migraine_risk":10,"frizz_risk":1,"updated_at":"2026-05-23T14:33:16.000372+05:30"},{"city":"Tirunelveli","state":"Tamil Nadu","latitude":8.7139,"longitude":77.7567,"temp":36.8,"humidity":39,"rain":0.0,"pressure":1001.9,"uv_index":8.05,"wind_gusts":40.0,"aqi":33,"pm10":9.0,"pm2_5":7.1,"no2":1.5,"co":144.0,"o3":97.0,"so2":1.4,"mosquito_risk":0,"arthritis_risk":5,"migraine_risk":7,"frizz_risk":1,"updated_at":"2026-05-23T14:33:16.000380+05:30"},{"city":"Vellore","state":"Tamil Nadu","latitude":12.9165,"longitude":79.1325,"temp":34.0,"humidity":45,"rain":0.0,"pressure":982.8,"uv_index":8.65,"wind_gusts":47.5,"aqi":78,"pm10":53.7,"pm2_5":29.9,"no2":1.4,"co":161.0,"o3":132.0,"so2":2.8,"mosquito_risk":0,"arthritis_risk":5,"migraine_risk":7,"frizz_risk":1,"updated_at":"2026-05-23T14:33:16.000388+05:30"},{"city":"Erode","state":"Tamil Nadu","latitude":11.341,"longitude":77.7172,"temp":38.2,"humidity":31,"rain":0.0,"pressure":987.8,"uv_index":8.7,"wind_gusts":36.4,"aqi":38,"pm10":16.5,"pm2_5":9.2,"no2":1.9,"co":170.0,"o3":114.0,"so2":1.5,"mosquito_risk":0,"arthritis_risk":5,"migraine_risk":10,"frizz_risk":1,"updated_at":"2026-05-23T14:33:16.000395+05:30"},{"city":"Kochi","state":"Kerala","latitude":9.9312,"longitude":76.2673,"temp":28.6,"humidity":80,"rain":0.1,"pressure":1010.2,"uv_index":7.9,"wind_gusts":30.6,"aqi":56,"pm10":11.4,"pm2_5":8.6,"no2":2.0,"co":126.0,"o3":85.0,"so2":2.1,"mosquito_risk":10,"arthritis_risk":0,"migraine_risk":4,"frizz_risk":1,"updated_at":"2026-05-23T14:33:16.000403+05:30"},{"city":"Thiruvananthapuram","state":"Kerala","latitude":8.5241,"longitude":76.9366,"temp":30.0,"humidity":73,"rain":0.0,"pressure":1009.0,"uv_index":7.95,"wind_gusts":43.2,"aqi":34,"pm10":13.8,"pm2_5":9.1,"no2":1.0,"co":106.0,"o3":77.0,"so2":0.8,"mosquito_risk":7,"arthritis_risk":0,"migraine_risk":4,"frizz_risk":1,"updated_at":"2026-05-23T14:33:16.000411+05:30"},{"city":"Kozhikode","state":"Kerala","latitude":11.2588,"longitude":75.7804,"temp":30.5,"humidity":73,"rain":0.0,"pressure":1008.7,"uv_index":8.5,"wind_gusts":28.1,"aqi":35,"pm10":8.6,"pm2_5":6.3,"no2":0.6,"co":128.0,"o3":85.0,"so2":1.1,"mosquito_risk":3,"arthritis_risk":0,"migraine_risk":4,"frizz_risk":1,"updated_at":"2026-05-23T14:33:16.000418+05:30"},{"city":"Thrissur","state":"Kerala","latitude":10.5276,"longitude":76.2144,"temp":28.0,"humidity":85,"rain":0.1,"pressure":1008.5,"uv_index":8.4,"wind_gusts":29.5,"aqi":56,"pm10":10.2,"pm2_5":8.0,"no2":1.3,"co":131.0,"o3":83.0,"so2":1.5,"mosquito_risk":10,"arthritis_risk":0,"migraine_risk":4,"frizz_risk":1,"updated_at":"2026-05-23T14:33:16.000426+05:30"},{"city":"Kannur","state":"Kerala","latitude":11.8745,"longitude":75.3704,"temp":30.5,"humidity":74,"rain":0.0,"pressure":1008.2,"uv_index":7.2,"wind_gusts":27.7,"aqi":35,"pm10":8.1,"pm2_5":5.8,"no2":1.3,"co":123.0,"o3":74.0,"so2":1.0,"mosquito_risk":3,"arthritis_risk":0,"migraine_risk":4,"frizz_risk":1,"updated_at":"2026-05-23T14:33:16.000433+05:30"},{"city":"Patna","state":"Bihar","latitude":25.5941,"longitude":85.1376,"temp":40.7,"humidity":25,"rain":0.0,"pressure":993.8,"uv_index":8.85,"wind_gusts":40.3,"aqi":156,"pm10":117.6,"pm2_5":69.6,"no2":2.7,"co":363.0,"o3":222.0,"so2":18.7,"mosquito_risk":0,"arthritis_risk":5,"migraine_risk":10,"frizz_risk":1,"updated_at":"2026-05-23T14:33:16.000440+05:30"},{"city":"Gaya","state":"Bihar","latitude":24.7914,"longitude":85.0002,"temp":42.1,"humidity":18,"rain":0.0,"pressure":987.6,"uv_index":8.9,"wind_gusts":36.4,"aqi":159,"pm10":199.3,"pm2_5":57.9,"no2":1.4,"co":211.0,"o3":169.0,"so2":8.1,"mosquito_risk":0,"arthritis_risk":5,"migraine_risk":10,"frizz_risk":0,"updated_at":"2026-05-23T14:33:16.000447+05:30"},{"city":"Muzaffarpur","state":"Bihar","latitude":26.1209,"longitude":85.3647,"temp":37.1,"humidity":46,"rain":0.0,"pressure":994.1,"uv_index":8.85,"wind_gusts":27.4,"aqi":155,"pm10":112.2,"pm2_5":67.8,"no2":2.9,"co":398.0,"o3":213.0,"so2":18.5,"mosquito_risk":0,"arthritis_risk":5,"migraine_risk":10,"frizz_risk":1,"updated_at":"2026-05-23T14:33:16.000454+05:30"},{"city":"Bhagalpur","state":"Bihar","latitude":25.2425,"longitude":87.0117,"temp":37.5,"humidity":38,"rain":0.0,"pressure":994.8,"uv_index":8.85,"wind_gusts":33.1,"aqi":137,"pm10":67.1,"pm2_5":44.5,"no2":4.4,"co":424.0,"o3":211.0,"so2":23.8,"mosquito_risk":0,"arthritis_risk":5,"migraine_risk":10,"frizz_risk":1,"updated_at":"2026-05-23T14:33:16.000461+05:30"},{"city":"Ranchi","state":"Jharkhand","latitude":23.3441,"longitude":85.3096,"temp":36.7,"humidity":21,"rain":0.0,"pressure":934.7,"uv_index":9.3,"wind_gusts":42.8,"aqi":128,"pm10":106.6,"pm2_5":29.5,"no2":1.2,"co":149.0,"o3":143.0,"so2":5.2,"mosquito_risk":0,"arthritis_risk":5,"migraine_risk":10,"frizz_risk":0,"updated_at":"2026-05-23T14:33:16.000469+05:30"},{"city":"Jamshedpur","state":"Jharkhand","latitude":22.8046,"longitude":86.2029,"temp":40.5,"humidity":23,"rain":0.0,"pressure":984.9,"uv_index":9.1,"wind_gusts":33.5,"aqi":156,"pm10":163.0,"pm2_5":52.6,"no2":2.9,"co":188.0,"o3":201.0,"so2":18.6,"mosquito_risk":0,"arthritis_risk":5,"migraine_risk":10,"frizz_risk":0,"updated_at":"2026-05-23T14:33:16.000476+05:30"},{"city":"Dhanbad","state":"Jharkhand","latitude":23.7957,"longitude":86.4304,"temp":42.0,"humidity":16,"rain":0.0,"pressure":973.9,"uv_index":9.1,"wind_gusts":41.8,"aqi":162,"pm10":216.1,"pm2_5":54.6,"no2":5.5,"co":177.0,"o3":174.0,"so2":24.1,"mosquito_risk":0,"arthritis_risk":5,"migraine_risk":10,"frizz_risk":0,"updated_at":"2026-05-23T14:33:16.000483+05:30"},{"city":"Bokaro","state":"Jharkhand","latitude":23.6693,"longitude":86.1511,"temp":41.7,"humidity":17,"rain":0.0,"pressure":977.5,"uv_index":9.1,"wind_gusts":39.2,"aqi":164,"pm10":208.2,"pm2_5":50.6,"no2":5.7,"co":188.0,"o3":168.0,"so2":26.7,"mosquito_risk":0,"arthritis_risk":5,"migraine_risk":10,"frizz_risk":0,"updated_at":"2026-05-23T14:33:16.000490+05:30"},{"city":"Bhubaneswar","state":"Odisha","latitude":20.2961,"longitude":85.8245,"temp":36.8,"humidity":58,"rain":0.0,"pressure":996.8,"uv_index":8.55,"wind_gusts":34.9,"aqi":106,"pm10":59.6,"pm2_5":44.2,"no2":2.1,"co":247.0,"o3":154.0,"so2":10.1,"mosquito_risk":0,"arthritis_risk":5,"migraine_risk":10,"frizz_risk":1,"updated_at":"2026-05-23T14:33:16.000496+05:30"},{"city":"Cuttack","state":"Odisha","latitude":20.4625,"longitude":85.8828,"temp":37.0,"humidity":59,"rain":0.0,"pressure":998.3,"uv_index":8.65,"wind_gusts":33.5,"aqi":106,"pm10":59.6,"pm2_5":44.2,"no2":2.1,"co":266.0,"o3":154.0,"so2":10.1,"mosquito_risk":0,"arthritis_risk":5,"migraine_risk":10,"frizz_risk":1,"updated_at":"2026-05-23T14:33:16.000503+05:30"},{"city":"Rourkela","state":"Odisha","latitude":22.2604,"longitude":84.8536,"temp":41.3,"humidity":18,"rain":0.0,"pressure":979.8,"uv_index":9.0,"wind_gusts":34.2,"aqi":161,"pm10":113.2,"pm2_5":33.6,"no2":1.3,"co":193.0,"o3":153.0,"so2":6.9,"mosquito_risk":0,"arthritis_risk":5,"migraine_risk":10,"frizz_risk":0,"updated_at":"2026-05-23T14:33:16.000510+05:30"},{"city":"Raipur","state":"Chhattisgarh","latitude":21.2514,"longitude":81.6296,"temp":43.9,"humidity":11,"rain":0.0,"pressure":970.3,"uv_index":8.75,"wind_gusts":39.6,"aqi":146,"pm10":47.1,"pm2_5":21.9,"no2":4.3,"co":146.0,"o3":152.0,"so2":17.6,"mosquito_risk":0,"arthritis_risk":5,"migraine_risk":10,"frizz_risk":0,"updated_at":"2026-05-23T14:33:16.000517+05:30"},{"city":"Bhilai","state":"Chhattisgarh","latitude":21.1938,"longitude":81.3509,"temp":42.5,"humidity":13,"rain":0.0,"pressure":971.1,"uv_index":8.95,"wind_gusts":44.3,"aqi":110,"pm10":29.1,"pm2_5":15.3,"no2":4.5,"co":163.0,"o3":133.0,"so2":15.5,"mosquito_risk":0,"arthritis_risk":5,"migraine_risk":10,"frizz_risk":0,"updated_at":"2026-05-23T14:33:16.000523+05:30"},{"city":"Guwahati","state":"Assam","latitude":26.1158,"longitude":91.7086,"temp":29.5,"humidity":77,"rain":0.0,"pressure":996.3,"uv_index":8.75,"wind_gusts":35.6,"aqi":61,"pm10":19.6,"pm2_5":11.9,"no2":1.3,"co":278.0,"o3":119.0,"so2":3.5,"mosquito_risk":7,"arthritis_risk":5,"migraine_risk":7,"frizz_risk":1,"updated_at":"2026-05-23T14:33:16.000530+05:30"},{"city":"Agartala","state":"Tripura","latitude":23.8315,"longitude":91.2868,"temp":31.9,"humidity":75,"rain":0.0,"pressure":1001.8,"uv_index":8.8,"wind_gusts":36.7,"aqi":86,"pm10":54.2,"pm2_5":33.6,"no2":4.0,"co":202.0,"o3":108.0,"so2":3.9,"mosquito_risk":3,"arthritis_risk":5,"migraine_risk":4,"frizz_risk":1,"updated_at":"2026-05-23T14:33:16.000537+05:30"},{"city":"Shillong","state":"Meghalaya","latitude":25.5788,"longitude":91.8933,"temp":25.8,"humidity":58,"rain":0.0,"pressure":855.8,"uv_index":9.05,"wind_gusts":51.5,"aqi":46,"pm10":19.6,"pm2_5":9.6,"no2":1.6,"co":256.0,"o3":115.0,"so2":3.3,"mosquito_risk":4,"arthritis_risk":5,"migraine_risk":7,"frizz_risk":1,"updated_at":"2026-05-23T14:33:16.000544+05:30"},{"city":"Imphal","state":"Manipur","latitude":24.817,"longitude":93.9368,"temp":29.1,"humidity":57,"rain":0.0,"pressure":920.5,"uv_index":8.7,"wind_gusts":36.4,"aqi":65,"pm10":29.4,"pm2_5":15.9,"no2":1.2,"co":223.0,"o3":98.0,"so2":1.7,"mosquito_risk":4,"arthritis_risk":5,"migraine_risk":7,"frizz_risk":1,"updated_at":"2026-05-23T14:33:16.000550+05:30"},{"city":"Aizawl","state":"Mizoram","latitude":23.7271,"longitude":92.7176,"temp":25.9,"humidity":68,"rain":0.1,"pressure":891.2,"uv_index":9.0,"wind_gusts":38.2,"aqi":57,"pm10":35.5,"pm2_5":19.1,"no2":0.8,"co":196.0,"o3":95.0,"so2":1.8,"mosquito_risk":10,"arthritis_risk":5,"migraine_risk":7,"frizz_risk":1,"updated_at":"2026-05-23T14:33:16.000558+05:30"},{"city":"Kohima","state":"Nagaland","latitude":25.6701,"longitude":94.1077,"temp":22.9,"humidity":81,"rain":0.1,"pressure":854.0,"uv_index":9.3,"wind_gusts":32.0,"aqi":43,"pm10":8.3,"pm2_5":5.1,"no2":0.9,"co":217.0,"o3":98.0,"so2":1.4,"mosquito_risk":6,"arthritis_risk":5,"migraine_risk":7,"frizz_risk":1,"updated_at":"2026-05-23T14:33:16.000565+05:30"},{"city":"Gangtok","state":"Sikkim","latitude":27.3314,"longitude":88.6138,"temp":21.4,"humidity":77,"rain":0.1,"pressure":835.0,"uv_index":9.15,"wind_gusts":32.8,"aqi":71,"pm10":13.4,"pm2_5":8.5,"no2":1.2,"co":280.0,"o3":133.0,"so2":2.1,"mosquito_risk":6,"arthritis_risk":5,"migraine_risk":7,"frizz_risk":1,"updated_at":"2026-05-23T14:33:16.000572+05:30"},{"city":"Siliguri","state":"West Bengal","latitude":26.7271,"longitude":88.3953,"temp":28.9,"humidity":73,"rain":0.1,"pressure":987.8,"uv_index":8.75,"wind_gusts":24.8,"aqi":101,"pm10":30.5,"pm2_5":17.5,"no2":2.0,"co":398.0,"o3":146.0,"so2":4.1,"mosquito_risk":10,"arthritis_risk":5,"migraine_risk":7,"frizz_risk":1,"updated_at":"2026-05-23T14:33:19.566299+05:30"},{"city":"Durgapur","state":"West Bengal","latitude":23.5204,"longitude":87.3119,"temp":31.9,"humidity":81,"rain":0.0,"pressure":989.4,"uv_index":9.0,"wind_gusts":40.3,"aqi":154,"pm10":170.9,"pm2_5":90.1,"no2":8.8,"co":710.0,"o3":260.0,"so2":51.4,"mosquito_risk":3,"arthritis_risk":5,"migraine_risk":7,"frizz_risk":1,"updated_at":"2026-05-23T14:33:19.566331+05:30"},{"city":"Asansol","state":"West Bengal","latitude":23.6739,"longitude":86.9524,"temp":36.8,"humidity":48,"rain":0.0,"pressure":987.2,"uv_index":9.05,"wind_gusts":36.0,"aqi":153,"pm10":204.4,"pm2_5":71.7,"no2":7.0,"co":289.0,"o3":214.0,"so2":33.0,"mosquito_risk":0,"arthritis_risk":5,"migraine_risk":10,"frizz_risk":1,"updated_at":"2026-05-23T14:33:19.566342+05:30"},{"city":"Pondicherry","state":"Puducherry","latitude":11.9139,"longitude":79.8145,"temp":34.1,"humidity":53,"rain":0.0,"pressure":1006.4,"uv_index":6.25,"wind_gusts":37.4,"aqi":62,"pm10":28.3,"pm2_5":23.1,"no2":10.4,"co":204.0,"o3":147.0,"so2":12.4,"mosquito_risk":0,"arthritis_risk":5,"migraine_risk":4,"frizz_risk":1,"updated_at":"2026-05-23T14:33:19.566351+05:30"},{"city":"Port Blair","state":"Andaman and Nicobar Islands","latitude":11.6234,"longitude":92.7265,"temp":29.9,"humidity":72,"rain":0.1,"pressure":1005.7,"uv_index":8.35,"wind_gusts":37.1,"aqi":33,"pm10":5.8,"pm2_5":3.6,"no2":0.5,"co":116.0,"o3":68.0,"so2":0.4,"mosquito_risk":10,"arthritis_risk":5,"migraine_risk":4,"frizz_risk":1,"updated_at":"2026-05-23T14:33:19.566360+05:30"},{"city":"Haridwar","state":"Uttarakhand","latitude":29.9457,"longitude":78.1642,"temp":39.2,"humidity":16,"rain":0.0,"pressure":970.0,"uv_index":7.55,"wind_gusts":48.2,"aqi":97,"pm10":85.0,"pm2_5":27.5,"no2":1.2,"co":169.0,"o3":148.0,"so2":6.2,"mosquito_risk":0,"arthritis_risk":5,"migraine_risk":10,"frizz_risk":0,"updated_at":"2026-05-23T14:33:19.566368+05:30"},{"city":"Rishikesh","state":"Uttarakhand","latitude":30.0869,"longitude":78.2676,"temp":38.3,"humidity":15,"rain":0.0,"pressure":962.7,"uv_index":7.65,"wind_gusts":40.3,"aqi":104,"pm10":51.5,"pm2_5":19.8,"no2":0.7,"co":158.0,"o3":140.0,"so2":3.6,"mosquito_risk":0,"arthritis_risk":5,"migraine_risk":10,"frizz_risk":0,"updated_at":"2026-05-23T14:33:19.566376+05:30"},{"city":"Nainital","state":"Uttarakhand","latitude":29.3919,"longitude":79.4542,"temp":23.7,"humidity":35,"rain":0.0,"pressure":807.5,"uv_index":8.5,"wind_gusts":49.0,"aqi":144,"pm10":70.1,"pm2_5":24.4,"no2":1.1,"co":185.0,"o3":138.0,"so2":2.8,"mosquito_risk":0,"arthritis_risk":5,"migraine_risk":7,"frizz_risk":0,"updated_at":"2026-05-23T14:33:19.566384+05:30"},{"city":"Mussoorie","state":"Uttarakhand","latitude":30.4599,"longitude":78.0664,"temp":24.7,"humidity":26,"rain":0.0,"pressure":805.5,"uv_index":8.05,"wind_gusts":55.8,"aqi":89,"pm10":56.2,"pm2_5":20.1,"no2":1.0,"co":166.0,"o3":138.0,"so2":3.5,"mosquito_risk":0,"arthritis_risk":5,"migraine_risk":7,"frizz_risk":0,"updated_at":"2026-05-23T14:33:19.566392+05:30"},{"city":"Dharamshala","state":"Himachal Pradesh","latitude":32.219,"longitude":76.3234,"temp":27.2,"humidity":29,"rain":0.0,"pressure":869.9,"uv_index":8.1,"wind_gusts":44.3,"aqi":56,"pm10":45.6,"pm2_5":13.1,"no2":0.5,"co":146.0,"o3":123.0,"so2":1.1,"mosquito_risk":4,"arthritis_risk":5,"migraine_risk":7,"frizz_risk":0,"updated_at":"2026-05-23T14:33:19.566399+05:30"},{"city":"Dalhousie","state":"Himachal Pradesh","latitude":32.5387,"longitude":75.971,"temp":23.6,"humidity":26,"rain":0.1,"pressure":807.7,"uv_index":8.65,"wind_gusts":45.0,"aqi":74,"pm10":51.3,"pm2_5":15.9,"no2":1.3,"co":142.0,"o3":130.0,"so2":1.3,"mosquito_risk":3,"arthritis_risk":5,"migraine_risk":7,"frizz_risk":0,"updated_at":"2026-05-23T14:33:19.566408+05:30"},{"city":"Patiala","state":"Punjab","latitude":30.3398,"longitude":76.3869,"temp":39.5,"humidity":19,"rain":0.0,"pressure":974.8,"uv_index":7.65,"wind_gusts":50.4,"aqi":291,"pm10":719.0,"pm2_5":89.9,"no2":1.0,"co":192.0,"o3":135.0,"so2":4.4,"mosquito_risk":0,"arthritis_risk":5,"migraine_risk":10,"frizz_risk":0,"updated_at":"2026-05-23T14:33:19.566416+05:30"},{"city":"Bhatinda","state":"Punjab","latitude":30.211,"longitude":74.9455,"temp":40.4,"humidity":17,"rain":0.0,"pressure":980.3,"uv_index":8.3,"wind_gusts":33.1,"aqi":90,"pm10":122.5,"pm2_5":38.0,"no2":1.7,"co":193.0,"o3":148.0,"so2":10.6,"mosquito_risk":0,"arthritis_risk":5,"migraine_risk":10,"frizz_risk":0,"updated_at":"2026-05-23T14:33:19.566423+05:30"},{"city":"Rohtak","state":"Haryana","latitude":28.8955,"longitude":76.6066,"temp":39.0,"humidity":20,"rain":0.0,"pressure":978.9,"uv_index":7.75,"wind_gusts":47.2,"aqi":853,"pm10":1002.1,"pm2_5":127.1,"no2":1.6,"co":194.0,"o3":142.0,"so2":5.7,"mosquito_risk":0,"arthritis_risk":5,"migraine_risk":10,"frizz_risk":0,"updated_at":"2026-05-23T14:33:19.566431+05:30"},{"city":"Panipat","state":"Haryana","latitude":29.3909,"longitude":76.9635,"temp":39.8,"humidity":19,"rain":0.0,"pressure":977.0,"uv_index":7.05,"wind_gusts":52.2,"aqi":1527,"pm10":1858.9,"pm2_5":210.9,"no2":2.2,"co":185.0,"o3":147.0,"so2":9.1,"mosquito_risk":0,"arthritis_risk":5,"migraine_risk":10,"frizz_risk":0,"updated_at":"2026-05-23T14:33:19.566438+05:30"},{"city":"Mathura","state":"Uttar Pradesh","latitude":27.4924,"longitude":77.6737,"temp":42.0,"humidity":14,"rain":0.0,"pressure":982.9,"uv_index":8.0,"wind_gusts":43.2,"aqi":567,"pm10":894.1,"pm2_5":106.4,"no2":1.3,"co":189.0,"o3":124.0,"so2":3.2,"mosquito_risk":0,"arthritis_risk":5,"migraine_risk":10,"frizz_risk":0,"updated_at":"2026-05-23T14:33:19.566446+05:30"},{"city":"Vrindavan","state":"Uttar Pradesh","latitude":27.5823,"longitude":77.7027,"temp":41.7,"humidity":15,"rain":0.0,"pressure":983.3,"uv_index":8.0,"wind_gusts":42.5,"aqi":567,"pm10":894.1,"pm2_5":106.4,"no2":1.3,"co":189.0,"o3":124.0,"so2":3.2,"mosquito_risk":0,"arthritis_risk":5,"migraine_risk":10,"frizz_risk":0,"updated_at":"2026-05-23T14:33:19.566453+05:30"},{"city":"Ayodhya","state":"Uttar Pradesh","latitude":26.7922,"longitude":82.1998,"temp":40.9,"humidity":19,"rain":0.0,"pressure":989.1,"uv_index":8.35,"wind_gusts":46.1,"aqi":155,"pm10":112.9,"pm2_5":41.0,"no2":1.3,"co":185.0,"o3":151.0,"so2":5.7,"mosquito_risk":0,"arthritis_risk":5,"migraine_risk":10,"frizz_risk":0,"updated_at":"2026-05-23T14:33:19.566460+05:30"},{"city":"Ratlam","state":"Madhya Pradesh","latitude":23.3315,"longitude":75.0367,"temp":39.2,"humidity":17,"rain":0.0,"pressure":954.8,"uv_index":8.55,"wind_gusts":47.2,"aqi":66,"pm10":48.8,"pm2_5":22.8,"no2":0.5,"co":127.0,"o3":108.0,"so2":3.5,"mosquito_risk":0,"arthritis_risk":5,"migraine_risk":10,"frizz_risk":0,"updated_at":"2026-05-23T14:33:19.566467+05:30"},{"city":"Sagar","state":"Madhya Pradesh","latitude":23.8388,"longitude":78.7378,"temp":41.1,"humidity":12,"rain":0.0,"pressure":948.7,"uv_index":8.75,"wind_gusts":44.6,"aqi":61,"pm10":77.1,"pm2_5":25.3,"no2":0.6,"co":134.0,"o3":120.0,"so2":3.1,"mosquito_risk":0,"arthritis_risk":5,"migraine_risk":10,"frizz_risk":0,"updated_at":"2026-05-23T14:33:19.566475+05:30"},{"city":"Satna","state":"Madhya Pradesh","latitude":24.6005,"longitude":80.8322,"temp":41.5,"humidity":14,"rain":0.0,"pressure":968.1,"uv_index":8.8,"wind_gusts":47.9,"aqi":76,"pm10":243.1,"pm2_5":55.2,"no2":0.7,"co":153.0,"o3":137.0,"so2":4.8,"mosquito_risk":0,"arthritis_risk":5,"migraine_risk":10,"frizz_risk":0,"updated_at":"2026-05-23T14:33:19.566482+05:30"},{"city":"Akola","state":"Maharashtra","latitude":20.7002,"longitude":77.0082,"temp":41.5,"humidity":20,"rain":0.0,"pressure":973.2,"uv_index":8.9,"wind_gusts":49.0,"aqi":66,"pm10":27.7,"pm2_5":17.2,"no2":1.2,"co":143.0,"o3":117.0,"so2":5.3,"mosquito_risk":0,"arthritis_risk":5,"migraine_risk":10,"frizz_risk":0,"updated_at":"2026-05-23T14:33:19.566490+05:30"},{"city":"Amravati","state":"Maharashtra","latitude":20.9374,"longitude":77.7796,"temp":41.7,"humidity":18,"rain":0.0,"pressure":965.3,"uv_index":8.9,"wind_gusts":53.6,"aqi":67,"pm10":27.7,"pm2_5":17.2,"no2":1.4,"co":149.0,"o3":120.0,"so2":5.7,"mosquito_risk":0,"arthritis_risk":5,"migraine_risk":10,"frizz_risk":0,"updated_at":"2026-05-23T14:33:19.566498+05:30"},{"city":"Latur","state":"Maharashtra","latitude":18.4088,"longitude":76.5604,"temp":34.6,"humidity":39,"rain":0.1,"pressure":940.2,"uv_index":9.05,"wind_gusts":50.8,"aqi":82,"pm10":31.8,"pm2_5":21.7,"no2":0.9,"co":156.0,"o3":131.0,"so2":4.2,"mosquito_risk":3,"arthritis_risk":5,"migraine_risk":7,"frizz_risk":1,"updated_at":"2026-05-23T14:33:19.566505+05:30"},{"city":"Nanded","state":"Maharashtra","latitude":19.1383,"longitude":77.3091,"temp":41.3,"humidity":23,"rain":0.0,"pressure":966.9,"uv_index":9.0,"wind_gusts":52.2,"aqi":85,"pm10":28.0,"pm2_5":18.7,"no2":1.0,"co":163.0,"o3":126.0,"so2":4.2,"mosquito_risk":0,"arthritis_risk":5,"migraine_risk":10,"frizz_risk":0,"updated_at":"2026-05-23T14:33:19.566512+05:30"},{"city":"Gulbarga","state":"Karnataka","latitude":17.3297,"longitude":76.8343,"temp":38.3,"humidity":33,"rain":0.0,"pressure":957.7,"uv_index":9.05,"wind_gusts":45.0,"aqi":69,"pm10":26.1,"pm2_5":18.2,"no2":1.8,"co":181.0,"o3":127.0,"so2":3.4,"mosquito_risk":0,"arthritis_risk":5,"migraine_risk":10,"frizz_risk":1,"updated_at":"2026-05-23T14:33:19.566520+05:30"},{"city":"Bidar","state":"Karnataka","latitude":17.9104,"longitude":77.5199,"temp":37.6,"humidity":31,"rain":0.0,"pressure":935.3,"uv_index":8.9,"wind_gusts":44.6,"aqi":93,"pm10":30.2,"pm2_5":21.5,"no2":1.3,"co":172.0,"o3":142.0,"so2":6.4,"mosquito_risk":0,"arthritis_risk":5,"migraine_risk":10,"frizz_risk":1,"updated_at":"2026-05-23T14:33:19.566527+05:30"},{"city":"Hospet","state":"Karnataka","latitude":15.2689,"longitude":76.3909,"temp":33.4,"humidity":51,"rain":0.0,"pressure":955.8,"uv_index":9.0,"wind_gusts":50.8,"aqi":39,"pm10":17.2,"pm2_5":11.2,"no2":1.6,"co":154.0,"o3":110.0,"so2":2.3,"mosquito_risk":0,"arthritis_risk":5,"migraine_risk":7,"frizz_risk":1,"updated_at":"2026-05-23T14:33:19.566534+05:30"},{"city":"Tirupur","state":"Tamil Nadu","latitude":11.1085,"longitude":77.3411,"temp":33.7,"humidity":47,"rain":0.1,"pressure":974.9,"uv_index":8.95,"wind_gusts":50.8,"aqi":38,"pm10":14.8,"pm2_5":8.9,"no2":1.8,"co":164.0,"o3":107.0,"so2":1.8,"mosquito_risk":3,"arthritis_risk":5,"migraine_risk":7,"frizz_risk":1,"updated_at":"2026-05-23T14:33:19.566540+05:30"},{"city":"Alappuzha","state":"Kerala","latitude":9.4981,"longitude":76.3388,"temp":29.2,"humidity":77,"rain":0.0,"pressure":1010.3,"uv_index":7.5,"wind_gusts":36.0,"aqi":45,"pm10":13.0,"pm2_5":9.5,"no2":1.9,"co":104.0,"o3":84.0,"so2":1.9,"mosquito_risk":7,"arthritis_risk":0,"migraine_risk":4,"frizz_risk":1,"updated_at":"2026-05-23T14:33:19.566548+05:30"},{"city":"Munnar","state":"Kerala","latitude":10.0889,"longitude":77.0595,"temp":21.3,"humidity":80,"rain":0.0,"pressure":859.1,"uv_index":8.65,"wind_gusts":32.4,"aqi":31,"pm10":8.0,"pm2_5":6.2,"no2":0.9,"co":138.0,"o3":83.0,"so2":0.9,"mosquito_risk":3,"arthritis_risk":5,"migraine_risk":7,"frizz_risk":1,"updated_at":"2026-05-23T14:33:19.566555+05:30"},{"city":"Silchar","state":"Assam","latitude":24.8333,"longitude":92.7789,"temp":30.4,"humidity":74,"rain":0.0,"pressure":1000.9,"uv_index":8.45,"wind_gusts":38.9,"aqi":67,"pm10":22.1,"pm2_5":13.5,"no2":1.4,"co":219.0,"o3":102.0,"so2":2.8,"mosquito_risk":3,"arthritis_risk":5,"migraine_risk":4,"frizz_risk":1,"updated_at":"2026-05-23T14:33:19.566562+05:30"},{"city":"Dibrugarh","state":"Assam","latitude":27.4728,"longitude":94.912,"temp":27.2,"humidity":84,"rain":0.0,"pressure":991.1,"uv_index":8.9,"wind_gusts":33.1,"aqi":86,"pm10":11.7,"pm2_5":10.1,"no2":1.7,"co":267.0,"o3":118.0,"so2":1.0,"mosquito_risk":7,"arthritis_risk":5,"migraine_risk":7,"frizz_risk":1,"updated_at":"2026-05-23T14:33:19.566569+05:30"}]