[{"city":"Delhi","state":"Delhi","latitude":28.6139,"longitude":77.209,"temp":24.3,"humidity":82,"rain":0.0,"pressure":982.2,"uv_index":7.65,"wind_gusts":24.5,"aqi":152,"pm10":101.7,"pm2_5":48.0,"no2":26.9,"co":484.0,"o3":62.0,"so2":16.8,"mosquito_risk":3,"arthritis_risk":5,"migraine_risk":7,"frizz_risk":1,"updated_at":"2026-06-01T03:32:33.637122+05:30"},{"city":"Mumbai","state":"Maharashtra","latitude":19.076,"longitude":72.8777,"temp":29.8,"humidity":75,"rain":0.0,"pressure":1007.8,"uv_index":7.7,"wind_gusts":40.0,"aqi":59,"pm10":21.4,"pm2_5":11.8,"no2":4.8,"co":170.0,"o3":41.0,"so2":4.1,"mosquito_risk":7,"arthritis_risk":5,"migraine_risk":4,"frizz_risk":1,"updated_at":"2026-06-01T03:32:33.637167+05:30"},{"city":"Bangalore","state":"Karnataka","latitude":12.9716,"longitude":77.5946,"temp":21.2,"humidity":95,"rain":0.0,"pressure":911.4,"uv_index":9.25,"wind_gusts":32.8,"aqi":67,"pm10":14.2,"pm2_5":13.1,"no2":11.8,"co":254.0,"o3":59.0,"so2":5.6,"mosquito_risk":3,"arthritis_risk":5,"migraine_risk":7,"frizz_risk":1,"updated_at":"2026-06-01T03:32:33.637183+05:30"},{"city":"Hyderabad","state":"Telangana","latitude":17.385,"longitude":78.4867,"temp":28.5,"humidity":43,"rain":0.0,"pressure":951.8,"uv_index":9.15,"wind_gusts":33.1,"aqi":88,"pm10":67.3,"pm2_5":32.7,"no2":9.2,"co":264.0,"o3":65.0,"so2":5.4,"mosquito_risk":4,"arthritis_risk":5,"migraine_risk":7,"frizz_risk":0,"updated_at":"2026-06-01T03:32:33.637194+05:30"},{"city":"Chennai","state":"Tamil Nadu","latitude":13.0827,"longitude":80.2707,"temp":30.2,"humidity":68,"rain":0.0,"pressure":1005.8,"uv_index":8.6,"wind_gusts":34.2,"aqi":81,"pm10":23.2,"pm2_5":19.4,"no2":14.9,"co":326.0,"o3":63.0,"so2":15.8,"mosquito_risk":3,"arthritis_risk":5,"migraine_risk":4,"frizz_risk":1,"updated_at":"2026-06-01T03:32:33.637203+05:30"},{"city":"Kolkata","state":"West Bengal","latitude":22.5726,"longitude":88.3639,"temp":28.0,"humidity":90,"rain":0.0,"pressure":1005.0,"uv_index":8.95,"wind_gusts":22.0,"aqi":139,"pm10":84.5,"pm2_5":71.7,"no2":32.7,"co":522.0,"o3":20.0,"so2":9.5,"mosquito_risk":7,"arthritis_risk":5,"migraine_risk":4,"frizz_risk":1,"updated_at":"2026-06-01T03:32:33.637211+05:30"},{"city":"Pune","state":"Maharashtra","latitude":18.5204,"longitude":73.8567,"temp":24.8,"humidity":87,"rain":0.0,"pressure":948.0,"uv_index":8.3,"wind_gusts":40.0,"aqi":54,"pm10":22.8,"pm2_5":13.9,"no2":9.0,"co":153.0,"o3":40.0,"so2":8.5,"mosquito_risk":3,"arthritis_risk":5,"migraine_risk":7,"frizz_risk":1,"updated_at":"2026-06-01T03:32:33.637218+05:30"},{"city":"Ahmedabad","state":"Gujarat","latitude":23.0225,"longitude":72.5714,"temp":29.9,"humidity":69,"rain":0.0,"pressure":1000.7,"uv_index":8.05,"wind_gusts":31.3,"aqi":71,"pm10":29.0,"pm2_5":16.5,"no2":3.9,"co":183.0,"o3":48.0,"so2":3.8,"mosquito_risk":7,"arthritis_risk":5,"migraine_risk":4,"frizz_risk":1,"updated_at":"2026-06-01T03:32:33.637224+05:30"},{"city":"Jaipur","state":"Rajasthan","latitude":26.9124,"longitude":75.7873,"temp":25.8,"humidity":64,"rain":0.0,"pressure":958.6,"uv_index":8.15,"wind_gusts":29.9,"aqi":98,"pm10":116.2,"pm2_5":46.4,"no2":17.8,"co":241.0,"o3":45.0,"so2":8.3,"mosquito_risk":7,"arthritis_risk":5,"migraine_risk":7,"frizz_risk":1,"updated_at":"2026-06-01T03:32:33.637236+05:30"},{"city":"Lucknow","state":"Uttar Pradesh","latitude":26.8467,"longitude":80.9462,"temp":24.2,"humidity":92,"rain":0.0,"pressure":992.5,"uv_index":8.3,"wind_gusts":24.8,"aqi":90,"pm10":64.0,"pm2_5":51.5,"no2":44.9,"co":425.0,"o3":24.0,"so2":13.6,"mosquito_risk":3,"arthritis_risk":5,"migraine_risk":7,"frizz_risk":1,"updated_at":"2026-06-01T03:32:33.637243+05:30"},{"city":"Kanpur","state":"Uttar Pradesh","latitude":26.4499,"longitude":80.3319,"temp":25.1,"humidity":79,"rain":0.0,"pressure":990.9,"uv_index":8.3,"wind_gusts":22.3,"aqi":92,"pm10":95.9,"pm2_5":36.0,"no2":20.3,"co":330.0,"o3":55.0,"so2":7.1,"mosquito_risk":7,"arthritis_risk":5,"migraine_risk":7,"frizz_risk":1,"updated_at":"2026-06-01T03:32:33.637250+05:30"},{"city":"Chandigarh","state":"Chandigarh","latitude":30.7333,"longitude":76.7794,"temp":23.6,"humidity":72,"rain":0.0,"pressure":968.6,"uv_index":7.45,"wind_gusts":32.4,"aqi":88,"pm10":52.3,"pm2_5":49.5,"no2":42.7,"co":928.0,"o3":3.0,"so2":3.2,"mosquito_risk":3,"arthritis_risk":5,"migraine_risk":7,"frizz_risk":1,"updated_at":"2026-06-01T03:32:33.637257+05:30"},{"city":"Srinagar","state":"Jammu and Kashmir","latitude":34.0837,"longitude":74.7973,"temp":13.1,"humidity":92,"rain":0.0,"pressure":839.0,"uv_index":9.05,"wind_gusts":21.2,"aqi":110,"pm10":57.9,"pm2_5":42.7,"no2":24.8,"co":374.0,"o3":9.0,"so2":1.2,"mosquito_risk":3,"arthritis_risk":10,"migraine_risk":7,"frizz_risk":0,"updated_at":"2026-06-01T03:32:33.637265+05:30"},{"city":"Jammu","state":"Jammu and Kashmir","latitude":32.7266,"longitude":74.857,"temp":23.7,"humidity":68,"rain":0.0,"pressure":972.2,"uv_index":8.6,"wind_gusts":25.2,"aqi":107,"pm10":53.4,"pm2_5":39.7,"no2":26.9,"co":385.0,"o3":27.0,"so2":2.2,"mosquito_risk":3,"arthritis_risk":5,"migraine_risk":7,"frizz_risk":1,"updated_at":"2026-06-01T03:32:33.637271+05:30"},{"city":"Amritsar","state":"Punjab","latitude":31.634,"longitude":74.8723,"temp":24.3,"humidity":70,"rain":0.0,"pressure":980.3,"uv_index":8.45,"wind_gusts":18.0,"aqi":102,"pm10":44.9,"pm2_5":35.4,"no2":15.0,"co":406.0,"o3":70.0,"so2":7.6,"mosquito_risk":3,"arthritis_risk":5,"migraine_risk":7,"frizz_risk":1,"updated_at":"2026-06-01T03:32:33.637277+05:30"},{"city":"Ludhiana","state":"Punjab","latitude":30.901,"longitude":75.8573,"temp":23.8,"humidity":80,"rain":0.0,"pressure":978.4,"uv_index":8.0,"wind_gusts":27.7,"aqi":110,"pm10":45.5,"pm2_5":42.3,"no2":20.0,"co":503.0,"o3":63.0,"so2":10.3,"mosquito_risk":3,"arthritis_risk":5,"migraine_risk":7,"frizz_risk":1,"updated_at":"2026-06-01T03:32:33.637283+05:30"},{"city":"Jalandhar","state":"Punjab","latitude":31.326,"longitude":75.5762,"temp":23.6,"humidity":76,"rain":0.0,"pressure":979.3,"uv_index":8.2,"wind_gusts":20.9,"aqi":102,"pm10":52.0,"pm2_5":50.9,"no2":24.4,"co":484.0,"o3":51.0,"so2":11.5,"mosquito_risk":3,"arthritis_risk":5,"migraine_risk":7,"frizz_risk":1,"updated_at":"2026-06-01T03:32:33.637292+05:30"},{"city":"Dehradun","state":"Uttarakhand","latitude":30.6284,"longitude":78.0322,"temp":14.4,"humidity":78,"rain":0.0,"pressure":828.9,"uv_index":7.65,"wind_gusts":29.9,"aqi":39,"pm10":10.3,"pm2_5":9.1,"no2":22.9,"co":248.0,"o3":28.0,"so2":0.2,"mosquito_risk":3,"arthritis_risk":5,"migraine_risk":7,"frizz_risk":0,"updated_at":"2026-06-01T03:32:33.637304+05:30"},{"city":"Shimla","state":"Himachal Pradesh","latitude":31.1048,"longitude":77.1734,"temp":11.2,"humidity":79,"rain":0.0,"pressure":782.4,"uv_index":8.05,"wind_gusts":33.5,"aqi":53,"pm10":24.2,"pm2_5":21.8,"no2":22.0,"co":306.0,"o3":41.0,"so2":0.1,"mosquito_risk":3,"arthritis_risk":5,"migraine_risk":7,"frizz_risk":0,"updated_at":"2026-06-01T03:32:33.637312+05:30"},{"city":"Manali","state":"Himachal Pradesh","latitude":32.2396,"longitude":77.1887,"temp":14.1,"humidity":78,"rain":0.0,"pressure":818.0,"uv_index":7.8,"wind_gusts":30.2,"aqi":48,"pm10":1.7,"pm2_5":1.2,"no2":9.0,"co":219.0,"o3":102.0,"so2":0.0,"mosquito_risk":3,"arthritis_risk":5,"migraine_risk":7,"frizz_risk":0,"updated_at":"2026-06-01T03:32:33.637319+05:30"},{"city":"Gurgaon","state":"Haryana","latitude":28.4595,"longitude":77.0266,"temp":23.6,"humidity":86,"rain":0.0,"pressure":980.5,"uv_index":7.6,"wind_gusts":25.9,"aqi":477,"pm10":79.6,"pm2_5":34.9,"no2":16.3,"co":499.0,"o3":91.0,"so2":13.0,"mosquito_risk":3,"arthritis_risk":5,"migraine_risk":7,"frizz_risk":1,"updated_at":"2026-06-01T03:32:33.637325+05:30"},{"city":"Noida","state":"Uttar Pradesh","latitude":28.5355,"longitude":77.391,"temp":23.3,"humidity":89,"rain":0.0,"pressure":983.8,"uv_index":7.65,"wind_gusts":23.0,"aqi":477,"pm10":79.6,"pm2_5":34.9,"no2":16.3,"co":441.0,"o3":91.0,"so2":13.0,"mosquito_risk":3,"arthritis_risk":5,"migraine_risk":7,"frizz_risk":1,"updated_at":"2026-06-01T03:32:33.637332+05:30"},{"city":"Ghaziabad","state":"Uttar Pradesh","latitude":28.6692,"longitude":77.4538,"temp":22.6,"humidity":96,"rain":0.0,"pressure":982.1,"uv_index":7.7,"wind_gusts":23.8,"aqi":104,"pm10":60.8,"pm2_5":47.7,"no2":24.9,"co":527.0,"o3":58.0,"so2":7.9,"mosquito_risk":3,"arthritis_risk":5,"migraine_risk":7,"frizz_risk":1,"updated_at":"2026-06-01T03:32:33.637338+05:30"},{"city":"Faridabad","state":"Haryana","latitude":28.4089,"longitude":77.3178,"temp":23.9,"humidity":85,"rain":0.0,"pressure":983.0,"uv_index":7.75,"wind_gusts":24.5,"aqi":477,"pm10":79.6,"pm2_5":34.9,"no2":16.3,"co":455.0,"o3":91.0,"so2":13.0,"mosquito_risk":3,"arthritis_risk":5,"migraine_risk":7,"frizz_risk":1,"updated_at":"2026-06-01T03:32:33.637343+05:30"},{"city":"Meerut","state":"Uttar Pradesh","latitude":28.9845,"longitude":77.7064,"temp":22.8,"humidity":96,"rain":0.0,"pressure":981.0,"uv_index":7.25,"wind_gusts":32.8,"aqi":104,"pm10":60.8,"pm2_5":47.7,"no2":24.9,"co":563.0,"o3":58.0,"so2":7.9,"mosquito_risk":3,"arthritis_risk":5,"migraine_risk":7,"frizz_risk":1,"updated_at":"2026-06-01T03:32:33.637349+05:30"},{"city":"Agra","state":"Uttar Pradesh","latitude":27.1767,"longitude":78.0081,"temp":25.2,"humidity":76,"rain":0.0,"pressure":986.8,"uv_index":8.05,"wind_gusts":19.4,"aqi":323,"pm10":670.6,"pm2_5":96.6,"no2":6.5,"co":301.0,"o3":109.0,"so2":5.3,"mosquito_risk":7,"arthritis_risk":5,"migraine_risk":7,"frizz_risk":1,"updated_at":"2026-06-01T03:32:33.637355+05:30"},{"city":"Varanasi","state":"Uttar Pradesh","latitude":25.3176,"longitude":82.9739,"temp":27.2,"humidity":75,"rain":0.0,"pressure":996.5,"uv_index":8.75,"wind_gusts":20.2,"aqi":130,"pm10":60.1,"pm2_5":50.1,"no2":27.3,"co":544.0,"o3":51.0,"so2":11.6,"mosquito_risk":7,"arthritis_risk":5,"migraine_risk":7,"frizz_risk":1,"updated_at":"2026-06-01T03:32:33.637362+05:30"},{"city":"Prayagraj","state":"Uttar Pradesh","latitude":25.4358,"longitude":81.8463,"temp":26.4,"humidity":84,"rain":0.0,"pressure":995.3,"uv_index":8.65,"wind_gusts":27.7,"aqi":104,"pm10":47.8,"pm2_5":37.4,"no2":25.0,"co":389.0,"o3":49.0,"so2":7.7,"mosquito_risk":7,"arthritis_risk":5,"migraine_risk":7,"frizz_risk":1,"updated_at":"2026-06-01T03:32:33.637369+05:30"},{"city":"Gorakhpur","state":"Uttar Pradesh","latitude":26.7606,"longitude":83.3732,"temp":26.5,"humidity":82,"rain":0.0,"pressure":996.4,"uv_index":8.6,"wind_gusts":15.5,"aqi":130,"pm10":95.0,"pm2_5":85.9,"no2":46.9,"co":487.0,"o3":30.0,"so2":12.1,"mosquito_risk":7,"arthritis_risk":5,"migraine_risk":7,"frizz_risk":1,"updated_at":"2026-06-01T03:32:33.637377+05:30"},{"city":"Bareilly","state":"Uttar Pradesh","latitude":28.367,"longitude":79.4304,"temp":24.4,"humidity":89,"rain":0.0,"pressure":986.8,"uv_index":7.65,"wind_gusts":33.1,"aqi":91,"pm10":61.2,"pm2_5":53.0,"no2":36.0,"co":436.0,"o3":44.0,"so2":7.4,"mosquito_risk":3,"arthritis_risk":5,"migraine_risk":7,"frizz_risk":1,"updated_at":"2026-06-01T03:32:33.637383+05:30"},{"city":"Aligarh","state":"Uttar Pradesh","latitude":27.8974,"longitude":78.088,"temp":23.9,"humidity":79,"rain":0.0,"pressure":985.0,"uv_index":7.45,"wind_gusts":30.2,"aqi":114,"pm10":49.4,"pm2_5":33.4,"no2":12.6,"co":300.0,"o3":95.0,"so2":6.6,"mosquito_risk":3,"arthritis_risk":5,"migraine_risk":7,"frizz_risk":1,"updated_at":"2026-06-01T03:32:33.637389+05:30"},{"city":"Moradabad","state":"Uttar Pradesh","latitude":28.8386,"longitude":78.7733,"temp":23.9,"humidity":89,"rain":0.0,"pressure":983.1,"uv_index":7.8,"wind_gusts":38.5,"aqi":106,"pm10":73.3,"pm2_5":65.2,"no2":43.2,"co":327.0,"o3":24.0,"so2":9.6,"mosquito_risk":3,"arthritis_risk":5,"migraine_risk":7,"frizz_risk":1,"updated_at":"2026-06-01T03:32:33.637394+05:30"},{"city":"Saharanpur","state":"Uttar Pradesh","latitude":29.9637,"longitude":77.546,"temp":22.8,"humidity":89,"rain":0.0,"pressure":975.2,"uv_index":7.5,"wind_gusts":34.6,"aqi":114,"pm10":73.3,"pm2_5":67.3,"no2":61.0,"co":818.0,"o3":0.0,"so2":11.2,"mosquito_risk":3,"arthritis_risk":5,"migraine_risk":7,"frizz_risk":1,"updated_at":"2026-06-01T03:32:33.637401+05:30"},{"city":"Jhansi","state":"Uttar Pradesh","latitude":25.4484,"longitude":78.5685,"temp":26.5,"humidity":68,"rain":0.0,"pressure":977.2,"uv_index":8.45,"wind_gusts":51.1,"aqi":69,"pm10":32.7,"pm2_5":22.9,"no2":15.5,"co":280.0,"o3":53.0,"so2":4.9,"mosquito_risk":7,"arthritis_risk":5,"migraine_risk":7,"frizz_risk":1,"updated_at":"2026-06-01T03:32:37.027982+05:30"},{"city":"Surat","state":"Gujarat","latitude":21.1702,"longitude":72.8311,"temp":29.3,"humidity":83,"rain":0.0,"pressure":1005.8,"uv_index":7.55,"wind_gusts":41.0,"aqi":72,"pm10":25.0,"pm2_5":17.8,"no2":18.0,"co":257.0,"o3":28.0,"so2":29.5,"mosquito_risk":7,"arthritis_risk":5,"migraine_risk":4,"frizz_risk":1,"updated_at":"2026-06-01T03:32:37.028017+05:30"},{"city":"Vadodara","state":"Gujarat","latitude":22.3072,"longitude":73.1812,"temp":29.9,"humidity":74,"rain":0.0,"pressure":1003.1,"uv_index":7.95,"wind_gusts":37.8,"aqi":66,"pm10":22.8,"pm2_5":16.2,"no2":10.4,"co":117.0,"o3":33.0,"so2":11.4,"mosquito_risk":7,"arthritis_risk":5,"migraine_risk":4,"frizz_risk":1,"updated_at":"2026-06-01T03:32:37.028027+05:30"},{"city":"Rajkot","state":"Gujarat","latitude":22.3039,"longitude":70.8022,"temp":28.5,"humidity":77,"rain":0.0,"pressure":993.1,"uv_index":7.55,"wind_gusts":43.2,"aqi":63,"pm10":22.6,"pm2_5":12.8,"no2":3.8,"co":101.0,"o3":40.0,"so2":4.0,"mosquito_risk":7,"arthritis_risk":5,"migraine_risk":7,"frizz_risk":1,"updated_at":"2026-06-01T03:32:37.028035+05:30"},{"city":"Thane","state":"Maharashtra","latitude":19.2183,"longitude":72.9781,"temp":29.8,"humidity":75,"rain":0.0,"pressure":1007.2,"uv_index":7.7,"wind_gusts":34.9,"aqi":59,"pm10":21.4,"pm2_5":11.8,"no2":4.8,"co":144.0,"o3":41.0,"so2":4.1,"mosquito_risk":7,"arthritis_risk":5,"migraine_risk":4,"frizz_risk":1,"updated_at":"2026-06-01T03:32:37.028042+05:30"},{"city":"Nagpur","state":"Maharashtra","latitude":21.1458,"longitude":79.0882,"temp":31.1,"humidity":37,"rain":0.0,"pressure":972.1,"uv_index":8.85,"wind_gusts":43.6,"aqi":80,"pm10":26.5,"pm2_5":20.7,"no2":17.7,"co":245.0,"o3":45.0,"so2":6.2,"mosquito_risk":0,"arthritis_risk":5,"migraine_risk":7,"frizz_risk":0,"updated_at":"2026-06-01T03:32:37.028050+05:30"},{"city":"Nashik","state":"Maharashtra","latitude":19.9975,"longitude":73.7898,"temp":24.5,"humidity":90,"rain":0.0,"pressure":945.2,"uv_index":8.0,"wind_gusts":40.3,"aqi":50,"pm10":13.9,"pm2_5":9.0,"no2":5.8,"co":123.0,"o3":39.0,"so2":3.8,"mosquito_risk":3,"arthritis_risk":5,"migraine_risk":7,"frizz_risk":1,"updated_at":"2026-06-01T03:32:37.028057+05:30"},{"city":"Aurangabad","state":"Maharashtra","latitude":19.8762,"longitude":75.3433,"temp":26.3,"humidity":74,"rain":0.0,"pressure":944.0,"uv_index":8.95,"wind_gusts":54.4,"aqi":59,"pm10":16.3,"pm2_5":10.6,"no2":7.7,"co":135.0,"o3":40.0,"so2":6.4,"mosquito_risk":7,"arthritis_risk":5,"migraine_risk":7,"frizz_risk":1,"updated_at":"2026-06-01T03:32:37.028063+05:30"},{"city":"Solapur","state":"Maharashtra","latitude":17.6599,"longitude":75.9064,"temp":29.0,"humidity":56,"rain":0.0,"pressure":956.7,"uv_index":8.95,"wind_gusts":35.6,"aqi":62,"pm10":31.5,"pm2_5":19.8,"no2":12.4,"co":165.0,"o3":56.0,"so2":4.1,"mosquito_risk":4,"arthritis_risk":5,"migraine_risk":7,"frizz_risk":1,"updated_at":"2026-06-01T03:32:37.028070+05:30"},{"city":"Kolhapur","state":"Maharashtra","latitude":16.705,"longitude":74.2433,"temp":24.5,"humidity":90,"rain":0.0,"pressure":947.8,"uv_index":8.75,"wind_gusts":50.8,"aqi":37,"pm10":15.8,"pm2_5":11.9,"no2":8.3,"co":162.0,"o3":37.0,"so2":2.9,"mosquito_risk":3,"arthritis_risk":5,"migraine_risk":7,"frizz_risk":1,"updated_at":"2026-06-01T03:32:37.028078+05:30"},{"city":"Goa","state":"Goa","latitude":15.2993,"longitude":74.124,"temp":26.9,"humidity":95,"rain":0.0,"pressure":997.7,"uv_index":8.5,"wind_gusts":28.8,"aqi":51,"pm10":28.2,"pm2_5":22.3,"no2":7.9,"co":394.0,"o3":43.0,"so2":2.2,"mosquito_risk":7,"arthritis_risk":5,"migraine_risk":7,"frizz_risk":1,"updated_at":"2026-06-01T03:32:37.028086+05:30"},{"city":"Jodhpur","state":"Rajasthan","latitude":26.2389,"longitude":73.0243,"temp":29.6,"humidity":59,"rain":0.0,"pressure":980.3,"uv_index":8.15,"wind_gusts":35.3,"aqi":110,"pm10":186.7,"pm2_5":44.6,"no2":15.5,"co":139.0,"o3":33.0,"so2":3.7,"mosquito_risk":4,"arthritis_risk":5,"migraine_risk":7,"frizz_risk":1,"updated_at":"2026-06-01T03:32:37.028093+05:30"},{"city":"Udaipur","state":"Rajasthan","latitude":24.5854,"longitude":73.7125,"temp":26.8,"humidity":65,"rain":0.0,"pressure":944.9,"uv_index":8.8,"wind_gusts":38.9,"aqi":73,"pm10":52.6,"pm2_5":23.1,"no2":5.1,"co":136.0,"o3":54.0,"so2":3.3,"mosquito_risk":7,"arthritis_risk":5,"migraine_risk":7,"frizz_risk":1,"updated_at":"2026-06-01T03:32:37.028102+05:30"},{"city":"Kota","state":"Rajasthan","latitude":25.2138,"longitude":75.8648,"temp":27.3,"humidity":71,"rain":0.0,"pressure":977.0,"uv_index":8.35,"wind_gusts":49.0,"aqi":74,"pm10":60.5,"pm2_5":33.8,"no2":13.2,"co":426.0,"o3":41.0,"so2":6.8,"mosquito_risk":7,"arthritis_risk":5,"migraine_risk":7,"frizz_risk":1,"updated_at":"2026-06-01T03:32:37.028109+05:30"},{"city":"Bikaner","state":"Rajasthan","latitude":28.0229,"longitude":73.3119,"temp":28.1,"humidity":52,"rain":0.0,"pressure":980.0,"uv_index":8.15,"wind_gusts":28.8,"aqi":94,"pm10":117.6,"pm2_5":40.9,"no2":8.3,"co":165.0,"o3":32.0,"so2":3.8,"mosquito_risk":4,"arthritis_risk":5,"migraine_risk":7,"frizz_risk":1,"updated_at":"2026-06-01T03:32:37.028116+05:30"},{"city":"Ajmer","state":"Rajasthan","latitude":26.4499,"longitude":74.6399,"temp":26.6,"humidity":71,"rain":0.0,"pressure":953.0,"uv_index":8.3,"wind_gusts":72.4,"aqi":76,"pm10":113.9,"pm2_5":41.4,"no2":14.5,"co":254.0,"o3":46.0,"so2":4.8,"mosquito_risk":7,"arthritis_risk":5,"migraine_risk":7,"frizz_risk":1,"updated_at":"2026-06-01T03:32:37.028123+05:30"},{"city":"Gwalior","state":"Madhya Pradesh","latitude":26.2183,"longitude":78.1828,"temp":25.2,"humidity":79,"rain":0.0,"pressure":982.2,"uv_index":8.2,"wind_gusts":46.4,"aqi":84,"pm10":56.6,"pm2_5":26.6,"no2":10.8,"co":273.0,"o3":62.0,"so2":5.3,"mosquito_risk":7,"arthritis_risk":5,"migraine_risk":7,"frizz_risk":1,"updated_at":"2026-06-01T03:32:37.028129+05:30"},{"city":"Indore","state":"Madhya Pradesh","latitude":22.7196,"longitude":75.8577,"temp":27.9,"humidity":57,"rain":0.0,"pressure":947.4,"uv_index":8.6,"wind_gusts":43.6,"aqi":75,"pm10":55.5,"pm2_5":34.8,"no2":14.9,"co":206.0,"o3":45.0,"so2":9.5,"mosquito_risk":4,"arthritis_risk":5,"migraine_risk":7,"frizz_risk":1,"updated_at":"2026-06-01T03:32:37.028135+05:30"},{"city":"Bhopal","state":"Madhya Pradesh","latitude":23.2599,"longitude":77.4126,"temp":27.5,"humidity":50,"rain":0.0,"pressure":952.3,"uv_index":8.65,"wind_gusts":61.2,"aqi":54,"pm10":37.5,"pm2_5":22.5,"no2":6.9,"co":370.0,"o3":63.0,"so2":4.3,"mosquito_risk":4,"arthritis_risk":5,"migraine_risk":7,"frizz_risk":0,"updated_at":"2026-06-01T03:32:37.028143+05:30"},{"city":"Jabalpur","state":"Madhya Pradesh","latitude":23.1815,"longitude":79.9864,"temp":27.1,"humidity":57,"rain":0.0,"pressure":960.2,"uv_index":8.85,"wind_gusts":39.6,"aqi":81,"pm10":52.4,"pm2_5":37.4,"no2":27.3,"co":282.0,"o3":30.0,"so2":4.3,"mosquito_risk":4,"arthritis_risk":5,"migraine_risk":7,"frizz_risk":1,"updated_at":"2026-06-01T03:32:37.028149+05:30"},{"city":"Ujjain","state":"Madhya Pradesh","latitude":23.1765,"longitude":75.7885,"temp":27.5,"humidity":59,"rain":0.0,"pressure":953.0,"uv_index":8.55,"wind_gusts":38.9,"aqi":72,"pm10":48.2,"pm2_5":26.8,"no2":5.9,"co":232.0,"o3":54.0,"so2":6.3,"mosquito_risk":4,"arthritis_risk":5,"migraine_risk":7,"frizz_risk":1,"updated_at":"2026-06-01T03:32:37.028156+05:30"},{"city":"Visakhapatnam","state":"Andhra Pradesh","latitude":17.6868,"longitude":83.2185,"temp":29.0,"humidity":94,"rain":0.0,"pressure":1001.8,"uv_index":9.0,"wind_gusts":37.4,"aqi":120,"pm10":43.4,"pm2_5":36.1,"no2":24.6,"co":350.0,"o3":74.0,"so2":33.7,"mosquito_risk":7,"arthritis_risk":5,"migraine_risk":4,"frizz_risk":1,"updated_at":"2026-06-01T03:32:37.028162+05:30"},{"city":"Vijayawada","state":"Andhra Pradesh","latitude":16.5062,"longitude":80.648,"temp":30.0,"humidity":74,"rain":0.0,"pressure":1000.3,"uv_index":9.0,"wind_gusts":28.1,"aqi":96,"pm10":32.1,"pm2_5":28.4,"no2":8.3,"co":249.0,"o3":89.0,"so2":5.4,"mosquito_risk":7,"arthritis_risk":5,"migraine_risk":4,"frizz_risk":1,"updated_at":"2026-06-01T03:32:37.028168+05:30"},{"city":"Guntur","state":"Andhra Pradesh","latitude":16.3067,"longitude":80.4365,"temp":29.6,"humidity":73,"rain":0.0,"pressure":1001.3,"uv_index":9.05,"wind_gusts":30.6,"aqi":89,"pm10":27.8,"pm2_5":23.6,"no2":8.5,"co":240.0,"o3":77.0,"so2":4.6,"mosquito_risk":7,"arthritis_risk":5,"migraine_risk":4,"frizz_risk":1,"updated_at":"2026-06-01T03:32:37.028175+05:30"},{"city":"Nellore","state":"Andhra Pradesh","latitude":14.4426,"longitude":79.9865,"temp":29.8,"humidity":72,"rain":0.0,"pressure":1003.8,"uv_index":8.7,"wind_gusts":38.2,"aqi":78,"pm10":25.3,"pm2_5":18.9,"no2":6.6,"co":241.0,"o3":80.0,"so2":4.2,"mosquito_risk":7,"arthritis_risk":5,"migraine_risk":4,"frizz_risk":1,"updated_at":"2026-06-01T03:32:37.028182+05:30"},{"city":"Kurnool","state":"Andhra Pradesh","latitude":15.8281,"longitude":78.0373,"temp":29.3,"humidity":54,"rain":0.0,"pressure":975.9,"uv_index":8.9,"wind_gusts":40.3,"aqi":73,"pm10":26.1,"pm2_5":17.2,"no2":9.0,"co":162.0,"o3":56.0,"so2":3.1,"mosquito_risk":4,"arthritis_risk":5,"migraine_risk":7,"frizz_risk":1,"updated_at":"2026-06-01T03:32:37.028189+05:30"},{"city":"Kakinada","state":"Andhra Pradesh","latitude":16.9891,"longitude":82.2475,"temp":29.2,"humidity":83,"rain":0.0,"pressure":1005.5,"uv_index":9.0,"wind_gusts":28.1,"aqi":92,"pm10":35.2,"pm2_5":27.7,"no2":3.6,"co":288.0,"o3":115.0,"so2":3.4,"mosquito_risk":7,"arthritis_risk":5,"migraine_risk":4,"frizz_risk":1,"updated_at":"2026-06-01T03:32:37.028196+05:30"},{"city":"Tirupati","state":"Andhra Pradesh","latitude":13.6288,"longitude":79.4192,"temp":27.2,"humidity":75,"rain":0.0,"pressure":989.9,"uv_index":9.0,"wind_gusts":25.9,"aqi":69,"pm10":18.5,"pm2_5":15.7,"no2":11.5,"co":176.0,"o3":54.0,"so2":1.9,"mosquito_risk":7,"arthritis_risk":5,"migraine_risk":7,"frizz_risk":1,"updated_at":"2026-06-01T03:32:37.028202+05:30"},{"city":"Warangal","state":"Telangana","latitude":17.9689,"longitude":79.5941,"temp":28.4,"humidity":53,"rain":0.0,"pressure":976.6,"uv_index":9.05,"wind_gusts":28.4,"aqi":116,"pm10":89.6,"pm2_5":68.2,"no2":38.4,"co":461.0,"o3":16.0,"so2":6.2,"mosquito_risk":4,"arthritis_risk":5,"migraine_risk":7,"frizz_risk":1,"updated_at":"2026-06-01T03:32:37.028208+05:30"},{"city":"Nizamabad","state":"Telangana","latitude":18.6725,"longitude":78.0941,"temp":28.3,"humidity":49,"rain":0.0,"pressure":963.1,"uv_index":9.0,"wind_gusts":31.0,"aqi":85,"pm10":36.7,"pm2_5":20.8,"no2":6.6,"co":230.0,"o3":75.0,"so2":3.1,"mosquito_risk":4,"arthritis_risk":5,"migraine_risk":7,"frizz_risk":1,"updated_at":"2026-06-01T03:32:37.028215+05:30"},{"city":"Mysore","state":"Karnataka","latitude":12.2958,"longitude":76.6396,"temp":23.1,"humidity":90,"rain":0.0,"pressure":928.8,"uv_index":8.2,"wind_gusts":44.3,"aqi":45,"pm10":7.3,"pm2_5":6.6,"no2":6.5,"co":159.0,"o3":55.0,"so2":1.8,"mosquito_risk":3,"arthritis_risk":5,"migraine_risk":7,"frizz_risk":1,"updated_at":"2026-06-01T03:32:37.028221+05:30"},{"city":"Mangalore","state":"Karnataka","latitude":12.9141,"longitude":74.856,"temp":26.9,"humidity":88,"rain":0.0,"pressure":1007.2,"uv_index":6.9,"wind_gusts":33.5,"aqi":50,"pm10":13.0,"pm2_5":10.3,"no2":6.0,"co":211.0,"o3":48.0,"so2":2.2,"mosquito_risk":7,"arthritis_risk":5,"migraine_risk":4,"frizz_risk":1,"updated_at":"2026-06-01T03:32:37.028227+05:30"},{"city":"Hubli-Dharwad","state":"Karnataka","latitude":15.3647,"longitude":75.124,"temp":24.1,"humidity":90,"rain":0.0,"pressure":940.9,"uv_index":8.95,"wind_gusts":41.8,"aqi":28,"pm10":9.2,"pm2_5":6.8,"no2":4.9,"co":150.0,"o3":36.0,"so2":1.5,"mosquito_risk":3,"arthritis_risk":5,"migraine_risk":7,"frizz_risk":1,"updated_at":"2026-06-01T03:32:37.028234+05:30"},{"city":"Belgaum","state":"Karnataka","latitude":15.8497,"longitude":74.4977,"temp":22.3,"humidity":98,"rain":0.0,"pressure":925.3,"uv_index":8.95,"wind_gusts":44.3,"aqi":36,"pm10":17.0,"pm2_5":13.5,"no2":8.4,"co":141.0,"o3":31.0,"so2":1.0,"mosquito_risk":3,"arthritis_risk":5,"migraine_risk":7,"frizz_risk":1,"updated_at":"2026-06-01T03:32:40.354835+05:30"},{"city":"Coimbatore","state":"Tamil Nadu","latitude":11.0168,"longitude":76.9558,"temp":25.2,"humidity":84,"rain":0.0,"pressure":961.9,"uv_index":7.15,"wind_gusts":48.2,"aqi":31,"pm10":3.9,"pm2_5":3.3,"no2":5.7,"co":164.0,"o3":51.0,"so2":2.4,"mosquito_risk":7,"arthritis_risk":5,"migraine_risk":7,"frizz_risk":1,"updated_at":"2026-06-01T03:32:40.354871+05:30"},{"city":"Madurai","state":"Tamil Nadu","latitude":9.9252,"longitude":78.1198,"temp":30.0,"humidity":62,"rain":0.0,"pressure":992.7,"uv_index":8.5,"wind_gusts":30.6,"aqi":73,"pm10":32.2,"pm2_5":27.2,"no2":27.7,"co":185.0,"o3":9.0,"so2":4.4,"mosquito_risk":7,"arthritis_risk":5,"migraine_risk":7,"frizz_risk":1,"updated_at":"2026-06-01T03:32:40.354883+05:30"},{"city":"Trichy","state":"Tamil Nadu","latitude":10.7905,"longitude":78.7047,"temp":28.9,"humidity":72,"rain":0.0,"pressure":999.5,"uv_index":7.8,"wind_gusts":37.1,"aqi":51,"pm10":7.5,"pm2_5":6.4,"no2":7.7,"co":150.0,"o3":51.0,"so2":3.2,"mosquito_risk":7,"arthritis_risk":5,"migraine_risk":7,"frizz_risk":1,"updated_at":"2026-06-01T03:32:40.354892+05:30"},{"city":"Salem","state":"Tamil Nadu","latitude":11.6643,"longitude":78.146,"temp":27.3,"humidity":75,"rain":0.0,"pressure":977.4,"uv_index":8.7,"wind_gusts":36.4,"aqi":70,"pm10":21.8,"pm2_5":18.5,"no2":17.3,"co":180.0,"o3":42.0,"so2":7.1,"mosquito_risk":7,"arthritis_risk":5,"migraine_risk":7,"frizz_risk":1,"updated_at":"2026-06-01T03:32:40.354900+05:30"},{"city":"Tirunelveli","state":"Tamil Nadu","latitude":8.7139,"longitude":77.7567,"temp":28.1,"humidity":71,"rain":0.0,"pressure":1003.0,"uv_index":8.65,"wind_gusts":38.5,"aqi":28,"pm10":8.8,"pm2_5":6.8,"no2":5.5,"co":164.0,"o3":40.0,"so2":1.7,"mosquito_risk":7,"arthritis_risk":5,"migraine_risk":4,"frizz_risk":1,"updated_at":"2026-06-01T03:32:40.354908+05:30"},{"city":"Vellore","state":"Tamil Nadu","latitude":12.9165,"longitude":79.1325,"temp":28.1,"humidity":60,"rain":0.0,"pressure":983.6,"uv_index":5.85,"wind_gusts":29.5,"aqi":87,"pm10":30.0,"pm2_5":26.1,"no2":15.1,"co":231.0,"o3":43.0,"so2":4.3,"mosquito_risk":4,"arthritis_risk":5,"migraine_risk":3,"frizz_risk":1,"updated_at":"2026-06-01T03:32:40.354916+05:30"},{"city":"Erode","state":"Tamil Nadu","latitude":11.341,"longitude":77.7172,"temp":28.1,"humidity":73,"rain":0.0,"pressure":989.1,"uv_index":3.8,"wind_gusts":46.1,"aqi":49,"pm10":10.6,"pm2_5":9.5,"no2":11.6,"co":186.0,"o3":37.0,"so2":3.2,"mosquito_risk":7,"arthritis_risk":5,"migraine_risk":3,"frizz_risk":1,"updated_at":"2026-06-01T03:32:40.354923+05:30"},{"city":"Kochi","state":"Kerala","latitude":9.9312,"longitude":76.2673,"temp":26.3,"humidity":96,"rain":0.0,"pressure":1009.2,"uv_index":8.1,"wind_gusts":31.0,"aqi":54,"pm10":14.8,"pm2_5":13.1,"no2":15.4,"co":199.0,"o3":17.0,"so2":4.4,"mosquito_risk":7,"arthritis_risk":0,"migraine_risk":4,"frizz_risk":1,"updated_at":"2026-06-01T03:32:40.354930+05:30"},{"city":"Thiruvananthapuram","state":"Kerala","latitude":8.5241,"longitude":76.9366,"temp":24.3,"humidity":98,"rain":0.0,"pressure":1008.7,"uv_index":6.9,"wind_gusts":35.3,"aqi":29,"pm10":12.7,"pm2_5":9.0,"no2":5.5,"co":179.0,"o3":48.0,"so2":2.9,"mosquito_risk":3,"arthritis_risk":0,"migraine_risk":4,"frizz_risk":1,"updated_at":"2026-06-01T03:32:40.354939+05:30"},{"city":"Kozhikode","state":"Kerala","latitude":11.2588,"longitude":75.7804,"temp":25.5,"humidity":99,"rain":0.0,"pressure":1008.3,"uv_index":6.8,"wind_gusts":28.8,"aqi":32,"pm10":7.5,"pm2_5":5.0,"no2":2.5,"co":319.0,"o3":66.0,"so2":1.6,"mosquito_risk":7,"arthritis_risk":0,"migraine_risk":4,"frizz_risk":1,"updated_at":"2026-06-01T03:32:40.354947+05:30"},{"city":"Thrissur","state":"Kerala","latitude":10.5276,"longitude":76.2144,"temp":24.9,"humidity":96,"rain":0.0,"pressure":1007.6,"uv_index":8.05,"wind_gusts":27.7,"aqi":48,"pm10":10.5,"pm2_5":9.1,"no2":12.9,"co":237.0,"o3":25.0,"so2":4.1,"mosquito_risk":3,"arthritis_risk":5,"migraine_risk":4,"frizz_risk":1,"updated_at":"2026-06-01T03:32:40.354955+05:30"},{"city":"Kannur","state":"Kerala","latitude":11.8745,"longitude":75.3704,"temp":26.4,"humidity":87,"rain":0.0,"pressure":1007.2,"uv_index":5.95,"wind_gusts":25.2,"aqi":37,"pm10":8.7,"pm2_5":7.0,"no2":6.3,"co":163.0,"o3":40.0,"so2":1.9,"mosquito_risk":7,"arthritis_risk":5,"migraine_risk":0,"frizz_risk":1,"updated_at":"2026-06-01T03:32:40.354962+05:30"},{"city":"Patna","state":"Bihar","latitude":25.5941,"longitude":85.1376,"temp":27.6,"humidity":85,"rain":0.0,"pressure":999.4,"uv_index":8.9,"wind_gusts":15.1,"aqi":159,"pm10":134.1,"pm2_5":116.9,"no2":43.8,"co":695.0,"o3":54.0,"so2":25.0,"mosquito_risk":7,"arthritis_risk":5,"migraine_risk":7,"frizz_risk":1,"updated_at":"2026-06-01T03:32:40.354968+05:30"},{"city":"Gaya","state":"Bihar","latitude":24.7914,"longitude":85.0002,"temp":25.3,"humidity":83,"rain":0.0,"pressure":992.9,"uv_index":8.7,"wind_gusts":21.2,"aqi":138,"pm10":75.0,"pm2_5":68.7,"no2":35.8,"co":489.0,"o3":22.0,"so2":10.7,"mosquito_risk":7,"arthritis_risk":5,"migraine_risk":7,"frizz_risk":1,"updated_at":"2026-06-01T03:32:40.354975+05:30"},{"city":"Muzaffarpur","state":"Bihar","latitude":26.1209,"longitude":85.3647,"temp":25.9,"humidity":80,"rain":0.0,"pressure":999.5,"uv_index":8.65,"wind_gusts":18.7,"aqi":162,"pm10":148.1,"pm2_5":132.7,"no2":57.4,"co":909.0,"o3":33.0,"so2":24.3,"mosquito_risk":7,"arthritis_risk":5,"migraine_risk":7,"frizz_risk":1,"updated_at":"2026-06-01T03:32:40.354982+05:30"},{"city":"Bhagalpur","state":"Bihar","latitude":25.2425,"longitude":87.0117,"temp":27.0,"humidity":85,"rain":0.0,"pressure":1000.3,"uv_index":8.8,"wind_gusts":13.7,"aqi":156,"pm10":73.6,"pm2_5":64.0,"no2":22.2,"co":391.0,"o3":71.0,"so2":12.6,"mosquito_risk":7,"arthritis_risk":5,"migraine_risk":4,"frizz_risk":1,"updated_at":"2026-06-01T03:32:40.354989+05:30"},{"city":"Ranchi","state":"Jharkhand","latitude":23.3441,"longitude":85.3096,"temp":23.3,"humidity":80,"rain":0.0,"pressure":936.8,"uv_index":9.25,"wind_gusts":40.0,"aqi":117,"pm10":79.4,"pm2_5":65.2,"no2":36.7,"co":389.0,"o3":41.0,"so2":5.5,"mosquito_risk":3,"arthritis_risk":5,"migraine_risk":7,"frizz_risk":1,"updated_at":"2026-06-01T03:32:40.354996+05:30"},{"city":"Jamshedpur","state":"Jharkhand","latitude":22.8046,"longitude":86.2029,"temp":25.4,"humidity":98,"rain":0.0,"pressure":990.0,"uv_index":9.05,"wind_gusts":19.1,"aqi":152,"pm10":124.8,"pm2_5":112.9,"no2":56.9,"co":753.0,"o3":21.0,"so2":24.4,"mosquito_risk":7,"arthritis_risk":5,"migraine_risk":7,"frizz_risk":1,"updated_at":"2026-06-01T03:32:40.355002+05:30"},{"city":"Dhanbad","state":"Jharkhand","latitude":23.7957,"longitude":86.4304,"temp":25.6,"humidity":92,"rain":0.0,"pressure":979.3,"uv_index":9.05,"wind_gusts":18.4,"aqi":169,"pm10":206.3,"pm2_5":191.9,"no2":59.6,"co":1171.0,"o3":41.0,"so2":268.5,"mosquito_risk":7,"arthritis_risk":5,"migraine_risk":7,"frizz_risk":1,"updated_at":"2026-06-01T03:32:40.355009+05:30"},{"city":"Bokaro","state":"Jharkhand","latitude":23.6693,"longitude":86.1511,"temp":24.9,"humidity":97,"rain":0.0,"pressure":983.1,"uv_index":9.05,"wind_gusts":20.9,"aqi":174,"pm10":235.6,"pm2_5":219.3,"no2":65.8,"co":755.0,"o3":48.0,"so2":284.8,"mosquito_risk":3,"arthritis_risk":5,"migraine_risk":7,"frizz_risk":1,"updated_at":"2026-06-01T03:32:40.355016+05:30"},{"city":"Bhubaneswar","state":"Odisha","latitude":20.2961,"longitude":85.8245,"temp":27.1,"humidity":95,"rain":0.0,"pressure":1001.1,"uv_index":9.05,"wind_gusts":33.5,"aqi":115,"pm10":51.1,"pm2_5":47.0,"no2":14.0,"co":355.0,"o3":66.0,"so2":8.2,"mosquito_risk":7,"arthritis_risk":5,"migraine_risk":4,"frizz_risk":1,"updated_at":"2026-06-01T03:32:40.355024+05:30"},{"city":"Cuttack","state":"Odisha","latitude":20.4625,"longitude":85.8828,"temp":27.4,"humidity":95,"rain":0.0,"pressure":1003.0,"uv_index":9.1,"wind_gusts":27.0,"aqi":115,"pm10":51.1,"pm2_5":47.0,"no2":14.0,"co":351.0,"o3":66.0,"so2":8.2,"mosquito_risk":7,"arthritis_risk":5,"migraine_risk":4,"frizz_risk":1,"updated_at":"2026-06-01T03:32:40.355031+05:30"},{"city":"Rourkela","state":"Odisha","latitude":22.2604,"longitude":84.8536,"temp":26.7,"humidity":79,"rain":0.0,"pressure":984.1,"uv_index":9.0,"wind_gusts":38.5,"aqi":120,"pm10":73.1,"pm2_5":63.8,"no2":31.5,"co":555.0,"o3":27.0,"so2":13.3,"mosquito_risk":7,"arthritis_risk":5,"migraine_risk":7,"frizz_risk":1,"updated_at":"2026-06-01T03:32:40.355039+05:30"},{"city":"Raipur","state":"Chhattisgarh","latitude":21.2514,"longitude":81.6296,"temp":29.9,"humidity":52,"rain":0.0,"pressure":973.7,"uv_index":7.7,"wind_gusts":29.2,"aqi":124,"pm10":51.7,"pm2_5":40.3,"no2":32.8,"co":374.0,"o3":55.0,"so2":30.0,"mosquito_risk":4,"arthritis_risk":5,"migraine_risk":7,"frizz_risk":1,"updated_at":"2026-06-01T03:32:40.355046+05:30"},{"city":"Bhilai","state":"Chhattisgarh","latitude":21.1938,"longitude":81.3509,"temp":28.2,"humidity":61,"rain":0.0,"pressure":974.1,"uv_index":8.6,"wind_gusts":31.3,"aqi":137,"pm10":53.7,"pm2_5":43.0,"no2":42.3,"co":350.0,"o3":44.0,"so2":54.2,"mosquito_risk":7,"arthritis_risk":5,"migraine_risk":7,"frizz_risk":1,"updated_at":"2026-06-01T03:32:40.355052+05:30"},{"city":"Guwahati","state":"Assam","latitude":26.1158,"longitude":91.7086,"temp":25.2,"humidity":96,"rain":0.1,"pressure":1001.3,"uv_index":8.35,"wind_gusts":23.0,"aqi":71,"pm10":31.3,"pm2_5":26.3,"no2":15.1,"co":390.0,"o3":16.0,"so2":1.4,"mosquito_risk":10,"arthritis_risk":5,"migraine_risk":4,"frizz_risk":1,"updated_at":"2026-06-01T03:32:40.355059+05:30"},{"city":"Agartala","state":"Tripura","latitude":23.8315,"longitude":91.2868,"temp":25.9,"humidity":89,"rain":0.0,"pressure":1005.4,"uv_index":8.9,"wind_gusts":19.4,"aqi":150,"pm10":55.5,"pm2_5":49.8,"no2":18.6,"co":516.0,"o3":53.0,"so2":6.0,"mosquito_risk":7,"arthritis_risk":5,"migraine_risk":4,"frizz_risk":1,"updated_at":"2026-06-01T03:32:40.355066+05:30"},{"city":"Shillong","state":"Meghalaya","latitude":25.5788,"longitude":91.8933,"temp":17.3,"humidity":99,"rain":0.0,"pressure":856.6,"uv_index":6.8,"wind_gusts":23.4,"aqi":59,"pm10":9.7,"pm2_5":6.6,"no2":6.4,"co":230.0,"o3":49.0,"so2":0.7,"mosquito_risk":3,"arthritis_risk":10,"migraine_risk":7,"frizz_risk":1,"updated_at":"2026-06-01T03:32:40.355072+05:30"},{"city":"Imphal","state":"Manipur","latitude":24.817,"longitude":93.9368,"temp":22.0,"humidity":97,"rain":0.0,"pressure":923.0,"uv_index":9.3,"wind_gusts":21.6,"aqi":46,"pm10":15.5,"pm2_5":15.2,"no2":13.8,"co":418.0,"o3":24.0,"so2":3.1,"mosquito_risk":3,"arthritis_risk":5,"migraine_risk":7,"frizz_risk":1,"updated_at":"2026-06-01T03:32:40.355078+05:30"},{"city":"Aizawl","state":"Mizoram","latitude":23.7271,"longitude":92.7176,"temp":18.6,"humidity":99,"rain":0.2,"pressure":891.9,"uv_index":8.4,"wind_gusts":22.0,"aqi":32,"pm10":7.6,"pm2_5":5.5,"no2":3.0,"co":201.0,"o3":45.0,"so2":0.7,"mosquito_risk":6,"arthritis_risk":10,"migraine_risk":7,"frizz_risk":1,"updated_at":"2026-06-01T03:32:40.355085+05:30"},{"city":"Kohima","state":"Nagaland","latitude":25.6701,"longitude":94.1077,"temp":18.5,"humidity":97,"rain":0.1,"pressure":854.9,"uv_index":8.6,"wind_gusts":20.5,"aqi":37,"pm10":3.1,"pm2_5":3.0,"no2":5.6,"co":205.0,"o3":29.0,"so2":0.6,"mosquito_risk":6,"arthritis_risk":10,"migraine_risk":7,"frizz_risk":1,"updated_at":"2026-06-01T03:32:40.355093+05:30"},{"city":"Gangtok","state":"Sikkim","latitude":27.3314,"longitude":88.6138,"temp":14.2,"humidity":91,"rain":0.0,"pressure":836.8,"uv_index":9.25,"wind_gusts":37.8,"aqi":62,"pm10":14.9,"pm2_5":11.0,"no2":5.2,"co":358.0,"o3":97.0,"so2":1.0,"mosquito_risk":3,"arthritis_risk":10,"migraine_risk":7,"frizz_risk":0,"updated_at":"2026-06-01T03:32:40.355099+05:30"},{"city":"Siliguri","state":"West Bengal","latitude":26.7271,"longitude":88.3953,"temp":26.0,"humidity":80,"rain":0.0,"pressure":992.4,"uv_index":8.7,"wind_gusts":27.0,"aqi":127,"pm10":82.4,"pm2_5":62.2,"no2":23.9,"co":669.0,"o3":75.0,"so2":7.0,"mosquito_risk":7,"arthritis_risk":5,"migraine_risk":7,"frizz_risk":1,"updated_at":"2026-06-01T03:32:44.041057+05:30"},{"city":"Durgapur","state":"West Bengal","latitude":23.5204,"longitude":87.3119,"temp":26.7,"humidity":94,"rain":0.0,"pressure":994.2,"uv_index":8.95,"wind_gusts":19.1,"aqi":167,"pm10":115.9,"pm2_5":108.0,"no2":44.7,"co":904.0,"o3":46.0,"so2":33.0,"mosquito_risk":7,"arthritis_risk":5,"migraine_risk":7,"frizz_risk":1,"updated_at":"2026-06-01T03:32:44.041093+05:30"},{"city":"Asansol","state":"West Bengal","latitude":23.6739,"longitude":86.9524,"temp":25.9,"humidity":94,"rain":0.0,"pressure":992.8,"uv_index":9.0,"wind_gusts":20.5,"aqi":160,"pm10":129.0,"pm2_5":118.0,"no2":48.1,"co":887.0,"o3":45.0,"so2":31.6,"mosquito_risk":7,"arthritis_risk":5,"migraine_risk":7,"frizz_risk":1,"updated_at":"2026-06-01T03:32:44.041104+05:30"},{"city":"Pondicherry","state":"Puducherry","latitude":11.9139,"longitude":79.8145,"temp":28.6,"humidity":79,"rain":0.0,"pressure":1007.4,"uv_index":6.0,"wind_gusts":38.5,"aqi":65,"pm10":11.6,"pm2_5":9.2,"no2":12.8,"co":188.0,"o3":42.0,"so2":10.2,"mosquito_risk":7,"arthritis_risk":5,"migraine_risk":0,"frizz_risk":1,"updated_at":"2026-06-01T03:32:44.041113+05:30"},{"city":"Port Blair","state":"Andaman and Nicobar Islands","latitude":11.6234,"longitude":92.7265,"temp":26.0,"humidity":93,"rain":0.0,"pressure":1006.0,"uv_index":7.25,"wind_gusts":36.7,"aqi":38,"pm10":13.8,"pm2_5":6.7,"no2":0.2,"co":116.0,"o3":85.0,"so2":0.4,"mosquito_risk":7,"arthritis_risk":5,"migraine_risk":4,"frizz_risk":1,"updated_at":"2026-06-01T03:32:44.041121+05:30"},{"city":"Haridwar","state":"Uttarakhand","latitude":29.9457,"longitude":78.1642,"temp":22.5,"humidity":91,"rain":0.0,"pressure":973.4,"uv_index":7.55,"wind_gusts":28.1,"aqi":85,"pm10":44.1,"pm2_5":39.9,"no2":40.6,"co":326.0,"o3":24.0,"so2":5.9,"mosquito_risk":3,"arthritis_risk":5,"migraine_risk":7,"frizz_risk":1,"updated_at":"2026-06-01T03:32:44.041130+05:30"},{"city":"Rishikesh","state":"Uttarakhand","latitude":30.0869,"longitude":78.2676,"temp":20.5,"humidity":93,"rain":0.0,"pressure":965.9,"uv_index":7.65,"wind_gusts":24.1,"aqi":58,"pm10":15.8,"pm2_5":12.2,"no2":10.3,"co":435.0,"o3":88.0,"so2":2.1,"mosquito_risk":3,"arthritis_risk":5,"migraine_risk":7,"frizz_risk":1,"updated_at":"2026-06-01T03:32:44.041137+05:30"},{"city":"Nainital","state":"Uttarakhand","latitude":29.3919,"longitude":79.4542,"temp":10.8,"humidity":94,"rain":0.0,"pressure":802.6,"uv_index":6.6,"wind_gusts":45.7,"aqi":62,"pm10":33.2,"pm2_5":26.5,"no2":21.1,"co":263.0,"o3":48.0,"so2":1.1,"mosquito_risk":3,"arthritis_risk":10,"migraine_risk":7,"frizz_risk":0,"updated_at":"2026-06-01T03:32:44.041145+05:30"},{"city":"Mussoorie","state":"Uttarakhand","latitude":30.4599,"longitude":78.0664,"temp":13.9,"humidity":73,"rain":0.0,"pressure":801.7,"uv_index":8.05,"wind_gusts":43.9,"aqi":62,"pm10":23.3,"pm2_5":21.2,"no2":37.1,"co":301.0,"o3":26.0,"so2":4.7,"mosquito_risk":3,"arthritis_risk":5,"migraine_risk":7,"frizz_risk":0,"updated_at":"2026-06-01T03:32:44.041152+05:30"},{"city":"Dharamshala","state":"Himachal Pradesh","latitude":32.219,"longitude":76.3234,"temp":19.3,"humidity":64,"rain":0.0,"pressure":868.8,"uv_index":8.15,"wind_gusts":37.8,"aqi":49,"pm10":11.6,"pm2_5":9.0,"no2":13.3,"co":202.0,"o3":31.0,"so2":0.0,"mosquito_risk":3,"arthritis_risk":5,"migraine_risk":7,"frizz_risk":0,"updated_at":"2026-06-01T03:32:44.041160+05:30"},{"city":"Dalhousie","state":"Himachal Pradesh","latitude":32.5387,"longitude":75.971,"temp":12.0,"humidity":94,"rain":0.0,"pressure":802.6,"uv_index":8.7,"wind_gusts":33.5,"aqi":75,"pm10":41.9,"pm2_5":30.9,"no2":26.9,"co":251.0,"o3":30.0,"so2":0.9,"mosquito_risk":3,"arthritis_risk":10,"migraine_risk":7,"frizz_risk":0,"updated_at":"2026-06-01T03:32:44.041167+05:30"},{"city":"Patiala","state":"Punjab","latitude":30.3398,"longitude":76.3869,"temp":23.5,"humidity":77,"rain":0.0,"pressure":977.9,"uv_index":7.6,"wind_gusts":33.8,"aqi":280,"pm10":67.1,"pm2_5":42.8,"no2":15.1,"co":510.0,"o3":67.0,"so2":6.8,"mosquito_risk":3,"arthritis_risk":5,"migraine_risk":7,"frizz_risk":1,"updated_at":"2026-06-01T03:32:44.041175+05:30"},{"city":"Bhatinda","state":"Punjab","latitude":30.211,"longitude":74.9455,"temp":25.0,"humidity":72,"rain":0.0,"pressure":983.3,"uv_index":8.3,"wind_gusts":31.3,"aqi":553,"pm10":322.2,"pm2_5":89.4,"no2":10.8,"co":320.0,"o3":83.0,"so2":7.2,"mosquito_risk":7,"arthritis_risk":5,"migraine_risk":7,"frizz_risk":1,"updated_at":"2026-06-01T03:32:44.041182+05:30"},{"city":"Rohtak","state":"Haryana","latitude":28.8955,"longitude":76.6066,"temp":24.0,"humidity":77,"rain":0.0,"pressure":981.2,"uv_index":7.35,"wind_gusts":25.6,"aqi":388,"pm10":196.0,"pm2_5":57.7,"no2":23.0,"co":435.0,"o3":66.0,"so2":18.2,"mosquito_risk":3,"arthritis_risk":5,"migraine_risk":7,"frizz_risk":1,"updated_at":"2026-06-01T03:32:44.041188+05:30"},{"city":"Panipat","state":"Haryana","latitude":29.3909,"longitude":76.9635,"temp":23.8,"humidity":84,"rain":0.0,"pressure":979.9,"uv_index":7.2,"wind_gusts":29.9,"aqi":419,"pm10":158.8,"pm2_5":58.6,"no2":21.5,"co":469.0,"o3":55.0,"so2":6.6,"mosquito_risk":3,"arthritis_risk":5,"migraine_risk":7,"frizz_risk":1,"updated_at":"2026-06-01T03:32:44.041195+05:30"},{"city":"Mathura","state":"Uttar Pradesh","latitude":27.4924,"longitude":77.6737,"temp":24.5,"humidity":84,"rain":0.0,"pressure":985.9,"uv_index":8.0,"wind_gusts":23.8,"aqi":194,"pm10":462.9,"pm2_5":70.3,"no2":7.5,"co":301.0,"o3":107.0,"so2":5.0,"mosquito_risk":3,"arthritis_risk":5,"migraine_risk":7,"frizz_risk":1,"updated_at":"2026-06-01T03:32:44.041202+05:30"},{"city":"Vrindavan","state":"Uttar Pradesh","latitude":27.5823,"longitude":77.7027,"temp":24.8,"humidity":81,"rain":0.0,"pressure":986.4,"uv_index":7.95,"wind_gusts":24.8,"aqi":194,"pm10":462.9,"pm2_5":70.3,"no2":7.5,"co":312.0,"o3":107.0,"so2":5.0,"mosquito_risk":3,"arthritis_risk":5,"migraine_risk":7,"frizz_risk":1,"updated_at":"2026-06-01T03:32:44.041209+05:30"},{"city":"Ayodhya","state":"Uttar Pradesh","latitude":26.7922,"longitude":82.1998,"temp":24.9,"humidity":95,"rain":0.0,"pressure":994.6,"uv_index":8.4,"wind_gusts":20.5,"aqi":109,"pm10":101.0,"pm2_5":82.4,"no2":73.2,"co":445.0,"o3":12.0,"so2":13.2,"mosquito_risk":3,"arthritis_risk":5,"migraine_risk":7,"frizz_risk":1,"updated_at":"2026-06-01T03:32:44.041215+05:30"},{"city":"Ratlam","state":"Madhya Pradesh","latitude":23.3315,"longitude":75.0367,"temp":26.6,"humidity":70,"rain":0.0,"pressure":953.9,"uv_index":8.45,"wind_gusts":43.2,"aqi":73,"pm10":30.4,"pm2_5":19.6,"no2":5.6,"co":172.0,"o3":52.0,"so2":8.0,"mosquito_risk":7,"arthritis_risk":5,"migraine_risk":7,"frizz_risk":1,"updated_at":"2026-06-01T03:32:44.041222+05:30"},{"city":"Sagar","state":"Madhya Pradesh","latitude":23.8388,"longitude":78.7378,"temp":26.0,"humidity":58,"rain":0.0,"pressure":948.4,"uv_index":8.15,"wind_gusts":39.6,"aqi":42,"pm10":18.3,"pm2_5":15.0,"no2":10.8,"co":217.0,"o3":76.0,"so2":3.9,"mosquito_risk":4,"arthritis_risk":5,"migraine_risk":7,"frizz_risk":1,"updated_at":"2026-06-01T03:32:44.041229+05:30"},{"city":"Satna","state":"Madhya Pradesh","latitude":24.6005,"longitude":80.8322,"temp":25.7,"humidity":71,"rain":0.0,"pressure":970.3,"uv_index":8.75,"wind_gusts":37.1,"aqi":74,"pm10":36.2,"pm2_5":27.4,"no2":13.8,"co":364.0,"o3":72.0,"so2":6.6,"mosquito_risk":7,"arthritis_risk":5,"migraine_risk":7,"frizz_risk":1,"updated_at":"2026-06-01T03:32:44.041235+05:30"},{"city":"Akola","state":"Maharashtra","latitude":20.7002,"longitude":77.0082,"temp":30.5,"humidity":51,"rain":0.0,"pressure":974.0,"uv_index":8.8,"wind_gusts":54.0,"aqi":75,"pm10":37.5,"pm2_5":21.7,"no2":8.6,"co":149.0,"o3":65.0,"so2":8.2,"mosquito_risk":0,"arthritis_risk":5,"migraine_risk":7,"frizz_risk":1,"updated_at":"2026-06-01T03:32:44.041242+05:30"},{"city":"Amravati","state":"Maharashtra","latitude":20.9374,"longitude":77.7796,"temp":30.4,"humidity":40,"rain":0.0,"pressure":966.3,"uv_index":8.8,"wind_gusts":63.0,"aqi":75,"pm10":39.6,"pm2_5":22.6,"no2":9.0,"co":211.0,"o3":65.0,"so2":6.6,"mosquito_risk":0,"arthritis_risk":5,"migraine_risk":7,"frizz_risk":0,"updated_at":"2026-06-01T03:32:44.041250+05:30"},{"city":"Latur","state":"Maharashtra","latitude":18.4088,"longitude":76.5604,"temp":28.8,"humidity":47,"rain":0.0,"pressure":939.2,"uv_index":9.0,"wind_gusts":36.7,"aqi":69,"pm10":28.3,"pm2_5":17.5,"no2":9.7,"co":179.0,"o3":66.0,"so2":3.5,"mosquito_risk":4,"arthritis_risk":5,"migraine_risk":7,"frizz_risk":1,"updated_at":"2026-06-01T03:32:44.041257+05:30"},{"city":"Nanded","state":"Maharashtra","latitude":19.1383,"longitude":77.3091,"temp":29.2,"humidity":45,"rain":0.0,"pressure":967.4,"uv_index":8.9,"wind_gusts":51.5,"aqi":76,"pm10":36.9,"pm2_5":19.7,"no2":8.4,"co":200.0,"o3":63.0,"so2":2.9,"mosquito_risk":4,"arthritis_risk":5,"migraine_risk":7,"frizz_risk":1,"updated_at":"2026-06-01T03:32:44.041264+05:30"},{"city":"Gulbarga","state":"Karnataka","latitude":17.3297,"longitude":76.8343,"temp":29.6,"humidity":43,"rain":0.0,"pressure":957.8,"uv_index":8.95,"wind_gusts":34.6,"aqi":62,"pm10":32.6,"pm2_5":17.1,"no2":9.4,"co":168.0,"o3":66.0,"so2":2.7,"mosquito_risk":4,"arthritis_risk":5,"migraine_risk":7,"frizz_risk":0,"updated_at":"2026-06-01T03:32:44.041271+05:30"},{"city":"Bidar","state":"Karnataka","latitude":17.9104,"longitude":77.5199,"temp":27.6,"humidity":46,"rain":0.0,"pressure":934.3,"uv_index":9.0,"wind_gusts":33.1,"aqi":84,"pm10":45.3,"pm2_5":22.4,"no2":8.7,"co":179.0,"o3":69.0,"so2":4.5,"mosquito_risk":4,"arthritis_risk":5,"migraine_risk":7,"frizz_risk":0,"updated_at":"2026-06-01T03:32:44.041277+05:30"},{"city":"Hospet","state":"Karnataka","latitude":15.2689,"longitude":76.3909,"temp":25.4,"humidity":87,"rain":0.0,"pressure":956.0,"uv_index":9.0,"wind_gusts":49.3,"aqi":38,"pm10":9.0,"pm2_5":6.8,"no2":5.1,"co":145.0,"o3":42.0,"so2":1.5,"mosquito_risk":7,"arthritis_risk":5,"migraine_risk":7,"frizz_risk":1,"updated_at":"2026-06-01T03:32:44.041284+05:30"},{"city":"Tirupur","state":"Tamil Nadu","latitude":11.1085,"longitude":77.3411,"temp":26.4,"humidity":80,"rain":0.0,"pressure":975.2,"uv_index":5.8,"wind_gusts":37.8,"aqi":50,"pm10":11.0,"pm2_5":9.7,"no2":11.6,"co":141.0,"o3":38.0,"so2":3.2,"mosquito_risk":7,"arthritis_risk":5,"migraine_risk":3,"frizz_risk":1,"updated_at":"2026-06-01T03:32:44.041290+05:30"},{"city":"Alappuzha","state":"Kerala","latitude":9.4981,"longitude":76.3388,"temp":25.6,"humidity":99,"rain":0.0,"pressure":1009.3,"uv_index":7.9,"wind_gusts":31.7,"aqi":43,"pm10":14.3,"pm2_5":10.4,"no2":8.7,"co":180.0,"o3":43.0,"so2":3.5,"mosquito_risk":7,"arthritis_risk":0,"migraine_risk":4,"frizz_risk":1,"updated_at":"2026-06-01T03:32:44.041296+05:30"},{"city":"Munnar","state":"Kerala","latitude":10.0889,"longitude":77.0595,"temp":18.0,"humidity":96,"rain":0.0,"pressure":856.5,"uv_index":8.9,"wind_gusts":26.3,"aqi":30,"pm10":4.5,"pm2_5":4.4,"no2":6.3,"co":147.0,"o3":31.0,"so2":0.9,"mosquito_risk":3,"arthritis_risk":10,"migraine_risk":7,"frizz_risk":1,"updated_at":"2026-06-01T03:32:44.041303+05:30"},{"city":"Silchar","state":"Assam","latitude":24.8333,"longitude":92.7789,"temp":25.6,"humidity":97,"rain":0.0,"pressure":1004.6,"uv_index":8.95,"wind_gusts":16.9,"aqi":94,"pm10":39.8,"pm2_5":34.1,"no2":13.5,"co":207.0,"o3":39.0,"so2":5.8,"mosquito_risk":7,"arthritis_risk":5,"migraine_risk":4,"frizz_risk":1,"updated_at":"2026-06-01T03:32:44.041309+05:30"},{"city":"Dibrugarh","state":"Assam","latitude":27.4728,"longitude":94.912,"temp":26.1,"humidity":94,"rain":0.0,"pressure":994.6,"uv_index":8.85,"wind_gusts":21.6,"aqi":84,"pm10":37.4,"pm2_5":35.2,"no2":29.3,"co":271.0,"o3":5.0,"so2":1.9,"mosquito_risk":7,"arthritis_risk":5,"migraine_risk":7,"frizz_risk":1,"updated_at":"2026-06-01T03:32:44.041315+05:30"}]