[{"city":"Delhi","state":"Delhi","latitude":28.6139,"longitude":77.209,"temp":34.0,"humidity":58,"rain":0.0,"pressure":973.1,"uv_index":7.0,"wind_gusts":20.9,"aqi":181,"pm10":95.7,"pm2_5":51.9,"no2":29.7,"co":1156.0,"o3":138.0,"so2":28.2,"mosquito_risk":0,"arthritis_risk":5,"migraine_risk":7,"frizz_risk":1,"updated_at":"2026-07-04T20:09:35.799419+05:30"},{"city":"Mumbai","state":"Maharashtra","latitude":19.076,"longitude":72.8777,"temp":26.4,"humidity":91,"rain":0.4,"pressure":1001.0,"uv_index":0.3,"wind_gusts":46.1,"aqi":30,"pm10":15.0,"pm2_5":8.5,"no2":7.4,"co":230.0,"o3":50.0,"so2":3.5,"mosquito_risk":10,"arthritis_risk":5,"migraine_risk":0,"frizz_risk":1,"updated_at":"2026-07-04T20:09:35.799457+05:30"},{"city":"Bangalore","state":"Karnataka","latitude":12.9716,"longitude":77.5946,"temp":22.9,"humidity":77,"rain":0.0,"pressure":910.0,"uv_index":5.8,"wind_gusts":66.2,"aqi":26,"pm10":6.5,"pm2_5":4.8,"no2":12.9,"co":299.0,"o3":42.0,"so2":3.2,"mosquito_risk":3,"arthritis_risk":5,"migraine_risk":3,"frizz_risk":1,"updated_at":"2026-07-04T20:09:35.799473+05:30"},{"city":"Hyderabad","state":"Telangana","latitude":17.385,"longitude":78.4867,"temp":24.0,"humidity":88,"rain":0.1,"pressure":946.9,"uv_index":2.8,"wind_gusts":59.0,"aqi":25,"pm10":5.5,"pm2_5":4.2,"no2":7.0,"co":242.0,"o3":51.0,"so2":3.2,"mosquito_risk":6,"arthritis_risk":5,"migraine_risk":3,"frizz_risk":1,"updated_at":"2026-07-04T20:09:35.799483+05:30"},{"city":"Chennai","state":"Tamil Nadu","latitude":13.0827,"longitude":80.2707,"temp":29.4,"humidity":71,"rain":0.0,"pressure":1003.4,"uv_index":2.15,"wind_gusts":41.4,"aqi":37,"pm10":18.6,"pm2_5":14.0,"no2":16.3,"co":403.0,"o3":66.0,"so2":10.8,"mosquito_risk":7,"arthritis_risk":5,"migraine_risk":0,"frizz_risk":1,"updated_at":"2026-07-04T20:09:35.799491+05:30"},{"city":"Kolkata","state":"West Bengal","latitude":22.5726,"longitude":88.3639,"temp":29.2,"humidity":79,"rain":0.0,"pressure":994.5,"uv_index":7.5,"wind_gusts":50.4,"aqi":44,"pm10":16.5,"pm2_5":15.5,"no2":12.7,"co":487.0,"o3":58.0,"so2":10.0,"mosquito_risk":7,"arthritis_risk":5,"migraine_risk":7,"frizz_risk":1,"updated_at":"2026-07-04T20:09:35.799499+05:30"},{"city":"Pune","state":"Maharashtra","latitude":18.5204,"longitude":73.8567,"temp":23.0,"humidity":92,"rain":0.2,"pressure":940.8,"uv_index":0.55,"wind_gusts":44.6,"aqi":21,"pm10":1.5,"pm2_5":1.5,"no2":6.3,"co":163.0,"o3":47.0,"so2":2.4,"mosquito_risk":6,"arthritis_risk":5,"migraine_risk":3,"frizz_risk":1,"updated_at":"2026-07-04T20:09:35.799506+05:30"},{"city":"Ahmedabad","state":"Gujarat","latitude":23.0225,"longitude":72.5714,"temp":27.1,"humidity":88,"rain":0.0,"pressure":992.9,"uv_index":5.85,"wind_gusts":24.5,"aqi":56,"pm10":41.7,"pm2_5":22.9,"no2":20.9,"co":253.0,"o3":44.0,"so2":5.6,"mosquito_risk":7,"arthritis_risk":5,"migraine_risk":3,"frizz_risk":1,"updated_at":"2026-07-04T20:09:35.799513+05:30"},{"city":"Jaipur","state":"Rajasthan","latitude":26.9124,"longitude":75.7873,"temp":31.2,"humidity":72,"rain":0.0,"pressure":950.5,"uv_index":7.4,"wind_gusts":21.6,"aqi":111,"pm10":78.9,"pm2_5":41.1,"no2":26.5,"co":495.0,"o3":100.0,"so2":10.0,"mosquito_risk":3,"arthritis_risk":5,"migraine_risk":7,"frizz_risk":1,"updated_at":"2026-07-04T20:09:35.799519+05:30"},{"city":"Lucknow","state":"Uttar Pradesh","latitude":26.8467,"longitude":80.9462,"temp":32.4,"humidity":72,"rain":0.0,"pressure":983.5,"uv_index":7.7,"wind_gusts":25.2,"aqi":117,"pm10":35.7,"pm2_5":35.2,"no2":20.3,"co":355.0,"o3":87.0,"so2":10.1,"mosquito_risk":3,"arthritis_risk":5,"migraine_risk":7,"frizz_risk":1,"updated_at":"2026-07-04T20:09:35.799530+05:30"},{"city":"Kanpur","state":"Uttar Pradesh","latitude":26.4499,"longitude":80.3319,"temp":32.9,"humidity":72,"rain":0.0,"pressure":981.5,"uv_index":8.05,"wind_gusts":24.5,"aqi":128,"pm10":31.4,"pm2_5":30.9,"no2":17.1,"co":385.0,"o3":99.0,"so2":8.7,"mosquito_risk":3,"arthritis_risk":5,"migraine_risk":7,"frizz_risk":1,"updated_at":"2026-07-04T20:09:35.799537+05:30"},{"city":"Chandigarh","state":"Chandigarh","latitude":30.7333,"longitude":76.7794,"temp":29.7,"humidity":81,"rain":0.0,"pressure":959.2,"uv_index":7.1,"wind_gusts":23.0,"aqi":145,"pm10":44.5,"pm2_5":43.2,"no2":31.6,"co":1169.0,"o3":114.0,"so2":21.1,"mosquito_risk":7,"arthritis_risk":5,"migraine_risk":7,"frizz_risk":1,"updated_at":"2026-07-04T20:09:35.799544+05:30"},{"city":"Srinagar","state":"Jammu and Kashmir","latitude":34.0837,"longitude":74.7973,"temp":27.6,"humidity":48,"rain":0.0,"pressure":836.3,"uv_index":9.0,"wind_gusts":22.7,"aqi":123,"pm10":25.1,"pm2_5":17.9,"no2":21.1,"co":840.0,"o3":98.0,"so2":3.5,"mosquito_risk":4,"arthritis_risk":5,"migraine_risk":7,"frizz_risk":0,"updated_at":"2026-07-04T20:09:35.799551+05:30"},{"city":"Jammu","state":"Jammu and Kashmir","latitude":32.7266,"longitude":74.857,"temp":33.7,"humidity":51,"rain":0.0,"pressure":961.9,"uv_index":8.6,"wind_gusts":29.9,"aqi":176,"pm10":42.3,"pm2_5":37.6,"no2":38.1,"co":589.0,"o3":122.0,"so2":6.7,"mosquito_risk":0,"arthritis_risk":5,"migraine_risk":7,"frizz_risk":1,"updated_at":"2026-07-04T20:09:35.799558+05:30"},{"city":"Amritsar","state":"Punjab","latitude":31.634,"longitude":74.8723,"temp":33.6,"humidity":58,"rain":0.0,"pressure":970.2,"uv_index":8.45,"wind_gusts":29.2,"aqi":134,"pm10":52.5,"pm2_5":46.6,"no2":25.4,"co":583.0,"o3":95.0,"so2":5.7,"mosquito_risk":0,"arthritis_risk":5,"migraine_risk":7,"frizz_risk":1,"updated_at":"2026-07-04T20:09:35.799564+05:30"},{"city":"Ludhiana","state":"Punjab","latitude":30.901,"longitude":75.8573,"temp":30.6,"humidity":82,"rain":0.0,"pressure":968.6,"uv_index":7.95,"wind_gusts":36.4,"aqi":140,"pm10":52.3,"pm2_5":48.4,"no2":37.2,"co":645.0,"o3":109.0,"so2":13.6,"mosquito_risk":3,"arthritis_risk":5,"migraine_risk":7,"frizz_risk":1,"updated_at":"2026-07-04T20:09:35.799570+05:30"},{"city":"Jalandhar","state":"Punjab","latitude":31.326,"longitude":75.5762,"temp":32.1,"humidity":74,"rain":0.0,"pressure":969.6,"uv_index":8.2,"wind_gusts":34.2,"aqi":153,"pm10":61.0,"pm2_5":55.2,"no2":41.2,"co":950.0,"o3":96.0,"so2":8.7,"mosquito_risk":3,"arthritis_risk":5,"migraine_risk":7,"frizz_risk":1,"updated_at":"2026-07-04T20:09:35.799576+05:30"},{"city":"Dehradun","state":"Uttarakhand","latitude":30.6284,"longitude":78.0322,"temp":20.9,"humidity":94,"rain":0.0,"pressure":825.5,"uv_index":7.15,"wind_gusts":26.3,"aqi":71,"pm10":11.9,"pm2_5":11.8,"no2":14.8,"co":287.0,"o3":95.0,"so2":1.8,"mosquito_risk":3,"arthritis_risk":5,"migraine_risk":7,"frizz_risk":1,"updated_at":"2026-07-04T20:09:35.799583+05:30"},{"city":"Shimla","state":"Himachal Pradesh","latitude":31.1048,"longitude":77.1734,"temp":17.3,"humidity":95,"rain":0.0,"pressure":779.6,"uv_index":7.4,"wind_gusts":28.1,"aqi":96,"pm10":18.0,"pm2_5":17.6,"no2":17.3,"co":465.0,"o3":95.0,"so2":2.8,"mosquito_risk":3,"arthritis_risk":10,"migraine_risk":7,"frizz_risk":1,"updated_at":"2026-07-04T20:09:35.799592+05:30"},{"city":"Manali","state":"Himachal Pradesh","latitude":32.2396,"longitude":77.1887,"temp":21.7,"humidity":93,"rain":0.0,"pressure":815.3,"uv_index":9.45,"wind_gusts":33.5,"aqi":104,"pm10":21.6,"pm2_5":21.2,"no2":89.0,"co":228.0,"o3":61.0,"so2":0.3,"mosquito_risk":3,"arthritis_risk":5,"migraine_risk":7,"frizz_risk":1,"updated_at":"2026-07-04T20:09:35.799600+05:30"},{"city":"Gurgaon","state":"Haryana","latitude":28.4595,"longitude":77.0266,"temp":31.8,"humidity":70,"rain":0.0,"pressure":971.4,"uv_index":6.4,"wind_gusts":21.2,"aqi":188,"pm10":118.7,"pm2_5":54.5,"no2":30.4,"co":1156.0,"o3":160.0,"so2":31.9,"mosquito_risk":3,"arthritis_risk":5,"migraine_risk":7,"frizz_risk":1,"updated_at":"2026-07-04T20:09:35.799606+05:30"},{"city":"Noida","state":"Uttar Pradesh","latitude":28.5355,"longitude":77.391,"temp":31.8,"humidity":74,"rain":0.0,"pressure":974.5,"uv_index":6.8,"wind_gusts":22.0,"aqi":188,"pm10":118.7,"pm2_5":54.5,"no2":30.4,"co":950.0,"o3":160.0,"so2":31.9,"mosquito_risk":3,"arthritis_risk":5,"migraine_risk":7,"frizz_risk":1,"updated_at":"2026-07-04T20:09:35.799613+05:30"},{"city":"Ghaziabad","state":"Uttar Pradesh","latitude":28.6692,"longitude":77.4538,"temp":31.7,"humidity":75,"rain":0.0,"pressure":972.8,"uv_index":7.55,"wind_gusts":22.0,"aqi":159,"pm10":39.1,"pm2_5":39.0,"no2":25.8,"co":508.0,"o3":112.0,"so2":14.7,"mosquito_risk":3,"arthritis_risk":5,"migraine_risk":7,"frizz_risk":1,"updated_at":"2026-07-04T20:09:35.799619+05:30"},{"city":"Faridabad","state":"Haryana","latitude":28.4089,"longitude":77.3178,"temp":33.3,"humidity":64,"rain":0.0,"pressure":973.8,"uv_index":6.75,"wind_gusts":26.3,"aqi":188,"pm10":118.7,"pm2_5":54.5,"no2":30.4,"co":898.0,"o3":160.0,"so2":31.9,"mosquito_risk":3,"arthritis_risk":5,"migraine_risk":7,"frizz_risk":1,"updated_at":"2026-07-04T20:09:35.799625+05:30"},{"city":"Meerut","state":"Uttar Pradesh","latitude":28.9845,"longitude":77.7064,"temp":31.3,"humidity":80,"rain":0.0,"pressure":971.7,"uv_index":7.0,"wind_gusts":26.6,"aqi":159,"pm10":39.1,"pm2_5":39.0,"no2":25.8,"co":512.0,"o3":112.0,"so2":14.7,"mosquito_risk":3,"arthritis_risk":5,"migraine_risk":7,"frizz_risk":1,"updated_at":"2026-07-04T20:09:35.799631+05:30"},{"city":"Agra","state":"Uttar Pradesh","latitude":27.1767,"longitude":78.0081,"temp":32.1,"humidity":71,"rain":0.0,"pressure":977.5,"uv_index":6.65,"wind_gusts":22.3,"aqi":165,"pm10":46.3,"pm2_5":42.0,"no2":27.3,"co":560.0,"o3":106.0,"so2":10.8,"mosquito_risk":3,"arthritis_risk":5,"migraine_risk":7,"frizz_risk":1,"updated_at":"2026-07-04T20:09:35.799637+05:30"},{"city":"Varanasi","state":"Uttar Pradesh","latitude":25.3176,"longitude":82.9739,"temp":32.7,"humidity":63,"rain":0.0,"pressure":987.0,"uv_index":8.7,"wind_gusts":31.0,"aqi":84,"pm10":27.2,"pm2_5":27.0,"no2":16.3,"co":342.0,"o3":90.0,"so2":9.8,"mosquito_risk":3,"arthritis_risk":5,"migraine_risk":7,"frizz_risk":1,"updated_at":"2026-07-04T20:09:35.799644+05:30"},{"city":"Prayagraj","state":"Uttar Pradesh","latitude":25.4358,"longitude":81.8463,"temp":32.5,"humidity":68,"rain":0.0,"pressure":985.5,"uv_index":8.15,"wind_gusts":30.2,"aqi":118,"pm10":25.9,"pm2_5":25.6,"no2":13.6,"co":364.0,"o3":103.0,"so2":8.6,"mosquito_risk":3,"arthritis_risk":5,"migraine_risk":7,"frizz_risk":1,"updated_at":"2026-07-04T20:09:35.799652+05:30"},{"city":"Gorakhpur","state":"Uttar Pradesh","latitude":26.7606,"longitude":83.3732,"temp":32.4,"humidity":69,"rain":0.0,"pressure":987.8,"uv_index":8.55,"wind_gusts":28.8,"aqi":118,"pm10":35.0,"pm2_5":34.7,"no2":16.2,"co":326.0,"o3":97.0,"so2":8.3,"mosquito_risk":3,"arthritis_risk":5,"migraine_risk":7,"frizz_risk":1,"updated_at":"2026-07-04T20:09:35.799658+05:30"},{"city":"Bareilly","state":"Uttar Pradesh","latitude":28.367,"longitude":79.4304,"temp":31.8,"humidity":76,"rain":0.0,"pressure":976.8,"uv_index":7.9,"wind_gusts":25.2,"aqi":145,"pm10":45.6,"pm2_5":43.8,"no2":29.2,"co":360.0,"o3":89.0,"so2":10.5,"mosquito_risk":3,"arthritis_risk":5,"migraine_risk":7,"frizz_risk":1,"updated_at":"2026-07-04T20:09:35.799666+05:30"},{"city":"Aligarh","state":"Uttar Pradesh","latitude":27.8974,"longitude":78.088,"temp":31.6,"humidity":76,"rain":0.0,"pressure":975.4,"uv_index":7.8,"wind_gusts":25.2,"aqi":160,"pm10":43.4,"pm2_5":35.0,"no2":13.8,"co":478.0,"o3":148.0,"so2":13.6,"mosquito_risk":3,"arthritis_risk":5,"migraine_risk":7,"frizz_risk":1,"updated_at":"2026-07-04T20:09:35.799673+05:30"},{"city":"Moradabad","state":"Uttar Pradesh","latitude":28.8386,"longitude":78.7733,"temp":31.4,"humidity":78,"rain":0.0,"pressure":973.8,"uv_index":7.7,"wind_gusts":22.7,"aqi":175,"pm10":48.0,"pm2_5":47.6,"no2":27.4,"co":459.0,"o3":103.0,"so2":13.6,"mosquito_risk":3,"arthritis_risk":5,"migraine_risk":7,"frizz_risk":1,"updated_at":"2026-07-04T20:09:35.799679+05:30"},{"city":"Saharanpur","state":"Uttar Pradesh","latitude":29.9637,"longitude":77.546,"temp":30.6,"humidity":80,"rain":0.0,"pressure":966.1,"uv_index":6.7,"wind_gusts":27.4,"aqi":158,"pm10":45.3,"pm2_5":44.9,"no2":27.7,"co":675.0,"o3":122.0,"so2":22.4,"mosquito_risk":3,"arthritis_risk":5,"migraine_risk":7,"frizz_risk":1,"updated_at":"2026-07-04T20:09:35.799685+05:30"},{"city":"Jhansi","state":"Uttar Pradesh","latitude":25.4484,"longitude":78.5685,"temp":32.4,"humidity":72,"rain":0.0,"pressure":967.3,"uv_index":6.75,"wind_gusts":30.2,"aqi":131,"pm10":21.2,"pm2_5":20.9,"no2":7.6,"co":292.0,"o3":110.0,"so2":6.2,"mosquito_risk":3,"arthritis_risk":5,"migraine_risk":7,"frizz_risk":1,"updated_at":"2026-07-04T20:09:39.087831+05:30"},{"city":"Surat","state":"Gujarat","latitude":21.1702,"longitude":72.8311,"temp":26.5,"humidity":96,"rain":0.3,"pressure":998.1,"uv_index":0.9,"wind_gusts":28.8,"aqi":68,"pm10":18.8,"pm2_5":14.2,"no2":26.2,"co":450.0,"o3":45.0,"so2":34.9,"mosquito_risk":10,"arthritis_risk":5,"migraine_risk":3,"frizz_risk":1,"updated_at":"2026-07-04T20:09:39.087866+05:30"},{"city":"Vadodara","state":"Gujarat","latitude":22.3072,"longitude":73.1812,"temp":26.6,"humidity":95,"rain":0.4,"pressure":995.4,"uv_index":1.05,"wind_gusts":27.7,"aqi":52,"pm10":29.5,"pm2_5":20.1,"no2":28.4,"co":303.0,"o3":34.0,"so2":12.4,"mosquito_risk":10,"arthritis_risk":5,"migraine_risk":3,"frizz_risk":1,"updated_at":"2026-07-04T20:09:39.087879+05:30"},{"city":"Rajkot","state":"Gujarat","latitude":22.3039,"longitude":70.8022,"temp":27.7,"humidity":84,"rain":0.0,"pressure":985.1,"uv_index":6.55,"wind_gusts":33.8,"aqi":58,"pm10":43.4,"pm2_5":20.5,"no2":6.7,"co":110.0,"o3":60.0,"so2":5.6,"mosquito_risk":7,"arthritis_risk":5,"migraine_risk":7,"frizz_risk":1,"updated_at":"2026-07-04T20:09:39.087890+05:30"},{"city":"Thane","state":"Maharashtra","latitude":19.2183,"longitude":72.9781,"temp":25.5,"humidity":96,"rain":0.3,"pressure":1000.2,"uv_index":0.4,"wind_gusts":31.0,"aqi":30,"pm10":15.0,"pm2_5":8.5,"no2":7.4,"co":229.0,"o3":50.0,"so2":3.5,"mosquito_risk":10,"arthritis_risk":5,"migraine_risk":0,"frizz_risk":1,"updated_at":"2026-07-04T20:09:39.087900+05:30"},{"city":"Nagpur","state":"Maharashtra","latitude":21.1458,"longitude":79.0882,"temp":26.0,"humidity":96,"rain":0.2,"pressure":964.5,"uv_index":8.3,"wind_gusts":29.5,"aqi":62,"pm10":16.5,"pm2_5":15.8,"no2":17.9,"co":441.0,"o3":71.0,"so2":13.8,"mosquito_risk":10,"arthritis_risk":5,"migraine_risk":7,"frizz_risk":1,"updated_at":"2026-07-04T20:09:39.087909+05:30"},{"city":"Nashik","state":"Maharashtra","latitude":19.9975,"longitude":73.7898,"temp":23.1,"humidity":95,"rain":0.0,"pressure":937.6,"uv_index":1.15,"wind_gusts":40.7,"aqi":28,"pm10":4.7,"pm2_5":4.4,"no2":14.1,"co":157.0,"o3":41.0,"so2":3.3,"mosquito_risk":3,"arthritis_risk":5,"migraine_risk":3,"frizz_risk":1,"updated_at":"2026-07-04T20:09:39.087917+05:30"},{"city":"Aurangabad","state":"Maharashtra","latitude":19.8762,"longitude":75.3433,"temp":23.5,"humidity":96,"rain":0.2,"pressure":936.5,"uv_index":1.7,"wind_gusts":40.0,"aqi":34,"pm10":6.2,"pm2_5":6.0,"no2":10.8,"co":191.0,"o3":56.0,"so2":5.7,"mosquito_risk":6,"arthritis_risk":5,"migraine_risk":3,"frizz_risk":1,"updated_at":"2026-07-04T20:09:39.087926+05:30"},{"city":"Solapur","state":"Maharashtra","latitude":17.6599,"longitude":75.9064,"temp":24.0,"humidity":91,"rain":0.0,"pressure":951.3,"uv_index":1.05,"wind_gusts":45.0,"aqi":23,"pm10":2.5,"pm2_5":2.4,"no2":5.3,"co":129.0,"o3":44.0,"so2":1.6,"mosquito_risk":3,"arthritis_risk":5,"migraine_risk":3,"frizz_risk":1,"updated_at":"2026-07-04T20:09:39.087935+05:30"},{"city":"Kolhapur","state":"Maharashtra","latitude":16.705,"longitude":74.2433,"temp":22.3,"humidity":96,"rain":0.1,"pressure":943.1,"uv_index":1.3,"wind_gusts":51.5,"aqi":22,"pm10":2.5,"pm2_5":2.2,"no2":4.8,"co":133.0,"o3":47.0,"so2":1.2,"mosquito_risk":6,"arthritis_risk":5,"migraine_risk":3,"frizz_risk":1,"updated_at":"2026-07-04T20:09:39.087943+05:30"},{"city":"Goa","state":"Goa","latitude":15.2993,"longitude":74.124,"temp":24.0,"humidity":98,"rain":0.5,"pressure":996.3,"uv_index":3.8,"wind_gusts":37.8,"aqi":50,"pm10":15.9,"pm2_5":8.6,"no2":1.7,"co":167.0,"o3":51.0,"so2":0.6,"mosquito_risk":6,"arthritis_risk":5,"migraine_risk":3,"frizz_risk":1,"updated_at":"2026-07-04T20:09:39.087952+05:30"},{"city":"Jodhpur","state":"Rajasthan","latitude":26.2389,"longitude":73.0243,"temp":31.6,"humidity":65,"rain":0.0,"pressure":972.8,"uv_index":7.85,"wind_gusts":27.4,"aqi":151,"pm10":163.9,"pm2_5":59.3,"no2":9.6,"co":224.0,"o3":78.0,"so2":4.4,"mosquito_risk":3,"arthritis_risk":5,"migraine_risk":7,"frizz_risk":1,"updated_at":"2026-07-04T20:09:39.087960+05:30"},{"city":"Udaipur","state":"Rajasthan","latitude":24.5854,"longitude":73.7125,"temp":25.9,"humidity":95,"rain":0.1,"pressure":937.9,"uv_index":4.0,"wind_gusts":34.9,"aqi":60,"pm10":82.0,"pm2_5":32.6,"no2":9.6,"co":316.0,"o3":66.0,"so2":4.8,"mosquito_risk":10,"arthritis_risk":5,"migraine_risk":3,"frizz_risk":1,"updated_at":"2026-07-04T20:09:39.087968+05:30"},{"city":"Kota","state":"Rajasthan","latitude":25.2138,"longitude":75.8648,"temp":27.0,"humidity":93,"rain":0.4,"pressure":969.4,"uv_index":7.2,"wind_gusts":30.6,"aqi":87,"pm10":57.2,"pm2_5":33.4,"no2":18.3,"co":258.0,"o3":85.0,"so2":5.6,"mosquito_risk":10,"arthritis_risk":5,"migraine_risk":7,"frizz_risk":1,"updated_at":"2026-07-04T20:09:39.087976+05:30"},{"city":"Bikaner","state":"Rajasthan","latitude":28.0229,"longitude":73.3119,"temp":36.1,"humidity":43,"rain":0.0,"pressure":970.7,"uv_index":7.05,"wind_gusts":31.3,"aqi":116,"pm10":57.2,"pm2_5":30.3,"no2":5.5,"co":241.0,"o3":107.0,"so2":4.2,"mosquito_risk":0,"arthritis_risk":5,"migraine_risk":10,"frizz_risk":1,"updated_at":"2026-07-04T20:09:39.087984+05:30"},{"city":"Ajmer","state":"Rajasthan","latitude":26.4499,"longitude":74.6399,"temp":29.7,"humidity":73,"rain":0.0,"pressure":945.5,"uv_index":7.25,"wind_gusts":33.5,"aqi":121,"pm10":113.2,"pm2_5":45.1,"no2":18.6,"co":527.0,"o3":76.0,"so2":4.4,"mosquito_risk":7,"arthritis_risk":5,"migraine_risk":7,"frizz_risk":1,"updated_at":"2026-07-04T20:09:39.087993+05:30"},{"city":"Gwalior","state":"Madhya Pradesh","latitude":26.2183,"longitude":78.1828,"temp":32.1,"humidity":75,"rain":0.0,"pressure":972.5,"uv_index":7.65,"wind_gusts":35.6,"aqi":111,"pm10":25.0,"pm2_5":24.4,"no2":11.1,"co":413.0,"o3":96.0,"so2":4.1,"mosquito_risk":3,"arthritis_risk":5,"migraine_risk":7,"frizz_risk":1,"updated_at":"2026-07-04T20:09:39.088001+05:30"},{"city":"Indore","state":"Madhya Pradesh","latitude":22.7196,"longitude":75.8577,"temp":24.5,"humidity":95,"rain":0.1,"pressure":939.1,"uv_index":7.45,"wind_gusts":31.3,"aqi":48,"pm10":26.5,"pm2_5":19.8,"no2":14.1,"co":455.0,"o3":72.0,"so2":4.4,"mosquito_risk":6,"arthritis_risk":5,"migraine_risk":7,"frizz_risk":1,"updated_at":"2026-07-04T20:09:39.088009+05:30"},{"city":"Bhopal","state":"Madhya Pradesh","latitude":23.2599,"longitude":77.4126,"temp":26.0,"humidity":94,"rain":0.1,"pressure":944.5,"uv_index":8.5,"wind_gusts":29.9,"aqi":57,"pm10":13.0,"pm2_5":12.4,"no2":10.9,"co":421.0,"o3":72.0,"so2":2.9,"mosquito_risk":10,"arthritis_risk":5,"migraine_risk":7,"frizz_risk":1,"updated_at":"2026-07-04T20:09:39.088019+05:30"},{"city":"Jabalpur","state":"Madhya Pradesh","latitude":23.1815,"longitude":79.9864,"temp":25.6,"humidity":98,"rain":0.0,"pressure":952.2,"uv_index":8.8,"wind_gusts":28.1,"aqi":99,"pm10":22.7,"pm2_5":22.5,"no2":8.6,"co":249.0,"o3":93.0,"so2":5.9,"mosquito_risk":7,"arthritis_risk":5,"migraine_risk":7,"frizz_risk":1,"updated_at":"2026-07-04T20:09:39.088027+05:30"},{"city":"Ujjain","state":"Madhya Pradesh","latitude":23.1765,"longitude":75.7885,"temp":24.7,"humidity":95,"rain":0.1,"pressure":944.6,"uv_index":7.4,"wind_gusts":30.6,"aqi":49,"pm10":26.9,"pm2_5":17.9,"no2":7.9,"co":388.0,"o3":71.0,"so2":3.4,"mosquito_risk":6,"arthritis_risk":5,"migraine_risk":7,"frizz_risk":1,"updated_at":"2026-07-04T20:09:39.088036+05:30"},{"city":"Visakhapatnam","state":"Andhra Pradesh","latitude":17.6868,"longitude":83.2185,"temp":25.4,"humidity":93,"rain":0.4,"pressure":993.6,"uv_index":2.7,"wind_gusts":61.9,"aqi":40,"pm10":9.3,"pm2_5":8.6,"no2":12.2,"co":227.0,"o3":59.0,"so2":18.2,"mosquito_risk":10,"arthritis_risk":5,"migraine_risk":3,"frizz_risk":1,"updated_at":"2026-07-04T20:09:39.088045+05:30"},{"city":"Vijayawada","state":"Andhra Pradesh","latitude":16.5062,"longitude":80.648,"temp":30.0,"humidity":62,"rain":0.0,"pressure":996.1,"uv_index":2.0,"wind_gusts":57.6,"aqi":37,"pm10":10.7,"pm2_5":7.8,"no2":5.8,"co":147.0,"o3":57.0,"so2":3.9,"mosquito_risk":7,"arthritis_risk":5,"migraine_risk":3,"frizz_risk":1,"updated_at":"2026-07-04T20:09:39.088055+05:30"},{"city":"Guntur","state":"Andhra Pradesh","latitude":16.3067,"longitude":80.4365,"temp":30.0,"humidity":61,"rain":0.0,"pressure":997.6,"uv_index":2.05,"wind_gusts":49.7,"aqi":32,"pm10":9.4,"pm2_5":6.7,"no2":5.8,"co":150.0,"o3":55.0,"so2":3.9,"mosquito_risk":7,"arthritis_risk":5,"migraine_risk":3,"frizz_risk":1,"updated_at":"2026-07-04T20:09:39.088062+05:30"},{"city":"Nellore","state":"Andhra Pradesh","latitude":14.4426,"longitude":79.9865,"temp":32.8,"humidity":46,"rain":0.0,"pressure":1001.0,"uv_index":1.65,"wind_gusts":57.6,"aqi":30,"pm10":14.0,"pm2_5":7.4,"no2":3.8,"co":130.0,"o3":58.0,"so2":2.5,"mosquito_risk":0,"arthritis_risk":5,"migraine_risk":0,"frizz_risk":1,"updated_at":"2026-07-04T20:09:39.088069+05:30"},{"city":"Kurnool","state":"Andhra Pradesh","latitude":15.8281,"longitude":78.0373,"temp":28.0,"humidity":63,"rain":0.0,"pressure":972.5,"uv_index":1.15,"wind_gusts":56.2,"aqi":28,"pm10":4.7,"pm2_5":3.5,"no2":5.5,"co":124.0,"o3":49.0,"so2":2.3,"mosquito_risk":7,"arthritis_risk":5,"migraine_risk":3,"frizz_risk":1,"updated_at":"2026-07-04T20:09:39.088077+05:30"},{"city":"Kakinada","state":"Andhra Pradesh","latitude":16.9891,"longitude":82.2475,"temp":28.0,"humidity":75,"rain":0.0,"pressure":999.6,"uv_index":1.75,"wind_gusts":79.9,"aqi":36,"pm10":9.6,"pm2_5":7.3,"no2":5.4,"co":167.0,"o3":68.0,"so2":4.6,"mosquito_risk":7,"arthritis_risk":5,"migraine_risk":3,"frizz_risk":1,"updated_at":"2026-07-04T20:09:39.088084+05:30"},{"city":"Tirupati","state":"Andhra Pradesh","latitude":13.6288,"longitude":79.4192,"temp":31.3,"humidity":49,"rain":0.0,"pressure":987.3,"uv_index":2.6,"wind_gusts":50.4,"aqi":31,"pm10":14.1,"pm2_5":8.8,"no2":6.3,"co":135.0,"o3":54.0,"so2":1.8,"mosquito_risk":0,"arthritis_risk":5,"migraine_risk":3,"frizz_risk":1,"updated_at":"2026-07-04T20:09:39.088091+05:30"},{"city":"Warangal","state":"Telangana","latitude":17.9689,"longitude":79.5941,"temp":25.9,"humidity":85,"rain":0.0,"pressure":971.6,"uv_index":2.25,"wind_gusts":53.6,"aqi":29,"pm10":4.9,"pm2_5":4.7,"no2":6.3,"co":149.0,"o3":51.0,"so2":2.1,"mosquito_risk":7,"arthritis_risk":5,"migraine_risk":3,"frizz_risk":1,"updated_at":"2026-07-04T20:09:39.088098+05:30"},{"city":"Nizamabad","state":"Telangana","latitude":18.6725,"longitude":78.0941,"temp":24.2,"humidity":95,"rain":0.0,"pressure":957.6,"uv_index":1.9,"wind_gusts":52.9,"aqi":27,"pm10":4.5,"pm2_5":4.4,"no2":6.9,"co":153.0,"o3":50.0,"so2":3.4,"mosquito_risk":3,"arthritis_risk":5,"migraine_risk":3,"frizz_risk":1,"updated_at":"2026-07-04T20:09:39.088104+05:30"},{"city":"Mysore","state":"Karnataka","latitude":12.2958,"longitude":76.6396,"temp":22.4,"humidity":86,"rain":0.0,"pressure":927.2,"uv_index":8.05,"wind_gusts":68.0,"aqi":28,"pm10":3.6,"pm2_5":2.8,"no2":7.4,"co":133.0,"o3":44.0,"so2":1.5,"mosquito_risk":3,"arthritis_risk":5,"migraine_risk":7,"frizz_risk":1,"updated_at":"2026-07-04T20:09:39.088110+05:30"},{"city":"Mangalore","state":"Karnataka","latitude":12.9141,"longitude":74.856,"temp":26.0,"humidity":89,"rain":0.0,"pressure":1006.5,"uv_index":8.15,"wind_gusts":63.0,"aqi":38,"pm10":21.4,"pm2_5":13.3,"no2":7.8,"co":113.0,"o3":40.0,"so2":2.0,"mosquito_risk":7,"arthritis_risk":5,"migraine_risk":4,"frizz_risk":1,"updated_at":"2026-07-04T20:09:39.088117+05:30"},{"city":"Hubli-Dharwad","state":"Karnataka","latitude":15.3647,"longitude":75.124,"temp":21.4,"humidity":98,"rain":0.4,"pressure":937.6,"uv_index":1.9,"wind_gusts":60.1,"aqi":23,"pm10":1.8,"pm2_5":1.4,"no2":4.5,"co":124.0,"o3":44.0,"so2":0.7,"mosquito_risk":6,"arthritis_risk":5,"migraine_risk":3,"frizz_risk":1,"updated_at":"2026-07-04T20:09:39.088124+05:30"},{"city":"Belgaum","state":"Karnataka","latitude":15.8497,"longitude":74.4977,"temp":20.9,"humidity":97,"rain":0.3,"pressure":921.5,"uv_index":1.95,"wind_gusts":58.3,"aqi":22,"pm10":1.7,"pm2_5":1.3,"no2":4.0,"co":124.0,"o3":45.0,"so2":0.8,"mosquito_risk":6,"arthritis_risk":5,"migraine_risk":3,"frizz_risk":1,"updated_at":"2026-07-04T20:09:42.368484+05:30"},{"city":"Coimbatore","state":"Tamil Nadu","latitude":11.0168,"longitude":76.9558,"temp":24.5,"humidity":82,"rain":0.0,"pressure":960.8,"uv_index":5.85,"wind_gusts":56.9,"aqi":27,"pm10":4.0,"pm2_5":3.4,"no2":7.3,"co":176.0,"o3":43.0,"so2":2.0,"mosquito_risk":3,"arthritis_risk":5,"migraine_risk":3,"frizz_risk":1,"updated_at":"2026-07-04T20:09:42.368515+05:30"},{"city":"Madurai","state":"Tamil Nadu","latitude":9.9252,"longitude":78.1198,"temp":30.1,"humidity":57,"rain":0.0,"pressure":991.6,"uv_index":2.15,"wind_gusts":47.5,"aqi":35,"pm10":7.8,"pm2_5":5.0,"no2":9.9,"co":149.0,"o3":52.0,"so2":2.8,"mosquito_risk":0,"arthritis_risk":5,"migraine_risk":3,"frizz_risk":1,"updated_at":"2026-07-04T20:09:42.368525+05:30"},{"city":"Trichy","state":"Tamil Nadu","latitude":10.7905,"longitude":78.7047,"temp":30.6,"humidity":53,"rain":0.0,"pressure":997.9,"uv_index":6.05,"wind_gusts":60.1,"aqi":32,"pm10":8.5,"pm2_5":4.8,"no2":5.6,"co":118.0,"o3":48.0,"so2":2.1,"mosquito_risk":0,"arthritis_risk":5,"migraine_risk":7,"frizz_risk":1,"updated_at":"2026-07-04T20:09:42.368534+05:30"},{"city":"Salem","state":"Tamil Nadu","latitude":11.6643,"longitude":78.146,"temp":27.2,"humidity":70,"rain":0.0,"pressure":975.7,"uv_index":7.15,"wind_gusts":38.2,"aqi":35,"pm10":10.4,"pm2_5":8.4,"no2":12.9,"co":202.0,"o3":49.0,"so2":4.8,"mosquito_risk":7,"arthritis_risk":5,"migraine_risk":7,"frizz_risk":1,"updated_at":"2026-07-04T20:09:42.368543+05:30"},{"city":"Tirunelveli","state":"Tamil Nadu","latitude":8.7139,"longitude":77.7567,"temp":29.6,"humidity":61,"rain":0.0,"pressure":1002.9,"uv_index":3.25,"wind_gusts":56.5,"aqi":27,"pm10":8.8,"pm2_5":5.5,"no2":5.8,"co":130.0,"o3":43.0,"so2":1.4,"mosquito_risk":7,"arthritis_risk":5,"migraine_risk":0,"frizz_risk":1,"updated_at":"2026-07-04T20:09:42.368551+05:30"},{"city":"Vellore","state":"Tamil Nadu","latitude":12.9165,"longitude":79.1325,"temp":31.9,"humidity":43,"rain":0.0,"pressure":981.3,"uv_index":2.35,"wind_gusts":56.2,"aqi":31,"pm10":12.1,"pm2_5":8.4,"no2":9.1,"co":133.0,"o3":53.0,"so2":2.9,"mosquito_risk":0,"arthritis_risk":5,"migraine_risk":3,"frizz_risk":1,"updated_at":"2026-07-04T20:09:42.368559+05:30"},{"city":"Erode","state":"Tamil Nadu","latitude":11.341,"longitude":77.7172,"temp":27.2,"humidity":71,"rain":0.0,"pressure":987.5,"uv_index":6.3,"wind_gusts":51.1,"aqi":31,"pm10":8.3,"pm2_5":6.2,"no2":10.0,"co":173.0,"o3":45.0,"so2":2.2,"mosquito_risk":7,"arthritis_risk":5,"migraine_risk":7,"frizz_risk":1,"updated_at":"2026-07-04T20:09:42.368566+05:30"},{"city":"Kochi","state":"Kerala","latitude":9.9312,"longitude":76.2673,"temp":26.9,"humidity":90,"rain":0.0,"pressure":1009.8,"uv_index":6.9,"wind_gusts":44.6,"aqi":40,"pm10":25.6,"pm2_5":16.4,"no2":19.8,"co":220.0,"o3":26.0,"so2":4.4,"mosquito_risk":7,"arthritis_risk":0,"migraine_risk":4,"frizz_risk":1,"updated_at":"2026-07-04T20:09:42.368574+05:30"},{"city":"Thiruvananthapuram","state":"Kerala","latitude":8.5241,"longitude":76.9366,"temp":24.7,"humidity":97,"rain":0.0,"pressure":1009.5,"uv_index":7.35,"wind_gusts":52.6,"aqi":33,"pm10":18.2,"pm2_5":9.2,"no2":3.6,"co":145.0,"o3":49.0,"so2":1.0,"mosquito_risk":3,"arthritis_risk":0,"migraine_risk":4,"frizz_risk":1,"updated_at":"2026-07-04T20:09:42.368581+05:30"},{"city":"Kozhikode","state":"Kerala","latitude":11.2588,"longitude":75.7804,"temp":24.2,"humidity":98,"rain":0.3,"pressure":1009.1,"uv_index":5.85,"wind_gusts":37.1,"aqi":31,"pm10":15.4,"pm2_5":7.3,"no2":1.1,"co":209.0,"o3":58.0,"so2":0.7,"mosquito_risk":6,"arthritis_risk":0,"migraine_risk":0,"frizz_risk":1,"updated_at":"2026-07-04T20:09:42.368588+05:30"},{"city":"Thrissur","state":"Kerala","latitude":10.5276,"longitude":76.2144,"temp":26.0,"humidity":89,"rain":0.0,"pressure":1008.0,"uv_index":7.8,"wind_gusts":43.6,"aqi":35,"pm10":20.7,"pm2_5":15.0,"no2":15.2,"co":234.0,"o3":32.0,"so2":3.6,"mosquito_risk":7,"arthritis_risk":0,"migraine_risk":4,"frizz_risk":1,"updated_at":"2026-07-04T20:09:42.368597+05:30"},{"city":"Kannur","state":"Kerala","latitude":11.8745,"longitude":75.3704,"temp":28.1,"humidity":78,"rain":0.0,"pressure":1007.3,"uv_index":8.5,"wind_gusts":47.5,"aqi":36,"pm10":16.6,"pm2_5":9.6,"no2":7.6,"co":265.0,"o3":39.0,"so2":1.5,"mosquito_risk":7,"arthritis_risk":5,"migraine_risk":4,"frizz_risk":1,"updated_at":"2026-07-04T20:09:42.368604+05:30"},{"city":"Patna","state":"Bihar","latitude":25.5941,"longitude":85.1376,"temp":31.7,"humidity":78,"rain":0.0,"pressure":991.0,"uv_index":8.5,"wind_gusts":37.8,"aqi":118,"pm10":25.3,"pm2_5":25.0,"no2":15.8,"co":349.0,"o3":101.0,"so2":10.9,"mosquito_risk":3,"arthritis_risk":5,"migraine_risk":7,"frizz_risk":1,"updated_at":"2026-07-04T20:09:42.368611+05:30"},{"city":"Gaya","state":"Bihar","latitude":24.7914,"longitude":85.0002,"temp":30.7,"humidity":77,"rain":0.0,"pressure":983.9,"uv_index":8.5,"wind_gusts":38.5,"aqi":59,"pm10":24.6,"pm2_5":23.9,"no2":14.2,"co":275.0,"o3":69.0,"so2":7.2,"mosquito_risk":3,"arthritis_risk":5,"migraine_risk":7,"frizz_risk":1,"updated_at":"2026-07-04T20:09:42.368619+05:30"},{"city":"Muzaffarpur","state":"Bihar","latitude":26.1209,"longitude":85.3647,"temp":31.8,"humidity":74,"rain":0.0,"pressure":991.1,"uv_index":8.1,"wind_gusts":31.0,"aqi":126,"pm10":29.9,"pm2_5":29.6,"no2":17.9,"co":336.0,"o3":99.0,"so2":9.4,"mosquito_risk":3,"arthritis_risk":5,"migraine_risk":7,"frizz_risk":1,"updated_at":"2026-07-04T20:09:42.368626+05:30"},{"city":"Bhagalpur","state":"Bihar","latitude":25.2425,"longitude":87.0117,"temp":31.9,"humidity":69,"rain":0.0,"pressure":991.7,"uv_index":7.6,"wind_gusts":38.9,"aqi":67,"pm10":17.8,"pm2_5":17.5,"no2":10.9,"co":221.0,"o3":93.0,"so2":8.0,"mosquito_risk":3,"arthritis_risk":5,"migraine_risk":7,"frizz_risk":1,"updated_at":"2026-07-04T20:09:42.368634+05:30"},{"city":"Ranchi","state":"Jharkhand","latitude":23.3441,"longitude":85.3096,"temp":24.7,"humidity":92,"rain":0.0,"pressure":928.1,"uv_index":7.15,"wind_gusts":52.9,"aqi":66,"pm10":20.3,"pm2_5":20.1,"no2":11.2,"co":526.0,"o3":101.0,"so2":20.5,"mosquito_risk":3,"arthritis_risk":5,"migraine_risk":7,"frizz_risk":1,"updated_at":"2026-07-04T20:09:42.368641+05:30"},{"city":"Jamshedpur","state":"Jharkhand","latitude":22.8046,"longitude":86.2029,"temp":26.9,"humidity":93,"rain":0.0,"pressure":979.7,"uv_index":7.45,"wind_gusts":48.6,"aqi":60,"pm10":13.5,"pm2_5":13.3,"no2":10.7,"co":273.0,"o3":73.0,"so2":8.4,"mosquito_risk":7,"arthritis_risk":5,"migraine_risk":7,"frizz_risk":1,"updated_at":"2026-07-04T20:09:42.368648+05:30"},{"city":"Dhanbad","state":"Jharkhand","latitude":23.7957,"longitude":86.4304,"temp":27.5,"humidity":87,"rain":0.0,"pressure":969.9,"uv_index":6.2,"wind_gusts":53.6,"aqi":81,"pm10":26.2,"pm2_5":25.8,"no2":31.6,"co":264.0,"o3":68.0,"so2":71.2,"mosquito_risk":7,"arthritis_risk":5,"migraine_risk":7,"frizz_risk":1,"updated_at":"2026-07-04T20:09:42.368655+05:30"},{"city":"Bokaro","state":"Jharkhand","latitude":23.6693,"longitude":86.1511,"temp":26.6,"humidity":91,"rain":0.0,"pressure":973.7,"uv_index":5.1,"wind_gusts":51.1,"aqi":84,"pm10":23.9,"pm2_5":23.5,"no2":29.1,"co":263.0,"o3":73.0,"so2":72.4,"mosquito_risk":7,"arthritis_risk":5,"migraine_risk":3,"frizz_risk":1,"updated_at":"2026-07-04T20:09:42.368663+05:30"},{"city":"Bhubaneswar","state":"Odisha","latitude":20.2961,"longitude":85.8245,"temp":26.1,"humidity":96,"rain":0.1,"pressure":989.6,"uv_index":2.95,"wind_gusts":31.0,"aqi":67,"pm10":16.7,"pm2_5":16.1,"no2":17.1,"co":400.0,"o3":52.0,"so2":5.4,"mosquito_risk":10,"arthritis_risk":5,"migraine_risk":3,"frizz_risk":1,"updated_at":"2026-07-04T20:09:42.368670+05:30"},{"city":"Cuttack","state":"Odisha","latitude":20.4625,"longitude":85.8828,"temp":26.5,"humidity":97,"rain":0.2,"pressure":991.4,"uv_index":2.3,"wind_gusts":43.6,"aqi":67,"pm10":16.7,"pm2_5":16.1,"no2":17.1,"co":352.0,"o3":52.0,"so2":5.4,"mosquito_risk":10,"arthritis_risk":5,"migraine_risk":3,"frizz_risk":1,"updated_at":"2026-07-04T20:09:42.368677+05:30"},{"city":"Rourkela","state":"Odisha","latitude":22.2604,"longitude":84.8536,"temp":27.6,"humidity":88,"rain":0.0,"pressure":973.7,"uv_index":6.7,"wind_gusts":51.8,"aqi":64,"pm10":15.5,"pm2_5":15.4,"no2":10.0,"co":288.0,"o3":90.0,"so2":12.6,"mosquito_risk":7,"arthritis_risk":5,"migraine_risk":7,"frizz_risk":1,"updated_at":"2026-07-04T20:09:42.368684+05:30"},{"city":"Raipur","state":"Chhattisgarh","latitude":21.2514,"longitude":81.6296,"temp":25.6,"humidity":97,"rain":0.5,"pressure":965.1,"uv_index":7.3,"wind_gusts":29.5,"aqi":69,"pm10":26.1,"pm2_5":26.1,"no2":27.9,"co":794.0,"o3":78.0,"so2":45.5,"mosquito_risk":10,"arthritis_risk":5,"migraine_risk":7,"frizz_risk":1,"updated_at":"2026-07-04T20:09:42.368691+05:30"},{"city":"Bhilai","state":"Chhattisgarh","latitude":21.1938,"longitude":81.3509,"temp":25.5,"humidity":97,"rain":0.2,"pressure":965.4,"uv_index":6.8,"wind_gusts":33.1,"aqi":64,"pm10":21.9,"pm2_5":21.9,"no2":24.1,"co":986.0,"o3":78.0,"so2":39.9,"mosquito_risk":10,"arthritis_risk":5,"migraine_risk":7,"frizz_risk":1,"updated_at":"2026-07-04T20:09:42.368698+05:30"},{"city":"Guwahati","state":"Assam","latitude":26.1158,"longitude":91.7086,"temp":29.1,"humidity":90,"rain":0.0,"pressure":993.1,"uv_index":8.7,"wind_gusts":33.1,"aqi":46,"pm10":20.2,"pm2_5":20.0,"no2":13.3,"co":355.0,"o3":46.0,"so2":2.4,"mosquito_risk":7,"arthritis_risk":5,"migraine_risk":7,"frizz_risk":1,"updated_at":"2026-07-04T20:09:42.368705+05:30"},{"city":"Agartala","state":"Tripura","latitude":23.8315,"longitude":91.2868,"temp":28.9,"humidity":89,"rain":0.0,"pressure":997.3,"uv_index":8.55,"wind_gusts":29.9,"aqi":49,"pm10":10.9,"pm2_5":10.7,"no2":10.3,"co":173.0,"o3":55.0,"so2":1.7,"mosquito_risk":7,"arthritis_risk":5,"migraine_risk":7,"frizz_risk":1,"updated_at":"2026-07-04T20:09:42.368712+05:30"},{"city":"Shillong","state":"Meghalaya","latitude":25.5788,"longitude":91.8933,"temp":21.0,"humidity":97,"rain":0.0,"pressure":852.8,"uv_index":8.3,"wind_gusts":34.9,"aqi":37,"pm10":5.2,"pm2_5":5.1,"no2":8.2,"co":310.0,"o3":52.0,"so2":1.0,"mosquito_risk":3,"arthritis_risk":5,"migraine_risk":7,"frizz_risk":1,"updated_at":"2026-07-04T20:09:42.368719+05:30"},{"city":"Imphal","state":"Manipur","latitude":24.817,"longitude":93.9368,"temp":24.9,"humidity":82,"rain":0.0,"pressure":919.1,"uv_index":7.75,"wind_gusts":31.3,"aqi":31,"pm10":8.4,"pm2_5":8.3,"no2":8.2,"co":329.0,"o3":46.0,"so2":1.5,"mosquito_risk":3,"arthritis_risk":5,"migraine_risk":7,"frizz_risk":1,"updated_at":"2026-07-04T20:09:42.368726+05:30"},{"city":"Aizawl","state":"Mizoram","latitude":23.7271,"longitude":92.7176,"temp":22.0,"humidity":97,"rain":0.0,"pressure":885.9,"uv_index":8.7,"wind_gusts":26.3,"aqi":25,"pm10":5.6,"pm2_5":5.5,"no2":11.2,"co":169.0,"o3":26.0,"so2":0.9,"mosquito_risk":3,"arthritis_risk":5,"migraine_risk":7,"frizz_risk":1,"updated_at":"2026-07-04T20:09:42.368733+05:30"},{"city":"Kohima","state":"Nagaland","latitude":25.6701,"longitude":94.1077,"temp":22.3,"humidity":82,"rain":0.0,"pressure":851.6,"uv_index":9.1,"wind_gusts":29.2,"aqi":33,"pm10":7.9,"pm2_5":7.8,"no2":11.9,"co":250.0,"o3":34.0,"so2":1.0,"mosquito_risk":3,"arthritis_risk":5,"migraine_risk":7,"frizz_risk":1,"updated_at":"2026-07-04T20:09:42.368767+05:30"},{"city":"Gangtok","state":"Sikkim","latitude":27.3314,"longitude":88.6138,"temp":20.6,"humidity":93,"rain":0.1,"pressure":835.0,"uv_index":8.5,"wind_gusts":36.0,"aqi":49,"pm10":11.1,"pm2_5":10.7,"no2":7.7,"co":261.0,"o3":94.0,"so2":1.0,"mosquito_risk":6,"arthritis_risk":5,"migraine_risk":7,"frizz_risk":1,"updated_at":"2026-07-04T20:09:42.368787+05:30"},{"city":"Siliguri","state":"West Bengal","latitude":26.7271,"longitude":88.3953,"temp":30.3,"humidity":73,"rain":0.0,"pressure":984.8,"uv_index":8.7,"wind_gusts":24.1,"aqi":72,"pm10":23.3,"pm2_5":22.8,"no2":13.0,"co":434.0,"o3":93.0,"so2":3.6,"mosquito_risk":3,"arthritis_risk":5,"migraine_risk":7,"frizz_risk":1,"updated_at":"2026-07-04T20:09:45.657038+05:30"},{"city":"Durgapur","state":"West Bengal","latitude":23.5204,"longitude":87.3119,"temp":29.8,"humidity":76,"rain":0.0,"pressure":984.4,"uv_index":6.95,"wind_gusts":52.6,"aqi":66,"pm10":22.9,"pm2_5":22.2,"no2":19.5,"co":347.0,"o3":72.0,"so2":19.3,"mosquito_risk":7,"arthritis_risk":5,"migraine_risk":7,"frizz_risk":1,"updated_at":"2026-07-04T20:09:45.657070+05:30"},{"city":"Asansol","state":"West Bengal","latitude":23.6739,"longitude":86.9524,"temp":28.4,"humidity":87,"rain":0.0,"pressure":983.1,"uv_index":5.6,"wind_gusts":52.9,"aqi":64,"pm10":20.6,"pm2_5":20.1,"no2":20.8,"co":303.0,"o3":75.0,"so2":20.1,"mosquito_risk":7,"arthritis_risk":5,"migraine_risk":3,"frizz_risk":1,"updated_at":"2026-07-04T20:09:45.657081+05:30"},{"city":"Pondicherry","state":"Puducherry","latitude":11.9139,"longitude":79.8145,"temp":30.7,"humidity":61,"rain":0.0,"pressure":1005.3,"uv_index":5.25,"wind_gusts":41.0,"aqi":42,"pm10":18.3,"pm2_5":12.9,"no2":16.3,"co":227.0,"o3":63.0,"so2":14.2,"mosquito_risk":3,"arthritis_risk":5,"migraine_risk":0,"frizz_risk":1,"updated_at":"2026-07-04T20:09:45.657090+05:30"},{"city":"Port Blair","state":"Andaman and Nicobar Islands","latitude":11.6234,"longitude":92.7265,"temp":25.7,"humidity":96,"rain":0.2,"pressure":1006.9,"uv_index":5.1,"wind_gusts":57.2,"aqi":49,"pm10":13.2,"pm2_5":7.4,"no2":0.5,"co":100.0,"o3":56.0,"so2":0.4,"mosquito_risk":10,"arthritis_risk":5,"migraine_risk":0,"frizz_risk":1,"updated_at":"2026-07-04T20:09:45.657099+05:30"},{"city":"Haridwar","state":"Uttarakhand","latitude":29.9457,"longitude":78.1642,"temp":30.5,"humidity":80,"rain":0.0,"pressure":964.3,"uv_index":6.55,"wind_gusts":20.5,"aqi":151,"pm10":35.0,"pm2_5":34.9,"no2":14.9,"co":487.0,"o3":138.0,"so2":14.4,"mosquito_risk":3,"arthritis_risk":5,"migraine_risk":7,"frizz_risk":1,"updated_at":"2026-07-04T20:09:45.657106+05:30"},{"city":"Rishikesh","state":"Uttarakhand","latitude":30.0869,"longitude":78.2676,"temp":29.8,"humidity":80,"rain":0.0,"pressure":957.4,"uv_index":6.7,"wind_gusts":24.8,"aqi":113,"pm10":23.6,"pm2_5":23.6,"no2":6.8,"co":465.0,"o3":133.0,"so2":7.0,"mosquito_risk":7,"arthritis_risk":5,"migraine_risk":7,"frizz_risk":1,"updated_at":"2026-07-04T20:09:45.657114+05:30"},{"city":"Nainital","state":"Uttarakhand","latitude":29.3919,"longitude":79.4542,"temp":18.2,"humidity":100,"rain":0.0,"pressure":800.6,"uv_index":6.65,"wind_gusts":27.0,"aqi":87,"pm10":17.2,"pm2_5":17.1,"no2":13.6,"co":345.0,"o3":94.0,"so2":4.7,"mosquito_risk":3,"arthritis_risk":10,"migraine_risk":7,"frizz_risk":1,"updated_at":"2026-07-04T20:09:45.657122+05:30"},{"city":"Mussoorie","state":"Uttarakhand","latitude":30.4599,"longitude":78.0664,"temp":18.6,"humidity":100,"rain":0.0,"pressure":798.3,"uv_index":6.75,"wind_gusts":33.5,"aqi":119,"pm10":26.0,"pm2_5":25.9,"no2":17.1,"co":413.0,"o3":125.0,"so2":9.3,"mosquito_risk":3,"arthritis_risk":10,"migraine_risk":7,"frizz_risk":1,"updated_at":"2026-07-04T20:09:45.657130+05:30"},{"city":"Dharamshala","state":"Himachal Pradesh","latitude":32.219,"longitude":76.3234,"temp":23.2,"humidity":95,"rain":0.0,"pressure":863.0,"uv_index":8.45,"wind_gusts":29.2,"aqi":95,"pm10":9.4,"pm2_5":8.9,"no2":10.3,"co":369.0,"o3":111.0,"so2":0.8,"mosquito_risk":3,"arthritis_risk":5,"migraine_risk":7,"frizz_risk":1,"updated_at":"2026-07-04T20:09:45.657138+05:30"},{"city":"Dalhousie","state":"Himachal Pradesh","latitude":32.5387,"longitude":75.971,"temp":18.9,"humidity":100,"rain":0.0,"pressure":799.7,"uv_index":8.65,"wind_gusts":33.1,"aqi":160,"pm10":25.0,"pm2_5":22.4,"no2":11.2,"co":552.0,"o3":157.0,"so2":3.7,"mosquito_risk":3,"arthritis_risk":10,"migraine_risk":7,"frizz_risk":1,"updated_at":"2026-07-04T20:09:45.657146+05:30"},{"city":"Patiala","state":"Punjab","latitude":30.3398,"longitude":76.3869,"temp":30.5,"humidity":81,"rain":0.0,"pressure":968.4,"uv_index":7.25,"wind_gusts":28.4,"aqi":122,"pm10":47.8,"pm2_5":46.6,"no2":27.5,"co":680.0,"o3":110.0,"so2":13.5,"mosquito_risk":3,"arthritis_risk":5,"migraine_risk":7,"frizz_risk":1,"updated_at":"2026-07-04T20:09:45.657154+05:30"},{"city":"Bhatinda","state":"Punjab","latitude":30.211,"longitude":74.9455,"temp":33.3,"humidity":60,"rain":0.0,"pressure":973.3,"uv_index":7.95,"wind_gusts":26.3,"aqi":197,"pm10":59.6,"pm2_5":47.3,"no2":20.2,"co":464.0,"o3":132.0,"so2":19.9,"mosquito_risk":0,"arthritis_risk":5,"migraine_risk":7,"frizz_risk":1,"updated_at":"2026-07-04T20:09:45.657161+05:30"},{"city":"Rohtak","state":"Haryana","latitude":28.8955,"longitude":76.6066,"temp":31.8,"humidity":71,"rain":0.0,"pressure":971.8,"uv_index":6.25,"wind_gusts":19.4,"aqi":189,"pm10":577.4,"pm2_5":113.2,"no2":24.8,"co":590.0,"o3":151.0,"so2":30.2,"mosquito_risk":3,"arthritis_risk":5,"migraine_risk":7,"frizz_risk":1,"updated_at":"2026-07-04T20:09:45.657168+05:30"},{"city":"Panipat","state":"Haryana","latitude":29.3909,"longitude":76.9635,"temp":31.0,"humidity":79,"rain":0.0,"pressure":970.5,"uv_index":6.5,"wind_gusts":22.3,"aqi":180,"pm10":571.8,"pm2_5":113.4,"no2":29.9,"co":682.0,"o3":126.0,"so2":31.5,"mosquito_risk":3,"arthritis_risk":5,"migraine_risk":7,"frizz_risk":1,"updated_at":"2026-07-04T20:09:45.657175+05:30"},{"city":"Mathura","state":"Uttar Pradesh","latitude":27.4924,"longitude":77.6737,"temp":31.6,"humidity":76,"rain":0.0,"pressure":976.7,"uv_index":6.7,"wind_gusts":22.0,"aqi":162,"pm10":53.1,"pm2_5":38.4,"no2":43.6,"co":523.0,"o3":95.0,"so2":7.7,"mosquito_risk":3,"arthritis_risk":5,"migraine_risk":7,"frizz_risk":1,"updated_at":"2026-07-04T20:09:45.657182+05:30"},{"city":"Vrindavan","state":"Uttar Pradesh","latitude":27.5823,"longitude":77.7027,"temp":31.8,"humidity":76,"rain":0.0,"pressure":977.1,"uv_index":7.05,"wind_gusts":22.7,"aqi":162,"pm10":53.1,"pm2_5":38.4,"no2":43.6,"co":506.0,"o3":95.0,"so2":7.7,"mosquito_risk":3,"arthritis_risk":5,"migraine_risk":7,"frizz_risk":1,"updated_at":"2026-07-04T20:09:45.657189+05:30"},{"city":"Ayodhya","state":"Uttar Pradesh","latitude":26.7922,"longitude":82.1998,"temp":32.2,"humidity":72,"rain":0.0,"pressure":985.5,"uv_index":8.05,"wind_gusts":26.3,"aqi":106,"pm10":33.9,"pm2_5":33.4,"no2":16.7,"co":328.0,"o3":91.0,"so2":7.3,"mosquito_risk":3,"arthritis_risk":5,"migraine_risk":7,"frizz_risk":1,"updated_at":"2026-07-04T20:09:45.657196+05:30"},{"city":"Ratlam","state":"Madhya Pradesh","latitude":23.3315,"longitude":75.0367,"temp":24.8,"humidity":96,"rain":0.2,"pressure":945.7,"uv_index":6.1,"wind_gusts":36.4,"aqi":43,"pm10":34.3,"pm2_5":20.6,"no2":6.6,"co":205.0,"o3":67.0,"so2":2.8,"mosquito_risk":6,"arthritis_risk":5,"migraine_risk":7,"frizz_risk":1,"updated_at":"2026-07-04T20:09:45.657203+05:30"},{"city":"Sagar","state":"Madhya Pradesh","latitude":23.8388,"longitude":78.7378,"temp":25.8,"humidity":95,"rain":0.3,"pressure":941.4,"uv_index":8.0,"wind_gusts":24.8,"aqi":84,"pm10":20.9,"pm2_5":20.8,"no2":5.7,"co":273.0,"o3":97.0,"so2":4.2,"mosquito_risk":10,"arthritis_risk":5,"migraine_risk":7,"frizz_risk":1,"updated_at":"2026-07-04T20:09:45.657210+05:30"},{"city":"Satna","state":"Madhya Pradesh","latitude":24.6005,"longitude":80.8322,"temp":31.0,"humidity":69,"rain":0.0,"pressure":961.1,"uv_index":7.15,"wind_gusts":31.3,"aqi":103,"pm10":17.3,"pm2_5":17.1,"no2":12.6,"co":276.0,"o3":85.0,"so2":4.7,"mosquito_risk":3,"arthritis_risk":5,"migraine_risk":7,"frizz_risk":1,"updated_at":"2026-07-04T20:09:45.657218+05:30"},{"city":"Akola","state":"Maharashtra","latitude":20.7002,"longitude":77.0082,"temp":25.4,"humidity":93,"rain":0.0,"pressure":966.9,"uv_index":6.95,"wind_gusts":40.0,"aqi":34,"pm10":9.0,"pm2_5":7.7,"no2":9.3,"co":164.0,"o3":68.0,"so2":7.9,"mosquito_risk":7,"arthritis_risk":5,"migraine_risk":7,"frizz_risk":1,"updated_at":"2026-07-04T20:09:45.657226+05:30"},{"city":"Amravati","state":"Maharashtra","latitude":20.9374,"longitude":77.7796,"temp":26.1,"humidity":85,"rain":0.0,"pressure":958.8,"uv_index":7.25,"wind_gusts":47.2,"aqi":38,"pm10":8.4,"pm2_5":7.1,"no2":8.8,"co":176.0,"o3":71.0,"so2":8.6,"mosquito_risk":7,"arthritis_risk":5,"migraine_risk":7,"frizz_risk":1,"updated_at":"2026-07-04T20:09:45.657234+05:30"},{"city":"Latur","state":"Maharashtra","latitude":18.4088,"longitude":76.5604,"temp":23.3,"humidity":93,"rain":0.1,"pressure":933.1,"uv_index":2.4,"wind_gusts":47.5,"aqi":24,"pm10":2.2,"pm2_5":2.2,"no2":4.8,"co":140.0,"o3":48.0,"so2":1.2,"mosquito_risk":6,"arthritis_risk":5,"migraine_risk":3,"frizz_risk":1,"updated_at":"2026-07-04T20:09:45.657242+05:30"},{"city":"Nanded","state":"Maharashtra","latitude":19.1383,"longitude":77.3091,"temp":25.7,"humidity":84,"rain":0.0,"pressure":961.3,"uv_index":1.75,"wind_gusts":46.1,"aqi":29,"pm10":4.7,"pm2_5":4.6,"no2":7.6,"co":153.0,"o3":53.0,"so2":3.0,"mosquito_risk":7,"arthritis_risk":5,"migraine_risk":3,"frizz_risk":1,"updated_at":"2026-07-04T20:09:45.657249+05:30"},{"city":"Gulbarga","state":"Karnataka","latitude":17.3297,"longitude":76.8343,"temp":24.0,"humidity":90,"rain":0.1,"pressure":953.0,"uv_index":1.5,"wind_gusts":60.5,"aqi":26,"pm10":2.8,"pm2_5":2.5,"no2":7.0,"co":142.0,"o3":43.0,"so2":2.0,"mosquito_risk":6,"arthritis_risk":5,"migraine_risk":3,"frizz_risk":1,"updated_at":"2026-07-04T20:09:45.657257+05:30"},{"city":"Bidar","state":"Karnataka","latitude":17.9104,"longitude":77.5199,"temp":23.0,"humidity":92,"rain":0.0,"pressure":929.3,"uv_index":1.35,"wind_gusts":55.1,"aqi":25,"pm10":2.7,"pm2_5":2.5,"no2":6.8,"co":137.0,"o3":46.0,"so2":1.4,"mosquito_risk":3,"arthritis_risk":5,"migraine_risk":3,"frizz_risk":1,"updated_at":"2026-07-04T20:09:45.657264+05:30"},{"city":"Hospet","state":"Karnataka","latitude":15.2689,"longitude":76.3909,"temp":23.6,"humidity":88,"rain":0.0,"pressure":952.7,"uv_index":1.7,"wind_gusts":68.8,"aqi":28,"pm10":2.1,"pm2_5":1.8,"no2":5.3,"co":126.0,"o3":45.0,"so2":1.2,"mosquito_risk":3,"arthritis_risk":5,"migraine_risk":3,"frizz_risk":1,"updated_at":"2026-07-04T20:09:45.657270+05:30"},{"city":"Tirupur","state":"Tamil Nadu","latitude":11.1085,"longitude":77.3411,"temp":25.6,"humidity":77,"rain":0.0,"pressure":973.9,"uv_index":7.75,"wind_gusts":59.4,"aqi":30,"pm10":8.1,"pm2_5":6.6,"no2":11.7,"co":153.0,"o3":43.0,"so2":3.2,"mosquito_risk":7,"arthritis_risk":5,"migraine_risk":7,"frizz_risk":1,"updated_at":"2026-07-04T20:09:45.657277+05:30"},{"city":"Alappuzha","state":"Kerala","latitude":9.4981,"longitude":76.3388,"temp":26.8,"humidity":90,"rain":0.0,"pressure":1010.0,"uv_index":6.75,"wind_gusts":44.6,"aqi":37,"pm10":25.1,"pm2_5":13.2,"no2":7.9,"co":88.0,"o3":45.0,"so2":2.0,"mosquito_risk":7,"arthritis_risk":0,"migraine_risk":4,"frizz_risk":1,"updated_at":"2026-07-04T20:09:45.657284+05:30"},{"city":"Munnar","state":"Kerala","latitude":10.0889,"longitude":77.0595,"temp":16.4,"humidity":100,"rain":0.1,"pressure":856.5,"uv_index":3.75,"wind_gusts":59.8,"aqi":27,"pm10":4.2,"pm2_5":3.3,"no2":7.7,"co":98.0,"o3":39.0,"so2":1.4,"mosquito_risk":6,"arthritis_risk":10,"migraine_risk":3,"frizz_risk":1,"updated_at":"2026-07-04T20:09:45.657292+05:30"},{"city":"Silchar","state":"Assam","latitude":24.8333,"longitude":92.7789,"temp":30.9,"humidity":71,"rain":0.0,"pressure":996.2,"uv_index":8.65,"wind_gusts":29.9,"aqi":51,"pm10":13.4,"pm2_5":13.2,"no2":7.1,"co":197.0,"o3":51.0,"so2":3.0,"mosquito_risk":3,"arthritis_risk":5,"migraine_risk":7,"frizz_risk":1,"updated_at":"2026-07-04T20:09:45.657299+05:30"},{"city":"Dibrugarh","state":"Assam","latitude":27.4728,"longitude":94.912,"temp":31.0,"humidity":73,"rain":0.0,"pressure":987.6,"uv_index":8.9,"wind_gusts":28.4,"aqi":54,"pm10":22.7,"pm2_5":22.2,"no2":16.5,"co":332.0,"o3":50.0,"so2":3.3,"mosquito_risk":3,"arthritis_risk":5,"migraine_risk":7,"frizz_risk":1,"updated_at":"2026-07-04T20:09:45.657306+05:30"}]