[{"city":"Delhi","state":"Delhi","latitude":28.6139,"longitude":77.209,"temp":40.0,"humidity":17,"rain":0.0,"pressure":981.7,"uv_index":7.4,"wind_gusts":51.8,"aqi":513,"pm10":340.9,"pm2_5":60.1,"mosquito_risk":0,"arthritis_risk":5,"migraine_risk":10,"frizz_risk":0,"updated_at":"2026-04-26T11:38:32.412492+05:30"},{"city":"Mumbai","state":"Maharashtra","latitude":19.076,"longitude":72.8777,"temp":35.0,"humidity":51,"rain":0.0,"pressure":1007.8,"uv_index":7.6,"wind_gusts":36.7,"aqi":84,"pm10":77.8,"pm2_5":40.4,"mosquito_risk":0,"arthritis_risk":5,"migraine_risk":4,"frizz_risk":1,"updated_at":"2026-04-26T11:38:32.412536+05:30"},{"city":"Bangalore","state":"Karnataka","latitude":12.9716,"longitude":77.5946,"temp":33.2,"humidity":29,"rain":0.0,"pressure":914.2,"uv_index":9.6,"wind_gusts":38.2,"aqi":83,"pm10":36.1,"pm2_5":28.2,"mosquito_risk":0,"arthritis_risk":5,"migraine_risk":7,"frizz_risk":0,"updated_at":"2026-04-26T11:38:32.412552+05:30"},{"city":"Hyderabad","state":"Telangana","latitude":17.385,"longitude":78.4867,"temp":37.3,"humidity":25,"rain":0.0,"pressure":954.5,"uv_index":9.3,"wind_gusts":27.0,"aqi":93,"pm10":30.9,"pm2_5":25.4,"mosquito_risk":0,"arthritis_risk":5,"migraine_risk":10,"frizz_risk":0,"updated_at":"2026-04-26T11:38:32.412563+05:30"},{"city":"Chennai","state":"Tamil Nadu","latitude":13.0827,"longitude":80.2707,"temp":34.7,"humidity":53,"rain":0.0,"pressure":1007.6,"uv_index":9.25,"wind_gusts":51.8,"aqi":36,"pm10":19.6,"pm2_5":12.2,"mosquito_risk":0,"arthritis_risk":5,"migraine_risk":4,"frizz_risk":1,"updated_at":"2026-04-26T11:38:32.412571+05:30"},{"city":"Kolkata","state":"West Bengal","latitude":22.5726,"longitude":88.3639,"temp":35.5,"humidity":49,"rain":0.0,"pressure":1004.1,"uv_index":8.9,"wind_gusts":46.8,"aqi":67,"pm10":25.3,"pm2_5":17.6,"mosquito_risk":0,"arthritis_risk":5,"migraine_risk":7,"frizz_risk":1,"updated_at":"2026-04-26T11:38:32.412584+05:30"},{"city":"Pune","state":"Maharashtra","latitude":18.5204,"longitude":73.8567,"temp":39.7,"humidity":12,"rain":0.0,"pressure":949.2,"uv_index":8.45,"wind_gusts":37.1,"aqi":79,"pm10":21.8,"pm2_5":16.1,"mosquito_risk":0,"arthritis_risk":5,"migraine_risk":10,"frizz_risk":0,"updated_at":"2026-04-26T11:38:32.412592+05:30"},{"city":"Ahmedabad","state":"Gujarat","latitude":23.0225,"longitude":72.5714,"temp":39.1,"humidity":27,"rain":0.0,"pressure":1001.8,"uv_index":8.2,"wind_gusts":38.9,"aqi":65,"pm10":65.0,"pm2_5":22.5,"mosquito_risk":0,"arthritis_risk":5,"migraine_risk":7,"frizz_risk":1,"updated_at":"2026-04-26T11:38:32.412599+05:30"},{"city":"Jaipur","state":"Rajasthan","latitude":26.9124,"longitude":75.7873,"temp":40.6,"humidity":14,"rain":0.0,"pressure":960.3,"uv_index":8.05,"wind_gusts":46.1,"aqi":123,"pm10":310.1,"pm2_5":42.0,"mosquito_risk":0,"arthritis_risk":5,"migraine_risk":10,"frizz_risk":0,"updated_at":"2026-04-26T11:38:32.412607+05:30"},{"city":"Lucknow","state":"Uttar Pradesh","latitude":26.8467,"longitude":80.9462,"temp":40.5,"humidity":18,"rain":0.0,"pressure":990.8,"uv_index":7.9,"wind_gusts":49.3,"aqi":151,"pm10":203.0,"pm2_5":58.4,"mosquito_risk":0,"arthritis_risk":5,"migraine_risk":10,"frizz_risk":0,"updated_at":"2026-04-26T11:38:32.412614+05:30"},{"city":"Kanpur","state":"Uttar Pradesh","latitude":26.4499,"longitude":80.3319,"temp":41.5,"humidity":15,"rain":0.0,"pressure":989.5,"uv_index":7.9,"wind_gusts":49.7,"aqi":383,"pm10":386.5,"pm2_5":68.0,"mosquito_risk":0,"arthritis_risk":5,"migraine_risk":10,"frizz_risk":0,"updated_at":"2026-04-26T11:38:32.412622+05:30"},{"city":"Chandigarh","state":"Chandigarh","latitude":30.7333,"longitude":76.7794,"temp":37.3,"humidity":16,"rain":0.0,"pressure":968.0,"uv_index":7.4,"wind_gusts":45.4,"aqi":69,"pm10":99.9,"pm2_5":25.7,"mosquito_risk":0,"arthritis_risk":5,"migraine_risk":10,"frizz_risk":0,"updated_at":"2026-04-26T11:38:32.412629+05:30"},{"city":"Srinagar","state":"Jammu and Kashmir","latitude":34.0837,"longitude":74.7973,"temp":18.3,"humidity":62,"rain":0.0,"pressure":846.1,"uv_index":8.6,"wind_gusts":15.8,"aqi":80,"pm10":19.2,"pm2_5":9.6,"mosquito_risk":3,"arthritis_risk":5,"migraine_risk":7,"frizz_risk":0,"updated_at":"2026-04-26T11:38:32.412638+05:30"},{"city":"Jammu","state":"Jammu and Kashmir","latitude":32.7266,"longitude":74.857,"temp":35.0,"humidity":25,"rain":0.0,"pressure":971.9,"uv_index":8.15,"wind_gusts":35.3,"aqi":77,"pm10":66.1,"pm2_5":19.7,"mosquito_risk":0,"arthritis_risk":5,"migraine_risk":7,"frizz_risk":0,"updated_at":"2026-04-26T11:38:32.412645+05:30"},{"city":"Amritsar","state":"Punjab","latitude":31.634,"longitude":74.8723,"temp":36.9,"humidity":20,"rain":0.0,"pressure":980.1,"uv_index":8.1,"wind_gusts":33.8,"aqi":97,"pm10":38.1,"pm2_5":13.2,"mosquito_risk":0,"arthritis_risk":5,"migraine_risk":10,"frizz_risk":0,"updated_at":"2026-04-26T11:38:32.412652+05:30"},{"city":"Ludhiana","state":"Punjab","latitude":30.901,"longitude":75.8573,"temp":37.5,"humidity":18,"rain":0.0,"pressure":978.0,"uv_index":7.65,"wind_gusts":38.9,"aqi":86,"pm10":81.3,"pm2_5":23.5,"mosquito_risk":0,"arthritis_risk":5,"migraine_risk":10,"frizz_risk":0,"updated_at":"2026-04-26T11:38:32.412661+05:30"},{"city":"Jalandhar","state":"Punjab","latitude":31.326,"longitude":75.5762,"temp":36.9,"humidity":20,"rain":0.0,"pressure":978.9,"uv_index":7.85,"wind_gusts":34.9,"aqi":95,"pm10":83.4,"pm2_5":22.3,"mosquito_risk":0,"arthritis_risk":5,"migraine_risk":10,"frizz_risk":0,"updated_at":"2026-04-26T11:38:32.412668+05:30"},{"city":"Dehradun","state":"Uttarakhand","latitude":30.6284,"longitude":78.0322,"temp":27.1,"humidity":23,"rain":0.0,"pressure":833.6,"uv_index":7.8,"wind_gusts":52.2,"aqi":43,"pm10":51.1,"pm2_5":11.4,"mosquito_risk":4,"arthritis_risk":5,"migraine_risk":7,"frizz_risk":0,"updated_at":"2026-04-26T11:38:32.412675+05:30"},{"city":"Shimla","state":"Himachal Pradesh","latitude":31.1048,"longitude":77.1734,"temp":23.3,"humidity":21,"rain":0.0,"pressure":789.1,"uv_index":7.9,"wind_gusts":48.6,"aqi":57,"pm10":79.2,"pm2_5":16.6,"mosquito_risk":0,"arthritis_risk":5,"migraine_risk":7,"frizz_risk":1,"updated_at":"2026-04-26T11:38:32.412682+05:30"},{"city":"Manali","state":"Himachal Pradesh","latitude":32.2396,"longitude":77.1887,"temp":21.8,"humidity":27,"rain":0.0,"pressure":820.5,"uv_index":9.8,"wind_gusts":45.0,"aqi":50,"pm10":21.0,"pm2_5":5.8,"mosquito_risk":0,"arthritis_risk":5,"migraine_risk":7,"frizz_risk":0,"updated_at":"2026-04-26T11:38:32.412689+05:30"},{"city":"Gurgaon","state":"Haryana","latitude":28.4595,"longitude":77.0266,"temp":38.8,"humidity":20,"rain":0.0,"pressure":980.5,"uv_index":7.55,"wind_gusts":53.6,"aqi":1426,"pm10":1125.0,"pm2_5":124.8,"mosquito_risk":0,"arthritis_risk":5,"migraine_risk":10,"frizz_risk":0,"updated_at":"2026-04-26T11:38:32.412696+05:30"},{"city":"Noida","state":"Uttar Pradesh","latitude":28.5355,"longitude":77.391,"temp":40.0,"humidity":18,"rain":0.0,"pressure":982.9,"uv_index":7.45,"wind_gusts":44.6,"aqi":1426,"pm10":1125.0,"pm2_5":124.8,"mosquito_risk":0,"arthritis_risk":5,"migraine_risk":10,"frizz_risk":0,"updated_at":"2026-04-26T11:38:32.412702+05:30"},{"city":"Ghaziabad","state":"Uttar Pradesh","latitude":28.6692,"longitude":77.4538,"temp":40.0,"humidity":17,"rain":0.0,"pressure":981.2,"uv_index":7.4,"wind_gusts":50.8,"aqi":392,"pm10":259.8,"pm2_5":52.4,"mosquito_risk":0,"arthritis_risk":5,"migraine_risk":10,"frizz_risk":0,"updated_at":"2026-04-26T11:38:32.412708+05:30"},{"city":"Faridabad","state":"Haryana","latitude":28.4089,"longitude":77.3178,"temp":39.6,"humidity":17,"rain":0.0,"pressure":982.3,"uv_index":7.5,"wind_gusts":53.6,"aqi":1426,"pm10":1125.0,"pm2_5":124.8,"mosquito_risk":0,"arthritis_risk":5,"migraine_risk":10,"frizz_risk":0,"updated_at":"2026-04-26T11:38:32.412717+05:30"},{"city":"Meerut","state":"Uttar Pradesh","latitude":28.9845,"longitude":77.7064,"temp":38.6,"humidity":20,"rain":0.0,"pressure":979.8,"uv_index":7.35,"wind_gusts":48.6,"aqi":392,"pm10":259.8,"pm2_5":52.4,"mosquito_risk":0,"arthritis_risk":5,"migraine_risk":10,"frizz_risk":0,"updated_at":"2026-04-26T11:38:32.412724+05:30"},{"city":"Agra","state":"Uttar Pradesh","latitude":27.1767,"longitude":78.0081,"temp":41.0,"humidity":15,"rain":0.0,"pressure":986.3,"uv_index":7.8,"wind_gusts":45.0,"aqi":1003,"pm10":668.7,"pm2_5":85.9,"mosquito_risk":0,"arthritis_risk":5,"migraine_risk":10,"frizz_risk":0,"updated_at":"2026-04-26T11:38:32.412733+05:30"},{"city":"Varanasi","state":"Uttar Pradesh","latitude":25.3176,"longitude":82.9739,"temp":40.0,"humidity":28,"rain":0.0,"pressure":994.5,"uv_index":8.5,"wind_gusts":49.7,"aqi":143,"pm10":193.7,"pm2_5":59.6,"mosquito_risk":0,"arthritis_risk":5,"migraine_risk":10,"frizz_risk":1,"updated_at":"2026-04-26T11:38:32.412740+05:30"},{"city":"Prayagraj","state":"Uttar Pradesh","latitude":25.4358,"longitude":81.8463,"temp":40.8,"humidity":18,"rain":0.0,"pressure":993.3,"uv_index":8.4,"wind_gusts":47.5,"aqi":132,"pm10":201.6,"pm2_5":57.9,"mosquito_risk":0,"arthritis_risk":5,"migraine_risk":10,"frizz_risk":0,"updated_at":"2026-04-26T11:38:32.412750+05:30"},{"city":"Gorakhpur","state":"Uttar Pradesh","latitude":26.7606,"longitude":83.3732,"temp":36.0,"humidity":42,"rain":0.0,"pressure":994.5,"uv_index":8.35,"wind_gusts":45.4,"aqi":151,"pm10":96.9,"pm2_5":60.8,"mosquito_risk":0,"arthritis_risk":5,"migraine_risk":10,"frizz_risk":1,"updated_at":"2026-04-26T11:38:32.412758+05:30"},{"city":"Bareilly","state":"Uttar Pradesh","latitude":28.367,"longitude":79.4304,"temp":38.4,"humidity":23,"rain":0.0,"pressure":984.4,"uv_index":7.65,"wind_gusts":45.4,"aqi":122,"pm10":113.4,"pm2_5":42.8,"mosquito_risk":0,"arthritis_risk":5,"migraine_risk":10,"frizz_risk":0,"updated_at":"2026-04-26T11:38:32.412765+05:30"},{"city":"Aligarh","state":"Uttar Pradesh","latitude":27.8974,"longitude":78.088,"temp":40.8,"humidity":16,"rain":0.0,"pressure":983.9,"uv_index":7.6,"wind_gusts":55.4,"aqi":849,"pm10":564.4,"pm2_5":79.9,"mosquito_risk":0,"arthritis_risk":5,"migraine_risk":10,"frizz_risk":0,"updated_at":"2026-04-26T11:38:32.412771+05:30"},{"city":"Moradabad","state":"Uttar Pradesh","latitude":28.8386,"longitude":78.7733,"temp":37.7,"humidity":20,"rain":0.0,"pressure":981.9,"uv_index":7.5,"wind_gusts":54.0,"aqi":139,"pm10":129.0,"pm2_5":41.4,"mosquito_risk":0,"arthritis_risk":5,"migraine_risk":10,"frizz_risk":0,"updated_at":"2026-04-26T11:38:32.412778+05:30"},{"city":"Saharanpur","state":"Uttar Pradesh","latitude":29.9637,"longitude":77.546,"temp":37.8,"humidity":18,"rain":0.0,"pressure":974.1,"uv_index":7.1,"wind_gusts":53.6,"aqi":93,"pm10":143.4,"pm2_5":35.9,"mosquito_risk":0,"arthritis_risk":5,"migraine_risk":10,"frizz_risk":0,"updated_at":"2026-04-26T11:38:32.412784+05:30"},{"city":"Jhansi","state":"Uttar Pradesh","latitude":25.4484,"longitude":78.5685,"temp":42.0,"humidity":13,"rain":0.0,"pressure":977.2,"uv_index":8.3,"wind_gusts":40.7,"aqi":103,"pm10":218.4,"pm2_5":48.3,"mosquito_risk":0,"arthritis_risk":5,"migraine_risk":10,"frizz_risk":0,"updated_at":"2026-04-26T11:38:35.772647+05:30"},{"city":"Surat","state":"Gujarat","latitude":21.1702,"longitude":72.8311,"temp":40.7,"humidity":21,"rain":0.0,"pressure":1006.0,"uv_index":7.85,"wind_gusts":33.5,"aqi":107,"pm10":102.2,"pm2_5":55.6,"mosquito_risk":0,"arthritis_risk":5,"migraine_risk":7,"frizz_risk":0,"updated_at":"2026-04-26T11:38:35.772683+05:30"},{"city":"Vadodara","state":"Gujarat","latitude":22.3072,"longitude":73.1812,"temp":39.7,"humidity":26,"rain":0.0,"pressure":1003.8,"uv_index":8.15,"wind_gusts":37.1,"aqi":74,"pm10":65.4,"pm2_5":27.4,"mosquito_risk":0,"arthritis_risk":5,"migraine_risk":7,"frizz_risk":1,"updated_at":"2026-04-26T11:38:35.772696+05:30"},{"city":"Rajkot","state":"Gujarat","latitude":22.3039,"longitude":70.8022,"temp":38.8,"humidity":25,"rain":0.0,"pressure":994.6,"uv_index":7.85,"wind_gusts":37.4,"aqi":60,"pm10":66.4,"pm2_5":19.4,"mosquito_risk":0,"arthritis_risk":5,"migraine_risk":10,"frizz_risk":0,"updated_at":"2026-04-26T11:38:35.772704+05:30"},{"city":"Thane","state":"Maharashtra","latitude":19.2183,"longitude":72.9781,"temp":39.2,"humidity":26,"rain":0.0,"pressure":1006.8,"uv_index":7.55,"wind_gusts":30.6,"aqi":84,"pm10":77.8,"pm2_5":40.4,"mosquito_risk":0,"arthritis_risk":5,"migraine_risk":7,"frizz_risk":1,"updated_at":"2026-04-26T11:38:35.772711+05:30"},{"city":"Nagpur","state":"Maharashtra","latitude":21.1458,"longitude":79.0882,"temp":42.2,"humidity":11,"rain":0.0,"pressure":973.0,"uv_index":8.9,"wind_gusts":32.8,"aqi":98,"pm10":35.9,"pm2_5":30.3,"mosquito_risk":0,"arthritis_risk":5,"migraine_risk":10,"frizz_risk":0,"updated_at":"2026-04-26T11:38:35.772718+05:30"},{"city":"Nashik","state":"Maharashtra","latitude":19.9975,"longitude":73.7898,"temp":39.2,"humidity":14,"rain":0.0,"pressure":946.9,"uv_index":8.1,"wind_gusts":39.6,"aqi":71,"pm10":27.4,"pm2_5":13.2,"mosquito_risk":0,"arthritis_risk":5,"migraine_risk":10,"frizz_risk":0,"updated_at":"2026-04-26T11:38:35.772726+05:30"},{"city":"Aurangabad","state":"Maharashtra","latitude":19.8762,"longitude":75.3433,"temp":40.3,"humidity":11,"rain":0.0,"pressure":945.5,"uv_index":9.05,"wind_gusts":37.8,"aqi":71,"pm10":18.8,"pm2_5":11.9,"mosquito_risk":0,"arthritis_risk":5,"migraine_risk":10,"frizz_risk":0,"updated_at":"2026-04-26T11:38:35.772733+05:30"},{"city":"Solapur","state":"Maharashtra","latitude":17.6599,"longitude":75.9064,"temp":39.2,"humidity":19,"rain":0.0,"pressure":958.0,"uv_index":9.1,"wind_gusts":27.0,"aqi":114,"pm10":44.6,"pm2_5":37.5,"mosquito_risk":0,"arthritis_risk":5,"migraine_risk":10,"frizz_risk":0,"updated_at":"2026-04-26T11:38:35.772740+05:30"},{"city":"Kolhapur","state":"Maharashtra","latitude":16.705,"longitude":74.2433,"temp":38.2,"humidity":18,"rain":0.0,"pressure":949.1,"uv_index":9.0,"wind_gusts":46.1,"aqi":136,"pm10":39.0,"pm2_5":32.1,"mosquito_risk":0,"arthritis_risk":5,"migraine_risk":10,"frizz_risk":0,"updated_at":"2026-04-26T11:38:35.772747+05:30"},{"city":"Goa","state":"Goa","latitude":15.2993,"longitude":74.124,"temp":36.5,"humidity":49,"rain":0.0,"pressure":998.1,"uv_index":8.95,"wind_gusts":38.2,"aqi":84,"pm10":39.1,"pm2_5":28.1,"mosquito_risk":0,"arthritis_risk":5,"migraine_risk":10,"frizz_risk":1,"updated_at":"2026-04-26T11:38:35.772754+05:30"},{"city":"Jodhpur","state":"Rajasthan","latitude":26.2389,"longitude":73.0243,"temp":40.7,"humidity":17,"rain":0.0,"pressure":982.7,"uv_index":8.3,"wind_gusts":35.3,"aqi":79,"pm10":90.6,"pm2_5":18.5,"mosquito_risk":0,"arthritis_risk":5,"migraine_risk":10,"frizz_risk":0,"updated_at":"2026-04-26T11:38:35.772761+05:30"},{"city":"Udaipur","state":"Rajasthan","latitude":24.5854,"longitude":73.7125,"temp":39.0,"humidity":16,"rain":0.0,"pressure":948.0,"uv_index":8.75,"wind_gusts":29.9,"aqi":54,"pm10":39.2,"pm2_5":11.6,"mosquito_risk":0,"arthritis_risk":5,"migraine_risk":10,"frizz_risk":0,"updated_at":"2026-04-26T11:38:35.772768+05:30"},{"city":"Kota","state":"Rajasthan","latitude":25.2138,"longitude":75.8648,"temp":41.2,"humidity":16,"rain":0.0,"pressure":978.8,"uv_index":8.3,"wind_gusts":41.4,"aqi":89,"pm10":152.7,"pm2_5":37.5,"mosquito_risk":0,"arthritis_risk":5,"migraine_risk":10,"frizz_risk":0,"updated_at":"2026-04-26T11:38:35.772774+05:30"},{"city":"Bikaner","state":"Rajasthan","latitude":28.0229,"longitude":73.3119,"temp":41.0,"humidity":15,"rain":0.0,"pressure":981.3,"uv_index":8.15,"wind_gusts":32.4,"aqi":75,"pm10":152.3,"pm2_5":27.6,"mosquito_risk":0,"arthritis_risk":5,"migraine_risk":10,"frizz_risk":0,"updated_at":"2026-04-26T11:38:35.772781+05:30"},{"city":"Ajmer","state":"Rajasthan","latitude":26.4499,"longitude":74.6399,"temp":39.5,"humidity":15,"rain":0.0,"pressure":955.8,"uv_index":8.25,"wind_gusts":46.8,"aqi":74,"pm10":89.2,"pm2_5":20.4,"mosquito_risk":0,"arthritis_risk":5,"migraine_risk":10,"frizz_risk":0,"updated_at":"2026-04-26T11:38:35.772787+05:30"},{"city":"Gwalior","state":"Madhya Pradesh","latitude":26.2183,"longitude":78.1828,"temp":41.3,"humidity":14,"rain":0.0,"pressure":982.2,"uv_index":8.05,"wind_gusts":48.6,"aqi":132,"pm10":142.5,"pm2_5":38.0,"mosquito_risk":0,"arthritis_risk":5,"migraine_risk":10,"frizz_risk":0,"updated_at":"2026-04-26T11:38:35.772794+05:30"},{"city":"Indore","state":"Madhya Pradesh","latitude":22.7196,"longitude":75.8577,"temp":40.5,"humidity":13,"rain":0.0,"pressure":949.3,"uv_index":8.65,"wind_gusts":49.0,"aqi":62,"pm10":58.8,"pm2_5":18.9,"mosquito_risk":0,"arthritis_risk":5,"migraine_risk":10,"frizz_risk":0,"updated_at":"2026-04-26T11:38:35.772800+05:30"},{"city":"Bhopal","state":"Madhya Pradesh","latitude":23.2599,"longitude":77.4126,"temp":41.0,"humidity":13,"rain":0.0,"pressure":954.4,"uv_index":8.65,"wind_gusts":34.6,"aqi":65,"pm10":109.9,"pm2_5":29.5,"mosquito_risk":0,"arthritis_risk":5,"migraine_risk":10,"frizz_risk":0,"updated_at":"2026-04-26T11:38:35.772807+05:30"},{"city":"Jabalpur","state":"Madhya Pradesh","latitude":23.1815,"longitude":79.9864,"temp":41.3,"humidity":13,"rain":0.0,"pressure":961.4,"uv_index":8.7,"wind_gusts":39.6,"aqi":57,"pm10":380.0,"pm2_5":59.3,"mosquito_risk":0,"arthritis_risk":5,"migraine_risk":10,"frizz_risk":0,"updated_at":"2026-04-26T11:38:35.772814+05:30"},{"city":"Ujjain","state":"Madhya Pradesh","latitude":23.1765,"longitude":75.7885,"temp":40.7,"humidity":14,"rain":0.0,"pressure":954.8,"uv_index":8.55,"wind_gusts":50.0,"aqi":70,"pm10":68.5,"pm2_5":21.9,"mosquito_risk":0,"arthritis_risk":5,"migraine_risk":10,"frizz_risk":0,"updated_at":"2026-04-26T11:38:35.772821+05:30"},{"city":"Visakhapatnam","state":"Andhra Pradesh","latitude":17.6868,"longitude":83.2185,"temp":33.8,"humidity":55,"rain":0.0,"pressure":1004.0,"uv_index":9.05,"wind_gusts":47.9,"aqi":55,"pm10":24.4,"pm2_5":16.9,"mosquito_risk":0,"arthritis_risk":5,"migraine_risk":4,"frizz_risk":1,"updated_at":"2026-04-26T11:38:35.772827+05:30"},{"city":"Vijayawada","state":"Andhra Pradesh","latitude":16.5062,"longitude":80.648,"temp":37.8,"humidity":38,"rain":0.0,"pressure":1002.7,"uv_index":8.8,"wind_gusts":37.8,"aqi":53,"pm10":24.5,"pm2_5":15.3,"mosquito_risk":0,"arthritis_risk":5,"migraine_risk":7,"frizz_risk":1,"updated_at":"2026-04-26T11:38:35.772833+05:30"},{"city":"Guntur","state":"Andhra Pradesh","latitude":16.3067,"longitude":80.4365,"temp":37.6,"humidity":36,"rain":0.0,"pressure":1003.9,"uv_index":8.9,"wind_gusts":39.6,"aqi":54,"pm10":27.5,"pm2_5":17.8,"mosquito_risk":0,"arthritis_risk":5,"migraine_risk":7,"frizz_risk":1,"updated_at":"2026-04-26T11:38:35.772839+05:30"},{"city":"Nellore","state":"Andhra Pradesh","latitude":14.4426,"longitude":79.9865,"temp":38.5,"humidity":31,"rain":0.0,"pressure":1005.5,"uv_index":9.1,"wind_gusts":45.4,"aqi":50,"pm10":25.2,"pm2_5":18.0,"mosquito_risk":0,"arthritis_risk":5,"migraine_risk":7,"frizz_risk":1,"updated_at":"2026-04-26T11:38:35.772846+05:30"},{"city":"Kurnool","state":"Andhra Pradesh","latitude":15.8281,"longitude":78.0373,"temp":40.3,"humidity":20,"rain":0.0,"pressure":977.0,"uv_index":9.2,"wind_gusts":32.4,"aqi":84,"pm10":34.2,"pm2_5":27.5,"mosquito_risk":0,"arthritis_risk":5,"migraine_risk":10,"frizz_risk":0,"updated_at":"2026-04-26T11:38:35.772854+05:30"},{"city":"Kakinada","state":"Andhra Pradesh","latitude":16.9891,"longitude":82.2475,"temp":37.5,"humidity":41,"rain":0.0,"pressure":1007.4,"uv_index":8.9,"wind_gusts":46.8,"aqi":43,"pm10":21.7,"pm2_5":12.1,"mosquito_risk":0,"arthritis_risk":5,"migraine_risk":7,"frizz_risk":1,"updated_at":"2026-04-26T11:38:35.772860+05:30"},{"city":"Tirupati","state":"Andhra Pradesh","latitude":13.6288,"longitude":79.4192,"temp":37.5,"humidity":28,"rain":0.0,"pressure":991.5,"uv_index":9.35,"wind_gusts":44.3,"aqi":63,"pm10":26.4,"pm2_5":19.3,"mosquito_risk":0,"arthritis_risk":5,"migraine_risk":10,"frizz_risk":0,"updated_at":"2026-04-26T11:38:35.772866+05:30"},{"city":"Warangal","state":"Telangana","latitude":17.9689,"longitude":79.5941,"temp":37.7,"humidity":33,"rain":0.0,"pressure":979.2,"uv_index":8.95,"wind_gusts":36.0,"aqi":84,"pm10":28.2,"pm2_5":22.7,"mosquito_risk":0,"arthritis_risk":5,"migraine_risk":10,"frizz_risk":1,"updated_at":"2026-04-26T11:38:35.772873+05:30"},{"city":"Nizamabad","state":"Telangana","latitude":18.6725,"longitude":78.0941,"temp":39.2,"humidity":21,"rain":0.0,"pressure":965.7,"uv_index":8.75,"wind_gusts":31.0,"aqi":115,"pm10":39.3,"pm2_5":34.2,"mosquito_risk":0,"arthritis_risk":5,"migraine_risk":10,"frizz_risk":0,"updated_at":"2026-04-26T11:38:35.772879+05:30"},{"city":"Mysore","state":"Karnataka","latitude":12.2958,"longitude":76.6396,"temp":32.6,"humidity":38,"rain":0.0,"pressure":930.4,"uv_index":9.45,"wind_gusts":36.7,"aqi":79,"pm10":32.1,"pm2_5":26.4,"mosquito_risk":0,"arthritis_risk":5,"migraine_risk":7,"frizz_risk":1,"updated_at":"2026-04-26T11:38:35.772885+05:30"},{"city":"Mangalore","state":"Karnataka","latitude":12.9141,"longitude":74.856,"temp":33.0,"humidity":62,"rain":0.0,"pressure":1007.4,"uv_index":9.1,"wind_gusts":37.1,"aqi":72,"pm10":28.7,"pm2_5":21.8,"mosquito_risk":3,"arthritis_risk":5,"migraine_risk":4,"frizz_risk":1,"updated_at":"2026-04-26T11:38:35.772892+05:30"},{"city":"Hubli-Dharwad","state":"Karnataka","latitude":15.3647,"longitude":75.124,"temp":36.2,"humidity":32,"rain":0.0,"pressure":942.5,"uv_index":9.05,"wind_gusts":49.7,"aqi":94,"pm10":41.3,"pm2_5":34.6,"mosquito_risk":0,"arthritis_risk":5,"migraine_risk":10,"frizz_risk":1,"updated_at":"2026-04-26T11:38:35.772898+05:30"},{"city":"Belgaum","state":"Karnataka","latitude":15.8497,"longitude":74.4977,"temp":35.7,"humidity":27,"rain":0.0,"pressure":927.8,"uv_index":8.85,"wind_gusts":40.7,"aqi":120,"pm10":44.4,"pm2_5":36.0,"mosquito_risk":0,"arthritis_risk":5,"migraine_risk":10,"frizz_risk":0,"updated_at":"2026-04-26T11:38:39.123818+05:30"},{"city":"Coimbatore","state":"Tamil Nadu","latitude":11.0168,"longitude":76.9558,"temp":35.2,"humidity":30,"rain":0.0,"pressure":962.9,"uv_index":9.35,"wind_gusts":37.1,"aqi":75,"pm10":29.0,"pm2_5":21.5,"mosquito_risk":0,"arthritis_risk":5,"migraine_risk":10,"frizz_risk":0,"updated_at":"2026-04-26T11:38:39.123850+05:30"},{"city":"Madurai","state":"Tamil Nadu","latitude":9.9252,"longitude":78.1198,"temp":36.5,"humidity":39,"rain":0.0,"pressure":993.3,"uv_index":9.25,"wind_gusts":37.8,"aqi":54,"pm10":9.8,"pm2_5":8.4,"mosquito_risk":0,"arthritis_risk":5,"migraine_risk":10,"frizz_risk":1,"updated_at":"2026-04-26T11:38:39.123860+05:30"},{"city":"Trichy","state":"Tamil Nadu","latitude":10.7905,"longitude":78.7047,"temp":35.3,"humidity":42,"rain":0.0,"pressure":1000.2,"uv_index":9.25,"wind_gusts":34.9,"aqi":53,"pm10":10.9,"pm2_5":8.5,"mosquito_risk":0,"arthritis_risk":5,"migraine_risk":7,"frizz_risk":1,"updated_at":"2026-04-26T11:38:39.123868+05:30"},{"city":"Salem","state":"Tamil Nadu","latitude":11.6643,"longitude":78.146,"temp":35.9,"humidity":33,"rain":0.0,"pressure":978.3,"uv_index":9.35,"wind_gusts":42.1,"aqi":68,"pm10":21.6,"pm2_5":14.5,"mosquito_risk":0,"arthritis_risk":5,"migraine_risk":10,"frizz_risk":1,"updated_at":"2026-04-26T11:38:39.123876+05:30"},{"city":"Tirunelveli","state":"Tamil Nadu","latitude":8.7139,"longitude":77.7567,"temp":35.5,"humidity":41,"rain":0.0,"pressure":1003.3,"uv_index":9.2,"wind_gusts":40.3,"aqi":49,"pm10":8.8,"pm2_5":8.3,"mosquito_risk":0,"arthritis_risk":5,"migraine_risk":7,"frizz_risk":1,"updated_at":"2026-04-26T11:38:39.123884+05:30"},{"city":"Vellore","state":"Tamil Nadu","latitude":12.9165,"longitude":79.1325,"temp":37.2,"humidity":26,"rain":0.0,"pressure":985.1,"uv_index":9.35,"wind_gusts":38.9,"aqi":82,"pm10":27.5,"pm2_5":20.5,"mosquito_risk":0,"arthritis_risk":5,"migraine_risk":10,"frizz_risk":0,"updated_at":"2026-04-26T11:38:39.123891+05:30"},{"city":"Erode","state":"Tamil Nadu","latitude":11.341,"longitude":77.7172,"temp":36.5,"humidity":33,"rain":0.0,"pressure":989.7,"uv_index":9.3,"wind_gusts":42.5,"aqi":57,"pm10":17.3,"pm2_5":11.6,"mosquito_risk":0,"arthritis_risk":5,"migraine_risk":10,"frizz_risk":1,"updated_at":"2026-04-26T11:38:39.123898+05:30"},{"city":"Kochi","state":"Kerala","latitude":9.9312,"longitude":76.2673,"temp":32.3,"humidity":62,"rain":0.0,"pressure":1008.8,"uv_index":9.0,"wind_gusts":34.6,"aqi":76,"pm10":20.4,"pm2_5":18.2,"mosquito_risk":3,"arthritis_risk":0,"migraine_risk":4,"frizz_risk":1,"updated_at":"2026-04-26T11:38:39.123906+05:30"},{"city":"Thiruvananthapuram","state":"Kerala","latitude":8.5241,"longitude":76.9366,"temp":32.4,"humidity":58,"rain":0.1,"pressure":1007.9,"uv_index":8.85,"wind_gusts":32.0,"aqi":49,"pm10":13.9,"pm2_5":11.5,"mosquito_risk":3,"arthritis_risk":5,"migraine_risk":4,"frizz_risk":1,"updated_at":"2026-04-26T11:38:39.123913+05:30"},{"city":"Kozhikode","state":"Kerala","latitude":11.2588,"longitude":75.7804,"temp":31.7,"humidity":70,"rain":0.0,"pressure":1008.3,"uv_index":8.25,"wind_gusts":35.3,"aqi":59,"pm10":17.8,"pm2_5":15.3,"mosquito_risk":3,"arthritis_risk":0,"migraine_risk":4,"frizz_risk":1,"updated_at":"2026-04-26T11:38:39.123920+05:30"},{"city":"Thrissur","state":"Kerala","latitude":10.5276,"longitude":76.2144,"temp":34.5,"humidity":52,"rain":0.0,"pressure":1007.1,"uv_index":9.0,"wind_gusts":39.2,"aqi":69,"pm10":24.8,"pm2_5":21.2,"mosquito_risk":0,"arthritis_risk":5,"migraine_risk":4,"frizz_risk":1,"updated_at":"2026-04-26T11:38:39.123928+05:30"},{"city":"Kannur","state":"Kerala","latitude":11.8745,"longitude":75.3704,"temp":32.6,"humidity":64,"rain":0.0,"pressure":1007.9,"uv_index":9.0,"wind_gusts":36.4,"aqi":68,"pm10":23.3,"pm2_5":18.3,"mosquito_risk":3,"arthritis_risk":5,"migraine_risk":4,"frizz_risk":1,"updated_at":"2026-04-26T11:38:39.123935+05:30"},{"city":"Patna","state":"Bihar","latitude":25.5941,"longitude":85.1376,"temp":35.2,"humidity":48,"rain":0.0,"pressure":997.9,"uv_index":8.65,"wind_gusts":50.4,"aqi":150,"pm10":70.1,"pm2_5":55.9,"mosquito_risk":0,"arthritis_risk":5,"migraine_risk":10,"frizz_risk":1,"updated_at":"2026-04-26T11:38:39.123942+05:30"},{"city":"Gaya","state":"Bihar","latitude":24.7914,"longitude":85.0002,"temp":39.8,"humidity":22,"rain":0.0,"pressure":990.9,"uv_index":8.7,"wind_gusts":45.0,"aqi":123,"pm10":75.0,"pm2_5":51.2,"mosquito_risk":0,"arthritis_risk":5,"migraine_risk":10,"frizz_risk":0,"updated_at":"2026-04-26T11:38:39.123948+05:30"},{"city":"Muzaffarpur","state":"Bihar","latitude":26.1209,"longitude":85.3647,"temp":33.1,"humidity":55,"rain":0.0,"pressure":998.5,"uv_index":8.65,"wind_gusts":42.8,"aqi":153,"pm10":68.7,"pm2_5":56.1,"mosquito_risk":0,"arthritis_risk":5,"migraine_risk":7,"frizz_risk":1,"updated_at":"2026-04-26T11:38:39.123955+05:30"},{"city":"Bhagalpur","state":"Bihar","latitude":25.2425,"longitude":87.0117,"temp":31.3,"humidity":59,"rain":0.0,"pressure":999.9,"uv_index":8.6,"wind_gusts":46.8,"aqi":142,"pm10":64.7,"pm2_5":55.5,"mosquito_risk":0,"arthritis_risk":5,"migraine_risk":7,"frizz_risk":1,"updated_at":"2026-04-26T11:38:39.123962+05:30"},{"city":"Ranchi","state":"Jharkhand","latitude":23.3441,"longitude":85.3096,"temp":36.7,"humidity":21,"rain":0.0,"pressure":937.9,"uv_index":9.2,"wind_gusts":39.2,"aqi":119,"pm10":99.7,"pm2_5":35.3,"mosquito_risk":0,"arthritis_risk":5,"migraine_risk":10,"frizz_risk":0,"updated_at":"2026-04-26T11:38:39.123968+05:30"},{"city":"Jamshedpur","state":"Jharkhand","latitude":22.8046,"longitude":86.2029,"temp":41.4,"humidity":21,"rain":0.0,"pressure":988.3,"uv_index":8.85,"wind_gusts":48.2,"aqi":137,"pm10":67.5,"pm2_5":56.1,"mosquito_risk":0,"arthritis_risk":5,"migraine_risk":10,"frizz_risk":0,"updated_at":"2026-04-26T11:38:39.123975+05:30"},{"city":"Dhanbad","state":"Jharkhand","latitude":23.7957,"longitude":86.4304,"temp":40.5,"humidity":22,"rain":0.0,"pressure":977.4,"uv_index":8.95,"wind_gusts":55.4,"aqi":155,"pm10":94.1,"pm2_5":62.4,"mosquito_risk":0,"arthritis_risk":5,"migraine_risk":10,"frizz_risk":0,"updated_at":"2026-04-26T11:38:39.123981+05:30"},{"city":"Bokaro","state":"Jharkhand","latitude":23.6693,"longitude":86.1511,"temp":42.2,"humidity":14,"rain":0.0,"pressure":980.9,"uv_index":8.95,"wind_gusts":45.7,"aqi":153,"pm10":109.2,"pm2_5":42.3,"mosquito_risk":0,"arthritis_risk":5,"migraine_risk":10,"frizz_risk":0,"updated_at":"2026-04-26T11:38:39.123988+05:30"},{"city":"Bhubaneswar","state":"Odisha","latitude":20.2961,"longitude":85.8245,"temp":35.2,"humidity":55,"rain":0.0,"pressure":1001.7,"uv_index":9.05,"wind_gusts":46.8,"aqi":57,"pm10":24.9,"pm2_5":18.9,"mosquito_risk":0,"arthritis_risk":5,"migraine_risk":7,"frizz_risk":1,"updated_at":"2026-04-26T11:38:39.123995+05:30"},{"city":"Cuttack","state":"Odisha","latitude":20.4625,"longitude":85.8828,"temp":36.0,"humidity":52,"rain":0.0,"pressure":1003.2,"uv_index":9.05,"wind_gusts":45.0,"aqi":57,"pm10":24.9,"pm2_5":18.9,"mosquito_risk":0,"arthritis_risk":5,"migraine_risk":7,"frizz_risk":1,"updated_at":"2026-04-26T11:38:39.124001+05:30"},{"city":"Rourkela","state":"Odisha","latitude":22.2604,"longitude":84.8536,"temp":40.8,"humidity":19,"rain":0.0,"pressure":983.5,"uv_index":8.6,"wind_gusts":39.2,"aqi":146,"pm10":52.4,"pm2_5":46.0,"mosquito_risk":0,"arthritis_risk":5,"migraine_risk":10,"frizz_risk":0,"updated_at":"2026-04-26T11:38:39.124008+05:30"},{"city":"Raipur","state":"Chhattisgarh","latitude":21.2514,"longitude":81.6296,"temp":40.5,"humidity":21,"rain":0.0,"pressure":974.2,"uv_index":8.95,"wind_gusts":42.8,"aqi":98,"pm10":45.3,"pm2_5":40.9,"mosquito_risk":0,"arthritis_risk":5,"migraine_risk":10,"frizz_risk":0,"updated_at":"2026-04-26T11:38:39.124014+05:30"},{"city":"Bhilai","state":"Chhattisgarh","latitude":21.1938,"longitude":81.3509,"temp":39.7,"humidity":24,"rain":0.0,"pressure":974.7,"uv_index":9.0,"wind_gusts":43.2,"aqi":93,"pm10":42.6,"pm2_5":37.7,"mosquito_risk":0,"arthritis_risk":5,"migraine_risk":10,"frizz_risk":0,"updated_at":"2026-04-26T11:38:39.124020+05:30"},{"city":"Guwahati","state":"Assam","latitude":26.1158,"longitude":91.7086,"temp":25.0,"humidity":80,"rain":0.0,"pressure":1002.9,"uv_index":3.8,"wind_gusts":40.3,"aqi":146,"pm10":57.3,"pm2_5":39.2,"mosquito_risk":7,"arthritis_risk":5,"migraine_risk":0,"frizz_risk":1,"updated_at":"2026-04-26T11:38:39.124027+05:30"},{"city":"Agartala","state":"Tripura","latitude":23.8315,"longitude":91.2868,"temp":25.4,"humidity":86,"rain":0.0,"pressure":1007.7,"uv_index":8.8,"wind_gusts":41.4,"aqi":114,"pm10":36.8,"pm2_5":23.4,"mosquito_risk":7,"arthritis_risk":5,"migraine_risk":4,"frizz_risk":1,"updated_at":"2026-04-26T11:38:39.124034+05:30"},{"city":"Shillong","state":"Meghalaya","latitude":25.5788,"longitude":91.8933,"temp":21.6,"humidity":67,"rain":0.0,"pressure":857.6,"uv_index":4.1,"wind_gusts":49.3,"aqi":130,"pm10":61.7,"pm2_5":34.7,"mosquito_risk":3,"arthritis_risk":5,"migraine_risk":3,"frizz_risk":0,"updated_at":"2026-04-26T11:38:39.124042+05:30"},{"city":"Imphal","state":"Manipur","latitude":24.817,"longitude":93.9368,"temp":28.8,"humidity":41,"rain":0.0,"pressure":924.8,"uv_index":5.7,"wind_gusts":35.3,"aqi":151,"pm10":114.3,"pm2_5":48.4,"mosquito_risk":4,"arthritis_risk":5,"migraine_risk":3,"frizz_risk":0,"updated_at":"2026-04-26T11:38:39.124048+05:30"},{"city":"Aizawl","state":"Mizoram","latitude":23.7271,"longitude":92.7176,"temp":26.1,"humidity":51,"rain":0.0,"pressure":895.1,"uv_index":9.0,"wind_gusts":42.8,"aqi":113,"pm10":72.6,"pm2_5":31.0,"mosquito_risk":4,"arthritis_risk":5,"migraine_risk":7,"frizz_risk":0,"updated_at":"2026-04-26T11:38:39.124055+05:30"},{"city":"Kohima","state":"Nagaland","latitude":25.6701,"longitude":94.1077,"temp":20.5,"humidity":76,"rain":0.0,"pressure":857.2,"uv_index":6.95,"wind_gusts":34.6,"aqi":154,"pm10":100.4,"pm2_5":48.9,"mosquito_risk":3,"arthritis_risk":5,"migraine_risk":7,"frizz_risk":1,"updated_at":"2026-04-26T11:38:39.124061+05:30"},{"city":"Gangtok","state":"Sikkim","latitude":27.3314,"longitude":88.6138,"temp":22.3,"humidity":47,"rain":0.0,"pressure":838.6,"uv_index":8.0,"wind_gusts":39.2,"aqi":76,"pm10":57.5,"pm2_5":28.6,"mosquito_risk":0,"arthritis_risk":5,"migraine_risk":7,"frizz_risk":0,"updated_at":"2026-04-26T11:38:39.124067+05:30"},{"city":"Siliguri","state":"West Bengal","latitude":26.7271,"longitude":88.3953,"temp":25.1,"humidity":74,"rain":0.0,"pressure":994.2,"uv_index":8.4,"wind_gusts":35.3,"aqi":141,"pm10":80.1,"pm2_5":42.1,"mosquito_risk":7,"arthritis_risk":5,"migraine_risk":7,"frizz_risk":1,"updated_at":"2026-04-26T11:38:42.487627+05:30"},{"city":"Durgapur","state":"West Bengal","latitude":23.5204,"longitude":87.3119,"temp":36.7,"humidity":48,"rain":0.0,"pressure":992.7,"uv_index":8.9,"wind_gusts":38.5,"aqi":127,"pm10":78.2,"pm2_5":67.8,"mosquito_risk":0,"arthritis_risk":5,"migraine_risk":10,"frizz_risk":1,"updated_at":"2026-04-26T11:38:42.487659+05:30"},{"city":"Asansol","state":"West Bengal","latitude":23.6739,"longitude":86.9524,"temp":38.0,"humidity":40,"rain":0.0,"pressure":991.1,"uv_index":8.95,"wind_gusts":49.0,"aqi":138,"pm10":88.2,"pm2_5":73.8,"mosquito_risk":0,"arthritis_risk":5,"migraine_risk":10,"frizz_risk":1,"updated_at":"2026-04-26T11:38:42.487669+05:30"},{"city":"Pondicherry","state":"Puducherry","latitude":11.9139,"longitude":79.8145,"temp":32.9,"humidity":60,"rain":0.0,"pressure":1009.4,"uv_index":9.2,"wind_gusts":43.6,"aqi":30,"pm10":18.1,"pm2_5":11.6,"mosquito_risk":0,"arthritis_risk":0,"migraine_risk":4,"frizz_risk":1,"updated_at":"2026-04-26T11:38:42.487677+05:30"},{"city":"Port Blair","state":"Andaman and Nicobar Islands","latitude":11.6234,"longitude":92.7265,"temp":34.2,"humidity":47,"rain":0.0,"pressure":1007.6,"uv_index":9.1,"wind_gusts":36.7,"aqi":56,"pm10":19.7,"pm2_5":13.4,"mosquito_risk":0,"arthritis_risk":5,"migraine_risk":4,"frizz_risk":1,"updated_at":"2026-04-26T11:38:42.487685+05:30"},{"city":"Haridwar","state":"Uttarakhand","latitude":29.9457,"longitude":78.1642,"temp":34.8,"humidity":33,"rain":0.0,"pressure":972.4,"uv_index":7.2,"wind_gusts":44.6,"aqi":71,"pm10":131.3,"pm2_5":31.5,"mosquito_risk":0,"arthritis_risk":5,"migraine_risk":7,"frizz_risk":1,"updated_at":"2026-04-26T11:38:42.487692+05:30"},{"city":"Rishikesh","state":"Uttarakhand","latitude":30.0869,"longitude":78.2676,"temp":35.0,"humidity":28,"rain":0.0,"pressure":965.2,"uv_index":7.3,"wind_gusts":35.3,"aqi":66,"pm10":122.9,"pm2_5":24.3,"mosquito_risk":0,"arthritis_risk":5,"migraine_risk":7,"frizz_risk":0,"updated_at":"2026-04-26T11:38:42.487700+05:30"},{"city":"Nainital","state":"Uttarakhand","latitude":29.3919,"longitude":79.4542,"temp":24.2,"humidity":31,"rain":0.0,"pressure":808.8,"uv_index":8.15,"wind_gusts":53.3,"aqi":77,"pm10":81.3,"pm2_5":28.5,"mosquito_risk":0,"arthritis_risk":5,"migraine_risk":7,"frizz_risk":0,"updated_at":"2026-04-26T11:38:42.487708+05:30"},{"city":"Mussoorie","state":"Uttarakhand","latitude":30.4599,"longitude":78.0664,"temp":24.4,"humidity":26,"rain":0.0,"pressure":806.7,"uv_index":7.7,"wind_gusts":59.8,"aqi":61,"pm10":109.2,"pm2_5":24.1,"mosquito_risk":0,"arthritis_risk":5,"migraine_risk":7,"frizz_risk":0,"updated_at":"2026-04-26T11:38:42.487715+05:30"},{"city":"Dharamshala","state":"Himachal Pradesh","latitude":32.219,"longitude":76.3234,"temp":27.4,"humidity":29,"rain":0.0,"pressure":871.6,"uv_index":8.05,"wind_gusts":45.0,"aqi":43,"pm10":41.3,"pm2_5":9.9,"mosquito_risk":4,"arthritis_risk":5,"migraine_risk":7,"frizz_risk":0,"updated_at":"2026-04-26T11:38:42.487722+05:30"},{"city":"Dalhousie","state":"Himachal Pradesh","latitude":32.5387,"longitude":75.971,"temp":23.8,"humidity":27,"rain":0.0,"pressure":808.4,"uv_index":8.3,"wind_gusts":41.0,"aqi":68,"pm10":70.1,"pm2_5":18.3,"mosquito_risk":0,"arthritis_risk":5,"migraine_risk":7,"frizz_risk":0,"updated_at":"2026-04-26T11:38:42.487730+05:30"},{"city":"Patiala","state":"Punjab","latitude":30.3398,"longitude":76.3869,"temp":38.9,"humidity":16,"rain":0.0,"pressure":977.2,"uv_index":7.3,"wind_gusts":47.9,"aqi":446,"pm10":596.0,"pm2_5":64.0,"mosquito_risk":0,"arthritis_risk":5,"migraine_risk":10,"frizz_risk":0,"updated_at":"2026-04-26T11:38:42.487737+05:30"},{"city":"Bhatinda","state":"Punjab","latitude":30.211,"longitude":74.9455,"temp":39.5,"humidity":17,"rain":0.0,"pressure":983.0,"uv_index":8.0,"wind_gusts":43.6,"aqi":94,"pm10":72.9,"pm2_5":20.6,"mosquito_risk":0,"arthritis_risk":5,"migraine_risk":10,"frizz_risk":0,"updated_at":"2026-04-26T11:38:42.487743+05:30"},{"city":"Rohtak","state":"Haryana","latitude":28.8955,"longitude":76.6066,"temp":39.8,"humidity":18,"rain":0.0,"pressure":980.8,"uv_index":7.45,"wind_gusts":51.1,"aqi":722,"pm10":543.9,"pm2_5":70.8,"mosquito_risk":0,"arthritis_risk":5,"migraine_risk":10,"frizz_risk":0,"updated_at":"2026-04-26T11:38:42.487751+05:30"},{"city":"Panipat","state":"Haryana","latitude":29.3909,"longitude":76.9635,"temp":40.5,"humidity":14,"rain":0.0,"pressure":979.0,"uv_index":7.25,"wind_gusts":55.4,"aqi":1427,"pm10":1244.2,"pm2_5":121.5,"mosquito_risk":0,"arthritis_risk":5,"migraine_risk":10,"frizz_risk":0,"updated_at":"2026-04-26T11:38:42.487757+05:30"},{"city":"Mathura","state":"Uttar Pradesh","latitude":27.4924,"longitude":77.6737,"temp":40.3,"humidity":17,"rain":0.0,"pressure":985.5,"uv_index":7.75,"wind_gusts":47.5,"aqi":928,"pm10":653.8,"pm2_5":81.3,"mosquito_risk":0,"arthritis_risk":5,"migraine_risk":10,"frizz_risk":0,"updated_at":"2026-04-26T11:38:42.487764+05:30"},{"city":"Vrindavan","state":"Uttar Pradesh","latitude":27.5823,"longitude":77.7027,"temp":40.3,"humidity":17,"rain":0.0,"pressure":985.9,"uv_index":7.7,"wind_gusts":47.9,"aqi":928,"pm10":653.8,"pm2_5":81.3,"mosquito_risk":0,"arthritis_risk":5,"migraine_risk":10,"frizz_risk":0,"updated_at":"2026-04-26T11:38:42.487771+05:30"},{"city":"Ayodhya","state":"Uttar Pradesh","latitude":26.7922,"longitude":82.1998,"temp":37.2,"humidity":36,"rain":0.0,"pressure":992.6,"uv_index":8.1,"wind_gusts":43.9,"aqi":150,"pm10":121.1,"pm2_5":61.9,"mosquito_risk":0,"arthritis_risk":5,"migraine_risk":10,"frizz_risk":1,"updated_at":"2026-04-26T11:38:42.487777+05:30"},{"city":"Ratlam","state":"Madhya Pradesh","latitude":23.3315,"longitude":75.0367,"temp":40.8,"humidity":14,"rain":0.0,"pressure":955.7,"uv_index":8.5,"wind_gusts":34.2,"aqi":61,"pm10":64.5,"pm2_5":19.4,"mosquito_risk":0,"arthritis_risk":5,"migraine_risk":10,"frizz_risk":0,"updated_at":"2026-04-26T11:38:42.487783+05:30"},{"city":"Sagar","state":"Madhya Pradesh","latitude":23.8388,"longitude":78.7378,"temp":40.7,"humidity":13,"rain":0.0,"pressure":950.8,"uv_index":8.65,"wind_gusts":44.3,"aqi":74,"pm10":199.8,"pm2_5":36.8,"mosquito_risk":0,"arthritis_risk":5,"migraine_risk":10,"frizz_risk":0,"updated_at":"2026-04-26T11:38:42.487790+05:30"},{"city":"Satna","state":"Madhya Pradesh","latitude":24.6005,"longitude":80.8322,"temp":41.5,"humidity":13,"rain":0.0,"pressure":970.4,"uv_index":8.65,"wind_gusts":39.6,"aqi":126,"pm10":295.2,"pm2_5":50.5,"mosquito_risk":0,"arthritis_risk":5,"migraine_risk":10,"frizz_risk":0,"updated_at":"2026-04-26T11:38:42.487796+05:30"},{"city":"Akola","state":"Maharashtra","latitude":20.7002,"longitude":77.0082,"temp":41.1,"humidity":14,"rain":0.0,"pressure":975.0,"uv_index":8.85,"wind_gusts":33.8,"aqi":59,"pm10":27.7,"pm2_5":15.0,"mosquito_risk":0,"arthritis_risk":5,"migraine_risk":10,"frizz_risk":0,"updated_at":"2026-04-26T11:38:42.487803+05:30"},{"city":"Amravati","state":"Maharashtra","latitude":20.9374,"longitude":77.7796,"temp":40.7,"humidity":14,"rain":0.0,"pressure":967.6,"uv_index":8.85,"wind_gusts":26.6,"aqi":64,"pm10":27.8,"pm2_5":14.8,"mosquito_risk":0,"arthritis_risk":5,"migraine_risk":10,"frizz_risk":0,"updated_at":"2026-04-26T11:38:42.487810+05:30"},{"city":"Latur","state":"Maharashtra","latitude":18.4088,"longitude":76.5604,"temp":38.8,"humidity":17,"rain":0.0,"pressure":941.4,"uv_index":9.0,"wind_gusts":28.1,"aqi":112,"pm10":46.3,"pm2_5":38.9,"mosquito_risk":0,"arthritis_risk":5,"migraine_risk":10,"frizz_risk":0,"updated_at":"2026-04-26T11:38:42.487817+05:30"},{"city":"Nanded","state":"Maharashtra","latitude":19.1383,"longitude":77.3091,"temp":41.0,"humidity":16,"rain":0.0,"pressure":968.8,"uv_index":9.05,"wind_gusts":29.5,"aqi":116,"pm10":47.1,"pm2_5":39.7,"mosquito_risk":0,"arthritis_risk":5,"migraine_risk":10,"frizz_risk":0,"updated_at":"2026-04-26T11:38:42.487824+05:30"},{"city":"Gulbarga","state":"Karnataka","latitude":17.3297,"longitude":76.8343,"temp":38.7,"humidity":23,"rain":0.0,"pressure":959.9,"uv_index":7.8,"wind_gusts":29.5,"aqi":107,"pm10":34.7,"pm2_5":29.3,"mosquito_risk":0,"arthritis_risk":5,"migraine_risk":10,"frizz_risk":0,"updated_at":"2026-04-26T11:38:42.487830+05:30"},{"city":"Bidar","state":"Karnataka","latitude":17.9104,"longitude":77.5199,"temp":36.5,"humidity":27,"rain":0.0,"pressure":937.9,"uv_index":7.95,"wind_gusts":37.4,"aqi":109,"pm10":35.3,"pm2_5":29.9,"mosquito_risk":0,"arthritis_risk":5,"migraine_risk":10,"frizz_risk":0,"updated_at":"2026-04-26T11:38:42.487836+05:30"},{"city":"Hospet","state":"Karnataka","latitude":15.2689,"longitude":76.3909,"temp":35.0,"humidity":39,"rain":0.0,"pressure":957.2,"uv_index":8.9,"wind_gusts":34.9,"aqi":95,"pm10":32.0,"pm2_5":27.4,"mosquito_risk":0,"arthritis_risk":5,"migraine_risk":7,"frizz_risk":1,"updated_at":"2026-04-26T11:38:42.487842+05:30"},{"city":"Tirupur","state":"Tamil Nadu","latitude":11.1085,"longitude":77.3411,"temp":36.0,"humidity":32,"rain":0.0,"pressure":976.1,"uv_index":9.4,"wind_gusts":33.5,"aqi":65,"pm10":21.4,"pm2_5":15.3,"mosquito_risk":0,"arthritis_risk":5,"migraine_risk":10,"frizz_risk":1,"updated_at":"2026-04-26T11:38:42.487849+05:30"},{"city":"Alappuzha","state":"Kerala","latitude":9.4981,"longitude":76.3388,"temp":31.5,"humidity":68,"rain":0.0,"pressure":1008.8,"uv_index":8.95,"wind_gusts":34.2,"aqi":66,"pm10":18.3,"pm2_5":16.9,"mosquito_risk":3,"arthritis_risk":0,"migraine_risk":4,"frizz_risk":1,"updated_at":"2026-04-26T11:38:42.487855+05:30"},{"city":"Munnar","state":"Kerala","latitude":10.0889,"longitude":77.0595,"temp":24.6,"humidity":56,"rain":0.0,"pressure":859.6,"uv_index":9.6,"wind_gusts":28.1,"aqi":63,"pm10":16.2,"pm2_5":13.2,"mosquito_risk":0,"arthritis_risk":5,"migraine_risk":7,"frizz_risk":0,"updated_at":"2026-04-26T11:38:42.487862+05:30"},{"city":"Silchar","state":"Assam","latitude":24.8333,"longitude":92.7789,"temp":24.1,"humidity":96,"rain":0.4,"pressure":1006.8,"uv_index":6.8,"wind_gusts":46.1,"aqi":162,"pm10":88.9,"pm2_5":46.9,"mosquito_risk":6,"arthritis_risk":5,"migraine_risk":4,"frizz_risk":1,"updated_at":"2026-04-26T11:38:42.487869+05:30"},{"city":"Dibrugarh","state":"Assam","latitude":27.4728,"longitude":94.912,"temp":26.1,"humidity":71,"rain":0.0,"pressure":997.2,"uv_index":5.15,"wind_gusts":22.3,"aqi":93,"pm10":55.5,"pm2_5":36.6,"mosquito_risk":7,"arthritis_risk":5,"migraine_risk":3,"frizz_risk":1,"updated_at":"2026-04-26T11:38:42.487876+05:30"}]