[{"city":"Delhi","state":"Delhi","latitude":28.6139,"longitude":77.209,"temp":18.9,"humidity":90,"rain":0.0,"pressure":984.7,"uv_index":5.6,"wind_gusts":37.4,"aqi":121,"pm10":130.4,"pm2_5":63.1,"mosquito_risk":3,"arthritis_risk":10,"migraine_risk":3,"frizz_risk":1,"updated_at":"2026-04-05T00:18:52.604860+05:30"},{"city":"Mumbai","state":"Maharashtra","latitude":19.076,"longitude":72.8777,"temp":27.6,"humidity":78,"rain":0.0,"pressure":1010.1,"uv_index":7.9,"wind_gusts":20.9,"aqi":72,"pm10":64.7,"pm2_5":23.0,"mosquito_risk":7,"arthritis_risk":0,"migraine_risk":4,"frizz_risk":1,"updated_at":"2026-04-05T00:18:52.604909+05:30"},{"city":"Bangalore","state":"Karnataka","latitude":12.9716,"longitude":77.5946,"temp":24.1,"humidity":72,"rain":0.0,"pressure":911.6,"uv_index":9.1,"wind_gusts":24.5,"aqi":85,"pm10":39.6,"pm2_5":37.5,"mosquito_risk":3,"arthritis_risk":5,"migraine_risk":7,"frizz_risk":1,"updated_at":"2026-04-05T00:18:52.604924+05:30"},{"city":"Hyderabad","state":"Telangana","latitude":17.385,"longitude":78.4867,"temp":25.4,"humidity":72,"rain":0.0,"pressure":953.1,"uv_index":7.95,"wind_gusts":43.2,"aqi":97,"pm10":60.5,"pm2_5":54.1,"mosquito_risk":7,"arthritis_risk":5,"migraine_risk":7,"frizz_risk":1,"updated_at":"2026-04-05T00:18:52.604935+05:30"},{"city":"Chennai","state":"Tamil Nadu","latitude":13.0827,"longitude":80.2707,"temp":28.5,"humidity":89,"rain":0.0,"pressure":1006.6,"uv_index":8.75,"wind_gusts":31.0,"aqi":64,"pm10":16.2,"pm2_5":12.5,"mosquito_risk":7,"arthritis_risk":5,"migraine_risk":4,"frizz_risk":1,"updated_at":"2026-04-05T00:18:52.604945+05:30"},{"city":"Kolkata","state":"West Bengal","latitude":22.5726,"longitude":88.3639,"temp":27.5,"humidity":92,"rain":0.0,"pressure":1003.7,"uv_index":8.55,"wind_gusts":19.1,"aqi":118,"pm10":38.5,"pm2_5":36.0,"mosquito_risk":7,"arthritis_risk":5,"migraine_risk":4,"frizz_risk":1,"updated_at":"2026-04-05T00:18:52.604955+05:30"},{"city":"Pune","state":"Maharashtra","latitude":18.5204,"longitude":73.8567,"temp":22.4,"humidity":79,"rain":0.0,"pressure":949.2,"uv_index":8.5,"wind_gusts":40.0,"aqi":102,"pm10":28.9,"pm2_5":24.0,"mosquito_risk":3,"arthritis_risk":5,"migraine_risk":7,"frizz_risk":1,"updated_at":"2026-04-05T00:18:52.604967+05:30"},{"city":"Ahmedabad","state":"Gujarat","latitude":23.0225,"longitude":72.5714,"temp":26.0,"humidity":49,"rain":0.0,"pressure":1003.5,"uv_index":7.5,"wind_gusts":24.8,"aqi":50,"pm10":24.9,"pm2_5":18.2,"mosquito_risk":4,"arthritis_risk":5,"migraine_risk":4,"frizz_risk":0,"updated_at":"2026-04-05T00:18:52.604975+05:30"},{"city":"Jaipur","state":"Rajasthan","latitude":26.9124,"longitude":75.7873,"temp":21.3,"humidity":77,"rain":0.0,"pressure":960.5,"uv_index":7.45,"wind_gusts":30.6,"aqi":83,"pm10":194.6,"pm2_5":39.3,"mosquito_risk":3,"arthritis_risk":5,"migraine_risk":7,"frizz_risk":1,"updated_at":"2026-04-05T00:18:52.604982+05:30"},{"city":"Lucknow","state":"Uttar Pradesh","latitude":26.8467,"longitude":80.9462,"temp":24.6,"humidity":68,"rain":0.0,"pressure":992.8,"uv_index":6.3,"wind_gusts":48.6,"aqi":155,"pm10":219.8,"pm2_5":54.1,"mosquito_risk":3,"arthritis_risk":5,"migraine_risk":7,"frizz_risk":1,"updated_at":"2026-04-05T00:18:52.604991+05:30"},{"city":"Kanpur","state":"Uttar Pradesh","latitude":26.4499,"longitude":80.3319,"temp":23.1,"humidity":77,"rain":0.0,"pressure":991.6,"uv_index":6.75,"wind_gusts":33.1,"aqi":302,"pm10":119.0,"pm2_5":34.8,"mosquito_risk":3,"arthritis_risk":5,"migraine_risk":7,"frizz_risk":1,"updated_at":"2026-04-05T00:18:52.604998+05:30"},{"city":"Chandigarh","state":"Chandigarh","latitude":30.7333,"longitude":76.7794,"temp":17.7,"humidity":88,"rain":0.0,"pressure":971.1,"uv_index":5.9,"wind_gusts":32.0,"aqi":89,"pm10":39.9,"pm2_5":31.4,"mosquito_risk":3,"arthritis_risk":10,"migraine_risk":3,"frizz_risk":0,"updated_at":"2026-04-05T00:18:52.605006+05:30"},{"city":"Srinagar","state":"Jammu and Kashmir","latitude":34.0837,"longitude":74.7973,"temp":8.2,"humidity":90,"rain":0.0,"pressure":840.7,"uv_index":5.25,"wind_gusts":37.1,"aqi":65,"pm10":49.8,"pm2_5":46.4,"mosquito_risk":3,"arthritis_risk":10,"migraine_risk":3,"frizz_risk":0,"updated_at":"2026-04-05T00:18:52.605014+05:30"},{"city":"Jammu","state":"Jammu and Kashmir","latitude":32.7266,"longitude":74.857,"temp":15.4,"humidity":90,"rain":0.0,"pressure":975.2,"uv_index":6.55,"wind_gusts":46.4,"aqi":72,"pm10":61.7,"pm2_5":38.5,"mosquito_risk":3,"arthritis_risk":10,"migraine_risk":7,"frizz_risk":0,"updated_at":"2026-04-05T00:18:52.605022+05:30"},{"city":"Amritsar","state":"Punjab","latitude":31.634,"longitude":74.8723,"temp":16.1,"humidity":94,"rain":0.0,"pressure":983.7,"uv_index":6.15,"wind_gusts":32.0,"aqi":88,"pm10":117.3,"pm2_5":62.6,"mosquito_risk":3,"arthritis_risk":10,"migraine_risk":7,"frizz_risk":0,"updated_at":"2026-04-05T00:18:52.605028+05:30"},{"city":"Ludhiana","state":"Punjab","latitude":30.901,"longitude":75.8573,"temp":17.6,"humidity":86,"rain":0.0,"pressure":981.2,"uv_index":6.7,"wind_gusts":32.8,"aqi":113,"pm10":101.5,"pm2_5":54.0,"mosquito_risk":3,"arthritis_risk":10,"migraine_risk":7,"frizz_risk":0,"updated_at":"2026-04-05T00:18:52.605035+05:30"},{"city":"Jalandhar","state":"Punjab","latitude":31.326,"longitude":75.5762,"temp":17.1,"humidity":91,"rain":0.0,"pressure":982.6,"uv_index":6.75,"wind_gusts":34.2,"aqi":99,"pm10":111.1,"pm2_5":52.4,"mosquito_risk":3,"arthritis_risk":10,"migraine_risk":7,"frizz_risk":0,"updated_at":"2026-04-05T00:18:52.605044+05:30"},{"city":"Dehradun","state":"Uttarakhand","latitude":30.6284,"longitude":78.0322,"temp":12.1,"humidity":73,"rain":0.0,"pressure":829.6,"uv_index":3.85,"wind_gusts":38.9,"aqi":40,"pm10":22.8,"pm2_5":12.4,"mosquito_risk":3,"arthritis_risk":5,"migraine_risk":3,"frizz_risk":0,"updated_at":"2026-04-05T00:18:52.605051+05:30"},{"city":"Shimla","state":"Himachal Pradesh","latitude":31.1048,"longitude":77.1734,"temp":10.6,"humidity":75,"rain":0.0,"pressure":783.1,"uv_index":5.55,"wind_gusts":49.7,"aqi":49,"pm10":22.6,"pm2_5":11.0,"mosquito_risk":3,"arthritis_risk":5,"migraine_risk":3,"frizz_risk":0,"updated_at":"2026-04-05T00:18:52.605058+05:30"},{"city":"Manali","state":"Himachal Pradesh","latitude":32.2396,"longitude":77.1887,"temp":11.9,"humidity":63,"rain":0.0,"pressure":818.9,"uv_index":7.2,"wind_gusts":31.3,"aqi":50,"pm10":18.9,"pm2_5":10.9,"mosquito_risk":3,"arthritis_risk":5,"migraine_risk":7,"frizz_risk":0,"updated_at":"2026-04-05T00:18:52.605066+05:30"},{"city":"Gurgaon","state":"Haryana","latitude":28.4595,"longitude":77.0266,"temp":18.2,"humidity":93,"rain":0.0,"pressure":983.3,"uv_index":6.2,"wind_gusts":46.4,"aqi":365,"pm10":122.9,"pm2_5":62.2,"mosquito_risk":3,"arthritis_risk":10,"migraine_risk":7,"frizz_risk":1,"updated_at":"2026-04-05T00:18:52.605073+05:30"},{"city":"Noida","state":"Uttar Pradesh","latitude":28.5355,"longitude":77.391,"temp":19.1,"humidity":88,"rain":0.0,"pressure":986.2,"uv_index":5.7,"wind_gusts":43.6,"aqi":365,"pm10":122.9,"pm2_5":62.2,"mosquito_risk":3,"arthritis_risk":10,"migraine_risk":3,"frizz_risk":1,"updated_at":"2026-04-05T00:18:52.605079+05:30"},{"city":"Ghaziabad","state":"Uttar Pradesh","latitude":28.6692,"longitude":77.4538,"temp":18.1,"humidity":90,"rain":0.0,"pressure":984.2,"uv_index":5.55,"wind_gusts":43.2,"aqi":124,"pm10":174.6,"pm2_5":63.1,"mosquito_risk":3,"arthritis_risk":10,"migraine_risk":3,"frizz_risk":1,"updated_at":"2026-04-05T00:18:52.605086+05:30"},{"city":"Faridabad","state":"Haryana","latitude":28.4089,"longitude":77.3178,"temp":18.7,"humidity":89,"rain":0.0,"pressure":985.6,"uv_index":5.8,"wind_gusts":38.9,"aqi":365,"pm10":122.9,"pm2_5":62.2,"mosquito_risk":3,"arthritis_risk":10,"migraine_risk":3,"frizz_risk":1,"updated_at":"2026-04-05T00:18:52.605095+05:30"},{"city":"Meerut","state":"Uttar Pradesh","latitude":28.9845,"longitude":77.7064,"temp":18.7,"humidity":89,"rain":0.0,"pressure":983.1,"uv_index":6.45,"wind_gusts":46.4,"aqi":124,"pm10":174.6,"pm2_5":63.1,"mosquito_risk":3,"arthritis_risk":10,"migraine_risk":7,"frizz_risk":1,"updated_at":"2026-04-05T00:18:52.605101+05:30"},{"city":"Agra","state":"Uttar Pradesh","latitude":27.1767,"longitude":78.0081,"temp":20.0,"humidity":92,"rain":0.0,"pressure":989.1,"uv_index":6.8,"wind_gusts":35.6,"aqi":424,"pm10":189.1,"pm2_5":50.9,"mosquito_risk":3,"arthritis_risk":5,"migraine_risk":7,"frizz_risk":1,"updated_at":"2026-04-05T00:18:52.605108+05:30"},{"city":"Varanasi","state":"Uttar Pradesh","latitude":25.3176,"longitude":82.9739,"temp":25.8,"humidity":74,"rain":0.0,"pressure":998.3,"uv_index":6.05,"wind_gusts":24.8,"aqi":78,"pm10":78.7,"pm2_5":41.4,"mosquito_risk":7,"arthritis_risk":5,"migraine_risk":7,"frizz_risk":1,"updated_at":"2026-04-05T00:18:52.605118+05:30"},{"city":"Prayagraj","state":"Uttar Pradesh","latitude":25.4358,"longitude":81.8463,"temp":23.6,"humidity":84,"rain":0.2,"pressure":996.3,"uv_index":5.45,"wind_gusts":35.6,"aqi":79,"pm10":109.0,"pm2_5":43.7,"mosquito_risk":6,"arthritis_risk":5,"migraine_risk":3,"frizz_risk":1,"updated_at":"2026-04-05T00:18:52.605125+05:30"},{"city":"Gorakhpur","state":"Uttar Pradesh","latitude":26.7606,"longitude":83.3732,"temp":26.7,"humidity":58,"rain":0.0,"pressure":996.2,"uv_index":6.8,"wind_gusts":37.1,"aqi":91,"pm10":82.9,"pm2_5":40.0,"mosquito_risk":4,"arthritis_risk":5,"migraine_risk":7,"frizz_risk":1,"updated_at":"2026-04-05T00:18:52.605134+05:30"},{"city":"Bareilly","state":"Uttar Pradesh","latitude":28.367,"longitude":79.4304,"temp":21.8,"humidity":84,"rain":0.0,"pressure":987.6,"uv_index":5.35,"wind_gusts":24.5,"aqi":97,"pm10":38.4,"pm2_5":26.5,"mosquito_risk":3,"arthritis_risk":5,"migraine_risk":3,"frizz_risk":1,"updated_at":"2026-04-05T00:18:52.605141+05:30"},{"city":"Aligarh","state":"Uttar Pradesh","latitude":27.8974,"longitude":78.088,"temp":19.1,"humidity":86,"rain":0.0,"pressure":986.6,"uv_index":5.3,"wind_gusts":40.7,"aqi":514,"pm10":473.1,"pm2_5":95.0,"mosquito_risk":3,"arthritis_risk":10,"migraine_risk":3,"frizz_risk":1,"updated_at":"2026-04-05T00:18:52.605147+05:30"},{"city":"Moradabad","state":"Uttar Pradesh","latitude":28.8386,"longitude":78.7733,"temp":20.6,"humidity":85,"rain":0.0,"pressure":985.3,"uv_index":6.0,"wind_gusts":31.0,"aqi":108,"pm10":67.1,"pm2_5":32.1,"mosquito_risk":3,"arthritis_risk":5,"migraine_risk":3,"frizz_risk":1,"updated_at":"2026-04-05T00:18:52.605154+05:30"},{"city":"Saharanpur","state":"Uttar Pradesh","latitude":29.9637,"longitude":77.546,"temp":18.8,"humidity":89,"rain":0.0,"pressure":977.7,"uv_index":5.6,"wind_gusts":35.6,"aqi":135,"pm10":46.3,"pm2_5":30.0,"mosquito_risk":3,"arthritis_risk":10,"migraine_risk":3,"frizz_risk":1,"updated_at":"2026-04-05T00:18:52.605160+05:30"},{"city":"Jhansi","state":"Uttar Pradesh","latitude":25.4484,"longitude":78.5685,"temp":22.4,"humidity":87,"rain":0.0,"pressure":978.3,"uv_index":7.15,"wind_gusts":45.0,"aqi":85,"pm10":34.8,"pm2_5":18.7,"mosquito_risk":3,"arthritis_risk":5,"migraine_risk":7,"frizz_risk":1,"updated_at":"2026-04-05T00:18:55.868073+05:30"},{"city":"Surat","state":"Gujarat","latitude":21.1702,"longitude":72.8311,"temp":26.5,"humidity":77,"rain":0.0,"pressure":1007.9,"uv_index":7.6,"wind_gusts":25.6,"aqi":77,"pm10":46.8,"pm2_5":24.9,"mosquito_risk":7,"arthritis_risk":5,"migraine_risk":4,"frizz_risk":1,"updated_at":"2026-04-05T00:18:55.868107+05:30"},{"city":"Vadodara","state":"Gujarat","latitude":22.3072,"longitude":73.1812,"temp":25.7,"humidity":83,"rain":0.0,"pressure":1005.5,"uv_index":7.85,"wind_gusts":25.9,"aqi":79,"pm10":43.0,"pm2_5":25.8,"mosquito_risk":7,"arthritis_risk":5,"migraine_risk":4,"frizz_risk":1,"updated_at":"2026-04-05T00:18:55.868118+05:30"},{"city":"Rajkot","state":"Gujarat","latitude":22.3039,"longitude":70.8022,"temp":23.2,"humidity":65,"rain":0.0,"pressure":996.2,"uv_index":7.55,"wind_gusts":32.8,"aqi":96,"pm10":23.9,"pm2_5":12.7,"mosquito_risk":3,"arthritis_risk":5,"migraine_risk":7,"frizz_risk":1,"updated_at":"2026-04-05T00:18:55.868126+05:30"},{"city":"Thane","state":"Maharashtra","latitude":19.2183,"longitude":72.9781,"temp":26.3,"humidity":82,"rain":0.0,"pressure":1009.5,"uv_index":7.9,"wind_gusts":36.7,"aqi":72,"pm10":64.7,"pm2_5":23.0,"mosquito_risk":7,"arthritis_risk":0,"migraine_risk":4,"frizz_risk":1,"updated_at":"2026-04-05T00:18:55.868134+05:30"},{"city":"Nagpur","state":"Maharashtra","latitude":21.1458,"longitude":79.0882,"temp":24.7,"humidity":80,"rain":0.0,"pressure":972.9,"uv_index":7.65,"wind_gusts":36.4,"aqi":102,"pm10":40.9,"pm2_5":38.1,"mosquito_risk":3,"arthritis_risk":5,"migraine_risk":7,"frizz_risk":1,"updated_at":"2026-04-05T00:18:55.868141+05:30"},{"city":"Nashik","state":"Maharashtra","latitude":19.9975,"longitude":73.7898,"temp":21.3,"humidity":81,"rain":0.0,"pressure":946.4,"uv_index":8.15,"wind_gusts":37.4,"aqi":56,"pm10":29.9,"pm2_5":15.0,"mosquito_risk":3,"arthritis_risk":5,"migraine_risk":7,"frizz_risk":1,"updated_at":"2026-04-05T00:18:55.868149+05:30"},{"city":"Aurangabad","state":"Maharashtra","latitude":19.8762,"longitude":75.3433,"temp":25.4,"humidity":58,"rain":0.0,"pressure":944.6,"uv_index":8.85,"wind_gusts":36.7,"aqi":58,"pm10":22.1,"pm2_5":15.8,"mosquito_risk":4,"arthritis_risk":5,"migraine_risk":7,"frizz_risk":1,"updated_at":"2026-04-05T00:18:55.868156+05:30"},{"city":"Solapur","state":"Maharashtra","latitude":17.6599,"longitude":75.9064,"temp":27.6,"humidity":52,"rain":0.0,"pressure":957.0,"uv_index":8.9,"wind_gusts":25.9,"aqi":83,"pm10":25.7,"pm2_5":23.2,"mosquito_risk":4,"arthritis_risk":5,"migraine_risk":7,"frizz_risk":1,"updated_at":"2026-04-05T00:18:55.868164+05:30"},{"city":"Kolhapur","state":"Maharashtra","latitude":16.705,"longitude":74.2433,"temp":21.0,"humidity":79,"rain":0.0,"pressure":948.1,"uv_index":8.95,"wind_gusts":44.6,"aqi":84,"pm10":28.6,"pm2_5":22.7,"mosquito_risk":3,"arthritis_risk":5,"migraine_risk":7,"frizz_risk":1,"updated_at":"2026-04-05T00:18:55.868171+05:30"},{"city":"Goa","state":"Goa","latitude":15.2993,"longitude":74.124,"temp":27.6,"humidity":76,"rain":0.0,"pressure":998.9,"uv_index":8.15,"wind_gusts":36.4,"aqi":65,"pm10":39.8,"pm2_5":21.7,"mosquito_risk":7,"arthritis_risk":5,"migraine_risk":7,"frizz_risk":1,"updated_at":"2026-04-05T00:18:55.868179+05:30"},{"city":"Jodhpur","state":"Rajasthan","latitude":26.2389,"longitude":73.0243,"temp":23.6,"humidity":37,"rain":0.0,"pressure":984.7,"uv_index":7.6,"wind_gusts":28.4,"aqi":82,"pm10":168.1,"pm2_5":27.6,"mosquito_risk":0,"arthritis_risk":5,"migraine_risk":7,"frizz_risk":0,"updated_at":"2026-04-05T00:18:55.868186+05:30"},{"city":"Udaipur","state":"Rajasthan","latitude":24.5854,"longitude":73.7125,"temp":21.1,"humidity":52,"rain":0.0,"pressure":947.6,"uv_index":7.5,"wind_gusts":37.8,"aqi":66,"pm10":16.5,"pm2_5":8.8,"mosquito_risk":0,"arthritis_risk":5,"migraine_risk":7,"frizz_risk":0,"updated_at":"2026-04-05T00:18:55.868193+05:30"},{"city":"Kota","state":"Rajasthan","latitude":25.2138,"longitude":75.8648,"temp":23.8,"humidity":62,"rain":0.0,"pressure":979.4,"uv_index":7.8,"wind_gusts":34.2,"aqi":67,"pm10":28.3,"pm2_5":16.1,"mosquito_risk":3,"arthritis_risk":5,"migraine_risk":7,"frizz_risk":1,"updated_at":"2026-04-05T00:18:55.868200+05:30"},{"city":"Bikaner","state":"Rajasthan","latitude":28.0229,"longitude":73.3119,"temp":22.3,"humidity":53,"rain":0.0,"pressure":984.2,"uv_index":7.15,"wind_gusts":29.9,"aqi":74,"pm10":30.0,"pm2_5":11.1,"mosquito_risk":0,"arthritis_risk":5,"migraine_risk":7,"frizz_risk":0,"updated_at":"2026-04-05T00:18:55.868208+05:30"},{"city":"Ajmer","state":"Rajasthan","latitude":26.4499,"longitude":74.6399,"temp":21.9,"humidity":52,"rain":0.0,"pressure":955.4,"uv_index":7.65,"wind_gusts":36.0,"aqi":70,"pm10":51.8,"pm2_5":17.4,"mosquito_risk":0,"arthritis_risk":5,"migraine_risk":7,"frizz_risk":0,"updated_at":"2026-04-05T00:18:55.868215+05:30"},{"city":"Gwalior","state":"Madhya Pradesh","latitude":26.2183,"longitude":78.1828,"temp":22.1,"humidity":78,"rain":0.0,"pressure":983.8,"uv_index":7.3,"wind_gusts":29.5,"aqi":105,"pm10":48.7,"pm2_5":21.5,"mosquito_risk":3,"arthritis_risk":5,"migraine_risk":7,"frizz_risk":1,"updated_at":"2026-04-05T00:18:55.868223+05:30"},{"city":"Indore","state":"Madhya Pradesh","latitude":22.7196,"longitude":75.8577,"temp":22.0,"humidity":74,"rain":0.0,"pressure":948.5,"uv_index":8.35,"wind_gusts":38.9,"aqi":65,"pm10":45.9,"pm2_5":31.0,"mosquito_risk":3,"arthritis_risk":5,"migraine_risk":7,"frizz_risk":1,"updated_at":"2026-04-05T00:18:55.868230+05:30"},{"city":"Bhopal","state":"Madhya Pradesh","latitude":23.2599,"longitude":77.4126,"temp":23.0,"humidity":67,"rain":0.0,"pressure":954.2,"uv_index":8.3,"wind_gusts":34.6,"aqi":63,"pm10":23.2,"pm2_5":16.2,"mosquito_risk":3,"arthritis_risk":5,"migraine_risk":7,"frizz_risk":1,"updated_at":"2026-04-05T00:18:55.868237+05:30"},{"city":"Jabalpur","state":"Madhya Pradesh","latitude":23.1815,"longitude":79.9864,"temp":24.2,"humidity":68,"rain":0.0,"pressure":961.7,"uv_index":6.8,"wind_gusts":31.0,"aqi":75,"pm10":26.4,"pm2_5":22.8,"mosquito_risk":3,"arthritis_risk":5,"migraine_risk":7,"frizz_risk":1,"updated_at":"2026-04-05T00:18:55.868244+05:30"},{"city":"Ujjain","state":"Madhya Pradesh","latitude":23.1765,"longitude":75.7885,"temp":22.2,"humidity":70,"rain":0.0,"pressure":954.5,"uv_index":8.25,"wind_gusts":33.8,"aqi":67,"pm10":60.1,"pm2_5":33.4,"mosquito_risk":3,"arthritis_risk":5,"migraine_risk":7,"frizz_risk":1,"updated_at":"2026-04-05T00:18:55.868252+05:30"},{"city":"Visakhapatnam","state":"Andhra Pradesh","latitude":17.6868,"longitude":83.2185,"temp":26.8,"humidity":87,"rain":0.0,"pressure":1003.1,"uv_index":8.4,"wind_gusts":36.7,"aqi":60,"pm10":18.0,"pm2_5":14.9,"mosquito_risk":7,"arthritis_risk":5,"migraine_risk":4,"frizz_risk":1,"updated_at":"2026-04-05T00:18:55.868260+05:30"},{"city":"Vijayawada","state":"Andhra Pradesh","latitude":16.5062,"longitude":80.648,"temp":27.2,"humidity":76,"rain":0.0,"pressure":1001.8,"uv_index":8.8,"wind_gusts":20.9,"aqi":55,"pm10":27.6,"pm2_5":26.7,"mosquito_risk":7,"arthritis_risk":5,"migraine_risk":4,"frizz_risk":1,"updated_at":"2026-04-05T00:18:55.868267+05:30"},{"city":"Guntur","state":"Andhra Pradesh","latitude":16.3067,"longitude":80.4365,"temp":26.9,"humidity":83,"rain":0.0,"pressure":1003.1,"uv_index":8.6,"wind_gusts":30.6,"aqi":54,"pm10":26.7,"pm2_5":25.9,"mosquito_risk":7,"arthritis_risk":5,"migraine_risk":4,"frizz_risk":1,"updated_at":"2026-04-05T00:18:55.868274+05:30"},{"city":"Nellore","state":"Andhra Pradesh","latitude":14.4426,"longitude":79.9865,"temp":27.3,"humidity":91,"rain":0.0,"pressure":1005.3,"uv_index":8.75,"wind_gusts":31.0,"aqi":59,"pm10":16.1,"pm2_5":13.7,"mosquito_risk":7,"arthritis_risk":5,"migraine_risk":4,"frizz_risk":1,"updated_at":"2026-04-05T00:18:55.868283+05:30"},{"city":"Kurnool","state":"Andhra Pradesh","latitude":15.8281,"longitude":78.0373,"temp":29.7,"humidity":53,"rain":0.0,"pressure":976.3,"uv_index":8.15,"wind_gusts":22.0,"aqi":76,"pm10":32.5,"pm2_5":28.1,"mosquito_risk":4,"arthritis_risk":5,"migraine_risk":7,"frizz_risk":1,"updated_at":"2026-04-05T00:18:55.868290+05:30"},{"city":"Kakinada","state":"Andhra Pradesh","latitude":16.9891,"longitude":82.2475,"temp":26.2,"humidity":86,"rain":0.0,"pressure":1006.8,"uv_index":8.5,"wind_gusts":34.6,"aqi":35,"pm10":18.5,"pm2_5":14.7,"mosquito_risk":7,"arthritis_risk":5,"migraine_risk":4,"frizz_risk":1,"updated_at":"2026-04-05T00:18:55.868297+05:30"},{"city":"Tirupati","state":"Andhra Pradesh","latitude":13.6288,"longitude":79.4192,"temp":27.3,"humidity":87,"rain":0.0,"pressure":991.7,"uv_index":8.8,"wind_gusts":26.3,"aqi":64,"pm10":24.9,"pm2_5":24.3,"mosquito_risk":7,"arthritis_risk":5,"migraine_risk":7,"frizz_risk":1,"updated_at":"2026-04-05T00:18:55.868304+05:30"},{"city":"Warangal","state":"Telangana","latitude":17.9689,"longitude":79.5941,"temp":26.2,"humidity":81,"rain":0.0,"pressure":978.2,"uv_index":8.0,"wind_gusts":31.0,"aqi":107,"pm10":61.2,"pm2_5":55.5,"mosquito_risk":7,"arthritis_risk":5,"migraine_risk":7,"frizz_risk":1,"updated_at":"2026-04-05T00:18:55.868310+05:30"},{"city":"Nizamabad","state":"Telangana","latitude":18.6725,"longitude":78.0941,"temp":26.8,"humidity":68,"rain":0.0,"pressure":964.1,"uv_index":8.2,"wind_gusts":29.9,"aqi":121,"pm10":52.2,"pm2_5":45.6,"mosquito_risk":7,"arthritis_risk":5,"migraine_risk":7,"frizz_risk":1,"updated_at":"2026-04-05T00:18:55.868317+05:30"},{"city":"Mysore","state":"Karnataka","latitude":12.2958,"longitude":76.6396,"temp":22.5,"humidity":91,"rain":0.0,"pressure":928.8,"uv_index":9.05,"wind_gusts":32.0,"aqi":69,"pm10":20.8,"pm2_5":19.9,"mosquito_risk":3,"arthritis_risk":5,"migraine_risk":7,"frizz_risk":1,"updated_at":"2026-04-05T00:18:55.868324+05:30"},{"city":"Mangalore","state":"Karnataka","latitude":12.9141,"longitude":74.856,"temp":28.9,"humidity":80,"rain":0.0,"pressure":1007.5,"uv_index":8.1,"wind_gusts":20.5,"aqi":61,"pm10":32.4,"pm2_5":28.8,"mosquito_risk":7,"arthritis_risk":5,"migraine_risk":4,"frizz_risk":1,"updated_at":"2026-04-05T00:18:55.868332+05:30"},{"city":"Hubli-Dharwad","state":"Karnataka","latitude":15.3647,"longitude":75.124,"temp":23.0,"humidity":88,"rain":0.0,"pressure":941.0,"uv_index":8.6,"wind_gusts":41.8,"aqi":67,"pm10":16.9,"pm2_5":12.0,"mosquito_risk":3,"arthritis_risk":5,"migraine_risk":7,"frizz_risk":1,"updated_at":"2026-04-05T00:18:55.868339+05:30"},{"city":"Belgaum","state":"Karnataka","latitude":15.8497,"longitude":74.4977,"temp":21.1,"humidity":90,"rain":0.0,"pressure":925.6,"uv_index":9.1,"wind_gusts":37.8,"aqi":69,"pm10":32.6,"pm2_5":21.5,"mosquito_risk":3,"arthritis_risk":5,"migraine_risk":7,"frizz_risk":1,"updated_at":"2026-04-05T00:18:59.127938+05:30"},{"city":"Coimbatore","state":"Tamil Nadu","latitude":11.0168,"longitude":76.9558,"temp":25.1,"humidity":81,"rain":0.0,"pressure":962.4,"uv_index":8.95,"wind_gusts":50.4,"aqi":61,"pm10":20.9,"pm2_5":20.0,"mosquito_risk":7,"arthritis_risk":5,"migraine_risk":7,"frizz_risk":1,"updated_at":"2026-04-05T00:18:59.127970+05:30"},{"city":"Madurai","state":"Tamil Nadu","latitude":9.9252,"longitude":78.1198,"temp":26.2,"humidity":84,"rain":0.0,"pressure":993.2,"uv_index":8.6,"wind_gusts":24.8,"aqi":74,"pm10":38.8,"pm2_5":38.0,"mosquito_risk":7,"arthritis_risk":5,"migraine_risk":7,"frizz_risk":1,"updated_at":"2026-04-05T00:18:59.127981+05:30"},{"city":"Trichy","state":"Tamil Nadu","latitude":10.7905,"longitude":78.7047,"temp":26.9,"humidity":81,"rain":0.0,"pressure":999.9,"uv_index":9.15,"wind_gusts":20.2,"aqi":63,"pm10":33.6,"pm2_5":32.5,"mosquito_risk":7,"arthritis_risk":5,"migraine_risk":7,"frizz_risk":1,"updated_at":"2026-04-05T00:18:59.127989+05:30"},{"city":"Salem","state":"Tamil Nadu","latitude":11.6643,"longitude":78.146,"temp":27.8,"humidity":73,"rain":0.0,"pressure":977.8,"uv_index":8.5,"wind_gusts":38.2,"aqi":134,"pm10":26.9,"pm2_5":24.9,"mosquito_risk":7,"arthritis_risk":5,"migraine_risk":7,"frizz_risk":1,"updated_at":"2026-04-05T00:18:59.127997+05:30"},{"city":"Tirunelveli","state":"Tamil Nadu","latitude":8.7139,"longitude":77.7567,"temp":27.2,"humidity":76,"rain":0.0,"pressure":1003.5,"uv_index":8.45,"wind_gusts":24.5,"aqi":61,"pm10":18.7,"pm2_5":18.0,"mosquito_risk":7,"arthritis_risk":5,"migraine_risk":4,"frizz_risk":1,"updated_at":"2026-04-05T00:18:59.128005+05:30"},{"city":"Vellore","state":"Tamil Nadu","latitude":12.9165,"longitude":79.1325,"temp":27.2,"humidity":79,"rain":0.0,"pressure":984.4,"uv_index":8.75,"wind_gusts":26.6,"aqi":86,"pm10":32.7,"pm2_5":31.4,"mosquito_risk":7,"arthritis_risk":5,"migraine_risk":7,"frizz_risk":1,"updated_at":"2026-04-05T00:18:59.128012+05:30"},{"city":"Erode","state":"Tamil Nadu","latitude":11.341,"longitude":77.7172,"temp":28.2,"humidity":75,"rain":0.0,"pressure":989.4,"uv_index":8.8,"wind_gusts":45.4,"aqi":87,"pm10":23.2,"pm2_5":21.9,"mosquito_risk":7,"arthritis_risk":5,"migraine_risk":7,"frizz_risk":1,"updated_at":"2026-04-05T00:18:59.128019+05:30"},{"city":"Kochi","state":"Kerala","latitude":9.9312,"longitude":76.2673,"temp":29.1,"humidity":79,"rain":0.0,"pressure":1009.4,"uv_index":8.7,"wind_gusts":21.2,"aqi":60,"pm10":29.6,"pm2_5":28.2,"mosquito_risk":7,"arthritis_risk":0,"migraine_risk":4,"frizz_risk":1,"updated_at":"2026-04-05T00:18:59.128025+05:30"},{"city":"Thiruvananthapuram","state":"Kerala","latitude":8.5241,"longitude":76.9366,"temp":28.8,"humidity":82,"rain":0.0,"pressure":1008.8,"uv_index":8.55,"wind_gusts":29.5,"aqi":55,"pm10":15.4,"pm2_5":11.4,"mosquito_risk":7,"arthritis_risk":0,"migraine_risk":4,"frizz_risk":1,"updated_at":"2026-04-05T00:18:59.128032+05:30"},{"city":"Kozhikode","state":"Kerala","latitude":11.2588,"longitude":75.7804,"temp":28.8,"humidity":81,"rain":0.0,"pressure":1008.7,"uv_index":8.25,"wind_gusts":26.3,"aqi":47,"pm10":14.8,"pm2_5":10.9,"mosquito_risk":7,"arthritis_risk":0,"migraine_risk":4,"frizz_risk":1,"updated_at":"2026-04-05T00:18:59.128039+05:30"},{"city":"Thrissur","state":"Kerala","latitude":10.5276,"longitude":76.2144,"temp":27.3,"humidity":88,"rain":0.0,"pressure":1008.0,"uv_index":8.5,"wind_gusts":28.1,"aqi":56,"pm10":32.9,"pm2_5":30.0,"mosquito_risk":7,"arthritis_risk":0,"migraine_risk":4,"frizz_risk":1,"updated_at":"2026-04-05T00:18:59.128046+05:30"},{"city":"Kannur","state":"Kerala","latitude":11.8745,"longitude":75.3704,"temp":27.5,"humidity":82,"rain":0.0,"pressure":1008.0,"uv_index":8.2,"wind_gusts":24.1,"aqi":58,"pm10":20.7,"pm2_5":18.6,"mosquito_risk":7,"arthritis_risk":0,"migraine_risk":4,"frizz_risk":1,"updated_at":"2026-04-05T00:18:59.128053+05:30"},{"city":"Patna","state":"Bihar","latitude":25.5941,"longitude":85.1376,"temp":28.0,"humidity":60,"rain":0.0,"pressure":998.8,"uv_index":7.95,"wind_gusts":34.6,"aqi":89,"pm10":50.9,"pm2_5":33.3,"mosquito_risk":4,"arthritis_risk":5,"migraine_risk":7,"frizz_risk":1,"updated_at":"2026-04-05T00:18:59.128060+05:30"},{"city":"Gaya","state":"Bihar","latitude":24.7914,"longitude":85.0002,"temp":27.0,"humidity":65,"rain":0.0,"pressure":992.4,"uv_index":8.4,"wind_gusts":22.7,"aqi":74,"pm10":29.4,"pm2_5":27.9,"mosquito_risk":7,"arthritis_risk":5,"migraine_risk":7,"frizz_risk":1,"updated_at":"2026-04-05T00:18:59.128067+05:30"},{"city":"Muzaffarpur","state":"Bihar","latitude":26.1209,"longitude":85.3647,"temp":26.7,"humidity":61,"rain":0.0,"pressure":998.3,"uv_index":7.9,"wind_gusts":32.8,"aqi":91,"pm10":62.6,"pm2_5":36.8,"mosquito_risk":7,"arthritis_risk":5,"migraine_risk":7,"frizz_risk":1,"updated_at":"2026-04-05T00:18:59.128073+05:30"},{"city":"Bhagalpur","state":"Bihar","latitude":25.2425,"longitude":87.0117,"temp":27.2,"humidity":62,"rain":0.0,"pressure":998.8,"uv_index":8.25,"wind_gusts":27.0,"aqi":89,"pm10":37.5,"pm2_5":25.7,"mosquito_risk":7,"arthritis_risk":5,"migraine_risk":7,"frizz_risk":1,"updated_at":"2026-04-05T00:18:59.128080+05:30"},{"city":"Ranchi","state":"Jharkhand","latitude":23.3441,"longitude":85.3096,"temp":24.7,"humidity":57,"rain":0.0,"pressure":937.2,"uv_index":8.2,"wind_gusts":37.8,"aqi":77,"pm10":25.1,"pm2_5":22.5,"mosquito_risk":0,"arthritis_risk":5,"migraine_risk":7,"frizz_risk":0,"updated_at":"2026-04-05T00:18:59.128087+05:30"},{"city":"Jamshedpur","state":"Jharkhand","latitude":22.8046,"longitude":86.2029,"temp":28.9,"humidity":56,"rain":0.0,"pressure":989.5,"uv_index":8.5,"wind_gusts":17.3,"aqi":106,"pm10":37.8,"pm2_5":34.7,"mosquito_risk":4,"arthritis_risk":5,"migraine_risk":7,"frizz_risk":1,"updated_at":"2026-04-05T00:18:59.128094+05:30"},{"city":"Dhanbad","state":"Jharkhand","latitude":23.7957,"longitude":86.4304,"temp":27.9,"humidity":50,"rain":0.0,"pressure":978.3,"uv_index":8.55,"wind_gusts":19.8,"aqi":91,"pm10":35.4,"pm2_5":31.9,"mosquito_risk":4,"arthritis_risk":5,"migraine_risk":7,"frizz_risk":1,"updated_at":"2026-04-05T00:18:59.128101+05:30"},{"city":"Bokaro","state":"Jharkhand","latitude":23.6693,"longitude":86.1511,"temp":27.6,"humidity":49,"rain":0.0,"pressure":982.6,"uv_index":8.15,"wind_gusts":20.2,"aqi":93,"pm10":35.9,"pm2_5":33.2,"mosquito_risk":4,"arthritis_risk":5,"migraine_risk":7,"frizz_risk":0,"updated_at":"2026-04-05T00:18:59.128108+05:30"},{"city":"Bhubaneswar","state":"Odisha","latitude":20.2961,"longitude":85.8245,"temp":26.8,"humidity":89,"rain":0.0,"pressure":1002.2,"uv_index":8.95,"wind_gusts":26.3,"aqi":86,"pm10":25.6,"pm2_5":23.3,"mosquito_risk":7,"arthritis_risk":5,"migraine_risk":4,"frizz_risk":1,"updated_at":"2026-04-05T00:18:59.128115+05:30"},{"city":"Cuttack","state":"Odisha","latitude":20.4625,"longitude":85.8828,"temp":27.0,"humidity":88,"rain":0.0,"pressure":1004.0,"uv_index":9.0,"wind_gusts":31.7,"aqi":86,"pm10":25.6,"pm2_5":23.3,"mosquito_risk":7,"arthritis_risk":5,"migraine_risk":4,"frizz_risk":1,"updated_at":"2026-04-05T00:18:59.128122+05:30"},{"city":"Rourkela","state":"Odisha","latitude":22.2604,"longitude":84.8536,"temp":26.8,"humidity":69,"rain":0.0,"pressure":984.8,"uv_index":8.45,"wind_gusts":59.4,"aqi":114,"pm10":52.9,"pm2_5":49.6,"mosquito_risk":7,"arthritis_risk":5,"migraine_risk":7,"frizz_risk":1,"updated_at":"2026-04-05T00:18:59.128128+05:30"},{"city":"Raipur","state":"Chhattisgarh","latitude":21.2514,"longitude":81.6296,"temp":25.7,"humidity":69,"rain":0.0,"pressure":975.0,"uv_index":7.75,"wind_gusts":41.4,"aqi":114,"pm10":74.3,"pm2_5":68.9,"mosquito_risk":7,"arthritis_risk":5,"migraine_risk":7,"frizz_risk":1,"updated_at":"2026-04-05T00:18:59.128135+05:30"},{"city":"Bhilai","state":"Chhattisgarh","latitude":21.1938,"longitude":81.3509,"temp":25.8,"humidity":70,"rain":0.0,"pressure":975.2,"uv_index":8.15,"wind_gusts":37.8,"aqi":101,"pm10":58.6,"pm2_5":54.4,"mosquito_risk":7,"arthritis_risk":5,"migraine_risk":7,"frizz_risk":1,"updated_at":"2026-04-05T00:18:59.128141+05:30"},{"city":"Guwahati","state":"Assam","latitude":26.1158,"longitude":91.7086,"temp":25.3,"humidity":87,"rain":0.0,"pressure":999.2,"uv_index":8.25,"wind_gusts":32.4,"aqi":121,"pm10":54.1,"pm2_5":48.1,"mosquito_risk":7,"arthritis_risk":5,"migraine_risk":7,"frizz_risk":1,"updated_at":"2026-04-05T00:18:59.128147+05:30"},{"city":"Agartala","state":"Tripura","latitude":23.8315,"longitude":91.2868,"temp":26.7,"humidity":95,"rain":0.0,"pressure":1003.9,"uv_index":8.45,"wind_gusts":25.6,"aqi":79,"pm10":25.1,"pm2_5":23.5,"mosquito_risk":7,"arthritis_risk":5,"migraine_risk":4,"frizz_risk":1,"updated_at":"2026-04-05T00:18:59.128154+05:30"},{"city":"Shillong","state":"Meghalaya","latitude":25.5788,"longitude":91.8933,"temp":15.4,"humidity":83,"rain":0.0,"pressure":854.7,"uv_index":8.4,"wind_gusts":55.1,"aqi":88,"pm10":43.7,"pm2_5":37.7,"mosquito_risk":3,"arthritis_risk":10,"migraine_risk":7,"frizz_risk":0,"updated_at":"2026-04-05T00:18:59.128161+05:30"},{"city":"Imphal","state":"Manipur","latitude":24.817,"longitude":93.9368,"temp":20.0,"humidity":82,"rain":0.0,"pressure":921.9,"uv_index":8.75,"wind_gusts":76.0,"aqi":117,"pm10":63.6,"pm2_5":54.2,"mosquito_risk":3,"arthritis_risk":5,"migraine_risk":7,"frizz_risk":1,"updated_at":"2026-04-05T00:18:59.128168+05:30"},{"city":"Aizawl","state":"Mizoram","latitude":23.7271,"longitude":92.7176,"temp":19.7,"humidity":89,"rain":0.0,"pressure":891.3,"uv_index":8.55,"wind_gusts":55.1,"aqi":106,"pm10":40.7,"pm2_5":35.2,"mosquito_risk":3,"arthritis_risk":10,"migraine_risk":7,"frizz_risk":1,"updated_at":"2026-04-05T00:18:59.128175+05:30"},{"city":"Kohima","state":"Nagaland","latitude":25.6701,"longitude":94.1077,"temp":16.5,"humidity":72,"rain":0.0,"pressure":853.5,"uv_index":8.55,"wind_gusts":74.2,"aqi":96,"pm10":43.8,"pm2_5":37.4,"mosquito_risk":3,"arthritis_risk":5,"migraine_risk":7,"frizz_risk":0,"updated_at":"2026-04-05T00:18:59.128182+05:30"},{"city":"Gangtok","state":"Sikkim","latitude":27.3314,"longitude":88.6138,"temp":15.5,"humidity":96,"rain":0.0,"pressure":836.0,"uv_index":8.45,"wind_gusts":18.4,"aqi":122,"pm10":43.1,"pm2_5":37.1,"mosquito_risk":3,"arthritis_risk":10,"migraine_risk":7,"frizz_risk":0,"updated_at":"2026-04-05T00:18:59.128189+05:30"},{"city":"Siliguri","state":"West Bengal","latitude":26.7271,"longitude":88.3953,"temp":22.8,"humidity":74,"rain":0.0,"pressure":991.8,"uv_index":8.2,"wind_gusts":28.8,"aqi":160,"pm10":92.7,"pm2_5":81.0,"mosquito_risk":3,"arthritis_risk":5,"migraine_risk":7,"frizz_risk":1,"updated_at":"2026-04-05T00:19:02.395039+05:30"},{"city":"Durgapur","state":"West Bengal","latitude":23.5204,"longitude":87.3119,"temp":28.6,"humidity":70,"rain":0.0,"pressure":992.7,"uv_index":8.35,"wind_gusts":15.8,"aqi":111,"pm10":50.2,"pm2_5":45.8,"mosquito_risk":7,"arthritis_risk":5,"migraine_risk":7,"frizz_risk":1,"updated_at":"2026-04-05T00:19:02.395071+05:30"},{"city":"Asansol","state":"West Bengal","latitude":23.6739,"longitude":86.9524,"temp":30.0,"humidity":56,"rain":0.0,"pressure":991.5,"uv_index":8.45,"wind_gusts":15.5,"aqi":87,"pm10":29.3,"pm2_5":25.1,"mosquito_risk":4,"arthritis_risk":5,"migraine_risk":7,"frizz_risk":1,"updated_at":"2026-04-05T00:19:02.395081+05:30"},{"city":"Pondicherry","state":"Puducherry","latitude":11.9139,"longitude":79.8145,"temp":27.4,"humidity":90,"rain":0.0,"pressure":1008.7,"uv_index":8.9,"wind_gusts":23.8,"aqi":49,"pm10":16.4,"pm2_5":12.3,"mosquito_risk":7,"arthritis_risk":0,"migraine_risk":4,"frizz_risk":1,"updated_at":"2026-04-05T00:19:02.395088+05:30"},{"city":"Port Blair","state":"Andaman and Nicobar Islands","latitude":11.6234,"longitude":92.7265,"temp":28.9,"humidity":71,"rain":0.0,"pressure":1005.9,"uv_index":8.75,"wind_gusts":18.7,"aqi":44,"pm10":14.7,"pm2_5":9.2,"mosquito_risk":7,"arthritis_risk":5,"migraine_risk":4,"frizz_risk":1,"updated_at":"2026-04-05T00:19:02.395096+05:30"},{"city":"Haridwar","state":"Uttarakhand","latitude":29.9457,"longitude":78.1642,"temp":20.2,"humidity":76,"rain":0.0,"pressure":975.8,"uv_index":5.55,"wind_gusts":37.1,"aqi":79,"pm10":27.1,"pm2_5":20.5,"mosquito_risk":3,"arthritis_risk":5,"migraine_risk":3,"frizz_risk":0,"updated_at":"2026-04-05T00:19:02.395104+05:30"},{"city":"Rishikesh","state":"Uttarakhand","latitude":30.0869,"longitude":78.2676,"temp":20.4,"humidity":65,"rain":0.0,"pressure":968.0,"uv_index":6.05,"wind_gusts":25.6,"aqi":53,"pm10":21.9,"pm2_5":11.8,"mosquito_risk":3,"arthritis_risk":5,"migraine_risk":7,"frizz_risk":0,"updated_at":"2026-04-05T00:19:02.395111+05:30"},{"city":"Nainital","state":"Uttarakhand","latitude":29.3919,"longitude":79.4542,"temp":17.7,"humidity":47,"rain":0.0,"pressure":805.9,"uv_index":4.95,"wind_gusts":39.2,"aqi":57,"pm10":23.7,"pm2_5":15.7,"mosquito_risk":0,"arthritis_risk":5,"migraine_risk":3,"frizz_risk":0,"updated_at":"2026-04-05T00:19:02.395118+05:30"},{"city":"Mussoorie","state":"Uttarakhand","latitude":30.4599,"longitude":78.0664,"temp":14.0,"humidity":60,"rain":0.0,"pressure":802.0,"uv_index":5.1,"wind_gusts":46.4,"aqi":56,"pm10":24.5,"pm2_5":16.5,"mosquito_risk":0,"arthritis_risk":5,"migraine_risk":3,"frizz_risk":0,"updated_at":"2026-04-05T00:19:02.395126+05:30"},{"city":"Dharamshala","state":"Himachal Pradesh","latitude":32.219,"longitude":76.3234,"temp":15.4,"humidity":60,"rain":0.0,"pressure":869.3,"uv_index":5.7,"wind_gusts":47.5,"aqi":43,"pm10":12.3,"pm2_5":8.4,"mosquito_risk":0,"arthritis_risk":5,"migraine_risk":3,"frizz_risk":0,"updated_at":"2026-04-05T00:19:02.395132+05:30"},{"city":"Dalhousie","state":"Himachal Pradesh","latitude":32.5387,"longitude":75.971,"temp":12.1,"humidity":71,"rain":0.0,"pressure":802.7,"uv_index":5.65,"wind_gusts":52.6,"aqi":69,"pm10":57.7,"pm2_5":31.9,"mosquito_risk":3,"arthritis_risk":5,"migraine_risk":3,"frizz_risk":0,"updated_at":"2026-04-05T00:19:02.395140+05:30"},{"city":"Patiala","state":"Punjab","latitude":30.3398,"longitude":76.3869,"temp":17.7,"humidity":90,"rain":0.0,"pressure":980.9,"uv_index":5.4,"wind_gusts":31.7,"aqi":161,"pm10":163.9,"pm2_5":49.2,"mosquito_risk":3,"arthritis_risk":10,"migraine_risk":3,"frizz_risk":0,"updated_at":"2026-04-05T00:19:02.395148+05:30"},{"city":"Bhatinda","state":"Punjab","latitude":30.211,"longitude":74.9455,"temp":18.1,"humidity":89,"rain":0.0,"pressure":986.7,"uv_index":6.95,"wind_gusts":29.2,"aqi":86,"pm10":106.4,"pm2_5":32.7,"mosquito_risk":3,"arthritis_risk":10,"migraine_risk":7,"frizz_risk":1,"updated_at":"2026-04-05T00:19:02.395155+05:30"},{"city":"Rohtak","state":"Haryana","latitude":28.8955,"longitude":76.6066,"temp":17.9,"humidity":93,"rain":0.0,"pressure":984.3,"uv_index":6.55,"wind_gusts":29.9,"aqi":103,"pm10":91.0,"pm2_5":53.1,"mosquito_risk":3,"arthritis_risk":10,"migraine_risk":7,"frizz_risk":1,"updated_at":"2026-04-05T00:19:02.395162+05:30"},{"city":"Panipat","state":"Haryana","latitude":29.3909,"longitude":76.9635,"temp":17.4,"humidity":94,"rain":0.0,"pressure":982.6,"uv_index":5.75,"wind_gusts":31.7,"aqi":216,"pm10":279.4,"pm2_5":89.2,"mosquito_risk":3,"arthritis_risk":10,"migraine_risk":3,"frizz_risk":1,"updated_at":"2026-04-05T00:19:02.395169+05:30"},{"city":"Mathura","state":"Uttar Pradesh","latitude":27.4924,"longitude":77.6737,"temp":19.7,"humidity":87,"rain":0.0,"pressure":988.7,"uv_index":5.25,"wind_gusts":40.7,"aqi":387,"pm10":183.0,"pm2_5":50.4,"mosquito_risk":3,"arthritis_risk":10,"migraine_risk":3,"frizz_risk":1,"updated_at":"2026-04-05T00:19:02.395177+05:30"},{"city":"Vrindavan","state":"Uttar Pradesh","latitude":27.5823,"longitude":77.7027,"temp":19.4,"humidity":88,"rain":0.0,"pressure":988.9,"uv_index":5.45,"wind_gusts":45.7,"aqi":387,"pm10":183.0,"pm2_5":50.4,"mosquito_risk":3,"arthritis_risk":10,"migraine_risk":3,"frizz_risk":1,"updated_at":"2026-04-05T00:19:02.395185+05:30"},{"city":"Ayodhya","state":"Uttar Pradesh","latitude":26.7922,"longitude":82.1998,"temp":24.6,"humidity":68,"rain":0.0,"pressure":995.6,"uv_index":7.2,"wind_gusts":37.4,"aqi":120,"pm10":125.7,"pm2_5":50.6,"mosquito_risk":3,"arthritis_risk":5,"migraine_risk":7,"frizz_risk":1,"updated_at":"2026-04-05T00:19:02.395192+05:30"},{"city":"Ratlam","state":"Madhya Pradesh","latitude":23.3315,"longitude":75.0367,"temp":24.1,"humidity":61,"rain":0.0,"pressure":955.3,"uv_index":8.1,"wind_gusts":36.7,"aqi":63,"pm10":45.9,"pm2_5":24.0,"mosquito_risk":3,"arthritis_risk":5,"migraine_risk":7,"frizz_risk":1,"updated_at":"2026-04-05T00:19:02.395198+05:30"},{"city":"Sagar","state":"Madhya Pradesh","latitude":23.8388,"longitude":78.7378,"temp":22.5,"humidity":78,"rain":0.0,"pressure":950.3,"uv_index":8.3,"wind_gusts":34.9,"aqi":57,"pm10":25.5,"pm2_5":15.4,"mosquito_risk":3,"arthritis_risk":5,"migraine_risk":7,"frizz_risk":1,"updated_at":"2026-04-05T00:19:02.395205+05:30"},{"city":"Satna","state":"Madhya Pradesh","latitude":24.6005,"longitude":80.8322,"temp":24.1,"humidity":79,"rain":0.0,"pressure":971.9,"uv_index":5.05,"wind_gusts":43.2,"aqi":69,"pm10":42.1,"pm2_5":21.8,"mosquito_risk":3,"arthritis_risk":5,"migraine_risk":3,"frizz_risk":1,"updated_at":"2026-04-05T00:19:02.395212+05:30"},{"city":"Akola","state":"Maharashtra","latitude":20.7002,"longitude":77.0082,"temp":27.8,"humidity":49,"rain":0.0,"pressure":975.6,"uv_index":7.25,"wind_gusts":28.4,"aqi":85,"pm10":55.5,"pm2_5":45.8,"mosquito_risk":4,"arthritis_risk":5,"migraine_risk":7,"frizz_risk":1,"updated_at":"2026-04-05T00:19:02.395219+05:30"},{"city":"Amravati","state":"Maharashtra","latitude":20.9374,"longitude":77.7796,"temp":24.9,"humidity":72,"rain":0.0,"pressure":967.5,"uv_index":7.7,"wind_gusts":41.4,"aqi":87,"pm10":53.3,"pm2_5":44.2,"mosquito_risk":3,"arthritis_risk":5,"migraine_risk":7,"frizz_risk":1,"updated_at":"2026-04-05T00:19:02.395226+05:30"},{"city":"Latur","state":"Maharashtra","latitude":18.4088,"longitude":76.5604,"temp":25.8,"humidity":68,"rain":0.0,"pressure":939.4,"uv_index":8.9,"wind_gusts":28.8,"aqi":99,"pm10":43.1,"pm2_5":38.8,"mosquito_risk":7,"arthritis_risk":5,"migraine_risk":7,"frizz_risk":1,"updated_at":"2026-04-05T00:19:02.395233+05:30"},{"city":"Nanded","state":"Maharashtra","latitude":19.1383,"longitude":77.3091,"temp":27.2,"humidity":69,"rain":0.0,"pressure":967.7,"uv_index":8.25,"wind_gusts":21.2,"aqi":91,"pm10":54.8,"pm2_5":49.1,"mosquito_risk":7,"arthritis_risk":5,"migraine_risk":7,"frizz_risk":1,"updated_at":"2026-04-05T00:19:02.395239+05:30"},{"city":"Gulbarga","state":"Karnataka","latitude":17.3297,"longitude":76.8343,"temp":27.8,"humidity":61,"rain":0.0,"pressure":957.9,"uv_index":8.45,"wind_gusts":32.0,"aqi":117,"pm10":54.4,"pm2_5":47.4,"mosquito_risk":7,"arthritis_risk":5,"migraine_risk":7,"frizz_risk":1,"updated_at":"2026-04-05T00:19:02.395246+05:30"},{"city":"Bidar","state":"Karnataka","latitude":17.9104,"longitude":77.5199,"temp":25.7,"humidity":66,"rain":0.0,"pressure":935.0,"uv_index":8.6,"wind_gusts":31.3,"aqi":104,"pm10":57.3,"pm2_5":48.8,"mosquito_risk":7,"arthritis_risk":5,"migraine_risk":7,"frizz_risk":1,"updated_at":"2026-04-05T00:19:02.395252+05:30"},{"city":"Hospet","state":"Karnataka","latitude":15.2689,"longitude":76.3909,"temp":27.8,"humidity":67,"rain":0.0,"pressure":955.9,"uv_index":8.1,"wind_gusts":29.5,"aqi":91,"pm10":31.1,"pm2_5":28.4,"mosquito_risk":7,"arthritis_risk":5,"migraine_risk":7,"frizz_risk":1,"updated_at":"2026-04-05T00:19:02.395258+05:30"},{"city":"Tirupur","state":"Tamil Nadu","latitude":11.1085,"longitude":77.3411,"temp":26.7,"humidity":77,"rain":0.0,"pressure":975.4,"uv_index":8.6,"wind_gusts":31.3,"aqi":70,"pm10":24.3,"pm2_5":22.8,"mosquito_risk":7,"arthritis_risk":5,"migraine_risk":7,"frizz_risk":1,"updated_at":"2026-04-05T00:19:02.395264+05:30"},{"city":"Alappuzha","state":"Kerala","latitude":9.4981,"longitude":76.3388,"temp":29.1,"humidity":79,"rain":0.0,"pressure":1009.6,"uv_index":9.15,"wind_gusts":21.6,"aqi":61,"pm10":23.2,"pm2_5":20.2,"mosquito_risk":7,"arthritis_risk":0,"migraine_risk":4,"frizz_risk":1,"updated_at":"2026-04-05T00:19:02.395271+05:30"},{"city":"Munnar","state":"Kerala","latitude":10.0889,"longitude":77.0595,"temp":20.4,"humidity":95,"rain":0.0,"pressure":857.4,"uv_index":6.2,"wind_gusts":33.5,"aqi":58,"pm10":18.0,"pm2_5":17.6,"mosquito_risk":3,"arthritis_risk":5,"migraine_risk":7,"frizz_risk":1,"updated_at":"2026-04-05T00:19:02.395279+05:30"},{"city":"Silchar","state":"Assam","latitude":24.8333,"longitude":92.7789,"temp":24.9,"humidity":87,"rain":0.0,"pressure":1003.5,"uv_index":8.45,"wind_gusts":26.6,"aqi":132,"pm10":78.9,"pm2_5":67.5,"mosquito_risk":3,"arthritis_risk":5,"migraine_risk":4,"frizz_risk":1,"updated_at":"2026-04-05T00:19:02.395285+05:30"},{"city":"Dibrugarh","state":"Assam","latitude":27.4728,"longitude":94.912,"temp":23.6,"humidity":91,"rain":0.0,"pressure":993.9,"uv_index":8.3,"wind_gusts":14.4,"aqi":107,"pm10":35.4,"pm2_5":32.1,"mosquito_risk":3,"arthritis_risk":5,"migraine_risk":7,"frizz_risk":1,"updated_at":"2026-04-05T00:19:02.395292+05:30"}]