[{"city":"Delhi","state":"Delhi","latitude":28.6139,"longitude":77.209,"temp":17.7,"humidity":90,"rain":0.0,"pressure":984.4,"uv_index":2.3,"wind_gusts":21.2,"aqi":147,"pm10":133.6,"pm2_5":59.0,"mosquito_risk":3,"arthritis_risk":10,"migraine_risk":3,"frizz_risk":0,"updated_at":"2026-03-20T05:03:20.420705+05:30"},{"city":"Mumbai","state":"Maharashtra","latitude":19.076,"longitude":72.8777,"temp":26.3,"humidity":71,"rain":0.0,"pressure":1009.3,"uv_index":7.8,"wind_gusts":24.8,"aqi":68,"pm10":54.4,"pm2_5":27.8,"mosquito_risk":7,"arthritis_risk":0,"migraine_risk":4,"frizz_risk":1,"updated_at":"2026-03-20T05:03:20.420758+05:30"},{"city":"Bangalore","state":"Karnataka","latitude":12.9716,"longitude":77.5946,"temp":19.6,"humidity":89,"rain":0.0,"pressure":911.3,"uv_index":9.4,"wind_gusts":16.9,"aqi":99,"pm10":29.5,"pm2_5":26.7,"mosquito_risk":3,"arthritis_risk":10,"migraine_risk":7,"frizz_risk":1,"updated_at":"2026-03-20T05:03:20.420774+05:30"},{"city":"Hyderabad","state":"Telangana","latitude":17.385,"longitude":78.4867,"temp":20.2,"humidity":89,"rain":0.0,"pressure":953.2,"uv_index":8.8,"wind_gusts":25.2,"aqi":65,"pm10":22.3,"pm2_5":19.6,"mosquito_risk":3,"arthritis_risk":5,"migraine_risk":7,"frizz_risk":1,"updated_at":"2026-03-20T05:03:20.420784+05:30"},{"city":"Chennai","state":"Tamil Nadu","latitude":13.0827,"longitude":80.2707,"temp":25.1,"humidity":90,"rain":0.0,"pressure":1008.4,"uv_index":9.15,"wind_gusts":33.5,"aqi":32,"pm10":9.3,"pm2_5":7.4,"mosquito_risk":7,"arthritis_risk":0,"migraine_risk":4,"frizz_risk":1,"updated_at":"2026-03-20T05:03:20.420794+05:30"},{"city":"Kolkata","state":"West Bengal","latitude":22.5726,"longitude":88.3639,"temp":24.2,"humidity":94,"rain":0.0,"pressure":1007.7,"uv_index":6.75,"wind_gusts":39.6,"aqi":75,"pm10":23.2,"pm2_5":19.4,"mosquito_risk":3,"arthritis_risk":5,"migraine_risk":4,"frizz_risk":1,"updated_at":"2026-03-20T05:03:20.420803+05:30"},{"city":"Pune","state":"Maharashtra","latitude":18.5204,"longitude":73.8567,"temp":18.4,"humidity":89,"rain":0.0,"pressure":948.2,"uv_index":8.35,"wind_gusts":36.7,"aqi":88,"pm10":34.3,"pm2_5":24.4,"mosquito_risk":3,"arthritis_risk":10,"migraine_risk":7,"frizz_risk":1,"updated_at":"2026-03-20T05:03:20.420831+05:30"},{"city":"Ahmedabad","state":"Gujarat","latitude":23.0225,"longitude":72.5714,"temp":19.6,"humidity":93,"rain":0.0,"pressure":1004.4,"uv_index":7.6,"wind_gusts":33.8,"aqi":61,"pm10":61.0,"pm2_5":33.4,"mosquito_risk":3,"arthritis_risk":10,"migraine_risk":4,"frizz_risk":1,"updated_at":"2026-03-20T05:03:20.420842+05:30"},{"city":"Jaipur","state":"Rajasthan","latitude":26.9124,"longitude":75.7873,"temp":18.0,"humidity":90,"rain":0.1,"pressure":960.7,"uv_index":6.75,"wind_gusts":25.2,"aqi":112,"pm10":79.6,"pm2_5":25.6,"mosquito_risk":6,"arthritis_risk":10,"migraine_risk":7,"frizz_risk":1,"updated_at":"2026-03-20T05:03:20.420851+05:30"},{"city":"Lucknow","state":"Uttar Pradesh","latitude":26.8467,"longitude":80.9462,"temp":22.5,"humidity":60,"rain":0.0,"pressure":993.9,"uv_index":3.55,"wind_gusts":43.6,"aqi":91,"pm10":56.6,"pm2_5":35.3,"mosquito_risk":0,"arthritis_risk":5,"migraine_risk":3,"frizz_risk":0,"updated_at":"2026-03-20T05:03:20.420859+05:30"},{"city":"Kanpur","state":"Uttar Pradesh","latitude":26.4499,"longitude":80.3319,"temp":21.2,"humidity":76,"rain":0.0,"pressure":991.5,"uv_index":3.05,"wind_gusts":43.6,"aqi":114,"pm10":74.3,"pm2_5":40.9,"mosquito_risk":3,"arthritis_risk":5,"migraine_risk":3,"frizz_risk":1,"updated_at":"2026-03-20T05:03:20.420866+05:30"},{"city":"Chandigarh","state":"Chandigarh","latitude":30.7333,"longitude":76.7794,"temp":15.7,"humidity":98,"rain":0.0,"pressure":970.0,"uv_index":0.7,"wind_gusts":25.2,"aqi":88,"pm10":43.2,"pm2_5":23.9,"mosquito_risk":3,"arthritis_risk":10,"migraine_risk":3,"frizz_risk":0,"updated_at":"2026-03-20T05:03:20.420874+05:30"},{"city":"Srinagar","state":"Jammu and Kashmir","latitude":34.0837,"longitude":74.7973,"temp":6.0,"humidity":96,"rain":0.1,"pressure":837.2,"uv_index":4.25,"wind_gusts":12.6,"aqi":101,"pm10":7.9,"pm2_5":7.8,"mosquito_risk":6,"arthritis_risk":10,"migraine_risk":3,"frizz_risk":0,"updated_at":"2026-03-20T05:03:20.420882+05:30"},{"city":"Jammu","state":"Jammu and Kashmir","latitude":32.7266,"longitude":74.857,"temp":16.2,"humidity":96,"rain":0.0,"pressure":974.9,"uv_index":4.25,"wind_gusts":20.9,"aqi":87,"pm10":61.2,"pm2_5":40.6,"mosquito_risk":3,"arthritis_risk":10,"migraine_risk":3,"frizz_risk":0,"updated_at":"2026-03-20T05:03:20.420889+05:30"},{"city":"Amritsar","state":"Punjab","latitude":31.634,"longitude":74.8723,"temp":15.0,"humidity":98,"rain":0.0,"pressure":983.2,"uv_index":3.95,"wind_gusts":19.4,"aqi":93,"pm10":53.9,"pm2_5":39.1,"mosquito_risk":3,"arthritis_risk":10,"migraine_risk":3,"frizz_risk":0,"updated_at":"2026-03-20T05:03:20.420896+05:30"},{"city":"Ludhiana","state":"Punjab","latitude":30.901,"longitude":75.8573,"temp":15.1,"humidity":100,"rain":0.0,"pressure":980.7,"uv_index":2.9,"wind_gusts":17.3,"aqi":105,"pm10":54.7,"pm2_5":28.3,"mosquito_risk":3,"arthritis_risk":10,"migraine_risk":3,"frizz_risk":0,"updated_at":"2026-03-20T05:03:20.420903+05:30"},{"city":"Jalandhar","state":"Punjab","latitude":31.326,"longitude":75.5762,"temp":14.9,"humidity":98,"rain":0.0,"pressure":982.0,"uv_index":3.15,"wind_gusts":18.0,"aqi":91,"pm10":46.2,"pm2_5":25.2,"mosquito_risk":3,"arthritis_risk":10,"migraine_risk":3,"frizz_risk":0,"updated_at":"2026-03-20T05:03:20.420912+05:30"},{"city":"Dehradun","state":"Uttarakhand","latitude":30.6284,"longitude":78.0322,"temp":10.0,"humidity":81,"rain":0.0,"pressure":827.5,"uv_index":0.4,"wind_gusts":34.6,"aqi":46,"pm10":30.7,"pm2_5":10.7,"mosquito_risk":3,"arthritis_risk":10,"migraine_risk":3,"frizz_risk":0,"updated_at":"2026-03-20T05:03:20.420919+05:30"},{"city":"Shimla","state":"Himachal Pradesh","latitude":31.1048,"longitude":77.1734,"temp":8.0,"humidity":84,"rain":0.0,"pressure":779.6,"uv_index":0.7,"wind_gusts":40.7,"aqi":41,"pm10":31.8,"pm2_5":10.5,"mosquito_risk":3,"arthritis_risk":10,"migraine_risk":3,"frizz_risk":0,"updated_at":"2026-03-20T05:03:20.420926+05:30"},{"city":"Manali","state":"Himachal Pradesh","latitude":32.2396,"longitude":77.1887,"temp":10.4,"humidity":99,"rain":0.7,"pressure":813.4,"uv_index":2.95,"wind_gusts":28.8,"aqi":45,"pm10":1.0,"pm2_5":0.9,"mosquito_risk":6,"arthritis_risk":10,"migraine_risk":3,"frizz_risk":0,"updated_at":"2026-03-20T05:03:20.420933+05:30"},{"city":"Gurgaon","state":"Haryana","latitude":28.4595,"longitude":77.0266,"temp":16.5,"humidity":97,"rain":0.0,"pressure":982.9,"uv_index":3.1,"wind_gusts":18.0,"aqi":156,"pm10":147.1,"pm2_5":57.9,"mosquito_risk":3,"arthritis_risk":10,"migraine_risk":3,"frizz_risk":0,"updated_at":"2026-03-20T05:03:20.420939+05:30"},{"city":"Noida","state":"Uttar Pradesh","latitude":28.5355,"longitude":77.391,"temp":17.9,"humidity":89,"rain":0.0,"pressure":986.0,"uv_index":1.65,"wind_gusts":21.6,"aqi":156,"pm10":147.1,"pm2_5":57.9,"mosquito_risk":3,"arthritis_risk":10,"migraine_risk":3,"frizz_risk":0,"updated_at":"2026-03-20T05:03:20.420946+05:30"},{"city":"Ghaziabad","state":"Uttar Pradesh","latitude":28.6692,"longitude":77.4538,"temp":17.1,"humidity":91,"rain":0.0,"pressure":984.0,"uv_index":2.2,"wind_gusts":20.2,"aqi":129,"pm10":109.7,"pm2_5":56.2,"mosquito_risk":3,"arthritis_risk":10,"migraine_risk":3,"frizz_risk":0,"updated_at":"2026-03-20T05:03:20.420953+05:30"},{"city":"Faridabad","state":"Haryana","latitude":28.4089,"longitude":77.3178,"temp":17.2,"humidity":91,"rain":0.0,"pressure":985.4,"uv_index":1.95,"wind_gusts":19.4,"aqi":156,"pm10":147.1,"pm2_5":57.9,"mosquito_risk":3,"arthritis_risk":10,"migraine_risk":3,"frizz_risk":0,"updated_at":"2026-03-20T05:03:20.420960+05:30"},{"city":"Meerut","state":"Uttar Pradesh","latitude":28.9845,"longitude":77.7064,"temp":16.6,"humidity":94,"rain":0.0,"pressure":982.5,"uv_index":2.25,"wind_gusts":24.8,"aqi":129,"pm10":109.7,"pm2_5":56.2,"mosquito_risk":3,"arthritis_risk":10,"migraine_risk":3,"frizz_risk":0,"updated_at":"2026-03-20T05:03:20.420966+05:30"},{"city":"Agra","state":"Uttar Pradesh","latitude":27.1767,"longitude":78.0081,"temp":18.0,"humidity":91,"rain":0.0,"pressure":989.5,"uv_index":4.4,"wind_gusts":27.4,"aqi":684,"pm10":280.3,"pm2_5":63.6,"mosquito_risk":3,"arthritis_risk":10,"migraine_risk":3,"frizz_risk":1,"updated_at":"2026-03-20T05:03:20.420973+05:30"},{"city":"Varanasi","state":"Uttar Pradesh","latitude":25.3176,"longitude":82.9739,"temp":22.7,"humidity":66,"rain":0.0,"pressure":997.9,"uv_index":7.35,"wind_gusts":43.9,"aqi":103,"pm10":70.1,"pm2_5":57.3,"mosquito_risk":3,"arthritis_risk":5,"migraine_risk":7,"frizz_risk":0,"updated_at":"2026-03-20T05:03:20.420983+05:30"},{"city":"Prayagraj","state":"Uttar Pradesh","latitude":25.4358,"longitude":81.8463,"temp":22.1,"humidity":67,"rain":0.0,"pressure":996.0,"uv_index":4.7,"wind_gusts":51.5,"aqi":104,"pm10":63.3,"pm2_5":46.4,"mosquito_risk":3,"arthritis_risk":5,"migraine_risk":3,"frizz_risk":0,"updated_at":"2026-03-20T05:03:20.420990+05:30"},{"city":"Gorakhpur","state":"Uttar Pradesh","latitude":26.7606,"longitude":83.3732,"temp":17.2,"humidity":94,"rain":0.0,"pressure":997.8,"uv_index":7.1,"wind_gusts":42.1,"aqi":124,"pm10":115.3,"pm2_5":76.4,"mosquito_risk":3,"arthritis_risk":10,"migraine_risk":7,"frizz_risk":1,"updated_at":"2026-03-20T05:03:20.420997+05:30"},{"city":"Bareilly","state":"Uttar Pradesh","latitude":28.367,"longitude":79.4304,"temp":18.6,"humidity":80,"rain":0.0,"pressure":988.2,"uv_index":3.7,"wind_gusts":35.6,"aqi":85,"pm10":39.9,"pm2_5":28.2,"mosquito_risk":3,"arthritis_risk":5,"migraine_risk":3,"frizz_risk":0,"updated_at":"2026-03-20T05:03:20.421006+05:30"},{"city":"Aligarh","state":"Uttar Pradesh","latitude":27.8974,"longitude":78.088,"temp":17.3,"humidity":86,"rain":0.0,"pressure":987.1,"uv_index":3.35,"wind_gusts":23.4,"aqi":130,"pm10":164.8,"pm2_5":53.6,"mosquito_risk":3,"arthritis_risk":10,"migraine_risk":3,"frizz_risk":0,"updated_at":"2026-03-20T05:03:20.421012+05:30"},{"city":"Moradabad","state":"Uttar Pradesh","latitude":28.8386,"longitude":78.7733,"temp":18.1,"humidity":80,"rain":0.0,"pressure":984.8,"uv_index":2.3,"wind_gusts":25.6,"aqi":92,"pm10":51.9,"pm2_5":30.0,"mosquito_risk":3,"arthritis_risk":5,"migraine_risk":3,"frizz_risk":0,"updated_at":"2026-03-20T05:03:20.421018+05:30"},{"city":"Saharanpur","state":"Uttar Pradesh","latitude":29.9637,"longitude":77.546,"temp":15.8,"humidity":88,"rain":0.0,"pressure":976.8,"uv_index":0.8,"wind_gusts":23.8,"aqi":117,"pm10":71.5,"pm2_5":51.3,"mosquito_risk":3,"arthritis_risk":10,"migraine_risk":3,"frizz_risk":0,"updated_at":"2026-03-20T05:03:20.421024+05:30"},{"city":"Jhansi","state":"Uttar Pradesh","latitude":25.4484,"longitude":78.5685,"temp":20.6,"humidity":78,"rain":0.0,"pressure":978.3,"uv_index":6.35,"wind_gusts":29.5,"aqi":83,"pm10":130.9,"pm2_5":51.5,"mosquito_risk":3,"arthritis_risk":5,"migraine_risk":7,"frizz_risk":1,"updated_at":"2026-03-20T05:03:23.675078+05:30"},{"city":"Surat","state":"Gujarat","latitude":21.1702,"longitude":72.8311,"temp":22.6,"humidity":88,"rain":0.0,"pressure":1008.0,"uv_index":7.5,"wind_gusts":26.3,"aqi":91,"pm10":58.9,"pm2_5":44.9,"mosquito_risk":3,"arthritis_risk":0,"migraine_risk":4,"frizz_risk":1,"updated_at":"2026-03-20T05:03:23.675108+05:30"},{"city":"Vadodara","state":"Gujarat","latitude":22.3072,"longitude":73.1812,"temp":20.7,"humidity":91,"rain":0.0,"pressure":1006.2,"uv_index":7.65,"wind_gusts":30.6,"aqi":56,"pm10":47.5,"pm2_5":23.7,"mosquito_risk":3,"arthritis_risk":5,"migraine_risk":4,"frizz_risk":1,"updated_at":"2026-03-20T05:03:23.675117+05:30"},{"city":"Rajkot","state":"Gujarat","latitude":22.3039,"longitude":70.8022,"temp":19.8,"humidity":90,"rain":0.0,"pressure":995.8,"uv_index":7.5,"wind_gusts":30.2,"aqi":61,"pm10":67.5,"pm2_5":25.7,"mosquito_risk":3,"arthritis_risk":10,"migraine_risk":7,"frizz_risk":1,"updated_at":"2026-03-20T05:03:23.675126+05:30"},{"city":"Thane","state":"Maharashtra","latitude":19.2183,"longitude":72.9781,"temp":23.3,"humidity":87,"rain":0.0,"pressure":1008.7,"uv_index":7.8,"wind_gusts":36.7,"aqi":68,"pm10":54.4,"pm2_5":27.8,"mosquito_risk":3,"arthritis_risk":0,"migraine_risk":4,"frizz_risk":1,"updated_at":"2026-03-20T05:03:23.675133+05:30"},{"city":"Nagpur","state":"Maharashtra","latitude":21.1458,"longitude":79.0882,"temp":21.1,"humidity":78,"rain":0.0,"pressure":975.3,"uv_index":7.6,"wind_gusts":39.2,"aqi":111,"pm10":59.8,"pm2_5":49.5,"mosquito_risk":3,"arthritis_risk":5,"migraine_risk":7,"frizz_risk":1,"updated_at":"2026-03-20T05:03:23.675140+05:30"},{"city":"Nashik","state":"Maharashtra","latitude":19.9975,"longitude":73.7898,"temp":18.9,"humidity":89,"rain":0.0,"pressure":945.2,"uv_index":8.0,"wind_gusts":33.5,"aqi":54,"pm10":27.1,"pm2_5":17.9,"mosquito_risk":3,"arthritis_risk":10,"migraine_risk":7,"frizz_risk":1,"updated_at":"2026-03-20T05:03:23.675146+05:30"},{"city":"Aurangabad","state":"Maharashtra","latitude":19.8762,"longitude":75.3433,"temp":21.0,"humidity":69,"rain":0.0,"pressure":943.9,"uv_index":8.5,"wind_gusts":34.9,"aqi":77,"pm10":35.2,"pm2_5":24.7,"mosquito_risk":3,"arthritis_risk":5,"migraine_risk":7,"frizz_risk":0,"updated_at":"2026-03-20T05:03:23.675153+05:30"},{"city":"Solapur","state":"Maharashtra","latitude":17.6599,"longitude":75.9064,"temp":21.9,"humidity":73,"rain":0.0,"pressure":957.2,"uv_index":8.7,"wind_gusts":28.8,"aqi":75,"pm10":44.7,"pm2_5":31.2,"mosquito_risk":3,"arthritis_risk":5,"migraine_risk":7,"frizz_risk":1,"updated_at":"2026-03-20T05:03:23.675160+05:30"},{"city":"Kolhapur","state":"Maharashtra","latitude":16.705,"longitude":74.2433,"temp":17.1,"humidity":93,"rain":0.0,"pressure":947.5,"uv_index":8.85,"wind_gusts":44.3,"aqi":85,"pm10":42.5,"pm2_5":36.9,"mosquito_risk":3,"arthritis_risk":10,"migraine_risk":7,"frizz_risk":0,"updated_at":"2026-03-20T05:03:23.675167+05:30"},{"city":"Goa","state":"Goa","latitude":15.2993,"longitude":74.124,"temp":24.4,"humidity":86,"rain":0.0,"pressure":998.2,"uv_index":8.85,"wind_gusts":40.0,"aqi":65,"pm10":30.6,"pm2_5":23.7,"mosquito_risk":3,"arthritis_risk":5,"migraine_risk":7,"frizz_risk":1,"updated_at":"2026-03-20T05:03:23.675174+05:30"},{"city":"Jodhpur","state":"Rajasthan","latitude":26.2389,"longitude":73.0243,"temp":19.0,"humidity":84,"rain":0.0,"pressure":985.0,"uv_index":7.25,"wind_gusts":18.7,"aqi":72,"pm10":75.7,"pm2_5":21.7,"mosquito_risk":3,"arthritis_risk":10,"migraine_risk":7,"frizz_risk":1,"updated_at":"2026-03-20T05:03:23.675180+05:30"},{"city":"Udaipur","state":"Rajasthan","latitude":24.5854,"longitude":73.7125,"temp":17.3,"humidity":72,"rain":0.0,"pressure":946.6,"uv_index":7.95,"wind_gusts":30.6,"aqi":59,"pm10":55.5,"pm2_5":20.8,"mosquito_risk":3,"arthritis_risk":5,"migraine_risk":7,"frizz_risk":0,"updated_at":"2026-03-20T05:03:23.675187+05:30"},{"city":"Kota","state":"Rajasthan","latitude":25.2138,"longitude":75.8648,"temp":20.7,"humidity":78,"rain":0.0,"pressure":980.0,"uv_index":5.25,"wind_gusts":31.7,"aqi":74,"pm10":43.1,"pm2_5":18.6,"mosquito_risk":3,"arthritis_risk":5,"migraine_risk":3,"frizz_risk":1,"updated_at":"2026-03-20T05:03:23.675194+05:30"},{"city":"Bikaner","state":"Rajasthan","latitude":28.0229,"longitude":73.3119,"temp":18.9,"humidity":89,"rain":0.0,"pressure":984.0,"uv_index":6.9,"wind_gusts":17.3,"aqi":68,"pm10":26.6,"pm2_5":16.3,"mosquito_risk":3,"arthritis_risk":10,"migraine_risk":7,"frizz_risk":1,"updated_at":"2026-03-20T05:03:23.675200+05:30"},{"city":"Ajmer","state":"Rajasthan","latitude":26.4499,"longitude":74.6399,"temp":18.5,"humidity":89,"rain":0.0,"pressure":955.0,"uv_index":6.55,"wind_gusts":28.1,"aqi":72,"pm10":41.4,"pm2_5":18.0,"mosquito_risk":3,"arthritis_risk":10,"migraine_risk":7,"frizz_risk":1,"updated_at":"2026-03-20T05:03:23.675206+05:30"},{"city":"Gwalior","state":"Madhya Pradesh","latitude":26.2183,"longitude":78.1828,"temp":19.7,"humidity":90,"rain":0.0,"pressure":984.4,"uv_index":5.2,"wind_gusts":29.5,"aqi":130,"pm10":167.6,"pm2_5":55.8,"mosquito_risk":3,"arthritis_risk":10,"migraine_risk":3,"frizz_risk":1,"updated_at":"2026-03-20T05:03:23.675213+05:30"},{"city":"Indore","state":"Madhya Pradesh","latitude":22.7196,"longitude":75.8577,"temp":19.0,"humidity":81,"rain":0.0,"pressure":948.7,"uv_index":7.9,"wind_gusts":37.4,"aqi":58,"pm10":47.4,"pm2_5":19.3,"mosquito_risk":3,"arthritis_risk":10,"migraine_risk":7,"frizz_risk":0,"updated_at":"2026-03-20T05:03:23.675219+05:30"},{"city":"Bhopal","state":"Madhya Pradesh","latitude":23.2599,"longitude":77.4126,"temp":19.2,"humidity":73,"rain":0.0,"pressure":953.6,"uv_index":7.05,"wind_gusts":35.6,"aqi":70,"pm10":26.8,"pm2_5":21.6,"mosquito_risk":3,"arthritis_risk":5,"migraine_risk":7,"frizz_risk":0,"updated_at":"2026-03-20T05:03:23.675226+05:30"},{"city":"Jabalpur","state":"Madhya Pradesh","latitude":23.1815,"longitude":79.9864,"temp":21.1,"humidity":66,"rain":0.0,"pressure":962.4,"uv_index":4.35,"wind_gusts":29.9,"aqi":73,"pm10":24.7,"pm2_5":20.0,"mosquito_risk":3,"arthritis_risk":5,"migraine_risk":3,"frizz_risk":0,"updated_at":"2026-03-20T05:03:23.675232+05:30"},{"city":"Ujjain","state":"Madhya Pradesh","latitude":23.1765,"longitude":75.7885,"temp":19.4,"humidity":80,"rain":0.0,"pressure":954.2,"uv_index":7.8,"wind_gusts":40.3,"aqi":55,"pm10":52.5,"pm2_5":21.4,"mosquito_risk":3,"arthritis_risk":5,"migraine_risk":7,"frizz_risk":0,"updated_at":"2026-03-20T05:03:23.675239+05:30"},{"city":"Visakhapatnam","state":"Andhra Pradesh","latitude":17.6868,"longitude":83.2185,"temp":22.2,"humidity":90,"rain":0.0,"pressure":1005.1,"uv_index":8.8,"wind_gusts":37.4,"aqi":67,"pm10":24.9,"pm2_5":21.9,"mosquito_risk":3,"arthritis_risk":5,"migraine_risk":4,"frizz_risk":1,"updated_at":"2026-03-20T05:03:23.675245+05:30"},{"city":"Vijayawada","state":"Andhra Pradesh","latitude":16.5062,"longitude":80.648,"temp":23.1,"humidity":93,"rain":0.0,"pressure":1004.0,"uv_index":8.85,"wind_gusts":24.1,"aqi":61,"pm10":24.4,"pm2_5":22.2,"mosquito_risk":3,"arthritis_risk":5,"migraine_risk":4,"frizz_risk":1,"updated_at":"2026-03-20T05:03:23.675252+05:30"},{"city":"Guntur","state":"Andhra Pradesh","latitude":16.3067,"longitude":80.4365,"temp":23.0,"humidity":94,"rain":0.0,"pressure":1005.1,"uv_index":8.85,"wind_gusts":35.6,"aqi":55,"pm10":20.0,"pm2_5":18.2,"mosquito_risk":3,"arthritis_risk":5,"migraine_risk":4,"frizz_risk":1,"updated_at":"2026-03-20T05:03:23.675258+05:30"},{"city":"Nellore","state":"Andhra Pradesh","latitude":14.4426,"longitude":79.9865,"temp":24.5,"humidity":91,"rain":0.0,"pressure":1007.1,"uv_index":9.0,"wind_gusts":32.0,"aqi":31,"pm10":8.8,"pm2_5":7.2,"mosquito_risk":3,"arthritis_risk":5,"migraine_risk":4,"frizz_risk":1,"updated_at":"2026-03-20T05:03:23.675265+05:30"},{"city":"Kurnool","state":"Andhra Pradesh","latitude":15.8281,"longitude":78.0373,"temp":23.6,"humidity":77,"rain":0.0,"pressure":977.5,"uv_index":8.85,"wind_gusts":18.7,"aqi":61,"pm10":22.8,"pm2_5":20.0,"mosquito_risk":3,"arthritis_risk":5,"migraine_risk":7,"frizz_risk":1,"updated_at":"2026-03-20T05:03:23.675272+05:30"},{"city":"Kakinada","state":"Andhra Pradesh","latitude":16.9891,"longitude":82.2475,"temp":20.8,"humidity":92,"rain":0.0,"pressure":1009.0,"uv_index":8.8,"wind_gusts":27.7,"aqi":43,"pm10":19.4,"pm2_5":16.3,"mosquito_risk":3,"arthritis_risk":0,"migraine_risk":4,"frizz_risk":1,"updated_at":"2026-03-20T05:03:23.675278+05:30"},{"city":"Tirupati","state":"Andhra Pradesh","latitude":13.6288,"longitude":79.4192,"temp":22.7,"humidity":91,"rain":0.0,"pressure":993.1,"uv_index":9.15,"wind_gusts":20.5,"aqi":48,"pm10":19.6,"pm2_5":18.4,"mosquito_risk":3,"arthritis_risk":5,"migraine_risk":7,"frizz_risk":1,"updated_at":"2026-03-20T05:03:23.675284+05:30"},{"city":"Warangal","state":"Telangana","latitude":17.9689,"longitude":79.5941,"temp":21.6,"humidity":92,"rain":0.0,"pressure":979.6,"uv_index":8.65,"wind_gusts":25.6,"aqi":102,"pm10":17.7,"pm2_5":16.8,"mosquito_risk":3,"arthritis_risk":5,"migraine_risk":7,"frizz_risk":1,"updated_at":"2026-03-20T05:03:23.675291+05:30"},{"city":"Nizamabad","state":"Telangana","latitude":18.6725,"longitude":78.0941,"temp":21.0,"humidity":80,"rain":0.0,"pressure":965.2,"uv_index":8.55,"wind_gusts":25.2,"aqi":94,"pm10":42.0,"pm2_5":36.8,"mosquito_risk":3,"arthritis_risk":5,"migraine_risk":7,"frizz_risk":1,"updated_at":"2026-03-20T05:03:23.675297+05:30"},{"city":"Mysore","state":"Karnataka","latitude":12.2958,"longitude":76.6396,"temp":21.0,"humidity":90,"rain":0.0,"pressure":928.2,"uv_index":9.35,"wind_gusts":36.0,"aqi":81,"pm10":31.0,"pm2_5":29.4,"mosquito_risk":3,"arthritis_risk":5,"migraine_risk":7,"frizz_risk":1,"updated_at":"2026-03-20T05:03:23.675303+05:30"},{"city":"Mangalore","state":"Karnataka","latitude":12.9141,"longitude":74.856,"temp":28.4,"humidity":77,"rain":0.0,"pressure":1006.6,"uv_index":9.0,"wind_gusts":27.0,"aqi":71,"pm10":30.5,"pm2_5":26.6,"mosquito_risk":7,"arthritis_risk":5,"migraine_risk":4,"frizz_risk":1,"updated_at":"2026-03-20T05:03:23.675309+05:30"},{"city":"Hubli-Dharwad","state":"Karnataka","latitude":15.3647,"longitude":75.124,"temp":19.5,"humidity":95,"rain":0.0,"pressure":940.2,"uv_index":9.0,"wind_gusts":40.7,"aqi":79,"pm10":27.2,"pm2_5":22.5,"mosquito_risk":3,"arthritis_risk":10,"migraine_risk":7,"frizz_risk":1,"updated_at":"2026-03-20T05:03:23.675316+05:30"},{"city":"Belgaum","state":"Karnataka","latitude":15.8497,"longitude":74.4977,"temp":18.3,"humidity":95,"rain":0.0,"pressure":924.7,"uv_index":9.1,"wind_gusts":44.3,"aqi":77,"pm10":36.0,"pm2_5":30.3,"mosquito_risk":3,"arthritis_risk":10,"migraine_risk":7,"frizz_risk":1,"updated_at":"2026-03-20T05:03:26.955136+05:30"},{"city":"Coimbatore","state":"Tamil Nadu","latitude":11.0168,"longitude":76.9558,"temp":21.9,"humidity":91,"rain":0.0,"pressure":962.5,"uv_index":9.35,"wind_gusts":36.7,"aqi":62,"pm10":20.8,"pm2_5":19.8,"mosquito_risk":3,"arthritis_risk":5,"migraine_risk":7,"frizz_risk":1,"updated_at":"2026-03-20T05:03:26.955167+05:30"},{"city":"Madurai","state":"Tamil Nadu","latitude":9.9252,"longitude":78.1198,"temp":23.1,"humidity":85,"rain":0.0,"pressure":994.2,"uv_index":9.3,"wind_gusts":24.8,"aqi":57,"pm10":11.8,"pm2_5":11.1,"mosquito_risk":3,"arthritis_risk":5,"migraine_risk":7,"frizz_risk":1,"updated_at":"2026-03-20T05:03:26.955176+05:30"},{"city":"Trichy","state":"Tamil Nadu","latitude":10.7905,"longitude":78.7047,"temp":22.6,"humidity":86,"rain":0.0,"pressure":1001.7,"uv_index":9.25,"wind_gusts":20.2,"aqi":58,"pm10":15.7,"pm2_5":14.4,"mosquito_risk":3,"arthritis_risk":5,"migraine_risk":4,"frizz_risk":1,"updated_at":"2026-03-20T05:03:26.955185+05:30"},{"city":"Salem","state":"Tamil Nadu","latitude":11.6643,"longitude":78.146,"temp":22.4,"humidity":90,"rain":0.0,"pressure":978.9,"uv_index":9.3,"wind_gusts":20.9,"aqi":77,"pm10":24.7,"pm2_5":20.9,"mosquito_risk":3,"arthritis_risk":5,"migraine_risk":7,"frizz_risk":1,"updated_at":"2026-03-20T05:03:26.955192+05:30"},{"city":"Tirunelveli","state":"Tamil Nadu","latitude":8.7139,"longitude":77.7567,"temp":24.0,"humidity":91,"rain":0.0,"pressure":1003.8,"uv_index":9.3,"wind_gusts":41.4,"aqi":59,"pm10":28.3,"pm2_5":27.0,"mosquito_risk":3,"arthritis_risk":5,"migraine_risk":4,"frizz_risk":1,"updated_at":"2026-03-20T05:03:26.955199+05:30"},{"city":"Vellore","state":"Tamil Nadu","latitude":12.9165,"longitude":79.1325,"temp":22.7,"humidity":91,"rain":0.0,"pressure":986.0,"uv_index":9.2,"wind_gusts":24.1,"aqi":62,"pm10":21.4,"pm2_5":20.1,"mosquito_risk":3,"arthritis_risk":5,"migraine_risk":7,"frizz_risk":1,"updated_at":"2026-03-20T05:03:26.955206+05:30"},{"city":"Erode","state":"Tamil Nadu","latitude":11.341,"longitude":77.7172,"temp":22.6,"humidity":83,"rain":0.0,"pressure":990.9,"uv_index":9.3,"wind_gusts":26.6,"aqi":72,"pm10":24.6,"pm2_5":21.2,"mosquito_risk":3,"arthritis_risk":5,"migraine_risk":7,"frizz_risk":1,"updated_at":"2026-03-20T05:03:26.955214+05:30"},{"city":"Kochi","state":"Kerala","latitude":9.9312,"longitude":76.2673,"temp":27.7,"humidity":80,"rain":0.0,"pressure":1008.9,"uv_index":9.15,"wind_gusts":33.8,"aqi":59,"pm10":26.9,"pm2_5":25.7,"mosquito_risk":7,"arthritis_risk":0,"migraine_risk":4,"frizz_risk":1,"updated_at":"2026-03-20T05:03:26.955221+05:30"},{"city":"Thiruvananthapuram","state":"Kerala","latitude":8.5241,"longitude":76.9366,"temp":27.6,"humidity":80,"rain":0.0,"pressure":1008.0,"uv_index":9.15,"wind_gusts":25.9,"aqi":44,"pm10":14.2,"pm2_5":11.8,"mosquito_risk":7,"arthritis_risk":0,"migraine_risk":4,"frizz_risk":1,"updated_at":"2026-03-20T05:03:26.955229+05:30"},{"city":"Kozhikode","state":"Kerala","latitude":11.2588,"longitude":75.7804,"temp":27.3,"humidity":83,"rain":0.0,"pressure":1008.0,"uv_index":9.05,"wind_gusts":32.4,"aqi":51,"pm10":25.0,"pm2_5":15.9,"mosquito_risk":7,"arthritis_risk":0,"migraine_risk":4,"frizz_risk":1,"updated_at":"2026-03-20T05:03:26.955235+05:30"},{"city":"Thrissur","state":"Kerala","latitude":10.5276,"longitude":76.2144,"temp":25.4,"humidity":91,"rain":0.0,"pressure":1007.2,"uv_index":9.15,"wind_gusts":37.8,"aqi":58,"pm10":31.5,"pm2_5":29.0,"mosquito_risk":7,"arthritis_risk":5,"migraine_risk":4,"frizz_risk":1,"updated_at":"2026-03-20T05:03:26.955243+05:30"},{"city":"Kannur","state":"Kerala","latitude":11.8745,"longitude":75.3704,"temp":26.5,"humidity":84,"rain":0.0,"pressure":1007.2,"uv_index":9.05,"wind_gusts":37.4,"aqi":56,"pm10":21.9,"pm2_5":18.3,"mosquito_risk":7,"arthritis_risk":5,"migraine_risk":4,"frizz_risk":1,"updated_at":"2026-03-20T05:03:26.955251+05:30"},{"city":"Patna","state":"Bihar","latitude":25.5941,"longitude":85.1376,"temp":23.3,"humidity":83,"rain":0.0,"pressure":1000.9,"uv_index":7.7,"wind_gusts":33.1,"aqi":159,"pm10":83.8,"pm2_5":76.4,"mosquito_risk":3,"arthritis_risk":5,"migraine_risk":4,"frizz_risk":1,"updated_at":"2026-03-20T05:03:26.955258+05:30"},{"city":"Gaya","state":"Bihar","latitude":24.7914,"longitude":85.0002,"temp":21.8,"humidity":72,"rain":0.0,"pressure":994.3,"uv_index":7.8,"wind_gusts":20.2,"aqi":126,"pm10":44.9,"pm2_5":40.3,"mosquito_risk":3,"arthritis_risk":5,"migraine_risk":7,"frizz_risk":1,"updated_at":"2026-03-20T05:03:26.955264+05:30"},{"city":"Muzaffarpur","state":"Bihar","latitude":26.1209,"longitude":85.3647,"temp":20.6,"humidity":95,"rain":0.0,"pressure":1001.7,"uv_index":7.65,"wind_gusts":40.3,"aqi":162,"pm10":100.4,"pm2_5":89.6,"mosquito_risk":3,"arthritis_risk":5,"migraine_risk":4,"frizz_risk":1,"updated_at":"2026-03-20T05:03:26.955271+05:30"},{"city":"Bhagalpur","state":"Bihar","latitude":25.2425,"longitude":87.0117,"temp":22.2,"humidity":95,"rain":0.0,"pressure":1003.2,"uv_index":7.75,"wind_gusts":33.8,"aqi":136,"pm10":59.8,"pm2_5":56.2,"mosquito_risk":3,"arthritis_risk":5,"migraine_risk":4,"frizz_risk":1,"updated_at":"2026-03-20T05:03:26.955277+05:30"},{"city":"Ranchi","state":"Jharkhand","latitude":23.3441,"longitude":85.3096,"temp":20.5,"humidity":66,"rain":0.0,"pressure":938.0,"uv_index":7.4,"wind_gusts":35.3,"aqi":86,"pm10":38.0,"pm2_5":31.7,"mosquito_risk":3,"arthritis_risk":5,"migraine_risk":7,"frizz_risk":0,"updated_at":"2026-03-20T05:03:26.955284+05:30"},{"city":"Jamshedpur","state":"Jharkhand","latitude":22.8046,"longitude":86.2029,"temp":24.9,"humidity":64,"rain":0.0,"pressure":992.1,"uv_index":7.35,"wind_gusts":32.0,"aqi":117,"pm10":56.8,"pm2_5":49.2,"mosquito_risk":3,"arthritis_risk":5,"migraine_risk":7,"frizz_risk":1,"updated_at":"2026-03-20T05:03:26.955290+05:30"},{"city":"Dhanbad","state":"Jharkhand","latitude":23.7957,"longitude":86.4304,"temp":23.4,"humidity":69,"rain":0.0,"pressure":980.6,"uv_index":8.2,"wind_gusts":43.6,"aqi":155,"pm10":103.1,"pm2_5":96.2,"mosquito_risk":3,"arthritis_risk":5,"migraine_risk":7,"frizz_risk":1,"updated_at":"2026-03-20T05:03:26.955297+05:30"},{"city":"Bokaro","state":"Jharkhand","latitude":23.6693,"longitude":86.1511,"temp":21.6,"humidity":67,"rain":0.0,"pressure":984.8,"uv_index":8.15,"wind_gusts":40.3,"aqi":146,"pm10":96.2,"pm2_5":88.5,"mosquito_risk":3,"arthritis_risk":5,"migraine_risk":7,"frizz_risk":0,"updated_at":"2026-03-20T05:03:26.955305+05:30"},{"city":"Bhubaneswar","state":"Odisha","latitude":20.2961,"longitude":85.8245,"temp":24.2,"humidity":92,"rain":0.0,"pressure":1004.0,"uv_index":8.5,"wind_gusts":30.6,"aqi":77,"pm10":18.5,"pm2_5":15.8,"mosquito_risk":3,"arthritis_risk":5,"migraine_risk":4,"frizz_risk":1,"updated_at":"2026-03-20T05:03:26.955311+05:30"},{"city":"Cuttack","state":"Odisha","latitude":20.4625,"longitude":85.8828,"temp":24.1,"humidity":95,"rain":0.0,"pressure":1006.1,"uv_index":8.4,"wind_gusts":35.3,"aqi":77,"pm10":18.5,"pm2_5":15.8,"mosquito_risk":3,"arthritis_risk":5,"migraine_risk":4,"frizz_risk":1,"updated_at":"2026-03-20T05:03:26.955318+05:30"},{"city":"Rourkela","state":"Odisha","latitude":22.2604,"longitude":84.8536,"temp":21.9,"humidity":83,"rain":0.0,"pressure":986.7,"uv_index":8.2,"wind_gusts":38.9,"aqi":114,"pm10":57.3,"pm2_5":49.7,"mosquito_risk":3,"arthritis_risk":5,"migraine_risk":7,"frizz_risk":1,"updated_at":"2026-03-20T05:03:26.955325+05:30"},{"city":"Raipur","state":"Chhattisgarh","latitude":21.2514,"longitude":81.6296,"temp":21.7,"humidity":74,"rain":0.0,"pressure":975.9,"uv_index":7.15,"wind_gusts":28.1,"aqi":144,"pm10":46.0,"pm2_5":42.6,"mosquito_risk":3,"arthritis_risk":5,"migraine_risk":7,"frizz_risk":1,"updated_at":"2026-03-20T05:03:26.955332+05:30"},{"city":"Bhilai","state":"Chhattisgarh","latitude":21.1938,"longitude":81.3509,"temp":21.3,"humidity":75,"rain":0.0,"pressure":976.2,"uv_index":7.1,"wind_gusts":27.4,"aqi":145,"pm10":43.7,"pm2_5":41.2,"mosquito_risk":3,"arthritis_risk":5,"migraine_risk":7,"frizz_risk":1,"updated_at":"2026-03-20T05:03:26.955338+05:30"},{"city":"Guwahati","state":"Assam","latitude":26.1158,"longitude":91.7086,"temp":21.3,"humidity":91,"rain":0.0,"pressure":1005.6,"uv_index":6.8,"wind_gusts":26.6,"aqi":89,"pm10":43.7,"pm2_5":35.7,"mosquito_risk":3,"arthritis_risk":5,"migraine_risk":4,"frizz_risk":1,"updated_at":"2026-03-20T05:03:26.955344+05:30"},{"city":"Agartala","state":"Tripura","latitude":23.8315,"longitude":91.2868,"temp":21.4,"humidity":94,"rain":0.0,"pressure":1009.0,"uv_index":6.6,"wind_gusts":29.2,"aqi":88,"pm10":30.9,"pm2_5":29.3,"mosquito_risk":3,"arthritis_risk":0,"migraine_risk":4,"frizz_risk":1,"updated_at":"2026-03-20T05:03:26.955351+05:30"},{"city":"Shillong","state":"Meghalaya","latitude":25.5788,"longitude":91.8933,"temp":10.8,"humidity":88,"rain":0.0,"pressure":855.5,"uv_index":6.8,"wind_gusts":31.7,"aqi":75,"pm10":30.2,"pm2_5":27.2,"mosquito_risk":3,"arthritis_risk":10,"migraine_risk":7,"frizz_risk":0,"updated_at":"2026-03-20T05:03:26.955357+05:30"},{"city":"Imphal","state":"Manipur","latitude":24.817,"longitude":93.9368,"temp":15.1,"humidity":86,"rain":0.0,"pressure":924.7,"uv_index":8.1,"wind_gusts":43.9,"aqi":86,"pm10":48.9,"pm2_5":42.5,"mosquito_risk":3,"arthritis_risk":10,"migraine_risk":7,"frizz_risk":0,"updated_at":"2026-03-20T05:03:26.955364+05:30"},{"city":"Aizawl","state":"Mizoram","latitude":23.7271,"longitude":92.7176,"temp":15.4,"humidity":84,"rain":0.0,"pressure":892.9,"uv_index":7.6,"wind_gusts":40.0,"aqi":72,"pm10":28.3,"pm2_5":25.6,"mosquito_risk":3,"arthritis_risk":10,"migraine_risk":7,"frizz_risk":0,"updated_at":"2026-03-20T05:03:26.955370+05:30"},{"city":"Kohima","state":"Nagaland","latitude":25.6701,"longitude":94.1077,"temp":12.9,"humidity":78,"rain":0.0,"pressure":855.4,"uv_index":8.1,"wind_gusts":64.8,"aqi":68,"pm10":30.7,"pm2_5":23.9,"mosquito_risk":3,"arthritis_risk":5,"migraine_risk":7,"frizz_risk":0,"updated_at":"2026-03-20T05:03:26.955377+05:30"},{"city":"Gangtok","state":"Sikkim","latitude":27.3314,"longitude":88.6138,"temp":12.1,"humidity":89,"rain":0.0,"pressure":836.8,"uv_index":7.95,"wind_gusts":20.5,"aqi":99,"pm10":46.1,"pm2_5":34.3,"mosquito_risk":3,"arthritis_risk":10,"migraine_risk":7,"frizz_risk":0,"updated_at":"2026-03-20T05:03:26.955384+05:30"},{"city":"Siliguri","state":"West Bengal","latitude":26.7271,"longitude":88.3953,"temp":18.1,"humidity":84,"rain":0.0,"pressure":997.3,"uv_index":7.65,"wind_gusts":22.3,"aqi":145,"pm10":93.4,"pm2_5":68.7,"mosquito_risk":3,"arthritis_risk":10,"migraine_risk":7,"frizz_risk":0,"updated_at":"2026-03-20T05:03:30.210085+05:30"},{"city":"Durgapur","state":"West Bengal","latitude":23.5204,"longitude":87.3119,"temp":23.4,"humidity":91,"rain":0.0,"pressure":996.5,"uv_index":7.65,"wind_gusts":47.5,"aqi":152,"pm10":77.1,"pm2_5":70.8,"mosquito_risk":3,"arthritis_risk":5,"migraine_risk":7,"frizz_risk":1,"updated_at":"2026-03-20T05:03:30.210119+05:30"},{"city":"Asansol","state":"West Bengal","latitude":23.6739,"longitude":86.9524,"temp":23.9,"humidity":86,"rain":0.0,"pressure":994.8,"uv_index":7.95,"wind_gusts":46.4,"aqi":152,"pm10":70.3,"pm2_5":64.0,"mosquito_risk":3,"arthritis_risk":5,"migraine_risk":7,"frizz_risk":1,"updated_at":"2026-03-20T05:03:30.210131+05:30"},{"city":"Pondicherry","state":"Puducherry","latitude":11.9139,"longitude":79.8145,"temp":24.1,"humidity":92,"rain":0.0,"pressure":1010.0,"uv_index":9.1,"wind_gusts":25.6,"aqi":33,"pm10":7.6,"pm2_5":5.9,"mosquito_risk":3,"arthritis_risk":0,"migraine_risk":4,"frizz_risk":1,"updated_at":"2026-03-20T05:03:30.210140+05:30"},{"city":"Port Blair","state":"Andaman and Nicobar Islands","latitude":11.6234,"longitude":92.7265,"temp":28.0,"humidity":78,"rain":0.0,"pressure":1007.8,"uv_index":9.05,"wind_gusts":11.9,"aqi":48,"pm10":13.4,"pm2_5":10.4,"mosquito_risk":7,"arthritis_risk":5,"migraine_risk":4,"frizz_risk":1,"updated_at":"2026-03-20T05:03:30.210149+05:30"},{"city":"Haridwar","state":"Uttarakhand","latitude":29.9457,"longitude":78.1642,"temp":18.7,"humidity":73,"rain":0.0,"pressure":975.4,"uv_index":1.4,"wind_gusts":27.7,"aqi":76,"pm10":29.5,"pm2_5":16.8,"mosquito_risk":3,"arthritis_risk":5,"migraine_risk":3,"frizz_risk":0,"updated_at":"2026-03-20T05:03:30.210159+05:30"},{"city":"Rishikesh","state":"Uttarakhand","latitude":30.0869,"longitude":78.2676,"temp":18.8,"humidity":65,"rain":0.0,"pressure":968.1,"uv_index":1.3,"wind_gusts":27.7,"aqi":64,"pm10":32.1,"pm2_5":15.6,"mosquito_risk":3,"arthritis_risk":5,"migraine_risk":3,"frizz_risk":0,"updated_at":"2026-03-20T05:03:30.210167+05:30"},{"city":"Nainital","state":"Uttarakhand","latitude":29.3919,"longitude":79.4542,"temp":13.5,"humidity":73,"rain":0.0,"pressure":804.2,"uv_index":3.5,"wind_gusts":72.4,"aqi":66,"pm10":26.0,"pm2_5":14.8,"mosquito_risk":3,"arthritis_risk":5,"migraine_risk":3,"frizz_risk":0,"updated_at":"2026-03-20T05:03:30.210176+05:30"},{"city":"Mussoorie","state":"Uttarakhand","latitude":30.4599,"longitude":78.0664,"temp":11.3,"humidity":74,"rain":0.0,"pressure":800.0,"uv_index":0.4,"wind_gusts":46.8,"aqi":64,"pm10":41.1,"pm2_5":15.7,"mosquito_risk":3,"arthritis_risk":5,"migraine_risk":3,"frizz_risk":0,"updated_at":"2026-03-20T05:03:30.210184+05:30"},{"city":"Dharamshala","state":"Himachal Pradesh","latitude":32.219,"longitude":76.3234,"temp":12.0,"humidity":84,"rain":1.1,"pressure":866.1,"uv_index":1.45,"wind_gusts":26.3,"aqi":43,"pm10":3.5,"pm2_5":3.1,"mosquito_risk":6,"arthritis_risk":10,"migraine_risk":3,"frizz_risk":0,"updated_at":"2026-03-20T05:03:30.210194+05:30"},{"city":"Dalhousie","state":"Himachal Pradesh","latitude":32.5387,"longitude":75.971,"temp":8.7,"humidity":84,"rain":1.3,"pressure":799.0,"uv_index":1.85,"wind_gusts":24.5,"aqi":72,"pm10":11.9,"pm2_5":9.8,"mosquito_risk":6,"arthritis_risk":10,"migraine_risk":3,"frizz_risk":0,"updated_at":"2026-03-20T05:03:30.210203+05:30"},{"city":"Patiala","state":"Punjab","latitude":30.3398,"longitude":76.3869,"temp":14.9,"humidity":99,"rain":0.0,"pressure":979.9,"uv_index":3.65,"wind_gusts":18.4,"aqi":101,"pm10":41.7,"pm2_5":20.9,"mosquito_risk":3,"arthritis_risk":10,"migraine_risk":3,"frizz_risk":0,"updated_at":"2026-03-20T05:03:30.210212+05:30"},{"city":"Bhatinda","state":"Punjab","latitude":30.211,"longitude":74.9455,"temp":16.6,"humidity":99,"rain":0.0,"pressure":985.8,"uv_index":5.7,"wind_gusts":20.5,"aqi":93,"pm10":63.3,"pm2_5":52.5,"mosquito_risk":3,"arthritis_risk":10,"migraine_risk":3,"frizz_risk":1,"updated_at":"2026-03-20T05:03:30.210219+05:30"},{"city":"Rohtak","state":"Haryana","latitude":28.8955,"longitude":76.6066,"temp":16.3,"humidity":99,"rain":0.0,"pressure":983.3,"uv_index":2.2,"wind_gusts":12.2,"aqi":147,"pm10":140.6,"pm2_5":57.0,"mosquito_risk":3,"arthritis_risk":10,"migraine_risk":3,"frizz_risk":1,"updated_at":"2026-03-20T05:03:30.210226+05:30"},{"city":"Panipat","state":"Haryana","latitude":29.3909,"longitude":76.9635,"temp":15.0,"humidity":99,"rain":0.0,"pressure":981.8,"uv_index":2.65,"wind_gusts":15.5,"aqi":152,"pm10":142.0,"pm2_5":65.4,"mosquito_risk":3,"arthritis_risk":10,"migraine_risk":3,"frizz_risk":0,"updated_at":"2026-03-20T05:03:30.210233+05:30"},{"city":"Mathura","state":"Uttar Pradesh","latitude":27.4924,"longitude":77.6737,"temp":17.6,"humidity":92,"rain":0.0,"pressure":988.9,"uv_index":5.0,"wind_gusts":23.0,"aqi":141,"pm10":132.7,"pm2_5":55.5,"mosquito_risk":3,"arthritis_risk":10,"migraine_risk":3,"frizz_risk":1,"updated_at":"2026-03-20T05:03:30.210239+05:30"},{"city":"Vrindavan","state":"Uttar Pradesh","latitude":27.5823,"longitude":77.7027,"temp":17.4,"humidity":91,"rain":0.0,"pressure":989.4,"uv_index":5.0,"wind_gusts":22.3,"aqi":141,"pm10":132.7,"pm2_5":55.5,"mosquito_risk":3,"arthritis_risk":10,"migraine_risk":3,"frizz_risk":0,"updated_at":"2026-03-20T05:03:30.210245+05:30"},{"city":"Ayodhya","state":"Uttar Pradesh","latitude":26.7922,"longitude":82.1998,"temp":19.7,"humidity":69,"rain":0.0,"pressure":996.4,"uv_index":5.6,"wind_gusts":32.8,"aqi":123,"pm10":77.5,"pm2_5":58.0,"mosquito_risk":3,"arthritis_risk":5,"migraine_risk":3,"frizz_risk":0,"updated_at":"2026-03-20T05:03:30.210252+05:30"},{"city":"Ratlam","state":"Madhya Pradesh","latitude":23.3315,"longitude":75.0367,"temp":20.3,"humidity":80,"rain":0.0,"pressure":955.1,"uv_index":7.75,"wind_gusts":37.8,"aqi":53,"pm10":50.4,"pm2_5":20.4,"mosquito_risk":3,"arthritis_risk":5,"migraine_risk":7,"frizz_risk":1,"updated_at":"2026-03-20T05:03:30.210259+05:30"},{"city":"Sagar","state":"Madhya Pradesh","latitude":23.8388,"longitude":78.7378,"temp":20.4,"humidity":67,"rain":0.0,"pressure":950.1,"uv_index":7.35,"wind_gusts":29.9,"aqi":57,"pm10":31.7,"pm2_5":19.2,"mosquito_risk":3,"arthritis_risk":5,"migraine_risk":7,"frizz_risk":0,"updated_at":"2026-03-20T05:03:30.210265+05:30"},{"city":"Satna","state":"Madhya Pradesh","latitude":24.6005,"longitude":80.8322,"temp":24.4,"humidity":42,"rain":0.0,"pressure":971.5,"uv_index":4.55,"wind_gusts":49.0,"aqi":69,"pm10":25.1,"pm2_5":20.1,"mosquito_risk":0,"arthritis_risk":5,"migraine_risk":3,"frizz_risk":0,"updated_at":"2026-03-20T05:03:30.210272+05:30"},{"city":"Akola","state":"Maharashtra","latitude":20.7002,"longitude":77.0082,"temp":22.0,"humidity":78,"rain":0.0,"pressure":975.9,"uv_index":8.2,"wind_gusts":24.1,"aqi":87,"pm10":31.3,"pm2_5":19.1,"mosquito_risk":3,"arthritis_risk":5,"migraine_risk":7,"frizz_risk":1,"updated_at":"2026-03-20T05:03:30.210279+05:30"},{"city":"Amravati","state":"Maharashtra","latitude":20.9374,"longitude":77.7796,"temp":21.6,"humidity":78,"rain":0.0,"pressure":967.9,"uv_index":7.25,"wind_gusts":21.2,"aqi":93,"pm10":27.2,"pm2_5":17.6,"mosquito_risk":3,"arthritis_risk":5,"migraine_risk":7,"frizz_risk":1,"updated_at":"2026-03-20T05:03:30.210287+05:30"},{"city":"Latur","state":"Maharashtra","latitude":18.4088,"longitude":76.5604,"temp":20.1,"humidity":71,"rain":0.0,"pressure":939.6,"uv_index":8.6,"wind_gusts":29.2,"aqi":78,"pm10":48.3,"pm2_5":32.0,"mosquito_risk":3,"arthritis_risk":5,"migraine_risk":7,"frizz_risk":0,"updated_at":"2026-03-20T05:03:30.210294+05:30"},{"city":"Nanded","state":"Maharashtra","latitude":19.1383,"longitude":77.3091,"temp":21.7,"humidity":76,"rain":0.0,"pressure":969.3,"uv_index":8.4,"wind_gusts":26.6,"aqi":82,"pm10":29.3,"pm2_5":21.2,"mosquito_risk":3,"arthritis_risk":5,"migraine_risk":7,"frizz_risk":1,"updated_at":"2026-03-20T05:03:30.210300+05:30"},{"city":"Gulbarga","state":"Karnataka","latitude":17.3297,"longitude":76.8343,"temp":22.2,"humidity":66,"rain":0.0,"pressure":959.0,"uv_index":8.7,"wind_gusts":24.5,"aqi":74,"pm10":40.2,"pm2_5":25.6,"mosquito_risk":3,"arthritis_risk":5,"migraine_risk":7,"frizz_risk":0,"updated_at":"2026-03-20T05:03:30.210306+05:30"},{"city":"Bidar","state":"Karnataka","latitude":17.9104,"longitude":77.5199,"temp":21.2,"humidity":68,"rain":0.0,"pressure":935.2,"uv_index":8.65,"wind_gusts":24.5,"aqi":78,"pm10":33.6,"pm2_5":24.4,"mosquito_risk":3,"arthritis_risk":5,"migraine_risk":7,"frizz_risk":0,"updated_at":"2026-03-20T05:03:30.210312+05:30"},{"city":"Hospet","state":"Karnataka","latitude":15.2689,"longitude":76.3909,"temp":23.7,"humidity":74,"rain":0.0,"pressure":956.1,"uv_index":8.95,"wind_gusts":21.2,"aqi":73,"pm10":29.5,"pm2_5":23.0,"mosquito_risk":3,"arthritis_risk":5,"migraine_risk":7,"frizz_risk":1,"updated_at":"2026-03-20T05:03:30.210318+05:30"},{"city":"Tirupur","state":"Tamil Nadu","latitude":11.1085,"longitude":77.3411,"temp":22.7,"humidity":86,"rain":0.0,"pressure":976.6,"uv_index":9.35,"wind_gusts":28.1,"aqi":71,"pm10":29.6,"pm2_5":24.3,"mosquito_risk":3,"arthritis_risk":5,"migraine_risk":7,"frizz_risk":1,"updated_at":"2026-03-20T05:03:30.210325+05:30"},{"city":"Alappuzha","state":"Kerala","latitude":9.4981,"longitude":76.3388,"temp":27.7,"humidity":82,"rain":0.0,"pressure":1008.9,"uv_index":9.1,"wind_gusts":30.6,"aqi":58,"pm10":23.1,"pm2_5":20.8,"mosquito_risk":7,"arthritis_risk":0,"migraine_risk":4,"frizz_risk":1,"updated_at":"2026-03-20T05:03:30.210331+05:30"},{"city":"Munnar","state":"Kerala","latitude":10.0889,"longitude":77.0595,"temp":16.9,"humidity":84,"rain":0.0,"pressure":855.2,"uv_index":9.6,"wind_gusts":38.9,"aqi":48,"pm10":14.6,"pm2_5":13.5,"mosquito_risk":3,"arthritis_risk":10,"migraine_risk":7,"frizz_risk":0,"updated_at":"2026-03-20T05:03:30.210339+05:30"},{"city":"Silchar","state":"Assam","latitude":24.8333,"longitude":92.7789,"temp":21.9,"humidity":80,"rain":0.0,"pressure":1007.3,"uv_index":7.45,"wind_gusts":23.4,"aqi":97,"pm10":41.7,"pm2_5":38.5,"mosquito_risk":3,"arthritis_risk":5,"migraine_risk":4,"frizz_risk":1,"updated_at":"2026-03-20T05:03:30.210345+05:30"},{"city":"Dibrugarh","state":"Assam","latitude":27.4728,"longitude":94.912,"temp":18.9,"humidity":93,"rain":0.0,"pressure":1000.6,"uv_index":7.75,"wind_gusts":13.3,"aqi":84,"pm10":32.5,"pm2_5":27.2,"mosquito_risk":3,"arthritis_risk":10,"migraine_risk":4,"frizz_risk":1,"updated_at":"2026-03-20T05:03:30.210352+05:30"}]