[{"city":"Delhi","state":"Delhi","latitude":28.6139,"longitude":77.209,"temp":30.1,"humidity":37,"rain":0.0,"pressure":975.9,"uv_index":7.7,"wind_gusts":40.0,"aqi":184,"pm10":212.8,"pm2_5":113.6,"no2":51.5,"co":379.0,"o3":43.0,"so2":39.2,"mosquito_risk":0,"arthritis_risk":5,"migraine_risk":7,"frizz_risk":0,"updated_at":"2026-05-15T04:29:21.998545+05:30"},{"city":"Mumbai","state":"Maharashtra","latitude":19.076,"longitude":72.8777,"temp":29.1,"humidity":81,"rain":0.0,"pressure":1004.1,"uv_index":7.9,"wind_gusts":47.9,"aqi":71,"pm10":22.8,"pm2_5":14.9,"no2":6.0,"co":235.0,"o3":65.0,"so2":3.6,"mosquito_risk":7,"arthritis_risk":5,"migraine_risk":4,"frizz_risk":1,"updated_at":"2026-05-15T04:29:21.998589+05:30"},{"city":"Bangalore","state":"Karnataka","latitude":12.9716,"longitude":77.5946,"temp":24.2,"humidity":60,"rain":0.0,"pressure":906.9,"uv_index":9.45,"wind_gusts":40.0,"aqi":92,"pm10":51.0,"pm2_5":35.2,"no2":40.1,"co":367.0,"o3":35.0,"so2":11.0,"mosquito_risk":0,"arthritis_risk":5,"migraine_risk":7,"frizz_risk":0,"updated_at":"2026-05-15T04:29:21.998604+05:30"},{"city":"Hyderabad","state":"Telangana","latitude":17.385,"longitude":78.4867,"temp":28.5,"humidity":61,"rain":0.0,"pressure":948.8,"uv_index":7.1,"wind_gusts":32.4,"aqi":99,"pm10":21.1,"pm2_5":17.3,"no2":9.6,"co":260.0,"o3":65.0,"so2":6.3,"mosquito_risk":7,"arthritis_risk":5,"migraine_risk":7,"frizz_risk":1,"updated_at":"2026-05-15T04:29:21.998614+05:30"},{"city":"Chennai","state":"Tamil Nadu","latitude":13.0827,"longitude":80.2707,"temp":28.1,"humidity":87,"rain":0.0,"pressure":1001.0,"uv_index":8.3,"wind_gusts":36.7,"aqi":29,"pm10":12.6,"pm2_5":9.8,"no2":16.2,"co":232.0,"o3":27.0,"so2":14.3,"mosquito_risk":7,"arthritis_risk":5,"migraine_risk":4,"frizz_risk":1,"updated_at":"2026-05-15T04:29:21.998623+05:30"},{"city":"Kolkata","state":"West Bengal","latitude":22.5726,"longitude":88.3639,"temp":27.9,"humidity":85,"rain":0.0,"pressure":1001.4,"uv_index":9.0,"wind_gusts":36.4,"aqi":53,"pm10":10.9,"pm2_5":8.2,"no2":6.0,"co":159.0,"o3":36.0,"so2":3.3,"mosquito_risk":7,"arthritis_risk":5,"migraine_risk":4,"frizz_risk":1,"updated_at":"2026-05-15T04:29:21.998631+05:30"},{"city":"Pune","state":"Maharashtra","latitude":18.5204,"longitude":73.8567,"temp":25.9,"humidity":61,"rain":0.0,"pressure":943.8,"uv_index":8.5,"wind_gusts":43.6,"aqi":78,"pm10":24.8,"pm2_5":17.3,"no2":19.2,"co":215.0,"o3":51.0,"so2":21.7,"mosquito_risk":7,"arthritis_risk":5,"migraine_risk":7,"frizz_risk":1,"updated_at":"2026-05-15T04:29:21.998638+05:30"},{"city":"Ahmedabad","state":"Gujarat","latitude":23.0225,"longitude":72.5714,"temp":29.0,"humidity":69,"rain":0.0,"pressure":996.9,"uv_index":8.15,"wind_gusts":35.6,"aqi":50,"pm10":12.0,"pm2_5":8.8,"no2":4.3,"co":141.0,"o3":49.0,"so2":2.6,"mosquito_risk":7,"arthritis_risk":5,"migraine_risk":7,"frizz_risk":1,"updated_at":"2026-05-15T04:29:21.998644+05:30"},{"city":"Jaipur","state":"Rajasthan","latitude":26.9124,"longitude":75.7873,"temp":29.5,"humidity":40,"rain":0.0,"pressure":953.2,"uv_index":8.25,"wind_gusts":34.9,"aqi":129,"pm10":172.8,"pm2_5":62.2,"no2":9.3,"co":263.0,"o3":84.0,"so2":8.2,"mosquito_risk":4,"arthritis_risk":5,"migraine_risk":7,"frizz_risk":0,"updated_at":"2026-05-15T04:29:21.998657+05:30"},{"city":"Lucknow","state":"Uttar Pradesh","latitude":26.8467,"longitude":80.9462,"temp":27.5,"humidity":69,"rain":0.0,"pressure":987.3,"uv_index":8.2,"wind_gusts":30.2,"aqi":161,"pm10":195.1,"pm2_5":125.7,"no2":70.3,"co":596.0,"o3":12.0,"so2":26.9,"mosquito_risk":7,"arthritis_risk":5,"migraine_risk":7,"frizz_risk":1,"updated_at":"2026-05-15T04:29:21.998664+05:30"},{"city":"Kanpur","state":"Uttar Pradesh","latitude":26.4499,"longitude":80.3319,"temp":28.9,"humidity":63,"rain":0.0,"pressure":985.5,"uv_index":8.2,"wind_gusts":43.6,"aqi":161,"pm10":159.3,"pm2_5":87.3,"no2":33.0,"co":510.0,"o3":41.0,"so2":14.4,"mosquito_risk":7,"arthritis_risk":5,"migraine_risk":7,"frizz_risk":1,"updated_at":"2026-05-15T04:29:21.998672+05:30"},{"city":"Chandigarh","state":"Chandigarh","latitude":30.7333,"longitude":76.7794,"temp":22.2,"humidity":60,"rain":0.0,"pressure":961.1,"uv_index":7.65,"wind_gusts":27.7,"aqi":92,"pm10":31.8,"pm2_5":27.0,"no2":19.4,"co":366.0,"o3":52.0,"so2":8.7,"mosquito_risk":0,"arthritis_risk":5,"migraine_risk":7,"frizz_risk":0,"updated_at":"2026-05-15T04:29:21.998679+05:30"},{"city":"Srinagar","state":"Jammu and Kashmir","latitude":34.0837,"longitude":74.7973,"temp":9.5,"humidity":100,"rain":0.0,"pressure":837.9,"uv_index":8.0,"wind_gusts":36.0,"aqi":70,"pm10":48.3,"pm2_5":44.5,"no2":28.1,"co":445.0,"o3":27.0,"so2":1.0,"mosquito_risk":3,"arthritis_risk":10,"migraine_risk":7,"frizz_risk":0,"updated_at":"2026-05-15T04:29:21.998686+05:30"},{"city":"Jammu","state":"Jammu and Kashmir","latitude":32.7266,"longitude":74.857,"temp":20.9,"humidity":59,"rain":0.0,"pressure":965.4,"uv_index":8.45,"wind_gusts":27.4,"aqi":76,"pm10":23.4,"pm2_5":21.7,"no2":23.0,"co":327.0,"o3":22.0,"so2":1.7,"mosquito_risk":0,"arthritis_risk":5,"migraine_risk":7,"frizz_risk":0,"updated_at":"2026-05-15T04:29:21.998693+05:30"},{"city":"Amritsar","state":"Punjab","latitude":31.634,"longitude":74.8723,"temp":23.5,"humidity":60,"rain":0.0,"pressure":974.2,"uv_index":8.35,"wind_gusts":40.3,"aqi":116,"pm10":51.2,"pm2_5":39.6,"no2":19.7,"co":432.0,"o3":61.0,"so2":7.7,"mosquito_risk":0,"arthritis_risk":5,"migraine_risk":7,"frizz_risk":0,"updated_at":"2026-05-15T04:29:21.998700+05:30"},{"city":"Ludhiana","state":"Punjab","latitude":30.901,"longitude":75.8573,"temp":26.8,"humidity":40,"rain":0.0,"pressure":971.3,"uv_index":7.2,"wind_gusts":41.4,"aqi":122,"pm10":34.7,"pm2_5":31.5,"no2":11.6,"co":366.0,"o3":75.0,"so2":7.1,"mosquito_risk":4,"arthritis_risk":5,"migraine_risk":7,"frizz_risk":0,"updated_at":"2026-05-15T04:29:21.998706+05:30"},{"city":"Jalandhar","state":"Punjab","latitude":31.326,"longitude":75.5762,"temp":25.1,"humidity":47,"rain":0.0,"pressure":972.6,"uv_index":8.05,"wind_gusts":34.9,"aqi":117,"pm10":52.3,"pm2_5":39.9,"no2":15.2,"co":438.0,"o3":60.0,"so2":6.8,"mosquito_risk":4,"arthritis_risk":5,"migraine_risk":7,"frizz_risk":0,"updated_at":"2026-05-15T04:29:21.998713+05:30"},{"city":"Dehradun","state":"Uttarakhand","latitude":30.6284,"longitude":78.0322,"temp":11.1,"humidity":76,"rain":0.0,"pressure":822.3,"uv_index":7.6,"wind_gusts":44.6,"aqi":64,"pm10":18.2,"pm2_5":14.2,"no2":26.5,"co":310.0,"o3":10.0,"so2":0.4,"mosquito_risk":3,"arthritis_risk":5,"migraine_risk":7,"frizz_risk":0,"updated_at":"2026-05-15T04:29:21.998719+05:30"},{"city":"Shimla","state":"Himachal Pradesh","latitude":31.1048,"longitude":77.1734,"temp":11.6,"humidity":43,"rain":0.0,"pressure":778.0,"uv_index":7.35,"wind_gusts":47.5,"aqi":63,"pm10":26.7,"pm2_5":20.1,"no2":25.9,"co":216.0,"o3":39.0,"so2":2.5,"mosquito_risk":0,"arthritis_risk":5,"migraine_risk":7,"frizz_risk":1,"updated_at":"2026-05-15T04:29:21.998729+05:30"},{"city":"Manali","state":"Himachal Pradesh","latitude":32.2396,"longitude":77.1887,"temp":9.0,"humidity":60,"rain":0.0,"pressure":811.1,"uv_index":9.4,"wind_gusts":42.8,"aqi":34,"pm10":9.5,"pm2_5":5.1,"no2":21.8,"co":199.0,"o3":97.0,"so2":0.0,"mosquito_risk":0,"arthritis_risk":5,"migraine_risk":7,"frizz_risk":0,"updated_at":"2026-05-15T04:29:21.998736+05:30"},{"city":"Gurgaon","state":"Haryana","latitude":28.4595,"longitude":77.0266,"temp":28.5,"humidity":41,"rain":0.0,"pressure":974.2,"uv_index":7.8,"wind_gusts":38.2,"aqi":741,"pm10":361.4,"pm2_5":145.3,"no2":30.1,"co":322.0,"o3":61.0,"so2":30.8,"mosquito_risk":4,"arthritis_risk":5,"migraine_risk":7,"frizz_risk":0,"updated_at":"2026-05-15T04:29:21.998745+05:30"},{"city":"Noida","state":"Uttar Pradesh","latitude":28.5355,"longitude":77.391,"temp":28.9,"humidity":48,"rain":0.0,"pressure":977.3,"uv_index":7.7,"wind_gusts":39.2,"aqi":741,"pm10":361.4,"pm2_5":145.3,"no2":30.1,"co":364.0,"o3":61.0,"so2":30.8,"mosquito_risk":4,"arthritis_risk":5,"migraine_risk":7,"frizz_risk":1,"updated_at":"2026-05-15T04:29:21.998751+05:30"},{"city":"Ghaziabad","state":"Uttar Pradesh","latitude":28.6692,"longitude":77.4538,"temp":26.1,"humidity":77,"rain":0.0,"pressure":975.4,"uv_index":7.7,"wind_gusts":48.6,"aqi":178,"pm10":156.9,"pm2_5":103.1,"no2":40.0,"co":354.0,"o3":51.0,"so2":28.2,"mosquito_risk":7,"arthritis_risk":5,"migraine_risk":7,"frizz_risk":1,"updated_at":"2026-05-15T04:29:21.998760+05:30"},{"city":"Faridabad","state":"Haryana","latitude":28.4089,"longitude":77.3178,"temp":30.0,"humidity":37,"rain":0.0,"pressure":976.6,"uv_index":7.75,"wind_gusts":42.8,"aqi":741,"pm10":361.4,"pm2_5":145.3,"no2":30.1,"co":331.0,"o3":61.0,"so2":30.8,"mosquito_risk":4,"arthritis_risk":5,"migraine_risk":7,"frizz_risk":0,"updated_at":"2026-05-15T04:29:21.998766+05:30"},{"city":"Meerut","state":"Uttar Pradesh","latitude":28.9845,"longitude":77.7064,"temp":27.2,"humidity":67,"rain":0.0,"pressure":974.5,"uv_index":7.6,"wind_gusts":60.8,"aqi":178,"pm10":156.9,"pm2_5":103.1,"no2":40.0,"co":317.0,"o3":51.0,"so2":28.2,"mosquito_risk":7,"arthritis_risk":5,"migraine_risk":7,"frizz_risk":1,"updated_at":"2026-05-15T04:29:21.998773+05:30"},{"city":"Agra","state":"Uttar Pradesh","latitude":27.1767,"longitude":78.0081,"temp":29.2,"humidity":57,"rain":0.0,"pressure":980.9,"uv_index":8.05,"wind_gusts":31.0,"aqi":412,"pm10":474.0,"pm2_5":122.5,"no2":15.8,"co":642.0,"o3":70.0,"so2":16.0,"mosquito_risk":4,"arthritis_risk":5,"migraine_risk":7,"frizz_risk":1,"updated_at":"2026-05-15T04:29:21.998780+05:30"},{"city":"Varanasi","state":"Uttar Pradesh","latitude":25.3176,"longitude":82.9739,"temp":28.0,"humidity":70,"rain":0.0,"pressure":991.7,"uv_index":8.75,"wind_gusts":29.5,"aqi":146,"pm10":82.2,"pm2_5":70.3,"no2":28.1,"co":586.0,"o3":54.0,"so2":15.8,"mosquito_risk":7,"arthritis_risk":5,"migraine_risk":7,"frizz_risk":1,"updated_at":"2026-05-15T04:29:21.998786+05:30"},{"city":"Prayagraj","state":"Uttar Pradesh","latitude":25.4358,"longitude":81.8463,"temp":29.1,"humidity":63,"rain":0.0,"pressure":989.7,"uv_index":8.6,"wind_gusts":37.8,"aqi":151,"pm10":92.2,"pm2_5":75.7,"no2":34.2,"co":573.0,"o3":37.0,"so2":14.0,"mosquito_risk":7,"arthritis_risk":5,"migraine_risk":7,"frizz_risk":1,"updated_at":"2026-05-15T04:29:21.998793+05:30"},{"city":"Gorakhpur","state":"Uttar Pradesh","latitude":26.7606,"longitude":83.3732,"temp":25.5,"humidity":80,"rain":0.0,"pressure":992.2,"uv_index":8.6,"wind_gusts":30.2,"aqi":125,"pm10":66.8,"pm2_5":58.8,"no2":17.0,"co":619.0,"o3":82.0,"so2":14.6,"mosquito_risk":7,"arthritis_risk":5,"migraine_risk":7,"frizz_risk":1,"updated_at":"2026-05-15T04:29:21.998802+05:30"},{"city":"Bareilly","state":"Uttar Pradesh","latitude":28.367,"longitude":79.4304,"temp":24.7,"humidity":86,"rain":0.0,"pressure":980.2,"uv_index":8.0,"wind_gusts":34.6,"aqi":156,"pm10":143.9,"pm2_5":110.4,"no2":55.0,"co":661.0,"o3":31.0,"so2":21.2,"mosquito_risk":3,"arthritis_risk":5,"migraine_risk":7,"frizz_risk":1,"updated_at":"2026-05-15T04:29:21.998808+05:30"},{"city":"Aligarh","state":"Uttar Pradesh","latitude":27.8974,"longitude":78.088,"temp":27.2,"humidity":72,"rain":0.0,"pressure":978.4,"uv_index":7.85,"wind_gusts":32.0,"aqi":348,"pm10":265.4,"pm2_5":104.3,"no2":20.4,"co":612.0,"o3":68.0,"so2":17.8,"mosquito_risk":7,"arthritis_risk":5,"migraine_risk":7,"frizz_risk":1,"updated_at":"2026-05-15T04:29:21.998814+05:30"},{"city":"Moradabad","state":"Uttar Pradesh","latitude":28.8386,"longitude":78.7733,"temp":25.7,"humidity":79,"rain":0.0,"pressure":976.9,"uv_index":7.8,"wind_gusts":33.8,"aqi":165,"pm10":176.5,"pm2_5":152.3,"no2":79.6,"co":648.0,"o3":17.0,"so2":29.2,"mosquito_risk":7,"arthritis_risk":5,"migraine_risk":7,"frizz_risk":1,"updated_at":"2026-05-15T04:29:21.998820+05:30"},{"city":"Saharanpur","state":"Uttar Pradesh","latitude":29.9637,"longitude":77.546,"temp":22.8,"humidity":77,"rain":0.0,"pressure":968.8,"uv_index":7.25,"wind_gusts":39.2,"aqi":153,"pm10":122.5,"pm2_5":95.7,"no2":53.8,"co":491.0,"o3":26.0,"so2":18.0,"mosquito_risk":3,"arthritis_risk":5,"migraine_risk":7,"frizz_risk":1,"updated_at":"2026-05-15T04:29:21.998827+05:30"},{"city":"Jhansi","state":"Uttar Pradesh","latitude":25.4484,"longitude":78.5685,"temp":29.0,"humidity":50,"rain":0.0,"pressure":971.0,"uv_index":8.5,"wind_gusts":25.2,"aqi":115,"pm10":92.2,"pm2_5":39.1,"no2":9.5,"co":379.0,"o3":48.0,"so2":6.1,"mosquito_risk":4,"arthritis_risk":5,"migraine_risk":7,"frizz_risk":1,"updated_at":"2026-05-15T04:29:25.389946+05:30"},{"city":"Surat","state":"Gujarat","latitude":21.1702,"longitude":72.8311,"temp":29.8,"humidity":57,"rain":0.0,"pressure":1001.5,"uv_index":7.75,"wind_gusts":42.1,"aqi":87,"pm10":25.3,"pm2_5":23.3,"no2":31.9,"co":314.0,"o3":37.0,"so2":40.0,"mosquito_risk":4,"arthritis_risk":5,"migraine_risk":4,"frizz_risk":1,"updated_at":"2026-05-15T04:29:25.389977+05:30"},{"city":"Vadodara","state":"Gujarat","latitude":22.3072,"longitude":73.1812,"temp":30.1,"humidity":49,"rain":0.0,"pressure":999.0,"uv_index":8.1,"wind_gusts":34.2,"aqi":64,"pm10":14.2,"pm2_5":11.8,"no2":7.1,"co":170.0,"o3":58.0,"so2":5.5,"mosquito_risk":0,"arthritis_risk":5,"migraine_risk":7,"frizz_risk":1,"updated_at":"2026-05-15T04:29:25.389987+05:30"},{"city":"Rajkot","state":"Gujarat","latitude":22.3039,"longitude":70.8022,"temp":26.4,"humidity":87,"rain":0.0,"pressure":989.9,"uv_index":7.75,"wind_gusts":45.4,"aqi":43,"pm10":9.2,"pm2_5":6.6,"no2":6.1,"co":122.0,"o3":38.0,"so2":6.5,"mosquito_risk":7,"arthritis_risk":5,"migraine_risk":7,"frizz_risk":1,"updated_at":"2026-05-15T04:29:25.389996+05:30"},{"city":"Thane","state":"Maharashtra","latitude":19.2183,"longitude":72.9781,"temp":28.9,"humidity":80,"rain":0.0,"pressure":1003.6,"uv_index":7.85,"wind_gusts":42.5,"aqi":71,"pm10":22.8,"pm2_5":14.9,"no2":6.0,"co":231.0,"o3":65.0,"so2":3.6,"mosquito_risk":7,"arthritis_risk":5,"migraine_risk":4,"frizz_risk":1,"updated_at":"2026-05-15T04:29:25.390004+05:30"},{"city":"Nagpur","state":"Maharashtra","latitude":21.1458,"longitude":79.0882,"temp":32.5,"humidity":44,"rain":0.0,"pressure":967.1,"uv_index":9.0,"wind_gusts":41.4,"aqi":119,"pm10":58.4,"pm2_5":44.7,"no2":15.8,"co":308.0,"o3":84.0,"so2":23.6,"mosquito_risk":0,"arthritis_risk":5,"migraine_risk":7,"frizz_risk":1,"updated_at":"2026-05-15T04:29:25.390013+05:30"},{"city":"Nashik","state":"Maharashtra","latitude":19.9975,"longitude":73.7898,"temp":26.0,"humidity":69,"rain":0.0,"pressure":941.5,"uv_index":8.15,"wind_gusts":45.0,"aqi":61,"pm10":15.8,"pm2_5":11.7,"no2":9.8,"co":165.0,"o3":49.0,"so2":2.4,"mosquito_risk":7,"arthritis_risk":5,"migraine_risk":7,"frizz_risk":1,"updated_at":"2026-05-15T04:29:25.390021+05:30"},{"city":"Aurangabad","state":"Maharashtra","latitude":19.8762,"longitude":75.3433,"temp":28.8,"humidity":42,"rain":0.0,"pressure":939.3,"uv_index":8.15,"wind_gusts":40.3,"aqi":76,"pm10":20.5,"pm2_5":13.5,"no2":8.4,"co":206.0,"o3":86.0,"so2":7.8,"mosquito_risk":4,"arthritis_risk":5,"migraine_risk":7,"frizz_risk":0,"updated_at":"2026-05-15T04:29:25.390028+05:30"},{"city":"Solapur","state":"Maharashtra","latitude":17.6599,"longitude":75.9064,"temp":30.1,"humidity":57,"rain":0.0,"pressure":952.4,"uv_index":8.55,"wind_gusts":37.8,"aqi":105,"pm10":39.9,"pm2_5":30.6,"no2":9.4,"co":236.0,"o3":86.0,"so2":7.2,"mosquito_risk":0,"arthritis_risk":5,"migraine_risk":7,"frizz_risk":1,"updated_at":"2026-05-15T04:29:25.390036+05:30"},{"city":"Kolhapur","state":"Maharashtra","latitude":16.705,"longitude":74.2433,"temp":24.0,"humidity":91,"rain":0.0,"pressure":943.9,"uv_index":8.15,"wind_gusts":43.9,"aqi":82,"pm10":22.6,"pm2_5":16.6,"no2":10.3,"co":225.0,"o3":62.0,"so2":5.2,"mosquito_risk":3,"arthritis_risk":5,"migraine_risk":7,"frizz_risk":1,"updated_at":"2026-05-15T04:29:25.390043+05:30"},{"city":"Goa","state":"Goa","latitude":15.2993,"longitude":74.124,"temp":28.3,"humidity":86,"rain":0.0,"pressure":993.4,"uv_index":4.25,"wind_gusts":40.7,"aqi":79,"pm10":28.8,"pm2_5":22.1,"no2":8.3,"co":400.0,"o3":55.0,"so2":2.3,"mosquito_risk":7,"arthritis_risk":5,"migraine_risk":3,"frizz_risk":1,"updated_at":"2026-05-15T04:29:25.390050+05:30"},{"city":"Jodhpur","state":"Rajasthan","latitude":26.2389,"longitude":73.0243,"temp":30.5,"humidity":39,"rain":0.0,"pressure":976.8,"uv_index":8.4,"wind_gusts":37.1,"aqi":119,"pm10":360.4,"pm2_5":81.5,"no2":6.1,"co":185.0,"o3":62.0,"so2":3.9,"mosquito_risk":0,"arthritis_risk":5,"migraine_risk":7,"frizz_risk":0,"updated_at":"2026-05-15T04:29:25.390058+05:30"},{"city":"Udaipur","state":"Rajasthan","latitude":24.5854,"longitude":73.7125,"temp":28.6,"humidity":32,"rain":0.0,"pressure":941.4,"uv_index":8.85,"wind_gusts":38.2,"aqi":70,"pm10":15.2,"pm2_5":9.0,"no2":2.2,"co":143.0,"o3":73.0,"so2":2.6,"mosquito_risk":4,"arthritis_risk":5,"migraine_risk":7,"frizz_risk":0,"updated_at":"2026-05-15T04:29:25.390065+05:30"},{"city":"Kota","state":"Rajasthan","latitude":25.2138,"longitude":75.8648,"temp":31.0,"humidity":32,"rain":0.0,"pressure":972.3,"uv_index":8.45,"wind_gusts":34.6,"aqi":92,"pm10":59.3,"pm2_5":38.4,"no2":17.4,"co":220.0,"o3":34.0,"so2":5.7,"mosquito_risk":0,"arthritis_risk":5,"migraine_risk":7,"frizz_risk":0,"updated_at":"2026-05-15T04:29:25.390072+05:30"},{"city":"Bikaner","state":"Rajasthan","latitude":28.0229,"longitude":73.3119,"temp":27.0,"humidity":61,"rain":0.0,"pressure":974.7,"uv_index":8.35,"wind_gusts":58.0,"aqi":88,"pm10":55.1,"pm2_5":25.9,"no2":3.4,"co":274.0,"o3":81.0,"so2":4.3,"mosquito_risk":7,"arthritis_risk":5,"migraine_risk":7,"frizz_risk":1,"updated_at":"2026-05-15T04:29:25.390080+05:30"},{"city":"Ajmer","state":"Rajasthan","latitude":26.4499,"longitude":74.6399,"temp":29.6,"humidity":35,"rain":0.0,"pressure":948.5,"uv_index":7.6,"wind_gusts":49.3,"aqi":86,"pm10":102.9,"pm2_5":35.5,"no2":6.4,"co":195.0,"o3":67.0,"so2":5.1,"mosquito_risk":4,"arthritis_risk":5,"migraine_risk":7,"frizz_risk":0,"updated_at":"2026-05-15T04:29:25.390087+05:30"},{"city":"Gwalior","state":"Madhya Pradesh","latitude":26.2183,"longitude":78.1828,"temp":29.0,"humidity":46,"rain":0.0,"pressure":976.5,"uv_index":8.25,"wind_gusts":43.6,"aqi":139,"pm10":165.3,"pm2_5":57.0,"no2":13.8,"co":380.0,"o3":44.0,"so2":7.5,"mosquito_risk":4,"arthritis_risk":5,"migraine_risk":7,"frizz_risk":1,"updated_at":"2026-05-15T04:29:25.390094+05:30"},{"city":"Indore","state":"Madhya Pradesh","latitude":22.7196,"longitude":75.8577,"temp":29.6,"humidity":40,"rain":0.0,"pressure":943.0,"uv_index":8.7,"wind_gusts":43.6,"aqi":79,"pm10":33.3,"pm2_5":18.1,"no2":4.4,"co":241.0,"o3":86.0,"so2":5.9,"mosquito_risk":4,"arthritis_risk":5,"migraine_risk":7,"frizz_risk":0,"updated_at":"2026-05-15T04:29:25.390101+05:30"},{"city":"Bhopal","state":"Madhya Pradesh","latitude":23.2599,"longitude":77.4126,"temp":31.6,"humidity":30,"rain":0.0,"pressure":947.2,"uv_index":8.7,"wind_gusts":38.9,"aqi":85,"pm10":38.1,"pm2_5":26.8,"no2":7.3,"co":245.0,"o3":61.0,"so2":5.7,"mosquito_risk":0,"arthritis_risk":5,"migraine_risk":7,"frizz_risk":0,"updated_at":"2026-05-15T04:29:25.390108+05:30"},{"city":"Jabalpur","state":"Madhya Pradesh","latitude":23.1815,"longitude":79.9864,"temp":31.4,"humidity":40,"rain":0.0,"pressure":955.2,"uv_index":8.9,"wind_gusts":35.6,"aqi":99,"pm10":67.8,"pm2_5":31.5,"no2":16.8,"co":321.0,"o3":57.0,"so2":7.4,"mosquito_risk":0,"arthritis_risk":5,"migraine_risk":7,"frizz_risk":1,"updated_at":"2026-05-15T04:29:25.390114+05:30"},{"city":"Ujjain","state":"Madhya Pradesh","latitude":23.1765,"longitude":75.7885,"temp":29.7,"humidity":32,"rain":0.0,"pressure":948.2,"uv_index":8.65,"wind_gusts":41.8,"aqi":78,"pm10":28.9,"pm2_5":16.8,"no2":4.1,"co":258.0,"o3":77.0,"so2":5.2,"mosquito_risk":4,"arthritis_risk":5,"migraine_risk":7,"frizz_risk":0,"updated_at":"2026-05-15T04:29:25.390122+05:30"},{"city":"Visakhapatnam","state":"Andhra Pradesh","latitude":17.6868,"longitude":83.2185,"temp":26.9,"humidity":92,"rain":0.0,"pressure":999.1,"uv_index":8.7,"wind_gusts":36.7,"aqi":66,"pm10":29.3,"pm2_5":26.0,"no2":27.0,"co":546.0,"o3":24.0,"so2":82.8,"mosquito_risk":7,"arthritis_risk":5,"migraine_risk":7,"frizz_risk":1,"updated_at":"2026-05-15T04:29:25.390129+05:30"},{"city":"Vijayawada","state":"Andhra Pradesh","latitude":16.5062,"longitude":80.648,"temp":28.0,"humidity":87,"rain":0.0,"pressure":997.5,"uv_index":8.55,"wind_gusts":44.3,"aqi":55,"pm10":12.2,"pm2_5":10.2,"no2":10.6,"co":183.0,"o3":29.0,"so2":6.4,"mosquito_risk":7,"arthritis_risk":5,"migraine_risk":7,"frizz_risk":1,"updated_at":"2026-05-15T04:29:25.390136+05:30"},{"city":"Guntur","state":"Andhra Pradesh","latitude":16.3067,"longitude":80.4365,"temp":27.9,"humidity":87,"rain":0.0,"pressure":998.8,"uv_index":8.65,"wind_gusts":39.2,"aqi":55,"pm10":11.3,"pm2_5":9.1,"no2":9.0,"co":176.0,"o3":30.0,"so2":6.0,"mosquito_risk":7,"arthritis_risk":5,"migraine_risk":7,"frizz_risk":1,"updated_at":"2026-05-15T04:29:25.390143+05:30"},{"city":"Nellore","state":"Andhra Pradesh","latitude":14.4426,"longitude":79.9865,"temp":26.7,"humidity":96,"rain":0.0,"pressure":1000.0,"uv_index":8.55,"wind_gusts":38.9,"aqi":32,"pm10":10.4,"pm2_5":7.2,"no2":6.8,"co":221.0,"o3":32.0,"so2":3.0,"mosquito_risk":7,"arthritis_risk":5,"migraine_risk":4,"frizz_risk":1,"updated_at":"2026-05-15T04:29:25.390172+05:30"},{"city":"Kurnool","state":"Andhra Pradesh","latitude":15.8281,"longitude":78.0373,"temp":31.5,"humidity":48,"rain":0.0,"pressure":972.2,"uv_index":6.6,"wind_gusts":37.8,"aqi":74,"pm10":25.5,"pm2_5":19.2,"no2":7.1,"co":272.0,"o3":70.0,"so2":4.9,"mosquito_risk":0,"arthritis_risk":5,"migraine_risk":7,"frizz_risk":1,"updated_at":"2026-05-15T04:29:25.390182+05:30"},{"city":"Kakinada","state":"Andhra Pradesh","latitude":16.9891,"longitude":82.2475,"temp":28.0,"humidity":84,"rain":0.0,"pressure":1002.6,"uv_index":8.45,"wind_gusts":38.5,"aqi":31,"pm10":9.6,"pm2_5":5.7,"no2":1.6,"co":200.0,"o3":50.0,"so2":0.9,"mosquito_risk":7,"arthritis_risk":5,"migraine_risk":4,"frizz_risk":1,"updated_at":"2026-05-15T04:29:25.390190+05:30"},{"city":"Tirupati","state":"Andhra Pradesh","latitude":13.6288,"longitude":79.4192,"temp":26.4,"humidity":87,"rain":0.0,"pressure":985.3,"uv_index":9.25,"wind_gusts":34.2,"aqi":59,"pm10":29.3,"pm2_5":25.1,"no2":31.1,"co":286.0,"o3":0.0,"so2":6.2,"mosquito_risk":7,"arthritis_risk":5,"migraine_risk":7,"frizz_risk":1,"updated_at":"2026-05-15T04:29:25.390197+05:30"},{"city":"Warangal","state":"Telangana","latitude":17.9689,"longitude":79.5941,"temp":27.8,"humidity":77,"rain":0.0,"pressure":973.9,"uv_index":8.9,"wind_gusts":33.8,"aqi":79,"pm10":18.1,"pm2_5":14.4,"no2":10.8,"co":243.0,"o3":42.0,"so2":9.9,"mosquito_risk":7,"arthritis_risk":5,"migraine_risk":7,"frizz_risk":1,"updated_at":"2026-05-15T04:29:25.390204+05:30"},{"city":"Nizamabad","state":"Telangana","latitude":18.6725,"longitude":78.0941,"temp":30.5,"humidity":51,"rain":0.0,"pressure":960.0,"uv_index":9.0,"wind_gusts":34.2,"aqi":131,"pm10":50.2,"pm2_5":41.2,"no2":12.9,"co":386.0,"o3":80.0,"so2":7.4,"mosquito_risk":0,"arthritis_risk":5,"migraine_risk":7,"frizz_risk":1,"updated_at":"2026-05-15T04:29:25.390211+05:30"},{"city":"Mysore","state":"Karnataka","latitude":12.2958,"longitude":76.6396,"temp":22.9,"humidity":96,"rain":0.0,"pressure":923.7,"uv_index":9.1,"wind_gusts":31.3,"aqi":85,"pm10":23.5,"pm2_5":18.6,"no2":10.4,"co":220.0,"o3":66.0,"so2":2.5,"mosquito_risk":3,"arthritis_risk":5,"migraine_risk":7,"frizz_risk":1,"updated_at":"2026-05-15T04:29:25.390218+05:30"},{"city":"Mangalore","state":"Karnataka","latitude":12.9141,"longitude":74.856,"temp":26.6,"humidity":96,"rain":0.0,"pressure":1002.3,"uv_index":8.75,"wind_gusts":51.1,"aqi":80,"pm10":34.7,"pm2_5":26.5,"no2":11.9,"co":274.0,"o3":49.0,"so2":4.4,"mosquito_risk":7,"arthritis_risk":5,"migraine_risk":4,"frizz_risk":1,"updated_at":"2026-05-15T04:29:25.390225+05:30"},{"city":"Hubli-Dharwad","state":"Karnataka","latitude":15.3647,"longitude":75.124,"temp":24.6,"humidity":95,"rain":0.0,"pressure":936.3,"uv_index":8.05,"wind_gusts":52.2,"aqi":78,"pm10":14.1,"pm2_5":10.6,"no2":9.8,"co":202.0,"o3":39.0,"so2":2.0,"mosquito_risk":3,"arthritis_risk":5,"migraine_risk":7,"frizz_risk":1,"updated_at":"2026-05-15T04:29:25.390232+05:30"},{"city":"Belgaum","state":"Karnataka","latitude":15.8497,"longitude":74.4977,"temp":23.0,"humidity":97,"rain":0.0,"pressure":921.6,"uv_index":8.25,"wind_gusts":39.2,"aqi":83,"pm10":24.7,"pm2_5":19.0,"no2":14.7,"co":228.0,"o3":37.0,"so2":2.5,"mosquito_risk":3,"arthritis_risk":5,"migraine_risk":7,"frizz_risk":1,"updated_at":"2026-05-15T04:29:28.779852+05:30"},{"city":"Coimbatore","state":"Tamil Nadu","latitude":11.0168,"longitude":76.9558,"temp":23.1,"humidity":95,"rain":0.0,"pressure":956.0,"uv_index":8.6,"wind_gusts":42.5,"aqi":71,"pm10":23.6,"pm2_5":16.2,"no2":6.6,"co":213.0,"o3":72.0,"so2":3.1,"mosquito_risk":3,"arthritis_risk":5,"migraine_risk":7,"frizz_risk":1,"updated_at":"2026-05-15T04:29:28.779884+05:30"},{"city":"Madurai","state":"Tamil Nadu","latitude":9.9252,"longitude":78.1198,"temp":27.1,"humidity":94,"rain":0.0,"pressure":987.2,"uv_index":7.7,"wind_gusts":43.9,"aqi":94,"pm10":33.9,"pm2_5":30.0,"no2":40.2,"co":341.0,"o3":5.0,"so2":5.6,"mosquito_risk":7,"arthritis_risk":5,"migraine_risk":7,"frizz_risk":1,"updated_at":"2026-05-15T04:29:28.779895+05:30"},{"city":"Trichy","state":"Tamil Nadu","latitude":10.7905,"longitude":78.7047,"temp":27.1,"humidity":79,"rain":0.0,"pressure":993.9,"uv_index":4.4,"wind_gusts":28.1,"aqi":89,"pm10":33.4,"pm2_5":28.7,"no2":20.6,"co":258.0,"o3":52.0,"so2":5.9,"mosquito_risk":7,"arthritis_risk":5,"migraine_risk":3,"frizz_risk":1,"updated_at":"2026-05-15T04:29:28.779909+05:30"},{"city":"Salem","state":"Tamil Nadu","latitude":11.6643,"longitude":78.146,"temp":25.8,"humidity":85,"rain":0.0,"pressure":971.7,"uv_index":9.15,"wind_gusts":29.2,"aqi":109,"pm10":42.6,"pm2_5":34.9,"no2":21.4,"co":393.0,"o3":55.0,"so2":9.3,"mosquito_risk":7,"arthritis_risk":5,"migraine_risk":7,"frizz_risk":1,"updated_at":"2026-05-15T04:29:28.779918+05:30"},{"city":"Tirunelveli","state":"Tamil Nadu","latitude":8.7139,"longitude":77.7567,"temp":28.8,"humidity":74,"rain":0.0,"pressure":997.5,"uv_index":1.6,"wind_gusts":24.1,"aqi":51,"pm10":9.5,"pm2_5":7.8,"no2":5.2,"co":190.0,"o3":61.0,"so2":2.1,"mosquito_risk":7,"arthritis_risk":5,"migraine_risk":3,"frizz_risk":1,"updated_at":"2026-05-15T04:29:28.779926+05:30"},{"city":"Vellore","state":"Tamil Nadu","latitude":12.9165,"longitude":79.1325,"temp":26.0,"humidity":90,"rain":0.0,"pressure":978.8,"uv_index":9.25,"wind_gusts":31.0,"aqi":79,"pm10":46.3,"pm2_5":41.8,"no2":33.3,"co":358.0,"o3":9.0,"so2":9.8,"mosquito_risk":7,"arthritis_risk":5,"migraine_risk":7,"frizz_risk":1,"updated_at":"2026-05-15T04:29:28.779934+05:30"},{"city":"Erode","state":"Tamil Nadu","latitude":11.341,"longitude":77.7172,"temp":25.7,"humidity":86,"rain":0.0,"pressure":983.3,"uv_index":8.85,"wind_gusts":27.4,"aqi":85,"pm10":19.3,"pm2_5":15.1,"no2":17.9,"co":244.0,"o3":52.0,"so2":3.3,"mosquito_risk":7,"arthritis_risk":5,"migraine_risk":7,"frizz_risk":1,"updated_at":"2026-05-15T04:29:28.779941+05:30"},{"city":"Kochi","state":"Kerala","latitude":9.9312,"longitude":76.2673,"temp":26.4,"humidity":91,"rain":0.0,"pressure":1003.6,"uv_index":8.65,"wind_gusts":37.8,"aqi":66,"pm10":18.9,"pm2_5":15.0,"no2":14.9,"co":296.0,"o3":39.0,"so2":6.1,"mosquito_risk":7,"arthritis_risk":5,"migraine_risk":4,"frizz_risk":1,"updated_at":"2026-05-15T04:29:28.779949+05:30"},{"city":"Thiruvananthapuram","state":"Kerala","latitude":8.5241,"longitude":76.9366,"temp":25.6,"humidity":91,"rain":0.0,"pressure":1003.2,"uv_index":1.45,"wind_gusts":29.9,"aqi":53,"pm10":25.1,"pm2_5":13.6,"no2":2.8,"co":255.0,"o3":80.0,"so2":1.8,"mosquito_risk":7,"arthritis_risk":5,"migraine_risk":0,"frizz_risk":1,"updated_at":"2026-05-15T04:29:28.779957+05:30"},{"city":"Kozhikode","state":"Kerala","latitude":11.2588,"longitude":75.7804,"temp":24.3,"humidity":96,"rain":0.0,"pressure":1003.0,"uv_index":8.75,"wind_gusts":43.6,"aqi":68,"pm10":15.2,"pm2_5":7.8,"no2":1.5,"co":266.0,"o3":88.0,"so2":1.2,"mosquito_risk":3,"arthritis_risk":5,"migraine_risk":4,"frizz_risk":1,"updated_at":"2026-05-15T04:29:28.779965+05:30"},{"city":"Thrissur","state":"Kerala","latitude":10.5276,"longitude":76.2144,"temp":24.8,"humidity":99,"rain":0.0,"pressure":1002.2,"uv_index":8.6,"wind_gusts":32.8,"aqi":69,"pm10":16.8,"pm2_5":12.9,"no2":12.5,"co":295.0,"o3":44.0,"so2":5.8,"mosquito_risk":3,"arthritis_risk":5,"migraine_risk":4,"frizz_risk":1,"updated_at":"2026-05-15T04:29:28.779973+05:30"},{"city":"Kannur","state":"Kerala","latitude":11.8745,"longitude":75.3704,"temp":24.7,"humidity":98,"rain":0.0,"pressure":1002.2,"uv_index":8.85,"wind_gusts":51.5,"aqi":80,"pm10":17.2,"pm2_5":11.7,"no2":8.7,"co":322.0,"o3":50.0,"so2":2.8,"mosquito_risk":3,"arthritis_risk":5,"migraine_risk":4,"frizz_risk":1,"updated_at":"2026-05-15T04:29:28.779980+05:30"},{"city":"Patna","state":"Bihar","latitude":25.5941,"longitude":85.1376,"temp":25.8,"humidity":84,"rain":0.0,"pressure":995.1,"uv_index":8.8,"wind_gusts":28.8,"aqi":117,"pm10":54.5,"pm2_5":44.2,"no2":17.6,"co":496.0,"o3":70.0,"so2":17.1,"mosquito_risk":7,"arthritis_risk":5,"migraine_risk":7,"frizz_risk":1,"updated_at":"2026-05-15T04:29:28.779987+05:30"},{"city":"Gaya","state":"Bihar","latitude":24.7914,"longitude":85.0002,"temp":26.0,"humidity":79,"rain":0.0,"pressure":988.0,"uv_index":8.9,"wind_gusts":23.0,"aqi":139,"pm10":66.1,"pm2_5":55.5,"no2":23.1,"co":508.0,"o3":60.0,"so2":15.0,"mosquito_risk":7,"arthritis_risk":5,"migraine_risk":7,"frizz_risk":1,"updated_at":"2026-05-15T04:29:28.779994+05:30"},{"city":"Muzaffarpur","state":"Bihar","latitude":26.1209,"longitude":85.3647,"temp":24.8,"humidity":87,"rain":0.0,"pressure":995.8,"uv_index":8.8,"wind_gusts":32.4,"aqi":124,"pm10":55.9,"pm2_5":47.8,"no2":18.7,"co":483.0,"o3":61.0,"so2":14.2,"mosquito_risk":3,"arthritis_risk":5,"migraine_risk":7,"frizz_risk":1,"updated_at":"2026-05-15T04:29:28.780001+05:30"},{"city":"Bhagalpur","state":"Bihar","latitude":25.2425,"longitude":87.0117,"temp":25.1,"humidity":93,"rain":0.0,"pressure":996.6,"uv_index":8.8,"wind_gusts":32.8,"aqi":106,"pm10":53.4,"pm2_5":45.6,"no2":15.3,"co":457.0,"o3":77.0,"so2":13.8,"mosquito_risk":7,"arthritis_risk":5,"migraine_risk":7,"frizz_risk":1,"updated_at":"2026-05-15T04:29:28.780008+05:30"},{"city":"Ranchi","state":"Jharkhand","latitude":23.3441,"longitude":85.3096,"temp":23.2,"humidity":94,"rain":0.0,"pressure":933.2,"uv_index":9.3,"wind_gusts":38.2,"aqi":99,"pm10":36.2,"pm2_5":30.2,"no2":13.0,"co":236.0,"o3":74.0,"so2":27.3,"mosquito_risk":3,"arthritis_risk":5,"migraine_risk":7,"frizz_risk":1,"updated_at":"2026-05-15T04:29:28.780015+05:30"},{"city":"Jamshedpur","state":"Jharkhand","latitude":22.8046,"longitude":86.2029,"temp":26.6,"humidity":85,"rain":0.0,"pressure":986.1,"uv_index":9.15,"wind_gusts":43.2,"aqi":83,"pm10":15.7,"pm2_5":13.1,"no2":16.8,"co":246.0,"o3":30.0,"so2":18.3,"mosquito_risk":7,"arthritis_risk":5,"migraine_risk":7,"frizz_risk":1,"updated_at":"2026-05-15T04:29:28.780022+05:30"},{"city":"Dhanbad","state":"Jharkhand","latitude":23.7957,"longitude":86.4304,"temp":26.5,"humidity":89,"rain":0.0,"pressure":974.8,"uv_index":9.05,"wind_gusts":32.4,"aqi":150,"pm10":34.7,"pm2_5":31.1,"no2":38.4,"co":1106.0,"o3":23.0,"so2":81.9,"mosquito_risk":7,"arthritis_risk":5,"migraine_risk":7,"frizz_risk":1,"updated_at":"2026-05-15T04:29:28.780029+05:30"},{"city":"Bokaro","state":"Jharkhand","latitude":23.6693,"longitude":86.1511,"temp":26.9,"humidity":81,"rain":0.0,"pressure":978.5,"uv_index":9.1,"wind_gusts":33.5,"aqi":149,"pm10":44.1,"pm2_5":36.3,"no2":27.8,"co":707.0,"o3":52.0,"so2":60.3,"mosquito_risk":7,"arthritis_risk":5,"migraine_risk":7,"frizz_risk":1,"updated_at":"2026-05-15T04:29:28.780036+05:30"},{"city":"Bhubaneswar","state":"Odisha","latitude":20.2961,"longitude":85.8245,"temp":27.7,"humidity":86,"rain":0.0,"pressure":998.0,"uv_index":9.2,"wind_gusts":41.8,"aqi":36,"pm10":9.7,"pm2_5":7.1,"no2":5.7,"co":148.0,"o3":40.0,"so2":2.4,"mosquito_risk":7,"arthritis_risk":5,"migraine_risk":7,"frizz_risk":1,"updated_at":"2026-05-15T04:29:28.780043+05:30"},{"city":"Cuttack","state":"Odisha","latitude":20.4625,"longitude":85.8828,"temp":27.8,"humidity":87,"rain":0.0,"pressure":999.9,"uv_index":9.25,"wind_gusts":40.7,"aqi":36,"pm10":9.7,"pm2_5":7.1,"no2":5.7,"co":159.0,"o3":40.0,"so2":2.4,"mosquito_risk":7,"arthritis_risk":5,"migraine_risk":7,"frizz_risk":1,"updated_at":"2026-05-15T04:29:28.780050+05:30"},{"city":"Rourkela","state":"Odisha","latitude":22.2604,"longitude":84.8536,"temp":26.2,"humidity":90,"rain":0.0,"pressure":980.3,"uv_index":9.05,"wind_gusts":44.6,"aqi":101,"pm10":17.5,"pm2_5":13.6,"no2":19.0,"co":176.0,"o3":27.0,"so2":21.4,"mosquito_risk":7,"arthritis_risk":5,"migraine_risk":7,"frizz_risk":1,"updated_at":"2026-05-15T04:29:28.780057+05:30"},{"city":"Raipur","state":"Chhattisgarh","latitude":21.2514,"longitude":81.6296,"temp":31.0,"humidity":47,"rain":0.0,"pressure":969.3,"uv_index":9.05,"wind_gusts":37.8,"aqi":150,"pm10":61.5,"pm2_5":47.8,"no2":29.6,"co":340.0,"o3":56.0,"so2":36.7,"mosquito_risk":0,"arthritis_risk":5,"migraine_risk":7,"frizz_risk":1,"updated_at":"2026-05-15T04:29:28.780064+05:30"},{"city":"Bhilai","state":"Chhattisgarh","latitude":21.1938,"longitude":81.3509,"temp":31.0,"humidity":50,"rain":0.0,"pressure":969.8,"uv_index":9.05,"wind_gusts":43.2,"aqi":136,"pm10":51.2,"pm2_5":40.9,"no2":26.4,"co":476.0,"o3":70.0,"so2":40.3,"mosquito_risk":0,"arthritis_risk":5,"migraine_risk":7,"frizz_risk":1,"updated_at":"2026-05-15T04:29:28.780070+05:30"},{"city":"Guwahati","state":"Assam","latitude":26.1158,"longitude":91.7086,"temp":21.8,"humidity":99,"rain":0.5,"pressure":998.8,"uv_index":8.7,"wind_gusts":23.8,"aqi":53,"pm10":12.3,"pm2_5":9.2,"no2":6.7,"co":285.0,"o3":73.0,"so2":2.4,"mosquito_risk":6,"arthritis_risk":5,"migraine_risk":7,"frizz_risk":1,"updated_at":"2026-05-15T04:29:28.780077+05:30"},{"city":"Agartala","state":"Tripura","latitude":23.8315,"longitude":91.2868,"temp":25.0,"humidity":98,"rain":0.0,"pressure":1002.3,"uv_index":8.8,"wind_gusts":35.3,"aqi":53,"pm10":14.1,"pm2_5":9.7,"no2":11.0,"co":136.0,"o3":21.0,"so2":2.4,"mosquito_risk":7,"arthritis_risk":5,"migraine_risk":4,"frizz_risk":1,"updated_at":"2026-05-15T04:29:28.780084+05:30"},{"city":"Shillong","state":"Meghalaya","latitude":25.5788,"longitude":91.8933,"temp":16.8,"humidity":97,"rain":0.0,"pressure":853.0,"uv_index":8.95,"wind_gusts":27.4,"aqi":39,"pm10":5.4,"pm2_5":3.0,"no2":4.2,"co":190.0,"o3":87.0,"so2":3.1,"mosquito_risk":3,"arthritis_risk":10,"migraine_risk":7,"frizz_risk":1,"updated_at":"2026-05-15T04:29:28.780092+05:30"},{"city":"Imphal","state":"Manipur","latitude":24.817,"longitude":93.9368,"temp":21.1,"humidity":90,"rain":0.0,"pressure":919.6,"uv_index":9.2,"wind_gusts":29.2,"aqi":73,"pm10":29.1,"pm2_5":25.7,"no2":13.4,"co":562.0,"o3":27.0,"so2":1.8,"mosquito_risk":3,"arthritis_risk":5,"migraine_risk":7,"frizz_risk":1,"updated_at":"2026-05-15T04:29:28.780098+05:30"},{"city":"Aizawl","state":"Mizoram","latitude":23.7271,"longitude":92.7176,"temp":17.5,"humidity":92,"rain":0.1,"pressure":888.8,"uv_index":8.95,"wind_gusts":37.1,"aqi":33,"pm10":4.2,"pm2_5":3.2,"no2":3.2,"co":131.0,"o3":46.0,"so2":1.1,"mosquito_risk":6,"arthritis_risk":10,"migraine_risk":7,"frizz_risk":1,"updated_at":"2026-05-15T04:29:28.780106+05:30"},{"city":"Kohima","state":"Nagaland","latitude":25.6701,"longitude":94.1077,"temp":15.5,"humidity":94,"rain":0.1,"pressure":850.3,"uv_index":8.5,"wind_gusts":24.8,"aqi":55,"pm10":11.6,"pm2_5":8.4,"no2":7.4,"co":266.0,"o3":39.0,"so2":1.1,"mosquito_risk":6,"arthritis_risk":10,"migraine_risk":7,"frizz_risk":0,"updated_at":"2026-05-15T04:29:28.780114+05:30"},{"city":"Gangtok","state":"Sikkim","latitude":27.3314,"longitude":88.6138,"temp":14.5,"humidity":91,"rain":0.1,"pressure":833.2,"uv_index":9.1,"wind_gusts":42.1,"aqi":52,"pm10":12.9,"pm2_5":12.1,"no2":10.1,"co":415.0,"o3":85.0,"so2":2.0,"mosquito_risk":6,"arthritis_risk":10,"migraine_risk":7,"frizz_risk":0,"updated_at":"2026-05-15T04:29:28.780121+05:30"},{"city":"Siliguri","state":"West Bengal","latitude":26.7271,"longitude":88.3953,"temp":21.2,"humidity":98,"rain":0.2,"pressure":990.1,"uv_index":8.65,"wind_gusts":22.3,"aqi":87,"pm10":36.2,"pm2_5":32.6,"no2":13.1,"co":342.0,"o3":90.0,"so2":4.9,"mosquito_risk":6,"arthritis_risk":5,"migraine_risk":7,"frizz_risk":1,"updated_at":"2026-05-15T04:29:32.158420+05:30"},{"city":"Durgapur","state":"West Bengal","latitude":23.5204,"longitude":87.3119,"temp":26.9,"humidity":89,"rain":0.0,"pressure":990.3,"uv_index":9.0,"wind_gusts":30.2,"aqi":134,"pm10":18.0,"pm2_5":16.0,"no2":19.8,"co":409.0,"o3":21.0,"so2":28.5,"mosquito_risk":7,"arthritis_risk":5,"migraine_risk":7,"frizz_risk":1,"updated_at":"2026-05-15T04:29:32.158452+05:30"},{"city":"Asansol","state":"West Bengal","latitude":23.6739,"longitude":86.9524,"temp":26.5,"humidity":89,"rain":0.0,"pressure":988.7,"uv_index":9.05,"wind_gusts":37.8,"aqi":132,"pm10":19.3,"pm2_5":17.1,"no2":22.0,"co":207.0,"o3":21.0,"so2":31.3,"mosquito_risk":7,"arthritis_risk":5,"migraine_risk":7,"frizz_risk":1,"updated_at":"2026-05-15T04:29:32.158463+05:30"},{"city":"Pondicherry","state":"Puducherry","latitude":11.9139,"longitude":79.8145,"temp":27.4,"humidity":90,"rain":0.0,"pressure":1002.5,"uv_index":9.1,"wind_gusts":30.2,"aqi":51,"pm10":20.1,"pm2_5":15.5,"no2":12.0,"co":461.0,"o3":45.0,"so2":11.2,"mosquito_risk":7,"arthritis_risk":5,"migraine_risk":4,"frizz_risk":1,"updated_at":"2026-05-15T04:29:32.158472+05:30"},{"city":"Port Blair","state":"Andaman and Nicobar Islands","latitude":11.6234,"longitude":92.7265,"temp":26.0,"humidity":95,"rain":0.0,"pressure":1002.9,"uv_index":3.25,"wind_gusts":42.1,"aqi":26,"pm10":5.1,"pm2_5":3.1,"no2":0.2,"co":119.0,"o3":62.0,"so2":0.1,"mosquito_risk":7,"arthritis_risk":5,"migraine_risk":0,"frizz_risk":1,"updated_at":"2026-05-15T04:29:32.158481+05:30"},{"city":"Haridwar","state":"Uttarakhand","latitude":29.9457,"longitude":78.1642,"temp":21.9,"humidity":76,"rain":0.0,"pressure":967.4,"uv_index":7.5,"wind_gusts":39.2,"aqi":115,"pm10":68.9,"pm2_5":54.0,"no2":32.8,"co":367.0,"o3":24.0,"so2":6.8,"mosquito_risk":3,"arthritis_risk":5,"migraine_risk":7,"frizz_risk":1,"updated_at":"2026-05-15T04:29:32.158488+05:30"},{"city":"Rishikesh","state":"Uttarakhand","latitude":30.0869,"longitude":78.2676,"temp":19.3,"humidity":82,"rain":0.0,"pressure":960.1,"uv_index":7.6,"wind_gusts":36.4,"aqi":87,"pm10":51.5,"pm2_5":40.9,"no2":20.9,"co":400.0,"o3":63.0,"so2":6.2,"mosquito_risk":3,"arthritis_risk":10,"migraine_risk":7,"frizz_risk":1,"updated_at":"2026-05-15T04:29:32.158496+05:30"},{"city":"Nainital","state":"Uttarakhand","latitude":29.3919,"longitude":79.4542,"temp":13.9,"humidity":75,"rain":0.0,"pressure":799.6,"uv_index":8.45,"wind_gusts":44.6,"aqi":113,"pm10":50.8,"pm2_5":44.1,"no2":23.6,"co":357.0,"o3":62.0,"so2":6.6,"mosquito_risk":3,"arthritis_risk":5,"migraine_risk":7,"frizz_risk":0,"updated_at":"2026-05-15T04:29:32.158504+05:30"},{"city":"Mussoorie","state":"Uttarakhand","latitude":30.4599,"longitude":78.0664,"temp":15.1,"humidity":47,"rain":0.0,"pressure":797.6,"uv_index":7.95,"wind_gusts":58.0,"aqi":97,"pm10":52.7,"pm2_5":43.3,"no2":41.0,"co":258.0,"o3":19.0,"so2":6.4,"mosquito_risk":0,"arthritis_risk":5,"migraine_risk":7,"frizz_risk":0,"updated_at":"2026-05-15T04:29:32.158511+05:30"},{"city":"Dharamshala","state":"Himachal Pradesh","latitude":32.219,"longitude":76.3234,"temp":20.8,"humidity":36,"rain":0.0,"pressure":863.9,"uv_index":8.35,"wind_gusts":41.4,"aqi":39,"pm10":11.9,"pm2_5":7.8,"no2":13.4,"co":211.0,"o3":34.0,"so2":0.1,"mosquito_risk":0,"arthritis_risk":5,"migraine_risk":7,"frizz_risk":0,"updated_at":"2026-05-15T04:29:32.158518+05:30"},{"city":"Dalhousie","state":"Himachal Pradesh","latitude":32.5387,"longitude":75.971,"temp":12.6,"humidity":60,"rain":0.0,"pressure":798.0,"uv_index":8.6,"wind_gusts":46.4,"aqi":62,"pm10":22.2,"pm2_5":18.7,"no2":34.1,"co":297.0,"o3":2.0,"so2":0.4,"mosquito_risk":0,"arthritis_risk":5,"migraine_risk":7,"frizz_risk":0,"updated_at":"2026-05-15T04:29:32.158526+05:30"},{"city":"Patiala","state":"Punjab","latitude":30.3398,"longitude":76.3869,"temp":25.2,"humidity":52,"rain":0.0,"pressure":970.7,"uv_index":7.0,"wind_gusts":36.7,"aqi":155,"pm10":327.8,"pm2_5":70.1,"no2":12.2,"co":418.0,"o3":71.0,"so2":7.5,"mosquito_risk":4,"arthritis_risk":5,"migraine_risk":7,"frizz_risk":0,"updated_at":"2026-05-15T04:29:32.158534+05:30"},{"city":"Bhatinda","state":"Punjab","latitude":30.211,"longitude":74.9455,"temp":28.0,"humidity":34,"rain":0.0,"pressure":976.2,"uv_index":7.95,"wind_gusts":55.8,"aqi":160,"pm10":91.7,"pm2_5":40.4,"no2":6.4,"co":375.0,"o3":94.0,"so2":4.4,"mosquito_risk":4,"arthritis_risk":5,"migraine_risk":7,"frizz_risk":0,"updated_at":"2026-05-15T04:29:32.158541+05:30"},{"city":"Rohtak","state":"Haryana","latitude":28.8955,"longitude":76.6066,"temp":26.9,"humidity":53,"rain":0.0,"pressure":974.4,"uv_index":7.7,"wind_gusts":33.1,"aqi":244,"pm10":339.0,"pm2_5":132.7,"no2":33.9,"co":396.0,"o3":56.0,"so2":28.9,"mosquito_risk":4,"arthritis_risk":5,"migraine_risk":7,"frizz_risk":1,"updated_at":"2026-05-15T04:29:32.158548+05:30"},{"city":"Panipat","state":"Haryana","latitude":29.3909,"longitude":76.9635,"temp":25.6,"humidity":65,"rain":0.0,"pressure":973.3,"uv_index":7.55,"wind_gusts":28.8,"aqi":228,"pm10":365.1,"pm2_5":122.9,"no2":34.4,"co":347.0,"o3":37.0,"so2":17.2,"mosquito_risk":7,"arthritis_risk":5,"migraine_risk":7,"frizz_risk":1,"updated_at":"2026-05-15T04:29:32.158555+05:30"},{"city":"Mathura","state":"Uttar Pradesh","latitude":27.4924,"longitude":77.6737,"temp":28.2,"humidity":63,"rain":0.0,"pressure":980.2,"uv_index":8.0,"wind_gusts":27.4,"aqi":411,"pm10":392.1,"pm2_5":121.5,"no2":16.5,"co":652.0,"o3":68.0,"so2":15.4,"mosquito_risk":7,"arthritis_risk":5,"migraine_risk":7,"frizz_risk":1,"updated_at":"2026-05-15T04:29:32.158562+05:30"},{"city":"Vrindavan","state":"Uttar Pradesh","latitude":27.5823,"longitude":77.7027,"temp":27.7,"humidity":69,"rain":0.0,"pressure":980.7,"uv_index":7.95,"wind_gusts":27.0,"aqi":411,"pm10":392.1,"pm2_5":121.5,"no2":16.5,"co":612.0,"o3":68.0,"so2":15.4,"mosquito_risk":7,"arthritis_risk":5,"migraine_risk":7,"frizz_risk":1,"updated_at":"2026-05-15T04:29:32.158569+05:30"},{"city":"Ayodhya","state":"Uttar Pradesh","latitude":26.7922,"longitude":82.1998,"temp":25.9,"humidity":77,"rain":0.0,"pressure":989.8,"uv_index":8.35,"wind_gusts":28.1,"aqi":151,"pm10":115.5,"pm2_5":92.7,"no2":59.4,"co":592.0,"o3":17.0,"so2":14.3,"mosquito_risk":7,"arthritis_risk":5,"migraine_risk":7,"frizz_risk":1,"updated_at":"2026-05-15T04:29:32.158576+05:30"},{"city":"Ratlam","state":"Madhya Pradesh","latitude":23.3315,"longitude":75.0367,"temp":28.2,"humidity":39,"rain":0.0,"pressure":949.5,"uv_index":8.55,"wind_gusts":41.4,"aqi":79,"pm10":24.3,"pm2_5":15.6,"no2":5.0,"co":212.0,"o3":67.0,"so2":5.6,"mosquito_risk":4,"arthritis_risk":5,"migraine_risk":7,"frizz_risk":0,"updated_at":"2026-05-15T04:29:32.158584+05:30"},{"city":"Sagar","state":"Madhya Pradesh","latitude":23.8388,"longitude":78.7378,"temp":29.8,"humidity":34,"rain":0.0,"pressure":943.8,"uv_index":8.75,"wind_gusts":37.4,"aqi":74,"pm10":53.1,"pm2_5":24.2,"no2":14.8,"co":254.0,"o3":56.0,"so2":3.9,"mosquito_risk":4,"arthritis_risk":5,"migraine_risk":7,"frizz_risk":0,"updated_at":"2026-05-15T04:29:32.158591+05:30"},{"city":"Satna","state":"Madhya Pradesh","latitude":24.6005,"longitude":80.8322,"temp":28.6,"humidity":53,"rain":0.0,"pressure":965.1,"uv_index":8.8,"wind_gusts":29.2,"aqi":111,"pm10":140.2,"pm2_5":55.8,"no2":30.2,"co":461.0,"o3":48.0,"so2":9.0,"mosquito_risk":4,"arthritis_risk":5,"migraine_risk":7,"frizz_risk":1,"updated_at":"2026-05-15T04:29:32.158598+05:30"},{"city":"Akola","state":"Maharashtra","latitude":20.7002,"longitude":77.0082,"temp":32.8,"humidity":32,"rain":0.0,"pressure":969.5,"uv_index":8.8,"wind_gusts":40.0,"aqi":91,"pm10":36.4,"pm2_5":22.6,"no2":7.5,"co":229.0,"o3":80.0,"so2":7.6,"mosquito_risk":0,"arthritis_risk":5,"migraine_risk":7,"frizz_risk":0,"updated_at":"2026-05-15T04:29:32.158606+05:30"},{"city":"Amravati","state":"Maharashtra","latitude":20.9374,"longitude":77.7796,"temp":33.0,"humidity":29,"rain":0.0,"pressure":961.6,"uv_index":8.95,"wind_gusts":42.5,"aqi":95,"pm10":38.2,"pm2_5":24.4,"no2":8.4,"co":300.0,"o3":74.0,"so2":6.9,"mosquito_risk":0,"arthritis_risk":5,"migraine_risk":7,"frizz_risk":0,"updated_at":"2026-05-15T04:29:32.158618+05:30"},{"city":"Latur","state":"Maharashtra","latitude":18.4088,"longitude":76.5604,"temp":29.2,"humidity":51,"rain":0.0,"pressure":935.4,"uv_index":9.1,"wind_gusts":35.3,"aqi":106,"pm10":63.6,"pm2_5":46.2,"no2":9.8,"co":229.0,"o3":84.0,"so2":6.2,"mosquito_risk":4,"arthritis_risk":5,"migraine_risk":7,"frizz_risk":1,"updated_at":"2026-05-15T04:29:32.158626+05:30"},{"city":"Nanded","state":"Maharashtra","latitude":19.1383,"longitude":77.3091,"temp":30.6,"humidity":47,"rain":0.0,"pressure":963.5,"uv_index":9.05,"wind_gusts":38.5,"aqi":123,"pm10":78.9,"pm2_5":51.1,"no2":33.9,"co":277.0,"o3":32.0,"so2":7.2,"mosquito_risk":0,"arthritis_risk":5,"migraine_risk":7,"frizz_risk":1,"updated_at":"2026-05-15T04:29:32.158633+05:30"},{"city":"Gulbarga","state":"Karnataka","latitude":17.3297,"longitude":76.8343,"temp":28.5,"humidity":55,"rain":0.0,"pressure":954.1,"uv_index":8.5,"wind_gusts":34.9,"aqi":125,"pm10":39.0,"pm2_5":31.2,"no2":9.2,"co":253.0,"o3":86.0,"so2":3.4,"mosquito_risk":4,"arthritis_risk":5,"migraine_risk":7,"frizz_risk":1,"updated_at":"2026-05-15T04:29:32.158640+05:30"},{"city":"Bidar","state":"Karnataka","latitude":17.9104,"longitude":77.5199,"temp":28.1,"humidity":60,"rain":0.0,"pressure":931.3,"uv_index":9.15,"wind_gusts":37.8,"aqi":132,"pm10":53.1,"pm2_5":40.3,"no2":11.9,"co":294.0,"o3":88.0,"so2":6.2,"mosquito_risk":4,"arthritis_risk":5,"migraine_risk":7,"frizz_risk":1,"updated_at":"2026-05-15T04:29:32.158647+05:30"},{"city":"Hospet","state":"Karnataka","latitude":15.2689,"longitude":76.3909,"temp":25.2,"humidity":95,"rain":0.0,"pressure":951.2,"uv_index":9.2,"wind_gusts":46.8,"aqi":94,"pm10":21.1,"pm2_5":16.1,"no2":10.3,"co":252.0,"o3":59.0,"so2":2.0,"mosquito_risk":7,"arthritis_risk":5,"migraine_risk":7,"frizz_risk":1,"updated_at":"2026-05-15T04:29:32.158654+05:30"},{"city":"Tirupur","state":"Tamil Nadu","latitude":11.1085,"longitude":77.3411,"temp":23.8,"humidity":92,"rain":0.0,"pressure":969.4,"uv_index":8.7,"wind_gusts":29.5,"aqi":83,"pm10":28.1,"pm2_5":21.5,"no2":22.7,"co":186.0,"o3":47.0,"so2":4.8,"mosquito_risk":3,"arthritis_risk":5,"migraine_risk":7,"frizz_risk":1,"updated_at":"2026-05-15T04:29:32.158661+05:30"},{"city":"Alappuzha","state":"Kerala","latitude":9.4981,"longitude":76.3388,"temp":26.2,"humidity":97,"rain":0.0,"pressure":1003.6,"uv_index":8.6,"wind_gusts":38.5,"aqi":61,"pm10":20.0,"pm2_5":12.2,"no2":6.9,"co":142.0,"o3":66.0,"so2":2.5,"mosquito_risk":7,"arthritis_risk":5,"migraine_risk":4,"frizz_risk":1,"updated_at":"2026-05-15T04:29:32.158668+05:30"},{"city":"Munnar","state":"Kerala","latitude":10.0889,"longitude":77.0595,"temp":17.1,"humidity":97,"rain":0.0,"pressure":851.7,"uv_index":8.4,"wind_gusts":23.4,"aqi":57,"pm10":7.2,"pm2_5":5.2,"no2":5.8,"co":169.0,"o3":50.0,"so2":1.8,"mosquito_risk":3,"arthritis_risk":10,"migraine_risk":7,"frizz_risk":1,"updated_at":"2026-05-15T04:29:32.158676+05:30"},{"city":"Silchar","state":"Assam","latitude":24.8333,"longitude":92.7789,"temp":23.0,"humidity":96,"rain":0.6,"pressure":1002.4,"uv_index":8.95,"wind_gusts":31.3,"aqi":79,"pm10":28.1,"pm2_5":20.5,"no2":8.3,"co":260.0,"o3":59.0,"so2":4.2,"mosquito_risk":6,"arthritis_risk":5,"migraine_risk":4,"frizz_risk":1,"updated_at":"2026-05-15T04:29:32.158683+05:30"},{"city":"Dibrugarh","state":"Assam","latitude":27.4728,"longitude":94.912,"temp":22.0,"humidity":98,"rain":0.0,"pressure":992.4,"uv_index":7.7,"wind_gusts":28.8,"aqi":86,"pm10":19.6,"pm2_5":16.5,"no2":14.3,"co":264.0,"o3":53.0,"so2":0.8,"mosquito_risk":3,"arthritis_risk":5,"migraine_risk":7,"frizz_risk":1,"updated_at":"2026-05-15T04:29:32.158690+05:30"}]