[{"city":"Delhi","state":"Delhi","latitude":28.6139,"longitude":77.209,"temp":18.6,"humidity":93,"rain":0.0,"pressure":981.7,"uv_index":6.95,"wind_gusts":24.5,"aqi":224,"pm10":84.8,"pm2_5":35.6,"mosquito_risk":3,"arthritis_risk":10,"migraine_risk":7,"frizz_risk":1,"updated_at":"2026-04-08T03:14:34.041437+05:30"},{"city":"Mumbai","state":"Maharashtra","latitude":19.076,"longitude":72.8777,"temp":28.3,"humidity":77,"rain":0.0,"pressure":1008.7,"uv_index":7.95,"wind_gusts":22.0,"aqi":73,"pm10":84.1,"pm2_5":23.6,"mosquito_risk":7,"arthritis_risk":0,"migraine_risk":4,"frizz_risk":1,"updated_at":"2026-04-08T03:14:34.041471+05:30"},{"city":"Bangalore","state":"Karnataka","latitude":12.9716,"longitude":77.5946,"temp":22.0,"humidity":75,"rain":0.0,"pressure":910.7,"uv_index":9.65,"wind_gusts":23.0,"aqi":51,"pm10":19.3,"pm2_5":15.8,"mosquito_risk":3,"arthritis_risk":5,"migraine_risk":7,"frizz_risk":1,"updated_at":"2026-04-08T03:14:34.041485+05:30"},{"city":"Hyderabad","state":"Telangana","latitude":17.385,"longitude":78.4867,"temp":27.4,"humidity":48,"rain":0.0,"pressure":952.4,"uv_index":9.15,"wind_gusts":27.7,"aqi":76,"pm10":43.2,"pm2_5":31.7,"mosquito_risk":4,"arthritis_risk":5,"migraine_risk":7,"frizz_risk":0,"updated_at":"2026-04-08T03:14:34.041494+05:30"},{"city":"Chennai","state":"Tamil Nadu","latitude":13.0827,"longitude":80.2707,"temp":28.7,"humidity":87,"rain":0.0,"pressure":1006.1,"uv_index":9.15,"wind_gusts":35.3,"aqi":87,"pm10":31.5,"pm2_5":25.0,"mosquito_risk":7,"arthritis_risk":5,"migraine_risk":4,"frizz_risk":1,"updated_at":"2026-04-08T03:14:34.041502+05:30"},{"city":"Kolkata","state":"West Bengal","latitude":22.5726,"longitude":88.3639,"temp":23.1,"humidity":97,"rain":0.0,"pressure":1006.3,"uv_index":8.7,"wind_gusts":27.0,"aqi":94,"pm10":18.7,"pm2_5":16.6,"mosquito_risk":3,"arthritis_risk":5,"migraine_risk":4,"frizz_risk":1,"updated_at":"2026-04-08T03:14:34.041509+05:30"},{"city":"Pune","state":"Maharashtra","latitude":18.5204,"longitude":73.8567,"temp":20.7,"humidity":78,"rain":0.0,"pressure":948.4,"uv_index":8.55,"wind_gusts":39.2,"aqi":77,"pm10":49.7,"pm2_5":24.9,"mosquito_risk":3,"arthritis_risk":5,"migraine_risk":7,"frizz_risk":1,"updated_at":"2026-04-08T03:14:34.041519+05:30"},{"city":"Ahmedabad","state":"Gujarat","latitude":23.0225,"longitude":72.5714,"temp":25.7,"humidity":74,"rain":0.0,"pressure":1000.2,"uv_index":8.0,"wind_gusts":34.2,"aqi":61,"pm10":21.8,"pm2_5":11.1,"mosquito_risk":7,"arthritis_risk":5,"migraine_risk":4,"frizz_risk":1,"updated_at":"2026-04-08T03:14:34.041526+05:30"},{"city":"Jaipur","state":"Rajasthan","latitude":26.9124,"longitude":75.7873,"temp":19.0,"humidity":88,"rain":0.0,"pressure":957.2,"uv_index":7.65,"wind_gusts":32.8,"aqi":147,"pm10":84.1,"pm2_5":25.6,"mosquito_risk":3,"arthritis_risk":10,"migraine_risk":7,"frizz_risk":1,"updated_at":"2026-04-08T03:14:34.041533+05:30"},{"city":"Lucknow","state":"Uttar Pradesh","latitude":26.8467,"longitude":80.9462,"temp":21.2,"humidity":72,"rain":0.0,"pressure":993.1,"uv_index":7.45,"wind_gusts":32.0,"aqi":101,"pm10":54.5,"pm2_5":29.2,"mosquito_risk":3,"arthritis_risk":5,"migraine_risk":7,"frizz_risk":0,"updated_at":"2026-04-08T03:14:34.041561+05:30"},{"city":"Kanpur","state":"Uttar Pradesh","latitude":26.4499,"longitude":80.3319,"temp":20.2,"humidity":84,"rain":0.1,"pressure":991.4,"uv_index":7.5,"wind_gusts":28.8,"aqi":106,"pm10":75.9,"pm2_5":27.6,"mosquito_risk":6,"arthritis_risk":5,"migraine_risk":7,"frizz_risk":1,"updated_at":"2026-04-08T03:14:34.041570+05:30"},{"city":"Chandigarh","state":"Chandigarh","latitude":30.7333,"longitude":76.7794,"temp":16.7,"humidity":94,"rain":0.0,"pressure":968.1,"uv_index":4.75,"wind_gusts":24.5,"aqi":61,"pm10":35.5,"pm2_5":15.6,"mosquito_risk":3,"arthritis_risk":10,"migraine_risk":3,"frizz_risk":0,"updated_at":"2026-04-08T03:14:34.041578+05:30"},{"city":"Srinagar","state":"Jammu and Kashmir","latitude":34.0837,"longitude":74.7973,"temp":8.9,"humidity":87,"rain":0.1,"pressure":834.3,"uv_index":5.8,"wind_gusts":22.7,"aqi":61,"pm10":13.0,"pm2_5":12.9,"mosquito_risk":6,"arthritis_risk":10,"migraine_risk":3,"frizz_risk":0,"updated_at":"2026-04-08T03:14:34.041584+05:30"},{"city":"Jammu","state":"Jammu and Kashmir","latitude":32.7266,"longitude":74.857,"temp":17.4,"humidity":90,"rain":0.0,"pressure":973.3,"uv_index":3.5,"wind_gusts":25.6,"aqi":60,"pm10":42.1,"pm2_5":15.9,"mosquito_risk":3,"arthritis_risk":10,"migraine_risk":3,"frizz_risk":0,"updated_at":"2026-04-08T03:14:34.041591+05:30"},{"city":"Amritsar","state":"Punjab","latitude":31.634,"longitude":74.8723,"temp":16.3,"humidity":94,"rain":0.0,"pressure":981.1,"uv_index":5.95,"wind_gusts":20.5,"aqi":105,"pm10":56.3,"pm2_5":24.5,"mosquito_risk":3,"arthritis_risk":10,"migraine_risk":3,"frizz_risk":0,"updated_at":"2026-04-08T03:14:34.041598+05:30"},{"city":"Ludhiana","state":"Punjab","latitude":30.901,"longitude":75.8573,"temp":17.1,"humidity":92,"rain":0.0,"pressure":978.4,"uv_index":4.85,"wind_gusts":26.3,"aqi":140,"pm10":92.7,"pm2_5":31.0,"mosquito_risk":3,"arthritis_risk":10,"migraine_risk":3,"frizz_risk":0,"updated_at":"2026-04-08T03:14:34.041604+05:30"},{"city":"Jalandhar","state":"Punjab","latitude":31.326,"longitude":75.5762,"temp":16.4,"humidity":91,"rain":0.0,"pressure":980.2,"uv_index":5.4,"wind_gusts":23.8,"aqi":124,"pm10":93.1,"pm2_5":30.4,"mosquito_risk":3,"arthritis_risk":10,"migraine_risk":3,"frizz_risk":0,"updated_at":"2026-04-08T03:14:34.041613+05:30"},{"city":"Dehradun","state":"Uttarakhand","latitude":30.6284,"longitude":78.0322,"temp":10.5,"humidity":82,"rain":0.0,"pressure":826.0,"uv_index":2.7,"wind_gusts":38.2,"aqi":46,"pm10":32.4,"pm2_5":14.6,"mosquito_risk":3,"arthritis_risk":10,"migraine_risk":3,"frizz_risk":0,"updated_at":"2026-04-08T03:14:34.041619+05:30"},{"city":"Shimla","state":"Himachal Pradesh","latitude":31.1048,"longitude":77.1734,"temp":9.3,"humidity":78,"rain":0.0,"pressure":779.2,"uv_index":6.45,"wind_gusts":38.2,"aqi":61,"pm10":24.6,"pm2_5":9.5,"mosquito_risk":3,"arthritis_risk":5,"migraine_risk":7,"frizz_risk":0,"updated_at":"2026-04-08T03:14:34.041626+05:30"},{"city":"Manali","state":"Himachal Pradesh","latitude":32.2396,"longitude":77.1887,"temp":10.1,"humidity":98,"rain":0.7,"pressure":812.6,"uv_index":8.2,"wind_gusts":23.0,"aqi":56,"pm10":14.2,"pm2_5":11.4,"mosquito_risk":6,"arthritis_risk":10,"migraine_risk":7,"frizz_risk":0,"updated_at":"2026-04-08T03:14:34.041632+05:30"},{"city":"Gurgaon","state":"Haryana","latitude":28.4595,"longitude":77.0266,"temp":18.8,"humidity":94,"rain":0.0,"pressure":980.1,"uv_index":7.05,"wind_gusts":23.8,"aqi":797,"pm10":90.8,"pm2_5":36.6,"mosquito_risk":3,"arthritis_risk":10,"migraine_risk":7,"frizz_risk":1,"updated_at":"2026-04-08T03:14:34.041640+05:30"},{"city":"Noida","state":"Uttar Pradesh","latitude":28.5355,"longitude":77.391,"temp":18.4,"humidity":95,"rain":0.0,"pressure":983.1,"uv_index":6.95,"wind_gusts":25.2,"aqi":797,"pm10":90.8,"pm2_5":36.6,"mosquito_risk":3,"arthritis_risk":10,"migraine_risk":7,"frizz_risk":1,"updated_at":"2026-04-08T03:14:34.041647+05:30"},{"city":"Ghaziabad","state":"Uttar Pradesh","latitude":28.6692,"longitude":77.4538,"temp":17.9,"humidity":96,"rain":0.0,"pressure":981.4,"uv_index":6.9,"wind_gusts":23.0,"aqi":146,"pm10":69.2,"pm2_5":31.7,"mosquito_risk":3,"arthritis_risk":10,"migraine_risk":7,"frizz_risk":1,"updated_at":"2026-04-08T03:14:34.041653+05:30"},{"city":"Faridabad","state":"Haryana","latitude":28.4089,"longitude":77.3178,"temp":18.1,"humidity":94,"rain":0.0,"pressure":982.4,"uv_index":7.0,"wind_gusts":27.0,"aqi":797,"pm10":90.8,"pm2_5":36.6,"mosquito_risk":3,"arthritis_risk":10,"migraine_risk":7,"frizz_risk":1,"updated_at":"2026-04-08T03:14:34.041659+05:30"},{"city":"Meerut","state":"Uttar Pradesh","latitude":28.9845,"longitude":77.7064,"temp":18.0,"humidity":95,"rain":0.0,"pressure":980.3,"uv_index":6.2,"wind_gusts":29.5,"aqi":146,"pm10":69.2,"pm2_5":31.7,"mosquito_risk":3,"arthritis_risk":10,"migraine_risk":7,"frizz_risk":1,"updated_at":"2026-04-08T03:14:34.041664+05:30"},{"city":"Agra","state":"Uttar Pradesh","latitude":27.1767,"longitude":78.0081,"temp":19.7,"humidity":95,"rain":0.0,"pressure":986.5,"uv_index":7.35,"wind_gusts":22.7,"aqi":365,"pm10":64.5,"pm2_5":25.8,"mosquito_risk":3,"arthritis_risk":10,"migraine_risk":7,"frizz_risk":1,"updated_at":"2026-04-08T03:14:34.041670+05:30"},{"city":"Varanasi","state":"Uttar Pradesh","latitude":25.3176,"longitude":82.9739,"temp":22.8,"humidity":66,"rain":0.0,"pressure":997.6,"uv_index":6.0,"wind_gusts":36.7,"aqi":86,"pm10":62.9,"pm2_5":26.7,"mosquito_risk":3,"arthritis_risk":5,"migraine_risk":3,"frizz_risk":1,"updated_at":"2026-04-08T03:14:34.041679+05:30"},{"city":"Prayagraj","state":"Uttar Pradesh","latitude":25.4358,"longitude":81.8463,"temp":21.7,"humidity":75,"rain":0.0,"pressure":995.5,"uv_index":7.65,"wind_gusts":29.5,"aqi":88,"pm10":55.3,"pm2_5":21.8,"mosquito_risk":3,"arthritis_risk":5,"migraine_risk":7,"frizz_risk":1,"updated_at":"2026-04-08T03:14:34.041685+05:30"},{"city":"Gorakhpur","state":"Uttar Pradesh","latitude":26.7606,"longitude":83.3732,"temp":22.7,"humidity":64,"rain":0.0,"pressure":997.0,"uv_index":4.85,"wind_gusts":31.3,"aqi":72,"pm10":67.5,"pm2_5":24.4,"mosquito_risk":3,"arthritis_risk":5,"migraine_risk":3,"frizz_risk":0,"updated_at":"2026-04-08T03:14:34.041691+05:30"},{"city":"Bareilly","state":"Uttar Pradesh","latitude":28.367,"longitude":79.4304,"temp":18.9,"humidity":92,"rain":0.0,"pressure":986.7,"uv_index":7.2,"wind_gusts":28.4,"aqi":69,"pm10":49.5,"pm2_5":24.4,"mosquito_risk":3,"arthritis_risk":10,"migraine_risk":7,"frizz_risk":1,"updated_at":"2026-04-08T03:14:34.041696+05:30"},{"city":"Aligarh","state":"Uttar Pradesh","latitude":27.8974,"longitude":78.088,"temp":18.4,"humidity":95,"rain":0.0,"pressure":984.1,"uv_index":7.1,"wind_gusts":28.1,"aqi":191,"pm10":82.2,"pm2_5":32.0,"mosquito_risk":3,"arthritis_risk":10,"migraine_risk":7,"frizz_risk":1,"updated_at":"2026-04-08T03:14:34.041702+05:30"},{"city":"Moradabad","state":"Uttar Pradesh","latitude":28.8386,"longitude":78.7733,"temp":18.8,"humidity":94,"rain":0.1,"pressure":982.6,"uv_index":6.25,"wind_gusts":31.0,"aqi":82,"pm10":57.4,"pm2_5":26.6,"mosquito_risk":6,"arthritis_risk":10,"migraine_risk":7,"frizz_risk":1,"updated_at":"2026-04-08T03:14:34.041707+05:30"},{"city":"Saharanpur","state":"Uttar Pradesh","latitude":29.9637,"longitude":77.546,"temp":17.3,"humidity":93,"rain":0.0,"pressure":974.8,"uv_index":6.45,"wind_gusts":28.4,"aqi":76,"pm10":58.2,"pm2_5":23.5,"mosquito_risk":3,"arthritis_risk":10,"migraine_risk":7,"frizz_risk":1,"updated_at":"2026-04-08T03:14:34.041713+05:30"},{"city":"Jhansi","state":"Uttar Pradesh","latitude":25.4484,"longitude":78.5685,"temp":20.4,"humidity":82,"rain":0.0,"pressure":976.4,"uv_index":7.95,"wind_gusts":34.2,"aqi":68,"pm10":55.5,"pm2_5":25.4,"mosquito_risk":3,"arthritis_risk":5,"migraine_risk":7,"frizz_risk":1,"updated_at":"2026-04-08T03:14:37.256753+05:30"},{"city":"Surat","state":"Gujarat","latitude":21.1702,"longitude":72.8311,"temp":26.8,"humidity":81,"rain":0.0,"pressure":1006.2,"uv_index":7.7,"wind_gusts":41.4,"aqi":68,"pm10":34.6,"pm2_5":18.3,"mosquito_risk":7,"arthritis_risk":5,"migraine_risk":4,"frizz_risk":1,"updated_at":"2026-04-08T03:14:37.256780+05:30"},{"city":"Vadodara","state":"Gujarat","latitude":22.3072,"longitude":73.1812,"temp":26.5,"humidity":78,"rain":0.0,"pressure":1003.0,"uv_index":8.0,"wind_gusts":36.7,"aqi":65,"pm10":25.9,"pm2_5":15.5,"mosquito_risk":7,"arthritis_risk":5,"migraine_risk":4,"frizz_risk":1,"updated_at":"2026-04-08T03:14:37.256792+05:30"},{"city":"Rajkot","state":"Gujarat","latitude":22.3039,"longitude":70.8022,"temp":24.7,"humidity":87,"rain":0.0,"pressure":993.0,"uv_index":7.7,"wind_gusts":38.9,"aqi":56,"pm10":22.1,"pm2_5":10.4,"mosquito_risk":3,"arthritis_risk":5,"migraine_risk":7,"frizz_risk":1,"updated_at":"2026-04-08T03:14:37.256802+05:30"},{"city":"Thane","state":"Maharashtra","latitude":19.2183,"longitude":72.9781,"temp":26.7,"humidity":84,"rain":0.0,"pressure":1008.2,"uv_index":7.95,"wind_gusts":36.0,"aqi":73,"pm10":84.1,"pm2_5":23.6,"mosquito_risk":7,"arthritis_risk":0,"migraine_risk":4,"frizz_risk":1,"updated_at":"2026-04-08T03:14:37.256812+05:30"},{"city":"Nagpur","state":"Maharashtra","latitude":21.1458,"longitude":79.0882,"temp":22.8,"humidity":62,"rain":0.0,"pressure":971.7,"uv_index":8.75,"wind_gusts":37.1,"aqi":67,"pm10":39.8,"pm2_5":23.7,"mosquito_risk":3,"arthritis_risk":5,"migraine_risk":7,"frizz_risk":0,"updated_at":"2026-04-08T03:14:37.256821+05:30"},{"city":"Nashik","state":"Maharashtra","latitude":19.9975,"longitude":73.7898,"temp":21.6,"humidity":89,"rain":0.0,"pressure":945.1,"uv_index":8.2,"wind_gusts":42.5,"aqi":60,"pm10":41.6,"pm2_5":16.5,"mosquito_risk":3,"arthritis_risk":5,"migraine_risk":7,"frizz_risk":1,"updated_at":"2026-04-08T03:14:37.256830+05:30"},{"city":"Aurangabad","state":"Maharashtra","latitude":19.8762,"longitude":75.3433,"temp":22.4,"humidity":64,"rain":0.0,"pressure":943.5,"uv_index":8.9,"wind_gusts":47.5,"aqi":60,"pm10":44.9,"pm2_5":16.9,"mosquito_risk":3,"arthritis_risk":5,"migraine_risk":7,"frizz_risk":0,"updated_at":"2026-04-08T03:14:37.256839+05:30"},{"city":"Solapur","state":"Maharashtra","latitude":17.6599,"longitude":75.9064,"temp":25.3,"humidity":49,"rain":0.0,"pressure":956.9,"uv_index":9.0,"wind_gusts":30.6,"aqi":64,"pm10":41.7,"pm2_5":26.1,"mosquito_risk":4,"arthritis_risk":5,"migraine_risk":7,"frizz_risk":0,"updated_at":"2026-04-08T03:14:37.256849+05:30"},{"city":"Kolhapur","state":"Maharashtra","latitude":16.705,"longitude":74.2433,"temp":19.6,"humidity":92,"rain":0.0,"pressure":947.8,"uv_index":9.0,"wind_gusts":42.5,"aqi":59,"pm10":30.0,"pm2_5":17.2,"mosquito_risk":3,"arthritis_risk":10,"migraine_risk":7,"frizz_risk":1,"updated_at":"2026-04-08T03:14:37.256858+05:30"},{"city":"Goa","state":"Goa","latitude":15.2993,"longitude":74.124,"temp":26.1,"humidity":78,"rain":0.0,"pressure":998.5,"uv_index":9.0,"wind_gusts":39.6,"aqi":55,"pm10":42.7,"pm2_5":18.6,"mosquito_risk":7,"arthritis_risk":5,"migraine_risk":7,"frizz_risk":1,"updated_at":"2026-04-08T03:14:37.256867+05:30"},{"city":"Jodhpur","state":"Rajasthan","latitude":26.2389,"longitude":73.0243,"temp":20.4,"humidity":88,"rain":0.0,"pressure":980.7,"uv_index":7.9,"wind_gusts":33.8,"aqi":134,"pm10":251.5,"pm2_5":60.5,"mosquito_risk":3,"arthritis_risk":5,"migraine_risk":7,"frizz_risk":1,"updated_at":"2026-04-08T03:14:37.256876+05:30"},{"city":"Udaipur","state":"Rajasthan","latitude":24.5854,"longitude":73.7125,"temp":21.2,"humidity":61,"rain":0.0,"pressure":942.9,"uv_index":8.5,"wind_gusts":33.8,"aqi":63,"pm10":23.8,"pm2_5":12.9,"mosquito_risk":3,"arthritis_risk":5,"migraine_risk":7,"frizz_risk":0,"updated_at":"2026-04-08T03:14:37.256885+05:30"},{"city":"Kota","state":"Rajasthan","latitude":25.2138,"longitude":75.8648,"temp":20.8,"humidity":83,"rain":0.0,"pressure":976.1,"uv_index":7.95,"wind_gusts":29.9,"aqi":65,"pm10":55.6,"pm2_5":26.7,"mosquito_risk":3,"arthritis_risk":5,"migraine_risk":7,"frizz_risk":1,"updated_at":"2026-04-08T03:14:37.256894+05:30"},{"city":"Bikaner","state":"Rajasthan","latitude":28.0229,"longitude":73.3119,"temp":19.8,"humidity":81,"rain":0.0,"pressure":979.8,"uv_index":7.7,"wind_gusts":27.0,"aqi":79,"pm10":39.6,"pm2_5":17.8,"mosquito_risk":3,"arthritis_risk":10,"migraine_risk":7,"frizz_risk":1,"updated_at":"2026-04-08T03:14:37.256903+05:30"},{"city":"Ajmer","state":"Rajasthan","latitude":26.4499,"longitude":74.6399,"temp":18.8,"humidity":89,"rain":0.0,"pressure":951.5,"uv_index":7.85,"wind_gusts":33.1,"aqi":72,"pm10":176.0,"pm2_5":40.2,"mosquito_risk":3,"arthritis_risk":10,"migraine_risk":7,"frizz_risk":1,"updated_at":"2026-04-08T03:14:37.256912+05:30"},{"city":"Gwalior","state":"Madhya Pradesh","latitude":26.2183,"longitude":78.1828,"temp":19.7,"humidity":85,"rain":0.0,"pressure":981.9,"uv_index":7.65,"wind_gusts":25.2,"aqi":74,"pm10":68.5,"pm2_5":25.1,"mosquito_risk":3,"arthritis_risk":10,"migraine_risk":7,"frizz_risk":1,"updated_at":"2026-04-08T03:14:37.256920+05:30"},{"city":"Indore","state":"Madhya Pradesh","latitude":22.7196,"longitude":75.8577,"temp":22.7,"humidity":83,"rain":0.0,"pressure":946.0,"uv_index":8.4,"wind_gusts":46.8,"aqi":68,"pm10":49.2,"pm2_5":21.4,"mosquito_risk":3,"arthritis_risk":5,"migraine_risk":7,"frizz_risk":1,"updated_at":"2026-04-08T03:14:37.256929+05:30"},{"city":"Bhopal","state":"Madhya Pradesh","latitude":23.2599,"longitude":77.4126,"temp":23.2,"humidity":70,"rain":0.0,"pressure":951.4,"uv_index":8.3,"wind_gusts":50.0,"aqi":63,"pm10":43.9,"pm2_5":21.3,"mosquito_risk":3,"arthritis_risk":5,"migraine_risk":7,"frizz_risk":1,"updated_at":"2026-04-08T03:14:37.256937+05:30"},{"city":"Jabalpur","state":"Madhya Pradesh","latitude":23.1815,"longitude":79.9864,"temp":24.1,"humidity":49,"rain":0.0,"pressure":959.5,"uv_index":7.95,"wind_gusts":42.5,"aqi":80,"pm10":45.6,"pm2_5":27.9,"mosquito_risk":0,"arthritis_risk":5,"migraine_risk":7,"frizz_risk":0,"updated_at":"2026-04-08T03:14:37.256946+05:30"},{"city":"Ujjain","state":"Madhya Pradesh","latitude":23.1765,"longitude":75.7885,"temp":22.7,"humidity":84,"rain":0.0,"pressure":951.5,"uv_index":8.3,"wind_gusts":49.7,"aqi":67,"pm10":51.2,"pm2_5":22.4,"mosquito_risk":3,"arthritis_risk":5,"migraine_risk":7,"frizz_risk":1,"updated_at":"2026-04-08T03:14:37.256955+05:30"},{"city":"Visakhapatnam","state":"Andhra Pradesh","latitude":17.6868,"longitude":83.2185,"temp":26.7,"humidity":90,"rain":0.0,"pressure":1002.7,"uv_index":9.1,"wind_gusts":42.8,"aqi":75,"pm10":30.5,"pm2_5":25.4,"mosquito_risk":7,"arthritis_risk":5,"migraine_risk":4,"frizz_risk":1,"updated_at":"2026-04-08T03:14:37.256964+05:30"},{"city":"Vijayawada","state":"Andhra Pradesh","latitude":16.5062,"longitude":80.648,"temp":27.9,"humidity":88,"rain":0.0,"pressure":1001.6,"uv_index":9.15,"wind_gusts":27.4,"aqi":107,"pm10":43.3,"pm2_5":40.0,"mosquito_risk":7,"arthritis_risk":5,"migraine_risk":4,"frizz_risk":1,"updated_at":"2026-04-08T03:14:37.256973+05:30"},{"city":"Guntur","state":"Andhra Pradesh","latitude":16.3067,"longitude":80.4365,"temp":27.8,"humidity":90,"rain":0.0,"pressure":1002.7,"uv_index":9.2,"wind_gusts":27.4,"aqi":101,"pm10":39.6,"pm2_5":36.6,"mosquito_risk":7,"arthritis_risk":5,"migraine_risk":4,"frizz_risk":1,"updated_at":"2026-04-08T03:14:37.256981+05:30"},{"city":"Nellore","state":"Andhra Pradesh","latitude":14.4426,"longitude":79.9865,"temp":27.9,"humidity":89,"rain":0.0,"pressure":1004.2,"uv_index":9.3,"wind_gusts":38.9,"aqi":94,"pm10":33.5,"pm2_5":30.9,"mosquito_risk":7,"arthritis_risk":5,"migraine_risk":4,"frizz_risk":1,"updated_at":"2026-04-08T03:14:37.256991+05:30"},{"city":"Kurnool","state":"Andhra Pradesh","latitude":15.8281,"longitude":78.0373,"temp":28.4,"humidity":40,"rain":0.0,"pressure":975.4,"uv_index":9.15,"wind_gusts":25.9,"aqi":67,"pm10":39.9,"pm2_5":32.9,"mosquito_risk":4,"arthritis_risk":5,"migraine_risk":7,"frizz_risk":0,"updated_at":"2026-04-08T03:14:37.257001+05:30"},{"city":"Kakinada","state":"Andhra Pradesh","latitude":16.9891,"longitude":82.2475,"temp":27.2,"humidity":93,"rain":0.0,"pressure":1006.9,"uv_index":9.15,"wind_gusts":28.4,"aqi":65,"pm10":35.3,"pm2_5":28.8,"mosquito_risk":7,"arthritis_risk":5,"migraine_risk":4,"frizz_risk":1,"updated_at":"2026-04-08T03:14:37.257009+05:30"},{"city":"Tirupati","state":"Andhra Pradesh","latitude":13.6288,"longitude":79.4192,"temp":26.6,"humidity":89,"rain":0.0,"pressure":990.9,"uv_index":9.4,"wind_gusts":25.6,"aqi":96,"pm10":50.5,"pm2_5":48.1,"mosquito_risk":7,"arthritis_risk":5,"migraine_risk":7,"frizz_risk":1,"updated_at":"2026-04-08T03:14:37.257018+05:30"},{"city":"Warangal","state":"Telangana","latitude":17.9689,"longitude":79.5941,"temp":27.4,"humidity":76,"rain":0.0,"pressure":977.8,"uv_index":9.05,"wind_gusts":25.9,"aqi":107,"pm10":59.0,"pm2_5":51.6,"mosquito_risk":7,"arthritis_risk":5,"migraine_risk":7,"frizz_risk":1,"updated_at":"2026-04-08T03:14:37.257026+05:30"},{"city":"Nizamabad","state":"Telangana","latitude":18.6725,"longitude":78.0941,"temp":25.5,"humidity":51,"rain":0.0,"pressure":963.9,"uv_index":9.0,"wind_gusts":27.4,"aqi":71,"pm10":54.1,"pm2_5":31.9,"mosquito_risk":4,"arthritis_risk":5,"migraine_risk":7,"frizz_risk":0,"updated_at":"2026-04-08T03:14:37.257035+05:30"},{"city":"Mysore","state":"Karnataka","latitude":12.2958,"longitude":76.6396,"temp":20.7,"humidity":90,"rain":0.0,"pressure":927.6,"uv_index":9.55,"wind_gusts":42.5,"aqi":46,"pm10":19.2,"pm2_5":15.9,"mosquito_risk":3,"arthritis_risk":5,"migraine_risk":7,"frizz_risk":1,"updated_at":"2026-04-08T03:14:37.257044+05:30"},{"city":"Mangalore","state":"Karnataka","latitude":12.9141,"longitude":74.856,"temp":28.8,"humidity":71,"rain":0.0,"pressure":1006.8,"uv_index":9.15,"wind_gusts":31.7,"aqi":57,"pm10":22.0,"pm2_5":15.0,"mosquito_risk":7,"arthritis_risk":5,"migraine_risk":4,"frizz_risk":1,"updated_at":"2026-04-08T03:14:37.257053+05:30"},{"city":"Hubli-Dharwad","state":"Karnataka","latitude":15.3647,"longitude":75.124,"temp":20.5,"humidity":94,"rain":0.0,"pressure":940.5,"uv_index":9.2,"wind_gusts":41.4,"aqi":42,"pm10":16.4,"pm2_5":11.2,"mosquito_risk":3,"arthritis_risk":5,"migraine_risk":7,"frizz_risk":1,"updated_at":"2026-04-08T03:14:37.257062+05:30"},{"city":"Belgaum","state":"Karnataka","latitude":15.8497,"longitude":74.4977,"temp":18.5,"humidity":97,"rain":0.0,"pressure":924.9,"uv_index":9.25,"wind_gusts":38.5,"aqi":50,"pm10":29.5,"pm2_5":17.7,"mosquito_risk":3,"arthritis_risk":10,"migraine_risk":7,"frizz_risk":1,"updated_at":"2026-04-08T03:15:11.856040+05:30"},{"city":"Coimbatore","state":"Tamil Nadu","latitude":11.0168,"longitude":76.9558,"temp":23.7,"humidity":83,"rain":0.0,"pressure":961.1,"uv_index":9.5,"wind_gusts":55.1,"aqi":54,"pm10":24.6,"pm2_5":19.8,"mosquito_risk":3,"arthritis_risk":5,"migraine_risk":7,"frizz_risk":1,"updated_at":"2026-04-08T03:15:11.856070+05:30"},{"city":"Madurai","state":"Tamil Nadu","latitude":9.9252,"longitude":78.1198,"temp":27.2,"humidity":84,"rain":0.0,"pressure":991.6,"uv_index":9.0,"wind_gusts":28.4,"aqi":94,"pm10":41.7,"pm2_5":39.0,"mosquito_risk":7,"arthritis_risk":5,"migraine_risk":7,"frizz_risk":1,"updated_at":"2026-04-08T03:15:11.856083+05:30"},{"city":"Trichy","state":"Tamil Nadu","latitude":10.7905,"longitude":78.7047,"temp":26.2,"humidity":89,"rain":0.0,"pressure":998.7,"uv_index":8.9,"wind_gusts":22.0,"aqi":77,"pm10":34.7,"pm2_5":32.0,"mosquito_risk":7,"arthritis_risk":5,"migraine_risk":7,"frizz_risk":1,"updated_at":"2026-04-08T03:15:11.856092+05:30"},{"city":"Salem","state":"Tamil Nadu","latitude":11.6643,"longitude":78.146,"temp":27.2,"humidity":64,"rain":0.0,"pressure":976.6,"uv_index":9.45,"wind_gusts":26.6,"aqi":62,"pm10":19.8,"pm2_5":17.6,"mosquito_risk":7,"arthritis_risk":5,"migraine_risk":7,"frizz_risk":1,"updated_at":"2026-04-08T03:15:11.856100+05:30"},{"city":"Tirunelveli","state":"Tamil Nadu","latitude":8.7139,"longitude":77.7567,"temp":27.3,"humidity":65,"rain":0.0,"pressure":1001.5,"uv_index":9.3,"wind_gusts":38.5,"aqi":65,"pm10":24.0,"pm2_5":18.7,"mosquito_risk":7,"arthritis_risk":5,"migraine_risk":4,"frizz_risk":1,"updated_at":"2026-04-08T03:15:11.856109+05:30"},{"city":"Vellore","state":"Tamil Nadu","latitude":12.9165,"longitude":79.1325,"temp":26.4,"humidity":85,"rain":0.0,"pressure":984.1,"uv_index":9.05,"wind_gusts":31.0,"aqi":101,"pm10":47.1,"pm2_5":44.4,"mosquito_risk":7,"arthritis_risk":5,"migraine_risk":7,"frizz_risk":1,"updated_at":"2026-04-08T03:15:11.856117+05:30"},{"city":"Erode","state":"Tamil Nadu","latitude":11.341,"longitude":77.7172,"temp":27.4,"humidity":70,"rain":0.0,"pressure":988.3,"uv_index":9.15,"wind_gusts":28.1,"aqi":62,"pm10":20.3,"pm2_5":16.7,"mosquito_risk":7,"arthritis_risk":5,"migraine_risk":7,"frizz_risk":1,"updated_at":"2026-04-08T03:15:11.856125+05:30"},{"city":"Kochi","state":"Kerala","latitude":9.9312,"longitude":76.2673,"temp":28.6,"humidity":74,"rain":0.0,"pressure":1008.4,"uv_index":9.2,"wind_gusts":35.3,"aqi":61,"pm10":24.1,"pm2_5":18.7,"mosquito_risk":7,"arthritis_risk":0,"migraine_risk":4,"frizz_risk":1,"updated_at":"2026-04-08T03:15:11.856133+05:30"},{"city":"Thiruvananthapuram","state":"Kerala","latitude":8.5241,"longitude":76.9366,"temp":28.4,"humidity":78,"rain":0.0,"pressure":1007.2,"uv_index":9.2,"wind_gusts":45.4,"aqi":60,"pm10":25.0,"pm2_5":14.9,"mosquito_risk":7,"arthritis_risk":5,"migraine_risk":4,"frizz_risk":1,"updated_at":"2026-04-08T03:15:11.856140+05:30"},{"city":"Kozhikode","state":"Kerala","latitude":11.2588,"longitude":75.7804,"temp":27.8,"humidity":79,"rain":0.0,"pressure":1007.6,"uv_index":9.15,"wind_gusts":29.9,"aqi":56,"pm10":25.7,"pm2_5":14.3,"mosquito_risk":7,"arthritis_risk":5,"migraine_risk":4,"frizz_risk":1,"updated_at":"2026-04-08T03:15:11.856148+05:30"},{"city":"Thrissur","state":"Kerala","latitude":10.5276,"longitude":76.2144,"temp":26.7,"humidity":81,"rain":0.0,"pressure":1006.7,"uv_index":9.2,"wind_gusts":35.3,"aqi":61,"pm10":31.3,"pm2_5":22.8,"mosquito_risk":7,"arthritis_risk":5,"migraine_risk":4,"frizz_risk":1,"updated_at":"2026-04-08T03:15:11.856156+05:30"},{"city":"Kannur","state":"Kerala","latitude":11.8745,"longitude":75.3704,"temp":26.4,"humidity":77,"rain":0.0,"pressure":1007.0,"uv_index":9.15,"wind_gusts":36.4,"aqi":55,"pm10":18.9,"pm2_5":12.5,"mosquito_risk":7,"arthritis_risk":5,"migraine_risk":4,"frizz_risk":1,"updated_at":"2026-04-08T03:15:11.856164+05:30"},{"city":"Patna","state":"Bihar","latitude":25.5941,"longitude":85.1376,"temp":24.2,"humidity":59,"rain":0.0,"pressure":1000.5,"uv_index":8.0,"wind_gusts":40.3,"aqi":97,"pm10":83.4,"pm2_5":41.0,"mosquito_risk":0,"arthritis_risk":5,"migraine_risk":4,"frizz_risk":0,"updated_at":"2026-04-08T03:15:11.856172+05:30"},{"city":"Gaya","state":"Bihar","latitude":24.7914,"longitude":85.0002,"temp":24.0,"humidity":61,"rain":0.0,"pressure":993.2,"uv_index":7.85,"wind_gusts":29.5,"aqi":70,"pm10":59.8,"pm2_5":28.2,"mosquito_risk":3,"arthritis_risk":5,"migraine_risk":7,"frizz_risk":0,"updated_at":"2026-04-08T03:15:11.856180+05:30"},{"city":"Muzaffarpur","state":"Bihar","latitude":26.1209,"longitude":85.3647,"temp":22.8,"humidity":59,"rain":0.0,"pressure":1000.5,"uv_index":8.0,"wind_gusts":37.4,"aqi":118,"pm10":93.4,"pm2_5":59.5,"mosquito_risk":0,"arthritis_risk":5,"migraine_risk":4,"frizz_risk":0,"updated_at":"2026-04-08T03:15:11.856187+05:30"},{"city":"Bhagalpur","state":"Bihar","latitude":25.2425,"longitude":87.0117,"temp":22.9,"humidity":83,"rain":0.0,"pressure":1001.1,"uv_index":8.0,"wind_gusts":27.0,"aqi":73,"pm10":40.2,"pm2_5":37.5,"mosquito_risk":3,"arthritis_risk":5,"migraine_risk":4,"frizz_risk":1,"updated_at":"2026-04-08T03:15:11.856195+05:30"},{"city":"Ranchi","state":"Jharkhand","latitude":23.3441,"longitude":85.3096,"temp":20.2,"humidity":78,"rain":0.0,"pressure":936.7,"uv_index":8.7,"wind_gusts":41.4,"aqi":60,"pm10":25.1,"pm2_5":18.4,"mosquito_risk":3,"arthritis_risk":5,"migraine_risk":7,"frizz_risk":1,"updated_at":"2026-04-08T03:15:11.856202+05:30"},{"city":"Jamshedpur","state":"Jharkhand","latitude":22.8046,"longitude":86.2029,"temp":22.5,"humidity":94,"rain":0.0,"pressure":991.0,"uv_index":8.8,"wind_gusts":28.4,"aqi":94,"pm10":44.5,"pm2_5":38.9,"mosquito_risk":3,"arthritis_risk":5,"migraine_risk":7,"frizz_risk":1,"updated_at":"2026-04-08T03:15:11.856209+05:30"},{"city":"Dhanbad","state":"Jharkhand","latitude":23.7957,"longitude":86.4304,"temp":22.2,"humidity":85,"rain":0.0,"pressure":979.9,"uv_index":8.45,"wind_gusts":31.7,"aqi":118,"pm10":68.9,"pm2_5":64.5,"mosquito_risk":3,"arthritis_risk":5,"migraine_risk":7,"frizz_risk":1,"updated_at":"2026-04-08T03:15:11.856216+05:30"},{"city":"Bokaro","state":"Jharkhand","latitude":23.6693,"longitude":86.1511,"temp":22.1,"humidity":85,"rain":0.0,"pressure":984.0,"uv_index":8.4,"wind_gusts":30.6,"aqi":106,"pm10":69.2,"pm2_5":61.5,"mosquito_risk":3,"arthritis_risk":5,"migraine_risk":7,"frizz_risk":1,"updated_at":"2026-04-08T03:15:11.856224+05:30"},{"city":"Bhubaneswar","state":"Odisha","latitude":20.2961,"longitude":85.8245,"temp":23.3,"humidity":94,"rain":0.0,"pressure":1002.7,"uv_index":9.0,"wind_gusts":37.8,"aqi":82,"pm10":29.7,"pm2_5":26.3,"mosquito_risk":3,"arthritis_risk":5,"migraine_risk":4,"frizz_risk":1,"updated_at":"2026-04-08T03:15:11.856231+05:30"},{"city":"Cuttack","state":"Odisha","latitude":20.4625,"longitude":85.8828,"temp":23.3,"humidity":94,"rain":0.0,"pressure":1004.7,"uv_index":9.0,"wind_gusts":34.9,"aqi":82,"pm10":29.7,"pm2_5":26.3,"mosquito_risk":3,"arthritis_risk":5,"migraine_risk":4,"frizz_risk":1,"updated_at":"2026-04-08T03:15:11.856238+05:30"},{"city":"Rourkela","state":"Odisha","latitude":22.2604,"longitude":84.8536,"temp":22.6,"humidity":85,"rain":0.0,"pressure":984.7,"uv_index":8.75,"wind_gusts":31.0,"aqi":91,"pm10":55.8,"pm2_5":49.2,"mosquito_risk":3,"arthritis_risk":5,"migraine_risk":7,"frizz_risk":1,"updated_at":"2026-04-08T03:15:11.856245+05:30"},{"city":"Raipur","state":"Chhattisgarh","latitude":21.2514,"longitude":81.6296,"temp":24.6,"humidity":51,"rain":0.0,"pressure":972.5,"uv_index":8.8,"wind_gusts":39.2,"aqi":151,"pm10":80.1,"pm2_5":73.8,"mosquito_risk":0,"arthritis_risk":5,"migraine_risk":7,"frizz_risk":0,"updated_at":"2026-04-08T03:15:11.856253+05:30"},{"city":"Bhilai","state":"Chhattisgarh","latitude":21.1938,"longitude":81.3509,"temp":24.4,"humidity":47,"rain":0.0,"pressure":972.7,"uv_index":8.6,"wind_gusts":38.9,"aqi":135,"pm10":29.4,"pm2_5":27.0,"mosquito_risk":0,"arthritis_risk":5,"migraine_risk":7,"frizz_risk":0,"updated_at":"2026-04-08T03:15:11.856261+05:30"},{"city":"Guwahati","state":"Assam","latitude":26.1158,"longitude":91.7086,"temp":21.5,"humidity":90,"rain":0.0,"pressure":1004.4,"uv_index":8.15,"wind_gusts":27.4,"aqi":106,"pm10":45.3,"pm2_5":42.6,"mosquito_risk":3,"arthritis_risk":5,"migraine_risk":4,"frizz_risk":1,"updated_at":"2026-04-08T03:15:11.856268+05:30"},{"city":"Agartala","state":"Tripura","latitude":23.8315,"longitude":91.2868,"temp":22.8,"humidity":93,"rain":0.0,"pressure":1006.9,"uv_index":8.45,"wind_gusts":28.1,"aqi":124,"pm10":33.3,"pm2_5":32.4,"mosquito_risk":3,"arthritis_risk":5,"migraine_risk":4,"frizz_risk":1,"updated_at":"2026-04-08T03:15:11.856276+05:30"},{"city":"Shillong","state":"Meghalaya","latitude":25.5788,"longitude":91.8933,"temp":11.2,"humidity":92,"rain":0.0,"pressure":854.5,"uv_index":6.8,"wind_gusts":40.0,"aqi":94,"pm10":32.4,"pm2_5":27.8,"mosquito_risk":3,"arthritis_risk":10,"migraine_risk":7,"frizz_risk":0,"updated_at":"2026-04-08T03:15:11.856285+05:30"},{"city":"Imphal","state":"Manipur","latitude":24.817,"longitude":93.9368,"temp":16.6,"humidity":81,"rain":0.0,"pressure":923.8,"uv_index":8.8,"wind_gusts":48.2,"aqi":98,"pm10":54.4,"pm2_5":51.0,"mosquito_risk":3,"arthritis_risk":10,"migraine_risk":7,"frizz_risk":0,"updated_at":"2026-04-08T03:15:11.856293+05:30"},{"city":"Aizawl","state":"Mizoram","latitude":23.7271,"longitude":92.7176,"temp":15.4,"humidity":87,"rain":0.0,"pressure":891.8,"uv_index":8.7,"wind_gusts":35.3,"aqi":86,"pm10":29.0,"pm2_5":26.5,"mosquito_risk":3,"arthritis_risk":10,"migraine_risk":7,"frizz_risk":0,"updated_at":"2026-04-08T03:15:11.856300+05:30"},{"city":"Kohima","state":"Nagaland","latitude":25.6701,"longitude":94.1077,"temp":12.9,"humidity":82,"rain":0.0,"pressure":854.1,"uv_index":8.65,"wind_gusts":58.7,"aqi":83,"pm10":32.0,"pm2_5":27.5,"mosquito_risk":3,"arthritis_risk":10,"migraine_risk":7,"frizz_risk":0,"updated_at":"2026-04-08T03:15:11.856308+05:30"},{"city":"Gangtok","state":"Sikkim","latitude":27.3314,"longitude":88.6138,"temp":11.3,"humidity":71,"rain":0.0,"pressure":835.5,"uv_index":7.6,"wind_gusts":25.2,"aqi":60,"pm10":22.9,"pm2_5":15.5,"mosquito_risk":3,"arthritis_risk":5,"migraine_risk":7,"frizz_risk":0,"updated_at":"2026-04-08T03:15:11.856316+05:30"},{"city":"Siliguri","state":"West Bengal","latitude":26.7271,"longitude":88.3953,"temp":19.2,"humidity":76,"rain":0.0,"pressure":995.8,"uv_index":7.9,"wind_gusts":22.0,"aqi":76,"pm10":31.9,"pm2_5":27.1,"mosquito_risk":3,"arthritis_risk":5,"migraine_risk":7,"frizz_risk":0,"updated_at":"2026-04-08T03:15:15.076532+05:30"},{"city":"Durgapur","state":"West Bengal","latitude":23.5204,"longitude":87.3119,"temp":22.6,"humidity":94,"rain":0.0,"pressure":995.4,"uv_index":8.65,"wind_gusts":24.8,"aqi":115,"pm10":39.7,"pm2_5":37.4,"mosquito_risk":3,"arthritis_risk":5,"migraine_risk":7,"frizz_risk":1,"updated_at":"2026-04-08T03:15:15.076592+05:30"},{"city":"Asansol","state":"West Bengal","latitude":23.6739,"longitude":86.9524,"temp":22.8,"humidity":90,"rain":0.0,"pressure":994.0,"uv_index":8.7,"wind_gusts":33.1,"aqi":104,"pm10":47.4,"pm2_5":44.1,"mosquito_risk":3,"arthritis_risk":5,"migraine_risk":7,"frizz_risk":1,"updated_at":"2026-04-08T03:15:15.076603+05:30"},{"city":"Pondicherry","state":"Puducherry","latitude":11.9139,"longitude":79.8145,"temp":27.6,"humidity":94,"rain":0.0,"pressure":1007.6,"uv_index":9.3,"wind_gusts":24.8,"aqi":85,"pm10":31.3,"pm2_5":23.8,"mosquito_risk":7,"arthritis_risk":5,"migraine_risk":4,"frizz_risk":1,"updated_at":"2026-04-08T03:15:15.076611+05:30"},{"city":"Port Blair","state":"Andaman and Nicobar Islands","latitude":11.6234,"longitude":92.7265,"temp":28.7,"humidity":69,"rain":0.0,"pressure":1007.3,"uv_index":8.95,"wind_gusts":11.9,"aqi":25,"pm10":4.0,"pm2_5":2.7,"mosquito_risk":7,"arthritis_risk":5,"migraine_risk":4,"frizz_risk":1,"updated_at":"2026-04-08T03:15:15.076618+05:30"},{"city":"Haridwar","state":"Uttarakhand","latitude":29.9457,"longitude":78.1642,"temp":18.8,"humidity":79,"rain":0.0,"pressure":973.2,"uv_index":4.15,"wind_gusts":26.6,"aqi":64,"pm10":35.9,"pm2_5":15.8,"mosquito_risk":3,"arthritis_risk":5,"migraine_risk":3,"frizz_risk":0,"updated_at":"2026-04-08T03:15:15.076625+05:30"},{"city":"Rishikesh","state":"Uttarakhand","latitude":30.0869,"longitude":78.2676,"temp":18.3,"humidity":77,"rain":0.0,"pressure":965.7,"uv_index":4.4,"wind_gusts":29.9,"aqi":58,"pm10":40.0,"pm2_5":16.5,"mosquito_risk":3,"arthritis_risk":5,"migraine_risk":3,"frizz_risk":0,"updated_at":"2026-04-08T03:15:15.076632+05:30"},{"city":"Nainital","state":"Uttarakhand","latitude":29.3919,"longitude":79.4542,"temp":15.1,"humidity":73,"rain":0.0,"pressure":803.2,"uv_index":4.95,"wind_gusts":65.2,"aqi":54,"pm10":36.7,"pm2_5":18.9,"mosquito_risk":3,"arthritis_risk":5,"migraine_risk":3,"frizz_risk":0,"updated_at":"2026-04-08T03:15:15.076639+05:30"},{"city":"Mussoorie","state":"Uttarakhand","latitude":30.4599,"longitude":78.0664,"temp":11.0,"humidity":78,"rain":0.0,"pressure":797.8,"uv_index":3.5,"wind_gusts":54.4,"aqi":54,"pm10":36.2,"pm2_5":15.7,"mosquito_risk":3,"arthritis_risk":5,"migraine_risk":3,"frizz_risk":0,"updated_at":"2026-04-08T03:15:15.076645+05:30"},{"city":"Dharamshala","state":"Himachal Pradesh","latitude":32.219,"longitude":76.3234,"temp":13.2,"humidity":86,"rain":0.4,"pressure":865.5,"uv_index":3.25,"wind_gusts":36.4,"aqi":59,"pm10":7.3,"pm2_5":5.6,"mosquito_risk":6,"arthritis_risk":10,"migraine_risk":3,"frizz_risk":0,"updated_at":"2026-04-08T03:15:15.076653+05:30"},{"city":"Dalhousie","state":"Himachal Pradesh","latitude":32.5387,"longitude":75.971,"temp":9.8,"humidity":74,"rain":0.8,"pressure":798.7,"uv_index":1.45,"wind_gusts":38.2,"aqi":56,"pm10":31.7,"pm2_5":16.9,"mosquito_risk":6,"arthritis_risk":5,"migraine_risk":3,"frizz_risk":0,"updated_at":"2026-04-08T03:15:15.076661+05:30"},{"city":"Patiala","state":"Punjab","latitude":30.3398,"longitude":76.3869,"temp":16.6,"humidity":92,"rain":0.0,"pressure":977.3,"uv_index":2.7,"wind_gusts":23.4,"aqi":230,"pm10":75.0,"pm2_5":29.3,"mosquito_risk":3,"arthritis_risk":10,"migraine_risk":3,"frizz_risk":0,"updated_at":"2026-04-08T03:15:15.076668+05:30"},{"city":"Bhatinda","state":"Punjab","latitude":30.211,"longitude":74.9455,"temp":16.9,"humidity":92,"rain":0.0,"pressure":983.2,"uv_index":7.4,"wind_gusts":20.5,"aqi":110,"pm10":79.2,"pm2_5":26.8,"mosquito_risk":3,"arthritis_risk":10,"migraine_risk":7,"frizz_risk":0,"updated_at":"2026-04-08T03:15:15.076675+05:30"},{"city":"Rohtak","state":"Haryana","latitude":28.8955,"longitude":76.6066,"temp":17.6,"humidity":92,"rain":0.0,"pressure":980.8,"uv_index":6.95,"wind_gusts":25.9,"aqi":318,"pm10":115.0,"pm2_5":42.7,"mosquito_risk":3,"arthritis_risk":10,"migraine_risk":7,"frizz_risk":1,"updated_at":"2026-04-08T03:15:15.076681+05:30"},{"city":"Panipat","state":"Haryana","latitude":29.3909,"longitude":76.9635,"temp":16.9,"humidity":96,"rain":0.0,"pressure":979.1,"uv_index":5.65,"wind_gusts":24.1,"aqi":489,"pm10":92.2,"pm2_5":38.9,"mosquito_risk":3,"arthritis_risk":10,"migraine_risk":3,"frizz_risk":1,"updated_at":"2026-04-08T03:15:15.076688+05:30"},{"city":"Mathura","state":"Uttar Pradesh","latitude":27.4924,"longitude":77.6737,"temp":19.0,"humidity":95,"rain":0.0,"pressure":985.3,"uv_index":7.3,"wind_gusts":27.0,"aqi":450,"pm10":75.2,"pm2_5":31.1,"mosquito_risk":3,"arthritis_risk":10,"migraine_risk":7,"frizz_risk":1,"updated_at":"2026-04-08T03:15:15.076694+05:30"},{"city":"Vrindavan","state":"Uttar Pradesh","latitude":27.5823,"longitude":77.7027,"temp":18.6,"humidity":96,"rain":0.0,"pressure":985.6,"uv_index":7.25,"wind_gusts":27.4,"aqi":450,"pm10":75.2,"pm2_5":31.1,"mosquito_risk":3,"arthritis_risk":10,"migraine_risk":7,"frizz_risk":1,"updated_at":"2026-04-08T03:15:15.076701+05:30"},{"city":"Ayodhya","state":"Uttar Pradesh","latitude":26.7922,"longitude":82.1998,"temp":20.9,"humidity":77,"rain":0.0,"pressure":995.1,"uv_index":7.25,"wind_gusts":38.2,"aqi":88,"pm10":61.0,"pm2_5":23.7,"mosquito_risk":3,"arthritis_risk":5,"migraine_risk":7,"frizz_risk":1,"updated_at":"2026-04-08T03:15:15.076707+05:30"},{"city":"Ratlam","state":"Madhya Pradesh","latitude":23.3315,"longitude":75.0367,"temp":22.9,"humidity":89,"rain":0.0,"pressure":952.1,"uv_index":8.25,"wind_gusts":50.4,"aqi":66,"pm10":50.9,"pm2_5":22.1,"mosquito_risk":3,"arthritis_risk":5,"migraine_risk":7,"frizz_risk":1,"updated_at":"2026-04-08T03:15:15.076713+05:30"},{"city":"Sagar","state":"Madhya Pradesh","latitude":23.8388,"longitude":78.7378,"temp":23.3,"humidity":57,"rain":0.0,"pressure":947.7,"uv_index":8.3,"wind_gusts":46.1,"aqi":56,"pm10":41.6,"pm2_5":20.2,"mosquito_risk":0,"arthritis_risk":5,"migraine_risk":7,"frizz_risk":0,"updated_at":"2026-04-08T03:15:15.076720+05:30"},{"city":"Satna","state":"Madhya Pradesh","latitude":24.6005,"longitude":80.8322,"temp":21.7,"humidity":64,"rain":0.0,"pressure":970.4,"uv_index":8.35,"wind_gusts":42.8,"aqi":60,"pm10":49.2,"pm2_5":20.7,"mosquito_risk":3,"arthritis_risk":5,"migraine_risk":7,"frizz_risk":0,"updated_at":"2026-04-08T03:15:15.076726+05:30"},{"city":"Akola","state":"Maharashtra","latitude":20.7002,"longitude":77.0082,"temp":24.4,"humidity":66,"rain":0.0,"pressure":974.3,"uv_index":8.7,"wind_gusts":46.1,"aqi":65,"pm10":46.2,"pm2_5":19.9,"mosquito_risk":3,"arthritis_risk":5,"migraine_risk":7,"frizz_risk":1,"updated_at":"2026-04-08T03:15:15.076733+05:30"},{"city":"Amravati","state":"Maharashtra","latitude":20.9374,"longitude":77.7796,"temp":23.1,"humidity":64,"rain":0.0,"pressure":966.1,"uv_index":8.7,"wind_gusts":43.2,"aqi":59,"pm10":51.1,"pm2_5":22.3,"mosquito_risk":3,"arthritis_risk":5,"migraine_risk":7,"frizz_risk":0,"updated_at":"2026-04-08T03:15:15.076740+05:30"},{"city":"Latur","state":"Maharashtra","latitude":18.4088,"longitude":76.5604,"temp":21.8,"humidity":60,"rain":0.0,"pressure":939.0,"uv_index":9.0,"wind_gusts":34.9,"aqi":66,"pm10":45.4,"pm2_5":23.7,"mosquito_risk":0,"arthritis_risk":5,"migraine_risk":7,"frizz_risk":0,"updated_at":"2026-04-08T03:15:15.076747+05:30"},{"city":"Nanded","state":"Maharashtra","latitude":19.1383,"longitude":77.3091,"temp":24.1,"humidity":60,"rain":0.0,"pressure":968.1,"uv_index":8.9,"wind_gusts":33.5,"aqi":71,"pm10":45.1,"pm2_5":27.9,"mosquito_risk":0,"arthritis_risk":5,"migraine_risk":7,"frizz_risk":0,"updated_at":"2026-04-08T03:15:15.076754+05:30"},{"city":"Gulbarga","state":"Karnataka","latitude":17.3297,"longitude":76.8343,"temp":26.7,"humidity":38,"rain":0.0,"pressure":958.1,"uv_index":9.05,"wind_gusts":29.9,"aqi":57,"pm10":32.8,"pm2_5":20.1,"mosquito_risk":4,"arthritis_risk":5,"migraine_risk":7,"frizz_risk":0,"updated_at":"2026-04-08T03:15:15.076760+05:30"},{"city":"Bidar","state":"Karnataka","latitude":17.9104,"longitude":77.5199,"temp":25.3,"humidity":45,"rain":0.0,"pressure":934.7,"uv_index":9.05,"wind_gusts":28.8,"aqi":69,"pm10":53.4,"pm2_5":28.3,"mosquito_risk":4,"arthritis_risk":5,"migraine_risk":7,"frizz_risk":0,"updated_at":"2026-04-08T03:15:15.076767+05:30"},{"city":"Hospet","state":"Karnataka","latitude":15.2689,"longitude":76.3909,"temp":24.2,"humidity":76,"rain":0.0,"pressure":956.0,"uv_index":9.25,"wind_gusts":29.2,"aqi":48,"pm10":11.6,"pm2_5":9.3,"mosquito_risk":3,"arthritis_risk":5,"migraine_risk":7,"frizz_risk":1,"updated_at":"2026-04-08T03:15:15.076773+05:30"},{"city":"Tirupur","state":"Tamil Nadu","latitude":11.1085,"longitude":77.3411,"temp":24.7,"humidity":81,"rain":0.0,"pressure":974.4,"uv_index":9.5,"wind_gusts":40.3,"aqi":63,"pm10":22.1,"pm2_5":18.8,"mosquito_risk":3,"arthritis_risk":5,"migraine_risk":7,"frizz_risk":1,"updated_at":"2026-04-08T03:15:15.076780+05:30"},{"city":"Alappuzha","state":"Kerala","latitude":9.4981,"longitude":76.3388,"temp":28.9,"humidity":71,"rain":0.0,"pressure":1008.3,"uv_index":9.2,"wind_gusts":32.0,"aqi":61,"pm10":26.1,"pm2_5":16.8,"mosquito_risk":7,"arthritis_risk":0,"migraine_risk":4,"frizz_risk":1,"updated_at":"2026-04-08T03:15:15.076786+05:30"},{"city":"Munnar","state":"Kerala","latitude":10.0889,"longitude":77.0595,"temp":18.7,"humidity":94,"rain":0.0,"pressure":855.3,"uv_index":7.15,"wind_gusts":39.2,"aqi":60,"pm10":21.5,"pm2_5":18.5,"mosquito_risk":3,"arthritis_risk":10,"migraine_risk":7,"frizz_risk":1,"updated_at":"2026-04-08T03:15:15.076793+05:30"},{"city":"Silchar","state":"Assam","latitude":24.8333,"longitude":92.7789,"temp":21.1,"humidity":81,"rain":0.0,"pressure":1006.6,"uv_index":8.45,"wind_gusts":27.7,"aqi":132,"pm10":59.0,"pm2_5":54.2,"mosquito_risk":3,"arthritis_risk":5,"migraine_risk":4,"frizz_risk":1,"updated_at":"2026-04-08T03:15:15.076800+05:30"},{"city":"Dibrugarh","state":"Assam","latitude":27.4728,"longitude":94.912,"temp":20.1,"humidity":84,"rain":0.0,"pressure":998.7,"uv_index":8.25,"wind_gusts":14.0,"aqi":88,"pm10":20.1,"pm2_5":17.2,"mosquito_risk":3,"arthritis_risk":5,"migraine_risk":7,"frizz_risk":1,"updated_at":"2026-04-08T03:15:15.076806+05:30"}]