[{"city":"Delhi","state":"Delhi","latitude":28.6139,"longitude":77.209,"temp":21.6,"humidity":57,"rain":0.0,"pressure":986.7,"uv_index":7.15,"wind_gusts":37.8,"aqi":768,"pm10":795.3,"pm2_5":138.3,"mosquito_risk":0,"arthritis_risk":5,"migraine_risk":7,"frizz_risk":0,"updated_at":"2026-04-11T02:12:06.686467+05:30"},{"city":"Mumbai","state":"Maharashtra","latitude":19.076,"longitude":72.8777,"temp":28.6,"humidity":79,"rain":0.0,"pressure":1009.7,"uv_index":7.95,"wind_gusts":25.2,"aqi":101,"pm10":66.6,"pm2_5":41.1,"mosquito_risk":7,"arthritis_risk":0,"migraine_risk":4,"frizz_risk":1,"updated_at":"2026-04-11T02:12:06.686507+05:30"},{"city":"Bangalore","state":"Karnataka","latitude":12.9716,"longitude":77.5946,"temp":24.6,"humidity":82,"rain":0.0,"pressure":913.0,"uv_index":9.65,"wind_gusts":28.1,"aqi":92,"pm10":35.7,"pm2_5":33.4,"mosquito_risk":3,"arthritis_risk":5,"migraine_risk":7,"frizz_risk":1,"updated_at":"2026-04-11T02:12:06.686522+05:30"},{"city":"Hyderabad","state":"Telangana","latitude":17.385,"longitude":78.4867,"temp":28.1,"humidity":59,"rain":0.0,"pressure":954.5,"uv_index":9.25,"wind_gusts":27.0,"aqi":103,"pm10":83.8,"pm2_5":53.2,"mosquito_risk":4,"arthritis_risk":5,"migraine_risk":7,"frizz_risk":1,"updated_at":"2026-04-11T02:12:06.686532+05:30"},{"city":"Chennai","state":"Tamil Nadu","latitude":13.0827,"longitude":80.2707,"temp":28.4,"humidity":84,"rain":0.0,"pressure":1008.7,"uv_index":9.15,"wind_gusts":36.0,"aqi":62,"pm10":19.7,"pm2_5":13.8,"mosquito_risk":7,"arthritis_risk":0,"migraine_risk":4,"frizz_risk":1,"updated_at":"2026-04-11T02:12:06.686541+05:30"},{"city":"Kolkata","state":"West Bengal","latitude":22.5726,"longitude":88.3639,"temp":23.8,"humidity":94,"rain":0.0,"pressure":1007.7,"uv_index":8.75,"wind_gusts":18.7,"aqi":154,"pm10":56.0,"pm2_5":41.4,"mosquito_risk":3,"arthritis_risk":5,"migraine_risk":4,"frizz_risk":1,"updated_at":"2026-04-11T02:12:06.686550+05:30"},{"city":"Pune","state":"Maharashtra","latitude":18.5204,"longitude":73.8567,"temp":24.5,"humidity":82,"rain":0.0,"pressure":949.8,"uv_index":8.55,"wind_gusts":40.7,"aqi":94,"pm10":64.7,"pm2_5":41.2,"mosquito_risk":3,"arthritis_risk":5,"migraine_risk":7,"frizz_risk":1,"updated_at":"2026-04-11T02:12:06.686561+05:30"},{"city":"Ahmedabad","state":"Gujarat","latitude":23.0225,"longitude":72.5714,"temp":27.4,"humidity":38,"rain":0.0,"pressure":1004.8,"uv_index":8.05,"wind_gusts":21.6,"aqi":74,"pm10":48.8,"pm2_5":25.0,"mosquito_risk":4,"arthritis_risk":5,"migraine_risk":4,"frizz_risk":0,"updated_at":"2026-04-11T02:12:06.686569+05:30"},{"city":"Jaipur","state":"Rajasthan","latitude":26.9124,"longitude":75.7873,"temp":24.5,"humidity":42,"rain":0.0,"pressure":963.7,"uv_index":7.85,"wind_gusts":33.1,"aqi":159,"pm10":106.9,"pm2_5":30.5,"mosquito_risk":0,"arthritis_risk":5,"migraine_risk":7,"frizz_risk":0,"updated_at":"2026-04-11T02:12:06.686576+05:30"},{"city":"Lucknow","state":"Uttar Pradesh","latitude":26.8467,"longitude":80.9462,"temp":21.2,"humidity":53,"rain":0.0,"pressure":995.9,"uv_index":7.65,"wind_gusts":44.6,"aqi":183,"pm10":735.7,"pm2_5":141.1,"mosquito_risk":0,"arthritis_risk":5,"migraine_risk":7,"frizz_risk":0,"updated_at":"2026-04-11T02:12:06.686584+05:30"},{"city":"Kanpur","state":"Uttar Pradesh","latitude":26.4499,"longitude":80.3319,"temp":20.0,"humidity":65,"rain":0.0,"pressure":994.6,"uv_index":7.7,"wind_gusts":40.0,"aqi":435,"pm10":1009.6,"pm2_5":146.2,"mosquito_risk":3,"arthritis_risk":5,"migraine_risk":7,"frizz_risk":0,"updated_at":"2026-04-11T02:12:06.686590+05:30"},{"city":"Chandigarh","state":"Chandigarh","latitude":30.7333,"longitude":76.7794,"temp":18.8,"humidity":64,"rain":0.0,"pressure":972.0,"uv_index":7.1,"wind_gusts":32.0,"aqi":75,"pm10":17.3,"pm2_5":16.4,"mosquito_risk":3,"arthritis_risk":5,"migraine_risk":7,"frizz_risk":0,"updated_at":"2026-04-11T02:12:06.686598+05:30"},{"city":"Srinagar","state":"Jammu and Kashmir","latitude":34.0837,"longitude":74.7973,"temp":9.9,"humidity":73,"rain":0.0,"pressure":842.7,"uv_index":8.05,"wind_gusts":23.4,"aqi":71,"pm10":50.3,"pm2_5":35.5,"mosquito_risk":3,"arthritis_risk":5,"migraine_risk":7,"frizz_risk":0,"updated_at":"2026-04-11T02:12:06.686604+05:30"},{"city":"Jammu","state":"Jammu and Kashmir","latitude":32.7266,"longitude":74.857,"temp":17.9,"humidity":77,"rain":0.0,"pressure":977.1,"uv_index":7.75,"wind_gusts":27.0,"aqi":65,"pm10":39.6,"pm2_5":31.1,"mosquito_risk":3,"arthritis_risk":5,"migraine_risk":7,"frizz_risk":0,"updated_at":"2026-04-11T02:12:06.686611+05:30"},{"city":"Amritsar","state":"Punjab","latitude":31.634,"longitude":74.8723,"temp":20.1,"humidity":70,"rain":0.0,"pressure":985.5,"uv_index":7.7,"wind_gusts":30.6,"aqi":73,"pm10":75.7,"pm2_5":26.1,"mosquito_risk":3,"arthritis_risk":5,"migraine_risk":7,"frizz_risk":0,"updated_at":"2026-04-11T02:12:06.686618+05:30"},{"city":"Ludhiana","state":"Punjab","latitude":30.901,"longitude":75.8573,"temp":20.7,"humidity":61,"rain":0.0,"pressure":983.1,"uv_index":7.2,"wind_gusts":32.0,"aqi":70,"pm10":25.6,"pm2_5":24.0,"mosquito_risk":3,"arthritis_risk":5,"migraine_risk":7,"frizz_risk":0,"updated_at":"2026-04-11T02:12:06.686625+05:30"},{"city":"Jalandhar","state":"Punjab","latitude":31.326,"longitude":75.5762,"temp":19.9,"humidity":67,"rain":0.0,"pressure":984.4,"uv_index":7.5,"wind_gusts":26.6,"aqi":74,"pm10":43.8,"pm2_5":20.4,"mosquito_risk":3,"arthritis_risk":5,"migraine_risk":7,"frizz_risk":0,"updated_at":"2026-04-11T02:12:06.686634+05:30"},{"city":"Dehradun","state":"Uttarakhand","latitude":30.6284,"longitude":78.0322,"temp":11.6,"humidity":57,"rain":0.0,"pressure":829.4,"uv_index":7.55,"wind_gusts":36.4,"aqi":54,"pm10":12.3,"pm2_5":10.2,"mosquito_risk":0,"arthritis_risk":5,"migraine_risk":7,"frizz_risk":0,"updated_at":"2026-04-11T02:12:06.686641+05:30"},{"city":"Shimla","state":"Himachal Pradesh","latitude":31.1048,"longitude":77.1734,"temp":8.7,"humidity":60,"rain":0.0,"pressure":783.1,"uv_index":7.2,"wind_gusts":47.5,"aqi":68,"pm10":17.7,"pm2_5":14.3,"mosquito_risk":0,"arthritis_risk":5,"migraine_risk":7,"frizz_risk":0,"updated_at":"2026-04-11T02:12:06.686647+05:30"},{"city":"Manali","state":"Himachal Pradesh","latitude":32.2396,"longitude":77.1887,"temp":12.9,"humidity":58,"rain":0.0,"pressure":819.5,"uv_index":9.55,"wind_gusts":37.4,"aqi":97,"pm10":22.1,"pm2_5":13.6,"mosquito_risk":0,"arthritis_risk":5,"migraine_risk":7,"frizz_risk":0,"updated_at":"2026-04-11T02:12:06.686654+05:30"},{"city":"Gurgaon","state":"Haryana","latitude":28.4595,"longitude":77.0266,"temp":19.4,"humidity":70,"rain":0.0,"pressure":985.2,"uv_index":7.3,"wind_gusts":31.7,"aqi":2186,"pm10":2265.0,"pm2_5":279.4,"mosquito_risk":3,"arthritis_risk":5,"migraine_risk":7,"frizz_risk":0,"updated_at":"2026-04-11T02:12:06.686660+05:30"},{"city":"Noida","state":"Uttar Pradesh","latitude":28.5355,"longitude":77.391,"temp":21.2,"humidity":61,"rain":0.0,"pressure":988.1,"uv_index":7.2,"wind_gusts":37.4,"aqi":2186,"pm10":2265.0,"pm2_5":279.4,"mosquito_risk":3,"arthritis_risk":5,"migraine_risk":7,"frizz_risk":0,"updated_at":"2026-04-11T02:12:06.686667+05:30"},{"city":"Ghaziabad","state":"Uttar Pradesh","latitude":28.6692,"longitude":77.4538,"temp":20.0,"humidity":63,"rain":0.0,"pressure":986.2,"uv_index":7.15,"wind_gusts":39.2,"aqi":593,"pm10":670.6,"pm2_5":122.9,"mosquito_risk":3,"arthritis_risk":5,"migraine_risk":7,"frizz_risk":0,"updated_at":"2026-04-11T02:12:06.686673+05:30"},{"city":"Faridabad","state":"Haryana","latitude":28.4089,"longitude":77.3178,"temp":21.7,"humidity":57,"rain":0.0,"pressure":987.5,"uv_index":7.25,"wind_gusts":38.9,"aqi":2186,"pm10":2265.0,"pm2_5":279.4,"mosquito_risk":0,"arthritis_risk":5,"migraine_risk":7,"frizz_risk":0,"updated_at":"2026-04-11T02:12:06.686680+05:30"},{"city":"Meerut","state":"Uttar Pradesh","latitude":28.9845,"longitude":77.7064,"temp":18.8,"humidity":67,"rain":0.0,"pressure":984.6,"uv_index":7.05,"wind_gusts":39.6,"aqi":593,"pm10":670.6,"pm2_5":122.9,"mosquito_risk":3,"arthritis_risk":5,"migraine_risk":7,"frizz_risk":0,"updated_at":"2026-04-11T02:12:06.686686+05:30"},{"city":"Agra","state":"Uttar Pradesh","latitude":27.1767,"longitude":78.0081,"temp":20.2,"humidity":64,"rain":0.0,"pressure":991.3,"uv_index":7.55,"wind_gusts":31.7,"aqi":1170,"pm10":1449.1,"pm2_5":173.7,"mosquito_risk":3,"arthritis_risk":5,"migraine_risk":7,"frizz_risk":0,"updated_at":"2026-04-11T02:12:06.686692+05:30"},{"city":"Varanasi","state":"Uttar Pradesh","latitude":25.3176,"longitude":82.9739,"temp":20.3,"humidity":55,"rain":0.0,"pressure":1000.2,"uv_index":8.3,"wind_gusts":39.6,"aqi":88,"pm10":241.2,"pm2_5":50.6,"mosquito_risk":0,"arthritis_risk":5,"migraine_risk":4,"frizz_risk":0,"updated_at":"2026-04-11T02:12:06.686701+05:30"},{"city":"Prayagraj","state":"Uttar Pradesh","latitude":25.4358,"longitude":81.8463,"temp":21.3,"humidity":57,"rain":0.0,"pressure":998.9,"uv_index":8.15,"wind_gusts":40.7,"aqi":96,"pm10":329.7,"pm2_5":64.7,"mosquito_risk":0,"arthritis_risk":5,"migraine_risk":7,"frizz_risk":0,"updated_at":"2026-04-11T02:12:06.686708+05:30"},{"city":"Gorakhpur","state":"Uttar Pradesh","latitude":26.7606,"longitude":83.3732,"temp":20.5,"humidity":44,"rain":0.0,"pressure":998.7,"uv_index":8.1,"wind_gusts":34.6,"aqi":94,"pm10":374.4,"pm2_5":74.5,"mosquito_risk":0,"arthritis_risk":5,"migraine_risk":7,"frizz_risk":0,"updated_at":"2026-04-11T02:12:06.686716+05:30"},{"city":"Bareilly","state":"Uttar Pradesh","latitude":28.367,"longitude":79.4304,"temp":18.2,"humidity":71,"rain":0.0,"pressure":989.1,"uv_index":7.45,"wind_gusts":44.3,"aqi":104,"pm10":300.8,"pm2_5":78.7,"mosquito_risk":3,"arthritis_risk":5,"migraine_risk":7,"frizz_risk":0,"updated_at":"2026-04-11T02:12:06.686723+05:30"},{"city":"Aligarh","state":"Uttar Pradesh","latitude":27.8974,"longitude":78.088,"temp":19.4,"humidity":66,"rain":0.0,"pressure":988.9,"uv_index":7.35,"wind_gusts":46.4,"aqi":1237,"pm10":1579.5,"pm2_5":229.1,"mosquito_risk":3,"arthritis_risk":5,"migraine_risk":7,"frizz_risk":0,"updated_at":"2026-04-11T02:12:06.686729+05:30"},{"city":"Moradabad","state":"Uttar Pradesh","latitude":28.8386,"longitude":78.7733,"temp":18.3,"humidity":70,"rain":0.0,"pressure":986.0,"uv_index":7.25,"wind_gusts":40.0,"aqi":127,"pm10":203.5,"pm2_5":62.2,"mosquito_risk":3,"arthritis_risk":5,"migraine_risk":7,"frizz_risk":0,"updated_at":"2026-04-11T02:12:06.686735+05:30"},{"city":"Saharanpur","state":"Uttar Pradesh","latitude":29.9637,"longitude":77.546,"temp":19.1,"humidity":59,"rain":0.0,"pressure":978.3,"uv_index":6.85,"wind_gusts":42.5,"aqi":88,"pm10":39.9,"pm2_5":19.3,"mosquito_risk":0,"arthritis_risk":5,"migraine_risk":7,"frizz_risk":0,"updated_at":"2026-04-11T02:12:06.686741+05:30"},{"city":"Jhansi","state":"Uttar Pradesh","latitude":25.4484,"longitude":78.5685,"temp":22.8,"humidity":41,"rain":0.0,"pressure":981.3,"uv_index":8.1,"wind_gusts":26.6,"aqi":75,"pm10":19.1,"pm2_5":12.0,"mosquito_risk":0,"arthritis_risk":5,"migraine_risk":7,"frizz_risk":0,"updated_at":"2026-04-11T02:12:10.037336+05:30"},{"city":"Surat","state":"Gujarat","latitude":21.1702,"longitude":72.8311,"temp":26.8,"humidity":59,"rain":0.0,"pressure":1008.2,"uv_index":7.8,"wind_gusts":29.5,"aqi":135,"pm10":44.4,"pm2_5":33.1,"mosquito_risk":4,"arthritis_risk":0,"migraine_risk":4,"frizz_risk":1,"updated_at":"2026-04-11T02:12:10.037405+05:30"},{"city":"Vadodara","state":"Gujarat","latitude":22.3072,"longitude":73.1812,"temp":25.9,"humidity":49,"rain":0.0,"pressure":1006.4,"uv_index":8.05,"wind_gusts":16.6,"aqi":74,"pm10":31.8,"pm2_5":23.5,"mosquito_risk":4,"arthritis_risk":5,"migraine_risk":4,"frizz_risk":0,"updated_at":"2026-04-11T02:12:10.037421+05:30"},{"city":"Rajkot","state":"Gujarat","latitude":22.3039,"longitude":70.8022,"temp":26.0,"humidity":66,"rain":0.0,"pressure":997.5,"uv_index":7.75,"wind_gusts":33.8,"aqi":73,"pm10":42.1,"pm2_5":31.3,"mosquito_risk":7,"arthritis_risk":5,"migraine_risk":7,"frizz_risk":1,"updated_at":"2026-04-11T02:12:10.037433+05:30"},{"city":"Thane","state":"Maharashtra","latitude":19.2183,"longitude":72.9781,"temp":26.5,"humidity":86,"rain":0.0,"pressure":1009.1,"uv_index":7.95,"wind_gusts":39.2,"aqi":101,"pm10":66.6,"pm2_5":41.1,"mosquito_risk":7,"arthritis_risk":0,"migraine_risk":4,"frizz_risk":1,"updated_at":"2026-04-11T02:12:10.037444+05:30"},{"city":"Nagpur","state":"Maharashtra","latitude":21.1458,"longitude":79.0882,"temp":26.5,"humidity":49,"rain":0.0,"pressure":974.9,"uv_index":8.75,"wind_gusts":21.2,"aqi":76,"pm10":37.3,"pm2_5":20.6,"mosquito_risk":4,"arthritis_risk":5,"migraine_risk":7,"frizz_risk":0,"updated_at":"2026-04-11T02:12:10.037453+05:30"},{"city":"Nashik","state":"Maharashtra","latitude":19.9975,"longitude":73.7898,"temp":25.2,"humidity":57,"rain":0.0,"pressure":947.3,"uv_index":8.25,"wind_gusts":37.8,"aqi":91,"pm10":70.8,"pm2_5":56.2,"mosquito_risk":4,"arthritis_risk":5,"migraine_risk":7,"frizz_risk":1,"updated_at":"2026-04-11T02:12:10.037461+05:30"},{"city":"Aurangabad","state":"Maharashtra","latitude":19.8762,"longitude":75.3433,"temp":27.2,"humidity":43,"rain":0.0,"pressure":945.6,"uv_index":8.9,"wind_gusts":29.2,"aqi":84,"pm10":47.4,"pm2_5":28.5,"mosquito_risk":4,"arthritis_risk":5,"migraine_risk":7,"frizz_risk":0,"updated_at":"2026-04-11T02:12:10.037468+05:30"},{"city":"Solapur","state":"Maharashtra","latitude":17.6599,"longitude":75.9064,"temp":29.7,"humidity":46,"rain":0.0,"pressure":957.6,"uv_index":9.0,"wind_gusts":18.4,"aqi":71,"pm10":28.7,"pm2_5":21.1,"mosquito_risk":4,"arthritis_risk":5,"migraine_risk":7,"frizz_risk":1,"updated_at":"2026-04-11T02:12:10.037476+05:30"},{"city":"Kolhapur","state":"Maharashtra","latitude":16.705,"longitude":74.2433,"temp":22.8,"humidity":74,"rain":0.0,"pressure":948.8,"uv_index":9.05,"wind_gusts":44.6,"aqi":92,"pm10":67.5,"pm2_5":43.9,"mosquito_risk":3,"arthritis_risk":5,"migraine_risk":7,"frizz_risk":1,"updated_at":"2026-04-11T02:12:10.037485+05:30"},{"city":"Goa","state":"Goa","latitude":15.2993,"longitude":74.124,"temp":27.3,"humidity":80,"rain":0.0,"pressure":998.9,"uv_index":9.05,"wind_gusts":33.1,"aqi":90,"pm10":93.8,"pm2_5":40.4,"mosquito_risk":7,"arthritis_risk":5,"migraine_risk":7,"frizz_risk":1,"updated_at":"2026-04-11T02:12:10.037492+05:30"},{"city":"Jodhpur","state":"Rajasthan","latitude":26.2389,"longitude":73.0243,"temp":26.1,"humidity":36,"rain":0.0,"pressure":986.1,"uv_index":8.05,"wind_gusts":27.4,"aqi":63,"pm10":55.8,"pm2_5":19.2,"mosquito_risk":4,"arthritis_risk":5,"migraine_risk":7,"frizz_risk":0,"updated_at":"2026-04-11T02:12:10.037500+05:30"},{"city":"Udaipur","state":"Rajasthan","latitude":24.5854,"longitude":73.7125,"temp":22.5,"humidity":39,"rain":0.0,"pressure":950.0,"uv_index":8.6,"wind_gusts":37.1,"aqi":47,"pm10":55.4,"pm2_5":17.4,"mosquito_risk":0,"arthritis_risk":5,"migraine_risk":7,"frizz_risk":0,"updated_at":"2026-04-11T02:12:10.037508+05:30"},{"city":"Kota","state":"Rajasthan","latitude":25.2138,"longitude":75.8648,"temp":22.4,"humidity":54,"rain":0.0,"pressure":982.4,"uv_index":8.1,"wind_gusts":22.0,"aqi":80,"pm10":77.5,"pm2_5":38.3,"mosquito_risk":0,"arthritis_risk":5,"migraine_risk":7,"frizz_risk":0,"updated_at":"2026-04-11T02:12:10.037516+05:30"},{"city":"Bikaner","state":"Rajasthan","latitude":28.0229,"longitude":73.3119,"temp":26.1,"humidity":39,"rain":0.0,"pressure":985.5,"uv_index":7.9,"wind_gusts":32.8,"aqi":64,"pm10":36.3,"pm2_5":15.4,"mosquito_risk":4,"arthritis_risk":5,"migraine_risk":7,"frizz_risk":0,"updated_at":"2026-04-11T02:12:10.037524+05:30"},{"city":"Ajmer","state":"Rajasthan","latitude":26.4499,"longitude":74.6399,"temp":23.3,"humidity":40,"rain":0.0,"pressure":958.0,"uv_index":8.0,"wind_gusts":34.6,"aqi":79,"pm10":65.4,"pm2_5":33.9,"mosquito_risk":0,"arthritis_risk":5,"migraine_risk":7,"frizz_risk":0,"updated_at":"2026-04-11T02:12:10.037531+05:30"},{"city":"Gwalior","state":"Madhya Pradesh","latitude":26.2183,"longitude":78.1828,"temp":22.9,"humidity":54,"rain":0.0,"pressure":986.8,"uv_index":7.8,"wind_gusts":27.0,"aqi":93,"pm10":66.8,"pm2_5":20.7,"mosquito_risk":0,"arthritis_risk":5,"migraine_risk":7,"frizz_risk":0,"updated_at":"2026-04-11T02:12:10.037538+05:30"},{"city":"Indore","state":"Madhya Pradesh","latitude":22.7196,"longitude":75.8577,"temp":21.8,"humidity":48,"rain":0.0,"pressure":950.6,"uv_index":8.5,"wind_gusts":22.0,"aqi":75,"pm10":34.1,"pm2_5":19.6,"mosquito_risk":0,"arthritis_risk":5,"migraine_risk":7,"frizz_risk":0,"updated_at":"2026-04-11T02:12:10.037546+05:30"},{"city":"Bhopal","state":"Madhya Pradesh","latitude":23.2599,"longitude":77.4126,"temp":23.4,"humidity":38,"rain":0.0,"pressure":956.7,"uv_index":8.5,"wind_gusts":21.6,"aqi":64,"pm10":28.8,"pm2_5":15.0,"mosquito_risk":0,"arthritis_risk":5,"migraine_risk":7,"frizz_risk":0,"updated_at":"2026-04-11T02:12:10.037554+05:30"},{"city":"Jabalpur","state":"Madhya Pradesh","latitude":23.1815,"longitude":79.9864,"temp":24.7,"humidity":43,"rain":0.0,"pressure":964.3,"uv_index":8.6,"wind_gusts":16.6,"aqi":74,"pm10":38.8,"pm2_5":18.7,"mosquito_risk":0,"arthritis_risk":5,"migraine_risk":7,"frizz_risk":0,"updated_at":"2026-04-11T02:12:10.037561+05:30"},{"city":"Ujjain","state":"Madhya Pradesh","latitude":23.1765,"longitude":75.7885,"temp":22.5,"humidity":46,"rain":0.0,"pressure":956.7,"uv_index":8.4,"wind_gusts":19.4,"aqi":62,"pm10":34.5,"pm2_5":19.6,"mosquito_risk":0,"arthritis_risk":5,"migraine_risk":7,"frizz_risk":0,"updated_at":"2026-04-11T02:12:10.037569+05:30"},{"city":"Visakhapatnam","state":"Andhra Pradesh","latitude":17.6868,"longitude":83.2185,"temp":27.6,"humidity":87,"rain":0.0,"pressure":1005.2,"uv_index":9.15,"wind_gusts":41.8,"aqi":92,"pm10":26.5,"pm2_5":20.8,"mosquito_risk":7,"arthritis_risk":5,"migraine_risk":4,"frizz_risk":1,"updated_at":"2026-04-11T02:12:10.037577+05:30"},{"city":"Vijayawada","state":"Andhra Pradesh","latitude":16.5062,"longitude":80.648,"temp":27.8,"humidity":87,"rain":0.0,"pressure":1003.9,"uv_index":9.2,"wind_gusts":24.5,"aqi":76,"pm10":20.4,"pm2_5":17.2,"mosquito_risk":7,"arthritis_risk":5,"migraine_risk":4,"frizz_risk":1,"updated_at":"2026-04-11T02:12:10.037585+05:30"},{"city":"Guntur","state":"Andhra Pradesh","latitude":16.3067,"longitude":80.4365,"temp":27.8,"humidity":88,"rain":0.0,"pressure":1005.0,"uv_index":9.25,"wind_gusts":32.0,"aqi":76,"pm10":20.8,"pm2_5":18.1,"mosquito_risk":7,"arthritis_risk":5,"migraine_risk":4,"frizz_risk":1,"updated_at":"2026-04-11T02:12:10.037592+05:30"},{"city":"Nellore","state":"Andhra Pradesh","latitude":14.4426,"longitude":79.9865,"temp":27.6,"humidity":86,"rain":0.0,"pressure":1006.9,"uv_index":9.0,"wind_gusts":39.2,"aqi":69,"pm10":17.8,"pm2_5":14.1,"mosquito_risk":7,"arthritis_risk":5,"migraine_risk":4,"frizz_risk":1,"updated_at":"2026-04-11T02:12:10.037601+05:30"},{"city":"Kurnool","state":"Andhra Pradesh","latitude":15.8281,"longitude":78.0373,"temp":30.8,"humidity":55,"rain":0.0,"pressure":977.5,"uv_index":9.25,"wind_gusts":26.3,"aqi":88,"pm10":32.4,"pm2_5":27.3,"mosquito_risk":0,"arthritis_risk":5,"migraine_risk":7,"frizz_risk":1,"updated_at":"2026-04-11T02:12:10.037609+05:30"},{"city":"Kakinada","state":"Andhra Pradesh","latitude":16.9891,"longitude":82.2475,"temp":27.7,"humidity":89,"rain":0.0,"pressure":1009.1,"uv_index":9.2,"wind_gusts":35.3,"aqi":68,"pm10":23.5,"pm2_5":16.3,"mosquito_risk":7,"arthritis_risk":0,"migraine_risk":4,"frizz_risk":1,"updated_at":"2026-04-11T02:12:10.037616+05:30"},{"city":"Tirupati","state":"Andhra Pradesh","latitude":13.6288,"longitude":79.4192,"temp":26.3,"humidity":86,"rain":0.0,"pressure":993.6,"uv_index":9.1,"wind_gusts":31.7,"aqi":88,"pm10":19.4,"pm2_5":17.1,"mosquito_risk":7,"arthritis_risk":5,"migraine_risk":7,"frizz_risk":1,"updated_at":"2026-04-11T02:12:10.037624+05:30"},{"city":"Warangal","state":"Telangana","latitude":17.9689,"longitude":79.5941,"temp":28.4,"humidity":74,"rain":0.0,"pressure":979.7,"uv_index":9.1,"wind_gusts":25.9,"aqi":109,"pm10":63.1,"pm2_5":47.7,"mosquito_risk":7,"arthritis_risk":5,"migraine_risk":7,"frizz_risk":1,"updated_at":"2026-04-11T02:12:10.037631+05:30"},{"city":"Nizamabad","state":"Telangana","latitude":18.6725,"longitude":78.0941,"temp":26.9,"humidity":60,"rain":0.0,"pressure":965.8,"uv_index":9.0,"wind_gusts":18.4,"aqi":82,"pm10":46.2,"pm2_5":29.0,"mosquito_risk":4,"arthritis_risk":5,"migraine_risk":7,"frizz_risk":1,"updated_at":"2026-04-11T02:12:10.037639+05:30"},{"city":"Mysore","state":"Karnataka","latitude":12.2958,"longitude":76.6396,"temp":23.4,"humidity":89,"rain":0.0,"pressure":929.9,"uv_index":9.55,"wind_gusts":30.2,"aqi":117,"pm10":39.3,"pm2_5":34.0,"mosquito_risk":3,"arthritis_risk":5,"migraine_risk":7,"frizz_risk":1,"updated_at":"2026-04-11T02:12:10.037647+05:30"},{"city":"Mangalore","state":"Karnataka","latitude":12.9141,"longitude":74.856,"temp":29.6,"humidity":80,"rain":0.0,"pressure":1008.0,"uv_index":8.6,"wind_gusts":27.0,"aqi":72,"pm10":99.7,"pm2_5":33.5,"mosquito_risk":7,"arthritis_risk":0,"migraine_risk":4,"frizz_risk":1,"updated_at":"2026-04-11T02:12:10.037654+05:30"},{"city":"Hubli-Dharwad","state":"Karnataka","latitude":15.3647,"longitude":75.124,"temp":24.4,"humidity":77,"rain":0.0,"pressure":941.3,"uv_index":9.25,"wind_gusts":36.0,"aqi":77,"pm10":65.9,"pm2_5":35.3,"mosquito_risk":3,"arthritis_risk":5,"migraine_risk":7,"frizz_risk":1,"updated_at":"2026-04-11T02:12:10.037662+05:30"},{"city":"Belgaum","state":"Karnataka","latitude":15.8497,"longitude":74.4977,"temp":23.0,"humidity":78,"rain":0.0,"pressure":926.2,"uv_index":9.3,"wind_gusts":40.0,"aqi":83,"pm10":88.0,"pm2_5":43.8,"mosquito_risk":3,"arthritis_risk":5,"migraine_risk":7,"frizz_risk":1,"updated_at":"2026-04-11T02:12:13.389734+05:30"},{"city":"Coimbatore","state":"Tamil Nadu","latitude":11.0168,"longitude":76.9558,"temp":24.7,"humidity":81,"rain":0.0,"pressure":963.6,"uv_index":8.85,"wind_gusts":32.0,"aqi":74,"pm10":36.6,"pm2_5":29.1,"mosquito_risk":3,"arthritis_risk":5,"migraine_risk":7,"frizz_risk":1,"updated_at":"2026-04-11T02:12:13.389761+05:30"},{"city":"Madurai","state":"Tamil Nadu","latitude":9.9252,"longitude":78.1198,"temp":27.5,"humidity":88,"rain":0.0,"pressure":994.6,"uv_index":8.9,"wind_gusts":40.3,"aqi":81,"pm10":24.9,"pm2_5":22.3,"mosquito_risk":7,"arthritis_risk":5,"migraine_risk":7,"frizz_risk":1,"updated_at":"2026-04-11T02:12:13.389770+05:30"},{"city":"Trichy","state":"Tamil Nadu","latitude":10.7905,"longitude":78.7047,"temp":27.6,"humidity":90,"rain":0.0,"pressure":1001.5,"uv_index":8.9,"wind_gusts":24.8,"aqi":66,"pm10":20.1,"pm2_5":17.7,"mosquito_risk":7,"arthritis_risk":5,"migraine_risk":4,"frizz_risk":1,"updated_at":"2026-04-11T02:12:13.389778+05:30"},{"city":"Salem","state":"Tamil Nadu","latitude":11.6643,"longitude":78.146,"temp":27.7,"humidity":81,"rain":0.0,"pressure":978.9,"uv_index":8.7,"wind_gusts":15.8,"aqi":81,"pm10":21.8,"pm2_5":19.8,"mosquito_risk":7,"arthritis_risk":5,"migraine_risk":7,"frizz_risk":1,"updated_at":"2026-04-11T02:12:13.389786+05:30"},{"city":"Tirunelveli","state":"Tamil Nadu","latitude":8.7139,"longitude":77.7567,"temp":26.0,"humidity":83,"rain":0.0,"pressure":1004.5,"uv_index":9.2,"wind_gusts":45.4,"aqi":72,"pm10":31.7,"pm2_5":26.7,"mosquito_risk":7,"arthritis_risk":5,"migraine_risk":4,"frizz_risk":1,"updated_at":"2026-04-11T02:12:13.389794+05:30"},{"city":"Vellore","state":"Tamil Nadu","latitude":12.9165,"longitude":79.1325,"temp":26.3,"humidity":78,"rain":0.0,"pressure":986.2,"uv_index":9.5,"wind_gusts":31.3,"aqi":94,"pm10":23.5,"pm2_5":21.0,"mosquito_risk":7,"arthritis_risk":5,"migraine_risk":7,"frizz_risk":1,"updated_at":"2026-04-11T02:12:13.389801+05:30"},{"city":"Erode","state":"Tamil Nadu","latitude":11.341,"longitude":77.7172,"temp":28.8,"humidity":75,"rain":0.0,"pressure":990.8,"uv_index":8.1,"wind_gusts":27.4,"aqi":73,"pm10":36.2,"pm2_5":32.8,"mosquito_risk":7,"arthritis_risk":5,"migraine_risk":7,"frizz_risk":1,"updated_at":"2026-04-11T02:12:13.389808+05:30"},{"city":"Kochi","state":"Kerala","latitude":9.9312,"longitude":76.2673,"temp":26.5,"humidity":86,"rain":0.0,"pressure":1010.6,"uv_index":7.35,"wind_gusts":30.6,"aqi":74,"pm10":25.9,"pm2_5":24.0,"mosquito_risk":7,"arthritis_risk":0,"migraine_risk":4,"frizz_risk":1,"updated_at":"2026-04-11T02:12:13.389815+05:30"},{"city":"Thiruvananthapuram","state":"Kerala","latitude":8.5241,"longitude":76.9366,"temp":27.4,"humidity":85,"rain":0.0,"pressure":1009.2,"uv_index":9.05,"wind_gusts":32.8,"aqi":67,"pm10":30.6,"pm2_5":17.5,"mosquito_risk":7,"arthritis_risk":0,"migraine_risk":4,"frizz_risk":1,"updated_at":"2026-04-11T02:12:13.389822+05:30"},{"city":"Kozhikode","state":"Kerala","latitude":11.2588,"longitude":75.7804,"temp":27.4,"humidity":87,"rain":0.0,"pressure":1009.9,"uv_index":9.1,"wind_gusts":27.4,"aqi":68,"pm10":45.5,"pm2_5":17.8,"mosquito_risk":7,"arthritis_risk":0,"migraine_risk":4,"frizz_risk":1,"updated_at":"2026-04-11T02:12:13.389828+05:30"},{"city":"Thrissur","state":"Kerala","latitude":10.5276,"longitude":76.2144,"temp":26.0,"humidity":90,"rain":0.0,"pressure":1009.0,"uv_index":8.55,"wind_gusts":34.2,"aqi":75,"pm10":24.6,"pm2_5":20.0,"mosquito_risk":7,"arthritis_risk":0,"migraine_risk":4,"frizz_risk":1,"updated_at":"2026-04-11T02:12:13.389836+05:30"},{"city":"Kannur","state":"Kerala","latitude":11.8745,"longitude":75.3704,"temp":26.8,"humidity":87,"rain":0.0,"pressure":1009.1,"uv_index":8.15,"wind_gusts":31.3,"aqi":69,"pm10":61.9,"pm2_5":22.6,"mosquito_risk":7,"arthritis_risk":0,"migraine_risk":4,"frizz_risk":1,"updated_at":"2026-04-11T02:12:13.389843+05:30"},{"city":"Patna","state":"Bihar","latitude":25.5941,"longitude":85.1376,"temp":22.8,"humidity":53,"rain":0.0,"pressure":1002.1,"uv_index":8.45,"wind_gusts":31.7,"aqi":70,"pm10":59.1,"pm2_5":30.6,"mosquito_risk":0,"arthritis_risk":5,"migraine_risk":4,"frizz_risk":0,"updated_at":"2026-04-11T02:12:13.389850+05:30"},{"city":"Gaya","state":"Bihar","latitude":24.7914,"longitude":85.0002,"temp":22.7,"humidity":49,"rain":0.0,"pressure":996.0,"uv_index":8.55,"wind_gusts":33.5,"aqi":75,"pm10":53.7,"pm2_5":27.1,"mosquito_risk":0,"arthritis_risk":5,"migraine_risk":7,"frizz_risk":0,"updated_at":"2026-04-11T02:12:13.389856+05:30"},{"city":"Muzaffarpur","state":"Bihar","latitude":26.1209,"longitude":85.3647,"temp":20.4,"humidity":49,"rain":0.0,"pressure":1002.1,"uv_index":8.45,"wind_gusts":25.9,"aqi":68,"pm10":65.2,"pm2_5":29.0,"mosquito_risk":0,"arthritis_risk":5,"migraine_risk":4,"frizz_risk":0,"updated_at":"2026-04-11T02:12:13.389862+05:30"},{"city":"Bhagalpur","state":"Bihar","latitude":25.2425,"longitude":87.0117,"temp":22.5,"humidity":60,"rain":0.0,"pressure":1002.5,"uv_index":8.45,"wind_gusts":22.3,"aqi":82,"pm10":46.9,"pm2_5":23.1,"mosquito_risk":0,"arthritis_risk":5,"migraine_risk":4,"frizz_risk":0,"updated_at":"2026-04-11T02:12:13.389869+05:30"},{"city":"Ranchi","state":"Jharkhand","latitude":23.3441,"longitude":85.3096,"temp":20.6,"humidity":48,"rain":0.0,"pressure":939.0,"uv_index":9.05,"wind_gusts":32.8,"aqi":80,"pm10":59.5,"pm2_5":24.6,"mosquito_risk":0,"arthritis_risk":5,"migraine_risk":7,"frizz_risk":0,"updated_at":"2026-04-11T02:12:13.389876+05:30"},{"city":"Jamshedpur","state":"Jharkhand","latitude":22.8046,"longitude":86.2029,"temp":24.0,"humidity":75,"rain":0.0,"pressure":992.4,"uv_index":8.85,"wind_gusts":17.6,"aqi":128,"pm10":96.6,"pm2_5":64.5,"mosquito_risk":3,"arthritis_risk":5,"migraine_risk":7,"frizz_risk":1,"updated_at":"2026-04-11T02:12:13.389882+05:30"},{"city":"Dhanbad","state":"Jharkhand","latitude":23.7957,"longitude":86.4304,"temp":20.8,"humidity":64,"rain":0.0,"pressure":981.5,"uv_index":8.8,"wind_gusts":26.3,"aqi":131,"pm10":101.7,"pm2_5":75.0,"mosquito_risk":3,"arthritis_risk":5,"migraine_risk":7,"frizz_risk":0,"updated_at":"2026-04-11T02:12:13.389889+05:30"},{"city":"Bokaro","state":"Jharkhand","latitude":23.6693,"longitude":86.1511,"temp":23.1,"humidity":49,"rain":0.0,"pressure":985.9,"uv_index":8.8,"wind_gusts":27.0,"aqi":120,"pm10":97.1,"pm2_5":71.2,"mosquito_risk":0,"arthritis_risk":5,"migraine_risk":7,"frizz_risk":0,"updated_at":"2026-04-11T02:12:13.389895+05:30"},{"city":"Bhubaneswar","state":"Odisha","latitude":20.2961,"longitude":85.8245,"temp":26.7,"humidity":95,"rain":0.0,"pressure":1004.1,"uv_index":9.0,"wind_gusts":27.0,"aqi":121,"pm10":38.2,"pm2_5":33.1,"mosquito_risk":7,"arthritis_risk":5,"migraine_risk":4,"frizz_risk":1,"updated_at":"2026-04-11T02:12:13.389903+05:30"},{"city":"Cuttack","state":"Odisha","latitude":20.4625,"longitude":85.8828,"temp":26.8,"humidity":97,"rain":0.0,"pressure":1005.8,"uv_index":9.05,"wind_gusts":20.2,"aqi":121,"pm10":38.2,"pm2_5":33.1,"mosquito_risk":7,"arthritis_risk":5,"migraine_risk":4,"frizz_risk":1,"updated_at":"2026-04-11T02:12:13.389910+05:30"},{"city":"Rourkela","state":"Odisha","latitude":22.2604,"longitude":84.8536,"temp":24.1,"humidity":71,"rain":0.0,"pressure":986.7,"uv_index":8.75,"wind_gusts":16.2,"aqi":80,"pm10":69.6,"pm2_5":42.5,"mosquito_risk":3,"arthritis_risk":5,"migraine_risk":7,"frizz_risk":1,"updated_at":"2026-04-11T02:12:13.389916+05:30"},{"city":"Raipur","state":"Chhattisgarh","latitude":21.2514,"longitude":81.6296,"temp":25.8,"humidity":35,"rain":0.0,"pressure":976.2,"uv_index":8.85,"wind_gusts":21.6,"aqi":121,"pm10":82.2,"pm2_5":61.9,"mosquito_risk":4,"arthritis_risk":5,"migraine_risk":7,"frizz_risk":0,"updated_at":"2026-04-11T02:12:13.389922+05:30"},{"city":"Bhilai","state":"Chhattisgarh","latitude":21.1938,"longitude":81.3509,"temp":24.5,"humidity":39,"rain":0.0,"pressure":976.5,"uv_index":8.85,"wind_gusts":19.1,"aqi":117,"pm10":67.3,"pm2_5":46.9,"mosquito_risk":0,"arthritis_risk":5,"migraine_risk":7,"frizz_risk":0,"updated_at":"2026-04-11T02:12:13.389929+05:30"},{"city":"Guwahati","state":"Assam","latitude":26.1158,"longitude":91.7086,"temp":21.5,"humidity":88,"rain":0.0,"pressure":1003.6,"uv_index":8.3,"wind_gusts":23.4,"aqi":83,"pm10":45.3,"pm2_5":39.7,"mosquito_risk":3,"arthritis_risk":5,"migraine_risk":4,"frizz_risk":1,"updated_at":"2026-04-11T02:12:13.389935+05:30"},{"city":"Agartala","state":"Tripura","latitude":23.8315,"longitude":91.2868,"temp":20.6,"humidity":96,"rain":0.0,"pressure":1007.9,"uv_index":8.6,"wind_gusts":25.6,"aqi":152,"pm10":88.7,"pm2_5":73.6,"mosquito_risk":3,"arthritis_risk":5,"migraine_risk":4,"frizz_risk":1,"updated_at":"2026-04-11T02:12:13.389941+05:30"},{"city":"Shillong","state":"Meghalaya","latitude":25.5788,"longitude":91.8933,"temp":10.2,"humidity":70,"rain":0.0,"pressure":854.5,"uv_index":8.75,"wind_gusts":56.5,"aqi":72,"pm10":36.6,"pm2_5":29.8,"mosquito_risk":3,"arthritis_risk":5,"migraine_risk":7,"frizz_risk":0,"updated_at":"2026-04-11T02:12:13.389947+05:30"},{"city":"Imphal","state":"Manipur","latitude":24.817,"longitude":93.9368,"temp":14.7,"humidity":85,"rain":0.0,"pressure":923.7,"uv_index":8.95,"wind_gusts":52.9,"aqi":91,"pm10":60.3,"pm2_5":46.2,"mosquito_risk":3,"arthritis_risk":10,"migraine_risk":7,"frizz_risk":0,"updated_at":"2026-04-11T02:12:13.389953+05:30"},{"city":"Aizawl","state":"Mizoram","latitude":23.7271,"longitude":92.7176,"temp":15.2,"humidity":88,"rain":0.0,"pressure":892.9,"uv_index":8.8,"wind_gusts":41.4,"aqi":72,"pm10":57.3,"pm2_5":29.9,"mosquito_risk":3,"arthritis_risk":10,"migraine_risk":7,"frizz_risk":0,"updated_at":"2026-04-11T02:12:13.389960+05:30"},{"city":"Kohima","state":"Nagaland","latitude":25.6701,"longitude":94.1077,"temp":11.0,"humidity":88,"rain":0.0,"pressure":853.4,"uv_index":8.85,"wind_gusts":77.0,"aqi":65,"pm10":40.6,"pm2_5":29.5,"mosquito_risk":3,"arthritis_risk":10,"migraine_risk":7,"frizz_risk":0,"updated_at":"2026-04-11T02:12:13.389966+05:30"},{"city":"Gangtok","state":"Sikkim","latitude":27.3314,"longitude":88.6138,"temp":11.7,"humidity":89,"rain":0.1,"pressure":835.5,"uv_index":8.2,"wind_gusts":18.7,"aqi":70,"pm10":37.3,"pm2_5":30.3,"mosquito_risk":6,"arthritis_risk":10,"migraine_risk":7,"frizz_risk":0,"updated_at":"2026-04-11T02:12:13.389972+05:30"},{"city":"Siliguri","state":"West Bengal","latitude":26.7271,"longitude":88.3953,"temp":18.6,"humidity":62,"rain":0.0,"pressure":995.3,"uv_index":8.35,"wind_gusts":18.0,"aqi":102,"pm10":63.8,"pm2_5":51.9,"mosquito_risk":3,"arthritis_risk":5,"migraine_risk":7,"frizz_risk":0,"updated_at":"2026-04-11T02:12:16.746034+05:30"},{"city":"Durgapur","state":"West Bengal","latitude":23.5204,"longitude":87.3119,"temp":24.0,"humidity":60,"rain":0.0,"pressure":996.9,"uv_index":8.75,"wind_gusts":21.6,"aqi":128,"pm10":85.2,"pm2_5":63.6,"mosquito_risk":0,"arthritis_risk":5,"migraine_risk":7,"frizz_risk":0,"updated_at":"2026-04-11T02:12:16.746068+05:30"},{"city":"Asansol","state":"West Bengal","latitude":23.6739,"longitude":86.9524,"temp":24.3,"humidity":47,"rain":0.0,"pressure":995.4,"uv_index":8.8,"wind_gusts":22.3,"aqi":106,"pm10":72.2,"pm2_5":48.0,"mosquito_risk":0,"arthritis_risk":5,"migraine_risk":7,"frizz_risk":0,"updated_at":"2026-04-11T02:12:16.746077+05:30"},{"city":"Pondicherry","state":"Puducherry","latitude":11.9139,"longitude":79.8145,"temp":26.9,"humidity":92,"rain":0.0,"pressure":1010.1,"uv_index":9.35,"wind_gusts":33.5,"aqi":59,"pm10":19.3,"pm2_5":13.1,"mosquito_risk":7,"arthritis_risk":0,"migraine_risk":4,"frizz_risk":1,"updated_at":"2026-04-11T02:12:16.746085+05:30"},{"city":"Port Blair","state":"Andaman and Nicobar Islands","latitude":11.6234,"longitude":92.7265,"temp":28.9,"humidity":75,"rain":0.0,"pressure":1007.5,"uv_index":9.25,"wind_gusts":22.3,"aqi":34,"pm10":4.2,"pm2_5":2.9,"mosquito_risk":7,"arthritis_risk":5,"migraine_risk":4,"frizz_risk":1,"updated_at":"2026-04-11T02:12:16.746093+05:30"},{"city":"Haridwar","state":"Uttarakhand","latitude":29.9457,"longitude":78.1642,"temp":15.5,"humidity":82,"rain":0.0,"pressure":976.4,"uv_index":7.0,"wind_gusts":41.4,"aqi":70,"pm10":28.7,"pm2_5":28.2,"mosquito_risk":3,"arthritis_risk":10,"migraine_risk":7,"frizz_risk":0,"updated_at":"2026-04-11T02:12:16.746100+05:30"},{"city":"Rishikesh","state":"Uttarakhand","latitude":30.0869,"longitude":78.2676,"temp":16.2,"humidity":74,"rain":0.0,"pressure":969.0,"uv_index":7.05,"wind_gusts":40.0,"aqi":84,"pm10":28.2,"pm2_5":22.5,"mosquito_risk":3,"arthritis_risk":5,"migraine_risk":7,"frizz_risk":0,"updated_at":"2026-04-11T02:12:16.746107+05:30"},{"city":"Nainital","state":"Uttarakhand","latitude":29.3919,"longitude":79.4542,"temp":15.6,"humidity":46,"rain":0.0,"pressure":805.3,"uv_index":7.9,"wind_gusts":69.1,"aqi":85,"pm10":59.6,"pm2_5":24.1,"mosquito_risk":0,"arthritis_risk":5,"migraine_risk":7,"frizz_risk":0,"updated_at":"2026-04-11T02:12:16.746113+05:30"},{"city":"Mussoorie","state":"Uttarakhand","latitude":30.4599,"longitude":78.0664,"temp":13.3,"humidity":61,"rain":0.0,"pressure":802.0,"uv_index":7.45,"wind_gusts":52.2,"aqi":61,"pm10":27.2,"pm2_5":26.1,"mosquito_risk":3,"arthritis_risk":5,"migraine_risk":7,"frizz_risk":0,"updated_at":"2026-04-11T02:12:16.746119+05:30"},{"city":"Dharamshala","state":"Himachal Pradesh","latitude":32.219,"longitude":76.3234,"temp":17.0,"humidity":41,"rain":0.0,"pressure":871.0,"uv_index":7.65,"wind_gusts":22.7,"aqi":103,"pm10":18.1,"pm2_5":10.0,"mosquito_risk":0,"arthritis_risk":5,"migraine_risk":7,"frizz_risk":0,"updated_at":"2026-04-11T02:12:16.746125+05:30"},{"city":"Dalhousie","state":"Himachal Pradesh","latitude":32.5387,"longitude":75.971,"temp":12.8,"humidity":57,"rain":0.0,"pressure":804.1,"uv_index":7.65,"wind_gusts":23.8,"aqi":57,"pm10":27.5,"pm2_5":21.9,"mosquito_risk":0,"arthritis_risk":5,"migraine_risk":7,"frizz_risk":0,"updated_at":"2026-04-11T02:12:16.746133+05:30"},{"city":"Patiala","state":"Punjab","latitude":30.3398,"longitude":76.3869,"temp":19.7,"humidity":63,"rain":0.0,"pressure":982.0,"uv_index":7.05,"wind_gusts":34.6,"aqi":756,"pm10":799.1,"pm2_5":91.0,"mosquito_risk":3,"arthritis_risk":5,"migraine_risk":7,"frizz_risk":0,"updated_at":"2026-04-11T02:12:16.746139+05:30"},{"city":"Bhatinda","state":"Punjab","latitude":30.211,"longitude":74.9455,"temp":21.0,"humidity":61,"rain":0.0,"pressure":988.4,"uv_index":7.4,"wind_gusts":29.9,"aqi":73,"pm10":52.0,"pm2_5":24.3,"mosquito_risk":3,"arthritis_risk":5,"migraine_risk":7,"frizz_risk":0,"updated_at":"2026-04-11T02:12:16.746145+05:30"},{"city":"Rohtak","state":"Haryana","latitude":28.8955,"longitude":76.6066,"temp":19.9,"humidity":62,"rain":0.0,"pressure":985.6,"uv_index":7.2,"wind_gusts":33.1,"aqi":1111,"pm10":1046.8,"pm2_5":151.8,"mosquito_risk":3,"arthritis_risk":5,"migraine_risk":7,"frizz_risk":0,"updated_at":"2026-04-11T02:12:16.746152+05:30"},{"city":"Panipat","state":"Haryana","latitude":29.3909,"longitude":76.9635,"temp":19.9,"humidity":60,"rain":0.0,"pressure":983.9,"uv_index":7.0,"wind_gusts":35.6,"aqi":2040,"pm10":1907.3,"pm2_5":230.5,"mosquito_risk":0,"arthritis_risk":5,"migraine_risk":7,"frizz_risk":0,"updated_at":"2026-04-11T02:12:16.746157+05:30"},{"city":"Mathura","state":"Uttar Pradesh","latitude":27.4924,"longitude":77.6737,"temp":24.0,"humidity":46,"rain":0.0,"pressure":990.4,"uv_index":7.5,"wind_gusts":31.7,"aqi":1298,"pm10":1493.8,"pm2_5":190.0,"mosquito_risk":0,"arthritis_risk":5,"migraine_risk":7,"frizz_risk":0,"updated_at":"2026-04-11T02:12:16.746163+05:30"},{"city":"Vrindavan","state":"Uttar Pradesh","latitude":27.5823,"longitude":77.7027,"temp":20.0,"humidity":64,"rain":0.0,"pressure":990.7,"uv_index":7.45,"wind_gusts":38.2,"aqi":1298,"pm10":1493.8,"pm2_5":190.0,"mosquito_risk":3,"arthritis_risk":5,"migraine_risk":7,"frizz_risk":0,"updated_at":"2026-04-11T02:12:16.746169+05:30"},{"city":"Ayodhya","state":"Uttar Pradesh","latitude":26.7922,"longitude":82.1998,"temp":20.2,"humidity":51,"rain":0.0,"pressure":997.2,"uv_index":7.85,"wind_gusts":42.8,"aqi":99,"pm10":577.4,"pm2_5":113.9,"mosquito_risk":0,"arthritis_risk":5,"migraine_risk":7,"frizz_risk":0,"updated_at":"2026-04-11T02:12:16.746176+05:30"},{"city":"Ratlam","state":"Madhya Pradesh","latitude":23.3315,"longitude":75.0367,"temp":22.0,"humidity":52,"rain":0.0,"pressure":957.3,"uv_index":8.35,"wind_gusts":20.2,"aqi":65,"pm10":31.3,"pm2_5":17.6,"mosquito_risk":0,"arthritis_risk":5,"migraine_risk":7,"frizz_risk":0,"updated_at":"2026-04-11T02:12:16.746182+05:30"},{"city":"Sagar","state":"Madhya Pradesh","latitude":23.8388,"longitude":78.7378,"temp":23.7,"humidity":36,"rain":0.0,"pressure":953.3,"uv_index":8.5,"wind_gusts":28.1,"aqi":66,"pm10":31.4,"pm2_5":15.0,"mosquito_risk":0,"arthritis_risk":5,"migraine_risk":7,"frizz_risk":0,"updated_at":"2026-04-11T02:12:16.746188+05:30"},{"city":"Satna","state":"Madhya Pradesh","latitude":24.6005,"longitude":80.8322,"temp":22.9,"humidity":39,"rain":0.0,"pressure":974.5,"uv_index":8.5,"wind_gusts":34.2,"aqi":90,"pm10":23.1,"pm2_5":14.0,"mosquito_risk":0,"arthritis_risk":5,"migraine_risk":7,"frizz_risk":0,"updated_at":"2026-04-11T02:12:16.746194+05:30"},{"city":"Akola","state":"Maharashtra","latitude":20.7002,"longitude":77.0082,"temp":28.4,"humidity":38,"rain":0.0,"pressure":976.7,"uv_index":8.7,"wind_gusts":21.6,"aqi":85,"pm10":52.5,"pm2_5":33.4,"mosquito_risk":4,"arthritis_risk":5,"migraine_risk":7,"frizz_risk":0,"updated_at":"2026-04-11T02:12:16.746200+05:30"},{"city":"Amravati","state":"Maharashtra","latitude":20.9374,"longitude":77.7796,"temp":26.2,"humidity":38,"rain":0.0,"pressure":968.5,"uv_index":8.75,"wind_gusts":22.0,"aqi":82,"pm10":41.8,"pm2_5":24.1,"mosquito_risk":4,"arthritis_risk":5,"migraine_risk":7,"frizz_risk":0,"updated_at":"2026-04-11T02:12:16.746207+05:30"},{"city":"Latur","state":"Maharashtra","latitude":18.4088,"longitude":76.5604,"temp":26.8,"humidity":55,"rain":0.0,"pressure":940.7,"uv_index":9.0,"wind_gusts":16.6,"aqi":73,"pm10":45.5,"pm2_5":28.5,"mosquito_risk":4,"arthritis_risk":5,"migraine_risk":7,"frizz_risk":1,"updated_at":"2026-04-11T02:12:16.746213+05:30"},{"city":"Nanded","state":"Maharashtra","latitude":19.1383,"longitude":77.3091,"temp":27.8,"humidity":55,"rain":0.0,"pressure":969.4,"uv_index":8.9,"wind_gusts":13.0,"aqi":75,"pm10":47.0,"pm2_5":30.4,"mosquito_risk":4,"arthritis_risk":5,"migraine_risk":7,"frizz_risk":1,"updated_at":"2026-04-11T02:12:16.746218+05:30"},{"city":"Gulbarga","state":"Karnataka","latitude":17.3297,"longitude":76.8343,"temp":30.1,"humidity":43,"rain":0.0,"pressure":959.4,"uv_index":9.1,"wind_gusts":18.4,"aqi":72,"pm10":28.2,"pm2_5":20.8,"mosquito_risk":0,"arthritis_risk":5,"migraine_risk":7,"frizz_risk":1,"updated_at":"2026-04-11T02:12:16.746224+05:30"},{"city":"Bidar","state":"Karnataka","latitude":17.9104,"longitude":77.5199,"temp":27.8,"humidity":48,"rain":0.0,"pressure":936.6,"uv_index":9.05,"wind_gusts":28.1,"aqi":77,"pm10":46.0,"pm2_5":28.2,"mosquito_risk":4,"arthritis_risk":5,"migraine_risk":7,"frizz_risk":0,"updated_at":"2026-04-11T02:12:16.746230+05:30"},{"city":"Hospet","state":"Karnataka","latitude":15.2689,"longitude":76.3909,"temp":29.1,"humidity":60,"rain":0.0,"pressure":957.0,"uv_index":9.25,"wind_gusts":25.9,"aqi":87,"pm10":45.9,"pm2_5":32.2,"mosquito_risk":4,"arthritis_risk":5,"migraine_risk":7,"frizz_risk":1,"updated_at":"2026-04-11T02:12:16.746235+05:30"},{"city":"Tirupur","state":"Tamil Nadu","latitude":11.1085,"longitude":77.3411,"temp":25.7,"humidity":81,"rain":0.0,"pressure":977.3,"uv_index":9.25,"wind_gusts":35.6,"aqi":81,"pm10":45.8,"pm2_5":40.5,"mosquito_risk":7,"arthritis_risk":5,"migraine_risk":7,"frizz_risk":1,"updated_at":"2026-04-11T02:12:16.746241+05:30"},{"city":"Alappuzha","state":"Kerala","latitude":9.4981,"longitude":76.3388,"temp":26.2,"humidity":86,"rain":0.0,"pressure":1010.6,"uv_index":7.4,"wind_gusts":28.4,"aqi":75,"pm10":26.4,"pm2_5":17.3,"mosquito_risk":7,"arthritis_risk":0,"migraine_risk":4,"frizz_risk":1,"updated_at":"2026-04-11T02:12:16.746246+05:30"},{"city":"Munnar","state":"Kerala","latitude":10.0889,"longitude":77.0595,"temp":20.9,"humidity":89,"rain":0.0,"pressure":857.7,"uv_index":8.05,"wind_gusts":37.4,"aqi":79,"pm10":24.6,"pm2_5":22.9,"mosquito_risk":3,"arthritis_risk":5,"migraine_risk":7,"frizz_risk":1,"updated_at":"2026-04-11T02:12:16.746253+05:30"},{"city":"Silchar","state":"Assam","latitude":24.8333,"longitude":92.7789,"temp":19.7,"humidity":92,"rain":0.0,"pressure":1007.7,"uv_index":8.6,"wind_gusts":24.5,"aqi":124,"pm10":71.5,"pm2_5":54.4,"mosquito_risk":3,"arthritis_risk":10,"migraine_risk":4,"frizz_risk":1,"updated_at":"2026-04-11T02:12:16.746259+05:30"},{"city":"Dibrugarh","state":"Assam","latitude":27.4728,"longitude":94.912,"temp":19.6,"humidity":94,"rain":0.0,"pressure":998.6,"uv_index":8.4,"wind_gusts":19.1,"aqi":92,"pm10":24.1,"pm2_5":19.2,"mosquito_risk":3,"arthritis_risk":10,"migraine_risk":7,"frizz_risk":1,"updated_at":"2026-04-11T02:12:16.746265+05:30"}]