[{"city":"Delhi","state":"Delhi","latitude":28.6139,"longitude":77.209,"temp":20.2,"humidity":65,"rain":0.0,"pressure":991.1,"uv_index":7.15,"wind_gusts":41.8,"aqi":162,"pm10":406.1,"pm2_5":86.1,"mosquito_risk":3,"arthritis_risk":5,"migraine_risk":7,"frizz_risk":0,"updated_at":"2026-04-10T08:19:38.959924+05:30"},{"city":"Mumbai","state":"Maharashtra","latitude":19.076,"longitude":72.8777,"temp":27.6,"humidity":75,"rain":0.0,"pressure":1012.8,"uv_index":7.95,"wind_gusts":25.9,"aqi":94,"pm10":130.9,"pm2_5":37.0,"mosquito_risk":7,"arthritis_risk":0,"migraine_risk":4,"frizz_risk":1,"updated_at":"2026-04-10T08:19:38.959972+05:30"},{"city":"Bangalore","state":"Karnataka","latitude":12.9716,"longitude":77.5946,"temp":25.2,"humidity":75,"rain":0.0,"pressure":915.6,"uv_index":9.65,"wind_gusts":43.2,"aqi":77,"pm10":41.2,"pm2_5":34.0,"mosquito_risk":7,"arthritis_risk":5,"migraine_risk":7,"frizz_risk":1,"updated_at":"2026-04-10T08:19:38.959988+05:30"},{"city":"Hyderabad","state":"Telangana","latitude":17.385,"longitude":78.4867,"temp":29.2,"humidity":68,"rain":0.0,"pressure":957.9,"uv_index":9.15,"wind_gusts":18.7,"aqi":94,"pm10":55.8,"pm2_5":51.9,"mosquito_risk":7,"arthritis_risk":5,"migraine_risk":7,"frizz_risk":1,"updated_at":"2026-04-10T08:19:38.960000+05:30"},{"city":"Chennai","state":"Tamil Nadu","latitude":13.0827,"longitude":80.2707,"temp":30.4,"humidity":76,"rain":0.0,"pressure":1011.0,"uv_index":9.4,"wind_gusts":34.6,"aqi":66,"pm10":24.7,"pm2_5":18.5,"mosquito_risk":3,"arthritis_risk":0,"migraine_risk":4,"frizz_risk":1,"updated_at":"2026-04-10T08:19:38.960009+05:30"},{"city":"Kolkata","state":"West Bengal","latitude":22.5726,"longitude":88.3639,"temp":25.0,"humidity":90,"rain":0.0,"pressure":1011.9,"uv_index":8.7,"wind_gusts":27.0,"aqi":150,"pm10":107.8,"pm2_5":92.7,"mosquito_risk":7,"arthritis_risk":0,"migraine_risk":4,"frizz_risk":1,"updated_at":"2026-04-10T08:19:38.960019+05:30"},{"city":"Pune","state":"Maharashtra","latitude":18.5204,"longitude":73.8567,"temp":25.6,"humidity":65,"rain":0.0,"pressure":953.0,"uv_index":8.55,"wind_gusts":31.7,"aqi":106,"pm10":129.5,"pm2_5":60.1,"mosquito_risk":7,"arthritis_risk":5,"migraine_risk":7,"frizz_risk":1,"updated_at":"2026-04-10T08:19:38.960031+05:30"},{"city":"Ahmedabad","state":"Gujarat","latitude":23.0225,"longitude":72.5714,"temp":27.7,"humidity":53,"rain":0.0,"pressure":1008.4,"uv_index":8.0,"wind_gusts":33.8,"aqi":91,"pm10":36.9,"pm2_5":16.6,"mosquito_risk":4,"arthritis_risk":0,"migraine_risk":4,"frizz_risk":1,"updated_at":"2026-04-10T08:19:38.960040+05:30"},{"city":"Jaipur","state":"Rajasthan","latitude":26.9124,"longitude":75.7873,"temp":21.7,"humidity":52,"rain":0.0,"pressure":967.9,"uv_index":7.75,"wind_gusts":27.7,"aqi":140,"pm10":363.2,"pm2_5":68.2,"mosquito_risk":0,"arthritis_risk":5,"migraine_risk":7,"frizz_risk":0,"updated_at":"2026-04-10T08:19:38.960048+05:30"},{"city":"Lucknow","state":"Uttar Pradesh","latitude":26.8467,"longitude":80.9462,"temp":22.9,"humidity":56,"rain":0.0,"pressure":1000.4,"uv_index":7.65,"wind_gusts":43.9,"aqi":96,"pm10":63.1,"pm2_5":33.8,"mosquito_risk":0,"arthritis_risk":5,"migraine_risk":4,"frizz_risk":0,"updated_at":"2026-04-10T08:19:38.960057+05:30"},{"city":"Kanpur","state":"Uttar Pradesh","latitude":26.4499,"longitude":80.3319,"temp":22.2,"humidity":64,"rain":0.0,"pressure":999.1,"uv_index":7.65,"wind_gusts":38.5,"aqi":131,"pm10":204.4,"pm2_5":47.4,"mosquito_risk":3,"arthritis_risk":5,"migraine_risk":7,"frizz_risk":0,"updated_at":"2026-04-10T08:19:38.960064+05:30"},{"city":"Chandigarh","state":"Chandigarh","latitude":30.7333,"longitude":76.7794,"temp":19.1,"humidity":67,"rain":0.0,"pressure":976.0,"uv_index":7.1,"wind_gusts":43.9,"aqi":66,"pm10":19.0,"pm2_5":18.9,"mosquito_risk":3,"arthritis_risk":5,"migraine_risk":7,"frizz_risk":0,"updated_at":"2026-04-10T08:19:38.960071+05:30"},{"city":"Srinagar","state":"Jammu and Kashmir","latitude":34.0837,"longitude":74.7973,"temp":8.2,"humidity":92,"rain":0.0,"pressure":845.8,"uv_index":8.1,"wind_gusts":13.0,"aqi":55,"pm10":17.2,"pm2_5":16.8,"mosquito_risk":3,"arthritis_risk":10,"migraine_risk":7,"frizz_risk":0,"updated_at":"2026-04-10T08:19:38.960079+05:30"},{"city":"Jammu","state":"Jammu and Kashmir","latitude":32.7266,"longitude":74.857,"temp":18.0,"humidity":60,"rain":0.0,"pressure":980.4,"uv_index":7.75,"wind_gusts":33.8,"aqi":70,"pm10":23.4,"pm2_5":23.1,"mosquito_risk":0,"arthritis_risk":5,"migraine_risk":7,"frizz_risk":0,"updated_at":"2026-04-10T08:19:38.960086+05:30"},{"city":"Amritsar","state":"Punjab","latitude":31.634,"longitude":74.8723,"temp":18.1,"humidity":74,"rain":0.0,"pressure":989.6,"uv_index":7.7,"wind_gusts":29.9,"aqi":86,"pm10":34.2,"pm2_5":31.9,"mosquito_risk":3,"arthritis_risk":5,"migraine_risk":7,"frizz_risk":0,"updated_at":"2026-04-10T08:19:38.960093+05:30"},{"city":"Ludhiana","state":"Punjab","latitude":30.901,"longitude":75.8573,"temp":19.0,"humidity":69,"rain":0.0,"pressure":987.3,"uv_index":7.3,"wind_gusts":34.9,"aqi":78,"pm10":30.7,"pm2_5":28.9,"mosquito_risk":3,"arthritis_risk":5,"migraine_risk":7,"frizz_risk":0,"updated_at":"2026-04-10T08:19:38.960100+05:30"},{"city":"Jalandhar","state":"Punjab","latitude":31.326,"longitude":75.5762,"temp":18.4,"humidity":73,"rain":0.0,"pressure":988.4,"uv_index":7.45,"wind_gusts":32.8,"aqi":78,"pm10":51.1,"pm2_5":41.1,"mosquito_risk":3,"arthritis_risk":5,"migraine_risk":7,"frizz_risk":0,"updated_at":"2026-04-10T08:19:38.960109+05:30"},{"city":"Dehradun","state":"Uttarakhand","latitude":30.6284,"longitude":78.0322,"temp":11.6,"humidity":57,"rain":0.0,"pressure":831.5,"uv_index":7.5,"wind_gusts":30.2,"aqi":35,"pm10":6.2,"pm2_5":5.4,"mosquito_risk":0,"arthritis_risk":5,"migraine_risk":7,"frizz_risk":0,"updated_at":"2026-04-10T08:19:38.960116+05:30"},{"city":"Shimla","state":"Himachal Pradesh","latitude":31.1048,"longitude":77.1734,"temp":10.6,"humidity":61,"rain":0.0,"pressure":786.1,"uv_index":7.6,"wind_gusts":51.8,"aqi":59,"pm10":10.2,"pm2_5":9.7,"mosquito_risk":3,"arthritis_risk":5,"migraine_risk":7,"frizz_risk":0,"updated_at":"2026-04-10T08:19:38.960123+05:30"},{"city":"Manali","state":"Himachal Pradesh","latitude":32.2396,"longitude":77.1887,"temp":14.1,"humidity":30,"rain":0.0,"pressure":820.3,"uv_index":9.85,"wind_gusts":28.4,"aqi":53,"pm10":8.2,"pm2_5":7.4,"mosquito_risk":0,"arthritis_risk":5,"migraine_risk":7,"frizz_risk":1,"updated_at":"2026-04-10T08:19:38.960131+05:30"},{"city":"Gurgaon","state":"Haryana","latitude":28.4595,"longitude":77.0266,"temp":19.4,"humidity":74,"rain":0.0,"pressure":989.8,"uv_index":7.25,"wind_gusts":39.6,"aqi":648,"pm10":1650.3,"pm2_5":223.5,"mosquito_risk":3,"arthritis_risk":5,"migraine_risk":7,"frizz_risk":0,"updated_at":"2026-04-10T08:19:38.960139+05:30"},{"city":"Noida","state":"Uttar Pradesh","latitude":28.5355,"longitude":77.391,"temp":20.6,"humidity":65,"rain":0.0,"pressure":992.6,"uv_index":7.15,"wind_gusts":41.0,"aqi":648,"pm10":1650.3,"pm2_5":223.5,"mosquito_risk":3,"arthritis_risk":5,"migraine_risk":7,"frizz_risk":0,"updated_at":"2026-04-10T08:19:38.960148+05:30"},{"city":"Ghaziabad","state":"Uttar Pradesh","latitude":28.6692,"longitude":77.4538,"temp":19.9,"humidity":68,"rain":0.0,"pressure":990.5,"uv_index":7.15,"wind_gusts":41.4,"aqi":124,"pm10":312.0,"pm2_5":65.9,"mosquito_risk":3,"arthritis_risk":5,"migraine_risk":7,"frizz_risk":0,"updated_at":"2026-04-10T08:19:38.960155+05:30"},{"city":"Faridabad","state":"Haryana","latitude":28.4089,"longitude":77.3178,"temp":20.4,"humidity":66,"rain":0.0,"pressure":992.0,"uv_index":7.2,"wind_gusts":40.0,"aqi":648,"pm10":1650.3,"pm2_5":223.5,"mosquito_risk":3,"arthritis_risk":5,"migraine_risk":7,"frizz_risk":0,"updated_at":"2026-04-10T08:19:38.960161+05:30"},{"city":"Meerut","state":"Uttar Pradesh","latitude":28.9845,"longitude":77.7064,"temp":19.8,"humidity":67,"rain":0.0,"pressure":988.8,"uv_index":7.05,"wind_gusts":44.3,"aqi":124,"pm10":312.0,"pm2_5":65.9,"mosquito_risk":3,"arthritis_risk":5,"migraine_risk":7,"frizz_risk":0,"updated_at":"2026-04-10T08:19:38.960167+05:30"},{"city":"Agra","state":"Uttar Pradesh","latitude":27.1767,"longitude":78.0081,"temp":21.3,"humidity":67,"rain":0.0,"pressure":996.4,"uv_index":7.5,"wind_gusts":39.6,"aqi":375,"pm10":1002.1,"pm2_5":145.8,"mosquito_risk":3,"arthritis_risk":5,"migraine_risk":7,"frizz_risk":0,"updated_at":"2026-04-10T08:19:38.960173+05:30"},{"city":"Varanasi","state":"Uttar Pradesh","latitude":25.3176,"longitude":82.9739,"temp":24.5,"humidity":55,"rain":0.0,"pressure":1004.4,"uv_index":8.2,"wind_gusts":40.3,"aqi":92,"pm10":68.2,"pm2_5":32.4,"mosquito_risk":0,"arthritis_risk":5,"migraine_risk":4,"frizz_risk":0,"updated_at":"2026-04-10T08:19:38.960182+05:30"},{"city":"Prayagraj","state":"Uttar Pradesh","latitude":25.4358,"longitude":81.8463,"temp":24.5,"humidity":56,"rain":0.0,"pressure":1003.2,"uv_index":8.1,"wind_gusts":35.3,"aqi":85,"pm10":86.4,"pm2_5":34.8,"mosquito_risk":0,"arthritis_risk":5,"migraine_risk":4,"frizz_risk":0,"updated_at":"2026-04-10T08:19:38.960189+05:30"},{"city":"Gorakhpur","state":"Uttar Pradesh","latitude":26.7606,"longitude":83.3732,"temp":23.6,"humidity":48,"rain":0.0,"pressure":1003.0,"uv_index":8.05,"wind_gusts":51.5,"aqi":75,"pm10":33.5,"pm2_5":23.9,"mosquito_risk":0,"arthritis_risk":5,"migraine_risk":4,"frizz_risk":0,"updated_at":"2026-04-10T08:19:38.960195+05:30"},{"city":"Bareilly","state":"Uttar Pradesh","latitude":28.367,"longitude":79.4304,"temp":20.5,"humidity":63,"rain":0.0,"pressure":993.6,"uv_index":7.4,"wind_gusts":40.0,"aqi":71,"pm10":27.5,"pm2_5":27.2,"mosquito_risk":3,"arthritis_risk":5,"migraine_risk":7,"frizz_risk":0,"updated_at":"2026-04-10T08:19:38.960201+05:30"},{"city":"Aligarh","state":"Uttar Pradesh","latitude":27.8974,"longitude":78.088,"temp":21.1,"humidity":64,"rain":0.0,"pressure":993.7,"uv_index":7.3,"wind_gusts":43.6,"aqi":178,"pm10":830.7,"pm2_5":129.0,"mosquito_risk":3,"arthritis_risk":5,"migraine_risk":7,"frizz_risk":0,"updated_at":"2026-04-10T08:19:38.960207+05:30"},{"city":"Moradabad","state":"Uttar Pradesh","latitude":28.8386,"longitude":78.7733,"temp":19.5,"humidity":65,"rain":0.0,"pressure":990.4,"uv_index":7.2,"wind_gusts":41.4,"aqi":79,"pm10":38.2,"pm2_5":30.3,"mosquito_risk":3,"arthritis_risk":5,"migraine_risk":7,"frizz_risk":0,"updated_at":"2026-04-10T08:19:38.960214+05:30"},{"city":"Saharanpur","state":"Uttar Pradesh","latitude":29.9637,"longitude":77.546,"temp":18.8,"humidity":68,"rain":0.0,"pressure":982.3,"uv_index":6.85,"wind_gusts":56.5,"aqi":81,"pm10":68.7,"pm2_5":34.2,"mosquito_risk":3,"arthritis_risk":5,"migraine_risk":7,"frizz_risk":0,"updated_at":"2026-04-10T08:19:38.960219+05:30"},{"city":"Jhansi","state":"Uttar Pradesh","latitude":25.4484,"longitude":78.5685,"temp":23.6,"humidity":61,"rain":0.0,"pressure":985.9,"uv_index":8.0,"wind_gusts":34.2,"aqi":92,"pm10":136.9,"pm2_5":34.9,"mosquito_risk":3,"arthritis_risk":5,"migraine_risk":7,"frizz_risk":0,"updated_at":"2026-04-10T08:19:42.258789+05:30"},{"city":"Surat","state":"Gujarat","latitude":21.1702,"longitude":72.8311,"temp":25.8,"humidity":81,"rain":0.0,"pressure":1011.9,"uv_index":7.75,"wind_gusts":22.0,"aqi":122,"pm10":116.6,"pm2_5":66.6,"mosquito_risk":7,"arthritis_risk":0,"migraine_risk":4,"frizz_risk":1,"updated_at":"2026-04-10T08:19:42.258825+05:30"},{"city":"Vadodara","state":"Gujarat","latitude":22.3072,"longitude":73.1812,"temp":26.6,"humidity":67,"rain":0.0,"pressure":1010.1,"uv_index":8.0,"wind_gusts":28.8,"aqi":80,"pm10":46.8,"pm2_5":34.3,"mosquito_risk":7,"arthritis_risk":0,"migraine_risk":4,"frizz_risk":1,"updated_at":"2026-04-10T08:19:42.258836+05:30"},{"city":"Rajkot","state":"Gujarat","latitude":22.3039,"longitude":70.8022,"temp":25.6,"humidity":82,"rain":0.0,"pressure":999.9,"uv_index":7.75,"wind_gusts":22.3,"aqi":72,"pm10":42.7,"pm2_5":20.3,"mosquito_risk":7,"arthritis_risk":5,"migraine_risk":7,"frizz_risk":1,"updated_at":"2026-04-10T08:19:42.258844+05:30"},{"city":"Thane","state":"Maharashtra","latitude":19.2183,"longitude":72.9781,"temp":26.5,"humidity":56,"rain":0.0,"pressure":1012.3,"uv_index":7.95,"wind_gusts":37.1,"aqi":94,"pm10":130.9,"pm2_5":37.0,"mosquito_risk":4,"arthritis_risk":0,"migraine_risk":4,"frizz_risk":1,"updated_at":"2026-04-10T08:19:42.258850+05:30"},{"city":"Nagpur","state":"Maharashtra","latitude":21.1458,"longitude":79.0882,"temp":26.9,"humidity":50,"rain":0.0,"pressure":979.2,"uv_index":8.7,"wind_gusts":25.6,"aqi":76,"pm10":45.1,"pm2_5":24.4,"mosquito_risk":4,"arthritis_risk":5,"migraine_risk":7,"frizz_risk":0,"updated_at":"2026-04-10T08:19:42.258858+05:30"},{"city":"Nashik","state":"Maharashtra","latitude":19.9975,"longitude":73.7898,"temp":24.4,"humidity":54,"rain":0.0,"pressure":950.1,"uv_index":8.2,"wind_gusts":27.7,"aqi":83,"pm10":97.3,"pm2_5":42.1,"mosquito_risk":0,"arthritis_risk":5,"migraine_risk":7,"frizz_risk":0,"updated_at":"2026-04-10T08:19:42.258865+05:30"},{"city":"Aurangabad","state":"Maharashtra","latitude":19.8762,"longitude":75.3433,"temp":26.8,"humidity":54,"rain":0.0,"pressure":948.9,"uv_index":8.85,"wind_gusts":28.4,"aqi":68,"pm10":45.3,"pm2_5":28.1,"mosquito_risk":4,"arthritis_risk":5,"migraine_risk":7,"frizz_risk":1,"updated_at":"2026-04-10T08:19:42.258872+05:30"},{"city":"Solapur","state":"Maharashtra","latitude":17.6599,"longitude":75.9064,"temp":28.1,"humidity":45,"rain":0.0,"pressure":961.8,"uv_index":8.95,"wind_gusts":23.8,"aqi":86,"pm10":34.8,"pm2_5":23.9,"mosquito_risk":4,"arthritis_risk":5,"migraine_risk":7,"frizz_risk":0,"updated_at":"2026-04-10T08:19:42.258880+05:30"},{"city":"Kolhapur","state":"Maharashtra","latitude":16.705,"longitude":74.2433,"temp":24.5,"humidity":75,"rain":0.0,"pressure":952.1,"uv_index":9.0,"wind_gusts":33.8,"aqi":85,"pm10":88.9,"pm2_5":49.0,"mosquito_risk":3,"arthritis_risk":5,"migraine_risk":7,"frizz_risk":1,"updated_at":"2026-04-10T08:19:42.258887+05:30"},{"city":"Goa","state":"Goa","latitude":15.2993,"longitude":74.124,"temp":27.3,"humidity":78,"rain":0.0,"pressure":1001.3,"uv_index":9.0,"wind_gusts":36.7,"aqi":66,"pm10":54.6,"pm2_5":24.0,"mosquito_risk":7,"arthritis_risk":5,"migraine_risk":4,"frizz_risk":1,"updated_at":"2026-04-10T08:19:42.258894+05:30"},{"city":"Jodhpur","state":"Rajasthan","latitude":26.2389,"longitude":73.0243,"temp":22.1,"humidity":48,"rain":0.0,"pressure":990.5,"uv_index":8.0,"wind_gusts":24.5,"aqi":68,"pm10":130.9,"pm2_5":32.0,"mosquito_risk":0,"arthritis_risk":5,"migraine_risk":7,"frizz_risk":0,"updated_at":"2026-04-10T08:19:42.258900+05:30"},{"city":"Udaipur","state":"Rajasthan","latitude":24.5854,"longitude":73.7125,"temp":23.6,"humidity":35,"rain":0.0,"pressure":953.7,"uv_index":8.55,"wind_gusts":29.5,"aqi":54,"pm10":18.9,"pm2_5":7.3,"mosquito_risk":0,"arthritis_risk":5,"migraine_risk":7,"frizz_risk":0,"updated_at":"2026-04-10T08:19:42.258907+05:30"},{"city":"Kota","state":"Rajasthan","latitude":25.2138,"longitude":75.8648,"temp":22.2,"humidity":67,"rain":0.0,"pressure":986.7,"uv_index":8.0,"wind_gusts":19.4,"aqi":82,"pm10":36.0,"pm2_5":17.9,"mosquito_risk":3,"arthritis_risk":5,"migraine_risk":7,"frizz_risk":0,"updated_at":"2026-04-10T08:19:42.258914+05:30"},{"city":"Bikaner","state":"Rajasthan","latitude":28.0229,"longitude":73.3119,"temp":22.5,"humidity":54,"rain":0.0,"pressure":990.1,"uv_index":7.85,"wind_gusts":22.0,"aqi":68,"pm10":51.7,"pm2_5":26.8,"mosquito_risk":0,"arthritis_risk":5,"migraine_risk":7,"frizz_risk":0,"updated_at":"2026-04-10T08:19:42.258921+05:30"},{"city":"Ajmer","state":"Rajasthan","latitude":26.4499,"longitude":74.6399,"temp":22.4,"humidity":48,"rain":0.0,"pressure":962.1,"uv_index":7.95,"wind_gusts":20.9,"aqi":71,"pm10":220.3,"pm2_5":51.6,"mosquito_risk":0,"arthritis_risk":5,"migraine_risk":7,"frizz_risk":0,"updated_at":"2026-04-10T08:19:42.258927+05:30"},{"city":"Gwalior","state":"Madhya Pradesh","latitude":26.2183,"longitude":78.1828,"temp":23.7,"humidity":62,"rain":0.0,"pressure":991.3,"uv_index":7.75,"wind_gusts":36.7,"aqi":119,"pm10":183.5,"pm2_5":52.6,"mosquito_risk":3,"arthritis_risk":5,"migraine_risk":7,"frizz_risk":0,"updated_at":"2026-04-10T08:19:42.258934+05:30"},{"city":"Indore","state":"Madhya Pradesh","latitude":22.7196,"longitude":75.8577,"temp":23.1,"humidity":50,"rain":0.0,"pressure":954.2,"uv_index":8.45,"wind_gusts":28.4,"aqi":78,"pm10":47.1,"pm2_5":28.7,"mosquito_risk":0,"arthritis_risk":5,"migraine_risk":7,"frizz_risk":0,"updated_at":"2026-04-10T08:19:42.258940+05:30"},{"city":"Bhopal","state":"Madhya Pradesh","latitude":23.2599,"longitude":77.4126,"temp":24.8,"humidity":48,"rain":0.0,"pressure":960.6,"uv_index":8.4,"wind_gusts":28.8,"aqi":75,"pm10":64.3,"pm2_5":26.1,"mosquito_risk":0,"arthritis_risk":5,"migraine_risk":7,"frizz_risk":0,"updated_at":"2026-04-10T08:19:42.258946+05:30"},{"city":"Jabalpur","state":"Madhya Pradesh","latitude":23.1815,"longitude":79.9864,"temp":24.4,"humidity":48,"rain":0.0,"pressure":968.6,"uv_index":8.55,"wind_gusts":22.7,"aqi":80,"pm10":53.2,"pm2_5":24.2,"mosquito_risk":0,"arthritis_risk":5,"migraine_risk":7,"frizz_risk":0,"updated_at":"2026-04-10T08:19:42.258953+05:30"},{"city":"Ujjain","state":"Madhya Pradesh","latitude":23.1765,"longitude":75.7885,"temp":23.2,"humidity":50,"rain":0.0,"pressure":960.4,"uv_index":8.35,"wind_gusts":28.8,"aqi":74,"pm10":45.9,"pm2_5":25.7,"mosquito_risk":0,"arthritis_risk":5,"migraine_risk":7,"frizz_risk":0,"updated_at":"2026-04-10T08:19:42.258960+05:30"},{"city":"Visakhapatnam","state":"Andhra Pradesh","latitude":17.6868,"longitude":83.2185,"temp":29.5,"humidity":80,"rain":0.0,"pressure":1008.1,"uv_index":9.1,"wind_gusts":36.7,"aqi":93,"pm10":50.1,"pm2_5":45.1,"mosquito_risk":7,"arthritis_risk":0,"migraine_risk":4,"frizz_risk":1,"updated_at":"2026-04-10T08:19:42.258967+05:30"},{"city":"Vijayawada","state":"Andhra Pradesh","latitude":16.5062,"longitude":80.648,"temp":29.9,"humidity":78,"rain":0.0,"pressure":1006.8,"uv_index":9.2,"wind_gusts":34.6,"aqi":87,"pm10":27.2,"pm2_5":22.0,"mosquito_risk":7,"arthritis_risk":5,"migraine_risk":4,"frizz_risk":1,"updated_at":"2026-04-10T08:19:42.258973+05:30"},{"city":"Guntur","state":"Andhra Pradesh","latitude":16.3067,"longitude":80.4365,"temp":30.3,"humidity":76,"rain":0.0,"pressure":1007.9,"uv_index":9.2,"wind_gusts":37.1,"aqi":88,"pm10":26.1,"pm2_5":21.7,"mosquito_risk":3,"arthritis_risk":5,"migraine_risk":4,"frizz_risk":1,"updated_at":"2026-04-10T08:19:42.258980+05:30"},{"city":"Nellore","state":"Andhra Pradesh","latitude":14.4426,"longitude":79.9865,"temp":30.8,"humidity":74,"rain":0.0,"pressure":1009.7,"uv_index":9.3,"wind_gusts":32.0,"aqi":76,"pm10":23.4,"pm2_5":21.1,"mosquito_risk":3,"arthritis_risk":0,"migraine_risk":4,"frizz_risk":1,"updated_at":"2026-04-10T08:19:42.258987+05:30"},{"city":"Kurnool","state":"Andhra Pradesh","latitude":15.8281,"longitude":78.0373,"temp":30.5,"humidity":66,"rain":0.0,"pressure":980.8,"uv_index":9.2,"wind_gusts":24.5,"aqi":77,"pm10":38.4,"pm2_5":35.9,"mosquito_risk":3,"arthritis_risk":5,"migraine_risk":7,"frizz_risk":1,"updated_at":"2026-04-10T08:19:42.258994+05:30"},{"city":"Kakinada","state":"Andhra Pradesh","latitude":16.9891,"longitude":82.2475,"temp":30.1,"humidity":77,"rain":0.0,"pressure":1011.9,"uv_index":9.15,"wind_gusts":34.9,"aqi":76,"pm10":32.4,"pm2_5":24.3,"mosquito_risk":3,"arthritis_risk":0,"migraine_risk":4,"frizz_risk":1,"updated_at":"2026-04-10T08:19:42.259001+05:30"},{"city":"Tirupati","state":"Andhra Pradesh","latitude":13.6288,"longitude":79.4192,"temp":28.4,"humidity":81,"rain":0.0,"pressure":995.8,"uv_index":8.75,"wind_gusts":27.7,"aqi":93,"pm10":30.3,"pm2_5":28.8,"mosquito_risk":7,"arthritis_risk":5,"migraine_risk":7,"frizz_risk":1,"updated_at":"2026-04-10T08:19:42.259007+05:30"},{"city":"Warangal","state":"Telangana","latitude":17.9689,"longitude":79.5941,"temp":29.3,"humidity":76,"rain":0.0,"pressure":983.0,"uv_index":9.05,"wind_gusts":24.1,"aqi":118,"pm10":53.6,"pm2_5":50.8,"mosquito_risk":7,"arthritis_risk":5,"migraine_risk":7,"frizz_risk":1,"updated_at":"2026-04-10T08:19:42.259014+05:30"},{"city":"Nizamabad","state":"Telangana","latitude":18.6725,"longitude":78.0941,"temp":27.6,"humidity":56,"rain":0.0,"pressure":969.6,"uv_index":8.95,"wind_gusts":29.5,"aqi":89,"pm10":44.8,"pm2_5":29.5,"mosquito_risk":4,"arthritis_risk":5,"migraine_risk":7,"frizz_risk":1,"updated_at":"2026-04-10T08:19:42.259021+05:30"},{"city":"Mysore","state":"Karnataka","latitude":12.2958,"longitude":76.6396,"temp":25.1,"humidity":77,"rain":0.0,"pressure":932.4,"uv_index":9.55,"wind_gusts":28.4,"aqi":61,"pm10":43.0,"pm2_5":33.2,"mosquito_risk":7,"arthritis_risk":5,"migraine_risk":7,"frizz_risk":1,"updated_at":"2026-04-10T08:19:42.259027+05:30"},{"city":"Mangalore","state":"Karnataka","latitude":12.9141,"longitude":74.856,"temp":28.7,"humidity":83,"rain":0.0,"pressure":1009.9,"uv_index":9.1,"wind_gusts":31.7,"aqi":69,"pm10":51.0,"pm2_5":28.9,"mosquito_risk":7,"arthritis_risk":0,"migraine_risk":4,"frizz_risk":1,"updated_at":"2026-04-10T08:19:42.259033+05:30"},{"city":"Hubli-Dharwad","state":"Karnataka","latitude":15.3647,"longitude":75.124,"temp":26.3,"humidity":58,"rain":0.0,"pressure":944.4,"uv_index":9.2,"wind_gusts":40.3,"aqi":65,"pm10":56.9,"pm2_5":22.0,"mosquito_risk":4,"arthritis_risk":5,"migraine_risk":7,"frizz_risk":1,"updated_at":"2026-04-10T08:19:42.259041+05:30"},{"city":"Belgaum","state":"Karnataka","latitude":15.8497,"longitude":74.4977,"temp":24.3,"humidity":66,"rain":0.0,"pressure":929.5,"uv_index":9.25,"wind_gusts":36.0,"aqi":72,"pm10":95.5,"pm2_5":31.3,"mosquito_risk":3,"arthritis_risk":5,"migraine_risk":7,"frizz_risk":1,"updated_at":"2026-04-10T08:19:45.557933+05:30"},{"city":"Coimbatore","state":"Tamil Nadu","latitude":11.0168,"longitude":76.9558,"temp":27.6,"humidity":68,"rain":0.0,"pressure":965.7,"uv_index":9.5,"wind_gusts":41.0,"aqi":57,"pm10":35.0,"pm2_5":27.2,"mosquito_risk":7,"arthritis_risk":5,"migraine_risk":7,"frizz_risk":1,"updated_at":"2026-04-10T08:19:45.557972+05:30"},{"city":"Madurai","state":"Tamil Nadu","latitude":9.9252,"longitude":78.1198,"temp":28.9,"humidity":72,"rain":0.0,"pressure":996.7,"uv_index":9.4,"wind_gusts":37.4,"aqi":96,"pm10":38.3,"pm2_5":36.7,"mosquito_risk":7,"arthritis_risk":5,"migraine_risk":7,"frizz_risk":1,"updated_at":"2026-04-10T08:19:45.557983+05:30"},{"city":"Trichy","state":"Tamil Nadu","latitude":10.7905,"longitude":78.7047,"temp":28.8,"humidity":73,"rain":0.0,"pressure":1003.5,"uv_index":9.4,"wind_gusts":29.5,"aqi":69,"pm10":19.8,"pm2_5":15.8,"mosquito_risk":7,"arthritis_risk":5,"migraine_risk":4,"frizz_risk":1,"updated_at":"2026-04-10T08:19:45.557992+05:30"},{"city":"Salem","state":"Tamil Nadu","latitude":11.6643,"longitude":78.146,"temp":27.4,"humidity":78,"rain":0.0,"pressure":981.2,"uv_index":9.45,"wind_gusts":24.1,"aqi":77,"pm10":29.2,"pm2_5":26.2,"mosquito_risk":7,"arthritis_risk":5,"migraine_risk":7,"frizz_risk":1,"updated_at":"2026-04-10T08:19:45.558000+05:30"},{"city":"Tirunelveli","state":"Tamil Nadu","latitude":8.7139,"longitude":77.7567,"temp":28.4,"humidity":71,"rain":0.0,"pressure":1006.8,"uv_index":9.35,"wind_gusts":39.2,"aqi":64,"pm10":25.2,"pm2_5":21.8,"mosquito_risk":7,"arthritis_risk":5,"migraine_risk":4,"frizz_risk":1,"updated_at":"2026-04-10T08:19:45.558008+05:30"},{"city":"Vellore","state":"Tamil Nadu","latitude":12.9165,"longitude":79.1325,"temp":28.5,"humidity":74,"rain":0.0,"pressure":988.7,"uv_index":9.45,"wind_gusts":34.9,"aqi":96,"pm10":37.5,"pm2_5":35.6,"mosquito_risk":7,"arthritis_risk":5,"migraine_risk":7,"frizz_risk":1,"updated_at":"2026-04-10T08:19:45.558015+05:30"},{"city":"Erode","state":"Tamil Nadu","latitude":11.341,"longitude":77.7172,"temp":27.8,"humidity":80,"rain":0.0,"pressure":992.9,"uv_index":9.45,"wind_gusts":30.6,"aqi":63,"pm10":34.1,"pm2_5":25.2,"mosquito_risk":7,"arthritis_risk":5,"migraine_risk":7,"frizz_risk":1,"updated_at":"2026-04-10T08:19:45.558023+05:30"},{"city":"Kochi","state":"Kerala","latitude":9.9312,"longitude":76.2673,"temp":29.2,"humidity":82,"rain":0.0,"pressure":1011.2,"uv_index":9.25,"wind_gusts":33.5,"aqi":68,"pm10":32.5,"pm2_5":28.1,"mosquito_risk":7,"arthritis_risk":0,"migraine_risk":4,"frizz_risk":1,"updated_at":"2026-04-10T08:19:45.558030+05:30"},{"city":"Thiruvananthapuram","state":"Kerala","latitude":8.5241,"longitude":76.9366,"temp":28.5,"humidity":80,"rain":0.0,"pressure":1010.6,"uv_index":9.2,"wind_gusts":30.2,"aqi":60,"pm10":30.9,"pm2_5":21.3,"mosquito_risk":7,"arthritis_risk":0,"migraine_risk":4,"frizz_risk":1,"updated_at":"2026-04-10T08:19:45.558038+05:30"},{"city":"Kozhikode","state":"Kerala","latitude":11.2588,"longitude":75.7804,"temp":29.4,"humidity":77,"rain":0.0,"pressure":1010.9,"uv_index":9.15,"wind_gusts":30.2,"aqi":70,"pm10":53.3,"pm2_5":23.6,"mosquito_risk":7,"arthritis_risk":0,"migraine_risk":4,"frizz_risk":1,"updated_at":"2026-04-10T08:19:45.558045+05:30"},{"city":"Thrissur","state":"Kerala","latitude":10.5276,"longitude":76.2144,"temp":29.9,"humidity":77,"rain":0.0,"pressure":1009.8,"uv_index":9.2,"wind_gusts":39.6,"aqi":77,"pm10":44.0,"pm2_5":30.9,"mosquito_risk":7,"arthritis_risk":0,"migraine_risk":4,"frizz_risk":1,"updated_at":"2026-04-10T08:19:45.558052+05:30"},{"city":"Kannur","state":"Kerala","latitude":11.8745,"longitude":75.3704,"temp":28.7,"humidity":74,"rain":0.0,"pressure":1010.5,"uv_index":9.15,"wind_gusts":36.4,"aqi":70,"pm10":45.8,"pm2_5":26.9,"mosquito_risk":7,"arthritis_risk":0,"migraine_risk":4,"frizz_risk":1,"updated_at":"2026-04-10T08:19:45.558062+05:30"},{"city":"Patna","state":"Bihar","latitude":25.5941,"longitude":85.1376,"temp":24.6,"humidity":45,"rain":0.0,"pressure":1006.4,"uv_index":8.35,"wind_gusts":41.0,"aqi":85,"pm10":35.6,"pm2_5":21.7,"mosquito_risk":0,"arthritis_risk":5,"migraine_risk":4,"frizz_risk":0,"updated_at":"2026-04-10T08:19:45.558069+05:30"},{"city":"Gaya","state":"Bihar","latitude":24.7914,"longitude":85.0002,"temp":25.0,"humidity":48,"rain":0.0,"pressure":1000.4,"uv_index":8.45,"wind_gusts":39.2,"aqi":93,"pm10":38.1,"pm2_5":28.9,"mosquito_risk":4,"arthritis_risk":5,"migraine_risk":4,"frizz_risk":0,"updated_at":"2026-04-10T08:19:45.558076+05:30"},{"city":"Muzaffarpur","state":"Bihar","latitude":26.1209,"longitude":85.3647,"temp":23.9,"humidity":47,"rain":0.0,"pressure":1006.1,"uv_index":8.35,"wind_gusts":40.0,"aqi":85,"pm10":33.1,"pm2_5":23.1,"mosquito_risk":0,"arthritis_risk":5,"migraine_risk":4,"frizz_risk":0,"updated_at":"2026-04-10T08:19:45.558082+05:30"},{"city":"Bhagalpur","state":"Bihar","latitude":25.2425,"longitude":87.0117,"temp":25.3,"humidity":56,"rain":0.0,"pressure":1006.8,"uv_index":8.4,"wind_gusts":34.6,"aqi":124,"pm10":63.6,"pm2_5":53.6,"mosquito_risk":4,"arthritis_risk":5,"migraine_risk":4,"frizz_risk":0,"updated_at":"2026-04-10T08:19:45.558090+05:30"},{"city":"Ranchi","state":"Jharkhand","latitude":23.3441,"longitude":85.3096,"temp":23.2,"humidity":45,"rain":0.0,"pressure":943.6,"uv_index":9.0,"wind_gusts":40.0,"aqi":77,"pm10":38.2,"pm2_5":21.5,"mosquito_risk":0,"arthritis_risk":5,"migraine_risk":7,"frizz_risk":0,"updated_at":"2026-04-10T08:19:45.558096+05:30"},{"city":"Jamshedpur","state":"Jharkhand","latitude":22.8046,"longitude":86.2029,"temp":26.5,"humidity":80,"rain":0.0,"pressure":997.3,"uv_index":8.85,"wind_gusts":19.4,"aqi":147,"pm10":99.7,"pm2_5":73.6,"mosquito_risk":7,"arthritis_risk":5,"migraine_risk":7,"frizz_risk":1,"updated_at":"2026-04-10T08:19:45.558103+05:30"},{"city":"Dhanbad","state":"Jharkhand","latitude":23.7957,"longitude":86.4304,"temp":25.2,"humidity":48,"rain":0.0,"pressure":985.9,"uv_index":8.75,"wind_gusts":36.4,"aqi":155,"pm10":75.9,"pm2_5":64.0,"mosquito_risk":4,"arthritis_risk":5,"migraine_risk":7,"frizz_risk":0,"updated_at":"2026-04-10T08:19:45.558109+05:30"},{"city":"Bokaro","state":"Jharkhand","latitude":23.6693,"longitude":86.1511,"temp":25.1,"humidity":50,"rain":0.0,"pressure":990.3,"uv_index":8.8,"wind_gusts":38.9,"aqi":148,"pm10":71.9,"pm2_5":59.6,"mosquito_risk":4,"arthritis_risk":5,"migraine_risk":7,"frizz_risk":0,"updated_at":"2026-04-10T08:19:45.558117+05:30"},{"city":"Bhubaneswar","state":"Odisha","latitude":20.2961,"longitude":85.8245,"temp":27.3,"humidity":84,"rain":0.0,"pressure":1008.1,"uv_index":9.0,"wind_gusts":29.9,"aqi":123,"pm10":58.6,"pm2_5":47.6,"mosquito_risk":7,"arthritis_risk":0,"migraine_risk":4,"frizz_risk":1,"updated_at":"2026-04-10T08:19:45.558123+05:30"},{"city":"Cuttack","state":"Odisha","latitude":20.4625,"longitude":85.8828,"temp":27.5,"humidity":83,"rain":0.0,"pressure":1010.3,"uv_index":9.0,"wind_gusts":25.9,"aqi":123,"pm10":58.6,"pm2_5":47.6,"mosquito_risk":7,"arthritis_risk":0,"migraine_risk":4,"frizz_risk":1,"updated_at":"2026-04-10T08:19:45.558129+05:30"},{"city":"Rourkela","state":"Odisha","latitude":22.2604,"longitude":84.8536,"temp":27.6,"humidity":51,"rain":0.0,"pressure":991.7,"uv_index":8.75,"wind_gusts":23.0,"aqi":96,"pm10":40.3,"pm2_5":27.0,"mosquito_risk":4,"arthritis_risk":5,"migraine_risk":7,"frizz_risk":1,"updated_at":"2026-04-10T08:19:45.558135+05:30"},{"city":"Raipur","state":"Chhattisgarh","latitude":21.2514,"longitude":81.6296,"temp":28.0,"humidity":40,"rain":0.0,"pressure":980.8,"uv_index":8.8,"wind_gusts":27.4,"aqi":147,"pm10":42.5,"pm2_5":30.0,"mosquito_risk":4,"arthritis_risk":5,"migraine_risk":7,"frizz_risk":0,"updated_at":"2026-04-10T08:19:45.558141+05:30"},{"city":"Bhilai","state":"Chhattisgarh","latitude":21.1938,"longitude":81.3509,"temp":27.7,"humidity":44,"rain":0.0,"pressure":981.2,"uv_index":8.8,"wind_gusts":25.6,"aqi":131,"pm10":46.3,"pm2_5":31.8,"mosquito_risk":4,"arthritis_risk":5,"migraine_risk":7,"frizz_risk":0,"updated_at":"2026-04-10T08:19:45.558146+05:30"},{"city":"Guwahati","state":"Assam","latitude":26.1158,"longitude":91.7086,"temp":22.3,"humidity":85,"rain":0.0,"pressure":1006.6,"uv_index":7.55,"wind_gusts":34.9,"aqi":76,"pm10":18.2,"pm2_5":13.6,"mosquito_risk":3,"arthritis_risk":5,"migraine_risk":4,"frizz_risk":1,"updated_at":"2026-04-10T08:19:45.558152+05:30"},{"city":"Agartala","state":"Tripura","latitude":23.8315,"longitude":91.2868,"temp":24.6,"humidity":83,"rain":0.0,"pressure":1011.9,"uv_index":8.55,"wind_gusts":25.2,"aqi":155,"pm10":56.2,"pm2_5":55.1,"mosquito_risk":3,"arthritis_risk":0,"migraine_risk":4,"frizz_risk":1,"updated_at":"2026-04-10T08:19:45.558159+05:30"},{"city":"Shillong","state":"Meghalaya","latitude":25.5788,"longitude":91.8933,"temp":14.8,"humidity":67,"rain":0.0,"pressure":858.2,"uv_index":6.45,"wind_gusts":48.6,"aqi":75,"pm10":19.3,"pm2_5":13.3,"mosquito_risk":3,"arthritis_risk":5,"migraine_risk":7,"frizz_risk":0,"updated_at":"2026-04-10T08:19:45.558164+05:30"},{"city":"Imphal","state":"Manipur","latitude":24.817,"longitude":93.9368,"temp":16.6,"humidity":88,"rain":0.0,"pressure":926.6,"uv_index":8.9,"wind_gusts":58.0,"aqi":114,"pm10":41.6,"pm2_5":36.8,"mosquito_risk":3,"arthritis_risk":10,"migraine_risk":7,"frizz_risk":0,"updated_at":"2026-04-10T08:19:45.558171+05:30"},{"city":"Aizawl","state":"Mizoram","latitude":23.7271,"longitude":92.7176,"temp":19.4,"humidity":78,"rain":0.0,"pressure":896.8,"uv_index":8.8,"wind_gusts":55.8,"aqi":78,"pm10":13.0,"pm2_5":12.0,"mosquito_risk":3,"arthritis_risk":5,"migraine_risk":7,"frizz_risk":0,"updated_at":"2026-04-10T08:19:45.558178+05:30"},{"city":"Kohima","state":"Nagaland","latitude":25.6701,"longitude":94.1077,"temp":15.0,"humidity":80,"rain":0.0,"pressure":856.9,"uv_index":8.75,"wind_gusts":58.3,"aqi":77,"pm10":27.0,"pm2_5":21.1,"mosquito_risk":3,"arthritis_risk":5,"migraine_risk":7,"frizz_risk":0,"updated_at":"2026-04-10T08:19:45.558184+05:30"},{"city":"Gangtok","state":"Sikkim","latitude":27.3314,"longitude":88.6138,"temp":14.0,"humidity":80,"rain":0.0,"pressure":838.7,"uv_index":8.05,"wind_gusts":16.9,"aqi":72,"pm10":16.7,"pm2_5":11.9,"mosquito_risk":3,"arthritis_risk":5,"migraine_risk":7,"frizz_risk":0,"updated_at":"2026-04-10T08:19:45.558190+05:30"},{"city":"Siliguri","state":"West Bengal","latitude":26.7271,"longitude":88.3953,"temp":19.6,"humidity":77,"rain":0.0,"pressure":998.6,"uv_index":6.05,"wind_gusts":29.5,"aqi":83,"pm10":39.7,"pm2_5":35.4,"mosquito_risk":3,"arthritis_risk":5,"migraine_risk":7,"frizz_risk":0,"updated_at":"2026-04-10T08:19:48.856884+05:30"},{"city":"Durgapur","state":"West Bengal","latitude":23.5204,"longitude":87.3119,"temp":27.0,"humidity":69,"rain":0.0,"pressure":1000.9,"uv_index":8.7,"wind_gusts":24.5,"aqi":156,"pm10":105.0,"pm2_5":88.2,"mosquito_risk":7,"arthritis_risk":5,"migraine_risk":4,"frizz_risk":1,"updated_at":"2026-04-10T08:19:48.856919+05:30"},{"city":"Asansol","state":"West Bengal","latitude":23.6739,"longitude":86.9524,"temp":27.0,"humidity":59,"rain":0.0,"pressure":999.6,"uv_index":8.75,"wind_gusts":29.9,"aqi":150,"pm10":72.4,"pm2_5":59.8,"mosquito_risk":4,"arthritis_risk":5,"migraine_risk":7,"frizz_risk":1,"updated_at":"2026-04-10T08:19:48.856930+05:30"},{"city":"Pondicherry","state":"Puducherry","latitude":11.9139,"longitude":79.8145,"temp":30.0,"humidity":80,"rain":0.0,"pressure":1012.0,"uv_index":9.1,"wind_gusts":33.8,"aqi":67,"pm10":22.9,"pm2_5":17.6,"mosquito_risk":7,"arthritis_risk":0,"migraine_risk":4,"frizz_risk":1,"updated_at":"2026-04-10T08:19:48.856938+05:30"},{"city":"Port Blair","state":"Andaman and Nicobar Islands","latitude":11.6234,"longitude":92.7265,"temp":28.6,"humidity":79,"rain":0.0,"pressure":1011.1,"uv_index":8.6,"wind_gusts":19.1,"aqi":30,"pm10":8.9,"pm2_5":6.2,"mosquito_risk":7,"arthritis_risk":0,"migraine_risk":4,"frizz_risk":1,"updated_at":"2026-04-10T08:19:48.856946+05:30"},{"city":"Haridwar","state":"Uttarakhand","latitude":29.9457,"longitude":78.1642,"temp":19.6,"humidity":65,"rain":0.0,"pressure":980.6,"uv_index":6.95,"wind_gusts":49.7,"aqi":66,"pm10":32.9,"pm2_5":31.9,"mosquito_risk":3,"arthritis_risk":5,"migraine_risk":7,"frizz_risk":0,"updated_at":"2026-04-10T08:19:48.856953+05:30"},{"city":"Rishikesh","state":"Uttarakhand","latitude":30.0869,"longitude":78.2676,"temp":20.2,"humidity":62,"rain":0.0,"pressure":972.9,"uv_index":7.0,"wind_gusts":39.2,"aqi":54,"pm10":21.5,"pm2_5":18.1,"mosquito_risk":3,"arthritis_risk":5,"migraine_risk":7,"frizz_risk":0,"updated_at":"2026-04-10T08:19:48.856962+05:30"},{"city":"Nainital","state":"Uttarakhand","latitude":29.3919,"longitude":79.4542,"temp":15.9,"humidity":48,"rain":0.0,"pressure":808.1,"uv_index":7.9,"wind_gusts":64.4,"aqi":54,"pm10":18.5,"pm2_5":14.2,"mosquito_risk":0,"arthritis_risk":5,"migraine_risk":7,"frizz_risk":0,"updated_at":"2026-04-10T08:19:48.856969+05:30"},{"city":"Mussoorie","state":"Uttarakhand","latitude":30.4599,"longitude":78.0664,"temp":13.2,"humidity":56,"rain":0.0,"pressure":804.2,"uv_index":7.4,"wind_gusts":41.0,"aqi":60,"pm10":24.5,"pm2_5":23.3,"mosquito_risk":0,"arthritis_risk":5,"migraine_risk":7,"frizz_risk":0,"updated_at":"2026-04-10T08:19:48.856976+05:30"},{"city":"Dharamshala","state":"Himachal Pradesh","latitude":32.219,"longitude":76.3234,"temp":16.9,"humidity":44,"rain":0.0,"pressure":872.6,"uv_index":7.6,"wind_gusts":28.1,"aqi":94,"pm10":6.2,"pm2_5":5.0,"mosquito_risk":0,"arthritis_risk":5,"migraine_risk":7,"frizz_risk":0,"updated_at":"2026-04-10T08:19:48.856984+05:30"},{"city":"Dalhousie","state":"Himachal Pradesh","latitude":32.5387,"longitude":75.971,"temp":13.0,"humidity":49,"rain":0.0,"pressure":805.9,"uv_index":7.85,"wind_gusts":22.0,"aqi":61,"pm10":16.6,"pm2_5":16.0,"mosquito_risk":0,"arthritis_risk":5,"migraine_risk":7,"frizz_risk":0,"updated_at":"2026-04-10T08:19:48.856991+05:30"},{"city":"Patiala","state":"Punjab","latitude":30.3398,"longitude":76.3869,"temp":19.4,"humidity":67,"rain":0.0,"pressure":986.3,"uv_index":7.0,"wind_gusts":40.0,"aqi":239,"pm10":661.2,"pm2_5":81.5,"mosquito_risk":3,"arthritis_risk":5,"migraine_risk":7,"frizz_risk":0,"updated_at":"2026-04-10T08:19:48.856998+05:30"},{"city":"Bhatinda","state":"Punjab","latitude":30.211,"longitude":74.9455,"temp":19.6,"humidity":68,"rain":0.0,"pressure":992.8,"uv_index":7.65,"wind_gusts":32.4,"aqi":92,"pm10":50.6,"pm2_5":41.9,"mosquito_risk":3,"arthritis_risk":5,"migraine_risk":7,"frizz_risk":0,"updated_at":"2026-04-10T08:19:48.857005+05:30"},{"city":"Rohtak","state":"Haryana","latitude":28.8955,"longitude":76.6066,"temp":20.0,"humidity":66,"rain":0.0,"pressure":990.2,"uv_index":7.15,"wind_gusts":41.4,"aqi":336,"pm10":698.5,"pm2_5":111.3,"mosquito_risk":3,"arthritis_risk":5,"migraine_risk":7,"frizz_risk":0,"updated_at":"2026-04-10T08:19:48.857011+05:30"},{"city":"Panipat","state":"Haryana","latitude":29.3909,"longitude":76.9635,"temp":20.1,"humidity":65,"rain":0.0,"pressure":988.3,"uv_index":6.95,"wind_gusts":43.6,"aqi":723,"pm10":1631.7,"pm2_5":200.2,"mosquito_risk":3,"arthritis_risk":5,"migraine_risk":7,"frizz_risk":0,"updated_at":"2026-04-10T08:19:48.857017+05:30"},{"city":"Mathura","state":"Uttar Pradesh","latitude":27.4924,"longitude":77.6737,"temp":22.0,"humidity":64,"rain":0.0,"pressure":995.5,"uv_index":7.45,"wind_gusts":36.7,"aqi":336,"pm10":1125.0,"pm2_5":167.2,"mosquito_risk":3,"arthritis_risk":5,"migraine_risk":7,"frizz_risk":0,"updated_at":"2026-04-10T08:19:48.857023+05:30"},{"city":"Vrindavan","state":"Uttar Pradesh","latitude":27.5823,"longitude":77.7027,"temp":21.4,"humidity":67,"rain":0.0,"pressure":995.7,"uv_index":7.4,"wind_gusts":40.3,"aqi":336,"pm10":1125.0,"pm2_5":167.2,"mosquito_risk":3,"arthritis_risk":5,"migraine_risk":7,"frizz_risk":0,"updated_at":"2026-04-10T08:19:48.857029+05:30"},{"city":"Ayodhya","state":"Uttar Pradesh","latitude":26.7922,"longitude":82.1998,"temp":24.0,"humidity":48,"rain":0.0,"pressure":1001.6,"uv_index":7.8,"wind_gusts":49.7,"aqi":79,"pm10":43.0,"pm2_5":29.5,"mosquito_risk":0,"arthritis_risk":5,"migraine_risk":4,"frizz_risk":0,"updated_at":"2026-04-10T08:19:48.857035+05:30"},{"city":"Ratlam","state":"Madhya Pradesh","latitude":23.3315,"longitude":75.0367,"temp":23.3,"humidity":45,"rain":0.0,"pressure":960.8,"uv_index":8.3,"wind_gusts":30.6,"aqi":66,"pm10":33.1,"pm2_5":18.6,"mosquito_risk":0,"arthritis_risk":5,"migraine_risk":7,"frizz_risk":0,"updated_at":"2026-04-10T08:19:48.857042+05:30"},{"city":"Sagar","state":"Madhya Pradesh","latitude":23.8388,"longitude":78.7378,"temp":25.3,"humidity":44,"rain":0.0,"pressure":957.4,"uv_index":8.4,"wind_gusts":28.1,"aqi":82,"pm10":112.2,"pm2_5":29.0,"mosquito_risk":4,"arthritis_risk":5,"migraine_risk":7,"frizz_risk":0,"updated_at":"2026-04-10T08:19:48.857048+05:30"},{"city":"Satna","state":"Madhya Pradesh","latitude":24.6005,"longitude":80.8322,"temp":25.5,"humidity":48,"rain":0.0,"pressure":978.5,"uv_index":8.45,"wind_gusts":36.4,"aqi":79,"pm10":97.1,"pm2_5":29.2,"mosquito_risk":4,"arthritis_risk":5,"migraine_risk":7,"frizz_risk":0,"updated_at":"2026-04-10T08:19:48.857054+05:30"},{"city":"Akola","state":"Maharashtra","latitude":20.7002,"longitude":77.0082,"temp":28.3,"humidity":54,"rain":0.0,"pressure":980.6,"uv_index":8.7,"wind_gusts":21.6,"aqi":73,"pm10":36.2,"pm2_5":27.9,"mosquito_risk":4,"arthritis_risk":5,"migraine_risk":7,"frizz_risk":1,"updated_at":"2026-04-10T08:19:48.857061+05:30"},{"city":"Amravati","state":"Maharashtra","latitude":20.9374,"longitude":77.7796,"temp":28.6,"humidity":43,"rain":0.0,"pressure":973.0,"uv_index":8.7,"wind_gusts":29.9,"aqi":74,"pm10":43.8,"pm2_5":32.6,"mosquito_risk":4,"arthritis_risk":5,"migraine_risk":7,"frizz_risk":0,"updated_at":"2026-04-10T08:19:48.857067+05:30"},{"city":"Latur","state":"Maharashtra","latitude":18.4088,"longitude":76.5604,"temp":25.5,"humidity":58,"rain":0.0,"pressure":944.6,"uv_index":8.95,"wind_gusts":30.6,"aqi":89,"pm10":36.1,"pm2_5":23.5,"mosquito_risk":4,"arthritis_risk":5,"migraine_risk":7,"frizz_risk":1,"updated_at":"2026-04-10T08:19:48.857074+05:30"},{"city":"Nanded","state":"Maharashtra","latitude":19.1383,"longitude":77.3091,"temp":27.1,"humidity":59,"rain":0.0,"pressure":973.9,"uv_index":8.85,"wind_gusts":21.2,"aqi":88,"pm10":27.6,"pm2_5":21.4,"mosquito_risk":4,"arthritis_risk":5,"migraine_risk":7,"frizz_risk":1,"updated_at":"2026-04-10T08:19:48.857081+05:30"},{"city":"Gulbarga","state":"Karnataka","latitude":17.3297,"longitude":76.8343,"temp":28.4,"humidity":45,"rain":0.0,"pressure":963.6,"uv_index":9.05,"wind_gusts":28.8,"aqi":77,"pm10":49.4,"pm2_5":28.6,"mosquito_risk":4,"arthritis_risk":5,"migraine_risk":7,"frizz_risk":0,"updated_at":"2026-04-10T08:19:48.857086+05:30"},{"city":"Bidar","state":"Karnataka","latitude":17.9104,"longitude":77.5199,"temp":26.6,"humidity":52,"rain":0.0,"pressure":940.3,"uv_index":9.05,"wind_gusts":27.7,"aqi":83,"pm10":82.7,"pm2_5":44.5,"mosquito_risk":4,"arthritis_risk":5,"migraine_risk":7,"frizz_risk":0,"updated_at":"2026-04-10T08:19:48.857092+05:30"},{"city":"Hospet","state":"Karnataka","latitude":15.2689,"longitude":76.3909,"temp":27.0,"humidity":66,"rain":0.0,"pressure":959.5,"uv_index":9.25,"wind_gusts":31.7,"aqi":70,"pm10":43.1,"pm2_5":22.4,"mosquito_risk":7,"arthritis_risk":5,"migraine_risk":7,"frizz_risk":1,"updated_at":"2026-04-10T08:19:48.857099+05:30"},{"city":"Tirupur","state":"Tamil Nadu","latitude":11.1085,"longitude":77.3411,"temp":28.3,"humidity":67,"rain":0.0,"pressure":979.1,"uv_index":9.5,"wind_gusts":28.8,"aqi":62,"pm10":37.3,"pm2_5":29.4,"mosquito_risk":7,"arthritis_risk":5,"migraine_risk":7,"frizz_risk":1,"updated_at":"2026-04-10T08:19:48.857104+05:30"},{"city":"Alappuzha","state":"Kerala","latitude":9.4981,"longitude":76.3388,"temp":28.9,"humidity":83,"rain":0.0,"pressure":1011.3,"uv_index":9.2,"wind_gusts":28.4,"aqi":70,"pm10":32.7,"pm2_5":24.8,"mosquito_risk":7,"arthritis_risk":0,"migraine_risk":4,"frizz_risk":1,"updated_at":"2026-04-10T08:19:48.857110+05:30"},{"city":"Munnar","state":"Kerala","latitude":10.0889,"longitude":77.0595,"temp":24.7,"humidity":72,"rain":0.0,"pressure":860.8,"uv_index":8.55,"wind_gusts":28.4,"aqi":68,"pm10":31.8,"pm2_5":29.7,"mosquito_risk":3,"arthritis_risk":5,"migraine_risk":7,"frizz_risk":1,"updated_at":"2026-04-10T08:19:48.857117+05:30"},{"city":"Silchar","state":"Assam","latitude":24.8333,"longitude":92.7789,"temp":20.8,"humidity":89,"rain":0.0,"pressure":1011.2,"uv_index":8.55,"wind_gusts":26.3,"aqi":136,"pm10":53.8,"pm2_5":45.6,"mosquito_risk":3,"arthritis_risk":0,"migraine_risk":4,"frizz_risk":1,"updated_at":"2026-04-10T08:19:48.857123+05:30"},{"city":"Dibrugarh","state":"Assam","latitude":27.4728,"longitude":94.912,"temp":20.3,"humidity":87,"rain":0.0,"pressure":1001.0,"uv_index":8.35,"wind_gusts":16.2,"aqi":102,"pm10":59.6,"pm2_5":42.0,"mosquito_risk":3,"arthritis_risk":5,"migraine_risk":4,"frizz_risk":1,"updated_at":"2026-04-10T08:19:48.857129+05:30"}]