[{"city":"Delhi","state":"Delhi","latitude":28.6139,"longitude":77.209,"temp":34.9,"humidity":54,"rain":0.0,"pressure":971.5,"uv_index":7.7,"wind_gusts":26.6,"aqi":316,"pm10":1043.1,"pm2_5":180.7,"no2":9.1,"co":299.0,"o3":133.0,"so2":10.9,"mosquito_risk":0,"arthritis_risk":5,"migraine_risk":7,"frizz_risk":1,"updated_at":"2026-07-11T15:46:58.949341+05:30"},{"city":"Mumbai","state":"Maharashtra","latitude":19.076,"longitude":72.8777,"temp":29.2,"humidity":77,"rain":0.0,"pressure":1006.1,"uv_index":6.15,"wind_gusts":54.0,"aqi":56,"pm10":31.5,"pm2_5":15.0,"no2":4.7,"co":146.0,"o3":61.0,"so2":4.4,"mosquito_risk":7,"arthritis_risk":5,"migraine_risk":4,"frizz_risk":1,"updated_at":"2026-07-11T15:46:58.949382+05:30"},{"city":"Bangalore","state":"Karnataka","latitude":12.9716,"longitude":77.5946,"temp":31.1,"humidity":38,"rain":0.0,"pressure":910.5,"uv_index":7.2,"wind_gusts":45.0,"aqi":44,"pm10":43.2,"pm2_5":14.9,"no2":4.4,"co":262.0,"o3":76.0,"so2":2.2,"mosquito_risk":0,"arthritis_risk":5,"migraine_risk":7,"frizz_risk":0,"updated_at":"2026-07-11T15:46:58.949398+05:30"},{"city":"Hyderabad","state":"Telangana","latitude":17.385,"longitude":78.4867,"temp":32.8,"humidity":43,"rain":0.0,"pressure":949.9,"uv_index":8.2,"wind_gusts":48.2,"aqi":65,"pm10":49.7,"pm2_5":17.7,"no2":3.0,"co":187.0,"o3":88.0,"so2":2.5,"mosquito_risk":0,"arthritis_risk":5,"migraine_risk":7,"frizz_risk":1,"updated_at":"2026-07-11T15:46:58.949407+05:30"},{"city":"Chennai","state":"Tamil Nadu","latitude":13.0827,"longitude":80.2707,"temp":36.0,"humidity":43,"rain":0.0,"pressure":1002.5,"uv_index":8.0,"wind_gusts":33.1,"aqi":69,"pm10":50.1,"pm2_5":26.1,"no2":4.0,"co":243.0,"o3":137.0,"so2":4.9,"mosquito_risk":0,"arthritis_risk":5,"migraine_risk":7,"frizz_risk":1,"updated_at":"2026-07-11T15:46:58.949419+05:30"},{"city":"Kolkata","state":"West Bengal","latitude":22.5726,"longitude":88.3639,"temp":31.9,"humidity":75,"rain":0.1,"pressure":995.0,"uv_index":3.05,"wind_gusts":34.9,"aqi":105,"pm10":71.0,"pm2_5":40.5,"no2":4.8,"co":461.0,"o3":140.0,"so2":13.0,"mosquito_risk":6,"arthritis_risk":5,"migraine_risk":3,"frizz_risk":1,"updated_at":"2026-07-11T15:46:58.949427+05:30"},{"city":"Pune","state":"Maharashtra","latitude":18.5204,"longitude":73.8567,"temp":28.1,"humidity":68,"rain":0.0,"pressure":945.8,"uv_index":7.8,"wind_gusts":57.6,"aqi":36,"pm10":26.9,"pm2_5":11.0,"no2":2.2,"co":125.0,"o3":61.0,"so2":3.2,"mosquito_risk":7,"arthritis_risk":5,"migraine_risk":7,"frizz_risk":1,"updated_at":"2026-07-11T15:46:58.949435+05:30"},{"city":"Ahmedabad","state":"Gujarat","latitude":23.0225,"longitude":72.5714,"temp":36.6,"humidity":42,"rain":0.0,"pressure":994.3,"uv_index":5.65,"wind_gusts":49.7,"aqi":68,"pm10":59.1,"pm2_5":23.1,"no2":2.1,"co":132.0,"o3":86.0,"so2":3.0,"mosquito_risk":0,"arthritis_risk":5,"migraine_risk":6,"frizz_risk":1,"updated_at":"2026-07-11T15:46:58.949442+05:30"},{"city":"Jaipur","state":"Rajasthan","latitude":26.9124,"longitude":75.7873,"temp":33.0,"humidity":54,"rain":0.0,"pressure":950.5,"uv_index":7.8,"wind_gusts":41.0,"aqi":439,"pm10":469.4,"pm2_5":78.0,"no2":1.5,"co":141.0,"o3":99.0,"so2":3.1,"mosquito_risk":0,"arthritis_risk":5,"migraine_risk":7,"frizz_risk":1,"updated_at":"2026-07-11T15:46:58.949448+05:30"},{"city":"Lucknow","state":"Uttar Pradesh","latitude":26.8467,"longitude":80.9462,"temp":34.1,"humidity":61,"rain":0.0,"pressure":981.7,"uv_index":2.9,"wind_gusts":51.8,"aqi":151,"pm10":262.6,"pm2_5":75.2,"no2":2.3,"co":177.0,"o3":113.0,"so2":4.0,"mosquito_risk":3,"arthritis_risk":5,"migraine_risk":3,"frizz_risk":1,"updated_at":"2026-07-11T15:46:58.949457+05:30"},{"city":"Kanpur","state":"Uttar Pradesh","latitude":26.4499,"longitude":80.3319,"temp":34.3,"humidity":59,"rain":0.0,"pressure":980.5,"uv_index":8.15,"wind_gusts":51.5,"aqi":132,"pm10":189.5,"pm2_5":55.8,"no2":2.4,"co":164.0,"o3":111.0,"so2":4.1,"mosquito_risk":0,"arthritis_risk":5,"migraine_risk":7,"frizz_risk":1,"updated_at":"2026-07-11T15:46:58.949463+05:30"},{"city":"Chandigarh","state":"Chandigarh","latitude":30.7333,"longitude":76.7794,"temp":32.8,"humidity":60,"rain":0.0,"pressure":957.8,"uv_index":7.7,"wind_gusts":23.4,"aqi":168,"pm10":125.7,"pm2_5":53.7,"no2":1.9,"co":377.0,"o3":178.0,"so2":11.5,"mosquito_risk":0,"arthritis_risk":5,"migraine_risk":7,"frizz_risk":1,"updated_at":"2026-07-11T15:46:58.949470+05:30"},{"city":"Srinagar","state":"Jammu and Kashmir","latitude":34.0837,"longitude":74.7973,"temp":29.0,"humidity":46,"rain":0.0,"pressure":835.3,"uv_index":9.05,"wind_gusts":28.8,"aqi":115,"pm10":14.8,"pm2_5":13.1,"no2":3.6,"co":356.0,"o3":164.0,"so2":2.6,"mosquito_risk":4,"arthritis_risk":5,"migraine_risk":7,"frizz_risk":1,"updated_at":"2026-07-11T15:46:58.949476+05:30"},{"city":"Jammu","state":"Jammu and Kashmir","latitude":32.7266,"longitude":74.857,"temp":32.5,"humidity":59,"rain":0.0,"pressure":961.7,"uv_index":8.55,"wind_gusts":28.8,"aqi":140,"pm10":45.6,"pm2_5":28.4,"no2":1.9,"co":391.0,"o3":175.0,"so2":3.1,"mosquito_risk":0,"arthritis_risk":5,"migraine_risk":7,"frizz_risk":1,"updated_at":"2026-07-11T15:46:58.949482+05:30"},{"city":"Amritsar","state":"Punjab","latitude":31.634,"longitude":74.8723,"temp":32.4,"humidity":68,"rain":0.0,"pressure":969.2,"uv_index":8.4,"wind_gusts":33.5,"aqi":156,"pm10":277.5,"pm2_5":87.3,"no2":2.2,"co":236.0,"o3":150.0,"so2":5.8,"mosquito_risk":3,"arthritis_risk":5,"migraine_risk":7,"frizz_risk":1,"updated_at":"2026-07-11T15:46:58.949489+05:30"},{"city":"Ludhiana","state":"Punjab","latitude":30.901,"longitude":75.8573,"temp":33.9,"humidity":61,"rain":0.0,"pressure":967.3,"uv_index":7.95,"wind_gusts":47.9,"aqi":153,"pm10":384.6,"pm2_5":102.9,"no2":1.5,"co":357.0,"o3":144.0,"so2":5.2,"mosquito_risk":3,"arthritis_risk":5,"migraine_risk":7,"frizz_risk":1,"updated_at":"2026-07-11T15:46:58.949495+05:30"},{"city":"Jalandhar","state":"Punjab","latitude":31.326,"longitude":75.5762,"temp":31.8,"humidity":69,"rain":0.0,"pressure":968.5,"uv_index":8.1,"wind_gusts":40.7,"aqi":161,"pm10":285.0,"pm2_5":88.7,"no2":1.4,"co":324.0,"o3":156.0,"so2":5.0,"mosquito_risk":3,"arthritis_risk":5,"migraine_risk":7,"frizz_risk":1,"updated_at":"2026-07-11T15:46:58.949501+05:30"},{"city":"Dehradun","state":"Uttarakhand","latitude":30.6284,"longitude":78.0322,"temp":23.4,"humidity":78,"rain":0.1,"pressure":824.4,"uv_index":7.8,"wind_gusts":27.0,"aqi":69,"pm10":20.7,"pm2_5":18.7,"no2":2.3,"co":252.0,"o3":145.0,"so2":2.5,"mosquito_risk":6,"arthritis_risk":5,"migraine_risk":7,"frizz_risk":1,"updated_at":"2026-07-11T15:46:58.949507+05:30"},{"city":"Shimla","state":"Himachal Pradesh","latitude":31.1048,"longitude":77.1734,"temp":17.4,"humidity":98,"rain":0.0,"pressure":778.8,"uv_index":3.85,"wind_gusts":31.7,"aqi":154,"pm10":45.2,"pm2_5":36.0,"no2":2.3,"co":361.0,"o3":178.0,"so2":11.0,"mosquito_risk":3,"arthritis_risk":10,"migraine_risk":3,"frizz_risk":1,"updated_at":"2026-07-11T15:46:58.949514+05:30"},{"city":"Manali","state":"Himachal Pradesh","latitude":32.2396,"longitude":77.1887,"temp":23.2,"humidity":87,"rain":0.0,"pressure":814.0,"uv_index":7.8,"wind_gusts":25.6,"aqi":60,"pm10":8.0,"pm2_5":7.4,"no2":4.7,"co":204.0,"o3":157.0,"so2":0.8,"mosquito_risk":3,"arthritis_risk":5,"migraine_risk":7,"frizz_risk":1,"updated_at":"2026-07-11T15:46:58.949530+05:30"},{"city":"Gurgaon","state":"Haryana","latitude":28.4595,"longitude":77.0266,"temp":35.1,"humidity":53,"rain":0.0,"pressure":970.1,"uv_index":7.5,"wind_gusts":30.2,"aqi":420,"pm10":752.5,"pm2_5":143.0,"no2":8.1,"co":241.0,"o3":127.0,"so2":7.9,"mosquito_risk":0,"arthritis_risk":5,"migraine_risk":10,"frizz_risk":1,"updated_at":"2026-07-11T15:46:58.949537+05:30"},{"city":"Noida","state":"Uttar Pradesh","latitude":28.5355,"longitude":77.391,"temp":35.1,"humidity":54,"rain":0.0,"pressure":972.9,"uv_index":7.7,"wind_gusts":27.0,"aqi":420,"pm10":752.5,"pm2_5":143.0,"no2":8.1,"co":291.0,"o3":127.0,"so2":7.9,"mosquito_risk":0,"arthritis_risk":5,"migraine_risk":10,"frizz_risk":1,"updated_at":"2026-07-11T15:46:58.949543+05:30"},{"city":"Ghaziabad","state":"Uttar Pradesh","latitude":28.6692,"longitude":77.4538,"temp":34.4,"humidity":57,"rain":0.0,"pressure":971.3,"uv_index":7.7,"wind_gusts":27.4,"aqi":160,"pm10":877.3,"pm2_5":175.1,"no2":5.3,"co":293.0,"o3":171.0,"so2":15.9,"mosquito_risk":0,"arthritis_risk":5,"migraine_risk":7,"frizz_risk":1,"updated_at":"2026-07-11T15:46:58.949549+05:30"},{"city":"Faridabad","state":"Haryana","latitude":28.4089,"longitude":77.3178,"temp":34.8,"humidity":54,"rain":0.0,"pressure":972.3,"uv_index":7.7,"wind_gusts":25.9,"aqi":420,"pm10":752.5,"pm2_5":143.0,"no2":8.1,"co":242.0,"o3":127.0,"so2":7.9,"mosquito_risk":0,"arthritis_risk":5,"migraine_risk":7,"frizz_risk":1,"updated_at":"2026-07-11T15:46:58.949555+05:30"},{"city":"Meerut","state":"Uttar Pradesh","latitude":28.9845,"longitude":77.7064,"temp":33.5,"humidity":64,"rain":0.0,"pressure":970.0,"uv_index":7.65,"wind_gusts":28.4,"aqi":160,"pm10":877.3,"pm2_5":175.1,"no2":5.3,"co":237.0,"o3":171.0,"so2":15.9,"mosquito_risk":3,"arthritis_risk":5,"migraine_risk":7,"frizz_risk":1,"updated_at":"2026-07-11T15:46:58.949562+05:30"},{"city":"Agra","state":"Uttar Pradesh","latitude":27.1767,"longitude":78.0081,"temp":34.8,"humidity":53,"rain":0.0,"pressure":976.8,"uv_index":8.05,"wind_gusts":39.6,"aqi":161,"pm10":197.0,"pm2_5":50.5,"no2":2.5,"co":141.0,"o3":112.0,"so2":3.1,"mosquito_risk":0,"arthritis_risk":5,"migraine_risk":7,"frizz_risk":1,"updated_at":"2026-07-11T15:46:58.949568+05:30"},{"city":"Varanasi","state":"Uttar Pradesh","latitude":25.3176,"longitude":82.9739,"temp":33.4,"humidity":62,"rain":0.0,"pressure":986.7,"uv_index":7.6,"wind_gusts":46.4,"aqi":112,"pm10":79.9,"pm2_5":38.4,"no2":2.9,"co":211.0,"o3":119.0,"so2":6.0,"mosquito_risk":3,"arthritis_risk":5,"migraine_risk":7,"frizz_risk":1,"updated_at":"2026-07-11T15:46:58.949574+05:30"},{"city":"Prayagraj","state":"Uttar Pradesh","latitude":25.4358,"longitude":81.8463,"temp":33.7,"humidity":59,"rain":0.0,"pressure":985.1,"uv_index":8.45,"wind_gusts":44.3,"aqi":116,"pm10":91.3,"pm2_5":40.7,"no2":2.8,"co":160.0,"o3":117.0,"so2":5.9,"mosquito_risk":0,"arthritis_risk":5,"migraine_risk":7,"frizz_risk":1,"updated_at":"2026-07-11T15:46:58.949581+05:30"},{"city":"Gorakhpur","state":"Uttar Pradesh","latitude":26.7606,"longitude":83.3732,"temp":29.1,"humidity":88,"rain":0.1,"pressure":985.7,"uv_index":6.05,"wind_gusts":39.2,"aqi":94,"pm10":117.6,"pm2_5":50.5,"no2":4.4,"co":333.0,"o3":142.0,"so2":8.9,"mosquito_risk":10,"arthritis_risk":5,"migraine_risk":7,"frizz_risk":1,"updated_at":"2026-07-11T15:46:58.949587+05:30"},{"city":"Bareilly","state":"Uttar Pradesh","latitude":28.367,"longitude":79.4304,"temp":32.7,"humidity":68,"rain":0.0,"pressure":975.2,"uv_index":7.85,"wind_gusts":36.0,"aqi":128,"pm10":243.1,"pm2_5":84.8,"no2":2.4,"co":273.0,"o3":160.0,"so2":10.1,"mosquito_risk":3,"arthritis_risk":5,"migraine_risk":7,"frizz_risk":1,"updated_at":"2026-07-11T15:46:58.949595+05:30"},{"city":"Aligarh","state":"Uttar Pradesh","latitude":27.8974,"longitude":78.088,"temp":34.5,"humidity":55,"rain":0.0,"pressure":974.4,"uv_index":7.75,"wind_gusts":33.1,"aqi":189,"pm10":1020.7,"pm2_5":175.1,"no2":3.3,"co":154.0,"o3":119.0,"so2":5.7,"mosquito_risk":0,"arthritis_risk":5,"migraine_risk":7,"frizz_risk":1,"updated_at":"2026-07-11T15:46:58.949601+05:30"},{"city":"Moradabad","state":"Uttar Pradesh","latitude":28.8386,"longitude":78.7733,"temp":33.3,"humidity":66,"rain":0.0,"pressure":972.1,"uv_index":7.8,"wind_gusts":33.5,"aqi":129,"pm10":288.7,"pm2_5":96.2,"no2":3.3,"co":261.0,"o3":179.0,"so2":13.3,"mosquito_risk":3,"arthritis_risk":5,"migraine_risk":7,"frizz_risk":1,"updated_at":"2026-07-11T15:46:58.949607+05:30"},{"city":"Saharanpur","state":"Uttar Pradesh","latitude":29.9637,"longitude":77.546,"temp":32.4,"humidity":67,"rain":0.0,"pressure":964.4,"uv_index":7.35,"wind_gusts":24.1,"aqi":118,"pm10":230.0,"pm2_5":73.6,"no2":3.2,"co":275.0,"o3":171.0,"so2":16.9,"mosquito_risk":3,"arthritis_risk":5,"migraine_risk":7,"frizz_risk":1,"updated_at":"2026-07-11T15:46:58.949613+05:30"},{"city":"Jhansi","state":"Uttar Pradesh","latitude":25.4484,"longitude":78.5685,"temp":34.1,"humidity":51,"rain":0.0,"pressure":968.7,"uv_index":8.4,"wind_gusts":46.8,"aqi":97,"pm10":85.9,"pm2_5":37.0,"no2":1.7,"co":122.0,"o3":116.0,"so2":7.3,"mosquito_risk":0,"arthritis_risk":5,"migraine_risk":7,"frizz_risk":1,"updated_at":"2026-07-11T15:47:02.315610+05:30"},{"city":"Surat","state":"Gujarat","latitude":21.1702,"longitude":72.8311,"temp":31.0,"humidity":73,"rain":0.0,"pressure":1002.3,"uv_index":5.4,"wind_gusts":64.1,"aqi":61,"pm10":36.4,"pm2_5":19.1,"no2":6.9,"co":192.0,"o3":51.0,"so2":19.3,"mosquito_risk":3,"arthritis_risk":5,"migraine_risk":0,"frizz_risk":1,"updated_at":"2026-07-11T15:47:02.315639+05:30"},{"city":"Vadodara","state":"Gujarat","latitude":22.3072,"longitude":73.1812,"temp":33.2,"humidity":60,"rain":0.0,"pressure":997.9,"uv_index":7.85,"wind_gusts":54.0,"aqi":62,"pm10":44.1,"pm2_5":18.3,"no2":2.7,"co":132.0,"o3":77.0,"so2":3.3,"mosquito_risk":0,"arthritis_risk":5,"migraine_risk":7,"frizz_risk":1,"updated_at":"2026-07-11T15:47:02.315650+05:30"},{"city":"Rajkot","state":"Gujarat","latitude":22.3039,"longitude":70.8022,"temp":34.6,"humidity":48,"rain":0.0,"pressure":987.6,"uv_index":7.2,"wind_gusts":60.5,"aqi":60,"pm10":55.4,"pm2_5":22.4,"no2":1.2,"co":98.0,"o3":75.0,"so2":3.1,"mosquito_risk":0,"arthritis_risk":5,"migraine_risk":7,"frizz_risk":1,"updated_at":"2026-07-11T15:47:02.315658+05:30"},{"city":"Thane","state":"Maharashtra","latitude":19.2183,"longitude":72.9781,"temp":29.4,"humidity":77,"rain":0.1,"pressure":1005.4,"uv_index":6.55,"wind_gusts":46.1,"aqi":56,"pm10":31.5,"pm2_5":15.0,"no2":4.7,"co":141.0,"o3":61.0,"so2":4.4,"mosquito_risk":10,"arthritis_risk":5,"migraine_risk":4,"frizz_risk":1,"updated_at":"2026-07-11T15:47:02.315667+05:30"},{"city":"Nagpur","state":"Maharashtra","latitude":21.1458,"longitude":79.0882,"temp":31.9,"humidity":52,"rain":0.0,"pressure":967.3,"uv_index":6.8,"wind_gusts":49.3,"aqi":87,"pm10":76.4,"pm2_5":29.0,"no2":4.7,"co":140.0,"o3":88.0,"so2":10.8,"mosquito_risk":0,"arthritis_risk":5,"migraine_risk":7,"frizz_risk":1,"updated_at":"2026-07-11T15:47:02.315674+05:30"},{"city":"Nashik","state":"Maharashtra","latitude":19.9975,"longitude":73.7898,"temp":28.6,"humidity":64,"rain":0.0,"pressure":942.4,"uv_index":7.75,"wind_gusts":62.6,"aqi":38,"pm10":27.6,"pm2_5":11.5,"no2":1.3,"co":105.0,"o3":58.0,"so2":1.3,"mosquito_risk":7,"arthritis_risk":5,"migraine_risk":7,"frizz_risk":1,"updated_at":"2026-07-11T15:47:02.315682+05:30"},{"city":"Aurangabad","state":"Maharashtra","latitude":19.8762,"longitude":75.3433,"temp":30.4,"humidity":54,"rain":0.0,"pressure":940.5,"uv_index":8.85,"wind_gusts":54.0,"aqi":53,"pm10":40.2,"pm2_5":14.8,"no2":1.4,"co":111.0,"o3":84.0,"so2":4.2,"mosquito_risk":0,"arthritis_risk":5,"migraine_risk":7,"frizz_risk":1,"updated_at":"2026-07-11T15:47:02.315688+05:30"},{"city":"Solapur","state":"Maharashtra","latitude":17.6599,"longitude":75.9064,"temp":32.5,"humidity":46,"rain":0.0,"pressure":954.2,"uv_index":7.65,"wind_gusts":47.5,"aqi":49,"pm10":47.8,"pm2_5":15.0,"no2":1.2,"co":109.0,"o3":75.0,"so2":1.5,"mosquito_risk":0,"arthritis_risk":5,"migraine_risk":7,"frizz_risk":1,"updated_at":"2026-07-11T15:47:02.315696+05:30"},{"city":"Kolhapur","state":"Maharashtra","latitude":16.705,"longitude":74.2433,"temp":26.9,"humidity":73,"rain":0.0,"pressure":946.9,"uv_index":7.55,"wind_gusts":51.5,"aqi":38,"pm10":32.1,"pm2_5":12.5,"no2":2.0,"co":116.0,"o3":60.0,"so2":1.7,"mosquito_risk":7,"arthritis_risk":5,"migraine_risk":7,"frizz_risk":1,"updated_at":"2026-07-11T15:47:02.315702+05:30"},{"city":"Goa","state":"Goa","latitude":15.2993,"longitude":74.124,"temp":28.6,"humidity":81,"rain":0.0,"pressure":997.5,"uv_index":8.15,"wind_gusts":36.7,"aqi":56,"pm10":21.7,"pm2_5":10.1,"no2":1.0,"co":105.0,"o3":54.0,"so2":1.2,"mosquito_risk":7,"arthritis_risk":5,"migraine_risk":7,"frizz_risk":1,"updated_at":"2026-07-11T15:47:02.315709+05:30"},{"city":"Jodhpur","state":"Rajasthan","latitude":26.2389,"longitude":73.0243,"temp":36.2,"humidity":43,"rain":0.0,"pressure":972.7,"uv_index":8.45,"wind_gusts":53.6,"aqi":198,"pm10":436.8,"pm2_5":78.2,"no2":0.9,"co":108.0,"o3":81.0,"so2":1.8,"mosquito_risk":0,"arthritis_risk":5,"migraine_risk":10,"frizz_risk":1,"updated_at":"2026-07-11T15:47:02.315717+05:30"},{"city":"Udaipur","state":"Rajasthan","latitude":24.5854,"longitude":73.7125,"temp":31.2,"humidity":54,"rain":0.0,"pressure":939.1,"uv_index":8.4,"wind_gusts":54.4,"aqi":73,"pm10":51.3,"pm2_5":20.4,"no2":1.1,"co":113.0,"o3":77.0,"so2":2.4,"mosquito_risk":0,"arthritis_risk":5,"migraine_risk":7,"frizz_risk":1,"updated_at":"2026-07-11T15:47:02.315724+05:30"},{"city":"Kota","state":"Rajasthan","latitude":25.2138,"longitude":75.8648,"temp":35.0,"humidity":47,"rain":0.0,"pressure":969.6,"uv_index":8.3,"wind_gusts":42.5,"aqi":90,"pm10":58.2,"pm2_5":25.4,"no2":1.5,"co":131.0,"o3":101.0,"so2":4.8,"mosquito_risk":0,"arthritis_risk":5,"migraine_risk":7,"frizz_risk":1,"updated_at":"2026-07-11T15:47:02.315731+05:30"},{"city":"Bikaner","state":"Rajasthan","latitude":28.0229,"longitude":73.3119,"temp":38.1,"humidity":38,"rain":0.0,"pressure":970.0,"uv_index":8.45,"wind_gusts":42.5,"aqi":156,"pm10":138.3,"pm2_5":44.7,"no2":0.5,"co":108.0,"o3":89.0,"so2":3.1,"mosquito_risk":0,"arthritis_risk":5,"migraine_risk":10,"frizz_risk":1,"updated_at":"2026-07-11T15:47:02.315738+05:30"},{"city":"Ajmer","state":"Rajasthan","latitude":26.4499,"longitude":74.6399,"temp":32.3,"humidity":53,"rain":0.0,"pressure":945.7,"uv_index":8.15,"wind_gusts":52.2,"aqi":85,"pm10":54.5,"pm2_5":24.2,"no2":1.0,"co":114.0,"o3":89.0,"so2":2.4,"mosquito_risk":0,"arthritis_risk":5,"migraine_risk":7,"frizz_risk":1,"updated_at":"2026-07-11T15:47:02.315745+05:30"},{"city":"Gwalior","state":"Madhya Pradesh","latitude":26.2183,"longitude":78.1828,"temp":33.5,"humidity":55,"rain":0.0,"pressure":973.4,"uv_index":8.15,"wind_gusts":45.7,"aqi":91,"pm10":77.5,"pm2_5":33.6,"no2":1.0,"co":124.0,"o3":104.0,"so2":2.9,"mosquito_risk":0,"arthritis_risk":5,"migraine_risk":7,"frizz_risk":1,"updated_at":"2026-07-11T15:47:02.315752+05:30"},{"city":"Indore","state":"Madhya Pradesh","latitude":22.7196,"longitude":75.8577,"temp":30.1,"humidity":61,"rain":0.0,"pressure":942.1,"uv_index":8.55,"wind_gusts":56.2,"aqi":74,"pm10":51.7,"pm2_5":21.8,"no2":2.3,"co":166.0,"o3":86.0,"so2":4.0,"mosquito_risk":3,"arthritis_risk":5,"migraine_risk":7,"frizz_risk":1,"updated_at":"2026-07-11T15:47:02.315760+05:30"},{"city":"Bhopal","state":"Madhya Pradesh","latitude":23.2599,"longitude":77.4126,"temp":30.4,"humidity":58,"rain":0.0,"pressure":946.9,"uv_index":8.6,"wind_gusts":50.0,"aqi":83,"pm10":64.7,"pm2_5":26.8,"no2":1.7,"co":176.0,"o3":84.0,"so2":3.1,"mosquito_risk":0,"arthritis_risk":5,"migraine_risk":7,"frizz_risk":1,"updated_at":"2026-07-11T15:47:02.315766+05:30"},{"city":"Jabalpur","state":"Madhya Pradesh","latitude":23.1815,"longitude":79.9864,"temp":30.5,"humidity":60,"rain":0.0,"pressure":954.6,"uv_index":7.15,"wind_gusts":42.8,"aqi":86,"pm10":53.4,"pm2_5":22.6,"no2":1.3,"co":152.0,"o3":96.0,"so2":3.8,"mosquito_risk":0,"arthritis_risk":5,"migraine_risk":7,"frizz_risk":1,"updated_at":"2026-07-11T15:47:02.315773+05:30"},{"city":"Ujjain","state":"Madhya Pradesh","latitude":23.1765,"longitude":75.7885,"temp":30.6,"humidity":58,"rain":0.0,"pressure":947.4,"uv_index":8.25,"wind_gusts":54.0,"aqi":73,"pm10":53.7,"pm2_5":21.8,"no2":1.5,"co":143.0,"o3":84.0,"so2":3.2,"mosquito_risk":0,"arthritis_risk":5,"migraine_risk":7,"frizz_risk":1,"updated_at":"2026-07-11T15:47:02.315781+05:30"},{"city":"Visakhapatnam","state":"Andhra Pradesh","latitude":17.6868,"longitude":83.2185,"temp":35.0,"humidity":56,"rain":0.0,"pressure":996.1,"uv_index":7.7,"wind_gusts":37.8,"aqi":94,"pm10":72.9,"pm2_5":38.0,"no2":7.8,"co":255.0,"o3":148.0,"so2":24.9,"mosquito_risk":0,"arthritis_risk":5,"migraine_risk":7,"frizz_risk":1,"updated_at":"2026-07-11T15:47:02.315788+05:30"},{"city":"Vijayawada","state":"Andhra Pradesh","latitude":16.5062,"longitude":80.648,"temp":35.6,"humidity":46,"rain":0.0,"pressure":997.2,"uv_index":5.25,"wind_gusts":42.1,"aqi":90,"pm10":43.2,"pm2_5":18.6,"no2":2.6,"co":129.0,"o3":88.0,"so2":3.8,"mosquito_risk":0,"arthritis_risk":5,"migraine_risk":6,"frizz_risk":1,"updated_at":"2026-07-11T15:47:02.315795+05:30"},{"city":"Guntur","state":"Andhra Pradesh","latitude":16.3067,"longitude":80.4365,"temp":36.8,"humidity":39,"rain":0.0,"pressure":998.3,"uv_index":4.85,"wind_gusts":45.7,"aqi":86,"pm10":41.9,"pm2_5":17.5,"no2":2.5,"co":132.0,"o3":84.0,"so2":3.1,"mosquito_risk":0,"arthritis_risk":5,"migraine_risk":6,"frizz_risk":1,"updated_at":"2026-07-11T15:47:02.315803+05:30"},{"city":"Nellore","state":"Andhra Pradesh","latitude":14.4426,"longitude":79.9865,"temp":37.3,"humidity":35,"rain":0.0,"pressure":1000.6,"uv_index":7.7,"wind_gusts":40.0,"aqi":65,"pm10":56.8,"pm2_5":24.1,"no2":3.3,"co":113.0,"o3":111.0,"so2":5.2,"mosquito_risk":0,"arthritis_risk":5,"migraine_risk":7,"frizz_risk":1,"updated_at":"2026-07-11T15:47:02.315811+05:30"},{"city":"Kurnool","state":"Andhra Pradesh","latitude":15.8281,"longitude":78.0373,"temp":35.6,"humidity":34,"rain":0.0,"pressure":972.9,"uv_index":7.4,"wind_gusts":48.6,"aqi":60,"pm10":50.6,"pm2_5":18.3,"no2":2.2,"co":118.0,"o3":84.0,"so2":4.6,"mosquito_risk":0,"arthritis_risk":5,"migraine_risk":10,"frizz_risk":1,"updated_at":"2026-07-11T15:47:02.315818+05:30"},{"city":"Kakinada","state":"Andhra Pradesh","latitude":16.9891,"longitude":82.2475,"temp":35.1,"humidity":50,"rain":0.0,"pressure":1000.9,"uv_index":5.7,"wind_gusts":46.8,"aqi":80,"pm10":56.3,"pm2_5":28.8,"no2":3.2,"co":157.0,"o3":133.0,"so2":4.9,"mosquito_risk":0,"arthritis_risk":5,"migraine_risk":3,"frizz_risk":1,"updated_at":"2026-07-11T15:47:02.315825+05:30"},{"city":"Tirupati","state":"Andhra Pradesh","latitude":13.6288,"longitude":79.4192,"temp":37.3,"humidity":33,"rain":0.0,"pressure":986.5,"uv_index":8.2,"wind_gusts":38.2,"aqi":62,"pm10":56.7,"pm2_5":17.8,"no2":1.9,"co":108.0,"o3":80.0,"so2":1.2,"mosquito_risk":0,"arthritis_risk":5,"migraine_risk":10,"frizz_risk":1,"updated_at":"2026-07-11T15:47:02.315832+05:30"},{"city":"Warangal","state":"Telangana","latitude":17.9689,"longitude":79.5941,"temp":32.2,"humidity":52,"rain":0.0,"pressure":974.2,"uv_index":5.2,"wind_gusts":42.8,"aqi":78,"pm10":53.1,"pm2_5":19.6,"no2":1.9,"co":129.0,"o3":87.0,"so2":2.8,"mosquito_risk":0,"arthritis_risk":5,"migraine_risk":3,"frizz_risk":1,"updated_at":"2026-07-11T15:47:02.315839+05:30"},{"city":"Nizamabad","state":"Telangana","latitude":18.6725,"longitude":78.0941,"temp":31.2,"humidity":54,"rain":0.0,"pressure":960.7,"uv_index":8.55,"wind_gusts":46.8,"aqi":73,"pm10":61.0,"pm2_5":22.3,"no2":1.6,"co":125.0,"o3":89.0,"so2":3.8,"mosquito_risk":0,"arthritis_risk":5,"migraine_risk":7,"frizz_risk":1,"updated_at":"2026-07-11T15:47:02.315845+05:30"},{"city":"Mysore","state":"Karnataka","latitude":12.2958,"longitude":76.6396,"temp":28.9,"humidity":58,"rain":0.0,"pressure":927.2,"uv_index":6.0,"wind_gusts":44.3,"aqi":32,"pm10":23.4,"pm2_5":9.0,"no2":2.1,"co":125.0,"o3":76.0,"so2":1.4,"mosquito_risk":4,"arthritis_risk":5,"migraine_risk":3,"frizz_risk":1,"updated_at":"2026-07-11T15:47:02.315852+05:30"},{"city":"Mangalore","state":"Karnataka","latitude":12.9141,"longitude":74.856,"temp":28.2,"humidity":80,"rain":0.1,"pressure":1006.7,"uv_index":8.3,"wind_gusts":44.3,"aqi":53,"pm10":21.6,"pm2_5":10.0,"no2":1.1,"co":90.0,"o3":55.0,"so2":1.4,"mosquito_risk":10,"arthritis_risk":5,"migraine_risk":4,"frizz_risk":1,"updated_at":"2026-07-11T15:47:02.315859+05:30"},{"city":"Hubli-Dharwad","state":"Karnataka","latitude":15.3647,"longitude":75.124,"temp":28.7,"humidity":62,"rain":0.0,"pressure":939.9,"uv_index":7.4,"wind_gusts":49.3,"aqi":35,"pm10":21.7,"pm2_5":8.4,"no2":1.5,"co":106.0,"o3":60.0,"so2":1.2,"mosquito_risk":7,"arthritis_risk":5,"migraine_risk":7,"frizz_risk":1,"updated_at":"2026-07-11T15:47:02.315866+05:30"},{"city":"Belgaum","state":"Karnataka","latitude":15.8497,"longitude":74.4977,"temp":26.7,"humidity":67,"rain":0.0,"pressure":925.0,"uv_index":7.8,"wind_gusts":50.4,"aqi":32,"pm10":29.8,"pm2_5":10.6,"no2":1.5,"co":99.0,"o3":52.0,"so2":1.3,"mosquito_risk":7,"arthritis_risk":5,"migraine_risk":7,"frizz_risk":1,"updated_at":"2026-07-11T15:47:05.683631+05:30"},{"city":"Coimbatore","state":"Tamil Nadu","latitude":11.0168,"longitude":76.9558,"temp":29.9,"humidity":64,"rain":0.0,"pressure":960.0,"uv_index":7.95,"wind_gusts":48.2,"aqi":33,"pm10":15.7,"pm2_5":7.5,"no2":1.9,"co":141.0,"o3":74.0,"so2":2.0,"mosquito_risk":7,"arthritis_risk":5,"migraine_risk":7,"frizz_risk":1,"updated_at":"2026-07-11T15:47:05.683663+05:30"},{"city":"Madurai","state":"Tamil Nadu","latitude":9.9252,"longitude":78.1198,"temp":35.6,"humidity":41,"rain":0.1,"pressure":989.7,"uv_index":8.2,"wind_gusts":25.6,"aqi":55,"pm10":22.6,"pm2_5":9.7,"no2":2.0,"co":151.0,"o3":87.0,"so2":1.8,"mosquito_risk":3,"arthritis_risk":5,"migraine_risk":10,"frizz_risk":1,"updated_at":"2026-07-11T15:47:05.683673+05:30"},{"city":"Trichy","state":"Tamil Nadu","latitude":10.7905,"longitude":78.7047,"temp":36.0,"humidity":40,"rain":0.0,"pressure":996.0,"uv_index":7.85,"wind_gusts":46.4,"aqi":46,"pm10":27.2,"pm2_5":11.3,"no2":1.6,"co":116.0,"o3":85.0,"so2":1.8,"mosquito_risk":0,"arthritis_risk":5,"migraine_risk":10,"frizz_risk":1,"updated_at":"2026-07-11T15:47:05.683682+05:30"},{"city":"Salem","state":"Tamil Nadu","latitude":11.6643,"longitude":78.146,"temp":34.0,"humidity":48,"rain":0.0,"pressure":974.3,"uv_index":7.95,"wind_gusts":29.9,"aqi":59,"pm10":38.3,"pm2_5":15.1,"no2":2.3,"co":173.0,"o3":101.0,"so2":4.4,"mosquito_risk":0,"arthritis_risk":5,"migraine_risk":7,"frizz_risk":1,"updated_at":"2026-07-11T15:47:05.683690+05:30"},{"city":"Tirunelveli","state":"Tamil Nadu","latitude":8.7139,"longitude":77.7567,"temp":36.6,"humidity":39,"rain":0.0,"pressure":1000.0,"uv_index":8.4,"wind_gusts":48.2,"aqi":29,"pm10":7.8,"pm2_5":4.5,"no2":1.7,"co":111.0,"o3":69.0,"so2":1.2,"mosquito_risk":0,"arthritis_risk":5,"migraine_risk":7,"frizz_risk":1,"updated_at":"2026-07-11T15:47:05.683698+05:30"},{"city":"Vellore","state":"Tamil Nadu","latitude":12.9165,"longitude":79.1325,"temp":37.7,"humidity":31,"rain":0.0,"pressure":980.1,"uv_index":8.65,"wind_gusts":40.7,"aqi":54,"pm10":57.3,"pm2_5":20.6,"no2":2.6,"co":135.0,"o3":98.0,"so2":2.1,"mosquito_risk":0,"arthritis_risk":5,"migraine_risk":10,"frizz_risk":1,"updated_at":"2026-07-11T15:47:05.683705+05:30"},{"city":"Erode","state":"Tamil Nadu","latitude":11.341,"longitude":77.7172,"temp":37.1,"humidity":37,"rain":0.1,"pressure":985.6,"uv_index":7.85,"wind_gusts":36.0,"aqi":50,"pm10":27.2,"pm2_5":11.5,"no2":2.5,"co":148.0,"o3":94.0,"so2":1.9,"mosquito_risk":3,"arthritis_risk":5,"migraine_risk":10,"frizz_risk":1,"updated_at":"2026-07-11T15:47:05.683712+05:30"},{"city":"Kochi","state":"Kerala","latitude":9.9312,"longitude":76.2673,"temp":28.3,"humidity":81,"rain":0.0,"pressure":1008.5,"uv_index":7.45,"wind_gusts":34.6,"aqi":51,"pm10":16.6,"pm2_5":8.0,"no2":2.3,"co":111.0,"o3":60.0,"so2":2.0,"mosquito_risk":7,"arthritis_risk":0,"migraine_risk":4,"frizz_risk":1,"updated_at":"2026-07-11T15:47:05.683720+05:30"},{"city":"Thiruvananthapuram","state":"Kerala","latitude":8.5241,"longitude":76.9366,"temp":28.3,"humidity":81,"rain":0.0,"pressure":1007.2,"uv_index":8.0,"wind_gusts":47.9,"aqi":38,"pm10":13.3,"pm2_5":7.7,"no2":2.0,"co":95.0,"o3":68.0,"so2":1.1,"mosquito_risk":7,"arthritis_risk":5,"migraine_risk":4,"frizz_risk":1,"updated_at":"2026-07-11T15:47:05.683727+05:30"},{"city":"Kozhikode","state":"Kerala","latitude":11.2588,"longitude":75.7804,"temp":28.3,"humidity":80,"rain":0.0,"pressure":1007.7,"uv_index":7.5,"wind_gusts":39.6,"aqi":41,"pm10":22.0,"pm2_5":9.4,"no2":0.5,"co":95.0,"o3":58.0,"so2":1.0,"mosquito_risk":7,"arthritis_risk":5,"migraine_risk":4,"frizz_risk":1,"updated_at":"2026-07-11T15:47:05.683733+05:30"},{"city":"Thrissur","state":"Kerala","latitude":10.5276,"longitude":76.2144,"temp":28.8,"humidity":77,"rain":0.0,"pressure":1006.8,"uv_index":7.75,"wind_gusts":38.5,"aqi":53,"pm10":19.2,"pm2_5":8.6,"no2":1.7,"co":101.0,"o3":59.0,"so2":1.5,"mosquito_risk":7,"arthritis_risk":5,"migraine_risk":4,"frizz_risk":1,"updated_at":"2026-07-11T15:47:05.683740+05:30"},{"city":"Kannur","state":"Kerala","latitude":11.8745,"longitude":75.3704,"temp":29.5,"humidity":75,"rain":0.0,"pressure":1007.0,"uv_index":8.2,"wind_gusts":45.4,"aqi":50,"pm10":23.1,"pm2_5":9.9,"no2":0.9,"co":91.0,"o3":56.0,"so2":1.1,"mosquito_risk":7,"arthritis_risk":5,"migraine_risk":4,"frizz_risk":1,"updated_at":"2026-07-11T15:47:05.683747+05:30"},{"city":"Patna","state":"Bihar","latitude":25.5941,"longitude":85.1376,"temp":30.7,"humidity":79,"rain":0.0,"pressure":989.1,"uv_index":6.25,"wind_gusts":34.2,"aqi":97,"pm10":79.2,"pm2_5":44.6,"no2":7.4,"co":286.0,"o3":115.0,"so2":6.9,"mosquito_risk":3,"arthritis_risk":5,"migraine_risk":7,"frizz_risk":1,"updated_at":"2026-07-11T15:47:05.683753+05:30"},{"city":"Gaya","state":"Bihar","latitude":24.7914,"longitude":85.0002,"temp":31.6,"humidity":71,"rain":0.0,"pressure":983.3,"uv_index":7.2,"wind_gusts":41.4,"aqi":95,"pm10":38.0,"pm2_5":26.4,"no2":9.7,"co":202.0,"o3":79.0,"so2":10.3,"mosquito_risk":3,"arthritis_risk":5,"migraine_risk":7,"frizz_risk":1,"updated_at":"2026-07-11T15:47:05.683759+05:30"},{"city":"Muzaffarpur","state":"Bihar","latitude":26.1209,"longitude":85.3647,"temp":31.6,"humidity":75,"rain":0.0,"pressure":988.5,"uv_index":4.85,"wind_gusts":36.4,"aqi":102,"pm10":60.5,"pm2_5":34.6,"no2":7.4,"co":270.0,"o3":115.0,"so2":6.3,"mosquito_risk":3,"arthritis_risk":5,"migraine_risk":3,"frizz_risk":1,"updated_at":"2026-07-11T15:47:05.683765+05:30"},{"city":"Bhagalpur","state":"Bihar","latitude":25.2425,"longitude":87.0117,"temp":29.7,"humidity":84,"rain":0.0,"pressure":989.2,"uv_index":7.25,"wind_gusts":24.8,"aqi":83,"pm10":24.9,"pm2_5":18.5,"no2":6.2,"co":235.0,"o3":106.0,"so2":7.4,"mosquito_risk":7,"arthritis_risk":5,"migraine_risk":7,"frizz_risk":1,"updated_at":"2026-07-11T15:47:05.683772+05:30"},{"city":"Ranchi","state":"Jharkhand","latitude":23.3441,"longitude":85.3096,"temp":25.0,"humidity":93,"rain":0.4,"pressure":929.6,"uv_index":7.55,"wind_gusts":40.7,"aqi":94,"pm10":29.7,"pm2_5":20.5,"no2":6.3,"co":200.0,"o3":77.0,"so2":3.2,"mosquito_risk":10,"arthritis_risk":5,"migraine_risk":7,"frizz_risk":1,"updated_at":"2026-07-11T15:47:05.683778+05:30"},{"city":"Jamshedpur","state":"Jharkhand","latitude":22.8046,"longitude":86.2029,"temp":30.9,"humidity":75,"rain":0.0,"pressure":981.4,"uv_index":8.55,"wind_gusts":35.6,"aqi":109,"pm10":60.8,"pm2_5":39.2,"no2":6.9,"co":241.0,"o3":122.0,"so2":17.5,"mosquito_risk":3,"arthritis_risk":5,"migraine_risk":7,"frizz_risk":1,"updated_at":"2026-07-11T15:47:05.683785+05:30"},{"city":"Dhanbad","state":"Jharkhand","latitude":23.7957,"longitude":86.4304,"temp":29.3,"humidity":80,"rain":0.0,"pressure":970.1,"uv_index":8.3,"wind_gusts":40.7,"aqi":128,"pm10":36.7,"pm2_5":32.4,"no2":28.1,"co":203.0,"o3":58.0,"so2":60.9,"mosquito_risk":7,"arthritis_risk":5,"migraine_risk":7,"frizz_risk":1,"updated_at":"2026-07-11T15:47:05.683792+05:30"},{"city":"Bokaro","state":"Jharkhand","latitude":23.6693,"longitude":86.1511,"temp":29.3,"humidity":81,"rain":0.1,"pressure":974.1,"uv_index":8.1,"wind_gusts":33.5,"aqi":122,"pm10":30.9,"pm2_5":27.9,"no2":22.0,"co":210.0,"o3":60.0,"so2":48.7,"mosquito_risk":10,"arthritis_risk":5,"migraine_risk":7,"frizz_risk":1,"updated_at":"2026-07-11T15:47:05.683798+05:30"},{"city":"Bhubaneswar","state":"Odisha","latitude":20.2961,"longitude":85.8245,"temp":31.7,"humidity":71,"rain":0.1,"pressure":993.7,"uv_index":8.25,"wind_gusts":37.1,"aqi":82,"pm10":77.5,"pm2_5":38.3,"no2":4.3,"co":235.0,"o3":124.0,"so2":8.7,"mosquito_risk":6,"arthritis_risk":5,"migraine_risk":7,"frizz_risk":1,"updated_at":"2026-07-11T15:47:05.683805+05:30"},{"city":"Cuttack","state":"Odisha","latitude":20.4625,"longitude":85.8828,"temp":33.3,"humidity":66,"rain":0.0,"pressure":995.2,"uv_index":8.4,"wind_gusts":35.6,"aqi":82,"pm10":77.5,"pm2_5":38.3,"no2":4.3,"co":212.0,"o3":124.0,"so2":8.7,"mosquito_risk":3,"arthritis_risk":5,"migraine_risk":7,"frizz_risk":1,"updated_at":"2026-07-11T15:47:05.683811+05:30"},{"city":"Rourkela","state":"Odisha","latitude":22.2604,"longitude":84.8536,"temp":31.4,"humidity":66,"rain":0.0,"pressure":976.5,"uv_index":8.1,"wind_gusts":37.4,"aqi":132,"pm10":71.9,"pm2_5":39.2,"no2":3.5,"co":239.0,"o3":125.0,"so2":11.4,"mosquito_risk":3,"arthritis_risk":5,"migraine_risk":7,"frizz_risk":1,"updated_at":"2026-07-11T15:47:05.683818+05:30"},{"city":"Raipur","state":"Chhattisgarh","latitude":21.2514,"longitude":81.6296,"temp":31.7,"humidity":56,"rain":0.1,"pressure":967.8,"uv_index":7.6,"wind_gusts":41.4,"aqi":119,"pm10":70.1,"pm2_5":34.2,"no2":10.2,"co":133.0,"o3":105.0,"so2":26.9,"mosquito_risk":3,"arthritis_risk":5,"migraine_risk":7,"frizz_risk":1,"updated_at":"2026-07-11T15:47:05.683825+05:30"},{"city":"Bhilai","state":"Chhattisgarh","latitude":21.1938,"longitude":81.3509,"temp":31.7,"humidity":56,"rain":0.1,"pressure":968.2,"uv_index":7.4,"wind_gusts":43.6,"aqi":112,"pm10":66.1,"pm2_5":31.4,"no2":8.6,"co":322.0,"o3":106.0,"so2":21.9,"mosquito_risk":3,"arthritis_risk":5,"migraine_risk":7,"frizz_risk":1,"updated_at":"2026-07-11T15:47:05.683831+05:30"},{"city":"Guwahati","state":"Assam","latitude":26.1158,"longitude":91.7086,"temp":30.6,"humidity":79,"rain":0.1,"pressure":988.7,"uv_index":8.55,"wind_gusts":31.0,"aqi":43,"pm10":10.4,"pm2_5":10.4,"no2":3.1,"co":254.0,"o3":107.0,"so2":2.1,"mosquito_risk":6,"arthritis_risk":5,"migraine_risk":7,"frizz_risk":1,"updated_at":"2026-07-11T15:47:05.683837+05:30"},{"city":"Agartala","state":"Tripura","latitude":23.8315,"longitude":91.2868,"temp":27.9,"humidity":95,"rain":0.3,"pressure":995.6,"uv_index":7.8,"wind_gusts":33.8,"aqi":69,"pm10":42.4,"pm2_5":34.9,"no2":8.3,"co":242.0,"o3":128.0,"so2":6.9,"mosquito_risk":10,"arthritis_risk":5,"migraine_risk":7,"frizz_risk":1,"updated_at":"2026-07-11T15:47:05.683844+05:30"},{"city":"Shillong","state":"Meghalaya","latitude":25.5788,"longitude":91.8933,"temp":24.1,"humidity":79,"rain":0.0,"pressure":849.5,"uv_index":3.95,"wind_gusts":27.4,"aqi":39,"pm10":2.6,"pm2_5":2.6,"no2":5.2,"co":241.0,"o3":91.0,"so2":2.7,"mosquito_risk":3,"arthritis_risk":5,"migraine_risk":3,"frizz_risk":1,"updated_at":"2026-07-11T15:47:05.683850+05:30"},{"city":"Imphal","state":"Manipur","latitude":24.817,"longitude":93.9368,"temp":27.9,"humidity":73,"rain":0.0,"pressure":913.7,"uv_index":8.5,"wind_gusts":29.9,"aqi":42,"pm10":4.3,"pm2_5":4.0,"no2":2.5,"co":203.0,"o3":87.0,"so2":1.4,"mosquito_risk":7,"arthritis_risk":5,"migraine_risk":7,"frizz_risk":1,"updated_at":"2026-07-11T15:47:05.683856+05:30"},{"city":"Aizawl","state":"Mizoram","latitude":23.7271,"longitude":92.7176,"temp":23.4,"humidity":80,"rain":0.0,"pressure":884.6,"uv_index":8.5,"wind_gusts":43.2,"aqi":41,"pm10":4.5,"pm2_5":3.1,"no2":1.9,"co":160.0,"o3":93.0,"so2":2.4,"mosquito_risk":3,"arthritis_risk":5,"migraine_risk":7,"frizz_risk":1,"updated_at":"2026-07-11T15:47:05.683863+05:30"},{"city":"Kohima","state":"Nagaland","latitude":25.6701,"longitude":94.1077,"temp":23.0,"humidity":98,"rain":0.2,"pressure":847.5,"uv_index":6.4,"wind_gusts":20.9,"aqi":42,"pm10":4.1,"pm2_5":3.8,"no2":2.2,"co":171.0,"o3":81.0,"so2":1.4,"mosquito_risk":6,"arthritis_risk":5,"migraine_risk":7,"frizz_risk":1,"updated_at":"2026-07-11T15:47:05.683869+05:30"},{"city":"Gangtok","state":"Sikkim","latitude":27.3314,"longitude":88.6138,"temp":22.2,"humidity":93,"rain":0.1,"pressure":830.8,"uv_index":8.5,"wind_gusts":31.7,"aqi":49,"pm10":3.5,"pm2_5":3.4,"no2":2.5,"co":257.0,"o3":110.0,"so2":1.0,"mosquito_risk":6,"arthritis_risk":5,"migraine_risk":7,"frizz_risk":1,"updated_at":"2026-07-11T15:47:05.683875+05:30"},{"city":"Siliguri","state":"West Bengal","latitude":26.7271,"longitude":88.3953,"temp":30.1,"humidity":81,"rain":0.1,"pressure":980.7,"uv_index":5.0,"wind_gusts":25.6,"aqi":94,"pm10":16.4,"pm2_5":16.2,"no2":5.0,"co":428.0,"o3":118.0,"so2":2.2,"mosquito_risk":6,"arthritis_risk":5,"migraine_risk":3,"frizz_risk":1,"updated_at":"2026-07-11T15:47:09.054168+05:30"},{"city":"Durgapur","state":"West Bengal","latitude":23.5204,"longitude":87.3119,"temp":30.8,"humidity":77,"rain":0.0,"pressure":984.8,"uv_index":6.75,"wind_gusts":40.7,"aqi":133,"pm10":52.9,"pm2_5":43.8,"no2":25.8,"co":239.0,"o3":94.0,"so2":49.8,"mosquito_risk":3,"arthritis_risk":5,"migraine_risk":7,"frizz_risk":1,"updated_at":"2026-07-11T15:47:09.054200+05:30"},{"city":"Asansol","state":"West Bengal","latitude":23.6739,"longitude":86.9524,"temp":30.1,"humidity":81,"rain":0.0,"pressure":983.4,"uv_index":7.3,"wind_gusts":42.5,"aqi":117,"pm10":39.5,"pm2_5":33.2,"no2":26.0,"co":239.0,"o3":73.0,"so2":44.1,"mosquito_risk":3,"arthritis_risk":5,"migraine_risk":7,"frizz_risk":1,"updated_at":"2026-07-11T15:47:09.054211+05:30"},{"city":"Pondicherry","state":"Puducherry","latitude":11.9139,"longitude":79.8145,"temp":34.1,"humidity":56,"rain":0.0,"pressure":1004.0,"uv_index":8.15,"wind_gusts":41.4,"aqi":66,"pm10":53.0,"pm2_5":28.1,"no2":6.7,"co":187.0,"o3":140.0,"so2":8.6,"mosquito_risk":0,"arthritis_risk":5,"migraine_risk":4,"frizz_risk":1,"updated_at":"2026-07-11T15:47:09.054220+05:30"},{"city":"Port Blair","state":"Andaman and Nicobar Islands","latitude":11.6234,"longitude":92.7265,"temp":29.6,"humidity":73,"rain":0.1,"pressure":1004.3,"uv_index":8.8,"wind_gusts":57.2,"aqi":35,"pm10":16.9,"pm2_5":8.4,"no2":0.3,"co":95.0,"o3":41.0,"so2":0.5,"mosquito_risk":10,"arthritis_risk":5,"migraine_risk":4,"frizz_risk":1,"updated_at":"2026-07-11T15:47:09.054228+05:30"},{"city":"Haridwar","state":"Uttarakhand","latitude":29.9457,"longitude":78.1642,"temp":32.6,"humidity":67,"rain":0.1,"pressure":962.8,"uv_index":7.5,"wind_gusts":22.3,"aqi":111,"pm10":83.6,"pm2_5":43.1,"no2":1.5,"co":362.0,"o3":179.0,"so2":12.3,"mosquito_risk":6,"arthritis_risk":5,"migraine_risk":7,"frizz_risk":1,"updated_at":"2026-07-11T15:47:09.054236+05:30"},{"city":"Rishikesh","state":"Uttarakhand","latitude":30.0869,"longitude":78.2676,"temp":30.9,"humidity":70,"rain":0.1,"pressure":955.8,"uv_index":7.15,"wind_gusts":22.7,"aqi":93,"pm10":32.7,"pm2_5":27.8,"no2":1.4,"co":303.0,"o3":162.0,"so2":6.6,"mosquito_risk":6,"arthritis_risk":5,"migraine_risk":7,"frizz_risk":1,"updated_at":"2026-07-11T15:47:09.054244+05:30"},{"city":"Nainital","state":"Uttarakhand","latitude":29.3919,"longitude":79.4542,"temp":20.0,"humidity":93,"rain":0.1,"pressure":799.6,"uv_index":3.75,"wind_gusts":23.8,"aqi":94,"pm10":45.6,"pm2_5":27.2,"no2":2.4,"co":241.0,"o3":149.0,"so2":8.4,"mosquito_risk":6,"arthritis_risk":5,"migraine_risk":3,"frizz_risk":1,"updated_at":"2026-07-11T15:47:09.054252+05:30"},{"city":"Mussoorie","state":"Uttarakhand","latitude":30.4599,"longitude":78.0664,"temp":22.3,"humidity":77,"rain":0.0,"pressure":798.2,"uv_index":7.85,"wind_gusts":32.4,"aqi":105,"pm10":42.8,"pm2_5":34.6,"no2":2.0,"co":267.0,"o3":175.0,"so2":7.3,"mosquito_risk":3,"arthritis_risk":5,"migraine_risk":7,"frizz_risk":1,"updated_at":"2026-07-11T15:47:09.054260+05:30"},{"city":"Dharamshala","state":"Himachal Pradesh","latitude":32.219,"longitude":76.3234,"temp":24.2,"humidity":81,"rain":0.0,"pressure":862.0,"uv_index":8.4,"wind_gusts":27.4,"aqi":114,"pm10":18.3,"pm2_5":14.2,"no2":0.8,"co":328.0,"o3":156.0,"so2":1.9,"mosquito_risk":3,"arthritis_risk":5,"migraine_risk":7,"frizz_risk":1,"updated_at":"2026-07-11T15:47:09.054267+05:30"},{"city":"Dalhousie","state":"Himachal Pradesh","latitude":32.5387,"longitude":75.971,"temp":20.9,"humidity":88,"rain":0.0,"pressure":799.4,"uv_index":8.6,"wind_gusts":18.0,"aqi":157,"pm10":44.5,"pm2_5":29.7,"no2":1.8,"co":380.0,"o3":180.0,"so2":4.0,"mosquito_risk":3,"arthritis_risk":5,"migraine_risk":7,"frizz_risk":1,"updated_at":"2026-07-11T15:47:09.054275+05:30"},{"city":"Patiala","state":"Punjab","latitude":30.3398,"longitude":76.3869,"temp":33.7,"humidity":62,"rain":0.0,"pressure":966.7,"uv_index":7.5,"wind_gusts":24.5,"aqi":145,"pm10":506.6,"pm2_5":119.7,"no2":1.3,"co":225.0,"o3":145.0,"so2":6.2,"mosquito_risk":3,"arthritis_risk":5,"migraine_risk":7,"frizz_risk":1,"updated_at":"2026-07-11T15:47:09.054282+05:30"},{"city":"Bhatinda","state":"Punjab","latitude":30.211,"longitude":74.9455,"temp":37.0,"humidity":46,"rain":0.0,"pressure":971.5,"uv_index":8.25,"wind_gusts":27.0,"aqi":176,"pm10":317.6,"pm2_5":113.2,"no2":2.7,"co":139.0,"o3":149.0,"so2":11.7,"mosquito_risk":0,"arthritis_risk":5,"migraine_risk":10,"frizz_risk":1,"updated_at":"2026-07-11T15:47:09.054289+05:30"},{"city":"Rohtak","state":"Haryana","latitude":28.8955,"longitude":76.6066,"temp":35.3,"humidity":54,"rain":0.0,"pressure":970.2,"uv_index":7.65,"wind_gusts":32.0,"aqi":671,"pm10":1005.8,"pm2_5":162.1,"no2":3.7,"co":181.0,"o3":112.0,"so2":3.0,"mosquito_risk":0,"arthritis_risk":5,"migraine_risk":10,"frizz_risk":1,"updated_at":"2026-07-11T15:47:09.054296+05:30"},{"city":"Panipat","state":"Haryana","latitude":29.3909,"longitude":76.9635,"temp":34.2,"humidity":61,"rain":0.0,"pressure":968.7,"uv_index":7.55,"wind_gusts":19.8,"aqi":738,"pm10":1285.2,"pm2_5":200.7,"no2":4.0,"co":231.0,"o3":126.0,"so2":10.7,"mosquito_risk":3,"arthritis_risk":5,"migraine_risk":7,"frizz_risk":1,"updated_at":"2026-07-11T15:47:09.054303+05:30"},{"city":"Mathura","state":"Uttar Pradesh","latitude":27.4924,"longitude":77.6737,"temp":34.8,"humidity":54,"rain":0.0,"pressure":975.9,"uv_index":7.85,"wind_gusts":32.4,"aqi":396,"pm10":691.0,"pm2_5":105.0,"no2":3.1,"co":160.0,"o3":113.0,"so2":2.9,"mosquito_risk":0,"arthritis_risk":5,"migraine_risk":7,"frizz_risk":1,"updated_at":"2026-07-11T15:47:09.054310+05:30"},{"city":"Vrindavan","state":"Uttar Pradesh","latitude":27.5823,"longitude":77.7027,"temp":35.2,"humidity":52,"rain":0.0,"pressure":976.1,"uv_index":7.9,"wind_gusts":30.6,"aqi":396,"pm10":691.0,"pm2_5":105.0,"no2":3.1,"co":157.0,"o3":113.0,"so2":2.9,"mosquito_risk":0,"arthritis_risk":5,"migraine_risk":10,"frizz_risk":1,"updated_at":"2026-07-11T15:47:09.054317+05:30"},{"city":"Ayodhya","state":"Uttar Pradesh","latitude":26.7922,"longitude":82.1998,"temp":31.9,"humidity":75,"rain":0.0,"pressure":983.5,"uv_index":6.95,"wind_gusts":40.7,"aqi":131,"pm10":172.3,"pm2_5":72.9,"no2":3.7,"co":258.0,"o3":125.0,"so2":5.7,"mosquito_risk":3,"arthritis_risk":5,"migraine_risk":7,"frizz_risk":1,"updated_at":"2026-07-11T15:47:09.054323+05:30"},{"city":"Ratlam","state":"Madhya Pradesh","latitude":23.3315,"longitude":75.0367,"temp":30.7,"humidity":59,"rain":0.0,"pressure":948.5,"uv_index":5.6,"wind_gusts":55.8,"aqi":71,"pm10":53.1,"pm2_5":21.5,"no2":1.2,"co":117.0,"o3":84.0,"so2":3.3,"mosquito_risk":0,"arthritis_risk":5,"migraine_risk":3,"frizz_risk":1,"updated_at":"2026-07-11T15:47:09.054330+05:30"},{"city":"Sagar","state":"Madhya Pradesh","latitude":23.8388,"longitude":78.7378,"temp":30.7,"humidity":53,"rain":0.0,"pressure":943.0,"uv_index":7.9,"wind_gusts":52.6,"aqi":88,"pm10":78.0,"pm2_5":29.2,"no2":1.0,"co":135.0,"o3":94.0,"so2":2.9,"mosquito_risk":0,"arthritis_risk":5,"migraine_risk":7,"frizz_risk":1,"updated_at":"2026-07-11T15:47:09.054337+05:30"},{"city":"Satna","state":"Madhya Pradesh","latitude":24.6005,"longitude":80.8322,"temp":32.3,"humidity":58,"rain":0.0,"pressure":962.4,"uv_index":8.15,"wind_gusts":45.0,"aqi":100,"pm10":65.9,"pm2_5":30.6,"no2":1.1,"co":140.0,"o3":108.0,"so2":4.0,"mosquito_risk":0,"arthritis_risk":5,"migraine_risk":7,"frizz_risk":1,"updated_at":"2026-07-11T15:47:09.054345+05:30"},{"city":"Akola","state":"Maharashtra","latitude":20.7002,"longitude":77.0082,"temp":32.8,"humidity":49,"rain":0.0,"pressure":969.9,"uv_index":8.75,"wind_gusts":50.8,"aqi":69,"pm10":67.5,"pm2_5":22.3,"no2":1.8,"co":109.0,"o3":86.0,"so2":5.1,"mosquito_risk":0,"arthritis_risk":5,"migraine_risk":7,"frizz_risk":1,"updated_at":"2026-07-11T15:47:09.054353+05:30"},{"city":"Amravati","state":"Maharashtra","latitude":20.9374,"longitude":77.7796,"temp":32.1,"humidity":51,"rain":0.0,"pressure":962.0,"uv_index":8.2,"wind_gusts":50.4,"aqi":71,"pm10":69.4,"pm2_5":23.4,"no2":2.0,"co":114.0,"o3":88.0,"so2":5.8,"mosquito_risk":0,"arthritis_risk":5,"migraine_risk":7,"frizz_risk":1,"updated_at":"2026-07-11T15:47:09.054361+05:30"},{"city":"Latur","state":"Maharashtra","latitude":18.4088,"longitude":76.5604,"temp":31.5,"humidity":46,"rain":0.0,"pressure":936.8,"uv_index":8.6,"wind_gusts":46.4,"aqi":53,"pm10":58.7,"pm2_5":18.1,"no2":1.1,"co":116.0,"o3":80.0,"so2":1.9,"mosquito_risk":0,"arthritis_risk":5,"migraine_risk":7,"frizz_risk":1,"updated_at":"2026-07-11T15:47:09.054368+05:30"},{"city":"Nanded","state":"Maharashtra","latitude":19.1383,"longitude":77.3091,"temp":32.5,"humidity":48,"rain":0.0,"pressure":964.3,"uv_index":8.2,"wind_gusts":49.0,"aqi":64,"pm10":69.6,"pm2_5":22.2,"no2":1.7,"co":132.0,"o3":82.0,"so2":2.4,"mosquito_risk":0,"arthritis_risk":5,"migraine_risk":7,"frizz_risk":1,"updated_at":"2026-07-11T15:47:09.054375+05:30"},{"city":"Gulbarga","state":"Karnataka","latitude":17.3297,"longitude":76.8343,"temp":32.7,"humidity":45,"rain":0.0,"pressure":955.4,"uv_index":7.75,"wind_gusts":50.0,"aqi":54,"pm10":50.4,"pm2_5":16.1,"no2":1.9,"co":113.0,"o3":81.0,"so2":1.9,"mosquito_risk":0,"arthritis_risk":5,"migraine_risk":7,"frizz_risk":1,"updated_at":"2026-07-11T15:47:09.054382+05:30"},{"city":"Bidar","state":"Karnataka","latitude":17.9104,"longitude":77.5199,"temp":31.3,"humidity":50,"rain":0.0,"pressure":932.5,"uv_index":6.2,"wind_gusts":47.9,"aqi":61,"pm10":63.6,"pm2_5":19.6,"no2":2.1,"co":121.0,"o3":81.0,"so2":1.8,"mosquito_risk":0,"arthritis_risk":5,"migraine_risk":7,"frizz_risk":1,"updated_at":"2026-07-11T15:47:09.054389+05:30"},{"city":"Hospet","state":"Karnataka","latitude":15.2689,"longitude":76.3909,"temp":33.0,"humidity":41,"rain":0.0,"pressure":953.8,"uv_index":8.3,"wind_gusts":49.0,"aqi":42,"pm10":40.4,"pm2_5":14.9,"no2":2.2,"co":111.0,"o3":68.0,"so2":1.9,"mosquito_risk":0,"arthritis_risk":5,"migraine_risk":7,"frizz_risk":1,"updated_at":"2026-07-11T15:47:09.054395+05:30"},{"city":"Tirupur","state":"Tamil Nadu","latitude":11.1085,"longitude":77.3411,"temp":33.0,"humidity":52,"rain":0.0,"pressure":972.8,"uv_index":8.05,"wind_gusts":52.9,"aqi":52,"pm10":26.4,"pm2_5":11.1,"no2":2.3,"co":134.0,"o3":90.0,"so2":2.3,"mosquito_risk":0,"arthritis_risk":5,"migraine_risk":7,"frizz_risk":1,"updated_at":"2026-07-11T15:47:09.054402+05:30"},{"city":"Alappuzha","state":"Kerala","latitude":9.4981,"longitude":76.3388,"temp":28.3,"humidity":80,"rain":0.0,"pressure":1008.5,"uv_index":8.0,"wind_gusts":40.0,"aqi":45,"pm10":16.5,"pm2_5":9.1,"no2":2.8,"co":87.0,"o3":64.0,"so2":2.1,"mosquito_risk":7,"arthritis_risk":0,"migraine_risk":4,"frizz_risk":1,"updated_at":"2026-07-11T15:47:09.054409+05:30"},{"city":"Munnar","state":"Kerala","latitude":10.0889,"longitude":77.0595,"temp":19.6,"humidity":91,"rain":0.1,"pressure":857.0,"uv_index":8.15,"wind_gusts":37.8,"aqi":23,"pm10":6.7,"pm2_5":3.2,"no2":1.8,"co":98.0,"o3":53.0,"so2":1.1,"mosquito_risk":6,"arthritis_risk":10,"migraine_risk":7,"frizz_risk":1,"updated_at":"2026-07-11T15:47:09.054416+05:30"},{"city":"Silchar","state":"Assam","latitude":24.8333,"longitude":92.7789,"temp":30.0,"humidity":83,"rain":0.1,"pressure":993.5,"uv_index":7.95,"wind_gusts":29.9,"aqi":41,"pm10":5.4,"pm2_5":5.0,"no2":2.7,"co":230.0,"o3":91.0,"so2":3.0,"mosquito_risk":10,"arthritis_risk":5,"migraine_risk":7,"frizz_risk":1,"updated_at":"2026-07-11T15:47:09.054423+05:30"},{"city":"Dibrugarh","state":"Assam","latitude":27.4728,"longitude":94.912,"temp":30.5,"humidity":85,"rain":0.2,"pressure":982.8,"uv_index":6.55,"wind_gusts":28.4,"aqi":51,"pm10":7.8,"pm2_5":7.5,"no2":3.6,"co":178.0,"o3":95.0,"so2":1.7,"mosquito_risk":6,"arthritis_risk":5,"migraine_risk":7,"frizz_risk":1,"updated_at":"2026-07-11T15:47:09.054430+05:30"}]