[{"city":"Delhi","state":"Delhi","latitude":28.6139,"longitude":77.209,"temp":42.3,"humidity":13,"rain":0.0,"pressure":977.7,"uv_index":7.75,"wind_gusts":38.5,"aqi":613,"pm10":517.8,"pm2_5":76.8,"no2":4.2,"co":274.0,"o3":187.0,"so2":10.5,"mosquito_risk":0,"arthritis_risk":5,"migraine_risk":10,"frizz_risk":0,"updated_at":"2026-05-27T15:27:39.237594+05:30"},{"city":"Mumbai","state":"Maharashtra","latitude":19.076,"longitude":72.8777,"temp":34.0,"humidity":53,"rain":0.0,"pressure":1008.1,"uv_index":7.8,"wind_gusts":40.3,"aqi":38,"pm10":15.8,"pm2_5":11.9,"no2":4.5,"co":181.0,"o3":99.0,"so2":5.3,"mosquito_risk":0,"arthritis_risk":0,"migraine_risk":4,"frizz_risk":1,"updated_at":"2026-05-27T15:27:39.237641+05:30"},{"city":"Bangalore","state":"Karnataka","latitude":12.9716,"longitude":77.5946,"temp":30.0,"humidity":51,"rain":0.0,"pressure":911.8,"uv_index":9.25,"wind_gusts":29.9,"aqi":77,"pm10":23.5,"pm2_5":18.5,"no2":4.0,"co":364.0,"o3":149.0,"so2":3.5,"mosquito_risk":4,"arthritis_risk":5,"migraine_risk":7,"frizz_risk":1,"updated_at":"2026-05-27T15:27:39.237657+05:30"},{"city":"Hyderabad","state":"Telangana","latitude":17.385,"longitude":78.4867,"temp":35.4,"humidity":40,"rain":0.0,"pressure":951.6,"uv_index":8.95,"wind_gusts":36.0,"aqi":70,"pm10":25.7,"pm2_5":19.2,"no2":2.4,"co":260.0,"o3":158.0,"so2":5.8,"mosquito_risk":0,"arthritis_risk":5,"migraine_risk":10,"frizz_risk":1,"updated_at":"2026-05-27T15:27:39.237667+05:30"},{"city":"Chennai","state":"Tamil Nadu","latitude":13.0827,"longitude":80.2707,"temp":35.9,"humidity":49,"rain":0.0,"pressure":1004.0,"uv_index":9.0,"wind_gusts":36.0,"aqi":91,"pm10":38.6,"pm2_5":31.4,"no2":3.6,"co":325.0,"o3":204.0,"so2":6.8,"mosquito_risk":0,"arthritis_risk":5,"migraine_risk":7,"frizz_risk":1,"updated_at":"2026-05-27T15:27:39.237675+05:30"},{"city":"Kolkata","state":"West Bengal","latitude":22.5726,"longitude":88.3639,"temp":34.7,"humidity":63,"rain":0.0,"pressure":1000.7,"uv_index":8.9,"wind_gusts":41.0,"aqi":114,"pm10":54.2,"pm2_5":36.3,"no2":2.4,"co":300.0,"o3":122.0,"so2":7.2,"mosquito_risk":3,"arthritis_risk":5,"migraine_risk":4,"frizz_risk":1,"updated_at":"2026-05-27T15:27:39.237683+05:30"},{"city":"Pune","state":"Maharashtra","latitude":18.5204,"longitude":73.8567,"temp":36.1,"humidity":35,"rain":0.0,"pressure":948.1,"uv_index":8.3,"wind_gusts":43.9,"aqi":40,"pm10":15.0,"pm2_5":10.0,"no2":1.8,"co":171.0,"o3":119.0,"so2":6.1,"mosquito_risk":0,"arthritis_risk":5,"migraine_risk":10,"frizz_risk":1,"updated_at":"2026-05-27T15:27:39.237689+05:30"},{"city":"Ahmedabad","state":"Gujarat","latitude":23.0225,"longitude":72.5714,"temp":42.0,"humidity":22,"rain":0.0,"pressure":999.1,"uv_index":8.15,"wind_gusts":36.0,"aqi":73,"pm10":63.6,"pm2_5":21.7,"no2":1.5,"co":152.0,"o3":103.0,"so2":3.3,"mosquito_risk":0,"arthritis_risk":5,"migraine_risk":10,"frizz_risk":0,"updated_at":"2026-05-27T15:27:39.237695+05:30"},{"city":"Jaipur","state":"Rajasthan","latitude":26.9124,"longitude":75.7873,"temp":42.8,"humidity":13,"rain":0.0,"pressure":956.7,"uv_index":8.25,"wind_gusts":47.2,"aqi":164,"pm10":310.1,"pm2_5":53.7,"no2":1.0,"co":155.0,"o3":120.0,"so2":3.6,"mosquito_risk":0,"arthritis_risk":5,"migraine_risk":10,"frizz_risk":0,"updated_at":"2026-05-27T15:27:39.237709+05:30"},{"city":"Lucknow","state":"Uttar Pradesh","latitude":26.8467,"longitude":80.9462,"temp":42.9,"humidity":14,"rain":0.0,"pressure":986.7,"uv_index":8.2,"wind_gusts":36.0,"aqi":155,"pm10":128.5,"pm2_5":36.3,"no2":1.9,"co":259.0,"o3":205.0,"so2":11.4,"mosquito_risk":0,"arthritis_risk":5,"migraine_risk":10,"frizz_risk":0,"updated_at":"2026-05-27T15:27:39.237715+05:30"},{"city":"Kanpur","state":"Uttar Pradesh","latitude":26.4499,"longitude":80.3319,"temp":42.9,"humidity":13,"rain":0.0,"pressure":985.3,"uv_index":8.2,"wind_gusts":40.3,"aqi":306,"pm10":413.5,"pm2_5":68.2,"no2":1.7,"co":191.0,"o3":204.0,"so2":11.3,"mosquito_risk":0,"arthritis_risk":5,"migraine_risk":10,"frizz_risk":0,"updated_at":"2026-05-27T15:27:39.237721+05:30"},{"city":"Chandigarh","state":"Chandigarh","latitude":30.7333,"longitude":76.7794,"temp":40.7,"humidity":13,"rain":0.0,"pressure":963.7,"uv_index":7.75,"wind_gusts":37.8,"aqi":138,"pm10":18.2,"pm2_5":11.5,"no2":2.2,"co":264.0,"o3":188.0,"so2":8.2,"mosquito_risk":0,"arthritis_risk":5,"migraine_risk":10,"frizz_risk":0,"updated_at":"2026-05-27T15:27:39.237728+05:30"},{"city":"Srinagar","state":"Jammu and Kashmir","latitude":34.0837,"longitude":74.7973,"temp":28.0,"humidity":29,"rain":0.0,"pressure":843.3,"uv_index":9.0,"wind_gusts":20.9,"aqi":88,"pm10":34.6,"pm2_5":12.9,"no2":1.2,"co":312.0,"o3":145.0,"so2":2.2,"mosquito_risk":4,"arthritis_risk":5,"migraine_risk":7,"frizz_risk":0,"updated_at":"2026-05-27T15:27:39.237735+05:30"},{"city":"Jammu","state":"Jammu and Kashmir","latitude":32.7266,"longitude":74.857,"temp":41.6,"humidity":12,"rain":0.0,"pressure":966.7,"uv_index":8.6,"wind_gusts":58.0,"aqi":96,"pm10":39.9,"pm2_5":15.9,"no2":1.6,"co":207.0,"o3":156.0,"so2":2.5,"mosquito_risk":0,"arthritis_risk":5,"migraine_risk":10,"frizz_risk":0,"updated_at":"2026-05-27T15:27:39.237741+05:30"},{"city":"Amritsar","state":"Punjab","latitude":31.634,"longitude":74.8723,"temp":42.6,"humidity":12,"rain":0.0,"pressure":974.9,"uv_index":8.45,"wind_gusts":31.3,"aqi":101,"pm10":39.7,"pm2_5":16.2,"no2":1.8,"co":203.0,"o3":163.0,"so2":5.8,"mosquito_risk":0,"arthritis_risk":5,"migraine_risk":10,"frizz_risk":0,"updated_at":"2026-05-27T15:27:39.237747+05:30"},{"city":"Ludhiana","state":"Punjab","latitude":30.901,"longitude":75.8573,"temp":42.3,"humidity":13,"rain":0.0,"pressure":973.1,"uv_index":8.0,"wind_gusts":40.3,"aqi":111,"pm10":62.6,"pm2_5":17.2,"no2":1.4,"co":225.0,"o3":166.0,"so2":3.1,"mosquito_risk":0,"arthritis_risk":5,"migraine_risk":10,"frizz_risk":0,"updated_at":"2026-05-27T15:27:39.237753+05:30"},{"city":"Jalandhar","state":"Punjab","latitude":31.326,"longitude":75.5762,"temp":42.1,"humidity":14,"rain":0.0,"pressure":974.1,"uv_index":8.2,"wind_gusts":38.9,"aqi":115,"pm10":71.9,"pm2_5":19.5,"no2":1.4,"co":254.0,"o3":172.0,"so2":4.4,"mosquito_risk":0,"arthritis_risk":5,"migraine_risk":10,"frizz_risk":0,"updated_at":"2026-05-27T15:27:39.237759+05:30"},{"city":"Dehradun","state":"Uttarakhand","latitude":30.6284,"longitude":78.0322,"temp":25.6,"humidity":39,"rain":0.0,"pressure":831.0,"uv_index":8.2,"wind_gusts":33.5,"aqi":112,"pm10":20.4,"pm2_5":13.2,"no2":1.1,"co":231.0,"o3":185.0,"so2":4.4,"mosquito_risk":4,"arthritis_risk":5,"migraine_risk":7,"frizz_risk":0,"updated_at":"2026-05-27T15:27:39.237765+05:30"},{"city":"Shimla","state":"Himachal Pradesh","latitude":31.1048,"longitude":77.1734,"temp":26.0,"humidity":19,"rain":0.0,"pressure":788.0,"uv_index":8.3,"wind_gusts":64.1,"aqi":116,"pm10":26.4,"pm2_5":11.7,"no2":1.0,"co":173.0,"o3":162.0,"so2":3.6,"mosquito_risk":4,"arthritis_risk":5,"migraine_risk":7,"frizz_risk":0,"updated_at":"2026-05-27T15:27:39.237774+05:30"},{"city":"Manali","state":"Himachal Pradesh","latitude":32.2396,"longitude":77.1887,"temp":25.4,"humidity":30,"rain":0.0,"pressure":820.6,"uv_index":9.9,"wind_gusts":51.5,"aqi":128,"pm10":27.4,"pm2_5":16.8,"no2":7.0,"co":130.0,"o3":169.0,"so2":0.4,"mosquito_risk":4,"arthritis_risk":5,"migraine_risk":7,"frizz_risk":0,"updated_at":"2026-05-27T15:27:39.237797+05:30"},{"city":"Gurgaon","state":"Haryana","latitude":28.4595,"longitude":77.0266,"temp":41.8,"humidity":13,"rain":0.0,"pressure":976.5,"uv_index":7.85,"wind_gusts":39.2,"aqi":886,"pm10":1337.4,"pm2_5":162.5,"no2":4.1,"co":239.0,"o3":189.0,"so2":9.1,"mosquito_risk":0,"arthritis_risk":5,"migraine_risk":10,"frizz_risk":0,"updated_at":"2026-05-27T15:27:39.237804+05:30"},{"city":"Noida","state":"Uttar Pradesh","latitude":28.5355,"longitude":77.391,"temp":42.3,"humidity":13,"rain":0.0,"pressure":978.8,"uv_index":7.75,"wind_gusts":31.7,"aqi":886,"pm10":1337.4,"pm2_5":162.5,"no2":4.1,"co":280.0,"o3":189.0,"so2":9.1,"mosquito_risk":0,"arthritis_risk":5,"migraine_risk":10,"frizz_risk":0,"updated_at":"2026-05-27T15:27:39.237810+05:30"},{"city":"Ghaziabad","state":"Uttar Pradesh","latitude":28.6692,"longitude":77.4538,"temp":42.0,"humidity":14,"rain":0.0,"pressure":977.2,"uv_index":7.75,"wind_gusts":35.3,"aqi":385,"pm10":356.7,"pm2_5":60.8,"no2":3.2,"co":209.0,"o3":200.0,"so2":12.4,"mosquito_risk":0,"arthritis_risk":5,"migraine_risk":10,"frizz_risk":0,"updated_at":"2026-05-27T15:27:39.237818+05:30"},{"city":"Faridabad","state":"Haryana","latitude":28.4089,"longitude":77.3178,"temp":42.3,"humidity":12,"rain":0.0,"pressure":978.3,"uv_index":7.8,"wind_gusts":39.6,"aqi":886,"pm10":1337.4,"pm2_5":162.5,"no2":4.1,"co":247.0,"o3":189.0,"so2":9.1,"mosquito_risk":0,"arthritis_risk":5,"migraine_risk":10,"frizz_risk":0,"updated_at":"2026-05-27T15:27:39.237823+05:30"},{"city":"Meerut","state":"Uttar Pradesh","latitude":28.9845,"longitude":77.7064,"temp":41.0,"humidity":15,"rain":0.0,"pressure":976.1,"uv_index":7.65,"wind_gusts":36.7,"aqi":385,"pm10":356.7,"pm2_5":60.8,"no2":3.2,"co":189.0,"o3":200.0,"so2":12.4,"mosquito_risk":0,"arthritis_risk":5,"migraine_risk":10,"frizz_risk":0,"updated_at":"2026-05-27T15:27:39.237829+05:30"},{"city":"Agra","state":"Uttar Pradesh","latitude":27.1767,"longitude":78.0081,"temp":43.0,"humidity":12,"rain":0.0,"pressure":982.3,"uv_index":8.05,"wind_gusts":38.5,"aqi":566,"pm10":817.7,"pm2_5":101.5,"no2":1.8,"co":168.0,"o3":186.0,"so2":9.2,"mosquito_risk":0,"arthritis_risk":5,"migraine_risk":10,"frizz_risk":0,"updated_at":"2026-05-27T15:27:39.237835+05:30"},{"city":"Varanasi","state":"Uttar Pradesh","latitude":25.3176,"longitude":82.9739,"temp":39.8,"humidity":34,"rain":0.0,"pressure":991.0,"uv_index":8.65,"wind_gusts":41.0,"aqi":157,"pm10":122.9,"pm2_5":49.1,"no2":2.4,"co":357.0,"o3":227.0,"so2":16.4,"mosquito_risk":0,"arthritis_risk":5,"migraine_risk":10,"frizz_risk":1,"updated_at":"2026-05-27T15:27:39.237841+05:30"},{"city":"Prayagraj","state":"Uttar Pradesh","latitude":25.4358,"longitude":81.8463,"temp":43.7,"humidity":14,"rain":0.0,"pressure":988.4,"uv_index":8.55,"wind_gusts":53.6,"aqi":163,"pm10":142.0,"pm2_5":47.3,"no2":2.1,"co":178.0,"o3":215.0,"so2":12.9,"mosquito_risk":0,"arthritis_risk":5,"migraine_risk":10,"frizz_risk":0,"updated_at":"2026-05-27T15:27:39.237848+05:30"},{"city":"Gorakhpur","state":"Uttar Pradesh","latitude":26.7606,"longitude":83.3732,"temp":36.4,"humidity":41,"rain":0.0,"pressure":992.2,"uv_index":8.55,"wind_gusts":42.1,"aqi":138,"pm10":66.6,"pm2_5":36.6,"no2":1.9,"co":331.0,"o3":190.0,"so2":11.0,"mosquito_risk":0,"arthritis_risk":5,"migraine_risk":10,"frizz_risk":1,"updated_at":"2026-05-27T15:27:39.237856+05:30"},{"city":"Bareilly","state":"Uttar Pradesh","latitude":28.367,"longitude":79.4304,"temp":38.5,"humidity":21,"rain":0.0,"pressure":981.0,"uv_index":8.0,"wind_gusts":31.7,"aqi":134,"pm10":60.1,"pm2_5":27.8,"no2":1.8,"co":304.0,"o3":211.0,"so2":9.7,"mosquito_risk":0,"arthritis_risk":5,"migraine_risk":10,"frizz_risk":0,"updated_at":"2026-05-27T15:27:39.237862+05:30"},{"city":"Aligarh","state":"Uttar Pradesh","latitude":27.8974,"longitude":78.088,"temp":41.2,"humidity":15,"rain":0.0,"pressure":980.2,"uv_index":7.9,"wind_gusts":38.9,"aqi":580,"pm10":769.3,"pm2_5":102.2,"no2":2.4,"co":217.0,"o3":210.0,"so2":11.2,"mosquito_risk":0,"arthritis_risk":5,"migraine_risk":10,"frizz_risk":0,"updated_at":"2026-05-27T15:27:39.237868+05:30"},{"city":"Moradabad","state":"Uttar Pradesh","latitude":28.8386,"longitude":78.7733,"temp":38.0,"humidity":23,"rain":0.0,"pressure":978.2,"uv_index":7.85,"wind_gusts":32.0,"aqi":148,"pm10":54.2,"pm2_5":33.9,"no2":2.9,"co":255.0,"o3":240.0,"so2":15.4,"mosquito_risk":0,"arthritis_risk":5,"migraine_risk":10,"frizz_risk":0,"updated_at":"2026-05-27T15:27:39.237874+05:30"},{"city":"Saharanpur","state":"Uttar Pradesh","latitude":29.9637,"longitude":77.546,"temp":38.6,"humidity":20,"rain":0.0,"pressure":970.6,"uv_index":7.4,"wind_gusts":34.9,"aqi":139,"pm10":87.8,"pm2_5":23.3,"no2":2.7,"co":208.0,"o3":213.0,"so2":12.3,"mosquito_risk":0,"arthritis_risk":5,"migraine_risk":10,"frizz_risk":0,"updated_at":"2026-05-27T15:27:39.237880+05:30"},{"city":"Jhansi","state":"Uttar Pradesh","latitude":25.4484,"longitude":78.5685,"temp":43.2,"humidity":16,"rain":0.0,"pressure":973.0,"uv_index":8.45,"wind_gusts":52.2,"aqi":70,"pm10":73.1,"pm2_5":24.0,"no2":0.8,"co":135.0,"o3":118.0,"so2":4.1,"mosquito_risk":0,"arthritis_risk":5,"migraine_risk":10,"frizz_risk":0,"updated_at":"2026-05-27T15:27:42.514973+05:30"},{"city":"Surat","state":"Gujarat","latitude":21.1702,"longitude":72.8311,"temp":35.2,"humidity":49,"rain":0.0,"pressure":1005.5,"uv_index":7.7,"wind_gusts":45.4,"aqi":70,"pm10":69.8,"pm2_5":29.7,"no2":12.7,"co":282.0,"o3":67.0,"so2":40.2,"mosquito_risk":0,"arthritis_risk":5,"migraine_risk":7,"frizz_risk":1,"updated_at":"2026-05-27T15:27:42.515010+05:30"},{"city":"Vadodara","state":"Gujarat","latitude":22.3072,"longitude":73.1812,"temp":40.7,"humidity":28,"rain":0.0,"pressure":1001.7,"uv_index":8.05,"wind_gusts":41.8,"aqi":69,"pm10":75.2,"pm2_5":27.6,"no2":1.5,"co":158.0,"o3":105.0,"so2":3.5,"mosquito_risk":0,"arthritis_risk":5,"migraine_risk":7,"frizz_risk":1,"updated_at":"2026-05-27T15:27:42.515020+05:30"},{"city":"Rajkot","state":"Gujarat","latitude":22.3039,"longitude":70.8022,"temp":41.8,"humidity":23,"rain":0.0,"pressure":992.0,"uv_index":7.75,"wind_gusts":46.4,"aqi":70,"pm10":61.9,"pm2_5":23.1,"no2":1.0,"co":124.0,"o3":104.0,"so2":4.1,"mosquito_risk":0,"arthritis_risk":5,"migraine_risk":10,"frizz_risk":1,"updated_at":"2026-05-27T15:27:42.515029+05:30"},{"city":"Thane","state":"Maharashtra","latitude":19.2183,"longitude":72.9781,"temp":35.6,"humidity":47,"rain":0.0,"pressure":1007.1,"uv_index":7.8,"wind_gusts":37.8,"aqi":38,"pm10":15.8,"pm2_5":11.9,"no2":4.5,"co":168.0,"o3":99.0,"so2":5.3,"mosquito_risk":0,"arthritis_risk":5,"migraine_risk":7,"frizz_risk":1,"updated_at":"2026-05-27T15:27:42.515037+05:30"},{"city":"Nagpur","state":"Maharashtra","latitude":21.1458,"longitude":79.0882,"temp":42.8,"humidity":15,"rain":0.0,"pressure":969.6,"uv_index":8.9,"wind_gusts":44.3,"aqi":75,"pm10":50.8,"pm2_5":22.2,"no2":3.6,"co":165.0,"o3":136.0,"so2":13.0,"mosquito_risk":0,"arthritis_risk":5,"migraine_risk":10,"frizz_risk":0,"updated_at":"2026-05-27T15:27:42.515044+05:30"},{"city":"Nashik","state":"Maharashtra","latitude":19.9975,"longitude":73.7898,"temp":36.0,"humidity":35,"rain":0.0,"pressure":945.7,"uv_index":8.1,"wind_gusts":40.3,"aqi":29,"pm10":18.1,"pm2_5":8.7,"no2":0.9,"co":143.0,"o3":83.0,"so2":0.9,"mosquito_risk":0,"arthritis_risk":5,"migraine_risk":10,"frizz_risk":1,"updated_at":"2026-05-27T15:27:42.515051+05:30"},{"city":"Aurangabad","state":"Maharashtra","latitude":19.8762,"longitude":75.3433,"temp":38.8,"humidity":25,"rain":0.0,"pressure":943.7,"uv_index":9.0,"wind_gusts":42.1,"aqi":37,"pm10":23.7,"pm2_5":11.9,"no2":1.0,"co":141.0,"o3":112.0,"so2":2.7,"mosquito_risk":0,"arthritis_risk":5,"migraine_risk":10,"frizz_risk":0,"updated_at":"2026-05-27T15:27:42.515058+05:30"},{"city":"Solapur","state":"Maharashtra","latitude":17.6599,"longitude":75.9064,"temp":37.5,"humidity":29,"rain":0.0,"pressure":956.1,"uv_index":8.1,"wind_gusts":37.4,"aqi":47,"pm10":15.1,"pm2_5":10.6,"no2":1.2,"co":152.0,"o3":125.0,"so2":3.5,"mosquito_risk":0,"arthritis_risk":5,"migraine_risk":10,"frizz_risk":1,"updated_at":"2026-05-27T15:27:42.515065+05:30"},{"city":"Kolhapur","state":"Maharashtra","latitude":16.705,"longitude":74.2433,"temp":32.7,"humidity":48,"rain":0.1,"pressure":948.0,"uv_index":8.1,"wind_gusts":44.3,"aqi":34,"pm10":12.3,"pm2_5":8.2,"no2":1.5,"co":149.0,"o3":104.0,"so2":1.7,"mosquito_risk":3,"arthritis_risk":5,"migraine_risk":7,"frizz_risk":1,"updated_at":"2026-05-27T15:27:42.515074+05:30"},{"city":"Goa","state":"Goa","latitude":15.2993,"longitude":74.124,"temp":31.9,"humidity":70,"rain":0.1,"pressure":997.7,"uv_index":7.1,"wind_gusts":27.0,"aqi":37,"pm10":7.7,"pm2_5":5.6,"no2":0.7,"co":153.0,"o3":66.0,"so2":1.0,"mosquito_risk":6,"arthritis_risk":5,"migraine_risk":7,"frizz_risk":1,"updated_at":"2026-05-27T15:27:42.515081+05:30"},{"city":"Jodhpur","state":"Rajasthan","latitude":26.2389,"longitude":73.0243,"temp":42.5,"humidity":19,"rain":0.0,"pressure":979.7,"uv_index":8.45,"wind_gusts":42.8,"aqi":149,"pm10":329.7,"pm2_5":54.8,"no2":0.7,"co":128.0,"o3":102.0,"so2":2.0,"mosquito_risk":0,"arthritis_risk":5,"migraine_risk":10,"frizz_risk":0,"updated_at":"2026-05-27T15:27:42.515088+05:30"},{"city":"Udaipur","state":"Rajasthan","latitude":24.5854,"longitude":73.7125,"temp":39.3,"humidity":20,"rain":0.0,"pressure":945.7,"uv_index":8.85,"wind_gusts":39.6,"aqi":69,"pm10":78.5,"pm2_5":21.2,"no2":0.6,"co":129.0,"o3":106.0,"so2":2.4,"mosquito_risk":0,"arthritis_risk":5,"migraine_risk":10,"frizz_risk":0,"updated_at":"2026-05-27T15:27:42.515095+05:30"},{"city":"Kota","state":"Rajasthan","latitude":25.2138,"longitude":75.8648,"temp":44.0,"humidity":16,"rain":0.0,"pressure":975.1,"uv_index":8.4,"wind_gusts":41.8,"aqi":79,"pm10":105.9,"pm2_5":27.2,"no2":0.8,"co":137.0,"o3":116.0,"so2":3.9,"mosquito_risk":0,"arthritis_risk":5,"migraine_risk":10,"frizz_risk":0,"updated_at":"2026-05-27T15:27:42.515101+05:30"},{"city":"Bikaner","state":"Rajasthan","latitude":28.0229,"longitude":73.3119,"temp":45.0,"humidity":12,"rain":0.0,"pressure":976.8,"uv_index":8.4,"wind_gusts":43.9,"aqi":129,"pm10":83.4,"pm2_5":36.6,"no2":0.3,"co":151.0,"o3":105.0,"so2":2.3,"mosquito_risk":0,"arthritis_risk":5,"migraine_risk":10,"frizz_risk":0,"updated_at":"2026-05-27T15:27:42.515108+05:30"},{"city":"Ajmer","state":"Rajasthan","latitude":26.4499,"longitude":74.6399,"temp":40.2,"humidity":20,"rain":0.0,"pressure":952.9,"uv_index":8.4,"wind_gusts":56.2,"aqi":73,"pm10":88.0,"pm2_5":24.0,"no2":0.6,"co":129.0,"o3":103.0,"so2":2.5,"mosquito_risk":0,"arthritis_risk":5,"migraine_risk":10,"frizz_risk":0,"updated_at":"2026-05-27T15:27:42.515116+05:30"},{"city":"Gwalior","state":"Madhya Pradesh","latitude":26.2183,"longitude":78.1828,"temp":43.5,"humidity":14,"rain":0.0,"pressure":977.8,"uv_index":8.25,"wind_gusts":53.6,"aqi":78,"pm10":155.1,"pm2_5":37.8,"no2":0.7,"co":137.0,"o3":144.0,"so2":5.3,"mosquito_risk":0,"arthritis_risk":5,"migraine_risk":10,"frizz_risk":0,"updated_at":"2026-05-27T15:27:42.515122+05:30"},{"city":"Indore","state":"Madhya Pradesh","latitude":22.7196,"longitude":75.8577,"temp":39.0,"humidity":23,"rain":0.0,"pressure":947.2,"uv_index":8.6,"wind_gusts":46.1,"aqi":65,"pm10":46.1,"pm2_5":18.9,"no2":1.0,"co":162.0,"o3":117.0,"so2":4.0,"mosquito_risk":0,"arthritis_risk":5,"migraine_risk":10,"frizz_risk":0,"updated_at":"2026-05-27T15:27:42.515129+05:30"},{"city":"Bhopal","state":"Madhya Pradesh","latitude":23.2599,"longitude":77.4126,"temp":41.8,"humidity":15,"rain":0.0,"pressure":951.5,"uv_index":8.65,"wind_gusts":39.6,"aqi":66,"pm10":33.1,"pm2_5":13.9,"no2":0.7,"co":155.0,"o3":119.0,"so2":2.9,"mosquito_risk":0,"arthritis_risk":5,"migraine_risk":10,"frizz_risk":0,"updated_at":"2026-05-27T15:27:42.515135+05:30"},{"city":"Jabalpur","state":"Madhya Pradesh","latitude":23.1815,"longitude":79.9864,"temp":43.5,"humidity":13,"rain":0.0,"pressure":957.3,"uv_index":8.85,"wind_gusts":42.1,"aqi":79,"pm10":41.4,"pm2_5":17.3,"no2":0.8,"co":141.0,"o3":129.0,"so2":3.4,"mosquito_risk":0,"arthritis_risk":5,"migraine_risk":10,"frizz_risk":0,"updated_at":"2026-05-27T15:27:42.515142+05:30"},{"city":"Ujjain","state":"Madhya Pradesh","latitude":23.1765,"longitude":75.7885,"temp":39.8,"humidity":23,"rain":0.0,"pressure":952.5,"uv_index":8.55,"wind_gusts":47.9,"aqi":67,"pm10":43.7,"pm2_5":19.6,"no2":0.7,"co":141.0,"o3":118.0,"so2":4.3,"mosquito_risk":0,"arthritis_risk":5,"migraine_risk":10,"frizz_risk":0,"updated_at":"2026-05-27T15:27:42.515150+05:30"},{"city":"Visakhapatnam","state":"Andhra Pradesh","latitude":17.6868,"longitude":83.2185,"temp":42.8,"humidity":26,"rain":0.0,"pressure":996.8,"uv_index":9.05,"wind_gusts":40.7,"aqi":144,"pm10":97.6,"pm2_5":79.4,"no2":16.7,"co":446.0,"o3":288.0,"so2":70.8,"mosquito_risk":0,"arthritis_risk":5,"migraine_risk":10,"frizz_risk":1,"updated_at":"2026-05-27T15:27:42.515157+05:30"},{"city":"Vijayawada","state":"Andhra Pradesh","latitude":16.5062,"longitude":80.648,"temp":40.0,"humidity":32,"rain":0.0,"pressure":998.2,"uv_index":8.35,"wind_gusts":41.0,"aqi":99,"pm10":42.0,"pm2_5":26.1,"no2":2.0,"co":210.0,"o3":161.0,"so2":5.5,"mosquito_risk":0,"arthritis_risk":5,"migraine_risk":10,"frizz_risk":1,"updated_at":"2026-05-27T15:27:42.515164+05:30"},{"city":"Guntur","state":"Andhra Pradesh","latitude":16.3067,"longitude":80.4365,"temp":40.0,"humidity":31,"rain":0.0,"pressure":999.3,"uv_index":8.85,"wind_gusts":38.9,"aqi":88,"pm10":35.7,"pm2_5":22.1,"no2":1.6,"co":202.0,"o3":154.0,"so2":4.4,"mosquito_risk":0,"arthritis_risk":5,"migraine_risk":10,"frizz_risk":1,"updated_at":"2026-05-27T15:27:42.515170+05:30"},{"city":"Nellore","state":"Andhra Pradesh","latitude":14.4426,"longitude":79.9865,"temp":37.2,"humidity":39,"rain":0.0,"pressure":1002.4,"uv_index":9.0,"wind_gusts":36.0,"aqi":73,"pm10":23.1,"pm2_5":18.9,"no2":2.5,"co":176.0,"o3":161.0,"so2":6.8,"mosquito_risk":0,"arthritis_risk":5,"migraine_risk":7,"frizz_risk":1,"updated_at":"2026-05-27T15:27:42.515178+05:30"},{"city":"Kurnool","state":"Andhra Pradesh","latitude":15.8281,"longitude":78.0373,"temp":36.0,"humidity":37,"rain":0.0,"pressure":975.1,"uv_index":5.7,"wind_gusts":46.4,"aqi":59,"pm10":19.0,"pm2_5":14.8,"no2":1.4,"co":173.0,"o3":146.0,"so2":7.8,"mosquito_risk":0,"arthritis_risk":5,"migraine_risk":6,"frizz_risk":1,"updated_at":"2026-05-27T15:27:42.515185+05:30"},{"city":"Kakinada","state":"Andhra Pradesh","latitude":16.9891,"longitude":82.2475,"temp":39.9,"humidity":34,"rain":0.0,"pressure":1001.6,"uv_index":9.05,"wind_gusts":49.0,"aqi":140,"pm10":47.8,"pm2_5":32.7,"no2":3.3,"co":245.0,"o3":195.0,"so2":4.9,"mosquito_risk":0,"arthritis_risk":5,"migraine_risk":7,"frizz_risk":1,"updated_at":"2026-05-27T15:27:42.515192+05:30"},{"city":"Tirupati","state":"Andhra Pradesh","latitude":13.6288,"longitude":79.4192,"temp":37.1,"humidity":37,"rain":0.0,"pressure":988.2,"uv_index":8.8,"wind_gusts":34.2,"aqi":72,"pm10":26.2,"pm2_5":18.8,"no2":1.5,"co":196.0,"o3":137.0,"so2":2.9,"mosquito_risk":0,"arthritis_risk":5,"migraine_risk":10,"frizz_risk":1,"updated_at":"2026-05-27T15:27:42.515199+05:30"},{"city":"Warangal","state":"Telangana","latitude":17.9689,"longitude":79.5941,"temp":38.7,"humidity":35,"rain":0.0,"pressure":975.4,"uv_index":9.0,"wind_gusts":43.6,"aqi":98,"pm10":36.9,"pm2_5":22.1,"no2":1.6,"co":192.0,"o3":149.0,"so2":5.7,"mosquito_risk":0,"arthritis_risk":5,"migraine_risk":10,"frizz_risk":1,"updated_at":"2026-05-27T15:27:42.515205+05:30"},{"city":"Nizamabad","state":"Telangana","latitude":18.6725,"longitude":78.0941,"temp":38.3,"humidity":33,"rain":0.0,"pressure":963.0,"uv_index":8.5,"wind_gusts":41.8,"aqi":77,"pm10":19.2,"pm2_5":12.3,"no2":1.1,"co":165.0,"o3":129.0,"so2":3.6,"mosquito_risk":0,"arthritis_risk":5,"migraine_risk":10,"frizz_risk":1,"updated_at":"2026-05-27T15:27:42.515212+05:30"},{"city":"Mysore","state":"Karnataka","latitude":12.2958,"longitude":76.6396,"temp":30.7,"humidity":49,"rain":0.0,"pressure":928.5,"uv_index":8.5,"wind_gusts":40.7,"aqi":54,"pm10":21.4,"pm2_5":15.6,"no2":2.1,"co":190.0,"o3":131.0,"so2":1.9,"mosquito_risk":0,"arthritis_risk":5,"migraine_risk":7,"frizz_risk":1,"updated_at":"2026-05-27T15:27:42.515218+05:30"},{"city":"Mangalore","state":"Karnataka","latitude":12.9141,"longitude":74.856,"temp":29.5,"humidity":78,"rain":0.0,"pressure":1007.0,"uv_index":8.05,"wind_gusts":29.5,"aqi":55,"pm10":13.6,"pm2_5":8.7,"no2":1.1,"co":126.0,"o3":75.0,"so2":1.5,"mosquito_risk":7,"arthritis_risk":5,"migraine_risk":4,"frizz_risk":1,"updated_at":"2026-05-27T15:27:42.515225+05:30"},{"city":"Hubli-Dharwad","state":"Karnataka","latitude":15.3647,"longitude":75.124,"temp":31.0,"humidity":57,"rain":0.0,"pressure":940.6,"uv_index":5.75,"wind_gusts":36.0,"aqi":33,"pm10":8.4,"pm2_5":6.4,"no2":1.4,"co":149.0,"o3":100.0,"so2":1.0,"mosquito_risk":0,"arthritis_risk":5,"migraine_risk":3,"frizz_risk":1,"updated_at":"2026-05-27T15:27:42.515232+05:30"},{"city":"Belgaum","state":"Karnataka","latitude":15.8497,"longitude":74.4977,"temp":30.6,"humidity":54,"rain":0.0,"pressure":926.7,"uv_index":7.45,"wind_gusts":36.7,"aqi":32,"pm10":11.6,"pm2_5":8.2,"no2":1.4,"co":147.0,"o3":94.0,"so2":1.5,"mosquito_risk":0,"arthritis_risk":5,"migraine_risk":7,"frizz_risk":1,"updated_at":"2026-05-27T15:27:45.785918+05:30"},{"city":"Coimbatore","state":"Tamil Nadu","latitude":11.0168,"longitude":76.9558,"temp":31.9,"humidity":55,"rain":0.0,"pressure":961.3,"uv_index":8.85,"wind_gusts":53.3,"aqi":41,"pm10":13.1,"pm2_5":9.8,"no2":1.6,"co":166.0,"o3":108.0,"so2":2.3,"mosquito_risk":0,"arthritis_risk":5,"migraine_risk":7,"frizz_risk":1,"updated_at":"2026-05-27T15:27:45.785955+05:30"},{"city":"Madurai","state":"Tamil Nadu","latitude":9.9252,"longitude":78.1198,"temp":36.7,"humidity":41,"rain":0.0,"pressure":990.6,"uv_index":8.4,"wind_gusts":41.4,"aqi":95,"pm10":35.2,"pm2_5":24.1,"no2":2.5,"co":196.0,"o3":164.0,"so2":3.5,"mosquito_risk":0,"arthritis_risk":5,"migraine_risk":10,"frizz_risk":1,"updated_at":"2026-05-27T15:27:45.785966+05:30"},{"city":"Trichy","state":"Tamil Nadu","latitude":10.7905,"longitude":78.7047,"temp":38.2,"humidity":33,"rain":0.0,"pressure":996.8,"uv_index":8.3,"wind_gusts":52.2,"aqi":58,"pm10":18.4,"pm2_5":14.2,"no2":1.8,"co":166.0,"o3":127.0,"so2":2.7,"mosquito_risk":0,"arthritis_risk":5,"migraine_risk":10,"frizz_risk":1,"updated_at":"2026-05-27T15:27:45.785975+05:30"},{"city":"Salem","state":"Tamil Nadu","latitude":11.6643,"longitude":78.146,"temp":38.4,"humidity":32,"rain":0.0,"pressure":975.2,"uv_index":8.35,"wind_gusts":40.0,"aqi":76,"pm10":23.2,"pm2_5":18.8,"no2":2.8,"co":180.0,"o3":167.0,"so2":8.7,"mosquito_risk":0,"arthritis_risk":5,"migraine_risk":10,"frizz_risk":1,"updated_at":"2026-05-27T15:27:45.785983+05:30"},{"city":"Tirunelveli","state":"Tamil Nadu","latitude":8.7139,"longitude":77.7567,"temp":34.1,"humidity":52,"rain":0.1,"pressure":1001.6,"uv_index":8.6,"wind_gusts":32.0,"aqi":32,"pm10":9.1,"pm2_5":5.9,"no2":1.3,"co":127.0,"o3":84.0,"so2":0.9,"mosquito_risk":3,"arthritis_risk":5,"migraine_risk":4,"frizz_risk":1,"updated_at":"2026-05-27T15:27:45.785990+05:30"},{"city":"Vellore","state":"Tamil Nadu","latitude":12.9165,"longitude":79.1325,"temp":37.2,"humidity":38,"rain":0.0,"pressure":981.7,"uv_index":8.7,"wind_gusts":35.3,"aqi":83,"pm10":32.7,"pm2_5":22.8,"no2":1.6,"co":180.0,"o3":151.0,"so2":3.0,"mosquito_risk":0,"arthritis_risk":5,"migraine_risk":10,"frizz_risk":1,"updated_at":"2026-05-27T15:27:45.785998+05:30"},{"city":"Erode","state":"Tamil Nadu","latitude":11.341,"longitude":77.7172,"temp":37.2,"humidity":37,"rain":0.0,"pressure":986.7,"uv_index":7.35,"wind_gusts":37.4,"aqi":52,"pm10":19.4,"pm2_5":14.6,"no2":2.1,"co":193.0,"o3":137.0,"so2":2.2,"mosquito_risk":0,"arthritis_risk":5,"migraine_risk":10,"frizz_risk":1,"updated_at":"2026-05-27T15:27:45.786005+05:30"},{"city":"Kochi","state":"Kerala","latitude":9.9312,"longitude":76.2673,"temp":29.0,"humidity":79,"rain":0.1,"pressure":1009.3,"uv_index":7.75,"wind_gusts":29.5,"aqi":54,"pm10":7.9,"pm2_5":5.8,"no2":2.2,"co":117.0,"o3":79.0,"so2":2.3,"mosquito_risk":10,"arthritis_risk":0,"migraine_risk":4,"frizz_risk":1,"updated_at":"2026-05-27T15:27:45.786013+05:30"},{"city":"Thiruvananthapuram","state":"Kerala","latitude":8.5241,"longitude":76.9366,"temp":28.5,"humidity":81,"rain":0.1,"pressure":1008.7,"uv_index":8.0,"wind_gusts":35.3,"aqi":28,"pm10":12.1,"pm2_5":6.3,"no2":0.9,"co":111.0,"o3":65.0,"so2":0.7,"mosquito_risk":10,"arthritis_risk":0,"migraine_risk":4,"frizz_risk":1,"updated_at":"2026-05-27T15:27:45.786020+05:30"},{"city":"Kozhikode","state":"Kerala","latitude":11.2588,"longitude":75.7804,"temp":27.7,"humidity":90,"rain":0.2,"pressure":1008.8,"uv_index":8.0,"wind_gusts":30.2,"aqi":31,"pm10":7.0,"pm2_5":4.4,"no2":0.4,"co":118.0,"o3":66.0,"so2":0.5,"mosquito_risk":10,"arthritis_risk":0,"migraine_risk":4,"frizz_risk":1,"updated_at":"2026-05-27T15:27:45.786027+05:30"},{"city":"Thrissur","state":"Kerala","latitude":10.5276,"longitude":76.2144,"temp":27.6,"humidity":88,"rain":0.1,"pressure":1007.8,"uv_index":8.15,"wind_gusts":28.8,"aqi":52,"pm10":8.3,"pm2_5":6.3,"no2":1.7,"co":122.0,"o3":84.0,"so2":2.0,"mosquito_risk":10,"arthritis_risk":5,"migraine_risk":4,"frizz_risk":1,"updated_at":"2026-05-27T15:27:45.786035+05:30"},{"city":"Kannur","state":"Kerala","latitude":11.8745,"longitude":75.3704,"temp":27.8,"humidity":86,"rain":0.2,"pressure":1008.0,"uv_index":7.95,"wind_gusts":23.8,"aqi":54,"pm10":9.7,"pm2_5":6.5,"no2":1.0,"co":116.0,"o3":75.0,"so2":1.1,"mosquito_risk":10,"arthritis_risk":0,"migraine_risk":4,"frizz_risk":1,"updated_at":"2026-05-27T15:27:45.786044+05:30"},{"city":"Patna","state":"Bihar","latitude":25.5941,"longitude":85.1376,"temp":34.5,"humidity":48,"rain":0.0,"pressure":995.7,"uv_index":8.75,"wind_gusts":46.8,"aqi":108,"pm10":44.9,"pm2_5":33.2,"no2":2.9,"co":399.0,"o3":186.0,"so2":14.5,"mosquito_risk":0,"arthritis_risk":5,"migraine_risk":7,"frizz_risk":1,"updated_at":"2026-05-27T15:27:45.786051+05:30"},{"city":"Gaya","state":"Bihar","latitude":24.7914,"longitude":85.0002,"temp":36.8,"humidity":40,"rain":0.0,"pressure":988.4,"uv_index":8.8,"wind_gusts":35.6,"aqi":134,"pm10":40.7,"pm2_5":31.7,"no2":2.5,"co":343.0,"o3":193.0,"so2":12.7,"mosquito_risk":0,"arthritis_risk":5,"migraine_risk":10,"frizz_risk":1,"updated_at":"2026-05-27T15:27:45.786060+05:30"},{"city":"Muzaffarpur","state":"Bihar","latitude":26.1209,"longitude":85.3647,"temp":31.8,"humidity":60,"rain":0.0,"pressure":996.3,"uv_index":8.75,"wind_gusts":46.4,"aqi":116,"pm10":47.1,"pm2_5":36.0,"no2":2.8,"co":335.0,"o3":179.0,"so2":13.9,"mosquito_risk":0,"arthritis_risk":5,"migraine_risk":7,"frizz_risk":1,"updated_at":"2026-05-27T15:27:45.786067+05:30"},{"city":"Bhagalpur","state":"Bihar","latitude":25.2425,"longitude":87.0117,"temp":31.3,"humidity":64,"rain":0.0,"pressure":997.4,"uv_index":8.7,"wind_gusts":41.4,"aqi":90,"pm10":24.2,"pm2_5":20.1,"no2":3.8,"co":321.0,"o3":151.0,"so2":16.1,"mosquito_risk":3,"arthritis_risk":5,"migraine_risk":7,"frizz_risk":1,"updated_at":"2026-05-27T15:27:45.786073+05:30"},{"city":"Ranchi","state":"Jharkhand","latitude":23.3441,"longitude":85.3096,"temp":33.2,"humidity":37,"rain":0.1,"pressure":934.8,"uv_index":9.2,"wind_gusts":31.7,"aqi":126,"pm10":48.5,"pm2_5":19.1,"no2":1.2,"co":161.0,"o3":151.0,"so2":5.4,"mosquito_risk":3,"arthritis_risk":5,"migraine_risk":7,"frizz_risk":1,"updated_at":"2026-05-27T15:27:45.786080+05:30"},{"city":"Jamshedpur","state":"Jharkhand","latitude":22.8046,"longitude":86.2029,"temp":30.1,"humidity":76,"rain":0.0,"pressure":987.1,"uv_index":9.05,"wind_gusts":45.0,"aqi":151,"pm10":82.2,"pm2_5":43.5,"no2":3.1,"co":182.0,"o3":196.0,"so2":17.1,"mosquito_risk":3,"arthritis_risk":5,"migraine_risk":7,"frizz_risk":1,"updated_at":"2026-05-27T15:27:45.786087+05:30"},{"city":"Dhanbad","state":"Jharkhand","latitude":23.7957,"longitude":86.4304,"temp":30.5,"humidity":71,"rain":0.0,"pressure":975.9,"uv_index":9.0,"wind_gusts":36.4,"aqi":160,"pm10":101.3,"pm2_5":58.8,"no2":8.1,"co":190.0,"o3":223.0,"so2":42.1,"mosquito_risk":3,"arthritis_risk":5,"migraine_risk":7,"frizz_risk":1,"updated_at":"2026-05-27T15:27:45.786094+05:30"},{"city":"Bokaro","state":"Jharkhand","latitude":23.6693,"longitude":86.1511,"temp":33.2,"humidity":58,"rain":0.0,"pressure":979.3,"uv_index":9.0,"wind_gusts":45.0,"aqi":156,"pm10":81.0,"pm2_5":28.8,"no2":6.6,"co":180.0,"o3":158.0,"so2":25.9,"mosquito_risk":0,"arthritis_risk":5,"migraine_risk":7,"frizz_risk":1,"updated_at":"2026-05-27T15:27:45.786100+05:30"},{"city":"Bhubaneswar","state":"Odisha","latitude":20.2961,"longitude":85.8245,"temp":37.8,"humidity":54,"rain":0.0,"pressure":995.7,"uv_index":9.05,"wind_gusts":46.8,"aqi":100,"pm10":63.1,"pm2_5":41.7,"no2":2.4,"co":261.0,"o3":156.0,"so2":9.3,"mosquito_risk":0,"arthritis_risk":5,"migraine_risk":10,"frizz_risk":1,"updated_at":"2026-05-27T15:27:45.786107+05:30"},{"city":"Cuttack","state":"Odisha","latitude":20.4625,"longitude":85.8828,"temp":38.2,"humidity":53,"rain":0.0,"pressure":997.2,"uv_index":9.1,"wind_gusts":43.6,"aqi":100,"pm10":63.1,"pm2_5":41.7,"no2":2.4,"co":267.0,"o3":156.0,"so2":9.3,"mosquito_risk":0,"arthritis_risk":5,"migraine_risk":10,"frizz_risk":1,"updated_at":"2026-05-27T15:27:45.786113+05:30"},{"city":"Rourkela","state":"Odisha","latitude":22.2604,"longitude":84.8536,"temp":35.0,"humidity":48,"rain":0.0,"pressure":981.1,"uv_index":8.95,"wind_gusts":50.0,"aqi":149,"pm10":70.8,"pm2_5":36.9,"no2":1.9,"co":212.0,"o3":196.0,"so2":11.0,"mosquito_risk":0,"arthritis_risk":5,"migraine_risk":7,"frizz_risk":1,"updated_at":"2026-05-27T15:27:45.786120+05:30"},{"city":"Raipur","state":"Chhattisgarh","latitude":21.2514,"longitude":81.6296,"temp":43.2,"humidity":15,"rain":0.0,"pressure":969.7,"uv_index":8.95,"wind_gusts":43.6,"aqi":100,"pm10":55.2,"pm2_5":25.8,"no2":4.6,"co":151.0,"o3":159.0,"so2":19.8,"mosquito_risk":0,"arthritis_risk":5,"migraine_risk":10,"frizz_risk":0,"updated_at":"2026-05-27T15:27:45.786126+05:30"},{"city":"Bhilai","state":"Chhattisgarh","latitude":21.1938,"longitude":81.3509,"temp":41.6,"humidity":18,"rain":0.0,"pressure":970.5,"uv_index":8.95,"wind_gusts":43.9,"aqi":92,"pm10":54.1,"pm2_5":24.9,"no2":4.9,"co":198.0,"o3":142.0,"so2":17.6,"mosquito_risk":0,"arthritis_risk":5,"migraine_risk":10,"frizz_risk":0,"updated_at":"2026-05-27T15:27:45.786133+05:30"},{"city":"Guwahati","state":"Assam","latitude":26.1158,"longitude":91.7086,"temp":27.9,"humidity":75,"rain":0.0,"pressure":999.1,"uv_index":8.75,"wind_gusts":28.4,"aqi":77,"pm10":31.0,"pm2_5":20.8,"no2":2.2,"co":316.0,"o3":123.0,"so2":3.9,"mosquito_risk":7,"arthritis_risk":5,"migraine_risk":7,"frizz_risk":1,"updated_at":"2026-05-27T15:27:45.786139+05:30"},{"city":"Agartala","state":"Tripura","latitude":23.8315,"longitude":91.2868,"temp":28.5,"humidity":79,"rain":0.0,"pressure":1003.4,"uv_index":8.85,"wind_gusts":38.2,"aqi":79,"pm10":34.3,"pm2_5":22.9,"no2":6.0,"co":210.0,"o3":108.0,"so2":2.0,"mosquito_risk":7,"arthritis_risk":5,"migraine_risk":4,"frizz_risk":1,"updated_at":"2026-05-27T15:27:45.786146+05:30"},{"city":"Shillong","state":"Meghalaya","latitude":25.5788,"longitude":91.8933,"temp":20.8,"humidity":81,"rain":0.0,"pressure":856.0,"uv_index":9.05,"wind_gusts":36.7,"aqi":49,"pm10":22.8,"pm2_5":14.6,"no2":2.4,"co":237.0,"o3":102.0,"so2":2.3,"mosquito_risk":3,"arthritis_risk":5,"migraine_risk":7,"frizz_risk":1,"updated_at":"2026-05-27T15:27:45.786152+05:30"},{"city":"Imphal","state":"Manipur","latitude":24.817,"longitude":93.9368,"temp":27.8,"humidity":57,"rain":0.0,"pressure":921.9,"uv_index":9.25,"wind_gusts":39.6,"aqi":76,"pm10":50.3,"pm2_5":21.2,"no2":1.1,"co":177.0,"o3":110.0,"so2":2.7,"mosquito_risk":4,"arthritis_risk":5,"migraine_risk":7,"frizz_risk":1,"updated_at":"2026-05-27T15:27:45.786159+05:30"},{"city":"Aizawl","state":"Mizoram","latitude":23.7271,"longitude":92.7176,"temp":23.1,"humidity":76,"rain":0.0,"pressure":890.9,"uv_index":9.05,"wind_gusts":33.8,"aqi":69,"pm10":49.2,"pm2_5":23.5,"no2":0.6,"co":154.0,"o3":96.0,"so2":1.7,"mosquito_risk":3,"arthritis_risk":5,"migraine_risk":7,"frizz_risk":1,"updated_at":"2026-05-27T15:27:45.786165+05:30"},{"city":"Kohima","state":"Nagaland","latitude":25.6701,"longitude":94.1077,"temp":21.0,"humidity":93,"rain":0.1,"pressure":855.4,"uv_index":8.7,"wind_gusts":29.2,"aqi":63,"pm10":34.3,"pm2_5":15.0,"no2":0.8,"co":186.0,"o3":108.0,"so2":2.1,"mosquito_risk":6,"arthritis_risk":5,"migraine_risk":7,"frizz_risk":1,"updated_at":"2026-05-27T15:27:45.786172+05:30"},{"city":"Gangtok","state":"Sikkim","latitude":27.3314,"longitude":88.6138,"temp":19.1,"humidity":87,"rain":0.0,"pressure":837.4,"uv_index":9.1,"wind_gusts":38.5,"aqi":74,"pm10":28.8,"pm2_5":19.0,"no2":1.8,"co":235.0,"o3":133.0,"so2":2.9,"mosquito_risk":3,"arthritis_risk":10,"migraine_risk":7,"frizz_risk":1,"updated_at":"2026-05-27T15:27:45.786179+05:30"},{"city":"Siliguri","state":"West Bengal","latitude":26.7271,"longitude":88.3953,"temp":27.2,"humidity":79,"rain":0.1,"pressure":990.8,"uv_index":8.65,"wind_gusts":30.2,"aqi":89,"pm10":48.2,"pm2_5":23.9,"no2":1.8,"co":338.0,"o3":149.0,"so2":4.7,"mosquito_risk":10,"arthritis_risk":5,"migraine_risk":7,"frizz_risk":1,"updated_at":"2026-05-27T15:27:49.072895+05:30"},{"city":"Durgapur","state":"West Bengal","latitude":23.5204,"longitude":87.3119,"temp":28.9,"humidity":86,"rain":0.6,"pressure":990.9,"uv_index":8.85,"wind_gusts":34.9,"aqi":158,"pm10":110.4,"pm2_5":86.1,"no2":11.5,"co":727.0,"o3":238.0,"so2":54.8,"mosquito_risk":10,"arthritis_risk":5,"migraine_risk":7,"frizz_risk":1,"updated_at":"2026-05-27T15:27:49.072934+05:30"},{"city":"Asansol","state":"West Bengal","latitude":23.6739,"longitude":86.9524,"temp":28.0,"humidity":89,"rain":0.1,"pressure":989.6,"uv_index":8.95,"wind_gusts":39.6,"aqi":158,"pm10":113.6,"pm2_5":89.4,"no2":10.9,"co":521.0,"o3":251.0,"so2":55.3,"mosquito_risk":10,"arthritis_risk":5,"migraine_risk":7,"frizz_risk":1,"updated_at":"2026-05-27T15:27:49.072946+05:30"},{"city":"Pondicherry","state":"Puducherry","latitude":11.9139,"longitude":79.8145,"temp":33.0,"humidity":60,"rain":0.0,"pressure":1005.7,"uv_index":8.45,"wind_gusts":42.1,"aqi":74,"pm10":39.3,"pm2_5":34.9,"no2":8.2,"co":298.0,"o3":211.0,"so2":16.1,"mosquito_risk":0,"arthritis_risk":5,"migraine_risk":4,"frizz_risk":1,"updated_at":"2026-05-27T15:27:49.072955+05:30"},{"city":"Port Blair","state":"Andaman and Nicobar Islands","latitude":11.6234,"longitude":92.7265,"temp":29.5,"humidity":68,"rain":0.0,"pressure":1005.0,"uv_index":8.3,"wind_gusts":37.1,"aqi":36,"pm10":9.1,"pm2_5":6.2,"no2":0.5,"co":122.0,"o3":76.0,"so2":0.4,"mosquito_risk":7,"arthritis_risk":5,"migraine_risk":4,"frizz_risk":1,"updated_at":"2026-05-27T15:27:49.072963+05:30"},{"city":"Haridwar","state":"Uttarakhand","latitude":29.9457,"longitude":78.1642,"temp":37.2,"humidity":26,"rain":0.0,"pressure":969.0,"uv_index":7.55,"wind_gusts":37.4,"aqi":139,"pm10":17.9,"pm2_5":15.1,"no2":1.7,"co":250.0,"o3":211.0,"so2":8.2,"mosquito_risk":0,"arthritis_risk":5,"migraine_risk":10,"frizz_risk":0,"updated_at":"2026-05-27T15:27:49.072972+05:30"},{"city":"Rishikesh","state":"Uttarakhand","latitude":30.0869,"longitude":78.2676,"temp":36.2,"humidity":28,"rain":0.0,"pressure":962.0,"uv_index":7.7,"wind_gusts":35.6,"aqi":132,"pm10":17.3,"pm2_5":14.1,"no2":1.1,"co":244.0,"o3":200.0,"so2":6.2,"mosquito_risk":0,"arthritis_risk":5,"migraine_risk":10,"frizz_risk":0,"updated_at":"2026-05-27T15:27:49.072980+05:30"},{"city":"Nainital","state":"Uttarakhand","latitude":29.3919,"longitude":79.4542,"temp":23.5,"humidity":49,"rain":0.0,"pressure":806.5,"uv_index":8.5,"wind_gusts":32.8,"aqi":135,"pm10":37.6,"pm2_5":20.2,"no2":1.4,"co":259.0,"o3":189.0,"so2":8.2,"mosquito_risk":0,"arthritis_risk":5,"migraine_risk":7,"frizz_risk":0,"updated_at":"2026-05-27T15:27:49.072988+05:30"},{"city":"Mussoorie","state":"Uttarakhand","latitude":30.4599,"longitude":78.0664,"temp":24.3,"humidity":41,"rain":0.0,"pressure":804.5,"uv_index":8.1,"wind_gusts":50.0,"aqi":133,"pm10":17.4,"pm2_5":15.0,"no2":1.6,"co":224.0,"o3":213.0,"so2":8.1,"mosquito_risk":0,"arthritis_risk":5,"migraine_risk":7,"frizz_risk":0,"updated_at":"2026-05-27T15:27:49.072995+05:30"},{"city":"Dharamshala","state":"Himachal Pradesh","latitude":32.219,"longitude":76.3234,"temp":30.0,"humidity":25,"rain":0.0,"pressure":869.0,"uv_index":8.45,"wind_gusts":46.4,"aqi":103,"pm10":23.4,"pm2_5":10.5,"no2":0.6,"co":162.0,"o3":163.0,"so2":1.1,"mosquito_risk":4,"arthritis_risk":5,"migraine_risk":7,"frizz_risk":0,"updated_at":"2026-05-27T15:27:49.073003+05:30"},{"city":"Dalhousie","state":"Himachal Pradesh","latitude":32.5387,"longitude":75.971,"temp":26.3,"humidity":24,"rain":0.0,"pressure":807.1,"uv_index":8.7,"wind_gusts":40.7,"aqi":116,"pm10":25.3,"pm2_5":13.8,"no2":1.7,"co":170.0,"o3":187.0,"so2":1.9,"mosquito_risk":4,"arthritis_risk":5,"migraine_risk":7,"frizz_risk":0,"updated_at":"2026-05-27T15:27:49.073010+05:30"},{"city":"Patiala","state":"Punjab","latitude":30.3398,"longitude":76.3869,"temp":42.5,"humidity":12,"rain":0.0,"pressure":972.7,"uv_index":7.7,"wind_gusts":44.3,"aqi":523,"pm10":976.0,"pm2_5":104.1,"no2":1.3,"co":209.0,"o3":167.0,"so2":4.4,"mosquito_risk":0,"arthritis_risk":5,"migraine_risk":10,"frizz_risk":0,"updated_at":"2026-05-27T15:27:49.073018+05:30"},{"city":"Bhatinda","state":"Punjab","latitude":30.211,"longitude":74.9455,"temp":43.8,"humidity":11,"rain":0.0,"pressure":978.1,"uv_index":8.35,"wind_gusts":32.8,"aqi":105,"pm10":49.0,"pm2_5":16.5,"no2":1.8,"co":213.0,"o3":164.0,"so2":6.5,"mosquito_risk":0,"arthritis_risk":5,"migraine_risk":10,"frizz_risk":0,"updated_at":"2026-05-27T15:27:49.073025+05:30"},{"city":"Rohtak","state":"Haryana","latitude":28.8955,"longitude":76.6066,"temp":41.5,"humidity":15,"rain":0.0,"pressure":976.7,"uv_index":7.8,"wind_gusts":35.6,"aqi":853,"pm10":804.7,"pm2_5":98.3,"no2":1.9,"co":220.0,"o3":172.0,"so2":5.2,"mosquito_risk":0,"arthritis_risk":5,"migraine_risk":10,"frizz_risk":0,"updated_at":"2026-05-27T15:27:49.073032+05:30"},{"city":"Panipat","state":"Haryana","latitude":29.3909,"longitude":76.9635,"temp":42.2,"humidity":14,"rain":0.0,"pressure":974.9,"uv_index":7.6,"wind_gusts":38.2,"aqi":1576,"pm10":1885.0,"pm2_5":197.4,"no2":2.5,"co":192.0,"o3":173.0,"so2":9.3,"mosquito_risk":0,"arthritis_risk":5,"migraine_risk":10,"frizz_risk":0,"updated_at":"2026-05-27T15:27:49.073039+05:30"},{"city":"Mathura","state":"Uttar Pradesh","latitude":27.4924,"longitude":77.6737,"temp":42.8,"humidity":12,"rain":0.0,"pressure":981.5,"uv_index":8.0,"wind_gusts":37.8,"aqi":519,"pm10":786.0,"pm2_5":93.1,"no2":1.6,"co":193.0,"o3":170.0,"so2":4.9,"mosquito_risk":0,"arthritis_risk":5,"migraine_risk":10,"frizz_risk":0,"updated_at":"2026-05-27T15:27:49.073046+05:30"},{"city":"Vrindavan","state":"Uttar Pradesh","latitude":27.5823,"longitude":77.7027,"temp":42.3,"humidity":13,"rain":0.0,"pressure":981.9,"uv_index":8.0,"wind_gusts":36.4,"aqi":519,"pm10":786.0,"pm2_5":93.1,"no2":1.6,"co":201.0,"o3":170.0,"so2":4.9,"mosquito_risk":0,"arthritis_risk":5,"migraine_risk":10,"frizz_risk":0,"updated_at":"2026-05-27T15:27:49.073052+05:30"},{"city":"Ayodhya","state":"Uttar Pradesh","latitude":26.7922,"longitude":82.1998,"temp":36.7,"humidity":40,"rain":0.0,"pressure":989.8,"uv_index":8.3,"wind_gusts":36.4,"aqi":144,"pm10":86.4,"pm2_5":36.4,"no2":1.7,"co":360.0,"o3":200.0,"so2":11.3,"mosquito_risk":0,"arthritis_risk":5,"migraine_risk":10,"frizz_risk":1,"updated_at":"2026-05-27T15:27:49.073058+05:30"},{"city":"Ratlam","state":"Madhya Pradesh","latitude":23.3315,"longitude":75.0367,"temp":39.0,"humidity":28,"rain":0.0,"pressure":953.7,"uv_index":8.5,"wind_gusts":48.2,"aqi":67,"pm10":46.4,"pm2_5":21.7,"no2":0.6,"co":133.0,"o3":118.0,"so2":4.7,"mosquito_risk":0,"arthritis_risk":5,"migraine_risk":10,"frizz_risk":1,"updated_at":"2026-05-27T15:27:49.073064+05:30"},{"city":"Sagar","state":"Madhya Pradesh","latitude":23.8388,"longitude":78.7378,"temp":42.0,"humidity":13,"rain":0.0,"pressure":947.3,"uv_index":8.7,"wind_gusts":45.0,"aqi":74,"pm10":41.4,"pm2_5":16.4,"no2":0.6,"co":136.0,"o3":126.0,"so2":2.9,"mosquito_risk":0,"arthritis_risk":5,"migraine_risk":10,"frizz_risk":0,"updated_at":"2026-05-27T15:27:49.073070+05:30"},{"city":"Satna","state":"Madhya Pradesh","latitude":24.6005,"longitude":80.8322,"temp":42.0,"humidity":16,"rain":0.0,"pressure":966.3,"uv_index":8.75,"wind_gusts":51.1,"aqi":62,"pm10":87.3,"pm2_5":25.1,"no2":0.7,"co":140.0,"o3":124.0,"so2":3.3,"mosquito_risk":0,"arthritis_risk":5,"migraine_risk":10,"frizz_risk":0,"updated_at":"2026-05-27T15:27:49.073076+05:30"},{"city":"Akola","state":"Maharashtra","latitude":20.7002,"longitude":77.0082,"temp":41.5,"humidity":19,"rain":0.0,"pressure":972.6,"uv_index":8.85,"wind_gusts":45.4,"aqi":57,"pm10":38.2,"pm2_5":17.1,"no2":1.3,"co":142.0,"o3":118.0,"so2":5.8,"mosquito_risk":0,"arthritis_risk":5,"migraine_risk":10,"frizz_risk":0,"updated_at":"2026-05-27T15:27:49.073084+05:30"},{"city":"Amravati","state":"Maharashtra","latitude":20.9374,"longitude":77.7796,"temp":41.7,"humidity":18,"rain":0.0,"pressure":964.8,"uv_index":8.85,"wind_gusts":43.6,"aqi":60,"pm10":40.3,"pm2_5":17.7,"no2":1.5,"co":150.0,"o3":121.0,"so2":6.2,"mosquito_risk":0,"arthritis_risk":5,"migraine_risk":10,"frizz_risk":0,"updated_at":"2026-05-27T15:27:49.073092+05:30"},{"city":"Latur","state":"Maharashtra","latitude":18.4088,"longitude":76.5604,"temp":37.2,"humidity":33,"rain":0.0,"pressure":939.3,"uv_index":8.7,"wind_gusts":41.4,"aqi":59,"pm10":15.1,"pm2_5":10.9,"no2":1.0,"co":168.0,"o3":123.0,"so2":4.0,"mosquito_risk":0,"arthritis_risk":5,"migraine_risk":10,"frizz_risk":1,"updated_at":"2026-05-27T15:27:49.073099+05:30"},{"city":"Nanded","state":"Maharashtra","latitude":19.1383,"longitude":77.3091,"temp":39.4,"humidity":31,"rain":0.0,"pressure":966.7,"uv_index":8.9,"wind_gusts":39.6,"aqi":68,"pm10":14.3,"pm2_5":9.4,"no2":1.0,"co":165.0,"o3":117.0,"so2":3.0,"mosquito_risk":0,"arthritis_risk":5,"migraine_risk":10,"frizz_risk":1,"updated_at":"2026-05-27T15:27:49.073107+05:30"},{"city":"Gulbarga","state":"Karnataka","latitude":17.3297,"longitude":76.8343,"temp":37.3,"humidity":30,"rain":0.0,"pressure":957.3,"uv_index":5.0,"wind_gusts":41.4,"aqi":48,"pm10":19.8,"pm2_5":13.6,"no2":1.6,"co":167.0,"o3":136.0,"so2":3.9,"mosquito_risk":0,"arthritis_risk":5,"migraine_risk":6,"frizz_risk":1,"updated_at":"2026-05-27T15:27:49.073114+05:30"},{"city":"Bidar","state":"Karnataka","latitude":17.9104,"longitude":77.5199,"temp":36.2,"humidity":35,"rain":0.0,"pressure":934.9,"uv_index":7.4,"wind_gusts":41.8,"aqi":67,"pm10":21.7,"pm2_5":15.7,"no2":1.5,"co":176.0,"o3":143.0,"so2":5.6,"mosquito_risk":0,"arthritis_risk":5,"migraine_risk":10,"frizz_risk":1,"updated_at":"2026-05-27T15:27:49.073120+05:30"},{"city":"Hospet","state":"Karnataka","latitude":15.2689,"longitude":76.3909,"temp":31.8,"humidity":54,"rain":0.0,"pressure":955.2,"uv_index":6.7,"wind_gusts":38.5,"aqi":41,"pm10":10.5,"pm2_5":7.8,"no2":1.6,"co":164.0,"o3":114.0,"so2":2.6,"mosquito_risk":0,"arthritis_risk":5,"migraine_risk":7,"frizz_risk":1,"updated_at":"2026-05-27T15:27:49.073127+05:30"},{"city":"Tirupur","state":"Tamil Nadu","latitude":11.1085,"longitude":77.3411,"temp":33.8,"humidity":47,"rain":0.1,"pressure":974.0,"uv_index":7.1,"wind_gusts":52.9,"aqi":53,"pm10":17.9,"pm2_5":13.2,"no2":2.1,"co":162.0,"o3":130.0,"so2":2.7,"mosquito_risk":3,"arthritis_risk":5,"migraine_risk":7,"frizz_risk":1,"updated_at":"2026-05-27T15:27:49.073133+05:30"},{"city":"Alappuzha","state":"Kerala","latitude":9.4981,"longitude":76.3388,"temp":30.0,"humidity":72,"rain":0.0,"pressure":1009.3,"uv_index":7.65,"wind_gusts":29.2,"aqi":38,"pm10":8.1,"pm2_5":5.5,"no2":1.7,"co":102.0,"o3":71.0,"so2":1.2,"mosquito_risk":7,"arthritis_risk":0,"migraine_risk":4,"frizz_risk":1,"updated_at":"2026-05-27T15:27:49.073140+05:30"},{"city":"Munnar","state":"Kerala","latitude":10.0889,"longitude":77.0595,"temp":19.5,"humidity":99,"rain":0.1,"pressure":858.1,"uv_index":8.5,"wind_gusts":27.0,"aqi":47,"pm10":20.6,"pm2_5":13.1,"no2":1.2,"co":138.0,"o3":101.0,"so2":1.7,"mosquito_risk":6,"arthritis_risk":10,"migraine_risk":7,"frizz_risk":1,"updated_at":"2026-05-27T15:27:49.073147+05:30"},{"city":"Silchar","state":"Assam","latitude":24.8333,"longitude":92.7789,"temp":26.8,"humidity":82,"rain":0.0,"pressure":1002.5,"uv_index":8.9,"wind_gusts":43.6,"aqi":99,"pm10":43.1,"pm2_5":25.0,"no2":1.2,"co":206.0,"o3":114.0,"so2":3.8,"mosquito_risk":7,"arthritis_risk":5,"migraine_risk":4,"frizz_risk":1,"updated_at":"2026-05-27T15:27:49.073154+05:30"},{"city":"Dibrugarh","state":"Assam","latitude":27.4728,"longitude":94.912,"temp":31.1,"humidity":60,"rain":0.0,"pressure":992.8,"uv_index":8.65,"wind_gusts":23.8,"aqi":93,"pm10":58.3,"pm2_5":22.0,"no2":1.3,"co":213.0,"o3":132.0,"so2":3.0,"mosquito_risk":0,"arthritis_risk":5,"migraine_risk":7,"frizz_risk":1,"updated_at":"2026-05-27T15:27:49.073160+05:30"}]