[{"city":"Delhi","state":"Delhi","latitude":28.6139,"longitude":77.209,"temp":23.4,"humidity":60,"rain":0.0,"pressure":981.0,"uv_index":5.95,"wind_gusts":19.1,"aqi":132,"pm10":155.1,"pm2_5":63.1,"mosquito_risk":0,"arthritis_risk":5,"migraine_risk":3,"frizz_risk":0,"updated_at":"2026-03-28T03:08:37.995036+05:30"},{"city":"Mumbai","state":"Maharashtra","latitude":19.076,"longitude":72.8777,"temp":28.1,"humidity":80,"rain":0.0,"pressure":1007.1,"uv_index":8.0,"wind_gusts":23.4,"aqi":100,"pm10":30.0,"pm2_5":19.8,"mosquito_risk":7,"arthritis_risk":5,"migraine_risk":4,"frizz_risk":1,"updated_at":"2026-03-28T03:08:37.995082+05:30"},{"city":"Bangalore","state":"Karnataka","latitude":12.9716,"longitude":77.5946,"temp":22.8,"humidity":60,"rain":0.0,"pressure":910.9,"uv_index":9.55,"wind_gusts":39.2,"aqi":75,"pm10":40.5,"pm2_5":33.6,"mosquito_risk":0,"arthritis_risk":5,"migraine_risk":7,"frizz_risk":0,"updated_at":"2026-03-28T03:08:37.995097+05:30"},{"city":"Hyderabad","state":"Telangana","latitude":17.385,"longitude":78.4867,"temp":24.7,"humidity":65,"rain":0.0,"pressure":951.9,"uv_index":9.0,"wind_gusts":24.1,"aqi":93,"pm10":36.0,"pm2_5":31.2,"mosquito_risk":3,"arthritis_risk":5,"migraine_risk":7,"frizz_risk":1,"updated_at":"2026-03-28T03:08:37.995106+05:30"},{"city":"Chennai","state":"Tamil Nadu","latitude":13.0827,"longitude":80.2707,"temp":24.6,"humidity":93,"rain":0.0,"pressure":1006.3,"uv_index":9.3,"wind_gusts":34.9,"aqi":67,"pm10":26.4,"pm2_5":17.1,"mosquito_risk":3,"arthritis_risk":5,"migraine_risk":4,"frizz_risk":1,"updated_at":"2026-03-28T03:08:37.995113+05:30"},{"city":"Kolkata","state":"West Bengal","latitude":22.5726,"longitude":88.3639,"temp":25.4,"humidity":87,"rain":0.0,"pressure":1004.0,"uv_index":8.4,"wind_gusts":39.2,"aqi":99,"pm10":37.1,"pm2_5":33.3,"mosquito_risk":7,"arthritis_risk":5,"migraine_risk":4,"frizz_risk":1,"updated_at":"2026-03-28T03:08:37.995121+05:30"},{"city":"Pune","state":"Maharashtra","latitude":18.5204,"longitude":73.8567,"temp":23.7,"humidity":58,"rain":0.0,"pressure":947.0,"uv_index":8.55,"wind_gusts":42.1,"aqi":103,"pm10":43.2,"pm2_5":36.4,"mosquito_risk":0,"arthritis_risk":5,"migraine_risk":7,"frizz_risk":0,"updated_at":"2026-03-28T03:08:37.995134+05:30"},{"city":"Ahmedabad","state":"Gujarat","latitude":23.0225,"longitude":72.5714,"temp":24.7,"humidity":68,"rain":0.0,"pressure":1001.0,"uv_index":7.95,"wind_gusts":29.9,"aqi":61,"pm10":16.1,"pm2_5":12.6,"mosquito_risk":3,"arthritis_risk":5,"migraine_risk":4,"frizz_risk":1,"updated_at":"2026-03-28T03:08:37.995141+05:30"},{"city":"Jaipur","state":"Rajasthan","latitude":26.9124,"longitude":75.7873,"temp":24.5,"humidity":46,"rain":0.0,"pressure":957.9,"uv_index":7.2,"wind_gusts":33.8,"aqi":112,"pm10":70.1,"pm2_5":31.3,"mosquito_risk":0,"arthritis_risk":5,"migraine_risk":7,"frizz_risk":0,"updated_at":"2026-03-28T03:08:37.995147+05:30"},{"city":"Lucknow","state":"Uttar Pradesh","latitude":26.8467,"longitude":80.9462,"temp":22.1,"humidity":70,"rain":0.0,"pressure":992.1,"uv_index":6.85,"wind_gusts":31.3,"aqi":99,"pm10":160.7,"pm2_5":47.3,"mosquito_risk":3,"arthritis_risk":5,"migraine_risk":7,"frizz_risk":1,"updated_at":"2026-03-28T03:08:37.995152+05:30"},{"city":"Kanpur","state":"Uttar Pradesh","latitude":26.4499,"longitude":80.3319,"temp":21.5,"humidity":79,"rain":0.0,"pressure":990.4,"uv_index":6.85,"wind_gusts":29.2,"aqi":138,"pm10":233.8,"pm2_5":60.8,"mosquito_risk":3,"arthritis_risk":5,"migraine_risk":7,"frizz_risk":1,"updated_at":"2026-03-28T03:08:37.995158+05:30"},{"city":"Chandigarh","state":"Chandigarh","latitude":30.7333,"longitude":76.7794,"temp":19.9,"humidity":73,"rain":0.0,"pressure":966.2,"uv_index":5.45,"wind_gusts":19.8,"aqi":81,"pm10":45.8,"pm2_5":39.0,"mosquito_risk":3,"arthritis_risk":5,"migraine_risk":3,"frizz_risk":0,"updated_at":"2026-03-28T03:08:37.995164+05:30"},{"city":"Srinagar","state":"Jammu and Kashmir","latitude":34.0837,"longitude":74.7973,"temp":7.0,"humidity":83,"rain":0.0,"pressure":834.3,"uv_index":6.15,"wind_gusts":17.3,"aqi":98,"pm10":48.7,"pm2_5":40.4,"mosquito_risk":3,"arthritis_risk":10,"migraine_risk":7,"frizz_risk":0,"updated_at":"2026-03-28T03:08:37.995170+05:30"},{"city":"Jammu","state":"Jammu and Kashmir","latitude":32.7266,"longitude":74.857,"temp":19.3,"humidity":89,"rain":0.0,"pressure":969.8,"uv_index":6.0,"wind_gusts":14.8,"aqi":83,"pm10":35.6,"pm2_5":31.3,"mosquito_risk":3,"arthritis_risk":10,"migraine_risk":3,"frizz_risk":1,"updated_at":"2026-03-28T03:08:37.995176+05:30"},{"city":"Amritsar","state":"Punjab","latitude":31.634,"longitude":74.8723,"temp":19.4,"humidity":72,"rain":0.0,"pressure":978.2,"uv_index":5.55,"wind_gusts":13.7,"aqi":94,"pm10":71.5,"pm2_5":63.8,"mosquito_risk":3,"arthritis_risk":5,"migraine_risk":3,"frizz_risk":0,"updated_at":"2026-03-28T03:08:37.995182+05:30"},{"city":"Ludhiana","state":"Punjab","latitude":30.901,"longitude":75.8573,"temp":20.0,"humidity":71,"rain":0.0,"pressure":976.4,"uv_index":6.25,"wind_gusts":17.3,"aqi":94,"pm10":95.9,"pm2_5":60.3,"mosquito_risk":3,"arthritis_risk":5,"migraine_risk":7,"frizz_risk":0,"updated_at":"2026-03-28T03:08:37.995188+05:30"},{"city":"Jalandhar","state":"Punjab","latitude":31.326,"longitude":75.5762,"temp":20.0,"humidity":71,"rain":0.0,"pressure":977.5,"uv_index":5.4,"wind_gusts":10.4,"aqi":95,"pm10":89.2,"pm2_5":63.8,"mosquito_risk":3,"arthritis_risk":5,"migraine_risk":3,"frizz_risk":0,"updated_at":"2026-03-28T03:08:37.995195+05:30"},{"city":"Dehradun","state":"Uttarakhand","latitude":30.6284,"longitude":78.0322,"temp":11.4,"humidity":86,"rain":0.0,"pressure":825.3,"uv_index":5.8,"wind_gusts":23.4,"aqi":55,"pm10":25.7,"pm2_5":16.4,"mosquito_risk":3,"arthritis_risk":10,"migraine_risk":3,"frizz_risk":0,"updated_at":"2026-03-28T03:08:37.995201+05:30"},{"city":"Shimla","state":"Himachal Pradesh","latitude":31.1048,"longitude":77.1734,"temp":9.4,"humidity":84,"rain":0.0,"pressure":778.9,"uv_index":5.65,"wind_gusts":30.6,"aqi":64,"pm10":46.2,"pm2_5":38.1,"mosquito_risk":3,"arthritis_risk":10,"migraine_risk":3,"frizz_risk":0,"updated_at":"2026-03-28T03:08:37.995207+05:30"},{"city":"Manali","state":"Himachal Pradesh","latitude":32.2396,"longitude":77.1887,"temp":14.2,"humidity":56,"rain":0.0,"pressure":813.9,"uv_index":8.45,"wind_gusts":26.6,"aqi":63,"pm10":31.5,"pm2_5":16.8,"mosquito_risk":0,"arthritis_risk":5,"migraine_risk":7,"frizz_risk":0,"updated_at":"2026-03-28T03:08:37.995212+05:30"},{"city":"Gurgaon","state":"Haryana","latitude":28.4595,"longitude":77.0266,"temp":21.6,"humidity":68,"rain":0.0,"pressure":979.3,"uv_index":6.7,"wind_gusts":16.9,"aqi":596,"pm10":267.3,"pm2_5":78.0,"mosquito_risk":3,"arthritis_risk":5,"migraine_risk":7,"frizz_risk":0,"updated_at":"2026-03-28T03:08:37.995218+05:30"},{"city":"Noida","state":"Uttar Pradesh","latitude":28.5355,"longitude":77.391,"temp":21.9,"humidity":75,"rain":0.0,"pressure":982.5,"uv_index":6.1,"wind_gusts":18.7,"aqi":596,"pm10":267.3,"pm2_5":78.0,"mosquito_risk":3,"arthritis_risk":5,"migraine_risk":7,"frizz_risk":1,"updated_at":"2026-03-28T03:08:37.995224+05:30"},{"city":"Ghaziabad","state":"Uttar Pradesh","latitude":28.6692,"longitude":77.4538,"temp":21.7,"humidity":69,"rain":0.0,"pressure":980.6,"uv_index":5.8,"wind_gusts":17.6,"aqi":124,"pm10":143.9,"pm2_5":55.8,"mosquito_risk":3,"arthritis_risk":5,"migraine_risk":3,"frizz_risk":0,"updated_at":"2026-03-28T03:08:37.995229+05:30"},{"city":"Faridabad","state":"Haryana","latitude":28.4089,"longitude":77.3178,"temp":21.4,"humidity":75,"rain":0.0,"pressure":981.8,"uv_index":6.05,"wind_gusts":18.4,"aqi":596,"pm10":267.3,"pm2_5":78.0,"mosquito_risk":3,"arthritis_risk":5,"migraine_risk":7,"frizz_risk":1,"updated_at":"2026-03-28T03:08:37.995235+05:30"},{"city":"Meerut","state":"Uttar Pradesh","latitude":28.9845,"longitude":77.7064,"temp":20.3,"humidity":73,"rain":0.0,"pressure":979.3,"uv_index":5.4,"wind_gusts":20.2,"aqi":124,"pm10":143.9,"pm2_5":55.8,"mosquito_risk":3,"arthritis_risk":5,"migraine_risk":3,"frizz_risk":0,"updated_at":"2026-03-28T03:08:37.995240+05:30"},{"city":"Agra","state":"Uttar Pradesh","latitude":27.1767,"longitude":78.0081,"temp":20.4,"humidity":83,"rain":0.0,"pressure":986.0,"uv_index":7.05,"wind_gusts":24.1,"aqi":659,"pm10":429.3,"pm2_5":86.8,"mosquito_risk":3,"arthritis_risk":5,"migraine_risk":7,"frizz_risk":1,"updated_at":"2026-03-28T03:08:37.995245+05:30"},{"city":"Varanasi","state":"Uttar Pradesh","latitude":25.3176,"longitude":82.9739,"temp":20.3,"humidity":81,"rain":0.0,"pressure":996.3,"uv_index":7.8,"wind_gusts":31.7,"aqi":89,"pm10":45.9,"pm2_5":35.9,"mosquito_risk":3,"arthritis_risk":5,"migraine_risk":7,"frizz_risk":1,"updated_at":"2026-03-28T03:08:37.995253+05:30"},{"city":"Prayagraj","state":"Uttar Pradesh","latitude":25.4358,"longitude":81.8463,"temp":19.9,"humidity":85,"rain":0.0,"pressure":994.9,"uv_index":7.7,"wind_gusts":33.1,"aqi":86,"pm10":43.3,"pm2_5":28.3,"mosquito_risk":3,"arthritis_risk":10,"migraine_risk":7,"frizz_risk":1,"updated_at":"2026-03-28T03:08:37.995260+05:30"},{"city":"Gorakhpur","state":"Uttar Pradesh","latitude":26.7606,"longitude":83.3732,"temp":19.0,"humidity":84,"rain":0.0,"pressure":995.8,"uv_index":7.5,"wind_gusts":29.2,"aqi":96,"pm10":51.0,"pm2_5":38.2,"mosquito_risk":3,"arthritis_risk":10,"migraine_risk":7,"frizz_risk":1,"updated_at":"2026-03-28T03:08:37.995265+05:30"},{"city":"Bareilly","state":"Uttar Pradesh","latitude":28.367,"longitude":79.4304,"temp":19.6,"humidity":85,"rain":0.0,"pressure":985.0,"uv_index":6.85,"wind_gusts":27.4,"aqi":76,"pm10":36.1,"pm2_5":30.2,"mosquito_risk":3,"arthritis_risk":10,"migraine_risk":7,"frizz_risk":1,"updated_at":"2026-03-28T03:08:37.995270+05:30"},{"city":"Aligarh","state":"Uttar Pradesh","latitude":27.8974,"longitude":78.088,"temp":20.8,"humidity":80,"rain":0.0,"pressure":983.5,"uv_index":6.65,"wind_gusts":20.9,"aqi":224,"pm10":301.7,"pm2_5":84.5,"mosquito_risk":3,"arthritis_risk":5,"migraine_risk":7,"frizz_risk":1,"updated_at":"2026-03-28T03:08:37.995277+05:30"},{"city":"Moradabad","state":"Uttar Pradesh","latitude":28.8386,"longitude":78.7733,"temp":19.7,"humidity":82,"rain":0.0,"pressure":981.6,"uv_index":6.15,"wind_gusts":24.8,"aqi":82,"pm10":57.7,"pm2_5":42.5,"mosquito_risk":3,"arthritis_risk":10,"migraine_risk":7,"frizz_risk":1,"updated_at":"2026-03-28T03:08:37.995282+05:30"},{"city":"Saharanpur","state":"Uttar Pradesh","latitude":29.9637,"longitude":77.546,"temp":19.1,"humidity":78,"rain":0.0,"pressure":973.3,"uv_index":5.4,"wind_gusts":22.0,"aqi":96,"pm10":70.3,"pm2_5":62.4,"mosquito_risk":3,"arthritis_risk":5,"migraine_risk":3,"frizz_risk":0,"updated_at":"2026-03-28T03:08:37.995287+05:30"},{"city":"Jhansi","state":"Uttar Pradesh","latitude":25.4484,"longitude":78.5685,"temp":19.8,"humidity":75,"rain":0.0,"pressure":976.4,"uv_index":7.7,"wind_gusts":26.6,"aqi":85,"pm10":127.1,"pm2_5":37.5,"mosquito_risk":3,"arthritis_risk":5,"migraine_risk":7,"frizz_risk":0,"updated_at":"2026-03-28T03:08:41.317939+05:30"},{"city":"Surat","state":"Gujarat","latitude":21.1702,"longitude":72.8311,"temp":26.5,"humidity":87,"rain":0.0,"pressure":1005.3,"uv_index":7.75,"wind_gusts":26.6,"aqi":103,"pm10":34.2,"pm2_5":30.4,"mosquito_risk":7,"arthritis_risk":5,"migraine_risk":4,"frizz_risk":1,"updated_at":"2026-03-28T03:08:41.317971+05:30"},{"city":"Vadodara","state":"Gujarat","latitude":22.3072,"longitude":73.1812,"temp":26.1,"humidity":63,"rain":0.0,"pressure":1003.1,"uv_index":7.95,"wind_gusts":31.0,"aqi":73,"pm10":50.1,"pm2_5":36.9,"mosquito_risk":7,"arthritis_risk":5,"migraine_risk":4,"frizz_risk":1,"updated_at":"2026-03-28T03:08:41.317981+05:30"},{"city":"Rajkot","state":"Gujarat","latitude":22.3039,"longitude":70.8022,"temp":23.5,"humidity":92,"rain":0.0,"pressure":994.1,"uv_index":7.8,"wind_gusts":40.3,"aqi":52,"pm10":14.4,"pm2_5":9.2,"mosquito_risk":3,"arthritis_risk":5,"migraine_risk":7,"frizz_risk":1,"updated_at":"2026-03-28T03:08:41.317989+05:30"},{"city":"Thane","state":"Maharashtra","latitude":19.2183,"longitude":72.9781,"temp":26.3,"humidity":87,"rain":0.0,"pressure":1006.5,"uv_index":8.0,"wind_gusts":36.7,"aqi":100,"pm10":30.0,"pm2_5":19.8,"mosquito_risk":7,"arthritis_risk":5,"migraine_risk":4,"frizz_risk":1,"updated_at":"2026-03-28T03:08:41.317996+05:30"},{"city":"Nagpur","state":"Maharashtra","latitude":21.1458,"longitude":79.0882,"temp":24.2,"humidity":36,"rain":0.0,"pressure":970.4,"uv_index":8.5,"wind_gusts":27.4,"aqi":84,"pm10":25.2,"pm2_5":22.0,"mosquito_risk":0,"arthritis_risk":5,"migraine_risk":7,"frizz_risk":0,"updated_at":"2026-03-28T03:08:41.318003+05:30"},{"city":"Nashik","state":"Maharashtra","latitude":19.9975,"longitude":73.7898,"temp":23.8,"humidity":47,"rain":0.0,"pressure":944.1,"uv_index":8.25,"wind_gusts":40.0,"aqi":66,"pm10":38.5,"pm2_5":29.9,"mosquito_risk":0,"arthritis_risk":5,"migraine_risk":7,"frizz_risk":0,"updated_at":"2026-03-28T03:08:41.318010+05:30"},{"city":"Aurangabad","state":"Maharashtra","latitude":19.8762,"longitude":75.3433,"temp":25.4,"humidity":35,"rain":0.0,"pressure":942.6,"uv_index":8.75,"wind_gusts":33.8,"aqi":62,"pm10":21.6,"pm2_5":17.0,"mosquito_risk":4,"arthritis_risk":5,"migraine_risk":7,"frizz_risk":0,"updated_at":"2026-03-28T03:08:41.318017+05:30"},{"city":"Solapur","state":"Maharashtra","latitude":17.6599,"longitude":75.9064,"temp":27.1,"humidity":57,"rain":0.0,"pressure":955.8,"uv_index":8.85,"wind_gusts":27.4,"aqi":104,"pm10":47.6,"pm2_5":41.6,"mosquito_risk":4,"arthritis_risk":5,"migraine_risk":7,"frizz_risk":1,"updated_at":"2026-03-28T03:08:41.318024+05:30"},{"city":"Kolhapur","state":"Maharashtra","latitude":16.705,"longitude":74.2433,"temp":23.0,"humidity":96,"rain":0.0,"pressure":946.6,"uv_index":8.95,"wind_gusts":46.4,"aqi":151,"pm10":56.7,"pm2_5":53.4,"mosquito_risk":3,"arthritis_risk":5,"migraine_risk":7,"frizz_risk":1,"updated_at":"2026-03-28T03:08:41.318031+05:30"},{"city":"Goa","state":"Goa","latitude":15.2993,"longitude":74.124,"temp":28.5,"humidity":88,"rain":0.0,"pressure":996.4,"uv_index":8.95,"wind_gusts":33.1,"aqi":92,"pm10":44.0,"pm2_5":37.0,"mosquito_risk":7,"arthritis_risk":5,"migraine_risk":7,"frizz_risk":1,"updated_at":"2026-03-28T03:08:41.318038+05:30"},{"city":"Jodhpur","state":"Rajasthan","latitude":26.2389,"longitude":73.0243,"temp":25.2,"humidity":46,"rain":0.0,"pressure":981.1,"uv_index":7.65,"wind_gusts":31.0,"aqi":70,"pm10":66.8,"pm2_5":22.1,"mosquito_risk":4,"arthritis_risk":5,"migraine_risk":7,"frizz_risk":0,"updated_at":"2026-03-28T03:08:41.318045+05:30"},{"city":"Udaipur","state":"Rajasthan","latitude":24.5854,"longitude":73.7125,"temp":22.6,"humidity":58,"rain":0.0,"pressure":945.1,"uv_index":8.4,"wind_gusts":32.0,"aqi":54,"pm10":64.5,"pm2_5":20.8,"mosquito_risk":0,"arthritis_risk":5,"migraine_risk":7,"frizz_risk":0,"updated_at":"2026-03-28T03:08:41.318052+05:30"},{"city":"Kota","state":"Rajasthan","latitude":25.2138,"longitude":75.8648,"temp":24.9,"humidity":47,"rain":0.0,"pressure":976.8,"uv_index":7.75,"wind_gusts":21.6,"aqi":64,"pm10":28.5,"pm2_5":17.7,"mosquito_risk":0,"arthritis_risk":5,"migraine_risk":7,"frizz_risk":0,"updated_at":"2026-03-28T03:08:41.318058+05:30"},{"city":"Bikaner","state":"Rajasthan","latitude":28.0229,"longitude":73.3119,"temp":23.1,"humidity":52,"rain":0.0,"pressure":979.6,"uv_index":6.8,"wind_gusts":25.6,"aqi":60,"pm10":31.9,"pm2_5":13.0,"mosquito_risk":0,"arthritis_risk":5,"migraine_risk":7,"frizz_risk":0,"updated_at":"2026-03-28T03:08:41.318064+05:30"},{"city":"Ajmer","state":"Rajasthan","latitude":26.4499,"longitude":74.6399,"temp":24.0,"humidity":49,"rain":0.0,"pressure":952.6,"uv_index":7.65,"wind_gusts":31.0,"aqi":58,"pm10":24.6,"pm2_5":15.5,"mosquito_risk":0,"arthritis_risk":5,"migraine_risk":7,"frizz_risk":0,"updated_at":"2026-03-28T03:08:41.318071+05:30"},{"city":"Gwalior","state":"Madhya Pradesh","latitude":26.2183,"longitude":78.1828,"temp":22.9,"humidity":65,"rain":0.0,"pressure":981.6,"uv_index":7.4,"wind_gusts":34.2,"aqi":133,"pm10":413.5,"pm2_5":82.4,"mosquito_risk":3,"arthritis_risk":5,"migraine_risk":7,"frizz_risk":0,"updated_at":"2026-03-28T03:08:41.318078+05:30"},{"city":"Indore","state":"Madhya Pradesh","latitude":22.7196,"longitude":75.8577,"temp":22.5,"humidity":64,"rain":0.0,"pressure":946.2,"uv_index":8.25,"wind_gusts":33.5,"aqi":42,"pm10":23.9,"pm2_5":14.4,"mosquito_risk":3,"arthritis_risk":5,"migraine_risk":7,"frizz_risk":0,"updated_at":"2026-03-28T03:08:41.318084+05:30"},{"city":"Bhopal","state":"Madhya Pradesh","latitude":23.2599,"longitude":77.4126,"temp":23.2,"humidity":55,"rain":0.0,"pressure":951.5,"uv_index":8.15,"wind_gusts":29.2,"aqi":48,"pm10":36.2,"pm2_5":18.0,"mosquito_risk":0,"arthritis_risk":5,"migraine_risk":7,"frizz_risk":0,"updated_at":"2026-03-28T03:08:41.318090+05:30"},{"city":"Jabalpur","state":"Madhya Pradesh","latitude":23.1815,"longitude":79.9864,"temp":22.8,"humidity":67,"rain":0.0,"pressure":958.4,"uv_index":8.25,"wind_gusts":27.0,"aqi":54,"pm10":40.5,"pm2_5":19.8,"mosquito_risk":3,"arthritis_risk":5,"migraine_risk":7,"frizz_risk":1,"updated_at":"2026-03-28T03:08:41.318097+05:30"},{"city":"Ujjain","state":"Madhya Pradesh","latitude":23.1765,"longitude":75.7885,"temp":23.3,"humidity":61,"rain":0.0,"pressure":952.0,"uv_index":8.15,"wind_gusts":30.6,"aqi":46,"pm10":24.3,"pm2_5":15.3,"mosquito_risk":3,"arthritis_risk":5,"migraine_risk":7,"frizz_risk":0,"updated_at":"2026-03-28T03:08:41.318104+05:30"},{"city":"Visakhapatnam","state":"Andhra Pradesh","latitude":17.6868,"longitude":83.2185,"temp":25.9,"humidity":92,"rain":0.0,"pressure":1002.3,"uv_index":9.0,"wind_gusts":49.3,"aqi":78,"pm10":31.1,"pm2_5":24.0,"mosquito_risk":7,"arthritis_risk":5,"migraine_risk":4,"frizz_risk":1,"updated_at":"2026-03-28T03:08:41.318109+05:30"},{"city":"Vijayawada","state":"Andhra Pradesh","latitude":16.5062,"longitude":80.648,"temp":25.2,"humidity":92,"rain":0.0,"pressure":1001.9,"uv_index":9.05,"wind_gusts":29.2,"aqi":74,"pm10":22.8,"pm2_5":16.9,"mosquito_risk":7,"arthritis_risk":5,"migraine_risk":4,"frizz_risk":1,"updated_at":"2026-03-28T03:08:41.318114+05:30"},{"city":"Guntur","state":"Andhra Pradesh","latitude":16.3067,"longitude":80.4365,"temp":25.2,"humidity":94,"rain":0.0,"pressure":1003.2,"uv_index":9.05,"wind_gusts":32.4,"aqi":69,"pm10":21.5,"pm2_5":16.3,"mosquito_risk":7,"arthritis_risk":5,"migraine_risk":4,"frizz_risk":1,"updated_at":"2026-03-28T03:08:41.318119+05:30"},{"city":"Nellore","state":"Andhra Pradesh","latitude":14.4426,"longitude":79.9865,"temp":24.7,"humidity":91,"rain":0.0,"pressure":1004.5,"uv_index":9.2,"wind_gusts":27.4,"aqi":66,"pm10":20.7,"pm2_5":15.7,"mosquito_risk":3,"arthritis_risk":5,"migraine_risk":4,"frizz_risk":1,"updated_at":"2026-03-28T03:08:41.318125+05:30"},{"city":"Kurnool","state":"Andhra Pradesh","latitude":15.8281,"longitude":78.0373,"temp":28.0,"humidity":54,"rain":0.0,"pressure":976.3,"uv_index":9.05,"wind_gusts":19.8,"aqi":75,"pm10":35.2,"pm2_5":30.4,"mosquito_risk":4,"arthritis_risk":5,"migraine_risk":7,"frizz_risk":1,"updated_at":"2026-03-28T03:08:41.318131+05:30"},{"city":"Kakinada","state":"Andhra Pradesh","latitude":16.9891,"longitude":82.2475,"temp":24.2,"humidity":96,"rain":0.0,"pressure":1006.4,"uv_index":9.0,"wind_gusts":32.8,"aqi":66,"pm10":29.2,"pm2_5":18.1,"mosquito_risk":3,"arthritis_risk":5,"migraine_risk":4,"frizz_risk":1,"updated_at":"2026-03-28T03:08:41.318136+05:30"},{"city":"Tirupati","state":"Andhra Pradesh","latitude":13.6288,"longitude":79.4192,"temp":23.7,"humidity":90,"rain":0.0,"pressure":990.8,"uv_index":9.3,"wind_gusts":22.0,"aqi":94,"pm10":38.9,"pm2_5":34.0,"mosquito_risk":3,"arthritis_risk":5,"migraine_risk":7,"frizz_risk":1,"updated_at":"2026-03-28T03:08:41.318141+05:30"},{"city":"Warangal","state":"Telangana","latitude":17.9689,"longitude":79.5941,"temp":26.1,"humidity":70,"rain":0.0,"pressure":977.4,"uv_index":8.9,"wind_gusts":44.6,"aqi":83,"pm10":30.9,"pm2_5":26.9,"mosquito_risk":7,"arthritis_risk":5,"migraine_risk":7,"frizz_risk":1,"updated_at":"2026-03-28T03:08:41.318147+05:30"},{"city":"Nizamabad","state":"Telangana","latitude":18.6725,"longitude":78.0941,"temp":26.5,"humidity":59,"rain":0.0,"pressure":963.3,"uv_index":8.8,"wind_gusts":24.5,"aqi":95,"pm10":40.4,"pm2_5":34.3,"mosquito_risk":4,"arthritis_risk":5,"migraine_risk":7,"frizz_risk":1,"updated_at":"2026-03-28T03:08:41.318152+05:30"},{"city":"Mysore","state":"Karnataka","latitude":12.2958,"longitude":76.6396,"temp":23.4,"humidity":88,"rain":0.0,"pressure":928.1,"uv_index":9.45,"wind_gusts":37.4,"aqi":82,"pm10":37.1,"pm2_5":35.0,"mosquito_risk":3,"arthritis_risk":5,"migraine_risk":7,"frizz_risk":1,"updated_at":"2026-03-28T03:08:41.318157+05:30"},{"city":"Mangalore","state":"Karnataka","latitude":12.9141,"longitude":74.856,"temp":27.9,"humidity":86,"rain":0.0,"pressure":1006.2,"uv_index":9.1,"wind_gusts":23.8,"aqi":97,"pm10":44.8,"pm2_5":38.6,"mosquito_risk":7,"arthritis_risk":5,"migraine_risk":4,"frizz_risk":1,"updated_at":"2026-03-28T03:08:41.318162+05:30"},{"city":"Hubli-Dharwad","state":"Karnataka","latitude":15.3647,"longitude":75.124,"temp":23.5,"humidity":91,"rain":0.0,"pressure":939.6,"uv_index":6.5,"wind_gusts":33.5,"aqi":79,"pm10":31.0,"pm2_5":28.6,"mosquito_risk":3,"arthritis_risk":5,"migraine_risk":7,"frizz_risk":1,"updated_at":"2026-03-28T03:08:41.318168+05:30"},{"city":"Belgaum","state":"Karnataka","latitude":15.8497,"longitude":74.4977,"temp":22.0,"humidity":95,"rain":0.0,"pressure":924.2,"uv_index":9.1,"wind_gusts":38.5,"aqi":105,"pm10":48.9,"pm2_5":44.6,"mosquito_risk":3,"arthritis_risk":5,"migraine_risk":7,"frizz_risk":1,"updated_at":"2026-03-28T03:08:44.637975+05:30"},{"city":"Coimbatore","state":"Tamil Nadu","latitude":11.0168,"longitude":76.9558,"temp":24.2,"humidity":86,"rain":0.0,"pressure":961.1,"uv_index":9.45,"wind_gusts":49.3,"aqi":82,"pm10":32.4,"pm2_5":30.0,"mosquito_risk":3,"arthritis_risk":5,"migraine_risk":7,"frizz_risk":1,"updated_at":"2026-03-28T03:08:44.638004+05:30"},{"city":"Madurai","state":"Tamil Nadu","latitude":9.9252,"longitude":78.1198,"temp":25.2,"humidity":88,"rain":0.0,"pressure":992.4,"uv_index":9.4,"wind_gusts":33.8,"aqi":83,"pm10":35.0,"pm2_5":30.9,"mosquito_risk":7,"arthritis_risk":5,"migraine_risk":7,"frizz_risk":1,"updated_at":"2026-03-28T03:08:44.638014+05:30"},{"city":"Trichy","state":"Tamil Nadu","latitude":10.7905,"longitude":78.7047,"temp":24.0,"humidity":90,"rain":0.0,"pressure":999.3,"uv_index":9.35,"wind_gusts":23.4,"aqi":91,"pm10":33.4,"pm2_5":28.4,"mosquito_risk":3,"arthritis_risk":5,"migraine_risk":7,"frizz_risk":1,"updated_at":"2026-03-28T03:08:44.638021+05:30"},{"city":"Salem","state":"Tamil Nadu","latitude":11.6643,"longitude":78.146,"temp":24.5,"humidity":89,"rain":0.0,"pressure":976.8,"uv_index":9.4,"wind_gusts":28.8,"aqi":99,"pm10":55.4,"pm2_5":48.3,"mosquito_risk":3,"arthritis_risk":5,"migraine_risk":7,"frizz_risk":1,"updated_at":"2026-03-28T03:08:44.638028+05:30"},{"city":"Tirunelveli","state":"Tamil Nadu","latitude":8.7139,"longitude":77.7567,"temp":26.3,"humidity":80,"rain":0.0,"pressure":1002.4,"uv_index":9.35,"wind_gusts":45.4,"aqi":61,"pm10":26.7,"pm2_5":23.7,"mosquito_risk":7,"arthritis_risk":5,"migraine_risk":4,"frizz_risk":1,"updated_at":"2026-03-28T03:08:44.638036+05:30"},{"city":"Vellore","state":"Tamil Nadu","latitude":12.9165,"longitude":79.1325,"temp":23.2,"humidity":93,"rain":0.0,"pressure":983.9,"uv_index":9.35,"wind_gusts":26.3,"aqi":97,"pm10":58.7,"pm2_5":51.5,"mosquito_risk":3,"arthritis_risk":5,"migraine_risk":7,"frizz_risk":1,"updated_at":"2026-03-28T03:08:44.638043+05:30"},{"city":"Erode","state":"Tamil Nadu","latitude":11.341,"longitude":77.7172,"temp":25.7,"humidity":77,"rain":0.0,"pressure":988.4,"uv_index":9.35,"wind_gusts":14.8,"aqi":87,"pm10":39.5,"pm2_5":32.7,"mosquito_risk":7,"arthritis_risk":5,"migraine_risk":7,"frizz_risk":1,"updated_at":"2026-03-28T03:08:44.638051+05:30"},{"city":"Kochi","state":"Kerala","latitude":9.9312,"longitude":76.2673,"temp":28.1,"humidity":83,"rain":0.0,"pressure":1008.2,"uv_index":9.15,"wind_gusts":31.3,"aqi":81,"pm10":33.8,"pm2_5":31.8,"mosquito_risk":7,"arthritis_risk":0,"migraine_risk":4,"frizz_risk":1,"updated_at":"2026-03-28T03:08:44.638058+05:30"},{"city":"Thiruvananthapuram","state":"Kerala","latitude":8.5241,"longitude":76.9366,"temp":27.6,"humidity":86,"rain":0.0,"pressure":1007.4,"uv_index":9.15,"wind_gusts":41.4,"aqi":59,"pm10":23.9,"pm2_5":18.6,"mosquito_risk":7,"arthritis_risk":5,"migraine_risk":4,"frizz_risk":1,"updated_at":"2026-03-28T03:08:44.638064+05:30"},{"city":"Kozhikode","state":"Kerala","latitude":11.2588,"longitude":75.7804,"temp":27.3,"humidity":85,"rain":0.0,"pressure":1007.7,"uv_index":9.1,"wind_gusts":28.1,"aqi":86,"pm10":30.3,"pm2_5":23.6,"mosquito_risk":7,"arthritis_risk":5,"migraine_risk":4,"frizz_risk":1,"updated_at":"2026-03-28T03:08:44.638071+05:30"},{"city":"Thrissur","state":"Kerala","latitude":10.5276,"longitude":76.2144,"temp":27.1,"humidity":88,"rain":0.0,"pressure":1006.6,"uv_index":9.15,"wind_gusts":36.7,"aqi":93,"pm10":35.4,"pm2_5":31.4,"mosquito_risk":7,"arthritis_risk":5,"migraine_risk":4,"frizz_risk":1,"updated_at":"2026-03-28T03:08:44.638079+05:30"},{"city":"Kannur","state":"Kerala","latitude":11.8745,"longitude":75.3704,"temp":26.9,"humidity":85,"rain":0.0,"pressure":1007.0,"uv_index":9.1,"wind_gusts":29.5,"aqi":96,"pm10":36.4,"pm2_5":30.9,"mosquito_risk":7,"arthritis_risk":5,"migraine_risk":4,"frizz_risk":1,"updated_at":"2026-03-28T03:08:44.638086+05:30"},{"city":"Patna","state":"Bihar","latitude":25.5941,"longitude":85.1376,"temp":22.7,"humidity":72,"rain":0.0,"pressure":999.2,"uv_index":7.9,"wind_gusts":24.1,"aqi":121,"pm10":36.8,"pm2_5":26.5,"mosquito_risk":3,"arthritis_risk":5,"migraine_risk":7,"frizz_risk":1,"updated_at":"2026-03-28T03:08:44.638093+05:30"},{"city":"Gaya","state":"Bihar","latitude":24.7914,"longitude":85.0002,"temp":21.2,"humidity":79,"rain":0.0,"pressure":993.3,"uv_index":8.05,"wind_gusts":22.3,"aqi":67,"pm10":46.2,"pm2_5":31.4,"mosquito_risk":3,"arthritis_risk":5,"migraine_risk":7,"frizz_risk":1,"updated_at":"2026-03-28T03:08:44.638100+05:30"},{"city":"Muzaffarpur","state":"Bihar","latitude":26.1209,"longitude":85.3647,"temp":20.7,"humidity":94,"rain":0.0,"pressure":999.4,"uv_index":7.85,"wind_gusts":29.2,"aqi":150,"pm10":40.4,"pm2_5":31.2,"mosquito_risk":3,"arthritis_risk":5,"migraine_risk":7,"frizz_risk":1,"updated_at":"2026-03-28T03:08:44.638106+05:30"},{"city":"Bhagalpur","state":"Bihar","latitude":25.2425,"longitude":87.0117,"temp":21.5,"humidity":92,"rain":0.0,"pressure":1000.0,"uv_index":7.6,"wind_gusts":29.9,"aqi":115,"pm10":45.1,"pm2_5":25.3,"mosquito_risk":3,"arthritis_risk":5,"migraine_risk":4,"frizz_risk":1,"updated_at":"2026-03-28T03:08:44.638113+05:30"},{"city":"Ranchi","state":"Jharkhand","latitude":23.3441,"longitude":85.3096,"temp":19.2,"humidity":80,"rain":0.0,"pressure":936.5,"uv_index":8.65,"wind_gusts":35.6,"aqi":62,"pm10":35.2,"pm2_5":28.3,"mosquito_risk":3,"arthritis_risk":5,"migraine_risk":7,"frizz_risk":0,"updated_at":"2026-03-28T03:08:44.638119+05:30"},{"city":"Jamshedpur","state":"Jharkhand","latitude":22.8046,"longitude":86.2029,"temp":23.4,"humidity":78,"rain":0.0,"pressure":990.1,"uv_index":8.5,"wind_gusts":39.2,"aqi":117,"pm10":58.6,"pm2_5":44.9,"mosquito_risk":3,"arthritis_risk":5,"migraine_risk":7,"frizz_risk":1,"updated_at":"2026-03-28T03:08:44.638126+05:30"},{"city":"Dhanbad","state":"Jharkhand","latitude":23.7957,"longitude":86.4304,"temp":23.2,"humidity":70,"rain":0.0,"pressure":978.9,"uv_index":8.4,"wind_gusts":32.4,"aqi":117,"pm10":81.0,"pm2_5":62.9,"mosquito_risk":3,"arthritis_risk":5,"migraine_risk":7,"frizz_risk":1,"updated_at":"2026-03-28T03:08:44.638133+05:30"},{"city":"Bokaro","state":"Jharkhand","latitude":23.6693,"longitude":86.1511,"temp":22.3,"humidity":70,"rain":0.0,"pressure":983.6,"uv_index":8.45,"wind_gusts":29.9,"aqi":113,"pm10":79.6,"pm2_5":63.6,"mosquito_risk":3,"arthritis_risk":5,"migraine_risk":7,"frizz_risk":1,"updated_at":"2026-03-28T03:08:44.638139+05:30"},{"city":"Bhubaneswar","state":"Odisha","latitude":20.2961,"longitude":85.8245,"temp":25.0,"humidity":93,"rain":0.0,"pressure":1000.3,"uv_index":8.8,"wind_gusts":31.3,"aqi":96,"pm10":37.4,"pm2_5":32.7,"mosquito_risk":7,"arthritis_risk":5,"migraine_risk":4,"frizz_risk":1,"updated_at":"2026-03-28T03:08:44.638146+05:30"},{"city":"Cuttack","state":"Odisha","latitude":20.4625,"longitude":85.8828,"temp":25.2,"humidity":87,"rain":0.0,"pressure":1002.4,"uv_index":8.8,"wind_gusts":37.1,"aqi":96,"pm10":37.4,"pm2_5":32.7,"mosquito_risk":7,"arthritis_risk":5,"migraine_risk":4,"frizz_risk":1,"updated_at":"2026-03-28T03:08:44.638152+05:30"},{"city":"Rourkela","state":"Odisha","latitude":22.2604,"longitude":84.8536,"temp":22.6,"humidity":87,"rain":0.0,"pressure":984.8,"uv_index":8.45,"wind_gusts":39.2,"aqi":89,"pm10":34.0,"pm2_5":30.9,"mosquito_risk":3,"arthritis_risk":5,"migraine_risk":7,"frizz_risk":1,"updated_at":"2026-03-28T03:08:44.638159+05:30"},{"city":"Raipur","state":"Chhattisgarh","latitude":21.2514,"longitude":81.6296,"temp":24.7,"humidity":65,"rain":0.0,"pressure":971.2,"uv_index":8.55,"wind_gusts":36.0,"aqi":117,"pm10":34.0,"pm2_5":31.4,"mosquito_risk":3,"arthritis_risk":5,"migraine_risk":7,"frizz_risk":1,"updated_at":"2026-03-28T03:08:44.638166+05:30"},{"city":"Bhilai","state":"Chhattisgarh","latitude":21.1938,"longitude":81.3509,"temp":25.2,"humidity":66,"rain":0.0,"pressure":971.4,"uv_index":8.55,"wind_gusts":37.8,"aqi":102,"pm10":31.5,"pm2_5":28.5,"mosquito_risk":7,"arthritis_risk":5,"migraine_risk":7,"frizz_risk":1,"updated_at":"2026-03-28T03:08:44.638172+05:30"},{"city":"Guwahati","state":"Assam","latitude":26.1158,"longitude":91.7086,"temp":22.9,"humidity":87,"rain":0.0,"pressure":1000.4,"uv_index":4.15,"wind_gusts":29.5,"aqi":156,"pm10":73.3,"pm2_5":61.2,"mosquito_risk":3,"arthritis_risk":5,"migraine_risk":0,"frizz_risk":1,"updated_at":"2026-03-28T03:08:44.638178+05:30"},{"city":"Agartala","state":"Tripura","latitude":23.8315,"longitude":91.2868,"temp":23.6,"humidity":96,"rain":0.0,"pressure":1004.8,"uv_index":7.3,"wind_gusts":34.6,"aqi":155,"pm10":66.1,"pm2_5":60.3,"mosquito_risk":3,"arthritis_risk":5,"migraine_risk":4,"frizz_risk":1,"updated_at":"2026-03-28T03:08:44.638185+05:30"},{"city":"Shillong","state":"Meghalaya","latitude":25.5788,"longitude":91.8933,"temp":13.3,"humidity":82,"rain":0.2,"pressure":853.8,"uv_index":2.55,"wind_gusts":56.2,"aqi":119,"pm10":40.9,"pm2_5":33.6,"mosquito_risk":6,"arthritis_risk":10,"migraine_risk":3,"frizz_risk":0,"updated_at":"2026-03-28T03:08:44.638192+05:30"},{"city":"Imphal","state":"Manipur","latitude":24.817,"longitude":93.9368,"temp":15.4,"humidity":82,"rain":0.0,"pressure":921.2,"uv_index":7.6,"wind_gusts":56.9,"aqi":134,"pm10":89.2,"pm2_5":73.1,"mosquito_risk":3,"arthritis_risk":10,"migraine_risk":7,"frizz_risk":0,"updated_at":"2026-03-28T03:08:44.638198+05:30"},{"city":"Aizawl","state":"Mizoram","latitude":23.7271,"longitude":92.7176,"temp":17.2,"humidity":69,"rain":0.0,"pressure":889.9,"uv_index":7.55,"wind_gusts":55.4,"aqi":107,"pm10":54.1,"pm2_5":44.9,"mosquito_risk":3,"arthritis_risk":5,"migraine_risk":7,"frizz_risk":0,"updated_at":"2026-03-28T03:08:44.638205+05:30"},{"city":"Kohima","state":"Nagaland","latitude":25.6701,"longitude":94.1077,"temp":14.2,"humidity":72,"rain":0.0,"pressure":852.4,"uv_index":7.1,"wind_gusts":70.9,"aqi":100,"pm10":50.9,"pm2_5":40.5,"mosquito_risk":3,"arthritis_risk":5,"migraine_risk":7,"frizz_risk":0,"updated_at":"2026-03-28T03:08:44.638211+05:30"},{"city":"Gangtok","state":"Sikkim","latitude":27.3314,"longitude":88.6138,"temp":12.3,"humidity":90,"rain":0.0,"pressure":833.3,"uv_index":7.55,"wind_gusts":17.6,"aqi":110,"pm10":50.6,"pm2_5":38.1,"mosquito_risk":3,"arthritis_risk":10,"migraine_risk":7,"frizz_risk":0,"updated_at":"2026-03-28T03:08:44.638218+05:30"},{"city":"Siliguri","state":"West Bengal","latitude":26.7271,"longitude":88.3953,"temp":17.6,"humidity":86,"rain":0.0,"pressure":992.7,"uv_index":7.5,"wind_gusts":25.2,"aqi":157,"pm10":68.7,"pm2_5":49.2,"mosquito_risk":3,"arthritis_risk":10,"migraine_risk":7,"frizz_risk":0,"updated_at":"2026-03-28T03:08:47.960069+05:30"},{"city":"Durgapur","state":"West Bengal","latitude":23.5204,"longitude":87.3119,"temp":24.9,"humidity":68,"rain":0.0,"pressure":993.2,"uv_index":8.35,"wind_gusts":28.8,"aqi":129,"pm10":44.6,"pm2_5":26.7,"mosquito_risk":3,"arthritis_risk":5,"migraine_risk":7,"frizz_risk":1,"updated_at":"2026-03-28T03:08:47.960103+05:30"},{"city":"Asansol","state":"West Bengal","latitude":23.6739,"longitude":86.9524,"temp":24.4,"humidity":72,"rain":0.0,"pressure":992.1,"uv_index":8.35,"wind_gusts":31.3,"aqi":93,"pm10":45.2,"pm2_5":27.2,"mosquito_risk":3,"arthritis_risk":5,"migraine_risk":7,"frizz_risk":1,"updated_at":"2026-03-28T03:08:47.960114+05:30"},{"city":"Pondicherry","state":"Puducherry","latitude":11.9139,"longitude":79.8145,"temp":22.8,"humidity":95,"rain":0.0,"pressure":1007.9,"uv_index":9.25,"wind_gusts":29.2,"aqi":66,"pm10":25.4,"pm2_5":16.3,"mosquito_risk":3,"arthritis_risk":5,"migraine_risk":4,"frizz_risk":1,"updated_at":"2026-03-28T03:08:47.960123+05:30"},{"city":"Port Blair","state":"Andaman and Nicobar Islands","latitude":11.6234,"longitude":92.7265,"temp":28.2,"humidity":77,"rain":0.0,"pressure":1005.0,"uv_index":9.2,"wind_gusts":19.4,"aqi":70,"pm10":28.6,"pm2_5":21.8,"mosquito_risk":7,"arthritis_risk":5,"migraine_risk":4,"frizz_risk":1,"updated_at":"2026-03-28T03:08:47.960133+05:30"},{"city":"Haridwar","state":"Uttarakhand","latitude":29.9457,"longitude":78.1642,"temp":18.7,"humidity":82,"rain":0.0,"pressure":972.0,"uv_index":5.25,"wind_gusts":25.6,"aqi":88,"pm10":45.8,"pm2_5":40.6,"mosquito_risk":3,"arthritis_risk":10,"migraine_risk":3,"frizz_risk":0,"updated_at":"2026-03-28T03:08:47.960142+05:30"},{"city":"Rishikesh","state":"Uttarakhand","latitude":30.0869,"longitude":78.2676,"temp":18.4,"humidity":77,"rain":0.0,"pressure":964.6,"uv_index":5.1,"wind_gusts":28.4,"aqi":66,"pm10":42.5,"pm2_5":29.9,"mosquito_risk":3,"arthritis_risk":5,"migraine_risk":3,"frizz_risk":0,"updated_at":"2026-03-28T03:08:47.960151+05:30"},{"city":"Nainital","state":"Uttarakhand","latitude":29.3919,"longitude":79.4542,"temp":14.8,"humidity":58,"rain":0.0,"pressure":801.9,"uv_index":5.2,"wind_gusts":30.2,"aqi":59,"pm10":23.2,"pm2_5":17.8,"mosquito_risk":0,"arthritis_risk":5,"migraine_risk":3,"frizz_risk":0,"updated_at":"2026-03-28T03:08:47.960159+05:30"},{"city":"Mussoorie","state":"Uttarakhand","latitude":30.4599,"longitude":78.0664,"temp":12.9,"humidity":77,"rain":0.0,"pressure":798.1,"uv_index":4.9,"wind_gusts":25.6,"aqi":73,"pm10":44.9,"pm2_5":35.0,"mosquito_risk":3,"arthritis_risk":5,"migraine_risk":3,"frizz_risk":0,"updated_at":"2026-03-28T03:08:47.960167+05:30"},{"city":"Dharamshala","state":"Himachal Pradesh","latitude":32.219,"longitude":76.3234,"temp":16.9,"humidity":67,"rain":0.0,"pressure":865.3,"uv_index":6.25,"wind_gusts":22.0,"aqi":43,"pm10":21.2,"pm2_5":10.8,"mosquito_risk":3,"arthritis_risk":5,"migraine_risk":7,"frizz_risk":0,"updated_at":"2026-03-28T03:08:47.960176+05:30"},{"city":"Dalhousie","state":"Himachal Pradesh","latitude":32.5387,"longitude":75.971,"temp":13.3,"humidity":72,"rain":0.0,"pressure":799.0,"uv_index":6.1,"wind_gusts":18.7,"aqi":73,"pm10":38.6,"pm2_5":31.5,"mosquito_risk":3,"arthritis_risk":5,"migraine_risk":7,"frizz_risk":0,"updated_at":"2026-03-28T03:08:47.960185+05:30"},{"city":"Patiala","state":"Punjab","latitude":30.3398,"longitude":76.3869,"temp":18.6,"humidity":80,"rain":0.0,"pressure":975.8,"uv_index":5.4,"wind_gusts":13.7,"aqi":95,"pm10":79.4,"pm2_5":58.9,"mosquito_risk":3,"arthritis_risk":5,"migraine_risk":3,"frizz_risk":0,"updated_at":"2026-03-28T03:08:47.960194+05:30"},{"city":"Bhatinda","state":"Punjab","latitude":30.211,"longitude":74.9455,"temp":19.5,"humidity":74,"rain":0.0,"pressure":981.2,"uv_index":6.6,"wind_gusts":17.3,"aqi":87,"pm10":40.7,"pm2_5":34.1,"mosquito_risk":3,"arthritis_risk":5,"migraine_risk":7,"frizz_risk":0,"updated_at":"2026-03-28T03:08:47.960202+05:30"},{"city":"Rohtak","state":"Haryana","latitude":28.8955,"longitude":76.6066,"temp":20.5,"humidity":74,"rain":0.0,"pressure":979.7,"uv_index":6.1,"wind_gusts":15.1,"aqi":128,"pm10":138.3,"pm2_5":61.9,"mosquito_risk":3,"arthritis_risk":5,"migraine_risk":7,"frizz_risk":0,"updated_at":"2026-03-28T03:08:47.960210+05:30"},{"city":"Panipat","state":"Haryana","latitude":29.3909,"longitude":76.9635,"temp":19.2,"humidity":75,"rain":0.0,"pressure":978.1,"uv_index":5.6,"wind_gusts":18.0,"aqi":139,"pm10":67.8,"pm2_5":53.0,"mosquito_risk":3,"arthritis_risk":5,"migraine_risk":3,"frizz_risk":0,"updated_at":"2026-03-28T03:08:47.960217+05:30"},{"city":"Mathura","state":"Uttar Pradesh","latitude":27.4924,"longitude":77.6737,"temp":20.3,"humidity":84,"rain":0.0,"pressure":985.0,"uv_index":7.0,"wind_gusts":20.9,"aqi":613,"pm10":457.3,"pm2_5":99.4,"mosquito_risk":3,"arthritis_risk":5,"migraine_risk":7,"frizz_risk":1,"updated_at":"2026-03-28T03:08:47.960224+05:30"},{"city":"Vrindavan","state":"Uttar Pradesh","latitude":27.5823,"longitude":77.7027,"temp":20.7,"humidity":81,"rain":0.0,"pressure":985.5,"uv_index":6.95,"wind_gusts":21.2,"aqi":613,"pm10":457.3,"pm2_5":99.4,"mosquito_risk":3,"arthritis_risk":5,"migraine_risk":7,"frizz_risk":1,"updated_at":"2026-03-28T03:08:47.960231+05:30"},{"city":"Ayodhya","state":"Uttar Pradesh","latitude":26.7922,"longitude":82.1998,"temp":19.8,"humidity":85,"rain":0.0,"pressure":994.0,"uv_index":7.3,"wind_gusts":30.2,"aqi":85,"pm10":92.2,"pm2_5":38.3,"mosquito_risk":3,"arthritis_risk":10,"migraine_risk":7,"frizz_risk":1,"updated_at":"2026-03-28T03:08:47.960238+05:30"},{"city":"Ratlam","state":"Madhya Pradesh","latitude":23.3315,"longitude":75.0367,"temp":24.3,"humidity":61,"rain":0.0,"pressure":953.0,"uv_index":8.1,"wind_gusts":32.4,"aqi":41,"pm10":26.1,"pm2_5":14.8,"mosquito_risk":3,"arthritis_risk":5,"migraine_risk":7,"frizz_risk":1,"updated_at":"2026-03-28T03:08:47.960245+05:30"},{"city":"Sagar","state":"Madhya Pradesh","latitude":23.8388,"longitude":78.7378,"temp":23.1,"humidity":56,"rain":0.0,"pressure":947.7,"uv_index":8.15,"wind_gusts":28.1,"aqi":52,"pm10":27.6,"pm2_5":15.3,"mosquito_risk":0,"arthritis_risk":5,"migraine_risk":7,"frizz_risk":0,"updated_at":"2026-03-28T03:08:47.960252+05:30"},{"city":"Satna","state":"Madhya Pradesh","latitude":24.6005,"longitude":80.8322,"temp":20.6,"humidity":70,"rain":0.0,"pressure":969.9,"uv_index":8.1,"wind_gusts":25.6,"aqi":68,"pm10":62.9,"pm2_5":27.2,"mosquito_risk":3,"arthritis_risk":5,"migraine_risk":7,"frizz_risk":0,"updated_at":"2026-03-28T03:08:47.960259+05:30"},{"city":"Akola","state":"Maharashtra","latitude":20.7002,"longitude":77.0082,"temp":23.8,"humidity":53,"rain":0.0,"pressure":973.1,"uv_index":8.5,"wind_gusts":30.6,"aqi":55,"pm10":14.4,"pm2_5":11.5,"mosquito_risk":0,"arthritis_risk":5,"migraine_risk":7,"frizz_risk":0,"updated_at":"2026-03-28T03:08:47.960267+05:30"},{"city":"Amravati","state":"Maharashtra","latitude":20.9374,"longitude":77.7796,"temp":23.5,"humidity":44,"rain":0.0,"pressure":965.1,"uv_index":8.5,"wind_gusts":29.9,"aqi":54,"pm10":14.6,"pm2_5":11.7,"mosquito_risk":0,"arthritis_risk":5,"migraine_risk":7,"frizz_risk":0,"updated_at":"2026-03-28T03:08:47.960274+05:30"},{"city":"Latur","state":"Maharashtra","latitude":18.4088,"longitude":76.5604,"temp":25.4,"humidity":41,"rain":0.0,"pressure":938.3,"uv_index":8.85,"wind_gusts":30.2,"aqi":93,"pm10":46.4,"pm2_5":36.1,"mosquito_risk":4,"arthritis_risk":5,"migraine_risk":7,"frizz_risk":0,"updated_at":"2026-03-28T03:08:47.960281+05:30"},{"city":"Nanded","state":"Maharashtra","latitude":19.1383,"longitude":77.3091,"temp":26.7,"humidity":48,"rain":0.0,"pressure":967.1,"uv_index":8.7,"wind_gusts":23.8,"aqi":83,"pm10":34.2,"pm2_5":30.0,"mosquito_risk":4,"arthritis_risk":5,"migraine_risk":7,"frizz_risk":0,"updated_at":"2026-03-28T03:08:47.960288+05:30"},{"city":"Gulbarga","state":"Karnataka","latitude":17.3297,"longitude":76.8343,"temp":27.8,"humidity":48,"rain":0.0,"pressure":957.5,"uv_index":8.9,"wind_gusts":22.0,"aqi":96,"pm10":40.2,"pm2_5":34.6,"mosquito_risk":4,"arthritis_risk":5,"migraine_risk":7,"frizz_risk":0,"updated_at":"2026-03-28T03:08:47.960294+05:30"},{"city":"Bidar","state":"Karnataka","latitude":17.9104,"longitude":77.5199,"temp":26.4,"humidity":54,"rain":0.0,"pressure":934.2,"uv_index":8.9,"wind_gusts":22.7,"aqi":89,"pm10":41.0,"pm2_5":35.4,"mosquito_risk":4,"arthritis_risk":5,"migraine_risk":7,"frizz_risk":1,"updated_at":"2026-03-28T03:08:47.960301+05:30"},{"city":"Hospet","state":"Karnataka","latitude":15.2689,"longitude":76.3909,"temp":26.8,"humidity":73,"rain":0.0,"pressure":955.5,"uv_index":9.15,"wind_gusts":38.5,"aqi":83,"pm10":35.7,"pm2_5":30.6,"mosquito_risk":7,"arthritis_risk":5,"migraine_risk":7,"frizz_risk":1,"updated_at":"2026-03-28T03:08:47.960307+05:30"},{"city":"Tirupur","state":"Tamil Nadu","latitude":11.1085,"longitude":77.3411,"temp":25.6,"humidity":85,"rain":0.0,"pressure":974.5,"uv_index":9.45,"wind_gusts":36.4,"aqi":96,"pm10":42.4,"pm2_5":38.6,"mosquito_risk":7,"arthritis_risk":5,"migraine_risk":7,"frizz_risk":1,"updated_at":"2026-03-28T03:08:47.960314+05:30"},{"city":"Alappuzha","state":"Kerala","latitude":9.4981,"longitude":76.3388,"temp":28.0,"humidity":83,"rain":0.0,"pressure":1008.3,"uv_index":9.15,"wind_gusts":31.7,"aqi":82,"pm10":39.7,"pm2_5":35.0,"mosquito_risk":7,"arthritis_risk":0,"migraine_risk":4,"frizz_risk":1,"updated_at":"2026-03-28T03:08:47.960320+05:30"},{"city":"Munnar","state":"Kerala","latitude":10.0889,"longitude":77.0595,"temp":19.5,"humidity":98,"rain":0.0,"pressure":855.7,"uv_index":9.7,"wind_gusts":42.5,"aqi":77,"pm10":34.0,"pm2_5":30.9,"mosquito_risk":3,"arthritis_risk":10,"migraine_risk":7,"frizz_risk":1,"updated_at":"2026-03-28T03:08:47.960328+05:30"},{"city":"Silchar","state":"Assam","latitude":24.8333,"longitude":92.7789,"temp":22.7,"humidity":80,"rain":0.0,"pressure":1003.1,"uv_index":5.55,"wind_gusts":38.9,"aqi":156,"pm10":92.4,"pm2_5":78.5,"mosquito_risk":3,"arthritis_risk":5,"migraine_risk":0,"frizz_risk":1,"updated_at":"2026-03-28T03:08:47.960334+05:30"},{"city":"Dibrugarh","state":"Assam","latitude":27.4728,"longitude":94.912,"temp":22.0,"humidity":80,"rain":0.0,"pressure":995.6,"uv_index":6.8,"wind_gusts":26.6,"aqi":121,"pm10":39.7,"pm2_5":31.9,"mosquito_risk":3,"arthritis_risk":5,"migraine_risk":7,"frizz_risk":1,"updated_at":"2026-03-28T03:08:47.960341+05:30"}]