[{"city":"Delhi","state":"Delhi","latitude":28.6139,"longitude":77.209,"temp":20.5,"humidity":67,"rain":0.0,"pressure":983.9,"uv_index":6.9,"wind_gusts":28.1,"aqi":174,"pm10":452.6,"pm2_5":95.9,"mosquito_risk":3,"arthritis_risk":5,"migraine_risk":7,"frizz_risk":0,"updated_at":"2026-04-06T04:05:21.078554+05:30"},{"city":"Mumbai","state":"Maharashtra","latitude":19.076,"longitude":72.8777,"temp":27.8,"humidity":62,"rain":0.0,"pressure":1009.9,"uv_index":7.95,"wind_gusts":23.4,"aqi":64,"pm10":27.1,"pm2_5":15.5,"mosquito_risk":7,"arthritis_risk":0,"migraine_risk":4,"frizz_risk":1,"updated_at":"2026-04-06T04:05:21.078592+05:30"},{"city":"Bangalore","state":"Karnataka","latitude":12.9716,"longitude":77.5946,"temp":23.0,"humidity":80,"rain":0.0,"pressure":910.9,"uv_index":9.6,"wind_gusts":29.9,"aqi":91,"pm10":23.3,"pm2_5":21.7,"mosquito_risk":3,"arthritis_risk":5,"migraine_risk":7,"frizz_risk":1,"updated_at":"2026-04-06T04:05:21.078608+05:30"},{"city":"Hyderabad","state":"Telangana","latitude":17.385,"longitude":78.4867,"temp":26.5,"humidity":66,"rain":0.0,"pressure":952.0,"uv_index":9.2,"wind_gusts":33.5,"aqi":123,"pm10":64.3,"pm2_5":54.8,"mosquito_risk":7,"arthritis_risk":5,"migraine_risk":7,"frizz_risk":1,"updated_at":"2026-04-06T04:05:21.078618+05:30"},{"city":"Chennai","state":"Tamil Nadu","latitude":13.0827,"longitude":80.2707,"temp":27.7,"humidity":87,"rain":0.0,"pressure":1006.4,"uv_index":9.35,"wind_gusts":26.6,"aqi":60,"pm10":17.1,"pm2_5":12.5,"mosquito_risk":7,"arthritis_risk":5,"migraine_risk":4,"frizz_risk":1,"updated_at":"2026-04-06T04:05:21.078626+05:30"},{"city":"Kolkata","state":"West Bengal","latitude":22.5726,"longitude":88.3639,"temp":23.3,"humidity":92,"rain":0.0,"pressure":1005.7,"uv_index":8.65,"wind_gusts":17.6,"aqi":135,"pm10":56.1,"pm2_5":51.6,"mosquito_risk":3,"arthritis_risk":5,"migraine_risk":4,"frizz_risk":1,"updated_at":"2026-04-06T04:05:21.078635+05:30"},{"city":"Pune","state":"Maharashtra","latitude":18.5204,"longitude":73.8567,"temp":20.1,"humidity":74,"rain":0.0,"pressure":948.6,"uv_index":8.55,"wind_gusts":32.0,"aqi":67,"pm10":31.0,"pm2_5":21.5,"mosquito_risk":3,"arthritis_risk":5,"migraine_risk":7,"frizz_risk":0,"updated_at":"2026-04-06T04:05:21.078647+05:30"},{"city":"Ahmedabad","state":"Gujarat","latitude":23.0225,"longitude":72.5714,"temp":23.9,"humidity":51,"rain":0.0,"pressure":1003.2,"uv_index":7.95,"wind_gusts":28.4,"aqi":64,"pm10":40.3,"pm2_5":33.1,"mosquito_risk":0,"arthritis_risk":5,"migraine_risk":4,"frizz_risk":0,"updated_at":"2026-04-06T04:05:21.078654+05:30"},{"city":"Jaipur","state":"Rajasthan","latitude":26.9124,"longitude":75.7873,"temp":21.7,"humidity":54,"rain":0.0,"pressure":960.2,"uv_index":7.55,"wind_gusts":30.6,"aqi":103,"pm10":183.5,"pm2_5":32.4,"mosquito_risk":0,"arthritis_risk":5,"migraine_risk":7,"frizz_risk":0,"updated_at":"2026-04-06T04:05:21.078662+05:30"},{"city":"Lucknow","state":"Uttar Pradesh","latitude":26.8467,"longitude":80.9462,"temp":21.0,"humidity":74,"rain":0.0,"pressure":994.0,"uv_index":7.45,"wind_gusts":32.0,"aqi":90,"pm10":106.4,"pm2_5":39.1,"mosquito_risk":3,"arthritis_risk":5,"migraine_risk":7,"frizz_risk":1,"updated_at":"2026-04-06T04:05:21.078669+05:30"},{"city":"Kanpur","state":"Uttar Pradesh","latitude":26.4499,"longitude":80.3319,"temp":20.5,"humidity":81,"rain":0.0,"pressure":992.4,"uv_index":7.45,"wind_gusts":33.1,"aqi":113,"pm10":214.2,"pm2_5":50.4,"mosquito_risk":3,"arthritis_risk":5,"migraine_risk":7,"frizz_risk":1,"updated_at":"2026-04-06T04:05:21.078676+05:30"},{"city":"Chandigarh","state":"Chandigarh","latitude":30.7333,"longitude":76.7794,"temp":18.1,"humidity":70,"rain":0.0,"pressure":969.5,"uv_index":6.85,"wind_gusts":17.3,"aqi":66,"pm10":26.4,"pm2_5":23.6,"mosquito_risk":3,"arthritis_risk":5,"migraine_risk":7,"frizz_risk":0,"updated_at":"2026-04-06T04:05:21.078684+05:30"},{"city":"Srinagar","state":"Jammu and Kashmir","latitude":34.0837,"longitude":74.7973,"temp":5.1,"humidity":85,"rain":0.0,"pressure":836.4,"uv_index":7.95,"wind_gusts":22.7,"aqi":86,"pm10":44.9,"pm2_5":37.7,"mosquito_risk":3,"arthritis_risk":10,"migraine_risk":7,"frizz_risk":0,"updated_at":"2026-04-06T04:05:21.078691+05:30"},{"city":"Jammu","state":"Jammu and Kashmir","latitude":32.7266,"longitude":74.857,"temp":16.4,"humidity":71,"rain":0.0,"pressure":973.2,"uv_index":7.55,"wind_gusts":21.6,"aqi":69,"pm10":43.7,"pm2_5":36.6,"mosquito_risk":3,"arthritis_risk":5,"migraine_risk":7,"frizz_risk":0,"updated_at":"2026-04-06T04:05:21.078698+05:30"},{"city":"Amritsar","state":"Punjab","latitude":31.634,"longitude":74.8723,"temp":17.1,"humidity":80,"rain":0.0,"pressure":981.6,"uv_index":7.5,"wind_gusts":14.8,"aqi":98,"pm10":85.9,"pm2_5":68.5,"mosquito_risk":3,"arthritis_risk":5,"migraine_risk":7,"frizz_risk":0,"updated_at":"2026-04-06T04:05:21.078704+05:30"},{"city":"Ludhiana","state":"Punjab","latitude":30.901,"longitude":75.8573,"temp":18.8,"humidity":71,"rain":0.0,"pressure":979.8,"uv_index":7.1,"wind_gusts":19.4,"aqi":97,"pm10":64.0,"pm2_5":56.0,"mosquito_risk":3,"arthritis_risk":5,"migraine_risk":7,"frizz_risk":0,"updated_at":"2026-04-06T04:05:21.078711+05:30"},{"city":"Jalandhar","state":"Punjab","latitude":31.326,"longitude":75.5762,"temp":16.9,"humidity":87,"rain":0.0,"pressure":980.9,"uv_index":7.25,"wind_gusts":15.8,"aqi":84,"pm10":58.1,"pm2_5":44.1,"mosquito_risk":3,"arthritis_risk":10,"migraine_risk":7,"frizz_risk":0,"updated_at":"2026-04-06T04:05:21.078719+05:30"},{"city":"Dehradun","state":"Uttarakhand","latitude":30.6284,"longitude":78.0322,"temp":9.1,"humidity":81,"rain":0.0,"pressure":826.9,"uv_index":6.65,"wind_gusts":28.1,"aqi":40,"pm10":18.9,"pm2_5":11.0,"mosquito_risk":3,"arthritis_risk":10,"migraine_risk":7,"frizz_risk":0,"updated_at":"2026-04-06T04:05:21.078725+05:30"},{"city":"Shimla","state":"Himachal Pradesh","latitude":31.1048,"longitude":77.1734,"temp":7.8,"humidity":75,"rain":0.0,"pressure":780.3,"uv_index":6.55,"wind_gusts":28.4,"aqi":42,"pm10":22.5,"pm2_5":13.6,"mosquito_risk":3,"arthritis_risk":5,"migraine_risk":7,"frizz_risk":0,"updated_at":"2026-04-06T04:05:21.078732+05:30"},{"city":"Manali","state":"Himachal Pradesh","latitude":32.2396,"longitude":77.1887,"temp":10.9,"humidity":63,"rain":0.0,"pressure":815.4,"uv_index":9.6,"wind_gusts":25.9,"aqi":37,"pm10":25.4,"pm2_5":18.2,"mosquito_risk":3,"arthritis_risk":5,"migraine_risk":7,"frizz_risk":0,"updated_at":"2026-04-06T04:05:21.078738+05:30"},{"city":"Gurgaon","state":"Haryana","latitude":28.4595,"longitude":77.0266,"temp":18.1,"humidity":77,"rain":0.0,"pressure":982.2,"uv_index":7.05,"wind_gusts":27.7,"aqi":569,"pm10":609.1,"pm2_5":113.4,"mosquito_risk":3,"arthritis_risk":5,"migraine_risk":7,"frizz_risk":0,"updated_at":"2026-04-06T04:05:21.078745+05:30"},{"city":"Noida","state":"Uttar Pradesh","latitude":28.5355,"longitude":77.391,"temp":20.6,"humidity":68,"rain":0.0,"pressure":985.5,"uv_index":6.95,"wind_gusts":28.4,"aqi":569,"pm10":609.1,"pm2_5":113.4,"mosquito_risk":3,"arthritis_risk":5,"migraine_risk":7,"frizz_risk":0,"updated_at":"2026-04-06T04:05:21.078751+05:30"},{"city":"Ghaziabad","state":"Uttar Pradesh","latitude":28.6692,"longitude":77.4538,"temp":19.5,"humidity":74,"rain":0.0,"pressure":983.5,"uv_index":6.9,"wind_gusts":28.4,"aqi":131,"pm10":270.1,"pm2_5":65.4,"mosquito_risk":3,"arthritis_risk":5,"migraine_risk":7,"frizz_risk":0,"updated_at":"2026-04-06T04:05:21.078758+05:30"},{"city":"Faridabad","state":"Haryana","latitude":28.4089,"longitude":77.3178,"temp":19.1,"humidity":72,"rain":0.0,"pressure":984.6,"uv_index":7.0,"wind_gusts":27.4,"aqi":569,"pm10":609.1,"pm2_5":113.4,"mosquito_risk":3,"arthritis_risk":5,"migraine_risk":7,"frizz_risk":0,"updated_at":"2026-04-06T04:05:21.078765+05:30"},{"city":"Meerut","state":"Uttar Pradesh","latitude":28.9845,"longitude":77.7064,"temp":17.9,"humidity":78,"rain":0.0,"pressure":982.1,"uv_index":6.8,"wind_gusts":24.8,"aqi":131,"pm10":270.1,"pm2_5":65.4,"mosquito_risk":3,"arthritis_risk":5,"migraine_risk":7,"frizz_risk":0,"updated_at":"2026-04-06T04:05:21.078771+05:30"},{"city":"Agra","state":"Uttar Pradesh","latitude":27.1767,"longitude":78.0081,"temp":19.2,"humidity":81,"rain":0.0,"pressure":988.7,"uv_index":7.3,"wind_gusts":27.4,"aqi":170,"pm10":433.1,"pm2_5":85.9,"mosquito_risk":3,"arthritis_risk":10,"migraine_risk":7,"frizz_risk":0,"updated_at":"2026-04-06T04:05:21.078777+05:30"},{"city":"Varanasi","state":"Uttar Pradesh","latitude":25.3176,"longitude":82.9739,"temp":22.7,"humidity":75,"rain":0.0,"pressure":998.1,"uv_index":7.9,"wind_gusts":24.8,"aqi":89,"pm10":38.0,"pm2_5":32.2,"mosquito_risk":3,"arthritis_risk":5,"migraine_risk":7,"frizz_risk":1,"updated_at":"2026-04-06T04:05:21.078785+05:30"},{"city":"Prayagraj","state":"Uttar Pradesh","latitude":25.4358,"longitude":81.8463,"temp":23.4,"humidity":73,"rain":0.0,"pressure":996.5,"uv_index":7.55,"wind_gusts":23.8,"aqi":71,"pm10":56.1,"pm2_5":25.3,"mosquito_risk":3,"arthritis_risk":5,"migraine_risk":7,"frizz_risk":1,"updated_at":"2026-04-06T04:05:21.078792+05:30"},{"city":"Gorakhpur","state":"Uttar Pradesh","latitude":26.7606,"longitude":83.3732,"temp":21.9,"humidity":66,"rain":0.0,"pressure":996.9,"uv_index":7.7,"wind_gusts":31.7,"aqi":69,"pm10":34.3,"pm2_5":23.2,"mosquito_risk":3,"arthritis_risk":5,"migraine_risk":7,"frizz_risk":0,"updated_at":"2026-04-06T04:05:21.078798+05:30"},{"city":"Bareilly","state":"Uttar Pradesh","latitude":28.367,"longitude":79.4304,"temp":18.1,"humidity":87,"rain":0.0,"pressure":987.5,"uv_index":7.2,"wind_gusts":27.7,"aqi":86,"pm10":49.1,"pm2_5":34.5,"mosquito_risk":3,"arthritis_risk":10,"migraine_risk":7,"frizz_risk":0,"updated_at":"2026-04-06T04:05:21.078805+05:30"},{"city":"Aligarh","state":"Uttar Pradesh","latitude":27.8974,"longitude":78.088,"temp":17.7,"humidity":83,"rain":0.0,"pressure":986.4,"uv_index":7.1,"wind_gusts":27.4,"aqi":182,"pm10":610.9,"pm2_5":116.9,"mosquito_risk":3,"arthritis_risk":10,"migraine_risk":7,"frizz_risk":0,"updated_at":"2026-04-06T04:05:21.078813+05:30"},{"city":"Moradabad","state":"Uttar Pradesh","latitude":28.8386,"longitude":78.7733,"temp":18.1,"humidity":87,"rain":0.0,"pressure":984.4,"uv_index":7.0,"wind_gusts":27.4,"aqi":99,"pm10":74.7,"pm2_5":54.5,"mosquito_risk":3,"arthritis_risk":10,"migraine_risk":7,"frizz_risk":0,"updated_at":"2026-04-06T04:05:21.078820+05:30"},{"city":"Saharanpur","state":"Uttar Pradesh","latitude":29.9637,"longitude":77.546,"temp":17.8,"humidity":78,"rain":0.0,"pressure":976.4,"uv_index":6.6,"wind_gusts":22.3,"aqi":81,"pm10":86.1,"pm2_5":58.3,"mosquito_risk":3,"arthritis_risk":5,"migraine_risk":7,"frizz_risk":0,"updated_at":"2026-04-06T04:05:21.078826+05:30"},{"city":"Jhansi","state":"Uttar Pradesh","latitude":25.4484,"longitude":78.5685,"temp":21.0,"humidity":78,"rain":0.0,"pressure":978.1,"uv_index":7.9,"wind_gusts":24.1,"aqi":56,"pm10":132.2,"pm2_5":31.8,"mosquito_risk":3,"arthritis_risk":5,"migraine_risk":7,"frizz_risk":1,"updated_at":"2026-04-06T04:05:24.297106+05:30"},{"city":"Surat","state":"Gujarat","latitude":21.1702,"longitude":72.8311,"temp":26.0,"humidity":73,"rain":0.0,"pressure":1007.9,"uv_index":7.7,"wind_gusts":28.8,"aqi":79,"pm10":25.6,"pm2_5":17.5,"mosquito_risk":7,"arthritis_risk":5,"migraine_risk":4,"frizz_risk":1,"updated_at":"2026-04-06T04:05:24.297133+05:30"},{"city":"Vadodara","state":"Gujarat","latitude":22.3072,"longitude":73.1812,"temp":25.0,"humidity":77,"rain":0.0,"pressure":1005.3,"uv_index":7.95,"wind_gusts":29.2,"aqi":75,"pm10":25.8,"pm2_5":20.7,"mosquito_risk":7,"arthritis_risk":5,"migraine_risk":4,"frizz_risk":1,"updated_at":"2026-04-06T04:05:24.297143+05:30"},{"city":"Rajkot","state":"Gujarat","latitude":22.3039,"longitude":70.8022,"temp":22.5,"humidity":85,"rain":0.0,"pressure":996.1,"uv_index":7.7,"wind_gusts":38.9,"aqi":46,"pm10":24.3,"pm2_5":9.9,"mosquito_risk":3,"arthritis_risk":5,"migraine_risk":7,"frizz_risk":1,"updated_at":"2026-04-06T04:05:24.297151+05:30"},{"city":"Thane","state":"Maharashtra","latitude":19.2183,"longitude":72.9781,"temp":26.2,"humidity":65,"rain":0.0,"pressure":1009.4,"uv_index":7.95,"wind_gusts":37.8,"aqi":64,"pm10":27.1,"pm2_5":15.5,"mosquito_risk":7,"arthritis_risk":0,"migraine_risk":4,"frizz_risk":1,"updated_at":"2026-04-06T04:05:24.297159+05:30"},{"city":"Nagpur","state":"Maharashtra","latitude":21.1458,"longitude":79.0882,"temp":24.6,"humidity":58,"rain":0.0,"pressure":972.1,"uv_index":8.65,"wind_gusts":24.1,"aqi":72,"pm10":23.1,"pm2_5":18.7,"mosquito_risk":0,"arthritis_risk":5,"migraine_risk":7,"frizz_risk":0,"updated_at":"2026-04-06T04:05:24.297166+05:30"},{"city":"Nashik","state":"Maharashtra","latitude":19.9975,"longitude":73.7898,"temp":18.4,"humidity":83,"rain":0.0,"pressure":945.9,"uv_index":8.2,"wind_gusts":32.8,"aqi":56,"pm10":29.3,"pm2_5":16.4,"mosquito_risk":3,"arthritis_risk":10,"migraine_risk":7,"frizz_risk":0,"updated_at":"2026-04-06T04:05:24.297174+05:30"},{"city":"Aurangabad","state":"Maharashtra","latitude":19.8762,"longitude":75.3433,"temp":22.1,"humidity":67,"rain":0.0,"pressure":944.0,"uv_index":8.9,"wind_gusts":28.1,"aqi":54,"pm10":15.9,"pm2_5":10.1,"mosquito_risk":3,"arthritis_risk":5,"migraine_risk":7,"frizz_risk":0,"updated_at":"2026-04-06T04:05:24.297180+05:30"},{"city":"Solapur","state":"Maharashtra","latitude":17.6599,"longitude":75.9064,"temp":23.8,"humidity":65,"rain":0.0,"pressure":956.8,"uv_index":9.0,"wind_gusts":34.9,"aqi":51,"pm10":16.8,"pm2_5":13.1,"mosquito_risk":3,"arthritis_risk":5,"migraine_risk":7,"frizz_risk":1,"updated_at":"2026-04-06T04:05:24.297187+05:30"},{"city":"Kolhapur","state":"Maharashtra","latitude":16.705,"longitude":74.2433,"temp":17.5,"humidity":86,"rain":0.0,"pressure":947.5,"uv_index":9.0,"wind_gusts":39.6,"aqi":68,"pm10":37.7,"pm2_5":26.1,"mosquito_risk":3,"arthritis_risk":10,"migraine_risk":7,"frizz_risk":0,"updated_at":"2026-04-06T04:05:24.297193+05:30"},{"city":"Goa","state":"Goa","latitude":15.2993,"longitude":74.124,"temp":25.4,"humidity":83,"rain":0.0,"pressure":998.7,"uv_index":9.0,"wind_gusts":38.9,"aqi":66,"pm10":46.9,"pm2_5":25.7,"mosquito_risk":7,"arthritis_risk":5,"migraine_risk":7,"frizz_risk":1,"updated_at":"2026-04-06T04:05:24.297200+05:30"},{"city":"Jodhpur","state":"Rajasthan","latitude":26.2389,"longitude":73.0243,"temp":23.2,"humidity":46,"rain":0.0,"pressure":983.6,"uv_index":7.85,"wind_gusts":34.9,"aqi":68,"pm10":135.5,"pm2_5":21.5,"mosquito_risk":0,"arthritis_risk":5,"migraine_risk":7,"frizz_risk":0,"updated_at":"2026-04-06T04:05:24.297206+05:30"},{"city":"Udaipur","state":"Rajasthan","latitude":24.5854,"longitude":73.7125,"temp":19.1,"humidity":52,"rain":0.0,"pressure":946.6,"uv_index":8.4,"wind_gusts":34.9,"aqi":44,"pm10":15.4,"pm2_5":8.2,"mosquito_risk":0,"arthritis_risk":5,"migraine_risk":7,"frizz_risk":0,"updated_at":"2026-04-06T04:05:24.297213+05:30"},{"city":"Kota","state":"Rajasthan","latitude":25.2138,"longitude":75.8648,"temp":22.2,"humidity":46,"rain":0.0,"pressure":978.9,"uv_index":7.85,"wind_gusts":26.3,"aqi":65,"pm10":57.7,"pm2_5":21.3,"mosquito_risk":0,"arthritis_risk":5,"migraine_risk":7,"frizz_risk":0,"updated_at":"2026-04-06T04:05:24.297219+05:30"},{"city":"Bikaner","state":"Rajasthan","latitude":28.0229,"longitude":73.3119,"temp":22.4,"humidity":53,"rain":0.0,"pressure":982.4,"uv_index":7.65,"wind_gusts":27.4,"aqi":44,"pm10":43.5,"pm2_5":11.5,"mosquito_risk":0,"arthritis_risk":5,"migraine_risk":7,"frizz_risk":0,"updated_at":"2026-04-06T04:05:24.297226+05:30"},{"city":"Ajmer","state":"Rajasthan","latitude":26.4499,"longitude":74.6399,"temp":21.0,"humidity":56,"rain":0.0,"pressure":954.6,"uv_index":7.75,"wind_gusts":27.4,"aqi":52,"pm10":19.6,"pm2_5":12.7,"mosquito_risk":0,"arthritis_risk":5,"migraine_risk":7,"frizz_risk":0,"updated_at":"2026-04-06T04:05:24.297235+05:30"},{"city":"Gwalior","state":"Madhya Pradesh","latitude":26.2183,"longitude":78.1828,"temp":21.3,"humidity":80,"rain":0.0,"pressure":983.7,"uv_index":7.6,"wind_gusts":25.9,"aqi":70,"pm10":156.0,"pm2_5":34.6,"mosquito_risk":3,"arthritis_risk":5,"migraine_risk":7,"frizz_risk":1,"updated_at":"2026-04-06T04:05:24.297241+05:30"},{"city":"Indore","state":"Madhya Pradesh","latitude":22.7196,"longitude":75.8577,"temp":21.3,"humidity":56,"rain":0.0,"pressure":947.7,"uv_index":8.3,"wind_gusts":28.1,"aqi":58,"pm10":13.2,"pm2_5":11.4,"mosquito_risk":0,"arthritis_risk":5,"migraine_risk":7,"frizz_risk":0,"updated_at":"2026-04-06T04:05:24.297247+05:30"},{"city":"Bhopal","state":"Madhya Pradesh","latitude":23.2599,"longitude":77.4126,"temp":21.8,"humidity":53,"rain":0.0,"pressure":953.2,"uv_index":8.3,"wind_gusts":29.9,"aqi":45,"pm10":18.3,"pm2_5":9.4,"mosquito_risk":0,"arthritis_risk":5,"migraine_risk":7,"frizz_risk":0,"updated_at":"2026-04-06T04:05:24.297253+05:30"},{"city":"Jabalpur","state":"Madhya Pradesh","latitude":23.1815,"longitude":79.9864,"temp":25.7,"humidity":45,"rain":0.0,"pressure":960.7,"uv_index":7.9,"wind_gusts":27.4,"aqi":68,"pm10":19.9,"pm2_5":15.7,"mosquito_risk":4,"arthritis_risk":5,"migraine_risk":7,"frizz_risk":0,"updated_at":"2026-04-06T04:05:24.297259+05:30"},{"city":"Ujjain","state":"Madhya Pradesh","latitude":23.1765,"longitude":75.7885,"temp":21.4,"humidity":57,"rain":0.0,"pressure":953.7,"uv_index":8.2,"wind_gusts":28.4,"aqi":47,"pm10":9.6,"pm2_5":7.9,"mosquito_risk":0,"arthritis_risk":5,"migraine_risk":7,"frizz_risk":0,"updated_at":"2026-04-06T04:05:24.297265+05:30"},{"city":"Visakhapatnam","state":"Andhra Pradesh","latitude":17.6868,"longitude":83.2185,"temp":25.4,"humidity":88,"rain":0.0,"pressure":1004.0,"uv_index":9.1,"wind_gusts":37.1,"aqi":98,"pm10":58.2,"pm2_5":52.5,"mosquito_risk":7,"arthritis_risk":5,"migraine_risk":4,"frizz_risk":1,"updated_at":"2026-04-06T04:05:24.297272+05:30"},{"city":"Vijayawada","state":"Andhra Pradesh","latitude":16.5062,"longitude":80.648,"temp":27.1,"humidity":91,"rain":0.0,"pressure":1001.7,"uv_index":9.15,"wind_gusts":31.3,"aqi":84,"pm10":19.4,"pm2_5":17.2,"mosquito_risk":7,"arthritis_risk":5,"migraine_risk":4,"frizz_risk":1,"updated_at":"2026-04-06T04:05:24.297278+05:30"},{"city":"Guntur","state":"Andhra Pradesh","latitude":16.3067,"longitude":80.4365,"temp":27.5,"humidity":91,"rain":0.0,"pressure":1002.8,"uv_index":9.2,"wind_gusts":32.0,"aqi":90,"pm10":19.8,"pm2_5":17.3,"mosquito_risk":7,"arthritis_risk":5,"migraine_risk":4,"frizz_risk":1,"updated_at":"2026-04-06T04:05:24.297284+05:30"},{"city":"Nellore","state":"Andhra Pradesh","latitude":14.4426,"longitude":79.9865,"temp":27.8,"humidity":87,"rain":0.0,"pressure":1004.6,"uv_index":9.15,"wind_gusts":33.1,"aqi":64,"pm10":15.0,"pm2_5":12.6,"mosquito_risk":7,"arthritis_risk":5,"migraine_risk":4,"frizz_risk":1,"updated_at":"2026-04-06T04:05:24.297290+05:30"},{"city":"Kurnool","state":"Andhra Pradesh","latitude":15.8281,"longitude":78.0373,"temp":29.1,"humidity":51,"rain":0.0,"pressure":975.9,"uv_index":9.2,"wind_gusts":36.4,"aqi":108,"pm10":51.3,"pm2_5":44.8,"mosquito_risk":4,"arthritis_risk":5,"migraine_risk":7,"frizz_risk":1,"updated_at":"2026-04-06T04:05:24.297297+05:30"},{"city":"Kakinada","state":"Andhra Pradesh","latitude":16.9891,"longitude":82.2475,"temp":26.2,"humidity":93,"rain":0.0,"pressure":1007.0,"uv_index":8.55,"wind_gusts":24.8,"aqi":64,"pm10":21.6,"pm2_5":15.4,"mosquito_risk":7,"arthritis_risk":5,"migraine_risk":4,"frizz_risk":1,"updated_at":"2026-04-06T04:05:24.297303+05:30"},{"city":"Tirupati","state":"Andhra Pradesh","latitude":13.6288,"longitude":79.4192,"temp":26.0,"humidity":91,"rain":0.0,"pressure":990.9,"uv_index":8.7,"wind_gusts":23.8,"aqi":86,"pm10":28.6,"pm2_5":27.6,"mosquito_risk":7,"arthritis_risk":5,"migraine_risk":7,"frizz_risk":1,"updated_at":"2026-04-06T04:05:24.297310+05:30"},{"city":"Warangal","state":"Telangana","latitude":17.9689,"longitude":79.5941,"temp":26.7,"humidity":73,"rain":0.0,"pressure":977.0,"uv_index":8.35,"wind_gusts":36.7,"aqi":151,"pm10":71.9,"pm2_5":63.1,"mosquito_risk":7,"arthritis_risk":5,"migraine_risk":7,"frizz_risk":1,"updated_at":"2026-04-06T04:05:24.297316+05:30"},{"city":"Nizamabad","state":"Telangana","latitude":18.6725,"longitude":78.0941,"temp":26.2,"humidity":58,"rain":0.0,"pressure":964.2,"uv_index":8.95,"wind_gusts":29.2,"aqi":102,"pm10":42.4,"pm2_5":34.1,"mosquito_risk":4,"arthritis_risk":5,"migraine_risk":7,"frizz_risk":1,"updated_at":"2026-04-06T04:05:24.297322+05:30"},{"city":"Mysore","state":"Karnataka","latitude":12.2958,"longitude":76.6396,"temp":22.7,"humidity":85,"rain":0.0,"pressure":928.0,"uv_index":9.55,"wind_gusts":38.5,"aqi":75,"pm10":24.0,"pm2_5":21.5,"mosquito_risk":3,"arthritis_risk":5,"migraine_risk":7,"frizz_risk":1,"updated_at":"2026-04-06T04:05:24.297328+05:30"},{"city":"Mangalore","state":"Karnataka","latitude":12.9141,"longitude":74.856,"temp":29.3,"humidity":73,"rain":0.0,"pressure":1006.9,"uv_index":9.2,"wind_gusts":41.0,"aqi":59,"pm10":37.5,"pm2_5":19.3,"mosquito_risk":7,"arthritis_risk":5,"migraine_risk":4,"frizz_risk":1,"updated_at":"2026-04-06T04:05:24.297334+05:30"},{"city":"Hubli-Dharwad","state":"Karnataka","latitude":15.3647,"longitude":75.124,"temp":19.8,"humidity":86,"rain":0.0,"pressure":940.1,"uv_index":9.2,"wind_gusts":34.9,"aqi":56,"pm10":25.0,"pm2_5":14.8,"mosquito_risk":3,"arthritis_risk":10,"migraine_risk":7,"frizz_risk":1,"updated_at":"2026-04-06T04:05:24.297341+05:30"},{"city":"Belgaum","state":"Karnataka","latitude":15.8497,"longitude":74.4977,"temp":18.2,"humidity":81,"rain":0.0,"pressure":924.6,"uv_index":9.25,"wind_gusts":36.0,"aqi":59,"pm10":36.4,"pm2_5":20.9,"mosquito_risk":3,"arthritis_risk":10,"migraine_risk":7,"frizz_risk":0,"updated_at":"2026-04-06T04:05:27.519802+05:30"},{"city":"Coimbatore","state":"Tamil Nadu","latitude":11.0168,"longitude":76.9558,"temp":25.0,"humidity":82,"rain":0.0,"pressure":961.5,"uv_index":9.5,"wind_gusts":51.1,"aqi":72,"pm10":28.9,"pm2_5":25.0,"mosquito_risk":7,"arthritis_risk":5,"migraine_risk":7,"frizz_risk":1,"updated_at":"2026-04-06T04:05:27.519831+05:30"},{"city":"Madurai","state":"Tamil Nadu","latitude":9.9252,"longitude":78.1198,"temp":27.5,"humidity":79,"rain":0.0,"pressure":992.0,"uv_index":9.4,"wind_gusts":27.7,"aqi":90,"pm10":49.9,"pm2_5":46.8,"mosquito_risk":7,"arthritis_risk":5,"migraine_risk":7,"frizz_risk":1,"updated_at":"2026-04-06T04:05:27.519873+05:30"},{"city":"Trichy","state":"Tamil Nadu","latitude":10.7905,"longitude":78.7047,"temp":27.0,"humidity":88,"rain":0.0,"pressure":999.3,"uv_index":9.4,"wind_gusts":24.1,"aqi":94,"pm10":29.9,"pm2_5":28.1,"mosquito_risk":7,"arthritis_risk":5,"migraine_risk":7,"frizz_risk":1,"updated_at":"2026-04-06T04:05:27.519884+05:30"},{"city":"Salem","state":"Tamil Nadu","latitude":11.6643,"longitude":78.146,"temp":26.6,"humidity":78,"rain":0.0,"pressure":977.1,"uv_index":8.7,"wind_gusts":38.9,"aqi":86,"pm10":22.3,"pm2_5":21.0,"mosquito_risk":7,"arthritis_risk":5,"migraine_risk":7,"frizz_risk":1,"updated_at":"2026-04-06T04:05:27.519892+05:30"},{"city":"Tirunelveli","state":"Tamil Nadu","latitude":8.7139,"longitude":77.7567,"temp":27.6,"humidity":71,"rain":0.0,"pressure":1002.0,"uv_index":3.8,"wind_gusts":23.4,"aqi":59,"pm10":15.9,"pm2_5":13.8,"mosquito_risk":7,"arthritis_risk":5,"migraine_risk":0,"frizz_risk":1,"updated_at":"2026-04-06T04:05:27.519900+05:30"},{"city":"Vellore","state":"Tamil Nadu","latitude":12.9165,"longitude":79.1325,"temp":25.8,"humidity":82,"rain":0.0,"pressure":983.8,"uv_index":9.45,"wind_gusts":25.2,"aqi":113,"pm10":30.3,"pm2_5":28.7,"mosquito_risk":7,"arthritis_risk":5,"migraine_risk":7,"frizz_risk":1,"updated_at":"2026-04-06T04:05:27.519908+05:30"},{"city":"Erode","state":"Tamil Nadu","latitude":11.341,"longitude":77.7172,"temp":27.2,"humidity":83,"rain":0.0,"pressure":988.6,"uv_index":9.45,"wind_gusts":32.4,"aqi":76,"pm10":25.4,"pm2_5":22.7,"mosquito_risk":7,"arthritis_risk":5,"migraine_risk":7,"frizz_risk":1,"updated_at":"2026-04-06T04:05:27.519916+05:30"},{"city":"Kochi","state":"Kerala","latitude":9.9312,"longitude":76.2673,"temp":28.7,"humidity":81,"rain":0.0,"pressure":1008.6,"uv_index":8.1,"wind_gusts":37.8,"aqi":65,"pm10":28.8,"pm2_5":24.3,"mosquito_risk":7,"arthritis_risk":0,"migraine_risk":4,"frizz_risk":1,"updated_at":"2026-04-06T04:05:27.519923+05:30"},{"city":"Thiruvananthapuram","state":"Kerala","latitude":8.5241,"longitude":76.9366,"temp":28.3,"humidity":85,"rain":0.0,"pressure":1007.7,"uv_index":6.3,"wind_gusts":39.6,"aqi":52,"pm10":22.9,"pm2_5":15.8,"mosquito_risk":7,"arthritis_risk":5,"migraine_risk":4,"frizz_risk":1,"updated_at":"2026-04-06T04:05:27.519930+05:30"},{"city":"Kozhikode","state":"Kerala","latitude":11.2588,"longitude":75.7804,"temp":29.0,"humidity":79,"rain":0.0,"pressure":1007.7,"uv_index":9.15,"wind_gusts":40.3,"aqi":58,"pm10":27.1,"pm2_5":15.3,"mosquito_risk":7,"arthritis_risk":5,"migraine_risk":4,"frizz_risk":1,"updated_at":"2026-04-06T04:05:27.519937+05:30"},{"city":"Thrissur","state":"Kerala","latitude":10.5276,"longitude":76.2144,"temp":27.6,"humidity":84,"rain":0.0,"pressure":1006.9,"uv_index":9.15,"wind_gusts":40.7,"aqi":65,"pm10":33.6,"pm2_5":25.7,"mosquito_risk":7,"arthritis_risk":5,"migraine_risk":4,"frizz_risk":1,"updated_at":"2026-04-06T04:05:27.519944+05:30"},{"city":"Kannur","state":"Kerala","latitude":11.8745,"longitude":75.3704,"temp":27.7,"humidity":83,"rain":0.0,"pressure":1007.1,"uv_index":9.2,"wind_gusts":48.2,"aqi":60,"pm10":26.7,"pm2_5":14.1,"mosquito_risk":7,"arthritis_risk":5,"migraine_risk":4,"frizz_risk":1,"updated_at":"2026-04-06T04:05:27.519950+05:30"},{"city":"Patna","state":"Bihar","latitude":25.5941,"longitude":85.1376,"temp":24.4,"humidity":61,"rain":0.0,"pressure":1000.1,"uv_index":7.9,"wind_gusts":30.2,"aqi":63,"pm10":25.7,"pm2_5":21.7,"mosquito_risk":3,"arthritis_risk":5,"migraine_risk":4,"frizz_risk":1,"updated_at":"2026-04-06T04:05:27.519957+05:30"},{"city":"Gaya","state":"Bihar","latitude":24.7914,"longitude":85.0002,"temp":24.2,"humidity":68,"rain":0.0,"pressure":994.5,"uv_index":6.6,"wind_gusts":21.6,"aqi":66,"pm10":26.5,"pm2_5":20.6,"mosquito_risk":3,"arthritis_risk":5,"migraine_risk":7,"frizz_risk":1,"updated_at":"2026-04-06T04:05:27.519963+05:30"},{"city":"Muzaffarpur","state":"Bihar","latitude":26.1209,"longitude":85.3647,"temp":23.0,"humidity":58,"rain":0.0,"pressure":999.6,"uv_index":7.7,"wind_gusts":24.5,"aqi":64,"pm10":29.8,"pm2_5":26.0,"mosquito_risk":0,"arthritis_risk":5,"migraine_risk":7,"frizz_risk":0,"updated_at":"2026-04-06T04:05:27.519970+05:30"},{"city":"Bhagalpur","state":"Bihar","latitude":25.2425,"longitude":87.0117,"temp":24.6,"humidity":63,"rain":0.0,"pressure":1000.5,"uv_index":6.4,"wind_gusts":28.8,"aqi":61,"pm10":18.6,"pm2_5":15.1,"mosquito_risk":3,"arthritis_risk":5,"migraine_risk":4,"frizz_risk":1,"updated_at":"2026-04-06T04:05:27.519976+05:30"},{"city":"Ranchi","state":"Jharkhand","latitude":23.3441,"longitude":85.3096,"temp":21.4,"humidity":81,"rain":0.0,"pressure":937.2,"uv_index":8.0,"wind_gusts":27.4,"aqi":80,"pm10":51.8,"pm2_5":45.1,"mosquito_risk":3,"arthritis_risk":5,"migraine_risk":7,"frizz_risk":1,"updated_at":"2026-04-06T04:05:27.519983+05:30"},{"city":"Jamshedpur","state":"Jharkhand","latitude":22.8046,"longitude":86.2029,"temp":24.1,"humidity":88,"rain":0.0,"pressure":990.5,"uv_index":8.55,"wind_gusts":35.6,"aqi":111,"pm10":56.8,"pm2_5":52.3,"mosquito_risk":3,"arthritis_risk":5,"migraine_risk":7,"frizz_risk":1,"updated_at":"2026-04-06T04:05:27.519989+05:30"},{"city":"Dhanbad","state":"Jharkhand","latitude":23.7957,"longitude":86.4304,"temp":24.9,"humidity":66,"rain":0.0,"pressure":979.3,"uv_index":8.5,"wind_gusts":35.6,"aqi":100,"pm10":62.6,"pm2_5":54.4,"mosquito_risk":3,"arthritis_risk":5,"migraine_risk":7,"frizz_risk":1,"updated_at":"2026-04-06T04:05:27.519996+05:30"},{"city":"Bokaro","state":"Jharkhand","latitude":23.6693,"longitude":86.1511,"temp":24.4,"humidity":69,"rain":0.0,"pressure":983.7,"uv_index":7.85,"wind_gusts":35.6,"aqi":91,"pm10":62.9,"pm2_5":53.3,"mosquito_risk":3,"arthritis_risk":5,"migraine_risk":7,"frizz_risk":1,"updated_at":"2026-04-06T04:05:27.520002+05:30"},{"city":"Bhubaneswar","state":"Odisha","latitude":20.2961,"longitude":85.8245,"temp":25.5,"humidity":96,"rain":0.0,"pressure":1002.4,"uv_index":8.95,"wind_gusts":34.6,"aqi":88,"pm10":18.0,"pm2_5":14.2,"mosquito_risk":7,"arthritis_risk":5,"migraine_risk":4,"frizz_risk":1,"updated_at":"2026-04-06T04:05:27.520009+05:30"},{"city":"Cuttack","state":"Odisha","latitude":20.4625,"longitude":85.8828,"temp":25.1,"humidity":94,"rain":0.0,"pressure":1004.5,"uv_index":8.95,"wind_gusts":31.0,"aqi":88,"pm10":18.0,"pm2_5":14.2,"mosquito_risk":7,"arthritis_risk":5,"migraine_risk":4,"frizz_risk":1,"updated_at":"2026-04-06T04:05:27.520015+05:30"},{"city":"Rourkela","state":"Odisha","latitude":22.2604,"longitude":84.8536,"temp":24.7,"humidity":92,"rain":0.0,"pressure":985.2,"uv_index":8.35,"wind_gusts":38.5,"aqi":107,"pm10":66.1,"pm2_5":60.1,"mosquito_risk":3,"arthritis_risk":5,"migraine_risk":7,"frizz_risk":1,"updated_at":"2026-04-06T04:05:27.520021+05:30"},{"city":"Raipur","state":"Chhattisgarh","latitude":21.2514,"longitude":81.6296,"temp":24.9,"humidity":70,"rain":0.0,"pressure":974.0,"uv_index":8.5,"wind_gusts":26.6,"aqi":128,"pm10":43.3,"pm2_5":40.2,"mosquito_risk":3,"arthritis_risk":5,"migraine_risk":7,"frizz_risk":1,"updated_at":"2026-04-06T04:05:27.520027+05:30"},{"city":"Bhilai","state":"Chhattisgarh","latitude":21.1938,"longitude":81.3509,"temp":24.8,"humidity":71,"rain":0.0,"pressure":974.4,"uv_index":8.65,"wind_gusts":25.6,"aqi":128,"pm10":55.4,"pm2_5":50.9,"mosquito_risk":3,"arthritis_risk":5,"migraine_risk":7,"frizz_risk":1,"updated_at":"2026-04-06T04:05:27.520033+05:30"},{"city":"Guwahati","state":"Assam","latitude":26.1158,"longitude":91.7086,"temp":23.7,"humidity":84,"rain":0.0,"pressure":1000.2,"uv_index":8.25,"wind_gusts":41.0,"aqi":103,"pm10":44.0,"pm2_5":38.2,"mosquito_risk":3,"arthritis_risk":5,"migraine_risk":4,"frizz_risk":1,"updated_at":"2026-04-06T04:05:27.520039+05:30"},{"city":"Agartala","state":"Tripura","latitude":23.8315,"longitude":91.2868,"temp":23.0,"humidity":96,"rain":0.0,"pressure":1006.1,"uv_index":8.5,"wind_gusts":16.2,"aqi":124,"pm10":74.5,"pm2_5":69.6,"mosquito_risk":3,"arthritis_risk":5,"migraine_risk":4,"frizz_risk":1,"updated_at":"2026-04-06T04:05:27.520046+05:30"},{"city":"Shillong","state":"Meghalaya","latitude":25.5788,"longitude":91.8933,"temp":12.5,"humidity":85,"rain":0.0,"pressure":854.0,"uv_index":8.65,"wind_gusts":54.4,"aqi":95,"pm10":29.5,"pm2_5":24.6,"mosquito_risk":3,"arthritis_risk":10,"migraine_risk":7,"frizz_risk":0,"updated_at":"2026-04-06T04:05:27.520052+05:30"},{"city":"Imphal","state":"Manipur","latitude":24.817,"longitude":93.9368,"temp":17.4,"humidity":81,"rain":0.0,"pressure":922.4,"uv_index":8.85,"wind_gusts":52.6,"aqi":147,"pm10":75.7,"pm2_5":66.6,"mosquito_risk":3,"arthritis_risk":10,"migraine_risk":7,"frizz_risk":0,"updated_at":"2026-04-06T04:05:27.520059+05:30"},{"city":"Aizawl","state":"Mizoram","latitude":23.7271,"longitude":92.7176,"temp":15.9,"humidity":90,"rain":0.0,"pressure":891.2,"uv_index":8.75,"wind_gusts":33.1,"aqi":149,"pm10":67.8,"pm2_5":59.4,"mosquito_risk":3,"arthritis_risk":10,"migraine_risk":7,"frizz_risk":0,"updated_at":"2026-04-06T04:05:27.520066+05:30"},{"city":"Kohima","state":"Nagaland","latitude":25.6701,"longitude":94.1077,"temp":15.2,"humidity":58,"rain":0.0,"pressure":853.2,"uv_index":8.75,"wind_gusts":76.0,"aqi":111,"pm10":47.6,"pm2_5":39.6,"mosquito_risk":0,"arthritis_risk":5,"migraine_risk":7,"frizz_risk":0,"updated_at":"2026-04-06T04:05:27.520072+05:30"},{"city":"Gangtok","state":"Sikkim","latitude":27.3314,"longitude":88.6138,"temp":12.5,"humidity":85,"rain":0.0,"pressure":835.1,"uv_index":8.55,"wind_gusts":18.7,"aqi":83,"pm10":18.9,"pm2_5":14.9,"mosquito_risk":3,"arthritis_risk":10,"migraine_risk":7,"frizz_risk":0,"updated_at":"2026-04-06T04:05:27.520078+05:30"},{"city":"Siliguri","state":"West Bengal","latitude":26.7271,"longitude":88.3953,"temp":21.0,"humidity":55,"rain":0.0,"pressure":992.7,"uv_index":8.1,"wind_gusts":29.5,"aqi":127,"pm10":27.5,"pm2_5":25.2,"mosquito_risk":0,"arthritis_risk":5,"migraine_risk":7,"frizz_risk":0,"updated_at":"2026-04-06T04:05:30.749356+05:30"},{"city":"Durgapur","state":"West Bengal","latitude":23.5204,"longitude":87.3119,"temp":24.0,"humidity":85,"rain":0.0,"pressure":994.5,"uv_index":8.45,"wind_gusts":25.9,"aqi":98,"pm10":63.8,"pm2_5":59.4,"mosquito_risk":3,"arthritis_risk":5,"migraine_risk":7,"frizz_risk":1,"updated_at":"2026-04-06T04:05:30.749385+05:30"},{"city":"Asansol","state":"West Bengal","latitude":23.6739,"longitude":86.9524,"temp":24.5,"humidity":81,"rain":0.0,"pressure":992.9,"uv_index":8.45,"wind_gusts":23.4,"aqi":92,"pm10":55.9,"pm2_5":49.7,"mosquito_risk":3,"arthritis_risk":5,"migraine_risk":7,"frizz_risk":1,"updated_at":"2026-04-06T04:05:30.749397+05:30"},{"city":"Pondicherry","state":"Puducherry","latitude":11.9139,"longitude":79.8145,"temp":26.1,"humidity":91,"rain":0.0,"pressure":1007.7,"uv_index":9.0,"wind_gusts":24.8,"aqi":63,"pm10":23.5,"pm2_5":19.8,"mosquito_risk":7,"arthritis_risk":5,"migraine_risk":4,"frizz_risk":1,"updated_at":"2026-04-06T04:05:30.749406+05:30"},{"city":"Port Blair","state":"Andaman and Nicobar Islands","latitude":11.6234,"longitude":92.7265,"temp":28.9,"humidity":73,"rain":0.0,"pressure":1006.6,"uv_index":9.2,"wind_gusts":19.4,"aqi":28,"pm10":10.1,"pm2_5":6.4,"mosquito_risk":7,"arthritis_risk":5,"migraine_risk":4,"frizz_risk":1,"updated_at":"2026-04-06T04:05:30.749415+05:30"},{"city":"Haridwar","state":"Uttarakhand","latitude":29.9457,"longitude":78.1642,"temp":18.0,"humidity":73,"rain":0.0,"pressure":975.0,"uv_index":6.7,"wind_gusts":23.4,"aqi":66,"pm10":33.2,"pm2_5":28.2,"mosquito_risk":3,"arthritis_risk":5,"migraine_risk":7,"frizz_risk":0,"updated_at":"2026-04-06T04:05:30.749423+05:30"},{"city":"Rishikesh","state":"Uttarakhand","latitude":30.0869,"longitude":78.2676,"temp":17.6,"humidity":69,"rain":0.0,"pressure":967.6,"uv_index":6.8,"wind_gusts":25.6,"aqi":53,"pm10":20.7,"pm2_5":14.8,"mosquito_risk":3,"arthritis_risk":5,"migraine_risk":7,"frizz_risk":0,"updated_at":"2026-04-06T04:05:30.749431+05:30"},{"city":"Nainital","state":"Uttarakhand","latitude":29.3919,"longitude":79.4542,"temp":14.1,"humidity":68,"rain":0.0,"pressure":803.8,"uv_index":5.75,"wind_gusts":31.0,"aqi":58,"pm10":21.6,"pm2_5":15.6,"mosquito_risk":3,"arthritis_risk":5,"migraine_risk":3,"frizz_risk":0,"updated_at":"2026-04-06T04:05:30.749438+05:30"},{"city":"Mussoorie","state":"Uttarakhand","latitude":30.4599,"longitude":78.0664,"temp":11.6,"humidity":66,"rain":0.0,"pressure":800.0,"uv_index":5.35,"wind_gusts":29.9,"aqi":56,"pm10":28.1,"pm2_5":22.2,"mosquito_risk":3,"arthritis_risk":5,"migraine_risk":3,"frizz_risk":0,"updated_at":"2026-04-06T04:05:30.749446+05:30"},{"city":"Dharamshala","state":"Himachal Pradesh","latitude":32.219,"longitude":76.3234,"temp":15.3,"humidity":52,"rain":0.0,"pressure":867.3,"uv_index":7.45,"wind_gusts":23.8,"aqi":41,"pm10":14.9,"pm2_5":7.5,"mosquito_risk":0,"arthritis_risk":5,"migraine_risk":7,"frizz_risk":0,"updated_at":"2026-04-06T04:05:30.749453+05:30"},{"city":"Dalhousie","state":"Himachal Pradesh","latitude":32.5387,"longitude":75.971,"temp":11.0,"humidity":57,"rain":0.0,"pressure":800.3,"uv_index":6.9,"wind_gusts":20.9,"aqi":59,"pm10":28.6,"pm2_5":20.4,"mosquito_risk":0,"arthritis_risk":5,"migraine_risk":7,"frizz_risk":0,"updated_at":"2026-04-06T04:05:30.749462+05:30"},{"city":"Patiala","state":"Punjab","latitude":30.3398,"longitude":76.3869,"temp":17.1,"humidity":81,"rain":0.0,"pressure":979.1,"uv_index":6.8,"wind_gusts":20.9,"aqi":119,"pm10":55.5,"pm2_5":43.0,"mosquito_risk":3,"arthritis_risk":10,"migraine_risk":7,"frizz_risk":0,"updated_at":"2026-04-06T04:05:30.749470+05:30"},{"city":"Bhatinda","state":"Punjab","latitude":30.211,"longitude":74.9455,"temp":18.7,"humidity":74,"rain":0.0,"pressure":984.6,"uv_index":7.45,"wind_gusts":23.8,"aqi":94,"pm10":57.9,"pm2_5":54.1,"mosquito_risk":3,"arthritis_risk":5,"migraine_risk":7,"frizz_risk":0,"updated_at":"2026-04-06T04:05:30.749477+05:30"},{"city":"Rohtak","state":"Haryana","latitude":28.8955,"longitude":76.6066,"temp":17.7,"humidity":77,"rain":0.0,"pressure":982.6,"uv_index":6.95,"wind_gusts":29.5,"aqi":308,"pm10":555.1,"pm2_5":104.3,"mosquito_risk":3,"arthritis_risk":5,"migraine_risk":7,"frizz_risk":0,"updated_at":"2026-04-06T04:05:30.749485+05:30"},{"city":"Panipat","state":"Haryana","latitude":29.3909,"longitude":76.9635,"temp":16.9,"humidity":83,"rain":0.0,"pressure":981.1,"uv_index":6.75,"wind_gusts":22.7,"aqi":466,"pm10":440.5,"pm2_5":92.7,"mosquito_risk":3,"arthritis_risk":10,"migraine_risk":7,"frizz_risk":0,"updated_at":"2026-04-06T04:05:30.749493+05:30"},{"city":"Mathura","state":"Uttar Pradesh","latitude":27.4924,"longitude":77.6737,"temp":19.9,"humidity":76,"rain":0.0,"pressure":987.6,"uv_index":7.2,"wind_gusts":26.6,"aqi":230,"pm10":836.3,"pm2_5":129.0,"mosquito_risk":3,"arthritis_risk":5,"migraine_risk":7,"frizz_risk":0,"updated_at":"2026-04-06T04:05:30.749501+05:30"},{"city":"Vrindavan","state":"Uttar Pradesh","latitude":27.5823,"longitude":77.7027,"temp":18.9,"humidity":79,"rain":0.0,"pressure":988.0,"uv_index":7.2,"wind_gusts":26.6,"aqi":230,"pm10":836.3,"pm2_5":129.0,"mosquito_risk":3,"arthritis_risk":5,"migraine_risk":7,"frizz_risk":0,"updated_at":"2026-04-06T04:05:30.749508+05:30"},{"city":"Ayodhya","state":"Uttar Pradesh","latitude":26.7922,"longitude":82.1998,"temp":21.2,"humidity":70,"rain":0.0,"pressure":995.4,"uv_index":7.35,"wind_gusts":32.4,"aqi":77,"pm10":72.6,"pm2_5":36.6,"mosquito_risk":3,"arthritis_risk":5,"migraine_risk":7,"frizz_risk":0,"updated_at":"2026-04-06T04:05:30.749515+05:30"},{"city":"Ratlam","state":"Madhya Pradesh","latitude":23.3315,"longitude":75.0367,"temp":23.7,"humidity":49,"rain":0.0,"pressure":954.7,"uv_index":8.2,"wind_gusts":31.3,"aqi":49,"pm10":8.1,"pm2_5":5.9,"mosquito_risk":0,"arthritis_risk":5,"migraine_risk":7,"frizz_risk":0,"updated_at":"2026-04-06T04:05:30.749523+05:30"},{"city":"Sagar","state":"Madhya Pradesh","latitude":23.8388,"longitude":78.7378,"temp":23.3,"humidity":52,"rain":0.0,"pressure":949.5,"uv_index":8.3,"wind_gusts":21.2,"aqi":47,"pm10":22.6,"pm2_5":9.6,"mosquito_risk":0,"arthritis_risk":5,"migraine_risk":7,"frizz_risk":0,"updated_at":"2026-04-06T04:05:30.749530+05:30"},{"city":"Satna","state":"Madhya Pradesh","latitude":24.6005,"longitude":80.8322,"temp":24.2,"humidity":69,"rain":0.0,"pressure":971.3,"uv_index":8.0,"wind_gusts":25.2,"aqi":56,"pm10":70.1,"pm2_5":20.1,"mosquito_risk":3,"arthritis_risk":5,"migraine_risk":7,"frizz_risk":1,"updated_at":"2026-04-06T04:05:30.749538+05:30"},{"city":"Akola","state":"Maharashtra","latitude":20.7002,"longitude":77.0082,"temp":23.6,"humidity":59,"rain":0.0,"pressure":975.0,"uv_index":8.65,"wind_gusts":29.2,"aqi":57,"pm10":20.8,"pm2_5":14.9,"mosquito_risk":0,"arthritis_risk":5,"migraine_risk":7,"frizz_risk":0,"updated_at":"2026-04-06T04:05:30.749546+05:30"},{"city":"Amravati","state":"Maharashtra","latitude":20.9374,"longitude":77.7796,"temp":23.7,"humidity":59,"rain":0.0,"pressure":966.8,"uv_index":8.7,"wind_gusts":27.0,"aqi":56,"pm10":19.8,"pm2_5":13.9,"mosquito_risk":0,"arthritis_risk":5,"migraine_risk":7,"frizz_risk":0,"updated_at":"2026-04-06T04:05:30.749554+05:30"},{"city":"Latur","state":"Maharashtra","latitude":18.4088,"longitude":76.5604,"temp":22.3,"humidity":64,"rain":0.0,"pressure":939.3,"uv_index":9.0,"wind_gusts":29.9,"aqi":66,"pm10":24.7,"pm2_5":18.9,"mosquito_risk":3,"arthritis_risk":5,"migraine_risk":7,"frizz_risk":0,"updated_at":"2026-04-06T04:05:30.749561+05:30"},{"city":"Nanded","state":"Maharashtra","latitude":19.1383,"longitude":77.3091,"temp":23.9,"humidity":65,"rain":0.0,"pressure":968.3,"uv_index":8.85,"wind_gusts":24.8,"aqi":71,"pm10":20.3,"pm2_5":16.4,"mosquito_risk":3,"arthritis_risk":5,"migraine_risk":7,"frizz_risk":1,"updated_at":"2026-04-06T04:05:30.749568+05:30"},{"city":"Gulbarga","state":"Karnataka","latitude":17.3297,"longitude":76.8343,"temp":26.7,"humidity":48,"rain":0.0,"pressure":958.2,"uv_index":9.05,"wind_gusts":32.0,"aqi":65,"pm10":9.9,"pm2_5":8.9,"mosquito_risk":4,"arthritis_risk":5,"migraine_risk":7,"frizz_risk":0,"updated_at":"2026-04-06T04:05:30.749575+05:30"},{"city":"Bidar","state":"Karnataka","latitude":17.9104,"longitude":77.5199,"temp":25.7,"humidity":48,"rain":0.0,"pressure":934.8,"uv_index":9.05,"wind_gusts":28.4,"aqi":92,"pm10":50.8,"pm2_5":37.5,"mosquito_risk":4,"arthritis_risk":5,"migraine_risk":7,"frizz_risk":0,"updated_at":"2026-04-06T04:05:30.749583+05:30"},{"city":"Hospet","state":"Karnataka","latitude":15.2689,"longitude":76.3909,"temp":25.6,"humidity":66,"rain":0.0,"pressure":955.5,"uv_index":9.25,"wind_gusts":31.3,"aqi":56,"pm10":15.3,"pm2_5":11.9,"mosquito_risk":7,"arthritis_risk":5,"migraine_risk":7,"frizz_risk":1,"updated_at":"2026-04-06T04:05:30.749590+05:30"},{"city":"Tirupur","state":"Tamil Nadu","latitude":11.1085,"longitude":77.3411,"temp":25.9,"humidity":85,"rain":0.0,"pressure":974.8,"uv_index":9.55,"wind_gusts":40.0,"aqi":77,"pm10":30.3,"pm2_5":27.6,"mosquito_risk":7,"arthritis_risk":5,"migraine_risk":7,"frizz_risk":1,"updated_at":"2026-04-06T04:05:30.749597+05:30"},{"city":"Alappuzha","state":"Kerala","latitude":9.4981,"longitude":76.3388,"temp":28.6,"humidity":82,"rain":0.0,"pressure":1008.7,"uv_index":5.6,"wind_gusts":34.2,"aqi":61,"pm10":27.8,"pm2_5":20.1,"mosquito_risk":7,"arthritis_risk":0,"migraine_risk":0,"frizz_risk":1,"updated_at":"2026-04-06T04:05:30.749605+05:30"},{"city":"Munnar","state":"Kerala","latitude":10.0889,"longitude":77.0595,"temp":20.2,"humidity":94,"rain":0.0,"pressure":856.2,"uv_index":7.5,"wind_gusts":34.9,"aqi":65,"pm10":20.8,"pm2_5":18.5,"mosquito_risk":3,"arthritis_risk":5,"migraine_risk":7,"frizz_risk":1,"updated_at":"2026-04-06T04:05:30.749612+05:30"},{"city":"Silchar","state":"Assam","latitude":24.8333,"longitude":92.7789,"temp":22.2,"humidity":97,"rain":0.0,"pressure":1005.3,"uv_index":8.5,"wind_gusts":20.5,"aqi":155,"pm10":80.3,"pm2_5":67.1,"mosquito_risk":3,"arthritis_risk":5,"migraine_risk":4,"frizz_risk":1,"updated_at":"2026-04-06T04:05:30.749620+05:30"},{"city":"Dibrugarh","state":"Assam","latitude":27.4728,"longitude":94.912,"temp":21.4,"humidity":92,"rain":0.0,"pressure":994.4,"uv_index":8.3,"wind_gusts":38.2,"aqi":115,"pm10":52.3,"pm2_5":38.9,"mosquito_risk":3,"arthritis_risk":5,"migraine_risk":7,"frizz_risk":1,"updated_at":"2026-04-06T04:05:30.749627+05:30"}]