[{"city":"Delhi","state":"Delhi","latitude":28.6139,"longitude":77.209,"temp":36.6,"humidity":43,"rain":0.0,"pressure":975.0,"uv_index":7.7,"wind_gusts":34.2,"aqi":594,"pm10":1210.7,"pm2_5":196.0,"no2":5.4,"co":231.0,"o3":120.0,"so2":10.5,"mosquito_risk":0,"arthritis_risk":5,"migraine_risk":10,"frizz_risk":1,"updated_at":"2026-07-18T15:06:06.042742+05:30"},{"city":"Mumbai","state":"Maharashtra","latitude":19.076,"longitude":72.8777,"temp":28.9,"humidity":75,"rain":0.1,"pressure":1005.9,"uv_index":6.05,"wind_gusts":46.4,"aqi":67,"pm10":32.4,"pm2_5":17.6,"no2":5.6,"co":152.0,"o3":76.0,"so2":6.2,"mosquito_risk":10,"arthritis_risk":5,"migraine_risk":4,"frizz_risk":1,"updated_at":"2026-07-18T15:06:06.042790+05:30"},{"city":"Bangalore","state":"Karnataka","latitude":12.9716,"longitude":77.5946,"temp":27.9,"humidity":51,"rain":0.1,"pressure":910.5,"uv_index":4.6,"wind_gusts":46.1,"aqi":39,"pm10":20.5,"pm2_5":8.9,"no2":5.0,"co":203.0,"o3":63.0,"so2":2.2,"mosquito_risk":7,"arthritis_risk":5,"migraine_risk":3,"frizz_risk":1,"updated_at":"2026-07-18T15:06:06.042805+05:30"},{"city":"Hyderabad","state":"Telangana","latitude":17.385,"longitude":78.4867,"temp":27.0,"humidity":71,"rain":0.0,"pressure":949.9,"uv_index":3.45,"wind_gusts":42.5,"aqi":58,"pm10":25.7,"pm2_5":14.1,"no2":3.9,"co":249.0,"o3":79.0,"so2":3.7,"mosquito_risk":7,"arthritis_risk":5,"migraine_risk":3,"frizz_risk":1,"updated_at":"2026-07-18T15:06:06.042815+05:30"},{"city":"Chennai","state":"Tamil Nadu","latitude":13.0827,"longitude":80.2707,"temp":31.4,"humidity":62,"rain":0.1,"pressure":1003.9,"uv_index":6.7,"wind_gusts":34.9,"aqi":64,"pm10":28.3,"pm2_5":17.3,"no2":5.5,"co":245.0,"o3":98.0,"so2":5.7,"mosquito_risk":6,"arthritis_risk":5,"migraine_risk":4,"frizz_risk":1,"updated_at":"2026-07-18T15:06:06.042824+05:30"},{"city":"Kolkata","state":"West Bengal","latitude":22.5726,"longitude":88.3639,"temp":31.5,"humidity":72,"rain":0.1,"pressure":998.1,"uv_index":8.15,"wind_gusts":38.9,"aqi":68,"pm10":16.5,"pm2_5":12.6,"no2":2.1,"co":294.0,"o3":118.0,"so2":5.8,"mosquito_risk":6,"arthritis_risk":5,"migraine_risk":7,"frizz_risk":1,"updated_at":"2026-07-18T15:06:06.042832+05:30"},{"city":"Pune","state":"Maharashtra","latitude":18.5204,"longitude":73.8567,"temp":27.3,"humidity":68,"rain":0.0,"pressure":945.6,"uv_index":8.05,"wind_gusts":45.7,"aqi":36,"pm10":13.3,"pm2_5":7.3,"no2":4.2,"co":130.0,"o3":55.0,"so2":4.0,"mosquito_risk":7,"arthritis_risk":5,"migraine_risk":7,"frizz_risk":1,"updated_at":"2026-07-18T15:06:06.042839+05:30"},{"city":"Ahmedabad","state":"Gujarat","latitude":23.0225,"longitude":72.5714,"temp":35.2,"humidity":45,"rain":0.3,"pressure":995.9,"uv_index":6.6,"wind_gusts":36.4,"aqi":72,"pm10":33.8,"pm2_5":13.9,"no2":1.9,"co":126.0,"o3":85.0,"so2":3.2,"mosquito_risk":3,"arthritis_risk":5,"migraine_risk":10,"frizz_risk":1,"updated_at":"2026-07-18T15:06:06.042846+05:30"},{"city":"Jaipur","state":"Rajasthan","latitude":26.9124,"longitude":75.7873,"temp":36.7,"humidity":39,"rain":0.0,"pressure":953.7,"uv_index":7.35,"wind_gusts":37.8,"aqi":193,"pm10":111.3,"pm2_5":34.5,"no2":1.5,"co":140.0,"o3":101.0,"so2":2.8,"mosquito_risk":0,"arthritis_risk":5,"migraine_risk":10,"frizz_risk":1,"updated_at":"2026-07-18T15:06:06.042853+05:30"},{"city":"Lucknow","state":"Uttar Pradesh","latitude":26.8467,"longitude":80.9462,"temp":28.8,"humidity":91,"rain":0.2,"pressure":986.3,"uv_index":7.05,"wind_gusts":26.6,"aqi":161,"pm10":174.2,"pm2_5":60.8,"no2":2.5,"co":283.0,"o3":161.0,"so2":7.2,"mosquito_risk":10,"arthritis_risk":5,"migraine_risk":7,"frizz_risk":1,"updated_at":"2026-07-18T15:06:06.042864+05:30"},{"city":"Kanpur","state":"Uttar Pradesh","latitude":26.4499,"longitude":80.3319,"temp":31.9,"humidity":75,"rain":0.0,"pressure":984.2,"uv_index":7.6,"wind_gusts":36.4,"aqi":168,"pm10":184.9,"pm2_5":68.0,"no2":2.7,"co":204.0,"o3":169.0,"so2":7.6,"mosquito_risk":3,"arthritis_risk":5,"migraine_risk":7,"frizz_risk":1,"updated_at":"2026-07-18T15:06:06.042871+05:30"},{"city":"Chandigarh","state":"Chandigarh","latitude":30.7333,"longitude":76.7794,"temp":35.0,"humidity":52,"rain":0.0,"pressure":960.9,"uv_index":7.7,"wind_gusts":30.2,"aqi":151,"pm10":196.5,"pm2_5":69.2,"no2":2.5,"co":354.0,"o3":169.0,"so2":10.7,"mosquito_risk":0,"arthritis_risk":5,"migraine_risk":7,"frizz_risk":1,"updated_at":"2026-07-18T15:06:06.042880+05:30"},{"city":"Srinagar","state":"Jammu and Kashmir","latitude":34.0837,"longitude":74.7973,"temp":34.8,"humidity":34,"rain":0.0,"pressure":838.4,"uv_index":9.05,"wind_gusts":22.7,"aqi":104,"pm10":31.9,"pm2_5":21.9,"no2":1.6,"co":327.0,"o3":157.0,"so2":2.8,"mosquito_risk":0,"arthritis_risk":5,"migraine_risk":7,"frizz_risk":1,"updated_at":"2026-07-18T15:06:06.042888+05:30"},{"city":"Jammu","state":"Jammu and Kashmir","latitude":32.7266,"longitude":74.857,"temp":34.9,"humidity":58,"rain":0.1,"pressure":964.7,"uv_index":8.4,"wind_gusts":27.0,"aqi":152,"pm10":107.8,"pm2_5":53.1,"no2":2.1,"co":260.0,"o3":158.0,"so2":5.9,"mosquito_risk":3,"arthritis_risk":5,"migraine_risk":7,"frizz_risk":1,"updated_at":"2026-07-18T15:06:06.042894+05:30"},{"city":"Amritsar","state":"Punjab","latitude":31.634,"longitude":74.8723,"temp":37.2,"humidity":46,"rain":0.0,"pressure":971.9,"uv_index":6.75,"wind_gusts":17.3,"aqi":171,"pm10":166.2,"pm2_5":62.6,"no2":2.7,"co":271.0,"o3":183.0,"so2":8.7,"mosquito_risk":0,"arthritis_risk":5,"migraine_risk":10,"frizz_risk":1,"updated_at":"2026-07-18T15:06:06.042902+05:30"},{"city":"Ludhiana","state":"Punjab","latitude":30.901,"longitude":75.8573,"temp":38.2,"humidity":39,"rain":0.0,"pressure":970.2,"uv_index":7.75,"wind_gusts":24.8,"aqi":176,"pm10":215.1,"pm2_5":70.8,"no2":2.4,"co":305.0,"o3":154.0,"so2":6.0,"mosquito_risk":0,"arthritis_risk":5,"migraine_risk":10,"frizz_risk":1,"updated_at":"2026-07-18T15:06:06.042909+05:30"},{"city":"Jalandhar","state":"Punjab","latitude":31.326,"longitude":75.5762,"temp":36.8,"humidity":47,"rain":0.0,"pressure":971.2,"uv_index":8.25,"wind_gusts":18.7,"aqi":173,"pm10":215.1,"pm2_5":71.0,"no2":2.4,"co":269.0,"o3":162.0,"so2":5.8,"mosquito_risk":0,"arthritis_risk":5,"migraine_risk":10,"frizz_risk":1,"updated_at":"2026-07-18T15:06:06.042915+05:30"},{"city":"Dehradun","state":"Uttarakhand","latitude":30.6284,"longitude":78.0322,"temp":22.1,"humidity":95,"rain":0.0,"pressure":827.5,"uv_index":7.15,"wind_gusts":25.9,"aqi":94,"pm10":31.9,"pm2_5":20.5,"no2":2.8,"co":261.0,"o3":130.0,"so2":3.2,"mosquito_risk":3,"arthritis_risk":5,"migraine_risk":7,"frizz_risk":1,"updated_at":"2026-07-18T15:06:06.042922+05:30"},{"city":"Shimla","state":"Himachal Pradesh","latitude":31.1048,"longitude":77.1734,"temp":23.1,"humidity":62,"rain":0.0,"pressure":784.1,"uv_index":7.4,"wind_gusts":42.8,"aqi":98,"pm10":57.9,"pm2_5":29.2,"no2":1.5,"co":187.0,"o3":143.0,"so2":9.5,"mosquito_risk":3,"arthritis_risk":5,"migraine_risk":7,"frizz_risk":0,"updated_at":"2026-07-18T15:06:06.042929+05:30"},{"city":"Manali","state":"Himachal Pradesh","latitude":32.2396,"longitude":77.1887,"temp":25.8,"humidity":77,"rain":0.1,"pressure":817.8,"uv_index":7.05,"wind_gusts":31.3,"aqi":57,"pm10":11.8,"pm2_5":7.5,"no2":1.2,"co":240.0,"o3":140.0,"so2":1.1,"mosquito_risk":10,"arthritis_risk":5,"migraine_risk":7,"frizz_risk":1,"updated_at":"2026-07-18T15:06:06.042937+05:30"},{"city":"Gurgaon","state":"Haryana","latitude":28.4595,"longitude":77.0266,"temp":37.2,"humidity":39,"rain":0.0,"pressure":973.6,"uv_index":7.75,"wind_gusts":38.5,"aqi":535,"pm10":1046.8,"pm2_5":169.0,"no2":4.8,"co":182.0,"o3":131.0,"so2":9.2,"mosquito_risk":0,"arthritis_risk":5,"migraine_risk":10,"frizz_risk":1,"updated_at":"2026-07-18T15:06:06.042943+05:30"},{"city":"Noida","state":"Uttar Pradesh","latitude":28.5355,"longitude":77.391,"temp":36.2,"humidity":47,"rain":0.0,"pressure":976.2,"uv_index":7.7,"wind_gusts":30.6,"aqi":535,"pm10":1046.8,"pm2_5":169.0,"no2":4.8,"co":264.0,"o3":131.0,"so2":9.2,"mosquito_risk":0,"arthritis_risk":5,"migraine_risk":10,"frizz_risk":1,"updated_at":"2026-07-18T15:06:06.042950+05:30"},{"city":"Ghaziabad","state":"Uttar Pradesh","latitude":28.6692,"longitude":77.4538,"temp":35.3,"humidity":51,"rain":0.0,"pressure":974.6,"uv_index":7.7,"wind_gusts":29.2,"aqi":510,"pm10":899.7,"pm2_5":169.5,"no2":4.9,"co":190.0,"o3":147.0,"so2":15.6,"mosquito_risk":0,"arthritis_risk":5,"migraine_risk":10,"frizz_risk":1,"updated_at":"2026-07-18T15:06:06.042956+05:30"},{"city":"Faridabad","state":"Haryana","latitude":28.4089,"longitude":77.3178,"temp":37.2,"humidity":40,"rain":0.0,"pressure":975.7,"uv_index":7.6,"wind_gusts":38.9,"aqi":535,"pm10":1046.8,"pm2_5":169.0,"no2":4.8,"co":202.0,"o3":131.0,"so2":9.2,"mosquito_risk":0,"arthritis_risk":5,"migraine_risk":10,"frizz_risk":1,"updated_at":"2026-07-18T15:06:06.042963+05:30"},{"city":"Meerut","state":"Uttar Pradesh","latitude":28.9845,"longitude":77.7064,"temp":35.0,"humidity":56,"rain":0.0,"pressure":973.3,"uv_index":7.6,"wind_gusts":27.0,"aqi":510,"pm10":899.7,"pm2_5":169.5,"no2":4.9,"co":207.0,"o3":147.0,"so2":15.6,"mosquito_risk":0,"arthritis_risk":5,"migraine_risk":7,"frizz_risk":1,"updated_at":"2026-07-18T15:06:06.042969+05:30"},{"city":"Agra","state":"Uttar Pradesh","latitude":27.1767,"longitude":78.0081,"temp":37.2,"humidity":41,"rain":0.0,"pressure":980.0,"uv_index":7.6,"wind_gusts":40.0,"aqi":164,"pm10":407.0,"pm2_5":80.3,"no2":2.4,"co":144.0,"o3":119.0,"so2":3.7,"mosquito_risk":0,"arthritis_risk":5,"migraine_risk":10,"frizz_risk":1,"updated_at":"2026-07-18T15:06:06.042976+05:30"},{"city":"Varanasi","state":"Uttar Pradesh","latitude":25.3176,"longitude":82.9739,"temp":32.2,"humidity":72,"rain":0.0,"pressure":989.1,"uv_index":7.4,"wind_gusts":19.4,"aqi":92,"pm10":20.6,"pm2_5":19.9,"no2":3.1,"co":289.0,"o3":158.0,"so2":6.0,"mosquito_risk":3,"arthritis_risk":5,"migraine_risk":7,"frizz_risk":1,"updated_at":"2026-07-18T15:06:06.042983+05:30"},{"city":"Prayagraj","state":"Uttar Pradesh","latitude":25.4358,"longitude":81.8463,"temp":30.8,"humidity":82,"rain":0.3,"pressure":988.0,"uv_index":6.45,"wind_gusts":34.9,"aqi":120,"pm10":60.3,"pm2_5":31.7,"no2":2.2,"co":184.0,"o3":175.0,"so2":6.5,"mosquito_risk":6,"arthritis_risk":5,"migraine_risk":7,"frizz_risk":1,"updated_at":"2026-07-18T15:06:06.042990+05:30"},{"city":"Gorakhpur","state":"Uttar Pradesh","latitude":26.7606,"longitude":83.3732,"temp":32.3,"humidity":71,"rain":0.0,"pressure":989.5,"uv_index":7.85,"wind_gusts":26.3,"aqi":101,"pm10":19.8,"pm2_5":19.1,"no2":2.6,"co":293.0,"o3":132.0,"so2":3.3,"mosquito_risk":3,"arthritis_risk":5,"migraine_risk":7,"frizz_risk":1,"updated_at":"2026-07-18T15:06:06.042997+05:30"},{"city":"Bareilly","state":"Uttar Pradesh","latitude":28.367,"longitude":79.4304,"temp":32.3,"humidity":75,"rain":0.0,"pressure":979.0,"uv_index":5.65,"wind_gusts":29.9,"aqi":158,"pm10":158.8,"pm2_5":63.3,"no2":4.3,"co":424.0,"o3":166.0,"so2":12.3,"mosquito_risk":3,"arthritis_risk":5,"migraine_risk":3,"frizz_risk":1,"updated_at":"2026-07-18T15:06:06.043005+05:30"},{"city":"Aligarh","state":"Uttar Pradesh","latitude":27.8974,"longitude":78.088,"temp":35.5,"humidity":52,"rain":0.0,"pressure":977.7,"uv_index":6.85,"wind_gusts":27.4,"aqi":255,"pm10":655.7,"pm2_5":132.2,"no2":3.1,"co":189.0,"o3":155.0,"so2":10.7,"mosquito_risk":0,"arthritis_risk":5,"migraine_risk":10,"frizz_risk":1,"updated_at":"2026-07-18T15:06:06.043012+05:30"},{"city":"Moradabad","state":"Uttar Pradesh","latitude":28.8386,"longitude":78.7733,"temp":33.4,"humidity":70,"rain":0.0,"pressure":975.6,"uv_index":7.25,"wind_gusts":34.2,"aqi":172,"pm10":244.9,"pm2_5":80.6,"no2":4.7,"co":298.0,"o3":168.0,"so2":14.3,"mosquito_risk":3,"arthritis_risk":5,"migraine_risk":7,"frizz_risk":1,"updated_at":"2026-07-18T15:06:06.043018+05:30"},{"city":"Saharanpur","state":"Uttar Pradesh","latitude":29.9637,"longitude":77.546,"temp":34.6,"humidity":57,"rain":0.0,"pressure":967.6,"uv_index":7.25,"wind_gusts":32.8,"aqi":183,"pm10":438.7,"pm2_5":131.8,"no2":5.0,"co":366.0,"o3":223.0,"so2":16.2,"mosquito_risk":0,"arthritis_risk":5,"migraine_risk":7,"frizz_risk":1,"updated_at":"2026-07-18T15:06:06.043025+05:30"},{"city":"Jhansi","state":"Uttar Pradesh","latitude":25.4484,"longitude":78.5685,"temp":36.3,"humidity":47,"rain":0.0,"pressure":970.8,"uv_index":7.0,"wind_gusts":43.6,"aqi":99,"pm10":61.5,"pm2_5":25.4,"no2":1.8,"co":128.0,"o3":107.0,"so2":4.2,"mosquito_risk":0,"arthritis_risk":5,"migraine_risk":10,"frizz_risk":1,"updated_at":"2026-07-18T15:06:09.424167+05:30"},{"city":"Surat","state":"Gujarat","latitude":21.1702,"longitude":72.8311,"temp":30.7,"humidity":70,"rain":0.0,"pressure":1002.2,"uv_index":7.35,"wind_gusts":43.2,"aqi":73,"pm10":29.9,"pm2_5":20.0,"no2":11.9,"co":241.0,"o3":57.0,"so2":35.9,"mosquito_risk":3,"arthritis_risk":5,"migraine_risk":4,"frizz_risk":1,"updated_at":"2026-07-18T15:06:09.424200+05:30"},{"city":"Vadodara","state":"Gujarat","latitude":22.3072,"longitude":73.1812,"temp":33.6,"humidity":55,"rain":0.0,"pressure":998.8,"uv_index":5.75,"wind_gusts":41.0,"aqi":69,"pm10":28.6,"pm2_5":13.7,"no2":1.9,"co":137.0,"o3":89.0,"so2":3.3,"mosquito_risk":0,"arthritis_risk":5,"migraine_risk":3,"frizz_risk":1,"updated_at":"2026-07-18T15:06:09.424212+05:30"},{"city":"Rajkot","state":"Gujarat","latitude":22.3039,"longitude":70.8022,"temp":33.7,"humidity":51,"rain":0.1,"pressure":988.4,"uv_index":6.05,"wind_gusts":47.2,"aqi":62,"pm10":44.7,"pm2_5":19.3,"no2":1.3,"co":101.0,"o3":81.0,"so2":4.6,"mosquito_risk":3,"arthritis_risk":5,"migraine_risk":7,"frizz_risk":1,"updated_at":"2026-07-18T15:06:09.424221+05:30"},{"city":"Thane","state":"Maharashtra","latitude":19.2183,"longitude":72.9781,"temp":28.8,"humidity":76,"rain":0.1,"pressure":1005.1,"uv_index":6.5,"wind_gusts":35.6,"aqi":67,"pm10":32.4,"pm2_5":17.6,"no2":5.6,"co":150.0,"o3":76.0,"so2":6.2,"mosquito_risk":10,"arthritis_risk":5,"migraine_risk":4,"frizz_risk":1,"updated_at":"2026-07-18T15:06:09.424229+05:30"},{"city":"Nagpur","state":"Maharashtra","latitude":21.1458,"longitude":79.0882,"temp":28.3,"humidity":80,"rain":0.1,"pressure":968.3,"uv_index":1.1,"wind_gusts":34.6,"aqi":73,"pm10":21.5,"pm2_5":15.4,"no2":5.8,"co":217.0,"o3":96.0,"so2":17.3,"mosquito_risk":10,"arthritis_risk":5,"migraine_risk":3,"frizz_risk":1,"updated_at":"2026-07-18T15:06:09.424238+05:30"},{"city":"Nashik","state":"Maharashtra","latitude":19.9975,"longitude":73.7898,"temp":25.1,"humidity":86,"rain":0.2,"pressure":942.1,"uv_index":6.6,"wind_gusts":43.9,"aqi":37,"pm10":13.7,"pm2_5":7.3,"no2":3.5,"co":123.0,"o3":51.0,"so2":1.1,"mosquito_risk":10,"arthritis_risk":5,"migraine_risk":7,"frizz_risk":1,"updated_at":"2026-07-18T15:06:09.424246+05:30"},{"city":"Aurangabad","state":"Maharashtra","latitude":19.8762,"longitude":75.3433,"temp":27.5,"humidity":67,"rain":0.1,"pressure":940.7,"uv_index":7.0,"wind_gusts":40.7,"aqi":45,"pm10":14.4,"pm2_5":8.2,"no2":3.4,"co":131.0,"o3":67.0,"so2":4.5,"mosquito_risk":10,"arthritis_risk":5,"migraine_risk":7,"frizz_risk":1,"updated_at":"2026-07-18T15:06:09.424253+05:30"},{"city":"Solapur","state":"Maharashtra","latitude":17.6599,"longitude":75.9064,"temp":28.8,"humidity":63,"rain":0.1,"pressure":954.5,"uv_index":3.15,"wind_gusts":34.9,"aqi":49,"pm10":21.0,"pm2_5":9.3,"no2":1.4,"co":118.0,"o3":73.0,"so2":2.1,"mosquito_risk":10,"arthritis_risk":5,"migraine_risk":3,"frizz_risk":1,"updated_at":"2026-07-18T15:06:09.424261+05:30"},{"city":"Kolhapur","state":"Maharashtra","latitude":16.705,"longitude":74.2433,"temp":25.6,"humidity":76,"rain":0.0,"pressure":946.4,"uv_index":4.4,"wind_gusts":45.4,"aqi":37,"pm10":9.1,"pm2_5":5.5,"no2":1.9,"co":117.0,"o3":60.0,"so2":1.8,"mosquito_risk":7,"arthritis_risk":5,"migraine_risk":3,"frizz_risk":1,"updated_at":"2026-07-18T15:06:09.424269+05:30"},{"city":"Goa","state":"Goa","latitude":15.2993,"longitude":74.124,"temp":27.9,"humidity":82,"rain":0.2,"pressure":997.4,"uv_index":7.3,"wind_gusts":32.0,"aqi":64,"pm10":24.6,"pm2_5":13.0,"no2":0.9,"co":113.0,"o3":54.0,"so2":1.2,"mosquito_risk":10,"arthritis_risk":5,"migraine_risk":7,"frizz_risk":1,"updated_at":"2026-07-18T15:06:09.424277+05:30"},{"city":"Jodhpur","state":"Rajasthan","latitude":26.2389,"longitude":73.0243,"temp":36.6,"humidity":37,"rain":0.0,"pressure":976.2,"uv_index":8.4,"wind_gusts":45.4,"aqi":134,"pm10":187.2,"pm2_5":40.5,"no2":0.8,"co":108.0,"o3":78.0,"so2":1.7,"mosquito_risk":0,"arthritis_risk":5,"migraine_risk":10,"frizz_risk":1,"updated_at":"2026-07-18T15:06:09.424285+05:30"},{"city":"Udaipur","state":"Rajasthan","latitude":24.5854,"longitude":73.7125,"temp":32.2,"humidity":47,"rain":0.0,"pressure":941.3,"uv_index":7.75,"wind_gusts":36.4,"aqi":75,"pm10":52.4,"pm2_5":19.5,"no2":0.9,"co":109.0,"o3":72.0,"so2":2.2,"mosquito_risk":0,"arthritis_risk":5,"migraine_risk":7,"frizz_risk":1,"updated_at":"2026-07-18T15:06:09.424292+05:30"},{"city":"Kota","state":"Rajasthan","latitude":25.2138,"longitude":75.8648,"temp":36.8,"humidity":42,"rain":0.0,"pressure":972.2,"uv_index":8.3,"wind_gusts":32.4,"aqi":90,"pm10":60.5,"pm2_5":29.0,"no2":1.3,"co":126.0,"o3":116.0,"so2":5.5,"mosquito_risk":0,"arthritis_risk":5,"migraine_risk":10,"frizz_risk":1,"updated_at":"2026-07-18T15:06:09.424300+05:30"},{"city":"Bikaner","state":"Rajasthan","latitude":28.0229,"longitude":73.3119,"temp":38.9,"humidity":33,"rain":0.0,"pressure":974.0,"uv_index":8.35,"wind_gusts":37.8,"aqi":122,"pm10":130.9,"pm2_5":44.5,"no2":0.4,"co":105.0,"o3":79.0,"so2":2.5,"mosquito_risk":0,"arthritis_risk":5,"migraine_risk":10,"frizz_risk":1,"updated_at":"2026-07-18T15:06:09.424307+05:30"},{"city":"Ajmer","state":"Rajasthan","latitude":26.4499,"longitude":74.6399,"temp":34.3,"humidity":43,"rain":0.0,"pressure":949.0,"uv_index":7.95,"wind_gusts":43.2,"aqi":79,"pm10":65.4,"pm2_5":28.1,"no2":1.0,"co":113.0,"o3":90.0,"so2":2.4,"mosquito_risk":0,"arthritis_risk":5,"migraine_risk":7,"frizz_risk":1,"updated_at":"2026-07-18T15:06:09.424315+05:30"},{"city":"Gwalior","state":"Madhya Pradesh","latitude":26.2183,"longitude":78.1828,"temp":37.0,"humidity":43,"rain":0.0,"pressure":975.9,"uv_index":3.4,"wind_gusts":37.1,"aqi":112,"pm10":93.6,"pm2_5":30.7,"no2":1.2,"co":130.0,"o3":106.0,"so2":2.1,"mosquito_risk":0,"arthritis_risk":5,"migraine_risk":6,"frizz_risk":1,"updated_at":"2026-07-18T15:06:09.424323+05:30"},{"city":"Indore","state":"Madhya Pradesh","latitude":22.7196,"longitude":75.8577,"temp":31.4,"humidity":54,"rain":0.0,"pressure":943.8,"uv_index":6.1,"wind_gusts":38.2,"aqi":73,"pm10":34.7,"pm2_5":17.5,"no2":2.7,"co":172.0,"o3":90.0,"so2":4.3,"mosquito_risk":0,"arthritis_risk":5,"migraine_risk":7,"frizz_risk":1,"updated_at":"2026-07-18T15:06:09.424330+05:30"},{"city":"Bhopal","state":"Madhya Pradesh","latitude":23.2599,"longitude":77.4126,"temp":33.3,"humidity":51,"rain":0.0,"pressure":948.3,"uv_index":6.5,"wind_gusts":38.5,"aqi":84,"pm10":56.8,"pm2_5":27.8,"no2":1.4,"co":166.0,"o3":108.0,"so2":5.4,"mosquito_risk":0,"arthritis_risk":5,"migraine_risk":7,"frizz_risk":1,"updated_at":"2026-07-18T15:06:09.424338+05:30"},{"city":"Jabalpur","state":"Madhya Pradesh","latitude":23.1815,"longitude":79.9864,"temp":27.2,"humidity":92,"rain":0.1,"pressure":955.5,"uv_index":8.2,"wind_gusts":34.9,"aqi":85,"pm10":85.7,"pm2_5":34.9,"no2":1.5,"co":213.0,"o3":118.0,"so2":5.1,"mosquito_risk":10,"arthritis_risk":5,"migraine_risk":7,"frizz_risk":1,"updated_at":"2026-07-18T15:06:09.424365+05:30"},{"city":"Ujjain","state":"Madhya Pradesh","latitude":23.1765,"longitude":75.7885,"temp":31.3,"humidity":59,"rain":0.0,"pressure":948.9,"uv_index":7.2,"wind_gusts":36.4,"aqi":73,"pm10":47.1,"pm2_5":23.4,"no2":1.4,"co":144.0,"o3":96.0,"so2":4.2,"mosquito_risk":0,"arthritis_risk":5,"migraine_risk":7,"frizz_risk":1,"updated_at":"2026-07-18T15:06:09.424375+05:30"},{"city":"Visakhapatnam","state":"Andhra Pradesh","latitude":17.6868,"longitude":83.2185,"temp":31.3,"humidity":71,"rain":0.1,"pressure":996.9,"uv_index":5.6,"wind_gusts":39.6,"aqi":87,"pm10":32.1,"pm2_5":23.6,"no2":7.0,"co":321.0,"o3":147.0,"so2":24.8,"mosquito_risk":6,"arthritis_risk":5,"migraine_risk":3,"frizz_risk":1,"updated_at":"2026-07-18T15:06:09.424384+05:30"},{"city":"Vijayawada","state":"Andhra Pradesh","latitude":16.5062,"longitude":80.648,"temp":32.6,"humidity":60,"rain":0.0,"pressure":997.5,"uv_index":4.8,"wind_gusts":38.9,"aqi":72,"pm10":22.6,"pm2_5":13.0,"no2":1.9,"co":158.0,"o3":95.0,"so2":4.0,"mosquito_risk":0,"arthritis_risk":5,"migraine_risk":3,"frizz_risk":1,"updated_at":"2026-07-18T15:06:09.424392+05:30"},{"city":"Guntur","state":"Andhra Pradesh","latitude":16.3067,"longitude":80.4365,"temp":33.6,"humidity":54,"rain":0.0,"pressure":998.9,"uv_index":3.8,"wind_gusts":43.6,"aqi":69,"pm10":25.1,"pm2_5":13.3,"no2":1.4,"co":180.0,"o3":90.0,"so2":3.3,"mosquito_risk":0,"arthritis_risk":5,"migraine_risk":3,"frizz_risk":1,"updated_at":"2026-07-18T15:06:09.424399+05:30"},{"city":"Nellore","state":"Andhra Pradesh","latitude":14.4426,"longitude":79.9865,"temp":34.3,"humidity":48,"rain":0.0,"pressure":1001.7,"uv_index":2.55,"wind_gusts":42.8,"aqi":58,"pm10":28.7,"pm2_5":15.1,"no2":3.3,"co":118.0,"o3":86.0,"so2":4.9,"mosquito_risk":0,"arthritis_risk":5,"migraine_risk":0,"frizz_risk":1,"updated_at":"2026-07-18T15:06:09.424408+05:30"},{"city":"Kurnool","state":"Andhra Pradesh","latitude":15.8281,"longitude":78.0373,"temp":30.9,"humidity":59,"rain":0.0,"pressure":973.8,"uv_index":4.85,"wind_gusts":42.8,"aqi":53,"pm10":39.0,"pm2_5":16.9,"no2":2.1,"co":116.0,"o3":81.0,"so2":6.9,"mosquito_risk":0,"arthritis_risk":5,"migraine_risk":3,"frizz_risk":1,"updated_at":"2026-07-18T15:06:09.424416+05:30"},{"city":"Kakinada","state":"Andhra Pradesh","latitude":16.9891,"longitude":82.2475,"temp":33.5,"humidity":60,"rain":0.0,"pressure":1001.0,"uv_index":7.65,"wind_gusts":47.2,"aqi":78,"pm10":27.1,"pm2_5":17.7,"no2":2.3,"co":162.0,"o3":123.0,"so2":4.4,"mosquito_risk":0,"arthritis_risk":5,"migraine_risk":4,"frizz_risk":1,"updated_at":"2026-07-18T15:06:09.424423+05:30"},{"city":"Tirupati","state":"Andhra Pradesh","latitude":13.6288,"longitude":79.4192,"temp":32.3,"humidity":52,"rain":0.0,"pressure":987.9,"uv_index":3.9,"wind_gusts":38.9,"aqi":53,"pm10":25.6,"pm2_5":11.0,"no2":1.2,"co":105.0,"o3":70.0,"so2":1.2,"mosquito_risk":0,"arthritis_risk":5,"migraine_risk":3,"frizz_risk":1,"updated_at":"2026-07-18T15:06:09.424431+05:30"},{"city":"Warangal","state":"Telangana","latitude":17.9689,"longitude":79.5941,"temp":26.3,"humidity":93,"rain":0.4,"pressure":974.4,"uv_index":4.15,"wind_gusts":38.2,"aqi":69,"pm10":35.7,"pm2_5":17.5,"no2":1.7,"co":142.0,"o3":84.0,"so2":3.2,"mosquito_risk":10,"arthritis_risk":5,"migraine_risk":3,"frizz_risk":1,"updated_at":"2026-07-18T15:06:09.424439+05:30"},{"city":"Nizamabad","state":"Telangana","latitude":18.6725,"longitude":78.0941,"temp":29.9,"humidity":62,"rain":0.1,"pressure":960.8,"uv_index":1.1,"wind_gusts":42.1,"aqi":66,"pm10":31.2,"pm2_5":14.6,"no2":1.3,"co":135.0,"o3":79.0,"so2":3.7,"mosquito_risk":10,"arthritis_risk":5,"migraine_risk":3,"frizz_risk":1,"updated_at":"2026-07-18T15:06:09.424447+05:30"},{"city":"Mysore","state":"Karnataka","latitude":12.2958,"longitude":76.6396,"temp":29.5,"humidity":50,"rain":0.0,"pressure":927.7,"uv_index":3.35,"wind_gusts":50.0,"aqi":29,"pm10":12.8,"pm2_5":6.2,"no2":2.5,"co":120.0,"o3":69.0,"so2":1.4,"mosquito_risk":4,"arthritis_risk":5,"migraine_risk":3,"frizz_risk":1,"updated_at":"2026-07-18T15:06:09.424454+05:30"},{"city":"Mangalore","state":"Karnataka","latitude":12.9141,"longitude":74.856,"temp":26.9,"humidity":80,"rain":0.1,"pressure":1007.3,"uv_index":4.25,"wind_gusts":40.0,"aqi":58,"pm10":24.6,"pm2_5":13.2,"no2":1.3,"co":107.0,"o3":58.0,"so2":1.7,"mosquito_risk":10,"arthritis_risk":5,"migraine_risk":0,"frizz_risk":1,"updated_at":"2026-07-18T15:06:09.424462+05:30"},{"city":"Hubli-Dharwad","state":"Karnataka","latitude":15.3647,"longitude":75.124,"temp":27.4,"humidity":67,"rain":0.0,"pressure":939.6,"uv_index":7.95,"wind_gusts":49.7,"aqi":22,"pm10":9.5,"pm2_5":5.2,"no2":1.6,"co":127.0,"o3":57.0,"so2":1.2,"mosquito_risk":7,"arthritis_risk":5,"migraine_risk":7,"frizz_risk":1,"updated_at":"2026-07-18T15:06:09.424469+05:30"},{"city":"Belgaum","state":"Karnataka","latitude":15.8497,"longitude":74.4977,"temp":25.2,"humidity":72,"rain":0.0,"pressure":924.5,"uv_index":7.0,"wind_gusts":48.6,"aqi":27,"pm10":6.8,"pm2_5":3.6,"no2":1.5,"co":102.0,"o3":49.0,"so2":1.2,"mosquito_risk":7,"arthritis_risk":5,"migraine_risk":7,"frizz_risk":1,"updated_at":"2026-07-18T15:06:12.798112+05:30"},{"city":"Coimbatore","state":"Tamil Nadu","latitude":11.0168,"longitude":76.9558,"temp":30.7,"humidity":51,"rain":0.1,"pressure":960.5,"uv_index":7.0,"wind_gusts":44.6,"aqi":44,"pm10":12.5,"pm2_5":7.5,"no2":1.6,"co":150.0,"o3":75.0,"so2":1.9,"mosquito_risk":3,"arthritis_risk":5,"migraine_risk":7,"frizz_risk":1,"updated_at":"2026-07-18T15:06:12.798146+05:30"},{"city":"Madurai","state":"Tamil Nadu","latitude":9.9252,"longitude":78.1198,"temp":36.9,"humidity":35,"rain":0.0,"pressure":990.4,"uv_index":7.7,"wind_gusts":30.6,"aqi":67,"pm10":35.7,"pm2_5":14.7,"no2":2.2,"co":161.0,"o3":102.0,"so2":2.4,"mosquito_risk":0,"arthritis_risk":5,"migraine_risk":10,"frizz_risk":1,"updated_at":"2026-07-18T15:06:12.798158+05:30"},{"city":"Trichy","state":"Tamil Nadu","latitude":10.7905,"longitude":78.7047,"temp":36.2,"humidity":35,"rain":0.0,"pressure":996.9,"uv_index":7.25,"wind_gusts":54.7,"aqi":54,"pm10":25.0,"pm2_5":11.8,"no2":1.8,"co":120.0,"o3":85.0,"so2":2.1,"mosquito_risk":0,"arthritis_risk":5,"migraine_risk":10,"frizz_risk":1,"updated_at":"2026-07-18T15:06:12.798168+05:30"},{"city":"Salem","state":"Tamil Nadu","latitude":11.6643,"longitude":78.146,"temp":32.3,"humidity":50,"rain":0.1,"pressure":975.0,"uv_index":6.8,"wind_gusts":34.9,"aqi":67,"pm10":24.8,"pm2_5":12.9,"no2":2.5,"co":142.0,"o3":98.0,"so2":4.9,"mosquito_risk":3,"arthritis_risk":5,"migraine_risk":7,"frizz_risk":1,"updated_at":"2026-07-18T15:06:12.798177+05:30"},{"city":"Tirunelveli","state":"Tamil Nadu","latitude":8.7139,"longitude":77.7567,"temp":35.5,"humidity":39,"rain":0.1,"pressure":1001.3,"uv_index":8.7,"wind_gusts":54.0,"aqi":50,"pm10":11.9,"pm2_5":9.1,"no2":1.4,"co":117.0,"o3":90.0,"so2":1.7,"mosquito_risk":3,"arthritis_risk":5,"migraine_risk":7,"frizz_risk":1,"updated_at":"2026-07-18T15:06:12.798185+05:30"},{"city":"Vellore","state":"Tamil Nadu","latitude":12.9165,"longitude":79.1325,"temp":34.1,"humidity":42,"rain":0.0,"pressure":980.8,"uv_index":7.4,"wind_gusts":41.4,"aqi":50,"pm10":33.4,"pm2_5":14.5,"no2":1.8,"co":121.0,"o3":78.0,"so2":1.8,"mosquito_risk":0,"arthritis_risk":5,"migraine_risk":7,"frizz_risk":1,"updated_at":"2026-07-18T15:06:12.798194+05:30"},{"city":"Erode","state":"Tamil Nadu","latitude":11.341,"longitude":77.7172,"temp":32.3,"humidity":50,"rain":0.1,"pressure":986.6,"uv_index":6.35,"wind_gusts":39.2,"aqi":58,"pm10":21.4,"pm2_5":12.0,"no2":2.2,"co":152.0,"o3":101.0,"so2":2.3,"mosquito_risk":3,"arthritis_risk":5,"migraine_risk":7,"frizz_risk":1,"updated_at":"2026-07-18T15:06:12.798203+05:30"},{"city":"Kochi","state":"Kerala","latitude":9.9312,"longitude":76.2673,"temp":28.7,"humidity":74,"rain":0.0,"pressure":1009.2,"uv_index":7.7,"wind_gusts":42.5,"aqi":59,"pm10":16.5,"pm2_5":9.5,"no2":2.3,"co":111.0,"o3":64.0,"so2":2.6,"mosquito_risk":7,"arthritis_risk":0,"migraine_risk":4,"frizz_risk":1,"updated_at":"2026-07-18T15:06:12.798212+05:30"},{"city":"Thiruvananthapuram","state":"Kerala","latitude":8.5241,"longitude":76.9366,"temp":29.0,"humidity":72,"rain":0.0,"pressure":1008.4,"uv_index":8.5,"wind_gusts":48.2,"aqi":62,"pm10":20.7,"pm2_5":12.7,"no2":1.8,"co":95.0,"o3":79.0,"so2":1.4,"mosquito_risk":7,"arthritis_risk":0,"migraine_risk":4,"frizz_risk":1,"updated_at":"2026-07-18T15:06:12.798220+05:30"},{"city":"Kozhikode","state":"Kerala","latitude":11.2588,"longitude":75.7804,"temp":29.6,"humidity":71,"rain":0.0,"pressure":1007.9,"uv_index":7.65,"wind_gusts":36.0,"aqi":54,"pm10":14.6,"pm2_5":7.6,"no2":0.6,"co":119.0,"o3":60.0,"so2":1.1,"mosquito_risk":7,"arthritis_risk":5,"migraine_risk":4,"frizz_risk":1,"updated_at":"2026-07-18T15:06:12.798229+05:30"},{"city":"Thrissur","state":"Kerala","latitude":10.5276,"longitude":76.2144,"temp":29.7,"humidity":67,"rain":0.0,"pressure":1007.2,"uv_index":7.25,"wind_gusts":38.5,"aqi":59,"pm10":13.6,"pm2_5":8.0,"no2":1.4,"co":102.0,"o3":61.0,"so2":1.7,"mosquito_risk":7,"arthritis_risk":5,"migraine_risk":4,"frizz_risk":1,"updated_at":"2026-07-18T15:06:12.798238+05:30"},{"city":"Kannur","state":"Kerala","latitude":11.8745,"longitude":75.3704,"temp":29.1,"humidity":77,"rain":0.0,"pressure":1007.3,"uv_index":7.65,"wind_gusts":33.1,"aqi":54,"pm10":17.3,"pm2_5":10.0,"no2":1.2,"co":131.0,"o3":69.0,"so2":1.6,"mosquito_risk":7,"arthritis_risk":5,"migraine_risk":4,"frizz_risk":1,"updated_at":"2026-07-18T15:06:12.798246+05:30"},{"city":"Patna","state":"Bihar","latitude":25.5941,"longitude":85.1376,"temp":32.9,"humidity":70,"rain":0.0,"pressure":992.2,"uv_index":6.7,"wind_gusts":26.3,"aqi":90,"pm10":22.9,"pm2_5":22.8,"no2":5.0,"co":309.0,"o3":152.0,"so2":14.1,"mosquito_risk":3,"arthritis_risk":5,"migraine_risk":7,"frizz_risk":1,"updated_at":"2026-07-18T15:06:12.798254+05:30"},{"city":"Gaya","state":"Bihar","latitude":24.7914,"longitude":85.0002,"temp":32.4,"humidity":73,"rain":0.0,"pressure":985.5,"uv_index":5.4,"wind_gusts":22.0,"aqi":107,"pm10":24.0,"pm2_5":23.7,"no2":2.6,"co":308.0,"o3":151.0,"so2":9.3,"mosquito_risk":3,"arthritis_risk":5,"migraine_risk":3,"frizz_risk":1,"updated_at":"2026-07-18T15:06:12.798262+05:30"},{"city":"Muzaffarpur","state":"Bihar","latitude":26.1209,"longitude":85.3647,"temp":30.4,"humidity":86,"rain":0.0,"pressure":992.3,"uv_index":7.35,"wind_gusts":28.4,"aqi":84,"pm10":22.8,"pm2_5":22.6,"no2":5.3,"co":304.0,"o3":137.0,"so2":10.5,"mosquito_risk":3,"arthritis_risk":5,"migraine_risk":7,"frizz_risk":1,"updated_at":"2026-07-18T15:06:12.798272+05:30"},{"city":"Bhagalpur","state":"Bihar","latitude":25.2425,"longitude":87.0117,"temp":31.4,"humidity":76,"rain":0.0,"pressure":993.0,"uv_index":7.85,"wind_gusts":34.9,"aqi":75,"pm10":21.1,"pm2_5":20.4,"no2":6.3,"co":331.0,"o3":142.0,"so2":20.6,"mosquito_risk":3,"arthritis_risk":5,"migraine_risk":7,"frizz_risk":1,"updated_at":"2026-07-18T15:06:12.798316+05:30"},{"city":"Ranchi","state":"Jharkhand","latitude":23.3441,"longitude":85.3096,"temp":27.7,"humidity":82,"rain":0.1,"pressure":931.0,"uv_index":8.7,"wind_gusts":26.6,"aqi":66,"pm10":11.3,"pm2_5":10.9,"no2":2.2,"co":273.0,"o3":127.0,"so2":6.6,"mosquito_risk":10,"arthritis_risk":5,"migraine_risk":7,"frizz_risk":1,"updated_at":"2026-07-18T15:06:12.798327+05:30"},{"city":"Jamshedpur","state":"Jharkhand","latitude":22.8046,"longitude":86.2029,"temp":30.0,"humidity":84,"rain":0.1,"pressure":983.0,"uv_index":8.4,"wind_gusts":21.6,"aqi":89,"pm10":24.0,"pm2_5":22.1,"no2":2.8,"co":419.0,"o3":156.0,"so2":16.8,"mosquito_risk":10,"arthritis_risk":5,"migraine_risk":7,"frizz_risk":1,"updated_at":"2026-07-18T15:06:12.798336+05:30"},{"city":"Dhanbad","state":"Jharkhand","latitude":23.7957,"longitude":86.4304,"temp":28.8,"humidity":87,"rain":0.4,"pressure":972.2,"uv_index":7.6,"wind_gusts":31.0,"aqi":147,"pm10":31.2,"pm2_5":30.2,"no2":18.4,"co":537.0,"o3":131.0,"so2":50.9,"mosquito_risk":10,"arthritis_risk":5,"migraine_risk":7,"frizz_risk":1,"updated_at":"2026-07-18T15:06:12.798362+05:30"},{"city":"Bokaro","state":"Jharkhand","latitude":23.6693,"longitude":86.1511,"temp":27.9,"humidity":89,"rain":0.1,"pressure":976.0,"uv_index":7.7,"wind_gusts":28.8,"aqi":121,"pm10":28.7,"pm2_5":28.1,"no2":27.7,"co":666.0,"o3":110.0,"so2":64.2,"mosquito_risk":10,"arthritis_risk":5,"migraine_risk":7,"frizz_risk":1,"updated_at":"2026-07-18T15:06:12.798372+05:30"},{"city":"Bhubaneswar","state":"Odisha","latitude":20.2961,"longitude":85.8245,"temp":29.7,"humidity":80,"rain":0.1,"pressure":995.1,"uv_index":7.55,"wind_gusts":35.3,"aqi":68,"pm10":17.6,"pm2_5":12.3,"no2":2.5,"co":203.0,"o3":116.0,"so2":4.6,"mosquito_risk":10,"arthritis_risk":5,"migraine_risk":7,"frizz_risk":1,"updated_at":"2026-07-18T15:06:12.798381+05:30"},{"city":"Cuttack","state":"Odisha","latitude":20.4625,"longitude":85.8828,"temp":29.1,"humidity":89,"rain":0.0,"pressure":996.8,"uv_index":8.4,"wind_gusts":35.6,"aqi":68,"pm10":17.6,"pm2_5":12.3,"no2":2.5,"co":254.0,"o3":116.0,"so2":4.6,"mosquito_risk":7,"arthritis_risk":5,"migraine_risk":7,"frizz_risk":1,"updated_at":"2026-07-18T15:06:12.798389+05:30"},{"city":"Rourkela","state":"Odisha","latitude":22.2604,"longitude":84.8536,"temp":28.4,"humidity":87,"rain":0.2,"pressure":977.6,"uv_index":7.45,"wind_gusts":27.4,"aqi":73,"pm10":14.1,"pm2_5":13.4,"no2":2.2,"co":280.0,"o3":145.0,"so2":10.5,"mosquito_risk":10,"arthritis_risk":5,"migraine_risk":7,"frizz_risk":1,"updated_at":"2026-07-18T15:06:12.798397+05:30"},{"city":"Raipur","state":"Chhattisgarh","latitude":21.2514,"longitude":81.6296,"temp":28.5,"humidity":82,"rain":0.1,"pressure":967.9,"uv_index":6.95,"wind_gusts":42.8,"aqi":85,"pm10":33.4,"pm2_5":24.1,"no2":21.4,"co":176.0,"o3":77.0,"so2":31.7,"mosquito_risk":10,"arthritis_risk":5,"migraine_risk":7,"frizz_risk":1,"updated_at":"2026-07-18T15:06:12.798405+05:30"},{"city":"Bhilai","state":"Chhattisgarh","latitude":21.1938,"longitude":81.3509,"temp":27.5,"humidity":88,"rain":0.3,"pressure":968.6,"uv_index":6.2,"wind_gusts":36.0,"aqi":81,"pm10":30.0,"pm2_5":22.7,"no2":18.6,"co":515.0,"o3":84.0,"so2":32.2,"mosquito_risk":10,"arthritis_risk":5,"migraine_risk":7,"frizz_risk":1,"updated_at":"2026-07-18T15:06:12.798414+05:30"},{"city":"Guwahati","state":"Assam","latitude":26.1158,"longitude":91.7086,"temp":28.7,"humidity":97,"rain":0.1,"pressure":995.1,"uv_index":7.15,"wind_gusts":20.2,"aqi":53,"pm10":7.2,"pm2_5":6.5,"no2":1.7,"co":275.0,"o3":94.0,"so2":1.1,"mosquito_risk":10,"arthritis_risk":5,"migraine_risk":7,"frizz_risk":1,"updated_at":"2026-07-18T15:06:12.798422+05:30"},{"city":"Agartala","state":"Tripura","latitude":23.8315,"longitude":91.2868,"temp":31.4,"humidity":69,"rain":0.0,"pressure":1000.3,"uv_index":8.05,"wind_gusts":43.2,"aqi":53,"pm10":11.6,"pm2_5":8.2,"no2":2.3,"co":134.0,"o3":91.0,"so2":1.2,"mosquito_risk":3,"arthritis_risk":5,"migraine_risk":4,"frizz_risk":1,"updated_at":"2026-07-18T15:06:12.798430+05:30"},{"city":"Shillong","state":"Meghalaya","latitude":25.5788,"longitude":91.8933,"temp":23.8,"humidity":79,"rain":0.1,"pressure":854.5,"uv_index":2.9,"wind_gusts":41.4,"aqi":33,"pm10":4.8,"pm2_5":4.1,"no2":1.9,"co":134.0,"o3":84.0,"so2":1.3,"mosquito_risk":6,"arthritis_risk":5,"migraine_risk":3,"frizz_risk":1,"updated_at":"2026-07-18T15:06:12.798439+05:30"},{"city":"Imphal","state":"Manipur","latitude":24.817,"longitude":93.9368,"temp":27.5,"humidity":70,"rain":0.0,"pressure":919.2,"uv_index":4.05,"wind_gusts":28.4,"aqi":60,"pm10":9.1,"pm2_5":6.8,"no2":3.9,"co":150.0,"o3":66.0,"so2":1.3,"mosquito_risk":7,"arthritis_risk":5,"migraine_risk":3,"frizz_risk":1,"updated_at":"2026-07-18T15:06:12.798448+05:30"},{"city":"Aizawl","state":"Mizoram","latitude":23.7271,"longitude":92.7176,"temp":25.4,"humidity":66,"rain":0.0,"pressure":889.5,"uv_index":7.35,"wind_gusts":40.3,"aqi":54,"pm10":10.9,"pm2_5":7.6,"no2":0.8,"co":117.0,"o3":67.0,"so2":0.7,"mosquito_risk":7,"arthritis_risk":5,"migraine_risk":7,"frizz_risk":1,"updated_at":"2026-07-18T15:06:12.798456+05:30"},{"city":"Kohima","state":"Nagaland","latitude":25.6701,"longitude":94.1077,"temp":22.5,"humidity":92,"rain":0.1,"pressure":852.5,"uv_index":2.55,"wind_gusts":24.8,"aqi":42,"pm10":7.0,"pm2_5":4.7,"no2":2.0,"co":142.0,"o3":70.0,"so2":0.9,"mosquito_risk":6,"arthritis_risk":5,"migraine_risk":3,"frizz_risk":1,"updated_at":"2026-07-18T15:06:12.798464+05:30"},{"city":"Gangtok","state":"Sikkim","latitude":27.3314,"longitude":88.6138,"temp":22.3,"humidity":86,"rain":0.1,"pressure":835.4,"uv_index":2.6,"wind_gusts":24.8,"aqi":40,"pm10":2.0,"pm2_5":1.9,"no2":2.8,"co":220.0,"o3":87.0,"so2":1.5,"mosquito_risk":6,"arthritis_risk":5,"migraine_risk":3,"frizz_risk":1,"updated_at":"2026-07-18T15:06:12.798473+05:30"},{"city":"Siliguri","state":"West Bengal","latitude":26.7271,"longitude":88.3953,"temp":27.4,"humidity":91,"rain":0.1,"pressure":986.8,"uv_index":6.2,"wind_gusts":31.0,"aqi":67,"pm10":8.5,"pm2_5":8.1,"no2":5.7,"co":338.0,"o3":93.0,"so2":3.1,"mosquito_risk":10,"arthritis_risk":5,"migraine_risk":7,"frizz_risk":1,"updated_at":"2026-07-18T15:06:16.194582+05:30"},{"city":"Durgapur","state":"West Bengal","latitude":23.5204,"longitude":87.3119,"temp":30.2,"humidity":86,"rain":0.1,"pressure":987.0,"uv_index":7.85,"wind_gusts":28.4,"aqi":104,"pm10":27.8,"pm2_5":26.5,"no2":10.1,"co":277.0,"o3":144.0,"so2":34.7,"mosquito_risk":6,"arthritis_risk":5,"migraine_risk":7,"frizz_risk":1,"updated_at":"2026-07-18T15:06:16.194616+05:30"},{"city":"Asansol","state":"West Bengal","latitude":23.6739,"longitude":86.9524,"temp":29.7,"humidity":86,"rain":0.1,"pressure":985.7,"uv_index":8.3,"wind_gusts":29.2,"aqi":111,"pm10":30.6,"pm2_5":29.3,"no2":10.7,"co":618.0,"o3":146.0,"so2":38.0,"mosquito_risk":10,"arthritis_risk":5,"migraine_risk":7,"frizz_risk":1,"updated_at":"2026-07-18T15:06:16.194629+05:30"},{"city":"Pondicherry","state":"Puducherry","latitude":11.9139,"longitude":79.8145,"temp":31.1,"humidity":73,"rain":0.0,"pressure":1005.5,"uv_index":5.9,"wind_gusts":33.5,"aqi":70,"pm10":35.2,"pm2_5":24.0,"no2":6.2,"co":172.0,"o3":116.0,"so2":12.2,"mosquito_risk":3,"arthritis_risk":5,"migraine_risk":0,"frizz_risk":1,"updated_at":"2026-07-18T15:06:16.194640+05:30"},{"city":"Port Blair","state":"Andaman and Nicobar Islands","latitude":11.6234,"longitude":92.7265,"temp":30.0,"humidity":68,"rain":0.1,"pressure":1006.2,"uv_index":8.45,"wind_gusts":38.2,"aqi":43,"pm10":21.8,"pm2_5":10.5,"no2":0.2,"co":96.0,"o3":47.0,"so2":0.5,"mosquito_risk":10,"arthritis_risk":5,"migraine_risk":4,"frizz_risk":1,"updated_at":"2026-07-18T15:06:16.194649+05:30"},{"city":"Haridwar","state":"Uttarakhand","latitude":29.9457,"longitude":78.1642,"temp":31.7,"humidity":76,"rain":0.0,"pressure":966.3,"uv_index":7.45,"wind_gusts":28.4,"aqi":168,"pm10":255.2,"pm2_5":92.2,"no2":3.1,"co":378.0,"o3":195.0,"so2":13.8,"mosquito_risk":3,"arthritis_risk":5,"migraine_risk":7,"frizz_risk":1,"updated_at":"2026-07-18T15:06:16.194659+05:30"},{"city":"Rishikesh","state":"Uttarakhand","latitude":30.0869,"longitude":78.2676,"temp":30.9,"humidity":79,"rain":0.2,"pressure":959.2,"uv_index":7.0,"wind_gusts":28.1,"aqi":156,"pm10":199.8,"pm2_5":68.7,"no2":1.6,"co":331.0,"o3":161.0,"so2":11.9,"mosquito_risk":6,"arthritis_risk":5,"migraine_risk":7,"frizz_risk":1,"updated_at":"2026-07-18T15:06:16.194668+05:30"},{"city":"Nainital","state":"Uttarakhand","latitude":29.3919,"longitude":79.4542,"temp":19.5,"humidity":95,"rain":0.2,"pressure":802.5,"uv_index":6.05,"wind_gusts":26.3,"aqi":99,"pm10":47.5,"pm2_5":19.7,"no2":3.2,"co":268.0,"o3":139.0,"so2":6.7,"mosquito_risk":6,"arthritis_risk":10,"migraine_risk":7,"frizz_risk":1,"updated_at":"2026-07-18T15:06:16.194677+05:30"},{"city":"Mussoorie","state":"Uttarakhand","latitude":30.4599,"longitude":78.0664,"temp":20.2,"humidity":97,"rain":0.2,"pressure":800.4,"uv_index":6.2,"wind_gusts":33.8,"aqi":150,"pm10":106.4,"pm2_5":49.2,"no2":3.9,"co":265.0,"o3":146.0,"so2":7.1,"mosquito_risk":6,"arthritis_risk":5,"migraine_risk":7,"frizz_risk":1,"updated_at":"2026-07-18T15:06:16.194686+05:30"},{"city":"Dharamshala","state":"Himachal Pradesh","latitude":32.219,"longitude":76.3234,"temp":24.5,"humidity":92,"rain":0.2,"pressure":865.2,"uv_index":8.4,"wind_gusts":27.4,"aqi":70,"pm10":40.5,"pm2_5":19.2,"no2":0.8,"co":256.0,"o3":128.0,"so2":3.1,"mosquito_risk":6,"arthritis_risk":5,"migraine_risk":7,"frizz_risk":1,"updated_at":"2026-07-18T15:06:16.194695+05:30"},{"city":"Dalhousie","state":"Himachal Pradesh","latitude":32.5387,"longitude":75.971,"temp":22.5,"humidity":83,"rain":0.1,"pressure":803.2,"uv_index":8.6,"wind_gusts":21.6,"aqi":108,"pm10":102.0,"pm2_5":48.0,"no2":2.0,"co":231.0,"o3":139.0,"so2":5.7,"mosquito_risk":6,"arthritis_risk":5,"migraine_risk":7,"frizz_risk":1,"updated_at":"2026-07-18T15:06:16.194705+05:30"},{"city":"Patiala","state":"Punjab","latitude":30.3398,"longitude":76.3869,"temp":36.2,"humidity":50,"rain":0.0,"pressure":970.0,"uv_index":6.7,"wind_gusts":23.4,"aqi":183,"pm10":555.1,"pm2_5":112.0,"no2":2.5,"co":280.0,"o3":158.0,"so2":8.0,"mosquito_risk":0,"arthritis_risk":5,"migraine_risk":10,"frizz_risk":1,"updated_at":"2026-07-18T15:06:16.194714+05:30"},{"city":"Bhatinda","state":"Punjab","latitude":30.211,"longitude":74.9455,"temp":39.6,"humidity":34,"rain":0.0,"pressure":975.1,"uv_index":8.25,"wind_gusts":32.4,"aqi":172,"pm10":184.9,"pm2_5":60.8,"no2":2.4,"co":139.0,"o3":124.0,"so2":6.4,"mosquito_risk":0,"arthritis_risk":5,"migraine_risk":10,"frizz_risk":1,"updated_at":"2026-07-18T15:06:16.194723+05:30"},{"city":"Rohtak","state":"Haryana","latitude":28.8955,"longitude":76.6066,"temp":36.7,"humidity":44,"rain":0.0,"pressure":973.7,"uv_index":7.65,"wind_gusts":34.2,"aqi":820,"pm10":1806.8,"pm2_5":238.4,"no2":3.1,"co":168.0,"o3":100.0,"so2":4.6,"mosquito_risk":0,"arthritis_risk":5,"migraine_risk":10,"frizz_risk":1,"updated_at":"2026-07-18T15:06:16.194731+05:30"},{"city":"Panipat","state":"Haryana","latitude":29.3909,"longitude":76.9635,"temp":35.4,"humidity":53,"rain":0.0,"pressure":972.1,"uv_index":5.5,"wind_gusts":28.1,"aqi":1206,"pm10":2421.4,"pm2_5":457.3,"no2":6.2,"co":161.0,"o3":90.0,"so2":11.6,"mosquito_risk":0,"arthritis_risk":5,"migraine_risk":6,"frizz_risk":1,"updated_at":"2026-07-18T15:06:16.194740+05:30"},{"city":"Mathura","state":"Uttar Pradesh","latitude":27.4924,"longitude":77.6737,"temp":36.2,"humidity":45,"rain":0.0,"pressure":979.0,"uv_index":7.9,"wind_gusts":32.0,"aqi":557,"pm10":754.4,"pm2_5":122.9,"no2":2.4,"co":150.0,"o3":111.0,"so2":3.1,"mosquito_risk":0,"arthritis_risk":5,"migraine_risk":10,"frizz_risk":1,"updated_at":"2026-07-18T15:06:16.194748+05:30"},{"city":"Vrindavan","state":"Uttar Pradesh","latitude":27.5823,"longitude":77.7027,"temp":36.0,"humidity":47,"rain":0.0,"pressure":979.4,"uv_index":7.55,"wind_gusts":31.3,"aqi":557,"pm10":754.4,"pm2_5":122.9,"no2":2.4,"co":150.0,"o3":111.0,"so2":3.1,"mosquito_risk":0,"arthritis_risk":5,"migraine_risk":10,"frizz_risk":1,"updated_at":"2026-07-18T15:06:16.194756+05:30"},{"city":"Ayodhya","state":"Uttar Pradesh","latitude":26.7922,"longitude":82.1998,"temp":32.7,"humidity":67,"rain":0.0,"pressure":987.6,"uv_index":6.85,"wind_gusts":19.4,"aqi":93,"pm10":21.9,"pm2_5":20.7,"no2":1.9,"co":364.0,"o3":155.0,"so2":3.9,"mosquito_risk":3,"arthritis_risk":5,"migraine_risk":7,"frizz_risk":1,"updated_at":"2026-07-18T15:06:16.194765+05:30"},{"city":"Ratlam","state":"Madhya Pradesh","latitude":23.3315,"longitude":75.0367,"temp":32.0,"humidity":56,"rain":0.0,"pressure":949.8,"uv_index":7.4,"wind_gusts":34.2,"aqi":71,"pm10":46.7,"pm2_5":23.1,"no2":1.1,"co":118.0,"o3":99.0,"so2":4.2,"mosquito_risk":0,"arthritis_risk":5,"migraine_risk":7,"frizz_risk":1,"updated_at":"2026-07-18T15:06:16.194773+05:30"},{"city":"Sagar","state":"Madhya Pradesh","latitude":23.8388,"longitude":78.7378,"temp":31.5,"humidity":59,"rain":0.0,"pressure":944.6,"uv_index":7.25,"wind_gusts":37.8,"aqi":91,"pm10":83.8,"pm2_5":32.8,"no2":1.1,"co":148.0,"o3":113.0,"so2":4.6,"mosquito_risk":0,"arthritis_risk":5,"migraine_risk":7,"frizz_risk":1,"updated_at":"2026-07-18T15:06:16.194781+05:30"},{"city":"Satna","state":"Madhya Pradesh","latitude":24.6005,"longitude":80.8322,"temp":28.2,"humidity":83,"rain":0.4,"pressure":964.6,"uv_index":8.15,"wind_gusts":40.3,"aqi":109,"pm10":169.0,"pm2_5":54.1,"no2":1.1,"co":151.0,"o3":121.0,"so2":4.1,"mosquito_risk":10,"arthritis_risk":5,"migraine_risk":7,"frizz_risk":1,"updated_at":"2026-07-18T15:06:16.194789+05:30"},{"city":"Akola","state":"Maharashtra","latitude":20.7002,"longitude":77.0082,"temp":29.9,"humidity":62,"rain":0.0,"pressure":971.1,"uv_index":5.55,"wind_gusts":33.8,"aqi":58,"pm10":25.4,"pm2_5":13.2,"no2":4.2,"co":124.0,"o3":61.0,"so2":9.3,"mosquito_risk":7,"arthritis_risk":5,"migraine_risk":3,"frizz_risk":1,"updated_at":"2026-07-18T15:06:16.194798+05:30"},{"city":"Amravati","state":"Maharashtra","latitude":20.9374,"longitude":77.7796,"temp":26.4,"humidity":94,"rain":0.3,"pressure":962.9,"uv_index":2.3,"wind_gusts":39.6,"aqi":60,"pm10":24.9,"pm2_5":13.4,"no2":5.1,"co":121.0,"o3":59.0,"so2":10.2,"mosquito_risk":10,"arthritis_risk":5,"migraine_risk":3,"frizz_risk":1,"updated_at":"2026-07-18T15:06:16.194807+05:30"},{"city":"Latur","state":"Maharashtra","latitude":18.4088,"longitude":76.5604,"temp":27.0,"humidity":74,"rain":0.1,"pressure":936.8,"uv_index":2.2,"wind_gusts":34.9,"aqi":52,"pm10":21.9,"pm2_5":10.0,"no2":1.1,"co":130.0,"o3":67.0,"so2":2.2,"mosquito_risk":10,"arthritis_risk":5,"migraine_risk":3,"frizz_risk":1,"updated_at":"2026-07-18T15:06:16.194816+05:30"},{"city":"Nanded","state":"Maharashtra","latitude":19.1383,"longitude":77.3091,"temp":27.5,"humidity":82,"rain":0.2,"pressure":964.8,"uv_index":1.65,"wind_gusts":38.9,"aqi":62,"pm10":23.5,"pm2_5":11.0,"no2":1.9,"co":134.0,"o3":63.0,"so2":3.0,"mosquito_risk":10,"arthritis_risk":5,"migraine_risk":3,"frizz_risk":1,"updated_at":"2026-07-18T15:06:16.194824+05:30"},{"city":"Gulbarga","state":"Karnataka","latitude":17.3297,"longitude":76.8343,"temp":26.7,"humidity":81,"rain":0.2,"pressure":956.0,"uv_index":2.35,"wind_gusts":38.2,"aqi":50,"pm10":33.2,"pm2_5":13.0,"no2":1.7,"co":124.0,"o3":76.0,"so2":2.2,"mosquito_risk":10,"arthritis_risk":5,"migraine_risk":3,"frizz_risk":1,"updated_at":"2026-07-18T15:06:16.194833+05:30"},{"city":"Bidar","state":"Karnataka","latitude":17.9104,"longitude":77.5199,"temp":24.2,"humidity":91,"rain":0.4,"pressure":932.3,"uv_index":2.3,"wind_gusts":36.4,"aqi":59,"pm10":30.7,"pm2_5":14.7,"no2":1.8,"co":130.0,"o3":77.0,"so2":3.8,"mosquito_risk":6,"arthritis_risk":5,"migraine_risk":3,"frizz_risk":1,"updated_at":"2026-07-18T15:06:16.194841+05:30"},{"city":"Hospet","state":"Karnataka","latitude":15.2689,"longitude":76.3909,"temp":29.1,"humidity":60,"rain":0.2,"pressure":953.7,"uv_index":4.95,"wind_gusts":49.3,"aqi":25,"pm10":26.2,"pm2_5":9.5,"no2":1.7,"co":113.0,"o3":66.0,"so2":1.7,"mosquito_risk":7,"arthritis_risk":5,"migraine_risk":3,"frizz_risk":1,"updated_at":"2026-07-18T15:06:16.194849+05:30"},{"city":"Tirupur","state":"Tamil Nadu","latitude":11.1085,"longitude":77.3411,"temp":32.1,"humidity":51,"rain":0.1,"pressure":973.5,"uv_index":6.75,"wind_gusts":50.8,"aqi":60,"pm10":18.9,"pm2_5":11.2,"no2":2.2,"co":140.0,"o3":96.0,"so2":2.7,"mosquito_risk":3,"arthritis_risk":5,"migraine_risk":7,"frizz_risk":1,"updated_at":"2026-07-18T15:06:16.194857+05:30"},{"city":"Alappuzha","state":"Kerala","latitude":9.4981,"longitude":76.3388,"temp":28.2,"humidity":76,"rain":0.1,"pressure":1009.5,"uv_index":7.9,"wind_gusts":41.0,"aqi":59,"pm10":19.6,"pm2_5":11.5,"no2":2.4,"co":87.0,"o3":70.0,"so2":2.5,"mosquito_risk":10,"arthritis_risk":0,"migraine_risk":4,"frizz_risk":1,"updated_at":"2026-07-18T15:06:16.194865+05:30"},{"city":"Munnar","state":"Kerala","latitude":10.0889,"longitude":77.0595,"temp":19.3,"humidity":84,"rain":0.1,"pressure":857.3,"uv_index":7.4,"wind_gusts":42.5,"aqi":34,"pm10":9.8,"pm2_5":5.2,"no2":1.0,"co":98.0,"o3":66.0,"so2":1.3,"mosquito_risk":6,"arthritis_risk":10,"migraine_risk":7,"frizz_risk":1,"updated_at":"2026-07-18T15:06:16.194873+05:30"},{"city":"Silchar","state":"Assam","latitude":24.8333,"longitude":92.7789,"temp":31.7,"humidity":68,"rain":0.1,"pressure":999.1,"uv_index":8.55,"wind_gusts":32.0,"aqi":70,"pm10":15.5,"pm2_5":11.5,"no2":2.0,"co":141.0,"o3":77.0,"so2":2.4,"mosquito_risk":6,"arthritis_risk":5,"migraine_risk":7,"frizz_risk":1,"updated_at":"2026-07-18T15:06:16.194883+05:30"},{"city":"Dibrugarh","state":"Assam","latitude":27.4728,"longitude":94.912,"temp":26.7,"humidity":97,"rain":0.2,"pressure":988.8,"uv_index":1.8,"wind_gusts":33.8,"aqi":63,"pm10":15.3,"pm2_5":13.4,"no2":7.4,"co":189.0,"o3":59.0,"so2":1.5,"mosquito_risk":10,"arthritis_risk":5,"migraine_risk":3,"frizz_risk":1,"updated_at":"2026-07-18T15:06:16.194891+05:30"}]