[{"city":"Delhi","state":"Delhi","latitude":28.6139,"longitude":77.209,"temp":31.2,"humidity":27,"rain":0.0,"pressure":983.9,"uv_index":6.0,"wind_gusts":29.2,"aqi":371,"pm10":330.6,"pm2_5":60.3,"mosquito_risk":0,"arthritis_risk":5,"migraine_risk":3,"frizz_risk":0,"updated_at":"2026-03-13T15:13:08.235852+05:30"},{"city":"Mumbai","state":"Maharashtra","latitude":19.076,"longitude":72.8777,"temp":29.0,"humidity":74,"rain":0.0,"pressure":1006.5,"uv_index":7.65,"wind_gusts":23.8,"aqi":151,"pm10":60.8,"pm2_5":57.5,"mosquito_risk":7,"arthritis_risk":5,"migraine_risk":4,"frizz_risk":1,"updated_at":"2026-03-13T15:13:08.235893+05:30"},{"city":"Bangalore","state":"Karnataka","latitude":12.9716,"longitude":77.5946,"temp":32.6,"humidity":24,"rain":0.0,"pressure":911.3,"uv_index":9.3,"wind_gusts":28.8,"aqi":84,"pm10":42.1,"pm2_5":32.8,"mosquito_risk":0,"arthritis_risk":5,"migraine_risk":7,"frizz_risk":0,"updated_at":"2026-03-13T15:13:08.235909+05:30"},{"city":"Hyderabad","state":"Telangana","latitude":17.385,"longitude":78.4867,"temp":37.3,"humidity":15,"rain":0.0,"pressure":952.5,"uv_index":8.65,"wind_gusts":19.1,"aqi":102,"pm10":48.1,"pm2_5":32.8,"mosquito_risk":0,"arthritis_risk":5,"migraine_risk":10,"frizz_risk":0,"updated_at":"2026-03-13T15:13:08.235918+05:30"},{"city":"Chennai","state":"Tamil Nadu","latitude":13.0827,"longitude":80.2707,"temp":32.9,"humidity":49,"rain":0.0,"pressure":1006.9,"uv_index":9.05,"wind_gusts":32.4,"aqi":67,"pm10":18.6,"pm2_5":13.9,"mosquito_risk":0,"arthritis_risk":5,"migraine_risk":4,"frizz_risk":1,"updated_at":"2026-03-13T15:13:08.235926+05:30"},{"city":"Kolkata","state":"West Bengal","latitude":22.5726,"longitude":88.3639,"temp":33.8,"humidity":48,"rain":0.0,"pressure":1004.2,"uv_index":8.0,"wind_gusts":29.2,"aqi":138,"pm10":60.8,"pm2_5":40.6,"mosquito_risk":0,"arthritis_risk":5,"migraine_risk":4,"frizz_risk":1,"updated_at":"2026-03-13T15:13:08.235933+05:30"},{"city":"Pune","state":"Maharashtra","latitude":18.5204,"longitude":73.8567,"temp":38.2,"humidity":15,"rain":0.0,"pressure":947.3,"uv_index":8.2,"wind_gusts":37.8,"aqi":147,"pm10":24.6,"pm2_5":20.5,"mosquito_risk":0,"arthritis_risk":5,"migraine_risk":10,"frizz_risk":0,"updated_at":"2026-03-13T15:13:08.235945+05:30"},{"city":"Ahmedabad","state":"Gujarat","latitude":23.0225,"longitude":72.5714,"temp":38.8,"humidity":17,"rain":0.0,"pressure":1000.9,"uv_index":7.5,"wind_gusts":22.3,"aqi":96,"pm10":54.2,"pm2_5":24.8,"mosquito_risk":0,"arthritis_risk":5,"migraine_risk":7,"frizz_risk":0,"updated_at":"2026-03-13T15:13:08.235951+05:30"},{"city":"Jaipur","state":"Rajasthan","latitude":26.9124,"longitude":75.7873,"temp":35.7,"humidity":20,"rain":0.0,"pressure":959.9,"uv_index":6.95,"wind_gusts":27.0,"aqi":113,"pm10":120.1,"pm2_5":31.3,"mosquito_risk":0,"arthritis_risk":5,"migraine_risk":10,"frizz_risk":0,"updated_at":"2026-03-13T15:13:08.235958+05:30"},{"city":"Lucknow","state":"Uttar Pradesh","latitude":26.8467,"longitude":80.9462,"temp":34.8,"humidity":27,"rain":0.0,"pressure":992.7,"uv_index":5.95,"wind_gusts":28.4,"aqi":173,"pm10":132.2,"pm2_5":48.0,"mosquito_risk":0,"arthritis_risk":5,"migraine_risk":3,"frizz_risk":0,"updated_at":"2026-03-13T15:13:08.235964+05:30"},{"city":"Kanpur","state":"Uttar Pradesh","latitude":26.4499,"longitude":80.3319,"temp":34.1,"humidity":33,"rain":0.0,"pressure":991.4,"uv_index":6.35,"wind_gusts":18.7,"aqi":288,"pm10":255.2,"pm2_5":56.5,"mosquito_risk":0,"arthritis_risk":5,"migraine_risk":7,"frizz_risk":0,"updated_at":"2026-03-13T15:13:08.235971+05:30"},{"city":"Chandigarh","state":"Chandigarh","latitude":30.7333,"longitude":76.7794,"temp":29.3,"humidity":39,"rain":0.0,"pressure":969.5,"uv_index":5.15,"wind_gusts":29.5,"aqi":84,"pm10":41.6,"pm2_5":23.2,"mosquito_risk":4,"arthritis_risk":5,"migraine_risk":3,"frizz_risk":0,"updated_at":"2026-03-13T15:13:08.235977+05:30"},{"city":"Srinagar","state":"Jammu and Kashmir","latitude":34.0837,"longitude":74.7973,"temp":16.3,"humidity":47,"rain":0.0,"pressure":843.9,"uv_index":6.85,"wind_gusts":14.4,"aqi":70,"pm10":22.5,"pm2_5":11.1,"mosquito_risk":0,"arthritis_risk":5,"migraine_risk":7,"frizz_risk":0,"updated_at":"2026-03-13T15:13:08.235984+05:30"},{"city":"Jammu","state":"Jammu and Kashmir","latitude":32.7266,"longitude":74.857,"temp":30.4,"humidity":29,"rain":0.0,"pressure":974.0,"uv_index":6.45,"wind_gusts":24.8,"aqi":79,"pm10":20.0,"pm2_5":8.9,"mosquito_risk":0,"arthritis_risk":5,"migraine_risk":7,"frizz_risk":0,"updated_at":"2026-03-13T15:13:08.235990+05:30"},{"city":"Amritsar","state":"Punjab","latitude":31.634,"longitude":74.8723,"temp":28.5,"humidity":39,"rain":0.0,"pressure":982.7,"uv_index":6.05,"wind_gusts":25.6,"aqi":100,"pm10":23.7,"pm2_5":11.7,"mosquito_risk":4,"arthritis_risk":5,"migraine_risk":7,"frizz_risk":0,"updated_at":"2026-03-13T15:13:08.235996+05:30"},{"city":"Ludhiana","state":"Punjab","latitude":30.901,"longitude":75.8573,"temp":29.0,"humidity":38,"rain":0.0,"pressure":980.1,"uv_index":5.75,"wind_gusts":27.7,"aqi":112,"pm10":41.6,"pm2_5":24.7,"mosquito_risk":4,"arthritis_risk":5,"migraine_risk":3,"frizz_risk":0,"updated_at":"2026-03-13T15:13:08.236002+05:30"},{"city":"Jalandhar","state":"Punjab","latitude":31.326,"longitude":75.5762,"temp":28.6,"humidity":38,"rain":0.0,"pressure":981.3,"uv_index":5.65,"wind_gusts":25.6,"aqi":113,"pm10":60.1,"pm2_5":19.9,"mosquito_risk":4,"arthritis_risk":5,"migraine_risk":3,"frizz_risk":0,"updated_at":"2026-03-13T15:13:08.236010+05:30"},{"city":"Dehradun","state":"Uttarakhand","latitude":30.6284,"longitude":78.0322,"temp":21.3,"humidity":39,"rain":0.0,"pressure":831.7,"uv_index":6.0,"wind_gusts":28.8,"aqi":42,"pm10":34.5,"pm2_5":11.3,"mosquito_risk":0,"arthritis_risk":5,"migraine_risk":3,"frizz_risk":0,"updated_at":"2026-03-13T15:13:08.236016+05:30"},{"city":"Shimla","state":"Himachal Pradesh","latitude":31.1048,"longitude":77.1734,"temp":18.5,"humidity":45,"rain":0.0,"pressure":786.7,"uv_index":5.2,"wind_gusts":39.2,"aqi":55,"pm10":29.0,"pm2_5":9.5,"mosquito_risk":0,"arthritis_risk":5,"migraine_risk":3,"frizz_risk":0,"updated_at":"2026-03-13T15:13:08.236022+05:30"},{"city":"Manali","state":"Himachal Pradesh","latitude":32.2396,"longitude":77.1887,"temp":19.5,"humidity":19,"rain":0.0,"pressure":821.2,"uv_index":8.15,"wind_gusts":38.5,"aqi":50,"pm10":23.2,"pm2_5":6.6,"mosquito_risk":0,"arthritis_risk":5,"migraine_risk":7,"frizz_risk":1,"updated_at":"2026-03-13T15:13:08.236029+05:30"},{"city":"Gurgaon","state":"Haryana","latitude":28.4595,"longitude":77.0266,"temp":31.5,"humidity":26,"rain":0.0,"pressure":982.4,"uv_index":6.1,"wind_gusts":28.1,"aqi":1144,"pm10":1095.2,"pm2_5":123.4,"mosquito_risk":0,"arthritis_risk":5,"migraine_risk":7,"frizz_risk":0,"updated_at":"2026-03-13T15:13:08.236035+05:30"},{"city":"Noida","state":"Uttar Pradesh","latitude":28.5355,"longitude":77.391,"temp":31.9,"humidity":25,"rain":0.0,"pressure":985.3,"uv_index":5.95,"wind_gusts":28.8,"aqi":1144,"pm10":1095.2,"pm2_5":123.4,"mosquito_risk":0,"arthritis_risk":5,"migraine_risk":3,"frizz_risk":0,"updated_at":"2026-03-13T15:13:08.236042+05:30"},{"city":"Ghaziabad","state":"Uttar Pradesh","latitude":28.6692,"longitude":77.4538,"temp":30.6,"humidity":29,"rain":0.0,"pressure":983.5,"uv_index":5.85,"wind_gusts":27.7,"aqi":208,"pm10":186.3,"pm2_5":45.4,"mosquito_risk":0,"arthritis_risk":5,"migraine_risk":3,"frizz_risk":0,"updated_at":"2026-03-13T15:13:08.236048+05:30"},{"city":"Faridabad","state":"Haryana","latitude":28.4089,"longitude":77.3178,"temp":31.8,"humidity":25,"rain":0.0,"pressure":984.7,"uv_index":6.0,"wind_gusts":27.7,"aqi":1144,"pm10":1095.2,"pm2_5":123.4,"mosquito_risk":0,"arthritis_risk":5,"migraine_risk":3,"frizz_risk":0,"updated_at":"2026-03-13T15:13:08.236055+05:30"},{"city":"Meerut","state":"Uttar Pradesh","latitude":28.9845,"longitude":77.7064,"temp":30.2,"humidity":33,"rain":0.0,"pressure":982.1,"uv_index":5.3,"wind_gusts":27.7,"aqi":208,"pm10":186.3,"pm2_5":45.4,"mosquito_risk":0,"arthritis_risk":5,"migraine_risk":3,"frizz_risk":0,"updated_at":"2026-03-13T15:13:08.236061+05:30"},{"city":"Agra","state":"Uttar Pradesh","latitude":27.1767,"longitude":78.0081,"temp":35.8,"humidity":27,"rain":0.0,"pressure":987.7,"uv_index":6.2,"wind_gusts":24.8,"aqi":561,"pm10":627.7,"pm2_5":88.2,"mosquito_risk":0,"arthritis_risk":5,"migraine_risk":10,"frizz_risk":0,"updated_at":"2026-03-13T15:13:08.236068+05:30"},{"city":"Varanasi","state":"Uttar Pradesh","latitude":25.3176,"longitude":82.9739,"temp":35.2,"humidity":26,"rain":0.0,"pressure":996.5,"uv_index":7.35,"wind_gusts":25.2,"aqi":138,"pm10":214.2,"pm2_5":44.7,"mosquito_risk":0,"arthritis_risk":5,"migraine_risk":10,"frizz_risk":0,"updated_at":"2026-03-13T15:13:08.236077+05:30"},{"city":"Prayagraj","state":"Uttar Pradesh","latitude":25.4358,"longitude":81.8463,"temp":35.2,"humidity":27,"rain":0.0,"pressure":995.1,"uv_index":7.05,"wind_gusts":21.6,"aqi":153,"pm10":226.3,"pm2_5":51.3,"mosquito_risk":0,"arthritis_risk":5,"migraine_risk":10,"frizz_risk":0,"updated_at":"2026-03-13T15:13:08.236084+05:30"},{"city":"Gorakhpur","state":"Uttar Pradesh","latitude":26.7606,"longitude":83.3732,"temp":32.9,"humidity":42,"rain":0.0,"pressure":995.3,"uv_index":7.0,"wind_gusts":28.4,"aqi":180,"pm10":189.1,"pm2_5":92.0,"mosquito_risk":0,"arthritis_risk":5,"migraine_risk":7,"frizz_risk":1,"updated_at":"2026-03-13T15:13:08.236090+05:30"},{"city":"Bareilly","state":"Uttar Pradesh","latitude":28.367,"longitude":79.4304,"temp":32.3,"humidity":32,"rain":0.0,"pressure":986.4,"uv_index":6.4,"wind_gusts":26.6,"aqi":154,"pm10":65.9,"pm2_5":39.5,"mosquito_risk":0,"arthritis_risk":5,"migraine_risk":7,"frizz_risk":0,"updated_at":"2026-03-13T15:13:08.236096+05:30"},{"city":"Aligarh","state":"Uttar Pradesh","latitude":27.8974,"longitude":78.088,"temp":33.9,"humidity":23,"rain":0.0,"pressure":985.8,"uv_index":6.0,"wind_gusts":28.8,"aqi":647,"pm10":640.7,"pm2_5":92.2,"mosquito_risk":0,"arthritis_risk":5,"migraine_risk":3,"frizz_risk":0,"updated_at":"2026-03-13T15:13:08.236102+05:30"},{"city":"Moradabad","state":"Uttar Pradesh","latitude":28.8386,"longitude":78.7733,"temp":31.4,"humidity":30,"rain":0.0,"pressure":983.7,"uv_index":5.65,"wind_gusts":27.4,"aqi":152,"pm10":61.2,"pm2_5":34.5,"mosquito_risk":0,"arthritis_risk":5,"migraine_risk":3,"frizz_risk":0,"updated_at":"2026-03-13T15:13:08.236110+05:30"},{"city":"Saharanpur","state":"Uttar Pradesh","latitude":29.9637,"longitude":77.546,"temp":29.8,"humidity":42,"rain":0.0,"pressure":976.1,"uv_index":4.85,"wind_gusts":27.4,"aqi":139,"pm10":63.1,"pm2_5":27.8,"mosquito_risk":4,"arthritis_risk":5,"migraine_risk":3,"frizz_risk":0,"updated_at":"2026-03-13T15:13:08.236116+05:30"},{"city":"Jhansi","state":"Uttar Pradesh","latitude":25.4484,"longitude":78.5685,"temp":36.5,"humidity":19,"rain":0.0,"pressure":977.7,"uv_index":6.85,"wind_gusts":20.9,"aqi":68,"pm10":127.6,"pm2_5":35.2,"mosquito_risk":0,"arthritis_risk":5,"migraine_risk":10,"frizz_risk":0,"updated_at":"2026-03-13T15:13:11.490012+05:30"},{"city":"Surat","state":"Gujarat","latitude":21.1702,"longitude":72.8311,"temp":34.8,"humidity":34,"rain":0.0,"pressure":1005.8,"uv_index":7.35,"wind_gusts":23.8,"aqi":147,"pm10":53.6,"pm2_5":46.2,"mosquito_risk":0,"arthritis_risk":5,"migraine_risk":4,"frizz_risk":1,"updated_at":"2026-03-13T15:13:11.490039+05:30"},{"city":"Vadodara","state":"Gujarat","latitude":22.3072,"longitude":73.1812,"temp":39.4,"humidity":15,"rain":0.0,"pressure":1003.2,"uv_index":7.5,"wind_gusts":23.8,"aqi":107,"pm10":26.6,"pm2_5":17.4,"mosquito_risk":0,"arthritis_risk":5,"migraine_risk":7,"frizz_risk":0,"updated_at":"2026-03-13T15:13:11.490048+05:30"},{"city":"Rajkot","state":"Gujarat","latitude":22.3039,"longitude":70.8022,"temp":37.7,"humidity":16,"rain":0.0,"pressure":993.4,"uv_index":7.3,"wind_gusts":33.1,"aqi":86,"pm10":39.8,"pm2_5":16.3,"mosquito_risk":0,"arthritis_risk":5,"migraine_risk":10,"frizz_risk":0,"updated_at":"2026-03-13T15:13:11.490057+05:30"},{"city":"Thane","state":"Maharashtra","latitude":19.2183,"longitude":72.9781,"temp":33.1,"humidity":48,"rain":0.0,"pressure":1006.3,"uv_index":7.65,"wind_gusts":38.2,"aqi":151,"pm10":60.8,"pm2_5":57.5,"mosquito_risk":0,"arthritis_risk":5,"migraine_risk":4,"frizz_risk":1,"updated_at":"2026-03-13T15:13:11.490064+05:30"},{"city":"Nagpur","state":"Maharashtra","latitude":21.1458,"longitude":79.0882,"temp":38.2,"humidity":15,"rain":0.0,"pressure":972.0,"uv_index":8.05,"wind_gusts":19.4,"aqi":89,"pm10":26.9,"pm2_5":19.6,"mosquito_risk":0,"arthritis_risk":5,"migraine_risk":10,"frizz_risk":0,"updated_at":"2026-03-13T15:13:11.490072+05:30"},{"city":"Nashik","state":"Maharashtra","latitude":19.9975,"longitude":73.7898,"temp":36.6,"humidity":15,"rain":0.0,"pressure":944.9,"uv_index":7.85,"wind_gusts":34.9,"aqi":85,"pm10":18.7,"pm2_5":16.3,"mosquito_risk":0,"arthritis_risk":5,"migraine_risk":10,"frizz_risk":0,"updated_at":"2026-03-13T15:13:11.490079+05:30"},{"city":"Aurangabad","state":"Maharashtra","latitude":19.8762,"longitude":75.3433,"temp":36.6,"humidity":16,"rain":0.0,"pressure":943.6,"uv_index":8.35,"wind_gusts":29.5,"aqi":125,"pm10":19.6,"pm2_5":17.6,"mosquito_risk":0,"arthritis_risk":5,"migraine_risk":10,"frizz_risk":0,"updated_at":"2026-03-13T15:13:11.490087+05:30"},{"city":"Solapur","state":"Maharashtra","latitude":17.6599,"longitude":75.9064,"temp":36.7,"humidity":20,"rain":0.0,"pressure":955.9,"uv_index":8.6,"wind_gusts":24.1,"aqi":91,"pm10":32.0,"pm2_5":26.3,"mosquito_risk":0,"arthritis_risk":5,"migraine_risk":10,"frizz_risk":0,"updated_at":"2026-03-13T15:13:11.490094+05:30"},{"city":"Kolhapur","state":"Maharashtra","latitude":16.705,"longitude":74.2433,"temp":35.5,"humidity":23,"rain":0.0,"pressure":946.9,"uv_index":8.7,"wind_gusts":47.9,"aqi":153,"pm10":29.9,"pm2_5":25.1,"mosquito_risk":0,"arthritis_risk":5,"migraine_risk":10,"frizz_risk":0,"updated_at":"2026-03-13T15:13:11.490101+05:30"},{"city":"Goa","state":"Goa","latitude":15.2993,"longitude":74.124,"temp":31.4,"humidity":63,"rain":0.0,"pressure":996.6,"uv_index":8.7,"wind_gusts":31.3,"aqi":140,"pm10":41.4,"pm2_5":35.5,"mosquito_risk":3,"arthritis_risk":5,"migraine_risk":7,"frizz_risk":1,"updated_at":"2026-03-13T15:13:11.490109+05:30"},{"city":"Jodhpur","state":"Rajasthan","latitude":26.2389,"longitude":73.0243,"temp":36.8,"humidity":20,"rain":0.0,"pressure":982.6,"uv_index":6.9,"wind_gusts":18.7,"aqi":77,"pm10":175.6,"pm2_5":33.8,"mosquito_risk":0,"arthritis_risk":5,"migraine_risk":10,"frizz_risk":0,"updated_at":"2026-03-13T15:13:11.490116+05:30"},{"city":"Udaipur","state":"Rajasthan","latitude":24.5854,"longitude":73.7125,"temp":35.6,"humidity":11,"rain":0.0,"pressure":947.0,"uv_index":7.85,"wind_gusts":30.2,"aqi":51,"pm10":25.2,"pm2_5":12.3,"mosquito_risk":0,"arthritis_risk":5,"migraine_risk":10,"frizz_risk":0,"updated_at":"2026-03-13T15:13:11.490122+05:30"},{"city":"Kota","state":"Rajasthan","latitude":25.2138,"longitude":75.8648,"temp":37.7,"humidity":17,"rain":0.0,"pressure":978.3,"uv_index":7.1,"wind_gusts":17.6,"aqi":72,"pm10":63.1,"pm2_5":18.9,"mosquito_risk":0,"arthritis_risk":5,"migraine_risk":10,"frizz_risk":0,"updated_at":"2026-03-13T15:13:11.490129+05:30"},{"city":"Bikaner","state":"Rajasthan","latitude":28.0229,"longitude":73.3119,"temp":34.1,"humidity":17,"rain":0.0,"pressure":983.0,"uv_index":6.6,"wind_gusts":24.8,"aqi":81,"pm10":31.0,"pm2_5":17.1,"mosquito_risk":0,"arthritis_risk":5,"migraine_risk":7,"frizz_risk":0,"updated_at":"2026-03-13T15:13:11.490136+05:30"},{"city":"Ajmer","state":"Rajasthan","latitude":26.4499,"longitude":74.6399,"temp":34.7,"humidity":21,"rain":0.0,"pressure":954.9,"uv_index":7.05,"wind_gusts":22.0,"aqi":71,"pm10":146.2,"pm2_5":35.5,"mosquito_risk":0,"arthritis_risk":5,"migraine_risk":7,"frizz_risk":0,"updated_at":"2026-03-13T15:13:11.490142+05:30"},{"city":"Gwalior","state":"Madhya Pradesh","latitude":26.2183,"longitude":78.1828,"temp":33.4,"humidity":34,"rain":0.0,"pressure":983.4,"uv_index":6.8,"wind_gusts":21.2,"aqi":99,"pm10":133.6,"pm2_5":42.8,"mosquito_risk":0,"arthritis_risk":5,"migraine_risk":7,"frizz_risk":0,"updated_at":"2026-03-13T15:13:11.490149+05:30"},{"city":"Indore","state":"Madhya Pradesh","latitude":22.7196,"longitude":75.8577,"temp":36.8,"humidity":9,"rain":0.0,"pressure":948.2,"uv_index":7.75,"wind_gusts":32.4,"aqi":65,"pm10":10.2,"pm2_5":8.8,"mosquito_risk":0,"arthritis_risk":5,"migraine_risk":10,"frizz_risk":1,"updated_at":"2026-03-13T15:13:11.490155+05:30"},{"city":"Bhopal","state":"Madhya Pradesh","latitude":23.2599,"longitude":77.4126,"temp":36.7,"humidity":12,"rain":0.0,"pressure":953.9,"uv_index":7.55,"wind_gusts":31.0,"aqi":77,"pm10":16.7,"pm2_5":15.4,"mosquito_risk":0,"arthritis_risk":5,"migraine_risk":10,"frizz_risk":0,"updated_at":"2026-03-13T15:13:11.490163+05:30"},{"city":"Jabalpur","state":"Madhya Pradesh","latitude":23.1815,"longitude":79.9864,"temp":36.1,"humidity":19,"rain":0.0,"pressure":961.2,"uv_index":7.75,"wind_gusts":20.2,"aqi":79,"pm10":17.1,"pm2_5":13.4,"mosquito_risk":0,"arthritis_risk":5,"migraine_risk":10,"frizz_risk":0,"updated_at":"2026-03-13T15:13:11.490170+05:30"},{"city":"Ujjain","state":"Madhya Pradesh","latitude":23.1765,"longitude":75.7885,"temp":36.3,"humidity":9,"rain":0.0,"pressure":954.0,"uv_index":7.7,"wind_gusts":26.3,"aqi":55,"pm10":11.7,"pm2_5":7.8,"mosquito_risk":0,"arthritis_risk":5,"migraine_risk":10,"frizz_risk":1,"updated_at":"2026-03-13T15:13:11.490178+05:30"},{"city":"Visakhapatnam","state":"Andhra Pradesh","latitude":17.6868,"longitude":83.2185,"temp":31.3,"humidity":60,"rain":0.0,"pressure":1003.2,"uv_index":8.65,"wind_gusts":40.3,"aqi":90,"pm10":27.8,"pm2_5":23.3,"mosquito_risk":0,"arthritis_risk":5,"migraine_risk":4,"frizz_risk":1,"updated_at":"2026-03-13T15:13:11.490185+05:30"},{"city":"Vijayawada","state":"Andhra Pradesh","latitude":16.5062,"longitude":80.648,"temp":35.5,"humidity":41,"rain":0.0,"pressure":1001.4,"uv_index":8.75,"wind_gusts":31.3,"aqi":91,"pm10":28.1,"pm2_5":22.6,"mosquito_risk":0,"arthritis_risk":5,"migraine_risk":7,"frizz_risk":1,"updated_at":"2026-03-13T15:13:11.490191+05:30"},{"city":"Guntur","state":"Andhra Pradesh","latitude":16.3067,"longitude":80.4365,"temp":34.8,"humidity":41,"rain":0.0,"pressure":1003.0,"uv_index":8.75,"wind_gusts":33.8,"aqi":85,"pm10":34.0,"pm2_5":26.3,"mosquito_risk":0,"arthritis_risk":5,"migraine_risk":4,"frizz_risk":1,"updated_at":"2026-03-13T15:13:11.490198+05:30"},{"city":"Nellore","state":"Andhra Pradesh","latitude":14.4426,"longitude":79.9865,"temp":35.3,"humidity":41,"rain":0.0,"pressure":1004.8,"uv_index":8.9,"wind_gusts":30.2,"aqi":75,"pm10":28.9,"pm2_5":24.0,"mosquito_risk":0,"arthritis_risk":5,"migraine_risk":7,"frizz_risk":1,"updated_at":"2026-03-13T15:13:11.490205+05:30"},{"city":"Kurnool","state":"Andhra Pradesh","latitude":15.8281,"longitude":78.0373,"temp":38.7,"humidity":15,"rain":0.0,"pressure":975.4,"uv_index":8.75,"wind_gusts":23.8,"aqi":94,"pm10":47.6,"pm2_5":34.2,"mosquito_risk":0,"arthritis_risk":5,"migraine_risk":10,"frizz_risk":0,"updated_at":"2026-03-13T15:13:11.490213+05:30"},{"city":"Kakinada","state":"Andhra Pradesh","latitude":16.9891,"longitude":82.2475,"temp":34.3,"humidity":48,"rain":0.0,"pressure":1006.5,"uv_index":8.7,"wind_gusts":34.6,"aqi":79,"pm10":20.4,"pm2_5":15.5,"mosquito_risk":0,"arthritis_risk":5,"migraine_risk":4,"frizz_risk":1,"updated_at":"2026-03-13T15:13:11.490220+05:30"},{"city":"Tirupati","state":"Andhra Pradesh","latitude":13.6288,"longitude":79.4192,"temp":34.8,"humidity":29,"rain":0.0,"pressure":990.3,"uv_index":9.05,"wind_gusts":33.5,"aqi":100,"pm10":30.3,"pm2_5":24.0,"mosquito_risk":0,"arthritis_risk":5,"migraine_risk":7,"frizz_risk":0,"updated_at":"2026-03-13T15:13:11.490227+05:30"},{"city":"Warangal","state":"Telangana","latitude":17.9689,"longitude":79.5941,"temp":36.8,"humidity":29,"rain":0.0,"pressure":977.5,"uv_index":8.5,"wind_gusts":28.8,"aqi":116,"pm10":48.7,"pm2_5":36.9,"mosquito_risk":0,"arthritis_risk":5,"migraine_risk":10,"frizz_risk":0,"updated_at":"2026-03-13T15:13:11.490235+05:30"},{"city":"Nizamabad","state":"Telangana","latitude":18.6725,"longitude":78.0941,"temp":37.2,"humidity":18,"rain":0.0,"pressure":963.8,"uv_index":8.4,"wind_gusts":19.1,"aqi":121,"pm10":29.2,"pm2_5":22.6,"mosquito_risk":0,"arthritis_risk":5,"migraine_risk":10,"frizz_risk":0,"updated_at":"2026-03-13T15:13:11.490241+05:30"},{"city":"Mysore","state":"Karnataka","latitude":12.2958,"longitude":76.6396,"temp":33.0,"humidity":21,"rain":0.0,"pressure":927.8,"uv_index":9.3,"wind_gusts":29.9,"aqi":78,"pm10":39.9,"pm2_5":31.1,"mosquito_risk":0,"arthritis_risk":5,"migraine_risk":7,"frizz_risk":0,"updated_at":"2026-03-13T15:13:11.490248+05:30"},{"city":"Mangalore","state":"Karnataka","latitude":12.9141,"longitude":74.856,"temp":28.8,"humidity":83,"rain":0.0,"pressure":1004.8,"uv_index":8.95,"wind_gusts":23.0,"aqi":117,"pm10":42.0,"pm2_5":35.9,"mosquito_risk":7,"arthritis_risk":5,"migraine_risk":4,"frizz_risk":1,"updated_at":"2026-03-13T15:13:11.490255+05:30"},{"city":"Hubli-Dharwad","state":"Karnataka","latitude":15.3647,"longitude":75.124,"temp":35.3,"humidity":23,"rain":0.0,"pressure":939.9,"uv_index":8.9,"wind_gusts":33.5,"aqi":76,"pm10":29.9,"pm2_5":24.6,"mosquito_risk":0,"arthritis_risk":5,"migraine_risk":10,"frizz_risk":0,"updated_at":"2026-03-13T15:13:11.490262+05:30"},{"city":"Belgaum","state":"Karnataka","latitude":15.8497,"longitude":74.4977,"temp":33.1,"humidity":35,"rain":0.0,"pressure":925.3,"uv_index":8.95,"wind_gusts":41.0,"aqi":113,"pm10":28.9,"pm2_5":24.4,"mosquito_risk":0,"arthritis_risk":5,"migraine_risk":7,"frizz_risk":0,"updated_at":"2026-03-13T15:13:14.743035+05:30"},{"city":"Coimbatore","state":"Tamil Nadu","latitude":11.0168,"longitude":76.9558,"temp":34.6,"humidity":23,"rain":0.0,"pressure":960.3,"uv_index":9.25,"wind_gusts":42.8,"aqi":80,"pm10":34.0,"pm2_5":26.1,"mosquito_risk":0,"arthritis_risk":5,"migraine_risk":7,"frizz_risk":0,"updated_at":"2026-03-13T15:13:14.743057+05:30"},{"city":"Madurai","state":"Tamil Nadu","latitude":9.9252,"longitude":78.1198,"temp":35.9,"humidity":32,"rain":0.0,"pressure":990.9,"uv_index":9.25,"wind_gusts":26.6,"aqi":82,"pm10":14.5,"pm2_5":10.8,"mosquito_risk":0,"arthritis_risk":5,"migraine_risk":10,"frizz_risk":1,"updated_at":"2026-03-13T15:13:14.743066+05:30"},{"city":"Trichy","state":"Tamil Nadu","latitude":10.7905,"longitude":78.7047,"temp":34.7,"humidity":40,"rain":0.0,"pressure":998.2,"uv_index":9.15,"wind_gusts":23.0,"aqi":87,"pm10":19.0,"pm2_5":14.9,"mosquito_risk":0,"arthritis_risk":5,"migraine_risk":7,"frizz_risk":1,"updated_at":"2026-03-13T15:13:14.743074+05:30"},{"city":"Salem","state":"Tamil Nadu","latitude":11.6643,"longitude":78.146,"temp":34.7,"humidity":33,"rain":0.0,"pressure":975.9,"uv_index":9.2,"wind_gusts":24.8,"aqi":100,"pm10":43.1,"pm2_5":34.3,"mosquito_risk":0,"arthritis_risk":5,"migraine_risk":7,"frizz_risk":1,"updated_at":"2026-03-13T15:13:14.743080+05:30"},{"city":"Tirunelveli","state":"Tamil Nadu","latitude":8.7139,"longitude":77.7567,"temp":34.9,"humidity":43,"rain":0.0,"pressure":1001.0,"uv_index":9.2,"wind_gusts":31.3,"aqi":64,"pm10":13.0,"pm2_5":9.8,"mosquito_risk":0,"arthritis_risk":5,"migraine_risk":4,"frizz_risk":1,"updated_at":"2026-03-13T15:13:14.743086+05:30"},{"city":"Vellore","state":"Tamil Nadu","latitude":12.9165,"longitude":79.1325,"temp":34.7,"humidity":29,"rain":0.0,"pressure":983.5,"uv_index":9.1,"wind_gusts":33.1,"aqi":106,"pm10":33.4,"pm2_5":27.8,"mosquito_risk":0,"arthritis_risk":5,"migraine_risk":7,"frizz_risk":0,"updated_at":"2026-03-13T15:13:14.743093+05:30"},{"city":"Erode","state":"Tamil Nadu","latitude":11.341,"longitude":77.7172,"temp":35.9,"humidity":31,"rain":0.0,"pressure":987.4,"uv_index":9.15,"wind_gusts":23.8,"aqi":85,"pm10":34.8,"pm2_5":27.4,"mosquito_risk":0,"arthritis_risk":5,"migraine_risk":10,"frizz_risk":1,"updated_at":"2026-03-13T15:13:14.743099+05:30"},{"city":"Kochi","state":"Kerala","latitude":9.9312,"longitude":76.2673,"temp":28.6,"humidity":81,"rain":0.0,"pressure":1006.5,"uv_index":9.1,"wind_gusts":33.8,"aqi":98,"pm10":31.5,"pm2_5":27.9,"mosquito_risk":7,"arthritis_risk":5,"migraine_risk":4,"frizz_risk":1,"updated_at":"2026-03-13T15:13:14.743106+05:30"},{"city":"Thiruvananthapuram","state":"Kerala","latitude":8.5241,"longitude":76.9366,"temp":28.8,"humidity":77,"rain":0.0,"pressure":1005.7,"uv_index":9.1,"wind_gusts":24.1,"aqi":61,"pm10":21.5,"pm2_5":18.5,"mosquito_risk":7,"arthritis_risk":5,"migraine_risk":4,"frizz_risk":1,"updated_at":"2026-03-13T15:13:14.743112+05:30"},{"city":"Kozhikode","state":"Kerala","latitude":11.2588,"longitude":75.7804,"temp":29.8,"humidity":76,"rain":0.0,"pressure":1006.1,"uv_index":8.95,"wind_gusts":29.9,"aqi":95,"pm10":28.5,"pm2_5":25.8,"mosquito_risk":7,"arthritis_risk":5,"migraine_risk":4,"frizz_risk":1,"updated_at":"2026-03-13T15:13:14.743118+05:30"},{"city":"Thrissur","state":"Kerala","latitude":10.5276,"longitude":76.2144,"temp":32.1,"humidity":64,"rain":0.0,"pressure":1004.8,"uv_index":9.05,"wind_gusts":37.1,"aqi":99,"pm10":32.6,"pm2_5":26.7,"mosquito_risk":3,"arthritis_risk":5,"migraine_risk":4,"frizz_risk":1,"updated_at":"2026-03-13T15:13:14.743125+05:30"},{"city":"Kannur","state":"Kerala","latitude":11.8745,"longitude":75.3704,"temp":30.7,"humidity":70,"rain":0.0,"pressure":1005.6,"uv_index":9.0,"wind_gusts":28.1,"aqi":107,"pm10":39.5,"pm2_5":33.2,"mosquito_risk":3,"arthritis_risk":5,"migraine_risk":4,"frizz_risk":1,"updated_at":"2026-03-13T15:13:14.743131+05:30"},{"city":"Patna","state":"Bihar","latitude":25.5941,"longitude":85.1376,"temp":32.6,"humidity":42,"rain":0.0,"pressure":998.9,"uv_index":7.5,"wind_gusts":23.0,"aqi":178,"pm10":169.0,"pm2_5":91.0,"mosquito_risk":0,"arthritis_risk":5,"migraine_risk":7,"frizz_risk":1,"updated_at":"2026-03-13T15:13:14.743137+05:30"},{"city":"Gaya","state":"Bihar","latitude":24.7914,"longitude":85.0002,"temp":33.2,"humidity":33,"rain":0.0,"pressure":992.8,"uv_index":7.6,"wind_gusts":19.4,"aqi":152,"pm10":179.3,"pm2_5":42.0,"mosquito_risk":0,"arthritis_risk":5,"migraine_risk":7,"frizz_risk":0,"updated_at":"2026-03-13T15:13:14.743143+05:30"},{"city":"Muzaffarpur","state":"Bihar","latitude":26.1209,"longitude":85.3647,"temp":32.3,"humidity":47,"rain":0.0,"pressure":998.5,"uv_index":7.45,"wind_gusts":24.8,"aqi":182,"pm10":148.5,"pm2_5":93.8,"mosquito_risk":0,"arthritis_risk":5,"migraine_risk":7,"frizz_risk":1,"updated_at":"2026-03-13T15:13:14.743149+05:30"},{"city":"Bhagalpur","state":"Bihar","latitude":25.2425,"longitude":87.0117,"temp":32.8,"humidity":45,"rain":0.0,"pressure":998.9,"uv_index":7.5,"wind_gusts":26.6,"aqi":175,"pm10":137.8,"pm2_5":89.9,"mosquito_risk":0,"arthritis_risk":5,"migraine_risk":7,"frizz_risk":1,"updated_at":"2026-03-13T15:13:14.743155+05:30"},{"city":"Ranchi","state":"Jharkhand","latitude":23.3441,"longitude":85.3096,"temp":33.7,"humidity":16,"rain":0.0,"pressure":937.8,"uv_index":8.2,"wind_gusts":26.3,"aqi":92,"pm10":27.1,"pm2_5":11.3,"mosquito_risk":0,"arthritis_risk":5,"migraine_risk":7,"frizz_risk":0,"updated_at":"2026-03-13T15:13:14.743160+05:30"},{"city":"Jamshedpur","state":"Jharkhand","latitude":22.8046,"longitude":86.2029,"temp":36.2,"humidity":24,"rain":0.0,"pressure":989.2,"uv_index":8.1,"wind_gusts":16.6,"aqi":161,"pm10":48.4,"pm2_5":24.9,"mosquito_risk":0,"arthritis_risk":5,"migraine_risk":10,"frizz_risk":0,"updated_at":"2026-03-13T15:13:14.743166+05:30"},{"city":"Dhanbad","state":"Jharkhand","latitude":23.7957,"longitude":86.4304,"temp":36.3,"humidity":18,"rain":0.0,"pressure":978.5,"uv_index":8.0,"wind_gusts":26.3,"aqi":175,"pm10":66.8,"pm2_5":30.0,"mosquito_risk":0,"arthritis_risk":5,"migraine_risk":10,"frizz_risk":0,"updated_at":"2026-03-13T15:13:14.743172+05:30"},{"city":"Bokaro","state":"Jharkhand","latitude":23.6693,"longitude":86.1511,"temp":36.1,"humidity":18,"rain":0.0,"pressure":982.4,"uv_index":8.0,"wind_gusts":26.6,"aqi":156,"pm10":55.4,"pm2_5":20.6,"mosquito_risk":0,"arthritis_risk":5,"migraine_risk":10,"frizz_risk":0,"updated_at":"2026-03-13T15:13:14.743178+05:30"},{"city":"Bhubaneswar","state":"Odisha","latitude":20.2961,"longitude":85.8245,"temp":33.2,"humidity":53,"rain":0.0,"pressure":1001.7,"uv_index":8.4,"wind_gusts":33.5,"aqi":107,"pm10":43.0,"pm2_5":34.3,"mosquito_risk":0,"arthritis_risk":5,"migraine_risk":4,"frizz_risk":1,"updated_at":"2026-03-13T15:13:14.743184+05:30"},{"city":"Cuttack","state":"Odisha","latitude":20.4625,"longitude":85.8828,"temp":35.9,"humidity":41,"rain":0.0,"pressure":1002.9,"uv_index":8.45,"wind_gusts":28.1,"aqi":107,"pm10":43.0,"pm2_5":34.3,"mosquito_risk":0,"arthritis_risk":5,"migraine_risk":7,"frizz_risk":1,"updated_at":"2026-03-13T15:13:14.743189+05:30"},{"city":"Rourkela","state":"Odisha","latitude":22.2604,"longitude":84.8536,"temp":37.6,"humidity":16,"rain":0.0,"pressure":983.5,"uv_index":8.0,"wind_gusts":19.4,"aqi":102,"pm10":45.3,"pm2_5":18.7,"mosquito_risk":0,"arthritis_risk":5,"migraine_risk":10,"frizz_risk":0,"updated_at":"2026-03-13T15:13:14.743195+05:30"},{"city":"Raipur","state":"Chhattisgarh","latitude":21.2514,"longitude":81.6296,"temp":38.4,"humidity":13,"rain":0.0,"pressure":973.3,"uv_index":8.15,"wind_gusts":18.0,"aqi":147,"pm10":40.4,"pm2_5":25.5,"mosquito_risk":0,"arthritis_risk":5,"migraine_risk":10,"frizz_risk":0,"updated_at":"2026-03-13T15:13:14.743201+05:30"},{"city":"Bhilai","state":"Chhattisgarh","latitude":21.1938,"longitude":81.3509,"temp":39.0,"humidity":13,"rain":0.0,"pressure":973.6,"uv_index":8.15,"wind_gusts":14.8,"aqi":145,"pm10":39.7,"pm2_5":26.3,"mosquito_risk":0,"arthritis_risk":5,"migraine_risk":10,"frizz_risk":0,"updated_at":"2026-03-13T15:13:14.743207+05:30"},{"city":"Guwahati","state":"Assam","latitude":26.1158,"longitude":91.7086,"temp":23.6,"humidity":85,"rain":0.0,"pressure":1001.1,"uv_index":6.9,"wind_gusts":29.9,"aqi":160,"pm10":54.5,"pm2_5":49.6,"mosquito_risk":3,"arthritis_risk":5,"migraine_risk":4,"frizz_risk":1,"updated_at":"2026-03-13T15:13:14.743212+05:30"},{"city":"Agartala","state":"Tripura","latitude":23.8315,"longitude":91.2868,"temp":28.0,"humidity":72,"rain":0.0,"pressure":1005.3,"uv_index":7.6,"wind_gusts":32.8,"aqi":144,"pm10":52.5,"pm2_5":45.6,"mosquito_risk":7,"arthritis_risk":5,"migraine_risk":4,"frizz_risk":1,"updated_at":"2026-03-13T15:13:14.743219+05:30"},{"city":"Shillong","state":"Meghalaya","latitude":25.5788,"longitude":91.8933,"temp":16.4,"humidity":78,"rain":0.0,"pressure":854.6,"uv_index":7.0,"wind_gusts":56.9,"aqi":151,"pm10":36.0,"pm2_5":32.1,"mosquito_risk":3,"arthritis_risk":5,"migraine_risk":7,"frizz_risk":0,"updated_at":"2026-03-13T15:13:14.743225+05:30"},{"city":"Imphal","state":"Manipur","latitude":24.817,"longitude":93.9368,"temp":20.4,"humidity":72,"rain":0.0,"pressure":922.0,"uv_index":7.4,"wind_gusts":61.2,"aqi":156,"pm10":78.2,"pm2_5":65.2,"mosquito_risk":3,"arthritis_risk":5,"migraine_risk":7,"frizz_risk":0,"updated_at":"2026-03-13T15:13:14.743230+05:30"},{"city":"Aizawl","state":"Mizoram","latitude":23.7271,"longitude":92.7176,"temp":21.1,"humidity":73,"rain":0.0,"pressure":892.7,"uv_index":7.15,"wind_gusts":76.0,"aqi":153,"pm10":65.0,"pm2_5":56.8,"mosquito_risk":3,"arthritis_risk":5,"migraine_risk":7,"frizz_risk":1,"updated_at":"2026-03-13T15:13:14.743236+05:30"},{"city":"Kohima","state":"Nagaland","latitude":25.6701,"longitude":94.1077,"temp":17.1,"humidity":83,"rain":0.0,"pressure":853.2,"uv_index":6.25,"wind_gusts":82.8,"aqi":137,"pm10":65.9,"pm2_5":58.6,"mosquito_risk":3,"arthritis_risk":10,"migraine_risk":7,"frizz_risk":0,"updated_at":"2026-03-13T15:13:14.743242+05:30"},{"city":"Gangtok","state":"Sikkim","latitude":27.3314,"longitude":88.6138,"temp":17.7,"humidity":79,"rain":0.0,"pressure":835.8,"uv_index":4.55,"wind_gusts":15.8,"aqi":114,"pm10":26.7,"pm2_5":24.1,"mosquito_risk":3,"arthritis_risk":5,"migraine_risk":3,"frizz_risk":0,"updated_at":"2026-03-13T15:13:14.743248+05:30"},{"city":"Siliguri","state":"West Bengal","latitude":26.7271,"longitude":88.3953,"temp":22.5,"humidity":82,"rain":0.0,"pressure":992.7,"uv_index":7.3,"wind_gusts":29.5,"aqi":160,"pm10":50.3,"pm2_5":46.0,"mosquito_risk":3,"arthritis_risk":5,"migraine_risk":7,"frizz_risk":1,"updated_at":"2026-03-13T15:13:17.998044+05:30"},{"city":"Durgapur","state":"West Bengal","latitude":23.5204,"longitude":87.3119,"temp":36.6,"humidity":16,"rain":0.0,"pressure":993.1,"uv_index":7.95,"wind_gusts":26.3,"aqi":175,"pm10":91.3,"pm2_5":47.3,"mosquito_risk":0,"arthritis_risk":5,"migraine_risk":10,"frizz_risk":0,"updated_at":"2026-03-13T15:13:17.998068+05:30"},{"city":"Asansol","state":"West Bengal","latitude":23.6739,"longitude":86.9524,"temp":36.2,"humidity":19,"rain":0.0,"pressure":991.8,"uv_index":7.95,"wind_gusts":23.4,"aqi":174,"pm10":80.6,"pm2_5":39.7,"mosquito_risk":0,"arthritis_risk":5,"migraine_risk":10,"frizz_risk":0,"updated_at":"2026-03-13T15:13:17.998078+05:30"},{"city":"Pondicherry","state":"Puducherry","latitude":11.9139,"longitude":79.8145,"temp":33.6,"humidity":49,"rain":0.0,"pressure":1007.4,"uv_index":9.0,"wind_gusts":27.7,"aqi":63,"pm10":17.5,"pm2_5":12.3,"mosquito_risk":0,"arthritis_risk":5,"migraine_risk":4,"frizz_risk":1,"updated_at":"2026-03-13T15:13:17.998085+05:30"},{"city":"Port Blair","state":"Andaman and Nicobar Islands","latitude":11.6234,"longitude":92.7265,"temp":28.9,"humidity":70,"rain":0.0,"pressure":1006.0,"uv_index":8.95,"wind_gusts":22.3,"aqi":65,"pm10":10.6,"pm2_5":8.2,"mosquito_risk":7,"arthritis_risk":5,"migraine_risk":4,"frizz_risk":1,"updated_at":"2026-03-13T15:13:17.998092+05:30"},{"city":"Haridwar","state":"Uttarakhand","latitude":29.9457,"longitude":78.1642,"temp":30.6,"humidity":37,"rain":0.0,"pressure":974.4,"uv_index":5.45,"wind_gusts":29.5,"aqi":92,"pm10":40.5,"pm2_5":18.5,"mosquito_risk":0,"arthritis_risk":5,"migraine_risk":3,"frizz_risk":0,"updated_at":"2026-03-13T15:13:17.998098+05:30"},{"city":"Rishikesh","state":"Uttarakhand","latitude":30.0869,"longitude":78.2676,"temp":30.4,"humidity":34,"rain":0.0,"pressure":967.1,"uv_index":5.7,"wind_gusts":30.2,"aqi":69,"pm10":36.1,"pm2_5":15.1,"mosquito_risk":0,"arthritis_risk":5,"migraine_risk":3,"frizz_risk":0,"updated_at":"2026-03-13T15:13:17.998105+05:30"},{"city":"Nainital","state":"Uttarakhand","latitude":29.3919,"longitude":79.4542,"temp":23.0,"humidity":41,"rain":0.0,"pressure":808.0,"uv_index":6.7,"wind_gusts":44.3,"aqi":90,"pm10":46.2,"pm2_5":25.2,"mosquito_risk":0,"arthritis_risk":5,"migraine_risk":7,"frizz_risk":0,"updated_at":"2026-03-13T15:13:17.998111+05:30"},{"city":"Mussoorie","state":"Uttarakhand","latitude":30.4599,"longitude":78.0664,"temp":22.1,"humidity":38,"rain":0.0,"pressure":805.0,"uv_index":5.45,"wind_gusts":30.6,"aqi":71,"pm10":36.4,"pm2_5":14.7,"mosquito_risk":0,"arthritis_risk":5,"migraine_risk":3,"frizz_risk":0,"updated_at":"2026-03-13T15:13:17.998117+05:30"},{"city":"Dharamshala","state":"Himachal Pradesh","latitude":32.219,"longitude":76.3234,"temp":24.0,"humidity":37,"rain":0.0,"pressure":870.8,"uv_index":6.0,"wind_gusts":24.8,"aqi":46,"pm10":20.5,"pm2_5":6.4,"mosquito_risk":0,"arthritis_risk":5,"migraine_risk":3,"frizz_risk":0,"updated_at":"2026-03-13T15:13:17.998123+05:30"},{"city":"Dalhousie","state":"Himachal Pradesh","latitude":32.5387,"longitude":75.971,"temp":22.5,"humidity":30,"rain":0.0,"pressure":806.3,"uv_index":6.45,"wind_gusts":31.0,"aqi":73,"pm10":22.8,"pm2_5":10.5,"mosquito_risk":0,"arthritis_risk":5,"migraine_risk":7,"frizz_risk":0,"updated_at":"2026-03-13T15:13:17.998129+05:30"},{"city":"Patiala","state":"Punjab","latitude":30.3398,"longitude":76.3869,"temp":29.5,"humidity":34,"rain":0.0,"pressure":979.3,"uv_index":5.2,"wind_gusts":27.0,"aqi":276,"pm10":521.5,"pm2_5":66.4,"mosquito_risk":4,"arthritis_risk":5,"migraine_risk":3,"frizz_risk":0,"updated_at":"2026-03-13T15:13:17.998136+05:30"},{"city":"Bhatinda","state":"Punjab","latitude":30.211,"longitude":74.9455,"temp":29.5,"humidity":37,"rain":0.0,"pressure":985.8,"uv_index":6.05,"wind_gusts":27.7,"aqi":131,"pm10":44.7,"pm2_5":22.3,"mosquito_risk":4,"arthritis_risk":5,"migraine_risk":7,"frizz_risk":0,"updated_at":"2026-03-13T15:13:17.998142+05:30"},{"city":"Rohtak","state":"Haryana","latitude":28.8955,"longitude":76.6066,"temp":30.4,"humidity":30,"rain":0.0,"pressure":983.1,"uv_index":5.35,"wind_gusts":26.6,"aqi":519,"pm10":516.0,"pm2_5":70.8,"mosquito_risk":0,"arthritis_risk":5,"migraine_risk":3,"frizz_risk":0,"updated_at":"2026-03-13T15:13:17.998149+05:30"},{"city":"Panipat","state":"Haryana","latitude":29.3909,"longitude":76.9635,"temp":29.3,"humidity":37,"rain":0.0,"pressure":981.4,"uv_index":5.15,"wind_gusts":24.8,"aqi":896,"pm10":851.2,"pm2_5":94.3,"mosquito_risk":4,"arthritis_risk":5,"migraine_risk":3,"frizz_risk":0,"updated_at":"2026-03-13T15:13:17.998155+05:30"},{"city":"Mathura","state":"Uttar Pradesh","latitude":27.4924,"longitude":77.6737,"temp":34.6,"humidity":25,"rain":0.0,"pressure":987.1,"uv_index":5.8,"wind_gusts":25.6,"aqi":667,"pm10":773.0,"pm2_5":101.7,"mosquito_risk":0,"arthritis_risk":5,"migraine_risk":3,"frizz_risk":0,"updated_at":"2026-03-13T15:13:17.998161+05:30"},{"city":"Vrindavan","state":"Uttar Pradesh","latitude":27.5823,"longitude":77.7027,"temp":34.2,"humidity":22,"rain":0.0,"pressure":987.6,"uv_index":5.85,"wind_gusts":28.8,"aqi":667,"pm10":773.0,"pm2_5":101.7,"mosquito_risk":0,"arthritis_risk":5,"migraine_risk":3,"frizz_risk":0,"updated_at":"2026-03-13T15:13:17.998166+05:30"},{"city":"Ayodhya","state":"Uttar Pradesh","latitude":26.7922,"longitude":82.1998,"temp":33.9,"humidity":33,"rain":0.0,"pressure":994.1,"uv_index":6.4,"wind_gusts":30.2,"aqi":162,"pm10":211.9,"pm2_5":66.6,"mosquito_risk":0,"arthritis_risk":5,"migraine_risk":7,"frizz_risk":0,"updated_at":"2026-03-13T15:13:17.998172+05:30"},{"city":"Ratlam","state":"Madhya Pradesh","latitude":23.3315,"longitude":75.0367,"temp":36.3,"humidity":13,"rain":0.0,"pressure":954.9,"uv_index":7.6,"wind_gusts":30.6,"aqi":51,"pm10":15.5,"pm2_5":9.5,"mosquito_risk":0,"arthritis_risk":5,"migraine_risk":10,"frizz_risk":0,"updated_at":"2026-03-13T15:13:17.998178+05:30"},{"city":"Sagar","state":"Madhya Pradesh","latitude":23.8388,"longitude":78.7378,"temp":36.5,"humidity":10,"rain":0.0,"pressure":950.2,"uv_index":7.5,"wind_gusts":29.2,"aqi":81,"pm10":11.2,"pm2_5":9.1,"mosquito_risk":0,"arthritis_risk":5,"migraine_risk":10,"frizz_risk":0,"updated_at":"2026-03-13T15:13:17.998184+05:30"},{"city":"Satna","state":"Madhya Pradesh","latitude":24.6005,"longitude":80.8322,"temp":37.7,"humidity":13,"rain":0.0,"pressure":970.5,"uv_index":7.15,"wind_gusts":29.9,"aqi":66,"pm10":69.4,"pm2_5":16.8,"mosquito_risk":0,"arthritis_risk":5,"migraine_risk":10,"frizz_risk":0,"updated_at":"2026-03-13T15:13:17.998190+05:30"},{"city":"Akola","state":"Maharashtra","latitude":20.7002,"longitude":77.0082,"temp":39.4,"humidity":16,"rain":0.0,"pressure":973.7,"uv_index":8.05,"wind_gusts":24.8,"aqi":79,"pm10":20.0,"pm2_5":15.0,"mosquito_risk":0,"arthritis_risk":5,"migraine_risk":10,"frizz_risk":0,"updated_at":"2026-03-13T15:13:17.998197+05:30"},{"city":"Amravati","state":"Maharashtra","latitude":20.9374,"longitude":77.7796,"temp":39.1,"humidity":13,"rain":0.0,"pressure":966.3,"uv_index":8.0,"wind_gusts":15.1,"aqi":85,"pm10":22.5,"pm2_5":16.0,"mosquito_risk":0,"arthritis_risk":5,"migraine_risk":10,"frizz_risk":0,"updated_at":"2026-03-13T15:13:17.998203+05:30"},{"city":"Latur","state":"Maharashtra","latitude":18.4088,"longitude":76.5604,"temp":35.6,"humidity":21,"rain":0.0,"pressure":939.2,"uv_index":8.5,"wind_gusts":21.2,"aqi":98,"pm10":33.2,"pm2_5":26.2,"mosquito_risk":0,"arthritis_risk":5,"migraine_risk":10,"frizz_risk":0,"updated_at":"2026-03-13T15:13:17.998209+05:30"},{"city":"Nanded","state":"Maharashtra","latitude":19.1383,"longitude":77.3091,"temp":38.8,"humidity":14,"rain":0.0,"pressure":967.5,"uv_index":8.3,"wind_gusts":21.6,"aqi":108,"pm10":21.0,"pm2_5":17.4,"mosquito_risk":0,"arthritis_risk":5,"migraine_risk":10,"frizz_risk":0,"updated_at":"2026-03-13T15:13:17.998215+05:30"},{"city":"Gulbarga","state":"Karnataka","latitude":17.3297,"longitude":76.8343,"temp":37.7,"humidity":19,"rain":0.0,"pressure":957.4,"uv_index":8.6,"wind_gusts":32.0,"aqi":96,"pm10":28.8,"pm2_5":23.0,"mosquito_risk":0,"arthritis_risk":5,"migraine_risk":10,"frizz_risk":0,"updated_at":"2026-03-13T15:13:17.998221+05:30"},{"city":"Bidar","state":"Karnataka","latitude":17.9104,"longitude":77.5199,"temp":36.0,"humidity":19,"rain":0.0,"pressure":934.8,"uv_index":8.55,"wind_gusts":26.6,"aqi":102,"pm10":27.4,"pm2_5":21.4,"mosquito_risk":0,"arthritis_risk":5,"migraine_risk":10,"frizz_risk":0,"updated_at":"2026-03-13T15:13:17.998227+05:30"},{"city":"Hospet","state":"Karnataka","latitude":15.2689,"longitude":76.3909,"temp":36.1,"humidity":23,"rain":0.0,"pressure":954.6,"uv_index":8.9,"wind_gusts":24.1,"aqi":89,"pm10":34.3,"pm2_5":27.1,"mosquito_risk":0,"arthritis_risk":5,"migraine_risk":10,"frizz_risk":0,"updated_at":"2026-03-13T15:13:17.998233+05:30"},{"city":"Tirupur","state":"Tamil Nadu","latitude":11.1085,"longitude":77.3411,"temp":35.8,"humidity":24,"rain":0.0,"pressure":973.7,"uv_index":9.25,"wind_gusts":30.6,"aqi":89,"pm10":38.4,"pm2_5":29.9,"mosquito_risk":0,"arthritis_risk":5,"migraine_risk":10,"frizz_risk":0,"updated_at":"2026-03-13T15:13:17.998238+05:30"},{"city":"Alappuzha","state":"Kerala","latitude":9.4981,"longitude":76.3388,"temp":28.6,"humidity":80,"rain":0.0,"pressure":1006.7,"uv_index":9.1,"wind_gusts":28.1,"aqi":108,"pm10":26.3,"pm2_5":24.4,"mosquito_risk":7,"arthritis_risk":5,"migraine_risk":4,"frizz_risk":1,"updated_at":"2026-03-13T15:13:17.998244+05:30"},{"city":"Munnar","state":"Kerala","latitude":10.0889,"longitude":77.0595,"temp":30.8,"humidity":30,"rain":0.0,"pressure":857.8,"uv_index":9.55,"wind_gusts":24.5,"aqi":72,"pm10":17.3,"pm2_5":13.3,"mosquito_risk":0,"arthritis_risk":5,"migraine_risk":7,"frizz_risk":0,"updated_at":"2026-03-13T15:13:17.998250+05:30"},{"city":"Silchar","state":"Assam","latitude":24.8333,"longitude":92.7789,"temp":25.3,"humidity":78,"rain":0.0,"pressure":1004.6,"uv_index":7.75,"wind_gusts":42.8,"aqi":166,"pm10":87.5,"pm2_5":75.0,"mosquito_risk":7,"arthritis_risk":5,"migraine_risk":4,"frizz_risk":1,"updated_at":"2026-03-13T15:13:17.998256+05:30"},{"city":"Dibrugarh","state":"Assam","latitude":27.4728,"longitude":94.912,"temp":23.3,"humidity":79,"rain":0.0,"pressure":995.5,"uv_index":5.5,"wind_gusts":25.2,"aqi":146,"pm10":69.8,"pm2_5":63.8,"mosquito_risk":3,"arthritis_risk":5,"migraine_risk":3,"frizz_risk":1,"updated_at":"2026-03-13T15:13:17.998261+05:30"}]