[{"city":"Delhi","state":"Delhi","latitude":28.6139,"longitude":77.209,"temp":29.5,"humidity":84,"rain":0.0,"pressure":973.7,"uv_index":7.65,"wind_gusts":29.5,"aqi":635,"pm10":592.3,"pm2_5":144.4,"no2":26.8,"co":333.0,"o3":48.0,"so2":14.6,"mosquito_risk":7,"arthritis_risk":5,"migraine_risk":7,"frizz_risk":1,"updated_at":"2026-07-12T23:30:13.416291+05:30"},{"city":"Mumbai","state":"Maharashtra","latitude":19.076,"longitude":72.8777,"temp":28.0,"humidity":85,"rain":0.0,"pressure":1006.7,"uv_index":6.6,"wind_gusts":56.5,"aqi":52,"pm10":31.3,"pm2_5":13.6,"no2":4.8,"co":142.0,"o3":45.0,"so2":4.6,"mosquito_risk":7,"arthritis_risk":5,"migraine_risk":4,"frizz_risk":1,"updated_at":"2026-07-12T23:30:13.416338+05:30"},{"city":"Bangalore","state":"Karnataka","latitude":12.9716,"longitude":77.5946,"temp":22.6,"humidity":82,"rain":0.0,"pressure":911.4,"uv_index":8.8,"wind_gusts":48.2,"aqi":47,"pm10":13.8,"pm2_5":8.9,"no2":9.6,"co":226.0,"o3":42.0,"so2":4.2,"mosquito_risk":3,"arthritis_risk":5,"migraine_risk":7,"frizz_risk":1,"updated_at":"2026-07-12T23:30:13.416354+05:30"},{"city":"Hyderabad","state":"Telangana","latitude":17.385,"longitude":78.4867,"temp":29.0,"humidity":51,"rain":0.0,"pressure":950.5,"uv_index":8.95,"wind_gusts":50.0,"aqi":58,"pm10":27.1,"pm2_5":17.0,"no2":9.2,"co":177.0,"o3":51.0,"so2":4.7,"mosquito_risk":4,"arthritis_risk":5,"migraine_risk":7,"frizz_risk":1,"updated_at":"2026-07-12T23:30:13.416387+05:30"},{"city":"Chennai","state":"Tamil Nadu","latitude":13.0827,"longitude":80.2707,"temp":30.2,"humidity":79,"rain":0.0,"pressure":1003.8,"uv_index":8.85,"wind_gusts":34.2,"aqi":72,"pm10":29.0,"pm2_5":17.6,"no2":7.0,"co":159.0,"o3":83.0,"so2":6.2,"mosquito_risk":3,"arthritis_risk":5,"migraine_risk":4,"frizz_risk":1,"updated_at":"2026-07-12T23:30:13.416397+05:30"},{"city":"Kolkata","state":"West Bengal","latitude":22.5726,"longitude":88.3639,"temp":28.2,"humidity":92,"rain":0.0,"pressure":998.4,"uv_index":8.5,"wind_gusts":25.2,"aqi":145,"pm10":69.8,"pm2_5":57.3,"no2":13.7,"co":418.0,"o3":80.0,"so2":11.7,"mosquito_risk":7,"arthritis_risk":5,"migraine_risk":7,"frizz_risk":1,"updated_at":"2026-07-12T23:30:13.416406+05:30"},{"city":"Pune","state":"Maharashtra","latitude":18.5204,"longitude":73.8567,"temp":23.5,"humidity":86,"rain":0.0,"pressure":946.1,"uv_index":8.25,"wind_gusts":58.0,"aqi":34,"pm10":17.6,"pm2_5":8.8,"no2":6.4,"co":119.0,"o3":36.0,"so2":5.2,"mosquito_risk":3,"arthritis_risk":5,"migraine_risk":7,"frizz_risk":1,"updated_at":"2026-07-12T23:30:13.416413+05:30"},{"city":"Ahmedabad","state":"Gujarat","latitude":23.0225,"longitude":72.5714,"temp":29.9,"humidity":68,"rain":0.0,"pressure":996.6,"uv_index":8.1,"wind_gusts":51.8,"aqi":65,"pm10":36.6,"pm2_5":18.1,"no2":5.0,"co":122.0,"o3":44.0,"so2":3.9,"mosquito_risk":7,"arthritis_risk":5,"migraine_risk":7,"frizz_risk":1,"updated_at":"2026-07-12T23:30:13.416421+05:30"},{"city":"Jaipur","state":"Rajasthan","latitude":26.9124,"longitude":75.7873,"temp":29.0,"humidity":64,"rain":0.0,"pressure":951.7,"uv_index":8.15,"wind_gusts":37.8,"aqi":370,"pm10":370.7,"pm2_5":78.0,"no2":12.8,"co":171.0,"o3":52.0,"so2":5.6,"mosquito_risk":7,"arthritis_risk":5,"migraine_risk":7,"frizz_risk":1,"updated_at":"2026-07-12T23:30:13.416428+05:30"},{"city":"Lucknow","state":"Uttar Pradesh","latitude":26.8467,"longitude":80.9462,"temp":29.7,"humidity":71,"rain":0.0,"pressure":984.6,"uv_index":8.2,"wind_gusts":36.7,"aqi":124,"pm10":80.6,"pm2_5":40.9,"no2":11.7,"co":188.0,"o3":66.0,"so2":7.3,"mosquito_risk":7,"arthritis_risk":5,"migraine_risk":7,"frizz_risk":1,"updated_at":"2026-07-12T23:30:13.416439+05:30"},{"city":"Kanpur","state":"Uttar Pradesh","latitude":26.4499,"longitude":80.3319,"temp":29.8,"humidity":68,"rain":0.0,"pressure":983.3,"uv_index":7.75,"wind_gusts":40.0,"aqi":109,"pm10":93.1,"pm2_5":39.0,"no2":11.4,"co":173.0,"o3":69.0,"so2":7.8,"mosquito_risk":7,"arthritis_risk":5,"migraine_risk":7,"frizz_risk":1,"updated_at":"2026-07-12T23:30:13.416446+05:30"},{"city":"Chandigarh","state":"Chandigarh","latitude":30.7333,"longitude":76.7794,"temp":27.4,"humidity":87,"rain":0.0,"pressure":959.6,"uv_index":7.7,"wind_gusts":52.9,"aqi":160,"pm10":177.9,"pm2_5":93.1,"no2":34.1,"co":885.0,"o3":78.0,"so2":20.6,"mosquito_risk":7,"arthritis_risk":5,"migraine_risk":7,"frizz_risk":1,"updated_at":"2026-07-12T23:30:13.416454+05:30"},{"city":"Srinagar","state":"Jammu and Kashmir","latitude":34.0837,"longitude":74.7973,"temp":17.6,"humidity":92,"rain":0.0,"pressure":837.6,"uv_index":8.65,"wind_gusts":28.8,"aqi":43,"pm10":42.3,"pm2_5":40.2,"no2":39.7,"co":548.0,"o3":28.0,"so2":3.4,"mosquito_risk":3,"arthritis_risk":10,"migraine_risk":7,"frizz_risk":1,"updated_at":"2026-07-12T23:30:13.416461+05:30"},{"city":"Jammu","state":"Jammu and Kashmir","latitude":32.7266,"longitude":74.857,"temp":25.6,"humidity":91,"rain":0.0,"pressure":963.4,"uv_index":8.6,"wind_gusts":30.6,"aqi":138,"pm10":119.7,"pm2_5":79.6,"no2":54.7,"co":783.0,"o3":38.0,"so2":9.8,"mosquito_risk":7,"arthritis_risk":5,"migraine_risk":7,"frizz_risk":1,"updated_at":"2026-07-12T23:30:13.416468+05:30"},{"city":"Amritsar","state":"Punjab","latitude":31.634,"longitude":74.8723,"temp":27.0,"humidity":82,"rain":0.0,"pressure":971.2,"uv_index":8.45,"wind_gusts":37.1,"aqi":159,"pm10":183.5,"pm2_5":109.0,"no2":49.0,"co":1093.0,"o3":26.0,"so2":9.1,"mosquito_risk":7,"arthritis_risk":5,"migraine_risk":7,"frizz_risk":1,"updated_at":"2026-07-12T23:30:13.416475+05:30"},{"city":"Ludhiana","state":"Punjab","latitude":30.901,"longitude":75.8573,"temp":28.7,"humidity":83,"rain":0.0,"pressure":969.3,"uv_index":7.9,"wind_gusts":41.0,"aqi":170,"pm10":161.6,"pm2_5":101.5,"no2":41.2,"co":418.0,"o3":37.0,"so2":8.6,"mosquito_risk":7,"arthritis_risk":5,"migraine_risk":7,"frizz_risk":1,"updated_at":"2026-07-12T23:30:13.416481+05:30"},{"city":"Jalandhar","state":"Punjab","latitude":31.326,"longitude":75.5762,"temp":27.0,"humidity":86,"rain":0.0,"pressure":970.3,"uv_index":8.15,"wind_gusts":47.9,"aqi":161,"pm10":171.4,"pm2_5":111.8,"no2":54.6,"co":434.0,"o3":27.0,"so2":8.8,"mosquito_risk":7,"arthritis_risk":5,"migraine_risk":7,"frizz_risk":1,"updated_at":"2026-07-12T23:30:13.416490+05:30"},{"city":"Dehradun","state":"Uttarakhand","latitude":30.6284,"longitude":78.0322,"temp":19.5,"humidity":91,"rain":0.0,"pressure":825.0,"uv_index":7.5,"wind_gusts":31.7,"aqi":78,"pm10":101.5,"pm2_5":50.9,"no2":23.0,"co":269.0,"o3":81.0,"so2":5.8,"mosquito_risk":3,"arthritis_risk":10,"migraine_risk":7,"frizz_risk":1,"updated_at":"2026-07-12T23:30:13.416497+05:30"},{"city":"Shimla","state":"Himachal Pradesh","latitude":31.1048,"longitude":77.1734,"temp":16.4,"humidity":72,"rain":0.0,"pressure":779.1,"uv_index":8.25,"wind_gusts":47.9,"aqi":101,"pm10":91.0,"pm2_5":46.3,"no2":16.2,"co":299.0,"o3":94.0,"so2":8.5,"mosquito_risk":3,"arthritis_risk":5,"migraine_risk":7,"frizz_risk":0,"updated_at":"2026-07-12T23:30:13.416504+05:30"},{"city":"Manali","state":"Himachal Pradesh","latitude":32.2396,"longitude":77.1887,"temp":19.6,"humidity":74,"rain":0.0,"pressure":814.6,"uv_index":8.6,"wind_gusts":35.3,"aqi":99,"pm10":13.8,"pm2_5":12.1,"no2":14.7,"co":307.0,"o3":120.0,"so2":0.1,"mosquito_risk":3,"arthritis_risk":5,"migraine_risk":7,"frizz_risk":0,"updated_at":"2026-07-12T23:30:13.416517+05:30"},{"city":"Gurgaon","state":"Haryana","latitude":28.4595,"longitude":77.0266,"temp":29.5,"humidity":81,"rain":0.0,"pressure":972.2,"uv_index":7.7,"wind_gusts":32.4,"aqi":806,"pm10":1132.5,"pm2_5":227.7,"no2":18.2,"co":289.0,"o3":57.0,"so2":8.5,"mosquito_risk":7,"arthritis_risk":5,"migraine_risk":7,"frizz_risk":1,"updated_at":"2026-07-12T23:30:13.416526+05:30"},{"city":"Noida","state":"Uttar Pradesh","latitude":28.5355,"longitude":77.391,"temp":29.4,"humidity":85,"rain":0.0,"pressure":975.1,"uv_index":7.7,"wind_gusts":28.1,"aqi":806,"pm10":1132.5,"pm2_5":227.7,"no2":18.2,"co":284.0,"o3":57.0,"so2":8.5,"mosquito_risk":7,"arthritis_risk":5,"migraine_risk":7,"frizz_risk":1,"updated_at":"2026-07-12T23:30:13.416533+05:30"},{"city":"Ghaziabad","state":"Uttar Pradesh","latitude":28.6692,"longitude":77.4538,"temp":29.2,"humidity":86,"rain":0.0,"pressure":973.3,"uv_index":7.7,"wind_gusts":29.5,"aqi":525,"pm10":448.0,"pm2_5":141.6,"no2":34.3,"co":434.0,"o3":40.0,"so2":19.6,"mosquito_risk":7,"arthritis_risk":5,"migraine_risk":7,"frizz_risk":1,"updated_at":"2026-07-12T23:30:13.416539+05:30"},{"city":"Faridabad","state":"Haryana","latitude":28.4089,"longitude":77.3178,"temp":29.7,"humidity":83,"rain":0.0,"pressure":974.4,"uv_index":7.75,"wind_gusts":31.3,"aqi":806,"pm10":1132.5,"pm2_5":227.7,"no2":18.2,"co":266.0,"o3":57.0,"so2":8.5,"mosquito_risk":7,"arthritis_risk":5,"migraine_risk":7,"frizz_risk":1,"updated_at":"2026-07-12T23:30:13.416545+05:30"},{"city":"Meerut","state":"Uttar Pradesh","latitude":28.9845,"longitude":77.7064,"temp":29.1,"humidity":83,"rain":0.0,"pressure":972.1,"uv_index":7.55,"wind_gusts":36.4,"aqi":525,"pm10":448.0,"pm2_5":141.6,"no2":34.3,"co":519.0,"o3":40.0,"so2":19.6,"mosquito_risk":7,"arthritis_risk":5,"migraine_risk":7,"frizz_risk":1,"updated_at":"2026-07-12T23:30:13.416551+05:30"},{"city":"Agra","state":"Uttar Pradesh","latitude":27.1767,"longitude":78.0081,"temp":30.6,"humidity":62,"rain":0.0,"pressure":978.6,"uv_index":8.0,"wind_gusts":38.2,"aqi":137,"pm10":170.0,"pm2_5":46.7,"no2":16.0,"co":229.0,"o3":53.0,"so2":6.1,"mosquito_risk":3,"arthritis_risk":5,"migraine_risk":7,"frizz_risk":1,"updated_at":"2026-07-12T23:30:13.416557+05:30"},{"city":"Varanasi","state":"Uttar Pradesh","latitude":25.3176,"longitude":82.9739,"temp":30.5,"humidity":67,"rain":0.0,"pressure":989.4,"uv_index":8.25,"wind_gusts":37.1,"aqi":94,"pm10":46.7,"pm2_5":31.9,"no2":14.0,"co":255.0,"o3":59.0,"so2":8.5,"mosquito_risk":3,"arthritis_risk":5,"migraine_risk":7,"frizz_risk":1,"updated_at":"2026-07-12T23:30:13.416564+05:30"},{"city":"Prayagraj","state":"Uttar Pradesh","latitude":25.4358,"longitude":81.8463,"temp":30.4,"humidity":64,"rain":0.0,"pressure":988.1,"uv_index":8.45,"wind_gusts":42.8,"aqi":92,"pm10":46.7,"pm2_5":29.2,"no2":9.1,"co":166.0,"o3":73.0,"so2":6.6,"mosquito_risk":3,"arthritis_risk":5,"migraine_risk":7,"frizz_risk":1,"updated_at":"2026-07-12T23:30:13.416570+05:30"},{"city":"Gorakhpur","state":"Uttar Pradesh","latitude":26.7606,"longitude":83.3732,"temp":26.8,"humidity":96,"rain":0.1,"pressure":988.5,"uv_index":7.65,"wind_gusts":38.5,"aqi":130,"pm10":84.5,"pm2_5":56.1,"no2":26.2,"co":357.0,"o3":48.0,"so2":6.9,"mosquito_risk":10,"arthritis_risk":5,"migraine_risk":7,"frizz_risk":1,"updated_at":"2026-07-12T23:30:13.416576+05:30"},{"city":"Bareilly","state":"Uttar Pradesh","latitude":28.367,"longitude":79.4304,"temp":29.4,"humidity":82,"rain":0.0,"pressure":977.6,"uv_index":8.0,"wind_gusts":31.7,"aqi":173,"pm10":252.4,"pm2_5":97.6,"no2":19.4,"co":257.0,"o3":49.0,"so2":6.9,"mosquito_risk":7,"arthritis_risk":5,"migraine_risk":7,"frizz_risk":1,"updated_at":"2026-07-12T23:30:13.416585+05:30"},{"city":"Aligarh","state":"Uttar Pradesh","latitude":27.8974,"longitude":78.088,"temp":30.0,"humidity":67,"rain":0.0,"pressure":976.4,"uv_index":7.85,"wind_gusts":36.0,"aqi":595,"pm10":646.3,"pm2_5":143.4,"no2":11.8,"co":196.0,"o3":66.0,"so2":5.3,"mosquito_risk":7,"arthritis_risk":5,"migraine_risk":7,"frizz_risk":1,"updated_at":"2026-07-12T23:30:13.416591+05:30"},{"city":"Moradabad","state":"Uttar Pradesh","latitude":28.8386,"longitude":78.7733,"temp":29.0,"humidity":83,"rain":0.0,"pressure":974.5,"uv_index":7.8,"wind_gusts":36.4,"aqi":271,"pm10":588.6,"pm2_5":171.4,"no2":32.3,"co":463.0,"o3":48.0,"so2":14.4,"mosquito_risk":7,"arthritis_risk":5,"migraine_risk":7,"frizz_risk":1,"updated_at":"2026-07-12T23:30:13.416597+05:30"},{"city":"Saharanpur","state":"Uttar Pradesh","latitude":29.9637,"longitude":77.546,"temp":28.8,"humidity":87,"rain":0.0,"pressure":966.6,"uv_index":7.35,"wind_gusts":33.1,"aqi":176,"pm10":212.8,"pm2_5":138.8,"no2":67.6,"co":452.0,"o3":20.0,"so2":23.4,"mosquito_risk":7,"arthritis_risk":5,"migraine_risk":7,"frizz_risk":1,"updated_at":"2026-07-12T23:30:13.416603+05:30"},{"city":"Jhansi","state":"Uttar Pradesh","latitude":25.4484,"longitude":78.5685,"temp":29.8,"humidity":64,"rain":0.0,"pressure":970.4,"uv_index":8.35,"wind_gusts":44.6,"aqi":83,"pm10":44.5,"pm2_5":25.4,"no2":6.9,"co":145.0,"o3":70.0,"so2":7.0,"mosquito_risk":7,"arthritis_risk":5,"migraine_risk":7,"frizz_risk":1,"updated_at":"2026-07-12T23:30:16.774299+05:30"},{"city":"Surat","state":"Gujarat","latitude":21.1702,"longitude":72.8311,"temp":28.4,"humidity":83,"rain":0.0,"pressure":1003.2,"uv_index":5.85,"wind_gusts":68.4,"aqi":59,"pm10":28.6,"pm2_5":15.4,"no2":11.6,"co":186.0,"o3":38.0,"so2":20.1,"mosquito_risk":7,"arthritis_risk":5,"migraine_risk":0,"frizz_risk":1,"updated_at":"2026-07-12T23:30:16.774332+05:30"},{"city":"Vadodara","state":"Gujarat","latitude":22.3072,"longitude":73.1812,"temp":28.4,"humidity":82,"rain":0.0,"pressure":999.6,"uv_index":8.05,"wind_gusts":62.3,"aqi":59,"pm10":32.6,"pm2_5":17.6,"no2":7.3,"co":112.0,"o3":40.0,"so2":7.1,"mosquito_risk":7,"arthritis_risk":5,"migraine_risk":7,"frizz_risk":1,"updated_at":"2026-07-12T23:30:16.774342+05:30"},{"city":"Rajkot","state":"Gujarat","latitude":22.3039,"longitude":70.8022,"temp":27.7,"humidity":81,"rain":0.0,"pressure":988.6,"uv_index":7.7,"wind_gusts":61.6,"aqi":58,"pm10":32.0,"pm2_5":15.6,"no2":2.9,"co":97.0,"o3":45.0,"so2":2.5,"mosquito_risk":7,"arthritis_risk":5,"migraine_risk":7,"frizz_risk":1,"updated_at":"2026-07-12T23:30:16.774352+05:30"},{"city":"Thane","state":"Maharashtra","latitude":19.2183,"longitude":72.9781,"temp":27.2,"humidity":89,"rain":0.0,"pressure":1006.0,"uv_index":6.05,"wind_gusts":52.6,"aqi":52,"pm10":31.3,"pm2_5":13.6,"no2":4.8,"co":165.0,"o3":45.0,"so2":4.6,"mosquito_risk":7,"arthritis_risk":5,"migraine_risk":4,"frizz_risk":1,"updated_at":"2026-07-12T23:30:16.774381+05:30"},{"city":"Nagpur","state":"Maharashtra","latitude":21.1458,"longitude":79.0882,"temp":28.1,"humidity":75,"rain":0.0,"pressure":968.2,"uv_index":7.6,"wind_gusts":42.1,"aqi":72,"pm10":44.6,"pm2_5":26.0,"no2":13.4,"co":241.0,"o3":48.0,"so2":10.5,"mosquito_risk":7,"arthritis_risk":5,"migraine_risk":7,"frizz_risk":1,"updated_at":"2026-07-12T23:30:16.774391+05:30"},{"city":"Nashik","state":"Maharashtra","latitude":19.9975,"longitude":73.7898,"temp":23.4,"humidity":92,"rain":0.0,"pressure":942.4,"uv_index":8.05,"wind_gusts":65.5,"aqi":36,"pm10":13.6,"pm2_5":8.0,"no2":8.6,"co":123.0,"o3":33.0,"so2":6.4,"mosquito_risk":3,"arthritis_risk":5,"migraine_risk":7,"frizz_risk":1,"updated_at":"2026-07-12T23:30:16.774399+05:30"},{"city":"Aurangabad","state":"Maharashtra","latitude":19.8762,"longitude":75.3433,"temp":24.2,"humidity":79,"rain":0.0,"pressure":941.3,"uv_index":8.9,"wind_gusts":55.4,"aqi":53,"pm10":25.2,"pm2_5":12.3,"no2":7.9,"co":132.0,"o3":41.0,"so2":9.1,"mosquito_risk":3,"arthritis_risk":5,"migraine_risk":7,"frizz_risk":1,"updated_at":"2026-07-12T23:30:16.774407+05:30"},{"city":"Solapur","state":"Maharashtra","latitude":17.6599,"longitude":75.9064,"temp":25.8,"humidity":71,"rain":0.0,"pressure":955.6,"uv_index":8.85,"wind_gusts":50.0,"aqi":47,"pm10":18.0,"pm2_5":9.6,"no2":4.7,"co":126.0,"o3":38.0,"so2":2.4,"mosquito_risk":7,"arthritis_risk":5,"migraine_risk":7,"frizz_risk":1,"updated_at":"2026-07-12T23:30:16.774415+05:30"},{"city":"Kolhapur","state":"Maharashtra","latitude":16.705,"longitude":74.2433,"temp":23.7,"humidity":93,"rain":0.0,"pressure":947.2,"uv_index":8.3,"wind_gusts":54.4,"aqi":32,"pm10":14.6,"pm2_5":8.6,"no2":5.1,"co":120.0,"o3":36.0,"so2":2.6,"mosquito_risk":3,"arthritis_risk":5,"migraine_risk":7,"frizz_risk":1,"updated_at":"2026-07-12T23:30:16.774422+05:30"},{"city":"Goa","state":"Goa","latitude":15.2993,"longitude":74.124,"temp":26.3,"humidity":94,"rain":0.0,"pressure":998.5,"uv_index":7.4,"wind_gusts":37.4,"aqi":54,"pm10":29.2,"pm2_5":16.6,"no2":4.5,"co":327.0,"o3":38.0,"so2":1.6,"mosquito_risk":7,"arthritis_risk":5,"migraine_risk":7,"frizz_risk":1,"updated_at":"2026-07-12T23:30:16.774430+05:30"},{"city":"Jodhpur","state":"Rajasthan","latitude":26.2389,"longitude":73.0243,"temp":31.5,"humidity":58,"rain":0.0,"pressure":974.8,"uv_index":8.4,"wind_gusts":51.8,"aqi":167,"pm10":254.3,"pm2_5":57.7,"no2":3.1,"co":103.0,"o3":63.0,"so2":2.6,"mosquito_risk":0,"arthritis_risk":5,"migraine_risk":7,"frizz_risk":1,"updated_at":"2026-07-12T23:30:16.774438+05:30"},{"city":"Udaipur","state":"Rajasthan","latitude":24.5854,"longitude":73.7125,"temp":26.4,"humidity":84,"rain":0.0,"pressure":939.8,"uv_index":8.8,"wind_gusts":56.2,"aqi":71,"pm10":37.8,"pm2_5":20.8,"no2":5.3,"co":130.0,"o3":58.0,"so2":5.5,"mosquito_risk":7,"arthritis_risk":5,"migraine_risk":7,"frizz_risk":1,"updated_at":"2026-07-12T23:30:16.774446+05:30"},{"city":"Kota","state":"Rajasthan","latitude":25.2138,"longitude":75.8648,"temp":29.7,"humidity":66,"rain":0.0,"pressure":971.9,"uv_index":8.25,"wind_gusts":37.1,"aqi":82,"pm10":50.8,"pm2_5":29.3,"no2":6.5,"co":160.0,"o3":75.0,"so2":6.8,"mosquito_risk":7,"arthritis_risk":5,"migraine_risk":7,"frizz_risk":1,"updated_at":"2026-07-12T23:30:16.774453+05:30"},{"city":"Bikaner","state":"Rajasthan","latitude":28.0229,"longitude":73.3119,"temp":32.0,"humidity":56,"rain":0.0,"pressure":972.1,"uv_index":8.45,"wind_gusts":41.4,"aqi":158,"pm10":340.9,"pm2_5":89.9,"no2":2.9,"co":135.0,"o3":59.0,"so2":2.8,"mosquito_risk":0,"arthritis_risk":5,"migraine_risk":7,"frizz_risk":1,"updated_at":"2026-07-12T23:30:16.774460+05:30"},{"city":"Ajmer","state":"Rajasthan","latitude":26.4499,"longitude":74.6399,"temp":29.5,"humidity":59,"rain":0.0,"pressure":947.2,"uv_index":8.35,"wind_gusts":48.6,"aqi":79,"pm10":45.1,"pm2_5":26.0,"no2":6.1,"co":126.0,"o3":63.0,"so2":4.0,"mosquito_risk":4,"arthritis_risk":5,"migraine_risk":7,"frizz_risk":1,"updated_at":"2026-07-12T23:30:16.774468+05:30"},{"city":"Gwalior","state":"Madhya Pradesh","latitude":26.2183,"longitude":78.1828,"temp":29.0,"humidity":68,"rain":0.0,"pressure":975.0,"uv_index":8.2,"wind_gusts":43.2,"aqi":83,"pm10":46.7,"pm2_5":27.7,"no2":9.2,"co":153.0,"o3":67.0,"so2":7.3,"mosquito_risk":7,"arthritis_risk":5,"migraine_risk":7,"frizz_risk":1,"updated_at":"2026-07-12T23:30:16.774475+05:30"},{"city":"Indore","state":"Madhya Pradesh","latitude":22.7196,"longitude":75.8577,"temp":25.4,"humidity":85,"rain":0.0,"pressure":943.7,"uv_index":8.55,"wind_gusts":54.0,"aqi":66,"pm10":27.8,"pm2_5":15.2,"no2":5.8,"co":174.0,"o3":52.0,"so2":7.0,"mosquito_risk":7,"arthritis_risk":5,"migraine_risk":7,"frizz_risk":1,"updated_at":"2026-07-12T23:30:16.774483+05:30"},{"city":"Bhopal","state":"Madhya Pradesh","latitude":23.2599,"longitude":77.4126,"temp":26.8,"humidity":76,"rain":0.0,"pressure":948.6,"uv_index":7.85,"wind_gusts":43.2,"aqi":71,"pm10":48.5,"pm2_5":30.2,"no2":6.1,"co":186.0,"o3":70.0,"so2":6.1,"mosquito_risk":7,"arthritis_risk":5,"migraine_risk":7,"frizz_risk":1,"updated_at":"2026-07-12T23:30:16.774490+05:30"},{"city":"Jabalpur","state":"Madhya Pradesh","latitude":23.1815,"longitude":79.9864,"temp":26.4,"humidity":79,"rain":0.0,"pressure":955.7,"uv_index":6.5,"wind_gusts":39.2,"aqi":72,"pm10":44.2,"pm2_5":24.2,"no2":5.7,"co":219.0,"o3":63.0,"so2":4.7,"mosquito_risk":7,"arthritis_risk":5,"migraine_risk":7,"frizz_risk":1,"updated_at":"2026-07-12T23:30:16.774497+05:30"},{"city":"Ujjain","state":"Madhya Pradesh","latitude":23.1765,"longitude":75.7885,"temp":26.0,"humidity":83,"rain":0.0,"pressure":949.1,"uv_index":8.35,"wind_gusts":54.0,"aqi":66,"pm10":26.9,"pm2_5":14.8,"no2":5.4,"co":158.0,"o3":51.0,"so2":7.5,"mosquito_risk":7,"arthritis_risk":5,"migraine_risk":7,"frizz_risk":1,"updated_at":"2026-07-12T23:30:16.774505+05:30"},{"city":"Visakhapatnam","state":"Andhra Pradesh","latitude":17.6868,"longitude":83.2185,"temp":30.3,"humidity":62,"rain":0.0,"pressure":998.0,"uv_index":8.7,"wind_gusts":41.8,"aqi":95,"pm10":42.1,"pm2_5":26.1,"no2":19.9,"co":269.0,"o3":50.0,"so2":32.7,"mosquito_risk":3,"arthritis_risk":5,"migraine_risk":7,"frizz_risk":1,"updated_at":"2026-07-12T23:30:16.774513+05:30"},{"city":"Vijayawada","state":"Andhra Pradesh","latitude":16.5062,"longitude":80.648,"temp":30.6,"humidity":63,"rain":0.0,"pressure":998.4,"uv_index":7.6,"wind_gusts":45.4,"aqi":84,"pm10":49.2,"pm2_5":34.9,"no2":18.3,"co":503.0,"o3":38.0,"so2":6.7,"mosquito_risk":3,"arthritis_risk":5,"migraine_risk":7,"frizz_risk":1,"updated_at":"2026-07-12T23:30:16.774520+05:30"},{"city":"Guntur","state":"Andhra Pradesh","latitude":16.3067,"longitude":80.4365,"temp":31.9,"humidity":52,"rain":0.0,"pressure":999.7,"uv_index":8.2,"wind_gusts":48.2,"aqi":77,"pm10":46.6,"pm2_5":32.4,"no2":18.4,"co":291.0,"o3":38.0,"so2":6.5,"mosquito_risk":0,"arthritis_risk":5,"migraine_risk":7,"frizz_risk":1,"updated_at":"2026-07-12T23:30:16.774528+05:30"},{"city":"Nellore","state":"Andhra Pradesh","latitude":14.4426,"longitude":79.9865,"temp":30.0,"humidity":71,"rain":0.0,"pressure":1002.4,"uv_index":7.95,"wind_gusts":45.7,"aqi":68,"pm10":36.8,"pm2_5":24.8,"no2":11.4,"co":200.0,"o3":70.0,"so2":7.1,"mosquito_risk":7,"arthritis_risk":5,"migraine_risk":4,"frizz_risk":1,"updated_at":"2026-07-12T23:30:16.774536+05:30"},{"city":"Kurnool","state":"Andhra Pradesh","latitude":15.8281,"longitude":78.0373,"temp":30.4,"humidity":51,"rain":0.0,"pressure":974.7,"uv_index":8.35,"wind_gusts":48.2,"aqi":53,"pm10":19.3,"pm2_5":10.7,"no2":5.6,"co":138.0,"o3":51.0,"so2":4.4,"mosquito_risk":0,"arthritis_risk":5,"migraine_risk":7,"frizz_risk":1,"updated_at":"2026-07-12T23:30:16.774545+05:30"},{"city":"Kakinada","state":"Andhra Pradesh","latitude":16.9891,"longitude":82.2475,"temp":29.5,"humidity":69,"rain":0.0,"pressure":1002.5,"uv_index":8.65,"wind_gusts":49.0,"aqi":85,"pm10":44.7,"pm2_5":27.1,"no2":9.1,"co":299.0,"o3":68.0,"so2":5.3,"mosquito_risk":7,"arthritis_risk":5,"migraine_risk":4,"frizz_risk":1,"updated_at":"2026-07-12T23:30:16.774552+05:30"},{"city":"Tirupati","state":"Andhra Pradesh","latitude":13.6288,"longitude":79.4192,"temp":31.1,"humidity":49,"rain":0.0,"pressure":988.2,"uv_index":8.65,"wind_gusts":33.1,"aqi":78,"pm10":78.7,"pm2_5":51.2,"no2":45.6,"co":213.0,"o3":15.0,"so2":8.2,"mosquito_risk":0,"arthritis_risk":5,"migraine_risk":7,"frizz_risk":1,"updated_at":"2026-07-12T23:30:16.774559+05:30"},{"city":"Warangal","state":"Telangana","latitude":17.9689,"longitude":79.5941,"temp":27.4,"humidity":80,"rain":0.0,"pressure":974.8,"uv_index":8.9,"wind_gusts":43.6,"aqi":73,"pm10":54.8,"pm2_5":39.3,"no2":22.1,"co":447.0,"o3":25.0,"so2":5.9,"mosquito_risk":7,"arthritis_risk":5,"migraine_risk":7,"frizz_risk":1,"updated_at":"2026-07-12T23:30:16.774567+05:30"},{"city":"Nizamabad","state":"Telangana","latitude":18.6725,"longitude":78.0941,"temp":28.5,"humidity":58,"rain":0.0,"pressure":961.6,"uv_index":8.9,"wind_gusts":45.7,"aqi":62,"pm10":32.4,"pm2_5":20.9,"no2":8.8,"co":168.0,"o3":53.0,"so2":6.1,"mosquito_risk":4,"arthritis_risk":5,"migraine_risk":7,"frizz_risk":1,"updated_at":"2026-07-12T23:30:16.774574+05:30"},{"city":"Mysore","state":"Karnataka","latitude":12.2958,"longitude":76.6396,"temp":21.7,"humidity":94,"rain":0.0,"pressure":928.7,"uv_index":8.65,"wind_gusts":44.3,"aqi":40,"pm10":12.8,"pm2_5":7.6,"no2":7.2,"co":135.0,"o3":37.0,"so2":2.5,"mosquito_risk":3,"arthritis_risk":5,"migraine_risk":7,"frizz_risk":1,"updated_at":"2026-07-12T23:30:16.774581+05:30"},{"city":"Mangalore","state":"Karnataka","latitude":12.9141,"longitude":74.856,"temp":25.8,"humidity":92,"rain":0.0,"pressure":1007.9,"uv_index":5.45,"wind_gusts":42.1,"aqi":42,"pm10":20.4,"pm2_5":11.7,"no2":5.5,"co":148.0,"o3":34.0,"so2":2.6,"mosquito_risk":7,"arthritis_risk":5,"migraine_risk":0,"frizz_risk":1,"updated_at":"2026-07-12T23:30:16.774588+05:30"},{"city":"Hubli-Dharwad","state":"Karnataka","latitude":15.3647,"longitude":75.124,"temp":23.0,"humidity":93,"rain":0.0,"pressure":940.6,"uv_index":8.8,"wind_gusts":50.4,"aqi":30,"pm10":11.8,"pm2_5":6.5,"no2":4.6,"co":111.0,"o3":36.0,"so2":1.7,"mosquito_risk":3,"arthritis_risk":5,"migraine_risk":7,"frizz_risk":1,"updated_at":"2026-07-12T23:30:16.774595+05:30"},{"city":"Belgaum","state":"Karnataka","latitude":15.8497,"longitude":74.4977,"temp":21.7,"humidity":98,"rain":0.0,"pressure":925.1,"uv_index":8.5,"wind_gusts":50.8,"aqi":30,"pm10":10.4,"pm2_5":5.8,"no2":4.3,"co":107.0,"o3":36.0,"so2":1.6,"mosquito_risk":3,"arthritis_risk":5,"migraine_risk":7,"frizz_risk":1,"updated_at":"2026-07-12T23:30:20.152720+05:30"},{"city":"Coimbatore","state":"Tamil Nadu","latitude":11.0168,"longitude":76.9558,"temp":23.9,"humidity":93,"rain":0.0,"pressure":961.5,"uv_index":8.2,"wind_gusts":56.5,"aqi":41,"pm10":10.9,"pm2_5":8.5,"no2":8.6,"co":177.0,"o3":28.0,"so2":3.3,"mosquito_risk":3,"arthritis_risk":5,"migraine_risk":7,"frizz_risk":1,"updated_at":"2026-07-12T23:30:20.152754+05:30"},{"city":"Madurai","state":"Tamil Nadu","latitude":9.9252,"longitude":78.1198,"temp":29.4,"humidity":58,"rain":0.0,"pressure":991.8,"uv_index":8.0,"wind_gusts":39.2,"aqi":64,"pm10":13.3,"pm2_5":9.8,"no2":9.4,"co":133.0,"o3":37.0,"so2":4.3,"mosquito_risk":4,"arthritis_risk":5,"migraine_risk":7,"frizz_risk":1,"updated_at":"2026-07-12T23:30:20.152765+05:30"},{"city":"Trichy","state":"Tamil Nadu","latitude":10.7905,"longitude":78.7047,"temp":29.4,"humidity":60,"rain":0.0,"pressure":998.2,"uv_index":8.4,"wind_gusts":55.8,"aqi":52,"pm10":15.4,"pm2_5":7.9,"no2":5.3,"co":116.0,"o3":41.0,"so2":2.7,"mosquito_risk":4,"arthritis_risk":5,"migraine_risk":7,"frizz_risk":1,"updated_at":"2026-07-12T23:30:20.152775+05:30"},{"city":"Salem","state":"Tamil Nadu","latitude":11.6643,"longitude":78.146,"temp":26.6,"humidity":76,"rain":0.0,"pressure":976.7,"uv_index":8.65,"wind_gusts":33.5,"aqi":62,"pm10":18.2,"pm2_5":12.0,"no2":10.4,"co":286.0,"o3":38.0,"so2":5.5,"mosquito_risk":7,"arthritis_risk":5,"migraine_risk":7,"frizz_risk":1,"updated_at":"2026-07-12T23:30:20.152784+05:30"},{"city":"Tirunelveli","state":"Tamil Nadu","latitude":8.7139,"longitude":77.7567,"temp":28.8,"humidity":65,"rain":0.0,"pressure":1002.0,"uv_index":7.95,"wind_gusts":46.4,"aqi":31,"pm10":10.2,"pm2_5":6.9,"no2":5.6,"co":139.0,"o3":36.0,"so2":2.3,"mosquito_risk":7,"arthritis_risk":5,"migraine_risk":4,"frizz_risk":1,"updated_at":"2026-07-12T23:30:20.152793+05:30"},{"city":"Vellore","state":"Tamil Nadu","latitude":12.9165,"longitude":79.1325,"temp":32.5,"humidity":43,"rain":0.0,"pressure":982.1,"uv_index":8.45,"wind_gusts":41.0,"aqi":64,"pm10":24.6,"pm2_5":15.8,"no2":8.4,"co":168.0,"o3":55.0,"so2":3.8,"mosquito_risk":0,"arthritis_risk":5,"migraine_risk":7,"frizz_risk":1,"updated_at":"2026-07-12T23:30:20.152801+05:30"},{"city":"Erode","state":"Tamil Nadu","latitude":11.341,"longitude":77.7172,"temp":26.9,"humidity":75,"rain":0.0,"pressure":988.4,"uv_index":8.55,"wind_gusts":51.8,"aqi":53,"pm10":21.6,"pm2_5":14.6,"no2":14.6,"co":158.0,"o3":30.0,"so2":4.0,"mosquito_risk":7,"arthritis_risk":5,"migraine_risk":7,"frizz_risk":1,"updated_at":"2026-07-12T23:30:20.152809+05:30"},{"city":"Kochi","state":"Kerala","latitude":9.9312,"longitude":76.2673,"temp":27.1,"humidity":87,"rain":0.0,"pressure":1010.1,"uv_index":7.9,"wind_gusts":42.1,"aqi":47,"pm10":17.2,"pm2_5":12.8,"no2":10.8,"co":116.0,"o3":25.0,"so2":4.0,"mosquito_risk":7,"arthritis_risk":0,"migraine_risk":4,"frizz_risk":1,"updated_at":"2026-07-12T23:30:20.152818+05:30"},{"city":"Thiruvananthapuram","state":"Kerala","latitude":8.5241,"longitude":76.9366,"temp":25.6,"humidity":91,"rain":0.0,"pressure":1009.5,"uv_index":7.65,"wind_gusts":49.3,"aqi":36,"pm10":14.3,"pm2_5":8.5,"no2":3.7,"co":116.0,"o3":41.0,"so2":1.6,"mosquito_risk":7,"arthritis_risk":0,"migraine_risk":4,"frizz_risk":1,"updated_at":"2026-07-12T23:30:20.152826+05:30"},{"city":"Kozhikode","state":"Kerala","latitude":11.2588,"longitude":75.7804,"temp":25.1,"humidity":97,"rain":0.0,"pressure":1009.4,"uv_index":8.05,"wind_gusts":44.3,"aqi":35,"pm10":19.7,"pm2_5":9.4,"no2":1.9,"co":145.0,"o3":46.0,"so2":1.3,"mosquito_risk":7,"arthritis_risk":0,"migraine_risk":4,"frizz_risk":1,"updated_at":"2026-07-12T23:30:20.152834+05:30"},{"city":"Thrissur","state":"Kerala","latitude":10.5276,"longitude":76.2144,"temp":25.4,"humidity":95,"rain":0.0,"pressure":1008.6,"uv_index":7.8,"wind_gusts":39.2,"aqi":42,"pm10":20.0,"pm2_5":14.3,"no2":8.8,"co":141.0,"o3":29.0,"so2":3.6,"mosquito_risk":7,"arthritis_risk":0,"migraine_risk":4,"frizz_risk":1,"updated_at":"2026-07-12T23:30:20.152842+05:30"},{"city":"Kannur","state":"Kerala","latitude":11.8745,"longitude":75.3704,"temp":25.6,"humidity":96,"rain":0.1,"pressure":1008.5,"uv_index":7.8,"wind_gusts":46.8,"aqi":39,"pm10":16.7,"pm2_5":9.3,"no2":5.4,"co":153.0,"o3":34.0,"so2":2.0,"mosquito_risk":10,"arthritis_risk":0,"migraine_risk":4,"frizz_risk":1,"updated_at":"2026-07-12T23:30:20.152849+05:30"},{"city":"Patna","state":"Bihar","latitude":25.5941,"longitude":85.1376,"temp":27.0,"humidity":94,"rain":0.3,"pressure":992.8,"uv_index":8.25,"wind_gusts":38.5,"aqi":143,"pm10":92.0,"pm2_5":58.3,"no2":19.1,"co":214.0,"o3":64.0,"so2":8.6,"mosquito_risk":10,"arthritis_risk":5,"migraine_risk":7,"frizz_risk":1,"updated_at":"2026-07-12T23:30:20.152857+05:30"},{"city":"Gaya","state":"Bihar","latitude":24.7914,"longitude":85.0002,"temp":28.2,"humidity":85,"rain":0.1,"pressure":985.9,"uv_index":8.8,"wind_gusts":38.9,"aqi":119,"pm10":78.7,"pm2_5":54.6,"no2":21.1,"co":428.0,"o3":41.0,"so2":8.1,"mosquito_risk":10,"arthritis_risk":5,"migraine_risk":7,"frizz_risk":1,"updated_at":"2026-07-12T23:30:20.152865+05:30"},{"city":"Muzaffarpur","state":"Bihar","latitude":26.1209,"longitude":85.3647,"temp":27.2,"humidity":96,"rain":0.2,"pressure":992.7,"uv_index":7.2,"wind_gusts":42.5,"aqi":145,"pm10":85.9,"pm2_5":56.6,"no2":18.0,"co":562.0,"o3":71.0,"so2":6.7,"mosquito_risk":10,"arthritis_risk":5,"migraine_risk":7,"frizz_risk":1,"updated_at":"2026-07-12T23:30:20.152872+05:30"},{"city":"Bhagalpur","state":"Bihar","latitude":25.2425,"longitude":87.0117,"temp":28.7,"humidity":93,"rain":0.0,"pressure":992.7,"uv_index":8.35,"wind_gusts":40.3,"aqi":127,"pm10":79.2,"pm2_5":55.6,"no2":23.9,"co":550.0,"o3":50.0,"so2":10.4,"mosquito_risk":7,"arthritis_risk":5,"migraine_risk":7,"frizz_risk":1,"updated_at":"2026-07-12T23:30:20.152880+05:30"},{"city":"Ranchi","state":"Jharkhand","latitude":23.3441,"longitude":85.3096,"temp":24.0,"humidity":93,"rain":0.0,"pressure":931.0,"uv_index":9.25,"wind_gusts":37.8,"aqi":95,"pm10":53.4,"pm2_5":39.7,"no2":15.7,"co":188.0,"o3":57.0,"so2":9.3,"mosquito_risk":3,"arthritis_risk":5,"migraine_risk":7,"frizz_risk":1,"updated_at":"2026-07-12T23:30:20.152888+05:30"},{"city":"Jamshedpur","state":"Jharkhand","latitude":22.8046,"longitude":86.2029,"temp":26.5,"humidity":95,"rain":0.2,"pressure":983.9,"uv_index":9.05,"wind_gusts":29.2,"aqi":112,"pm10":47.1,"pm2_5":35.9,"no2":15.6,"co":196.0,"o3":73.0,"so2":22.8,"mosquito_risk":10,"arthritis_risk":5,"migraine_risk":7,"frizz_risk":1,"updated_at":"2026-07-12T23:30:20.152895+05:30"},{"city":"Dhanbad","state":"Jharkhand","latitude":23.7957,"longitude":86.4304,"temp":26.3,"humidity":92,"rain":0.0,"pressure":972.4,"uv_index":8.8,"wind_gusts":29.5,"aqi":155,"pm10":138.8,"pm2_5":114.3,"no2":70.1,"co":202.0,"o3":13.0,"so2":187.9,"mosquito_risk":7,"arthritis_risk":5,"migraine_risk":7,"frizz_risk":1,"updated_at":"2026-07-12T23:30:20.152903+05:30"},{"city":"Bokaro","state":"Jharkhand","latitude":23.6693,"longitude":86.1511,"temp":26.5,"humidity":89,"rain":0.0,"pressure":976.2,"uv_index":8.95,"wind_gusts":32.4,"aqi":152,"pm10":124.8,"pm2_5":101.7,"no2":51.3,"co":268.0,"o3":18.0,"so2":131.3,"mosquito_risk":7,"arthritis_risk":5,"migraine_risk":7,"frizz_risk":1,"updated_at":"2026-07-12T23:30:20.152910+05:30"},{"city":"Bhubaneswar","state":"Odisha","latitude":20.2961,"longitude":85.8245,"temp":28.3,"humidity":88,"rain":0.1,"pressure":995.7,"uv_index":8.5,"wind_gusts":37.1,"aqi":115,"pm10":45.8,"pm2_5":34.5,"no2":12.3,"co":362.0,"o3":78.0,"so2":7.6,"mosquito_risk":10,"arthritis_risk":5,"migraine_risk":7,"frizz_risk":1,"updated_at":"2026-07-12T23:30:20.152917+05:30"},{"city":"Cuttack","state":"Odisha","latitude":20.4625,"longitude":85.8828,"temp":28.9,"humidity":85,"rain":0.0,"pressure":997.4,"uv_index":8.4,"wind_gusts":39.6,"aqi":115,"pm10":45.8,"pm2_5":34.5,"no2":12.3,"co":383.0,"o3":78.0,"so2":7.6,"mosquito_risk":7,"arthritis_risk":5,"migraine_risk":7,"frizz_risk":1,"updated_at":"2026-07-12T23:30:20.152925+05:30"},{"city":"Rourkela","state":"Odisha","latitude":22.2604,"longitude":84.8536,"temp":27.0,"humidity":90,"rain":0.0,"pressure":978.0,"uv_index":8.85,"wind_gusts":32.8,"aqi":102,"pm10":39.5,"pm2_5":30.0,"no2":12.4,"co":482.0,"o3":81.0,"so2":20.2,"mosquito_risk":7,"arthritis_risk":5,"migraine_risk":7,"frizz_risk":1,"updated_at":"2026-07-12T23:30:20.152932+05:30"},{"city":"Raipur","state":"Chhattisgarh","latitude":21.2514,"longitude":81.6296,"temp":27.7,"humidity":70,"rain":0.0,"pressure":969.2,"uv_index":6.1,"wind_gusts":45.7,"aqi":93,"pm10":51.1,"pm2_5":33.1,"no2":20.1,"co":445.0,"o3":56.0,"so2":37.2,"mosquito_risk":7,"arthritis_risk":5,"migraine_risk":7,"frizz_risk":1,"updated_at":"2026-07-12T23:30:20.152940+05:30"},{"city":"Bhilai","state":"Chhattisgarh","latitude":21.1938,"longitude":81.3509,"temp":27.4,"humidity":72,"rain":0.0,"pressure":969.8,"uv_index":7.4,"wind_gusts":47.5,"aqi":88,"pm10":49.0,"pm2_5":30.4,"no2":15.6,"co":524.0,"o3":59.0,"so2":28.9,"mosquito_risk":7,"arthritis_risk":5,"migraine_risk":7,"frizz_risk":1,"updated_at":"2026-07-12T23:30:20.152948+05:30"},{"city":"Guwahati","state":"Assam","latitude":26.1158,"longitude":91.7086,"temp":25.9,"humidity":99,"rain":0.1,"pressure":993.7,"uv_index":4.15,"wind_gusts":18.7,"aqi":36,"pm10":13.1,"pm2_5":12.7,"no2":8.5,"co":311.0,"o3":62.0,"so2":2.3,"mosquito_risk":10,"arthritis_risk":5,"migraine_risk":3,"frizz_risk":1,"updated_at":"2026-07-12T23:30:20.152955+05:30"},{"city":"Agartala","state":"Tripura","latitude":23.8315,"longitude":91.2868,"temp":26.0,"humidity":98,"rain":0.1,"pressure":998.7,"uv_index":7.9,"wind_gusts":31.7,"aqi":84,"pm10":36.8,"pm2_5":31.7,"no2":10.7,"co":249.0,"o3":82.0,"so2":4.5,"mosquito_risk":10,"arthritis_risk":5,"migraine_risk":7,"frizz_risk":1,"updated_at":"2026-07-12T23:30:20.152963+05:30"},{"city":"Shillong","state":"Meghalaya","latitude":25.5788,"longitude":91.8933,"temp":21.0,"humidity":96,"rain":0.0,"pressure":851.7,"uv_index":3.55,"wind_gusts":39.6,"aqi":36,"pm10":2.4,"pm2_5":2.2,"no2":3.9,"co":259.0,"o3":83.0,"so2":3.0,"mosquito_risk":3,"arthritis_risk":5,"migraine_risk":3,"frizz_risk":1,"updated_at":"2026-07-12T23:30:20.152970+05:30"},{"city":"Imphal","state":"Manipur","latitude":24.817,"longitude":93.9368,"temp":23.0,"humidity":97,"rain":0.3,"pressure":917.6,"uv_index":7.15,"wind_gusts":20.5,"aqi":51,"pm10":15.4,"pm2_5":12.7,"no2":7.0,"co":253.0,"o3":58.0,"so2":2.9,"mosquito_risk":6,"arthritis_risk":5,"migraine_risk":7,"frizz_risk":1,"updated_at":"2026-07-12T23:30:20.152978+05:30"},{"city":"Aizawl","state":"Mizoram","latitude":23.7271,"longitude":92.7176,"temp":20.4,"humidity":95,"rain":0.0,"pressure":886.8,"uv_index":7.8,"wind_gusts":36.7,"aqi":50,"pm10":11.3,"pm2_5":7.0,"no2":2.3,"co":170.0,"o3":65.0,"so2":2.2,"mosquito_risk":3,"arthritis_risk":5,"migraine_risk":7,"frizz_risk":1,"updated_at":"2026-07-12T23:30:20.152985+05:30"},{"city":"Kohima","state":"Nagaland","latitude":25.6701,"longitude":94.1077,"temp":20.6,"humidity":98,"rain":0.0,"pressure":850.6,"uv_index":8.05,"wind_gusts":19.4,"aqi":27,"pm10":6.4,"pm2_5":5.5,"no2":6.0,"co":209.0,"o3":49.0,"so2":1.2,"mosquito_risk":3,"arthritis_risk":5,"migraine_risk":7,"frizz_risk":1,"updated_at":"2026-07-12T23:30:20.152993+05:30"},{"city":"Gangtok","state":"Sikkim","latitude":27.3314,"longitude":88.6138,"temp":19.8,"humidity":92,"rain":0.1,"pressure":832.6,"uv_index":4.0,"wind_gusts":30.2,"aqi":49,"pm10":2.5,"pm2_5":2.5,"no2":3.6,"co":298.0,"o3":106.0,"so2":1.1,"mosquito_risk":6,"arthritis_risk":10,"migraine_risk":3,"frizz_risk":1,"updated_at":"2026-07-12T23:30:20.153001+05:30"},{"city":"Siliguri","state":"West Bengal","latitude":26.7271,"longitude":88.3953,"temp":25.9,"humidity":96,"rain":0.2,"pressure":984.6,"uv_index":7.9,"wind_gusts":23.4,"aqi":49,"pm10":13.4,"pm2_5":12.8,"no2":8.0,"co":436.0,"o3":93.0,"so2":2.9,"mosquito_risk":10,"arthritis_risk":5,"migraine_risk":7,"frizz_risk":1,"updated_at":"2026-07-12T23:30:23.531780+05:30"},{"city":"Durgapur","state":"West Bengal","latitude":23.5204,"longitude":87.3119,"temp":27.0,"humidity":96,"rain":0.0,"pressure":988.0,"uv_index":5.2,"wind_gusts":28.1,"aqi":152,"pm10":71.7,"pm2_5":60.8,"no2":30.9,"co":673.0,"o3":52.0,"so2":44.0,"mosquito_risk":7,"arthritis_risk":5,"migraine_risk":3,"frizz_risk":1,"updated_at":"2026-07-12T23:30:23.531815+05:30"},{"city":"Asansol","state":"West Bengal","latitude":23.6739,"longitude":86.9524,"temp":27.0,"humidity":95,"rain":0.1,"pressure":986.1,"uv_index":8.3,"wind_gusts":28.8,"aqi":141,"pm10":72.2,"pm2_5":57.6,"no2":41.4,"co":326.0,"o3":39.0,"so2":60.0,"mosquito_risk":10,"arthritis_risk":5,"migraine_risk":7,"frizz_risk":1,"updated_at":"2026-07-12T23:30:23.531826+05:30"},{"city":"Pondicherry","state":"Puducherry","latitude":11.9139,"longitude":79.8145,"temp":29.9,"humidity":72,"rain":0.0,"pressure":1005.5,"uv_index":8.65,"wind_gusts":45.0,"aqi":66,"pm10":18.3,"pm2_5":12.1,"no2":9.2,"co":167.0,"o3":62.0,"so2":6.6,"mosquito_risk":7,"arthritis_risk":5,"migraine_risk":4,"frizz_risk":1,"updated_at":"2026-07-12T23:30:23.531836+05:30"},{"city":"Port Blair","state":"Andaman and Nicobar Islands","latitude":11.6234,"longitude":92.7265,"temp":27.9,"humidity":81,"rain":0.0,"pressure":1005.0,"uv_index":8.7,"wind_gusts":55.8,"aqi":50,"pm10":24.6,"pm2_5":10.1,"no2":0.2,"co":84.0,"o3":50.0,"so2":0.4,"mosquito_risk":7,"arthritis_risk":5,"migraine_risk":4,"frizz_risk":1,"updated_at":"2026-07-12T23:30:23.531845+05:30"},{"city":"Haridwar","state":"Uttarakhand","latitude":29.9457,"longitude":78.1642,"temp":28.0,"humidity":90,"rain":0.0,"pressure":965.0,"uv_index":7.45,"wind_gusts":37.4,"aqi":161,"pm10":140.6,"pm2_5":84.3,"no2":26.2,"co":312.0,"o3":45.0,"so2":10.0,"mosquito_risk":7,"arthritis_risk":5,"migraine_risk":7,"frizz_risk":1,"updated_at":"2026-07-12T23:30:23.531854+05:30"},{"city":"Rishikesh","state":"Uttarakhand","latitude":30.0869,"longitude":78.2676,"temp":26.8,"humidity":88,"rain":0.0,"pressure":957.8,"uv_index":7.6,"wind_gusts":29.9,"aqi":145,"pm10":85.4,"pm2_5":49.7,"no2":12.5,"co":255.0,"o3":80.0,"so2":6.9,"mosquito_risk":7,"arthritis_risk":5,"migraine_risk":7,"frizz_risk":1,"updated_at":"2026-07-12T23:30:23.531863+05:30"},{"city":"Nainital","state":"Uttarakhand","latitude":29.3919,"longitude":79.4542,"temp":17.3,"humidity":100,"rain":0.0,"pressure":800.3,"uv_index":6.3,"wind_gusts":32.8,"aqi":154,"pm10":224.0,"pm2_5":71.7,"no2":10.7,"co":285.0,"o3":95.0,"so2":5.1,"mosquito_risk":3,"arthritis_risk":10,"migraine_risk":7,"frizz_risk":1,"updated_at":"2026-07-12T23:30:23.531872+05:30"},{"city":"Mussoorie","state":"Uttarakhand","latitude":30.4599,"longitude":78.0664,"temp":17.7,"humidity":100,"rain":0.0,"pressure":797.9,"uv_index":8.0,"wind_gusts":43.2,"aqi":140,"pm10":117.3,"pm2_5":61.9,"no2":16.9,"co":283.0,"o3":87.0,"so2":9.8,"mosquito_risk":3,"arthritis_risk":10,"migraine_risk":7,"frizz_risk":1,"updated_at":"2026-07-12T23:30:23.531880+05:30"},{"city":"Dharamshala","state":"Himachal Pradesh","latitude":32.219,"longitude":76.3234,"temp":21.1,"humidity":71,"rain":0.0,"pressure":862.4,"uv_index":8.45,"wind_gusts":28.8,"aqi":56,"pm10":27.8,"pm2_5":20.0,"no2":15.3,"co":364.0,"o3":32.0,"so2":0.7,"mosquito_risk":3,"arthritis_risk":5,"migraine_risk":7,"frizz_risk":0,"updated_at":"2026-07-12T23:30:23.531888+05:30"},{"city":"Dalhousie","state":"Himachal Pradesh","latitude":32.5387,"longitude":75.971,"temp":16.1,"humidity":84,"rain":0.0,"pressure":798.1,"uv_index":8.65,"wind_gusts":25.6,"aqi":98,"pm10":70.1,"pm2_5":48.4,"no2":42.3,"co":560.0,"o3":43.0,"so2":3.9,"mosquito_risk":3,"arthritis_risk":10,"migraine_risk":7,"frizz_risk":0,"updated_at":"2026-07-12T23:30:23.531897+05:30"},{"city":"Patiala","state":"Punjab","latitude":30.3398,"longitude":76.3869,"temp":28.6,"humidity":89,"rain":0.0,"pressure":968.8,"uv_index":7.5,"wind_gusts":29.9,"aqi":171,"pm10":149.0,"pm2_5":95.7,"no2":29.0,"co":418.0,"o3":59.0,"so2":10.3,"mosquito_risk":7,"arthritis_risk":5,"migraine_risk":7,"frizz_risk":1,"updated_at":"2026-07-12T23:30:23.531906+05:30"},{"city":"Bhatinda","state":"Punjab","latitude":30.211,"longitude":74.9455,"temp":31.0,"humidity":79,"rain":0.0,"pressure":974.0,"uv_index":8.25,"wind_gusts":37.1,"aqi":363,"pm10":247.7,"pm2_5":127.6,"no2":18.7,"co":366.0,"o3":84.0,"so2":9.3,"mosquito_risk":3,"arthritis_risk":5,"migraine_risk":7,"frizz_risk":1,"updated_at":"2026-07-12T23:30:23.531914+05:30"},{"city":"Rohtak","state":"Haryana","latitude":28.8955,"longitude":76.6066,"temp":29.2,"humidity":87,"rain":0.0,"pressure":972.5,"uv_index":7.65,"wind_gusts":37.8,"aqi":1124,"pm10":2011.7,"pm2_5":294.3,"no2":10.7,"co":196.0,"o3":65.0,"so2":3.8,"mosquito_risk":7,"arthritis_risk":5,"migraine_risk":7,"frizz_risk":1,"updated_at":"2026-07-12T23:30:23.531922+05:30"},{"city":"Panipat","state":"Haryana","latitude":29.3909,"longitude":76.9635,"temp":28.9,"humidity":83,"rain":0.0,"pressure":971.0,"uv_index":7.45,"wind_gusts":44.6,"aqi":1539,"pm10":2935.5,"pm2_5":392.1,"no2":19.5,"co":665.0,"o3":46.0,"so2":4.3,"mosquito_risk":7,"arthritis_risk":5,"migraine_risk":7,"frizz_risk":1,"updated_at":"2026-07-12T23:30:23.531930+05:30"},{"city":"Mathura","state":"Uttar Pradesh","latitude":27.4924,"longitude":77.6737,"temp":30.8,"humidity":61,"rain":0.0,"pressure":977.7,"uv_index":7.95,"wind_gusts":36.7,"aqi":898,"pm10":1013.3,"pm2_5":147.6,"no2":14.1,"co":179.0,"o3":60.0,"so2":4.5,"mosquito_risk":3,"arthritis_risk":5,"migraine_risk":7,"frizz_risk":1,"updated_at":"2026-07-12T23:30:23.531938+05:30"},{"city":"Vrindavan","state":"Uttar Pradesh","latitude":27.5823,"longitude":77.7027,"temp":30.9,"humidity":62,"rain":0.0,"pressure":978.1,"uv_index":7.9,"wind_gusts":36.0,"aqi":898,"pm10":1013.3,"pm2_5":147.6,"no2":14.1,"co":180.0,"o3":60.0,"so2":4.5,"mosquito_risk":3,"arthritis_risk":5,"migraine_risk":7,"frizz_risk":1,"updated_at":"2026-07-12T23:30:23.531946+05:30"},{"city":"Ayodhya","state":"Uttar Pradesh","latitude":26.7922,"longitude":82.1998,"temp":27.3,"humidity":95,"rain":0.0,"pressure":986.4,"uv_index":7.05,"wind_gusts":36.4,"aqi":136,"pm10":108.3,"pm2_5":69.8,"no2":32.2,"co":551.0,"o3":33.0,"so2":9.4,"mosquito_risk":7,"arthritis_risk":5,"migraine_risk":7,"frizz_risk":1,"updated_at":"2026-07-12T23:30:23.531955+05:30"},{"city":"Ratlam","state":"Madhya Pradesh","latitude":23.3315,"longitude":75.0367,"temp":25.5,"humidity":86,"rain":0.0,"pressure":949.7,"uv_index":8.45,"wind_gusts":58.0,"aqi":64,"pm10":26.1,"pm2_5":13.9,"no2":5.8,"co":136.0,"o3":46.0,"so2":8.1,"mosquito_risk":7,"arthritis_risk":5,"migraine_risk":7,"frizz_risk":1,"updated_at":"2026-07-12T23:30:23.531963+05:30"},{"city":"Sagar","state":"Madhya Pradesh","latitude":23.8388,"longitude":78.7378,"temp":26.9,"humidity":75,"rain":0.0,"pressure":944.3,"uv_index":7.65,"wind_gusts":43.2,"aqi":74,"pm10":45.3,"pm2_5":27.1,"no2":5.1,"co":176.0,"o3":70.0,"so2":3.8,"mosquito_risk":7,"arthritis_risk":5,"migraine_risk":7,"frizz_risk":1,"updated_at":"2026-07-12T23:30:23.531971+05:30"},{"city":"Satna","state":"Madhya Pradesh","latitude":24.6005,"longitude":80.8322,"temp":27.8,"humidity":70,"rain":0.0,"pressure":964.7,"uv_index":8.5,"wind_gusts":45.7,"aqi":77,"pm10":43.5,"pm2_5":25.4,"no2":5.5,"co":166.0,"o3":67.0,"so2":3.7,"mosquito_risk":7,"arthritis_risk":5,"migraine_risk":7,"frizz_risk":1,"updated_at":"2026-07-12T23:30:23.531979+05:30"},{"city":"Akola","state":"Maharashtra","latitude":20.7002,"longitude":77.0082,"temp":29.0,"humidity":63,"rain":0.0,"pressure":971.3,"uv_index":7.9,"wind_gusts":45.0,"aqi":59,"pm10":32.8,"pm2_5":17.8,"no2":6.6,"co":119.0,"o3":49.0,"so2":7.0,"mosquito_risk":7,"arthritis_risk":5,"migraine_risk":7,"frizz_risk":1,"updated_at":"2026-07-12T23:30:23.531988+05:30"},{"city":"Amravati","state":"Maharashtra","latitude":20.9374,"longitude":77.7796,"temp":28.8,"humidity":66,"rain":0.0,"pressure":963.3,"uv_index":5.85,"wind_gusts":44.3,"aqi":61,"pm10":35.7,"pm2_5":19.3,"no2":7.6,"co":127.0,"o3":50.0,"so2":8.4,"mosquito_risk":7,"arthritis_risk":5,"migraine_risk":3,"frizz_risk":1,"updated_at":"2026-07-12T23:30:23.531997+05:30"},{"city":"Latur","state":"Maharashtra","latitude":18.4088,"longitude":76.5604,"temp":25.6,"humidity":70,"rain":0.0,"pressure":937.6,"uv_index":8.85,"wind_gusts":46.8,"aqi":51,"pm10":24.3,"pm2_5":11.4,"no2":3.9,"co":116.0,"o3":46.0,"so2":2.6,"mosquito_risk":7,"arthritis_risk":5,"migraine_risk":7,"frizz_risk":1,"updated_at":"2026-07-12T23:30:23.532005+05:30"},{"city":"Nanded","state":"Maharashtra","latitude":19.1383,"longitude":77.3091,"temp":28.4,"humidity":61,"rain":0.0,"pressure":965.5,"uv_index":8.85,"wind_gusts":39.6,"aqi":57,"pm10":32.9,"pm2_5":18.2,"no2":4.6,"co":144.0,"o3":63.0,"so2":4.1,"mosquito_risk":7,"arthritis_risk":5,"migraine_risk":7,"frizz_risk":1,"updated_at":"2026-07-12T23:30:23.532013+05:30"},{"city":"Gulbarga","state":"Karnataka","latitude":17.3297,"longitude":76.8343,"temp":26.2,"humidity":65,"rain":0.0,"pressure":957.0,"uv_index":8.75,"wind_gusts":49.7,"aqi":50,"pm10":18.4,"pm2_5":9.6,"no2":4.8,"co":117.0,"o3":43.0,"so2":2.7,"mosquito_risk":7,"arthritis_risk":5,"migraine_risk":7,"frizz_risk":1,"updated_at":"2026-07-12T23:30:23.532021+05:30"},{"city":"Bidar","state":"Karnataka","latitude":17.9104,"longitude":77.5199,"temp":26.5,"humidity":64,"rain":0.0,"pressure":933.0,"uv_index":8.9,"wind_gusts":47.9,"aqi":55,"pm10":25.8,"pm2_5":13.9,"no2":4.6,"co":131.0,"o3":55.0,"so2":2.3,"mosquito_risk":7,"arthritis_risk":5,"migraine_risk":7,"frizz_risk":1,"updated_at":"2026-07-12T23:30:23.532029+05:30"},{"city":"Hospet","state":"Karnataka","latitude":15.2689,"longitude":76.3909,"temp":24.9,"humidity":81,"rain":0.0,"pressure":955.4,"uv_index":8.55,"wind_gusts":52.9,"aqi":36,"pm10":13.6,"pm2_5":7.3,"no2":4.3,"co":126.0,"o3":38.0,"so2":1.9,"mosquito_risk":3,"arthritis_risk":5,"migraine_risk":7,"frizz_risk":1,"updated_at":"2026-07-12T23:30:23.532036+05:30"},{"city":"Tirupur","state":"Tamil Nadu","latitude":11.1085,"longitude":77.3411,"temp":25.0,"humidity":87,"rain":0.0,"pressure":975.0,"uv_index":8.4,"wind_gusts":61.9,"aqi":56,"pm10":25.3,"pm2_5":17.8,"no2":18.7,"co":152.0,"o3":24.0,"so2":5.3,"mosquito_risk":7,"arthritis_risk":5,"migraine_risk":7,"frizz_risk":1,"updated_at":"2026-07-12T23:30:23.532044+05:30"},{"city":"Alappuzha","state":"Kerala","latitude":9.4981,"longitude":76.3388,"temp":27.4,"humidity":85,"rain":0.0,"pressure":1010.1,"uv_index":7.9,"wind_gusts":42.8,"aqi":41,"pm10":18.5,"pm2_5":10.6,"no2":6.2,"co":80.0,"o3":38.0,"so2":2.8,"mosquito_risk":7,"arthritis_risk":0,"migraine_risk":4,"frizz_risk":1,"updated_at":"2026-07-12T23:30:23.532052+05:30"},{"city":"Munnar","state":"Kerala","latitude":10.0889,"longitude":77.0595,"temp":15.7,"humidity":99,"rain":0.0,"pressure":856.6,"uv_index":8.05,"wind_gusts":38.5,"aqi":33,"pm10":9.0,"pm2_5":6.4,"no2":6.3,"co":101.0,"o3":29.0,"so2":1.7,"mosquito_risk":3,"arthritis_risk":10,"migraine_risk":7,"frizz_risk":0,"updated_at":"2026-07-12T23:30:23.532059+05:30"},{"city":"Silchar","state":"Assam","latitude":24.8333,"longitude":92.7789,"temp":26.2,"humidity":97,"rain":0.2,"pressure":998.4,"uv_index":6.4,"wind_gusts":30.2,"aqi":73,"pm10":30.9,"pm2_5":21.0,"no2":5.7,"co":248.0,"o3":74.0,"so2":4.7,"mosquito_risk":10,"arthritis_risk":5,"migraine_risk":7,"frizz_risk":1,"updated_at":"2026-07-12T23:30:23.532067+05:30"},{"city":"Dibrugarh","state":"Assam","latitude":27.4728,"longitude":94.912,"temp":26.5,"humidity":98,"rain":0.5,"pressure":988.6,"uv_index":3.7,"wind_gusts":23.8,"aqi":39,"pm10":11.5,"pm2_5":11.4,"no2":13.3,"co":289.0,"o3":41.0,"so2":1.5,"mosquito_risk":10,"arthritis_risk":5,"migraine_risk":3,"frizz_risk":1,"updated_at":"2026-07-12T23:30:23.532074+05:30"}]