[{"city":"Delhi","state":"Delhi","latitude":28.6139,"longitude":77.209,"temp":37.6,"humidity":20,"rain":0.0,"pressure":981.1,"uv_index":7.35,"wind_gusts":31.0,"aqi":449,"pm10":332.5,"pm2_5":44.2,"mosquito_risk":0,"arthritis_risk":5,"migraine_risk":10,"frizz_risk":0,"updated_at":"2026-04-22T13:23:49.314525+05:30"},{"city":"Mumbai","state":"Maharashtra","latitude":19.076,"longitude":72.8777,"temp":29.8,"humidity":73,"rain":0.0,"pressure":1007.2,"uv_index":8.05,"wind_gusts":29.2,"aqi":93,"pm10":61.2,"pm2_5":37.5,"mosquito_risk":7,"arthritis_risk":5,"migraine_risk":4,"frizz_risk":1,"updated_at":"2026-04-22T13:23:49.314566+05:30"},{"city":"Bangalore","state":"Karnataka","latitude":12.9716,"longitude":77.5946,"temp":35.8,"humidity":23,"rain":0.0,"pressure":911.8,"uv_index":9.6,"wind_gusts":28.1,"aqi":69,"pm10":22.0,"pm2_5":16.9,"mosquito_risk":0,"arthritis_risk":5,"migraine_risk":10,"frizz_risk":0,"updated_at":"2026-04-22T13:23:49.314582+05:30"},{"city":"Hyderabad","state":"Telangana","latitude":17.385,"longitude":78.4867,"temp":38.6,"humidity":27,"rain":0.0,"pressure":952.6,"uv_index":9.3,"wind_gusts":34.6,"aqi":128,"pm10":49.1,"pm2_5":42.6,"mosquito_risk":0,"arthritis_risk":5,"migraine_risk":10,"frizz_risk":1,"updated_at":"2026-04-22T13:23:49.314592+05:30"},{"city":"Chennai","state":"Tamil Nadu","latitude":13.0827,"longitude":80.2707,"temp":36.4,"humidity":47,"rain":0.0,"pressure":1005.8,"uv_index":9.15,"wind_gusts":32.8,"aqi":39,"pm10":9.7,"pm2_5":7.2,"mosquito_risk":0,"arthritis_risk":5,"migraine_risk":7,"frizz_risk":1,"updated_at":"2026-04-22T13:23:49.314600+05:30"},{"city":"Kolkata","state":"West Bengal","latitude":22.5726,"longitude":88.3639,"temp":36.4,"humidity":61,"rain":0.0,"pressure":1001.5,"uv_index":8.95,"wind_gusts":33.5,"aqi":112,"pm10":76.6,"pm2_5":47.3,"mosquito_risk":3,"arthritis_risk":5,"migraine_risk":7,"frizz_risk":1,"updated_at":"2026-04-22T13:23:49.314614+05:30"},{"city":"Pune","state":"Maharashtra","latitude":18.5204,"longitude":73.8567,"temp":39.4,"humidity":21,"rain":0.0,"pressure":948.0,"uv_index":8.6,"wind_gusts":44.6,"aqi":97,"pm10":37.0,"pm2_5":29.3,"mosquito_risk":0,"arthritis_risk":5,"migraine_risk":10,"frizz_risk":0,"updated_at":"2026-04-22T13:23:49.314622+05:30"},{"city":"Ahmedabad","state":"Gujarat","latitude":23.0225,"longitude":72.5714,"temp":37.9,"humidity":15,"rain":0.0,"pressure":1002.2,"uv_index":8.2,"wind_gusts":24.5,"aqi":40,"pm10":13.8,"pm2_5":7.5,"mosquito_risk":0,"arthritis_risk":5,"migraine_risk":7,"frizz_risk":0,"updated_at":"2026-04-22T13:23:49.314629+05:30"},{"city":"Jaipur","state":"Rajasthan","latitude":26.9124,"longitude":75.7873,"temp":39.5,"humidity":11,"rain":0.0,"pressure":959.4,"uv_index":8.0,"wind_gusts":35.3,"aqi":146,"pm10":305.5,"pm2_5":34.9,"mosquito_risk":0,"arthritis_risk":5,"migraine_risk":10,"frizz_risk":0,"updated_at":"2026-04-22T13:23:49.314637+05:30"},{"city":"Lucknow","state":"Uttar Pradesh","latitude":26.8467,"longitude":80.9462,"temp":40.5,"humidity":14,"rain":0.0,"pressure":989.7,"uv_index":7.85,"wind_gusts":45.7,"aqi":247,"pm10":222.1,"pm2_5":42.4,"mosquito_risk":0,"arthritis_risk":5,"migraine_risk":10,"frizz_risk":0,"updated_at":"2026-04-22T13:23:49.314645+05:30"},{"city":"Kanpur","state":"Uttar Pradesh","latitude":26.4499,"longitude":80.3319,"temp":39.1,"humidity":20,"rain":0.0,"pressure":988.9,"uv_index":7.9,"wind_gusts":38.2,"aqi":440,"pm10":594.2,"pm2_5":67.3,"mosquito_risk":0,"arthritis_risk":5,"migraine_risk":10,"frizz_risk":0,"updated_at":"2026-04-22T13:23:49.314651+05:30"},{"city":"Chandigarh","state":"Chandigarh","latitude":30.7333,"longitude":76.7794,"temp":37.1,"humidity":20,"rain":0.0,"pressure":966.7,"uv_index":7.35,"wind_gusts":31.7,"aqi":56,"pm10":22.2,"pm2_5":13.0,"mosquito_risk":0,"arthritis_risk":5,"migraine_risk":10,"frizz_risk":0,"updated_at":"2026-04-22T13:23:49.314658+05:30"},{"city":"Srinagar","state":"Jammu and Kashmir","latitude":34.0837,"longitude":74.7973,"temp":24.1,"humidity":40,"rain":0.0,"pressure":844.2,"uv_index":8.5,"wind_gusts":15.5,"aqi":70,"pm10":23.1,"pm2_5":9.3,"mosquito_risk":0,"arthritis_risk":5,"migraine_risk":7,"frizz_risk":0,"updated_at":"2026-04-22T13:23:49.314665+05:30"},{"city":"Jammu","state":"Jammu and Kashmir","latitude":32.7266,"longitude":74.857,"temp":36.9,"humidity":24,"rain":0.0,"pressure":970.4,"uv_index":8.1,"wind_gusts":28.4,"aqi":72,"pm10":24.9,"pm2_5":14.2,"mosquito_risk":0,"arthritis_risk":5,"migraine_risk":10,"frizz_risk":0,"updated_at":"2026-04-22T13:23:49.314672+05:30"},{"city":"Amritsar","state":"Punjab","latitude":31.634,"longitude":74.8723,"temp":38.6,"humidity":21,"rain":0.0,"pressure":978.4,"uv_index":8.05,"wind_gusts":27.0,"aqi":89,"pm10":25.9,"pm2_5":13.9,"mosquito_risk":0,"arthritis_risk":5,"migraine_risk":10,"frizz_risk":0,"updated_at":"2026-04-22T13:23:49.314679+05:30"},{"city":"Ludhiana","state":"Punjab","latitude":30.901,"longitude":75.8573,"temp":39.2,"humidity":18,"rain":0.0,"pressure":976.2,"uv_index":7.6,"wind_gusts":28.4,"aqi":79,"pm10":27.2,"pm2_5":12.3,"mosquito_risk":0,"arthritis_risk":5,"migraine_risk":10,"frizz_risk":0,"updated_at":"2026-04-22T13:23:49.314688+05:30"},{"city":"Jalandhar","state":"Punjab","latitude":31.326,"longitude":75.5762,"temp":38.9,"humidity":16,"rain":0.0,"pressure":977.5,"uv_index":7.8,"wind_gusts":29.5,"aqi":79,"pm10":40.6,"pm2_5":13.4,"mosquito_risk":0,"arthritis_risk":5,"migraine_risk":10,"frizz_risk":0,"updated_at":"2026-04-22T13:23:49.314694+05:30"},{"city":"Dehradun","state":"Uttarakhand","latitude":30.6284,"longitude":78.0322,"temp":26.8,"humidity":37,"rain":0.0,"pressure":832.7,"uv_index":7.75,"wind_gusts":30.6,"aqi":45,"pm10":16.4,"pm2_5":6.8,"mosquito_risk":4,"arthritis_risk":5,"migraine_risk":7,"frizz_risk":0,"updated_at":"2026-04-22T13:23:49.314702+05:30"},{"city":"Shimla","state":"Himachal Pradesh","latitude":31.1048,"longitude":77.1734,"temp":25.7,"humidity":29,"rain":0.0,"pressure":788.9,"uv_index":7.85,"wind_gusts":54.4,"aqi":49,"pm10":19.7,"pm2_5":8.3,"mosquito_risk":4,"arthritis_risk":5,"migraine_risk":7,"frizz_risk":0,"updated_at":"2026-04-22T13:23:49.314708+05:30"},{"city":"Manali","state":"Himachal Pradesh","latitude":32.2396,"longitude":77.1887,"temp":29.1,"humidity":33,"rain":0.0,"pressure":824.3,"uv_index":9.8,"wind_gusts":31.7,"aqi":73,"pm10":20.5,"pm2_5":8.2,"mosquito_risk":4,"arthritis_risk":5,"migraine_risk":7,"frizz_risk":0,"updated_at":"2026-04-22T13:23:49.314715+05:30"},{"city":"Gurgaon","state":"Haryana","latitude":28.4595,"longitude":77.0266,"temp":38.1,"humidity":21,"rain":0.0,"pressure":979.5,"uv_index":7.45,"wind_gusts":28.1,"aqi":1210,"pm10":1318.8,"pm2_5":123.9,"mosquito_risk":0,"arthritis_risk":5,"migraine_risk":10,"frizz_risk":0,"updated_at":"2026-04-22T13:23:49.314723+05:30"},{"city":"Noida","state":"Uttar Pradesh","latitude":28.5355,"longitude":77.391,"temp":38.2,"humidity":19,"rain":0.0,"pressure":982.5,"uv_index":7.4,"wind_gusts":32.4,"aqi":1210,"pm10":1318.8,"pm2_5":123.9,"mosquito_risk":0,"arthritis_risk":5,"migraine_risk":10,"frizz_risk":0,"updated_at":"2026-04-22T13:23:49.314729+05:30"},{"city":"Ghaziabad","state":"Uttar Pradesh","latitude":28.6692,"longitude":77.4538,"temp":37.5,"humidity":23,"rain":0.0,"pressure":980.7,"uv_index":7.35,"wind_gusts":32.0,"aqi":366,"pm10":244.9,"pm2_5":38.3,"mosquito_risk":0,"arthritis_risk":5,"migraine_risk":10,"frizz_risk":0,"updated_at":"2026-04-22T13:23:49.314736+05:30"},{"city":"Faridabad","state":"Haryana","latitude":28.4089,"longitude":77.3178,"temp":39.5,"humidity":16,"rain":0.0,"pressure":981.8,"uv_index":7.4,"wind_gusts":33.8,"aqi":1210,"pm10":1318.8,"pm2_5":123.9,"mosquito_risk":0,"arthritis_risk":5,"migraine_risk":10,"frizz_risk":0,"updated_at":"2026-04-22T13:23:49.314742+05:30"},{"city":"Meerut","state":"Uttar Pradesh","latitude":28.9845,"longitude":77.7064,"temp":38.2,"humidity":20,"rain":0.0,"pressure":979.2,"uv_index":7.25,"wind_gusts":38.2,"aqi":366,"pm10":244.9,"pm2_5":38.3,"mosquito_risk":0,"arthritis_risk":5,"migraine_risk":10,"frizz_risk":0,"updated_at":"2026-04-22T13:23:49.314748+05:30"},{"city":"Agra","state":"Uttar Pradesh","latitude":27.1767,"longitude":78.0081,"temp":40.9,"humidity":16,"rain":0.0,"pressure":985.2,"uv_index":7.75,"wind_gusts":37.1,"aqi":667,"pm10":922.0,"pm2_5":82.7,"mosquito_risk":0,"arthritis_risk":5,"migraine_risk":10,"frizz_risk":0,"updated_at":"2026-04-22T13:23:49.314757+05:30"},{"city":"Varanasi","state":"Uttar Pradesh","latitude":25.3176,"longitude":82.9739,"temp":42.3,"humidity":13,"rain":0.0,"pressure":993.2,"uv_index":8.55,"wind_gusts":43.2,"aqi":107,"pm10":122.0,"pm2_5":24.7,"mosquito_risk":0,"arthritis_risk":5,"migraine_risk":10,"frizz_risk":0,"updated_at":"2026-04-22T13:23:49.314765+05:30"},{"city":"Prayagraj","state":"Uttar Pradesh","latitude":25.4358,"longitude":81.8463,"temp":41.7,"humidity":15,"rain":0.0,"pressure":992.2,"uv_index":8.4,"wind_gusts":40.7,"aqi":119,"pm10":163.0,"pm2_5":29.3,"mosquito_risk":0,"arthritis_risk":5,"migraine_risk":10,"frizz_risk":0,"updated_at":"2026-04-22T13:23:49.314772+05:30"},{"city":"Gorakhpur","state":"Uttar Pradesh","latitude":26.7606,"longitude":83.3732,"temp":41.3,"humidity":12,"rain":0.0,"pressure":992.1,"uv_index":8.25,"wind_gusts":41.8,"aqi":107,"pm10":225.8,"pm2_5":40.5,"mosquito_risk":0,"arthritis_risk":5,"migraine_risk":10,"frizz_risk":0,"updated_at":"2026-04-22T13:23:49.314779+05:30"},{"city":"Bareilly","state":"Uttar Pradesh","latitude":28.367,"longitude":79.4304,"temp":39.1,"humidity":15,"rain":0.0,"pressure":983.7,"uv_index":7.6,"wind_gusts":43.2,"aqi":101,"pm10":34.7,"pm2_5":21.5,"mosquito_risk":0,"arthritis_risk":5,"migraine_risk":10,"frizz_risk":0,"updated_at":"2026-04-22T13:23:49.314785+05:30"},{"city":"Aligarh","state":"Uttar Pradesh","latitude":27.8974,"longitude":78.088,"temp":40.7,"humidity":14,"rain":0.0,"pressure":983.0,"uv_index":7.5,"wind_gusts":37.4,"aqi":804,"pm10":724.6,"pm2_5":72.9,"mosquito_risk":0,"arthritis_risk":5,"migraine_risk":10,"frizz_risk":0,"updated_at":"2026-04-22T13:23:49.314791+05:30"},{"city":"Moradabad","state":"Uttar Pradesh","latitude":28.8386,"longitude":78.7733,"temp":38.4,"humidity":17,"rain":0.0,"pressure":980.8,"uv_index":7.45,"wind_gusts":40.0,"aqi":120,"pm10":47.6,"pm2_5":24.5,"mosquito_risk":0,"arthritis_risk":5,"migraine_risk":10,"frizz_risk":0,"updated_at":"2026-04-22T13:23:49.314797+05:30"},{"city":"Saharanpur","state":"Uttar Pradesh","latitude":29.9637,"longitude":77.546,"temp":36.8,"humidity":21,"rain":0.0,"pressure":973.3,"uv_index":7.05,"wind_gusts":36.4,"aqi":87,"pm10":54.1,"pm2_5":21.1,"mosquito_risk":0,"arthritis_risk":5,"migraine_risk":10,"frizz_risk":0,"updated_at":"2026-04-22T13:23:49.314803+05:30"},{"city":"Jhansi","state":"Uttar Pradesh","latitude":25.4484,"longitude":78.5685,"temp":41.8,"humidity":13,"rain":0.0,"pressure":976.1,"uv_index":8.3,"wind_gusts":31.0,"aqi":64,"pm10":46.3,"pm2_5":10.8,"mosquito_risk":0,"arthritis_risk":5,"migraine_risk":10,"frizz_risk":0,"updated_at":"2026-04-22T13:23:52.589820+05:30"},{"city":"Surat","state":"Gujarat","latitude":21.1702,"longitude":72.8311,"temp":35.4,"humidity":34,"rain":0.0,"pressure":1006.5,"uv_index":7.9,"wind_gusts":21.2,"aqi":107,"pm10":34.6,"pm2_5":31.1,"mosquito_risk":0,"arthritis_risk":5,"migraine_risk":7,"frizz_risk":1,"updated_at":"2026-04-22T13:23:52.589851+05:30"},{"city":"Vadodara","state":"Gujarat","latitude":22.3072,"longitude":73.1812,"temp":39.6,"humidity":16,"rain":0.0,"pressure":1004.0,"uv_index":8.15,"wind_gusts":25.9,"aqi":90,"pm10":16.3,"pm2_5":13.1,"mosquito_risk":0,"arthritis_risk":5,"migraine_risk":7,"frizz_risk":0,"updated_at":"2026-04-22T13:23:52.589860+05:30"},{"city":"Rajkot","state":"Gujarat","latitude":22.3039,"longitude":70.8022,"temp":36.1,"humidity":28,"rain":0.0,"pressure":994.4,"uv_index":7.85,"wind_gusts":32.0,"aqi":54,"pm10":29.5,"pm2_5":11.6,"mosquito_risk":0,"arthritis_risk":5,"migraine_risk":10,"frizz_risk":0,"updated_at":"2026-04-22T13:23:52.589867+05:30"},{"city":"Thane","state":"Maharashtra","latitude":19.2183,"longitude":72.9781,"temp":35.9,"humidity":47,"rain":0.0,"pressure":1006.8,"uv_index":8.05,"wind_gusts":41.8,"aqi":93,"pm10":61.2,"pm2_5":37.5,"mosquito_risk":0,"arthritis_risk":5,"migraine_risk":7,"frizz_risk":1,"updated_at":"2026-04-22T13:23:52.589873+05:30"},{"city":"Nagpur","state":"Maharashtra","latitude":21.1458,"longitude":79.0882,"temp":39.4,"humidity":17,"rain":0.0,"pressure":972.2,"uv_index":8.65,"wind_gusts":32.0,"aqi":85,"pm10":32.0,"pm2_5":20.5,"mosquito_risk":0,"arthritis_risk":5,"migraine_risk":10,"frizz_risk":0,"updated_at":"2026-04-22T13:23:52.589880+05:30"},{"city":"Nashik","state":"Maharashtra","latitude":19.9975,"longitude":73.7898,"temp":36.3,"humidity":24,"rain":0.0,"pressure":946.2,"uv_index":8.35,"wind_gusts":37.1,"aqi":91,"pm10":37.4,"pm2_5":23.2,"mosquito_risk":0,"arthritis_risk":5,"migraine_risk":10,"frizz_risk":0,"updated_at":"2026-04-22T13:23:52.589887+05:30"},{"city":"Aurangabad","state":"Maharashtra","latitude":19.8762,"longitude":75.3433,"temp":38.8,"humidity":17,"rain":0.0,"pressure":944.4,"uv_index":9.05,"wind_gusts":33.1,"aqi":83,"pm10":27.8,"pm2_5":19.2,"mosquito_risk":0,"arthritis_risk":5,"migraine_risk":10,"frizz_risk":0,"updated_at":"2026-04-22T13:23:52.589894+05:30"},{"city":"Solapur","state":"Maharashtra","latitude":17.6599,"longitude":75.9064,"temp":39.1,"humidity":22,"rain":0.0,"pressure":956.5,"uv_index":9.1,"wind_gusts":30.6,"aqi":115,"pm10":43.5,"pm2_5":37.3,"mosquito_risk":0,"arthritis_risk":5,"migraine_risk":10,"frizz_risk":0,"updated_at":"2026-04-22T13:23:52.589900+05:30"},{"city":"Kolhapur","state":"Maharashtra","latitude":16.705,"longitude":74.2433,"temp":36.0,"humidity":33,"rain":0.0,"pressure":947.6,"uv_index":9.05,"wind_gusts":41.8,"aqi":101,"pm10":50.5,"pm2_5":43.3,"mosquito_risk":0,"arthritis_risk":5,"migraine_risk":10,"frizz_risk":1,"updated_at":"2026-04-22T13:23:52.589907+05:30"},{"city":"Goa","state":"Goa","latitude":15.2993,"longitude":74.124,"temp":33.2,"humidity":60,"rain":0.0,"pressure":996.6,"uv_index":9.0,"wind_gusts":31.7,"aqi":74,"pm10":35.7,"pm2_5":22.8,"mosquito_risk":0,"arthritis_risk":5,"migraine_risk":7,"frizz_risk":1,"updated_at":"2026-04-22T13:23:52.589914+05:30"},{"city":"Jodhpur","state":"Rajasthan","latitude":26.2389,"longitude":73.0243,"temp":38.3,"humidity":17,"rain":0.0,"pressure":982.6,"uv_index":8.2,"wind_gusts":36.0,"aqi":96,"pm10":96.4,"pm2_5":15.1,"mosquito_risk":0,"arthritis_risk":5,"migraine_risk":10,"frizz_risk":0,"updated_at":"2026-04-22T13:23:52.589921+05:30"},{"city":"Udaipur","state":"Rajasthan","latitude":24.5854,"longitude":73.7125,"temp":36.4,"humidity":14,"rain":0.0,"pressure":947.8,"uv_index":8.75,"wind_gusts":44.3,"aqi":46,"pm10":10.4,"pm2_5":7.2,"mosquito_risk":0,"arthritis_risk":5,"migraine_risk":10,"frizz_risk":0,"updated_at":"2026-04-22T13:23:52.589928+05:30"},{"city":"Kota","state":"Rajasthan","latitude":25.2138,"longitude":75.8648,"temp":41.2,"humidity":8,"rain":0.0,"pressure":978.0,"uv_index":8.25,"wind_gusts":33.8,"aqi":53,"pm10":5.5,"pm2_5":5.1,"mosquito_risk":0,"arthritis_risk":5,"migraine_risk":10,"frizz_risk":0,"updated_at":"2026-04-22T13:23:52.589935+05:30"},{"city":"Bikaner","state":"Rajasthan","latitude":28.0229,"longitude":73.3119,"temp":39.7,"humidity":16,"rain":0.0,"pressure":980.5,"uv_index":8.05,"wind_gusts":32.4,"aqi":70,"pm10":55.9,"pm2_5":19.6,"mosquito_risk":0,"arthritis_risk":5,"migraine_risk":10,"frizz_risk":0,"updated_at":"2026-04-22T13:23:52.589941+05:30"},{"city":"Ajmer","state":"Rajasthan","latitude":26.4499,"longitude":74.6399,"temp":37.7,"humidity":10,"rain":0.0,"pressure":955.2,"uv_index":8.2,"wind_gusts":40.0,"aqi":52,"pm10":35.4,"pm2_5":8.0,"mosquito_risk":0,"arthritis_risk":5,"migraine_risk":10,"frizz_risk":0,"updated_at":"2026-04-22T13:23:52.589948+05:30"},{"city":"Gwalior","state":"Madhya Pradesh","latitude":26.2183,"longitude":78.1828,"temp":40.1,"humidity":14,"rain":0.0,"pressure":981.9,"uv_index":8.0,"wind_gusts":36.4,"aqi":57,"pm10":71.5,"pm2_5":13.8,"mosquito_risk":0,"arthritis_risk":5,"migraine_risk":10,"frizz_risk":0,"updated_at":"2026-04-22T13:23:52.589954+05:30"},{"city":"Indore","state":"Madhya Pradesh","latitude":22.7196,"longitude":75.8577,"temp":37.7,"humidity":17,"rain":0.0,"pressure":948.8,"uv_index":8.65,"wind_gusts":36.0,"aqi":55,"pm10":21.8,"pm2_5":17.6,"mosquito_risk":0,"arthritis_risk":5,"migraine_risk":10,"frizz_risk":0,"updated_at":"2026-04-22T13:23:52.589960+05:30"},{"city":"Bhopal","state":"Madhya Pradesh","latitude":23.2599,"longitude":77.4126,"temp":38.5,"humidity":15,"rain":0.0,"pressure":954.0,"uv_index":8.7,"wind_gusts":36.4,"aqi":54,"pm10":16.7,"pm2_5":13.9,"mosquito_risk":0,"arthritis_risk":5,"migraine_risk":10,"frizz_risk":0,"updated_at":"2026-04-22T13:23:52.589967+05:30"},{"city":"Jabalpur","state":"Madhya Pradesh","latitude":23.1815,"longitude":79.9864,"temp":39.1,"humidity":14,"rain":0.0,"pressure":960.6,"uv_index":8.8,"wind_gusts":32.4,"aqi":63,"pm10":28.6,"pm2_5":12.0,"mosquito_risk":0,"arthritis_risk":5,"migraine_risk":10,"frizz_risk":0,"updated_at":"2026-04-22T13:23:52.589974+05:30"},{"city":"Ujjain","state":"Madhya Pradesh","latitude":23.1765,"longitude":75.7885,"temp":38.2,"humidity":17,"rain":0.0,"pressure":954.5,"uv_index":8.6,"wind_gusts":35.3,"aqi":55,"pm10":20.1,"pm2_5":16.5,"mosquito_risk":0,"arthritis_risk":5,"migraine_risk":10,"frizz_risk":0,"updated_at":"2026-04-22T13:23:52.589981+05:30"},{"city":"Visakhapatnam","state":"Andhra Pradesh","latitude":17.6868,"longitude":83.2185,"temp":35.1,"humidity":55,"rain":0.0,"pressure":1001.6,"uv_index":9.2,"wind_gusts":38.5,"aqi":61,"pm10":21.1,"pm2_5":16.9,"mosquito_risk":0,"arthritis_risk":5,"migraine_risk":7,"frizz_risk":1,"updated_at":"2026-04-22T13:23:52.589987+05:30"},{"city":"Vijayawada","state":"Andhra Pradesh","latitude":16.5062,"longitude":80.648,"temp":38.1,"humidity":37,"rain":0.0,"pressure":1000.6,"uv_index":9.25,"wind_gusts":28.4,"aqi":58,"pm10":16.8,"pm2_5":13.6,"mosquito_risk":0,"arthritis_risk":5,"migraine_risk":7,"frizz_risk":1,"updated_at":"2026-04-22T13:23:52.589994+05:30"},{"city":"Guntur","state":"Andhra Pradesh","latitude":16.3067,"longitude":80.4365,"temp":38.5,"humidity":37,"rain":0.0,"pressure":1001.8,"uv_index":9.2,"wind_gusts":32.0,"aqi":63,"pm10":20.6,"pm2_5":17.0,"mosquito_risk":0,"arthritis_risk":5,"migraine_risk":7,"frizz_risk":1,"updated_at":"2026-04-22T13:23:52.590000+05:30"},{"city":"Nellore","state":"Andhra Pradesh","latitude":14.4426,"longitude":79.9865,"temp":39.9,"humidity":30,"rain":0.0,"pressure":1003.2,"uv_index":9.25,"wind_gusts":32.4,"aqi":52,"pm10":15.4,"pm2_5":13.7,"mosquito_risk":0,"arthritis_risk":5,"migraine_risk":7,"frizz_risk":1,"updated_at":"2026-04-22T13:23:52.590007+05:30"},{"city":"Kurnool","state":"Andhra Pradesh","latitude":15.8281,"longitude":78.0373,"temp":39.5,"humidity":30,"rain":0.0,"pressure":975.3,"uv_index":9.25,"wind_gusts":23.8,"aqi":105,"pm10":31.9,"pm2_5":26.8,"mosquito_risk":0,"arthritis_risk":5,"migraine_risk":10,"frizz_risk":1,"updated_at":"2026-04-22T13:23:52.590014+05:30"},{"city":"Kakinada","state":"Andhra Pradesh","latitude":16.9891,"longitude":82.2475,"temp":37.9,"humidity":47,"rain":0.0,"pressure":1005.0,"uv_index":8.9,"wind_gusts":29.2,"aqi":43,"pm10":15.1,"pm2_5":10.2,"mosquito_risk":0,"arthritis_risk":5,"migraine_risk":7,"frizz_risk":1,"updated_at":"2026-04-22T13:23:52.590021+05:30"},{"city":"Tirupati","state":"Andhra Pradesh","latitude":13.6288,"longitude":79.4192,"temp":38.2,"humidity":28,"rain":0.0,"pressure":990.0,"uv_index":9.1,"wind_gusts":32.8,"aqi":61,"pm10":17.9,"pm2_5":16.1,"mosquito_risk":0,"arthritis_risk":5,"migraine_risk":10,"frizz_risk":1,"updated_at":"2026-04-22T13:23:52.590027+05:30"},{"city":"Warangal","state":"Telangana","latitude":17.9689,"longitude":79.5941,"temp":39.6,"humidity":31,"rain":0.0,"pressure":977.0,"uv_index":9.2,"wind_gusts":22.3,"aqi":97,"pm10":38.0,"pm2_5":32.8,"mosquito_risk":0,"arthritis_risk":5,"migraine_risk":10,"frizz_risk":1,"updated_at":"2026-04-22T13:23:52.590033+05:30"},{"city":"Nizamabad","state":"Telangana","latitude":18.6725,"longitude":78.0941,"temp":39.3,"humidity":24,"rain":0.0,"pressure":963.8,"uv_index":8.95,"wind_gusts":33.5,"aqi":108,"pm10":32.8,"pm2_5":27.3,"mosquito_risk":0,"arthritis_risk":5,"migraine_risk":10,"frizz_risk":0,"updated_at":"2026-04-22T13:23:52.590039+05:30"},{"city":"Mysore","state":"Karnataka","latitude":12.2958,"longitude":76.6396,"temp":36.6,"humidity":27,"rain":0.0,"pressure":928.2,"uv_index":9.45,"wind_gusts":37.4,"aqi":82,"pm10":22.9,"pm2_5":18.4,"mosquito_risk":0,"arthritis_risk":5,"migraine_risk":10,"frizz_risk":0,"updated_at":"2026-04-22T13:23:52.590045+05:30"},{"city":"Mangalore","state":"Karnataka","latitude":12.9141,"longitude":74.856,"temp":29.6,"humidity":84,"rain":0.0,"pressure":1004.9,"uv_index":9.1,"wind_gusts":26.6,"aqi":80,"pm10":31.9,"pm2_5":26.0,"mosquito_risk":7,"arthritis_risk":5,"migraine_risk":4,"frizz_risk":1,"updated_at":"2026-04-22T13:23:52.590051+05:30"},{"city":"Hubli-Dharwad","state":"Karnataka","latitude":15.3647,"longitude":75.124,"temp":36.8,"humidity":30,"rain":0.0,"pressure":940.4,"uv_index":9.2,"wind_gusts":47.5,"aqi":105,"pm10":43.3,"pm2_5":35.9,"mosquito_risk":0,"arthritis_risk":5,"migraine_risk":10,"frizz_risk":1,"updated_at":"2026-04-22T13:23:52.590058+05:30"},{"city":"Belgaum","state":"Karnataka","latitude":15.8497,"longitude":74.4977,"temp":34.7,"humidity":34,"rain":0.0,"pressure":925.8,"uv_index":9.25,"wind_gusts":39.6,"aqi":93,"pm10":55.9,"pm2_5":45.3,"mosquito_risk":0,"arthritis_risk":5,"migraine_risk":7,"frizz_risk":1,"updated_at":"2026-04-22T13:23:55.863410+05:30"},{"city":"Coimbatore","state":"Tamil Nadu","latitude":11.0168,"longitude":76.9558,"temp":36.2,"humidity":33,"rain":0.0,"pressure":960.9,"uv_index":9.4,"wind_gusts":37.8,"aqi":76,"pm10":24.9,"pm2_5":19.4,"mosquito_risk":0,"arthritis_risk":5,"migraine_risk":10,"frizz_risk":1,"updated_at":"2026-04-22T13:23:55.863444+05:30"},{"city":"Madurai","state":"Tamil Nadu","latitude":9.9252,"longitude":78.1198,"temp":37.5,"humidity":34,"rain":0.0,"pressure":991.2,"uv_index":9.3,"wind_gusts":38.2,"aqi":58,"pm10":12.5,"pm2_5":10.7,"mosquito_risk":0,"arthritis_risk":5,"migraine_risk":10,"frizz_risk":1,"updated_at":"2026-04-22T13:23:55.863455+05:30"},{"city":"Trichy","state":"Tamil Nadu","latitude":10.7905,"longitude":78.7047,"temp":36.8,"humidity":42,"rain":0.0,"pressure":997.9,"uv_index":9.2,"wind_gusts":20.2,"aqi":59,"pm10":9.9,"pm2_5":8.8,"mosquito_risk":0,"arthritis_risk":5,"migraine_risk":10,"frizz_risk":1,"updated_at":"2026-04-22T13:23:55.863465+05:30"},{"city":"Salem","state":"Tamil Nadu","latitude":11.6643,"longitude":78.146,"temp":37.1,"humidity":35,"rain":0.0,"pressure":975.9,"uv_index":9.0,"wind_gusts":24.5,"aqi":61,"pm10":17.3,"pm2_5":14.8,"mosquito_risk":0,"arthritis_risk":5,"migraine_risk":10,"frizz_risk":1,"updated_at":"2026-04-22T13:23:55.863473+05:30"},{"city":"Tirunelveli","state":"Tamil Nadu","latitude":8.7139,"longitude":77.7567,"temp":36.9,"humidity":38,"rain":0.0,"pressure":1001.3,"uv_index":9.2,"wind_gusts":35.3,"aqi":66,"pm10":16.2,"pm2_5":14.2,"mosquito_risk":0,"arthritis_risk":5,"migraine_risk":7,"frizz_risk":1,"updated_at":"2026-04-22T13:23:55.863482+05:30"},{"city":"Vellore","state":"Tamil Nadu","latitude":12.9165,"longitude":79.1325,"temp":37.0,"humidity":32,"rain":0.0,"pressure":983.4,"uv_index":9.05,"wind_gusts":28.8,"aqi":70,"pm10":16.7,"pm2_5":15.0,"mosquito_risk":0,"arthritis_risk":5,"migraine_risk":10,"frizz_risk":1,"updated_at":"2026-04-22T13:23:55.863490+05:30"},{"city":"Erode","state":"Tamil Nadu","latitude":11.341,"longitude":77.7172,"temp":38.7,"humidity":33,"rain":0.0,"pressure":987.1,"uv_index":9.05,"wind_gusts":24.1,"aqi":53,"pm10":16.3,"pm2_5":13.9,"mosquito_risk":0,"arthritis_risk":5,"migraine_risk":10,"frizz_risk":1,"updated_at":"2026-04-22T13:23:55.863498+05:30"},{"city":"Kochi","state":"Kerala","latitude":9.9312,"longitude":76.2673,"temp":29.5,"humidity":80,"rain":0.0,"pressure":1006.9,"uv_index":9.1,"wind_gusts":31.0,"aqi":73,"pm10":24.6,"pm2_5":20.2,"mosquito_risk":7,"arthritis_risk":5,"migraine_risk":4,"frizz_risk":1,"updated_at":"2026-04-22T13:23:55.863507+05:30"},{"city":"Thiruvananthapuram","state":"Kerala","latitude":8.5241,"longitude":76.9366,"temp":29.3,"humidity":80,"rain":0.0,"pressure":1006.2,"uv_index":8.75,"wind_gusts":27.0,"aqi":54,"pm10":16.9,"pm2_5":14.4,"mosquito_risk":7,"arthritis_risk":5,"migraine_risk":4,"frizz_risk":1,"updated_at":"2026-04-22T13:23:55.863516+05:30"},{"city":"Kozhikode","state":"Kerala","latitude":11.2588,"longitude":75.7804,"temp":31.4,"humidity":74,"rain":0.0,"pressure":1005.9,"uv_index":9.1,"wind_gusts":30.6,"aqi":67,"pm10":21.9,"pm2_5":17.8,"mosquito_risk":3,"arthritis_risk":5,"migraine_risk":4,"frizz_risk":1,"updated_at":"2026-04-22T13:23:55.863524+05:30"},{"city":"Thrissur","state":"Kerala","latitude":10.5276,"longitude":76.2144,"temp":34.3,"humidity":57,"rain":0.0,"pressure":1005.3,"uv_index":9.1,"wind_gusts":38.9,"aqi":73,"pm10":23.0,"pm2_5":18.7,"mosquito_risk":0,"arthritis_risk":5,"migraine_risk":4,"frizz_risk":1,"updated_at":"2026-04-22T13:23:55.863533+05:30"},{"city":"Kannur","state":"Kerala","latitude":11.8745,"longitude":75.3704,"temp":32.6,"humidity":68,"rain":0.0,"pressure":1005.2,"uv_index":9.05,"wind_gusts":34.6,"aqi":78,"pm10":26.8,"pm2_5":22.4,"mosquito_risk":3,"arthritis_risk":5,"migraine_risk":4,"frizz_risk":1,"updated_at":"2026-04-22T13:23:55.863541+05:30"},{"city":"Patna","state":"Bihar","latitude":25.5941,"longitude":85.1376,"temp":40.6,"humidity":15,"rain":0.0,"pressure":995.2,"uv_index":8.65,"wind_gusts":43.6,"aqi":99,"pm10":335.3,"pm2_5":53.9,"mosquito_risk":0,"arthritis_risk":5,"migraine_risk":10,"frizz_risk":0,"updated_at":"2026-04-22T13:23:55.863549+05:30"},{"city":"Gaya","state":"Bihar","latitude":24.7914,"longitude":85.0002,"temp":41.6,"humidity":15,"rain":0.0,"pressure":989.3,"uv_index":8.75,"wind_gusts":41.4,"aqi":97,"pm10":247.7,"pm2_5":41.3,"mosquito_risk":0,"arthritis_risk":5,"migraine_risk":10,"frizz_risk":0,"updated_at":"2026-04-22T13:23:55.863557+05:30"},{"city":"Muzaffarpur","state":"Bihar","latitude":26.1209,"longitude":85.3647,"temp":38.3,"humidity":26,"rain":0.0,"pressure":995.5,"uv_index":8.65,"wind_gusts":16.2,"aqi":97,"pm10":318.5,"pm2_5":56.8,"mosquito_risk":0,"arthritis_risk":5,"migraine_risk":10,"frizz_risk":0,"updated_at":"2026-04-22T13:23:55.863565+05:30"},{"city":"Bhagalpur","state":"Bihar","latitude":25.2425,"longitude":87.0117,"temp":38.0,"humidity":27,"rain":0.0,"pressure":996.3,"uv_index":8.7,"wind_gusts":21.6,"aqi":91,"pm10":246.8,"pm2_5":46.4,"mosquito_risk":0,"arthritis_risk":5,"migraine_risk":10,"frizz_risk":0,"updated_at":"2026-04-22T13:23:55.863572+05:30"},{"city":"Ranchi","state":"Jharkhand","latitude":23.3441,"longitude":85.3096,"temp":38.4,"humidity":14,"rain":0.0,"pressure":936.1,"uv_index":9.25,"wind_gusts":36.4,"aqi":91,"pm10":159.7,"pm2_5":30.3,"mosquito_risk":0,"arthritis_risk":5,"migraine_risk":10,"frizz_risk":0,"updated_at":"2026-04-22T13:23:55.863580+05:30"},{"city":"Jamshedpur","state":"Jharkhand","latitude":22.8046,"longitude":86.2029,"temp":40.7,"humidity":23,"rain":0.0,"pressure":986.6,"uv_index":9.05,"wind_gusts":23.4,"aqi":109,"pm10":235.2,"pm2_5":49.6,"mosquito_risk":0,"arthritis_risk":5,"migraine_risk":10,"frizz_risk":0,"updated_at":"2026-04-22T13:23:55.863588+05:30"},{"city":"Dhanbad","state":"Jharkhand","latitude":23.7957,"longitude":86.4304,"temp":41.7,"humidity":11,"rain":0.0,"pressure":975.7,"uv_index":9.0,"wind_gusts":36.4,"aqi":150,"pm10":228.6,"pm2_5":45.2,"mosquito_risk":0,"arthritis_risk":5,"migraine_risk":10,"frizz_risk":0,"updated_at":"2026-04-22T13:23:55.863595+05:30"},{"city":"Bokaro","state":"Jharkhand","latitude":23.6693,"longitude":86.1511,"temp":41.6,"humidity":12,"rain":0.0,"pressure":979.9,"uv_index":9.0,"wind_gusts":40.7,"aqi":133,"pm10":188.1,"pm2_5":39.7,"mosquito_risk":0,"arthritis_risk":5,"migraine_risk":10,"frizz_risk":0,"updated_at":"2026-04-22T13:23:55.863603+05:30"},{"city":"Bhubaneswar","state":"Odisha","latitude":20.2961,"longitude":85.8245,"temp":38.1,"humidity":49,"rain":0.0,"pressure":998.6,"uv_index":9.15,"wind_gusts":33.1,"aqi":101,"pm10":58.6,"pm2_5":52.0,"mosquito_risk":0,"arthritis_risk":5,"migraine_risk":10,"frizz_risk":1,"updated_at":"2026-04-22T13:23:55.863611+05:30"},{"city":"Cuttack","state":"Odisha","latitude":20.4625,"longitude":85.8828,"temp":41.2,"humidity":34,"rain":0.0,"pressure":1000.1,"uv_index":9.2,"wind_gusts":48.6,"aqi":101,"pm10":58.6,"pm2_5":52.0,"mosquito_risk":0,"arthritis_risk":5,"migraine_risk":7,"frizz_risk":1,"updated_at":"2026-04-22T13:23:55.863619+05:30"},{"city":"Rourkela","state":"Odisha","latitude":22.2604,"longitude":84.8536,"temp":42.0,"humidity":17,"rain":0.0,"pressure":981.2,"uv_index":9.0,"wind_gusts":46.4,"aqi":104,"pm10":108.0,"pm2_5":31.1,"mosquito_risk":0,"arthritis_risk":5,"migraine_risk":10,"frizz_risk":0,"updated_at":"2026-04-22T13:23:55.863626+05:30"},{"city":"Raipur","state":"Chhattisgarh","latitude":21.2514,"longitude":81.6296,"temp":41.6,"humidity":16,"rain":0.0,"pressure":972.4,"uv_index":8.9,"wind_gusts":33.5,"aqi":130,"pm10":40.0,"pm2_5":22.6,"mosquito_risk":0,"arthritis_risk":5,"migraine_risk":10,"frizz_risk":0,"updated_at":"2026-04-22T13:23:55.863634+05:30"},{"city":"Bhilai","state":"Chhattisgarh","latitude":21.1938,"longitude":81.3509,"temp":41.8,"humidity":14,"rain":0.0,"pressure":972.8,"uv_index":8.95,"wind_gusts":29.9,"aqi":119,"pm10":38.0,"pm2_5":20.6,"mosquito_risk":0,"arthritis_risk":5,"migraine_risk":10,"frizz_risk":0,"updated_at":"2026-04-22T13:23:55.863642+05:30"},{"city":"Guwahati","state":"Assam","latitude":26.1158,"longitude":91.7086,"temp":30.6,"humidity":68,"rain":0.0,"pressure":997.8,"uv_index":8.6,"wind_gusts":40.7,"aqi":116,"pm10":50.2,"pm2_5":34.5,"mosquito_risk":3,"arthritis_risk":5,"migraine_risk":7,"frizz_risk":1,"updated_at":"2026-04-22T13:23:55.863650+05:30"},{"city":"Agartala","state":"Tripura","latitude":23.8315,"longitude":91.2868,"temp":36.7,"humidity":46,"rain":0.0,"pressure":1001.6,"uv_index":8.85,"wind_gusts":31.7,"aqi":79,"pm10":41.7,"pm2_5":31.8,"mosquito_risk":0,"arthritis_risk":5,"migraine_risk":7,"frizz_risk":1,"updated_at":"2026-04-22T13:23:55.863658+05:30"},{"city":"Shillong","state":"Meghalaya","latitude":25.5788,"longitude":91.8933,"temp":23.1,"humidity":56,"rain":0.0,"pressure":856.5,"uv_index":9.05,"wind_gusts":75.2,"aqi":70,"pm10":32.5,"pm2_5":16.9,"mosquito_risk":0,"arthritis_risk":5,"migraine_risk":7,"frizz_risk":0,"updated_at":"2026-04-22T13:23:55.863666+05:30"},{"city":"Imphal","state":"Manipur","latitude":24.817,"longitude":93.9368,"temp":25.5,"humidity":66,"rain":0.0,"pressure":921.9,"uv_index":9.2,"wind_gusts":77.4,"aqi":144,"pm10":65.7,"pm2_5":29.6,"mosquito_risk":7,"arthritis_risk":5,"migraine_risk":7,"frizz_risk":1,"updated_at":"2026-04-22T13:23:55.863719+05:30"},{"city":"Aizawl","state":"Mizoram","latitude":23.7271,"longitude":92.7176,"temp":29.4,"humidity":50,"rain":0.0,"pressure":892.5,"uv_index":9.05,"wind_gusts":54.0,"aqi":101,"pm10":47.4,"pm2_5":29.9,"mosquito_risk":4,"arthritis_risk":5,"migraine_risk":7,"frizz_risk":1,"updated_at":"2026-04-22T13:23:55.863730+05:30"},{"city":"Kohima","state":"Nagaland","latitude":25.6701,"longitude":94.1077,"temp":23.0,"humidity":59,"rain":0.0,"pressure":854.7,"uv_index":9.15,"wind_gusts":92.2,"aqi":113,"pm10":56.2,"pm2_5":27.0,"mosquito_risk":0,"arthritis_risk":5,"migraine_risk":7,"frizz_risk":0,"updated_at":"2026-04-22T13:23:55.863738+05:30"},{"city":"Gangtok","state":"Sikkim","latitude":27.3314,"longitude":88.6138,"temp":23.6,"humidity":55,"rain":0.0,"pressure":837.6,"uv_index":8.9,"wind_gusts":23.8,"aqi":74,"pm10":33.3,"pm2_5":18.6,"mosquito_risk":0,"arthritis_risk":5,"migraine_risk":7,"frizz_risk":0,"updated_at":"2026-04-22T13:23:55.863744+05:30"},{"city":"Siliguri","state":"West Bengal","latitude":26.7271,"longitude":88.3953,"temp":29.1,"humidity":65,"rain":0.0,"pressure":990.1,"uv_index":8.5,"wind_gusts":22.7,"aqi":128,"pm10":65.7,"pm2_5":45.3,"mosquito_risk":7,"arthritis_risk":5,"migraine_risk":7,"frizz_risk":1,"updated_at":"2026-04-22T13:23:59.138380+05:30"},{"city":"Durgapur","state":"West Bengal","latitude":23.5204,"longitude":87.3119,"temp":42.6,"humidity":13,"rain":0.0,"pressure":990.4,"uv_index":8.95,"wind_gusts":31.7,"aqi":153,"pm10":280.3,"pm2_5":51.6,"mosquito_risk":0,"arthritis_risk":5,"migraine_risk":10,"frizz_risk":0,"updated_at":"2026-04-22T13:23:59.138416+05:30"},{"city":"Asansol","state":"West Bengal","latitude":23.6739,"longitude":86.9524,"temp":42.3,"humidity":12,"rain":0.0,"pressure":989.1,"uv_index":9.0,"wind_gusts":27.4,"aqi":134,"pm10":257.0,"pm2_5":47.8,"mosquito_risk":0,"arthritis_risk":5,"migraine_risk":10,"frizz_risk":0,"updated_at":"2026-04-22T13:23:59.138426+05:30"},{"city":"Pondicherry","state":"Puducherry","latitude":11.9139,"longitude":79.8145,"temp":37.0,"humidity":45,"rain":0.0,"pressure":1006.5,"uv_index":9.1,"wind_gusts":27.7,"aqi":39,"pm10":11.4,"pm2_5":8.0,"mosquito_risk":0,"arthritis_risk":5,"migraine_risk":7,"frizz_risk":1,"updated_at":"2026-04-22T13:23:59.138434+05:30"},{"city":"Port Blair","state":"Andaman and Nicobar Islands","latitude":11.6234,"longitude":92.7265,"temp":30.0,"humidity":71,"rain":0.0,"pressure":1005.4,"uv_index":9.15,"wind_gusts":23.4,"aqi":43,"pm10":12.0,"pm2_5":9.1,"mosquito_risk":7,"arthritis_risk":5,"migraine_risk":4,"frizz_risk":1,"updated_at":"2026-04-22T13:23:59.138442+05:30"},{"city":"Haridwar","state":"Uttarakhand","latitude":29.9457,"longitude":78.1642,"temp":36.4,"humidity":25,"rain":0.0,"pressure":971.9,"uv_index":7.15,"wind_gusts":34.6,"aqi":66,"pm10":24.0,"pm2_5":15.5,"mosquito_risk":0,"arthritis_risk":5,"migraine_risk":10,"frizz_risk":0,"updated_at":"2026-04-22T13:23:59.138449+05:30"},{"city":"Rishikesh","state":"Uttarakhand","latitude":30.0869,"longitude":78.2676,"temp":35.3,"humidity":29,"rain":0.0,"pressure":964.9,"uv_index":7.25,"wind_gusts":33.5,"aqi":56,"pm10":21.8,"pm2_5":10.5,"mosquito_risk":0,"arthritis_risk":5,"migraine_risk":10,"frizz_risk":0,"updated_at":"2026-04-22T13:23:59.138457+05:30"},{"city":"Nainital","state":"Uttarakhand","latitude":29.3919,"longitude":79.4542,"temp":29.2,"humidity":27,"rain":0.0,"pressure":809.3,"uv_index":8.05,"wind_gusts":42.5,"aqi":77,"pm10":22.8,"pm2_5":13.3,"mosquito_risk":4,"arthritis_risk":5,"migraine_risk":7,"frizz_risk":0,"updated_at":"2026-04-22T13:23:59.138464+05:30"},{"city":"Mussoorie","state":"Uttarakhand","latitude":30.4599,"longitude":78.0664,"temp":27.2,"humidity":33,"rain":0.0,"pressure":806.1,"uv_index":7.65,"wind_gusts":41.4,"aqi":60,"pm10":21.9,"pm2_5":12.1,"mosquito_risk":4,"arthritis_risk":5,"migraine_risk":7,"frizz_risk":0,"updated_at":"2026-04-22T13:23:59.138471+05:30"},{"city":"Dharamshala","state":"Himachal Pradesh","latitude":32.219,"longitude":76.3234,"temp":30.5,"humidity":34,"rain":0.0,"pressure":870.8,"uv_index":7.95,"wind_gusts":28.1,"aqi":51,"pm10":18.2,"pm2_5":7.0,"mosquito_risk":0,"arthritis_risk":5,"migraine_risk":7,"frizz_risk":0,"updated_at":"2026-04-22T13:23:59.138478+05:30"},{"city":"Dalhousie","state":"Himachal Pradesh","latitude":32.5387,"longitude":75.971,"temp":29.5,"humidity":26,"rain":0.0,"pressure":807.7,"uv_index":8.25,"wind_gusts":25.6,"aqi":56,"pm10":22.2,"pm2_5":11.1,"mosquito_risk":4,"arthritis_risk":5,"migraine_risk":7,"frizz_risk":0,"updated_at":"2026-04-22T13:23:59.138486+05:30"},{"city":"Patiala","state":"Punjab","latitude":30.3398,"longitude":76.3869,"temp":37.9,"humidity":20,"rain":0.0,"pressure":975.9,"uv_index":7.25,"wind_gusts":25.2,"aqi":236,"pm10":502.9,"pm2_5":49.6,"mosquito_risk":0,"arthritis_risk":5,"migraine_risk":10,"frizz_risk":0,"updated_at":"2026-04-22T13:23:59.138493+05:30"},{"city":"Bhatinda","state":"Punjab","latitude":30.211,"longitude":74.9455,"temp":41.3,"humidity":14,"rain":0.0,"pressure":981.0,"uv_index":7.9,"wind_gusts":29.9,"aqi":72,"pm10":37.7,"pm2_5":15.3,"mosquito_risk":0,"arthritis_risk":5,"migraine_risk":10,"frizz_risk":0,"updated_at":"2026-04-22T13:23:59.138500+05:30"},{"city":"Rohtak","state":"Haryana","latitude":28.8955,"longitude":76.6066,"temp":38.7,"humidity":19,"rain":0.0,"pressure":979.8,"uv_index":7.4,"wind_gusts":34.2,"aqi":594,"pm10":516.0,"pm2_5":54.7,"mosquito_risk":0,"arthritis_risk":5,"migraine_risk":10,"frizz_risk":0,"updated_at":"2026-04-22T13:23:59.138506+05:30"},{"city":"Panipat","state":"Haryana","latitude":29.3909,"longitude":76.9635,"temp":38.8,"humidity":19,"rain":0.0,"pressure":978.2,"uv_index":7.2,"wind_gusts":32.8,"aqi":986,"pm10":1099.0,"pm2_5":99.0,"mosquito_risk":0,"arthritis_risk":5,"migraine_risk":10,"frizz_risk":0,"updated_at":"2026-04-22T13:23:59.138513+05:30"},{"city":"Mathura","state":"Uttar Pradesh","latitude":27.4924,"longitude":77.6737,"temp":40.8,"humidity":17,"rain":0.0,"pressure":984.4,"uv_index":7.7,"wind_gusts":33.8,"aqi":725,"pm10":705.9,"pm2_5":65.0,"mosquito_risk":0,"arthritis_risk":5,"migraine_risk":10,"frizz_risk":0,"updated_at":"2026-04-22T13:23:59.138519+05:30"},{"city":"Vrindavan","state":"Uttar Pradesh","latitude":27.5823,"longitude":77.7027,"temp":40.7,"humidity":18,"rain":0.0,"pressure":984.7,"uv_index":7.65,"wind_gusts":34.6,"aqi":725,"pm10":705.9,"pm2_5":65.0,"mosquito_risk":0,"arthritis_risk":5,"migraine_risk":10,"frizz_risk":0,"updated_at":"2026-04-22T13:23:59.138526+05:30"},{"city":"Ayodhya","state":"Uttar Pradesh","latitude":26.7922,"longitude":82.1998,"temp":41.7,"humidity":10,"rain":0.0,"pressure":990.8,"uv_index":8.05,"wind_gusts":46.1,"aqi":141,"pm10":152.7,"pm2_5":35.0,"mosquito_risk":0,"arthritis_risk":5,"migraine_risk":10,"frizz_risk":0,"updated_at":"2026-04-22T13:23:59.138532+05:30"},{"city":"Ratlam","state":"Madhya Pradesh","latitude":23.3315,"longitude":75.0367,"temp":35.9,"humidity":24,"rain":0.0,"pressure":955.5,"uv_index":8.5,"wind_gusts":29.5,"aqi":54,"pm10":20.4,"pm2_5":16.6,"mosquito_risk":0,"arthritis_risk":5,"migraine_risk":10,"frizz_risk":0,"updated_at":"2026-04-22T13:23:59.138539+05:30"},{"city":"Sagar","state":"Madhya Pradesh","latitude":23.8388,"longitude":78.7378,"temp":38.5,"humidity":11,"rain":0.0,"pressure":950.3,"uv_index":8.7,"wind_gusts":38.5,"aqi":54,"pm10":15.1,"pm2_5":7.7,"mosquito_risk":0,"arthritis_risk":5,"migraine_risk":10,"frizz_risk":0,"updated_at":"2026-04-22T13:23:59.138546+05:30"},{"city":"Satna","state":"Madhya Pradesh","latitude":24.6005,"longitude":80.8322,"temp":41.2,"humidity":13,"rain":0.0,"pressure":968.7,"uv_index":8.7,"wind_gusts":48.6,"aqi":74,"pm10":71.5,"pm2_5":17.3,"mosquito_risk":0,"arthritis_risk":5,"migraine_risk":10,"frizz_risk":0,"updated_at":"2026-04-22T13:23:59.138552+05:30"},{"city":"Akola","state":"Maharashtra","latitude":20.7002,"longitude":77.0082,"temp":41.4,"humidity":15,"rain":0.0,"pressure":974.2,"uv_index":8.9,"wind_gusts":32.0,"aqi":80,"pm10":22.1,"pm2_5":17.9,"mosquito_risk":0,"arthritis_risk":5,"migraine_risk":10,"frizz_risk":0,"updated_at":"2026-04-22T13:23:59.138559+05:30"},{"city":"Amravati","state":"Maharashtra","latitude":20.9374,"longitude":77.7796,"temp":39.6,"humidity":19,"rain":0.0,"pressure":966.7,"uv_index":8.8,"wind_gusts":23.8,"aqi":83,"pm10":20.3,"pm2_5":17.2,"mosquito_risk":0,"arthritis_risk":5,"migraine_risk":10,"frizz_risk":0,"updated_at":"2026-04-22T13:23:59.138566+05:30"},{"city":"Latur","state":"Maharashtra","latitude":18.4088,"longitude":76.5604,"temp":37.5,"humidity":20,"rain":0.0,"pressure":939.6,"uv_index":8.35,"wind_gusts":31.3,"aqi":111,"pm10":37.3,"pm2_5":30.7,"mosquito_risk":0,"arthritis_risk":5,"migraine_risk":10,"frizz_risk":0,"updated_at":"2026-04-22T13:23:59.138573+05:30"},{"city":"Nanded","state":"Maharashtra","latitude":19.1383,"longitude":77.3091,"temp":40.5,"humidity":18,"rain":0.0,"pressure":967.6,"uv_index":8.9,"wind_gusts":22.0,"aqi":97,"pm10":25.8,"pm2_5":21.8,"mosquito_risk":0,"arthritis_risk":5,"migraine_risk":10,"frizz_risk":0,"updated_at":"2026-04-22T13:23:59.138579+05:30"},{"city":"Gulbarga","state":"Karnataka","latitude":17.3297,"longitude":76.8343,"temp":39.7,"humidity":20,"rain":0.0,"pressure":957.7,"uv_index":9.15,"wind_gusts":25.9,"aqi":108,"pm10":42.4,"pm2_5":36.3,"mosquito_risk":0,"arthritis_risk":5,"migraine_risk":10,"frizz_risk":0,"updated_at":"2026-04-22T13:23:59.138586+05:30"},{"city":"Bidar","state":"Karnataka","latitude":17.9104,"longitude":77.5199,"temp":37.7,"humidity":21,"rain":0.0,"pressure":935.4,"uv_index":6.95,"wind_gusts":47.5,"aqi":109,"pm10":38.9,"pm2_5":33.1,"mosquito_risk":0,"arthritis_risk":5,"migraine_risk":10,"frizz_risk":0,"updated_at":"2026-04-22T13:23:59.138592+05:30"},{"city":"Hospet","state":"Karnataka","latitude":15.2689,"longitude":76.3909,"temp":36.6,"humidity":32,"rain":0.0,"pressure":954.9,"uv_index":9.25,"wind_gusts":38.2,"aqi":112,"pm10":35.5,"pm2_5":29.1,"mosquito_risk":0,"arthritis_risk":5,"migraine_risk":10,"frizz_risk":1,"updated_at":"2026-04-22T13:23:59.138599+05:30"},{"city":"Tirupur","state":"Tamil Nadu","latitude":11.1085,"longitude":77.3411,"temp":37.7,"humidity":32,"rain":0.0,"pressure":973.9,"uv_index":9.3,"wind_gusts":27.4,"aqi":65,"pm10":21.1,"pm2_5":17.9,"mosquito_risk":0,"arthritis_risk":5,"migraine_risk":10,"frizz_risk":1,"updated_at":"2026-04-22T13:23:59.138605+05:30"},{"city":"Alappuzha","state":"Kerala","latitude":9.4981,"longitude":76.3388,"temp":29.2,"humidity":82,"rain":0.0,"pressure":1007.1,"uv_index":8.8,"wind_gusts":27.7,"aqi":69,"pm10":28.5,"pm2_5":23.9,"mosquito_risk":7,"arthritis_risk":5,"migraine_risk":4,"frizz_risk":1,"updated_at":"2026-04-22T13:23:59.138612+05:30"},{"city":"Munnar","state":"Kerala","latitude":10.0889,"longitude":77.0595,"temp":31.0,"humidity":42,"rain":0.0,"pressure":858.8,"uv_index":9.65,"wind_gusts":35.6,"aqi":76,"pm10":16.2,"pm2_5":13.2,"mosquito_risk":0,"arthritis_risk":5,"migraine_risk":7,"frizz_risk":1,"updated_at":"2026-04-22T13:23:59.138619+05:30"},{"city":"Silchar","state":"Assam","latitude":24.8333,"longitude":92.7789,"temp":29.6,"humidity":71,"rain":0.0,"pressure":1002.4,"uv_index":8.85,"wind_gusts":46.4,"aqi":151,"pm10":43.0,"pm2_5":30.4,"mosquito_risk":7,"arthritis_risk":5,"migraine_risk":4,"frizz_risk":1,"updated_at":"2026-04-22T13:23:59.138626+05:30"},{"city":"Dibrugarh","state":"Assam","latitude":27.4728,"longitude":94.912,"temp":23.4,"humidity":87,"rain":0.0,"pressure":993.8,"uv_index":8.6,"wind_gusts":23.4,"aqi":52,"pm10":9.5,"pm2_5":7.3,"mosquito_risk":3,"arthritis_risk":5,"migraine_risk":7,"frizz_risk":1,"updated_at":"2026-04-22T13:23:59.138633+05:30"}]