[{"city":"Delhi","state":"Delhi","latitude":28.6139,"longitude":77.209,"temp":30.5,"humidity":34,"rain":0.0,"pressure":984.1,"uv_index":7.15,"wind_gusts":31.0,"aqi":663,"pm10":542.0,"pm2_5":68.0,"mosquito_risk":0,"arthritis_risk":5,"migraine_risk":7,"frizz_risk":0,"updated_at":"2026-04-11T17:03:35.898511+05:30"},{"city":"Mumbai","state":"Maharashtra","latitude":19.076,"longitude":72.8777,"temp":28.7,"humidity":77,"rain":0.0,"pressure":1007.8,"uv_index":7.95,"wind_gusts":23.4,"aqi":178,"pm10":42.3,"pm2_5":31.5,"mosquito_risk":7,"arthritis_risk":5,"migraine_risk":4,"frizz_risk":1,"updated_at":"2026-04-11T17:03:35.898557+05:30"},{"city":"Bangalore","state":"Karnataka","latitude":12.9716,"longitude":77.5946,"temp":34.5,"humidity":27,"rain":0.0,"pressure":911.4,"uv_index":9.65,"wind_gusts":27.4,"aqi":103,"pm10":33.3,"pm2_5":23.2,"mosquito_risk":0,"arthritis_risk":5,"migraine_risk":7,"frizz_risk":0,"updated_at":"2026-04-11T17:03:35.898572+05:30"},{"city":"Hyderabad","state":"Telangana","latitude":17.385,"longitude":78.4867,"temp":38.6,"humidity":21,"rain":0.0,"pressure":952.1,"uv_index":9.2,"wind_gusts":18.7,"aqi":146,"pm10":40.2,"pm2_5":27.5,"mosquito_risk":0,"arthritis_risk":5,"migraine_risk":10,"frizz_risk":0,"updated_at":"2026-04-11T17:03:35.898582+05:30"},{"city":"Chennai","state":"Tamil Nadu","latitude":13.0827,"longitude":80.2707,"temp":32.2,"humidity":66,"rain":0.0,"pressure":1006.4,"uv_index":9.05,"wind_gusts":35.6,"aqi":56,"pm10":21.5,"pm2_5":15.3,"mosquito_risk":3,"arthritis_risk":5,"migraine_risk":4,"frizz_risk":1,"updated_at":"2026-04-11T17:03:35.898591+05:30"},{"city":"Kolkata","state":"West Bengal","latitude":22.5726,"longitude":88.3639,"temp":30.3,"humidity":62,"rain":0.0,"pressure":1005.4,"uv_index":8.75,"wind_gusts":18.0,"aqi":133,"pm10":53.4,"pm2_5":38.8,"mosquito_risk":3,"arthritis_risk":5,"migraine_risk":4,"frizz_risk":1,"updated_at":"2026-04-11T17:03:35.898600+05:30"},{"city":"Pune","state":"Maharashtra","latitude":18.5204,"longitude":73.8567,"temp":36.4,"humidity":35,"rain":0.0,"pressure":947.9,"uv_index":8.55,"wind_gusts":38.9,"aqi":144,"pm10":38.9,"pm2_5":23.1,"mosquito_risk":0,"arthritis_risk":5,"migraine_risk":10,"frizz_risk":1,"updated_at":"2026-04-11T17:03:35.898613+05:30"},{"city":"Ahmedabad","state":"Gujarat","latitude":23.0225,"longitude":72.5714,"temp":39.7,"humidity":16,"rain":0.0,"pressure":1001.2,"uv_index":8.05,"wind_gusts":22.3,"aqi":134,"pm10":29.9,"pm2_5":15.2,"mosquito_risk":0,"arthritis_risk":5,"migraine_risk":7,"frizz_risk":0,"updated_at":"2026-04-11T17:03:35.898622+05:30"},{"city":"Jaipur","state":"Rajasthan","latitude":26.9124,"longitude":75.7873,"temp":34.9,"humidity":16,"rain":0.0,"pressure":960.0,"uv_index":7.85,"wind_gusts":40.7,"aqi":106,"pm10":245.9,"pm2_5":28.6,"mosquito_risk":0,"arthritis_risk":5,"migraine_risk":7,"frizz_risk":0,"updated_at":"2026-04-11T17:03:35.898630+05:30"},{"city":"Lucknow","state":"Uttar Pradesh","latitude":26.8467,"longitude":80.9462,"temp":34.7,"humidity":22,"rain":0.0,"pressure":993.1,"uv_index":7.65,"wind_gusts":42.1,"aqi":291,"pm10":322.2,"pm2_5":48.4,"mosquito_risk":0,"arthritis_risk":5,"migraine_risk":7,"frizz_risk":0,"updated_at":"2026-04-11T17:03:35.898638+05:30"},{"city":"Kanpur","state":"Uttar Pradesh","latitude":26.4499,"longitude":80.3319,"temp":33.5,"humidity":28,"rain":0.0,"pressure":992.0,"uv_index":7.65,"wind_gusts":36.4,"aqi":640,"pm10":733.9,"pm2_5":82.4,"mosquito_risk":0,"arthritis_risk":5,"migraine_risk":7,"frizz_risk":0,"updated_at":"2026-04-11T17:03:35.898645+05:30"},{"city":"Chandigarh","state":"Chandigarh","latitude":30.7333,"longitude":76.7794,"temp":29.4,"humidity":33,"rain":0.0,"pressure":970.0,"uv_index":7.15,"wind_gusts":29.9,"aqi":112,"pm10":95.7,"pm2_5":23.5,"mosquito_risk":4,"arthritis_risk":5,"migraine_risk":7,"frizz_risk":0,"updated_at":"2026-04-11T17:03:35.898653+05:30"},{"city":"Srinagar","state":"Jammu and Kashmir","latitude":34.0837,"longitude":74.7973,"temp":14.2,"humidity":54,"rain":0.0,"pressure":842.1,"uv_index":7.4,"wind_gusts":14.0,"aqi":92,"pm10":46.4,"pm2_5":14.8,"mosquito_risk":0,"arthritis_risk":5,"migraine_risk":7,"frizz_risk":0,"updated_at":"2026-04-11T17:03:35.898661+05:30"},{"city":"Jammu","state":"Jammu and Kashmir","latitude":32.7266,"longitude":74.857,"temp":27.8,"humidity":34,"rain":0.0,"pressure":974.7,"uv_index":6.8,"wind_gusts":16.6,"aqi":69,"pm10":52.5,"pm2_5":16.8,"mosquito_risk":4,"arthritis_risk":5,"migraine_risk":7,"frizz_risk":0,"updated_at":"2026-04-11T17:03:35.898669+05:30"},{"city":"Amritsar","state":"Punjab","latitude":31.634,"longitude":74.8723,"temp":27.8,"humidity":40,"rain":0.0,"pressure":982.8,"uv_index":7.7,"wind_gusts":18.7,"aqi":90,"pm10":123.4,"pm2_5":31.1,"mosquito_risk":4,"arthritis_risk":5,"migraine_risk":7,"frizz_risk":0,"updated_at":"2026-04-11T17:03:35.898676+05:30"},{"city":"Ludhiana","state":"Punjab","latitude":30.901,"longitude":75.8573,"temp":29.7,"humidity":32,"rain":0.0,"pressure":980.2,"uv_index":7.35,"wind_gusts":28.8,"aqi":98,"pm10":74.3,"pm2_5":19.7,"mosquito_risk":4,"arthritis_risk":5,"migraine_risk":7,"frizz_risk":0,"updated_at":"2026-04-11T17:03:35.898683+05:30"},{"city":"Jalandhar","state":"Punjab","latitude":31.326,"longitude":75.5762,"temp":28.8,"humidity":35,"rain":0.0,"pressure":981.6,"uv_index":7.5,"wind_gusts":23.4,"aqi":98,"pm10":111.1,"pm2_5":25.0,"mosquito_risk":4,"arthritis_risk":5,"migraine_risk":7,"frizz_risk":0,"updated_at":"2026-04-11T17:03:35.898693+05:30"},{"city":"Dehradun","state":"Uttarakhand","latitude":30.6284,"longitude":78.0322,"temp":19.1,"humidity":43,"rain":0.0,"pressure":830.9,"uv_index":7.55,"wind_gusts":42.5,"aqi":117,"pm10":62.4,"pm2_5":13.3,"mosquito_risk":0,"arthritis_risk":5,"migraine_risk":7,"frizz_risk":0,"updated_at":"2026-04-11T17:03:35.898699+05:30"},{"city":"Shimla","state":"Himachal Pradesh","latitude":31.1048,"longitude":77.1734,"temp":15.8,"humidity":53,"rain":0.0,"pressure":785.8,"uv_index":7.5,"wind_gusts":46.4,"aqi":103,"pm10":76.8,"pm2_5":17.3,"mosquito_risk":0,"arthritis_risk":5,"migraine_risk":7,"frizz_risk":0,"updated_at":"2026-04-11T17:03:35.898707+05:30"},{"city":"Manali","state":"Himachal Pradesh","latitude":32.2396,"longitude":77.1887,"temp":15.2,"humidity":61,"rain":0.0,"pressure":819.3,"uv_index":8.5,"wind_gusts":29.5,"aqi":148,"pm10":41.1,"pm2_5":10.6,"mosquito_risk":3,"arthritis_risk":5,"migraine_risk":7,"frizz_risk":0,"updated_at":"2026-04-11T17:03:35.898714+05:30"},{"city":"Gurgaon","state":"Haryana","latitude":28.4595,"longitude":77.0266,"temp":30.0,"humidity":39,"rain":0.0,"pressure":982.5,"uv_index":7.3,"wind_gusts":26.3,"aqi":1730,"pm10":1467.8,"pm2_5":140.2,"mosquito_risk":4,"arthritis_risk":5,"migraine_risk":7,"frizz_risk":0,"updated_at":"2026-04-11T17:03:35.898721+05:30"},{"city":"Noida","state":"Uttar Pradesh","latitude":28.5355,"longitude":77.391,"temp":30.8,"humidity":33,"rain":0.0,"pressure":985.5,"uv_index":7.2,"wind_gusts":31.3,"aqi":1730,"pm10":1467.8,"pm2_5":140.2,"mosquito_risk":0,"arthritis_risk":5,"migraine_risk":7,"frizz_risk":0,"updated_at":"2026-04-11T17:03:35.898728+05:30"},{"city":"Ghaziabad","state":"Uttar Pradesh","latitude":28.6692,"longitude":77.4538,"temp":30.3,"humidity":36,"rain":0.0,"pressure":983.5,"uv_index":7.15,"wind_gusts":29.9,"aqi":520,"pm10":501.1,"pm2_5":66.8,"mosquito_risk":0,"arthritis_risk":5,"migraine_risk":7,"frizz_risk":0,"updated_at":"2026-04-11T17:03:35.898735+05:30"},{"city":"Faridabad","state":"Haryana","latitude":28.4089,"longitude":77.3178,"temp":30.8,"humidity":30,"rain":0.0,"pressure":984.9,"uv_index":7.25,"wind_gusts":31.0,"aqi":1730,"pm10":1467.8,"pm2_5":140.2,"mosquito_risk":0,"arthritis_risk":5,"migraine_risk":7,"frizz_risk":0,"updated_at":"2026-04-11T17:03:35.898742+05:30"},{"city":"Meerut","state":"Uttar Pradesh","latitude":28.9845,"longitude":77.7064,"temp":31.0,"humidity":33,"rain":0.0,"pressure":982.2,"uv_index":7.05,"wind_gusts":34.2,"aqi":520,"pm10":501.1,"pm2_5":66.8,"mosquito_risk":0,"arthritis_risk":5,"migraine_risk":7,"frizz_risk":0,"updated_at":"2026-04-11T17:03:35.898748+05:30"},{"city":"Agra","state":"Uttar Pradesh","latitude":27.1767,"longitude":78.0081,"temp":34.3,"humidity":25,"rain":0.0,"pressure":988.3,"uv_index":7.55,"wind_gusts":28.8,"aqi":1084,"pm10":491.7,"pm2_5":55.3,"mosquito_risk":0,"arthritis_risk":5,"migraine_risk":7,"frizz_risk":0,"updated_at":"2026-04-11T17:03:35.898755+05:30"},{"city":"Varanasi","state":"Uttar Pradesh","latitude":25.3176,"longitude":82.9739,"temp":35.2,"humidity":22,"rain":0.0,"pressure":996.8,"uv_index":8.25,"wind_gusts":37.8,"aqi":121,"pm10":89.6,"pm2_5":30.2,"mosquito_risk":0,"arthritis_risk":5,"migraine_risk":10,"frizz_risk":0,"updated_at":"2026-04-11T17:03:35.898766+05:30"},{"city":"Prayagraj","state":"Uttar Pradesh","latitude":25.4358,"longitude":81.8463,"temp":34.5,"humidity":23,"rain":0.0,"pressure":996.1,"uv_index":8.15,"wind_gusts":39.2,"aqi":128,"pm10":126.7,"pm2_5":32.6,"mosquito_risk":0,"arthritis_risk":5,"migraine_risk":7,"frizz_risk":0,"updated_at":"2026-04-11T17:03:35.898774+05:30"},{"city":"Gorakhpur","state":"Uttar Pradesh","latitude":26.7606,"longitude":83.3732,"temp":34.6,"humidity":19,"rain":0.0,"pressure":995.6,"uv_index":8.1,"wind_gusts":29.2,"aqi":131,"pm10":69.2,"pm2_5":28.1,"mosquito_risk":0,"arthritis_risk":5,"migraine_risk":7,"frizz_risk":0,"updated_at":"2026-04-11T17:03:35.898783+05:30"},{"city":"Bareilly","state":"Uttar Pradesh","latitude":28.367,"longitude":79.4304,"temp":31.8,"humidity":29,"rain":0.0,"pressure":987.1,"uv_index":7.45,"wind_gusts":46.4,"aqi":112,"pm10":52.4,"pm2_5":18.3,"mosquito_risk":0,"arthritis_risk":5,"migraine_risk":7,"frizz_risk":0,"updated_at":"2026-04-11T17:03:35.898790+05:30"},{"city":"Aligarh","state":"Uttar Pradesh","latitude":27.8974,"longitude":78.088,"temp":33.1,"humidity":26,"rain":0.0,"pressure":986.2,"uv_index":7.35,"wind_gusts":37.1,"aqi":1131,"pm10":940.6,"pm2_5":101.7,"mosquito_risk":0,"arthritis_risk":5,"migraine_risk":7,"frizz_risk":0,"updated_at":"2026-04-11T17:03:35.898797+05:30"},{"city":"Moradabad","state":"Uttar Pradesh","latitude":28.8386,"longitude":78.7733,"temp":31.2,"humidity":31,"rain":0.0,"pressure":984.1,"uv_index":7.3,"wind_gusts":41.4,"aqi":107,"pm10":113.2,"pm2_5":28.7,"mosquito_risk":0,"arthritis_risk":5,"migraine_risk":7,"frizz_risk":0,"updated_at":"2026-04-11T17:03:35.898803+05:30"},{"city":"Saharanpur","state":"Uttar Pradesh","latitude":29.9637,"longitude":77.546,"temp":30.7,"humidity":32,"rain":0.0,"pressure":976.4,"uv_index":6.85,"wind_gusts":35.3,"aqi":96,"pm10":106.6,"pm2_5":24.3,"mosquito_risk":0,"arthritis_risk":5,"migraine_risk":7,"frizz_risk":0,"updated_at":"2026-04-11T17:03:35.898809+05:30"},{"city":"Jhansi","state":"Uttar Pradesh","latitude":25.4484,"longitude":78.5685,"temp":36.3,"humidity":19,"rain":0.0,"pressure":978.3,"uv_index":8.1,"wind_gusts":25.6,"aqi":106,"pm10":40.7,"pm2_5":10.1,"mosquito_risk":0,"arthritis_risk":5,"migraine_risk":10,"frizz_risk":0,"updated_at":"2026-04-11T17:03:39.252813+05:30"},{"city":"Surat","state":"Gujarat","latitude":21.1702,"longitude":72.8311,"temp":36.4,"humidity":23,"rain":0.0,"pressure":1006.1,"uv_index":7.8,"wind_gusts":27.7,"aqi":117,"pm10":42.8,"pm2_5":35.3,"mosquito_risk":0,"arthritis_risk":5,"migraine_risk":7,"frizz_risk":0,"updated_at":"2026-04-11T17:03:39.252844+05:30"},{"city":"Vadodara","state":"Gujarat","latitude":22.3072,"longitude":73.1812,"temp":39.1,"humidity":18,"rain":0.0,"pressure":1003.5,"uv_index":8.05,"wind_gusts":18.4,"aqi":146,"pm10":25.1,"pm2_5":16.0,"mosquito_risk":0,"arthritis_risk":5,"migraine_risk":7,"frizz_risk":0,"updated_at":"2026-04-11T17:03:39.252854+05:30"},{"city":"Rajkot","state":"Gujarat","latitude":22.3039,"longitude":70.8022,"temp":38.5,"humidity":19,"rain":0.0,"pressure":994.0,"uv_index":7.75,"wind_gusts":31.3,"aqi":106,"pm10":42.1,"pm2_5":18.6,"mosquito_risk":0,"arthritis_risk":5,"migraine_risk":10,"frizz_risk":0,"updated_at":"2026-04-11T17:03:39.252862+05:30"},{"city":"Thane","state":"Maharashtra","latitude":19.2183,"longitude":72.9781,"temp":31.1,"humidity":57,"rain":0.0,"pressure":1007.4,"uv_index":7.95,"wind_gusts":37.1,"aqi":178,"pm10":42.3,"pm2_5":31.5,"mosquito_risk":0,"arthritis_risk":5,"migraine_risk":4,"frizz_risk":1,"updated_at":"2026-04-11T17:03:39.252870+05:30"},{"city":"Nagpur","state":"Maharashtra","latitude":21.1458,"longitude":79.0882,"temp":35.3,"humidity":27,"rain":0.0,"pressure":972.6,"uv_index":8.75,"wind_gusts":22.7,"aqi":149,"pm10":19.2,"pm2_5":11.2,"mosquito_risk":0,"arthritis_risk":5,"migraine_risk":10,"frizz_risk":0,"updated_at":"2026-04-11T17:03:39.252878+05:30"},{"city":"Nashik","state":"Maharashtra","latitude":19.9975,"longitude":73.7898,"temp":34.8,"humidity":32,"rain":0.0,"pressure":945.7,"uv_index":8.25,"wind_gusts":36.7,"aqi":165,"pm10":38.2,"pm2_5":25.6,"mosquito_risk":0,"arthritis_risk":5,"migraine_risk":7,"frizz_risk":0,"updated_at":"2026-04-11T17:03:39.252897+05:30"},{"city":"Aurangabad","state":"Maharashtra","latitude":19.8762,"longitude":75.3433,"temp":37.7,"humidity":19,"rain":0.0,"pressure":943.8,"uv_index":8.9,"wind_gusts":33.1,"aqi":137,"pm10":27.1,"pm2_5":14.7,"mosquito_risk":0,"arthritis_risk":5,"migraine_risk":10,"frizz_risk":0,"updated_at":"2026-04-11T17:03:39.252907+05:30"},{"city":"Solapur","state":"Maharashtra","latitude":17.6599,"longitude":75.9064,"temp":39.7,"humidity":19,"rain":0.0,"pressure":955.6,"uv_index":9.0,"wind_gusts":18.7,"aqi":149,"pm10":34.8,"pm2_5":21.5,"mosquito_risk":0,"arthritis_risk":5,"migraine_risk":10,"frizz_risk":0,"updated_at":"2026-04-11T17:03:39.252914+05:30"},{"city":"Kolhapur","state":"Maharashtra","latitude":16.705,"longitude":74.2433,"temp":33.3,"humidity":45,"rain":0.0,"pressure":947.4,"uv_index":8.5,"wind_gusts":42.5,"aqi":138,"pm10":33.9,"pm2_5":21.0,"mosquito_risk":0,"arthritis_risk":5,"migraine_risk":7,"frizz_risk":1,"updated_at":"2026-04-11T17:03:39.252921+05:30"},{"city":"Goa","state":"Goa","latitude":15.2993,"longitude":74.124,"temp":30.3,"humidity":69,"rain":0.0,"pressure":997.2,"uv_index":9.05,"wind_gusts":34.9,"aqi":109,"pm10":78.2,"pm2_5":32.0,"mosquito_risk":3,"arthritis_risk":5,"migraine_risk":7,"frizz_risk":1,"updated_at":"2026-04-11T17:03:39.252928+05:30"},{"city":"Jodhpur","state":"Rajasthan","latitude":26.2389,"longitude":73.0243,"temp":36.5,"humidity":22,"rain":0.0,"pressure":982.5,"uv_index":8.05,"wind_gusts":33.1,"aqi":95,"pm10":224.9,"pm2_5":36.0,"mosquito_risk":0,"arthritis_risk":5,"migraine_risk":10,"frizz_risk":0,"updated_at":"2026-04-11T17:03:39.252936+05:30"},{"city":"Udaipur","state":"Rajasthan","latitude":24.5854,"longitude":73.7125,"temp":34.4,"humidity":21,"rain":0.0,"pressure":947.5,"uv_index":8.6,"wind_gusts":36.4,"aqi":120,"pm10":24.7,"pm2_5":9.6,"mosquito_risk":0,"arthritis_risk":5,"migraine_risk":7,"frizz_risk":0,"updated_at":"2026-04-11T17:03:39.252943+05:30"},{"city":"Kota","state":"Rajasthan","latitude":25.2138,"longitude":75.8648,"temp":36.2,"humidity":20,"rain":0.0,"pressure":978.9,"uv_index":8.1,"wind_gusts":21.6,"aqi":115,"pm10":19.4,"pm2_5":8.1,"mosquito_risk":0,"arthritis_risk":5,"migraine_risk":10,"frizz_risk":0,"updated_at":"2026-04-11T17:03:39.252951+05:30"},{"city":"Bikaner","state":"Rajasthan","latitude":28.0229,"longitude":73.3119,"temp":34.8,"humidity":22,"rain":0.0,"pressure":982.0,"uv_index":7.9,"wind_gusts":32.8,"aqi":118,"pm10":113.9,"pm2_5":26.0,"mosquito_risk":0,"arthritis_risk":5,"migraine_risk":7,"frizz_risk":0,"updated_at":"2026-04-11T17:03:39.252958+05:30"},{"city":"Ajmer","state":"Rajasthan","latitude":26.4499,"longitude":74.6399,"temp":33.8,"humidity":22,"rain":0.0,"pressure":955.3,"uv_index":8.0,"wind_gusts":40.3,"aqi":105,"pm10":26.5,"pm2_5":10.2,"mosquito_risk":0,"arthritis_risk":5,"migraine_risk":7,"frizz_risk":0,"updated_at":"2026-04-11T17:03:39.252965+05:30"},{"city":"Gwalior","state":"Madhya Pradesh","latitude":26.2183,"longitude":78.1828,"temp":34.4,"humidity":23,"rain":0.0,"pressure":984.0,"uv_index":7.8,"wind_gusts":30.6,"aqi":116,"pm10":27.0,"pm2_5":8.4,"mosquito_risk":0,"arthritis_risk":5,"migraine_risk":7,"frizz_risk":0,"updated_at":"2026-04-11T17:03:39.252972+05:30"},{"city":"Indore","state":"Madhya Pradesh","latitude":22.7196,"longitude":75.8577,"temp":34.7,"humidity":18,"rain":0.0,"pressure":949.2,"uv_index":8.5,"wind_gusts":21.6,"aqi":136,"pm10":30.4,"pm2_5":16.1,"mosquito_risk":0,"arthritis_risk":5,"migraine_risk":7,"frizz_risk":0,"updated_at":"2026-04-11T17:03:39.252979+05:30"},{"city":"Bhopal","state":"Madhya Pradesh","latitude":23.2599,"longitude":77.4126,"temp":36.2,"humidity":15,"rain":0.0,"pressure":954.5,"uv_index":8.5,"wind_gusts":24.5,"aqi":118,"pm10":32.6,"pm2_5":10.0,"mosquito_risk":0,"arthritis_risk":5,"migraine_risk":10,"frizz_risk":0,"updated_at":"2026-04-11T17:03:39.252986+05:30"},{"city":"Jabalpur","state":"Madhya Pradesh","latitude":23.1815,"longitude":79.9864,"temp":35.1,"humidity":18,"rain":0.0,"pressure":962.2,"uv_index":8.6,"wind_gusts":18.4,"aqi":129,"pm10":53.6,"pm2_5":17.6,"mosquito_risk":0,"arthritis_risk":5,"migraine_risk":10,"frizz_risk":0,"updated_at":"2026-04-11T17:03:39.252993+05:30"},{"city":"Ujjain","state":"Madhya Pradesh","latitude":23.1765,"longitude":75.7885,"temp":35.3,"humidity":19,"rain":0.0,"pressure":954.8,"uv_index":8.4,"wind_gusts":20.5,"aqi":120,"pm10":26.3,"pm2_5":13.1,"mosquito_risk":0,"arthritis_risk":5,"migraine_risk":10,"frizz_risk":0,"updated_at":"2026-04-11T17:03:39.253000+05:30"},{"city":"Visakhapatnam","state":"Andhra Pradesh","latitude":17.6868,"longitude":83.2185,"temp":30.9,"humidity":70,"rain":0.0,"pressure":1003.0,"uv_index":9.15,"wind_gusts":39.6,"aqi":80,"pm10":31.9,"pm2_5":26.1,"mosquito_risk":3,"arthritis_risk":5,"migraine_risk":4,"frizz_risk":1,"updated_at":"2026-04-11T17:03:39.253007+05:30"},{"city":"Vijayawada","state":"Andhra Pradesh","latitude":16.5062,"longitude":80.648,"temp":37.3,"humidity":38,"rain":0.0,"pressure":1000.7,"uv_index":9.2,"wind_gusts":25.6,"aqi":73,"pm10":37.6,"pm2_5":27.2,"mosquito_risk":0,"arthritis_risk":5,"migraine_risk":7,"frizz_risk":1,"updated_at":"2026-04-11T17:03:39.253014+05:30"},{"city":"Guntur","state":"Andhra Pradesh","latitude":16.3067,"longitude":80.4365,"temp":35.9,"humidity":41,"rain":0.0,"pressure":1002.2,"uv_index":9.25,"wind_gusts":33.5,"aqi":79,"pm10":36.0,"pm2_5":25.3,"mosquito_risk":0,"arthritis_risk":5,"migraine_risk":7,"frizz_risk":1,"updated_at":"2026-04-11T17:03:39.253020+05:30"},{"city":"Nellore","state":"Andhra Pradesh","latitude":14.4426,"longitude":79.9865,"temp":33.6,"humidity":52,"rain":0.0,"pressure":1004.4,"uv_index":9.3,"wind_gusts":40.7,"aqi":64,"pm10":26.7,"pm2_5":18.9,"mosquito_risk":0,"arthritis_risk":5,"migraine_risk":4,"frizz_risk":1,"updated_at":"2026-04-11T17:03:39.253028+05:30"},{"city":"Kurnool","state":"Andhra Pradesh","latitude":15.8281,"longitude":78.0373,"temp":39.6,"humidity":27,"rain":0.0,"pressure":974.6,"uv_index":9.2,"wind_gusts":27.0,"aqi":118,"pm10":31.9,"pm2_5":21.5,"mosquito_risk":0,"arthritis_risk":5,"migraine_risk":10,"frizz_risk":1,"updated_at":"2026-04-11T17:03:39.253035+05:30"},{"city":"Kakinada","state":"Andhra Pradesh","latitude":16.9891,"longitude":82.2475,"temp":34.2,"humidity":55,"rain":0.0,"pressure":1006.0,"uv_index":9.2,"wind_gusts":33.8,"aqi":61,"pm10":24.0,"pm2_5":16.0,"mosquito_risk":0,"arthritis_risk":5,"migraine_risk":4,"frizz_risk":1,"updated_at":"2026-04-11T17:03:39.253042+05:30"},{"city":"Tirupati","state":"Andhra Pradesh","latitude":13.6288,"longitude":79.4192,"temp":37.3,"humidity":28,"rain":0.0,"pressure":989.7,"uv_index":9.4,"wind_gusts":32.0,"aqi":71,"pm10":33.8,"pm2_5":22.9,"mosquito_risk":0,"arthritis_risk":5,"migraine_risk":10,"frizz_risk":0,"updated_at":"2026-04-11T17:03:39.253049+05:30"},{"city":"Warangal","state":"Telangana","latitude":17.9689,"longitude":79.5941,"temp":38.2,"humidity":29,"rain":0.0,"pressure":977.1,"uv_index":9.05,"wind_gusts":25.2,"aqi":123,"pm10":32.2,"pm2_5":21.8,"mosquito_risk":0,"arthritis_risk":5,"migraine_risk":10,"frizz_risk":1,"updated_at":"2026-04-11T17:03:39.253055+05:30"},{"city":"Nizamabad","state":"Telangana","latitude":18.6725,"longitude":78.0941,"temp":37.1,"humidity":28,"rain":0.0,"pressure":963.9,"uv_index":9.0,"wind_gusts":24.8,"aqi":162,"pm10":31.1,"pm2_5":18.5,"mosquito_risk":0,"arthritis_risk":5,"migraine_risk":10,"frizz_risk":0,"updated_at":"2026-04-11T17:03:39.253062+05:30"},{"city":"Mysore","state":"Karnataka","latitude":12.2958,"longitude":76.6396,"temp":34.5,"humidity":33,"rain":0.0,"pressure":927.3,"uv_index":9.35,"wind_gusts":38.9,"aqi":106,"pm10":33.9,"pm2_5":23.6,"mosquito_risk":0,"arthritis_risk":5,"migraine_risk":7,"frizz_risk":0,"updated_at":"2026-04-11T17:03:39.253068+05:30"},{"city":"Mangalore","state":"Karnataka","latitude":12.9141,"longitude":74.856,"temp":29.6,"humidity":80,"rain":0.0,"pressure":1005.8,"uv_index":8.6,"wind_gusts":25.9,"aqi":86,"pm10":73.1,"pm2_5":29.6,"mosquito_risk":7,"arthritis_risk":5,"migraine_risk":4,"frizz_risk":1,"updated_at":"2026-04-11T17:03:39.253075+05:30"},{"city":"Hubli-Dharwad","state":"Karnataka","latitude":15.3647,"longitude":75.124,"temp":35.5,"humidity":35,"rain":0.0,"pressure":939.7,"uv_index":9.25,"wind_gusts":42.5,"aqi":147,"pm10":44.1,"pm2_5":27.2,"mosquito_risk":0,"arthritis_risk":5,"migraine_risk":10,"frizz_risk":1,"updated_at":"2026-04-11T17:03:39.253082+05:30"},{"city":"Belgaum","state":"Karnataka","latitude":15.8497,"longitude":74.4977,"temp":32.1,"humidity":50,"rain":0.0,"pressure":925.5,"uv_index":9.3,"wind_gusts":43.9,"aqi":158,"pm10":43.2,"pm2_5":26.7,"mosquito_risk":0,"arthritis_risk":5,"migraine_risk":7,"frizz_risk":1,"updated_at":"2026-04-11T17:03:42.610839+05:30"},{"city":"Coimbatore","state":"Tamil Nadu","latitude":11.0168,"longitude":76.9558,"temp":34.6,"humidity":40,"rain":0.0,"pressure":960.3,"uv_index":8.2,"wind_gusts":46.1,"aqi":104,"pm10":33.2,"pm2_5":22.9,"mosquito_risk":0,"arthritis_risk":5,"migraine_risk":7,"frizz_risk":1,"updated_at":"2026-04-11T17:03:42.610870+05:30"},{"city":"Madurai","state":"Tamil Nadu","latitude":9.9252,"longitude":78.1198,"temp":37.5,"humidity":30,"rain":0.0,"pressure":990.6,"uv_index":8.45,"wind_gusts":40.0,"aqi":85,"pm10":23.1,"pm2_5":16.7,"mosquito_risk":0,"arthritis_risk":5,"migraine_risk":10,"frizz_risk":1,"updated_at":"2026-04-11T17:03:42.610880+05:30"},{"city":"Trichy","state":"Tamil Nadu","latitude":10.7905,"longitude":78.7047,"temp":37.0,"humidity":37,"rain":0.0,"pressure":997.6,"uv_index":9.4,"wind_gusts":27.7,"aqi":68,"pm10":24.0,"pm2_5":17.6,"mosquito_risk":0,"arthritis_risk":5,"migraine_risk":10,"frizz_risk":1,"updated_at":"2026-04-11T17:03:42.610888+05:30"},{"city":"Salem","state":"Tamil Nadu","latitude":11.6643,"longitude":78.146,"temp":37.6,"humidity":30,"rain":0.0,"pressure":975.2,"uv_index":9.1,"wind_gusts":21.6,"aqi":94,"pm10":31.2,"pm2_5":22.4,"mosquito_risk":0,"arthritis_risk":5,"migraine_risk":10,"frizz_risk":1,"updated_at":"2026-04-11T17:03:42.610895+05:30"},{"city":"Tirunelveli","state":"Tamil Nadu","latitude":8.7139,"longitude":77.7567,"temp":33.5,"humidity":53,"rain":0.0,"pressure":1001.7,"uv_index":9.25,"wind_gusts":46.1,"aqi":92,"pm10":23.2,"pm2_5":17.7,"mosquito_risk":0,"arthritis_risk":5,"migraine_risk":4,"frizz_risk":1,"updated_at":"2026-04-11T17:03:42.610903+05:30"},{"city":"Vellore","state":"Tamil Nadu","latitude":12.9165,"longitude":79.1325,"temp":36.4,"humidity":29,"rain":0.0,"pressure":983.1,"uv_index":9.45,"wind_gusts":35.3,"aqi":80,"pm10":34.0,"pm2_5":25.1,"mosquito_risk":0,"arthritis_risk":5,"migraine_risk":10,"frizz_risk":0,"updated_at":"2026-04-11T17:03:42.610910+05:30"},{"city":"Erode","state":"Tamil Nadu","latitude":11.341,"longitude":77.7172,"temp":38.4,"humidity":29,"rain":0.0,"pressure":986.5,"uv_index":8.95,"wind_gusts":31.0,"aqi":104,"pm10":28.8,"pm2_5":20.3,"mosquito_risk":0,"arthritis_risk":5,"migraine_risk":10,"frizz_risk":1,"updated_at":"2026-04-11T17:03:42.610918+05:30"},{"city":"Kochi","state":"Kerala","latitude":9.9312,"longitude":76.2673,"temp":29.6,"humidity":80,"rain":0.0,"pressure":1007.1,"uv_index":8.8,"wind_gusts":29.9,"aqi":71,"pm10":33.9,"pm2_5":19.8,"mosquito_risk":7,"arthritis_risk":5,"migraine_risk":4,"frizz_risk":1,"updated_at":"2026-04-11T17:03:42.610925+05:30"},{"city":"Thiruvananthapuram","state":"Kerala","latitude":8.5241,"longitude":76.9366,"temp":29.7,"humidity":81,"rain":0.0,"pressure":1006.6,"uv_index":7.6,"wind_gusts":36.4,"aqi":63,"pm10":31.7,"pm2_5":18.3,"mosquito_risk":7,"arthritis_risk":5,"migraine_risk":4,"frizz_risk":1,"updated_at":"2026-04-11T17:03:42.610932+05:30"},{"city":"Kozhikode","state":"Kerala","latitude":11.2588,"longitude":75.7804,"temp":30.4,"humidity":78,"rain":0.0,"pressure":1006.6,"uv_index":8.75,"wind_gusts":28.8,"aqi":62,"pm10":31.7,"pm2_5":13.0,"mosquito_risk":3,"arthritis_risk":5,"migraine_risk":4,"frizz_risk":1,"updated_at":"2026-04-11T17:03:42.610939+05:30"},{"city":"Thrissur","state":"Kerala","latitude":10.5276,"longitude":76.2144,"temp":31.4,"humidity":71,"rain":0.0,"pressure":1005.5,"uv_index":8.8,"wind_gusts":31.7,"aqi":68,"pm10":32.0,"pm2_5":18.2,"mosquito_risk":3,"arthritis_risk":5,"migraine_risk":4,"frizz_risk":1,"updated_at":"2026-04-11T17:03:42.610946+05:30"},{"city":"Kannur","state":"Kerala","latitude":11.8745,"longitude":75.3704,"temp":30.9,"humidity":72,"rain":0.0,"pressure":1006.0,"uv_index":8.65,"wind_gusts":31.3,"aqi":64,"pm10":57.3,"pm2_5":23.5,"mosquito_risk":3,"arthritis_risk":5,"migraine_risk":4,"frizz_risk":1,"updated_at":"2026-04-11T17:03:42.610953+05:30"},{"city":"Patna","state":"Bihar","latitude":25.5941,"longitude":85.1376,"temp":34.3,"humidity":24,"rain":0.0,"pressure":998.8,"uv_index":8.45,"wind_gusts":28.4,"aqi":139,"pm10":141.1,"pm2_5":42.3,"mosquito_risk":0,"arthritis_risk":5,"migraine_risk":7,"frizz_risk":0,"updated_at":"2026-04-11T17:03:42.610960+05:30"},{"city":"Gaya","state":"Bihar","latitude":24.7914,"longitude":85.0002,"temp":34.1,"humidity":18,"rain":0.0,"pressure":992.7,"uv_index":8.5,"wind_gusts":33.5,"aqi":129,"pm10":108.3,"pm2_5":29.5,"mosquito_risk":0,"arthritis_risk":5,"migraine_risk":7,"frizz_risk":0,"updated_at":"2026-04-11T17:03:42.610967+05:30"},{"city":"Muzaffarpur","state":"Bihar","latitude":26.1209,"longitude":85.3647,"temp":33.6,"humidity":24,"rain":0.0,"pressure":998.7,"uv_index":8.4,"wind_gusts":16.2,"aqi":137,"pm10":153.7,"pm2_5":44.9,"mosquito_risk":0,"arthritis_risk":5,"migraine_risk":7,"frizz_risk":0,"updated_at":"2026-04-11T17:03:42.610973+05:30"},{"city":"Bhagalpur","state":"Bihar","latitude":25.2425,"longitude":87.0117,"temp":30.5,"humidity":41,"rain":0.0,"pressure":1000.5,"uv_index":8.45,"wind_gusts":20.5,"aqi":162,"pm10":299.0,"pm2_5":54.9,"mosquito_risk":0,"arthritis_risk":5,"migraine_risk":4,"frizz_risk":0,"updated_at":"2026-04-11T17:03:42.610980+05:30"},{"city":"Ranchi","state":"Jharkhand","latitude":23.3441,"longitude":85.3096,"temp":30.8,"humidity":19,"rain":0.0,"pressure":938.3,"uv_index":9.05,"wind_gusts":31.7,"aqi":128,"pm10":131.3,"pm2_5":27.8,"mosquito_risk":0,"arthritis_risk":5,"migraine_risk":7,"frizz_risk":0,"updated_at":"2026-04-11T17:03:42.610987+05:30"},{"city":"Jamshedpur","state":"Jharkhand","latitude":22.8046,"longitude":86.2029,"temp":32.2,"humidity":34,"rain":0.0,"pressure":990.5,"uv_index":8.85,"wind_gusts":14.8,"aqi":162,"pm10":143.4,"pm2_5":29.5,"mosquito_risk":0,"arthritis_risk":5,"migraine_risk":7,"frizz_risk":0,"updated_at":"2026-04-11T17:03:42.610993+05:30"},{"city":"Dhanbad","state":"Jharkhand","latitude":23.7957,"longitude":86.4304,"temp":34.0,"humidity":17,"rain":0.0,"pressure":979.2,"uv_index":8.8,"wind_gusts":24.5,"aqi":147,"pm10":171.8,"pm2_5":39.3,"mosquito_risk":0,"arthritis_risk":5,"migraine_risk":7,"frizz_risk":0,"updated_at":"2026-04-11T17:03:42.610999+05:30"},{"city":"Bokaro","state":"Jharkhand","latitude":23.6693,"longitude":86.1511,"temp":33.2,"humidity":19,"rain":0.0,"pressure":983.3,"uv_index":8.8,"wind_gusts":25.6,"aqi":136,"pm10":148.1,"pm2_5":34.3,"mosquito_risk":0,"arthritis_risk":5,"migraine_risk":7,"frizz_risk":0,"updated_at":"2026-04-11T17:03:42.611006+05:30"},{"city":"Bhubaneswar","state":"Odisha","latitude":20.2961,"longitude":85.8245,"temp":34.4,"humidity":49,"rain":0.0,"pressure":1001.5,"uv_index":9.0,"wind_gusts":26.3,"aqi":159,"pm10":59.8,"pm2_5":44.4,"mosquito_risk":0,"arthritis_risk":5,"migraine_risk":4,"frizz_risk":1,"updated_at":"2026-04-11T17:03:42.611012+05:30"},{"city":"Cuttack","state":"Odisha","latitude":20.4625,"longitude":85.8828,"temp":35.0,"humidity":43,"rain":0.0,"pressure":1003.4,"uv_index":9.05,"wind_gusts":20.2,"aqi":159,"pm10":59.8,"pm2_5":44.4,"mosquito_risk":0,"arthritis_risk":5,"migraine_risk":4,"frizz_risk":1,"updated_at":"2026-04-11T17:03:42.611019+05:30"},{"city":"Rourkela","state":"Odisha","latitude":22.2604,"longitude":84.8536,"temp":33.5,"humidity":31,"rain":0.0,"pressure":985.0,"uv_index":8.75,"wind_gusts":16.2,"aqi":153,"pm10":149.0,"pm2_5":27.7,"mosquito_risk":0,"arthritis_risk":5,"migraine_risk":7,"frizz_risk":0,"updated_at":"2026-04-11T17:03:42.611025+05:30"},{"city":"Raipur","state":"Chhattisgarh","latitude":21.2514,"longitude":81.6296,"temp":37.2,"humidity":17,"rain":0.0,"pressure":974.0,"uv_index":8.85,"wind_gusts":21.6,"aqi":144,"pm10":43.1,"pm2_5":17.1,"mosquito_risk":0,"arthritis_risk":5,"migraine_risk":10,"frizz_risk":0,"updated_at":"2026-04-11T17:03:42.611031+05:30"},{"city":"Bhilai","state":"Chhattisgarh","latitude":21.1938,"longitude":81.3509,"temp":36.9,"humidity":19,"rain":0.0,"pressure":974.2,"uv_index":8.85,"wind_gusts":19.8,"aqi":132,"pm10":37.4,"pm2_5":15.1,"mosquito_risk":0,"arthritis_risk":5,"migraine_risk":10,"frizz_risk":0,"updated_at":"2026-04-11T17:03:42.611038+05:30"},{"city":"Guwahati","state":"Assam","latitude":26.1158,"longitude":91.7086,"temp":27.1,"humidity":62,"rain":0.0,"pressure":1001.1,"uv_index":8.35,"wind_gusts":20.2,"aqi":145,"pm10":42.8,"pm2_5":27.1,"mosquito_risk":7,"arthritis_risk":5,"migraine_risk":4,"frizz_risk":1,"updated_at":"2026-04-11T17:03:42.611045+05:30"},{"city":"Agartala","state":"Tripura","latitude":23.8315,"longitude":91.2868,"temp":29.0,"humidity":65,"rain":0.0,"pressure":1005.3,"uv_index":8.6,"wind_gusts":21.6,"aqi":185,"pm10":48.5,"pm2_5":37.3,"mosquito_risk":7,"arthritis_risk":5,"migraine_risk":4,"frizz_risk":1,"updated_at":"2026-04-11T17:03:42.611052+05:30"},{"city":"Shillong","state":"Meghalaya","latitude":25.5788,"longitude":91.8933,"temp":15.3,"humidity":67,"rain":0.0,"pressure":855.1,"uv_index":8.75,"wind_gusts":52.2,"aqi":160,"pm10":50.4,"pm2_5":31.8,"mosquito_risk":3,"arthritis_risk":5,"migraine_risk":7,"frizz_risk":0,"updated_at":"2026-04-11T17:03:42.611058+05:30"},{"city":"Imphal","state":"Manipur","latitude":24.817,"longitude":93.9368,"temp":19.2,"humidity":59,"rain":0.0,"pressure":922.5,"uv_index":8.95,"wind_gusts":52.2,"aqi":150,"pm10":34.3,"pm2_5":19.4,"mosquito_risk":0,"arthritis_risk":5,"migraine_risk":7,"frizz_risk":0,"updated_at":"2026-04-11T17:03:42.611065+05:30"},{"city":"Aizawl","state":"Mizoram","latitude":23.7271,"longitude":92.7176,"temp":21.9,"humidity":55,"rain":0.0,"pressure":892.8,"uv_index":8.8,"wind_gusts":41.8,"aqi":140,"pm10":44.1,"pm2_5":27.8,"mosquito_risk":0,"arthritis_risk":5,"migraine_risk":7,"frizz_risk":0,"updated_at":"2026-04-11T17:03:42.611071+05:30"},{"city":"Kohima","state":"Nagaland","latitude":25.6701,"longitude":94.1077,"temp":15.0,"humidity":75,"rain":0.0,"pressure":853.8,"uv_index":7.6,"wind_gusts":65.9,"aqi":142,"pm10":31.9,"pm2_5":20.6,"mosquito_risk":3,"arthritis_risk":5,"migraine_risk":7,"frizz_risk":0,"updated_at":"2026-04-11T17:03:42.611078+05:30"},{"city":"Gangtok","state":"Sikkim","latitude":27.3314,"longitude":88.6138,"temp":14.2,"humidity":81,"rain":0.0,"pressure":835.9,"uv_index":8.55,"wind_gusts":18.4,"aqi":119,"pm10":33.1,"pm2_5":28.7,"mosquito_risk":3,"arthritis_risk":10,"migraine_risk":7,"frizz_risk":0,"updated_at":"2026-04-11T17:03:42.611085+05:30"},{"city":"Siliguri","state":"West Bengal","latitude":26.7271,"longitude":88.3953,"temp":22.6,"humidity":64,"rain":0.0,"pressure":993.7,"uv_index":8.2,"wind_gusts":18.0,"aqi":147,"pm10":39.7,"pm2_5":24.9,"mosquito_risk":3,"arthritis_risk":5,"migraine_risk":7,"frizz_risk":0,"updated_at":"2026-04-11T17:03:45.971930+05:30"},{"city":"Durgapur","state":"West Bengal","latitude":23.5204,"longitude":87.3119,"temp":31.1,"humidity":36,"rain":0.0,"pressure":994.6,"uv_index":8.75,"wind_gusts":20.9,"aqi":158,"pm10":218.4,"pm2_5":50.4,"mosquito_risk":0,"arthritis_risk":5,"migraine_risk":7,"frizz_risk":0,"updated_at":"2026-04-11T17:03:45.971961+05:30"},{"city":"Asansol","state":"West Bengal","latitude":23.6739,"longitude":86.9524,"temp":31.7,"humidity":34,"rain":0.0,"pressure":993.1,"uv_index":8.75,"wind_gusts":22.7,"aqi":154,"pm10":199.3,"pm2_5":45.8,"mosquito_risk":0,"arthritis_risk":5,"migraine_risk":7,"frizz_risk":0,"updated_at":"2026-04-11T17:03:45.971972+05:30"},{"city":"Pondicherry","state":"Puducherry","latitude":11.9139,"longitude":79.8145,"temp":33.1,"humidity":58,"rain":0.0,"pressure":1007.1,"uv_index":9.35,"wind_gusts":34.9,"aqi":56,"pm10":20.0,"pm2_5":14.1,"mosquito_risk":0,"arthritis_risk":5,"migraine_risk":4,"frizz_risk":1,"updated_at":"2026-04-11T17:03:45.971981+05:30"},{"city":"Port Blair","state":"Andaman and Nicobar Islands","latitude":11.6234,"longitude":92.7265,"temp":29.2,"humidity":75,"rain":0.0,"pressure":1006.9,"uv_index":9.25,"wind_gusts":26.3,"aqi":29,"pm10":8.6,"pm2_5":5.7,"mosquito_risk":7,"arthritis_risk":5,"migraine_risk":4,"frizz_risk":1,"updated_at":"2026-04-11T17:03:45.971990+05:30"},{"city":"Haridwar","state":"Uttarakhand","latitude":29.9457,"longitude":78.1642,"temp":30.6,"humidity":31,"rain":0.0,"pressure":974.7,"uv_index":7.0,"wind_gusts":42.1,"aqi":98,"pm10":69.6,"pm2_5":18.7,"mosquito_risk":0,"arthritis_risk":5,"migraine_risk":7,"frizz_risk":0,"updated_at":"2026-04-11T17:03:45.971999+05:30"},{"city":"Rishikesh","state":"Uttarakhand","latitude":30.0869,"longitude":78.2676,"temp":29.7,"humidity":28,"rain":0.0,"pressure":967.4,"uv_index":6.9,"wind_gusts":42.1,"aqi":103,"pm10":70.8,"pm2_5":16.4,"mosquito_risk":4,"arthritis_risk":5,"migraine_risk":7,"frizz_risk":0,"updated_at":"2026-04-11T17:03:45.972007+05:30"},{"city":"Nainital","state":"Uttarakhand","latitude":29.3919,"longitude":79.4542,"temp":22.2,"humidity":40,"rain":0.0,"pressure":807.7,"uv_index":7.85,"wind_gusts":69.8,"aqi":105,"pm10":49.9,"pm2_5":15.1,"mosquito_risk":0,"arthritis_risk":5,"migraine_risk":7,"frizz_risk":0,"updated_at":"2026-04-11T17:03:45.972016+05:30"},{"city":"Mussoorie","state":"Uttarakhand","latitude":30.4599,"longitude":78.0664,"temp":19.7,"humidity":40,"rain":0.0,"pressure":804.0,"uv_index":7.45,"wind_gusts":59.8,"aqi":106,"pm10":64.7,"pm2_5":16.1,"mosquito_risk":0,"arthritis_risk":5,"migraine_risk":7,"frizz_risk":0,"updated_at":"2026-04-11T17:03:45.972024+05:30"},{"city":"Dharamshala","state":"Himachal Pradesh","latitude":32.219,"longitude":76.3234,"temp":19.3,"humidity":71,"rain":0.0,"pressure":870.2,"uv_index":7.5,"wind_gusts":30.6,"aqi":138,"pm10":37.5,"pm2_5":9.1,"mosquito_risk":3,"arthritis_risk":5,"migraine_risk":7,"frizz_risk":0,"updated_at":"2026-04-11T17:03:45.972032+05:30"},{"city":"Dalhousie","state":"Himachal Pradesh","latitude":32.5387,"longitude":75.971,"temp":16.2,"humidity":70,"rain":0.0,"pressure":804.3,"uv_index":6.7,"wind_gusts":23.4,"aqi":92,"pm10":65.7,"pm2_5":16.1,"mosquito_risk":3,"arthritis_risk":5,"migraine_risk":7,"frizz_risk":0,"updated_at":"2026-04-11T17:03:45.972040+05:30"},{"city":"Patiala","state":"Punjab","latitude":30.3398,"longitude":76.3869,"temp":30.3,"humidity":31,"rain":0.0,"pressure":979.3,"uv_index":6.95,"wind_gusts":30.6,"aqi":576,"pm10":400.5,"pm2_5":48.2,"mosquito_risk":0,"arthritis_risk":5,"migraine_risk":7,"frizz_risk":0,"updated_at":"2026-04-11T17:03:45.972048+05:30"},{"city":"Bhatinda","state":"Punjab","latitude":30.211,"longitude":74.9455,"temp":30.9,"humidity":29,"rain":0.0,"pressure":984.7,"uv_index":7.7,"wind_gusts":30.2,"aqi":118,"pm10":198.4,"pm2_5":40.2,"mosquito_risk":0,"arthritis_risk":5,"migraine_risk":7,"frizz_risk":0,"updated_at":"2026-04-11T17:03:45.972055+05:30"},{"city":"Rohtak","state":"Haryana","latitude":28.8955,"longitude":76.6066,"temp":31.0,"humidity":32,"rain":0.0,"pressure":982.5,"uv_index":7.1,"wind_gusts":25.9,"aqi":919,"pm10":532.7,"pm2_5":60.8,"mosquito_risk":0,"arthritis_risk":5,"migraine_risk":7,"frizz_risk":0,"updated_at":"2026-04-11T17:03:45.972063+05:30"},{"city":"Panipat","state":"Haryana","latitude":29.3909,"longitude":76.9635,"temp":31.2,"humidity":30,"rain":0.0,"pressure":981.2,"uv_index":6.95,"wind_gusts":29.5,"aqi":1805,"pm10":1084.1,"pm2_5":107.6,"mosquito_risk":0,"arthritis_risk":5,"migraine_risk":7,"frizz_risk":0,"updated_at":"2026-04-11T17:03:45.972071+05:30"},{"city":"Mathura","state":"Uttar Pradesh","latitude":27.4924,"longitude":77.6737,"temp":33.8,"humidity":28,"rain":0.0,"pressure":987.4,"uv_index":7.5,"wind_gusts":27.7,"aqi":1156,"pm10":478.7,"pm2_5":57.2,"mosquito_risk":0,"arthritis_risk":5,"migraine_risk":7,"frizz_risk":0,"updated_at":"2026-04-11T17:03:45.972078+05:30"},{"city":"Vrindavan","state":"Uttar Pradesh","latitude":27.5823,"longitude":77.7027,"temp":33.4,"humidity":27,"rain":0.0,"pressure":987.9,"uv_index":7.45,"wind_gusts":32.0,"aqi":1156,"pm10":478.7,"pm2_5":57.2,"mosquito_risk":0,"arthritis_risk":5,"migraine_risk":7,"frizz_risk":0,"updated_at":"2026-04-11T17:03:45.972086+05:30"},{"city":"Ayodhya","state":"Uttar Pradesh","latitude":26.7922,"longitude":82.1998,"temp":35.0,"humidity":20,"rain":0.0,"pressure":994.2,"uv_index":7.85,"wind_gusts":43.6,"aqi":146,"pm10":126.2,"pm2_5":32.9,"mosquito_risk":0,"arthritis_risk":5,"migraine_risk":7,"frizz_risk":0,"updated_at":"2026-04-11T17:03:45.972094+05:30"},{"city":"Ratlam","state":"Madhya Pradesh","latitude":23.3315,"longitude":75.0367,"temp":33.5,"humidity":28,"rain":0.0,"pressure":955.8,"uv_index":8.35,"wind_gusts":19.8,"aqi":119,"pm10":18.8,"pm2_5":8.0,"mosquito_risk":0,"arthritis_risk":5,"migraine_risk":7,"frizz_risk":0,"updated_at":"2026-04-11T17:03:45.972101+05:30"},{"city":"Sagar","state":"Madhya Pradesh","latitude":23.8388,"longitude":78.7378,"temp":35.3,"humidity":16,"rain":0.0,"pressure":951.3,"uv_index":8.5,"wind_gusts":27.4,"aqi":106,"pm10":52.2,"pm2_5":12.4,"mosquito_risk":0,"arthritis_risk":5,"migraine_risk":10,"frizz_risk":0,"updated_at":"2026-04-11T17:03:45.972109+05:30"},{"city":"Satna","state":"Madhya Pradesh","latitude":24.6005,"longitude":80.8322,"temp":35.0,"humidity":19,"rain":0.0,"pressure":972.1,"uv_index":8.5,"wind_gusts":28.1,"aqi":118,"pm10":67.3,"pm2_5":19.5,"mosquito_risk":0,"arthritis_risk":5,"migraine_risk":7,"frizz_risk":0,"updated_at":"2026-04-11T17:03:45.972117+05:30"},{"city":"Akola","state":"Maharashtra","latitude":20.7002,"longitude":77.0082,"temp":39.1,"humidity":14,"rain":0.0,"pressure":974.2,"uv_index":8.75,"wind_gusts":29.5,"aqi":153,"pm10":27.2,"pm2_5":17.3,"mosquito_risk":0,"arthritis_risk":5,"migraine_risk":10,"frizz_risk":0,"updated_at":"2026-04-11T17:03:45.972125+05:30"},{"city":"Amravati","state":"Maharashtra","latitude":20.9374,"longitude":77.7796,"temp":37.4,"humidity":20,"rain":0.0,"pressure":966.6,"uv_index":8.75,"wind_gusts":23.4,"aqi":152,"pm10":25.0,"pm2_5":15.4,"mosquito_risk":0,"arthritis_risk":5,"migraine_risk":10,"frizz_risk":0,"updated_at":"2026-04-11T17:03:45.972134+05:30"},{"city":"Latur","state":"Maharashtra","latitude":18.4088,"longitude":76.5604,"temp":36.4,"humidity":25,"rain":0.0,"pressure":939.4,"uv_index":9.0,"wind_gusts":20.9,"aqi":147,"pm10":31.0,"pm2_5":20.1,"mosquito_risk":0,"arthritis_risk":5,"migraine_risk":10,"frizz_risk":0,"updated_at":"2026-04-11T17:03:45.972141+05:30"},{"city":"Nanded","state":"Maharashtra","latitude":19.1383,"longitude":77.3091,"temp":37.7,"humidity":27,"rain":0.0,"pressure":967.5,"uv_index":8.9,"wind_gusts":17.3,"aqi":151,"pm10":28.6,"pm2_5":15.8,"mosquito_risk":0,"arthritis_risk":5,"migraine_risk":10,"frizz_risk":0,"updated_at":"2026-04-11T17:03:45.972149+05:30"},{"city":"Gulbarga","state":"Karnataka","latitude":17.3297,"longitude":76.8343,"temp":39.4,"humidity":20,"rain":0.0,"pressure":957.2,"uv_index":9.05,"wind_gusts":19.8,"aqi":139,"pm10":39.3,"pm2_5":26.7,"mosquito_risk":0,"arthritis_risk":5,"migraine_risk":10,"frizz_risk":0,"updated_at":"2026-04-11T17:03:45.972156+05:30"},{"city":"Bidar","state":"Karnataka","latitude":17.9104,"longitude":77.5199,"temp":37.2,"humidity":23,"rain":0.0,"pressure":935.1,"uv_index":9.05,"wind_gusts":25.2,"aqi":152,"pm10":28.2,"pm2_5":18.4,"mosquito_risk":0,"arthritis_risk":5,"migraine_risk":10,"frizz_risk":0,"updated_at":"2026-04-11T17:03:45.972164+05:30"},{"city":"Hospet","state":"Karnataka","latitude":15.2689,"longitude":76.3909,"temp":37.4,"humidity":30,"rain":0.0,"pressure":954.3,"uv_index":9.25,"wind_gusts":27.7,"aqi":151,"pm10":42.1,"pm2_5":30.5,"mosquito_risk":0,"arthritis_risk":5,"migraine_risk":10,"frizz_risk":1,"updated_at":"2026-04-11T17:03:45.972172+05:30"},{"city":"Tirupur","state":"Tamil Nadu","latitude":11.1085,"longitude":77.3411,"temp":38.1,"humidity":25,"rain":0.0,"pressure":973.1,"uv_index":8.95,"wind_gusts":32.4,"aqi":116,"pm10":32.0,"pm2_5":22.0,"mosquito_risk":0,"arthritis_risk":5,"migraine_risk":10,"frizz_risk":0,"updated_at":"2026-04-11T17:03:45.972179+05:30"},{"city":"Alappuzha","state":"Kerala","latitude":9.4981,"longitude":76.3388,"temp":29.8,"humidity":80,"rain":0.0,"pressure":1007.2,"uv_index":8.9,"wind_gusts":30.6,"aqi":91,"pm10":36.8,"pm2_5":20.5,"mosquito_risk":7,"arthritis_risk":5,"migraine_risk":4,"frizz_risk":1,"updated_at":"2026-04-11T17:03:45.972187+05:30"},{"city":"Munnar","state":"Kerala","latitude":10.0889,"longitude":77.0595,"temp":27.1,"humidity":70,"rain":0.0,"pressure":858.0,"uv_index":9.65,"wind_gusts":38.5,"aqi":79,"pm10":26.4,"pm2_5":18.0,"mosquito_risk":7,"arthritis_risk":5,"migraine_risk":7,"frizz_risk":1,"updated_at":"2026-04-11T17:03:45.972195+05:30"},{"city":"Silchar","state":"Assam","latitude":24.8333,"longitude":92.7789,"temp":28.6,"humidity":53,"rain":0.0,"pressure":1004.3,"uv_index":8.6,"wind_gusts":24.5,"aqi":158,"pm10":52.3,"pm2_5":34.6,"mosquito_risk":4,"arthritis_risk":5,"migraine_risk":4,"frizz_risk":1,"updated_at":"2026-04-11T17:03:45.972203+05:30"},{"city":"Dibrugarh","state":"Assam","latitude":27.4728,"longitude":94.912,"temp":25.8,"humidity":58,"rain":0.0,"pressure":995.7,"uv_index":8.4,"wind_gusts":25.2,"aqi":106,"pm10":33.9,"pm2_5":25.9,"mosquito_risk":4,"arthritis_risk":5,"migraine_risk":7,"frizz_risk":1,"updated_at":"2026-04-11T17:03:45.972211+05:30"}]