[{"city":"Delhi","state":"Delhi","latitude":28.6139,"longitude":77.209,"temp":30.1,"humidity":33,"rain":0.0,"pressure":984.0,"uv_index":6.4,"wind_gusts":28.1,"aqi":200,"pm10":317.6,"pm2_5":46.6,"mosquito_risk":0,"arthritis_risk":5,"migraine_risk":7,"frizz_risk":0,"updated_at":"2026-03-25T17:20:45.840800+05:30"},{"city":"Mumbai","state":"Maharashtra","latitude":19.076,"longitude":72.8777,"temp":28.3,"humidity":75,"rain":0.0,"pressure":1006.6,"uv_index":7.95,"wind_gusts":24.8,"aqi":102,"pm10":38.4,"pm2_5":27.8,"mosquito_risk":7,"arthritis_risk":5,"migraine_risk":4,"frizz_risk":1,"updated_at":"2026-03-25T17:20:45.840838+05:30"},{"city":"Bangalore","state":"Karnataka","latitude":12.9716,"longitude":77.5946,"temp":32.4,"humidity":28,"rain":0.0,"pressure":910.4,"uv_index":9.5,"wind_gusts":32.0,"aqi":108,"pm10":27.4,"pm2_5":20.0,"mosquito_risk":0,"arthritis_risk":5,"migraine_risk":7,"frizz_risk":0,"updated_at":"2026-03-25T17:20:45.840853+05:30"},{"city":"Hyderabad","state":"Telangana","latitude":17.385,"longitude":78.4867,"temp":27.6,"humidity":61,"rain":0.0,"pressure":953.5,"uv_index":9.0,"wind_gusts":19.1,"aqi":108,"pm10":43.7,"pm2_5":33.1,"mosquito_risk":7,"arthritis_risk":5,"migraine_risk":7,"frizz_risk":1,"updated_at":"2026-03-25T17:20:45.840862+05:30"},{"city":"Chennai","state":"Tamil Nadu","latitude":13.0827,"longitude":80.2707,"temp":29.7,"humidity":62,"rain":0.0,"pressure":1006.9,"uv_index":9.2,"wind_gusts":32.8,"aqi":48,"pm10":24.2,"pm2_5":15.2,"mosquito_risk":7,"arthritis_risk":5,"migraine_risk":4,"frizz_risk":1,"updated_at":"2026-03-25T17:20:45.840871+05:30"},{"city":"Kolkata","state":"West Bengal","latitude":22.5726,"longitude":88.3639,"temp":29.7,"humidity":70,"rain":0.0,"pressure":1006.5,"uv_index":8.4,"wind_gusts":25.2,"aqi":89,"pm10":46.6,"pm2_5":37.0,"mosquito_risk":7,"arthritis_risk":5,"migraine_risk":4,"frizz_risk":1,"updated_at":"2026-03-25T17:20:45.840879+05:30"},{"city":"Pune","state":"Maharashtra","latitude":18.5204,"longitude":73.8567,"temp":36.1,"humidity":20,"rain":0.0,"pressure":946.7,"uv_index":8.5,"wind_gusts":32.8,"aqi":112,"pm10":30.3,"pm2_5":21.8,"mosquito_risk":0,"arthritis_risk":5,"migraine_risk":10,"frizz_risk":0,"updated_at":"2026-03-25T17:20:45.840891+05:30"},{"city":"Ahmedabad","state":"Gujarat","latitude":23.0225,"longitude":72.5714,"temp":36.1,"humidity":27,"rain":0.0,"pressure":1001.2,"uv_index":7.85,"wind_gusts":22.3,"aqi":66,"pm10":28.3,"pm2_5":13.5,"mosquito_risk":0,"arthritis_risk":5,"migraine_risk":7,"frizz_risk":0,"updated_at":"2026-03-25T17:20:45.840899+05:30"},{"city":"Jaipur","state":"Rajasthan","latitude":26.9124,"longitude":75.7873,"temp":31.5,"humidity":26,"rain":0.0,"pressure":960.9,"uv_index":7.35,"wind_gusts":27.7,"aqi":113,"pm10":96.6,"pm2_5":19.0,"mosquito_risk":0,"arthritis_risk":5,"migraine_risk":7,"frizz_risk":0,"updated_at":"2026-03-25T17:20:45.840906+05:30"},{"city":"Lucknow","state":"Uttar Pradesh","latitude":26.8467,"longitude":80.9462,"temp":31.7,"humidity":24,"rain":0.0,"pressure":994.1,"uv_index":7.1,"wind_gusts":37.1,"aqi":113,"pm10":139.2,"pm2_5":28.2,"mosquito_risk":0,"arthritis_risk":5,"migraine_risk":7,"frizz_risk":0,"updated_at":"2026-03-25T17:20:45.840914+05:30"},{"city":"Kanpur","state":"Uttar Pradesh","latitude":26.4499,"longitude":80.3319,"temp":30.1,"humidity":38,"rain":0.0,"pressure":992.8,"uv_index":7.15,"wind_gusts":29.2,"aqi":160,"pm10":359.5,"pm2_5":46.6,"mosquito_risk":0,"arthritis_risk":5,"migraine_risk":7,"frizz_risk":0,"updated_at":"2026-03-25T17:20:45.840921+05:30"},{"city":"Chandigarh","state":"Chandigarh","latitude":30.7333,"longitude":76.7794,"temp":27.1,"humidity":41,"rain":0.0,"pressure":970.0,"uv_index":6.55,"wind_gusts":29.9,"aqi":116,"pm10":29.0,"pm2_5":21.0,"mosquito_risk":4,"arthritis_risk":5,"migraine_risk":7,"frizz_risk":0,"updated_at":"2026-03-25T17:20:45.840948+05:30"},{"city":"Srinagar","state":"Jammu and Kashmir","latitude":34.0837,"longitude":74.7973,"temp":18.2,"humidity":39,"rain":0.0,"pressure":841.8,"uv_index":7.65,"wind_gusts":13.3,"aqi":111,"pm10":24.3,"pm2_5":10.0,"mosquito_risk":0,"arthritis_risk":5,"migraine_risk":7,"frizz_risk":0,"updated_at":"2026-03-25T17:20:45.840957+05:30"},{"city":"Jammu","state":"Jammu and Kashmir","latitude":32.7266,"longitude":74.857,"temp":27.3,"humidity":55,"rain":0.0,"pressure":974.1,"uv_index":6.9,"wind_gusts":18.7,"aqi":88,"pm10":29.8,"pm2_5":16.4,"mosquito_risk":4,"arthritis_risk":5,"migraine_risk":7,"frizz_risk":1,"updated_at":"2026-03-25T17:20:45.840965+05:30"},{"city":"Amritsar","state":"Punjab","latitude":31.634,"longitude":74.8723,"temp":27.4,"humidity":48,"rain":0.0,"pressure":982.7,"uv_index":6.85,"wind_gusts":27.7,"aqi":124,"pm10":29.9,"pm2_5":21.2,"mosquito_risk":4,"arthritis_risk":5,"migraine_risk":7,"frizz_risk":0,"updated_at":"2026-03-25T17:20:45.840972+05:30"},{"city":"Ludhiana","state":"Punjab","latitude":30.901,"longitude":75.8573,"temp":28.0,"humidity":45,"rain":0.0,"pressure":980.5,"uv_index":6.6,"wind_gusts":23.8,"aqi":117,"pm10":38.0,"pm2_5":18.7,"mosquito_risk":4,"arthritis_risk":5,"migraine_risk":7,"frizz_risk":0,"updated_at":"2026-03-25T17:20:45.840979+05:30"},{"city":"Jalandhar","state":"Punjab","latitude":31.326,"longitude":75.5762,"temp":27.8,"humidity":48,"rain":0.0,"pressure":981.6,"uv_index":6.75,"wind_gusts":22.0,"aqi":117,"pm10":51.5,"pm2_5":18.1,"mosquito_risk":4,"arthritis_risk":5,"migraine_risk":7,"frizz_risk":0,"updated_at":"2026-03-25T17:20:45.840988+05:30"},{"city":"Dehradun","state":"Uttarakhand","latitude":30.6284,"longitude":78.0322,"temp":17.7,"humidity":64,"rain":0.0,"pressure":830.5,"uv_index":7.0,"wind_gusts":23.8,"aqi":107,"pm10":21.5,"pm2_5":15.5,"mosquito_risk":3,"arthritis_risk":5,"migraine_risk":7,"frizz_risk":0,"updated_at":"2026-03-25T17:20:45.840995+05:30"},{"city":"Shimla","state":"Himachal Pradesh","latitude":31.1048,"longitude":77.1734,"temp":15.5,"humidity":61,"rain":0.0,"pressure":785.4,"uv_index":7.05,"wind_gusts":42.8,"aqi":110,"pm10":21.0,"pm2_5":13.3,"mosquito_risk":3,"arthritis_risk":5,"migraine_risk":7,"frizz_risk":0,"updated_at":"2026-03-25T17:20:45.841001+05:30"},{"city":"Manali","state":"Himachal Pradesh","latitude":32.2396,"longitude":77.1887,"temp":18.2,"humidity":50,"rain":0.0,"pressure":820.2,"uv_index":9.05,"wind_gusts":30.6,"aqi":152,"pm10":18.2,"pm2_5":7.7,"mosquito_risk":0,"arthritis_risk":5,"migraine_risk":7,"frizz_risk":0,"updated_at":"2026-03-25T17:20:45.841008+05:30"},{"city":"Gurgaon","state":"Haryana","latitude":28.4595,"longitude":77.0266,"temp":29.7,"humidity":39,"rain":0.0,"pressure":982.6,"uv_index":6.3,"wind_gusts":24.1,"aqi":648,"pm10":929.5,"pm2_5":95.7,"mosquito_risk":4,"arthritis_risk":5,"migraine_risk":7,"frizz_risk":0,"updated_at":"2026-03-25T17:20:45.841015+05:30"},{"city":"Noida","state":"Uttar Pradesh","latitude":28.5355,"longitude":77.391,"temp":29.8,"humidity":37,"rain":0.0,"pressure":985.6,"uv_index":6.35,"wind_gusts":27.4,"aqi":648,"pm10":929.5,"pm2_5":95.7,"mosquito_risk":4,"arthritis_risk":5,"migraine_risk":7,"frizz_risk":0,"updated_at":"2026-03-25T17:20:45.841021+05:30"},{"city":"Ghaziabad","state":"Uttar Pradesh","latitude":28.6692,"longitude":77.4538,"temp":29.2,"humidity":39,"rain":0.0,"pressure":983.7,"uv_index":6.4,"wind_gusts":28.4,"aqi":150,"pm10":256.1,"pm2_5":42.4,"mosquito_risk":4,"arthritis_risk":5,"migraine_risk":7,"frizz_risk":0,"updated_at":"2026-03-25T17:20:45.841027+05:30"},{"city":"Faridabad","state":"Haryana","latitude":28.4089,"longitude":77.3178,"temp":29.8,"humidity":36,"rain":0.0,"pressure":984.9,"uv_index":6.35,"wind_gusts":25.6,"aqi":648,"pm10":929.5,"pm2_5":95.7,"mosquito_risk":4,"arthritis_risk":5,"migraine_risk":7,"frizz_risk":0,"updated_at":"2026-03-25T17:20:45.841033+05:30"},{"city":"Meerut","state":"Uttar Pradesh","latitude":28.9845,"longitude":77.7064,"temp":28.8,"humidity":39,"rain":0.0,"pressure":982.3,"uv_index":6.5,"wind_gusts":32.0,"aqi":150,"pm10":256.1,"pm2_5":42.4,"mosquito_risk":4,"arthritis_risk":5,"migraine_risk":7,"frizz_risk":0,"updated_at":"2026-03-25T17:20:45.841039+05:30"},{"city":"Agra","state":"Uttar Pradesh","latitude":27.1767,"longitude":78.0081,"temp":32.8,"humidity":23,"rain":0.0,"pressure":988.8,"uv_index":7.0,"wind_gusts":31.7,"aqi":461,"pm10":560.7,"pm2_5":54.9,"mosquito_risk":0,"arthritis_risk":5,"migraine_risk":7,"frizz_risk":0,"updated_at":"2026-03-25T17:20:45.841047+05:30"},{"city":"Varanasi","state":"Uttar Pradesh","latitude":25.3176,"longitude":82.9739,"temp":32.2,"humidity":25,"rain":0.0,"pressure":998.1,"uv_index":7.8,"wind_gusts":30.6,"aqi":136,"pm10":81.7,"pm2_5":22.1,"mosquito_risk":0,"arthritis_risk":5,"migraine_risk":7,"frizz_risk":0,"updated_at":"2026-03-25T17:20:45.841056+05:30"},{"city":"Prayagraj","state":"Uttar Pradesh","latitude":25.4358,"longitude":81.8463,"temp":31.8,"humidity":27,"rain":0.0,"pressure":996.6,"uv_index":7.65,"wind_gusts":25.2,"aqi":126,"pm10":95.5,"pm2_5":24.6,"mosquito_risk":0,"arthritis_risk":5,"migraine_risk":7,"frizz_risk":0,"updated_at":"2026-03-25T17:20:45.841062+05:30"},{"city":"Gorakhpur","state":"Uttar Pradesh","latitude":26.7606,"longitude":83.3732,"temp":31.3,"humidity":25,"rain":0.0,"pressure":997.2,"uv_index":7.5,"wind_gusts":27.7,"aqi":118,"pm10":58.2,"pm2_5":18.0,"mosquito_risk":0,"arthritis_risk":5,"migraine_risk":7,"frizz_risk":0,"updated_at":"2026-03-25T17:20:45.841069+05:30"},{"city":"Bareilly","state":"Uttar Pradesh","latitude":28.367,"longitude":79.4304,"temp":28.8,"humidity":44,"rain":0.0,"pressure":987.3,"uv_index":6.85,"wind_gusts":28.8,"aqi":101,"pm10":40.5,"pm2_5":22.5,"mosquito_risk":4,"arthritis_risk":5,"migraine_risk":7,"frizz_risk":0,"updated_at":"2026-03-25T17:20:45.841075+05:30"},{"city":"Aligarh","state":"Uttar Pradesh","latitude":27.8974,"longitude":78.088,"temp":30.2,"humidity":34,"rain":0.0,"pressure":986.5,"uv_index":6.75,"wind_gusts":29.9,"aqi":391,"pm10":752.5,"pm2_5":84.8,"mosquito_risk":0,"arthritis_risk":5,"migraine_risk":7,"frizz_risk":0,"updated_at":"2026-03-25T17:20:45.841083+05:30"},{"city":"Moradabad","state":"Uttar Pradesh","latitude":28.8386,"longitude":78.7733,"temp":28.9,"humidity":43,"rain":0.0,"pressure":984.2,"uv_index":6.55,"wind_gusts":29.9,"aqi":97,"pm10":39.9,"pm2_5":21.4,"mosquito_risk":4,"arthritis_risk":5,"migraine_risk":7,"frizz_risk":0,"updated_at":"2026-03-25T17:20:45.841090+05:30"},{"city":"Saharanpur","state":"Uttar Pradesh","latitude":29.9637,"longitude":77.546,"temp":28.1,"humidity":31,"rain":0.0,"pressure":976.4,"uv_index":6.3,"wind_gusts":31.3,"aqi":114,"pm10":126.2,"pm2_5":29.1,"mosquito_risk":4,"arthritis_risk":5,"migraine_risk":7,"frizz_risk":0,"updated_at":"2026-03-25T17:20:45.841096+05:30"},{"city":"Jhansi","state":"Uttar Pradesh","latitude":25.4484,"longitude":78.5685,"temp":32.7,"humidity":24,"rain":0.0,"pressure":978.8,"uv_index":7.65,"wind_gusts":32.4,"aqi":115,"pm10":126.2,"pm2_5":26.1,"mosquito_risk":0,"arthritis_risk":5,"migraine_risk":7,"frizz_risk":0,"updated_at":"2026-03-25T17:20:49.063207+05:30"},{"city":"Surat","state":"Gujarat","latitude":21.1702,"longitude":72.8311,"temp":31.8,"humidity":55,"rain":0.0,"pressure":1005.6,"uv_index":7.7,"wind_gusts":24.1,"aqi":92,"pm10":43.4,"pm2_5":29.9,"mosquito_risk":0,"arthritis_risk":5,"migraine_risk":4,"frizz_risk":1,"updated_at":"2026-03-25T17:20:49.063241+05:30"},{"city":"Vadodara","state":"Gujarat","latitude":22.3072,"longitude":73.1812,"temp":36.4,"humidity":32,"rain":0.0,"pressure":1003.1,"uv_index":7.5,"wind_gusts":18.0,"aqi":87,"pm10":28.6,"pm2_5":16.5,"mosquito_risk":0,"arthritis_risk":5,"migraine_risk":7,"frizz_risk":1,"updated_at":"2026-03-25T17:20:49.063253+05:30"},{"city":"Rajkot","state":"Gujarat","latitude":22.3039,"longitude":70.8022,"temp":35.4,"humidity":28,"rain":0.0,"pressure":993.5,"uv_index":7.7,"wind_gusts":31.3,"aqi":44,"pm10":30.5,"pm2_5":12.2,"mosquito_risk":0,"arthritis_risk":5,"migraine_risk":10,"frizz_risk":0,"updated_at":"2026-03-25T17:20:49.063263+05:30"},{"city":"Thane","state":"Maharashtra","latitude":19.2183,"longitude":72.9781,"temp":30.8,"humidity":59,"rain":0.0,"pressure":1006.2,"uv_index":7.95,"wind_gusts":34.9,"aqi":102,"pm10":38.4,"pm2_5":27.8,"mosquito_risk":0,"arthritis_risk":5,"migraine_risk":4,"frizz_risk":1,"updated_at":"2026-03-25T17:20:49.063272+05:30"},{"city":"Nagpur","state":"Maharashtra","latitude":21.1458,"longitude":79.0882,"temp":35.3,"humidity":24,"rain":0.0,"pressure":972.1,"uv_index":8.4,"wind_gusts":20.5,"aqi":104,"pm10":27.0,"pm2_5":17.3,"mosquito_risk":0,"arthritis_risk":5,"migraine_risk":10,"frizz_risk":0,"updated_at":"2026-03-25T17:20:49.063280+05:30"},{"city":"Nashik","state":"Maharashtra","latitude":19.9975,"longitude":73.7898,"temp":33.3,"humidity":27,"rain":0.0,"pressure":944.7,"uv_index":8.15,"wind_gusts":26.6,"aqi":72,"pm10":29.2,"pm2_5":16.9,"mosquito_risk":0,"arthritis_risk":5,"migraine_risk":7,"frizz_risk":0,"updated_at":"2026-03-25T17:20:49.063288+05:30"},{"city":"Aurangabad","state":"Maharashtra","latitude":19.8762,"longitude":75.3433,"temp":34.8,"humidity":21,"rain":0.0,"pressure":943.2,"uv_index":8.7,"wind_gusts":32.8,"aqi":70,"pm10":22.2,"pm2_5":11.1,"mosquito_risk":0,"arthritis_risk":5,"migraine_risk":7,"frizz_risk":0,"updated_at":"2026-03-25T17:20:49.063296+05:30"},{"city":"Solapur","state":"Maharashtra","latitude":17.6599,"longitude":75.9064,"temp":34.7,"humidity":31,"rain":0.0,"pressure":955.6,"uv_index":8.85,"wind_gusts":29.2,"aqi":140,"pm10":36.3,"pm2_5":26.6,"mosquito_risk":0,"arthritis_risk":5,"migraine_risk":7,"frizz_risk":0,"updated_at":"2026-03-25T17:20:49.063304+05:30"},{"city":"Kolhapur","state":"Maharashtra","latitude":16.705,"longitude":74.2433,"temp":30.2,"humidity":54,"rain":0.0,"pressure":946.7,"uv_index":8.95,"wind_gusts":38.2,"aqi":130,"pm10":40.3,"pm2_5":31.5,"mosquito_risk":0,"arthritis_risk":5,"migraine_risk":7,"frizz_risk":1,"updated_at":"2026-03-25T17:20:49.063312+05:30"},{"city":"Goa","state":"Goa","latitude":15.2993,"longitude":74.124,"temp":30.7,"humidity":68,"rain":0.0,"pressure":996.3,"uv_index":8.95,"wind_gusts":29.9,"aqi":116,"pm10":42.4,"pm2_5":30.9,"mosquito_risk":3,"arthritis_risk":5,"migraine_risk":7,"frizz_risk":1,"updated_at":"2026-03-25T17:20:49.063320+05:30"},{"city":"Jodhpur","state":"Rajasthan","latitude":26.2389,"longitude":73.0243,"temp":34.9,"humidity":21,"rain":0.0,"pressure":982.8,"uv_index":7.45,"wind_gusts":26.6,"aqi":60,"pm10":90.6,"pm2_5":16.2,"mosquito_risk":0,"arthritis_risk":5,"migraine_risk":7,"frizz_risk":0,"updated_at":"2026-03-25T17:20:49.063329+05:30"},{"city":"Udaipur","state":"Rajasthan","latitude":24.5854,"longitude":73.7125,"temp":31.8,"humidity":27,"rain":0.0,"pressure":947.2,"uv_index":7.95,"wind_gusts":25.6,"aqi":56,"pm10":24.5,"pm2_5":8.3,"mosquito_risk":0,"arthritis_risk":5,"migraine_risk":7,"frizz_risk":0,"updated_at":"2026-03-25T17:20:49.063336+05:30"},{"city":"Kota","state":"Rajasthan","latitude":25.2138,"longitude":75.8648,"temp":33.1,"humidity":28,"rain":0.0,"pressure":979.6,"uv_index":7.7,"wind_gusts":17.3,"aqi":95,"pm10":40.0,"pm2_5":23.4,"mosquito_risk":0,"arthritis_risk":5,"migraine_risk":7,"frizz_risk":0,"updated_at":"2026-03-25T17:20:49.063344+05:30"},{"city":"Bikaner","state":"Rajasthan","latitude":28.0229,"longitude":73.3119,"temp":33.8,"humidity":20,"rain":0.0,"pressure":981.7,"uv_index":6.65,"wind_gusts":31.0,"aqi":81,"pm10":28.9,"pm2_5":9.6,"mosquito_risk":0,"arthritis_risk":5,"migraine_risk":7,"frizz_risk":0,"updated_at":"2026-03-25T17:20:49.063353+05:30"},{"city":"Ajmer","state":"Rajasthan","latitude":26.4499,"longitude":74.6399,"temp":31.8,"humidity":24,"rain":0.0,"pressure":955.2,"uv_index":7.5,"wind_gusts":28.8,"aqi":91,"pm10":29.7,"pm2_5":11.4,"mosquito_risk":0,"arthritis_risk":5,"migraine_risk":7,"frizz_risk":0,"updated_at":"2026-03-25T17:20:49.063361+05:30"},{"city":"Gwalior","state":"Madhya Pradesh","latitude":26.2183,"longitude":78.1828,"temp":32.6,"humidity":26,"rain":0.0,"pressure":984.2,"uv_index":7.25,"wind_gusts":29.9,"aqi":168,"pm10":89.6,"pm2_5":18.3,"mosquito_risk":0,"arthritis_risk":5,"migraine_risk":7,"frizz_risk":0,"updated_at":"2026-03-25T17:20:49.063369+05:30"},{"city":"Indore","state":"Madhya Pradesh","latitude":22.7196,"longitude":75.8577,"temp":33.7,"humidity":24,"rain":0.0,"pressure":947.9,"uv_index":8.15,"wind_gusts":23.0,"aqi":92,"pm10":29.4,"pm2_5":17.0,"mosquito_risk":0,"arthritis_risk":5,"migraine_risk":7,"frizz_risk":0,"updated_at":"2026-03-25T17:20:49.063377+05:30"},{"city":"Bhopal","state":"Madhya Pradesh","latitude":23.2599,"longitude":77.4126,"temp":33.5,"humidity":24,"rain":0.0,"pressure":953.8,"uv_index":8.05,"wind_gusts":22.0,"aqi":82,"pm10":26.8,"pm2_5":14.8,"mosquito_risk":0,"arthritis_risk":5,"migraine_risk":7,"frizz_risk":0,"updated_at":"2026-03-25T17:20:49.063384+05:30"},{"city":"Jabalpur","state":"Madhya Pradesh","latitude":23.1815,"longitude":79.9864,"temp":32.5,"humidity":27,"rain":0.0,"pressure":961.8,"uv_index":8.2,"wind_gusts":30.2,"aqi":89,"pm10":34.8,"pm2_5":14.6,"mosquito_risk":0,"arthritis_risk":5,"migraine_risk":7,"frizz_risk":0,"updated_at":"2026-03-25T17:20:49.063390+05:30"},{"city":"Ujjain","state":"Madhya Pradesh","latitude":23.1765,"longitude":75.7885,"temp":33.5,"humidity":25,"rain":0.0,"pressure":953.5,"uv_index":8.05,"wind_gusts":17.6,"aqi":79,"pm10":27.0,"pm2_5":11.7,"mosquito_risk":0,"arthritis_risk":5,"migraine_risk":7,"frizz_risk":0,"updated_at":"2026-03-25T17:20:49.063396+05:30"},{"city":"Visakhapatnam","state":"Andhra Pradesh","latitude":17.6868,"longitude":83.2185,"temp":29.0,"humidity":66,"rain":0.0,"pressure":1004.0,"uv_index":8.9,"wind_gusts":38.5,"aqi":67,"pm10":30.4,"pm2_5":19.6,"mosquito_risk":7,"arthritis_risk":5,"migraine_risk":4,"frizz_risk":1,"updated_at":"2026-03-25T17:20:49.063402+05:30"},{"city":"Vijayawada","state":"Andhra Pradesh","latitude":16.5062,"longitude":80.648,"temp":33.0,"humidity":51,"rain":0.0,"pressure":1001.9,"uv_index":9.0,"wind_gusts":24.5,"aqi":58,"pm10":26.8,"pm2_5":18.2,"mosquito_risk":0,"arthritis_risk":5,"migraine_risk":4,"frizz_risk":1,"updated_at":"2026-03-25T17:20:49.063407+05:30"},{"city":"Guntur","state":"Andhra Pradesh","latitude":16.3067,"longitude":80.4365,"temp":32.6,"humidity":50,"rain":0.0,"pressure":1003.2,"uv_index":9.0,"wind_gusts":24.8,"aqi":54,"pm10":26.6,"pm2_5":17.5,"mosquito_risk":0,"arthritis_risk":5,"migraine_risk":4,"frizz_risk":1,"updated_at":"2026-03-25T17:20:49.063413+05:30"},{"city":"Nellore","state":"Andhra Pradesh","latitude":14.4426,"longitude":79.9865,"temp":30.7,"humidity":57,"rain":0.0,"pressure":1005.5,"uv_index":9.1,"wind_gusts":29.5,"aqi":72,"pm10":23.9,"pm2_5":16.4,"mosquito_risk":0,"arthritis_risk":5,"migraine_risk":4,"frizz_risk":1,"updated_at":"2026-03-25T17:20:49.063420+05:30"},{"city":"Kurnool","state":"Andhra Pradesh","latitude":15.8281,"longitude":78.0373,"temp":35.8,"humidity":30,"rain":0.0,"pressure":975.2,"uv_index":8.65,"wind_gusts":24.1,"aqi":96,"pm10":40.6,"pm2_5":29.7,"mosquito_risk":0,"arthritis_risk":5,"migraine_risk":10,"frizz_risk":0,"updated_at":"2026-03-25T17:20:49.063427+05:30"},{"city":"Kakinada","state":"Andhra Pradesh","latitude":16.9891,"longitude":82.2475,"temp":32.3,"humidity":53,"rain":0.0,"pressure":1007.1,"uv_index":8.95,"wind_gusts":28.4,"aqi":54,"pm10":25.5,"pm2_5":13.8,"mosquito_risk":0,"arthritis_risk":5,"migraine_risk":4,"frizz_risk":1,"updated_at":"2026-03-25T17:20:49.063433+05:30"},{"city":"Tirupati","state":"Andhra Pradesh","latitude":13.6288,"longitude":79.4192,"temp":33.5,"humidity":38,"rain":0.0,"pressure":990.3,"uv_index":9.2,"wind_gusts":28.8,"aqi":70,"pm10":28.9,"pm2_5":20.9,"mosquito_risk":0,"arthritis_risk":5,"migraine_risk":7,"frizz_risk":1,"updated_at":"2026-03-25T17:20:49.063439+05:30"},{"city":"Warangal","state":"Telangana","latitude":17.9689,"longitude":79.5941,"temp":33.3,"humidity":41,"rain":0.0,"pressure":978.2,"uv_index":8.7,"wind_gusts":24.8,"aqi":85,"pm10":37.7,"pm2_5":28.9,"mosquito_risk":0,"arthritis_risk":5,"migraine_risk":7,"frizz_risk":1,"updated_at":"2026-03-25T17:20:49.063444+05:30"},{"city":"Nizamabad","state":"Telangana","latitude":18.6725,"longitude":78.0941,"temp":35.3,"humidity":28,"rain":0.0,"pressure":963.3,"uv_index":8.75,"wind_gusts":33.5,"aqi":109,"pm10":30.6,"pm2_5":21.4,"mosquito_risk":0,"arthritis_risk":5,"migraine_risk":10,"frizz_risk":0,"updated_at":"2026-03-25T17:20:49.063450+05:30"},{"city":"Mysore","state":"Karnataka","latitude":12.2958,"longitude":76.6396,"temp":34.0,"humidity":25,"rain":0.0,"pressure":926.1,"uv_index":9.4,"wind_gusts":32.0,"aqi":129,"pm10":26.0,"pm2_5":19.1,"mosquito_risk":0,"arthritis_risk":5,"migraine_risk":7,"frizz_risk":0,"updated_at":"2026-03-25T17:20:49.063456+05:30"},{"city":"Mangalore","state":"Karnataka","latitude":12.9141,"longitude":74.856,"temp":29.3,"humidity":82,"rain":0.0,"pressure":1004.2,"uv_index":9.05,"wind_gusts":23.8,"aqi":146,"pm10":42.6,"pm2_5":31.3,"mosquito_risk":7,"arthritis_risk":5,"migraine_risk":4,"frizz_risk":1,"updated_at":"2026-03-25T17:20:49.063462+05:30"},{"city":"Hubli-Dharwad","state":"Karnataka","latitude":15.3647,"longitude":75.124,"temp":26.0,"humidity":68,"rain":0.0,"pressure":939.8,"uv_index":9.1,"wind_gusts":38.2,"aqi":122,"pm10":40.7,"pm2_5":31.4,"mosquito_risk":7,"arthritis_risk":5,"migraine_risk":7,"frizz_risk":1,"updated_at":"2026-03-25T17:20:49.063467+05:30"},{"city":"Belgaum","state":"Karnataka","latitude":15.8497,"longitude":74.4977,"temp":28.2,"humidity":60,"rain":0.0,"pressure":924.9,"uv_index":9.1,"wind_gusts":24.8,"aqi":141,"pm10":46.0,"pm2_5":33.9,"mosquito_risk":4,"arthritis_risk":5,"migraine_risk":7,"frizz_risk":1,"updated_at":"2026-03-25T17:20:52.280222+05:30"},{"city":"Coimbatore","state":"Tamil Nadu","latitude":11.0168,"longitude":76.9558,"temp":34.6,"humidity":28,"rain":0.0,"pressure":959.0,"uv_index":9.4,"wind_gusts":34.6,"aqi":90,"pm10":18.2,"pm2_5":12.5,"mosquito_risk":0,"arthritis_risk":5,"migraine_risk":7,"frizz_risk":0,"updated_at":"2026-03-25T17:20:52.280251+05:30"},{"city":"Madurai","state":"Tamil Nadu","latitude":9.9252,"longitude":78.1198,"temp":35.3,"humidity":31,"rain":0.0,"pressure":990.3,"uv_index":9.35,"wind_gusts":25.9,"aqi":71,"pm10":17.2,"pm2_5":11.4,"mosquito_risk":0,"arthritis_risk":5,"migraine_risk":10,"frizz_risk":0,"updated_at":"2026-03-25T17:20:52.280261+05:30"},{"city":"Trichy","state":"Tamil Nadu","latitude":10.7905,"longitude":78.7047,"temp":33.4,"humidity":45,"rain":0.0,"pressure":997.8,"uv_index":9.3,"wind_gusts":23.0,"aqi":66,"pm10":19.3,"pm2_5":14.6,"mosquito_risk":0,"arthritis_risk":5,"migraine_risk":7,"frizz_risk":1,"updated_at":"2026-03-25T17:20:52.280268+05:30"},{"city":"Salem","state":"Tamil Nadu","latitude":11.6643,"longitude":78.146,"temp":35.1,"humidity":31,"rain":0.0,"pressure":974.9,"uv_index":9.35,"wind_gusts":31.7,"aqi":101,"pm10":26.1,"pm2_5":19.3,"mosquito_risk":0,"arthritis_risk":5,"migraine_risk":10,"frizz_risk":0,"updated_at":"2026-03-25T17:20:52.280275+05:30"},{"city":"Tirunelveli","state":"Tamil Nadu","latitude":8.7139,"longitude":77.7567,"temp":36.3,"humidity":33,"rain":0.0,"pressure":1000.1,"uv_index":9.3,"wind_gusts":40.3,"aqi":59,"pm10":14.1,"pm2_5":8.8,"mosquito_risk":0,"arthritis_risk":5,"migraine_risk":7,"frizz_risk":1,"updated_at":"2026-03-25T17:20:52.280282+05:30"},{"city":"Vellore","state":"Tamil Nadu","latitude":12.9165,"longitude":79.1325,"temp":32.6,"humidity":36,"rain":0.0,"pressure":983.3,"uv_index":9.3,"wind_gusts":31.7,"aqi":81,"pm10":28.3,"pm2_5":21.5,"mosquito_risk":0,"arthritis_risk":5,"migraine_risk":7,"frizz_risk":0,"updated_at":"2026-03-25T17:20:52.280290+05:30"},{"city":"Erode","state":"Tamil Nadu","latitude":11.341,"longitude":77.7172,"temp":35.8,"humidity":36,"rain":0.0,"pressure":986.0,"uv_index":9.3,"wind_gusts":28.1,"aqi":79,"pm10":19.0,"pm2_5":13.6,"mosquito_risk":0,"arthritis_risk":5,"migraine_risk":10,"frizz_risk":1,"updated_at":"2026-03-25T17:20:52.280296+05:30"},{"city":"Kochi","state":"Kerala","latitude":9.9312,"longitude":76.2673,"temp":29.5,"humidity":76,"rain":0.0,"pressure":1005.2,"uv_index":9.15,"wind_gusts":33.1,"aqi":116,"pm10":28.8,"pm2_5":23.3,"mosquito_risk":7,"arthritis_risk":5,"migraine_risk":4,"frizz_risk":1,"updated_at":"2026-03-25T17:20:52.280304+05:30"},{"city":"Thiruvananthapuram","state":"Kerala","latitude":8.5241,"longitude":76.9366,"temp":29.4,"humidity":79,"rain":0.0,"pressure":1005.4,"uv_index":9.2,"wind_gusts":31.3,"aqi":107,"pm10":18.7,"pm2_5":14.2,"mosquito_risk":7,"arthritis_risk":5,"migraine_risk":4,"frizz_risk":1,"updated_at":"2026-03-25T17:20:52.280311+05:30"},{"city":"Kozhikode","state":"Kerala","latitude":11.2588,"longitude":75.7804,"temp":30.0,"humidity":76,"rain":0.0,"pressure":1004.7,"uv_index":9.1,"wind_gusts":28.4,"aqi":103,"pm10":45.9,"pm2_5":33.2,"mosquito_risk":7,"arthritis_risk":5,"migraine_risk":4,"frizz_risk":1,"updated_at":"2026-03-25T17:20:52.280317+05:30"},{"city":"Thrissur","state":"Kerala","latitude":10.5276,"longitude":76.2144,"temp":31.3,"humidity":66,"rain":0.0,"pressure":1003.5,"uv_index":9.15,"wind_gusts":39.2,"aqi":98,"pm10":26.5,"pm2_5":19.2,"mosquito_risk":3,"arthritis_risk":5,"migraine_risk":4,"frizz_risk":1,"updated_at":"2026-03-25T17:20:52.280325+05:30"},{"city":"Kannur","state":"Kerala","latitude":11.8745,"longitude":75.3704,"temp":31.0,"humidity":68,"rain":0.0,"pressure":1004.4,"uv_index":9.1,"wind_gusts":29.5,"aqi":120,"pm10":41.3,"pm2_5":30.5,"mosquito_risk":3,"arthritis_risk":5,"migraine_risk":4,"frizz_risk":1,"updated_at":"2026-03-25T17:20:52.280332+05:30"},{"city":"Patna","state":"Bihar","latitude":25.5941,"longitude":85.1376,"temp":31.5,"humidity":29,"rain":0.0,"pressure":1000.9,"uv_index":7.4,"wind_gusts":30.2,"aqi":128,"pm10":61.9,"pm2_5":26.9,"mosquito_risk":0,"arthritis_risk":5,"migraine_risk":4,"frizz_risk":0,"updated_at":"2026-03-25T17:20:52.280338+05:30"},{"city":"Gaya","state":"Bihar","latitude":24.7914,"longitude":85.0002,"temp":30.4,"humidity":42,"rain":0.0,"pressure":994.1,"uv_index":8.05,"wind_gusts":22.7,"aqi":126,"pm10":51.6,"pm2_5":19.0,"mosquito_risk":0,"arthritis_risk":5,"migraine_risk":7,"frizz_risk":1,"updated_at":"2026-03-25T17:20:52.280345+05:30"},{"city":"Muzaffarpur","state":"Bihar","latitude":26.1209,"longitude":85.3647,"temp":30.0,"humidity":38,"rain":0.0,"pressure":1000.8,"uv_index":7.9,"wind_gusts":24.1,"aqi":122,"pm10":58.1,"pm2_5":27.4,"mosquito_risk":4,"arthritis_risk":5,"migraine_risk":4,"frizz_risk":0,"updated_at":"2026-03-25T17:20:52.280351+05:30"},{"city":"Bhagalpur","state":"Bihar","latitude":25.2425,"longitude":87.0117,"temp":28.8,"humidity":48,"rain":0.0,"pressure":1001.8,"uv_index":8.0,"wind_gusts":24.1,"aqi":151,"pm10":45.3,"pm2_5":25.9,"mosquito_risk":4,"arthritis_risk":5,"migraine_risk":4,"frizz_risk":1,"updated_at":"2026-03-25T17:20:52.280358+05:30"},{"city":"Ranchi","state":"Jharkhand","latitude":23.3441,"longitude":85.3096,"temp":29.4,"humidity":28,"rain":0.0,"pressure":938.3,"uv_index":8.4,"wind_gusts":31.7,"aqi":120,"pm10":30.9,"pm2_5":14.3,"mosquito_risk":4,"arthritis_risk":5,"migraine_risk":7,"frizz_risk":0,"updated_at":"2026-03-25T17:20:52.280365+05:30"},{"city":"Jamshedpur","state":"Jharkhand","latitude":22.8046,"longitude":86.2029,"temp":33.7,"humidity":30,"rain":0.0,"pressure":990.4,"uv_index":8.55,"wind_gusts":30.2,"aqi":159,"pm10":61.9,"pm2_5":39.0,"mosquito_risk":0,"arthritis_risk":5,"migraine_risk":7,"frizz_risk":0,"updated_at":"2026-03-25T17:20:52.280371+05:30"},{"city":"Dhanbad","state":"Jharkhand","latitude":23.7957,"longitude":86.4304,"temp":33.0,"humidity":24,"rain":0.0,"pressure":979.7,"uv_index":8.45,"wind_gusts":27.0,"aqi":154,"pm10":41.0,"pm2_5":21.2,"mosquito_risk":0,"arthritis_risk":5,"migraine_risk":7,"frizz_risk":0,"updated_at":"2026-03-25T17:20:52.280378+05:30"},{"city":"Bokaro","state":"Jharkhand","latitude":23.6693,"longitude":86.1511,"temp":32.2,"humidity":28,"rain":0.0,"pressure":983.7,"uv_index":8.45,"wind_gusts":24.1,"aqi":150,"pm10":40.0,"pm2_5":20.3,"mosquito_risk":0,"arthritis_risk":5,"migraine_risk":7,"frizz_risk":0,"updated_at":"2026-03-25T17:20:52.280384+05:30"},{"city":"Bhubaneswar","state":"Odisha","latitude":20.2961,"longitude":85.8245,"temp":29.8,"humidity":66,"rain":0.0,"pressure":1002.7,"uv_index":8.75,"wind_gusts":28.1,"aqi":72,"pm10":37.4,"pm2_5":28.9,"mosquito_risk":7,"arthritis_risk":5,"migraine_risk":4,"frizz_risk":1,"updated_at":"2026-03-25T17:20:52.280391+05:30"},{"city":"Cuttack","state":"Odisha","latitude":20.4625,"longitude":85.8828,"temp":31.4,"humidity":59,"rain":0.0,"pressure":1004.6,"uv_index":8.8,"wind_gusts":27.4,"aqi":72,"pm10":37.4,"pm2_5":28.9,"mosquito_risk":0,"arthritis_risk":5,"migraine_risk":4,"frizz_risk":1,"updated_at":"2026-03-25T17:20:52.280397+05:30"},{"city":"Rourkela","state":"Odisha","latitude":22.2604,"longitude":84.8536,"temp":33.6,"humidity":33,"rain":0.0,"pressure":984.7,"uv_index":8.45,"wind_gusts":19.8,"aqi":154,"pm10":41.3,"pm2_5":23.1,"mosquito_risk":0,"arthritis_risk":5,"migraine_risk":7,"frizz_risk":0,"updated_at":"2026-03-25T17:20:52.280404+05:30"},{"city":"Raipur","state":"Chhattisgarh","latitude":21.2514,"longitude":81.6296,"temp":31.4,"humidity":43,"rain":0.0,"pressure":974.4,"uv_index":8.2,"wind_gusts":45.4,"aqi":151,"pm10":35.7,"pm2_5":25.8,"mosquito_risk":0,"arthritis_risk":5,"migraine_risk":7,"frizz_risk":1,"updated_at":"2026-03-25T17:20:52.280410+05:30"},{"city":"Bhilai","state":"Chhattisgarh","latitude":21.1938,"longitude":81.3509,"temp":31.5,"humidity":44,"rain":0.0,"pressure":974.7,"uv_index":8.2,"wind_gusts":40.0,"aqi":121,"pm10":29.4,"pm2_5":20.1,"mosquito_risk":0,"arthritis_risk":5,"migraine_risk":7,"frizz_risk":1,"updated_at":"2026-03-25T17:20:52.280416+05:30"},{"city":"Guwahati","state":"Assam","latitude":26.1158,"longitude":91.7086,"temp":26.0,"humidity":69,"rain":0.0,"pressure":1002.7,"uv_index":7.85,"wind_gusts":28.1,"aqi":120,"pm10":58.4,"pm2_5":42.1,"mosquito_risk":7,"arthritis_risk":5,"migraine_risk":4,"frizz_risk":1,"updated_at":"2026-03-25T17:20:52.280422+05:30"},{"city":"Agartala","state":"Tripura","latitude":23.8315,"longitude":91.2868,"temp":27.5,"humidity":69,"rain":0.0,"pressure":1007.2,"uv_index":8.15,"wind_gusts":27.4,"aqi":155,"pm10":60.3,"pm2_5":51.2,"mosquito_risk":7,"arthritis_risk":5,"migraine_risk":4,"frizz_risk":1,"updated_at":"2026-03-25T17:20:52.280428+05:30"},{"city":"Shillong","state":"Meghalaya","latitude":25.5788,"longitude":91.8933,"temp":15.4,"humidity":67,"rain":0.0,"pressure":856.5,"uv_index":8.25,"wind_gusts":67.0,"aqi":106,"pm10":44.8,"pm2_5":29.2,"mosquito_risk":3,"arthritis_risk":5,"migraine_risk":7,"frizz_risk":0,"updated_at":"2026-03-25T17:20:52.280434+05:30"},{"city":"Imphal","state":"Manipur","latitude":24.817,"longitude":93.9368,"temp":18.6,"humidity":72,"rain":0.0,"pressure":924.1,"uv_index":8.45,"wind_gusts":76.0,"aqi":119,"pm10":42.0,"pm2_5":28.3,"mosquito_risk":3,"arthritis_risk":5,"migraine_risk":7,"frizz_risk":0,"updated_at":"2026-03-25T17:20:52.280440+05:30"},{"city":"Aizawl","state":"Mizoram","latitude":23.7271,"longitude":92.7176,"temp":22.0,"humidity":57,"rain":0.0,"pressure":894.0,"uv_index":8.25,"wind_gusts":43.9,"aqi":115,"pm10":59.1,"pm2_5":35.7,"mosquito_risk":0,"arthritis_risk":5,"migraine_risk":7,"frizz_risk":0,"updated_at":"2026-03-25T17:20:52.280447+05:30"},{"city":"Kohima","state":"Nagaland","latitude":25.6701,"longitude":94.1077,"temp":14.8,"humidity":93,"rain":0.0,"pressure":855.2,"uv_index":7.8,"wind_gusts":76.7,"aqi":111,"pm10":43.1,"pm2_5":30.3,"mosquito_risk":3,"arthritis_risk":10,"migraine_risk":7,"frizz_risk":0,"updated_at":"2026-03-25T17:20:52.280453+05:30"},{"city":"Gangtok","state":"Sikkim","latitude":27.3314,"longitude":88.6138,"temp":14.5,"humidity":86,"rain":0.0,"pressure":837.0,"uv_index":8.1,"wind_gusts":18.7,"aqi":105,"pm10":32.9,"pm2_5":25.1,"mosquito_risk":3,"arthritis_risk":10,"migraine_risk":7,"frizz_risk":0,"updated_at":"2026-03-25T17:20:52.280459+05:30"},{"city":"Siliguri","state":"West Bengal","latitude":26.7271,"longitude":88.3953,"temp":22.6,"humidity":65,"rain":0.0,"pressure":994.7,"uv_index":7.8,"wind_gusts":25.2,"aqi":152,"pm10":56.7,"pm2_5":39.5,"mosquito_risk":3,"arthritis_risk":5,"migraine_risk":7,"frizz_risk":0,"updated_at":"2026-03-25T17:20:55.506190+05:30"},{"city":"Durgapur","state":"West Bengal","latitude":23.5204,"longitude":87.3119,"temp":32.1,"humidity":40,"rain":0.0,"pressure":995.1,"uv_index":8.4,"wind_gusts":22.7,"aqi":152,"pm10":38.4,"pm2_5":21.2,"mosquito_risk":0,"arthritis_risk":5,"migraine_risk":7,"frizz_risk":1,"updated_at":"2026-03-25T17:20:55.506218+05:30"},{"city":"Asansol","state":"West Bengal","latitude":23.6739,"longitude":86.9524,"temp":33.3,"humidity":29,"rain":0.0,"pressure":993.4,"uv_index":8.4,"wind_gusts":22.3,"aqi":135,"pm10":41.0,"pm2_5":21.2,"mosquito_risk":0,"arthritis_risk":5,"migraine_risk":7,"frizz_risk":0,"updated_at":"2026-03-25T17:20:55.506228+05:30"},{"city":"Pondicherry","state":"Puducherry","latitude":11.9139,"longitude":79.8145,"temp":29.9,"humidity":61,"rain":0.0,"pressure":1007.5,"uv_index":9.15,"wind_gusts":29.5,"aqi":41,"pm10":17.8,"pm2_5":9.9,"mosquito_risk":7,"arthritis_risk":5,"migraine_risk":4,"frizz_risk":1,"updated_at":"2026-03-25T17:20:55.506235+05:30"},{"city":"Port Blair","state":"Andaman and Nicobar Islands","latitude":11.6234,"longitude":92.7265,"temp":28.3,"humidity":76,"rain":0.0,"pressure":1007.0,"uv_index":9.1,"wind_gusts":25.2,"aqi":71,"pm10":18.4,"pm2_5":14.4,"mosquito_risk":7,"arthritis_risk":5,"migraine_risk":4,"frizz_risk":1,"updated_at":"2026-03-25T17:20:55.506242+05:30"},{"city":"Haridwar","state":"Uttarakhand","latitude":29.9457,"longitude":78.1642,"temp":28.9,"humidity":44,"rain":0.0,"pressure":974.8,"uv_index":6.45,"wind_gusts":25.2,"aqi":117,"pm10":48.8,"pm2_5":23.7,"mosquito_risk":4,"arthritis_risk":5,"migraine_risk":7,"frizz_risk":0,"updated_at":"2026-03-25T17:20:55.506249+05:30"},{"city":"Rishikesh","state":"Uttarakhand","latitude":30.0869,"longitude":78.2676,"temp":27.5,"humidity":44,"rain":0.0,"pressure":967.6,"uv_index":6.5,"wind_gusts":23.4,"aqi":115,"pm10":24.4,"pm2_5":19.2,"mosquito_risk":4,"arthritis_risk":5,"migraine_risk":7,"frizz_risk":0,"updated_at":"2026-03-25T17:20:55.506256+05:30"},{"city":"Nainital","state":"Uttarakhand","latitude":29.3919,"longitude":79.4542,"temp":19.5,"humidity":59,"rain":0.0,"pressure":806.7,"uv_index":7.35,"wind_gusts":27.7,"aqi":129,"pm10":27.4,"pm2_5":20.8,"mosquito_risk":0,"arthritis_risk":5,"migraine_risk":7,"frizz_risk":0,"updated_at":"2026-03-25T17:20:55.506261+05:30"},{"city":"Mussoorie","state":"Uttarakhand","latitude":30.4599,"longitude":78.0664,"temp":18.2,"humidity":62,"rain":0.0,"pressure":803.4,"uv_index":6.9,"wind_gusts":25.2,"aqi":115,"pm10":35.0,"pm2_5":23.8,"mosquito_risk":3,"arthritis_risk":5,"migraine_risk":7,"frizz_risk":0,"updated_at":"2026-03-25T17:20:55.506268+05:30"},{"city":"Dharamshala","state":"Himachal Pradesh","latitude":32.219,"longitude":76.3234,"temp":20.6,"humidity":63,"rain":0.0,"pressure":870.1,"uv_index":7.1,"wind_gusts":18.0,"aqi":118,"pm10":20.7,"pm2_5":11.3,"mosquito_risk":3,"arthritis_risk":5,"migraine_risk":7,"frizz_risk":0,"updated_at":"2026-03-25T17:20:55.506274+05:30"},{"city":"Dalhousie","state":"Himachal Pradesh","latitude":32.5387,"longitude":75.971,"temp":18.8,"humidity":59,"rain":0.0,"pressure":805.0,"uv_index":7.35,"wind_gusts":20.5,"aqi":100,"pm10":24.9,"pm2_5":15.8,"mosquito_risk":0,"arthritis_risk":5,"migraine_risk":7,"frizz_risk":0,"updated_at":"2026-03-25T17:20:55.506281+05:30"},{"city":"Patiala","state":"Punjab","latitude":30.3398,"longitude":76.3869,"temp":28.1,"humidity":43,"rain":0.0,"pressure":979.6,"uv_index":6.45,"wind_gusts":26.6,"aqi":130,"pm10":390.2,"pm2_5":48.7,"mosquito_risk":4,"arthritis_risk":5,"migraine_risk":7,"frizz_risk":0,"updated_at":"2026-03-25T17:20:55.506288+05:30"},{"city":"Bhatinda","state":"Punjab","latitude":30.211,"longitude":74.9455,"temp":29.2,"humidity":39,"rain":0.0,"pressure":985.4,"uv_index":6.35,"wind_gusts":22.3,"aqi":135,"pm10":38.8,"pm2_5":25.8,"mosquito_risk":4,"arthritis_risk":5,"migraine_risk":7,"frizz_risk":0,"updated_at":"2026-03-25T17:20:55.506294+05:30"},{"city":"Rohtak","state":"Haryana","latitude":28.8955,"longitude":76.6066,"temp":29.7,"humidity":36,"rain":0.0,"pressure":983.1,"uv_index":6.45,"wind_gusts":21.2,"aqi":352,"pm10":307.3,"pm2_5":43.3,"mosquito_risk":4,"arthritis_risk":5,"migraine_risk":7,"frizz_risk":0,"updated_at":"2026-03-25T17:20:55.506301+05:30"},{"city":"Panipat","state":"Haryana","latitude":29.3909,"longitude":76.9635,"temp":29.2,"humidity":38,"rain":0.0,"pressure":981.5,"uv_index":5.95,"wind_gusts":28.4,"aqi":605,"pm10":670.6,"pm2_5":71.9,"mosquito_risk":4,"arthritis_risk":5,"migraine_risk":3,"frizz_risk":0,"updated_at":"2026-03-25T17:20:55.506307+05:30"},{"city":"Mathura","state":"Uttar Pradesh","latitude":27.4924,"longitude":77.6737,"temp":31.4,"humidity":34,"rain":0.0,"pressure":987.9,"uv_index":6.85,"wind_gusts":20.9,"aqi":510,"pm10":398.6,"pm2_5":46.2,"mosquito_risk":0,"arthritis_risk":5,"migraine_risk":7,"frizz_risk":0,"updated_at":"2026-03-25T17:20:55.506313+05:30"},{"city":"Vrindavan","state":"Uttar Pradesh","latitude":27.5823,"longitude":77.7027,"temp":31.0,"humidity":35,"rain":0.0,"pressure":988.3,"uv_index":6.8,"wind_gusts":24.8,"aqi":510,"pm10":398.6,"pm2_5":46.2,"mosquito_risk":0,"arthritis_risk":5,"migraine_risk":7,"frizz_risk":0,"updated_at":"2026-03-25T17:20:55.506319+05:30"},{"city":"Ayodhya","state":"Uttar Pradesh","latitude":26.7922,"longitude":82.1998,"temp":32.1,"humidity":19,"rain":0.0,"pressure":995.5,"uv_index":7.3,"wind_gusts":35.3,"aqi":109,"pm10":27.1,"pm2_5":17.1,"mosquito_risk":0,"arthritis_risk":5,"migraine_risk":7,"frizz_risk":0,"updated_at":"2026-03-25T17:20:55.506325+05:30"},{"city":"Ratlam","state":"Madhya Pradesh","latitude":23.3315,"longitude":75.0367,"temp":33.4,"humidity":27,"rain":0.0,"pressure":954.4,"uv_index":8.05,"wind_gusts":24.5,"aqi":68,"pm10":25.3,"pm2_5":8.9,"mosquito_risk":0,"arthritis_risk":5,"migraine_risk":7,"frizz_risk":0,"updated_at":"2026-03-25T17:20:55.506331+05:30"},{"city":"Sagar","state":"Madhya Pradesh","latitude":23.8388,"longitude":78.7378,"temp":32.5,"humidity":23,"rain":0.0,"pressure":950.8,"uv_index":8.05,"wind_gusts":25.6,"aqi":84,"pm10":37.7,"pm2_5":10.6,"mosquito_risk":0,"arthritis_risk":5,"migraine_risk":7,"frizz_risk":0,"updated_at":"2026-03-25T17:20:55.506336+05:30"},{"city":"Satna","state":"Madhya Pradesh","latitude":24.6005,"longitude":80.8322,"temp":32.8,"humidity":19,"rain":0.0,"pressure":972.0,"uv_index":7.85,"wind_gusts":29.9,"aqi":113,"pm10":93.1,"pm2_5":19.8,"mosquito_risk":0,"arthritis_risk":5,"migraine_risk":7,"frizz_risk":0,"updated_at":"2026-03-25T17:20:55.506343+05:30"},{"city":"Akola","state":"Maharashtra","latitude":20.7002,"longitude":77.0082,"temp":36.2,"humidity":24,"rain":0.0,"pressure":973.8,"uv_index":8.45,"wind_gusts":23.8,"aqi":70,"pm10":19.6,"pm2_5":10.8,"mosquito_risk":0,"arthritis_risk":5,"migraine_risk":10,"frizz_risk":0,"updated_at":"2026-03-25T17:20:55.506349+05:30"},{"city":"Amravati","state":"Maharashtra","latitude":20.9374,"longitude":77.7796,"temp":36.0,"humidity":24,"rain":0.0,"pressure":966.1,"uv_index":8.45,"wind_gusts":22.7,"aqi":67,"pm10":19.5,"pm2_5":10.8,"mosquito_risk":0,"arthritis_risk":5,"migraine_risk":10,"frizz_risk":0,"updated_at":"2026-03-25T17:20:55.506356+05:30"},{"city":"Latur","state":"Maharashtra","latitude":18.4088,"longitude":76.5604,"temp":34.1,"humidity":24,"rain":0.0,"pressure":938.5,"uv_index":8.8,"wind_gusts":19.8,"aqi":111,"pm10":36.4,"pm2_5":25.8,"mosquito_risk":0,"arthritis_risk":5,"migraine_risk":7,"frizz_risk":0,"updated_at":"2026-03-25T17:20:55.506362+05:30"},{"city":"Nanded","state":"Maharashtra","latitude":19.1383,"longitude":77.3091,"temp":36.8,"humidity":20,"rain":0.0,"pressure":966.8,"uv_index":8.65,"wind_gusts":22.7,"aqi":106,"pm10":29.9,"pm2_5":19.8,"mosquito_risk":0,"arthritis_risk":5,"migraine_risk":10,"frizz_risk":0,"updated_at":"2026-03-25T17:20:55.506367+05:30"},{"city":"Gulbarga","state":"Karnataka","latitude":17.3297,"longitude":76.8343,"temp":29.2,"humidity":53,"rain":0.0,"pressure":958.5,"uv_index":8.85,"wind_gusts":26.3,"aqi":117,"pm10":36.2,"pm2_5":26.5,"mosquito_risk":4,"arthritis_risk":5,"migraine_risk":7,"frizz_risk":1,"updated_at":"2026-03-25T17:20:55.506373+05:30"},{"city":"Bidar","state":"Karnataka","latitude":17.9104,"longitude":77.5199,"temp":33.4,"humidity":30,"rain":0.0,"pressure":934.7,"uv_index":8.85,"wind_gusts":24.1,"aqi":114,"pm10":30.7,"pm2_5":21.8,"mosquito_risk":0,"arthritis_risk":5,"migraine_risk":7,"frizz_risk":0,"updated_at":"2026-03-25T17:20:55.506379+05:30"},{"city":"Hospet","state":"Karnataka","latitude":15.2689,"longitude":76.3909,"temp":32.6,"humidity":41,"rain":0.0,"pressure":954.5,"uv_index":9.05,"wind_gusts":21.2,"aqi":123,"pm10":39.1,"pm2_5":32.1,"mosquito_risk":0,"arthritis_risk":5,"migraine_risk":7,"frizz_risk":1,"updated_at":"2026-03-25T17:20:55.506385+05:30"},{"city":"Tirupur","state":"Tamil Nadu","latitude":11.1085,"longitude":77.3411,"temp":36.0,"humidity":28,"rain":0.0,"pressure":972.4,"uv_index":9.4,"wind_gusts":31.7,"aqi":88,"pm10":19.4,"pm2_5":14.0,"mosquito_risk":0,"arthritis_risk":5,"migraine_risk":10,"frizz_risk":0,"updated_at":"2026-03-25T17:20:55.506391+05:30"},{"city":"Alappuzha","state":"Kerala","latitude":9.4981,"longitude":76.3388,"temp":29.4,"humidity":78,"rain":0.0,"pressure":1005.5,"uv_index":9.15,"wind_gusts":29.2,"aqi":126,"pm10":25.3,"pm2_5":20.3,"mosquito_risk":7,"arthritis_risk":5,"migraine_risk":4,"frizz_risk":1,"updated_at":"2026-03-25T17:20:55.506397+05:30"},{"city":"Munnar","state":"Kerala","latitude":10.0889,"longitude":77.0595,"temp":27.2,"humidity":63,"rain":0.0,"pressure":856.7,"uv_index":9.65,"wind_gusts":30.6,"aqi":72,"pm10":18.7,"pm2_5":11.7,"mosquito_risk":7,"arthritis_risk":5,"migraine_risk":7,"frizz_risk":1,"updated_at":"2026-03-25T17:20:55.506403+05:30"},{"city":"Silchar","state":"Assam","latitude":24.8333,"longitude":92.7789,"temp":27.1,"humidity":69,"rain":0.0,"pressure":1006.3,"uv_index":8.15,"wind_gusts":36.0,"aqi":160,"pm10":80.3,"pm2_5":54.1,"mosquito_risk":7,"arthritis_risk":5,"migraine_risk":4,"frizz_risk":1,"updated_at":"2026-03-25T17:20:55.506409+05:30"},{"city":"Dibrugarh","state":"Assam","latitude":27.4728,"longitude":94.912,"temp":21.0,"humidity":80,"rain":0.0,"pressure":999.1,"uv_index":6.95,"wind_gusts":27.4,"aqi":83,"pm10":28.7,"pm2_5":23.0,"mosquito_risk":3,"arthritis_risk":5,"migraine_risk":7,"frizz_risk":1,"updated_at":"2026-03-25T17:20:55.506415+05:30"}]