[{"city":"Delhi","state":"Delhi","latitude":28.6139,"longitude":77.209,"temp":22.6,"humidity":75,"rain":0.0,"pressure":980.9,"uv_index":6.3,"wind_gusts":40.7,"aqi":207,"pm10":311.1,"pm2_5":86.6,"mosquito_risk":3,"arthritis_risk":5,"migraine_risk":7,"frizz_risk":1,"updated_at":"2026-03-30T05:07:09.531816+05:30"},{"city":"Mumbai","state":"Maharashtra","latitude":19.076,"longitude":72.8777,"temp":27.3,"humidity":84,"rain":0.0,"pressure":1007.0,"uv_index":8.0,"wind_gusts":24.5,"aqi":55,"pm10":27.8,"pm2_5":13.6,"mosquito_risk":7,"arthritis_risk":5,"migraine_risk":4,"frizz_risk":1,"updated_at":"2026-03-30T05:07:09.531863+05:30"},{"city":"Bangalore","state":"Karnataka","latitude":12.9716,"longitude":77.5946,"temp":21.8,"humidity":82,"rain":0.0,"pressure":910.1,"uv_index":9.45,"wind_gusts":36.4,"aqi":132,"pm10":65.9,"pm2_5":59.0,"mosquito_risk":3,"arthritis_risk":5,"migraine_risk":7,"frizz_risk":1,"updated_at":"2026-03-30T05:07:09.531880+05:30"},{"city":"Hyderabad","state":"Telangana","latitude":17.385,"longitude":78.4867,"temp":26.0,"humidity":62,"rain":0.0,"pressure":951.0,"uv_index":8.3,"wind_gusts":25.2,"aqi":87,"pm10":58.2,"pm2_5":49.5,"mosquito_risk":7,"arthritis_risk":5,"migraine_risk":7,"frizz_risk":1,"updated_at":"2026-03-30T05:07:09.531890+05:30"},{"city":"Chennai","state":"Tamil Nadu","latitude":13.0827,"longitude":80.2707,"temp":26.7,"humidity":90,"rain":0.0,"pressure":1006.2,"uv_index":9.3,"wind_gusts":32.8,"aqi":57,"pm10":18.5,"pm2_5":13.2,"mosquito_risk":7,"arthritis_risk":5,"migraine_risk":4,"frizz_risk":1,"updated_at":"2026-03-30T05:07:09.531900+05:30"},{"city":"Kolkata","state":"West Bengal","latitude":22.5726,"longitude":88.3639,"temp":25.1,"humidity":95,"rain":0.0,"pressure":1006.3,"uv_index":8.5,"wind_gusts":26.6,"aqi":118,"pm10":39.5,"pm2_5":33.8,"mosquito_risk":7,"arthritis_risk":5,"migraine_risk":4,"frizz_risk":1,"updated_at":"2026-03-30T05:07:09.531908+05:30"},{"city":"Pune","state":"Maharashtra","latitude":18.5204,"longitude":73.8567,"temp":21.8,"humidity":100,"rain":0.0,"pressure":946.5,"uv_index":8.55,"wind_gusts":41.0,"aqi":70,"pm10":39.7,"pm2_5":33.2,"mosquito_risk":3,"arthritis_risk":5,"migraine_risk":7,"frizz_risk":1,"updated_at":"2026-03-30T05:07:09.531920+05:30"},{"city":"Ahmedabad","state":"Gujarat","latitude":23.0225,"longitude":72.5714,"temp":26.0,"humidity":76,"rain":0.0,"pressure":1001.4,"uv_index":8.0,"wind_gusts":25.9,"aqi":51,"pm10":38.1,"pm2_5":16.7,"mosquito_risk":7,"arthritis_risk":5,"migraine_risk":4,"frizz_risk":1,"updated_at":"2026-03-30T05:07:09.531928+05:30"},{"city":"Jaipur","state":"Rajasthan","latitude":26.9124,"longitude":75.7873,"temp":23.2,"humidity":60,"rain":0.0,"pressure":957.9,"uv_index":5.2,"wind_gusts":43.6,"aqi":103,"pm10":105.0,"pm2_5":19.8,"mosquito_risk":0,"arthritis_risk":5,"migraine_risk":3,"frizz_risk":0,"updated_at":"2026-03-30T05:07:09.531937+05:30"},{"city":"Lucknow","state":"Uttar Pradesh","latitude":26.8467,"longitude":80.9462,"temp":23.6,"humidity":64,"rain":0.0,"pressure":992.1,"uv_index":7.3,"wind_gusts":20.2,"aqi":112,"pm10":80.3,"pm2_5":44.8,"mosquito_risk":3,"arthritis_risk":5,"migraine_risk":7,"frizz_risk":1,"updated_at":"2026-03-30T05:07:09.531945+05:30"},{"city":"Kanpur","state":"Uttar Pradesh","latitude":26.4499,"longitude":80.3319,"temp":22.6,"humidity":70,"rain":0.0,"pressure":989.9,"uv_index":7.3,"wind_gusts":27.7,"aqi":101,"pm10":66.1,"pm2_5":32.9,"mosquito_risk":3,"arthritis_risk":5,"migraine_risk":7,"frizz_risk":1,"updated_at":"2026-03-30T05:07:09.531953+05:30"},{"city":"Chandigarh","state":"Chandigarh","latitude":30.7333,"longitude":76.7794,"temp":20.3,"humidity":77,"rain":0.0,"pressure":966.9,"uv_index":5.85,"wind_gusts":28.4,"aqi":85,"pm10":26.5,"pm2_5":19.5,"mosquito_risk":3,"arthritis_risk":5,"migraine_risk":3,"frizz_risk":1,"updated_at":"2026-03-30T05:07:09.531961+05:30"},{"city":"Srinagar","state":"Jammu and Kashmir","latitude":34.0837,"longitude":74.7973,"temp":10.3,"humidity":82,"rain":0.0,"pressure":838.8,"uv_index":6.25,"wind_gusts":29.9,"aqi":78,"pm10":40.4,"pm2_5":35.3,"mosquito_risk":3,"arthritis_risk":10,"migraine_risk":7,"frizz_risk":0,"updated_at":"2026-03-30T05:07:09.531968+05:30"},{"city":"Jammu","state":"Jammu and Kashmir","latitude":32.7266,"longitude":74.857,"temp":19.8,"humidity":77,"rain":0.0,"pressure":970.9,"uv_index":5.45,"wind_gusts":40.0,"aqi":81,"pm10":16.6,"pm2_5":14.6,"mosquito_risk":3,"arthritis_risk":5,"migraine_risk":3,"frizz_risk":0,"updated_at":"2026-03-30T05:07:09.531976+05:30"},{"city":"Amritsar","state":"Punjab","latitude":31.634,"longitude":74.8723,"temp":19.3,"humidity":83,"rain":0.0,"pressure":979.2,"uv_index":5.05,"wind_gusts":36.4,"aqi":91,"pm10":44.1,"pm2_5":31.7,"mosquito_risk":3,"arthritis_risk":10,"migraine_risk":3,"frizz_risk":1,"updated_at":"2026-03-30T05:07:09.531983+05:30"},{"city":"Ludhiana","state":"Punjab","latitude":30.901,"longitude":75.8573,"temp":21.6,"humidity":82,"rain":0.0,"pressure":976.6,"uv_index":5.5,"wind_gusts":37.4,"aqi":126,"pm10":66.6,"pm2_5":49.7,"mosquito_risk":3,"arthritis_risk":5,"migraine_risk":3,"frizz_risk":1,"updated_at":"2026-03-30T05:07:09.531992+05:30"},{"city":"Jalandhar","state":"Punjab","latitude":31.326,"longitude":75.5762,"temp":20.2,"humidity":81,"rain":0.0,"pressure":978.4,"uv_index":4.9,"wind_gusts":37.8,"aqi":108,"pm10":69.6,"pm2_5":41.9,"mosquito_risk":3,"arthritis_risk":5,"migraine_risk":3,"frizz_risk":1,"updated_at":"2026-03-30T05:07:09.532001+05:30"},{"city":"Dehradun","state":"Uttarakhand","latitude":30.6284,"longitude":78.0322,"temp":13.9,"humidity":62,"rain":0.0,"pressure":828.4,"uv_index":6.95,"wind_gusts":35.3,"aqi":52,"pm10":5.9,"pm2_5":5.3,"mosquito_risk":3,"arthritis_risk":5,"migraine_risk":7,"frizz_risk":0,"updated_at":"2026-03-30T05:07:09.532008+05:30"},{"city":"Shimla","state":"Himachal Pradesh","latitude":31.1048,"longitude":77.1734,"temp":12.5,"humidity":56,"rain":0.0,"pressure":782.2,"uv_index":6.45,"wind_gusts":27.0,"aqi":64,"pm10":9.3,"pm2_5":8.8,"mosquito_risk":0,"arthritis_risk":5,"migraine_risk":7,"frizz_risk":0,"updated_at":"2026-03-30T05:07:09.532015+05:30"},{"city":"Manali","state":"Himachal Pradesh","latitude":32.2396,"longitude":77.1887,"temp":14.9,"humidity":35,"rain":0.0,"pressure":818.0,"uv_index":8.15,"wind_gusts":33.5,"aqi":37,"pm10":3.2,"pm2_5":2.2,"mosquito_risk":0,"arthritis_risk":5,"migraine_risk":7,"frizz_risk":1,"updated_at":"2026-03-30T05:07:09.532022+05:30"},{"city":"Gurgaon","state":"Haryana","latitude":28.4595,"longitude":77.0266,"temp":21.3,"humidity":80,"rain":0.0,"pressure":979.0,"uv_index":6.05,"wind_gusts":41.8,"aqi":855,"pm10":810.3,"pm2_5":153.7,"mosquito_risk":3,"arthritis_risk":5,"migraine_risk":7,"frizz_risk":1,"updated_at":"2026-03-30T05:07:09.532030+05:30"},{"city":"Noida","state":"Uttar Pradesh","latitude":28.5355,"longitude":77.391,"temp":22.3,"humidity":77,"rain":0.0,"pressure":982.5,"uv_index":6.2,"wind_gusts":39.2,"aqi":855,"pm10":810.3,"pm2_5":153.7,"mosquito_risk":3,"arthritis_risk":5,"migraine_risk":7,"frizz_risk":1,"updated_at":"2026-03-30T05:07:09.532037+05:30"},{"city":"Ghaziabad","state":"Uttar Pradesh","latitude":28.6692,"longitude":77.4538,"temp":21.9,"humidity":76,"rain":0.0,"pressure":980.6,"uv_index":5.15,"wind_gusts":34.2,"aqi":150,"pm10":145.8,"pm2_5":61.0,"mosquito_risk":3,"arthritis_risk":5,"migraine_risk":3,"frizz_risk":1,"updated_at":"2026-03-30T05:07:09.532045+05:30"},{"city":"Faridabad","state":"Haryana","latitude":28.4089,"longitude":77.3178,"temp":21.8,"humidity":78,"rain":0.0,"pressure":981.5,"uv_index":6.0,"wind_gusts":41.0,"aqi":855,"pm10":810.3,"pm2_5":153.7,"mosquito_risk":3,"arthritis_risk":5,"migraine_risk":3,"frizz_risk":1,"updated_at":"2026-03-30T05:07:09.532052+05:30"},{"city":"Meerut","state":"Uttar Pradesh","latitude":28.9845,"longitude":77.7064,"temp":22.2,"humidity":72,"rain":0.0,"pressure":979.4,"uv_index":6.2,"wind_gusts":30.6,"aqi":150,"pm10":145.8,"pm2_5":61.0,"mosquito_risk":3,"arthritis_risk":5,"migraine_risk":7,"frizz_risk":1,"updated_at":"2026-03-30T05:07:09.532059+05:30"},{"city":"Agra","state":"Uttar Pradesh","latitude":27.1767,"longitude":78.0081,"temp":22.2,"humidity":77,"rain":0.0,"pressure":985.6,"uv_index":6.45,"wind_gusts":43.9,"aqi":208,"pm10":285.0,"pm2_5":59.5,"mosquito_risk":3,"arthritis_risk":5,"migraine_risk":7,"frizz_risk":1,"updated_at":"2026-03-30T05:07:09.532066+05:30"},{"city":"Varanasi","state":"Uttar Pradesh","latitude":25.3176,"longitude":82.9739,"temp":21.6,"humidity":88,"rain":0.0,"pressure":996.3,"uv_index":7.95,"wind_gusts":24.8,"aqi":95,"pm10":77.3,"pm2_5":48.1,"mosquito_risk":3,"arthritis_risk":5,"migraine_risk":7,"frizz_risk":1,"updated_at":"2026-03-30T05:07:09.532075+05:30"},{"city":"Prayagraj","state":"Uttar Pradesh","latitude":25.4358,"longitude":81.8463,"temp":22.0,"humidity":73,"rain":0.0,"pressure":994.6,"uv_index":7.85,"wind_gusts":20.2,"aqi":97,"pm10":70.8,"pm2_5":49.1,"mosquito_risk":3,"arthritis_risk":5,"migraine_risk":7,"frizz_risk":1,"updated_at":"2026-03-30T05:07:09.532083+05:30"},{"city":"Gorakhpur","state":"Uttar Pradesh","latitude":26.7606,"longitude":83.3732,"temp":21.2,"humidity":89,"rain":0.0,"pressure":997.2,"uv_index":7.7,"wind_gusts":27.7,"aqi":137,"pm10":77.5,"pm2_5":63.8,"mosquito_risk":3,"arthritis_risk":5,"migraine_risk":7,"frizz_risk":1,"updated_at":"2026-03-30T05:07:09.532089+05:30"},{"city":"Bareilly","state":"Uttar Pradesh","latitude":28.367,"longitude":79.4304,"temp":22.0,"humidity":83,"rain":0.0,"pressure":985.4,"uv_index":6.55,"wind_gusts":23.4,"aqi":100,"pm10":59.5,"pm2_5":37.3,"mosquito_risk":3,"arthritis_risk":5,"migraine_risk":7,"frizz_risk":1,"updated_at":"2026-03-30T05:07:09.532095+05:30"},{"city":"Aligarh","state":"Uttar Pradesh","latitude":27.8974,"longitude":78.088,"temp":21.3,"humidity":78,"rain":0.0,"pressure":983.3,"uv_index":6.3,"wind_gusts":36.0,"aqi":248,"pm10":367.9,"pm2_5":81.0,"mosquito_risk":3,"arthritis_risk":5,"migraine_risk":7,"frizz_risk":1,"updated_at":"2026-03-30T05:07:09.532105+05:30"},{"city":"Moradabad","state":"Uttar Pradesh","latitude":28.8386,"longitude":78.7733,"temp":22.3,"humidity":77,"rain":0.0,"pressure":982.0,"uv_index":6.8,"wind_gusts":24.8,"aqi":136,"pm10":89.6,"pm2_5":55.5,"mosquito_risk":3,"arthritis_risk":5,"migraine_risk":7,"frizz_risk":1,"updated_at":"2026-03-30T05:07:09.532111+05:30"},{"city":"Saharanpur","state":"Uttar Pradesh","latitude":29.9637,"longitude":77.546,"temp":20.8,"humidity":77,"rain":0.0,"pressure":973.7,"uv_index":6.4,"wind_gusts":25.6,"aqi":91,"pm10":29.2,"pm2_5":23.8,"mosquito_risk":3,"arthritis_risk":5,"migraine_risk":7,"frizz_risk":1,"updated_at":"2026-03-30T05:07:09.532117+05:30"},{"city":"Jhansi","state":"Uttar Pradesh","latitude":25.4484,"longitude":78.5685,"temp":24.3,"humidity":58,"rain":0.0,"pressure":975.8,"uv_index":7.15,"wind_gusts":37.1,"aqi":59,"pm10":10.0,"pm2_5":4.5,"mosquito_risk":0,"arthritis_risk":5,"migraine_risk":7,"frizz_risk":0,"updated_at":"2026-03-30T05:07:12.757972+05:30"},{"city":"Surat","state":"Gujarat","latitude":21.1702,"longitude":72.8311,"temp":26.4,"humidity":94,"rain":0.0,"pressure":1005.5,"uv_index":7.8,"wind_gusts":26.3,"aqi":80,"pm10":43.4,"pm2_5":36.7,"mosquito_risk":7,"arthritis_risk":5,"migraine_risk":4,"frizz_risk":1,"updated_at":"2026-03-30T05:07:12.758002+05:30"},{"city":"Vadodara","state":"Gujarat","latitude":22.3072,"longitude":73.1812,"temp":27.0,"humidity":85,"rain":0.0,"pressure":1003.4,"uv_index":8.0,"wind_gusts":25.6,"aqi":62,"pm10":40.5,"pm2_5":27.8,"mosquito_risk":7,"arthritis_risk":5,"migraine_risk":4,"frizz_risk":1,"updated_at":"2026-03-30T05:07:12.758012+05:30"},{"city":"Rajkot","state":"Gujarat","latitude":22.3039,"longitude":70.8022,"temp":24.5,"humidity":90,"rain":0.0,"pressure":993.5,"uv_index":7.75,"wind_gusts":36.4,"aqi":55,"pm10":51.5,"pm2_5":16.1,"mosquito_risk":3,"arthritis_risk":5,"migraine_risk":7,"frizz_risk":1,"updated_at":"2026-03-30T05:07:12.758019+05:30"},{"city":"Thane","state":"Maharashtra","latitude":19.2183,"longitude":72.9781,"temp":26.0,"humidity":87,"rain":0.0,"pressure":1006.5,"uv_index":8.0,"wind_gusts":36.4,"aqi":55,"pm10":27.8,"pm2_5":13.6,"mosquito_risk":7,"arthritis_risk":5,"migraine_risk":4,"frizz_risk":1,"updated_at":"2026-03-30T05:07:12.758026+05:30"},{"city":"Nagpur","state":"Maharashtra","latitude":21.1458,"longitude":79.0882,"temp":25.7,"humidity":61,"rain":0.0,"pressure":971.1,"uv_index":8.55,"wind_gusts":33.1,"aqi":63,"pm10":22.6,"pm2_5":19.2,"mosquito_risk":7,"arthritis_risk":5,"migraine_risk":7,"frizz_risk":1,"updated_at":"2026-03-30T05:07:12.758033+05:30"},{"city":"Nashik","state":"Maharashtra","latitude":19.9975,"longitude":73.7898,"temp":20.9,"humidity":78,"rain":0.0,"pressure":943.9,"uv_index":8.25,"wind_gusts":33.1,"aqi":37,"pm10":21.9,"pm2_5":13.4,"mosquito_risk":3,"arthritis_risk":5,"migraine_risk":7,"frizz_risk":1,"updated_at":"2026-03-30T05:07:12.758039+05:30"},{"city":"Aurangabad","state":"Maharashtra","latitude":19.8762,"longitude":75.3433,"temp":24.6,"humidity":60,"rain":0.0,"pressure":942.4,"uv_index":8.75,"wind_gusts":42.1,"aqi":41,"pm10":18.9,"pm2_5":17.6,"mosquito_risk":0,"arthritis_risk":5,"migraine_risk":7,"frizz_risk":1,"updated_at":"2026-03-30T05:07:12.758046+05:30"},{"city":"Solapur","state":"Maharashtra","latitude":17.6599,"longitude":75.9064,"temp":25.8,"humidity":63,"rain":0.0,"pressure":955.0,"uv_index":8.9,"wind_gusts":26.3,"aqi":57,"pm10":21.7,"pm2_5":20.5,"mosquito_risk":7,"arthritis_risk":5,"migraine_risk":7,"frizz_risk":1,"updated_at":"2026-03-30T05:07:12.758053+05:30"},{"city":"Kolhapur","state":"Maharashtra","latitude":16.705,"longitude":74.2433,"temp":20.6,"humidity":97,"rain":0.0,"pressure":945.3,"uv_index":7.75,"wind_gusts":47.9,"aqi":67,"pm10":21.2,"pm2_5":20.3,"mosquito_risk":3,"arthritis_risk":5,"migraine_risk":7,"frizz_risk":1,"updated_at":"2026-03-30T05:07:12.758060+05:30"},{"city":"Goa","state":"Goa","latitude":15.2993,"longitude":74.124,"temp":26.3,"humidity":86,"rain":0.0,"pressure":995.4,"uv_index":8.9,"wind_gusts":29.9,"aqi":63,"pm10":16.6,"pm2_5":13.2,"mosquito_risk":7,"arthritis_risk":5,"migraine_risk":7,"frizz_risk":1,"updated_at":"2026-03-30T05:07:12.758067+05:30"},{"city":"Jodhpur","state":"Rajasthan","latitude":26.2389,"longitude":73.0243,"temp":25.5,"humidity":64,"rain":0.0,"pressure":981.3,"uv_index":7.8,"wind_gusts":37.1,"aqi":134,"pm10":196.0,"pm2_5":31.7,"mosquito_risk":7,"arthritis_risk":5,"migraine_risk":7,"frizz_risk":1,"updated_at":"2026-03-30T05:07:12.758074+05:30"},{"city":"Udaipur","state":"Rajasthan","latitude":24.5854,"longitude":73.7125,"temp":23.4,"humidity":68,"rain":0.0,"pressure":945.2,"uv_index":8.1,"wind_gusts":40.0,"aqi":36,"pm10":32.5,"pm2_5":12.2,"mosquito_risk":3,"arthritis_risk":5,"migraine_risk":7,"frizz_risk":1,"updated_at":"2026-03-30T05:07:12.758081+05:30"},{"city":"Kota","state":"Rajasthan","latitude":25.2138,"longitude":75.8648,"temp":24.5,"humidity":57,"rain":0.0,"pressure":977.0,"uv_index":6.9,"wind_gusts":34.2,"aqi":36,"pm10":16.1,"pm2_5":7.9,"mosquito_risk":0,"arthritis_risk":5,"migraine_risk":7,"frizz_risk":0,"updated_at":"2026-03-30T05:07:12.758088+05:30"},{"city":"Bikaner","state":"Rajasthan","latitude":28.0229,"longitude":73.3119,"temp":25.8,"humidity":43,"rain":0.0,"pressure":979.1,"uv_index":5.15,"wind_gusts":51.5,"aqi":124,"pm10":202.1,"pm2_5":58.9,"mosquito_risk":4,"arthritis_risk":5,"migraine_risk":3,"frizz_risk":0,"updated_at":"2026-03-30T05:07:12.758095+05:30"},{"city":"Ajmer","state":"Rajasthan","latitude":26.4499,"longitude":74.6399,"temp":24.2,"humidity":66,"rain":0.0,"pressure":952.9,"uv_index":7.25,"wind_gusts":41.4,"aqi":44,"pm10":29.1,"pm2_5":11.3,"mosquito_risk":3,"arthritis_risk":5,"migraine_risk":7,"frizz_risk":1,"updated_at":"2026-03-30T05:07:12.758101+05:30"},{"city":"Gwalior","state":"Madhya Pradesh","latitude":26.2183,"longitude":78.1828,"temp":24.2,"humidity":56,"rain":0.0,"pressure":981.2,"uv_index":6.4,"wind_gusts":39.2,"aqi":61,"pm10":51.3,"pm2_5":11.1,"mosquito_risk":0,"arthritis_risk":5,"migraine_risk":7,"frizz_risk":0,"updated_at":"2026-03-30T05:07:12.758107+05:30"},{"city":"Indore","state":"Madhya Pradesh","latitude":22.7196,"longitude":75.8577,"temp":22.5,"humidity":73,"rain":0.0,"pressure":946.5,"uv_index":7.75,"wind_gusts":25.6,"aqi":44,"pm10":24.9,"pm2_5":13.9,"mosquito_risk":3,"arthritis_risk":5,"migraine_risk":7,"frizz_risk":1,"updated_at":"2026-03-30T05:07:12.758114+05:30"},{"city":"Bhopal","state":"Madhya Pradesh","latitude":23.2599,"longitude":77.4126,"temp":23.3,"humidity":64,"rain":0.0,"pressure":952.2,"uv_index":8.2,"wind_gusts":31.3,"aqi":29,"pm10":13.2,"pm2_5":8.6,"mosquito_risk":3,"arthritis_risk":5,"migraine_risk":7,"frizz_risk":1,"updated_at":"2026-03-30T05:07:12.758120+05:30"},{"city":"Jabalpur","state":"Madhya Pradesh","latitude":23.1815,"longitude":79.9864,"temp":22.9,"humidity":74,"rain":0.0,"pressure":959.2,"uv_index":8.35,"wind_gusts":35.3,"aqi":51,"pm10":19.8,"pm2_5":15.9,"mosquito_risk":3,"arthritis_risk":5,"migraine_risk":7,"frizz_risk":1,"updated_at":"2026-03-30T05:07:12.758127+05:30"},{"city":"Ujjain","state":"Madhya Pradesh","latitude":23.1765,"longitude":75.7885,"temp":22.8,"humidity":73,"rain":0.0,"pressure":952.2,"uv_index":7.75,"wind_gusts":23.4,"aqi":44,"pm10":24.0,"pm2_5":13.8,"mosquito_risk":3,"arthritis_risk":5,"migraine_risk":7,"frizz_risk":1,"updated_at":"2026-03-30T05:07:12.758134+05:30"},{"city":"Visakhapatnam","state":"Andhra Pradesh","latitude":17.6868,"longitude":83.2185,"temp":26.5,"humidity":89,"rain":0.0,"pressure":1002.5,"uv_index":9.0,"wind_gusts":38.9,"aqi":65,"pm10":22.6,"pm2_5":17.5,"mosquito_risk":7,"arthritis_risk":5,"migraine_risk":4,"frizz_risk":1,"updated_at":"2026-03-30T05:07:12.758140+05:30"},{"city":"Vijayawada","state":"Andhra Pradesh","latitude":16.5062,"longitude":80.648,"temp":26.4,"humidity":93,"rain":0.0,"pressure":1001.2,"uv_index":9.1,"wind_gusts":30.6,"aqi":79,"pm10":20.5,"pm2_5":16.5,"mosquito_risk":7,"arthritis_risk":5,"migraine_risk":4,"frizz_risk":1,"updated_at":"2026-03-30T05:07:12.758147+05:30"},{"city":"Guntur","state":"Andhra Pradesh","latitude":16.3067,"longitude":80.4365,"temp":26.4,"humidity":93,"rain":0.0,"pressure":1002.3,"uv_index":9.1,"wind_gusts":33.1,"aqi":89,"pm10":20.0,"pm2_5":16.6,"mosquito_risk":7,"arthritis_risk":5,"migraine_risk":4,"frizz_risk":1,"updated_at":"2026-03-30T05:07:12.758154+05:30"},{"city":"Nellore","state":"Andhra Pradesh","latitude":14.4426,"longitude":79.9865,"temp":25.7,"humidity":92,"rain":0.0,"pressure":1004.2,"uv_index":9.25,"wind_gusts":29.2,"aqi":70,"pm10":21.1,"pm2_5":17.8,"mosquito_risk":7,"arthritis_risk":5,"migraine_risk":4,"frizz_risk":1,"updated_at":"2026-03-30T05:07:12.758161+05:30"},{"city":"Kurnool","state":"Andhra Pradesh","latitude":15.8281,"longitude":78.0373,"temp":27.8,"humidity":67,"rain":0.0,"pressure":975.0,"uv_index":8.35,"wind_gusts":26.3,"aqi":100,"pm10":58.9,"pm2_5":51.3,"mosquito_risk":7,"arthritis_risk":5,"migraine_risk":7,"frizz_risk":1,"updated_at":"2026-03-30T05:07:12.758168+05:30"},{"city":"Kakinada","state":"Andhra Pradesh","latitude":16.9891,"longitude":82.2475,"temp":26.1,"humidity":93,"rain":0.0,"pressure":1006.3,"uv_index":9.05,"wind_gusts":30.6,"aqi":53,"pm10":22.2,"pm2_5":15.3,"mosquito_risk":7,"arthritis_risk":5,"migraine_risk":4,"frizz_risk":1,"updated_at":"2026-03-30T05:07:12.758174+05:30"},{"city":"Tirupati","state":"Andhra Pradesh","latitude":13.6288,"longitude":79.4192,"temp":24.8,"humidity":92,"rain":0.0,"pressure":990.7,"uv_index":9.35,"wind_gusts":32.0,"aqi":99,"pm10":31.0,"pm2_5":28.6,"mosquito_risk":3,"arthritis_risk":5,"migraine_risk":7,"frizz_risk":1,"updated_at":"2026-03-30T05:07:12.758180+05:30"},{"city":"Warangal","state":"Telangana","latitude":17.9689,"longitude":79.5941,"temp":25.6,"humidity":87,"rain":0.0,"pressure":976.4,"uv_index":8.9,"wind_gusts":30.6,"aqi":105,"pm10":51.1,"pm2_5":46.9,"mosquito_risk":7,"arthritis_risk":5,"migraine_risk":7,"frizz_risk":1,"updated_at":"2026-03-30T05:07:12.758186+05:30"},{"city":"Nizamabad","state":"Telangana","latitude":18.6725,"longitude":78.0941,"temp":25.8,"humidity":64,"rain":0.0,"pressure":962.7,"uv_index":8.85,"wind_gusts":41.0,"aqi":78,"pm10":51.1,"pm2_5":49.8,"mosquito_risk":7,"arthritis_risk":5,"migraine_risk":7,"frizz_risk":1,"updated_at":"2026-03-30T05:07:12.758193+05:30"},{"city":"Mysore","state":"Karnataka","latitude":12.2958,"longitude":76.6396,"temp":22.7,"humidity":89,"rain":0.0,"pressure":926.8,"uv_index":8.9,"wind_gusts":21.6,"aqi":130,"pm10":65.2,"pm2_5":58.2,"mosquito_risk":3,"arthritis_risk":5,"migraine_risk":7,"frizz_risk":1,"updated_at":"2026-03-30T05:07:12.758199+05:30"},{"city":"Mangalore","state":"Karnataka","latitude":12.9141,"longitude":74.856,"temp":29.2,"humidity":77,"rain":0.0,"pressure":1004.8,"uv_index":9.05,"wind_gusts":23.0,"aqi":74,"pm10":26.3,"pm2_5":20.3,"mosquito_risk":7,"arthritis_risk":5,"migraine_risk":4,"frizz_risk":1,"updated_at":"2026-03-30T05:07:12.758205+05:30"},{"city":"Hubli-Dharwad","state":"Karnataka","latitude":15.3647,"longitude":75.124,"temp":23.1,"humidity":84,"rain":0.0,"pressure":938.4,"uv_index":9.15,"wind_gusts":32.0,"aqi":68,"pm10":23.8,"pm2_5":16.5,"mosquito_risk":3,"arthritis_risk":5,"migraine_risk":7,"frizz_risk":1,"updated_at":"2026-03-30T05:07:12.758212+05:30"},{"city":"Belgaum","state":"Karnataka","latitude":15.8497,"longitude":74.4977,"temp":21.1,"humidity":86,"rain":0.0,"pressure":922.9,"uv_index":9.2,"wind_gusts":31.0,"aqi":57,"pm10":12.1,"pm2_5":11.6,"mosquito_risk":3,"arthritis_risk":5,"migraine_risk":7,"frizz_risk":1,"updated_at":"2026-03-30T05:07:15.982617+05:30"},{"city":"Coimbatore","state":"Tamil Nadu","latitude":11.0168,"longitude":76.9558,"temp":23.7,"humidity":87,"rain":0.0,"pressure":960.4,"uv_index":9.45,"wind_gusts":30.6,"aqi":100,"pm10":35.3,"pm2_5":31.3,"mosquito_risk":3,"arthritis_risk":5,"migraine_risk":7,"frizz_risk":1,"updated_at":"2026-03-30T05:07:15.982648+05:30"},{"city":"Madurai","state":"Tamil Nadu","latitude":9.9252,"longitude":78.1198,"temp":25.0,"humidity":90,"rain":0.0,"pressure":991.9,"uv_index":9.4,"wind_gusts":34.2,"aqi":79,"pm10":35.6,"pm2_5":34.3,"mosquito_risk":7,"arthritis_risk":5,"migraine_risk":7,"frizz_risk":1,"updated_at":"2026-03-30T05:07:15.982659+05:30"},{"city":"Trichy","state":"Tamil Nadu","latitude":10.7905,"longitude":78.7047,"temp":25.8,"humidity":94,"rain":0.0,"pressure":998.9,"uv_index":9.35,"wind_gusts":24.1,"aqi":76,"pm10":31.9,"pm2_5":28.3,"mosquito_risk":7,"arthritis_risk":5,"migraine_risk":7,"frizz_risk":1,"updated_at":"2026-03-30T05:07:15.982667+05:30"},{"city":"Salem","state":"Tamil Nadu","latitude":11.6643,"longitude":78.146,"temp":25.9,"humidity":80,"rain":0.0,"pressure":976.3,"uv_index":9.4,"wind_gusts":22.0,"aqi":88,"pm10":29.3,"pm2_5":26.9,"mosquito_risk":7,"arthritis_risk":5,"migraine_risk":7,"frizz_risk":1,"updated_at":"2026-03-30T05:07:15.982675+05:30"},{"city":"Tirunelveli","state":"Tamil Nadu","latitude":8.7139,"longitude":77.7567,"temp":25.1,"humidity":82,"rain":0.0,"pressure":1001.7,"uv_index":9.4,"wind_gusts":47.9,"aqi":74,"pm10":39.2,"pm2_5":37.1,"mosquito_risk":7,"arthritis_risk":5,"migraine_risk":4,"frizz_risk":1,"updated_at":"2026-03-30T05:07:15.982683+05:30"},{"city":"Vellore","state":"Tamil Nadu","latitude":12.9165,"longitude":79.1325,"temp":24.7,"humidity":92,"rain":0.0,"pressure":983.7,"uv_index":8.6,"wind_gusts":32.0,"aqi":106,"pm10":39.0,"pm2_5":36.4,"mosquito_risk":3,"arthritis_risk":5,"migraine_risk":7,"frizz_risk":1,"updated_at":"2026-03-30T05:07:15.982693+05:30"},{"city":"Erode","state":"Tamil Nadu","latitude":11.341,"longitude":77.7172,"temp":26.3,"humidity":83,"rain":0.0,"pressure":988.0,"uv_index":9.4,"wind_gusts":23.8,"aqi":88,"pm10":20.7,"pm2_5":19.2,"mosquito_risk":7,"arthritis_risk":5,"migraine_risk":7,"frizz_risk":1,"updated_at":"2026-03-30T05:07:15.982700+05:30"},{"city":"Kochi","state":"Kerala","latitude":9.9312,"longitude":76.2673,"temp":28.4,"humidity":82,"rain":0.0,"pressure":1006.7,"uv_index":9.2,"wind_gusts":26.3,"aqi":93,"pm10":40.9,"pm2_5":38.8,"mosquito_risk":7,"arthritis_risk":5,"migraine_risk":4,"frizz_risk":1,"updated_at":"2026-03-30T05:07:15.982708+05:30"},{"city":"Thiruvananthapuram","state":"Kerala","latitude":8.5241,"longitude":76.9366,"temp":28.2,"humidity":83,"rain":0.0,"pressure":1006.0,"uv_index":9.25,"wind_gusts":26.3,"aqi":73,"pm10":30.0,"pm2_5":24.6,"mosquito_risk":7,"arthritis_risk":5,"migraine_risk":4,"frizz_risk":1,"updated_at":"2026-03-30T05:07:15.982715+05:30"},{"city":"Kozhikode","state":"Kerala","latitude":11.2588,"longitude":75.7804,"temp":26.8,"humidity":90,"rain":0.1,"pressure":1006.2,"uv_index":6.6,"wind_gusts":22.3,"aqi":99,"pm10":51.0,"pm2_5":44.6,"mosquito_risk":10,"arthritis_risk":5,"migraine_risk":4,"frizz_risk":1,"updated_at":"2026-03-30T05:07:15.982722+05:30"},{"city":"Thrissur","state":"Kerala","latitude":10.5276,"longitude":76.2144,"temp":26.2,"humidity":90,"rain":0.0,"pressure":1005.1,"uv_index":9.15,"wind_gusts":27.7,"aqi":97,"pm10":39.1,"pm2_5":35.4,"mosquito_risk":7,"arthritis_risk":5,"migraine_risk":4,"frizz_risk":1,"updated_at":"2026-03-30T05:07:15.982731+05:30"},{"city":"Kannur","state":"Kerala","latitude":11.8745,"longitude":75.3704,"temp":27.4,"humidity":86,"rain":0.0,"pressure":1005.2,"uv_index":7.9,"wind_gusts":20.5,"aqi":102,"pm10":50.1,"pm2_5":46.0,"mosquito_risk":7,"arthritis_risk":5,"migraine_risk":4,"frizz_risk":1,"updated_at":"2026-03-30T05:07:15.982738+05:30"},{"city":"Patna","state":"Bihar","latitude":25.5941,"longitude":85.1376,"temp":22.0,"humidity":92,"rain":0.0,"pressure":1000.7,"uv_index":8.1,"wind_gusts":33.5,"aqi":143,"pm10":82.4,"pm2_5":75.2,"mosquito_risk":3,"arthritis_risk":5,"migraine_risk":4,"frizz_risk":1,"updated_at":"2026-03-30T05:07:15.982745+05:30"},{"city":"Gaya","state":"Bihar","latitude":24.7914,"longitude":85.0002,"temp":22.3,"humidity":90,"rain":0.0,"pressure":993.1,"uv_index":8.2,"wind_gusts":24.5,"aqi":111,"pm10":59.1,"pm2_5":52.0,"mosquito_risk":3,"arthritis_risk":5,"migraine_risk":7,"frizz_risk":1,"updated_at":"2026-03-30T05:07:15.982751+05:30"},{"city":"Muzaffarpur","state":"Bihar","latitude":26.1209,"longitude":85.3647,"temp":20.6,"humidity":93,"rain":0.0,"pressure":1001.2,"uv_index":8.1,"wind_gusts":35.6,"aqi":150,"pm10":83.1,"pm2_5":75.4,"mosquito_risk":3,"arthritis_risk":5,"migraine_risk":4,"frizz_risk":1,"updated_at":"2026-03-30T05:07:15.982758+05:30"},{"city":"Bhagalpur","state":"Bihar","latitude":25.2425,"longitude":87.0117,"temp":21.3,"humidity":97,"rain":0.0,"pressure":1002.4,"uv_index":8.1,"wind_gusts":22.3,"aqi":153,"pm10":84.3,"pm2_5":74.5,"mosquito_risk":3,"arthritis_risk":5,"migraine_risk":4,"frizz_risk":1,"updated_at":"2026-03-30T05:07:15.982764+05:30"},{"city":"Ranchi","state":"Jharkhand","latitude":23.3441,"longitude":85.3096,"temp":22.3,"humidity":93,"rain":0.0,"pressure":937.0,"uv_index":8.7,"wind_gusts":28.8,"aqi":96,"pm10":70.3,"pm2_5":51.7,"mosquito_risk":3,"arthritis_risk":5,"migraine_risk":7,"frizz_risk":1,"updated_at":"2026-03-30T05:07:15.982771+05:30"},{"city":"Jamshedpur","state":"Jharkhand","latitude":22.8046,"longitude":86.2029,"temp":24.9,"humidity":89,"rain":0.0,"pressure":990.8,"uv_index":8.6,"wind_gusts":28.1,"aqi":133,"pm10":52.6,"pm2_5":46.8,"mosquito_risk":3,"arthritis_risk":5,"migraine_risk":7,"frizz_risk":1,"updated_at":"2026-03-30T05:07:15.982777+05:30"},{"city":"Dhanbad","state":"Jharkhand","latitude":23.7957,"longitude":86.4304,"temp":24.3,"humidity":83,"rain":0.0,"pressure":979.9,"uv_index":8.55,"wind_gusts":23.4,"aqi":161,"pm10":113.9,"pm2_5":107.8,"mosquito_risk":3,"arthritis_risk":5,"migraine_risk":7,"frizz_risk":1,"updated_at":"2026-03-30T05:07:15.982784+05:30"},{"city":"Bokaro","state":"Jharkhand","latitude":23.6693,"longitude":86.1511,"temp":23.8,"humidity":86,"rain":0.0,"pressure":984.0,"uv_index":8.55,"wind_gusts":28.4,"aqi":157,"pm10":111.1,"pm2_5":102.0,"mosquito_risk":3,"arthritis_risk":5,"migraine_risk":7,"frizz_risk":1,"updated_at":"2026-03-30T05:07:15.982791+05:30"},{"city":"Bhubaneswar","state":"Odisha","latitude":20.2961,"longitude":85.8245,"temp":26.1,"humidity":87,"rain":0.0,"pressure":1001.7,"uv_index":8.8,"wind_gusts":38.2,"aqi":77,"pm10":24.4,"pm2_5":19.2,"mosquito_risk":7,"arthritis_risk":5,"migraine_risk":4,"frizz_risk":1,"updated_at":"2026-03-30T05:07:15.982797+05:30"},{"city":"Cuttack","state":"Odisha","latitude":20.4625,"longitude":85.8828,"temp":26.1,"humidity":88,"rain":0.0,"pressure":1003.8,"uv_index":8.85,"wind_gusts":34.2,"aqi":77,"pm10":24.4,"pm2_5":19.2,"mosquito_risk":7,"arthritis_risk":5,"migraine_risk":4,"frizz_risk":1,"updated_at":"2026-03-30T05:07:15.982804+05:30"},{"city":"Rourkela","state":"Odisha","latitude":22.2604,"longitude":84.8536,"temp":26.2,"humidity":83,"rain":0.0,"pressure":984.0,"uv_index":8.5,"wind_gusts":37.1,"aqi":122,"pm10":41.6,"pm2_5":32.5,"mosquito_risk":7,"arthritis_risk":5,"migraine_risk":7,"frizz_risk":1,"updated_at":"2026-03-30T05:07:15.982811+05:30"},{"city":"Raipur","state":"Chhattisgarh","latitude":21.2514,"longitude":81.6296,"temp":27.2,"humidity":47,"rain":0.0,"pressure":972.2,"uv_index":8.6,"wind_gusts":25.2,"aqi":106,"pm10":38.1,"pm2_5":32.9,"mosquito_risk":4,"arthritis_risk":5,"migraine_risk":7,"frizz_risk":0,"updated_at":"2026-03-30T05:07:15.982817+05:30"},{"city":"Bhilai","state":"Chhattisgarh","latitude":21.1938,"longitude":81.3509,"temp":26.0,"humidity":54,"rain":0.0,"pressure":972.4,"uv_index":8.65,"wind_gusts":22.0,"aqi":78,"pm10":28.1,"pm2_5":22.5,"mosquito_risk":4,"arthritis_risk":5,"migraine_risk":7,"frizz_risk":0,"updated_at":"2026-03-30T05:07:15.982824+05:30"},{"city":"Guwahati","state":"Assam","latitude":26.1158,"longitude":91.7086,"temp":20.9,"humidity":94,"rain":0.0,"pressure":1003.5,"uv_index":7.55,"wind_gusts":19.4,"aqi":92,"pm10":40.6,"pm2_5":34.1,"mosquito_risk":3,"arthritis_risk":5,"migraine_risk":4,"frizz_risk":1,"updated_at":"2026-03-30T05:07:15.982831+05:30"},{"city":"Agartala","state":"Tripura","latitude":23.8315,"longitude":91.2868,"temp":22.4,"humidity":92,"rain":0.0,"pressure":1007.0,"uv_index":8.25,"wind_gusts":30.2,"aqi":145,"pm10":54.2,"pm2_5":48.8,"mosquito_risk":3,"arthritis_risk":5,"migraine_risk":4,"frizz_risk":1,"updated_at":"2026-03-30T05:07:15.982838+05:30"},{"city":"Shillong","state":"Meghalaya","latitude":25.5788,"longitude":91.8933,"temp":10.8,"humidity":94,"rain":0.0,"pressure":853.9,"uv_index":6.6,"wind_gusts":40.7,"aqi":80,"pm10":55.2,"pm2_5":39.3,"mosquito_risk":3,"arthritis_risk":10,"migraine_risk":7,"frizz_risk":0,"updated_at":"2026-03-30T05:07:15.982844+05:30"},{"city":"Imphal","state":"Manipur","latitude":24.817,"longitude":93.9368,"temp":15.6,"humidity":89,"rain":0.0,"pressure":922.9,"uv_index":7.95,"wind_gusts":62.6,"aqi":152,"pm10":106.4,"pm2_5":85.4,"mosquito_risk":3,"arthritis_risk":10,"migraine_risk":7,"frizz_risk":0,"updated_at":"2026-03-30T05:07:15.982851+05:30"},{"city":"Aizawl","state":"Mizoram","latitude":23.7271,"longitude":92.7176,"temp":16.1,"humidity":95,"rain":0.0,"pressure":892.0,"uv_index":8.45,"wind_gusts":58.3,"aqi":151,"pm10":64.0,"pm2_5":54.1,"mosquito_risk":3,"arthritis_risk":10,"migraine_risk":7,"frizz_risk":0,"updated_at":"2026-03-30T05:07:15.982858+05:30"},{"city":"Kohima","state":"Nagaland","latitude":25.6701,"longitude":94.1077,"temp":12.2,"humidity":80,"rain":0.0,"pressure":853.2,"uv_index":8.5,"wind_gusts":76.3,"aqi":122,"pm10":82.4,"pm2_5":62.6,"mosquito_risk":3,"arthritis_risk":5,"migraine_risk":7,"frizz_risk":0,"updated_at":"2026-03-30T05:07:15.982864+05:30"},{"city":"Gangtok","state":"Sikkim","latitude":27.3314,"longitude":88.6138,"temp":11.4,"humidity":90,"rain":0.0,"pressure":834.8,"uv_index":8.25,"wind_gusts":18.0,"aqi":82,"pm10":52.2,"pm2_5":41.8,"mosquito_risk":3,"arthritis_risk":10,"migraine_risk":7,"frizz_risk":0,"updated_at":"2026-03-30T05:07:15.982871+05:30"},{"city":"Siliguri","state":"West Bengal","latitude":26.7271,"longitude":88.3953,"temp":17.8,"humidity":80,"rain":0.0,"pressure":995.5,"uv_index":7.7,"wind_gusts":17.3,"aqi":150,"pm10":109.7,"pm2_5":80.1,"mosquito_risk":3,"arthritis_risk":5,"migraine_risk":7,"frizz_risk":0,"updated_at":"2026-03-30T05:07:19.209303+05:30"},{"city":"Durgapur","state":"West Bengal","latitude":23.5204,"longitude":87.3119,"temp":24.0,"humidity":90,"rain":0.0,"pressure":995.4,"uv_index":8.5,"wind_gusts":23.8,"aqi":161,"pm10":85.9,"pm2_5":81.5,"mosquito_risk":3,"arthritis_risk":5,"migraine_risk":7,"frizz_risk":1,"updated_at":"2026-03-30T05:07:19.209338+05:30"},{"city":"Asansol","state":"West Bengal","latitude":23.6739,"longitude":86.9524,"temp":24.4,"humidity":88,"rain":0.0,"pressure":993.9,"uv_index":8.5,"wind_gusts":24.1,"aqi":158,"pm10":90.3,"pm2_5":85.4,"mosquito_risk":3,"arthritis_risk":5,"migraine_risk":7,"frizz_risk":1,"updated_at":"2026-03-30T05:07:19.209350+05:30"},{"city":"Pondicherry","state":"Puducherry","latitude":11.9139,"longitude":79.8145,"temp":25.5,"humidity":96,"rain":0.0,"pressure":1007.7,"uv_index":9.25,"wind_gusts":28.4,"aqi":54,"pm10":16.5,"pm2_5":11.9,"mosquito_risk":7,"arthritis_risk":5,"migraine_risk":4,"frizz_risk":1,"updated_at":"2026-03-30T05:07:19.209359+05:30"},{"city":"Port Blair","state":"Andaman and Nicobar Islands","latitude":11.6234,"longitude":92.7265,"temp":28.2,"humidity":76,"rain":0.0,"pressure":1006.2,"uv_index":9.2,"wind_gusts":15.1,"aqi":70,"pm10":27.1,"pm2_5":21.6,"mosquito_risk":7,"arthritis_risk":5,"migraine_risk":4,"frizz_risk":1,"updated_at":"2026-03-30T05:07:19.209369+05:30"},{"city":"Haridwar","state":"Uttarakhand","latitude":29.9457,"longitude":78.1642,"temp":21.3,"humidity":69,"rain":0.0,"pressure":972.8,"uv_index":6.0,"wind_gusts":32.0,"aqi":79,"pm10":24.6,"pm2_5":18.0,"mosquito_risk":3,"arthritis_risk":5,"migraine_risk":3,"frizz_risk":0,"updated_at":"2026-03-30T05:07:19.209378+05:30"},{"city":"Rishikesh","state":"Uttarakhand","latitude":30.0869,"longitude":78.2676,"temp":21.1,"humidity":63,"rain":0.0,"pressure":965.6,"uv_index":5.9,"wind_gusts":29.5,"aqi":68,"pm10":26.1,"pm2_5":19.5,"mosquito_risk":3,"arthritis_risk":5,"migraine_risk":3,"frizz_risk":0,"updated_at":"2026-03-30T05:07:19.209387+05:30"},{"city":"Nainital","state":"Uttarakhand","latitude":29.3919,"longitude":79.4542,"temp":18.3,"humidity":49,"rain":0.0,"pressure":805.1,"uv_index":7.4,"wind_gusts":47.9,"aqi":73,"pm10":32.2,"pm2_5":18.6,"mosquito_risk":0,"arthritis_risk":5,"migraine_risk":7,"frizz_risk":0,"updated_at":"2026-03-30T05:07:19.209396+05:30"},{"city":"Mussoorie","state":"Uttarakhand","latitude":30.4599,"longitude":78.0664,"temp":16.8,"humidity":52,"rain":0.0,"pressure":801.6,"uv_index":6.95,"wind_gusts":41.0,"aqi":73,"pm10":15.5,"pm2_5":13.0,"mosquito_risk":0,"arthritis_risk":5,"migraine_risk":7,"frizz_risk":0,"updated_at":"2026-03-30T05:07:19.209405+05:30"},{"city":"Dharamshala","state":"Himachal Pradesh","latitude":32.219,"longitude":76.3234,"temp":19.7,"humidity":41,"rain":0.0,"pressure":867.4,"uv_index":5.2,"wind_gusts":35.3,"aqi":37,"pm10":3.4,"pm2_5":3.1,"mosquito_risk":0,"arthritis_risk":5,"migraine_risk":3,"frizz_risk":0,"updated_at":"2026-03-30T05:07:19.209413+05:30"},{"city":"Dalhousie","state":"Himachal Pradesh","latitude":32.5387,"longitude":75.971,"temp":15.7,"humidity":45,"rain":0.0,"pressure":801.3,"uv_index":6.05,"wind_gusts":38.9,"aqi":74,"pm10":20.0,"pm2_5":19.2,"mosquito_risk":0,"arthritis_risk":5,"migraine_risk":7,"frizz_risk":0,"updated_at":"2026-03-30T05:07:19.209422+05:30"},{"city":"Patiala","state":"Punjab","latitude":30.3398,"longitude":76.3869,"temp":20.8,"humidity":86,"rain":0.0,"pressure":976.2,"uv_index":5.65,"wind_gusts":22.7,"aqi":176,"pm10":97.6,"pm2_5":30.3,"mosquito_risk":3,"arthritis_risk":5,"migraine_risk":3,"frizz_risk":1,"updated_at":"2026-03-30T05:07:19.209431+05:30"},{"city":"Bhatinda","state":"Punjab","latitude":30.211,"longitude":74.9455,"temp":20.7,"humidity":85,"rain":0.0,"pressure":981.2,"uv_index":3.5,"wind_gusts":43.6,"aqi":201,"pm10":428.4,"pm2_5":89.6,"mosquito_risk":3,"arthritis_risk":5,"migraine_risk":3,"frizz_risk":1,"updated_at":"2026-03-30T05:07:19.209439+05:30"},{"city":"Rohtak","state":"Haryana","latitude":28.8955,"longitude":76.6066,"temp":20.7,"humidity":83,"rain":0.0,"pressure":979.3,"uv_index":6.8,"wind_gusts":43.2,"aqi":389,"pm10":432.1,"pm2_5":110.1,"mosquito_risk":3,"arthritis_risk":5,"migraine_risk":7,"frizz_risk":1,"updated_at":"2026-03-30T05:07:19.209448+05:30"},{"city":"Panipat","state":"Haryana","latitude":29.3909,"longitude":76.9635,"temp":21.4,"humidity":77,"rain":0.0,"pressure":978.2,"uv_index":6.4,"wind_gusts":38.2,"aqi":615,"pm10":208.6,"pm2_5":68.9,"mosquito_risk":3,"arthritis_risk":5,"migraine_risk":7,"frizz_risk":1,"updated_at":"2026-03-30T05:07:19.209455+05:30"},{"city":"Mathura","state":"Uttar Pradesh","latitude":27.4924,"longitude":77.6737,"temp":20.8,"humidity":82,"rain":0.0,"pressure":984.4,"uv_index":6.3,"wind_gusts":43.9,"aqi":206,"pm10":194.6,"pm2_5":47.6,"mosquito_risk":3,"arthritis_risk":5,"migraine_risk":7,"frizz_risk":1,"updated_at":"2026-03-30T05:07:19.209463+05:30"},{"city":"Vrindavan","state":"Uttar Pradesh","latitude":27.5823,"longitude":77.7027,"temp":21.2,"humidity":84,"rain":0.0,"pressure":984.9,"uv_index":6.3,"wind_gusts":42.1,"aqi":206,"pm10":194.6,"pm2_5":47.6,"mosquito_risk":3,"arthritis_risk":5,"migraine_risk":7,"frizz_risk":1,"updated_at":"2026-03-30T05:07:19.209471+05:30"},{"city":"Ayodhya","state":"Uttar Pradesh","latitude":26.7922,"longitude":82.1998,"temp":20.7,"humidity":85,"rain":0.0,"pressure":994.5,"uv_index":7.5,"wind_gusts":27.7,"aqi":144,"pm10":84.8,"pm2_5":62.6,"mosquito_risk":3,"arthritis_risk":5,"migraine_risk":7,"frizz_risk":1,"updated_at":"2026-03-30T05:07:19.209478+05:30"},{"city":"Ratlam","state":"Madhya Pradesh","latitude":23.3315,"longitude":75.0367,"temp":23.6,"humidity":72,"rain":0.0,"pressure":952.9,"uv_index":7.6,"wind_gusts":26.3,"aqi":43,"pm10":24.4,"pm2_5":13.6,"mosquito_risk":3,"arthritis_risk":5,"migraine_risk":7,"frizz_risk":1,"updated_at":"2026-03-30T05:07:19.209486+05:30"},{"city":"Sagar","state":"Madhya Pradesh","latitude":23.8388,"longitude":78.7378,"temp":24.3,"humidity":59,"rain":0.0,"pressure":948.3,"uv_index":8.2,"wind_gusts":31.0,"aqi":29,"pm10":10.4,"pm2_5":7.0,"mosquito_risk":0,"arthritis_risk":5,"migraine_risk":7,"frizz_risk":0,"updated_at":"2026-03-30T05:07:19.209494+05:30"},{"city":"Satna","state":"Madhya Pradesh","latitude":24.6005,"longitude":80.8322,"temp":24.6,"humidity":54,"rain":0.0,"pressure":969.4,"uv_index":8.2,"wind_gusts":37.1,"aqi":63,"pm10":44.9,"pm2_5":21.9,"mosquito_risk":0,"arthritis_risk":5,"migraine_risk":7,"frizz_risk":0,"updated_at":"2026-03-30T05:07:19.209503+05:30"},{"city":"Akola","state":"Maharashtra","latitude":20.7002,"longitude":77.0082,"temp":24.8,"humidity":70,"rain":0.0,"pressure":973.6,"uv_index":8.55,"wind_gusts":28.4,"aqi":49,"pm10":10.9,"pm2_5":9.4,"mosquito_risk":3,"arthritis_risk":5,"migraine_risk":7,"frizz_risk":1,"updated_at":"2026-03-30T05:07:19.209511+05:30"},{"city":"Amravati","state":"Maharashtra","latitude":20.9374,"longitude":77.7796,"temp":24.7,"humidity":63,"rain":0.0,"pressure":965.4,"uv_index":8.55,"wind_gusts":22.7,"aqi":48,"pm10":12.9,"pm2_5":11.3,"mosquito_risk":3,"arthritis_risk":5,"migraine_risk":7,"frizz_risk":1,"updated_at":"2026-03-30T05:07:19.209520+05:30"},{"city":"Latur","state":"Maharashtra","latitude":18.4088,"longitude":76.5604,"temp":23.5,"humidity":62,"rain":0.0,"pressure":937.9,"uv_index":8.4,"wind_gusts":40.3,"aqi":48,"pm10":23.9,"pm2_5":20.2,"mosquito_risk":3,"arthritis_risk":5,"migraine_risk":7,"frizz_risk":0,"updated_at":"2026-03-30T05:07:19.209528+05:30"},{"city":"Nanded","state":"Maharashtra","latitude":19.1383,"longitude":77.3091,"temp":24.3,"humidity":66,"rain":0.0,"pressure":967.1,"uv_index":7.2,"wind_gusts":48.6,"aqi":54,"pm10":17.7,"pm2_5":15.6,"mosquito_risk":3,"arthritis_risk":5,"migraine_risk":7,"frizz_risk":1,"updated_at":"2026-03-30T05:07:19.209536+05:30"},{"city":"Gulbarga","state":"Karnataka","latitude":17.3297,"longitude":76.8343,"temp":27.3,"humidity":55,"rain":0.0,"pressure":956.3,"uv_index":8.9,"wind_gusts":32.4,"aqi":61,"pm10":26.3,"pm2_5":24.3,"mosquito_risk":4,"arthritis_risk":5,"migraine_risk":7,"frizz_risk":1,"updated_at":"2026-03-30T05:07:19.209569+05:30"},{"city":"Bidar","state":"Karnataka","latitude":17.9104,"longitude":77.5199,"temp":26.2,"humidity":58,"rain":0.0,"pressure":933.3,"uv_index":8.1,"wind_gusts":39.2,"aqi":68,"pm10":32.0,"pm2_5":30.0,"mosquito_risk":4,"arthritis_risk":5,"migraine_risk":7,"frizz_risk":1,"updated_at":"2026-03-30T05:07:19.209576+05:30"},{"city":"Hospet","state":"Karnataka","latitude":15.2689,"longitude":76.3909,"temp":26.0,"humidity":78,"rain":0.0,"pressure":954.5,"uv_index":8.25,"wind_gusts":37.4,"aqi":76,"pm10":39.0,"pm2_5":35.4,"mosquito_risk":7,"arthritis_risk":5,"migraine_risk":7,"frizz_risk":1,"updated_at":"2026-03-30T05:07:19.209582+05:30"},{"city":"Tirupur","state":"Tamil Nadu","latitude":11.1085,"longitude":77.3411,"temp":25.9,"humidity":81,"rain":0.0,"pressure":974.2,"uv_index":9.5,"wind_gusts":20.9,"aqi":110,"pm10":33.8,"pm2_5":30.6,"mosquito_risk":7,"arthritis_risk":5,"migraine_risk":7,"frizz_risk":1,"updated_at":"2026-03-30T05:07:19.209589+05:30"},{"city":"Alappuzha","state":"Kerala","latitude":9.4981,"longitude":76.3388,"temp":28.5,"humidity":82,"rain":0.0,"pressure":1006.9,"uv_index":9.2,"wind_gusts":26.6,"aqi":88,"pm10":42.0,"pm2_5":37.3,"mosquito_risk":7,"arthritis_risk":5,"migraine_risk":4,"frizz_risk":1,"updated_at":"2026-03-30T05:07:19.209595+05:30"},{"city":"Munnar","state":"Kerala","latitude":10.0889,"longitude":77.0595,"temp":18.9,"humidity":88,"rain":0.0,"pressure":854.4,"uv_index":7.65,"wind_gusts":22.3,"aqi":96,"pm10":35.0,"pm2_5":34.0,"mosquito_risk":3,"arthritis_risk":10,"migraine_risk":7,"frizz_risk":1,"updated_at":"2026-03-30T05:07:19.209602+05:30"},{"city":"Silchar","state":"Assam","latitude":24.8333,"longitude":92.7789,"temp":21.1,"humidity":90,"rain":0.0,"pressure":1006.5,"uv_index":8.35,"wind_gusts":27.4,"aqi":153,"pm10":90.1,"pm2_5":71.7,"mosquito_risk":3,"arthritis_risk":5,"migraine_risk":4,"frizz_risk":1,"updated_at":"2026-03-30T05:07:19.209609+05:30"},{"city":"Dibrugarh","state":"Assam","latitude":27.4728,"longitude":94.912,"temp":19.8,"humidity":92,"rain":0.0,"pressure":998.2,"uv_index":6.75,"wind_gusts":11.5,"aqi":85,"pm10":40.9,"pm2_5":36.8,"mosquito_risk":3,"arthritis_risk":10,"migraine_risk":7,"frizz_risk":1,"updated_at":"2026-03-30T05:07:19.209616+05:30"}]