[{"city":"Delhi","state":"Delhi","latitude":28.6139,"longitude":77.209,"temp":36.3,"humidity":34,"rain":0.0,"pressure":980.4,"uv_index":7.75,"wind_gusts":39.6,"aqi":163,"pm10":478.7,"pm2_5":113.2,"no2":26.7,"co":531.0,"o3":153.0,"so2":47.4,"mosquito_risk":0,"arthritis_risk":5,"migraine_risk":10,"frizz_risk":1,"updated_at":"2026-06-06T10:25:03.656714+05:30"},{"city":"Mumbai","state":"Maharashtra","latitude":19.076,"longitude":72.8777,"temp":32.0,"humidity":67,"rain":0.0,"pressure":1007.3,"uv_index":6.0,"wind_gusts":42.5,"aqi":76,"pm10":54.8,"pm2_5":25.6,"no2":8.7,"co":257.0,"o3":71.0,"so2":11.6,"mosquito_risk":3,"arthritis_risk":5,"migraine_risk":0,"frizz_risk":1,"updated_at":"2026-06-06T10:25:03.656765+05:30"},{"city":"Bangalore","state":"Karnataka","latitude":12.9716,"longitude":77.5946,"temp":26.7,"humidity":64,"rain":0.1,"pressure":912.8,"uv_index":9.1,"wind_gusts":44.6,"aqi":20,"pm10":3.7,"pm2_5":3.4,"no2":8.4,"co":388.0,"o3":50.0,"so2":4.2,"mosquito_risk":10,"arthritis_risk":5,"migraine_risk":7,"frizz_risk":1,"updated_at":"2026-06-06T10:25:03.656782+05:30"},{"city":"Hyderabad","state":"Telangana","latitude":17.385,"longitude":78.4867,"temp":29.6,"humidity":61,"rain":0.0,"pressure":952.4,"uv_index":9.15,"wind_gusts":37.8,"aqi":89,"pm10":37.8,"pm2_5":24.7,"no2":5.9,"co":348.0,"o3":115.0,"so2":5.9,"mosquito_risk":7,"arthritis_risk":5,"migraine_risk":7,"frizz_risk":1,"updated_at":"2026-06-06T10:25:03.656792+05:30"},{"city":"Chennai","state":"Tamil Nadu","latitude":13.0827,"longitude":80.2707,"temp":35.8,"humidity":42,"rain":0.0,"pressure":1005.5,"uv_index":8.95,"wind_gusts":45.4,"aqi":60,"pm10":9.8,"pm2_5":8.8,"no2":9.6,"co":229.0,"o3":70.0,"so2":11.7,"mosquito_risk":0,"arthritis_risk":5,"migraine_risk":7,"frizz_risk":1,"updated_at":"2026-06-06T10:25:03.656802+05:30"},{"city":"Kolkata","state":"West Bengal","latitude":22.5726,"longitude":88.3639,"temp":31.4,"humidity":79,"rain":0.0,"pressure":1002.4,"uv_index":8.45,"wind_gusts":41.8,"aqi":131,"pm10":43.2,"pm2_5":41.2,"no2":16.3,"co":553.0,"o3":103.0,"so2":13.8,"mosquito_risk":3,"arthritis_risk":5,"migraine_risk":4,"frizz_risk":1,"updated_at":"2026-06-06T10:25:03.656811+05:30"},{"city":"Pune","state":"Maharashtra","latitude":18.5204,"longitude":73.8567,"temp":31.2,"humidity":54,"rain":0.0,"pressure":948.0,"uv_index":8.35,"wind_gusts":50.4,"aqi":50,"pm10":27.2,"pm2_5":13.7,"no2":4.0,"co":161.0,"o3":68.0,"so2":6.4,"mosquito_risk":0,"arthritis_risk":5,"migraine_risk":7,"frizz_risk":1,"updated_at":"2026-06-06T10:25:03.656818+05:30"},{"city":"Ahmedabad","state":"Gujarat","latitude":23.0225,"longitude":72.5714,"temp":35.1,"humidity":48,"rain":0.0,"pressure":999.9,"uv_index":8.05,"wind_gusts":34.2,"aqi":90,"pm10":81.0,"pm2_5":31.3,"no2":3.7,"co":162.0,"o3":63.0,"so2":6.4,"mosquito_risk":0,"arthritis_risk":5,"migraine_risk":10,"frizz_risk":1,"updated_at":"2026-06-06T10:25:03.656826+05:30"},{"city":"Jaipur","state":"Rajasthan","latitude":26.9124,"longitude":75.7873,"temp":34.9,"humidity":40,"rain":0.0,"pressure":958.2,"uv_index":8.25,"wind_gusts":40.0,"aqi":112,"pm10":120.1,"pm2_5":37.6,"no2":5.8,"co":253.0,"o3":84.0,"so2":6.5,"mosquito_risk":0,"arthritis_risk":5,"migraine_risk":7,"frizz_risk":1,"updated_at":"2026-06-06T10:25:03.656838+05:30"},{"city":"Lucknow","state":"Uttar Pradesh","latitude":26.8467,"longitude":80.9462,"temp":33.5,"humidity":55,"rain":0.0,"pressure":990.7,"uv_index":8.3,"wind_gusts":26.6,"aqi":155,"pm10":157.4,"pm2_5":58.0,"no2":8.8,"co":422.0,"o3":120.0,"so2":21.4,"mosquito_risk":0,"arthritis_risk":5,"migraine_risk":7,"frizz_risk":1,"updated_at":"2026-06-06T10:25:03.656846+05:30"},{"city":"Kanpur","state":"Uttar Pradesh","latitude":26.4499,"longitude":80.3319,"temp":35.4,"humidity":40,"rain":0.0,"pressure":989.0,"uv_index":8.3,"wind_gusts":37.1,"aqi":169,"pm10":232.8,"pm2_5":68.7,"no2":8.9,"co":314.0,"o3":124.0,"so2":18.1,"mosquito_risk":0,"arthritis_risk":5,"migraine_risk":10,"frizz_risk":1,"updated_at":"2026-06-06T10:25:03.656853+05:30"},{"city":"Chandigarh","state":"Chandigarh","latitude":30.7333,"longitude":76.7794,"temp":33.2,"humidity":45,"rain":0.0,"pressure":966.5,"uv_index":7.8,"wind_gusts":32.8,"aqi":134,"pm10":103.6,"pm2_5":39.6,"no2":7.0,"co":671.0,"o3":180.0,"so2":16.4,"mosquito_risk":0,"arthritis_risk":5,"migraine_risk":7,"frizz_risk":1,"updated_at":"2026-06-06T10:25:03.656861+05:30"},{"city":"Srinagar","state":"Jammu and Kashmir","latitude":34.0837,"longitude":74.7973,"temp":19.2,"humidity":65,"rain":0.0,"pressure":843.5,"uv_index":9.0,"wind_gusts":28.1,"aqi":78,"pm10":31.9,"pm2_5":23.9,"no2":4.7,"co":381.0,"o3":107.0,"so2":2.4,"mosquito_risk":3,"arthritis_risk":5,"migraine_risk":7,"frizz_risk":0,"updated_at":"2026-06-06T10:25:03.656869+05:30"},{"city":"Jammu","state":"Jammu and Kashmir","latitude":32.7266,"longitude":74.857,"temp":33.7,"humidity":33,"rain":0.0,"pressure":970.2,"uv_index":8.6,"wind_gusts":29.5,"aqi":91,"pm10":33.1,"pm2_5":20.3,"no2":8.2,"co":301.0,"o3":111.0,"so2":2.6,"mosquito_risk":0,"arthritis_risk":5,"migraine_risk":7,"frizz_risk":0,"updated_at":"2026-06-06T10:25:03.656876+05:30"},{"city":"Amritsar","state":"Punjab","latitude":31.634,"longitude":74.8723,"temp":36.3,"humidity":29,"rain":0.0,"pressure":977.9,"uv_index":8.45,"wind_gusts":27.0,"aqi":141,"pm10":45.9,"pm2_5":29.6,"no2":7.7,"co":492.0,"o3":146.0,"so2":9.1,"mosquito_risk":0,"arthritis_risk":5,"migraine_risk":10,"frizz_risk":0,"updated_at":"2026-06-06T10:25:03.656883+05:30"},{"city":"Ludhiana","state":"Punjab","latitude":30.901,"longitude":75.8573,"temp":35.8,"humidity":35,"rain":0.0,"pressure":975.9,"uv_index":8.05,"wind_gusts":31.7,"aqi":157,"pm10":292.4,"pm2_5":82.0,"no2":7.5,"co":572.0,"o3":142.0,"so2":15.0,"mosquito_risk":0,"arthritis_risk":5,"migraine_risk":10,"frizz_risk":1,"updated_at":"2026-06-06T10:25:03.656890+05:30"},{"city":"Jalandhar","state":"Punjab","latitude":31.326,"longitude":75.5762,"temp":35.5,"humidity":37,"rain":0.0,"pressure":976.8,"uv_index":8.25,"wind_gusts":24.8,"aqi":151,"pm10":253.3,"pm2_5":83.1,"no2":9.2,"co":477.0,"o3":142.0,"so2":13.1,"mosquito_risk":0,"arthritis_risk":5,"migraine_risk":10,"frizz_risk":1,"updated_at":"2026-06-06T10:25:03.656897+05:30"},{"city":"Dehradun","state":"Uttarakhand","latitude":30.6284,"longitude":78.0322,"temp":24.4,"humidity":41,"rain":0.0,"pressure":831.9,"uv_index":8.2,"wind_gusts":37.1,"aqi":66,"pm10":30.5,"pm2_5":13.7,"no2":0.0,"co":185.0,"o3":145.0,"so2":1.0,"mosquito_risk":0,"arthritis_risk":5,"migraine_risk":7,"frizz_risk":0,"updated_at":"2026-06-06T10:25:03.656904+05:30"},{"city":"Shimla","state":"Himachal Pradesh","latitude":31.1048,"longitude":77.1734,"temp":21.4,"humidity":32,"rain":0.0,"pressure":787.0,"uv_index":8.35,"wind_gusts":42.1,"aqi":92,"pm10":27.6,"pm2_5":13.9,"no2":1.0,"co":180.0,"o3":156.0,"so2":3.7,"mosquito_risk":0,"arthritis_risk":5,"migraine_risk":7,"frizz_risk":0,"updated_at":"2026-06-06T10:25:03.656913+05:30"},{"city":"Manali","state":"Himachal Pradesh","latitude":32.2396,"longitude":77.1887,"temp":21.9,"humidity":44,"rain":0.0,"pressure":819.8,"uv_index":9.65,"wind_gusts":31.7,"aqi":60,"pm10":5.7,"pm2_5":3.2,"no2":8.4,"co":172.0,"o3":129.0,"so2":0.3,"mosquito_risk":0,"arthritis_risk":5,"migraine_risk":7,"frizz_risk":0,"updated_at":"2026-06-06T10:25:03.656920+05:30"},{"city":"Gurgaon","state":"Haryana","latitude":28.4595,"longitude":77.0266,"temp":35.9,"humidity":36,"rain":0.0,"pressure":979.0,"uv_index":7.85,"wind_gusts":31.7,"aqi":220,"pm10":953.7,"pm2_5":157.4,"no2":16.5,"co":456.0,"o3":140.0,"so2":24.1,"mosquito_risk":0,"arthritis_risk":5,"migraine_risk":10,"frizz_risk":1,"updated_at":"2026-06-06T10:25:03.656929+05:30"},{"city":"Noida","state":"Uttar Pradesh","latitude":28.5355,"longitude":77.391,"temp":35.0,"humidity":42,"rain":0.0,"pressure":981.8,"uv_index":7.8,"wind_gusts":26.6,"aqi":220,"pm10":953.7,"pm2_5":157.4,"no2":16.5,"co":636.0,"o3":140.0,"so2":24.1,"mosquito_risk":0,"arthritis_risk":5,"migraine_risk":7,"frizz_risk":1,"updated_at":"2026-06-06T10:25:03.656939+05:30"},{"city":"Ghaziabad","state":"Uttar Pradesh","latitude":28.6692,"longitude":77.4538,"temp":34.5,"humidity":44,"rain":0.0,"pressure":980.1,"uv_index":7.75,"wind_gusts":25.2,"aqi":166,"pm10":314.8,"pm2_5":85.9,"no2":9.4,"co":602.0,"o3":174.0,"so2":29.0,"mosquito_risk":0,"arthritis_risk":5,"migraine_risk":7,"frizz_risk":1,"updated_at":"2026-06-06T10:25:03.656946+05:30"},{"city":"Faridabad","state":"Haryana","latitude":28.4089,"longitude":77.3178,"temp":34.9,"humidity":41,"rain":0.0,"pressure":981.2,"uv_index":7.8,"wind_gusts":32.0,"aqi":220,"pm10":953.7,"pm2_5":157.4,"no2":16.5,"co":516.0,"o3":140.0,"so2":24.1,"mosquito_risk":0,"arthritis_risk":5,"migraine_risk":7,"frizz_risk":1,"updated_at":"2026-06-06T10:25:03.656952+05:30"},{"city":"Meerut","state":"Uttar Pradesh","latitude":28.9845,"longitude":77.7064,"temp":33.4,"humidity":50,"rain":0.0,"pressure":979.1,"uv_index":7.7,"wind_gusts":27.7,"aqi":166,"pm10":314.8,"pm2_5":85.9,"no2":9.4,"co":571.0,"o3":174.0,"so2":29.0,"mosquito_risk":0,"arthritis_risk":5,"migraine_risk":7,"frizz_risk":1,"updated_at":"2026-06-06T10:25:03.656959+05:30"},{"city":"Agra","state":"Uttar Pradesh","latitude":27.1767,"longitude":78.0081,"temp":35.1,"humidity":39,"rain":0.0,"pressure":985.3,"uv_index":8.1,"wind_gusts":30.6,"aqi":402,"pm10":722.7,"pm2_5":125.7,"no2":6.1,"co":356.0,"o3":155.0,"so2":17.7,"mosquito_risk":0,"arthritis_risk":5,"migraine_risk":10,"frizz_risk":1,"updated_at":"2026-06-06T10:25:03.656966+05:30"},{"city":"Varanasi","state":"Uttar Pradesh","latitude":25.3176,"longitude":82.9739,"temp":36.2,"humidity":40,"rain":0.0,"pressure":994.3,"uv_index":8.8,"wind_gusts":34.2,"aqi":152,"pm10":118.0,"pm2_5":67.5,"no2":5.5,"co":546.0,"o3":155.0,"so2":11.2,"mosquito_risk":0,"arthritis_risk":5,"migraine_risk":10,"frizz_risk":1,"updated_at":"2026-06-06T10:25:03.656974+05:30"},{"city":"Prayagraj","state":"Uttar Pradesh","latitude":25.4358,"longitude":81.8463,"temp":36.0,"humidity":42,"rain":0.0,"pressure":993.1,"uv_index":8.7,"wind_gusts":34.2,"aqi":150,"pm10":122.0,"pm2_5":59.3,"no2":4.8,"co":375.0,"o3":152.0,"so2":11.1,"mosquito_risk":0,"arthritis_risk":5,"migraine_risk":10,"frizz_risk":1,"updated_at":"2026-06-06T10:25:03.656981+05:30"},{"city":"Gorakhpur","state":"Uttar Pradesh","latitude":26.7606,"longitude":83.3732,"temp":34.1,"humidity":52,"rain":0.0,"pressure":994.2,"uv_index":8.7,"wind_gusts":54.4,"aqi":164,"pm10":103.4,"pm2_5":81.0,"no2":4.6,"co":503.0,"o3":174.0,"so2":11.4,"mosquito_risk":0,"arthritis_risk":5,"migraine_risk":7,"frizz_risk":1,"updated_at":"2026-06-06T10:25:03.656990+05:30"},{"city":"Bareilly","state":"Uttar Pradesh","latitude":28.367,"longitude":79.4304,"temp":33.1,"humidity":52,"rain":0.0,"pressure":984.0,"uv_index":8.1,"wind_gusts":27.4,"aqi":153,"pm10":74.0,"pm2_5":48.3,"no2":3.2,"co":391.0,"o3":155.0,"so2":9.3,"mosquito_risk":0,"arthritis_risk":5,"migraine_risk":7,"frizz_risk":1,"updated_at":"2026-06-06T10:25:03.656996+05:30"},{"city":"Aligarh","state":"Uttar Pradesh","latitude":27.8974,"longitude":78.088,"temp":34.2,"humidity":45,"rain":0.0,"pressure":983.0,"uv_index":7.95,"wind_gusts":25.9,"aqi":225,"pm10":400.5,"pm2_5":92.4,"no2":5.8,"co":432.0,"o3":162.0,"so2":25.9,"mosquito_risk":0,"arthritis_risk":5,"migraine_risk":7,"frizz_risk":1,"updated_at":"2026-06-06T10:25:03.657003+05:30"},{"city":"Moradabad","state":"Uttar Pradesh","latitude":28.8386,"longitude":78.7733,"temp":33.8,"humidity":44,"rain":0.0,"pressure":981.0,"uv_index":7.9,"wind_gusts":34.6,"aqi":158,"pm10":83.4,"pm2_5":54.4,"no2":6.8,"co":424.0,"o3":168.0,"so2":17.2,"mosquito_risk":0,"arthritis_risk":5,"migraine_risk":7,"frizz_risk":1,"updated_at":"2026-06-06T10:25:03.657010+05:30"},{"city":"Saharanpur","state":"Uttar Pradesh","latitude":29.9637,"longitude":77.546,"temp":31.6,"humidity":58,"rain":0.0,"pressure":973.5,"uv_index":7.5,"wind_gusts":27.7,"aqi":154,"pm10":101.3,"pm2_5":42.4,"no2":5.2,"co":499.0,"o3":180.0,"so2":13.2,"mosquito_risk":0,"arthritis_risk":5,"migraine_risk":7,"frizz_risk":1,"updated_at":"2026-06-06T10:25:03.657017+05:30"},{"city":"Jhansi","state":"Uttar Pradesh","latitude":25.4484,"longitude":78.5685,"temp":35.1,"humidity":37,"rain":0.0,"pressure":976.0,"uv_index":8.5,"wind_gusts":28.8,"aqi":74,"pm10":369.7,"pm2_5":69.2,"no2":2.2,"co":179.0,"o3":123.0,"so2":7.4,"mosquito_risk":0,"arthritis_risk":5,"migraine_risk":10,"frizz_risk":1,"updated_at":"2026-06-06T10:25:06.891511+05:30"},{"city":"Surat","state":"Gujarat","latitude":21.1702,"longitude":72.8311,"temp":32.9,"humidity":64,"rain":0.0,"pressure":1005.1,"uv_index":7.6,"wind_gusts":44.3,"aqi":88,"pm10":62.4,"pm2_5":29.3,"no2":13.7,"co":323.0,"o3":50.0,"so2":34.8,"mosquito_risk":3,"arthritis_risk":5,"migraine_risk":4,"frizz_risk":1,"updated_at":"2026-06-06T10:25:06.891549+05:30"},{"city":"Vadodara","state":"Gujarat","latitude":22.3072,"longitude":73.1812,"temp":35.5,"humidity":49,"rain":0.0,"pressure":1002.4,"uv_index":8.0,"wind_gusts":40.7,"aqi":83,"pm10":70.8,"pm2_5":30.3,"no2":4.1,"co":158.0,"o3":62.0,"so2":5.6,"mosquito_risk":0,"arthritis_risk":5,"migraine_risk":7,"frizz_risk":1,"updated_at":"2026-06-06T10:25:06.891562+05:30"},{"city":"Rajkot","state":"Gujarat","latitude":22.3039,"longitude":70.8022,"temp":34.6,"humidity":51,"rain":0.0,"pressure":991.9,"uv_index":7.55,"wind_gusts":42.1,"aqi":82,"pm10":95.2,"pm2_5":29.3,"no2":2.0,"co":115.0,"o3":65.0,"so2":3.6,"mosquito_risk":0,"arthritis_risk":5,"migraine_risk":7,"frizz_risk":1,"updated_at":"2026-06-06T10:25:06.891571+05:30"},{"city":"Thane","state":"Maharashtra","latitude":19.2183,"longitude":72.9781,"temp":33.8,"humidity":58,"rain":0.1,"pressure":1006.6,"uv_index":6.7,"wind_gusts":40.0,"aqi":76,"pm10":54.8,"pm2_5":25.6,"no2":8.7,"co":218.0,"o3":71.0,"so2":11.6,"mosquito_risk":3,"arthritis_risk":5,"migraine_risk":4,"frizz_risk":1,"updated_at":"2026-06-06T10:25:06.891580+05:30"},{"city":"Nagpur","state":"Maharashtra","latitude":21.1458,"longitude":79.0882,"temp":36.9,"humidity":30,"rain":0.0,"pressure":971.1,"uv_index":8.85,"wind_gusts":45.7,"aqi":78,"pm10":73.3,"pm2_5":35.6,"no2":7.1,"co":193.0,"o3":109.0,"so2":18.1,"mosquito_risk":0,"arthritis_risk":5,"migraine_risk":10,"frizz_risk":1,"updated_at":"2026-06-06T10:25:06.891588+05:30"},{"city":"Nashik","state":"Maharashtra","latitude":19.9975,"longitude":73.7898,"temp":32.0,"humidity":51,"rain":0.0,"pressure":945.2,"uv_index":8.05,"wind_gusts":39.6,"aqi":61,"pm10":39.1,"pm2_5":19.6,"no2":3.9,"co":145.0,"o3":67.0,"so2":6.7,"mosquito_risk":0,"arthritis_risk":5,"migraine_risk":7,"frizz_risk":1,"updated_at":"2026-06-06T10:25:06.891595+05:30"},{"city":"Aurangabad","state":"Maharashtra","latitude":19.8762,"longitude":75.3433,"temp":33.0,"humidity":46,"rain":0.0,"pressure":943.9,"uv_index":8.95,"wind_gusts":43.2,"aqi":62,"pm10":41.0,"pm2_5":19.7,"no2":3.5,"co":139.0,"o3":69.0,"so2":6.8,"mosquito_risk":0,"arthritis_risk":5,"migraine_risk":7,"frizz_risk":1,"updated_at":"2026-06-06T10:25:06.891603+05:30"},{"city":"Solapur","state":"Maharashtra","latitude":17.6599,"longitude":75.9064,"temp":33.1,"humidity":51,"rain":0.0,"pressure":956.9,"uv_index":8.95,"wind_gusts":46.1,"aqi":69,"pm10":21.7,"pm2_5":12.9,"no2":2.9,"co":128.0,"o3":83.0,"so2":3.6,"mosquito_risk":0,"arthritis_risk":5,"migraine_risk":7,"frizz_risk":1,"updated_at":"2026-06-06T10:25:06.891610+05:30"},{"city":"Kolhapur","state":"Maharashtra","latitude":16.705,"longitude":74.2433,"temp":31.0,"humidity":56,"rain":0.0,"pressure":948.3,"uv_index":8.65,"wind_gusts":47.5,"aqi":34,"pm10":16.9,"pm2_5":9.8,"no2":3.6,"co":136.0,"o3":58.0,"so2":1.2,"mosquito_risk":0,"arthritis_risk":5,"migraine_risk":7,"frizz_risk":1,"updated_at":"2026-06-06T10:25:06.891617+05:30"},{"city":"Goa","state":"Goa","latitude":15.2993,"longitude":74.124,"temp":31.8,"humidity":66,"rain":0.0,"pressure":998.1,"uv_index":7.55,"wind_gusts":31.7,"aqi":33,"pm10":14.2,"pm2_5":7.7,"no2":1.6,"co":170.0,"o3":64.0,"so2":0.9,"mosquito_risk":3,"arthritis_risk":5,"migraine_risk":7,"frizz_risk":1,"updated_at":"2026-06-06T10:25:06.891624+05:30"},{"city":"Jodhpur","state":"Rajasthan","latitude":26.2389,"longitude":73.0243,"temp":35.4,"humidity":49,"rain":0.0,"pressure":980.1,"uv_index":8.45,"wind_gusts":65.9,"aqi":126,"pm10":243.1,"pm2_5":63.3,"no2":2.0,"co":131.0,"o3":71.0,"so2":4.3,"mosquito_risk":0,"arthritis_risk":5,"migraine_risk":10,"frizz_risk":1,"updated_at":"2026-06-06T10:25:06.891631+05:30"},{"city":"Udaipur","state":"Rajasthan","latitude":24.5854,"longitude":73.7125,"temp":33.0,"humidity":49,"rain":0.0,"pressure":945.7,"uv_index":8.8,"wind_gusts":31.7,"aqi":93,"pm10":73.1,"pm2_5":30.2,"no2":2.0,"co":145.0,"o3":73.0,"so2":3.9,"mosquito_risk":0,"arthritis_risk":5,"migraine_risk":7,"frizz_risk":1,"updated_at":"2026-06-06T10:25:06.891640+05:30"},{"city":"Kota","state":"Rajasthan","latitude":25.2138,"longitude":75.8648,"temp":36.2,"humidity":41,"rain":0.0,"pressure":976.6,"uv_index":8.4,"wind_gusts":28.8,"aqi":75,"pm10":74.3,"pm2_5":39.6,"no2":4.7,"co":184.0,"o3":87.0,"so2":7.4,"mosquito_risk":0,"arthritis_risk":5,"migraine_risk":10,"frizz_risk":1,"updated_at":"2026-06-06T10:25:06.891648+05:30"},{"city":"Bikaner","state":"Rajasthan","latitude":28.0229,"longitude":73.3119,"temp":37.2,"humidity":38,"rain":0.0,"pressure":978.5,"uv_index":8.5,"wind_gusts":46.8,"aqi":115,"pm10":156.0,"pm2_5":52.5,"no2":1.2,"co":143.0,"o3":73.0,"so2":3.2,"mosquito_risk":0,"arthritis_risk":5,"migraine_risk":10,"frizz_risk":1,"updated_at":"2026-06-06T10:25:06.891655+05:30"},{"city":"Ajmer","state":"Rajasthan","latitude":26.4499,"longitude":74.6399,"temp":33.4,"humidity":48,"rain":0.0,"pressure":953.0,"uv_index":8.35,"wind_gusts":32.8,"aqi":96,"pm10":91.3,"pm2_5":33.6,"no2":2.2,"co":147.0,"o3":84.0,"so2":3.9,"mosquito_risk":0,"arthritis_risk":5,"migraine_risk":7,"frizz_risk":1,"updated_at":"2026-06-06T10:25:06.891662+05:30"},{"city":"Gwalior","state":"Madhya Pradesh","latitude":26.2183,"longitude":78.1828,"temp":35.2,"humidity":36,"rain":0.0,"pressure":981.1,"uv_index":8.3,"wind_gusts":31.0,"aqi":194,"pm10":471.2,"pm2_5":84.5,"no2":1.6,"co":186.0,"o3":138.0,"so2":8.7,"mosquito_risk":0,"arthritis_risk":5,"migraine_risk":10,"frizz_risk":1,"updated_at":"2026-06-06T10:25:06.891669+05:30"},{"city":"Indore","state":"Madhya Pradesh","latitude":22.7196,"longitude":75.8577,"temp":32.1,"humidity":57,"rain":0.0,"pressure":947.3,"uv_index":8.65,"wind_gusts":30.6,"aqi":88,"pm10":54.6,"pm2_5":29.4,"no2":4.4,"co":236.0,"o3":71.0,"so2":10.7,"mosquito_risk":0,"arthritis_risk":5,"migraine_risk":7,"frizz_risk":1,"updated_at":"2026-06-06T10:25:06.891677+05:30"},{"city":"Bhopal","state":"Madhya Pradesh","latitude":23.2599,"longitude":77.4126,"temp":33.3,"humidity":47,"rain":0.0,"pressure":952.4,"uv_index":8.7,"wind_gusts":33.8,"aqi":89,"pm10":43.2,"pm2_5":19.5,"no2":1.0,"co":224.0,"o3":116.0,"so2":5.1,"mosquito_risk":0,"arthritis_risk":5,"migraine_risk":7,"frizz_risk":1,"updated_at":"2026-06-06T10:25:06.891684+05:30"},{"city":"Jabalpur","state":"Madhya Pradesh","latitude":23.1815,"longitude":79.9864,"temp":33.9,"humidity":42,"rain":0.0,"pressure":959.8,"uv_index":8.35,"wind_gusts":39.2,"aqi":85,"pm10":62.2,"pm2_5":22.2,"no2":1.3,"co":175.0,"o3":112.0,"so2":5.3,"mosquito_risk":0,"arthritis_risk":5,"migraine_risk":7,"frizz_risk":1,"updated_at":"2026-06-06T10:25:06.891692+05:30"},{"city":"Ujjain","state":"Madhya Pradesh","latitude":23.1765,"longitude":75.7885,"temp":33.0,"humidity":55,"rain":0.0,"pressure":952.9,"uv_index":8.6,"wind_gusts":33.8,"aqi":86,"pm10":51.5,"pm2_5":28.4,"no2":3.8,"co":189.0,"o3":67.0,"so2":11.1,"mosquito_risk":0,"arthritis_risk":5,"migraine_risk":7,"frizz_risk":1,"updated_at":"2026-06-06T10:25:06.891699+05:30"},{"city":"Visakhapatnam","state":"Andhra Pradesh","latitude":17.6868,"longitude":83.2185,"temp":37.3,"humidity":44,"rain":0.0,"pressure":999.1,"uv_index":8.7,"wind_gusts":36.7,"aqi":99,"pm10":40.4,"pm2_5":32.5,"no2":13.5,"co":407.0,"o3":125.0,"so2":36.4,"mosquito_risk":0,"arthritis_risk":5,"migraine_risk":10,"frizz_risk":1,"updated_at":"2026-06-06T10:25:06.891707+05:30"},{"city":"Vijayawada","state":"Andhra Pradesh","latitude":16.5062,"longitude":80.648,"temp":36.1,"humidity":45,"rain":0.0,"pressure":999.9,"uv_index":9.0,"wind_gusts":34.9,"aqi":67,"pm10":26.8,"pm2_5":19.9,"no2":5.0,"co":215.0,"o3":100.0,"so2":8.1,"mosquito_risk":0,"arthritis_risk":5,"migraine_risk":10,"frizz_risk":1,"updated_at":"2026-06-06T10:25:06.891714+05:30"},{"city":"Guntur","state":"Andhra Pradesh","latitude":16.3067,"longitude":80.4365,"temp":35.6,"humidity":48,"rain":0.0,"pressure":1001.2,"uv_index":9.0,"wind_gusts":36.7,"aqi":62,"pm10":33.3,"pm2_5":23.1,"no2":5.7,"co":224.0,"o3":97.0,"so2":8.7,"mosquito_risk":0,"arthritis_risk":5,"migraine_risk":7,"frizz_risk":1,"updated_at":"2026-06-06T10:25:06.891721+05:30"},{"city":"Nellore","state":"Andhra Pradesh","latitude":14.4426,"longitude":79.9865,"temp":34.8,"humidity":46,"rain":0.0,"pressure":1003.9,"uv_index":8.9,"wind_gusts":43.9,"aqi":42,"pm10":9.7,"pm2_5":7.1,"no2":3.8,"co":144.0,"o3":77.0,"so2":6.0,"mosquito_risk":0,"arthritis_risk":5,"migraine_risk":4,"frizz_risk":1,"updated_at":"2026-06-06T10:25:06.891730+05:30"},{"city":"Kurnool","state":"Andhra Pradesh","latitude":15.8281,"longitude":78.0373,"temp":33.1,"humidity":54,"rain":0.0,"pressure":976.5,"uv_index":7.05,"wind_gusts":40.7,"aqi":37,"pm10":18.9,"pm2_5":12.7,"no2":5.6,"co":170.0,"o3":78.0,"so2":8.1,"mosquito_risk":0,"arthritis_risk":5,"migraine_risk":7,"frizz_risk":1,"updated_at":"2026-06-06T10:25:06.891740+05:30"},{"city":"Kakinada","state":"Andhra Pradesh","latitude":16.9891,"longitude":82.2475,"temp":35.6,"humidity":52,"rain":0.0,"pressure":1003.6,"uv_index":8.95,"wind_gusts":36.0,"aqi":72,"pm10":25.4,"pm2_5":18.6,"no2":3.0,"co":280.0,"o3":113.0,"so2":4.7,"mosquito_risk":0,"arthritis_risk":5,"migraine_risk":7,"frizz_risk":1,"updated_at":"2026-06-06T10:25:06.891748+05:30"},{"city":"Tirupati","state":"Andhra Pradesh","latitude":13.6288,"longitude":79.4192,"temp":34.2,"humidity":46,"rain":0.0,"pressure":989.8,"uv_index":8.95,"wind_gusts":41.4,"aqi":47,"pm10":6.8,"pm2_5":5.6,"no2":3.8,"co":139.0,"o3":75.0,"so2":2.7,"mosquito_risk":0,"arthritis_risk":5,"migraine_risk":7,"frizz_risk":1,"updated_at":"2026-06-06T10:25:06.891755+05:30"},{"city":"Warangal","state":"Telangana","latitude":17.9689,"longitude":79.5941,"temp":31.5,"humidity":54,"rain":0.0,"pressure":976.8,"uv_index":9.05,"wind_gusts":44.6,"aqi":102,"pm10":42.5,"pm2_5":29.0,"no2":3.3,"co":225.0,"o3":114.0,"so2":5.3,"mosquito_risk":0,"arthritis_risk":5,"migraine_risk":7,"frizz_risk":1,"updated_at":"2026-06-06T10:25:06.891763+05:30"},{"city":"Nizamabad","state":"Telangana","latitude":18.6725,"longitude":78.0941,"temp":34.3,"humidity":44,"rain":0.0,"pressure":963.9,"uv_index":9.05,"wind_gusts":42.5,"aqi":99,"pm10":36.7,"pm2_5":23.5,"no2":3.0,"co":185.0,"o3":102.0,"so2":6.8,"mosquito_risk":0,"arthritis_risk":5,"migraine_risk":7,"frizz_risk":1,"updated_at":"2026-06-06T10:25:06.891770+05:30"},{"city":"Mysore","state":"Karnataka","latitude":12.2958,"longitude":76.6396,"temp":23.3,"humidity":90,"rain":0.1,"pressure":929.5,"uv_index":8.4,"wind_gusts":43.6,"aqi":18,"pm10":3.4,"pm2_5":3.1,"no2":6.6,"co":158.0,"o3":48.0,"so2":2.1,"mosquito_risk":6,"arthritis_risk":5,"migraine_risk":7,"frizz_risk":1,"updated_at":"2026-06-06T10:25:06.891777+05:30"},{"city":"Mangalore","state":"Karnataka","latitude":12.9141,"longitude":74.856,"temp":24.2,"humidity":97,"rain":0.7,"pressure":1008.3,"uv_index":0.45,"wind_gusts":29.9,"aqi":27,"pm10":6.8,"pm2_5":5.5,"no2":9.0,"co":235.0,"o3":40.0,"so2":1.6,"mosquito_risk":6,"arthritis_risk":0,"migraine_risk":0,"frizz_risk":1,"updated_at":"2026-06-06T10:25:06.891785+05:30"},{"city":"Hubli-Dharwad","state":"Karnataka","latitude":15.3647,"longitude":75.124,"temp":29.0,"humidity":64,"rain":0.0,"pressure":941.9,"uv_index":7.15,"wind_gusts":43.9,"aqi":21,"pm10":3.9,"pm2_5":2.8,"no2":4.1,"co":135.0,"o3":53.0,"so2":1.1,"mosquito_risk":7,"arthritis_risk":5,"migraine_risk":7,"frizz_risk":1,"updated_at":"2026-06-06T10:25:06.891792+05:30"},{"city":"Belgaum","state":"Karnataka","latitude":15.8497,"longitude":74.4977,"temp":28.5,"humidity":62,"rain":0.1,"pressure":926.6,"uv_index":8.7,"wind_gusts":40.7,"aqi":23,"pm10":9.0,"pm2_5":5.2,"no2":3.1,"co":120.0,"o3":58.0,"so2":2.0,"mosquito_risk":10,"arthritis_risk":5,"migraine_risk":7,"frizz_risk":1,"updated_at":"2026-06-06T10:25:10.124067+05:30"},{"city":"Coimbatore","state":"Tamil Nadu","latitude":11.0168,"longitude":76.9558,"temp":26.5,"humidity":74,"rain":0.0,"pressure":963.2,"uv_index":8.8,"wind_gusts":59.0,"aqi":18,"pm10":3.4,"pm2_5":2.7,"no2":5.2,"co":181.0,"o3":42.0,"so2":2.2,"mosquito_risk":7,"arthritis_risk":5,"migraine_risk":7,"frizz_risk":1,"updated_at":"2026-06-06T10:25:10.124104+05:30"},{"city":"Madurai","state":"Tamil Nadu","latitude":9.9252,"longitude":78.1198,"temp":34.5,"humidity":44,"rain":0.0,"pressure":993.5,"uv_index":8.65,"wind_gusts":65.5,"aqi":25,"pm10":8.1,"pm2_5":6.2,"no2":4.4,"co":161.0,"o3":63.0,"so2":3.6,"mosquito_risk":0,"arthritis_risk":5,"migraine_risk":7,"frizz_risk":1,"updated_at":"2026-06-06T10:25:10.124116+05:30"},{"city":"Trichy","state":"Tamil Nadu","latitude":10.7905,"longitude":78.7047,"temp":33.7,"humidity":48,"rain":0.0,"pressure":999.9,"uv_index":8.7,"wind_gusts":45.4,"aqi":23,"pm10":12.4,"pm2_5":8.0,"no2":4.4,"co":147.0,"o3":60.0,"so2":3.7,"mosquito_risk":0,"arthritis_risk":5,"migraine_risk":7,"frizz_risk":1,"updated_at":"2026-06-06T10:25:10.124124+05:30"},{"city":"Salem","state":"Tamil Nadu","latitude":11.6643,"longitude":78.146,"temp":32.7,"humidity":49,"rain":0.0,"pressure":978.0,"uv_index":8.8,"wind_gusts":48.2,"aqi":36,"pm10":12.1,"pm2_5":9.2,"no2":6.8,"co":185.0,"o3":66.0,"so2":8.7,"mosquito_risk":0,"arthritis_risk":5,"migraine_risk":7,"frizz_risk":1,"updated_at":"2026-06-06T10:25:10.124132+05:30"},{"city":"Tirunelveli","state":"Tamil Nadu","latitude":8.7139,"longitude":77.7567,"temp":33.8,"humidity":50,"rain":0.0,"pressure":1004.7,"uv_index":6.95,"wind_gusts":46.1,"aqi":19,"pm10":6.1,"pm2_5":3.7,"no2":3.0,"co":154.0,"o3":46.0,"so2":1.3,"mosquito_risk":0,"arthritis_risk":5,"migraine_risk":4,"frizz_risk":1,"updated_at":"2026-06-06T10:25:10.124140+05:30"},{"city":"Vellore","state":"Tamil Nadu","latitude":12.9165,"longitude":79.1325,"temp":33.9,"humidity":46,"rain":0.0,"pressure":983.5,"uv_index":8.95,"wind_gusts":59.8,"aqi":37,"pm10":5.1,"pm2_5":4.5,"no2":3.0,"co":139.0,"o3":71.0,"so2":3.3,"mosquito_risk":0,"arthritis_risk":5,"migraine_risk":7,"frizz_risk":1,"updated_at":"2026-06-06T10:25:10.124147+05:30"},{"city":"Erode","state":"Tamil Nadu","latitude":11.341,"longitude":77.7172,"temp":32.1,"humidity":53,"rain":0.0,"pressure":989.6,"uv_index":8.85,"wind_gusts":53.6,"aqi":26,"pm10":5.7,"pm2_5":4.6,"no2":5.3,"co":150.0,"o3":54.0,"so2":3.1,"mosquito_risk":0,"arthritis_risk":5,"migraine_risk":7,"frizz_risk":1,"updated_at":"2026-06-06T10:25:10.124155+05:30"},{"city":"Kochi","state":"Kerala","latitude":9.9312,"longitude":76.2673,"temp":27.1,"humidity":82,"rain":0.3,"pressure":1012.0,"uv_index":8.35,"wind_gusts":40.0,"aqi":50,"pm10":14.4,"pm2_5":8.7,"no2":8.3,"co":158.0,"o3":35.0,"so2":2.7,"mosquito_risk":10,"arthritis_risk":0,"migraine_risk":4,"frizz_risk":1,"updated_at":"2026-06-06T10:25:10.124162+05:30"},{"city":"Thiruvananthapuram","state":"Kerala","latitude":8.5241,"longitude":76.9366,"temp":26.2,"humidity":93,"rain":0.3,"pressure":1011.0,"uv_index":7.85,"wind_gusts":49.0,"aqi":26,"pm10":13.5,"pm2_5":6.3,"no2":2.1,"co":116.0,"o3":49.0,"so2":0.7,"mosquito_risk":10,"arthritis_risk":0,"migraine_risk":4,"frizz_risk":1,"updated_at":"2026-06-06T10:25:10.124170+05:30"},{"city":"Kozhikode","state":"Kerala","latitude":11.2588,"longitude":75.7804,"temp":26.4,"humidity":90,"rain":0.1,"pressure":1010.8,"uv_index":1.15,"wind_gusts":32.0,"aqi":26,"pm10":10.5,"pm2_5":4.7,"no2":0.8,"co":155.0,"o3":57.0,"so2":0.4,"mosquito_risk":10,"arthritis_risk":0,"migraine_risk":0,"frizz_risk":1,"updated_at":"2026-06-06T10:25:10.124177+05:30"},{"city":"Thrissur","state":"Kerala","latitude":10.5276,"longitude":76.2144,"temp":25.0,"humidity":100,"rain":0.3,"pressure":1010.2,"uv_index":7.45,"wind_gusts":37.1,"aqi":48,"pm10":12.3,"pm2_5":7.7,"no2":9.0,"co":224.0,"o3":31.0,"so2":2.4,"mosquito_risk":10,"arthritis_risk":0,"migraine_risk":4,"frizz_risk":1,"updated_at":"2026-06-06T10:25:10.124184+05:30"},{"city":"Kannur","state":"Kerala","latitude":11.8745,"longitude":75.3704,"temp":25.9,"humidity":96,"rain":0.5,"pressure":1009.4,"uv_index":1.15,"wind_gusts":39.6,"aqi":26,"pm10":8.5,"pm2_5":5.6,"no2":4.9,"co":247.0,"o3":48.0,"so2":1.0,"mosquito_risk":10,"arthritis_risk":0,"migraine_risk":0,"frizz_risk":1,"updated_at":"2026-06-06T10:25:10.124191+05:30"},{"city":"Patna","state":"Bihar","latitude":25.5941,"longitude":85.1376,"temp":32.8,"humidity":67,"rain":0.0,"pressure":997.2,"uv_index":8.9,"wind_gusts":24.8,"aqi":170,"pm10":62.4,"pm2_5":57.4,"no2":7.2,"co":454.0,"o3":156.0,"so2":20.8,"mosquito_risk":3,"arthritis_risk":5,"migraine_risk":7,"frizz_risk":1,"updated_at":"2026-06-06T10:25:10.124198+05:30"},{"city":"Gaya","state":"Bihar","latitude":24.7914,"longitude":85.0002,"temp":34.1,"humidity":55,"rain":0.0,"pressure":990.5,"uv_index":8.7,"wind_gusts":27.0,"aqi":155,"pm10":67.8,"pm2_5":57.9,"no2":6.5,"co":340.0,"o3":153.0,"so2":19.1,"mosquito_risk":0,"arthritis_risk":5,"migraine_risk":7,"frizz_risk":1,"updated_at":"2026-06-06T10:25:10.124205+05:30"},{"city":"Muzaffarpur","state":"Bihar","latitude":26.1209,"longitude":85.3647,"temp":31.9,"humidity":69,"rain":0.0,"pressure":997.5,"uv_index":8.9,"wind_gusts":39.6,"aqi":171,"pm10":57.0,"pm2_5":52.4,"no2":6.3,"co":397.0,"o3":155.0,"so2":16.8,"mosquito_risk":3,"arthritis_risk":5,"migraine_risk":7,"frizz_risk":1,"updated_at":"2026-06-06T10:25:10.124212+05:30"},{"city":"Bhagalpur","state":"Bihar","latitude":25.2425,"longitude":87.0117,"temp":32.9,"humidity":66,"rain":0.0,"pressure":998.1,"uv_index":8.9,"wind_gusts":28.4,"aqi":155,"pm10":32.7,"pm2_5":30.6,"no2":8.6,"co":449.0,"o3":130.0,"so2":22.0,"mosquito_risk":3,"arthritis_risk":5,"migraine_risk":7,"frizz_risk":1,"updated_at":"2026-06-06T10:25:10.124218+05:30"},{"city":"Ranchi","state":"Jharkhand","latitude":23.3441,"longitude":85.3096,"temp":33.2,"humidity":42,"rain":0.0,"pressure":935.8,"uv_index":9.15,"wind_gusts":37.8,"aqi":119,"pm10":82.2,"pm2_5":51.1,"no2":3.2,"co":245.0,"o3":162.0,"so2":15.6,"mosquito_risk":0,"arthritis_risk":5,"migraine_risk":7,"frizz_risk":1,"updated_at":"2026-06-06T10:25:10.124224+05:30"},{"city":"Jamshedpur","state":"Jharkhand","latitude":22.8046,"longitude":86.2029,"temp":34.3,"humidity":50,"rain":0.0,"pressure":987.5,"uv_index":8.95,"wind_gusts":42.8,"aqi":153,"pm10":78.9,"pm2_5":58.7,"no2":9.3,"co":371.0,"o3":154.0,"so2":36.9,"mosquito_risk":0,"arthritis_risk":5,"migraine_risk":7,"frizz_risk":1,"updated_at":"2026-06-06T10:25:10.124231+05:30"},{"city":"Dhanbad","state":"Jharkhand","latitude":23.7957,"longitude":86.4304,"temp":35.3,"humidity":52,"rain":0.0,"pressure":976.7,"uv_index":7.75,"wind_gusts":29.5,"aqi":165,"pm10":100.4,"pm2_5":83.6,"no2":40.0,"co":493.0,"o3":135.0,"so2":108.5,"mosquito_risk":0,"arthritis_risk":5,"migraine_risk":10,"frizz_risk":1,"updated_at":"2026-06-06T10:25:10.124238+05:30"},{"city":"Bokaro","state":"Jharkhand","latitude":23.6693,"longitude":86.1511,"temp":34.6,"humidity":53,"rain":0.0,"pressure":980.4,"uv_index":8.75,"wind_gusts":24.8,"aqi":156,"pm10":88.5,"pm2_5":66.1,"no2":25.9,"co":327.0,"o3":143.0,"so2":68.4,"mosquito_risk":0,"arthritis_risk":5,"migraine_risk":7,"frizz_risk":1,"updated_at":"2026-06-06T10:25:10.124244+05:30"},{"city":"Bhubaneswar","state":"Odisha","latitude":20.2961,"longitude":85.8245,"temp":35.1,"humidity":55,"rain":0.0,"pressure":998.4,"uv_index":9.1,"wind_gusts":24.8,"aqi":153,"pm10":49.1,"pm2_5":43.2,"no2":2.4,"co":371.0,"o3":171.0,"so2":11.3,"mosquito_risk":0,"arthritis_risk":5,"migraine_risk":10,"frizz_risk":1,"updated_at":"2026-06-06T10:25:10.124250+05:30"},{"city":"Cuttack","state":"Odisha","latitude":20.4625,"longitude":85.8828,"temp":35.4,"humidity":53,"rain":0.0,"pressure":1000.2,"uv_index":9.1,"wind_gusts":20.5,"aqi":153,"pm10":49.1,"pm2_5":43.2,"no2":2.4,"co":347.0,"o3":171.0,"so2":11.3,"mosquito_risk":0,"arthritis_risk":5,"migraine_risk":7,"frizz_risk":1,"updated_at":"2026-06-06T10:25:10.124257+05:30"},{"city":"Rourkela","state":"Odisha","latitude":22.2604,"longitude":84.8536,"temp":35.6,"humidity":44,"rain":0.0,"pressure":981.8,"uv_index":9.05,"wind_gusts":41.4,"aqi":151,"pm10":85.7,"pm2_5":58.2,"no2":4.1,"co":498.0,"o3":149.0,"so2":14.9,"mosquito_risk":0,"arthritis_risk":5,"migraine_risk":10,"frizz_risk":1,"updated_at":"2026-06-06T10:25:10.124263+05:30"},{"city":"Raipur","state":"Chhattisgarh","latitude":21.2514,"longitude":81.6296,"temp":37.6,"humidity":27,"rain":0.0,"pressure":971.7,"uv_index":9.0,"wind_gusts":42.8,"aqi":135,"pm10":78.7,"pm2_5":32.4,"no2":16.3,"co":292.0,"o3":94.0,"so2":46.8,"mosquito_risk":0,"arthritis_risk":5,"migraine_risk":10,"frizz_risk":0,"updated_at":"2026-06-06T10:25:10.124286+05:30"},{"city":"Bhilai","state":"Chhattisgarh","latitude":21.1938,"longitude":81.3509,"temp":36.5,"humidity":30,"rain":0.0,"pressure":972.2,"uv_index":8.95,"wind_gusts":44.6,"aqi":124,"pm10":80.8,"pm2_5":32.8,"no2":16.4,"co":682.0,"o3":92.0,"so2":49.8,"mosquito_risk":0,"arthritis_risk":5,"migraine_risk":10,"frizz_risk":0,"updated_at":"2026-06-06T10:25:10.124293+05:30"},{"city":"Guwahati","state":"Assam","latitude":26.1158,"longitude":91.7086,"temp":30.0,"humidity":72,"rain":0.0,"pressure":999.4,"uv_index":8.8,"wind_gusts":23.4,"aqi":92,"pm10":25.6,"pm2_5":23.5,"no2":1.5,"co":414.0,"o3":142.0,"so2":3.7,"mosquito_risk":7,"arthritis_risk":5,"migraine_risk":7,"frizz_risk":1,"updated_at":"2026-06-06T10:25:10.124299+05:30"},{"city":"Agartala","state":"Tripura","latitude":23.8315,"longitude":91.2868,"temp":32.7,"humidity":60,"rain":0.0,"pressure":1003.3,"uv_index":8.8,"wind_gusts":33.5,"aqi":153,"pm10":53.9,"pm2_5":45.2,"no2":4.9,"co":207.0,"o3":148.0,"so2":3.1,"mosquito_risk":0,"arthritis_risk":5,"migraine_risk":4,"frizz_risk":1,"updated_at":"2026-06-06T10:25:10.124306+05:30"},{"city":"Shillong","state":"Meghalaya","latitude":25.5788,"longitude":91.8933,"temp":24.6,"humidity":59,"rain":0.0,"pressure":857.9,"uv_index":8.15,"wind_gusts":21.6,"aqi":63,"pm10":38.5,"pm2_5":30.0,"no2":0.8,"co":243.0,"o3":143.0,"so2":3.3,"mosquito_risk":0,"arthritis_risk":5,"migraine_risk":7,"frizz_risk":1,"updated_at":"2026-06-06T10:25:10.124313+05:30"},{"city":"Imphal","state":"Manipur","latitude":24.817,"longitude":93.9368,"temp":29.3,"humidity":59,"rain":0.0,"pressure":921.9,"uv_index":9.05,"wind_gusts":28.8,"aqi":119,"pm10":41.4,"pm2_5":33.2,"no2":0.1,"co":336.0,"o3":142.0,"so2":3.2,"mosquito_risk":4,"arthritis_risk":5,"migraine_risk":7,"frizz_risk":1,"updated_at":"2026-06-06T10:25:10.124320+05:30"},{"city":"Aizawl","state":"Mizoram","latitude":23.7271,"longitude":92.7176,"temp":27.4,"humidity":61,"rain":0.0,"pressure":892.1,"uv_index":8.65,"wind_gusts":28.4,"aqi":119,"pm10":42.8,"pm2_5":32.8,"no2":0.3,"co":217.0,"o3":125.0,"so2":3.5,"mosquito_risk":7,"arthritis_risk":5,"migraine_risk":7,"frizz_risk":1,"updated_at":"2026-06-06T10:25:10.124326+05:30"},{"city":"Kohima","state":"Nagaland","latitude":25.6701,"longitude":94.1077,"temp":24.0,"humidity":79,"rain":0.1,"pressure":855.6,"uv_index":9.25,"wind_gusts":24.1,"aqi":75,"pm10":20.6,"pm2_5":16.9,"no2":0.2,"co":229.0,"o3":133.0,"so2":2.1,"mosquito_risk":6,"arthritis_risk":5,"migraine_risk":7,"frizz_risk":1,"updated_at":"2026-06-06T10:25:10.124333+05:30"},{"city":"Gangtok","state":"Sikkim","latitude":27.3314,"longitude":88.6138,"temp":23.8,"humidity":60,"rain":0.1,"pressure":838.4,"uv_index":9.05,"wind_gusts":34.2,"aqi":105,"pm10":12.3,"pm2_5":10.0,"no2":2.0,"co":297.0,"o3":143.0,"so2":2.4,"mosquito_risk":3,"arthritis_risk":5,"migraine_risk":7,"frizz_risk":0,"updated_at":"2026-06-06T10:25:10.124339+05:30"},{"city":"Siliguri","state":"West Bengal","latitude":26.7271,"longitude":88.3953,"temp":28.8,"humidity":72,"rain":0.1,"pressure":991.1,"uv_index":8.8,"wind_gusts":21.2,"aqi":113,"pm10":16.6,"pm2_5":14.6,"no2":2.8,"co":416.0,"o3":163.0,"so2":4.3,"mosquito_risk":10,"arthritis_risk":5,"migraine_risk":7,"frizz_risk":1,"updated_at":"2026-06-06T10:25:13.354194+05:30"},{"city":"Durgapur","state":"West Bengal","latitude":23.5204,"longitude":87.3119,"temp":32.4,"humidity":74,"rain":0.0,"pressure":991.7,"uv_index":9.05,"wind_gusts":36.7,"aqi":170,"pm10":67.1,"pm2_5":60.1,"no2":28.1,"co":626.0,"o3":110.0,"so2":66.7,"mosquito_risk":3,"arthritis_risk":5,"migraine_risk":7,"frizz_risk":1,"updated_at":"2026-06-06T10:25:13.354230+05:30"},{"city":"Asansol","state":"West Bengal","latitude":23.6739,"longitude":86.9524,"temp":33.4,"humidity":65,"rain":0.0,"pressure":990.1,"uv_index":8.9,"wind_gusts":34.6,"aqi":165,"pm10":87.3,"pm2_5":75.9,"no2":32.3,"co":555.0,"o3":130.0,"so2":86.8,"mosquito_risk":3,"arthritis_risk":5,"migraine_risk":7,"frizz_risk":1,"updated_at":"2026-06-06T10:25:13.354241+05:30"},{"city":"Pondicherry","state":"Puducherry","latitude":11.9139,"longitude":79.8145,"temp":34.1,"humidity":50,"rain":0.0,"pressure":1007.4,"uv_index":8.45,"wind_gusts":41.0,"aqi":60,"pm10":20.7,"pm2_5":15.5,"no2":9.8,"co":222.0,"o3":64.0,"so2":10.7,"mosquito_risk":0,"arthritis_risk":5,"migraine_risk":4,"frizz_risk":1,"updated_at":"2026-06-06T10:25:13.354249+05:30"},{"city":"Port Blair","state":"Andaman and Nicobar Islands","latitude":11.6234,"longitude":92.7265,"temp":30.3,"humidity":77,"rain":0.1,"pressure":1006.9,"uv_index":7.75,"wind_gusts":49.7,"aqi":26,"pm10":7.5,"pm2_5":4.7,"no2":0.4,"co":105.0,"o3":57.0,"so2":0.3,"mosquito_risk":6,"arthritis_risk":5,"migraine_risk":4,"frizz_risk":1,"updated_at":"2026-06-06T10:25:13.354257+05:30"},{"city":"Haridwar","state":"Uttarakhand","latitude":29.9457,"longitude":78.1642,"temp":32.6,"humidity":47,"rain":0.0,"pressure":971.7,"uv_index":7.6,"wind_gusts":25.6,"aqi":137,"pm10":82.4,"pm2_5":38.1,"no2":1.6,"co":294.0,"o3":172.0,"so2":7.0,"mosquito_risk":0,"arthritis_risk":5,"migraine_risk":7,"frizz_risk":1,"updated_at":"2026-06-06T10:25:13.354265+05:30"},{"city":"Rishikesh","state":"Uttarakhand","latitude":30.0869,"longitude":78.2676,"temp":32.1,"humidity":46,"rain":0.0,"pressure":964.5,"uv_index":7.7,"wind_gusts":29.2,"aqi":108,"pm10":66.6,"pm2_5":30.3,"no2":1.1,"co":258.0,"o3":153.0,"so2":3.3,"mosquito_risk":0,"arthritis_risk":5,"migraine_risk":7,"frizz_risk":1,"updated_at":"2026-06-06T10:25:13.354290+05:30"},{"city":"Nainital","state":"Uttarakhand","latitude":29.3919,"longitude":79.4542,"temp":21.5,"humidity":55,"rain":0.0,"pressure":807.3,"uv_index":7.25,"wind_gusts":25.2,"aqi":90,"pm10":52.9,"pm2_5":28.3,"no2":1.1,"co":217.0,"o3":142.0,"so2":2.0,"mosquito_risk":0,"arthritis_risk":5,"migraine_risk":7,"frizz_risk":0,"updated_at":"2026-06-06T10:25:13.354298+05:30"},{"city":"Mussoorie","state":"Uttarakhand","latitude":30.4599,"longitude":78.0664,"temp":22.3,"humidity":41,"rain":0.0,"pressure":804.8,"uv_index":8.1,"wind_gusts":43.9,"aqi":95,"pm10":64.5,"pm2_5":27.0,"no2":0.0,"co":195.0,"o3":173.0,"so2":4.9,"mosquito_risk":0,"arthritis_risk":5,"migraine_risk":7,"frizz_risk":0,"updated_at":"2026-06-06T10:25:13.354306+05:30"},{"city":"Dharamshala","state":"Himachal Pradesh","latitude":32.219,"longitude":76.3234,"temp":23.4,"humidity":51,"rain":0.0,"pressure":868.9,"uv_index":8.5,"wind_gusts":34.2,"aqi":54,"pm10":17.7,"pm2_5":9.5,"no2":0.5,"co":221.0,"o3":141.0,"so2":1.0,"mosquito_risk":0,"arthritis_risk":5,"migraine_risk":7,"frizz_risk":0,"updated_at":"2026-06-06T10:25:13.354315+05:30"},{"city":"Dalhousie","state":"Himachal Pradesh","latitude":32.5387,"longitude":75.971,"temp":21.7,"humidity":43,"rain":0.0,"pressure":806.3,"uv_index":8.75,"wind_gusts":40.7,"aqi":71,"pm10":23.9,"pm2_5":13.4,"no2":2.8,"co":230.0,"o3":143.0,"so2":2.1,"mosquito_risk":0,"arthritis_risk":5,"migraine_risk":7,"frizz_risk":0,"updated_at":"2026-06-06T10:25:13.354325+05:30"},{"city":"Patiala","state":"Punjab","latitude":30.3398,"longitude":76.3869,"temp":35.4,"humidity":39,"rain":0.0,"pressure":975.5,"uv_index":7.7,"wind_gusts":29.5,"aqi":185,"pm10":525.3,"pm2_5":97.6,"no2":4.5,"co":463.0,"o3":152.0,"so2":16.8,"mosquito_risk":0,"arthritis_risk":5,"migraine_risk":10,"frizz_risk":1,"updated_at":"2026-06-06T10:25:13.354332+05:30"},{"city":"Bhatinda","state":"Punjab","latitude":30.211,"longitude":74.9455,"temp":37.2,"humidity":32,"rain":0.0,"pressure":980.4,"uv_index":8.35,"wind_gusts":28.1,"aqi":160,"pm10":253.3,"pm2_5":74.0,"no2":11.0,"co":259.0,"o3":130.0,"so2":17.7,"mosquito_risk":0,"arthritis_risk":5,"migraine_risk":10,"frizz_risk":1,"updated_at":"2026-06-06T10:25:13.354339+05:30"},{"city":"Rohtak","state":"Haryana","latitude":28.8955,"longitude":76.6066,"temp":35.5,"humidity":40,"rain":0.0,"pressure":979.1,"uv_index":7.8,"wind_gusts":36.0,"aqi":230,"pm10":685.5,"pm2_5":132.2,"no2":15.1,"co":404.0,"o3":145.0,"so2":24.8,"mosquito_risk":0,"arthritis_risk":5,"migraine_risk":10,"frizz_risk":1,"updated_at":"2026-06-06T10:25:13.354345+05:30"},{"city":"Panipat","state":"Haryana","latitude":29.3909,"longitude":76.9635,"temp":34.6,"humidity":44,"rain":0.0,"pressure":977.8,"uv_index":7.65,"wind_gusts":24.1,"aqi":397,"pm10":786.0,"pm2_5":140.2,"no2":16.1,"co":499.0,"o3":138.0,"so2":32.9,"mosquito_risk":0,"arthritis_risk":5,"migraine_risk":7,"frizz_risk":1,"updated_at":"2026-06-06T10:25:13.354352+05:30"},{"city":"Mathura","state":"Uttar Pradesh","latitude":27.4924,"longitude":77.6737,"temp":34.6,"humidity":44,"rain":0.0,"pressure":984.2,"uv_index":8.05,"wind_gusts":28.1,"aqi":370,"pm10":732.0,"pm2_5":123.9,"no2":6.9,"co":402.0,"o3":138.0,"so2":14.1,"mosquito_risk":0,"arthritis_risk":5,"migraine_risk":7,"frizz_risk":1,"updated_at":"2026-06-06T10:25:13.354359+05:30"},{"city":"Vrindavan","state":"Uttar Pradesh","latitude":27.5823,"longitude":77.7027,"temp":34.9,"humidity":42,"rain":0.0,"pressure":984.6,"uv_index":8.05,"wind_gusts":28.1,"aqi":370,"pm10":732.0,"pm2_5":123.9,"no2":6.9,"co":394.0,"o3":138.0,"so2":14.1,"mosquito_risk":0,"arthritis_risk":5,"migraine_risk":7,"frizz_risk":1,"updated_at":"2026-06-06T10:25:13.354365+05:30"},{"city":"Ayodhya","state":"Uttar Pradesh","latitude":26.7922,"longitude":82.1998,"temp":33.5,"humidity":58,"rain":0.0,"pressure":992.1,"uv_index":8.45,"wind_gusts":43.9,"aqi":153,"pm10":105.0,"pm2_5":54.7,"no2":4.5,"co":349.0,"o3":149.0,"so2":9.5,"mosquito_risk":0,"arthritis_risk":5,"migraine_risk":7,"frizz_risk":1,"updated_at":"2026-06-06T10:25:13.354372+05:30"},{"city":"Ratlam","state":"Madhya Pradesh","latitude":23.3315,"longitude":75.0367,"temp":32.8,"humidity":56,"rain":0.0,"pressure":953.9,"uv_index":8.5,"wind_gusts":36.4,"aqi":84,"pm10":51.9,"pm2_5":28.3,"no2":3.8,"co":141.0,"o3":66.0,"so2":11.1,"mosquito_risk":0,"arthritis_risk":5,"migraine_risk":7,"frizz_risk":1,"updated_at":"2026-06-06T10:25:13.354378+05:30"},{"city":"Sagar","state":"Madhya Pradesh","latitude":23.8388,"longitude":78.7378,"temp":33.8,"humidity":32,"rain":0.0,"pressure":949.0,"uv_index":8.7,"wind_gusts":35.6,"aqi":74,"pm10":129.9,"pm2_5":29.9,"no2":1.3,"co":155.0,"o3":116.0,"so2":4.1,"mosquito_risk":0,"arthritis_risk":5,"migraine_risk":7,"frizz_risk":0,"updated_at":"2026-06-06T10:25:13.354385+05:30"},{"city":"Satna","state":"Madhya Pradesh","latitude":24.6005,"longitude":80.8322,"temp":33.9,"humidity":41,"rain":0.0,"pressure":969.4,"uv_index":8.8,"wind_gusts":36.0,"aqi":96,"pm10":153.2,"pm2_5":43.3,"no2":0.9,"co":196.0,"o3":125.0,"so2":5.1,"mosquito_risk":0,"arthritis_risk":5,"migraine_risk":7,"frizz_risk":1,"updated_at":"2026-06-06T10:25:13.354392+05:30"},{"city":"Akola","state":"Maharashtra","latitude":20.7002,"longitude":77.0082,"temp":34.8,"humidity":48,"rain":0.0,"pressure":973.8,"uv_index":8.8,"wind_gusts":41.4,"aqi":76,"pm10":47.0,"pm2_5":25.4,"no2":4.1,"co":138.0,"o3":79.0,"so2":10.8,"mosquito_risk":0,"arthritis_risk":5,"migraine_risk":7,"frizz_risk":1,"updated_at":"2026-06-06T10:25:13.354399+05:30"},{"city":"Amravati","state":"Maharashtra","latitude":20.9374,"longitude":77.7796,"temp":35.7,"humidity":38,"rain":0.0,"pressure":965.9,"uv_index":8.85,"wind_gusts":37.1,"aqi":79,"pm10":48.2,"pm2_5":27.3,"no2":4.3,"co":164.0,"o3":90.0,"so2":13.4,"mosquito_risk":0,"arthritis_risk":5,"migraine_risk":10,"frizz_risk":1,"updated_at":"2026-06-06T10:25:13.354408+05:30"},{"city":"Latur","state":"Maharashtra","latitude":18.4088,"longitude":76.5604,"temp":31.5,"humidity":50,"rain":0.0,"pressure":939.7,"uv_index":9.0,"wind_gusts":36.0,"aqi":74,"pm10":38.2,"pm2_5":21.5,"no2":3.0,"co":173.0,"o3":85.0,"so2":6.7,"mosquito_risk":0,"arthritis_risk":5,"migraine_risk":7,"frizz_risk":1,"updated_at":"2026-06-06T10:25:13.354415+05:30"},{"city":"Nanded","state":"Maharashtra","latitude":19.1383,"longitude":77.3091,"temp":34.5,"humidity":45,"rain":0.0,"pressure":967.7,"uv_index":8.9,"wind_gusts":36.0,"aqi":89,"pm10":39.9,"pm2_5":22.0,"no2":2.6,"co":168.0,"o3":88.0,"so2":4.2,"mosquito_risk":0,"arthritis_risk":5,"migraine_risk":7,"frizz_risk":1,"updated_at":"2026-06-06T10:25:13.354422+05:30"},{"city":"Gulbarga","state":"Karnataka","latitude":17.3297,"longitude":76.8343,"temp":33.1,"humidity":50,"rain":0.0,"pressure":958.3,"uv_index":8.95,"wind_gusts":51.1,"aqi":72,"pm10":19.4,"pm2_5":13.0,"no2":4.0,"co":160.0,"o3":88.0,"so2":4.1,"mosquito_risk":0,"arthritis_risk":5,"migraine_risk":7,"frizz_risk":1,"updated_at":"2026-06-06T10:25:13.354428+05:30"},{"city":"Bidar","state":"Karnataka","latitude":17.9104,"longitude":77.5199,"temp":30.9,"humidity":55,"rain":0.0,"pressure":935.5,"uv_index":9.0,"wind_gusts":32.8,"aqi":98,"pm10":35.0,"pm2_5":23.3,"no2":4.2,"co":185.0,"o3":111.0,"so2":8.1,"mosquito_risk":0,"arthritis_risk":5,"migraine_risk":7,"frizz_risk":1,"updated_at":"2026-06-06T10:25:13.354435+05:30"},{"city":"Hospet","state":"Karnataka","latitude":15.2689,"longitude":76.3909,"temp":27.4,"humidity":74,"rain":0.0,"pressure":956.7,"uv_index":8.4,"wind_gusts":42.5,"aqi":19,"pm10":6.6,"pm2_5":4.2,"no2":3.9,"co":129.0,"o3":53.0,"so2":2.3,"mosquito_risk":7,"arthritis_risk":5,"migraine_risk":7,"frizz_risk":1,"updated_at":"2026-06-06T10:25:13.354442+05:30"},{"city":"Tirupur","state":"Tamil Nadu","latitude":11.1085,"longitude":77.3411,"temp":30.1,"humidity":60,"rain":0.0,"pressure":976.3,"uv_index":8.95,"wind_gusts":64.4,"aqi":30,"pm10":6.5,"pm2_5":5.3,"no2":6.5,"co":139.0,"o3":49.0,"so2":3.7,"mosquito_risk":0,"arthritis_risk":5,"migraine_risk":7,"frizz_risk":1,"updated_at":"2026-06-06T10:25:13.354449+05:30"},{"city":"Alappuzha","state":"Kerala","latitude":9.4981,"longitude":76.3388,"temp":25.9,"humidity":92,"rain":0.3,"pressure":1012.2,"uv_index":8.35,"wind_gusts":41.0,"aqi":39,"pm10":16.1,"pm2_5":8.1,"no2":4.2,"co":93.0,"o3":49.0,"so2":1.4,"mosquito_risk":10,"arthritis_risk":0,"migraine_risk":4,"frizz_risk":1,"updated_at":"2026-06-06T10:25:13.354455+05:30"},{"city":"Munnar","state":"Kerala","latitude":10.0889,"longitude":77.0595,"temp":17.5,"humidity":95,"rain":0.1,"pressure":858.5,"uv_index":8.55,"wind_gusts":40.3,"aqi":14,"pm10":2.4,"pm2_5":2.1,"no2":3.6,"co":105.0,"o3":45.0,"so2":1.6,"mosquito_risk":6,"arthritis_risk":10,"migraine_risk":7,"frizz_risk":1,"updated_at":"2026-06-06T10:25:13.354463+05:30"},{"city":"Silchar","state":"Assam","latitude":24.8333,"longitude":92.7789,"temp":32.9,"humidity":60,"rain":0.0,"pressure":1002.0,"uv_index":8.9,"wind_gusts":22.7,"aqi":131,"pm10":47.6,"pm2_5":38.8,"no2":0.3,"co":272.0,"o3":143.0,"so2":5.8,"mosquito_risk":0,"arthritis_risk":5,"migraine_risk":4,"frizz_risk":1,"updated_at":"2026-06-06T10:25:13.354470+05:30"},{"city":"Dibrugarh","state":"Assam","latitude":27.4728,"longitude":94.912,"temp":31.2,"humidity":64,"rain":0.0,"pressure":992.5,"uv_index":8.95,"wind_gusts":28.1,"aqi":112,"pm10":35.7,"pm2_5":30.9,"no2":0.3,"co":307.0,"o3":161.0,"so2":4.2,"mosquito_risk":3,"arthritis_risk":5,"migraine_risk":7,"frizz_risk":1,"updated_at":"2026-06-06T10:25:13.354477+05:30"}]