[{"city":"Delhi","state":"Delhi","latitude":28.6139,"longitude":77.209,"temp":23.2,"humidity":60,"rain":0.0,"pressure":985.4,"uv_index":5.9,"wind_gusts":23.4,"aqi":152,"pm10":207.7,"pm2_5":68.2,"mosquito_risk":0,"arthritis_risk":5,"migraine_risk":3,"frizz_risk":0,"updated_at":"2026-03-17T22:35:42.224153+05:30"},{"city":"Mumbai","state":"Maharashtra","latitude":19.076,"longitude":72.8777,"temp":27.5,"humidity":73,"rain":0.0,"pressure":1010.1,"uv_index":7.7,"wind_gusts":18.7,"aqi":97,"pm10":51.8,"pm2_5":20.4,"mosquito_risk":7,"arthritis_risk":0,"migraine_risk":4,"frizz_risk":1,"updated_at":"2026-03-17T22:35:42.224218+05:30"},{"city":"Bangalore","state":"Karnataka","latitude":12.9716,"longitude":77.5946,"temp":22.1,"humidity":70,"rain":0.0,"pressure":913.5,"uv_index":9.35,"wind_gusts":41.0,"aqi":105,"pm10":73.1,"pm2_5":68.0,"mosquito_risk":3,"arthritis_risk":5,"migraine_risk":7,"frizz_risk":1,"updated_at":"2026-03-17T22:35:42.224235+05:30"},{"city":"Hyderabad","state":"Telangana","latitude":17.385,"longitude":78.4867,"temp":24.4,"humidity":75,"rain":0.0,"pressure":955.1,"uv_index":8.4,"wind_gusts":19.4,"aqi":79,"pm10":30.4,"pm2_5":27.6,"mosquito_risk":3,"arthritis_risk":5,"migraine_risk":7,"frizz_risk":1,"updated_at":"2026-03-17T22:35:42.224246+05:30"},{"city":"Chennai","state":"Tamil Nadu","latitude":13.0827,"longitude":80.2707,"temp":26.8,"humidity":81,"rain":0.0,"pressure":1009.8,"uv_index":9.1,"wind_gusts":33.1,"aqi":32,"pm10":9.3,"pm2_5":6.7,"mosquito_risk":7,"arthritis_risk":0,"migraine_risk":4,"frizz_risk":1,"updated_at":"2026-03-17T22:35:42.224256+05:30"},{"city":"Kolkata","state":"West Bengal","latitude":22.5726,"longitude":88.3639,"temp":25.0,"humidity":88,"rain":0.0,"pressure":1008.6,"uv_index":7.9,"wind_gusts":53.6,"aqi":69,"pm10":16.2,"pm2_5":13.4,"mosquito_risk":7,"arthritis_risk":0,"migraine_risk":4,"frizz_risk":1,"updated_at":"2026-03-17T22:35:42.224266+05:30"},{"city":"Pune","state":"Maharashtra","latitude":18.5204,"longitude":73.8567,"temp":22.7,"humidity":69,"rain":0.0,"pressure":949.4,"uv_index":8.25,"wind_gusts":36.7,"aqi":113,"pm10":59.8,"pm2_5":37.8,"mosquito_risk":3,"arthritis_risk":5,"migraine_risk":7,"frizz_risk":1,"updated_at":"2026-03-17T22:35:42.224280+05:30"},{"city":"Ahmedabad","state":"Gujarat","latitude":23.0225,"longitude":72.5714,"temp":28.6,"humidity":34,"rain":0.0,"pressure":1002.8,"uv_index":7.5,"wind_gusts":21.2,"aqi":62,"pm10":77.8,"pm2_5":50.2,"mosquito_risk":4,"arthritis_risk":5,"migraine_risk":4,"frizz_risk":0,"updated_at":"2026-03-17T22:35:42.224289+05:30"},{"city":"Jaipur","state":"Rajasthan","latitude":26.9124,"longitude":75.7873,"temp":25.0,"humidity":44,"rain":0.0,"pressure":961.5,"uv_index":6.75,"wind_gusts":38.5,"aqi":235,"pm10":393.9,"pm2_5":72.9,"mosquito_risk":4,"arthritis_risk":5,"migraine_risk":7,"frizz_risk":0,"updated_at":"2026-03-17T22:35:42.224299+05:30"},{"city":"Lucknow","state":"Uttar Pradesh","latitude":26.8467,"longitude":80.9462,"temp":24.6,"humidity":50,"rain":0.0,"pressure":995.1,"uv_index":6.65,"wind_gusts":24.8,"aqi":94,"pm10":60.5,"pm2_5":33.3,"mosquito_risk":0,"arthritis_risk":5,"migraine_risk":7,"frizz_risk":0,"updated_at":"2026-03-17T22:35:42.224307+05:30"},{"city":"Kanpur","state":"Uttar Pradesh","latitude":26.4499,"longitude":80.3319,"temp":24.1,"humidity":55,"rain":0.0,"pressure":993.1,"uv_index":6.7,"wind_gusts":23.8,"aqi":117,"pm10":187.2,"pm2_5":46.0,"mosquito_risk":0,"arthritis_risk":5,"migraine_risk":7,"frizz_risk":0,"updated_at":"2026-03-17T22:35:42.224316+05:30"},{"city":"Chandigarh","state":"Chandigarh","latitude":30.7333,"longitude":76.7794,"temp":18.3,"humidity":76,"rain":0.0,"pressure":971.2,"uv_index":5.65,"wind_gusts":17.3,"aqi":76,"pm10":93.4,"pm2_5":51.5,"mosquito_risk":3,"arthritis_risk":5,"migraine_risk":3,"frizz_risk":0,"updated_at":"2026-03-17T22:35:42.224324+05:30"},{"city":"Srinagar","state":"Jammu and Kashmir","latitude":34.0837,"longitude":74.7973,"temp":7.7,"humidity":73,"rain":0.0,"pressure":842.2,"uv_index":7.05,"wind_gusts":14.4,"aqi":183,"pm10":98.7,"pm2_5":82.7,"mosquito_risk":3,"arthritis_risk":5,"migraine_risk":7,"frizz_risk":0,"updated_at":"2026-03-17T22:35:42.224332+05:30"},{"city":"Jammu","state":"Jammu and Kashmir","latitude":32.7266,"longitude":74.857,"temp":18.2,"humidity":73,"rain":0.0,"pressure":975.7,"uv_index":6.7,"wind_gusts":15.8,"aqi":80,"pm10":67.5,"pm2_5":47.1,"mosquito_risk":3,"arthritis_risk":5,"migraine_risk":7,"frizz_risk":0,"updated_at":"2026-03-17T22:35:42.224339+05:30"},{"city":"Amritsar","state":"Punjab","latitude":31.634,"longitude":74.8723,"temp":19.2,"humidity":56,"rain":0.0,"pressure":984.0,"uv_index":6.5,"wind_gusts":16.9,"aqi":94,"pm10":148.5,"pm2_5":84.1,"mosquito_risk":0,"arthritis_risk":5,"migraine_risk":7,"frizz_risk":0,"updated_at":"2026-03-17T22:35:42.224350+05:30"},{"city":"Ludhiana","state":"Punjab","latitude":30.901,"longitude":75.8573,"temp":18.7,"humidity":70,"rain":0.0,"pressure":981.8,"uv_index":6.2,"wind_gusts":16.2,"aqi":96,"pm10":169.0,"pm2_5":91.5,"mosquito_risk":3,"arthritis_risk":5,"migraine_risk":7,"frizz_risk":0,"updated_at":"2026-03-17T22:35:42.224356+05:30"},{"city":"Jalandhar","state":"Punjab","latitude":31.326,"longitude":75.5762,"temp":18.0,"humidity":73,"rain":0.0,"pressure":983.0,"uv_index":6.5,"wind_gusts":16.9,"aqi":88,"pm10":120.6,"pm2_5":68.0,"mosquito_risk":3,"arthritis_risk":5,"migraine_risk":7,"frizz_risk":0,"updated_at":"2026-03-17T22:35:42.224365+05:30"},{"city":"Dehradun","state":"Uttarakhand","latitude":30.6284,"longitude":78.0322,"temp":11.7,"humidity":53,"rain":0.0,"pressure":830.1,"uv_index":4.95,"wind_gusts":23.8,"aqi":49,"pm10":70.5,"pm2_5":21.6,"mosquito_risk":0,"arthritis_risk":5,"migraine_risk":3,"frizz_risk":0,"updated_at":"2026-03-17T22:35:42.224373+05:30"},{"city":"Shimla","state":"Himachal Pradesh","latitude":31.1048,"longitude":77.1734,"temp":10.5,"humidity":64,"rain":0.0,"pressure":783.7,"uv_index":5.45,"wind_gusts":23.0,"aqi":55,"pm10":67.5,"pm2_5":27.6,"mosquito_risk":3,"arthritis_risk":5,"migraine_risk":3,"frizz_risk":0,"updated_at":"2026-03-17T22:35:42.224381+05:30"},{"city":"Manali","state":"Himachal Pradesh","latitude":32.2396,"longitude":77.1887,"temp":10.0,"humidity":48,"rain":0.0,"pressure":819.5,"uv_index":7.35,"wind_gusts":38.2,"aqi":93,"pm10":32.2,"pm2_5":14.5,"mosquito_risk":0,"arthritis_risk":5,"migraine_risk":7,"frizz_risk":1,"updated_at":"2026-03-17T22:35:42.224388+05:30"},{"city":"Gurgaon","state":"Haryana","latitude":28.4595,"longitude":77.0266,"temp":19.9,"humidity":78,"rain":0.0,"pressure":983.9,"uv_index":6.05,"wind_gusts":22.7,"aqi":449,"pm10":618.4,"pm2_5":112.2,"mosquito_risk":3,"arthritis_risk":5,"migraine_risk":7,"frizz_risk":0,"updated_at":"2026-03-17T22:35:42.224395+05:30"},{"city":"Noida","state":"Uttar Pradesh","latitude":28.5355,"longitude":77.391,"temp":22.7,"humidity":62,"rain":0.0,"pressure":986.9,"uv_index":6.0,"wind_gusts":23.0,"aqi":449,"pm10":618.4,"pm2_5":112.2,"mosquito_risk":3,"arthritis_risk":5,"migraine_risk":3,"frizz_risk":0,"updated_at":"2026-03-17T22:35:42.224402+05:30"},{"city":"Ghaziabad","state":"Uttar Pradesh","latitude":28.6692,"longitude":77.4538,"temp":21.2,"humidity":67,"rain":0.0,"pressure":985.1,"uv_index":5.85,"wind_gusts":20.5,"aqi":117,"pm10":97.3,"pm2_5":61.2,"mosquito_risk":3,"arthritis_risk":5,"migraine_risk":3,"frizz_risk":0,"updated_at":"2026-03-17T22:35:42.224408+05:30"},{"city":"Faridabad","state":"Haryana","latitude":28.4089,"longitude":77.3178,"temp":21.3,"humidity":65,"rain":0.0,"pressure":986.0,"uv_index":6.05,"wind_gusts":21.6,"aqi":449,"pm10":618.4,"pm2_5":112.2,"mosquito_risk":3,"arthritis_risk":5,"migraine_risk":7,"frizz_risk":0,"updated_at":"2026-03-17T22:35:42.224432+05:30"},{"city":"Meerut","state":"Uttar Pradesh","latitude":28.9845,"longitude":77.7064,"temp":19.6,"humidity":69,"rain":0.0,"pressure":984.0,"uv_index":5.9,"wind_gusts":17.3,"aqi":117,"pm10":97.3,"pm2_5":61.2,"mosquito_risk":3,"arthritis_risk":5,"migraine_risk":3,"frizz_risk":0,"updated_at":"2026-03-17T22:35:42.224439+05:30"},{"city":"Agra","state":"Uttar Pradesh","latitude":27.1767,"longitude":78.0081,"temp":23.4,"humidity":58,"rain":0.0,"pressure":989.3,"uv_index":6.35,"wind_gusts":16.6,"aqi":477,"pm10":935.0,"pm2_5":122.0,"mosquito_risk":0,"arthritis_risk":5,"migraine_risk":7,"frizz_risk":0,"updated_at":"2026-03-17T22:35:42.224447+05:30"},{"city":"Varanasi","state":"Uttar Pradesh","latitude":25.3176,"longitude":82.9739,"temp":24.5,"humidity":55,"rain":0.0,"pressure":998.9,"uv_index":7.35,"wind_gusts":20.2,"aqi":134,"pm10":69.2,"pm2_5":48.2,"mosquito_risk":0,"arthritis_risk":5,"migraine_risk":7,"frizz_risk":0,"updated_at":"2026-03-17T22:35:42.224458+05:30"},{"city":"Prayagraj","state":"Uttar Pradesh","latitude":25.4358,"longitude":81.8463,"temp":25.3,"humidity":55,"rain":0.0,"pressure":997.1,"uv_index":7.2,"wind_gusts":20.9,"aqi":113,"pm10":62.9,"pm2_5":41.0,"mosquito_risk":4,"arthritis_risk":5,"migraine_risk":7,"frizz_risk":0,"updated_at":"2026-03-17T22:35:42.224466+05:30"},{"city":"Gorakhpur","state":"Uttar Pradesh","latitude":26.7606,"longitude":83.3732,"temp":22.5,"humidity":63,"rain":0.0,"pressure":999.0,"uv_index":7.05,"wind_gusts":23.4,"aqi":94,"pm10":100.4,"pm2_5":66.6,"mosquito_risk":3,"arthritis_risk":5,"migraine_risk":7,"frizz_risk":0,"updated_at":"2026-03-17T22:35:42.224475+05:30"},{"city":"Bareilly","state":"Uttar Pradesh","latitude":28.367,"longitude":79.4304,"temp":20.2,"humidity":63,"rain":0.0,"pressure":989.0,"uv_index":5.4,"wind_gusts":16.9,"aqi":96,"pm10":72.4,"pm2_5":46.8,"mosquito_risk":3,"arthritis_risk":5,"migraine_risk":3,"frizz_risk":0,"updated_at":"2026-03-17T22:35:42.224483+05:30"},{"city":"Aligarh","state":"Uttar Pradesh","latitude":27.8974,"longitude":78.088,"temp":21.7,"humidity":61,"rain":0.0,"pressure":987.5,"uv_index":6.15,"wind_gusts":16.9,"aqi":152,"pm10":311.1,"pm2_5":66.1,"mosquito_risk":3,"arthritis_risk":5,"migraine_risk":7,"frizz_risk":0,"updated_at":"2026-03-17T22:35:42.224489+05:30"},{"city":"Moradabad","state":"Uttar Pradesh","latitude":28.8386,"longitude":78.7733,"temp":19.9,"humidity":66,"rain":0.0,"pressure":986.1,"uv_index":5.45,"wind_gusts":16.9,"aqi":118,"pm10":124.3,"pm2_5":67.5,"mosquito_risk":3,"arthritis_risk":5,"migraine_risk":3,"frizz_risk":0,"updated_at":"2026-03-17T22:35:42.224495+05:30"},{"city":"Saharanpur","state":"Uttar Pradesh","latitude":29.9637,"longitude":77.546,"temp":18.9,"humidity":69,"rain":0.0,"pressure":978.2,"uv_index":4.7,"wind_gusts":14.8,"aqi":113,"pm10":121.5,"pm2_5":66.4,"mosquito_risk":3,"arthritis_risk":5,"migraine_risk":3,"frizz_risk":0,"updated_at":"2026-03-17T22:35:42.224501+05:30"},{"city":"Jhansi","state":"Uttar Pradesh","latitude":25.4484,"longitude":78.5685,"temp":24.8,"humidity":54,"rain":0.0,"pressure":979.1,"uv_index":7.2,"wind_gusts":24.5,"aqi":70,"pm10":38.8,"pm2_5":21.9,"mosquito_risk":0,"arthritis_risk":5,"migraine_risk":7,"frizz_risk":0,"updated_at":"2026-03-17T22:35:45.474838+05:30"},{"city":"Surat","state":"Gujarat","latitude":21.1702,"longitude":72.8311,"temp":24.7,"humidity":89,"rain":0.0,"pressure":1008.2,"uv_index":7.35,"wind_gusts":29.5,"aqi":89,"pm10":43.7,"pm2_5":28.1,"mosquito_risk":3,"arthritis_risk":0,"migraine_risk":4,"frizz_risk":1,"updated_at":"2026-03-17T22:35:45.474874+05:30"},{"city":"Vadodara","state":"Gujarat","latitude":22.3072,"longitude":73.1812,"temp":26.1,"humidity":51,"rain":0.0,"pressure":1005.1,"uv_index":7.5,"wind_gusts":28.1,"aqi":73,"pm10":49.5,"pm2_5":31.9,"mosquito_risk":4,"arthritis_risk":5,"migraine_risk":4,"frizz_risk":0,"updated_at":"2026-03-17T22:35:45.474885+05:30"},{"city":"Rajkot","state":"Gujarat","latitude":22.3039,"longitude":70.8022,"temp":28.3,"humidity":55,"rain":0.0,"pressure":995.0,"uv_index":7.35,"wind_gusts":24.5,"aqi":56,"pm10":31.9,"pm2_5":16.2,"mosquito_risk":4,"arthritis_risk":5,"migraine_risk":7,"frizz_risk":1,"updated_at":"2026-03-17T22:35:45.474893+05:30"},{"city":"Thane","state":"Maharashtra","latitude":19.2183,"longitude":72.9781,"temp":25.6,"humidity":79,"rain":0.0,"pressure":1009.6,"uv_index":7.7,"wind_gusts":31.3,"aqi":97,"pm10":51.8,"pm2_5":20.4,"mosquito_risk":7,"arthritis_risk":0,"migraine_risk":4,"frizz_risk":1,"updated_at":"2026-03-17T22:35:45.474901+05:30"},{"city":"Nagpur","state":"Maharashtra","latitude":21.1458,"longitude":79.0882,"temp":27.0,"humidity":55,"rain":0.0,"pressure":974.6,"uv_index":8.05,"wind_gusts":19.8,"aqi":99,"pm10":35.7,"pm2_5":28.5,"mosquito_risk":4,"arthritis_risk":5,"migraine_risk":7,"frizz_risk":1,"updated_at":"2026-03-17T22:35:45.474908+05:30"},{"city":"Nashik","state":"Maharashtra","latitude":19.9975,"longitude":73.7898,"temp":22.3,"humidity":73,"rain":0.0,"pressure":946.7,"uv_index":7.9,"wind_gusts":30.6,"aqi":74,"pm10":38.6,"pm2_5":19.3,"mosquito_risk":3,"arthritis_risk":5,"migraine_risk":7,"frizz_risk":1,"updated_at":"2026-03-17T22:35:45.474916+05:30"},{"city":"Aurangabad","state":"Maharashtra","latitude":19.8762,"longitude":75.3433,"temp":26.2,"humidity":35,"rain":0.0,"pressure":944.7,"uv_index":8.4,"wind_gusts":29.5,"aqi":83,"pm10":36.4,"pm2_5":24.0,"mosquito_risk":4,"arthritis_risk":5,"migraine_risk":7,"frizz_risk":0,"updated_at":"2026-03-17T22:35:45.474923+05:30"},{"city":"Solapur","state":"Maharashtra","latitude":17.6599,"longitude":75.9064,"temp":25.1,"humidity":58,"rain":0.0,"pressure":958.2,"uv_index":8.6,"wind_gusts":33.5,"aqi":143,"pm10":38.3,"pm2_5":35.7,"mosquito_risk":4,"arthritis_risk":5,"migraine_risk":7,"frizz_risk":1,"updated_at":"2026-03-17T22:35:45.474930+05:30"},{"city":"Kolhapur","state":"Maharashtra","latitude":16.705,"longitude":74.2433,"temp":21.8,"humidity":72,"rain":0.0,"pressure":948.9,"uv_index":8.7,"wind_gusts":39.2,"aqi":85,"pm10":42.1,"pm2_5":27.1,"mosquito_risk":3,"arthritis_risk":5,"migraine_risk":7,"frizz_risk":1,"updated_at":"2026-03-17T22:35:45.474937+05:30"},{"city":"Goa","state":"Goa","latitude":15.2993,"longitude":74.124,"temp":27.6,"humidity":77,"rain":0.0,"pressure":999.5,"uv_index":8.75,"wind_gusts":33.8,"aqi":73,"pm10":65.9,"pm2_5":27.8,"mosquito_risk":7,"arthritis_risk":5,"migraine_risk":7,"frizz_risk":1,"updated_at":"2026-03-17T22:35:45.474944+05:30"},{"city":"Jodhpur","state":"Rajasthan","latitude":26.2389,"longitude":73.0243,"temp":26.0,"humidity":27,"rain":0.0,"pressure":984.1,"uv_index":6.15,"wind_gusts":30.6,"aqi":120,"pm10":133.6,"pm2_5":37.3,"mosquito_risk":4,"arthritis_risk":5,"migraine_risk":7,"frizz_risk":0,"updated_at":"2026-03-17T22:35:45.474951+05:30"},{"city":"Udaipur","state":"Rajasthan","latitude":24.5854,"longitude":73.7125,"temp":24.3,"humidity":34,"rain":0.0,"pressure":947.6,"uv_index":7.85,"wind_gusts":34.6,"aqi":61,"pm10":24.4,"pm2_5":11.8,"mosquito_risk":0,"arthritis_risk":5,"migraine_risk":7,"frizz_risk":0,"updated_at":"2026-03-17T22:35:45.474957+05:30"},{"city":"Kota","state":"Rajasthan","latitude":25.2138,"longitude":75.8648,"temp":25.3,"humidity":40,"rain":0.0,"pressure":979.2,"uv_index":7.25,"wind_gusts":27.7,"aqi":69,"pm10":71.7,"pm2_5":35.7,"mosquito_risk":4,"arthritis_risk":5,"migraine_risk":7,"frizz_risk":0,"updated_at":"2026-03-17T22:35:45.474964+05:30"},{"city":"Bikaner","state":"Rajasthan","latitude":28.0229,"longitude":73.3119,"temp":24.6,"humidity":35,"rain":0.0,"pressure":983.5,"uv_index":6.55,"wind_gusts":20.9,"aqi":92,"pm10":33.3,"pm2_5":17.5,"mosquito_risk":0,"arthritis_risk":5,"migraine_risk":7,"frizz_risk":0,"updated_at":"2026-03-17T22:35:45.474971+05:30"},{"city":"Ajmer","state":"Rajasthan","latitude":26.4499,"longitude":74.6399,"temp":24.5,"humidity":28,"rain":0.0,"pressure":955.8,"uv_index":6.5,"wind_gusts":37.4,"aqi":139,"pm10":97.6,"pm2_5":32.0,"mosquito_risk":0,"arthritis_risk":5,"migraine_risk":7,"frizz_risk":0,"updated_at":"2026-03-17T22:35:45.474977+05:30"},{"city":"Gwalior","state":"Madhya Pradesh","latitude":26.2183,"longitude":78.1828,"temp":25.3,"humidity":65,"rain":0.0,"pressure":984.5,"uv_index":6.9,"wind_gusts":38.5,"aqi":99,"pm10":169.5,"pm2_5":44.9,"mosquito_risk":7,"arthritis_risk":5,"migraine_risk":7,"frizz_risk":1,"updated_at":"2026-03-17T22:35:45.474984+05:30"},{"city":"Indore","state":"Madhya Pradesh","latitude":22.7196,"longitude":75.8577,"temp":23.7,"humidity":44,"rain":0.0,"pressure":949.0,"uv_index":7.75,"wind_gusts":33.1,"aqi":61,"pm10":34.8,"pm2_5":28.0,"mosquito_risk":0,"arthritis_risk":5,"migraine_risk":7,"frizz_risk":0,"updated_at":"2026-03-17T22:35:45.474991+05:30"},{"city":"Bhopal","state":"Madhya Pradesh","latitude":23.2599,"longitude":77.4126,"temp":25.2,"humidity":37,"rain":0.0,"pressure":954.4,"uv_index":7.65,"wind_gusts":31.3,"aqi":58,"pm10":30.9,"pm2_5":23.1,"mosquito_risk":4,"arthritis_risk":5,"migraine_risk":7,"frizz_risk":0,"updated_at":"2026-03-17T22:35:45.474998+05:30"},{"city":"Jabalpur","state":"Madhya Pradesh","latitude":23.1815,"longitude":79.9864,"temp":27.5,"humidity":32,"rain":0.0,"pressure":962.4,"uv_index":7.75,"wind_gusts":28.4,"aqi":67,"pm10":18.5,"pm2_5":13.7,"mosquito_risk":4,"arthritis_risk":5,"migraine_risk":7,"frizz_risk":0,"updated_at":"2026-03-17T22:35:45.475004+05:30"},{"city":"Ujjain","state":"Madhya Pradesh","latitude":23.1765,"longitude":75.7885,"temp":23.8,"humidity":43,"rain":0.0,"pressure":954.7,"uv_index":7.65,"wind_gusts":27.7,"aqi":59,"pm10":24.3,"pm2_5":20.1,"mosquito_risk":0,"arthritis_risk":5,"migraine_risk":7,"frizz_risk":0,"updated_at":"2026-03-17T22:35:45.475011+05:30"},{"city":"Visakhapatnam","state":"Andhra Pradesh","latitude":17.6868,"longitude":83.2185,"temp":25.1,"humidity":82,"rain":0.0,"pressure":1008.0,"uv_index":8.7,"wind_gusts":36.4,"aqi":55,"pm10":15.9,"pm2_5":13.5,"mosquito_risk":7,"arthritis_risk":0,"migraine_risk":4,"frizz_risk":1,"updated_at":"2026-03-17T22:35:45.475017+05:30"},{"city":"Vijayawada","state":"Andhra Pradesh","latitude":16.5062,"longitude":80.648,"temp":25.8,"humidity":78,"rain":0.0,"pressure":1006.2,"uv_index":8.8,"wind_gusts":27.0,"aqi":50,"pm10":14.9,"pm2_5":13.4,"mosquito_risk":7,"arthritis_risk":5,"migraine_risk":4,"frizz_risk":1,"updated_at":"2026-03-17T22:35:45.475024+05:30"},{"city":"Guntur","state":"Andhra Pradesh","latitude":16.3067,"longitude":80.4365,"temp":25.4,"humidity":87,"rain":0.0,"pressure":1007.4,"uv_index":8.8,"wind_gusts":29.9,"aqi":46,"pm10":13.3,"pm2_5":11.9,"mosquito_risk":7,"arthritis_risk":5,"migraine_risk":4,"frizz_risk":1,"updated_at":"2026-03-17T22:35:45.475030+05:30"},{"city":"Nellore","state":"Andhra Pradesh","latitude":14.4426,"longitude":79.9865,"temp":25.8,"humidity":89,"rain":0.0,"pressure":1008.7,"uv_index":8.95,"wind_gusts":32.4,"aqi":42,"pm10":8.1,"pm2_5":5.8,"mosquito_risk":7,"arthritis_risk":0,"migraine_risk":4,"frizz_risk":1,"updated_at":"2026-03-17T22:35:45.475038+05:30"},{"city":"Kurnool","state":"Andhra Pradesh","latitude":15.8281,"longitude":78.0373,"temp":28.8,"humidity":47,"rain":0.0,"pressure":978.6,"uv_index":8.45,"wind_gusts":26.6,"aqi":90,"pm10":39.3,"pm2_5":34.9,"mosquito_risk":4,"arthritis_risk":5,"migraine_risk":7,"frizz_risk":1,"updated_at":"2026-03-17T22:35:45.475045+05:30"},{"city":"Kakinada","state":"Andhra Pradesh","latitude":16.9891,"longitude":82.2475,"temp":24.4,"humidity":86,"rain":0.0,"pressure":1011.6,"uv_index":8.75,"wind_gusts":31.0,"aqi":38,"pm10":10.2,"pm2_5":7.7,"mosquito_risk":3,"arthritis_risk":0,"migraine_risk":4,"frizz_risk":1,"updated_at":"2026-03-17T22:35:45.475051+05:30"},{"city":"Tirupati","state":"Andhra Pradesh","latitude":13.6288,"longitude":79.4192,"temp":25.2,"humidity":75,"rain":0.0,"pressure":994.5,"uv_index":9.1,"wind_gusts":30.2,"aqi":61,"pm10":14.1,"pm2_5":12.4,"mosquito_risk":7,"arthritis_risk":5,"migraine_risk":7,"frizz_risk":1,"updated_at":"2026-03-17T22:35:45.475058+05:30"},{"city":"Warangal","state":"Telangana","latitude":17.9689,"longitude":79.5941,"temp":26.0,"humidity":73,"rain":0.0,"pressure":981.1,"uv_index":8.5,"wind_gusts":29.9,"aqi":60,"pm10":29.0,"pm2_5":26.2,"mosquito_risk":7,"arthritis_risk":5,"migraine_risk":7,"frizz_risk":1,"updated_at":"2026-03-17T22:35:45.475065+05:30"},{"city":"Nizamabad","state":"Telangana","latitude":18.6725,"longitude":78.0941,"temp":26.1,"humidity":62,"rain":0.0,"pressure":966.4,"uv_index":8.45,"wind_gusts":37.8,"aqi":124,"pm10":45.4,"pm2_5":40.4,"mosquito_risk":7,"arthritis_risk":5,"migraine_risk":7,"frizz_risk":1,"updated_at":"2026-03-17T22:35:45.475071+05:30"},{"city":"Mysore","state":"Karnataka","latitude":12.2958,"longitude":76.6396,"temp":21.2,"humidity":79,"rain":0.0,"pressure":930.3,"uv_index":9.35,"wind_gusts":33.8,"aqi":120,"pm10":51.8,"pm2_5":48.9,"mosquito_risk":3,"arthritis_risk":5,"migraine_risk":7,"frizz_risk":1,"updated_at":"2026-03-17T22:35:45.475078+05:30"},{"city":"Mangalore","state":"Karnataka","latitude":12.9141,"longitude":74.856,"temp":29.2,"humidity":75,"rain":0.0,"pressure":1008.1,"uv_index":8.95,"wind_gusts":18.0,"aqi":86,"pm10":44.4,"pm2_5":32.6,"mosquito_risk":7,"arthritis_risk":0,"migraine_risk":4,"frizz_risk":1,"updated_at":"2026-03-17T22:35:45.475084+05:30"},{"city":"Hubli-Dharwad","state":"Karnataka","latitude":15.3647,"longitude":75.124,"temp":22.9,"humidity":83,"rain":0.0,"pressure":942.0,"uv_index":8.7,"wind_gusts":27.7,"aqi":98,"pm10":46.4,"pm2_5":42.3,"mosquito_risk":3,"arthritis_risk":5,"migraine_risk":7,"frizz_risk":1,"updated_at":"2026-03-17T22:35:45.475091+05:30"},{"city":"Belgaum","state":"Karnataka","latitude":15.8497,"longitude":74.4977,"temp":21.3,"humidity":90,"rain":0.0,"pressure":926.7,"uv_index":8.95,"wind_gusts":38.2,"aqi":75,"pm10":43.9,"pm2_5":24.2,"mosquito_risk":3,"arthritis_risk":5,"migraine_risk":7,"frizz_risk":1,"updated_at":"2026-03-17T22:35:48.731191+05:30"},{"city":"Coimbatore","state":"Tamil Nadu","latitude":11.0168,"longitude":76.9558,"temp":22.6,"humidity":83,"rain":0.0,"pressure":963.9,"uv_index":9.3,"wind_gusts":25.9,"aqi":102,"pm10":38.0,"pm2_5":35.9,"mosquito_risk":3,"arthritis_risk":5,"migraine_risk":7,"frizz_risk":1,"updated_at":"2026-03-17T22:35:48.731226+05:30"},{"city":"Madurai","state":"Tamil Nadu","latitude":9.9252,"longitude":78.1198,"temp":24.3,"humidity":84,"rain":0.0,"pressure":995.7,"uv_index":7.55,"wind_gusts":32.4,"aqi":52,"pm10":19.8,"pm2_5":18.7,"mosquito_risk":3,"arthritis_risk":5,"migraine_risk":7,"frizz_risk":1,"updated_at":"2026-03-17T22:35:48.731236+05:30"},{"city":"Trichy","state":"Tamil Nadu","latitude":10.7905,"longitude":78.7047,"temp":26.9,"humidity":82,"rain":0.0,"pressure":1002.2,"uv_index":9.2,"wind_gusts":22.0,"aqi":49,"pm10":15.0,"pm2_5":13.3,"mosquito_risk":7,"arthritis_risk":5,"migraine_risk":4,"frizz_risk":1,"updated_at":"2026-03-17T22:35:48.731245+05:30"},{"city":"Salem","state":"Tamil Nadu","latitude":11.6643,"longitude":78.146,"temp":25.5,"humidity":77,"rain":0.0,"pressure":979.7,"uv_index":9.25,"wind_gusts":24.1,"aqi":109,"pm10":30.0,"pm2_5":28.1,"mosquito_risk":7,"arthritis_risk":5,"migraine_risk":7,"frizz_risk":1,"updated_at":"2026-03-17T22:35:48.731252+05:30"},{"city":"Tirunelveli","state":"Tamil Nadu","latitude":8.7139,"longitude":77.7567,"temp":23.8,"humidity":86,"rain":0.0,"pressure":1005.9,"uv_index":7.05,"wind_gusts":33.8,"aqi":64,"pm10":25.7,"pm2_5":24.6,"mosquito_risk":3,"arthritis_risk":5,"migraine_risk":4,"frizz_risk":1,"updated_at":"2026-03-17T22:35:48.731261+05:30"},{"city":"Vellore","state":"Tamil Nadu","latitude":12.9165,"longitude":79.1325,"temp":25.3,"humidity":71,"rain":0.0,"pressure":987.3,"uv_index":9.15,"wind_gusts":33.8,"aqi":63,"pm10":14.5,"pm2_5":13.1,"mosquito_risk":7,"arthritis_risk":5,"migraine_risk":7,"frizz_risk":1,"updated_at":"2026-03-17T22:35:48.731268+05:30"},{"city":"Erode","state":"Tamil Nadu","latitude":11.341,"longitude":77.7172,"temp":25.9,"humidity":79,"rain":0.0,"pressure":991.5,"uv_index":9.25,"wind_gusts":25.6,"aqi":73,"pm10":14.7,"pm2_5":13.6,"mosquito_risk":7,"arthritis_risk":5,"migraine_risk":7,"frizz_risk":1,"updated_at":"2026-03-17T22:35:48.731274+05:30"},{"city":"Kochi","state":"Kerala","latitude":9.9312,"longitude":76.2673,"temp":26.6,"humidity":83,"rain":0.0,"pressure":1010.8,"uv_index":9.0,"wind_gusts":30.6,"aqi":94,"pm10":48.0,"pm2_5":46.8,"mosquito_risk":7,"arthritis_risk":0,"migraine_risk":4,"frizz_risk":1,"updated_at":"2026-03-17T22:35:48.731282+05:30"},{"city":"Thiruvananthapuram","state":"Kerala","latitude":8.5241,"longitude":76.9366,"temp":27.1,"humidity":84,"rain":0.0,"pressure":1009.9,"uv_index":8.3,"wind_gusts":23.4,"aqi":71,"pm10":19.7,"pm2_5":18.3,"mosquito_risk":7,"arthritis_risk":0,"migraine_risk":4,"frizz_risk":1,"updated_at":"2026-03-17T22:35:48.731289+05:30"},{"city":"Kozhikode","state":"Kerala","latitude":11.2588,"longitude":75.7804,"temp":28.8,"humidity":80,"rain":0.0,"pressure":1009.3,"uv_index":8.95,"wind_gusts":26.6,"aqi":108,"pm10":37.0,"pm2_5":29.8,"mosquito_risk":7,"arthritis_risk":0,"migraine_risk":4,"frizz_risk":1,"updated_at":"2026-03-17T22:35:48.731296+05:30"},{"city":"Thrissur","state":"Kerala","latitude":10.5276,"longitude":76.2144,"temp":26.4,"humidity":86,"rain":0.0,"pressure":1009.0,"uv_index":8.75,"wind_gusts":33.1,"aqi":93,"pm10":41.9,"pm2_5":40.0,"mosquito_risk":7,"arthritis_risk":0,"migraine_risk":4,"frizz_risk":1,"updated_at":"2026-03-17T22:35:48.731304+05:30"},{"city":"Kannur","state":"Kerala","latitude":11.8745,"longitude":75.3704,"temp":28.2,"humidity":80,"rain":0.0,"pressure":1008.4,"uv_index":9.0,"wind_gusts":25.9,"aqi":109,"pm10":39.8,"pm2_5":34.1,"mosquito_risk":7,"arthritis_risk":0,"migraine_risk":4,"frizz_risk":1,"updated_at":"2026-03-17T22:35:48.731311+05:30"},{"city":"Patna","state":"Bihar","latitude":25.5941,"longitude":85.1376,"temp":26.7,"humidity":54,"rain":0.0,"pressure":1001.9,"uv_index":7.45,"wind_gusts":23.8,"aqi":148,"pm10":92.2,"pm2_5":69.4,"mosquito_risk":4,"arthritis_risk":5,"migraine_risk":4,"frizz_risk":1,"updated_at":"2026-03-17T22:35:48.731318+05:30"},{"city":"Gaya","state":"Bihar","latitude":24.7914,"longitude":85.0002,"temp":25.1,"humidity":59,"rain":0.0,"pressure":995.6,"uv_index":7.6,"wind_gusts":27.7,"aqi":93,"pm10":69.6,"pm2_5":46.7,"mosquito_risk":4,"arthritis_risk":5,"migraine_risk":7,"frizz_risk":1,"updated_at":"2026-03-17T22:35:48.731325+05:30"},{"city":"Muzaffarpur","state":"Bihar","latitude":26.1209,"longitude":85.3647,"temp":23.9,"humidity":66,"rain":0.0,"pressure":1002.0,"uv_index":7.45,"wind_gusts":20.9,"aqi":153,"pm10":96.9,"pm2_5":74.7,"mosquito_risk":3,"arthritis_risk":5,"migraine_risk":4,"frizz_risk":1,"updated_at":"2026-03-17T22:35:48.731331+05:30"},{"city":"Bhagalpur","state":"Bihar","latitude":25.2425,"longitude":87.0117,"temp":25.7,"humidity":65,"rain":0.0,"pressure":1002.8,"uv_index":7.5,"wind_gusts":20.2,"aqi":134,"pm10":99.2,"pm2_5":73.8,"mosquito_risk":7,"arthritis_risk":5,"migraine_risk":4,"frizz_risk":1,"updated_at":"2026-03-17T22:35:48.731338+05:30"},{"city":"Ranchi","state":"Jharkhand","latitude":23.3441,"longitude":85.3096,"temp":22.7,"humidity":62,"rain":0.0,"pressure":939.5,"uv_index":8.2,"wind_gusts":54.7,"aqi":149,"pm10":70.8,"pm2_5":57.7,"mosquito_risk":3,"arthritis_risk":5,"migraine_risk":7,"frizz_risk":0,"updated_at":"2026-03-17T22:35:48.731345+05:30"},{"city":"Jamshedpur","state":"Jharkhand","latitude":22.8046,"longitude":86.2029,"temp":25.5,"humidity":63,"rain":0.0,"pressure":993.6,"uv_index":8.15,"wind_gusts":42.1,"aqi":148,"pm10":74.5,"pm2_5":62.4,"mosquito_risk":7,"arthritis_risk":5,"migraine_risk":7,"frizz_risk":1,"updated_at":"2026-03-17T22:35:48.731352+05:30"},{"city":"Dhanbad","state":"Jharkhand","latitude":23.7957,"longitude":86.4304,"temp":26.5,"humidity":52,"rain":0.0,"pressure":981.8,"uv_index":8.0,"wind_gusts":35.3,"aqi":151,"pm10":81.5,"pm2_5":72.6,"mosquito_risk":4,"arthritis_risk":5,"migraine_risk":7,"frizz_risk":0,"updated_at":"2026-03-17T22:35:48.731359+05:30"},{"city":"Bokaro","state":"Jharkhand","latitude":23.6693,"longitude":86.1511,"temp":24.4,"humidity":57,"rain":0.0,"pressure":986.1,"uv_index":8.0,"wind_gusts":40.7,"aqi":132,"pm10":77.1,"pm2_5":67.5,"mosquito_risk":0,"arthritis_risk":5,"migraine_risk":7,"frizz_risk":0,"updated_at":"2026-03-17T22:35:48.731366+05:30"},{"city":"Bhubaneswar","state":"Odisha","latitude":20.2961,"longitude":85.8245,"temp":25.2,"humidity":85,"rain":0.0,"pressure":1006.2,"uv_index":7.95,"wind_gusts":37.4,"aqi":54,"pm10":13.7,"pm2_5":11.8,"mosquito_risk":7,"arthritis_risk":5,"migraine_risk":4,"frizz_risk":1,"updated_at":"2026-03-17T22:35:48.731372+05:30"},{"city":"Cuttack","state":"Odisha","latitude":20.4625,"longitude":85.8828,"temp":25.0,"humidity":89,"rain":0.0,"pressure":1008.1,"uv_index":7.95,"wind_gusts":36.4,"aqi":54,"pm10":13.7,"pm2_5":11.8,"mosquito_risk":7,"arthritis_risk":0,"migraine_risk":4,"frizz_risk":1,"updated_at":"2026-03-17T22:35:48.731379+05:30"},{"city":"Rourkela","state":"Odisha","latitude":22.2604,"longitude":84.8536,"temp":24.1,"humidity":72,"rain":0.0,"pressure":988.0,"uv_index":8.05,"wind_gusts":65.2,"aqi":154,"pm10":72.9,"pm2_5":61.2,"mosquito_risk":3,"arthritis_risk":5,"migraine_risk":7,"frizz_risk":1,"updated_at":"2026-03-17T22:35:48.731385+05:30"},{"city":"Raipur","state":"Chhattisgarh","latitude":21.2514,"longitude":81.6296,"temp":25.8,"humidity":53,"rain":0.0,"pressure":976.2,"uv_index":8.15,"wind_gusts":36.4,"aqi":138,"pm10":49.2,"pm2_5":44.0,"mosquito_risk":4,"arthritis_risk":5,"migraine_risk":7,"frizz_risk":0,"updated_at":"2026-03-17T22:35:48.731391+05:30"},{"city":"Bhilai","state":"Chhattisgarh","latitude":21.1938,"longitude":81.3509,"temp":25.4,"humidity":57,"rain":0.0,"pressure":976.4,"uv_index":8.15,"wind_gusts":37.4,"aqi":130,"pm10":47.7,"pm2_5":44.0,"mosquito_risk":4,"arthritis_risk":5,"migraine_risk":7,"frizz_risk":1,"updated_at":"2026-03-17T22:35:48.731398+05:30"},{"city":"Guwahati","state":"Assam","latitude":26.1158,"longitude":91.7086,"temp":21.2,"humidity":83,"rain":0.0,"pressure":1004.4,"uv_index":7.5,"wind_gusts":43.2,"aqi":89,"pm10":44.6,"pm2_5":39.0,"mosquito_risk":3,"arthritis_risk":5,"migraine_risk":4,"frizz_risk":1,"updated_at":"2026-03-17T22:35:48.731404+05:30"},{"city":"Agartala","state":"Tripura","latitude":23.8315,"longitude":91.2868,"temp":22.8,"humidity":85,"rain":0.0,"pressure":1009.2,"uv_index":7.8,"wind_gusts":43.6,"aqi":76,"pm10":16.9,"pm2_5":14.8,"mosquito_risk":3,"arthritis_risk":0,"migraine_risk":4,"frizz_risk":1,"updated_at":"2026-03-17T22:35:48.731429+05:30"},{"city":"Shillong","state":"Meghalaya","latitude":25.5788,"longitude":91.8933,"temp":12.6,"humidity":86,"rain":0.0,"pressure":856.1,"uv_index":7.9,"wind_gusts":77.8,"aqi":92,"pm10":34.9,"pm2_5":31.9,"mosquito_risk":3,"arthritis_risk":10,"migraine_risk":7,"frizz_risk":0,"updated_at":"2026-03-17T22:35:48.731437+05:30"},{"city":"Imphal","state":"Manipur","latitude":24.817,"longitude":93.9368,"temp":16.2,"humidity":83,"rain":0.0,"pressure":925.5,"uv_index":8.05,"wind_gusts":91.4,"aqi":100,"pm10":45.9,"pm2_5":39.3,"mosquito_risk":3,"arthritis_risk":10,"migraine_risk":7,"frizz_risk":0,"updated_at":"2026-03-17T22:35:48.731444+05:30"},{"city":"Aizawl","state":"Mizoram","latitude":23.7271,"longitude":92.7176,"temp":18.0,"humidity":82,"rain":0.0,"pressure":894.9,"uv_index":8.1,"wind_gusts":61.9,"aqi":90,"pm10":50.4,"pm2_5":43.5,"mosquito_risk":3,"arthritis_risk":10,"migraine_risk":7,"frizz_risk":0,"updated_at":"2026-03-17T22:35:48.731451+05:30"},{"city":"Kohima","state":"Nagaland","latitude":25.6701,"longitude":94.1077,"temp":15.1,"humidity":70,"rain":0.0,"pressure":855.4,"uv_index":7.95,"wind_gusts":97.6,"aqi":84,"pm10":38.8,"pm2_5":31.5,"mosquito_risk":3,"arthritis_risk":5,"migraine_risk":7,"frizz_risk":0,"updated_at":"2026-03-17T22:35:48.731457+05:30"},{"city":"Gangtok","state":"Sikkim","latitude":27.3314,"longitude":88.6138,"temp":11.4,"humidity":83,"rain":0.1,"pressure":836.9,"uv_index":7.7,"wind_gusts":20.2,"aqi":86,"pm10":30.3,"pm2_5":22.2,"mosquito_risk":6,"arthritis_risk":10,"migraine_risk":7,"frizz_risk":0,"updated_at":"2026-03-17T22:35:48.731463+05:30"},{"city":"Siliguri","state":"West Bengal","latitude":26.7271,"longitude":88.3953,"temp":19.7,"humidity":56,"rain":0.0,"pressure":995.7,"uv_index":7.4,"wind_gusts":41.8,"aqi":131,"pm10":65.7,"pm2_5":49.8,"mosquito_risk":0,"arthritis_risk":5,"migraine_risk":7,"frizz_risk":0,"updated_at":"2026-03-17T22:35:51.983609+05:30"},{"city":"Durgapur","state":"West Bengal","latitude":23.5204,"longitude":87.3119,"temp":25.8,"humidity":74,"rain":0.0,"pressure":997.3,"uv_index":8.0,"wind_gusts":33.1,"aqi":151,"pm10":73.6,"pm2_5":65.9,"mosquito_risk":7,"arthritis_risk":5,"migraine_risk":7,"frizz_risk":1,"updated_at":"2026-03-17T22:35:51.983645+05:30"},{"city":"Asansol","state":"West Bengal","latitude":23.6739,"longitude":86.9524,"temp":27.1,"humidity":65,"rain":0.0,"pressure":995.8,"uv_index":8.0,"wind_gusts":32.8,"aqi":144,"pm10":75.0,"pm2_5":67.1,"mosquito_risk":7,"arthritis_risk":5,"migraine_risk":7,"frizz_risk":1,"updated_at":"2026-03-17T22:35:51.983655+05:30"},{"city":"Pondicherry","state":"Puducherry","latitude":11.9139,"longitude":79.8145,"temp":25.5,"humidity":93,"rain":0.0,"pressure":1011.0,"uv_index":8.2,"wind_gusts":29.5,"aqi":26,"pm10":9.3,"pm2_5":6.2,"mosquito_risk":7,"arthritis_risk":0,"migraine_risk":4,"frizz_risk":1,"updated_at":"2026-03-17T22:35:51.983663+05:30"},{"city":"Port Blair","state":"Andaman and Nicobar Islands","latitude":11.6234,"longitude":92.7265,"temp":28.3,"humidity":76,"rain":0.0,"pressure":1009.6,"uv_index":9.0,"wind_gusts":17.3,"aqi":53,"pm10":18.0,"pm2_5":14.8,"mosquito_risk":7,"arthritis_risk":0,"migraine_risk":4,"frizz_risk":1,"updated_at":"2026-03-17T22:35:51.983672+05:30"},{"city":"Haridwar","state":"Uttarakhand","latitude":29.9457,"longitude":78.1642,"temp":17.6,"humidity":69,"rain":0.0,"pressure":976.9,"uv_index":4.35,"wind_gusts":18.4,"aqi":70,"pm10":77.5,"pm2_5":43.1,"mosquito_risk":3,"arthritis_risk":5,"migraine_risk":3,"frizz_risk":0,"updated_at":"2026-03-17T22:35:51.983680+05:30"},{"city":"Rishikesh","state":"Uttarakhand","latitude":30.0869,"longitude":78.2676,"temp":17.6,"humidity":59,"rain":0.0,"pressure":969.5,"uv_index":4.55,"wind_gusts":19.8,"aqi":86,"pm10":81.3,"pm2_5":28.8,"mosquito_risk":0,"arthritis_risk":5,"migraine_risk":3,"frizz_risk":0,"updated_at":"2026-03-17T22:35:51.983688+05:30"},{"city":"Nainital","state":"Uttarakhand","latitude":29.3919,"longitude":79.4542,"temp":16.5,"humidity":41,"rain":0.0,"pressure":806.9,"uv_index":5.6,"wind_gusts":37.8,"aqi":76,"pm10":68.7,"pm2_5":31.1,"mosquito_risk":0,"arthritis_risk":5,"migraine_risk":3,"frizz_risk":0,"updated_at":"2026-03-17T22:35:51.983696+05:30"},{"city":"Mussoorie","state":"Uttarakhand","latitude":30.4599,"longitude":78.0664,"temp":13.3,"humidity":49,"rain":0.0,"pressure":802.7,"uv_index":4.9,"wind_gusts":29.5,"aqi":63,"pm10":97.3,"pm2_5":37.3,"mosquito_risk":0,"arthritis_risk":5,"migraine_risk":3,"frizz_risk":0,"updated_at":"2026-03-17T22:35:51.983703+05:30"},{"city":"Dharamshala","state":"Himachal Pradesh","latitude":32.219,"longitude":76.3234,"temp":16.8,"humidity":24,"rain":0.0,"pressure":869.8,"uv_index":5.2,"wind_gusts":26.3,"aqi":82,"pm10":45.6,"pm2_5":17.4,"mosquito_risk":0,"arthritis_risk":5,"migraine_risk":3,"frizz_risk":1,"updated_at":"2026-03-17T22:35:51.983711+05:30"},{"city":"Dalhousie","state":"Himachal Pradesh","latitude":32.5387,"longitude":75.971,"temp":12.8,"humidity":39,"rain":0.0,"pressure":803.2,"uv_index":5.15,"wind_gusts":24.1,"aqi":67,"pm10":94.5,"pm2_5":44.1,"mosquito_risk":0,"arthritis_risk":5,"migraine_risk":3,"frizz_risk":1,"updated_at":"2026-03-17T22:35:51.983719+05:30"},{"city":"Patiala","state":"Punjab","latitude":30.3398,"longitude":76.3869,"temp":16.8,"humidity":83,"rain":0.0,"pressure":980.9,"uv_index":5.35,"wind_gusts":16.9,"aqi":115,"pm10":154.1,"pm2_5":69.6,"mosquito_risk":3,"arthritis_risk":10,"migraine_risk":3,"frizz_risk":0,"updated_at":"2026-03-17T22:35:51.983727+05:30"},{"city":"Bhatinda","state":"Punjab","latitude":30.211,"longitude":74.9455,"temp":18.3,"humidity":66,"rain":0.0,"pressure":986.8,"uv_index":6.45,"wind_gusts":19.4,"aqi":95,"pm10":195.6,"pm2_5":61.9,"mosquito_risk":3,"arthritis_risk":5,"migraine_risk":7,"frizz_risk":0,"updated_at":"2026-03-17T22:35:51.983734+05:30"},{"city":"Rohtak","state":"Haryana","latitude":28.8955,"longitude":76.6066,"temp":19.2,"humidity":82,"rain":0.0,"pressure":984.5,"uv_index":6.15,"wind_gusts":20.9,"aqi":192,"pm10":299.9,"pm2_5":78.7,"mosquito_risk":3,"arthritis_risk":10,"migraine_risk":7,"frizz_risk":0,"updated_at":"2026-03-17T22:35:51.983740+05:30"},{"city":"Panipat","state":"Haryana","latitude":29.3909,"longitude":76.9635,"temp":18.3,"humidity":80,"rain":0.0,"pressure":983.1,"uv_index":6.0,"wind_gusts":17.6,"aqi":185,"pm10":434.9,"pm2_5":96.6,"mosquito_risk":3,"arthritis_risk":5,"migraine_risk":3,"frizz_risk":0,"updated_at":"2026-03-17T22:35:51.983748+05:30"},{"city":"Mathura","state":"Uttar Pradesh","latitude":27.4924,"longitude":77.6737,"temp":22.2,"humidity":60,"rain":0.0,"pressure":988.8,"uv_index":6.25,"wind_gusts":19.8,"aqi":419,"pm10":566.2,"pm2_5":84.1,"mosquito_risk":0,"arthritis_risk":5,"migraine_risk":7,"frizz_risk":0,"updated_at":"2026-03-17T22:35:51.983754+05:30"},{"city":"Vrindavan","state":"Uttar Pradesh","latitude":27.5823,"longitude":77.7027,"temp":22.2,"humidity":61,"rain":0.0,"pressure":989.2,"uv_index":6.2,"wind_gusts":19.1,"aqi":419,"pm10":566.2,"pm2_5":84.1,"mosquito_risk":3,"arthritis_risk":5,"migraine_risk":7,"frizz_risk":0,"updated_at":"2026-03-17T22:35:51.983761+05:30"},{"city":"Ayodhya","state":"Uttar Pradesh","latitude":26.7922,"longitude":82.1998,"temp":23.2,"humidity":56,"rain":0.0,"pressure":997.0,"uv_index":6.85,"wind_gusts":33.8,"aqi":99,"pm10":71.2,"pm2_5":41.9,"mosquito_risk":0,"arthritis_risk":5,"migraine_risk":7,"frizz_risk":0,"updated_at":"2026-03-17T22:35:51.983767+05:30"},{"city":"Ratlam","state":"Madhya Pradesh","latitude":23.3315,"longitude":75.0367,"temp":26.4,"humidity":35,"rain":0.0,"pressure":955.5,"uv_index":7.55,"wind_gusts":34.2,"aqi":75,"pm10":20.0,"pm2_5":15.3,"mosquito_risk":4,"arthritis_risk":5,"migraine_risk":7,"frizz_risk":0,"updated_at":"2026-03-17T22:35:51.983774+05:30"},{"city":"Sagar","state":"Madhya Pradesh","latitude":23.8388,"longitude":78.7378,"temp":24.5,"humidity":40,"rain":0.0,"pressure":950.8,"uv_index":7.65,"wind_gusts":30.6,"aqi":66,"pm10":18.9,"pm2_5":11.4,"mosquito_risk":0,"arthritis_risk":5,"migraine_risk":7,"frizz_risk":0,"updated_at":"2026-03-17T22:35:51.983780+05:30"},{"city":"Satna","state":"Madhya Pradesh","latitude":24.6005,"longitude":80.8322,"temp":26.6,"humidity":38,"rain":0.0,"pressure":972.0,"uv_index":7.55,"wind_gusts":28.8,"aqi":85,"pm10":25.3,"pm2_5":16.4,"mosquito_risk":4,"arthritis_risk":5,"migraine_risk":7,"frizz_risk":0,"updated_at":"2026-03-17T22:35:51.983786+05:30"},{"city":"Akola","state":"Maharashtra","latitude":20.7002,"longitude":77.0082,"temp":27.6,"humidity":39,"rain":0.0,"pressure":975.7,"uv_index":8.05,"wind_gusts":24.1,"aqi":90,"pm10":35.3,"pm2_5":27.6,"mosquito_risk":4,"arthritis_risk":5,"migraine_risk":7,"frizz_risk":0,"updated_at":"2026-03-17T22:35:51.983794+05:30"},{"city":"Amravati","state":"Maharashtra","latitude":20.9374,"longitude":77.7796,"temp":27.1,"humidity":45,"rain":0.0,"pressure":968.1,"uv_index":8.05,"wind_gusts":29.2,"aqi":80,"pm10":43.7,"pm2_5":35.2,"mosquito_risk":4,"arthritis_risk":5,"migraine_risk":7,"frizz_risk":0,"updated_at":"2026-03-17T22:35:51.983800+05:30"},{"city":"Latur","state":"Maharashtra","latitude":18.4088,"longitude":76.5604,"temp":22.6,"humidity":63,"rain":0.0,"pressure":940.6,"uv_index":8.5,"wind_gusts":42.5,"aqi":124,"pm10":40.7,"pm2_5":37.1,"mosquito_risk":3,"arthritis_risk":5,"migraine_risk":7,"frizz_risk":0,"updated_at":"2026-03-17T22:35:51.983807+05:30"},{"city":"Nanded","state":"Maharashtra","latitude":19.1383,"longitude":77.3091,"temp":26.0,"humidity":53,"rain":0.0,"pressure":970.1,"uv_index":8.3,"wind_gusts":29.9,"aqi":103,"pm10":44.2,"pm2_5":40.6,"mosquito_risk":4,"arthritis_risk":5,"migraine_risk":7,"frizz_risk":0,"updated_at":"2026-03-17T22:35:51.983813+05:30"},{"city":"Gulbarga","state":"Karnataka","latitude":17.3297,"longitude":76.8343,"temp":25.0,"humidity":66,"rain":0.0,"pressure":960.2,"uv_index":8.15,"wind_gusts":38.5,"aqi":134,"pm10":43.5,"pm2_5":39.6,"mosquito_risk":7,"arthritis_risk":5,"migraine_risk":7,"frizz_risk":1,"updated_at":"2026-03-17T22:35:51.983819+05:30"},{"city":"Bidar","state":"Karnataka","latitude":17.9104,"longitude":77.5199,"temp":23.8,"humidity":68,"rain":0.0,"pressure":937.0,"uv_index":8.3,"wind_gusts":49.0,"aqi":109,"pm10":52.0,"pm2_5":46.0,"mosquito_risk":3,"arthritis_risk":5,"migraine_risk":7,"frizz_risk":1,"updated_at":"2026-03-17T22:35:51.983825+05:30"},{"city":"Hospet","state":"Karnataka","latitude":15.2689,"longitude":76.3909,"temp":23.2,"humidity":77,"rain":0.0,"pressure":957.8,"uv_index":8.8,"wind_gusts":33.8,"aqi":141,"pm10":61.7,"pm2_5":57.4,"mosquito_risk":3,"arthritis_risk":5,"migraine_risk":7,"frizz_risk":1,"updated_at":"2026-03-17T22:35:51.983832+05:30"},{"city":"Tirupur","state":"Tamil Nadu","latitude":11.1085,"longitude":77.3411,"temp":25.1,"humidity":74,"rain":0.0,"pressure":977.6,"uv_index":9.3,"wind_gusts":36.7,"aqi":85,"pm10":28.5,"pm2_5":26.3,"mosquito_risk":7,"arthritis_risk":5,"migraine_risk":7,"frizz_risk":1,"updated_at":"2026-03-17T22:35:51.983838+05:30"},{"city":"Alappuzha","state":"Kerala","latitude":9.4981,"longitude":76.3388,"temp":26.7,"humidity":84,"rain":0.0,"pressure":1011.0,"uv_index":9.05,"wind_gusts":27.4,"aqi":82,"pm10":36.6,"pm2_5":34.7,"mosquito_risk":7,"arthritis_risk":0,"migraine_risk":4,"frizz_risk":1,"updated_at":"2026-03-17T22:35:51.983844+05:30"},{"city":"Munnar","state":"Kerala","latitude":10.0889,"longitude":77.0595,"temp":19.0,"humidity":91,"rain":0.0,"pressure":857.4,"uv_index":9.6,"wind_gusts":31.7,"aqi":74,"pm10":27.0,"pm2_5":26.0,"mosquito_risk":3,"arthritis_risk":10,"migraine_risk":7,"frizz_risk":1,"updated_at":"2026-03-17T22:35:51.983850+05:30"},{"city":"Silchar","state":"Assam","latitude":24.8333,"longitude":92.7789,"temp":21.2,"humidity":89,"rain":0.0,"pressure":1008.9,"uv_index":7.9,"wind_gusts":43.2,"aqi":91,"pm10":67.8,"pm2_5":58.9,"mosquito_risk":3,"arthritis_risk":0,"migraine_risk":4,"frizz_risk":1,"updated_at":"2026-03-17T22:35:51.983857+05:30"},{"city":"Dibrugarh","state":"Assam","latitude":27.4728,"longitude":94.912,"temp":19.2,"humidity":92,"rain":0.0,"pressure":999.1,"uv_index":7.45,"wind_gusts":45.0,"aqi":100,"pm10":35.5,"pm2_5":28.5,"mosquito_risk":3,"arthritis_risk":10,"migraine_risk":7,"frizz_risk":1,"updated_at":"2026-03-17T22:35:51.983863+05:30"}]