[{"city":"Delhi","state":"Delhi","latitude":28.6139,"longitude":77.209,"temp":33.7,"humidity":35,"rain":0.0,"pressure":986.0,"uv_index":5.35,"wind_gusts":25.6,"aqi":167,"pm10":298.0,"pm2_5":62.4,"mosquito_risk":0,"arthritis_risk":5,"migraine_risk":3,"frizz_risk":1,"updated_at":"2026-03-09T16:21:58.533795+05:30"},{"city":"Mumbai","state":"Maharashtra","latitude":19.076,"longitude":72.8777,"temp":29.0,"humidity":64,"rain":0.0,"pressure":1007.1,"uv_index":7.55,"wind_gusts":24.5,"aqi":190,"pm10":49.0,"pm2_5":46.8,"mosquito_risk":7,"arthritis_risk":5,"migraine_risk":4,"frizz_risk":1,"updated_at":"2026-03-09T16:21:58.533845+05:30"},{"city":"Bangalore","state":"Karnataka","latitude":12.9716,"longitude":77.5946,"temp":31.0,"humidity":28,"rain":0.0,"pressure":911.5,"uv_index":9.25,"wind_gusts":38.2,"aqi":99,"pm10":42.3,"pm2_5":32.1,"mosquito_risk":0,"arthritis_risk":5,"migraine_risk":7,"frizz_risk":0,"updated_at":"2026-03-09T16:21:58.533862+05:30"},{"city":"Hyderabad","state":"Telangana","latitude":17.385,"longitude":78.4867,"temp":34.0,"humidity":25,"rain":0.0,"pressure":954.7,"uv_index":8.55,"wind_gusts":31.3,"aqi":113,"pm10":41.8,"pm2_5":32.2,"mosquito_risk":0,"arthritis_risk":5,"migraine_risk":7,"frizz_risk":0,"updated_at":"2026-03-09T16:21:58.533872+05:30"},{"city":"Chennai","state":"Tamil Nadu","latitude":13.0827,"longitude":80.2707,"temp":29.9,"humidity":55,"rain":0.0,"pressure":1009.1,"uv_index":8.95,"wind_gusts":34.6,"aqi":83,"pm10":46.8,"pm2_5":32.8,"mosquito_risk":4,"arthritis_risk":0,"migraine_risk":4,"frizz_risk":1,"updated_at":"2026-03-09T16:21:58.533881+05:30"},{"city":"Kolkata","state":"West Bengal","latitude":22.5726,"longitude":88.3639,"temp":29.3,"humidity":62,"rain":0.0,"pressure":1009.7,"uv_index":7.9,"wind_gusts":16.6,"aqi":139,"pm10":52.3,"pm2_5":43.4,"mosquito_risk":7,"arthritis_risk":0,"migraine_risk":4,"frizz_risk":1,"updated_at":"2026-03-09T16:21:58.533889+05:30"},{"city":"Pune","state":"Maharashtra","latitude":18.5204,"longitude":73.8567,"temp":38.1,"humidity":13,"rain":0.0,"pressure":948.8,"uv_index":8.1,"wind_gusts":31.0,"aqi":110,"pm10":15.3,"pm2_5":12.5,"mosquito_risk":0,"arthritis_risk":5,"migraine_risk":10,"frizz_risk":0,"updated_at":"2026-03-09T16:21:58.533902+05:30"},{"city":"Ahmedabad","state":"Gujarat","latitude":23.0225,"longitude":72.5714,"temp":39.6,"humidity":13,"rain":0.0,"pressure":1003.2,"uv_index":7.4,"wind_gusts":21.6,"aqi":70,"pm10":13.0,"pm2_5":9.7,"mosquito_risk":0,"arthritis_risk":5,"migraine_risk":7,"frizz_risk":0,"updated_at":"2026-03-09T16:21:58.533910+05:30"},{"city":"Jaipur","state":"Rajasthan","latitude":26.9124,"longitude":75.7873,"temp":37.3,"humidity":9,"rain":0.0,"pressure":962.9,"uv_index":6.8,"wind_gusts":27.7,"aqi":79,"pm10":100.6,"pm2_5":14.8,"mosquito_risk":0,"arthritis_risk":5,"migraine_risk":10,"frizz_risk":1,"updated_at":"2026-03-09T16:21:58.533918+05:30"},{"city":"Lucknow","state":"Uttar Pradesh","latitude":26.8467,"longitude":80.9462,"temp":32.9,"humidity":40,"rain":0.0,"pressure":996.9,"uv_index":6.55,"wind_gusts":23.0,"aqi":178,"pm10":172.8,"pm2_5":49.8,"mosquito_risk":0,"arthritis_risk":5,"migraine_risk":7,"frizz_risk":1,"updated_at":"2026-03-09T16:21:58.533927+05:30"},{"city":"Kanpur","state":"Uttar Pradesh","latitude":26.4499,"longitude":80.3319,"temp":33.0,"humidity":43,"rain":0.0,"pressure":995.0,"uv_index":6.55,"wind_gusts":18.0,"aqi":166,"pm10":194.6,"pm2_5":44.4,"mosquito_risk":0,"arthritis_risk":5,"migraine_risk":7,"frizz_risk":1,"updated_at":"2026-03-09T16:21:58.533934+05:30"},{"city":"Chandigarh","state":"Chandigarh","latitude":30.7333,"longitude":76.7794,"temp":31.3,"humidity":43,"rain":0.0,"pressure":972.0,"uv_index":5.95,"wind_gusts":24.1,"aqi":109,"pm10":44.4,"pm2_5":28.4,"mosquito_risk":0,"arthritis_risk":5,"migraine_risk":3,"frizz_risk":1,"updated_at":"2026-03-09T16:21:58.533941+05:30"},{"city":"Srinagar","state":"Jammu and Kashmir","latitude":34.0837,"longitude":74.7973,"temp":18.2,"humidity":41,"rain":0.0,"pressure":846.5,"uv_index":6.3,"wind_gusts":25.2,"aqi":131,"pm10":58.9,"pm2_5":25.3,"mosquito_risk":0,"arthritis_risk":5,"migraine_risk":7,"frizz_risk":0,"updated_at":"2026-03-09T16:21:58.533949+05:30"},{"city":"Jammu","state":"Jammu and Kashmir","latitude":32.7266,"longitude":74.857,"temp":30.7,"humidity":43,"rain":0.0,"pressure":976.0,"uv_index":6.55,"wind_gusts":18.0,"aqi":92,"pm10":38.8,"pm2_5":19.3,"mosquito_risk":0,"arthritis_risk":5,"migraine_risk":7,"frizz_risk":1,"updated_at":"2026-03-09T16:21:58.533956+05:30"},{"city":"Amritsar","state":"Punjab","latitude":31.634,"longitude":74.8723,"temp":31.3,"humidity":50,"rain":0.0,"pressure":984.1,"uv_index":6.5,"wind_gusts":13.3,"aqi":161,"pm10":71.2,"pm2_5":45.1,"mosquito_risk":0,"arthritis_risk":5,"migraine_risk":7,"frizz_risk":1,"updated_at":"2026-03-09T16:21:58.533962+05:30"},{"city":"Ludhiana","state":"Punjab","latitude":30.901,"longitude":75.8573,"temp":32.2,"humidity":41,"rain":0.0,"pressure":982.0,"uv_index":6.1,"wind_gusts":18.7,"aqi":154,"pm10":85.9,"pm2_5":50.4,"mosquito_risk":0,"arthritis_risk":5,"migraine_risk":7,"frizz_risk":1,"updated_at":"2026-03-09T16:21:58.533971+05:30"},{"city":"Jalandhar","state":"Punjab","latitude":31.326,"longitude":75.5762,"temp":31.4,"humidity":46,"rain":0.0,"pressure":983.2,"uv_index":6.35,"wind_gusts":16.2,"aqi":157,"pm10":94.5,"pm2_5":46.6,"mosquito_risk":0,"arthritis_risk":5,"migraine_risk":7,"frizz_risk":1,"updated_at":"2026-03-09T16:21:58.533980+05:30"},{"city":"Dehradun","state":"Uttarakhand","latitude":30.6284,"longitude":78.0322,"temp":21.4,"humidity":62,"rain":0.0,"pressure":834.8,"uv_index":6.3,"wind_gusts":28.4,"aqi":71,"pm10":27.9,"pm2_5":16.1,"mosquito_risk":3,"arthritis_risk":5,"migraine_risk":7,"frizz_risk":0,"updated_at":"2026-03-09T16:21:58.533987+05:30"},{"city":"Shimla","state":"Himachal Pradesh","latitude":31.1048,"longitude":77.1734,"temp":20.7,"humidity":44,"rain":0.0,"pressure":790.7,"uv_index":6.35,"wind_gusts":48.2,"aqi":70,"pm10":23.0,"pm2_5":9.9,"mosquito_risk":0,"arthritis_risk":5,"migraine_risk":7,"frizz_risk":0,"updated_at":"2026-03-09T16:21:58.533994+05:30"},{"city":"Manali","state":"Himachal Pradesh","latitude":32.2396,"longitude":77.1887,"temp":22.9,"humidity":34,"rain":0.0,"pressure":826.2,"uv_index":8.05,"wind_gusts":35.6,"aqi":79,"pm10":20.5,"pm2_5":7.7,"mosquito_risk":0,"arthritis_risk":5,"migraine_risk":7,"frizz_risk":0,"updated_at":"2026-03-09T16:21:58.534001+05:30"},{"city":"Gurgaon","state":"Haryana","latitude":28.4595,"longitude":77.0266,"temp":33.9,"humidity":33,"rain":0.0,"pressure":984.5,"uv_index":5.85,"wind_gusts":24.5,"aqi":608,"pm10":732.0,"pm2_5":94.1,"mosquito_risk":0,"arthritis_risk":5,"migraine_risk":3,"frizz_risk":0,"updated_at":"2026-03-09T16:21:58.534008+05:30"},{"city":"Noida","state":"Uttar Pradesh","latitude":28.5355,"longitude":77.391,"temp":34.0,"humidity":35,"rain":0.0,"pressure":987.5,"uv_index":5.55,"wind_gusts":24.8,"aqi":608,"pm10":732.0,"pm2_5":94.1,"mosquito_risk":0,"arthritis_risk":5,"migraine_risk":3,"frizz_risk":1,"updated_at":"2026-03-09T16:21:58.534015+05:30"},{"city":"Ghaziabad","state":"Uttar Pradesh","latitude":28.6692,"longitude":77.4538,"temp":33.2,"humidity":40,"rain":0.0,"pressure":985.7,"uv_index":5.3,"wind_gusts":24.1,"aqi":158,"pm10":168.1,"pm2_5":61.5,"mosquito_risk":0,"arthritis_risk":5,"migraine_risk":3,"frizz_risk":1,"updated_at":"2026-03-09T16:21:58.534021+05:30"},{"city":"Faridabad","state":"Haryana","latitude":28.4089,"longitude":77.3178,"temp":33.6,"humidity":34,"rain":0.0,"pressure":986.7,"uv_index":6.05,"wind_gusts":23.0,"aqi":608,"pm10":732.0,"pm2_5":94.1,"mosquito_risk":0,"arthritis_risk":5,"migraine_risk":7,"frizz_risk":0,"updated_at":"2026-03-09T16:21:58.534028+05:30"},{"city":"Meerut","state":"Uttar Pradesh","latitude":28.9845,"longitude":77.7064,"temp":33.0,"humidity":41,"rain":0.0,"pressure":984.5,"uv_index":5.5,"wind_gusts":25.2,"aqi":158,"pm10":168.1,"pm2_5":61.5,"mosquito_risk":0,"arthritis_risk":5,"migraine_risk":3,"frizz_risk":1,"updated_at":"2026-03-09T16:21:58.534036+05:30"},{"city":"Agra","state":"Uttar Pradesh","latitude":27.1767,"longitude":78.0081,"temp":36.6,"humidity":23,"rain":0.0,"pressure":990.4,"uv_index":6.4,"wind_gusts":19.8,"aqi":192,"pm10":301.7,"pm2_5":51.6,"mosquito_risk":0,"arthritis_risk":5,"migraine_risk":10,"frizz_risk":0,"updated_at":"2026-03-09T16:21:58.534043+05:30"},{"city":"Varanasi","state":"Uttar Pradesh","latitude":25.3176,"longitude":82.9739,"temp":31.5,"humidity":46,"rain":0.0,"pressure":1001.0,"uv_index":7.2,"wind_gusts":15.5,"aqi":186,"pm10":128.5,"pm2_5":80.1,"mosquito_risk":0,"arthritis_risk":5,"migraine_risk":4,"frizz_risk":1,"updated_at":"2026-03-09T16:21:58.534052+05:30"},{"city":"Prayagraj","state":"Uttar Pradesh","latitude":25.4358,"longitude":81.8463,"temp":31.5,"humidity":47,"rain":0.0,"pressure":999.6,"uv_index":7.1,"wind_gusts":15.1,"aqi":193,"pm10":139.2,"pm2_5":67.3,"mosquito_risk":0,"arthritis_risk":5,"migraine_risk":7,"frizz_risk":1,"updated_at":"2026-03-09T16:21:58.534059+05:30"},{"city":"Gorakhpur","state":"Uttar Pradesh","latitude":26.7606,"longitude":83.3732,"temp":28.3,"humidity":63,"rain":0.0,"pressure":1001.8,"uv_index":6.9,"wind_gusts":27.0,"aqi":197,"pm10":185.8,"pm2_5":160.7,"mosquito_risk":7,"arthritis_risk":5,"migraine_risk":4,"frizz_risk":1,"updated_at":"2026-03-09T16:21:58.534066+05:30"},{"city":"Bareilly","state":"Uttar Pradesh","latitude":28.367,"longitude":79.4304,"temp":31.9,"humidity":44,"rain":0.0,"pressure":989.9,"uv_index":6.25,"wind_gusts":16.6,"aqi":168,"pm10":159.7,"pm2_5":70.5,"mosquito_risk":0,"arthritis_risk":5,"migraine_risk":7,"frizz_risk":1,"updated_at":"2026-03-09T16:21:58.534072+05:30"},{"city":"Aligarh","state":"Uttar Pradesh","latitude":27.8974,"longitude":78.088,"temp":34.6,"humidity":32,"rain":0.0,"pressure":988.4,"uv_index":6.15,"wind_gusts":23.8,"aqi":218,"pm10":240.3,"pm2_5":70.5,"mosquito_risk":0,"arthritis_risk":5,"migraine_risk":7,"frizz_risk":0,"updated_at":"2026-03-09T16:21:58.534079+05:30"},{"city":"Moradabad","state":"Uttar Pradesh","latitude":28.8386,"longitude":78.7733,"temp":31.9,"humidity":43,"rain":0.0,"pressure":986.7,"uv_index":6.05,"wind_gusts":18.0,"aqi":172,"pm10":131.8,"pm2_5":69.6,"mosquito_risk":0,"arthritis_risk":5,"migraine_risk":7,"frizz_risk":1,"updated_at":"2026-03-09T16:21:58.534086+05:30"},{"city":"Saharanpur","state":"Uttar Pradesh","latitude":29.9637,"longitude":77.546,"temp":29.8,"humidity":51,"rain":0.0,"pressure":978.8,"uv_index":5.7,"wind_gusts":23.8,"aqi":158,"pm10":95.9,"pm2_5":46.3,"mosquito_risk":4,"arthritis_risk":5,"migraine_risk":3,"frizz_risk":1,"updated_at":"2026-03-09T16:21:58.534093+05:30"},{"city":"Jhansi","state":"Uttar Pradesh","latitude":25.4484,"longitude":78.5685,"temp":36.7,"humidity":17,"rain":0.0,"pressure":980.7,"uv_index":7.0,"wind_gusts":25.6,"aqi":72,"pm10":43.1,"pm2_5":13.9,"mosquito_risk":0,"arthritis_risk":5,"migraine_risk":10,"frizz_risk":0,"updated_at":"2026-03-09T16:22:01.816107+05:30"},{"city":"Surat","state":"Gujarat","latitude":21.1702,"longitude":72.8311,"temp":37.6,"humidity":24,"rain":0.0,"pressure":1006.9,"uv_index":7.25,"wind_gusts":23.8,"aqi":99,"pm10":32.1,"pm2_5":30.0,"mosquito_risk":0,"arthritis_risk":5,"migraine_risk":7,"frizz_risk":0,"updated_at":"2026-03-09T16:22:01.816137+05:30"},{"city":"Vadodara","state":"Gujarat","latitude":22.3072,"longitude":73.1812,"temp":40.6,"humidity":15,"rain":0.0,"pressure":1004.8,"uv_index":7.4,"wind_gusts":17.3,"aqi":69,"pm10":14.8,"pm2_5":13.2,"mosquito_risk":0,"arthritis_risk":5,"migraine_risk":7,"frizz_risk":0,"updated_at":"2026-03-09T16:22:01.816147+05:30"},{"city":"Rajkot","state":"Gujarat","latitude":22.3039,"longitude":70.8022,"temp":37.8,"humidity":15,"rain":0.0,"pressure":995.8,"uv_index":7.2,"wind_gusts":23.0,"aqi":71,"pm10":11.1,"pm2_5":8.8,"mosquito_risk":0,"arthritis_risk":5,"migraine_risk":10,"frizz_risk":0,"updated_at":"2026-03-09T16:22:01.816155+05:30"},{"city":"Thane","state":"Maharashtra","latitude":19.2183,"longitude":72.9781,"temp":34.3,"humidity":41,"rain":0.0,"pressure":1007.1,"uv_index":7.55,"wind_gusts":37.1,"aqi":190,"pm10":49.0,"pm2_5":46.8,"mosquito_risk":0,"arthritis_risk":5,"migraine_risk":4,"frizz_risk":1,"updated_at":"2026-03-09T16:22:01.816162+05:30"},{"city":"Nagpur","state":"Maharashtra","latitude":21.1458,"longitude":79.0882,"temp":36.5,"humidity":13,"rain":0.0,"pressure":974.9,"uv_index":7.95,"wind_gusts":26.6,"aqi":85,"pm10":38.8,"pm2_5":21.9,"mosquito_risk":0,"arthritis_risk":5,"migraine_risk":10,"frizz_risk":0,"updated_at":"2026-03-09T16:22:01.816169+05:30"},{"city":"Nashik","state":"Maharashtra","latitude":19.9975,"longitude":73.7898,"temp":36.4,"humidity":11,"rain":0.0,"pressure":947.0,"uv_index":7.75,"wind_gusts":31.0,"aqi":102,"pm10":12.4,"pm2_5":11.0,"mosquito_risk":0,"arthritis_risk":5,"migraine_risk":10,"frizz_risk":0,"updated_at":"2026-03-09T16:22:01.816176+05:30"},{"city":"Aurangabad","state":"Maharashtra","latitude":19.8762,"longitude":75.3433,"temp":36.5,"humidity":13,"rain":0.0,"pressure":945.4,"uv_index":8.25,"wind_gusts":34.2,"aqi":95,"pm10":15.8,"pm2_5":11.2,"mosquito_risk":0,"arthritis_risk":5,"migraine_risk":10,"frizz_risk":0,"updated_at":"2026-03-09T16:22:01.816183+05:30"},{"city":"Solapur","state":"Maharashtra","latitude":17.6599,"longitude":75.9064,"temp":36.1,"humidity":18,"rain":0.0,"pressure":957.3,"uv_index":8.5,"wind_gusts":25.9,"aqi":115,"pm10":24.2,"pm2_5":19.4,"mosquito_risk":0,"arthritis_risk":5,"migraine_risk":10,"frizz_risk":0,"updated_at":"2026-03-09T16:22:01.816190+05:30"},{"city":"Kolhapur","state":"Maharashtra","latitude":16.705,"longitude":74.2433,"temp":35.3,"humidity":18,"rain":0.0,"pressure":947.8,"uv_index":8.6,"wind_gusts":38.5,"aqi":129,"pm10":21.5,"pm2_5":17.8,"mosquito_risk":0,"arthritis_risk":5,"migraine_risk":10,"frizz_risk":0,"updated_at":"2026-03-09T16:22:01.816196+05:30"},{"city":"Goa","state":"Goa","latitude":15.2993,"longitude":74.124,"temp":30.5,"humidity":68,"rain":0.0,"pressure":996.4,"uv_index":8.65,"wind_gusts":36.0,"aqi":138,"pm10":41.3,"pm2_5":35.7,"mosquito_risk":3,"arthritis_risk":5,"migraine_risk":7,"frizz_risk":1,"updated_at":"2026-03-09T16:22:01.816203+05:30"},{"city":"Jodhpur","state":"Rajasthan","latitude":26.2389,"longitude":73.0243,"temp":37.3,"humidity":10,"rain":0.0,"pressure":986.2,"uv_index":7.1,"wind_gusts":23.4,"aqi":59,"pm10":35.2,"pm2_5":8.9,"mosquito_risk":0,"arthritis_risk":5,"migraine_risk":10,"frizz_risk":0,"updated_at":"2026-03-09T16:22:01.816210+05:30"},{"city":"Udaipur","state":"Rajasthan","latitude":24.5854,"longitude":73.7125,"temp":36.1,"humidity":17,"rain":0.0,"pressure":949.9,"uv_index":7.7,"wind_gusts":17.3,"aqi":62,"pm10":11.2,"pm2_5":6.9,"mosquito_risk":0,"arthritis_risk":5,"migraine_risk":10,"frizz_risk":0,"updated_at":"2026-03-09T16:22:01.816216+05:30"},{"city":"Kota","state":"Rajasthan","latitude":25.2138,"longitude":75.8648,"temp":37.8,"humidity":16,"rain":0.0,"pressure":981.4,"uv_index":7.1,"wind_gusts":17.3,"aqi":73,"pm10":10.7,"pm2_5":5.9,"mosquito_risk":0,"arthritis_risk":5,"migraine_risk":10,"frizz_risk":0,"updated_at":"2026-03-09T16:22:01.816222+05:30"},{"city":"Bikaner","state":"Rajasthan","latitude":28.0229,"longitude":73.3119,"temp":36.3,"humidity":13,"rain":0.0,"pressure":984.9,"uv_index":6.8,"wind_gusts":22.7,"aqi":53,"pm10":62.9,"pm2_5":12.5,"mosquito_risk":0,"arthritis_risk":5,"migraine_risk":10,"frizz_risk":0,"updated_at":"2026-03-09T16:22:01.816229+05:30"},{"city":"Ajmer","state":"Rajasthan","latitude":26.4499,"longitude":74.6399,"temp":35.5,"humidity":15,"rain":0.0,"pressure":958.2,"uv_index":7.1,"wind_gusts":22.7,"aqi":62,"pm10":51.0,"pm2_5":11.6,"mosquito_risk":0,"arthritis_risk":5,"migraine_risk":10,"frizz_risk":0,"updated_at":"2026-03-09T16:22:01.816236+05:30"},{"city":"Gwalior","state":"Madhya Pradesh","latitude":26.2183,"longitude":78.1828,"temp":34.5,"humidity":28,"rain":0.0,"pressure":986.2,"uv_index":6.75,"wind_gusts":21.2,"aqi":72,"pm10":52.4,"pm2_5":16.2,"mosquito_risk":0,"arthritis_risk":5,"migraine_risk":7,"frizz_risk":0,"updated_at":"2026-03-09T16:22:01.816242+05:30"},{"city":"Indore","state":"Madhya Pradesh","latitude":22.7196,"longitude":75.8577,"temp":35.2,"humidity":17,"rain":0.0,"pressure":950.9,"uv_index":7.65,"wind_gusts":26.6,"aqi":78,"pm10":17.3,"pm2_5":7.3,"mosquito_risk":0,"arthritis_risk":5,"migraine_risk":10,"frizz_risk":0,"updated_at":"2026-03-09T16:22:01.816249+05:30"},{"city":"Bhopal","state":"Madhya Pradesh","latitude":23.2599,"longitude":77.4126,"temp":35.5,"humidity":20,"rain":0.0,"pressure":956.5,"uv_index":7.55,"wind_gusts":20.5,"aqi":79,"pm10":29.3,"pm2_5":10.0,"mosquito_risk":0,"arthritis_risk":5,"migraine_risk":10,"frizz_risk":0,"updated_at":"2026-03-09T16:22:01.816255+05:30"},{"city":"Jabalpur","state":"Madhya Pradesh","latitude":23.1815,"longitude":79.9864,"temp":34.4,"humidity":23,"rain":0.0,"pressure":964.3,"uv_index":7.65,"wind_gusts":21.6,"aqi":102,"pm10":37.1,"pm2_5":15.1,"mosquito_risk":0,"arthritis_risk":5,"migraine_risk":7,"frizz_risk":0,"updated_at":"2026-03-09T16:22:01.816261+05:30"},{"city":"Ujjain","state":"Madhya Pradesh","latitude":23.1765,"longitude":75.7885,"temp":35.0,"humidity":17,"rain":0.0,"pressure":956.7,"uv_index":7.55,"wind_gusts":18.4,"aqi":95,"pm10":10.6,"pm2_5":8.4,"mosquito_risk":0,"arthritis_risk":5,"migraine_risk":7,"frizz_risk":0,"updated_at":"2026-03-09T16:22:01.816268+05:30"},{"city":"Visakhapatnam","state":"Andhra Pradesh","latitude":17.6868,"longitude":83.2185,"temp":29.1,"humidity":62,"rain":0.0,"pressure":1006.5,"uv_index":8.55,"wind_gusts":33.5,"aqi":94,"pm10":48.7,"pm2_5":38.6,"mosquito_risk":7,"arthritis_risk":5,"migraine_risk":4,"frizz_risk":1,"updated_at":"2026-03-09T16:22:01.816274+05:30"},{"city":"Vijayawada","state":"Andhra Pradesh","latitude":16.5062,"longitude":80.648,"temp":31.0,"humidity":57,"rain":0.0,"pressure":1004.7,"uv_index":8.65,"wind_gusts":25.6,"aqi":93,"pm10":46.9,"pm2_5":37.5,"mosquito_risk":0,"arthritis_risk":5,"migraine_risk":4,"frizz_risk":1,"updated_at":"2026-03-09T16:22:01.816281+05:30"},{"city":"Guntur","state":"Andhra Pradesh","latitude":16.3067,"longitude":80.4365,"temp":30.4,"humidity":60,"rain":0.0,"pressure":1005.9,"uv_index":8.65,"wind_gusts":27.7,"aqi":89,"pm10":47.5,"pm2_5":37.6,"mosquito_risk":0,"arthritis_risk":5,"migraine_risk":4,"frizz_risk":1,"updated_at":"2026-03-09T16:22:01.816287+05:30"},{"city":"Nellore","state":"Andhra Pradesh","latitude":14.4426,"longitude":79.9865,"temp":30.4,"humidity":56,"rain":0.0,"pressure":1007.7,"uv_index":8.8,"wind_gusts":34.2,"aqi":76,"pm10":48.3,"pm2_5":35.6,"mosquito_risk":0,"arthritis_risk":5,"migraine_risk":4,"frizz_risk":1,"updated_at":"2026-03-09T16:22:01.816294+05:30"},{"city":"Kurnool","state":"Andhra Pradesh","latitude":15.8281,"longitude":78.0373,"temp":35.8,"humidity":28,"rain":0.0,"pressure":976.8,"uv_index":8.65,"wind_gusts":42.1,"aqi":84,"pm10":49.4,"pm2_5":37.5,"mosquito_risk":0,"arthritis_risk":5,"migraine_risk":10,"frizz_risk":0,"updated_at":"2026-03-09T16:22:01.816301+05:30"},{"city":"Kakinada","state":"Andhra Pradesh","latitude":16.9891,"longitude":82.2475,"temp":29.8,"humidity":59,"rain":0.0,"pressure":1010.0,"uv_index":8.55,"wind_gusts":30.2,"aqi":85,"pm10":51.6,"pm2_5":38.3,"mosquito_risk":4,"arthritis_risk":0,"migraine_risk":4,"frizz_risk":1,"updated_at":"2026-03-09T16:22:01.816307+05:30"},{"city":"Tirupati","state":"Andhra Pradesh","latitude":13.6288,"longitude":79.4192,"temp":31.4,"humidity":46,"rain":0.0,"pressure":992.4,"uv_index":8.95,"wind_gusts":36.7,"aqi":91,"pm10":52.5,"pm2_5":41.7,"mosquito_risk":0,"arthritis_risk":5,"migraine_risk":7,"frizz_risk":1,"updated_at":"2026-03-09T16:22:01.816314+05:30"},{"city":"Warangal","state":"Telangana","latitude":17.9689,"longitude":79.5941,"temp":33.9,"humidity":40,"rain":0.0,"pressure":980.0,"uv_index":8.4,"wind_gusts":28.1,"aqi":110,"pm10":52.9,"pm2_5":41.9,"mosquito_risk":0,"arthritis_risk":5,"migraine_risk":7,"frizz_risk":1,"updated_at":"2026-03-09T16:22:01.816320+05:30"},{"city":"Nizamabad","state":"Telangana","latitude":18.6725,"longitude":78.0941,"temp":34.9,"humidity":25,"rain":0.0,"pressure":966.1,"uv_index":8.3,"wind_gusts":31.3,"aqi":119,"pm10":41.0,"pm2_5":29.6,"mosquito_risk":0,"arthritis_risk":5,"migraine_risk":7,"frizz_risk":0,"updated_at":"2026-03-09T16:22:01.816326+05:30"},{"city":"Mysore","state":"Karnataka","latitude":12.2958,"longitude":76.6396,"temp":31.8,"humidity":31,"rain":0.0,"pressure":927.9,"uv_index":9.25,"wind_gusts":38.2,"aqi":129,"pm10":44.1,"pm2_5":35.4,"mosquito_risk":0,"arthritis_risk":5,"migraine_risk":7,"frizz_risk":0,"updated_at":"2026-03-09T16:22:01.816333+05:30"},{"city":"Mangalore","state":"Karnataka","latitude":12.9141,"longitude":74.856,"temp":29.0,"humidity":81,"rain":0.0,"pressure":1004.7,"uv_index":8.85,"wind_gusts":26.3,"aqi":129,"pm10":45.9,"pm2_5":39.8,"mosquito_risk":7,"arthritis_risk":5,"migraine_risk":4,"frizz_risk":1,"updated_at":"2026-03-09T16:22:01.816339+05:30"},{"city":"Hubli-Dharwad","state":"Karnataka","latitude":15.3647,"longitude":75.124,"temp":35.5,"humidity":17,"rain":0.0,"pressure":940.5,"uv_index":8.85,"wind_gusts":37.1,"aqi":121,"pm10":26.7,"pm2_5":21.2,"mosquito_risk":0,"arthritis_risk":5,"migraine_risk":10,"frizz_risk":0,"updated_at":"2026-03-09T16:22:01.816346+05:30"},{"city":"Belgaum","state":"Karnataka","latitude":15.8497,"longitude":74.4977,"temp":34.8,"humidity":14,"rain":0.0,"pressure":925.8,"uv_index":8.85,"wind_gusts":44.6,"aqi":129,"pm10":21.4,"pm2_5":17.8,"mosquito_risk":0,"arthritis_risk":5,"migraine_risk":7,"frizz_risk":0,"updated_at":"2026-03-09T16:22:05.093968+05:30"},{"city":"Coimbatore","state":"Tamil Nadu","latitude":11.0168,"longitude":76.9558,"temp":33.4,"humidity":30,"rain":0.0,"pressure":960.5,"uv_index":9.25,"wind_gusts":49.0,"aqi":112,"pm10":38.2,"pm2_5":29.6,"mosquito_risk":0,"arthritis_risk":5,"migraine_risk":7,"frizz_risk":0,"updated_at":"2026-03-09T16:22:05.093998+05:30"},{"city":"Madurai","state":"Tamil Nadu","latitude":9.9252,"longitude":78.1198,"temp":33.4,"humidity":38,"rain":0.0,"pressure":992.0,"uv_index":9.2,"wind_gusts":38.2,"aqi":90,"pm10":48.9,"pm2_5":35.0,"mosquito_risk":0,"arthritis_risk":5,"migraine_risk":7,"frizz_risk":1,"updated_at":"2026-03-09T16:22:05.094009+05:30"},{"city":"Trichy","state":"Tamil Nadu","latitude":10.7905,"longitude":78.7047,"temp":32.6,"humidity":42,"rain":0.0,"pressure":999.5,"uv_index":9.1,"wind_gusts":35.6,"aqi":81,"pm10":54.9,"pm2_5":43.3,"mosquito_risk":0,"arthritis_risk":5,"migraine_risk":7,"frizz_risk":1,"updated_at":"2026-03-09T16:22:05.094017+05:30"},{"city":"Salem","state":"Tamil Nadu","latitude":11.6643,"longitude":78.146,"temp":32.9,"humidity":37,"rain":0.0,"pressure":976.6,"uv_index":9.15,"wind_gusts":37.1,"aqi":107,"pm10":53.3,"pm2_5":40.7,"mosquito_risk":0,"arthritis_risk":5,"migraine_risk":7,"frizz_risk":1,"updated_at":"2026-03-09T16:22:05.094025+05:30"},{"city":"Tirunelveli","state":"Tamil Nadu","latitude":8.7139,"longitude":77.7567,"temp":33.0,"humidity":42,"rain":0.0,"pressure":1002.4,"uv_index":9.2,"wind_gusts":37.8,"aqi":96,"pm10":38.1,"pm2_5":27.1,"mosquito_risk":0,"arthritis_risk":5,"migraine_risk":4,"frizz_risk":1,"updated_at":"2026-03-09T16:22:05.094032+05:30"},{"city":"Vellore","state":"Tamil Nadu","latitude":12.9165,"longitude":79.1325,"temp":30.5,"humidity":48,"rain":0.0,"pressure":985.4,"uv_index":9.0,"wind_gusts":41.8,"aqi":103,"pm10":45.4,"pm2_5":35.3,"mosquito_risk":0,"arthritis_risk":5,"migraine_risk":7,"frizz_risk":1,"updated_at":"2026-03-09T16:22:05.094039+05:30"},{"city":"Erode","state":"Tamil Nadu","latitude":11.341,"longitude":77.7172,"temp":34.6,"humidity":35,"rain":0.0,"pressure":988.0,"uv_index":9.15,"wind_gusts":32.0,"aqi":81,"pm10":46.9,"pm2_5":34.9,"mosquito_risk":0,"arthritis_risk":5,"migraine_risk":7,"frizz_risk":1,"updated_at":"2026-03-09T16:22:05.094047+05:30"},{"city":"Kochi","state":"Kerala","latitude":9.9312,"longitude":76.2673,"temp":28.3,"humidity":81,"rain":0.0,"pressure":1007.0,"uv_index":8.95,"wind_gusts":28.8,"aqi":143,"pm10":46.2,"pm2_5":42.5,"mosquito_risk":7,"arthritis_risk":5,"migraine_risk":4,"frizz_risk":1,"updated_at":"2026-03-09T16:22:05.094055+05:30"},{"city":"Thiruvananthapuram","state":"Kerala","latitude":8.5241,"longitude":76.9366,"temp":27.9,"humidity":78,"rain":0.0,"pressure":1007.1,"uv_index":9.05,"wind_gusts":27.4,"aqi":116,"pm10":46.6,"pm2_5":39.9,"mosquito_risk":7,"arthritis_risk":5,"migraine_risk":4,"frizz_risk":1,"updated_at":"2026-03-09T16:22:05.094062+05:30"},{"city":"Kozhikode","state":"Kerala","latitude":11.2588,"longitude":75.7804,"temp":29.6,"humidity":77,"rain":0.0,"pressure":1006.2,"uv_index":8.45,"wind_gusts":24.5,"aqi":115,"pm10":28.1,"pm2_5":25.3,"mosquito_risk":7,"arthritis_risk":5,"migraine_risk":4,"frizz_risk":1,"updated_at":"2026-03-09T16:22:05.094069+05:30"},{"city":"Thrissur","state":"Kerala","latitude":10.5276,"longitude":76.2144,"temp":31.1,"humidity":68,"rain":0.0,"pressure":1005.2,"uv_index":9.05,"wind_gusts":40.0,"aqi":132,"pm10":43.9,"pm2_5":36.3,"mosquito_risk":3,"arthritis_risk":5,"migraine_risk":4,"frizz_risk":1,"updated_at":"2026-03-09T16:22:05.094076+05:30"},{"city":"Kannur","state":"Kerala","latitude":11.8745,"longitude":75.3704,"temp":30.4,"humidity":71,"rain":0.0,"pressure":1005.5,"uv_index":8.95,"wind_gusts":27.0,"aqi":131,"pm10":40.9,"pm2_5":37.6,"mosquito_risk":3,"arthritis_risk":5,"migraine_risk":4,"frizz_risk":1,"updated_at":"2026-03-09T16:22:05.094083+05:30"},{"city":"Patna","state":"Bihar","latitude":25.5941,"longitude":85.1376,"temp":29.2,"humidity":60,"rain":0.0,"pressure":1004.5,"uv_index":7.4,"wind_gusts":29.5,"aqi":178,"pm10":130.9,"pm2_5":117.8,"mosquito_risk":4,"arthritis_risk":5,"migraine_risk":4,"frizz_risk":1,"updated_at":"2026-03-09T16:22:05.094090+05:30"},{"city":"Gaya","state":"Bihar","latitude":24.7914,"longitude":85.0002,"temp":27.4,"humidity":72,"rain":0.0,"pressure":997.7,"uv_index":7.5,"wind_gusts":25.9,"aqi":175,"pm10":147.1,"pm2_5":131.8,"mosquito_risk":7,"arthritis_risk":5,"migraine_risk":7,"frizz_risk":1,"updated_at":"2026-03-09T16:22:05.094097+05:30"},{"city":"Muzaffarpur","state":"Bihar","latitude":26.1209,"longitude":85.3647,"temp":28.1,"humidity":64,"rain":0.0,"pressure":1004.9,"uv_index":7.3,"wind_gusts":34.2,"aqi":180,"pm10":129.0,"pm2_5":113.6,"mosquito_risk":7,"arthritis_risk":5,"migraine_risk":4,"frizz_risk":1,"updated_at":"2026-03-09T16:22:05.094103+05:30"},{"city":"Bhagalpur","state":"Bihar","latitude":25.2425,"longitude":87.0117,"temp":27.9,"humidity":68,"rain":0.0,"pressure":1005.8,"uv_index":4.8,"wind_gusts":25.9,"aqi":170,"pm10":115.5,"pm2_5":100.8,"mosquito_risk":7,"arthritis_risk":5,"migraine_risk":0,"frizz_risk":1,"updated_at":"2026-03-09T16:22:05.094109+05:30"},{"city":"Ranchi","state":"Jharkhand","latitude":23.3441,"longitude":85.3096,"temp":30.9,"humidity":37,"rain":0.0,"pressure":940.3,"uv_index":8.15,"wind_gusts":25.6,"aqi":168,"pm10":93.4,"pm2_5":72.6,"mosquito_risk":0,"arthritis_risk":5,"migraine_risk":7,"frizz_risk":0,"updated_at":"2026-03-09T16:22:05.094115+05:30"},{"city":"Jamshedpur","state":"Jharkhand","latitude":22.8046,"longitude":86.2029,"temp":32.0,"humidity":47,"rain":0.0,"pressure":993.5,"uv_index":8.0,"wind_gusts":31.3,"aqi":159,"pm10":101.3,"pm2_5":80.3,"mosquito_risk":0,"arthritis_risk":5,"migraine_risk":7,"frizz_risk":1,"updated_at":"2026-03-09T16:22:05.094122+05:30"},{"city":"Dhanbad","state":"Jharkhand","latitude":23.7957,"longitude":86.4304,"temp":30.1,"humidity":50,"rain":0.0,"pressure":983.1,"uv_index":7.65,"wind_gusts":28.8,"aqi":173,"pm10":132.7,"pm2_5":108.7,"mosquito_risk":0,"arthritis_risk":5,"migraine_risk":7,"frizz_risk":1,"updated_at":"2026-03-09T16:22:05.094128+05:30"},{"city":"Bokaro","state":"Jharkhand","latitude":23.6693,"longitude":86.1511,"temp":28.4,"humidity":63,"rain":0.0,"pressure":987.2,"uv_index":7.6,"wind_gusts":25.6,"aqi":179,"pm10":129.5,"pm2_5":103.1,"mosquito_risk":7,"arthritis_risk":5,"migraine_risk":7,"frizz_risk":1,"updated_at":"2026-03-09T16:22:05.094135+05:30"},{"city":"Bhubaneswar","state":"Odisha","latitude":20.2961,"longitude":85.8245,"temp":30.6,"humidity":56,"rain":0.0,"pressure":1005.4,"uv_index":8.3,"wind_gusts":32.8,"aqi":93,"pm10":44.7,"pm2_5":35.0,"mosquito_risk":0,"arthritis_risk":5,"migraine_risk":4,"frizz_risk":1,"updated_at":"2026-03-09T16:22:05.094142+05:30"},{"city":"Cuttack","state":"Odisha","latitude":20.4625,"longitude":85.8828,"temp":32.3,"humidity":51,"rain":0.0,"pressure":1007.0,"uv_index":8.35,"wind_gusts":30.6,"aqi":93,"pm10":44.7,"pm2_5":35.0,"mosquito_risk":0,"arthritis_risk":5,"migraine_risk":4,"frizz_risk":1,"updated_at":"2026-03-09T16:22:05.094148+05:30"},{"city":"Rourkela","state":"Odisha","latitude":22.2604,"longitude":84.8536,"temp":34.6,"humidity":37,"rain":0.0,"pressure":986.5,"uv_index":7.9,"wind_gusts":22.7,"aqi":168,"pm10":88.5,"pm2_5":69.6,"mosquito_risk":0,"arthritis_risk":5,"migraine_risk":7,"frizz_risk":1,"updated_at":"2026-03-09T16:22:05.094154+05:30"},{"city":"Raipur","state":"Chhattisgarh","latitude":21.2514,"longitude":81.6296,"temp":36.1,"humidity":18,"rain":0.0,"pressure":976.4,"uv_index":8.0,"wind_gusts":24.8,"aqi":163,"pm10":73.8,"pm2_5":53.4,"mosquito_risk":0,"arthritis_risk":5,"migraine_risk":10,"frizz_risk":0,"updated_at":"2026-03-09T16:22:05.094160+05:30"},{"city":"Bhilai","state":"Chhattisgarh","latitude":21.1938,"longitude":81.3509,"temp":36.4,"humidity":18,"rain":0.0,"pressure":976.8,"uv_index":8.05,"wind_gusts":24.5,"aqi":157,"pm10":66.1,"pm2_5":45.8,"mosquito_risk":0,"arthritis_risk":5,"migraine_risk":10,"frizz_risk":0,"updated_at":"2026-03-09T16:22:05.094166+05:30"},{"city":"Guwahati","state":"Assam","latitude":26.1158,"longitude":91.7086,"temp":29.7,"humidity":57,"rain":0.0,"pressure":1005.0,"uv_index":7.3,"wind_gusts":11.5,"aqi":156,"pm10":79.6,"pm2_5":66.8,"mosquito_risk":4,"arthritis_risk":5,"migraine_risk":4,"frizz_risk":1,"updated_at":"2026-03-09T16:22:05.094172+05:30"},{"city":"Agartala","state":"Tripura","latitude":23.8315,"longitude":91.2868,"temp":28.8,"humidity":56,"rain":0.0,"pressure":1010.2,"uv_index":7.7,"wind_gusts":12.2,"aqi":163,"pm10":79.9,"pm2_5":63.1,"mosquito_risk":4,"arthritis_risk":0,"migraine_risk":4,"frizz_risk":1,"updated_at":"2026-03-09T16:22:05.094179+05:30"},{"city":"Shillong","state":"Meghalaya","latitude":25.5788,"longitude":91.8933,"temp":15.6,"humidity":82,"rain":0.0,"pressure":859.5,"uv_index":6.45,"wind_gusts":22.0,"aqi":151,"pm10":73.6,"pm2_5":63.1,"mosquito_risk":3,"arthritis_risk":10,"migraine_risk":7,"frizz_risk":0,"updated_at":"2026-03-09T16:22:05.094186+05:30"},{"city":"Imphal","state":"Manipur","latitude":24.817,"longitude":93.9368,"temp":21.0,"humidity":74,"rain":0.0,"pressure":926.9,"uv_index":7.95,"wind_gusts":31.0,"aqi":160,"pm10":49.9,"pm2_5":45.3,"mosquito_risk":3,"arthritis_risk":5,"migraine_risk":7,"frizz_risk":1,"updated_at":"2026-03-09T16:22:05.094192+05:30"},{"city":"Aizawl","state":"Mizoram","latitude":23.7271,"longitude":92.7176,"temp":22.5,"humidity":55,"rain":0.0,"pressure":896.3,"uv_index":7.85,"wind_gusts":26.3,"aqi":165,"pm10":74.7,"pm2_5":64.0,"mosquito_risk":0,"arthritis_risk":5,"migraine_risk":7,"frizz_risk":0,"updated_at":"2026-03-09T16:22:05.094198+05:30"},{"city":"Kohima","state":"Nagaland","latitude":25.6701,"longitude":94.1077,"temp":16.0,"humidity":92,"rain":0.0,"pressure":858.3,"uv_index":7.0,"wind_gusts":53.3,"aqi":154,"pm10":80.1,"pm2_5":71.9,"mosquito_risk":3,"arthritis_risk":10,"migraine_risk":7,"frizz_risk":0,"updated_at":"2026-03-09T16:22:05.094205+05:30"},{"city":"Gangtok","state":"Sikkim","latitude":27.3314,"longitude":88.6138,"temp":17.0,"humidity":75,"rain":0.0,"pressure":842.1,"uv_index":4.8,"wind_gusts":16.9,"aqi":156,"pm10":87.5,"pm2_5":66.4,"mosquito_risk":3,"arthritis_risk":5,"migraine_risk":3,"frizz_risk":0,"updated_at":"2026-03-09T16:22:05.094211+05:30"},{"city":"Siliguri","state":"West Bengal","latitude":26.7271,"longitude":88.3953,"temp":25.6,"humidity":51,"rain":0.0,"pressure":998.5,"uv_index":7.35,"wind_gusts":18.4,"aqi":161,"pm10":98.3,"pm2_5":74.7,"mosquito_risk":4,"arthritis_risk":5,"migraine_risk":7,"frizz_risk":0,"updated_at":"2026-03-09T16:22:08.374269+05:30"},{"city":"Durgapur","state":"West Bengal","latitude":23.5204,"longitude":87.3119,"temp":29.8,"humidity":56,"rain":0.0,"pressure":998.8,"uv_index":7.6,"wind_gusts":25.2,"aqi":163,"pm10":100.6,"pm2_5":85.7,"mosquito_risk":4,"arthritis_risk":5,"migraine_risk":7,"frizz_risk":1,"updated_at":"2026-03-09T16:22:08.374298+05:30"},{"city":"Asansol","state":"West Bengal","latitude":23.6739,"longitude":86.9524,"temp":29.8,"humidity":56,"rain":0.0,"pressure":997.1,"uv_index":7.55,"wind_gusts":25.6,"aqi":164,"pm10":116.2,"pm2_5":95.7,"mosquito_risk":4,"arthritis_risk":5,"migraine_risk":7,"frizz_risk":1,"updated_at":"2026-03-09T16:22:08.374309+05:30"},{"city":"Pondicherry","state":"Puducherry","latitude":11.9139,"longitude":79.8145,"temp":30.6,"humidity":55,"rain":0.0,"pressure":1009.6,"uv_index":8.95,"wind_gusts":33.1,"aqi":76,"pm10":46.1,"pm2_5":32.0,"mosquito_risk":0,"arthritis_risk":0,"migraine_risk":4,"frizz_risk":1,"updated_at":"2026-03-09T16:22:08.374318+05:30"},{"city":"Port Blair","state":"Andaman and Nicobar Islands","latitude":11.6234,"longitude":92.7265,"temp":28.1,"humidity":71,"rain":0.0,"pressure":1008.5,"uv_index":8.9,"wind_gusts":23.8,"aqi":87,"pm10":34.0,"pm2_5":29.6,"mosquito_risk":7,"arthritis_risk":0,"migraine_risk":4,"frizz_risk":1,"updated_at":"2026-03-09T16:22:08.374325+05:30"},{"city":"Haridwar","state":"Uttarakhand","latitude":29.9457,"longitude":78.1642,"temp":29.8,"humidity":56,"rain":0.0,"pressure":977.7,"uv_index":5.8,"wind_gusts":24.5,"aqi":158,"pm10":69.2,"pm2_5":42.3,"mosquito_risk":4,"arthritis_risk":5,"migraine_risk":3,"frizz_risk":1,"updated_at":"2026-03-09T16:22:08.374333+05:30"},{"city":"Rishikesh","state":"Uttarakhand","latitude":30.0869,"longitude":78.2676,"temp":29.4,"humidity":53,"rain":0.0,"pressure":970.6,"uv_index":5.85,"wind_gusts":24.8,"aqi":154,"pm10":79.2,"pm2_5":48.3,"mosquito_risk":4,"arthritis_risk":5,"migraine_risk":3,"frizz_risk":1,"updated_at":"2026-03-09T16:22:08.374339+05:30"},{"city":"Nainital","state":"Uttarakhand","latitude":29.3919,"longitude":79.4542,"temp":21.9,"humidity":65,"rain":0.0,"pressure":810.7,"uv_index":6.7,"wind_gusts":54.0,"aqi":160,"pm10":119.2,"pm2_5":71.0,"mosquito_risk":3,"arthritis_risk":5,"migraine_risk":7,"frizz_risk":0,"updated_at":"2026-03-09T16:22:08.374347+05:30"},{"city":"Mussoorie","state":"Uttarakhand","latitude":30.4599,"longitude":78.0664,"temp":21.5,"humidity":62,"rain":0.0,"pressure":807.7,"uv_index":6.2,"wind_gusts":40.7,"aqi":151,"pm10":65.7,"pm2_5":46.7,"mosquito_risk":3,"arthritis_risk":5,"migraine_risk":7,"frizz_risk":0,"updated_at":"2026-03-09T16:22:08.374354+05:30"},{"city":"Dharamshala","state":"Himachal Pradesh","latitude":32.219,"longitude":76.3234,"temp":26.4,"humidity":37,"rain":0.0,"pressure":874.1,"uv_index":6.45,"wind_gusts":23.0,"aqi":52,"pm10":27.3,"pm2_5":10.0,"mosquito_risk":4,"arthritis_risk":5,"migraine_risk":7,"frizz_risk":0,"updated_at":"2026-03-09T16:22:08.374361+05:30"},{"city":"Dalhousie","state":"Himachal Pradesh","latitude":32.5387,"longitude":75.971,"temp":25.2,"humidity":30,"rain":0.0,"pressure":810.0,"uv_index":6.65,"wind_gusts":22.0,"aqi":81,"pm10":32.5,"pm2_5":15.9,"mosquito_risk":4,"arthritis_risk":5,"migraine_risk":7,"frizz_risk":0,"updated_at":"2026-03-09T16:22:08.374368+05:30"},{"city":"Patiala","state":"Punjab","latitude":30.3398,"longitude":76.3869,"temp":31.8,"humidity":45,"rain":0.0,"pressure":981.4,"uv_index":5.35,"wind_gusts":20.9,"aqi":181,"pm10":338.1,"pm2_5":70.1,"mosquito_risk":0,"arthritis_risk":5,"migraine_risk":3,"frizz_risk":1,"updated_at":"2026-03-09T16:22:08.374375+05:30"},{"city":"Bhatinda","state":"Punjab","latitude":30.211,"longitude":74.9455,"temp":33.6,"humidity":33,"rain":0.0,"pressure":986.8,"uv_index":6.2,"wind_gusts":20.5,"aqi":154,"pm10":77.8,"pm2_5":44.0,"mosquito_risk":0,"arthritis_risk":5,"migraine_risk":7,"frizz_risk":0,"updated_at":"2026-03-09T16:22:08.374381+05:30"},{"city":"Rohtak","state":"Haryana","latitude":28.8955,"longitude":76.6066,"temp":33.5,"humidity":34,"rain":0.0,"pressure":984.8,"uv_index":6.0,"wind_gusts":25.9,"aqi":176,"pm10":416.3,"pm2_5":63.8,"mosquito_risk":0,"arthritis_risk":5,"migraine_risk":3,"frizz_risk":0,"updated_at":"2026-03-09T16:22:08.374387+05:30"},{"city":"Panipat","state":"Haryana","latitude":29.3909,"longitude":76.9635,"temp":33.1,"humidity":40,"rain":0.0,"pressure":983.4,"uv_index":5.8,"wind_gusts":25.6,"aqi":580,"pm10":719.0,"pm2_5":91.7,"mosquito_risk":0,"arthritis_risk":5,"migraine_risk":3,"frizz_risk":1,"updated_at":"2026-03-09T16:22:08.374394+05:30"},{"city":"Mathura","state":"Uttar Pradesh","latitude":27.4924,"longitude":77.6737,"temp":36.0,"humidity":25,"rain":0.0,"pressure":989.5,"uv_index":6.3,"wind_gusts":23.8,"aqi":183,"pm10":214.7,"pm2_5":48.5,"mosquito_risk":0,"arthritis_risk":5,"migraine_risk":10,"frizz_risk":0,"updated_at":"2026-03-09T16:22:08.374400+05:30"},{"city":"Vrindavan","state":"Uttar Pradesh","latitude":27.5823,"longitude":77.7027,"temp":35.6,"humidity":26,"rain":0.0,"pressure":990.0,"uv_index":6.25,"wind_gusts":25.2,"aqi":183,"pm10":214.7,"pm2_5":48.5,"mosquito_risk":0,"arthritis_risk":5,"migraine_risk":10,"frizz_risk":0,"updated_at":"2026-03-09T16:22:08.374407+05:30"},{"city":"Ayodhya","state":"Uttar Pradesh","latitude":26.7922,"longitude":82.1998,"temp":31.0,"humidity":50,"rain":0.0,"pressure":999.1,"uv_index":6.7,"wind_gusts":20.5,"aqi":198,"pm10":149.9,"pm2_5":95.0,"mosquito_risk":0,"arthritis_risk":5,"migraine_risk":7,"frizz_risk":1,"updated_at":"2026-03-09T16:22:08.374413+05:30"},{"city":"Ratlam","state":"Madhya Pradesh","latitude":23.3315,"longitude":75.0367,"temp":36.2,"humidity":19,"rain":0.0,"pressure":957.3,"uv_index":7.5,"wind_gusts":12.2,"aqi":78,"pm10":9.4,"pm2_5":9.0,"mosquito_risk":0,"arthritis_risk":5,"migraine_risk":10,"frizz_risk":0,"updated_at":"2026-03-09T16:22:08.374419+05:30"},{"city":"Sagar","state":"Madhya Pradesh","latitude":23.8388,"longitude":78.7378,"temp":34.9,"humidity":20,"rain":0.0,"pressure":953.1,"uv_index":7.5,"wind_gusts":17.3,"aqi":87,"pm10":30.4,"pm2_5":10.3,"mosquito_risk":0,"arthritis_risk":5,"migraine_risk":7,"frizz_risk":0,"updated_at":"2026-03-09T16:22:08.374425+05:30"},{"city":"Satna","state":"Madhya Pradesh","latitude":24.6005,"longitude":80.8322,"temp":35.3,"humidity":25,"rain":0.0,"pressure":974.1,"uv_index":7.45,"wind_gusts":18.7,"aqi":144,"pm10":75.4,"pm2_5":22.9,"mosquito_risk":0,"arthritis_risk":5,"migraine_risk":10,"frizz_risk":0,"updated_at":"2026-03-09T16:22:08.374431+05:30"},{"city":"Akola","state":"Maharashtra","latitude":20.7002,"longitude":77.0082,"temp":38.0,"humidity":17,"rain":0.0,"pressure":976.1,"uv_index":7.95,"wind_gusts":16.9,"aqi":77,"pm10":15.2,"pm2_5":10.2,"mosquito_risk":0,"arthritis_risk":5,"migraine_risk":10,"frizz_risk":0,"updated_at":"2026-03-09T16:22:08.374439+05:30"},{"city":"Amravati","state":"Maharashtra","latitude":20.9374,"longitude":77.7796,"temp":37.5,"humidity":15,"rain":0.0,"pressure":968.7,"uv_index":7.9,"wind_gusts":24.8,"aqi":75,"pm10":15.5,"pm2_5":9.6,"mosquito_risk":0,"arthritis_risk":5,"migraine_risk":10,"frizz_risk":0,"updated_at":"2026-03-09T16:22:08.374446+05:30"},{"city":"Latur","state":"Maharashtra","latitude":18.4088,"longitude":76.5604,"temp":34.8,"humidity":15,"rain":0.0,"pressure":941.0,"uv_index":8.4,"wind_gusts":29.5,"aqi":110,"pm10":27.9,"pm2_5":21.1,"mosquito_risk":0,"arthritis_risk":5,"migraine_risk":7,"frizz_risk":0,"updated_at":"2026-03-09T16:22:08.374452+05:30"},{"city":"Nanded","state":"Maharashtra","latitude":19.1383,"longitude":77.3091,"temp":37.2,"humidity":15,"rain":0.0,"pressure":969.6,"uv_index":8.15,"wind_gusts":29.5,"aqi":92,"pm10":30.6,"pm2_5":20.3,"mosquito_risk":0,"arthritis_risk":5,"migraine_risk":10,"frizz_risk":0,"updated_at":"2026-03-09T16:22:08.374458+05:30"},{"city":"Gulbarga","state":"Karnataka","latitude":17.3297,"longitude":76.8343,"temp":37.4,"humidity":12,"rain":0.0,"pressure":958.8,"uv_index":8.5,"wind_gusts":34.6,"aqi":121,"pm10":33.6,"pm2_5":25.9,"mosquito_risk":0,"arthritis_risk":5,"migraine_risk":10,"frizz_risk":0,"updated_at":"2026-03-09T16:22:08.374464+05:30"},{"city":"Bidar","state":"Karnataka","latitude":17.9104,"longitude":77.5199,"temp":34.8,"humidity":19,"rain":0.0,"pressure":936.7,"uv_index":8.45,"wind_gusts":33.5,"aqi":130,"pm10":37.4,"pm2_5":28.7,"mosquito_risk":0,"arthritis_risk":5,"migraine_risk":7,"frizz_risk":0,"updated_at":"2026-03-09T16:22:08.374470+05:30"},{"city":"Hospet","state":"Karnataka","latitude":15.2689,"longitude":76.3909,"temp":35.3,"humidity":24,"rain":0.0,"pressure":955.5,"uv_index":8.8,"wind_gusts":35.3,"aqi":115,"pm10":40.7,"pm2_5":32.1,"mosquito_risk":0,"arthritis_risk":5,"migraine_risk":10,"frizz_risk":0,"updated_at":"2026-03-09T16:22:08.374476+05:30"},{"city":"Tirupur","state":"Tamil Nadu","latitude":11.1085,"longitude":77.3411,"temp":34.8,"humidity":28,"rain":0.0,"pressure":974.1,"uv_index":9.25,"wind_gusts":39.2,"aqi":97,"pm10":42.4,"pm2_5":32.0,"mosquito_risk":0,"arthritis_risk":5,"migraine_risk":7,"frizz_risk":0,"updated_at":"2026-03-09T16:22:08.374482+05:30"},{"city":"Alappuzha","state":"Kerala","latitude":9.4981,"longitude":76.3388,"temp":28.1,"humidity":82,"rain":0.0,"pressure":1007.3,"uv_index":8.95,"wind_gusts":26.3,"aqi":134,"pm10":39.6,"pm2_5":36.3,"mosquito_risk":7,"arthritis_risk":5,"migraine_risk":4,"frizz_risk":1,"updated_at":"2026-03-09T16:22:08.374488+05:30"},{"city":"Munnar","state":"Kerala","latitude":10.0889,"longitude":77.0595,"temp":28.2,"humidity":43,"rain":0.0,"pressure":857.7,"uv_index":9.55,"wind_gusts":22.7,"aqi":101,"pm10":38.9,"pm2_5":27.0,"mosquito_risk":4,"arthritis_risk":5,"migraine_risk":7,"frizz_risk":0,"updated_at":"2026-03-09T16:22:08.374495+05:30"},{"city":"Silchar","state":"Assam","latitude":24.8333,"longitude":92.7789,"temp":29.2,"humidity":52,"rain":0.0,"pressure":1008.7,"uv_index":7.65,"wind_gusts":14.0,"aqi":169,"pm10":82.2,"pm2_5":71.0,"mosquito_risk":4,"arthritis_risk":0,"migraine_risk":4,"frizz_risk":1,"updated_at":"2026-03-09T16:22:08.374502+05:30"},{"city":"Dibrugarh","state":"Assam","latitude":27.4728,"longitude":94.912,"temp":28.8,"humidity":61,"rain":0.0,"pressure":999.3,"uv_index":7.4,"wind_gusts":14.0,"aqi":162,"pm10":85.2,"pm2_5":70.3,"mosquito_risk":7,"arthritis_risk":5,"migraine_risk":7,"frizz_risk":1,"updated_at":"2026-03-09T16:22:08.374508+05:30"}]