[{"city":"Delhi","state":"Delhi","latitude":28.6139,"longitude":77.209,"temp":29.6,"humidity":64,"rain":0.0,"pressure":979.4,"uv_index":7.65,"wind_gusts":32.4,"aqi":407,"pm10":512.2,"pm2_5":164.4,"no2":97.5,"co":936.0,"o3":0.0,"so2":44.1,"mosquito_risk":7,"arthritis_risk":5,"migraine_risk":7,"frizz_risk":1,"updated_at":"2026-06-18T04:57:29.648173+05:30"},{"city":"Mumbai","state":"Maharashtra","latitude":19.076,"longitude":72.8777,"temp":28.9,"humidity":71,"rain":0.0,"pressure":1008.1,"uv_index":7.7,"wind_gusts":45.0,"aqi":57,"pm10":34.0,"pm2_5":15.5,"no2":5.6,"co":140.0,"o3":45.0,"so2":4.1,"mosquito_risk":7,"arthritis_risk":0,"migraine_risk":4,"frizz_risk":1,"updated_at":"2026-06-18T04:57:29.648215+05:30"},{"city":"Bangalore","state":"Karnataka","latitude":12.9716,"longitude":77.5946,"temp":21.0,"humidity":95,"rain":0.0,"pressure":911.4,"uv_index":8.5,"wind_gusts":31.3,"aqi":65,"pm10":15.3,"pm2_5":11.6,"no2":16.8,"co":265.0,"o3":36.0,"so2":6.5,"mosquito_risk":3,"arthritis_risk":5,"migraine_risk":7,"frizz_risk":1,"updated_at":"2026-06-18T04:57:29.648230+05:30"},{"city":"Hyderabad","state":"Telangana","latitude":17.385,"longitude":78.4867,"temp":27.6,"humidity":65,"rain":0.0,"pressure":951.6,"uv_index":9.05,"wind_gusts":37.4,"aqi":78,"pm10":21.8,"pm2_5":15.7,"no2":12.1,"co":344.0,"o3":70.0,"so2":8.0,"mosquito_risk":7,"arthritis_risk":5,"migraine_risk":7,"frizz_risk":1,"updated_at":"2026-06-18T04:57:29.648240+05:30"},{"city":"Chennai","state":"Tamil Nadu","latitude":13.0827,"longitude":80.2707,"temp":28.7,"humidity":76,"rain":0.0,"pressure":1005.6,"uv_index":6.7,"wind_gusts":36.7,"aqi":84,"pm10":31.1,"pm2_5":23.6,"no2":14.3,"co":241.0,"o3":66.0,"so2":15.4,"mosquito_risk":7,"arthritis_risk":5,"migraine_risk":4,"frizz_risk":1,"updated_at":"2026-06-18T04:57:29.648248+05:30"},{"city":"Kolkata","state":"West Bengal","latitude":22.5726,"longitude":88.3639,"temp":29.6,"humidity":92,"rain":0.0,"pressure":1002.4,"uv_index":9.0,"wind_gusts":51.1,"aqi":128,"pm10":58.4,"pm2_5":46.1,"no2":11.8,"co":345.0,"o3":60.0,"so2":6.8,"mosquito_risk":7,"arthritis_risk":5,"migraine_risk":4,"frizz_risk":1,"updated_at":"2026-06-18T04:57:29.648256+05:30"},{"city":"Pune","state":"Maharashtra","latitude":18.5204,"longitude":73.8567,"temp":23.5,"humidity":85,"rain":0.0,"pressure":947.7,"uv_index":8.35,"wind_gusts":45.4,"aqi":51,"pm10":18.0,"pm2_5":10.5,"no2":8.3,"co":125.0,"o3":36.0,"so2":8.3,"mosquito_risk":3,"arthritis_risk":5,"migraine_risk":7,"frizz_risk":1,"updated_at":"2026-06-18T04:57:29.648263+05:30"},{"city":"Ahmedabad","state":"Gujarat","latitude":23.0225,"longitude":72.5714,"temp":27.2,"humidity":86,"rain":0.0,"pressure":1000.8,"uv_index":8.05,"wind_gusts":41.0,"aqi":65,"pm10":33.8,"pm2_5":16.5,"no2":5.2,"co":152.0,"o3":37.0,"so2":4.1,"mosquito_risk":7,"arthritis_risk":5,"migraine_risk":4,"frizz_risk":1,"updated_at":"2026-06-18T04:57:29.648270+05:30"},{"city":"Jaipur","state":"Rajasthan","latitude":26.9124,"longitude":75.7873,"temp":28.0,"humidity":66,"rain":0.0,"pressure":957.0,"uv_index":8.2,"wind_gusts":29.9,"aqi":117,"pm10":153.2,"pm2_5":42.0,"no2":9.9,"co":144.0,"o3":40.0,"so2":4.8,"mosquito_risk":7,"arthritis_risk":5,"migraine_risk":7,"frizz_risk":1,"updated_at":"2026-06-18T04:57:29.648281+05:30"},{"city":"Lucknow","state":"Uttar Pradesh","latitude":26.8467,"longitude":80.9462,"temp":29.9,"humidity":65,"rain":0.0,"pressure":989.6,"uv_index":8.35,"wind_gusts":32.8,"aqi":157,"pm10":159.7,"pm2_5":71.2,"no2":50.3,"co":433.0,"o3":10.0,"so2":10.9,"mosquito_risk":7,"arthritis_risk":5,"migraine_risk":7,"frizz_risk":1,"updated_at":"2026-06-18T04:57:29.648289+05:30"},{"city":"Kanpur","state":"Uttar Pradesh","latitude":26.4499,"longitude":80.3319,"temp":31.9,"humidity":50,"rain":0.0,"pressure":988.0,"uv_index":7.85,"wind_gusts":33.1,"aqi":168,"pm10":189.5,"pm2_5":57.7,"no2":24.1,"co":303.0,"o3":36.0,"so2":8.0,"mosquito_risk":0,"arthritis_risk":5,"migraine_risk":7,"frizz_risk":1,"updated_at":"2026-06-18T04:57:29.648295+05:30"},{"city":"Chandigarh","state":"Chandigarh","latitude":30.7333,"longitude":76.7794,"temp":25.1,"humidity":73,"rain":0.0,"pressure":965.3,"uv_index":7.8,"wind_gusts":25.2,"aqi":155,"pm10":88.5,"pm2_5":60.3,"no2":49.9,"co":644.0,"o3":4.0,"so2":4.3,"mosquito_risk":7,"arthritis_risk":5,"migraine_risk":7,"frizz_risk":1,"updated_at":"2026-06-18T04:57:29.648303+05:30"},{"city":"Srinagar","state":"Jammu and Kashmir","latitude":34.0837,"longitude":74.7973,"temp":14.5,"humidity":100,"rain":0.0,"pressure":840.5,"uv_index":7.5,"wind_gusts":28.4,"aqi":74,"pm10":26.5,"pm2_5":24.3,"no2":20.7,"co":458.0,"o3":21.0,"so2":0.9,"mosquito_risk":3,"arthritis_risk":10,"migraine_risk":7,"frizz_risk":0,"updated_at":"2026-06-18T04:57:29.648312+05:30"},{"city":"Jammu","state":"Jammu and Kashmir","latitude":32.7266,"longitude":74.857,"temp":25.9,"humidity":63,"rain":0.0,"pressure":968.9,"uv_index":8.6,"wind_gusts":58.7,"aqi":105,"pm10":32.1,"pm2_5":28.6,"no2":44.7,"co":339.0,"o3":1.0,"so2":2.1,"mosquito_risk":7,"arthritis_risk":5,"migraine_risk":7,"frizz_risk":1,"updated_at":"2026-06-18T04:57:29.648319+05:30"},{"city":"Amritsar","state":"Punjab","latitude":31.634,"longitude":74.8723,"temp":26.5,"humidity":84,"rain":0.0,"pressure":976.7,"uv_index":8.45,"wind_gusts":34.9,"aqi":155,"pm10":128.1,"pm2_5":108.0,"no2":80.0,"co":1021.0,"o3":7.0,"so2":15.3,"mosquito_risk":7,"arthritis_risk":5,"migraine_risk":7,"frizz_risk":1,"updated_at":"2026-06-18T04:57:29.648325+05:30"},{"city":"Ludhiana","state":"Punjab","latitude":30.901,"longitude":75.8573,"temp":26.9,"humidity":87,"rain":0.0,"pressure":974.9,"uv_index":8.05,"wind_gusts":27.0,"aqi":158,"pm10":152.3,"pm2_5":102.0,"no2":76.7,"co":1075.0,"o3":1.0,"so2":14.3,"mosquito_risk":7,"arthritis_risk":5,"migraine_risk":7,"frizz_risk":1,"updated_at":"2026-06-18T04:57:29.648332+05:30"},{"city":"Jalandhar","state":"Punjab","latitude":31.326,"longitude":75.5762,"temp":26.6,"humidity":83,"rain":0.0,"pressure":975.9,"uv_index":8.25,"wind_gusts":25.9,"aqi":156,"pm10":135.0,"pm2_5":107.1,"no2":73.1,"co":1157.0,"o3":1.0,"so2":9.0,"mosquito_risk":7,"arthritis_risk":5,"migraine_risk":7,"frizz_risk":1,"updated_at":"2026-06-18T04:57:29.648338+05:30"},{"city":"Dehradun","state":"Uttarakhand","latitude":30.6284,"longitude":78.0322,"temp":14.8,"humidity":95,"rain":0.0,"pressure":827.8,"uv_index":7.5,"wind_gusts":28.4,"aqi":66,"pm10":22.9,"pm2_5":18.3,"no2":26.4,"co":255.0,"o3":16.0,"so2":0.4,"mosquito_risk":3,"arthritis_risk":10,"migraine_risk":7,"frizz_risk":0,"updated_at":"2026-06-18T04:57:29.648345+05:30"},{"city":"Shimla","state":"Himachal Pradesh","latitude":31.1048,"longitude":77.1734,"temp":11.4,"humidity":92,"rain":0.0,"pressure":780.7,"uv_index":7.65,"wind_gusts":37.8,"aqi":80,"pm10":41.6,"pm2_5":24.0,"no2":13.3,"co":254.0,"o3":61.0,"so2":0.0,"mosquito_risk":3,"arthritis_risk":10,"migraine_risk":7,"frizz_risk":0,"updated_at":"2026-06-18T04:57:29.648356+05:30"},{"city":"Manali","state":"Himachal Pradesh","latitude":32.2396,"longitude":77.1887,"temp":15.7,"humidity":56,"rain":0.0,"pressure":817.0,"uv_index":9.6,"wind_gusts":31.7,"aqi":47,"pm10":3.3,"pm2_5":3.2,"no2":11.8,"co":175.0,"o3":115.0,"so2":0.0,"mosquito_risk":0,"arthritis_risk":5,"migraine_risk":7,"frizz_risk":0,"updated_at":"2026-06-18T04:57:29.648363+05:30"},{"city":"Gurgaon","state":"Haryana","latitude":28.4595,"longitude":77.0266,"temp":27.9,"humidity":68,"rain":0.0,"pressure":977.6,"uv_index":7.85,"wind_gusts":29.5,"aqi":406,"pm10":317.6,"pm2_5":118.0,"no2":91.3,"co":1206.0,"o3":0.0,"so2":35.0,"mosquito_risk":7,"arthritis_risk":5,"migraine_risk":7,"frizz_risk":1,"updated_at":"2026-06-18T04:57:29.648369+05:30"},{"city":"Noida","state":"Uttar Pradesh","latitude":28.5355,"longitude":77.391,"temp":27.6,"humidity":76,"rain":0.0,"pressure":980.7,"uv_index":7.7,"wind_gusts":22.3,"aqi":406,"pm10":317.6,"pm2_5":118.0,"no2":91.3,"co":986.0,"o3":0.0,"so2":35.0,"mosquito_risk":7,"arthritis_risk":5,"migraine_risk":7,"frizz_risk":1,"updated_at":"2026-06-18T04:57:29.648375+05:30"},{"city":"Ghaziabad","state":"Uttar Pradesh","latitude":28.6692,"longitude":77.4538,"temp":26.2,"humidity":84,"rain":0.0,"pressure":978.7,"uv_index":7.6,"wind_gusts":22.0,"aqi":410,"pm10":547.6,"pm2_5":188.1,"no2":103.0,"co":916.0,"o3":0.0,"so2":28.6,"mosquito_risk":7,"arthritis_risk":5,"migraine_risk":7,"frizz_risk":1,"updated_at":"2026-06-18T04:57:29.648382+05:30"},{"city":"Faridabad","state":"Haryana","latitude":28.4089,"longitude":77.3178,"temp":29.3,"humidity":62,"rain":0.0,"pressure":980.1,"uv_index":7.75,"wind_gusts":30.6,"aqi":406,"pm10":317.6,"pm2_5":118.0,"no2":91.3,"co":878.0,"o3":0.0,"so2":35.0,"mosquito_risk":7,"arthritis_risk":5,"migraine_risk":7,"frizz_risk":1,"updated_at":"2026-06-18T04:57:29.648388+05:30"},{"city":"Meerut","state":"Uttar Pradesh","latitude":28.9845,"longitude":77.7064,"temp":28.6,"humidity":67,"rain":0.0,"pressure":977.7,"uv_index":6.0,"wind_gusts":24.8,"aqi":410,"pm10":547.6,"pm2_5":188.1,"no2":103.0,"co":949.0,"o3":0.0,"so2":28.6,"mosquito_risk":7,"arthritis_risk":5,"migraine_risk":3,"frizz_risk":1,"updated_at":"2026-06-18T04:57:29.648395+05:30"},{"city":"Agra","state":"Uttar Pradesh","latitude":27.1767,"longitude":78.0081,"temp":30.6,"humidity":56,"rain":0.0,"pressure":984.0,"uv_index":8.15,"wind_gusts":26.3,"aqi":173,"pm10":235.2,"pm2_5":92.0,"no2":63.8,"co":680.0,"o3":0.0,"so2":17.1,"mosquito_risk":0,"arthritis_risk":5,"migraine_risk":7,"frizz_risk":1,"updated_at":"2026-06-18T04:57:29.648401+05:30"},{"city":"Varanasi","state":"Uttar Pradesh","latitude":25.3176,"longitude":82.9739,"temp":31.3,"humidity":59,"rain":0.0,"pressure":993.9,"uv_index":8.4,"wind_gusts":36.0,"aqi":153,"pm10":73.1,"pm2_5":42.4,"no2":14.6,"co":278.0,"o3":68.0,"so2":8.9,"mosquito_risk":0,"arthritis_risk":5,"migraine_risk":7,"frizz_risk":1,"updated_at":"2026-06-18T04:57:29.648408+05:30"},{"city":"Prayagraj","state":"Uttar Pradesh","latitude":25.4358,"longitude":81.8463,"temp":31.0,"humidity":64,"rain":0.0,"pressure":992.4,"uv_index":8.25,"wind_gusts":34.9,"aqi":154,"pm10":71.5,"pm2_5":43.9,"no2":13.5,"co":197.0,"o3":70.0,"so2":6.2,"mosquito_risk":3,"arthritis_risk":5,"migraine_risk":7,"frizz_risk":1,"updated_at":"2026-06-18T04:57:29.648415+05:30"},{"city":"Gorakhpur","state":"Uttar Pradesh","latitude":26.7606,"longitude":83.3732,"temp":28.5,"humidity":75,"rain":0.0,"pressure":993.7,"uv_index":8.35,"wind_gusts":30.2,"aqi":161,"pm10":102.4,"pm2_5":75.0,"no2":45.3,"co":499.0,"o3":19.0,"so2":12.5,"mosquito_risk":7,"arthritis_risk":5,"migraine_risk":7,"frizz_risk":1,"updated_at":"2026-06-18T04:57:29.648424+05:30"},{"city":"Bareilly","state":"Uttar Pradesh","latitude":28.367,"longitude":79.4304,"temp":27.2,"humidity":77,"rain":0.0,"pressure":983.0,"uv_index":8.1,"wind_gusts":26.6,"aqi":159,"pm10":246.8,"pm2_5":106.6,"no2":56.0,"co":744.0,"o3":22.0,"so2":18.7,"mosquito_risk":7,"arthritis_risk":5,"migraine_risk":7,"frizz_risk":1,"updated_at":"2026-06-18T04:57:29.648430+05:30"},{"city":"Aligarh","state":"Uttar Pradesh","latitude":27.8974,"longitude":78.088,"temp":28.3,"humidity":70,"rain":0.0,"pressure":981.6,"uv_index":7.85,"wind_gusts":27.0,"aqi":280,"pm10":393.0,"pm2_5":142.5,"no2":100.4,"co":737.0,"o3":0.0,"so2":23.2,"mosquito_risk":7,"arthritis_risk":5,"migraine_risk":7,"frizz_risk":1,"updated_at":"2026-06-18T04:57:29.648436+05:30"},{"city":"Moradabad","state":"Uttar Pradesh","latitude":28.8386,"longitude":78.7733,"temp":28.2,"humidity":70,"rain":0.0,"pressure":980.0,"uv_index":7.9,"wind_gusts":30.6,"aqi":175,"pm10":300.8,"pm2_5":159.7,"no2":68.8,"co":921.0,"o3":0.0,"so2":18.0,"mosquito_risk":7,"arthritis_risk":5,"migraine_risk":7,"frizz_risk":1,"updated_at":"2026-06-18T04:57:29.648442+05:30"},{"city":"Saharanpur","state":"Uttar Pradesh","latitude":29.9637,"longitude":77.546,"temp":26.4,"humidity":80,"rain":0.0,"pressure":972.2,"uv_index":7.55,"wind_gusts":19.8,"aqi":304,"pm10":249.6,"pm2_5":129.5,"no2":82.1,"co":816.0,"o3":0.0,"so2":17.5,"mosquito_risk":7,"arthritis_risk":5,"migraine_risk":7,"frizz_risk":1,"updated_at":"2026-06-18T04:57:29.648449+05:30"},{"city":"Jhansi","state":"Uttar Pradesh","latitude":25.4484,"longitude":78.5685,"temp":31.2,"humidity":48,"rain":0.0,"pressure":974.9,"uv_index":7.9,"wind_gusts":33.8,"aqi":91,"pm10":28.3,"pm2_5":19.5,"no2":8.4,"co":165.0,"o3":62.0,"so2":11.2,"mosquito_risk":0,"arthritis_risk":5,"migraine_risk":7,"frizz_risk":1,"updated_at":"2026-06-18T04:57:32.925948+05:30"},{"city":"Surat","state":"Gujarat","latitude":21.1702,"longitude":72.8311,"temp":29.2,"humidity":73,"rain":0.0,"pressure":1005.7,"uv_index":7.6,"wind_gusts":50.4,"aqi":67,"pm10":39.6,"pm2_5":22.5,"no2":24.0,"co":338.0,"o3":24.0,"so2":40.1,"mosquito_risk":7,"arthritis_risk":5,"migraine_risk":4,"frizz_risk":1,"updated_at":"2026-06-18T04:57:32.925981+05:30"},{"city":"Vadodara","state":"Gujarat","latitude":22.3072,"longitude":73.1812,"temp":29.6,"humidity":62,"rain":0.0,"pressure":1003.1,"uv_index":8.05,"wind_gusts":53.6,"aqi":60,"pm10":28.8,"pm2_5":16.7,"no2":8.6,"co":140.0,"o3":32.0,"so2":6.1,"mosquito_risk":7,"arthritis_risk":5,"migraine_risk":4,"frizz_risk":1,"updated_at":"2026-06-18T04:57:32.925992+05:30"},{"city":"Rajkot","state":"Gujarat","latitude":22.3039,"longitude":70.8022,"temp":27.2,"humidity":84,"rain":0.0,"pressure":992.5,"uv_index":7.0,"wind_gusts":42.1,"aqi":58,"pm10":30.2,"pm2_5":14.3,"no2":5.2,"co":94.0,"o3":37.0,"so2":4.2,"mosquito_risk":7,"arthritis_risk":5,"migraine_risk":7,"frizz_risk":1,"updated_at":"2026-06-18T04:57:32.926001+05:30"},{"city":"Thane","state":"Maharashtra","latitude":19.2183,"longitude":72.9781,"temp":28.3,"humidity":77,"rain":0.0,"pressure":1007.5,"uv_index":7.7,"wind_gusts":41.4,"aqi":57,"pm10":34.0,"pm2_5":15.5,"no2":5.6,"co":150.0,"o3":45.0,"so2":4.1,"mosquito_risk":7,"arthritis_risk":5,"migraine_risk":4,"frizz_risk":1,"updated_at":"2026-06-18T04:57:32.926009+05:30"},{"city":"Nagpur","state":"Maharashtra","latitude":21.1458,"longitude":79.0882,"temp":29.1,"humidity":59,"rain":0.0,"pressure":971.1,"uv_index":8.9,"wind_gusts":40.3,"aqi":95,"pm10":34.7,"pm2_5":24.1,"no2":11.7,"co":283.0,"o3":56.0,"so2":8.0,"mosquito_risk":4,"arthritis_risk":5,"migraine_risk":7,"frizz_risk":1,"updated_at":"2026-06-18T04:57:32.926017+05:30"},{"city":"Nashik","state":"Maharashtra","latitude":19.9975,"longitude":73.7898,"temp":23.7,"humidity":87,"rain":0.0,"pressure":945.0,"uv_index":8.05,"wind_gusts":43.6,"aqi":47,"pm10":25.0,"pm2_5":12.1,"no2":5.9,"co":107.0,"o3":37.0,"so2":3.1,"mosquito_risk":3,"arthritis_risk":5,"migraine_risk":7,"frizz_risk":1,"updated_at":"2026-06-18T04:57:32.926024+05:30"},{"city":"Aurangabad","state":"Maharashtra","latitude":19.8762,"longitude":75.3433,"temp":24.6,"humidity":75,"rain":0.0,"pressure":943.5,"uv_index":8.95,"wind_gusts":46.1,"aqi":49,"pm10":15.4,"pm2_5":9.2,"no2":6.7,"co":122.0,"o3":36.0,"so2":4.8,"mosquito_risk":3,"arthritis_risk":5,"migraine_risk":7,"frizz_risk":1,"updated_at":"2026-06-18T04:57:32.926032+05:30"},{"city":"Solapur","state":"Maharashtra","latitude":17.6599,"longitude":75.9064,"temp":26.7,"humidity":66,"rain":0.0,"pressure":957.1,"uv_index":8.85,"wind_gusts":52.9,"aqi":57,"pm10":19.0,"pm2_5":12.0,"no2":6.9,"co":131.0,"o3":44.0,"so2":5.1,"mosquito_risk":7,"arthritis_risk":5,"migraine_risk":7,"frizz_risk":1,"updated_at":"2026-06-18T04:57:32.926040+05:30"},{"city":"Kolhapur","state":"Maharashtra","latitude":16.705,"longitude":74.2433,"temp":23.0,"humidity":89,"rain":0.0,"pressure":947.9,"uv_index":8.75,"wind_gusts":46.4,"aqi":50,"pm10":17.7,"pm2_5":11.3,"no2":7.2,"co":130.0,"o3":33.0,"so2":2.9,"mosquito_risk":3,"arthritis_risk":5,"migraine_risk":7,"frizz_risk":1,"updated_at":"2026-06-18T04:57:32.926047+05:30"},{"city":"Goa","state":"Goa","latitude":15.2993,"longitude":74.124,"temp":25.2,"humidity":91,"rain":0.0,"pressure":998.1,"uv_index":8.65,"wind_gusts":27.7,"aqi":58,"pm10":37.8,"pm2_5":22.8,"no2":8.8,"co":430.0,"o3":38.0,"so2":2.5,"mosquito_risk":7,"arthritis_risk":5,"migraine_risk":7,"frizz_risk":1,"updated_at":"2026-06-18T04:57:32.926054+05:30"},{"city":"Jodhpur","state":"Rajasthan","latitude":26.2389,"longitude":73.0243,"temp":29.7,"humidity":60,"rain":0.0,"pressure":980.1,"uv_index":8.4,"wind_gusts":35.6,"aqi":101,"pm10":154.6,"pm2_5":38.6,"no2":5.1,"co":132.0,"o3":47.0,"so2":2.5,"mosquito_risk":4,"arthritis_risk":5,"migraine_risk":7,"frizz_risk":1,"updated_at":"2026-06-18T04:57:32.926061+05:30"},{"city":"Udaipur","state":"Rajasthan","latitude":24.5854,"longitude":73.7125,"temp":26.1,"humidity":72,"rain":0.0,"pressure":944.6,"uv_index":8.85,"wind_gusts":37.1,"aqi":68,"pm10":39.5,"pm2_5":21.4,"no2":7.3,"co":120.0,"o3":48.0,"so2":3.7,"mosquito_risk":7,"arthritis_risk":5,"migraine_risk":7,"frizz_risk":1,"updated_at":"2026-06-18T04:57:32.926067+05:30"},{"city":"Kota","state":"Rajasthan","latitude":25.2138,"longitude":75.8648,"temp":29.8,"humidity":56,"rain":0.0,"pressure":976.2,"uv_index":8.35,"wind_gusts":35.6,"aqi":76,"pm10":29.4,"pm2_5":18.0,"no2":6.6,"co":164.0,"o3":60.0,"so2":6.0,"mosquito_risk":4,"arthritis_risk":5,"migraine_risk":7,"frizz_risk":1,"updated_at":"2026-06-18T04:57:32.926074+05:30"},{"city":"Bikaner","state":"Rajasthan","latitude":28.0229,"longitude":73.3119,"temp":30.3,"humidity":61,"rain":0.0,"pressure":978.2,"uv_index":8.45,"wind_gusts":32.8,"aqi":121,"pm10":95.7,"pm2_5":31.0,"no2":3.0,"co":116.0,"o3":57.0,"so2":2.8,"mosquito_risk":3,"arthritis_risk":5,"migraine_risk":7,"frizz_risk":1,"updated_at":"2026-06-18T04:57:32.926082+05:30"},{"city":"Ajmer","state":"Rajasthan","latitude":26.4499,"longitude":74.6399,"temp":27.2,"humidity":66,"rain":0.0,"pressure":951.9,"uv_index":8.35,"wind_gusts":40.3,"aqi":88,"pm10":40.7,"pm2_5":21.0,"no2":7.5,"co":156.0,"o3":50.0,"so2":4.2,"mosquito_risk":7,"arthritis_risk":5,"migraine_risk":7,"frizz_risk":1,"updated_at":"2026-06-18T04:57:32.926089+05:30"},{"city":"Gwalior","state":"Madhya Pradesh","latitude":26.2183,"longitude":78.1828,"temp":31.3,"humidity":50,"rain":0.0,"pressure":979.9,"uv_index":8.25,"wind_gusts":36.7,"aqi":102,"pm10":34.6,"pm2_5":19.8,"no2":9.3,"co":159.0,"o3":47.0,"so2":6.4,"mosquito_risk":0,"arthritis_risk":5,"migraine_risk":7,"frizz_risk":1,"updated_at":"2026-06-18T04:57:32.926097+05:30"},{"city":"Indore","state":"Madhya Pradesh","latitude":22.7196,"longitude":75.8577,"temp":25.7,"humidity":71,"rain":0.0,"pressure":947.0,"uv_index":8.65,"wind_gusts":60.5,"aqi":79,"pm10":26.4,"pm2_5":16.8,"no2":8.2,"co":177.0,"o3":45.0,"so2":11.2,"mosquito_risk":7,"arthritis_risk":5,"migraine_risk":7,"frizz_risk":1,"updated_at":"2026-06-18T04:57:32.926103+05:30"},{"city":"Bhopal","state":"Madhya Pradesh","latitude":23.2599,"longitude":77.4126,"temp":26.6,"humidity":71,"rain":0.0,"pressure":951.9,"uv_index":8.7,"wind_gusts":28.4,"aqi":87,"pm10":33.6,"pm2_5":27.1,"no2":10.8,"co":248.0,"o3":47.0,"so2":4.0,"mosquito_risk":7,"arthritis_risk":5,"migraine_risk":7,"frizz_risk":1,"updated_at":"2026-06-18T04:57:32.926111+05:30"},{"city":"Jabalpur","state":"Madhya Pradesh","latitude":23.1815,"longitude":79.9864,"temp":27.5,"humidity":67,"rain":0.0,"pressure":959.3,"uv_index":6.35,"wind_gusts":29.9,"aqi":101,"pm10":36.2,"pm2_5":24.6,"no2":13.3,"co":254.0,"o3":51.0,"so2":3.6,"mosquito_risk":7,"arthritis_risk":5,"migraine_risk":7,"frizz_risk":1,"updated_at":"2026-06-18T04:57:32.926118+05:30"},{"city":"Ujjain","state":"Madhya Pradesh","latitude":23.1765,"longitude":75.7885,"temp":26.6,"humidity":68,"rain":0.0,"pressure":952.6,"uv_index":8.6,"wind_gusts":38.9,"aqi":70,"pm10":27.1,"pm2_5":16.9,"no2":8.0,"co":180.0,"o3":39.0,"so2":11.1,"mosquito_risk":7,"arthritis_risk":5,"migraine_risk":7,"frizz_risk":1,"updated_at":"2026-06-18T04:57:32.926125+05:30"},{"city":"Visakhapatnam","state":"Andhra Pradesh","latitude":17.6868,"longitude":83.2185,"temp":27.0,"humidity":81,"rain":0.0,"pressure":1000.8,"uv_index":8.95,"wind_gusts":38.9,"aqi":140,"pm10":52.0,"pm2_5":38.5,"no2":27.8,"co":415.0,"o3":73.0,"so2":40.9,"mosquito_risk":7,"arthritis_risk":5,"migraine_risk":4,"frizz_risk":1,"updated_at":"2026-06-18T04:57:32.926132+05:30"},{"city":"Vijayawada","state":"Andhra Pradesh","latitude":16.5062,"longitude":80.648,"temp":28.7,"humidity":88,"rain":0.0,"pressure":999.9,"uv_index":8.95,"wind_gusts":30.2,"aqi":112,"pm10":43.3,"pm2_5":33.6,"no2":9.1,"co":256.0,"o3":88.0,"so2":6.7,"mosquito_risk":7,"arthritis_risk":5,"migraine_risk":7,"frizz_risk":1,"updated_at":"2026-06-18T04:57:32.926139+05:30"},{"city":"Guntur","state":"Andhra Pradesh","latitude":16.3067,"longitude":80.4365,"temp":28.5,"humidity":91,"rain":0.0,"pressure":1001.1,"uv_index":8.95,"wind_gusts":33.5,"aqi":118,"pm10":44.9,"pm2_5":36.0,"no2":13.6,"co":203.0,"o3":69.0,"so2":6.4,"mosquito_risk":7,"arthritis_risk":5,"migraine_risk":4,"frizz_risk":1,"updated_at":"2026-06-18T04:57:32.926147+05:30"},{"city":"Nellore","state":"Andhra Pradesh","latitude":14.4426,"longitude":79.9865,"temp":27.9,"humidity":80,"rain":0.0,"pressure":1004.0,"uv_index":8.0,"wind_gusts":41.0,"aqi":88,"pm10":35.7,"pm2_5":25.9,"no2":8.8,"co":191.0,"o3":78.0,"so2":7.1,"mosquito_risk":7,"arthritis_risk":5,"migraine_risk":4,"frizz_risk":1,"updated_at":"2026-06-18T04:57:32.926154+05:30"},{"city":"Kurnool","state":"Andhra Pradesh","latitude":15.8281,"longitude":78.0373,"temp":27.9,"humidity":57,"rain":0.0,"pressure":976.0,"uv_index":6.0,"wind_gusts":43.6,"aqi":70,"pm10":22.9,"pm2_5":17.9,"no2":18.7,"co":181.0,"o3":37.0,"so2":4.5,"mosquito_risk":4,"arthritis_risk":5,"migraine_risk":3,"frizz_risk":1,"updated_at":"2026-06-18T04:57:32.926162+05:30"},{"city":"Kakinada","state":"Andhra Pradesh","latitude":16.9891,"longitude":82.2475,"temp":28.0,"humidity":89,"rain":0.0,"pressure":1005.1,"uv_index":8.2,"wind_gusts":45.4,"aqi":100,"pm10":49.7,"pm2_5":32.8,"no2":4.3,"co":344.0,"o3":113.0,"so2":5.2,"mosquito_risk":7,"arthritis_risk":5,"migraine_risk":4,"frizz_risk":1,"updated_at":"2026-06-18T04:57:32.926169+05:30"},{"city":"Tirupati","state":"Andhra Pradesh","latitude":13.6288,"longitude":79.4192,"temp":26.0,"humidity":85,"rain":0.0,"pressure":989.8,"uv_index":8.15,"wind_gusts":38.2,"aqi":87,"pm10":36.2,"pm2_5":28.5,"no2":18.2,"co":169.0,"o3":45.0,"so2":6.1,"mosquito_risk":7,"arthritis_risk":5,"migraine_risk":7,"frizz_risk":1,"updated_at":"2026-06-18T04:57:32.926176+05:30"},{"city":"Warangal","state":"Telangana","latitude":17.9689,"longitude":79.5941,"temp":27.4,"humidity":76,"rain":0.0,"pressure":976.8,"uv_index":9.0,"wind_gusts":28.1,"aqi":129,"pm10":67.1,"pm2_5":51.6,"no2":26.0,"co":496.0,"o3":27.0,"so2":8.5,"mosquito_risk":7,"arthritis_risk":5,"migraine_risk":7,"frizz_risk":1,"updated_at":"2026-06-18T04:57:32.926182+05:30"},{"city":"Nizamabad","state":"Telangana","latitude":18.6725,"longitude":78.0941,"temp":29.4,"humidity":45,"rain":0.0,"pressure":963.3,"uv_index":8.85,"wind_gusts":33.1,"aqi":86,"pm10":38.8,"pm2_5":30.0,"no2":24.9,"co":354.0,"o3":29.0,"so2":6.0,"mosquito_risk":4,"arthritis_risk":5,"migraine_risk":7,"frizz_risk":1,"updated_at":"2026-06-18T04:57:32.926189+05:30"},{"city":"Mysore","state":"Karnataka","latitude":12.2958,"longitude":76.6396,"temp":21.7,"humidity":97,"rain":0.0,"pressure":928.5,"uv_index":8.6,"wind_gusts":27.0,"aqi":52,"pm10":14.0,"pm2_5":9.8,"no2":10.2,"co":164.0,"o3":38.0,"so2":2.6,"mosquito_risk":3,"arthritis_risk":5,"migraine_risk":7,"frizz_risk":1,"updated_at":"2026-06-18T04:57:32.926197+05:30"},{"city":"Mangalore","state":"Karnataka","latitude":12.9141,"longitude":74.856,"temp":25.0,"humidity":91,"rain":0.0,"pressure":1007.5,"uv_index":8.15,"wind_gusts":28.1,"aqi":61,"pm10":34.6,"pm2_5":27.9,"no2":21.2,"co":339.0,"o3":14.0,"so2":3.9,"mosquito_risk":7,"arthritis_risk":5,"migraine_risk":4,"frizz_risk":1,"updated_at":"2026-06-18T04:57:32.926204+05:30"},{"city":"Hubli-Dharwad","state":"Karnataka","latitude":15.3647,"longitude":75.124,"temp":22.4,"humidity":90,"rain":0.0,"pressure":940.6,"uv_index":8.85,"wind_gusts":43.2,"aqi":45,"pm10":17.2,"pm2_5":10.0,"no2":5.2,"co":131.0,"o3":37.0,"so2":2.0,"mosquito_risk":3,"arthritis_risk":5,"migraine_risk":7,"frizz_risk":1,"updated_at":"2026-06-18T04:57:32.926211+05:30"},{"city":"Belgaum","state":"Karnataka","latitude":15.8497,"longitude":74.4977,"temp":20.8,"humidity":97,"rain":0.0,"pressure":925.2,"uv_index":8.9,"wind_gusts":38.2,"aqi":48,"pm10":23.7,"pm2_5":15.7,"no2":9.0,"co":125.0,"o3":28.0,"so2":0.6,"mosquito_risk":3,"arthritis_risk":5,"migraine_risk":7,"frizz_risk":1,"updated_at":"2026-06-18T04:57:36.214031+05:30"},{"city":"Coimbatore","state":"Tamil Nadu","latitude":11.0168,"longitude":76.9558,"temp":23.0,"humidity":95,"rain":0.0,"pressure":961.8,"uv_index":3.45,"wind_gusts":35.3,"aqi":35,"pm10":10.6,"pm2_5":7.7,"no2":10.1,"co":232.0,"o3":35.0,"so2":3.3,"mosquito_risk":3,"arthritis_risk":5,"migraine_risk":3,"frizz_risk":1,"updated_at":"2026-06-18T04:57:36.214063+05:30"},{"city":"Madurai","state":"Tamil Nadu","latitude":9.9252,"longitude":78.1198,"temp":26.9,"humidity":75,"rain":0.0,"pressure":992.8,"uv_index":8.0,"wind_gusts":34.2,"aqi":88,"pm10":17.9,"pm2_5":12.5,"no2":12.9,"co":150.0,"o3":51.0,"so2":3.3,"mosquito_risk":7,"arthritis_risk":5,"migraine_risk":7,"frizz_risk":1,"updated_at":"2026-06-18T04:57:36.214075+05:30"},{"city":"Trichy","state":"Tamil Nadu","latitude":10.7905,"longitude":78.7047,"temp":27.1,"humidity":77,"rain":0.0,"pressure":999.4,"uv_index":4.95,"wind_gusts":45.4,"aqi":71,"pm10":15.0,"pm2_5":10.4,"no2":9.3,"co":155.0,"o3":41.0,"so2":3.6,"mosquito_risk":7,"arthritis_risk":5,"migraine_risk":3,"frizz_risk":1,"updated_at":"2026-06-18T04:57:36.214084+05:30"},{"city":"Salem","state":"Tamil Nadu","latitude":11.6643,"longitude":78.146,"temp":25.0,"humidity":93,"rain":0.0,"pressure":977.7,"uv_index":8.7,"wind_gusts":26.6,"aqi":75,"pm10":25.4,"pm2_5":17.2,"no2":14.3,"co":299.0,"o3":48.0,"so2":6.9,"mosquito_risk":7,"arthritis_risk":5,"migraine_risk":7,"frizz_risk":1,"updated_at":"2026-06-18T04:57:36.214092+05:30"},{"city":"Tirunelveli","state":"Tamil Nadu","latitude":8.7139,"longitude":77.7567,"temp":29.2,"humidity":60,"rain":0.0,"pressure":1002.9,"uv_index":8.15,"wind_gusts":30.6,"aqi":42,"pm10":26.9,"pm2_5":15.0,"no2":9.2,"co":260.0,"o3":33.0,"so2":3.0,"mosquito_risk":4,"arthritis_risk":5,"migraine_risk":4,"frizz_risk":1,"updated_at":"2026-06-18T04:57:36.214100+05:30"},{"city":"Vellore","state":"Tamil Nadu","latitude":12.9165,"longitude":79.1325,"temp":27.1,"humidity":72,"rain":0.0,"pressure":983.3,"uv_index":6.95,"wind_gusts":56.5,"aqi":86,"pm10":27.0,"pm2_5":19.7,"no2":13.1,"co":228.0,"o3":60.0,"so2":6.4,"mosquito_risk":7,"arthritis_risk":5,"migraine_risk":7,"frizz_risk":1,"updated_at":"2026-06-18T04:57:36.214108+05:30"},{"city":"Erode","state":"Tamil Nadu","latitude":11.341,"longitude":77.7172,"temp":24.4,"humidity":95,"rain":0.2,"pressure":989.3,"uv_index":7.75,"wind_gusts":28.1,"aqi":57,"pm10":21.2,"pm2_5":14.8,"no2":14.5,"co":196.0,"o3":31.0,"so2":4.6,"mosquito_risk":6,"arthritis_risk":5,"migraine_risk":7,"frizz_risk":1,"updated_at":"2026-06-18T04:57:36.214116+05:30"},{"city":"Kochi","state":"Kerala","latitude":9.9312,"longitude":76.2673,"temp":26.5,"humidity":93,"rain":0.0,"pressure":1009.4,"uv_index":8.25,"wind_gusts":32.4,"aqi":68,"pm10":32.5,"pm2_5":27.6,"no2":27.3,"co":205.0,"o3":0.0,"so2":5.7,"mosquito_risk":7,"arthritis_risk":0,"migraine_risk":4,"frizz_risk":1,"updated_at":"2026-06-18T04:57:36.214123+05:30"},{"city":"Thiruvananthapuram","state":"Kerala","latitude":8.5241,"longitude":76.9366,"temp":25.5,"humidity":91,"rain":0.0,"pressure":1008.9,"uv_index":7.65,"wind_gusts":38.9,"aqi":52,"pm10":43.5,"pm2_5":19.9,"no2":5.6,"co":232.0,"o3":50.0,"so2":3.1,"mosquito_risk":7,"arthritis_risk":0,"migraine_risk":4,"frizz_risk":1,"updated_at":"2026-06-18T04:57:36.214131+05:30"},{"city":"Kozhikode","state":"Kerala","latitude":11.2588,"longitude":75.7804,"temp":25.1,"humidity":95,"rain":0.0,"pressure":1008.5,"uv_index":8.05,"wind_gusts":34.6,"aqi":53,"pm10":30.0,"pm2_5":13.6,"no2":2.3,"co":129.0,"o3":55.0,"so2":1.3,"mosquito_risk":7,"arthritis_risk":0,"migraine_risk":4,"frizz_risk":1,"updated_at":"2026-06-18T04:57:36.214138+05:30"},{"city":"Thrissur","state":"Kerala","latitude":10.5276,"longitude":76.2144,"temp":24.8,"humidity":91,"rain":0.0,"pressure":1007.8,"uv_index":6.9,"wind_gusts":31.7,"aqi":75,"pm10":47.7,"pm2_5":39.8,"no2":22.5,"co":274.0,"o3":0.0,"so2":6.7,"mosquito_risk":3,"arthritis_risk":5,"migraine_risk":4,"frizz_risk":1,"updated_at":"2026-06-18T04:57:36.214145+05:30"},{"city":"Kannur","state":"Kerala","latitude":11.8745,"longitude":75.3704,"temp":25.4,"humidity":97,"rain":0.0,"pressure":1007.9,"uv_index":5.1,"wind_gusts":30.6,"aqi":50,"pm10":17.4,"pm2_5":9.9,"no2":7.7,"co":374.0,"o3":33.0,"so2":2.0,"mosquito_risk":7,"arthritis_risk":5,"migraine_risk":0,"frizz_risk":1,"updated_at":"2026-06-18T04:57:36.214152+05:30"},{"city":"Patna","state":"Bihar","latitude":25.5941,"longitude":85.1376,"temp":29.3,"humidity":74,"rain":0.1,"pressure":997.3,"uv_index":8.6,"wind_gusts":28.8,"aqi":163,"pm10":110.4,"pm2_5":85.2,"no2":22.8,"co":405.0,"o3":58.0,"so2":15.6,"mosquito_risk":10,"arthritis_risk":5,"migraine_risk":7,"frizz_risk":1,"updated_at":"2026-06-18T04:57:36.214160+05:30"},{"city":"Gaya","state":"Bihar","latitude":24.7914,"longitude":85.0002,"temp":29.6,"humidity":60,"rain":0.0,"pressure":990.4,"uv_index":8.95,"wind_gusts":24.8,"aqi":159,"pm10":115.0,"pm2_5":78.0,"no2":35.6,"co":349.0,"o3":36.0,"so2":11.0,"mosquito_risk":4,"arthritis_risk":5,"migraine_risk":7,"frizz_risk":1,"updated_at":"2026-06-18T04:57:36.214167+05:30"},{"city":"Muzaffarpur","state":"Bihar","latitude":26.1209,"longitude":85.3647,"temp":27.6,"humidity":87,"rain":0.0,"pressure":997.4,"uv_index":8.6,"wind_gusts":25.9,"aqi":164,"pm10":98.7,"pm2_5":80.1,"no2":20.3,"co":862.0,"o3":64.0,"so2":15.5,"mosquito_risk":7,"arthritis_risk":5,"migraine_risk":7,"frizz_risk":1,"updated_at":"2026-06-18T04:57:36.214175+05:30"},{"city":"Bhagalpur","state":"Bihar","latitude":25.2425,"longitude":87.0117,"temp":27.8,"humidity":90,"rain":0.0,"pressure":998.1,"uv_index":8.6,"wind_gusts":27.4,"aqi":161,"pm10":63.6,"pm2_5":58.9,"no2":14.8,"co":607.0,"o3":75.0,"so2":17.4,"mosquito_risk":7,"arthritis_risk":5,"migraine_risk":7,"frizz_risk":1,"updated_at":"2026-06-18T04:57:36.214182+05:30"},{"city":"Ranchi","state":"Jharkhand","latitude":23.3441,"longitude":85.3096,"temp":25.3,"humidity":67,"rain":0.0,"pressure":935.3,"uv_index":9.0,"wind_gusts":32.4,"aqi":152,"pm10":78.9,"pm2_5":55.8,"no2":15.4,"co":360.0,"o3":75.0,"so2":7.3,"mosquito_risk":7,"arthritis_risk":5,"migraine_risk":7,"frizz_risk":1,"updated_at":"2026-06-18T04:57:36.214188+05:30"},{"city":"Jamshedpur","state":"Jharkhand","latitude":22.8046,"longitude":86.2029,"temp":27.7,"humidity":74,"rain":0.0,"pressure":987.7,"uv_index":9.05,"wind_gusts":32.0,"aqi":166,"pm10":87.3,"pm2_5":70.3,"no2":21.1,"co":467.0,"o3":78.0,"so2":29.0,"mosquito_risk":7,"arthritis_risk":5,"migraine_risk":7,"frizz_risk":1,"updated_at":"2026-06-18T04:57:36.214195+05:30"},{"city":"Dhanbad","state":"Jharkhand","latitude":23.7957,"longitude":86.4304,"temp":28.7,"humidity":74,"rain":0.0,"pressure":976.7,"uv_index":9.05,"wind_gusts":34.2,"aqi":173,"pm10":139.2,"pm2_5":120.6,"no2":60.9,"co":431.0,"o3":20.0,"so2":211.3,"mosquito_risk":7,"arthritis_risk":5,"migraine_risk":7,"frizz_risk":1,"updated_at":"2026-06-18T04:57:36.214203+05:30"},{"city":"Bokaro","state":"Jharkhand","latitude":23.6693,"longitude":86.1511,"temp":28.3,"humidity":77,"rain":0.0,"pressure":980.5,"uv_index":9.1,"wind_gusts":26.6,"aqi":169,"pm10":178.8,"pm2_5":135.5,"no2":72.1,"co":450.0,"o3":0.0,"so2":164.8,"mosquito_risk":7,"arthritis_risk":5,"migraine_risk":7,"frizz_risk":1,"updated_at":"2026-06-18T04:57:36.214209+05:30"},{"city":"Bhubaneswar","state":"Odisha","latitude":20.2961,"longitude":85.8245,"temp":28.3,"humidity":93,"rain":0.0,"pressure":999.5,"uv_index":9.05,"wind_gusts":28.1,"aqi":125,"pm10":52.9,"pm2_5":44.5,"no2":9.7,"co":398.0,"o3":109.0,"so2":8.9,"mosquito_risk":7,"arthritis_risk":5,"migraine_risk":7,"frizz_risk":1,"updated_at":"2026-06-18T04:57:36.214216+05:30"},{"city":"Cuttack","state":"Odisha","latitude":20.4625,"longitude":85.8828,"temp":28.3,"humidity":93,"rain":0.0,"pressure":1001.2,"uv_index":9.1,"wind_gusts":28.8,"aqi":125,"pm10":52.9,"pm2_5":44.5,"no2":9.7,"co":408.0,"o3":109.0,"so2":8.9,"mosquito_risk":7,"arthritis_risk":5,"migraine_risk":4,"frizz_risk":1,"updated_at":"2026-06-18T04:57:36.214223+05:30"},{"city":"Rourkela","state":"Odisha","latitude":22.2604,"longitude":84.8536,"temp":28.2,"humidity":78,"rain":0.0,"pressure":982.5,"uv_index":9.0,"wind_gusts":38.2,"aqi":155,"pm10":74.0,"pm2_5":58.8,"no2":11.0,"co":682.0,"o3":84.0,"so2":5.9,"mosquito_risk":7,"arthritis_risk":5,"migraine_risk":7,"frizz_risk":1,"updated_at":"2026-06-18T04:57:36.214231+05:30"},{"city":"Raipur","state":"Chhattisgarh","latitude":21.2514,"longitude":81.6296,"temp":29.8,"humidity":62,"rain":0.0,"pressure":972.0,"uv_index":8.95,"wind_gusts":40.0,"aqi":153,"pm10":59.5,"pm2_5":48.3,"no2":55.4,"co":623.0,"o3":16.0,"so2":75.5,"mosquito_risk":7,"arthritis_risk":5,"migraine_risk":7,"frizz_risk":1,"updated_at":"2026-06-18T04:57:36.214237+05:30"},{"city":"Bhilai","state":"Chhattisgarh","latitude":21.1938,"longitude":81.3509,"temp":28.2,"humidity":73,"rain":0.0,"pressure":972.3,"uv_index":8.95,"wind_gusts":29.5,"aqi":151,"pm10":57.3,"pm2_5":43.2,"no2":39.2,"co":969.0,"o3":32.0,"so2":54.9,"mosquito_risk":7,"arthritis_risk":5,"migraine_risk":7,"frizz_risk":1,"updated_at":"2026-06-18T04:57:36.214244+05:30"},{"city":"Guwahati","state":"Assam","latitude":26.1158,"longitude":91.7086,"temp":25.0,"humidity":98,"rain":0.0,"pressure":999.7,"uv_index":8.8,"wind_gusts":29.5,"aqi":86,"pm10":45.6,"pm2_5":41.8,"no2":12.2,"co":322.0,"o3":42.0,"so2":4.3,"mosquito_risk":7,"arthritis_risk":5,"migraine_risk":7,"frizz_risk":1,"updated_at":"2026-06-18T04:57:36.214251+05:30"},{"city":"Agartala","state":"Tripura","latitude":23.8315,"longitude":91.2868,"temp":25.4,"humidity":96,"rain":0.0,"pressure":1004.5,"uv_index":8.55,"wind_gusts":33.8,"aqi":78,"pm10":29.0,"pm2_5":27.0,"no2":16.0,"co":256.0,"o3":36.0,"so2":4.2,"mosquito_risk":7,"arthritis_risk":5,"migraine_risk":4,"frizz_risk":1,"updated_at":"2026-06-18T04:57:36.214257+05:30"},{"city":"Shillong","state":"Meghalaya","latitude":25.5788,"longitude":91.8933,"temp":16.9,"humidity":96,"rain":0.0,"pressure":855.0,"uv_index":6.5,"wind_gusts":21.6,"aqi":61,"pm10":36.0,"pm2_5":29.3,"no2":5.3,"co":269.0,"o3":61.0,"so2":2.5,"mosquito_risk":3,"arthritis_risk":10,"migraine_risk":7,"frizz_risk":1,"updated_at":"2026-06-18T04:57:36.214264+05:30"},{"city":"Imphal","state":"Manipur","latitude":24.817,"longitude":93.9368,"temp":22.6,"humidity":96,"rain":0.0,"pressure":921.9,"uv_index":8.75,"wind_gusts":28.1,"aqi":73,"pm10":45.6,"pm2_5":41.4,"no2":14.9,"co":361.0,"o3":33.0,"so2":3.2,"mosquito_risk":3,"arthritis_risk":5,"migraine_risk":7,"frizz_risk":1,"updated_at":"2026-06-18T04:57:36.214271+05:30"},{"city":"Aizawl","state":"Mizoram","latitude":23.7271,"longitude":92.7176,"temp":19.3,"humidity":97,"rain":0.0,"pressure":891.1,"uv_index":9.0,"wind_gusts":26.6,"aqi":49,"pm10":10.9,"pm2_5":10.1,"no2":6.2,"co":146.0,"o3":24.0,"so2":0.6,"mosquito_risk":3,"arthritis_risk":10,"migraine_risk":7,"frizz_risk":1,"updated_at":"2026-06-18T04:57:36.214278+05:30"},{"city":"Kohima","state":"Nagaland","latitude":25.6701,"longitude":94.1077,"temp":18.4,"humidity":96,"rain":0.0,"pressure":854.0,"uv_index":6.9,"wind_gusts":23.4,"aqi":53,"pm10":18.5,"pm2_5":15.4,"no2":6.3,"co":250.0,"o3":51.0,"so2":1.3,"mosquito_risk":3,"arthritis_risk":10,"migraine_risk":7,"frizz_risk":1,"updated_at":"2026-06-18T04:57:36.214285+05:30"},{"city":"Gangtok","state":"Sikkim","latitude":27.3314,"longitude":88.6138,"temp":16.7,"humidity":87,"rain":0.0,"pressure":835.7,"uv_index":8.3,"wind_gusts":35.6,"aqi":72,"pm10":25.0,"pm2_5":22.2,"no2":10.2,"co":814.0,"o3":106.0,"so2":3.5,"mosquito_risk":3,"arthritis_risk":10,"migraine_risk":7,"frizz_risk":0,"updated_at":"2026-06-18T04:57:36.214291+05:30"},{"city":"Siliguri","state":"West Bengal","latitude":26.7271,"longitude":88.3953,"temp":23.8,"humidity":98,"rain":0.1,"pressure":991.2,"uv_index":8.75,"wind_gusts":22.0,"aqi":114,"pm10":35.9,"pm2_5":28.4,"no2":8.7,"co":491.0,"o3":117.0,"so2":5.2,"mosquito_risk":6,"arthritis_risk":5,"migraine_risk":7,"frizz_risk":1,"updated_at":"2026-06-18T04:57:39.668887+05:30"},{"city":"Durgapur","state":"West Bengal","latitude":23.5204,"longitude":87.3119,"temp":28.6,"humidity":95,"rain":0.0,"pressure":991.4,"uv_index":9.0,"wind_gusts":36.0,"aqi":174,"pm10":103.1,"pm2_5":93.4,"no2":35.2,"co":825.0,"o3":40.0,"so2":39.7,"mosquito_risk":7,"arthritis_risk":5,"migraine_risk":7,"frizz_risk":1,"updated_at":"2026-06-18T04:57:39.668917+05:30"},{"city":"Asansol","state":"West Bengal","latitude":23.6739,"longitude":86.9524,"temp":28.3,"humidity":93,"rain":0.0,"pressure":990.2,"uv_index":9.0,"wind_gusts":30.6,"aqi":171,"pm10":101.3,"pm2_5":88.7,"no2":36.8,"co":619.0,"o3":41.0,"so2":45.9,"mosquito_risk":7,"arthritis_risk":5,"migraine_risk":7,"frizz_risk":1,"updated_at":"2026-06-18T04:57:39.668928+05:30"},{"city":"Pondicherry","state":"Puducherry","latitude":11.9139,"longitude":79.8145,"temp":27.9,"humidity":76,"rain":0.0,"pressure":1007.2,"uv_index":4.1,"wind_gusts":40.3,"aqi":77,"pm10":28.6,"pm2_5":20.9,"no2":13.1,"co":327.0,"o3":58.0,"so2":10.8,"mosquito_risk":7,"arthritis_risk":5,"migraine_risk":0,"frizz_risk":1,"updated_at":"2026-06-18T04:57:39.668937+05:30"},{"city":"Port Blair","state":"Andaman and Nicobar Islands","latitude":11.6234,"longitude":92.7265,"temp":26.6,"humidity":88,"rain":0.0,"pressure":1008.3,"uv_index":8.6,"wind_gusts":38.9,"aqi":23,"pm10":9.0,"pm2_5":4.8,"no2":0.3,"co":92.0,"o3":44.0,"so2":0.3,"mosquito_risk":7,"arthritis_risk":0,"migraine_risk":4,"frizz_risk":1,"updated_at":"2026-06-18T04:57:39.668946+05:30"},{"city":"Haridwar","state":"Uttarakhand","latitude":29.9457,"longitude":78.1642,"temp":25.4,"humidity":83,"rain":0.0,"pressure":970.4,"uv_index":7.1,"wind_gusts":20.9,"aqi":161,"pm10":64.5,"pm2_5":51.9,"no2":41.1,"co":320.0,"o3":20.0,"so2":5.6,"mosquito_risk":7,"arthritis_risk":5,"migraine_risk":7,"frizz_risk":1,"updated_at":"2026-06-18T04:57:39.668954+05:30"},{"city":"Rishikesh","state":"Uttarakhand","latitude":30.0869,"longitude":78.2676,"temp":24.0,"humidity":87,"rain":0.0,"pressure":963.4,"uv_index":6.35,"wind_gusts":23.0,"aqi":123,"pm10":44.6,"pm2_5":27.2,"no2":13.2,"co":340.0,"o3":80.0,"so2":2.8,"mosquito_risk":3,"arthritis_risk":5,"migraine_risk":7,"frizz_risk":1,"updated_at":"2026-06-18T04:57:39.668961+05:30"},{"city":"Nainital","state":"Uttarakhand","latitude":29.3919,"longitude":79.4542,"temp":13.7,"humidity":100,"rain":0.0,"pressure":803.0,"uv_index":5.25,"wind_gusts":25.2,"aqi":136,"pm10":100.1,"pm2_5":56.9,"no2":29.7,"co":347.0,"o3":54.0,"so2":8.7,"mosquito_risk":3,"arthritis_risk":10,"migraine_risk":3,"frizz_risk":0,"updated_at":"2026-06-18T04:57:39.668969+05:30"},{"city":"Mussoorie","state":"Uttarakhand","latitude":30.4599,"longitude":78.0664,"temp":15.6,"humidity":88,"rain":0.0,"pressure":801.5,"uv_index":6.15,"wind_gusts":36.4,"aqi":104,"pm10":53.4,"pm2_5":38.0,"no2":42.3,"co":242.0,"o3":24.0,"so2":5.8,"mosquito_risk":3,"arthritis_risk":10,"migraine_risk":7,"frizz_risk":0,"updated_at":"2026-06-18T04:57:39.668976+05:30"},{"city":"Dharamshala","state":"Himachal Pradesh","latitude":32.219,"longitude":76.3234,"temp":21.2,"humidity":67,"rain":0.0,"pressure":867.5,"uv_index":8.25,"wind_gusts":40.0,"aqi":60,"pm10":12.5,"pm2_5":11.7,"no2":8.4,"co":319.0,"o3":78.0,"so2":0.0,"mosquito_risk":3,"arthritis_risk":5,"migraine_risk":7,"frizz_risk":0,"updated_at":"2026-06-18T04:57:39.668983+05:30"},{"city":"Dalhousie","state":"Himachal Pradesh","latitude":32.5387,"longitude":75.971,"temp":12.6,"humidity":90,"rain":0.0,"pressure":800.6,"uv_index":8.25,"wind_gusts":36.4,"aqi":94,"pm10":24.7,"pm2_5":21.2,"no2":15.7,"co":268.0,"o3":46.0,"so2":0.6,"mosquito_risk":3,"arthritis_risk":10,"migraine_risk":7,"frizz_risk":0,"updated_at":"2026-06-18T04:57:39.668991+05:30"},{"city":"Patiala","state":"Punjab","latitude":30.3398,"longitude":76.3869,"temp":27.6,"humidity":70,"rain":0.0,"pressure":974.7,"uv_index":7.7,"wind_gusts":29.5,"aqi":187,"pm10":168.1,"pm2_5":96.4,"no2":56.4,"co":600.0,"o3":9.0,"so2":13.3,"mosquito_risk":7,"arthritis_risk":5,"migraine_risk":7,"frizz_risk":1,"updated_at":"2026-06-18T04:57:39.668998+05:30"},{"city":"Bhatinda","state":"Punjab","latitude":30.211,"longitude":74.9455,"temp":29.0,"humidity":63,"rain":0.0,"pressure":979.8,"uv_index":8.35,"wind_gusts":29.9,"aqi":125,"pm10":103.6,"pm2_5":75.7,"no2":69.4,"co":472.0,"o3":0.0,"so2":8.1,"mosquito_risk":7,"arthritis_risk":5,"migraine_risk":7,"frizz_risk":1,"updated_at":"2026-06-18T04:57:39.669005+05:30"},{"city":"Rohtak","state":"Haryana","latitude":28.8955,"longitude":76.6066,"temp":27.7,"humidity":73,"rain":0.0,"pressure":978.0,"uv_index":7.65,"wind_gusts":27.4,"aqi":321,"pm10":369.7,"pm2_5":129.9,"no2":86.1,"co":609.0,"o3":0.0,"so2":26.1,"mosquito_risk":7,"arthritis_risk":5,"migraine_risk":7,"frizz_risk":1,"updated_at":"2026-06-18T04:57:39.669012+05:30"},{"city":"Panipat","state":"Haryana","latitude":29.3909,"longitude":76.9635,"temp":27.0,"humidity":77,"rain":0.0,"pressure":976.5,"uv_index":7.25,"wind_gusts":20.9,"aqi":589,"pm10":453.6,"pm2_5":144.4,"no2":62.9,"co":842.0,"o3":0.0,"so2":12.2,"mosquito_risk":7,"arthritis_risk":5,"migraine_risk":7,"frizz_risk":1,"updated_at":"2026-06-18T04:57:39.669019+05:30"},{"city":"Mathura","state":"Uttar Pradesh","latitude":27.4924,"longitude":77.6737,"temp":27.7,"humidity":73,"rain":0.0,"pressure":983.0,"uv_index":8.1,"wind_gusts":23.8,"aqi":192,"pm10":197.9,"pm2_5":73.1,"no2":65.8,"co":700.0,"o3":0.0,"so2":8.1,"mosquito_risk":7,"arthritis_risk":5,"migraine_risk":7,"frizz_risk":1,"updated_at":"2026-06-18T04:57:39.669026+05:30"},{"city":"Vrindavan","state":"Uttar Pradesh","latitude":27.5823,"longitude":77.7027,"temp":27.9,"humidity":72,"rain":0.0,"pressure":983.4,"uv_index":8.05,"wind_gusts":23.4,"aqi":192,"pm10":197.9,"pm2_5":73.1,"no2":65.8,"co":771.0,"o3":0.0,"so2":8.1,"mosquito_risk":7,"arthritis_risk":5,"migraine_risk":7,"frizz_risk":1,"updated_at":"2026-06-18T04:57:39.669033+05:30"},{"city":"Ayodhya","state":"Uttar Pradesh","latitude":26.7922,"longitude":82.1998,"temp":28.8,"humidity":74,"rain":0.0,"pressure":991.5,"uv_index":8.4,"wind_gusts":29.2,"aqi":156,"pm10":111.1,"pm2_5":69.6,"no2":42.0,"co":660.0,"o3":18.0,"so2":9.9,"mosquito_risk":7,"arthritis_risk":5,"migraine_risk":7,"frizz_risk":1,"updated_at":"2026-06-18T04:57:39.669040+05:30"},{"city":"Ratlam","state":"Madhya Pradesh","latitude":23.3315,"longitude":75.0367,"temp":26.0,"humidity":76,"rain":0.0,"pressure":953.5,"uv_index":8.55,"wind_gusts":38.9,"aqi":67,"pm10":29.3,"pm2_5":17.8,"no2":9.0,"co":179.0,"o3":32.0,"so2":11.9,"mosquito_risk":7,"arthritis_risk":5,"migraine_risk":7,"frizz_risk":1,"updated_at":"2026-06-18T04:57:39.669047+05:30"},{"city":"Sagar","state":"Madhya Pradesh","latitude":23.8388,"longitude":78.7378,"temp":26.9,"humidity":66,"rain":0.0,"pressure":948.0,"uv_index":8.75,"wind_gusts":36.4,"aqi":89,"pm10":34.5,"pm2_5":23.9,"no2":9.4,"co":194.0,"o3":57.0,"so2":4.1,"mosquito_risk":7,"arthritis_risk":5,"migraine_risk":7,"frizz_risk":1,"updated_at":"2026-06-18T04:57:39.669054+05:30"},{"city":"Satna","state":"Madhya Pradesh","latitude":24.6005,"longitude":80.8322,"temp":29.3,"humidity":57,"rain":0.0,"pressure":968.5,"uv_index":8.8,"wind_gusts":30.2,"aqi":103,"pm10":37.6,"pm2_5":27.8,"no2":9.9,"co":194.0,"o3":67.0,"so2":4.2,"mosquito_risk":4,"arthritis_risk":5,"migraine_risk":7,"frizz_risk":1,"updated_at":"2026-06-18T04:57:39.669060+05:30"},{"city":"Akola","state":"Maharashtra","latitude":20.7002,"longitude":77.0082,"temp":29.0,"humidity":58,"rain":0.0,"pressure":974.1,"uv_index":8.8,"wind_gusts":38.9,"aqi":67,"pm10":25.0,"pm2_5":15.1,"no2":10.4,"co":110.0,"o3":45.0,"so2":7.0,"mosquito_risk":4,"arthritis_risk":5,"migraine_risk":7,"frizz_risk":1,"updated_at":"2026-06-18T04:57:39.669067+05:30"},{"city":"Amravati","state":"Maharashtra","latitude":20.9374,"longitude":77.7796,"temp":28.8,"humidity":55,"rain":0.0,"pressure":965.8,"uv_index":8.7,"wind_gusts":38.5,"aqi":74,"pm10":28.3,"pm2_5":18.6,"no2":11.9,"co":212.0,"o3":51.0,"so2":5.9,"mosquito_risk":4,"arthritis_risk":5,"migraine_risk":7,"frizz_risk":1,"updated_at":"2026-06-18T04:57:39.669075+05:30"},{"city":"Latur","state":"Maharashtra","latitude":18.4088,"longitude":76.5604,"temp":26.5,"humidity":62,"rain":0.0,"pressure":939.5,"uv_index":8.9,"wind_gusts":43.9,"aqi":60,"pm10":23.4,"pm2_5":15.6,"no2":6.4,"co":142.0,"o3":73.0,"so2":8.0,"mosquito_risk":7,"arthritis_risk":5,"migraine_risk":7,"frizz_risk":1,"updated_at":"2026-06-18T04:57:39.669082+05:30"},{"city":"Nanded","state":"Maharashtra","latitude":19.1383,"longitude":77.3091,"temp":29.7,"humidity":50,"rain":0.0,"pressure":967.7,"uv_index":8.85,"wind_gusts":35.3,"aqi":65,"pm10":20.0,"pm2_5":14.2,"no2":9.9,"co":155.0,"o3":48.0,"so2":4.3,"mosquito_risk":4,"arthritis_risk":5,"migraine_risk":7,"frizz_risk":1,"updated_at":"2026-06-18T04:57:39.669090+05:30"},{"city":"Gulbarga","state":"Karnataka","latitude":17.3297,"longitude":76.8343,"temp":26.8,"humidity":65,"rain":0.0,"pressure":958.1,"uv_index":8.9,"wind_gusts":40.0,"aqi":63,"pm10":17.6,"pm2_5":12.4,"no2":7.0,"co":141.0,"o3":49.0,"so2":4.6,"mosquito_risk":7,"arthritis_risk":5,"migraine_risk":7,"frizz_risk":1,"updated_at":"2026-06-18T04:57:39.669096+05:30"},{"city":"Bidar","state":"Karnataka","latitude":17.9104,"longitude":77.5199,"temp":26.8,"humidity":57,"rain":0.0,"pressure":934.6,"uv_index":8.9,"wind_gusts":36.0,"aqi":69,"pm10":21.2,"pm2_5":16.2,"no2":11.1,"co":154.0,"o3":67.0,"so2":6.9,"mosquito_risk":4,"arthritis_risk":5,"migraine_risk":7,"frizz_risk":1,"updated_at":"2026-06-18T04:57:39.669103+05:30"},{"city":"Hospet","state":"Karnataka","latitude":15.2689,"longitude":76.3909,"temp":24.5,"humidity":83,"rain":0.0,"pressure":955.8,"uv_index":8.9,"wind_gusts":35.6,"aqi":53,"pm10":14.2,"pm2_5":9.1,"no2":5.6,"co":141.0,"o3":41.0,"so2":2.3,"mosquito_risk":3,"arthritis_risk":5,"migraine_risk":7,"frizz_risk":1,"updated_at":"2026-06-18T04:57:39.669109+05:30"},{"city":"Tirupur","state":"Tamil Nadu","latitude":11.1085,"longitude":77.3411,"temp":23.7,"humidity":95,"rain":0.0,"pressure":975.7,"uv_index":8.7,"wind_gusts":31.7,"aqi":57,"pm10":18.3,"pm2_5":13.5,"no2":15.2,"co":181.0,"o3":29.0,"so2":4.8,"mosquito_risk":3,"arthritis_risk":5,"migraine_risk":7,"frizz_risk":1,"updated_at":"2026-06-18T04:57:39.669116+05:30"},{"city":"Alappuzha","state":"Kerala","latitude":9.4981,"longitude":76.3388,"temp":26.4,"humidity":96,"rain":0.0,"pressure":1009.5,"uv_index":7.9,"wind_gusts":31.3,"aqi":61,"pm10":36.8,"pm2_5":21.0,"no2":16.2,"co":137.0,"o3":30.0,"so2":5.7,"mosquito_risk":7,"arthritis_risk":0,"migraine_risk":4,"frizz_risk":1,"updated_at":"2026-06-18T04:57:39.669122+05:30"},{"city":"Munnar","state":"Kerala","latitude":10.0889,"longitude":77.0595,"temp":16.2,"humidity":98,"rain":0.0,"pressure":856.0,"uv_index":5.4,"wind_gusts":29.5,"aqi":27,"pm10":10.7,"pm2_5":6.1,"no2":6.6,"co":119.0,"o3":27.0,"so2":1.1,"mosquito_risk":3,"arthritis_risk":10,"migraine_risk":3,"frizz_risk":0,"updated_at":"2026-06-18T04:57:39.669129+05:30"},{"city":"Silchar","state":"Assam","latitude":24.8333,"longitude":92.7789,"temp":25.2,"humidity":97,"rain":0.1,"pressure":1004.1,"uv_index":8.95,"wind_gusts":28.1,"aqi":107,"pm10":85.0,"pm2_5":71.5,"no2":21.7,"co":283.0,"o3":51.0,"so2":9.3,"mosquito_risk":10,"arthritis_risk":5,"migraine_risk":4,"frizz_risk":1,"updated_at":"2026-06-18T04:57:39.669136+05:30"},{"city":"Dibrugarh","state":"Assam","latitude":27.4728,"longitude":94.912,"temp":24.9,"humidity":97,"rain":0.0,"pressure":993.7,"uv_index":9.0,"wind_gusts":34.9,"aqi":67,"pm10":27.6,"pm2_5":26.4,"no2":12.7,"co":281.0,"o3":52.0,"so2":1.4,"mosquito_risk":3,"arthritis_risk":5,"migraine_risk":7,"frizz_risk":1,"updated_at":"2026-06-18T04:57:39.669143+05:30"}]