[{"city":"Delhi","state":"Delhi","latitude":28.6139,"longitude":77.209,"temp":23.8,"humidity":59,"rain":0.0,"pressure":980.6,"uv_index":7.25,"wind_gusts":29.2,"aqi":220,"pm10":244.0,"pm2_5":54.6,"mosquito_risk":0,"arthritis_risk":5,"migraine_risk":7,"frizz_risk":0,"updated_at":"2026-04-20T05:10:37.189743+05:30"},{"city":"Mumbai","state":"Maharashtra","latitude":19.076,"longitude":72.8777,"temp":28.7,"humidity":74,"rain":0.0,"pressure":1007.0,"uv_index":8.05,"wind_gusts":19.8,"aqi":78,"pm10":42.7,"pm2_5":21.3,"mosquito_risk":7,"arthritis_risk":5,"migraine_risk":4,"frizz_risk":1,"updated_at":"2026-04-20T05:10:37.189788+05:30"},{"city":"Bangalore","state":"Karnataka","latitude":12.9716,"longitude":77.5946,"temp":22.8,"humidity":88,"rain":0.0,"pressure":910.3,"uv_index":9.55,"wind_gusts":24.1,"aqi":74,"pm10":25.9,"pm2_5":22.8,"mosquito_risk":3,"arthritis_risk":5,"migraine_risk":7,"frizz_risk":1,"updated_at":"2026-04-20T05:10:37.189802+05:30"},{"city":"Hyderabad","state":"Telangana","latitude":17.385,"longitude":78.4867,"temp":25.8,"humidity":66,"rain":0.0,"pressure":952.2,"uv_index":9.3,"wind_gusts":47.2,"aqi":107,"pm10":51.2,"pm2_5":42.8,"mosquito_risk":7,"arthritis_risk":5,"migraine_risk":7,"frizz_risk":1,"updated_at":"2026-04-20T05:10:37.189812+05:30"},{"city":"Chennai","state":"Tamil Nadu","latitude":13.0827,"longitude":80.2707,"temp":27.3,"humidity":91,"rain":0.0,"pressure":1005.7,"uv_index":9.25,"wind_gusts":33.8,"aqi":33,"pm10":12.1,"pm2_5":8.2,"mosquito_risk":7,"arthritis_risk":5,"migraine_risk":4,"frizz_risk":1,"updated_at":"2026-04-20T05:10:37.189820+05:30"},{"city":"Kolkata","state":"West Bengal","latitude":22.5726,"longitude":88.3639,"temp":27.6,"humidity":90,"rain":0.0,"pressure":1002.8,"uv_index":8.9,"wind_gusts":34.2,"aqi":81,"pm10":29.4,"pm2_5":23.0,"mosquito_risk":7,"arthritis_risk":5,"migraine_risk":4,"frizz_risk":1,"updated_at":"2026-04-20T05:10:37.189831+05:30"},{"city":"Pune","state":"Maharashtra","latitude":18.5204,"longitude":73.8567,"temp":22.6,"humidity":79,"rain":0.0,"pressure":946.7,"uv_index":8.35,"wind_gusts":39.2,"aqi":100,"pm10":51.2,"pm2_5":43.2,"mosquito_risk":3,"arthritis_risk":5,"migraine_risk":7,"frizz_risk":1,"updated_at":"2026-04-20T05:10:37.189838+05:30"},{"city":"Ahmedabad","state":"Gujarat","latitude":23.0225,"longitude":72.5714,"temp":24.3,"humidity":68,"rain":0.0,"pressure":1001.1,"uv_index":8.15,"wind_gusts":24.5,"aqi":52,"pm10":13.1,"pm2_5":8.4,"mosquito_risk":3,"arthritis_risk":5,"migraine_risk":4,"frizz_risk":1,"updated_at":"2026-04-20T05:10:37.189844+05:30"},{"city":"Jaipur","state":"Rajasthan","latitude":26.9124,"longitude":75.7873,"temp":26.6,"humidity":30,"rain":0.0,"pressure":957.7,"uv_index":7.9,"wind_gusts":24.5,"aqi":107,"pm10":151.8,"pm2_5":25.4,"mosquito_risk":4,"arthritis_risk":5,"migraine_risk":7,"frizz_risk":0,"updated_at":"2026-04-20T05:10:37.189851+05:30"},{"city":"Lucknow","state":"Uttar Pradesh","latitude":26.8467,"longitude":80.9462,"temp":26.4,"humidity":57,"rain":0.0,"pressure":989.6,"uv_index":7.9,"wind_gusts":31.7,"aqi":127,"pm10":182.1,"pm2_5":50.5,"mosquito_risk":4,"arthritis_risk":5,"migraine_risk":7,"frizz_risk":1,"updated_at":"2026-04-20T05:10:37.189857+05:30"},{"city":"Kanpur","state":"Uttar Pradesh","latitude":26.4499,"longitude":80.3319,"temp":25.1,"humidity":63,"rain":0.0,"pressure":987.9,"uv_index":7.9,"wind_gusts":23.8,"aqi":198,"pm10":295.2,"pm2_5":61.0,"mosquito_risk":7,"arthritis_risk":5,"migraine_risk":7,"frizz_risk":1,"updated_at":"2026-04-20T05:10:37.189863+05:30"},{"city":"Chandigarh","state":"Chandigarh","latitude":30.7333,"longitude":76.7794,"temp":21.0,"humidity":58,"rain":0.0,"pressure":966.4,"uv_index":7.25,"wind_gusts":34.2,"aqi":66,"pm10":26.0,"pm2_5":20.6,"mosquito_risk":0,"arthritis_risk":5,"migraine_risk":7,"frizz_risk":0,"updated_at":"2026-04-20T05:10:37.189869+05:30"},{"city":"Srinagar","state":"Jammu and Kashmir","latitude":34.0837,"longitude":74.7973,"temp":7.2,"humidity":92,"rain":0.0,"pressure":841.1,"uv_index":8.25,"wind_gusts":24.8,"aqi":84,"pm10":79.6,"pm2_5":49.1,"mosquito_risk":3,"arthritis_risk":10,"migraine_risk":7,"frizz_risk":0,"updated_at":"2026-04-20T05:10:37.189875+05:30"},{"city":"Jammu","state":"Jammu and Kashmir","latitude":32.7266,"longitude":74.857,"temp":21.0,"humidity":54,"rain":0.0,"pressure":971.8,"uv_index":7.95,"wind_gusts":26.6,"aqi":56,"pm10":20.7,"pm2_5":17.4,"mosquito_risk":0,"arthritis_risk":5,"migraine_risk":7,"frizz_risk":0,"updated_at":"2026-04-20T05:10:37.189882+05:30"},{"city":"Amritsar","state":"Punjab","latitude":31.634,"longitude":74.8723,"temp":21.3,"humidity":71,"rain":0.0,"pressure":979.8,"uv_index":7.9,"wind_gusts":32.8,"aqi":75,"pm10":52.4,"pm2_5":32.8,"mosquito_risk":3,"arthritis_risk":5,"migraine_risk":7,"frizz_risk":0,"updated_at":"2026-04-20T05:10:37.189888+05:30"},{"city":"Ludhiana","state":"Punjab","latitude":30.901,"longitude":75.8573,"temp":22.5,"humidity":52,"rain":0.0,"pressure":977.1,"uv_index":7.5,"wind_gusts":32.0,"aqi":68,"pm10":26.5,"pm2_5":21.7,"mosquito_risk":0,"arthritis_risk":5,"migraine_risk":7,"frizz_risk":0,"updated_at":"2026-04-20T05:10:37.189896+05:30"},{"city":"Jalandhar","state":"Punjab","latitude":31.326,"longitude":75.5762,"temp":21.6,"humidity":47,"rain":0.0,"pressure":978.3,"uv_index":7.65,"wind_gusts":31.3,"aqi":71,"pm10":46.0,"pm2_5":31.8,"mosquito_risk":0,"arthritis_risk":5,"migraine_risk":7,"frizz_risk":0,"updated_at":"2026-04-20T05:10:37.189901+05:30"},{"city":"Dehradun","state":"Uttarakhand","latitude":30.6284,"longitude":78.0322,"temp":15.8,"humidity":37,"rain":0.0,"pressure":829.0,"uv_index":7.7,"wind_gusts":43.2,"aqi":41,"pm10":17.1,"pm2_5":9.0,"mosquito_risk":0,"arthritis_risk":5,"migraine_risk":7,"frizz_risk":0,"updated_at":"2026-04-20T05:10:37.189906+05:30"},{"city":"Shimla","state":"Himachal Pradesh","latitude":31.1048,"longitude":77.1734,"temp":13.9,"humidity":52,"rain":0.0,"pressure":783.3,"uv_index":7.75,"wind_gusts":45.7,"aqi":54,"pm10":21.4,"pm2_5":13.0,"mosquito_risk":0,"arthritis_risk":5,"migraine_risk":7,"frizz_risk":0,"updated_at":"2026-04-20T05:10:37.189912+05:30"},{"city":"Manali","state":"Himachal Pradesh","latitude":32.2396,"longitude":77.1887,"temp":14.2,"humidity":46,"rain":0.0,"pressure":820.8,"uv_index":9.25,"wind_gusts":29.5,"aqi":54,"pm10":8.6,"pm2_5":4.1,"mosquito_risk":0,"arthritis_risk":5,"migraine_risk":7,"frizz_risk":0,"updated_at":"2026-04-20T05:10:37.189918+05:30"},{"city":"Gurgaon","state":"Haryana","latitude":28.4595,"longitude":77.0266,"temp":21.4,"humidity":69,"rain":0.0,"pressure":979.2,"uv_index":7.4,"wind_gusts":29.2,"aqi":797,"pm10":504.8,"pm2_5":93.1,"mosquito_risk":3,"arthritis_risk":5,"migraine_risk":7,"frizz_risk":0,"updated_at":"2026-04-20T05:10:37.189923+05:30"},{"city":"Noida","state":"Uttar Pradesh","latitude":28.5355,"longitude":77.391,"temp":23.8,"humidity":60,"rain":0.0,"pressure":982.1,"uv_index":7.3,"wind_gusts":29.5,"aqi":797,"pm10":504.8,"pm2_5":93.1,"mosquito_risk":0,"arthritis_risk":5,"migraine_risk":7,"frizz_risk":0,"updated_at":"2026-04-20T05:10:37.189929+05:30"},{"city":"Ghaziabad","state":"Uttar Pradesh","latitude":28.6692,"longitude":77.4538,"temp":23.4,"humidity":60,"rain":0.0,"pressure":980.1,"uv_index":7.3,"wind_gusts":28.8,"aqi":154,"pm10":45.2,"pm2_5":18.9,"mosquito_risk":0,"arthritis_risk":5,"migraine_risk":7,"frizz_risk":0,"updated_at":"2026-04-20T05:10:37.189934+05:30"},{"city":"Faridabad","state":"Haryana","latitude":28.4089,"longitude":77.3178,"temp":23.5,"humidity":57,"rain":0.0,"pressure":981.5,"uv_index":7.35,"wind_gusts":29.5,"aqi":797,"pm10":504.8,"pm2_5":93.1,"mosquito_risk":0,"arthritis_risk":5,"migraine_risk":7,"frizz_risk":0,"updated_at":"2026-04-20T05:10:37.189940+05:30"},{"city":"Meerut","state":"Uttar Pradesh","latitude":28.9845,"longitude":77.7064,"temp":22.2,"humidity":66,"rain":0.0,"pressure":978.6,"uv_index":7.2,"wind_gusts":33.1,"aqi":154,"pm10":45.2,"pm2_5":18.9,"mosquito_risk":3,"arthritis_risk":5,"migraine_risk":7,"frizz_risk":0,"updated_at":"2026-04-20T05:10:37.189946+05:30"},{"city":"Agra","state":"Uttar Pradesh","latitude":27.1767,"longitude":78.0081,"temp":23.1,"humidity":58,"rain":0.0,"pressure":984.8,"uv_index":7.7,"wind_gusts":22.0,"aqi":455,"pm10":1087.8,"pm2_5":143.0,"mosquito_risk":0,"arthritis_risk":5,"migraine_risk":7,"frizz_risk":0,"updated_at":"2026-04-20T05:10:37.189953+05:30"},{"city":"Varanasi","state":"Uttar Pradesh","latitude":25.3176,"longitude":82.9739,"temp":25.0,"humidity":56,"rain":0.0,"pressure":993.6,"uv_index":8.35,"wind_gusts":33.5,"aqi":109,"pm10":119.2,"pm2_5":46.0,"mosquito_risk":4,"arthritis_risk":5,"migraine_risk":7,"frizz_risk":0,"updated_at":"2026-04-20T05:10:37.189959+05:30"},{"city":"Prayagraj","state":"Uttar Pradesh","latitude":25.4358,"longitude":81.8463,"temp":28.2,"humidity":52,"rain":0.0,"pressure":992.0,"uv_index":8.05,"wind_gusts":24.8,"aqi":101,"pm10":112.9,"pm2_5":34.5,"mosquito_risk":4,"arthritis_risk":5,"migraine_risk":7,"frizz_risk":1,"updated_at":"2026-04-20T05:10:37.189965+05:30"},{"city":"Gorakhpur","state":"Uttar Pradesh","latitude":26.7606,"longitude":83.3732,"temp":26.2,"humidity":85,"rain":0.0,"pressure":993.8,"uv_index":8.35,"wind_gusts":33.1,"aqi":135,"pm10":71.7,"pm2_5":66.6,"mosquito_risk":7,"arthritis_risk":5,"migraine_risk":7,"frizz_risk":1,"updated_at":"2026-04-20T05:10:37.189972+05:30"},{"city":"Bareilly","state":"Uttar Pradesh","latitude":28.367,"longitude":79.4304,"temp":23.1,"humidity":63,"rain":0.0,"pressure":983.2,"uv_index":7.55,"wind_gusts":34.2,"aqi":90,"pm10":39.5,"pm2_5":25.7,"mosquito_risk":3,"arthritis_risk":5,"migraine_risk":7,"frizz_risk":0,"updated_at":"2026-04-20T05:10:37.189977+05:30"},{"city":"Aligarh","state":"Uttar Pradesh","latitude":27.8974,"longitude":78.088,"temp":22.8,"humidity":59,"rain":0.0,"pressure":982.7,"uv_index":7.45,"wind_gusts":34.6,"aqi":414,"pm10":335.3,"pm2_5":51.1,"mosquito_risk":0,"arthritis_risk":5,"migraine_risk":7,"frizz_risk":0,"updated_at":"2026-04-20T05:10:37.189983+05:30"},{"city":"Moradabad","state":"Uttar Pradesh","latitude":28.8386,"longitude":78.7733,"temp":22.3,"humidity":68,"rain":0.0,"pressure":980.2,"uv_index":7.4,"wind_gusts":34.9,"aqi":107,"pm10":35.5,"pm2_5":21.0,"mosquito_risk":3,"arthritis_risk":5,"migraine_risk":7,"frizz_risk":1,"updated_at":"2026-04-20T05:10:37.189988+05:30"},{"city":"Saharanpur","state":"Uttar Pradesh","latitude":29.9637,"longitude":77.546,"temp":21.3,"humidity":70,"rain":0.0,"pressure":973.0,"uv_index":7.0,"wind_gusts":27.0,"aqi":79,"pm10":32.1,"pm2_5":21.1,"mosquito_risk":3,"arthritis_risk":5,"migraine_risk":7,"frizz_risk":0,"updated_at":"2026-04-20T05:10:37.189993+05:30"},{"city":"Jhansi","state":"Uttar Pradesh","latitude":25.4484,"longitude":78.5685,"temp":27.8,"humidity":42,"rain":0.0,"pressure":974.8,"uv_index":8.25,"wind_gusts":24.8,"aqi":53,"pm10":26.4,"pm2_5":11.8,"mosquito_risk":4,"arthritis_risk":5,"migraine_risk":7,"frizz_risk":0,"updated_at":"2026-04-20T05:10:40.491244+05:30"},{"city":"Surat","state":"Gujarat","latitude":21.1702,"longitude":72.8311,"temp":27.2,"humidity":86,"rain":0.0,"pressure":1005.3,"uv_index":7.85,"wind_gusts":26.3,"aqi":104,"pm10":37.4,"pm2_5":28.7,"mosquito_risk":7,"arthritis_risk":5,"migraine_risk":4,"frizz_risk":1,"updated_at":"2026-04-20T05:10:40.491274+05:30"},{"city":"Vadodara","state":"Gujarat","latitude":22.3072,"longitude":73.1812,"temp":26.5,"humidity":79,"rain":0.0,"pressure":1003.2,"uv_index":8.1,"wind_gusts":23.0,"aqi":72,"pm10":47.6,"pm2_5":38.9,"mosquito_risk":7,"arthritis_risk":5,"migraine_risk":4,"frizz_risk":1,"updated_at":"2026-04-20T05:10:40.491283+05:30"},{"city":"Rajkot","state":"Gujarat","latitude":22.3039,"longitude":70.8022,"temp":23.2,"humidity":94,"rain":0.0,"pressure":993.8,"uv_index":7.85,"wind_gusts":27.4,"aqi":50,"pm10":25.3,"pm2_5":10.5,"mosquito_risk":3,"arthritis_risk":5,"migraine_risk":7,"frizz_risk":1,"updated_at":"2026-04-20T05:10:40.491292+05:30"},{"city":"Thane","state":"Maharashtra","latitude":19.2183,"longitude":72.9781,"temp":26.7,"humidity":79,"rain":0.0,"pressure":1006.6,"uv_index":8.05,"wind_gusts":31.0,"aqi":78,"pm10":42.7,"pm2_5":21.3,"mosquito_risk":7,"arthritis_risk":5,"migraine_risk":4,"frizz_risk":1,"updated_at":"2026-04-20T05:10:40.491299+05:30"},{"city":"Nagpur","state":"Maharashtra","latitude":21.1458,"longitude":79.0882,"temp":27.2,"humidity":58,"rain":0.0,"pressure":972.1,"uv_index":8.9,"wind_gusts":29.9,"aqi":87,"pm10":34.8,"pm2_5":32.6,"mosquito_risk":4,"arthritis_risk":5,"migraine_risk":7,"frizz_risk":1,"updated_at":"2026-04-20T05:10:40.491307+05:30"},{"city":"Nashik","state":"Maharashtra","latitude":19.9975,"longitude":73.7898,"temp":24.8,"humidity":43,"rain":0.0,"pressure":944.4,"uv_index":8.3,"wind_gusts":32.0,"aqi":85,"pm10":49.9,"pm2_5":35.0,"mosquito_risk":0,"arthritis_risk":5,"migraine_risk":7,"frizz_risk":0,"updated_at":"2026-04-20T05:10:40.491315+05:30"},{"city":"Aurangabad","state":"Maharashtra","latitude":19.8762,"longitude":75.3433,"temp":27.0,"humidity":48,"rain":0.0,"pressure":943.7,"uv_index":8.35,"wind_gusts":20.2,"aqi":79,"pm10":35.9,"pm2_5":27.5,"mosquito_risk":4,"arthritis_risk":5,"migraine_risk":7,"frizz_risk":0,"updated_at":"2026-04-20T05:10:40.491322+05:30"},{"city":"Solapur","state":"Maharashtra","latitude":17.6599,"longitude":75.9064,"temp":26.3,"humidity":77,"rain":0.0,"pressure":955.8,"uv_index":9.0,"wind_gusts":39.2,"aqi":141,"pm10":46.0,"pm2_5":41.9,"mosquito_risk":7,"arthritis_risk":5,"migraine_risk":7,"frizz_risk":1,"updated_at":"2026-04-20T05:10:40.491330+05:30"},{"city":"Kolhapur","state":"Maharashtra","latitude":16.705,"longitude":74.2433,"temp":21.9,"humidity":98,"rain":0.0,"pressure":946.1,"uv_index":9.05,"wind_gusts":35.6,"aqi":104,"pm10":63.8,"pm2_5":54.8,"mosquito_risk":3,"arthritis_risk":5,"migraine_risk":7,"frizz_risk":1,"updated_at":"2026-04-20T05:10:40.491337+05:30"},{"city":"Goa","state":"Goa","latitude":15.2993,"longitude":74.124,"temp":27.7,"humidity":85,"rain":0.0,"pressure":996.5,"uv_index":9.0,"wind_gusts":27.7,"aqi":84,"pm10":49.0,"pm2_5":31.8,"mosquito_risk":7,"arthritis_risk":5,"migraine_risk":7,"frizz_risk":1,"updated_at":"2026-04-20T05:10:40.491344+05:30"},{"city":"Jodhpur","state":"Rajasthan","latitude":26.2389,"longitude":73.0243,"temp":27.0,"humidity":34,"rain":0.0,"pressure":981.5,"uv_index":8.15,"wind_gusts":23.0,"aqi":100,"pm10":137.8,"pm2_5":21.5,"mosquito_risk":4,"arthritis_risk":5,"migraine_risk":7,"frizz_risk":0,"updated_at":"2026-04-20T05:10:40.491352+05:30"},{"city":"Udaipur","state":"Rajasthan","latitude":24.5854,"longitude":73.7125,"temp":24.5,"humidity":32,"rain":0.0,"pressure":945.5,"uv_index":8.7,"wind_gusts":28.4,"aqi":43,"pm10":6.4,"pm2_5":4.3,"mosquito_risk":0,"arthritis_risk":5,"migraine_risk":7,"frizz_risk":0,"updated_at":"2026-04-20T05:10:40.491358+05:30"},{"city":"Kota","state":"Rajasthan","latitude":25.2138,"longitude":75.8648,"temp":25.2,"humidity":42,"rain":0.0,"pressure":976.6,"uv_index":8.25,"wind_gusts":23.4,"aqi":55,"pm10":7.2,"pm2_5":5.8,"mosquito_risk":4,"arthritis_risk":5,"migraine_risk":7,"frizz_risk":0,"updated_at":"2026-04-20T05:10:40.491365+05:30"},{"city":"Bikaner","state":"Rajasthan","latitude":28.0229,"longitude":73.3119,"temp":28.2,"humidity":44,"rain":0.0,"pressure":980.5,"uv_index":7.95,"wind_gusts":28.8,"aqi":62,"pm10":21.4,"pm2_5":12.6,"mosquito_risk":4,"arthritis_risk":5,"migraine_risk":7,"frizz_risk":0,"updated_at":"2026-04-20T05:10:40.491372+05:30"},{"city":"Ajmer","state":"Rajasthan","latitude":26.4499,"longitude":74.6399,"temp":23.8,"humidity":47,"rain":0.0,"pressure":953.0,"uv_index":8.1,"wind_gusts":27.7,"aqi":65,"pm10":9.6,"pm2_5":5.0,"mosquito_risk":0,"arthritis_risk":5,"migraine_risk":7,"frizz_risk":0,"updated_at":"2026-04-20T05:10:40.491379+05:30"},{"city":"Gwalior","state":"Madhya Pradesh","latitude":26.2183,"longitude":78.1828,"temp":25.9,"humidity":52,"rain":0.0,"pressure":980.5,"uv_index":8.0,"wind_gusts":34.9,"aqi":70,"pm10":192.8,"pm2_5":35.5,"mosquito_risk":4,"arthritis_risk":5,"migraine_risk":7,"frizz_risk":0,"updated_at":"2026-04-20T05:10:40.491385+05:30"},{"city":"Indore","state":"Madhya Pradesh","latitude":22.7196,"longitude":75.8577,"temp":25.1,"humidity":54,"rain":0.0,"pressure":946.8,"uv_index":8.55,"wind_gusts":33.5,"aqi":55,"pm10":16.7,"pm2_5":14.0,"mosquito_risk":4,"arthritis_risk":5,"migraine_risk":7,"frizz_risk":0,"updated_at":"2026-04-20T05:10:40.491392+05:30"},{"city":"Bhopal","state":"Madhya Pradesh","latitude":23.2599,"longitude":77.4126,"temp":26.7,"humidity":47,"rain":0.0,"pressure":952.2,"uv_index":5.75,"wind_gusts":29.2,"aqi":63,"pm10":15.5,"pm2_5":14.2,"mosquito_risk":4,"arthritis_risk":5,"migraine_risk":3,"frizz_risk":0,"updated_at":"2026-04-20T05:10:40.491399+05:30"},{"city":"Jabalpur","state":"Madhya Pradesh","latitude":23.1815,"longitude":79.9864,"temp":28.0,"humidity":48,"rain":0.0,"pressure":958.9,"uv_index":8.55,"wind_gusts":35.6,"aqi":59,"pm10":25.9,"pm2_5":20.7,"mosquito_risk":4,"arthritis_risk":5,"migraine_risk":7,"frizz_risk":0,"updated_at":"2026-04-20T05:10:40.491406+05:30"},{"city":"Ujjain","state":"Madhya Pradesh","latitude":23.1765,"longitude":75.7885,"temp":25.8,"humidity":57,"rain":0.0,"pressure":952.6,"uv_index":8.55,"wind_gusts":31.7,"aqi":67,"pm10":18.3,"pm2_5":14.8,"mosquito_risk":4,"arthritis_risk":5,"migraine_risk":7,"frizz_risk":1,"updated_at":"2026-04-20T05:10:40.491413+05:30"},{"city":"Visakhapatnam","state":"Andhra Pradesh","latitude":17.6868,"longitude":83.2185,"temp":26.5,"humidity":88,"rain":0.0,"pressure":1002.1,"uv_index":9.15,"wind_gusts":42.1,"aqi":58,"pm10":14.8,"pm2_5":12.3,"mosquito_risk":7,"arthritis_risk":5,"migraine_risk":4,"frizz_risk":1,"updated_at":"2026-04-20T05:10:40.491420+05:30"},{"city":"Vijayawada","state":"Andhra Pradesh","latitude":16.5062,"longitude":80.648,"temp":26.8,"humidity":90,"rain":0.0,"pressure":1001.2,"uv_index":9.2,"wind_gusts":28.4,"aqi":52,"pm10":16.9,"pm2_5":13.9,"mosquito_risk":7,"arthritis_risk":5,"migraine_risk":4,"frizz_risk":1,"updated_at":"2026-04-20T05:10:40.491427+05:30"},{"city":"Guntur","state":"Andhra Pradesh","latitude":16.3067,"longitude":80.4365,"temp":27.1,"humidity":90,"rain":0.0,"pressure":1002.0,"uv_index":9.25,"wind_gusts":32.4,"aqi":54,"pm10":16.2,"pm2_5":13.5,"mosquito_risk":7,"arthritis_risk":5,"migraine_risk":4,"frizz_risk":1,"updated_at":"2026-04-20T05:10:40.491434+05:30"},{"city":"Nellore","state":"Andhra Pradesh","latitude":14.4426,"longitude":79.9865,"temp":26.9,"humidity":87,"rain":0.0,"pressure":1003.9,"uv_index":9.3,"wind_gusts":37.4,"aqi":46,"pm10":10.6,"pm2_5":8.6,"mosquito_risk":7,"arthritis_risk":5,"migraine_risk":4,"frizz_risk":1,"updated_at":"2026-04-20T05:10:40.491441+05:30"},{"city":"Kurnool","state":"Andhra Pradesh","latitude":15.8281,"longitude":78.0373,"temp":27.0,"humidity":72,"rain":0.0,"pressure":976.2,"uv_index":9.2,"wind_gusts":43.2,"aqi":89,"pm10":37.8,"pm2_5":32.2,"mosquito_risk":7,"arthritis_risk":5,"migraine_risk":7,"frizz_risk":1,"updated_at":"2026-04-20T05:10:40.491449+05:30"},{"city":"Kakinada","state":"Andhra Pradesh","latitude":16.9891,"longitude":82.2475,"temp":26.4,"humidity":91,"rain":0.0,"pressure":1006.4,"uv_index":9.2,"wind_gusts":36.0,"aqi":41,"pm10":14.2,"pm2_5":10.0,"mosquito_risk":7,"arthritis_risk":5,"migraine_risk":4,"frizz_risk":1,"updated_at":"2026-04-20T05:10:40.491456+05:30"},{"city":"Tirupati","state":"Andhra Pradesh","latitude":13.6288,"longitude":79.4192,"temp":25.6,"humidity":90,"rain":0.0,"pressure":990.5,"uv_index":9.3,"wind_gusts":33.8,"aqi":61,"pm10":23.5,"pm2_5":22.1,"mosquito_risk":7,"arthritis_risk":5,"migraine_risk":7,"frizz_risk":1,"updated_at":"2026-04-20T05:10:40.491462+05:30"},{"city":"Warangal","state":"Telangana","latitude":17.9689,"longitude":79.5941,"temp":27.1,"humidity":70,"rain":0.0,"pressure":977.9,"uv_index":9.15,"wind_gusts":25.9,"aqi":87,"pm10":23.8,"pm2_5":22.2,"mosquito_risk":7,"arthritis_risk":5,"migraine_risk":7,"frizz_risk":1,"updated_at":"2026-04-20T05:10:40.491469+05:30"},{"city":"Nizamabad","state":"Telangana","latitude":18.6725,"longitude":78.0941,"temp":28.4,"humidity":58,"rain":0.0,"pressure":963.8,"uv_index":9.15,"wind_gusts":33.8,"aqi":123,"pm10":48.1,"pm2_5":44.4,"mosquito_risk":4,"arthritis_risk":5,"migraine_risk":7,"frizz_risk":1,"updated_at":"2026-04-20T05:10:40.491476+05:30"},{"city":"Mysore","state":"Karnataka","latitude":12.2958,"longitude":76.6396,"temp":23.4,"humidity":90,"rain":0.0,"pressure":927.5,"uv_index":9.45,"wind_gusts":40.3,"aqi":83,"pm10":29.8,"pm2_5":27.1,"mosquito_risk":3,"arthritis_risk":5,"migraine_risk":7,"frizz_risk":1,"updated_at":"2026-04-20T05:10:40.491482+05:30"},{"city":"Mangalore","state":"Karnataka","latitude":12.9141,"longitude":74.856,"temp":29.5,"humidity":79,"rain":0.0,"pressure":1005.3,"uv_index":9.1,"wind_gusts":31.7,"aqi":76,"pm10":40.7,"pm2_5":28.9,"mosquito_risk":7,"arthritis_risk":5,"migraine_risk":4,"frizz_risk":1,"updated_at":"2026-04-20T05:10:40.491489+05:30"},{"city":"Hubli-Dharwad","state":"Karnataka","latitude":15.3647,"longitude":75.124,"temp":23.7,"humidity":94,"rain":0.0,"pressure":939.9,"uv_index":9.25,"wind_gusts":37.4,"aqi":86,"pm10":43.9,"pm2_5":35.5,"mosquito_risk":3,"arthritis_risk":5,"migraine_risk":7,"frizz_risk":1,"updated_at":"2026-04-20T05:10:40.491496+05:30"},{"city":"Belgaum","state":"Karnataka","latitude":15.8497,"longitude":74.4977,"temp":22.2,"humidity":98,"rain":0.0,"pressure":924.2,"uv_index":9.25,"wind_gusts":34.6,"aqi":92,"pm10":38.2,"pm2_5":32.1,"mosquito_risk":3,"arthritis_risk":5,"migraine_risk":7,"frizz_risk":1,"updated_at":"2026-04-20T05:10:43.788528+05:30"},{"city":"Coimbatore","state":"Tamil Nadu","latitude":11.0168,"longitude":76.9558,"temp":24.5,"humidity":89,"rain":0.0,"pressure":960.3,"uv_index":9.4,"wind_gusts":45.4,"aqi":98,"pm10":42.6,"pm2_5":40.0,"mosquito_risk":3,"arthritis_risk":5,"migraine_risk":7,"frizz_risk":1,"updated_at":"2026-04-20T05:10:43.788556+05:30"},{"city":"Madurai","state":"Tamil Nadu","latitude":9.9252,"longitude":78.1198,"temp":25.7,"humidity":91,"rain":0.0,"pressure":991.4,"uv_index":9.3,"wind_gusts":39.6,"aqi":64,"pm10":31.3,"pm2_5":29.4,"mosquito_risk":7,"arthritis_risk":5,"migraine_risk":7,"frizz_risk":1,"updated_at":"2026-04-20T05:10:43.788565+05:30"},{"city":"Trichy","state":"Tamil Nadu","latitude":10.7905,"longitude":78.7047,"temp":26.0,"humidity":91,"rain":0.0,"pressure":998.3,"uv_index":9.05,"wind_gusts":22.0,"aqi":58,"pm10":27.3,"pm2_5":25.5,"mosquito_risk":7,"arthritis_risk":5,"migraine_risk":7,"frizz_risk":1,"updated_at":"2026-04-20T05:10:43.788573+05:30"},{"city":"Salem","state":"Tamil Nadu","latitude":11.6643,"longitude":78.146,"temp":26.6,"humidity":84,"rain":0.0,"pressure":976.1,"uv_index":9.35,"wind_gusts":20.9,"aqi":59,"pm10":18.9,"pm2_5":17.5,"mosquito_risk":7,"arthritis_risk":5,"migraine_risk":7,"frizz_risk":1,"updated_at":"2026-04-20T05:10:43.788580+05:30"},{"city":"Tirunelveli","state":"Tamil Nadu","latitude":8.7139,"longitude":77.7567,"temp":25.0,"humidity":78,"rain":0.0,"pressure":1001.5,"uv_index":9.25,"wind_gusts":49.3,"aqi":67,"pm10":28.7,"pm2_5":24.7,"mosquito_risk":7,"arthritis_risk":5,"migraine_risk":4,"frizz_risk":1,"updated_at":"2026-04-20T05:10:43.788588+05:30"},{"city":"Vellore","state":"Tamil Nadu","latitude":12.9165,"longitude":79.1325,"temp":24.9,"humidity":96,"rain":0.0,"pressure":983.4,"uv_index":9.35,"wind_gusts":31.3,"aqi":75,"pm10":34.5,"pm2_5":33.3,"mosquito_risk":3,"arthritis_risk":5,"migraine_risk":7,"frizz_risk":1,"updated_at":"2026-04-20T05:10:43.788595+05:30"},{"city":"Erode","state":"Tamil Nadu","latitude":11.341,"longitude":77.7172,"temp":27.8,"humidity":81,"rain":0.0,"pressure":987.6,"uv_index":9.35,"wind_gusts":25.6,"aqi":59,"pm10":15.2,"pm2_5":14.2,"mosquito_risk":7,"arthritis_risk":5,"migraine_risk":7,"frizz_risk":1,"updated_at":"2026-04-20T05:10:43.788602+05:30"},{"city":"Kochi","state":"Kerala","latitude":9.9312,"longitude":76.2673,"temp":28.3,"humidity":83,"rain":0.0,"pressure":1007.0,"uv_index":9.05,"wind_gusts":29.5,"aqi":60,"pm10":19.2,"pm2_5":16.7,"mosquito_risk":7,"arthritis_risk":5,"migraine_risk":4,"frizz_risk":1,"updated_at":"2026-04-20T05:10:43.788608+05:30"},{"city":"Thiruvananthapuram","state":"Kerala","latitude":8.5241,"longitude":76.9366,"temp":28.3,"humidity":84,"rain":0.0,"pressure":1006.1,"uv_index":9.05,"wind_gusts":29.9,"aqi":67,"pm10":25.9,"pm2_5":18.6,"mosquito_risk":7,"arthritis_risk":5,"migraine_risk":4,"frizz_risk":1,"updated_at":"2026-04-20T05:10:43.788615+05:30"},{"city":"Kozhikode","state":"Kerala","latitude":11.2588,"longitude":75.7804,"temp":28.4,"humidity":80,"rain":0.0,"pressure":1006.5,"uv_index":9.05,"wind_gusts":29.2,"aqi":61,"pm10":27.2,"pm2_5":17.4,"mosquito_risk":7,"arthritis_risk":5,"migraine_risk":4,"frizz_risk":1,"updated_at":"2026-04-20T05:10:43.788622+05:30"},{"city":"Thrissur","state":"Kerala","latitude":10.5276,"longitude":76.2144,"temp":27.3,"humidity":89,"rain":0.0,"pressure":1005.5,"uv_index":9.05,"wind_gusts":36.4,"aqi":61,"pm10":26.3,"pm2_5":23.0,"mosquito_risk":7,"arthritis_risk":5,"migraine_risk":4,"frizz_risk":1,"updated_at":"2026-04-20T05:10:43.788630+05:30"},{"city":"Kannur","state":"Kerala","latitude":11.8745,"longitude":75.3704,"temp":27.9,"humidity":83,"rain":0.0,"pressure":1006.0,"uv_index":9.05,"wind_gusts":32.4,"aqi":71,"pm10":33.8,"pm2_5":26.0,"mosquito_risk":7,"arthritis_risk":5,"migraine_risk":4,"frizz_risk":1,"updated_at":"2026-04-20T05:10:43.788636+05:30"},{"city":"Patna","state":"Bihar","latitude":25.5941,"longitude":85.1376,"temp":26.7,"humidity":88,"rain":0.0,"pressure":996.8,"uv_index":8.3,"wind_gusts":41.0,"aqi":131,"pm10":58.1,"pm2_5":55.4,"mosquito_risk":7,"arthritis_risk":5,"migraine_risk":7,"frizz_risk":1,"updated_at":"2026-04-20T05:10:43.788643+05:30"},{"city":"Gaya","state":"Bihar","latitude":24.7914,"longitude":85.0002,"temp":27.0,"humidity":71,"rain":0.0,"pressure":989.9,"uv_index":8.7,"wind_gusts":31.3,"aqi":99,"pm10":49.4,"pm2_5":38.1,"mosquito_risk":7,"arthritis_risk":5,"migraine_risk":7,"frizz_risk":1,"updated_at":"2026-04-20T05:10:43.788650+05:30"},{"city":"Muzaffarpur","state":"Bihar","latitude":26.1209,"longitude":85.3647,"temp":25.3,"humidity":91,"rain":0.0,"pressure":997.1,"uv_index":8.55,"wind_gusts":25.6,"aqi":136,"pm10":51.5,"pm2_5":48.7,"mosquito_risk":7,"arthritis_risk":5,"migraine_risk":7,"frizz_risk":1,"updated_at":"2026-04-20T05:10:43.788655+05:30"},{"city":"Bhagalpur","state":"Bihar","latitude":25.2425,"longitude":87.0117,"temp":26.5,"humidity":92,"rain":0.0,"pressure":997.7,"uv_index":8.65,"wind_gusts":19.1,"aqi":135,"pm10":66.6,"pm2_5":62.6,"mosquito_risk":7,"arthritis_risk":5,"migraine_risk":7,"frizz_risk":1,"updated_at":"2026-04-20T05:10:43.788660+05:30"},{"city":"Ranchi","state":"Jharkhand","latitude":23.3441,"longitude":85.3096,"temp":26.0,"humidity":72,"rain":0.0,"pressure":935.4,"uv_index":9.25,"wind_gusts":33.1,"aqi":87,"pm10":59.6,"pm2_5":28.8,"mosquito_risk":7,"arthritis_risk":5,"migraine_risk":7,"frizz_risk":1,"updated_at":"2026-04-20T05:10:43.788666+05:30"},{"city":"Jamshedpur","state":"Jharkhand","latitude":22.8046,"longitude":86.2029,"temp":28.2,"humidity":79,"rain":0.0,"pressure":987.7,"uv_index":9.05,"wind_gusts":33.8,"aqi":149,"pm10":68.9,"pm2_5":59.8,"mosquito_risk":7,"arthritis_risk":5,"migraine_risk":7,"frizz_risk":1,"updated_at":"2026-04-20T05:10:43.788672+05:30"},{"city":"Dhanbad","state":"Jharkhand","latitude":23.7957,"longitude":86.4304,"temp":28.4,"humidity":88,"rain":0.0,"pressure":976.2,"uv_index":9.0,"wind_gusts":25.9,"aqi":157,"pm10":115.0,"pm2_5":102.7,"mosquito_risk":7,"arthritis_risk":5,"migraine_risk":7,"frizz_risk":1,"updated_at":"2026-04-20T05:10:43.788677+05:30"},{"city":"Bokaro","state":"Jharkhand","latitude":23.6693,"longitude":86.1511,"temp":27.5,"humidity":67,"rain":0.0,"pressure":980.4,"uv_index":9.0,"wind_gusts":32.8,"aqi":139,"pm10":107.8,"pm2_5":75.7,"mosquito_risk":7,"arthritis_risk":5,"migraine_risk":7,"frizz_risk":1,"updated_at":"2026-04-20T05:10:43.788682+05:30"},{"city":"Bhubaneswar","state":"Odisha","latitude":20.2961,"longitude":85.8245,"temp":26.3,"humidity":95,"rain":0.0,"pressure":1000.2,"uv_index":9.1,"wind_gusts":31.7,"aqi":70,"pm10":21.2,"pm2_5":17.4,"mosquito_risk":7,"arthritis_risk":5,"migraine_risk":4,"frizz_risk":1,"updated_at":"2026-04-20T05:10:43.788688+05:30"},{"city":"Cuttack","state":"Odisha","latitude":20.4625,"longitude":85.8828,"temp":26.7,"humidity":94,"rain":0.0,"pressure":1002.1,"uv_index":9.15,"wind_gusts":27.7,"aqi":70,"pm10":21.2,"pm2_5":17.4,"mosquito_risk":7,"arthritis_risk":5,"migraine_risk":4,"frizz_risk":1,"updated_at":"2026-04-20T05:10:43.788693+05:30"},{"city":"Rourkela","state":"Odisha","latitude":22.2604,"longitude":84.8536,"temp":28.3,"humidity":85,"rain":0.0,"pressure":982.3,"uv_index":8.95,"wind_gusts":32.8,"aqi":152,"pm10":74.7,"pm2_5":61.2,"mosquito_risk":7,"arthritis_risk":5,"migraine_risk":7,"frizz_risk":1,"updated_at":"2026-04-20T05:10:43.788698+05:30"},{"city":"Raipur","state":"Chhattisgarh","latitude":21.2514,"longitude":81.6296,"temp":29.0,"humidity":54,"rain":0.0,"pressure":972.8,"uv_index":8.2,"wind_gusts":36.7,"aqi":115,"pm10":41.6,"pm2_5":39.1,"mosquito_risk":4,"arthritis_risk":5,"migraine_risk":7,"frizz_risk":1,"updated_at":"2026-04-20T05:10:43.788704+05:30"},{"city":"Bhilai","state":"Chhattisgarh","latitude":21.1938,"longitude":81.3509,"temp":28.2,"humidity":59,"rain":0.0,"pressure":973.1,"uv_index":8.45,"wind_gusts":33.8,"aqi":107,"pm10":41.4,"pm2_5":39.2,"mosquito_risk":4,"arthritis_risk":5,"migraine_risk":7,"frizz_risk":1,"updated_at":"2026-04-20T05:10:43.788709+05:30"},{"city":"Guwahati","state":"Assam","latitude":26.1158,"longitude":91.7086,"temp":24.9,"humidity":91,"rain":0.0,"pressure":999.2,"uv_index":8.35,"wind_gusts":36.0,"aqi":129,"pm10":35.7,"pm2_5":27.8,"mosquito_risk":3,"arthritis_risk":5,"migraine_risk":7,"frizz_risk":1,"updated_at":"2026-04-20T05:10:43.788715+05:30"},{"city":"Agartala","state":"Tripura","latitude":23.8315,"longitude":91.2868,"temp":24.4,"humidity":93,"rain":0.0,"pressure":1004.7,"uv_index":8.75,"wind_gusts":31.3,"aqi":109,"pm10":28.8,"pm2_5":22.9,"mosquito_risk":3,"arthritis_risk":5,"migraine_risk":4,"frizz_risk":1,"updated_at":"2026-04-20T05:10:43.788720+05:30"},{"city":"Shillong","state":"Meghalaya","latitude":25.5788,"longitude":91.8933,"temp":16.3,"humidity":92,"rain":0.0,"pressure":854.6,"uv_index":6.8,"wind_gusts":69.8,"aqi":82,"pm10":24.5,"pm2_5":19.2,"mosquito_risk":3,"arthritis_risk":10,"migraine_risk":7,"frizz_risk":0,"updated_at":"2026-04-20T05:10:43.788725+05:30"},{"city":"Imphal","state":"Manipur","latitude":24.817,"longitude":93.9368,"temp":18.5,"humidity":91,"rain":0.0,"pressure":921.9,"uv_index":9.15,"wind_gusts":79.6,"aqi":129,"pm10":59.1,"pm2_5":47.5,"mosquito_risk":3,"arthritis_risk":10,"migraine_risk":7,"frizz_risk":1,"updated_at":"2026-04-20T05:10:43.788731+05:30"},{"city":"Aizawl","state":"Mizoram","latitude":23.7271,"longitude":92.7176,"temp":19.9,"humidity":90,"rain":0.0,"pressure":892.1,"uv_index":9.0,"wind_gusts":63.0,"aqi":141,"pm10":60.8,"pm2_5":49.9,"mosquito_risk":3,"arthritis_risk":10,"migraine_risk":7,"frizz_risk":1,"updated_at":"2026-04-20T05:10:43.788736+05:30"},{"city":"Kohima","state":"Nagaland","latitude":25.6701,"longitude":94.1077,"temp":16.5,"humidity":84,"rain":0.0,"pressure":853.1,"uv_index":7.55,"wind_gusts":95.8,"aqi":102,"pm10":36.7,"pm2_5":26.1,"mosquito_risk":3,"arthritis_risk":10,"migraine_risk":7,"frizz_risk":0,"updated_at":"2026-04-20T05:10:43.788741+05:30"},{"city":"Gangtok","state":"Sikkim","latitude":27.3314,"longitude":88.6138,"temp":16.2,"humidity":86,"rain":0.0,"pressure":835.1,"uv_index":8.8,"wind_gusts":18.0,"aqi":67,"pm10":19.6,"pm2_5":17.0,"mosquito_risk":3,"arthritis_risk":10,"migraine_risk":7,"frizz_risk":0,"updated_at":"2026-04-20T05:10:43.788746+05:30"},{"city":"Siliguri","state":"West Bengal","latitude":26.7271,"longitude":88.3953,"temp":22.2,"humidity":77,"rain":0.0,"pressure":991.6,"uv_index":8.45,"wind_gusts":29.9,"aqi":98,"pm10":41.8,"pm2_5":34.1,"mosquito_risk":3,"arthritis_risk":5,"migraine_risk":7,"frizz_risk":1,"updated_at":"2026-04-20T05:10:47.090350+05:30"},{"city":"Durgapur","state":"West Bengal","latitude":23.5204,"longitude":87.3119,"temp":27.3,"humidity":92,"rain":0.0,"pressure":991.5,"uv_index":8.9,"wind_gusts":29.5,"aqi":137,"pm10":46.9,"pm2_5":43.5,"mosquito_risk":7,"arthritis_risk":5,"migraine_risk":7,"frizz_risk":1,"updated_at":"2026-04-20T05:10:47.090378+05:30"},{"city":"Asansol","state":"West Bengal","latitude":23.6739,"longitude":86.9524,"temp":27.9,"humidity":91,"rain":0.0,"pressure":989.9,"uv_index":8.95,"wind_gusts":37.1,"aqi":141,"pm10":55.8,"pm2_5":51.0,"mosquito_risk":7,"arthritis_risk":5,"migraine_risk":7,"frizz_risk":1,"updated_at":"2026-04-20T05:10:47.090389+05:30"},{"city":"Pondicherry","state":"Puducherry","latitude":11.9139,"longitude":79.8145,"temp":26.5,"humidity":94,"rain":0.0,"pressure":1007.2,"uv_index":9.15,"wind_gusts":31.3,"aqi":33,"pm10":11.0,"pm2_5":7.6,"mosquito_risk":7,"arthritis_risk":5,"migraine_risk":4,"frizz_risk":1,"updated_at":"2026-04-20T05:10:47.090397+05:30"},{"city":"Port Blair","state":"Andaman and Nicobar Islands","latitude":11.6234,"longitude":92.7265,"temp":28.9,"humidity":79,"rain":0.0,"pressure":1006.6,"uv_index":9.05,"wind_gusts":18.4,"aqi":58,"pm10":20.8,"pm2_5":17.4,"mosquito_risk":7,"arthritis_risk":5,"migraine_risk":4,"frizz_risk":1,"updated_at":"2026-04-20T05:10:47.090404+05:30"},{"city":"Haridwar","state":"Uttarakhand","latitude":29.9457,"longitude":78.1642,"temp":22.1,"humidity":61,"rain":0.0,"pressure":971.7,"uv_index":7.05,"wind_gusts":33.1,"aqi":61,"pm10":23.7,"pm2_5":15.8,"mosquito_risk":3,"arthritis_risk":5,"migraine_risk":7,"frizz_risk":0,"updated_at":"2026-04-20T05:10:47.090412+05:30"},{"city":"Rishikesh","state":"Uttarakhand","latitude":30.0869,"longitude":78.2676,"temp":21.4,"humidity":55,"rain":0.0,"pressure":964.8,"uv_index":7.2,"wind_gusts":35.6,"aqi":54,"pm10":24.2,"pm2_5":16.5,"mosquito_risk":0,"arthritis_risk":5,"migraine_risk":7,"frizz_risk":0,"updated_at":"2026-04-20T05:10:47.090420+05:30"},{"city":"Nainital","state":"Uttarakhand","latitude":29.3919,"longitude":79.4542,"temp":22.4,"humidity":30,"rain":0.0,"pressure":806.2,"uv_index":8.05,"wind_gusts":53.3,"aqi":53,"pm10":20.2,"pm2_5":14.0,"mosquito_risk":0,"arthritis_risk":5,"migraine_risk":7,"frizz_risk":0,"updated_at":"2026-04-20T05:10:47.090427+05:30"},{"city":"Mussoorie","state":"Uttarakhand","latitude":30.4599,"longitude":78.0664,"temp":18.6,"humidity":38,"rain":0.0,"pressure":802.2,"uv_index":7.55,"wind_gusts":43.2,"aqi":57,"pm10":20.0,"pm2_5":12.3,"mosquito_risk":0,"arthritis_risk":5,"migraine_risk":7,"frizz_risk":0,"updated_at":"2026-04-20T05:10:47.090434+05:30"},{"city":"Dharamshala","state":"Himachal Pradesh","latitude":32.219,"longitude":76.3234,"temp":21.9,"humidity":25,"rain":0.0,"pressure":869.0,"uv_index":7.8,"wind_gusts":33.1,"aqi":34,"pm10":8.0,"pm2_5":4.8,"mosquito_risk":0,"arthritis_risk":5,"migraine_risk":7,"frizz_risk":0,"updated_at":"2026-04-20T05:10:47.090442+05:30"},{"city":"Dalhousie","state":"Himachal Pradesh","latitude":32.5387,"longitude":75.971,"temp":18.1,"humidity":25,"rain":0.0,"pressure":803.7,"uv_index":8.05,"wind_gusts":28.4,"aqi":55,"pm10":11.0,"pm2_5":7.7,"mosquito_risk":0,"arthritis_risk":5,"migraine_risk":7,"frizz_risk":1,"updated_at":"2026-04-20T05:10:47.090450+05:30"},{"city":"Patiala","state":"Punjab","latitude":30.3398,"longitude":76.3869,"temp":21.5,"humidity":67,"rain":0.0,"pressure":976.1,"uv_index":7.15,"wind_gusts":30.2,"aqi":364,"pm10":268.2,"pm2_5":43.5,"mosquito_risk":3,"arthritis_risk":5,"migraine_risk":7,"frizz_risk":0,"updated_at":"2026-04-20T05:10:47.090457+05:30"},{"city":"Bhatinda","state":"Punjab","latitude":30.211,"longitude":74.9455,"temp":23.8,"humidity":55,"rain":0.0,"pressure":982.5,"uv_index":7.8,"wind_gusts":31.3,"aqi":69,"pm10":47.1,"pm2_5":23.1,"mosquito_risk":0,"arthritis_risk":5,"migraine_risk":7,"frizz_risk":0,"updated_at":"2026-04-20T05:10:47.090464+05:30"},{"city":"Rohtak","state":"Haryana","latitude":28.8955,"longitude":76.6066,"temp":21.3,"humidity":69,"rain":0.0,"pressure":979.6,"uv_index":7.3,"wind_gusts":29.9,"aqi":497,"pm10":823.3,"pm2_5":136.9,"mosquito_risk":3,"arthritis_risk":5,"migraine_risk":7,"frizz_risk":0,"updated_at":"2026-04-20T05:10:47.090471+05:30"},{"city":"Panipat","state":"Haryana","latitude":29.3909,"longitude":76.9635,"temp":22.1,"humidity":65,"rain":0.0,"pressure":978.1,"uv_index":7.15,"wind_gusts":26.6,"aqi":917,"pm10":1005.8,"pm2_5":138.8,"mosquito_risk":3,"arthritis_risk":5,"migraine_risk":7,"frizz_risk":0,"updated_at":"2026-04-20T05:10:47.090478+05:30"},{"city":"Mathura","state":"Uttar Pradesh","latitude":27.4924,"longitude":77.6737,"temp":23.8,"humidity":55,"rain":0.0,"pressure":984.1,"uv_index":7.6,"wind_gusts":24.1,"aqi":507,"pm10":750.6,"pm2_5":123.9,"mosquito_risk":0,"arthritis_risk":5,"migraine_risk":7,"frizz_risk":0,"updated_at":"2026-04-20T05:10:47.090485+05:30"},{"city":"Vrindavan","state":"Uttar Pradesh","latitude":27.5823,"longitude":77.7027,"temp":22.6,"humidity":60,"rain":0.0,"pressure":984.5,"uv_index":7.55,"wind_gusts":29.9,"aqi":507,"pm10":750.6,"pm2_5":123.9,"mosquito_risk":0,"arthritis_risk":5,"migraine_risk":7,"frizz_risk":0,"updated_at":"2026-04-20T05:10:47.090492+05:30"},{"city":"Ayodhya","state":"Uttar Pradesh","latitude":26.7922,"longitude":82.1998,"temp":24.7,"humidity":86,"rain":0.0,"pressure":991.7,"uv_index":8.1,"wind_gusts":33.1,"aqi":106,"pm10":110.4,"pm2_5":40.4,"mosquito_risk":3,"arthritis_risk":5,"migraine_risk":7,"frizz_risk":1,"updated_at":"2026-04-20T05:10:47.090499+05:30"},{"city":"Ratlam","state":"Madhya Pradesh","latitude":23.3315,"longitude":75.0367,"temp":26.2,"humidity":50,"rain":0.0,"pressure":953.3,"uv_index":8.45,"wind_gusts":27.4,"aqi":71,"pm10":19.4,"pm2_5":14.9,"mosquito_risk":4,"arthritis_risk":5,"migraine_risk":7,"frizz_risk":0,"updated_at":"2026-04-20T05:10:47.090506+05:30"},{"city":"Sagar","state":"Madhya Pradesh","latitude":23.8388,"longitude":78.7378,"temp":26.7,"humidity":43,"rain":0.0,"pressure":948.2,"uv_index":8.3,"wind_gusts":29.9,"aqi":53,"pm10":21.2,"pm2_5":16.8,"mosquito_risk":4,"arthritis_risk":5,"migraine_risk":7,"frizz_risk":0,"updated_at":"2026-04-20T05:10:47.090513+05:30"},{"city":"Satna","state":"Madhya Pradesh","latitude":24.6005,"longitude":80.8322,"temp":27.6,"humidity":49,"rain":0.0,"pressure":968.3,"uv_index":8.35,"wind_gusts":38.2,"aqi":68,"pm10":62.9,"pm2_5":19.5,"mosquito_risk":4,"arthritis_risk":5,"migraine_risk":7,"frizz_risk":0,"updated_at":"2026-04-20T05:10:47.090520+05:30"},{"city":"Akola","state":"Maharashtra","latitude":20.7002,"longitude":77.0082,"temp":28.5,"humidity":47,"rain":0.0,"pressure":973.9,"uv_index":8.85,"wind_gusts":29.5,"aqi":73,"pm10":23.9,"pm2_5":20.8,"mosquito_risk":4,"arthritis_risk":5,"migraine_risk":7,"frizz_risk":1,"updated_at":"2026-04-20T05:10:47.090527+05:30"},{"city":"Amravati","state":"Maharashtra","latitude":20.9374,"longitude":77.7796,"temp":26.4,"humidity":68,"rain":0.0,"pressure":966.3,"uv_index":8.9,"wind_gusts":21.6,"aqi":73,"pm10":28.4,"pm2_5":25.1,"mosquito_risk":7,"arthritis_risk":5,"migraine_risk":7,"frizz_risk":1,"updated_at":"2026-04-20T05:10:47.090535+05:30"},{"city":"Latur","state":"Maharashtra","latitude":18.4088,"longitude":76.5604,"temp":25.8,"humidity":61,"rain":0.0,"pressure":939.2,"uv_index":9.1,"wind_gusts":29.5,"aqi":123,"pm10":44.9,"pm2_5":41.8,"mosquito_risk":7,"arthritis_risk":5,"migraine_risk":7,"frizz_risk":1,"updated_at":"2026-04-20T05:10:47.090542+05:30"},{"city":"Nanded","state":"Maharashtra","latitude":19.1383,"longitude":77.3091,"temp":26.8,"humidity":65,"rain":0.0,"pressure":967.7,"uv_index":9.0,"wind_gusts":23.4,"aqi":102,"pm10":54.2,"pm2_5":50.9,"mosquito_risk":7,"arthritis_risk":5,"migraine_risk":7,"frizz_risk":1,"updated_at":"2026-04-20T05:10:47.090549+05:30"},{"city":"Gulbarga","state":"Karnataka","latitude":17.3297,"longitude":76.8343,"temp":26.0,"humidity":69,"rain":0.0,"pressure":958.0,"uv_index":9.15,"wind_gusts":25.2,"aqi":120,"pm10":60.1,"pm2_5":54.5,"mosquito_risk":7,"arthritis_risk":5,"migraine_risk":7,"frizz_risk":1,"updated_at":"2026-04-20T05:10:47.090556+05:30"},{"city":"Bidar","state":"Karnataka","latitude":17.9104,"longitude":77.5199,"temp":26.3,"humidity":66,"rain":0.0,"pressure":934.9,"uv_index":9.15,"wind_gusts":29.5,"aqi":124,"pm10":51.8,"pm2_5":46.6,"mosquito_risk":7,"arthritis_risk":5,"migraine_risk":7,"frizz_risk":1,"updated_at":"2026-04-20T05:10:47.090563+05:30"},{"city":"Hospet","state":"Karnataka","latitude":15.2689,"longitude":76.3909,"temp":25.8,"humidity":89,"rain":0.0,"pressure":954.9,"uv_index":9.25,"wind_gusts":37.8,"aqi":100,"pm10":53.6,"pm2_5":48.9,"mosquito_risk":7,"arthritis_risk":5,"migraine_risk":7,"frizz_risk":1,"updated_at":"2026-04-20T05:10:47.090570+05:30"},{"city":"Tirupur","state":"Tamil Nadu","latitude":11.1085,"longitude":77.3411,"temp":26.1,"humidity":88,"rain":0.0,"pressure":973.8,"uv_index":9.4,"wind_gusts":30.6,"aqi":72,"pm10":20.0,"pm2_5":18.1,"mosquito_risk":7,"arthritis_risk":5,"migraine_risk":7,"frizz_risk":1,"updated_at":"2026-04-20T05:10:47.090577+05:30"},{"city":"Alappuzha","state":"Kerala","latitude":9.4981,"longitude":76.3388,"temp":27.8,"humidity":86,"rain":0.0,"pressure":1007.2,"uv_index":8.65,"wind_gusts":27.0,"aqi":68,"pm10":30.0,"pm2_5":24.7,"mosquito_risk":7,"arthritis_risk":5,"migraine_risk":4,"frizz_risk":1,"updated_at":"2026-04-20T05:10:47.090583+05:30"},{"city":"Munnar","state":"Kerala","latitude":10.0889,"longitude":77.0595,"temp":20.7,"humidity":90,"rain":0.0,"pressure":855.1,"uv_index":9.65,"wind_gusts":33.8,"aqi":75,"pm10":27.4,"pm2_5":25.6,"mosquito_risk":3,"arthritis_risk":5,"migraine_risk":7,"frizz_risk":1,"updated_at":"2026-04-20T05:10:47.090590+05:30"},{"city":"Silchar","state":"Assam","latitude":24.8333,"longitude":92.7789,"temp":24.0,"humidity":92,"rain":0.0,"pressure":1004.4,"uv_index":8.8,"wind_gusts":39.6,"aqi":142,"pm10":51.3,"pm2_5":38.4,"mosquito_risk":3,"arthritis_risk":5,"migraine_risk":4,"frizz_risk":1,"updated_at":"2026-04-20T05:10:47.090598+05:30"},{"city":"Dibrugarh","state":"Assam","latitude":27.4728,"longitude":94.912,"temp":23.4,"humidity":91,"rain":0.0,"pressure":994.3,"uv_index":8.75,"wind_gusts":16.6,"aqi":141,"pm10":51.0,"pm2_5":40.9,"mosquito_risk":3,"arthritis_risk":5,"migraine_risk":7,"frizz_risk":1,"updated_at":"2026-04-20T05:10:47.090604+05:30"}]