[{"city":"Delhi","state":"Delhi","latitude":28.6139,"longitude":77.209,"temp":31.0,"humidity":37,"rain":0.0,"pressure":985.1,"uv_index":6.5,"wind_gusts":46.8,"aqi":169,"pm10":245.9,"pm2_5":40.2,"mosquito_risk":0,"arthritis_risk":5,"migraine_risk":7,"frizz_risk":0,"updated_at":"2026-03-26T17:22:44.818065+05:30"},{"city":"Mumbai","state":"Maharashtra","latitude":19.076,"longitude":72.8777,"temp":29.2,"humidity":67,"rain":0.0,"pressure":1007.7,"uv_index":7.95,"wind_gusts":29.2,"aqi":120,"pm10":48.8,"pm2_5":43.0,"mosquito_risk":7,"arthritis_risk":5,"migraine_risk":4,"frizz_risk":1,"updated_at":"2026-03-26T17:22:44.818107+05:30"},{"city":"Bangalore","state":"Karnataka","latitude":12.9716,"longitude":77.5946,"temp":32.1,"humidity":23,"rain":0.0,"pressure":912.4,"uv_index":9.45,"wind_gusts":33.5,"aqi":103,"pm10":21.2,"pm2_5":15.7,"mosquito_risk":0,"arthritis_risk":5,"migraine_risk":7,"frizz_risk":0,"updated_at":"2026-03-26T17:22:44.818122+05:30"},{"city":"Hyderabad","state":"Telangana","latitude":17.385,"longitude":78.4867,"temp":32.8,"humidity":37,"rain":0.0,"pressure":954.4,"uv_index":9.0,"wind_gusts":16.2,"aqi":118,"pm10":31.8,"pm2_5":24.4,"mosquito_risk":0,"arthritis_risk":5,"migraine_risk":7,"frizz_risk":1,"updated_at":"2026-03-26T17:22:44.818131+05:30"},{"city":"Chennai","state":"Tamil Nadu","latitude":13.0827,"longitude":80.2707,"temp":30.3,"humidity":59,"rain":0.0,"pressure":1007.9,"uv_index":9.2,"wind_gusts":31.3,"aqi":59,"pm10":26.8,"pm2_5":16.2,"mosquito_risk":0,"arthritis_risk":5,"migraine_risk":4,"frizz_risk":1,"updated_at":"2026-03-26T17:22:44.818140+05:30"},{"city":"Kolkata","state":"West Bengal","latitude":22.5726,"longitude":88.3639,"temp":31.3,"humidity":58,"rain":0.0,"pressure":1006.6,"uv_index":8.4,"wind_gusts":14.0,"aqi":155,"pm10":64.3,"pm2_5":53.9,"mosquito_risk":0,"arthritis_risk":5,"migraine_risk":4,"frizz_risk":1,"updated_at":"2026-03-26T17:22:44.818149+05:30"},{"city":"Pune","state":"Maharashtra","latitude":18.5204,"longitude":73.8567,"temp":35.4,"humidity":32,"rain":0.0,"pressure":948.9,"uv_index":8.5,"wind_gusts":39.2,"aqi":106,"pm10":48.1,"pm2_5":36.6,"mosquito_risk":0,"arthritis_risk":5,"migraine_risk":10,"frizz_risk":1,"updated_at":"2026-03-26T17:22:44.818161+05:30"},{"city":"Ahmedabad","state":"Gujarat","latitude":23.0225,"longitude":72.5714,"temp":36.9,"humidity":19,"rain":0.0,"pressure":1002.7,"uv_index":7.9,"wind_gusts":27.7,"aqi":66,"pm10":29.6,"pm2_5":11.6,"mosquito_risk":0,"arthritis_risk":5,"migraine_risk":7,"frizz_risk":0,"updated_at":"2026-03-26T17:22:44.818168+05:30"},{"city":"Jaipur","state":"Rajasthan","latitude":26.9124,"longitude":75.7873,"temp":31.6,"humidity":30,"rain":0.0,"pressure":962.1,"uv_index":7.2,"wind_gusts":29.5,"aqi":95,"pm10":108.5,"pm2_5":23.7,"mosquito_risk":0,"arthritis_risk":5,"migraine_risk":7,"frizz_risk":0,"updated_at":"2026-03-26T17:22:44.818176+05:30"},{"city":"Lucknow","state":"Uttar Pradesh","latitude":26.8467,"longitude":80.9462,"temp":34.4,"humidity":22,"rain":0.0,"pressure":994.1,"uv_index":7.1,"wind_gusts":34.9,"aqi":119,"pm10":97.3,"pm2_5":24.2,"mosquito_risk":0,"arthritis_risk":5,"migraine_risk":7,"frizz_risk":0,"updated_at":"2026-03-26T17:22:44.818184+05:30"},{"city":"Kanpur","state":"Uttar Pradesh","latitude":26.4499,"longitude":80.3319,"temp":32.7,"humidity":33,"rain":0.0,"pressure":992.9,"uv_index":7.15,"wind_gusts":27.0,"aqi":175,"pm10":333.4,"pm2_5":44.0,"mosquito_risk":0,"arthritis_risk":5,"migraine_risk":7,"frizz_risk":0,"updated_at":"2026-03-26T17:22:44.818191+05:30"},{"city":"Chandigarh","state":"Chandigarh","latitude":30.7333,"longitude":76.7794,"temp":27.8,"humidity":47,"rain":0.0,"pressure":971.7,"uv_index":6.55,"wind_gusts":34.9,"aqi":68,"pm10":21.1,"pm2_5":14.6,"mosquito_risk":4,"arthritis_risk":5,"migraine_risk":7,"frizz_risk":0,"updated_at":"2026-03-26T17:22:44.818198+05:30"},{"city":"Srinagar","state":"Jammu and Kashmir","latitude":34.0837,"longitude":74.7973,"temp":14.8,"humidity":56,"rain":0.1,"pressure":844.6,"uv_index":7.45,"wind_gusts":16.2,"aqi":94,"pm10":28.9,"pm2_5":18.4,"mosquito_risk":3,"arthritis_risk":5,"migraine_risk":7,"frizz_risk":0,"updated_at":"2026-03-26T17:22:44.818206+05:30"},{"city":"Jammu","state":"Jammu and Kashmir","latitude":32.7266,"longitude":74.857,"temp":26.9,"humidity":55,"rain":0.0,"pressure":976.4,"uv_index":6.8,"wind_gusts":23.4,"aqi":78,"pm10":22.5,"pm2_5":12.0,"mosquito_risk":4,"arthritis_risk":5,"migraine_risk":7,"frizz_risk":1,"updated_at":"2026-03-26T17:22:44.818214+05:30"},{"city":"Amritsar","state":"Punjab","latitude":31.634,"longitude":74.8723,"temp":26.7,"humidity":51,"rain":0.0,"pressure":985.0,"uv_index":6.6,"wind_gusts":24.1,"aqi":88,"pm10":50.4,"pm2_5":20.1,"mosquito_risk":4,"arthritis_risk":5,"migraine_risk":7,"frizz_risk":0,"updated_at":"2026-03-26T17:22:44.818220+05:30"},{"city":"Ludhiana","state":"Punjab","latitude":30.901,"longitude":75.8573,"temp":27.9,"humidity":46,"rain":0.0,"pressure":982.4,"uv_index":6.15,"wind_gusts":32.0,"aqi":91,"pm10":32.8,"pm2_5":19.3,"mosquito_risk":4,"arthritis_risk":5,"migraine_risk":7,"frizz_risk":0,"updated_at":"2026-03-26T17:22:44.818227+05:30"},{"city":"Jalandhar","state":"Punjab","latitude":31.326,"longitude":75.5762,"temp":27.5,"humidity":47,"rain":0.0,"pressure":983.7,"uv_index":6.8,"wind_gusts":26.6,"aqi":87,"pm10":44.9,"pm2_5":18.6,"mosquito_risk":4,"arthritis_risk":5,"migraine_risk":7,"frizz_risk":0,"updated_at":"2026-03-26T17:22:44.818235+05:30"},{"city":"Dehradun","state":"Uttarakhand","latitude":30.6284,"longitude":78.0322,"temp":19.7,"humidity":46,"rain":0.0,"pressure":832.3,"uv_index":6.95,"wind_gusts":39.2,"aqi":87,"pm10":18.2,"pm2_5":9.7,"mosquito_risk":0,"arthritis_risk":5,"migraine_risk":7,"frizz_risk":0,"updated_at":"2026-03-26T17:22:44.818242+05:30"},{"city":"Shimla","state":"Himachal Pradesh","latitude":31.1048,"longitude":77.1734,"temp":16.1,"humidity":55,"rain":0.0,"pressure":787.3,"uv_index":7.0,"wind_gusts":43.2,"aqi":84,"pm10":15.6,"pm2_5":10.0,"mosquito_risk":0,"arthritis_risk":5,"migraine_risk":7,"frizz_risk":0,"updated_at":"2026-03-26T17:22:44.818248+05:30"},{"city":"Manali","state":"Himachal Pradesh","latitude":32.2396,"longitude":77.1887,"temp":17.4,"humidity":58,"rain":0.0,"pressure":822.4,"uv_index":8.75,"wind_gusts":23.4,"aqi":113,"pm10":14.3,"pm2_5":8.3,"mosquito_risk":0,"arthritis_risk":5,"migraine_risk":7,"frizz_risk":0,"updated_at":"2026-03-26T17:22:44.818254+05:30"},{"city":"Gurgaon","state":"Haryana","latitude":28.4595,"longitude":77.0266,"temp":29.1,"humidity":45,"rain":0.0,"pressure":984.1,"uv_index":5.8,"wind_gusts":36.0,"aqi":275,"pm10":754.4,"pm2_5":84.5,"mosquito_risk":4,"arthritis_risk":5,"migraine_risk":3,"frizz_risk":0,"updated_at":"2026-03-26T17:22:44.818261+05:30"},{"city":"Noida","state":"Uttar Pradesh","latitude":28.5355,"longitude":77.391,"temp":31.0,"humidity":39,"rain":0.0,"pressure":986.5,"uv_index":6.45,"wind_gusts":47.9,"aqi":275,"pm10":754.4,"pm2_5":84.5,"mosquito_risk":0,"arthritis_risk":5,"migraine_risk":7,"frizz_risk":0,"updated_at":"2026-03-26T17:22:44.818268+05:30"},{"city":"Ghaziabad","state":"Uttar Pradesh","latitude":28.6692,"longitude":77.4538,"temp":30.4,"humidity":41,"rain":0.0,"pressure":984.6,"uv_index":6.5,"wind_gusts":32.8,"aqi":140,"pm10":208.2,"pm2_5":36.7,"mosquito_risk":0,"arthritis_risk":5,"migraine_risk":7,"frizz_risk":0,"updated_at":"2026-03-26T17:22:44.818274+05:30"},{"city":"Faridabad","state":"Haryana","latitude":28.4089,"longitude":77.3178,"temp":30.0,"humidity":39,"rain":0.0,"pressure":986.2,"uv_index":6.2,"wind_gusts":47.2,"aqi":275,"pm10":754.4,"pm2_5":84.5,"mosquito_risk":4,"arthritis_risk":5,"migraine_risk":7,"frizz_risk":0,"updated_at":"2026-03-26T17:22:44.818281+05:30"},{"city":"Meerut","state":"Uttar Pradesh","latitude":28.9845,"longitude":77.7064,"temp":29.9,"humidity":42,"rain":0.0,"pressure":983.2,"uv_index":6.4,"wind_gusts":28.8,"aqi":140,"pm10":208.2,"pm2_5":36.7,"mosquito_risk":4,"arthritis_risk":5,"migraine_risk":7,"frizz_risk":0,"updated_at":"2026-03-26T17:22:44.818287+05:30"},{"city":"Agra","state":"Uttar Pradesh","latitude":27.1767,"longitude":78.0081,"temp":34.5,"humidity":23,"rain":0.0,"pressure":989.0,"uv_index":6.95,"wind_gusts":29.2,"aqi":182,"pm10":491.7,"pm2_5":54.1,"mosquito_risk":0,"arthritis_risk":5,"migraine_risk":7,"frizz_risk":0,"updated_at":"2026-03-26T17:22:44.818293+05:30"},{"city":"Varanasi","state":"Uttar Pradesh","latitude":25.3176,"longitude":82.9739,"temp":33.8,"humidity":24,"rain":0.0,"pressure":998.1,"uv_index":7.8,"wind_gusts":28.8,"aqi":140,"pm10":86.6,"pm2_5":22.7,"mosquito_risk":0,"arthritis_risk":5,"migraine_risk":7,"frizz_risk":0,"updated_at":"2026-03-26T17:22:44.818302+05:30"},{"city":"Prayagraj","state":"Uttar Pradesh","latitude":25.4358,"longitude":81.8463,"temp":33.2,"humidity":26,"rain":0.0,"pressure":996.8,"uv_index":7.7,"wind_gusts":28.1,"aqi":146,"pm10":75.7,"pm2_5":20.3,"mosquito_risk":0,"arthritis_risk":5,"migraine_risk":7,"frizz_risk":0,"updated_at":"2026-03-26T17:22:44.818309+05:30"},{"city":"Gorakhpur","state":"Uttar Pradesh","latitude":26.7606,"longitude":83.3732,"temp":32.8,"humidity":33,"rain":0.0,"pressure":997.3,"uv_index":7.55,"wind_gusts":11.5,"aqi":149,"pm10":88.7,"pm2_5":24.0,"mosquito_risk":0,"arthritis_risk":5,"migraine_risk":7,"frizz_risk":0,"updated_at":"2026-03-26T17:22:44.818316+05:30"},{"city":"Bareilly","state":"Uttar Pradesh","latitude":28.367,"longitude":79.4304,"temp":31.5,"humidity":35,"rain":0.0,"pressure":987.6,"uv_index":6.8,"wind_gusts":30.2,"aqi":99,"pm10":27.6,"pm2_5":14.1,"mosquito_risk":0,"arthritis_risk":5,"migraine_risk":7,"frizz_risk":0,"updated_at":"2026-03-26T17:22:44.818322+05:30"},{"city":"Aligarh","state":"Uttar Pradesh","latitude":27.8974,"longitude":78.088,"temp":30.9,"humidity":40,"rain":0.0,"pressure":987.1,"uv_index":6.7,"wind_gusts":28.1,"aqi":193,"pm10":455.4,"pm2_5":59.6,"mosquito_risk":0,"arthritis_risk":5,"migraine_risk":7,"frizz_risk":0,"updated_at":"2026-03-26T17:22:44.818329+05:30"},{"city":"Moradabad","state":"Uttar Pradesh","latitude":28.8386,"longitude":78.7733,"temp":30.7,"humidity":35,"rain":0.0,"pressure":984.7,"uv_index":6.6,"wind_gusts":34.2,"aqi":93,"pm10":43.7,"pm2_5":15.0,"mosquito_risk":0,"arthritis_risk":5,"migraine_risk":7,"frizz_risk":0,"updated_at":"2026-03-26T17:22:44.818338+05:30"},{"city":"Saharanpur","state":"Uttar Pradesh","latitude":29.9637,"longitude":77.546,"temp":29.2,"humidity":37,"rain":0.0,"pressure":977.7,"uv_index":6.25,"wind_gusts":41.8,"aqi":89,"pm10":62.4,"pm2_5":20.1,"mosquito_risk":4,"arthritis_risk":5,"migraine_risk":7,"frizz_risk":0,"updated_at":"2026-03-26T17:22:44.818360+05:30"},{"city":"Jhansi","state":"Uttar Pradesh","latitude":25.4484,"longitude":78.5685,"temp":34.7,"humidity":23,"rain":0.0,"pressure":978.9,"uv_index":7.6,"wind_gusts":23.0,"aqi":125,"pm10":75.0,"pm2_5":24.0,"mosquito_risk":0,"arthritis_risk":5,"migraine_risk":7,"frizz_risk":0,"updated_at":"2026-03-26T17:22:48.074972+05:30"},{"city":"Surat","state":"Gujarat","latitude":21.1702,"longitude":72.8311,"temp":34.0,"humidity":40,"rain":0.0,"pressure":1007.1,"uv_index":7.7,"wind_gusts":25.9,"aqi":100,"pm10":36.9,"pm2_5":29.8,"mosquito_risk":0,"arthritis_risk":5,"migraine_risk":4,"frizz_risk":1,"updated_at":"2026-03-26T17:22:48.074999+05:30"},{"city":"Vadodara","state":"Gujarat","latitude":22.3072,"longitude":73.1812,"temp":37.3,"humidity":25,"rain":0.0,"pressure":1004.4,"uv_index":7.9,"wind_gusts":28.8,"aqi":94,"pm10":24.4,"pm2_5":14.8,"mosquito_risk":0,"arthritis_risk":5,"migraine_risk":7,"frizz_risk":0,"updated_at":"2026-03-26T17:22:48.075007+05:30"},{"city":"Rajkot","state":"Gujarat","latitude":22.3039,"longitude":70.8022,"temp":35.6,"humidity":20,"rain":0.0,"pressure":995.6,"uv_index":7.75,"wind_gusts":29.5,"aqi":52,"pm10":23.9,"pm2_5":9.4,"mosquito_risk":0,"arthritis_risk":5,"migraine_risk":10,"frizz_risk":0,"updated_at":"2026-03-26T17:22:48.075015+05:30"},{"city":"Thane","state":"Maharashtra","latitude":19.2183,"longitude":72.9781,"temp":33.1,"humidity":43,"rain":0.0,"pressure":1007.4,"uv_index":7.95,"wind_gusts":41.8,"aqi":120,"pm10":48.8,"pm2_5":43.0,"mosquito_risk":0,"arthritis_risk":5,"migraine_risk":4,"frizz_risk":1,"updated_at":"2026-03-26T17:22:48.075022+05:30"},{"city":"Nagpur","state":"Maharashtra","latitude":21.1458,"longitude":79.0882,"temp":37.3,"humidity":21,"rain":0.0,"pressure":972.4,"uv_index":8.45,"wind_gusts":25.2,"aqi":168,"pm10":41.1,"pm2_5":33.5,"mosquito_risk":0,"arthritis_risk":5,"migraine_risk":10,"frizz_risk":0,"updated_at":"2026-03-26T17:22:48.075028+05:30"},{"city":"Nashik","state":"Maharashtra","latitude":19.9975,"longitude":73.7898,"temp":33.5,"humidity":28,"rain":0.0,"pressure":946.5,"uv_index":8.15,"wind_gusts":33.1,"aqi":88,"pm10":35.6,"pm2_5":25.1,"mosquito_risk":0,"arthritis_risk":5,"migraine_risk":7,"frizz_risk":0,"updated_at":"2026-03-26T17:22:48.075034+05:30"},{"city":"Aurangabad","state":"Maharashtra","latitude":19.8762,"longitude":75.3433,"temp":35.9,"humidity":21,"rain":0.0,"pressure":944.5,"uv_index":8.65,"wind_gusts":27.7,"aqi":96,"pm10":25.1,"pm2_5":17.0,"mosquito_risk":0,"arthritis_risk":5,"migraine_risk":10,"frizz_risk":0,"updated_at":"2026-03-26T17:22:48.075040+05:30"},{"city":"Solapur","state":"Maharashtra","latitude":17.6599,"longitude":75.9064,"temp":36.8,"humidity":24,"rain":0.0,"pressure":957.0,"uv_index":8.8,"wind_gusts":22.0,"aqi":117,"pm10":30.4,"pm2_5":23.1,"mosquito_risk":0,"arthritis_risk":5,"migraine_risk":10,"frizz_risk":0,"updated_at":"2026-03-26T17:22:48.075047+05:30"},{"city":"Kolhapur","state":"Maharashtra","latitude":16.705,"longitude":74.2433,"temp":34.2,"humidity":29,"rain":0.0,"pressure":948.2,"uv_index":8.8,"wind_gusts":30.6,"aqi":154,"pm10":40.0,"pm2_5":33.3,"mosquito_risk":0,"arthritis_risk":5,"migraine_risk":7,"frizz_risk":0,"updated_at":"2026-03-26T17:22:48.075053+05:30"},{"city":"Goa","state":"Goa","latitude":15.2993,"longitude":74.124,"temp":32.3,"humidity":65,"rain":0.0,"pressure":996.9,"uv_index":8.75,"wind_gusts":34.2,"aqi":136,"pm10":38.3,"pm2_5":30.6,"mosquito_risk":3,"arthritis_risk":5,"migraine_risk":7,"frizz_risk":1,"updated_at":"2026-03-26T17:22:48.075059+05:30"},{"city":"Jodhpur","state":"Rajasthan","latitude":26.2389,"longitude":73.0243,"temp":34.9,"humidity":21,"rain":0.0,"pressure":984.3,"uv_index":7.55,"wind_gusts":33.1,"aqi":80,"pm10":111.8,"pm2_5":19.6,"mosquito_risk":0,"arthritis_risk":5,"migraine_risk":7,"frizz_risk":0,"updated_at":"2026-03-26T17:22:48.075065+05:30"},{"city":"Udaipur","state":"Rajasthan","latitude":24.5854,"longitude":73.7125,"temp":32.8,"humidity":24,"rain":0.0,"pressure":948.4,"uv_index":7.95,"wind_gusts":35.3,"aqi":46,"pm10":19.3,"pm2_5":6.9,"mosquito_risk":0,"arthritis_risk":5,"migraine_risk":7,"frizz_risk":0,"updated_at":"2026-03-26T17:22:48.075070+05:30"},{"city":"Kota","state":"Rajasthan","latitude":25.2138,"longitude":75.8648,"temp":36.5,"humidity":20,"rain":0.0,"pressure":979.3,"uv_index":7.7,"wind_gusts":23.4,"aqi":93,"pm10":25.4,"pm2_5":15.3,"mosquito_risk":0,"arthritis_risk":5,"migraine_risk":10,"frizz_risk":0,"updated_at":"2026-03-26T17:22:48.075077+05:30"},{"city":"Bikaner","state":"Rajasthan","latitude":28.0229,"longitude":73.3119,"temp":33.0,"humidity":24,"rain":0.0,"pressure":983.9,"uv_index":7.15,"wind_gusts":24.1,"aqi":57,"pm10":42.0,"pm2_5":13.4,"mosquito_risk":0,"arthritis_risk":5,"migraine_risk":7,"frizz_risk":0,"updated_at":"2026-03-26T17:22:48.075083+05:30"},{"city":"Ajmer","state":"Rajasthan","latitude":26.4499,"longitude":74.6399,"temp":32.7,"humidity":24,"rain":0.0,"pressure":956.5,"uv_index":7.15,"wind_gusts":33.1,"aqi":92,"pm10":26.2,"pm2_5":10.2,"mosquito_risk":0,"arthritis_risk":5,"migraine_risk":7,"frizz_risk":0,"updated_at":"2026-03-26T17:22:48.075089+05:30"},{"city":"Gwalior","state":"Madhya Pradesh","latitude":26.2183,"longitude":78.1828,"temp":33.9,"humidity":29,"rain":0.0,"pressure":984.6,"uv_index":7.3,"wind_gusts":23.4,"aqi":94,"pm10":66.1,"pm2_5":15.8,"mosquito_risk":0,"arthritis_risk":5,"migraine_risk":7,"frizz_risk":0,"updated_at":"2026-03-26T17:22:48.075095+05:30"},{"city":"Indore","state":"Madhya Pradesh","latitude":22.7196,"longitude":75.8577,"temp":34.7,"humidity":21,"rain":0.0,"pressure":949.0,"uv_index":8.15,"wind_gusts":32.4,"aqi":64,"pm10":12.1,"pm2_5":6.3,"mosquito_risk":0,"arthritis_risk":5,"migraine_risk":7,"frizz_risk":0,"updated_at":"2026-03-26T17:22:48.075102+05:30"},{"city":"Bhopal","state":"Madhya Pradesh","latitude":23.2599,"longitude":77.4126,"temp":36.1,"humidity":17,"rain":0.0,"pressure":954.1,"uv_index":8.1,"wind_gusts":31.0,"aqi":80,"pm10":17.0,"pm2_5":9.8,"mosquito_risk":0,"arthritis_risk":5,"migraine_risk":10,"frizz_risk":0,"updated_at":"2026-03-26T17:22:48.075107+05:30"},{"city":"Jabalpur","state":"Madhya Pradesh","latitude":23.1815,"longitude":79.9864,"temp":34.8,"humidity":25,"rain":0.0,"pressure":961.9,"uv_index":8.2,"wind_gusts":20.5,"aqi":99,"pm10":28.8,"pm2_5":12.3,"mosquito_risk":0,"arthritis_risk":5,"migraine_risk":7,"frizz_risk":0,"updated_at":"2026-03-26T17:22:48.075113+05:30"},{"city":"Ujjain","state":"Madhya Pradesh","latitude":23.1765,"longitude":75.7885,"temp":34.3,"humidity":23,"rain":0.0,"pressure":954.6,"uv_index":8.1,"wind_gusts":31.3,"aqi":61,"pm10":8.7,"pm2_5":4.6,"mosquito_risk":0,"arthritis_risk":5,"migraine_risk":7,"frizz_risk":0,"updated_at":"2026-03-26T17:22:48.075119+05:30"},{"city":"Visakhapatnam","state":"Andhra Pradesh","latitude":17.6868,"longitude":83.2185,"temp":30.2,"humidity":66,"rain":0.0,"pressure":1004.6,"uv_index":8.7,"wind_gusts":33.8,"aqi":81,"pm10":32.9,"pm2_5":23.0,"mosquito_risk":3,"arthritis_risk":5,"migraine_risk":4,"frizz_risk":1,"updated_at":"2026-03-26T17:22:48.075125+05:30"},{"city":"Vijayawada","state":"Andhra Pradesh","latitude":16.5062,"longitude":80.648,"temp":34.3,"humidity":47,"rain":0.0,"pressure":1002.6,"uv_index":9.0,"wind_gusts":22.0,"aqi":70,"pm10":32.7,"pm2_5":23.2,"mosquito_risk":0,"arthritis_risk":5,"migraine_risk":4,"frizz_risk":1,"updated_at":"2026-03-26T17:22:48.075131+05:30"},{"city":"Guntur","state":"Andhra Pradesh","latitude":16.3067,"longitude":80.4365,"temp":33.3,"humidity":44,"rain":0.0,"pressure":1004.1,"uv_index":9.0,"wind_gusts":27.4,"aqi":67,"pm10":33.3,"pm2_5":23.4,"mosquito_risk":0,"arthritis_risk":5,"migraine_risk":4,"frizz_risk":1,"updated_at":"2026-03-26T17:22:48.075137+05:30"},{"city":"Nellore","state":"Andhra Pradesh","latitude":14.4426,"longitude":79.9865,"temp":31.3,"humidity":52,"rain":0.0,"pressure":1006.4,"uv_index":9.1,"wind_gusts":30.2,"aqi":59,"pm10":24.3,"pm2_5":15.3,"mosquito_risk":0,"arthritis_risk":5,"migraine_risk":4,"frizz_risk":1,"updated_at":"2026-03-26T17:22:48.075144+05:30"},{"city":"Kurnool","state":"Andhra Pradesh","latitude":15.8281,"longitude":78.0373,"temp":37.9,"humidity":22,"rain":0.0,"pressure":976.4,"uv_index":9.0,"wind_gusts":26.3,"aqi":99,"pm10":30.5,"pm2_5":21.5,"mosquito_risk":0,"arthritis_risk":5,"migraine_risk":10,"frizz_risk":0,"updated_at":"2026-03-26T17:22:48.075151+05:30"},{"city":"Kakinada","state":"Andhra Pradesh","latitude":16.9891,"longitude":82.2475,"temp":32.9,"humidity":53,"rain":0.0,"pressure":1008.1,"uv_index":8.95,"wind_gusts":23.8,"aqi":61,"pm10":23.0,"pm2_5":15.1,"mosquito_risk":0,"arthritis_risk":0,"migraine_risk":4,"frizz_risk":1,"updated_at":"2026-03-26T17:22:48.075158+05:30"},{"city":"Tirupati","state":"Andhra Pradesh","latitude":13.6288,"longitude":79.4192,"temp":33.3,"humidity":40,"rain":0.0,"pressure":991.7,"uv_index":9.2,"wind_gusts":34.6,"aqi":89,"pm10":29.8,"pm2_5":22.5,"mosquito_risk":0,"arthritis_risk":5,"migraine_risk":7,"frizz_risk":1,"updated_at":"2026-03-26T17:22:48.075163+05:30"},{"city":"Warangal","state":"Telangana","latitude":17.9689,"longitude":79.5941,"temp":36.3,"humidity":31,"rain":0.0,"pressure":978.5,"uv_index":8.8,"wind_gusts":25.2,"aqi":87,"pm10":35.9,"pm2_5":27.1,"mosquito_risk":0,"arthritis_risk":5,"migraine_risk":10,"frizz_risk":1,"updated_at":"2026-03-26T17:22:48.075169+05:30"},{"city":"Nizamabad","state":"Telangana","latitude":18.6725,"longitude":78.0941,"temp":36.6,"humidity":23,"rain":0.0,"pressure":964.7,"uv_index":8.75,"wind_gusts":28.1,"aqi":102,"pm10":21.1,"pm2_5":15.2,"mosquito_risk":0,"arthritis_risk":5,"migraine_risk":10,"frizz_risk":0,"updated_at":"2026-03-26T17:22:48.075175+05:30"},{"city":"Mysore","state":"Karnataka","latitude":12.2958,"longitude":76.6396,"temp":33.8,"humidity":25,"rain":0.0,"pressure":928.2,"uv_index":9.4,"wind_gusts":37.8,"aqi":115,"pm10":23.3,"pm2_5":17.8,"mosquito_risk":0,"arthritis_risk":5,"migraine_risk":7,"frizz_risk":0,"updated_at":"2026-03-26T17:22:48.075181+05:30"},{"city":"Mangalore","state":"Karnataka","latitude":12.9141,"longitude":74.856,"temp":29.8,"humidity":83,"rain":0.0,"pressure":1004.8,"uv_index":9.1,"wind_gusts":31.0,"aqi":147,"pm10":38.8,"pm2_5":30.9,"mosquito_risk":7,"arthritis_risk":5,"migraine_risk":4,"frizz_risk":1,"updated_at":"2026-03-26T17:22:48.075188+05:30"},{"city":"Hubli-Dharwad","state":"Karnataka","latitude":15.3647,"longitude":75.124,"temp":33.0,"humidity":33,"rain":0.0,"pressure":941.3,"uv_index":9.1,"wind_gusts":29.5,"aqi":129,"pm10":28.4,"pm2_5":22.5,"mosquito_risk":0,"arthritis_risk":5,"migraine_risk":7,"frizz_risk":0,"updated_at":"2026-03-26T17:22:48.075194+05:30"},{"city":"Belgaum","state":"Karnataka","latitude":15.8497,"longitude":74.4977,"temp":30.8,"humidity":41,"rain":0.0,"pressure":926.6,"uv_index":9.05,"wind_gusts":33.1,"aqi":131,"pm10":34.1,"pm2_5":27.3,"mosquito_risk":0,"arthritis_risk":5,"migraine_risk":7,"frizz_risk":0,"updated_at":"2026-03-26T17:22:51.332651+05:30"},{"city":"Coimbatore","state":"Tamil Nadu","latitude":11.0168,"longitude":76.9558,"temp":34.5,"humidity":25,"rain":0.0,"pressure":960.9,"uv_index":9.4,"wind_gusts":41.4,"aqi":99,"pm10":25.7,"pm2_5":20.4,"mosquito_risk":0,"arthritis_risk":5,"migraine_risk":7,"frizz_risk":0,"updated_at":"2026-03-26T17:22:51.332687+05:30"},{"city":"Madurai","state":"Tamil Nadu","latitude":9.9252,"longitude":78.1198,"temp":34.7,"humidity":37,"rain":0.0,"pressure":991.9,"uv_index":9.35,"wind_gusts":27.0,"aqi":72,"pm10":28.2,"pm2_5":19.7,"mosquito_risk":0,"arthritis_risk":5,"migraine_risk":7,"frizz_risk":1,"updated_at":"2026-03-26T17:22:51.332699+05:30"},{"city":"Trichy","state":"Tamil Nadu","latitude":10.7905,"longitude":78.7047,"temp":33.4,"humidity":44,"rain":0.0,"pressure":999.2,"uv_index":9.3,"wind_gusts":27.4,"aqi":83,"pm10":38.4,"pm2_5":29.9,"mosquito_risk":0,"arthritis_risk":5,"migraine_risk":7,"frizz_risk":1,"updated_at":"2026-03-26T17:22:51.332709+05:30"},{"city":"Salem","state":"Tamil Nadu","latitude":11.6643,"longitude":78.146,"temp":34.4,"humidity":35,"rain":0.0,"pressure":976.8,"uv_index":9.35,"wind_gusts":34.6,"aqi":123,"pm10":30.0,"pm2_5":22.9,"mosquito_risk":0,"arthritis_risk":5,"migraine_risk":7,"frizz_risk":1,"updated_at":"2026-03-26T17:22:51.332718+05:30"},{"city":"Tirunelveli","state":"Tamil Nadu","latitude":8.7139,"longitude":77.7567,"temp":35.3,"humidity":39,"rain":0.0,"pressure":1001.3,"uv_index":9.3,"wind_gusts":40.0,"aqi":53,"pm10":16.1,"pm2_5":11.0,"mosquito_risk":0,"arthritis_risk":5,"migraine_risk":7,"frizz_risk":1,"updated_at":"2026-03-26T17:22:51.332726+05:30"},{"city":"Vellore","state":"Tamil Nadu","latitude":12.9165,"longitude":79.1325,"temp":32.1,"humidity":44,"rain":0.0,"pressure":984.9,"uv_index":9.3,"wind_gusts":34.9,"aqi":86,"pm10":23.7,"pm2_5":16.7,"mosquito_risk":0,"arthritis_risk":5,"migraine_risk":7,"frizz_risk":1,"updated_at":"2026-03-26T17:22:51.332734+05:30"},{"city":"Erode","state":"Tamil Nadu","latitude":11.341,"longitude":77.7172,"temp":36.6,"humidity":29,"rain":0.0,"pressure":987.8,"uv_index":9.3,"wind_gusts":25.2,"aqi":83,"pm10":35.2,"pm2_5":27.9,"mosquito_risk":0,"arthritis_risk":5,"migraine_risk":10,"frizz_risk":0,"updated_at":"2026-03-26T17:22:51.332742+05:30"},{"city":"Kochi","state":"Kerala","latitude":9.9312,"longitude":76.2673,"temp":29.7,"humidity":77,"rain":0.0,"pressure":1006.4,"uv_index":9.2,"wind_gusts":36.4,"aqi":108,"pm10":32.6,"pm2_5":27.1,"mosquito_risk":7,"arthritis_risk":5,"migraine_risk":4,"frizz_risk":1,"updated_at":"2026-03-26T17:22:51.332751+05:30"},{"city":"Thiruvananthapuram","state":"Kerala","latitude":8.5241,"longitude":76.9366,"temp":29.7,"humidity":73,"rain":0.0,"pressure":1006.4,"uv_index":9.2,"wind_gusts":30.2,"aqi":103,"pm10":17.5,"pm2_5":12.0,"mosquito_risk":7,"arthritis_risk":5,"migraine_risk":4,"frizz_risk":1,"updated_at":"2026-03-26T17:22:51.332759+05:30"},{"city":"Kozhikode","state":"Kerala","latitude":11.2588,"longitude":75.7804,"temp":30.4,"humidity":78,"rain":0.0,"pressure":1006.0,"uv_index":9.1,"wind_gusts":31.7,"aqi":92,"pm10":36.8,"pm2_5":28.2,"mosquito_risk":3,"arthritis_risk":5,"migraine_risk":4,"frizz_risk":1,"updated_at":"2026-03-26T17:22:51.332767+05:30"},{"city":"Thrissur","state":"Kerala","latitude":10.5276,"longitude":76.2144,"temp":31.5,"humidity":67,"rain":0.0,"pressure":1005.0,"uv_index":9.15,"wind_gusts":40.0,"aqi":124,"pm10":28.2,"pm2_5":21.6,"mosquito_risk":3,"arthritis_risk":5,"migraine_risk":4,"frizz_risk":1,"updated_at":"2026-03-26T17:22:51.332775+05:30"},{"city":"Kannur","state":"Kerala","latitude":11.8745,"longitude":75.3704,"temp":31.3,"humidity":71,"rain":0.0,"pressure":1005.7,"uv_index":9.1,"wind_gusts":35.6,"aqi":99,"pm10":40.0,"pm2_5":32.1,"mosquito_risk":3,"arthritis_risk":5,"migraine_risk":4,"frizz_risk":1,"updated_at":"2026-03-26T17:22:51.332783+05:30"},{"city":"Patna","state":"Bihar","latitude":25.5941,"longitude":85.1376,"temp":32.0,"humidity":29,"rain":0.0,"pressure":1001.0,"uv_index":7.95,"wind_gusts":22.7,"aqi":163,"pm10":47.7,"pm2_5":17.8,"mosquito_risk":0,"arthritis_risk":5,"migraine_risk":4,"frizz_risk":0,"updated_at":"2026-03-26T17:22:51.332791+05:30"},{"city":"Gaya","state":"Bihar","latitude":24.7914,"longitude":85.0002,"temp":31.2,"humidity":34,"rain":0.0,"pressure":994.4,"uv_index":8.05,"wind_gusts":25.6,"aqi":132,"pm10":44.8,"pm2_5":14.2,"mosquito_risk":0,"arthritis_risk":5,"migraine_risk":7,"frizz_risk":0,"updated_at":"2026-03-26T17:22:51.332799+05:30"},{"city":"Muzaffarpur","state":"Bihar","latitude":26.1209,"longitude":85.3647,"temp":30.9,"humidity":42,"rain":0.0,"pressure":1000.9,"uv_index":7.95,"wind_gusts":17.6,"aqi":176,"pm10":43.4,"pm2_5":22.4,"mosquito_risk":0,"arthritis_risk":5,"migraine_risk":4,"frizz_risk":1,"updated_at":"2026-03-26T17:22:51.332807+05:30"},{"city":"Bhagalpur","state":"Bihar","latitude":25.2425,"longitude":87.0117,"temp":29.5,"humidity":55,"rain":0.0,"pressure":1001.8,"uv_index":8.0,"wind_gusts":16.2,"aqi":149,"pm10":45.1,"pm2_5":21.6,"mosquito_risk":4,"arthritis_risk":5,"migraine_risk":4,"frizz_risk":1,"updated_at":"2026-03-26T17:22:51.332815+05:30"},{"city":"Ranchi","state":"Jharkhand","latitude":23.3441,"longitude":85.3096,"temp":30.3,"humidity":23,"rain":0.0,"pressure":939.2,"uv_index":8.7,"wind_gusts":34.9,"aqi":115,"pm10":17.9,"pm2_5":6.1,"mosquito_risk":0,"arthritis_risk":5,"migraine_risk":7,"frizz_risk":0,"updated_at":"2026-03-26T17:22:51.332823+05:30"},{"city":"Jamshedpur","state":"Jharkhand","latitude":22.8046,"longitude":86.2029,"temp":34.4,"humidity":27,"rain":0.0,"pressure":990.9,"uv_index":8.5,"wind_gusts":26.6,"aqi":187,"pm10":67.1,"pm2_5":42.7,"mosquito_risk":0,"arthritis_risk":5,"migraine_risk":7,"frizz_risk":0,"updated_at":"2026-03-26T17:22:51.332830+05:30"},{"city":"Dhanbad","state":"Jharkhand","latitude":23.7957,"longitude":86.4304,"temp":34.1,"humidity":22,"rain":0.0,"pressure":980.1,"uv_index":8.45,"wind_gusts":23.0,"aqi":157,"pm10":44.4,"pm2_5":22.8,"mosquito_risk":0,"arthritis_risk":5,"migraine_risk":7,"frizz_risk":0,"updated_at":"2026-03-26T17:22:51.332837+05:30"},{"city":"Bokaro","state":"Jharkhand","latitude":23.6693,"longitude":86.1511,"temp":33.8,"humidity":22,"rain":0.0,"pressure":984.0,"uv_index":8.45,"wind_gusts":19.8,"aqi":149,"pm10":32.0,"pm2_5":14.9,"mosquito_risk":0,"arthritis_risk":5,"migraine_risk":7,"frizz_risk":0,"updated_at":"2026-03-26T17:22:51.332843+05:30"},{"city":"Bhubaneswar","state":"Odisha","latitude":20.2961,"longitude":85.8245,"temp":30.4,"humidity":64,"rain":0.0,"pressure":1003.7,"uv_index":8.75,"wind_gusts":18.7,"aqi":119,"pm10":59.6,"pm2_5":47.8,"mosquito_risk":3,"arthritis_risk":5,"migraine_risk":4,"frizz_risk":1,"updated_at":"2026-03-26T17:22:51.332849+05:30"},{"city":"Cuttack","state":"Odisha","latitude":20.4625,"longitude":85.8828,"temp":32.2,"humidity":55,"rain":0.0,"pressure":1005.5,"uv_index":8.8,"wind_gusts":15.8,"aqi":119,"pm10":59.6,"pm2_5":47.8,"mosquito_risk":0,"arthritis_risk":5,"migraine_risk":4,"frizz_risk":1,"updated_at":"2026-03-26T17:22:51.332855+05:30"},{"city":"Rourkela","state":"Odisha","latitude":22.2604,"longitude":84.8536,"temp":35.5,"humidity":26,"rain":0.0,"pressure":984.7,"uv_index":8.45,"wind_gusts":23.8,"aqi":158,"pm10":36.2,"pm2_5":13.2,"mosquito_risk":0,"arthritis_risk":5,"migraine_risk":10,"frizz_risk":0,"updated_at":"2026-03-26T17:22:51.332860+05:30"},{"city":"Raipur","state":"Chhattisgarh","latitude":21.2514,"longitude":81.6296,"temp":37.0,"humidity":22,"rain":0.0,"pressure":974.2,"uv_index":8.5,"wind_gusts":23.8,"aqi":177,"pm10":40.9,"pm2_5":28.9,"mosquito_risk":0,"arthritis_risk":5,"migraine_risk":10,"frizz_risk":0,"updated_at":"2026-03-26T17:22:51.332866+05:30"},{"city":"Bhilai","state":"Chhattisgarh","latitude":21.1938,"longitude":81.3509,"temp":36.8,"humidity":23,"rain":0.0,"pressure":974.5,"uv_index":8.5,"wind_gusts":22.3,"aqi":138,"pm10":40.3,"pm2_5":29.1,"mosquito_risk":0,"arthritis_risk":5,"migraine_risk":10,"frizz_risk":0,"updated_at":"2026-03-26T17:22:51.332871+05:30"},{"city":"Guwahati","state":"Assam","latitude":26.1158,"longitude":91.7086,"temp":27.8,"humidity":63,"rain":0.0,"pressure":1002.7,"uv_index":7.9,"wind_gusts":23.0,"aqi":131,"pm10":56.7,"pm2_5":39.6,"mosquito_risk":7,"arthritis_risk":5,"migraine_risk":4,"frizz_risk":1,"updated_at":"2026-03-26T17:22:51.332877+05:30"},{"city":"Agartala","state":"Tripura","latitude":23.8315,"longitude":91.2868,"temp":30.1,"humidity":55,"rain":0.0,"pressure":1006.4,"uv_index":8.2,"wind_gusts":17.6,"aqi":170,"pm10":58.3,"pm2_5":43.5,"mosquito_risk":0,"arthritis_risk":5,"migraine_risk":4,"frizz_risk":1,"updated_at":"2026-03-26T17:22:51.332883+05:30"},{"city":"Shillong","state":"Meghalaya","latitude":25.5788,"longitude":91.8933,"temp":16.7,"humidity":64,"rain":0.0,"pressure":857.1,"uv_index":8.3,"wind_gusts":26.3,"aqi":132,"pm10":52.0,"pm2_5":36.9,"mosquito_risk":3,"arthritis_risk":5,"migraine_risk":7,"frizz_risk":0,"updated_at":"2026-03-26T17:22:51.332888+05:30"},{"city":"Imphal","state":"Manipur","latitude":24.817,"longitude":93.9368,"temp":19.9,"humidity":49,"rain":0.0,"pressure":923.6,"uv_index":8.55,"wind_gusts":43.9,"aqi":134,"pm10":39.0,"pm2_5":28.1,"mosquito_risk":0,"arthritis_risk":5,"migraine_risk":7,"frizz_risk":0,"updated_at":"2026-03-26T17:22:51.332894+05:30"},{"city":"Aizawl","state":"Mizoram","latitude":23.7271,"longitude":92.7176,"temp":22.7,"humidity":53,"rain":0.0,"pressure":893.7,"uv_index":8.45,"wind_gusts":32.8,"aqi":130,"pm10":38.1,"pm2_5":25.0,"mosquito_risk":0,"arthritis_risk":5,"migraine_risk":7,"frizz_risk":0,"updated_at":"2026-03-26T17:22:51.332900+05:30"},{"city":"Kohima","state":"Nagaland","latitude":25.6701,"longitude":94.1077,"temp":16.2,"humidity":82,"rain":0.0,"pressure":855.3,"uv_index":8.45,"wind_gusts":47.5,"aqi":109,"pm10":37.7,"pm2_5":26.4,"mosquito_risk":3,"arthritis_risk":10,"migraine_risk":7,"frizz_risk":0,"updated_at":"2026-03-26T17:22:51.332906+05:30"},{"city":"Gangtok","state":"Sikkim","latitude":27.3314,"longitude":88.6138,"temp":15.2,"humidity":84,"rain":0.0,"pressure":838.0,"uv_index":8.2,"wind_gusts":18.7,"aqi":112,"pm10":59.3,"pm2_5":45.1,"mosquito_risk":3,"arthritis_risk":10,"migraine_risk":7,"frizz_risk":0,"updated_at":"2026-03-26T17:22:51.332912+05:30"},{"city":"Siliguri","state":"West Bengal","latitude":26.7271,"longitude":88.3953,"temp":22.9,"humidity":68,"rain":0.0,"pressure":995.6,"uv_index":7.9,"wind_gusts":32.4,"aqi":153,"pm10":64.7,"pm2_5":43.9,"mosquito_risk":3,"arthritis_risk":5,"migraine_risk":7,"frizz_risk":1,"updated_at":"2026-03-26T17:22:54.616684+05:30"},{"city":"Durgapur","state":"West Bengal","latitude":23.5204,"longitude":87.3119,"temp":33.8,"humidity":32,"rain":0.0,"pressure":995.2,"uv_index":8.4,"wind_gusts":21.2,"aqi":178,"pm10":76.4,"pm2_5":55.3,"mosquito_risk":0,"arthritis_risk":5,"migraine_risk":7,"frizz_risk":0,"updated_at":"2026-03-26T17:22:54.616717+05:30"},{"city":"Asansol","state":"West Bengal","latitude":23.6739,"longitude":86.9524,"temp":33.9,"humidity":30,"rain":0.0,"pressure":993.8,"uv_index":8.4,"wind_gusts":17.6,"aqi":167,"pm10":62.6,"pm2_5":40.0,"mosquito_risk":0,"arthritis_risk":5,"migraine_risk":7,"frizz_risk":0,"updated_at":"2026-03-26T17:22:54.616729+05:30"},{"city":"Pondicherry","state":"Puducherry","latitude":11.9139,"longitude":79.8145,"temp":30.1,"humidity":60,"rain":0.0,"pressure":1009.0,"uv_index":9.2,"wind_gusts":29.2,"aqi":55,"pm10":30.0,"pm2_5":17.3,"mosquito_risk":0,"arthritis_risk":0,"migraine_risk":4,"frizz_risk":1,"updated_at":"2026-03-26T17:22:54.616739+05:30"},{"city":"Port Blair","state":"Andaman and Nicobar Islands","latitude":11.6234,"longitude":92.7265,"temp":28.6,"humidity":77,"rain":0.0,"pressure":1006.6,"uv_index":9.15,"wind_gusts":29.5,"aqi":63,"pm10":12.6,"pm2_5":8.4,"mosquito_risk":7,"arthritis_risk":5,"migraine_risk":4,"frizz_risk":1,"updated_at":"2026-03-26T17:22:54.616748+05:30"},{"city":"Haridwar","state":"Uttarakhand","latitude":29.9457,"longitude":78.1642,"temp":30.5,"humidity":32,"rain":0.0,"pressure":975.9,"uv_index":6.4,"wind_gusts":48.6,"aqi":78,"pm10":25.3,"pm2_5":15.3,"mosquito_risk":0,"arthritis_risk":5,"migraine_risk":7,"frizz_risk":0,"updated_at":"2026-03-26T17:22:54.616757+05:30"},{"city":"Rishikesh","state":"Uttarakhand","latitude":30.0869,"longitude":78.2676,"temp":29.3,"humidity":34,"rain":0.0,"pressure":968.5,"uv_index":6.45,"wind_gusts":45.7,"aqi":68,"pm10":16.6,"pm2_5":12.3,"mosquito_risk":4,"arthritis_risk":5,"migraine_risk":7,"frizz_risk":0,"updated_at":"2026-03-26T17:22:54.616765+05:30"},{"city":"Nainital","state":"Uttarakhand","latitude":29.3919,"longitude":79.4542,"temp":22.5,"humidity":35,"rain":0.0,"pressure":808.7,"uv_index":7.3,"wind_gusts":65.9,"aqi":95,"pm10":14.9,"pm2_5":10.0,"mosquito_risk":0,"arthritis_risk":5,"migraine_risk":7,"frizz_risk":0,"updated_at":"2026-03-26T17:22:54.616773+05:30"},{"city":"Mussoorie","state":"Uttarakhand","latitude":30.4599,"longitude":78.0664,"temp":20.1,"humidity":44,"rain":0.0,"pressure":805.2,"uv_index":6.8,"wind_gusts":57.2,"aqi":69,"pm10":17.2,"pm2_5":13.0,"mosquito_risk":0,"arthritis_risk":5,"migraine_risk":7,"frizz_risk":0,"updated_at":"2026-03-26T17:22:54.616782+05:30"},{"city":"Dharamshala","state":"Himachal Pradesh","latitude":32.219,"longitude":76.3234,"temp":21.7,"humidity":51,"rain":0.0,"pressure":872.1,"uv_index":6.9,"wind_gusts":19.1,"aqi":92,"pm10":18.6,"pm2_5":9.8,"mosquito_risk":0,"arthritis_risk":5,"migraine_risk":7,"frizz_risk":0,"updated_at":"2026-03-26T17:22:54.616790+05:30"},{"city":"Dalhousie","state":"Himachal Pradesh","latitude":32.5387,"longitude":75.971,"temp":20.0,"humidity":40,"rain":0.0,"pressure":807.1,"uv_index":6.85,"wind_gusts":22.3,"aqi":69,"pm10":18.6,"pm2_5":9.9,"mosquito_risk":0,"arthritis_risk":5,"migraine_risk":7,"frizz_risk":0,"updated_at":"2026-03-26T17:22:54.616799+05:30"},{"city":"Patiala","state":"Punjab","latitude":30.3398,"longitude":76.3869,"temp":28.1,"humidity":45,"rain":0.0,"pressure":981.4,"uv_index":5.95,"wind_gusts":33.5,"aqi":158,"pm10":581.1,"pm2_5":65.9,"mosquito_risk":4,"arthritis_risk":5,"migraine_risk":3,"frizz_risk":0,"updated_at":"2026-03-26T17:22:54.616807+05:30"},{"city":"Bhatinda","state":"Punjab","latitude":30.211,"longitude":74.9455,"temp":27.9,"humidity":49,"rain":0.0,"pressure":987.8,"uv_index":5.9,"wind_gusts":29.2,"aqi":92,"pm10":41.4,"pm2_5":19.3,"mosquito_risk":4,"arthritis_risk":5,"migraine_risk":3,"frizz_risk":1,"updated_at":"2026-03-26T17:22:54.616815+05:30"},{"city":"Rohtak","state":"Haryana","latitude":28.8955,"longitude":76.6066,"temp":29.4,"humidity":47,"rain":0.0,"pressure":984.3,"uv_index":5.8,"wind_gusts":20.9,"aqi":186,"pm10":246.8,"pm2_5":42.0,"mosquito_risk":4,"arthritis_risk":5,"migraine_risk":3,"frizz_risk":1,"updated_at":"2026-03-26T17:22:54.616823+05:30"},{"city":"Panipat","state":"Haryana","latitude":29.3909,"longitude":76.9635,"temp":29.9,"humidity":38,"rain":0.0,"pressure":982.9,"uv_index":6.15,"wind_gusts":23.4,"aqi":446,"pm10":462.9,"pm2_5":59.6,"mosquito_risk":4,"arthritis_risk":5,"migraine_risk":7,"frizz_risk":0,"updated_at":"2026-03-26T17:22:54.616831+05:30"},{"city":"Mathura","state":"Uttar Pradesh","latitude":27.4924,"longitude":77.6737,"temp":32.3,"humidity":34,"rain":0.0,"pressure":988.3,"uv_index":6.8,"wind_gusts":34.9,"aqi":169,"pm10":292.4,"pm2_5":43.9,"mosquito_risk":0,"arthritis_risk":5,"migraine_risk":7,"frizz_risk":0,"updated_at":"2026-03-26T17:22:54.616838+05:30"},{"city":"Vrindavan","state":"Uttar Pradesh","latitude":27.5823,"longitude":77.7027,"temp":31.6,"humidity":38,"rain":0.0,"pressure":988.8,"uv_index":6.75,"wind_gusts":33.1,"aqi":169,"pm10":292.4,"pm2_5":43.9,"mosquito_risk":0,"arthritis_risk":5,"migraine_risk":7,"frizz_risk":0,"updated_at":"2026-03-26T17:22:54.616846+05:30"},{"city":"Ayodhya","state":"Uttar Pradesh","latitude":26.7922,"longitude":82.1998,"temp":34.2,"humidity":22,"rain":0.0,"pressure":995.5,"uv_index":7.3,"wind_gusts":32.4,"aqi":140,"pm10":38.3,"pm2_5":20.4,"mosquito_risk":0,"arthritis_risk":5,"migraine_risk":7,"frizz_risk":0,"updated_at":"2026-03-26T17:22:54.616854+05:30"},{"city":"Ratlam","state":"Madhya Pradesh","latitude":23.3315,"longitude":75.0367,"temp":33.9,"humidity":26,"rain":0.0,"pressure":955.8,"uv_index":8.05,"wind_gusts":28.8,"aqi":49,"pm10":8.1,"pm2_5":4.1,"mosquito_risk":0,"arthritis_risk":5,"migraine_risk":7,"frizz_risk":0,"updated_at":"2026-03-26T17:22:54.616862+05:30"},{"city":"Sagar","state":"Madhya Pradesh","latitude":23.8388,"longitude":78.7378,"temp":35.1,"humidity":19,"rain":0.0,"pressure":950.9,"uv_index":8.1,"wind_gusts":24.8,"aqi":87,"pm10":23.2,"pm2_5":8.3,"mosquito_risk":0,"arthritis_risk":5,"migraine_risk":10,"frizz_risk":0,"updated_at":"2026-03-26T17:22:54.616870+05:30"},{"city":"Satna","state":"Madhya Pradesh","latitude":24.6005,"longitude":80.8322,"temp":35.0,"humidity":20,"rain":0.0,"pressure":972.2,"uv_index":8.05,"wind_gusts":26.6,"aqi":113,"pm10":61.2,"pm2_5":14.6,"mosquito_risk":0,"arthritis_risk":5,"migraine_risk":7,"frizz_risk":0,"updated_at":"2026-03-26T17:22:54.616878+05:30"},{"city":"Akola","state":"Maharashtra","latitude":20.7002,"longitude":77.0082,"temp":37.7,"humidity":20,"rain":0.0,"pressure":974.8,"uv_index":8.4,"wind_gusts":28.1,"aqi":117,"pm10":23.4,"pm2_5":15.9,"mosquito_risk":0,"arthritis_risk":5,"migraine_risk":10,"frizz_risk":0,"updated_at":"2026-03-26T17:22:54.616887+05:30"},{"city":"Amravati","state":"Maharashtra","latitude":20.9374,"longitude":77.7796,"temp":37.7,"humidity":19,"rain":0.0,"pressure":966.8,"uv_index":8.4,"wind_gusts":25.9,"aqi":122,"pm10":21.5,"pm2_5":14.3,"mosquito_risk":0,"arthritis_risk":5,"migraine_risk":10,"frizz_risk":0,"updated_at":"2026-03-26T17:22:54.616896+05:30"},{"city":"Latur","state":"Maharashtra","latitude":18.4088,"longitude":76.5604,"temp":35.4,"humidity":22,"rain":0.0,"pressure":940.0,"uv_index":8.75,"wind_gusts":22.0,"aqi":89,"pm10":22.5,"pm2_5":17.3,"mosquito_risk":0,"arthritis_risk":5,"migraine_risk":10,"frizz_risk":0,"updated_at":"2026-03-26T17:22:54.616904+05:30"},{"city":"Nanded","state":"Maharashtra","latitude":19.1383,"longitude":77.3091,"temp":38.4,"humidity":19,"rain":0.0,"pressure":967.9,"uv_index":8.6,"wind_gusts":25.2,"aqi":86,"pm10":19.6,"pm2_5":13.6,"mosquito_risk":0,"arthritis_risk":5,"migraine_risk":10,"frizz_risk":0,"updated_at":"2026-03-26T17:22:54.616912+05:30"},{"city":"Gulbarga","state":"Karnataka","latitude":17.3297,"longitude":76.8343,"temp":35.3,"humidity":29,"rain":0.0,"pressure":959.2,"uv_index":8.85,"wind_gusts":16.9,"aqi":131,"pm10":31.5,"pm2_5":24.8,"mosquito_risk":0,"arthritis_risk":5,"migraine_risk":10,"frizz_risk":0,"updated_at":"2026-03-26T17:22:54.616919+05:30"},{"city":"Bidar","state":"Karnataka","latitude":17.9104,"longitude":77.5199,"temp":33.8,"humidity":29,"rain":0.0,"pressure":936.6,"uv_index":8.85,"wind_gusts":20.5,"aqi":103,"pm10":23.9,"pm2_5":18.1,"mosquito_risk":0,"arthritis_risk":5,"migraine_risk":7,"frizz_risk":0,"updated_at":"2026-03-26T17:22:54.616927+05:30"},{"city":"Hospet","state":"Karnataka","latitude":15.2689,"longitude":76.3909,"temp":36.0,"humidity":26,"rain":0.0,"pressure":955.8,"uv_index":9.05,"wind_gusts":28.1,"aqi":119,"pm10":31.7,"pm2_5":25.3,"mosquito_risk":0,"arthritis_risk":5,"migraine_risk":10,"frizz_risk":0,"updated_at":"2026-03-26T17:22:54.616935+05:30"},{"city":"Tirupur","state":"Tamil Nadu","latitude":11.1085,"longitude":77.3411,"temp":35.3,"humidity":30,"rain":0.0,"pressure":974.4,"uv_index":9.4,"wind_gusts":32.4,"aqi":96,"pm10":35.3,"pm2_5":28.3,"mosquito_risk":0,"arthritis_risk":5,"migraine_risk":10,"frizz_risk":0,"updated_at":"2026-03-26T17:22:54.616942+05:30"},{"city":"Alappuzha","state":"Kerala","latitude":9.4981,"longitude":76.3388,"temp":29.7,"humidity":77,"rain":0.0,"pressure":1006.4,"uv_index":9.15,"wind_gusts":30.2,"aqi":103,"pm10":27.7,"pm2_5":21.9,"mosquito_risk":7,"arthritis_risk":5,"migraine_risk":4,"frizz_risk":1,"updated_at":"2026-03-26T17:22:54.616950+05:30"},{"city":"Munnar","state":"Kerala","latitude":10.0889,"longitude":77.0595,"temp":30.6,"humidity":37,"rain":0.0,"pressure":858.7,"uv_index":9.7,"wind_gusts":28.8,"aqi":86,"pm10":24.3,"pm2_5":16.4,"mosquito_risk":0,"arthritis_risk":5,"migraine_risk":7,"frizz_risk":0,"updated_at":"2026-03-26T17:22:54.616959+05:30"},{"city":"Silchar","state":"Assam","latitude":24.8333,"longitude":92.7789,"temp":29.2,"humidity":55,"rain":0.0,"pressure":1005.3,"uv_index":8.25,"wind_gusts":16.6,"aqi":155,"pm10":57.3,"pm2_5":41.3,"mosquito_risk":4,"arthritis_risk":5,"migraine_risk":4,"frizz_risk":1,"updated_at":"2026-03-26T17:22:54.616967+05:30"},{"city":"Dibrugarh","state":"Assam","latitude":27.4728,"longitude":94.912,"temp":26.4,"humidity":59,"rain":0.0,"pressure":996.9,"uv_index":8.05,"wind_gusts":8.6,"aqi":107,"pm10":42.5,"pm2_5":29.7,"mosquito_risk":4,"arthritis_risk":5,"migraine_risk":7,"frizz_risk":1,"updated_at":"2026-03-26T17:22:54.616974+05:30"}]