[{"city":"Delhi","state":"Delhi","latitude":28.6139,"longitude":77.209,"temp":33.4,"humidity":23,"rain":0.0,"pressure":981.7,"uv_index":5.95,"wind_gusts":30.2,"aqi":217,"pm10":445.2,"pm2_5":67.1,"mosquito_risk":0,"arthritis_risk":5,"migraine_risk":3,"frizz_risk":0,"updated_at":"2026-03-12T17:04:23.380368+05:30"},{"city":"Mumbai","state":"Maharashtra","latitude":19.076,"longitude":72.8777,"temp":28.3,"humidity":79,"rain":0.0,"pressure":1005.7,"uv_index":7.6,"wind_gusts":27.7,"aqi":238,"pm10":78.7,"pm2_5":74.5,"mosquito_risk":7,"arthritis_risk":5,"migraine_risk":4,"frizz_risk":1,"updated_at":"2026-03-12T17:04:23.380408+05:30"},{"city":"Bangalore","state":"Karnataka","latitude":12.9716,"longitude":77.5946,"temp":31.5,"humidity":22,"rain":0.0,"pressure":910.8,"uv_index":9.3,"wind_gusts":32.8,"aqi":69,"pm10":23.8,"pm2_5":18.9,"mosquito_risk":0,"arthritis_risk":5,"migraine_risk":7,"frizz_risk":0,"updated_at":"2026-03-12T17:04:23.380423+05:30"},{"city":"Hyderabad","state":"Telangana","latitude":17.385,"longitude":78.4867,"temp":34.7,"humidity":23,"rain":0.0,"pressure":952.2,"uv_index":8.65,"wind_gusts":23.4,"aqi":154,"pm10":32.8,"pm2_5":23.2,"mosquito_risk":0,"arthritis_risk":5,"migraine_risk":7,"frizz_risk":0,"updated_at":"2026-03-12T17:04:23.380433+05:30"},{"city":"Chennai","state":"Tamil Nadu","latitude":13.0827,"longitude":80.2707,"temp":30.7,"humidity":60,"rain":0.0,"pressure":1006.3,"uv_index":9.0,"wind_gusts":29.5,"aqi":77,"pm10":26.3,"pm2_5":22.2,"mosquito_risk":0,"arthritis_risk":5,"migraine_risk":4,"frizz_risk":1,"updated_at":"2026-03-12T17:04:23.380442+05:30"},{"city":"Kolkata","state":"West Bengal","latitude":22.5726,"longitude":88.3639,"temp":27.6,"humidity":74,"rain":0.0,"pressure":1005.9,"uv_index":7.95,"wind_gusts":20.9,"aqi":145,"pm10":62.9,"pm2_5":54.9,"mosquito_risk":7,"arthritis_risk":5,"migraine_risk":4,"frizz_risk":1,"updated_at":"2026-03-12T17:04:23.380451+05:30"},{"city":"Pune","state":"Maharashtra","latitude":18.5204,"longitude":73.8567,"temp":37.3,"humidity":19,"rain":0.0,"pressure":946.8,"uv_index":8.15,"wind_gusts":25.9,"aqi":143,"pm10":23.6,"pm2_5":20.1,"mosquito_risk":0,"arthritis_risk":5,"migraine_risk":10,"frizz_risk":0,"updated_at":"2026-03-12T17:04:23.380462+05:30"},{"city":"Ahmedabad","state":"Gujarat","latitude":23.0225,"longitude":72.5714,"temp":37.9,"humidity":11,"rain":0.0,"pressure":1000.9,"uv_index":7.45,"wind_gusts":30.6,"aqi":72,"pm10":23.1,"pm2_5":13.4,"mosquito_risk":0,"arthritis_risk":5,"migraine_risk":7,"frizz_risk":0,"updated_at":"2026-03-12T17:04:23.380470+05:30"},{"city":"Jaipur","state":"Rajasthan","latitude":26.9124,"longitude":75.7873,"temp":34.3,"humidity":11,"rain":0.0,"pressure":959.3,"uv_index":6.4,"wind_gusts":42.8,"aqi":104,"pm10":161.6,"pm2_5":24.6,"mosquito_risk":0,"arthritis_risk":5,"migraine_risk":7,"frizz_risk":1,"updated_at":"2026-03-12T17:04:23.380478+05:30"},{"city":"Lucknow","state":"Uttar Pradesh","latitude":26.8467,"longitude":80.9462,"temp":33.6,"humidity":30,"rain":0.0,"pressure":991.9,"uv_index":6.5,"wind_gusts":28.1,"aqi":154,"pm10":186.7,"pm2_5":45.5,"mosquito_risk":0,"arthritis_risk":5,"migraine_risk":7,"frizz_risk":0,"updated_at":"2026-03-12T17:04:23.380486+05:30"},{"city":"Kanpur","state":"Uttar Pradesh","latitude":26.4499,"longitude":80.3319,"temp":33.0,"humidity":43,"rain":0.0,"pressure":990.2,"uv_index":6.0,"wind_gusts":18.0,"aqi":195,"pm10":346.5,"pm2_5":49.9,"mosquito_risk":0,"arthritis_risk":5,"migraine_risk":3,"frizz_risk":1,"updated_at":"2026-03-12T17:04:23.380493+05:30"},{"city":"Chandigarh","state":"Chandigarh","latitude":30.7333,"longitude":76.7794,"temp":28.8,"humidity":53,"rain":0.0,"pressure":968.0,"uv_index":5.95,"wind_gusts":32.0,"aqi":96,"pm10":59.0,"pm2_5":24.9,"mosquito_risk":4,"arthritis_risk":5,"migraine_risk":3,"frizz_risk":1,"updated_at":"2026-03-12T17:04:23.380501+05:30"},{"city":"Srinagar","state":"Jammu and Kashmir","latitude":34.0837,"longitude":74.7973,"temp":12.6,"humidity":80,"rain":0.0,"pressure":839.9,"uv_index":6.35,"wind_gusts":22.3,"aqi":104,"pm10":6.0,"pm2_5":5.5,"mosquito_risk":3,"arthritis_risk":5,"migraine_risk":7,"frizz_risk":0,"updated_at":"2026-03-12T17:04:23.380508+05:30"},{"city":"Jammu","state":"Jammu and Kashmir","latitude":32.7266,"longitude":74.857,"temp":25.9,"humidity":60,"rain":0.0,"pressure":973.6,"uv_index":6.05,"wind_gusts":39.6,"aqi":80,"pm10":63.1,"pm2_5":22.9,"mosquito_risk":4,"arthritis_risk":5,"migraine_risk":7,"frizz_risk":1,"updated_at":"2026-03-12T17:04:23.380515+05:30"},{"city":"Amritsar","state":"Punjab","latitude":31.634,"longitude":74.8723,"temp":27.1,"humidity":56,"rain":0.0,"pressure":981.2,"uv_index":6.65,"wind_gusts":32.4,"aqi":155,"pm10":61.2,"pm2_5":27.3,"mosquito_risk":4,"arthritis_risk":5,"migraine_risk":7,"frizz_risk":1,"updated_at":"2026-03-12T17:04:23.380522+05:30"},{"city":"Ludhiana","state":"Punjab","latitude":30.901,"longitude":75.8573,"temp":29.8,"humidity":44,"rain":0.0,"pressure":978.5,"uv_index":6.2,"wind_gusts":59.4,"aqi":156,"pm10":65.2,"pm2_5":37.6,"mosquito_risk":4,"arthritis_risk":5,"migraine_risk":7,"frizz_risk":1,"updated_at":"2026-03-12T17:04:23.380529+05:30"},{"city":"Jalandhar","state":"Punjab","latitude":31.326,"longitude":75.5762,"temp":28.8,"humidity":45,"rain":0.0,"pressure":979.8,"uv_index":6.4,"wind_gusts":31.7,"aqi":150,"pm10":68.0,"pm2_5":29.3,"mosquito_risk":4,"arthritis_risk":5,"migraine_risk":7,"frizz_risk":0,"updated_at":"2026-03-12T17:04:23.380538+05:30"},{"city":"Dehradun","state":"Uttarakhand","latitude":30.6284,"longitude":78.0322,"temp":19.3,"humidity":49,"rain":0.0,"pressure":831.2,"uv_index":5.85,"wind_gusts":37.1,"aqi":59,"pm10":39.1,"pm2_5":13.4,"mosquito_risk":0,"arthritis_risk":5,"migraine_risk":3,"frizz_risk":0,"updated_at":"2026-03-12T17:04:23.380545+05:30"},{"city":"Shimla","state":"Himachal Pradesh","latitude":31.1048,"longitude":77.1734,"temp":18.3,"humidity":45,"rain":0.0,"pressure":786.0,"uv_index":6.5,"wind_gusts":42.5,"aqi":71,"pm10":45.4,"pm2_5":14.3,"mosquito_risk":0,"arthritis_risk":5,"migraine_risk":7,"frizz_risk":0,"updated_at":"2026-03-12T17:04:23.380552+05:30"},{"city":"Manali","state":"Himachal Pradesh","latitude":32.2396,"longitude":77.1887,"temp":13.9,"humidity":80,"rain":0.0,"pressure":819.4,"uv_index":3.7,"wind_gusts":44.6,"aqi":46,"pm10":15.1,"pm2_5":4.7,"mosquito_risk":3,"arthritis_risk":5,"migraine_risk":3,"frizz_risk":0,"updated_at":"2026-03-12T17:04:23.380559+05:30"},{"city":"Gurgaon","state":"Haryana","latitude":28.4595,"longitude":77.0266,"temp":32.9,"humidity":26,"rain":0.0,"pressure":980.1,"uv_index":6.15,"wind_gusts":31.0,"aqi":864,"pm10":1315.0,"pm2_5":129.0,"mosquito_risk":0,"arthritis_risk":5,"migraine_risk":7,"frizz_risk":0,"updated_at":"2026-03-12T17:04:23.380566+05:30"},{"city":"Noida","state":"Uttar Pradesh","latitude":28.5355,"longitude":77.391,"temp":33.9,"humidity":22,"rain":0.0,"pressure":983.1,"uv_index":6.0,"wind_gusts":29.9,"aqi":864,"pm10":1315.0,"pm2_5":129.0,"mosquito_risk":0,"arthritis_risk":5,"migraine_risk":3,"frizz_risk":0,"updated_at":"2026-03-12T17:04:23.380573+05:30"},{"city":"Ghaziabad","state":"Uttar Pradesh","latitude":28.6692,"longitude":77.4538,"temp":32.5,"humidity":30,"rain":0.0,"pressure":981.3,"uv_index":5.95,"wind_gusts":26.3,"aqi":171,"pm10":322.2,"pm2_5":59.8,"mosquito_risk":0,"arthritis_risk":5,"migraine_risk":3,"frizz_risk":0,"updated_at":"2026-03-12T17:04:23.380580+05:30"},{"city":"Faridabad","state":"Haryana","latitude":28.4089,"longitude":77.3178,"temp":33.4,"humidity":21,"rain":0.0,"pressure":982.2,"uv_index":6.2,"wind_gusts":29.9,"aqi":864,"pm10":1315.0,"pm2_5":129.0,"mosquito_risk":0,"arthritis_risk":5,"migraine_risk":7,"frizz_risk":0,"updated_at":"2026-03-12T17:04:23.380587+05:30"},{"city":"Meerut","state":"Uttar Pradesh","latitude":28.9845,"longitude":77.7064,"temp":31.7,"humidity":35,"rain":0.0,"pressure":980.0,"uv_index":5.95,"wind_gusts":24.5,"aqi":171,"pm10":322.2,"pm2_5":59.8,"mosquito_risk":0,"arthritis_risk":5,"migraine_risk":3,"frizz_risk":0,"updated_at":"2026-03-12T17:04:23.380593+05:30"},{"city":"Agra","state":"Uttar Pradesh","latitude":27.1767,"longitude":78.0081,"temp":35.2,"humidity":14,"rain":0.0,"pressure":985.6,"uv_index":6.2,"wind_gusts":31.7,"aqi":426,"pm10":612.8,"pm2_5":58.4,"mosquito_risk":0,"arthritis_risk":5,"migraine_risk":10,"frizz_risk":0,"updated_at":"2026-03-12T17:04:23.380600+05:30"},{"city":"Varanasi","state":"Uttar Pradesh","latitude":25.3176,"longitude":82.9739,"temp":32.7,"humidity":39,"rain":0.0,"pressure":996.1,"uv_index":7.3,"wind_gusts":23.8,"aqi":140,"pm10":62.4,"pm2_5":23.7,"mosquito_risk":0,"arthritis_risk":5,"migraine_risk":7,"frizz_risk":1,"updated_at":"2026-03-12T17:04:23.380609+05:30"},{"city":"Prayagraj","state":"Uttar Pradesh","latitude":25.4358,"longitude":81.8463,"temp":32.9,"humidity":35,"rain":0.0,"pressure":994.5,"uv_index":6.6,"wind_gusts":23.0,"aqi":142,"pm10":49.9,"pm2_5":20.7,"mosquito_risk":0,"arthritis_risk":5,"migraine_risk":7,"frizz_risk":0,"updated_at":"2026-03-12T17:04:23.380616+05:30"},{"city":"Gorakhpur","state":"Uttar Pradesh","latitude":26.7606,"longitude":83.3732,"temp":31.0,"humidity":45,"rain":0.0,"pressure":995.3,"uv_index":7.05,"wind_gusts":18.4,"aqi":224,"pm10":126.2,"pm2_5":60.3,"mosquito_risk":0,"arthritis_risk":5,"migraine_risk":7,"frizz_risk":1,"updated_at":"2026-03-12T17:04:23.380623+05:30"},{"city":"Bareilly","state":"Uttar Pradesh","latitude":28.367,"longitude":79.4304,"temp":31.6,"humidity":41,"rain":0.0,"pressure":984.9,"uv_index":6.25,"wind_gusts":23.4,"aqi":124,"pm10":124.3,"pm2_5":45.4,"mosquito_risk":0,"arthritis_risk":5,"migraine_risk":7,"frizz_risk":1,"updated_at":"2026-03-12T17:04:23.380629+05:30"},{"city":"Aligarh","state":"Uttar Pradesh","latitude":27.8974,"longitude":78.088,"temp":34.1,"humidity":20,"rain":0.0,"pressure":983.4,"uv_index":5.9,"wind_gusts":29.9,"aqi":504,"pm10":642.6,"pm2_5":83.6,"mosquito_risk":0,"arthritis_risk":5,"migraine_risk":3,"frizz_risk":0,"updated_at":"2026-03-12T17:04:23.380636+05:30"},{"city":"Moradabad","state":"Uttar Pradesh","latitude":28.8386,"longitude":78.7733,"temp":31.7,"humidity":35,"rain":0.0,"pressure":982.0,"uv_index":6.05,"wind_gusts":26.3,"aqi":126,"pm10":202.1,"pm2_5":58.6,"mosquito_risk":0,"arthritis_risk":5,"migraine_risk":7,"frizz_risk":0,"updated_at":"2026-03-12T17:04:23.380642+05:30"},{"city":"Saharanpur","state":"Uttar Pradesh","latitude":29.9637,"longitude":77.546,"temp":29.7,"humidity":46,"rain":0.0,"pressure":974.7,"uv_index":5.25,"wind_gusts":24.8,"aqi":145,"pm10":102.2,"pm2_5":38.6,"mosquito_risk":4,"arthritis_risk":5,"migraine_risk":3,"frizz_risk":1,"updated_at":"2026-03-12T17:04:23.380651+05:30"},{"city":"Jhansi","state":"Uttar Pradesh","latitude":25.4484,"longitude":78.5685,"temp":37.0,"humidity":16,"rain":0.0,"pressure":976.3,"uv_index":6.7,"wind_gusts":29.9,"aqi":92,"pm10":18.7,"pm2_5":10.9,"mosquito_risk":0,"arthritis_risk":5,"migraine_risk":10,"frizz_risk":0,"updated_at":"2026-03-12T17:04:26.596791+05:30"},{"city":"Surat","state":"Gujarat","latitude":21.1702,"longitude":72.8311,"temp":35.1,"humidity":30,"rain":0.0,"pressure":1004.9,"uv_index":7.3,"wind_gusts":26.3,"aqi":150,"pm10":44.4,"pm2_5":42.7,"mosquito_risk":0,"arthritis_risk":5,"migraine_risk":7,"frizz_risk":0,"updated_at":"2026-03-12T17:04:26.596826+05:30"},{"city":"Vadodara","state":"Gujarat","latitude":22.3072,"longitude":73.1812,"temp":39.0,"humidity":16,"rain":0.0,"pressure":1002.5,"uv_index":7.45,"wind_gusts":26.6,"aqi":119,"pm10":26.8,"pm2_5":24.4,"mosquito_risk":0,"arthritis_risk":5,"migraine_risk":7,"frizz_risk":0,"updated_at":"2026-03-12T17:04:26.596839+05:30"},{"city":"Rajkot","state":"Gujarat","latitude":22.3039,"longitude":70.8022,"temp":37.2,"humidity":11,"rain":0.0,"pressure":993.4,"uv_index":7.3,"wind_gusts":31.3,"aqi":62,"pm10":27.5,"pm2_5":17.0,"mosquito_risk":0,"arthritis_risk":5,"migraine_risk":10,"frizz_risk":0,"updated_at":"2026-03-12T17:04:26.596848+05:30"},{"city":"Thane","state":"Maharashtra","latitude":19.2183,"longitude":72.9781,"temp":30.5,"humidity":64,"rain":0.0,"pressure":1005.4,"uv_index":7.6,"wind_gusts":41.4,"aqi":238,"pm10":78.7,"pm2_5":74.5,"mosquito_risk":3,"arthritis_risk":5,"migraine_risk":4,"frizz_risk":1,"updated_at":"2026-03-12T17:04:26.596857+05:30"},{"city":"Nagpur","state":"Maharashtra","latitude":21.1458,"longitude":79.0882,"temp":36.5,"humidity":16,"rain":0.0,"pressure":971.6,"uv_index":8.0,"wind_gusts":16.6,"aqi":131,"pm10":31.3,"pm2_5":20.2,"mosquito_risk":0,"arthritis_risk":5,"migraine_risk":10,"frizz_risk":0,"updated_at":"2026-03-12T17:04:26.596867+05:30"},{"city":"Nashik","state":"Maharashtra","latitude":19.9975,"longitude":73.7898,"temp":35.6,"humidity":17,"rain":0.0,"pressure":944.5,"uv_index":7.8,"wind_gusts":33.8,"aqi":124,"pm10":12.6,"pm2_5":10.5,"mosquito_risk":0,"arthritis_risk":5,"migraine_risk":10,"frizz_risk":0,"updated_at":"2026-03-12T17:04:26.596876+05:30"},{"city":"Aurangabad","state":"Maharashtra","latitude":19.8762,"longitude":75.3433,"temp":36.5,"humidity":17,"rain":0.0,"pressure":943.0,"uv_index":8.3,"wind_gusts":20.5,"aqi":119,"pm10":12.8,"pm2_5":10.4,"mosquito_risk":0,"arthritis_risk":5,"migraine_risk":10,"frizz_risk":0,"updated_at":"2026-03-12T17:04:26.596885+05:30"},{"city":"Solapur","state":"Maharashtra","latitude":17.6599,"longitude":75.9064,"temp":34.9,"humidity":26,"rain":0.0,"pressure":955.9,"uv_index":8.5,"wind_gusts":18.0,"aqi":131,"pm10":27.8,"pm2_5":22.6,"mosquito_risk":0,"arthritis_risk":5,"migraine_risk":7,"frizz_risk":0,"updated_at":"2026-03-12T17:04:26.596894+05:30"},{"city":"Kolhapur","state":"Maharashtra","latitude":16.705,"longitude":74.2433,"temp":34.8,"humidity":21,"rain":0.0,"pressure":946.6,"uv_index":8.65,"wind_gusts":27.7,"aqi":151,"pm10":31.8,"pm2_5":26.4,"mosquito_risk":0,"arthritis_risk":5,"migraine_risk":7,"frizz_risk":0,"updated_at":"2026-03-12T17:04:26.596903+05:30"},{"city":"Goa","state":"Goa","latitude":15.2993,"longitude":74.124,"temp":30.6,"humidity":67,"rain":0.0,"pressure":995.3,"uv_index":8.7,"wind_gusts":33.5,"aqi":145,"pm10":47.0,"pm2_5":40.6,"mosquito_risk":3,"arthritis_risk":5,"migraine_risk":7,"frizz_risk":1,"updated_at":"2026-03-12T17:04:26.596912+05:30"},{"city":"Jodhpur","state":"Rajasthan","latitude":26.2389,"longitude":73.0243,"temp":36.4,"humidity":18,"rain":0.0,"pressure":981.9,"uv_index":6.55,"wind_gusts":25.9,"aqi":69,"pm10":101.0,"pm2_5":22.6,"mosquito_risk":0,"arthritis_risk":5,"migraine_risk":10,"frizz_risk":0,"updated_at":"2026-03-12T17:04:26.596921+05:30"},{"city":"Udaipur","state":"Rajasthan","latitude":24.5854,"longitude":73.7125,"temp":33.5,"humidity":10,"rain":0.0,"pressure":946.8,"uv_index":7.55,"wind_gusts":38.5,"aqi":93,"pm10":7.3,"pm2_5":6.2,"mosquito_risk":0,"arthritis_risk":5,"migraine_risk":7,"frizz_risk":1,"updated_at":"2026-03-12T17:04:26.596929+05:30"},{"city":"Kota","state":"Rajasthan","latitude":25.2138,"longitude":75.8648,"temp":36.2,"humidity":10,"rain":0.0,"pressure":977.6,"uv_index":6.75,"wind_gusts":34.2,"aqi":88,"pm10":9.1,"pm2_5":8.7,"mosquito_risk":0,"arthritis_risk":5,"migraine_risk":10,"frizz_risk":1,"updated_at":"2026-03-12T17:04:26.596938+05:30"},{"city":"Bikaner","state":"Rajasthan","latitude":28.0229,"longitude":73.3119,"temp":34.8,"humidity":23,"rain":0.0,"pressure":981.1,"uv_index":6.15,"wind_gusts":28.4,"aqi":95,"pm10":88.2,"pm2_5":28.1,"mosquito_risk":0,"arthritis_risk":5,"migraine_risk":7,"frizz_risk":0,"updated_at":"2026-03-12T17:04:26.596948+05:30"},{"city":"Ajmer","state":"Rajasthan","latitude":26.4499,"longitude":74.6399,"temp":34.1,"humidity":13,"rain":0.0,"pressure":954.2,"uv_index":6.75,"wind_gusts":34.2,"aqi":78,"pm10":32.5,"pm2_5":12.2,"mosquito_risk":0,"arthritis_risk":5,"migraine_risk":7,"frizz_risk":0,"updated_at":"2026-03-12T17:04:26.596956+05:30"},{"city":"Gwalior","state":"Madhya Pradesh","latitude":26.2183,"longitude":78.1828,"temp":34.3,"humidity":17,"rain":0.0,"pressure":981.9,"uv_index":6.3,"wind_gusts":33.8,"aqi":82,"pm10":12.1,"pm2_5":9.3,"mosquito_risk":0,"arthritis_risk":5,"migraine_risk":7,"frizz_risk":0,"updated_at":"2026-03-12T17:04:26.596965+05:30"},{"city":"Indore","state":"Madhya Pradesh","latitude":22.7196,"longitude":75.8577,"temp":34.8,"humidity":16,"rain":0.0,"pressure":947.7,"uv_index":7.75,"wind_gusts":29.2,"aqi":101,"pm10":11.1,"pm2_5":9.7,"mosquito_risk":0,"arthritis_risk":5,"migraine_risk":7,"frizz_risk":0,"updated_at":"2026-03-12T17:04:26.596973+05:30"},{"city":"Bhopal","state":"Madhya Pradesh","latitude":23.2599,"longitude":77.4126,"temp":34.5,"humidity":19,"rain":0.0,"pressure":953.3,"uv_index":7.6,"wind_gusts":28.8,"aqi":110,"pm10":18.5,"pm2_5":11.6,"mosquito_risk":0,"arthritis_risk":5,"migraine_risk":7,"frizz_risk":0,"updated_at":"2026-03-12T17:04:26.596982+05:30"},{"city":"Jabalpur","state":"Madhya Pradesh","latitude":23.1815,"longitude":79.9864,"temp":35.0,"humidity":20,"rain":0.0,"pressure":960.6,"uv_index":7.75,"wind_gusts":20.5,"aqi":104,"pm10":27.9,"pm2_5":11.8,"mosquito_risk":0,"arthritis_risk":5,"migraine_risk":7,"frizz_risk":0,"updated_at":"2026-03-12T17:04:26.596991+05:30"},{"city":"Ujjain","state":"Madhya Pradesh","latitude":23.1765,"longitude":75.7885,"temp":34.1,"humidity":17,"rain":0.0,"pressure":953.3,"uv_index":7.65,"wind_gusts":27.7,"aqi":96,"pm10":11.0,"pm2_5":10.1,"mosquito_risk":0,"arthritis_risk":5,"migraine_risk":7,"frizz_risk":0,"updated_at":"2026-03-12T17:04:26.597000+05:30"},{"city":"Visakhapatnam","state":"Andhra Pradesh","latitude":17.6868,"longitude":83.2185,"temp":29.2,"humidity":68,"rain":0.0,"pressure":1002.3,"uv_index":8.65,"wind_gusts":40.3,"aqi":91,"pm10":36.8,"pm2_5":32.5,"mosquito_risk":7,"arthritis_risk":5,"migraine_risk":4,"frizz_risk":1,"updated_at":"2026-03-12T17:04:26.597008+05:30"},{"city":"Vijayawada","state":"Andhra Pradesh","latitude":16.5062,"longitude":80.648,"temp":36.8,"humidity":22,"rain":0.0,"pressure":1000.2,"uv_index":8.7,"wind_gusts":33.1,"aqi":75,"pm10":36.4,"pm2_5":28.7,"mosquito_risk":0,"arthritis_risk":5,"migraine_risk":7,"frizz_risk":0,"updated_at":"2026-03-12T17:04:26.597014+05:30"},{"city":"Guntur","state":"Andhra Pradesh","latitude":16.3067,"longitude":80.4365,"temp":34.4,"humidity":41,"rain":0.0,"pressure":1002.0,"uv_index":8.7,"wind_gusts":36.0,"aqi":77,"pm10":34.6,"pm2_5":25.7,"mosquito_risk":0,"arthritis_risk":5,"migraine_risk":4,"frizz_risk":1,"updated_at":"2026-03-12T17:04:26.597021+05:30"},{"city":"Nellore","state":"Andhra Pradesh","latitude":14.4426,"longitude":79.9865,"temp":33.2,"humidity":43,"rain":0.0,"pressure":1004.5,"uv_index":8.9,"wind_gusts":28.1,"aqi":70,"pm10":28.5,"pm2_5":23.6,"mosquito_risk":0,"arthritis_risk":5,"migraine_risk":4,"frizz_risk":1,"updated_at":"2026-03-12T17:04:26.597028+05:30"},{"city":"Kurnool","state":"Andhra Pradesh","latitude":15.8281,"longitude":78.0373,"temp":37.2,"humidity":19,"rain":0.0,"pressure":974.8,"uv_index":8.65,"wind_gusts":25.9,"aqi":97,"pm10":27.6,"pm2_5":21.4,"mosquito_risk":0,"arthritis_risk":5,"migraine_risk":10,"frizz_risk":0,"updated_at":"2026-03-12T17:04:26.597036+05:30"},{"city":"Kakinada","state":"Andhra Pradesh","latitude":16.9891,"longitude":82.2475,"temp":31.4,"humidity":60,"rain":0.0,"pressure":1005.6,"uv_index":8.65,"wind_gusts":41.0,"aqi":70,"pm10":27.4,"pm2_5":22.4,"mosquito_risk":0,"arthritis_risk":5,"migraine_risk":4,"frizz_risk":1,"updated_at":"2026-03-12T17:04:26.597043+05:30"},{"city":"Tirupati","state":"Andhra Pradesh","latitude":13.6288,"longitude":79.4192,"temp":34.1,"humidity":30,"rain":0.0,"pressure":989.9,"uv_index":9.05,"wind_gusts":36.4,"aqi":94,"pm10":36.2,"pm2_5":29.8,"mosquito_risk":0,"arthritis_risk":5,"migraine_risk":7,"frizz_risk":0,"updated_at":"2026-03-12T17:04:26.597050+05:30"},{"city":"Warangal","state":"Telangana","latitude":17.9689,"longitude":79.5941,"temp":35.1,"humidity":30,"rain":0.0,"pressure":977.3,"uv_index":8.45,"wind_gusts":11.9,"aqi":141,"pm10":37.3,"pm2_5":25.4,"mosquito_risk":0,"arthritis_risk":5,"migraine_risk":10,"frizz_risk":0,"updated_at":"2026-03-12T17:04:26.597056+05:30"},{"city":"Nizamabad","state":"Telangana","latitude":18.6725,"longitude":78.0941,"temp":35.1,"humidity":25,"rain":0.0,"pressure":963.5,"uv_index":8.35,"wind_gusts":19.8,"aqi":116,"pm10":33.3,"pm2_5":25.8,"mosquito_risk":0,"arthritis_risk":5,"migraine_risk":10,"frizz_risk":0,"updated_at":"2026-03-12T17:04:26.597062+05:30"},{"city":"Mysore","state":"Karnataka","latitude":12.2958,"longitude":76.6396,"temp":31.5,"humidity":30,"rain":0.0,"pressure":927.1,"uv_index":9.3,"wind_gusts":34.9,"aqi":74,"pm10":18.9,"pm2_5":15.3,"mosquito_risk":0,"arthritis_risk":5,"migraine_risk":7,"frizz_risk":0,"updated_at":"2026-03-12T17:04:26.597069+05:30"},{"city":"Mangalore","state":"Karnataka","latitude":12.9141,"longitude":74.856,"temp":29.1,"humidity":83,"rain":0.0,"pressure":1003.2,"uv_index":8.9,"wind_gusts":32.8,"aqi":106,"pm10":43.9,"pm2_5":38.0,"mosquito_risk":7,"arthritis_risk":5,"migraine_risk":4,"frizz_risk":1,"updated_at":"2026-03-12T17:04:26.597075+05:30"},{"city":"Hubli-Dharwad","state":"Karnataka","latitude":15.3647,"longitude":75.124,"temp":35.0,"humidity":15,"rain":0.0,"pressure":939.2,"uv_index":8.85,"wind_gusts":35.6,"aqi":107,"pm10":18.9,"pm2_5":15.5,"mosquito_risk":0,"arthritis_risk":5,"migraine_risk":7,"frizz_risk":0,"updated_at":"2026-03-12T17:04:26.597082+05:30"},{"city":"Belgaum","state":"Karnataka","latitude":15.8497,"longitude":74.4977,"temp":34.1,"humidity":19,"rain":0.0,"pressure":924.6,"uv_index":8.9,"wind_gusts":37.4,"aqi":132,"pm10":24.7,"pm2_5":21.1,"mosquito_risk":0,"arthritis_risk":5,"migraine_risk":7,"frizz_risk":0,"updated_at":"2026-03-12T17:04:29.815007+05:30"},{"city":"Coimbatore","state":"Tamil Nadu","latitude":11.0168,"longitude":76.9558,"temp":33.7,"humidity":23,"rain":0.0,"pressure":959.5,"uv_index":9.3,"wind_gusts":44.3,"aqi":74,"pm10":17.3,"pm2_5":16.0,"mosquito_risk":0,"arthritis_risk":5,"migraine_risk":7,"frizz_risk":0,"updated_at":"2026-03-12T17:04:29.815037+05:30"},{"city":"Madurai","state":"Tamil Nadu","latitude":9.9252,"longitude":78.1198,"temp":34.5,"humidity":35,"rain":0.0,"pressure":990.3,"uv_index":9.2,"wind_gusts":32.0,"aqi":71,"pm10":17.9,"pm2_5":16.4,"mosquito_risk":0,"arthritis_risk":5,"migraine_risk":7,"frizz_risk":1,"updated_at":"2026-03-12T17:04:29.815047+05:30"},{"city":"Trichy","state":"Tamil Nadu","latitude":10.7905,"longitude":78.7047,"temp":33.9,"humidity":42,"rain":0.0,"pressure":997.5,"uv_index":9.15,"wind_gusts":28.1,"aqi":80,"pm10":23.3,"pm2_5":21.9,"mosquito_risk":0,"arthritis_risk":5,"migraine_risk":7,"frizz_risk":1,"updated_at":"2026-03-12T17:04:29.815056+05:30"},{"city":"Salem","state":"Tamil Nadu","latitude":11.6643,"longitude":78.146,"temp":34.2,"humidity":33,"rain":0.0,"pressure":975.0,"uv_index":9.2,"wind_gusts":27.7,"aqi":76,"pm10":16.8,"pm2_5":14.9,"mosquito_risk":0,"arthritis_risk":5,"migraine_risk":7,"frizz_risk":0,"updated_at":"2026-03-12T17:04:29.815063+05:30"},{"city":"Tirunelveli","state":"Tamil Nadu","latitude":8.7139,"longitude":77.7567,"temp":33.1,"humidity":48,"rain":0.0,"pressure":1000.8,"uv_index":8.45,"wind_gusts":27.4,"aqi":63,"pm10":14.1,"pm2_5":12.3,"mosquito_risk":0,"arthritis_risk":5,"migraine_risk":4,"frizz_risk":1,"updated_at":"2026-03-12T17:04:29.815071+05:30"},{"city":"Vellore","state":"Tamil Nadu","latitude":12.9165,"longitude":79.1325,"temp":33.4,"humidity":30,"rain":0.0,"pressure":983.0,"uv_index":9.1,"wind_gusts":36.4,"aqi":91,"pm10":21.4,"pm2_5":17.9,"mosquito_risk":0,"arthritis_risk":5,"migraine_risk":7,"frizz_risk":0,"updated_at":"2026-03-12T17:04:29.815078+05:30"},{"city":"Erode","state":"Tamil Nadu","latitude":11.341,"longitude":77.7172,"temp":35.4,"humidity":34,"rain":0.0,"pressure":986.4,"uv_index":9.15,"wind_gusts":24.5,"aqi":76,"pm10":21.0,"pm2_5":19.6,"mosquito_risk":0,"arthritis_risk":5,"migraine_risk":10,"frizz_risk":1,"updated_at":"2026-03-12T17:04:29.815086+05:30"},{"city":"Kochi","state":"Kerala","latitude":9.9312,"longitude":76.2673,"temp":29.0,"humidity":80,"rain":0.0,"pressure":1005.5,"uv_index":9.05,"wind_gusts":35.6,"aqi":128,"pm10":32.7,"pm2_5":30.7,"mosquito_risk":7,"arthritis_risk":5,"migraine_risk":4,"frizz_risk":1,"updated_at":"2026-03-12T17:04:29.815094+05:30"},{"city":"Thiruvananthapuram","state":"Kerala","latitude":8.5241,"longitude":76.9366,"temp":28.3,"humidity":78,"rain":0.0,"pressure":1005.8,"uv_index":7.9,"wind_gusts":25.9,"aqi":119,"pm10":22.5,"pm2_5":20.2,"mosquito_risk":7,"arthritis_risk":5,"migraine_risk":4,"frizz_risk":1,"updated_at":"2026-03-12T17:04:29.815101+05:30"},{"city":"Kozhikode","state":"Kerala","latitude":11.2588,"longitude":75.7804,"temp":30.1,"humidity":73,"rain":0.0,"pressure":1004.7,"uv_index":9.0,"wind_gusts":31.7,"aqi":105,"pm10":35.5,"pm2_5":31.2,"mosquito_risk":3,"arthritis_risk":5,"migraine_risk":4,"frizz_risk":1,"updated_at":"2026-03-12T17:04:29.815108+05:30"},{"city":"Thrissur","state":"Kerala","latitude":10.5276,"longitude":76.2144,"temp":31.2,"humidity":67,"rain":0.0,"pressure":1003.8,"uv_index":9.05,"wind_gusts":39.2,"aqi":97,"pm10":20.4,"pm2_5":18.4,"mosquito_risk":3,"arthritis_risk":5,"migraine_risk":4,"frizz_risk":1,"updated_at":"2026-03-12T17:04:29.815133+05:30"},{"city":"Kannur","state":"Kerala","latitude":11.8745,"longitude":75.3704,"temp":30.4,"humidity":71,"rain":0.0,"pressure":1004.5,"uv_index":9.0,"wind_gusts":34.9,"aqi":102,"pm10":36.3,"pm2_5":31.4,"mosquito_risk":3,"arthritis_risk":5,"migraine_risk":4,"frizz_risk":1,"updated_at":"2026-03-12T17:04:29.815141+05:30"},{"city":"Patna","state":"Bihar","latitude":25.5941,"longitude":85.1376,"temp":32.7,"humidity":36,"rain":0.0,"pressure":998.6,"uv_index":7.45,"wind_gusts":22.0,"aqi":225,"pm10":167.2,"pm2_5":53.4,"mosquito_risk":0,"arthritis_risk":5,"migraine_risk":7,"frizz_risk":0,"updated_at":"2026-03-12T17:04:29.815149+05:30"},{"city":"Gaya","state":"Bihar","latitude":24.7914,"longitude":85.0002,"temp":31.7,"humidity":41,"rain":0.0,"pressure":992.3,"uv_index":7.6,"wind_gusts":21.6,"aqi":187,"pm10":138.3,"pm2_5":35.5,"mosquito_risk":0,"arthritis_risk":5,"migraine_risk":7,"frizz_risk":1,"updated_at":"2026-03-12T17:04:29.815155+05:30"},{"city":"Muzaffarpur","state":"Bihar","latitude":26.1209,"longitude":85.3647,"temp":31.6,"humidity":45,"rain":0.0,"pressure":998.5,"uv_index":7.4,"wind_gusts":25.6,"aqi":240,"pm10":179.3,"pm2_5":95.7,"mosquito_risk":0,"arthritis_risk":5,"migraine_risk":7,"frizz_risk":1,"updated_at":"2026-03-12T17:04:29.815161+05:30"},{"city":"Bhagalpur","state":"Bihar","latitude":25.2425,"longitude":87.0117,"temp":29.0,"humidity":67,"rain":0.0,"pressure":999.9,"uv_index":7.5,"wind_gusts":33.5,"aqi":188,"pm10":140.2,"pm2_5":121.5,"mosquito_risk":7,"arthritis_risk":5,"migraine_risk":7,"frizz_risk":1,"updated_at":"2026-03-12T17:04:29.815168+05:30"},{"city":"Ranchi","state":"Jharkhand","latitude":23.3441,"longitude":85.3096,"temp":30.5,"humidity":23,"rain":0.0,"pressure":937.3,"uv_index":8.2,"wind_gusts":33.8,"aqi":160,"pm10":112.0,"pm2_5":28.8,"mosquito_risk":0,"arthritis_risk":5,"migraine_risk":7,"frizz_risk":0,"updated_at":"2026-03-12T17:04:29.815174+05:30"},{"city":"Jamshedpur","state":"Jharkhand","latitude":22.8046,"longitude":86.2029,"temp":33.2,"humidity":37,"rain":0.0,"pressure":989.2,"uv_index":8.05,"wind_gusts":25.6,"aqi":167,"pm10":115.5,"pm2_5":62.4,"mosquito_risk":0,"arthritis_risk":5,"migraine_risk":7,"frizz_risk":1,"updated_at":"2026-03-12T17:04:29.815181+05:30"},{"city":"Dhanbad","state":"Jharkhand","latitude":23.7957,"longitude":86.4304,"temp":33.4,"humidity":31,"rain":0.0,"pressure":978.1,"uv_index":8.0,"wind_gusts":20.9,"aqi":193,"pm10":115.0,"pm2_5":57.7,"mosquito_risk":0,"arthritis_risk":5,"migraine_risk":7,"frizz_risk":0,"updated_at":"2026-03-12T17:04:29.815187+05:30"},{"city":"Bokaro","state":"Jharkhand","latitude":23.6693,"longitude":86.1511,"temp":33.4,"humidity":26,"rain":0.0,"pressure":982.2,"uv_index":8.0,"wind_gusts":23.4,"aqi":185,"pm10":122.9,"pm2_5":41.8,"mosquito_risk":0,"arthritis_risk":5,"migraine_risk":7,"frizz_risk":0,"updated_at":"2026-03-12T17:04:29.815193+05:30"},{"city":"Bhubaneswar","state":"Odisha","latitude":20.2961,"longitude":85.8245,"temp":33.0,"humidity":51,"rain":0.0,"pressure":1000.9,"uv_index":8.35,"wind_gusts":34.2,"aqi":136,"pm10":75.0,"pm2_5":51.6,"mosquito_risk":0,"arthritis_risk":5,"migraine_risk":4,"frizz_risk":1,"updated_at":"2026-03-12T17:04:29.815199+05:30"},{"city":"Cuttack","state":"Odisha","latitude":20.4625,"longitude":85.8828,"temp":34.7,"humidity":36,"rain":0.0,"pressure":1002.3,"uv_index":8.35,"wind_gusts":31.7,"aqi":136,"pm10":75.0,"pm2_5":51.6,"mosquito_risk":0,"arthritis_risk":5,"migraine_risk":4,"frizz_risk":1,"updated_at":"2026-03-12T17:04:29.815206+05:30"},{"city":"Rourkela","state":"Odisha","latitude":22.2604,"longitude":84.8536,"temp":34.5,"humidity":30,"rain":0.0,"pressure":983.0,"uv_index":8.0,"wind_gusts":16.2,"aqi":154,"pm10":124.8,"pm2_5":29.3,"mosquito_risk":0,"arthritis_risk":5,"migraine_risk":7,"frizz_risk":0,"updated_at":"2026-03-12T17:04:29.815212+05:30"},{"city":"Raipur","state":"Chhattisgarh","latitude":21.2514,"longitude":81.6296,"temp":36.4,"humidity":18,"rain":0.0,"pressure":973.1,"uv_index":8.1,"wind_gusts":16.2,"aqi":162,"pm10":50.2,"pm2_5":23.0,"mosquito_risk":0,"arthritis_risk":5,"migraine_risk":10,"frizz_risk":0,"updated_at":"2026-03-12T17:04:29.815218+05:30"},{"city":"Bhilai","state":"Chhattisgarh","latitude":21.1938,"longitude":81.3509,"temp":36.5,"humidity":20,"rain":0.0,"pressure":973.3,"uv_index":8.1,"wind_gusts":11.9,"aqi":155,"pm10":51.5,"pm2_5":23.6,"mosquito_risk":0,"arthritis_risk":5,"migraine_risk":10,"frizz_risk":0,"updated_at":"2026-03-12T17:04:29.815224+05:30"},{"city":"Guwahati","state":"Assam","latitude":26.1158,"longitude":91.7086,"temp":25.6,"humidity":78,"rain":0.0,"pressure":1002.1,"uv_index":7.15,"wind_gusts":24.1,"aqi":153,"pm10":74.5,"pm2_5":66.8,"mosquito_risk":7,"arthritis_risk":5,"migraine_risk":4,"frizz_risk":1,"updated_at":"2026-03-12T17:04:29.815230+05:30"},{"city":"Agartala","state":"Tripura","latitude":23.8315,"longitude":91.2868,"temp":26.8,"humidity":77,"rain":0.0,"pressure":1006.3,"uv_index":7.7,"wind_gusts":19.1,"aqi":158,"pm10":65.4,"pm2_5":55.4,"mosquito_risk":7,"arthritis_risk":5,"migraine_risk":4,"frizz_risk":1,"updated_at":"2026-03-12T17:04:29.815237+05:30"},{"city":"Shillong","state":"Meghalaya","latitude":25.5788,"longitude":91.8933,"temp":16.1,"humidity":76,"rain":0.0,"pressure":856.2,"uv_index":6.65,"wind_gusts":26.3,"aqi":136,"pm10":70.5,"pm2_5":61.9,"mosquito_risk":3,"arthritis_risk":5,"migraine_risk":7,"frizz_risk":0,"updated_at":"2026-03-12T17:04:29.815243+05:30"},{"city":"Imphal","state":"Manipur","latitude":24.817,"longitude":93.9368,"temp":20.4,"humidity":76,"rain":0.0,"pressure":923.4,"uv_index":8.0,"wind_gusts":31.0,"aqi":169,"pm10":68.9,"pm2_5":63.8,"mosquito_risk":3,"arthritis_risk":5,"migraine_risk":7,"frizz_risk":0,"updated_at":"2026-03-12T17:04:29.815250+05:30"},{"city":"Aizawl","state":"Mizoram","latitude":23.7271,"longitude":92.7176,"temp":20.3,"humidity":75,"rain":0.0,"pressure":892.8,"uv_index":7.9,"wind_gusts":37.1,"aqi":187,"pm10":110.6,"pm2_5":98.0,"mosquito_risk":3,"arthritis_risk":5,"migraine_risk":7,"frizz_risk":0,"updated_at":"2026-03-12T17:04:29.815256+05:30"},{"city":"Kohima","state":"Nagaland","latitude":25.6701,"longitude":94.1077,"temp":16.0,"humidity":92,"rain":0.0,"pressure":855.0,"uv_index":7.1,"wind_gusts":41.4,"aqi":151,"pm10":61.7,"pm2_5":56.9,"mosquito_risk":3,"arthritis_risk":10,"migraine_risk":7,"frizz_risk":0,"updated_at":"2026-03-12T17:04:29.815263+05:30"},{"city":"Gangtok","state":"Sikkim","latitude":27.3314,"longitude":88.6138,"temp":18.1,"humidity":75,"rain":0.0,"pressure":837.6,"uv_index":7.15,"wind_gusts":20.2,"aqi":110,"pm10":32.1,"pm2_5":29.0,"mosquito_risk":3,"arthritis_risk":5,"migraine_risk":7,"frizz_risk":0,"updated_at":"2026-03-12T17:04:29.815269+05:30"},{"city":"Siliguri","state":"West Bengal","latitude":26.7271,"longitude":88.3953,"temp":22.0,"humidity":86,"rain":0.0,"pressure":993.8,"uv_index":7.4,"wind_gusts":23.8,"aqi":170,"pm10":71.2,"pm2_5":63.8,"mosquito_risk":3,"arthritis_risk":5,"migraine_risk":7,"frizz_risk":1,"updated_at":"2026-03-12T17:04:33.037019+05:30"},{"city":"Durgapur","state":"West Bengal","latitude":23.5204,"longitude":87.3119,"temp":30.1,"humidity":57,"rain":0.0,"pressure":993.9,"uv_index":7.95,"wind_gusts":26.6,"aqi":189,"pm10":128.1,"pm2_5":106.4,"mosquito_risk":0,"arthritis_risk":5,"migraine_risk":7,"frizz_risk":1,"updated_at":"2026-03-12T17:04:33.037051+05:30"},{"city":"Asansol","state":"West Bengal","latitude":23.6739,"longitude":86.9524,"temp":31.5,"humidity":53,"rain":0.0,"pressure":992.0,"uv_index":7.35,"wind_gusts":29.5,"aqi":186,"pm10":113.2,"pm2_5":80.6,"mosquito_risk":0,"arthritis_risk":5,"migraine_risk":7,"frizz_risk":1,"updated_at":"2026-03-12T17:04:33.037062+05:30"},{"city":"Pondicherry","state":"Puducherry","latitude":11.9139,"longitude":79.8145,"temp":31.4,"humidity":58,"rain":0.0,"pressure":1007.1,"uv_index":9.0,"wind_gusts":29.5,"aqi":71,"pm10":24.7,"pm2_5":20.1,"mosquito_risk":0,"arthritis_risk":5,"migraine_risk":4,"frizz_risk":1,"updated_at":"2026-03-12T17:04:33.037073+05:30"},{"city":"Port Blair","state":"Andaman and Nicobar Islands","latitude":11.6234,"longitude":92.7265,"temp":28.4,"humidity":74,"rain":0.0,"pressure":1006.2,"uv_index":8.95,"wind_gusts":20.5,"aqi":46,"pm10":13.7,"pm2_5":11.1,"mosquito_risk":7,"arthritis_risk":5,"migraine_risk":4,"frizz_risk":1,"updated_at":"2026-03-12T17:04:33.037083+05:30"},{"city":"Haridwar","state":"Uttarakhand","latitude":29.9457,"longitude":78.1642,"temp":30.4,"humidity":43,"rain":0.0,"pressure":973.2,"uv_index":5.35,"wind_gusts":30.2,"aqi":102,"pm10":78.9,"pm2_5":27.3,"mosquito_risk":0,"arthritis_risk":5,"migraine_risk":3,"frizz_risk":1,"updated_at":"2026-03-12T17:04:33.037091+05:30"},{"city":"Rishikesh","state":"Uttarakhand","latitude":30.0869,"longitude":78.2676,"temp":29.7,"humidity":44,"rain":0.0,"pressure":966.2,"uv_index":5.45,"wind_gusts":29.5,"aqi":86,"pm10":52.7,"pm2_5":21.5,"mosquito_risk":4,"arthritis_risk":5,"migraine_risk":3,"frizz_risk":1,"updated_at":"2026-03-12T17:04:33.037100+05:30"},{"city":"Nainital","state":"Uttarakhand","latitude":29.3919,"longitude":79.4542,"temp":23.4,"humidity":43,"rain":0.0,"pressure":807.4,"uv_index":6.55,"wind_gusts":55.1,"aqi":94,"pm10":60.1,"pm2_5":32.0,"mosquito_risk":0,"arthritis_risk":5,"migraine_risk":7,"frizz_risk":0,"updated_at":"2026-03-12T17:04:33.037107+05:30"},{"city":"Mussoorie","state":"Uttarakhand","latitude":30.4599,"longitude":78.0664,"temp":21.2,"humidity":45,"rain":0.0,"pressure":804.1,"uv_index":6.1,"wind_gusts":42.8,"aqi":84,"pm10":48.8,"pm2_5":20.7,"mosquito_risk":0,"arthritis_risk":5,"migraine_risk":7,"frizz_risk":0,"updated_at":"2026-03-12T17:04:33.037135+05:30"},{"city":"Dharamshala","state":"Himachal Pradesh","latitude":32.219,"longitude":76.3234,"temp":22.3,"humidity":54,"rain":0.0,"pressure":869.5,"uv_index":6.55,"wind_gusts":50.8,"aqi":55,"pm10":37.6,"pm2_5":11.6,"mosquito_risk":0,"arthritis_risk":5,"migraine_risk":7,"frizz_risk":0,"updated_at":"2026-03-12T17:04:33.037143+05:30"},{"city":"Dalhousie","state":"Himachal Pradesh","latitude":32.5387,"longitude":75.971,"temp":17.9,"humidity":56,"rain":0.0,"pressure":804.0,"uv_index":5.85,"wind_gusts":36.0,"aqi":81,"pm10":49.2,"pm2_5":17.8,"mosquito_risk":0,"arthritis_risk":5,"migraine_risk":3,"frizz_risk":0,"updated_at":"2026-03-12T17:04:33.037152+05:30"},{"city":"Patiala","state":"Punjab","latitude":30.3398,"longitude":76.3869,"temp":28.4,"humidity":52,"rain":0.0,"pressure":977.9,"uv_index":5.65,"wind_gusts":37.4,"aqi":156,"pm10":153.2,"pm2_5":44.2,"mosquito_risk":4,"arthritis_risk":5,"migraine_risk":3,"frizz_risk":1,"updated_at":"2026-03-12T17:04:33.037159+05:30"},{"city":"Bhatinda","state":"Punjab","latitude":30.211,"longitude":74.9455,"temp":29.6,"humidity":52,"rain":0.0,"pressure":983.4,"uv_index":6.4,"wind_gusts":28.1,"aqi":152,"pm10":113.2,"pm2_5":50.8,"mosquito_risk":4,"arthritis_risk":5,"migraine_risk":7,"frizz_risk":1,"updated_at":"2026-03-12T17:04:33.037166+05:30"},{"city":"Rohtak","state":"Haryana","latitude":28.8955,"longitude":76.6066,"temp":31.8,"humidity":34,"rain":0.0,"pressure":980.6,"uv_index":5.95,"wind_gusts":27.0,"aqi":321,"pm10":421.9,"pm2_5":61.9,"mosquito_risk":0,"arthritis_risk":5,"migraine_risk":3,"frizz_risk":0,"updated_at":"2026-03-12T17:04:33.037172+05:30"},{"city":"Panipat","state":"Haryana","latitude":29.3909,"longitude":76.9635,"temp":30.9,"humidity":41,"rain":0.0,"pressure":979.2,"uv_index":5.75,"wind_gusts":22.3,"aqi":427,"pm10":499.2,"pm2_5":75.2,"mosquito_risk":0,"arthritis_risk":5,"migraine_risk":3,"frizz_risk":1,"updated_at":"2026-03-12T17:04:33.037178+05:30"},{"city":"Mathura","state":"Uttar Pradesh","latitude":27.4924,"longitude":77.6737,"temp":35.6,"humidity":12,"rain":0.0,"pressure":984.7,"uv_index":5.8,"wind_gusts":30.6,"aqi":393,"pm10":270.1,"pm2_5":34.0,"mosquito_risk":0,"arthritis_risk":5,"migraine_risk":6,"frizz_risk":0,"updated_at":"2026-03-12T17:04:33.037184+05:30"},{"city":"Vrindavan","state":"Uttar Pradesh","latitude":27.5823,"longitude":77.7027,"temp":35.0,"humidity":15,"rain":0.0,"pressure":985.2,"uv_index":5.65,"wind_gusts":32.4,"aqi":393,"pm10":270.1,"pm2_5":34.0,"mosquito_risk":0,"arthritis_risk":5,"migraine_risk":3,"frizz_risk":0,"updated_at":"2026-03-12T17:04:33.037191+05:30"},{"city":"Ayodhya","state":"Uttar Pradesh","latitude":26.7922,"longitude":82.1998,"temp":32.2,"humidity":37,"rain":0.0,"pressure":993.4,"uv_index":6.55,"wind_gusts":26.3,"aqi":156,"pm10":90.6,"pm2_5":39.3,"mosquito_risk":0,"arthritis_risk":5,"migraine_risk":7,"frizz_risk":0,"updated_at":"2026-03-12T17:04:33.037197+05:30"},{"city":"Ratlam","state":"Madhya Pradesh","latitude":23.3315,"longitude":75.0367,"temp":35.0,"humidity":13,"rain":0.0,"pressure":954.4,"uv_index":7.6,"wind_gusts":33.1,"aqi":91,"pm10":12.0,"pm2_5":10.9,"mosquito_risk":0,"arthritis_risk":5,"migraine_risk":7,"frizz_risk":0,"updated_at":"2026-03-12T17:04:33.037203+05:30"},{"city":"Sagar","state":"Madhya Pradesh","latitude":23.8388,"longitude":78.7378,"temp":34.4,"humidity":20,"rain":0.0,"pressure":949.7,"uv_index":7.55,"wind_gusts":27.0,"aqi":103,"pm10":17.6,"pm2_5":8.8,"mosquito_risk":0,"arthritis_risk":5,"migraine_risk":7,"frizz_risk":0,"updated_at":"2026-03-12T17:04:33.037210+05:30"},{"city":"Satna","state":"Madhya Pradesh","latitude":24.6005,"longitude":80.8322,"temp":36.1,"humidity":13,"rain":0.0,"pressure":970.0,"uv_index":7.55,"wind_gusts":29.2,"aqi":101,"pm10":20.9,"pm2_5":9.3,"mosquito_risk":0,"arthritis_risk":5,"migraine_risk":10,"frizz_risk":0,"updated_at":"2026-03-12T17:04:33.037216+05:30"},{"city":"Akola","state":"Maharashtra","latitude":20.7002,"longitude":77.0082,"temp":38.1,"humidity":15,"rain":0.0,"pressure":973.3,"uv_index":8.05,"wind_gusts":22.7,"aqi":147,"pm10":27.4,"pm2_5":17.4,"mosquito_risk":0,"arthritis_risk":5,"migraine_risk":10,"frizz_risk":0,"updated_at":"2026-03-12T17:04:33.037224+05:30"},{"city":"Amravati","state":"Maharashtra","latitude":20.9374,"longitude":77.7796,"temp":37.5,"humidity":17,"rain":0.0,"pressure":965.6,"uv_index":8.0,"wind_gusts":16.9,"aqi":142,"pm10":26.8,"pm2_5":16.6,"mosquito_risk":0,"arthritis_risk":5,"migraine_risk":10,"frizz_risk":0,"updated_at":"2026-03-12T17:04:33.037232+05:30"},{"city":"Latur","state":"Maharashtra","latitude":18.4088,"longitude":76.5604,"temp":34.3,"humidity":21,"rain":0.0,"pressure":939.0,"uv_index":8.45,"wind_gusts":19.1,"aqi":117,"pm10":27.3,"pm2_5":22.1,"mosquito_risk":0,"arthritis_risk":5,"migraine_risk":7,"frizz_risk":0,"updated_at":"2026-03-12T17:04:33.037239+05:30"},{"city":"Nanded","state":"Maharashtra","latitude":19.1383,"longitude":77.3091,"temp":37.5,"humidity":17,"rain":0.0,"pressure":966.9,"uv_index":8.25,"wind_gusts":16.2,"aqi":130,"pm10":27.6,"pm2_5":21.0,"mosquito_risk":0,"arthritis_risk":5,"migraine_risk":10,"frizz_risk":0,"updated_at":"2026-03-12T17:04:33.037246+05:30"},{"city":"Gulbarga","state":"Karnataka","latitude":17.3297,"longitude":76.8343,"temp":36.2,"humidity":22,"rain":0.0,"pressure":957.0,"uv_index":8.5,"wind_gusts":18.0,"aqi":133,"pm10":29.6,"pm2_5":24.0,"mosquito_risk":0,"arthritis_risk":5,"migraine_risk":10,"frizz_risk":0,"updated_at":"2026-03-12T17:04:33.037252+05:30"},{"city":"Bidar","state":"Karnataka","latitude":17.9104,"longitude":77.5199,"temp":34.7,"humidity":22,"rain":0.0,"pressure":934.6,"uv_index":8.45,"wind_gusts":19.1,"aqi":125,"pm10":30.5,"pm2_5":23.7,"mosquito_risk":0,"arthritis_risk":5,"migraine_risk":7,"frizz_risk":0,"updated_at":"2026-03-12T17:04:33.037258+05:30"},{"city":"Hospet","state":"Karnataka","latitude":15.2689,"longitude":76.3909,"temp":35.3,"humidity":19,"rain":0.0,"pressure":954.1,"uv_index":8.8,"wind_gusts":32.4,"aqi":102,"pm10":22.5,"pm2_5":17.9,"mosquito_risk":0,"arthritis_risk":5,"migraine_risk":10,"frizz_risk":0,"updated_at":"2026-03-12T17:04:33.037264+05:30"},{"city":"Tirupur","state":"Tamil Nadu","latitude":11.1085,"longitude":77.3411,"temp":35.0,"humidity":24,"rain":0.0,"pressure":973.1,"uv_index":9.3,"wind_gusts":32.8,"aqi":80,"pm10":22.4,"pm2_5":20.9,"mosquito_risk":0,"arthritis_risk":5,"migraine_risk":7,"frizz_risk":0,"updated_at":"2026-03-12T17:04:33.037270+05:30"},{"city":"Alappuzha","state":"Kerala","latitude":9.4981,"longitude":76.3388,"temp":28.8,"humidity":81,"rain":0.0,"pressure":1005.7,"uv_index":8.4,"wind_gusts":32.0,"aqi":138,"pm10":29.0,"pm2_5":26.6,"mosquito_risk":7,"arthritis_risk":5,"migraine_risk":4,"frizz_risk":1,"updated_at":"2026-03-12T17:04:33.037276+05:30"},{"city":"Munnar","state":"Kerala","latitude":10.0889,"longitude":77.0595,"temp":28.9,"humidity":40,"rain":0.0,"pressure":856.8,"uv_index":9.5,"wind_gusts":23.0,"aqi":73,"pm10":13.4,"pm2_5":11.8,"mosquito_risk":4,"arthritis_risk":5,"migraine_risk":7,"frizz_risk":0,"updated_at":"2026-03-12T17:04:33.037283+05:30"},{"city":"Silchar","state":"Assam","latitude":24.8333,"longitude":92.7789,"temp":27.8,"humidity":71,"rain":0.0,"pressure":1005.1,"uv_index":7.7,"wind_gusts":23.8,"aqi":178,"pm10":95.7,"pm2_5":84.8,"mosquito_risk":7,"arthritis_risk":5,"migraine_risk":4,"frizz_risk":1,"updated_at":"2026-03-12T17:04:33.037290+05:30"},{"city":"Dibrugarh","state":"Assam","latitude":27.4728,"longitude":94.912,"temp":24.9,"humidity":75,"rain":0.0,"pressure":996.7,"uv_index":6.3,"wind_gusts":20.2,"aqi":144,"pm10":42.5,"pm2_5":39.1,"mosquito_risk":3,"arthritis_risk":5,"migraine_risk":7,"frizz_risk":1,"updated_at":"2026-03-12T17:04:33.037296+05:30"}]