[{"city":"Delhi","state":"Delhi","latitude":28.6139,"longitude":77.209,"temp":33.2,"humidity":34,"rain":0.0,"pressure":983.5,"uv_index":5.85,"wind_gusts":34.6,"aqi":402,"pm10":694.8,"pm2_5":106.6,"mosquito_risk":0,"arthritis_risk":5,"migraine_risk":3,"frizz_risk":0,"updated_at":"2026-03-05T16:13:09.769022+05:30"},{"city":"Mumbai","state":"Maharashtra","latitude":19.076,"longitude":72.8777,"temp":29.3,"humidity":61,"rain":0.0,"pressure":1007.8,"uv_index":7.4,"wind_gusts":26.6,"aqi":142,"pm10":39.1,"pm2_5":37.1,"mosquito_risk":7,"arthritis_risk":5,"migraine_risk":4,"frizz_risk":1,"updated_at":"2026-03-05T16:13:09.769076+05:30"},{"city":"Bangalore","state":"Karnataka","latitude":12.9716,"longitude":77.5946,"temp":31.7,"humidity":23,"rain":0.0,"pressure":911.5,"uv_index":9.1,"wind_gusts":31.3,"aqi":103,"pm10":24.3,"pm2_5":22.9,"mosquito_risk":0,"arthritis_risk":5,"migraine_risk":7,"frizz_risk":0,"updated_at":"2026-03-05T16:13:09.769091+05:30"},{"city":"Hyderabad","state":"Telangana","latitude":17.385,"longitude":78.4867,"temp":35.3,"humidity":20,"rain":0.0,"pressure":953.0,"uv_index":8.45,"wind_gusts":27.4,"aqi":135,"pm10":17.5,"pm2_5":15.5,"mosquito_risk":0,"arthritis_risk":5,"migraine_risk":10,"frizz_risk":0,"updated_at":"2026-03-05T16:13:09.769102+05:30"},{"city":"Chennai","state":"Tamil Nadu","latitude":13.0827,"longitude":80.2707,"temp":33.0,"humidity":41,"rain":0.0,"pressure":1006.6,"uv_index":8.85,"wind_gusts":31.3,"aqi":99,"pm10":31.1,"pm2_5":27.1,"mosquito_risk":0,"arthritis_risk":5,"migraine_risk":4,"frizz_risk":1,"updated_at":"2026-03-05T16:13:09.769111+05:30"},{"city":"Kolkata","state":"West Bengal","latitude":22.5726,"longitude":88.3639,"temp":31.2,"humidity":38,"rain":0.0,"pressure":1005.0,"uv_index":7.8,"wind_gusts":10.8,"aqi":190,"pm10":79.2,"pm2_5":56.7,"mosquito_risk":0,"arthritis_risk":5,"migraine_risk":4,"frizz_risk":0,"updated_at":"2026-03-05T16:13:09.769119+05:30"},{"city":"Pune","state":"Maharashtra","latitude":18.5204,"longitude":73.8567,"temp":37.3,"humidity":17,"rain":0.0,"pressure":948.7,"uv_index":7.95,"wind_gusts":31.3,"aqi":83,"pm10":15.9,"pm2_5":14.5,"mosquito_risk":0,"arthritis_risk":5,"migraine_risk":10,"frizz_risk":0,"updated_at":"2026-03-05T16:13:09.769132+05:30"},{"city":"Ahmedabad","state":"Gujarat","latitude":23.0225,"longitude":72.5714,"temp":37.3,"humidity":12,"rain":0.0,"pressure":1003.8,"uv_index":7.2,"wind_gusts":28.4,"aqi":65,"pm10":17.4,"pm2_5":16.3,"mosquito_risk":0,"arthritis_risk":5,"migraine_risk":7,"frizz_risk":0,"updated_at":"2026-03-05T16:13:09.769141+05:30"},{"city":"Jaipur","state":"Rajasthan","latitude":26.9124,"longitude":75.7873,"temp":36.3,"humidity":16,"rain":0.0,"pressure":961.5,"uv_index":6.65,"wind_gusts":34.9,"aqi":90,"pm10":183.9,"pm2_5":30.6,"mosquito_risk":0,"arthritis_risk":5,"migraine_risk":10,"frizz_risk":0,"updated_at":"2026-03-05T16:13:09.769149+05:30"},{"city":"Lucknow","state":"Uttar Pradesh","latitude":26.8467,"longitude":80.9462,"temp":31.7,"humidity":41,"rain":0.0,"pressure":993.4,"uv_index":6.4,"wind_gusts":15.1,"aqi":164,"pm10":237.0,"pm2_5":72.2,"mosquito_risk":0,"arthritis_risk":5,"migraine_risk":7,"frizz_risk":1,"updated_at":"2026-03-05T16:13:09.769157+05:30"},{"city":"Kanpur","state":"Uttar Pradesh","latitude":26.4499,"longitude":80.3319,"temp":32.9,"humidity":35,"rain":0.0,"pressure":991.6,"uv_index":6.4,"wind_gusts":28.4,"aqi":175,"pm10":308.3,"pm2_5":71.5,"mosquito_risk":0,"arthritis_risk":5,"migraine_risk":7,"frizz_risk":0,"updated_at":"2026-03-05T16:13:09.769164+05:30"},{"city":"Chandigarh","state":"Chandigarh","latitude":30.7333,"longitude":76.7794,"temp":31.6,"humidity":36,"rain":0.0,"pressure":969.4,"uv_index":5.75,"wind_gusts":31.0,"aqi":93,"pm10":43.5,"pm2_5":31.5,"mosquito_risk":0,"arthritis_risk":5,"migraine_risk":3,"frizz_risk":0,"updated_at":"2026-03-05T16:13:09.769172+05:30"},{"city":"Srinagar","state":"Jammu and Kashmir","latitude":34.0837,"longitude":74.7973,"temp":22.2,"humidity":38,"rain":0.0,"pressure":845.8,"uv_index":6.55,"wind_gusts":14.4,"aqi":152,"pm10":28.2,"pm2_5":14.7,"mosquito_risk":0,"arthritis_risk":5,"migraine_risk":7,"frizz_risk":0,"updated_at":"2026-03-05T16:13:09.769179+05:30"},{"city":"Jammu","state":"Jammu and Kashmir","latitude":32.7266,"longitude":74.857,"temp":32.1,"humidity":40,"rain":0.0,"pressure":973.3,"uv_index":6.4,"wind_gusts":23.8,"aqi":103,"pm10":51.7,"pm2_5":27.0,"mosquito_risk":0,"arthritis_risk":5,"migraine_risk":7,"frizz_risk":1,"updated_at":"2026-03-05T16:13:09.769187+05:30"},{"city":"Amritsar","state":"Punjab","latitude":31.634,"longitude":74.8723,"temp":31.9,"humidity":37,"rain":0.0,"pressure":981.9,"uv_index":6.35,"wind_gusts":22.7,"aqi":150,"pm10":53.6,"pm2_5":27.2,"mosquito_risk":0,"arthritis_risk":5,"migraine_risk":7,"frizz_risk":0,"updated_at":"2026-03-05T16:13:09.769194+05:30"},{"city":"Ludhiana","state":"Punjab","latitude":30.901,"longitude":75.8573,"temp":32.0,"humidity":37,"rain":0.0,"pressure":979.7,"uv_index":6.0,"wind_gusts":25.6,"aqi":156,"pm10":98.3,"pm2_5":48.7,"mosquito_risk":0,"arthritis_risk":5,"migraine_risk":3,"frizz_risk":0,"updated_at":"2026-03-05T16:13:09.769201+05:30"},{"city":"Jalandhar","state":"Punjab","latitude":31.326,"longitude":75.5762,"temp":31.8,"humidity":39,"rain":0.0,"pressure":980.8,"uv_index":6.2,"wind_gusts":24.1,"aqi":157,"pm10":91.5,"pm2_5":38.9,"mosquito_risk":0,"arthritis_risk":5,"migraine_risk":7,"frizz_risk":1,"updated_at":"2026-03-05T16:13:09.769212+05:30"},{"city":"Dehradun","state":"Uttarakhand","latitude":30.6284,"longitude":78.0322,"temp":21.1,"humidity":65,"rain":0.0,"pressure":832.1,"uv_index":6.15,"wind_gusts":31.7,"aqi":66,"pm10":20.5,"pm2_5":11.8,"mosquito_risk":3,"arthritis_risk":5,"migraine_risk":7,"frizz_risk":0,"updated_at":"2026-03-05T16:13:09.769219+05:30"},{"city":"Shimla","state":"Himachal Pradesh","latitude":31.1048,"longitude":77.1734,"temp":22.1,"humidity":38,"rain":0.0,"pressure":789.1,"uv_index":6.2,"wind_gusts":55.1,"aqi":65,"pm10":22.5,"pm2_5":10.3,"mosquito_risk":0,"arthritis_risk":5,"migraine_risk":7,"frizz_risk":0,"updated_at":"2026-03-05T16:13:09.769226+05:30"},{"city":"Manali","state":"Himachal Pradesh","latitude":32.2396,"longitude":77.1887,"temp":26.2,"humidity":29,"rain":0.0,"pressure":825.1,"uv_index":7.8,"wind_gusts":36.7,"aqi":59,"pm10":20.7,"pm2_5":10.0,"mosquito_risk":4,"arthritis_risk":5,"migraine_risk":7,"frizz_risk":0,"updated_at":"2026-03-05T16:13:09.769233+05:30"},{"city":"Gurgaon","state":"Haryana","latitude":28.4595,"longitude":77.0266,"temp":33.0,"humidity":34,"rain":0.0,"pressure":982.2,"uv_index":5.95,"wind_gusts":33.5,"aqi":1474,"pm10":2086.2,"pm2_5":220.7,"mosquito_risk":0,"arthritis_risk":5,"migraine_risk":3,"frizz_risk":0,"updated_at":"2026-03-05T16:13:09.769240+05:30"},{"city":"Noida","state":"Uttar Pradesh","latitude":28.5355,"longitude":77.391,"temp":33.5,"humidity":33,"rain":0.0,"pressure":985.0,"uv_index":5.85,"wind_gusts":34.6,"aqi":1474,"pm10":2086.2,"pm2_5":220.7,"mosquito_risk":0,"arthritis_risk":5,"migraine_risk":3,"frizz_risk":0,"updated_at":"2026-03-05T16:13:09.769247+05:30"},{"city":"Ghaziabad","state":"Uttar Pradesh","latitude":28.6692,"longitude":77.4538,"temp":32.9,"humidity":37,"rain":0.0,"pressure":983.0,"uv_index":5.85,"wind_gusts":31.7,"aqi":273,"pm10":441.4,"pm2_5":83.1,"mosquito_risk":0,"arthritis_risk":5,"migraine_risk":3,"frizz_risk":1,"updated_at":"2026-03-05T16:13:09.769253+05:30"},{"city":"Faridabad","state":"Haryana","latitude":28.4089,"longitude":77.3178,"temp":32.8,"humidity":34,"rain":0.0,"pressure":984.3,"uv_index":5.9,"wind_gusts":33.1,"aqi":1474,"pm10":2086.2,"pm2_5":220.7,"mosquito_risk":0,"arthritis_risk":5,"migraine_risk":3,"frizz_risk":0,"updated_at":"2026-03-05T16:13:09.769260+05:30"},{"city":"Meerut","state":"Uttar Pradesh","latitude":28.9845,"longitude":77.7064,"temp":32.9,"humidity":33,"rain":0.0,"pressure":981.6,"uv_index":5.75,"wind_gusts":30.6,"aqi":273,"pm10":441.4,"pm2_5":83.1,"mosquito_risk":0,"arthritis_risk":5,"migraine_risk":3,"frizz_risk":0,"updated_at":"2026-03-05T16:13:09.769266+05:30"},{"city":"Agra","state":"Uttar Pradesh","latitude":27.1767,"longitude":78.0081,"temp":35.2,"humidity":24,"rain":0.0,"pressure":988.0,"uv_index":6.25,"wind_gusts":37.8,"aqi":466,"pm10":808.4,"pm2_5":97.1,"mosquito_risk":0,"arthritis_risk":5,"migraine_risk":10,"frizz_risk":0,"updated_at":"2026-03-05T16:13:09.769273+05:30"},{"city":"Varanasi","state":"Uttar Pradesh","latitude":25.3176,"longitude":82.9739,"temp":30.2,"humidity":44,"rain":0.0,"pressure":997.8,"uv_index":7.05,"wind_gusts":16.6,"aqi":155,"pm10":210.0,"pm2_5":63.8,"mosquito_risk":0,"arthritis_risk":5,"migraine_risk":7,"frizz_risk":1,"updated_at":"2026-03-05T16:13:09.769283+05:30"},{"city":"Prayagraj","state":"Uttar Pradesh","latitude":25.4358,"longitude":81.8463,"temp":31.2,"humidity":43,"rain":0.0,"pressure":996.0,"uv_index":6.9,"wind_gusts":19.4,"aqi":155,"pm10":238.4,"pm2_5":67.8,"mosquito_risk":0,"arthritis_risk":5,"migraine_risk":7,"frizz_risk":1,"updated_at":"2026-03-05T16:13:09.769290+05:30"},{"city":"Gorakhpur","state":"Uttar Pradesh","latitude":26.7606,"longitude":83.3732,"temp":29.8,"humidity":45,"rain":0.0,"pressure":997.6,"uv_index":6.75,"wind_gusts":11.2,"aqi":173,"pm10":109.2,"pm2_5":65.9,"mosquito_risk":4,"arthritis_risk":5,"migraine_risk":7,"frizz_risk":1,"updated_at":"2026-03-05T16:13:09.769300+05:30"},{"city":"Bareilly","state":"Uttar Pradesh","latitude":28.367,"longitude":79.4304,"temp":30.1,"humidity":50,"rain":0.0,"pressure":987.0,"uv_index":6.05,"wind_gusts":14.0,"aqi":168,"pm10":155.1,"pm2_5":71.2,"mosquito_risk":0,"arthritis_risk":5,"migraine_risk":7,"frizz_risk":1,"updated_at":"2026-03-05T16:13:09.769307+05:30"},{"city":"Aligarh","state":"Uttar Pradesh","latitude":27.8974,"longitude":78.088,"temp":33.7,"humidity":31,"rain":0.0,"pressure":985.7,"uv_index":5.95,"wind_gusts":35.3,"aqi":718,"pm10":1013.3,"pm2_5":150.9,"mosquito_risk":0,"arthritis_risk":5,"migraine_risk":3,"frizz_risk":0,"updated_at":"2026-03-05T16:13:09.769314+05:30"},{"city":"Moradabad","state":"Uttar Pradesh","latitude":28.8386,"longitude":78.7733,"temp":30.3,"humidity":48,"rain":0.0,"pressure":983.9,"uv_index":5.9,"wind_gusts":18.0,"aqi":172,"pm10":150.4,"pm2_5":74.3,"mosquito_risk":0,"arthritis_risk":5,"migraine_risk":3,"frizz_risk":1,"updated_at":"2026-03-05T16:13:09.769320+05:30"},{"city":"Saharanpur","state":"Uttar Pradesh","latitude":29.9637,"longitude":77.546,"temp":31.7,"humidity":41,"rain":0.0,"pressure":975.7,"uv_index":5.5,"wind_gusts":23.4,"aqi":155,"pm10":177.0,"pm2_5":55.1,"mosquito_risk":0,"arthritis_risk":5,"migraine_risk":3,"frizz_risk":1,"updated_at":"2026-03-05T16:13:09.769327+05:30"},{"city":"Jhansi","state":"Uttar Pradesh","latitude":25.4484,"longitude":78.5685,"temp":35.5,"humidity":21,"rain":0.0,"pressure":978.6,"uv_index":6.85,"wind_gusts":35.3,"aqi":55,"pm10":34.6,"pm2_5":15.8,"mosquito_risk":0,"arthritis_risk":5,"migraine_risk":10,"frizz_risk":0,"updated_at":"2026-03-05T16:13:12.983550+05:30"},{"city":"Surat","state":"Gujarat","latitude":21.1702,"longitude":72.8311,"temp":35.3,"humidity":25,"rain":0.0,"pressure":1007.7,"uv_index":7.1,"wind_gusts":29.5,"aqi":113,"pm10":30.5,"pm2_5":28.3,"mosquito_risk":0,"arthritis_risk":5,"migraine_risk":7,"frizz_risk":0,"updated_at":"2026-03-05T16:13:12.983584+05:30"},{"city":"Vadodara","state":"Gujarat","latitude":22.3072,"longitude":73.1812,"temp":38.7,"humidity":17,"rain":0.0,"pressure":1005.2,"uv_index":7.2,"wind_gusts":24.5,"aqi":84,"pm10":23.1,"pm2_5":19.6,"mosquito_risk":0,"arthritis_risk":5,"migraine_risk":7,"frizz_risk":0,"updated_at":"2026-03-05T16:13:12.983596+05:30"},{"city":"Rajkot","state":"Gujarat","latitude":22.3039,"longitude":70.8022,"temp":35.0,"humidity":18,"rain":0.0,"pressure":997.0,"uv_index":7.05,"wind_gusts":36.4,"aqi":57,"pm10":21.9,"pm2_5":20.8,"mosquito_risk":0,"arthritis_risk":5,"migraine_risk":7,"frizz_risk":0,"updated_at":"2026-03-05T16:13:12.983605+05:30"},{"city":"Thane","state":"Maharashtra","latitude":19.2183,"longitude":72.9781,"temp":36.0,"humidity":30,"rain":0.0,"pressure":1007.6,"uv_index":7.4,"wind_gusts":41.4,"aqi":142,"pm10":39.1,"pm2_5":37.1,"mosquito_risk":0,"arthritis_risk":5,"migraine_risk":7,"frizz_risk":0,"updated_at":"2026-03-05T16:13:12.983614+05:30"},{"city":"Nagpur","state":"Maharashtra","latitude":21.1458,"longitude":79.0882,"temp":36.4,"humidity":14,"rain":0.0,"pressure":973.0,"uv_index":7.8,"wind_gusts":27.0,"aqi":66,"pm10":16.4,"pm2_5":10.6,"mosquito_risk":0,"arthritis_risk":5,"migraine_risk":10,"frizz_risk":0,"updated_at":"2026-03-05T16:13:12.983623+05:30"},{"city":"Nashik","state":"Maharashtra","latitude":19.9975,"longitude":73.7898,"temp":35.3,"humidity":20,"rain":0.0,"pressure":946.6,"uv_index":7.6,"wind_gusts":37.4,"aqi":78,"pm10":18.0,"pm2_5":14.8,"mosquito_risk":0,"arthritis_risk":5,"migraine_risk":10,"frizz_risk":0,"updated_at":"2026-03-05T16:13:12.983632+05:30"},{"city":"Aurangabad","state":"Maharashtra","latitude":19.8762,"longitude":75.3433,"temp":35.8,"humidity":18,"rain":0.0,"pressure":944.9,"uv_index":8.1,"wind_gusts":30.2,"aqi":84,"pm10":18.6,"pm2_5":15.8,"mosquito_risk":0,"arthritis_risk":5,"migraine_risk":10,"frizz_risk":0,"updated_at":"2026-03-05T16:13:12.983640+05:30"},{"city":"Solapur","state":"Maharashtra","latitude":17.6599,"longitude":75.9064,"temp":35.5,"humidity":20,"rain":0.0,"pressure":957.1,"uv_index":8.35,"wind_gusts":19.1,"aqi":99,"pm10":20.5,"pm2_5":18.5,"mosquito_risk":0,"arthritis_risk":5,"migraine_risk":10,"frizz_risk":0,"updated_at":"2026-03-05T16:13:12.983649+05:30"},{"city":"Kolhapur","state":"Maharashtra","latitude":16.705,"longitude":74.2433,"temp":35.3,"humidity":20,"rain":0.0,"pressure":947.7,"uv_index":8.5,"wind_gusts":34.6,"aqi":152,"pm10":23.0,"pm2_5":21.5,"mosquito_risk":0,"arthritis_risk":5,"migraine_risk":10,"frizz_risk":0,"updated_at":"2026-03-05T16:13:12.983657+05:30"},{"city":"Goa","state":"Goa","latitude":15.2993,"longitude":74.124,"temp":30.1,"humidity":68,"rain":0.0,"pressure":996.9,"uv_index":8.55,"wind_gusts":36.0,"aqi":152,"pm10":50.2,"pm2_5":47.1,"mosquito_risk":3,"arthritis_risk":5,"migraine_risk":7,"frizz_risk":1,"updated_at":"2026-03-05T16:13:12.983665+05:30"},{"city":"Jodhpur","state":"Rajasthan","latitude":26.2389,"longitude":73.0243,"temp":36.1,"humidity":16,"rain":0.0,"pressure":985.3,"uv_index":6.9,"wind_gusts":24.1,"aqi":82,"pm10":56.1,"pm2_5":13.2,"mosquito_risk":0,"arthritis_risk":5,"migraine_risk":10,"frizz_risk":0,"updated_at":"2026-03-05T16:13:12.983674+05:30"},{"city":"Udaipur","state":"Rajasthan","latitude":24.5854,"longitude":73.7125,"temp":34.4,"humidity":17,"rain":0.0,"pressure":949.2,"uv_index":7.55,"wind_gusts":25.9,"aqi":59,"pm10":12.7,"pm2_5":9.9,"mosquito_risk":0,"arthritis_risk":5,"migraine_risk":7,"frizz_risk":0,"updated_at":"2026-03-05T16:13:12.983681+05:30"},{"city":"Kota","state":"Rajasthan","latitude":25.2138,"longitude":75.8648,"temp":36.6,"humidity":19,"rain":0.0,"pressure":980.0,"uv_index":6.95,"wind_gusts":28.8,"aqi":73,"pm10":59.8,"pm2_5":18.3,"mosquito_risk":0,"arthritis_risk":5,"migraine_risk":10,"frizz_risk":0,"updated_at":"2026-03-05T16:13:12.983689+05:30"},{"city":"Bikaner","state":"Rajasthan","latitude":28.0229,"longitude":73.3119,"temp":35.6,"humidity":19,"rain":0.0,"pressure":984.0,"uv_index":6.6,"wind_gusts":20.9,"aqi":64,"pm10":85.9,"pm2_5":19.3,"mosquito_risk":0,"arthritis_risk":5,"migraine_risk":10,"frizz_risk":0,"updated_at":"2026-03-05T16:13:12.983698+05:30"},{"city":"Ajmer","state":"Rajasthan","latitude":26.4499,"longitude":74.6399,"temp":35.0,"humidity":19,"rain":0.0,"pressure":956.9,"uv_index":6.9,"wind_gusts":25.6,"aqi":69,"pm10":72.2,"pm2_5":19.9,"mosquito_risk":0,"arthritis_risk":5,"migraine_risk":7,"frizz_risk":0,"updated_at":"2026-03-05T16:13:12.983706+05:30"},{"city":"Gwalior","state":"Madhya Pradesh","latitude":26.2183,"longitude":78.1828,"temp":33.8,"humidity":28,"rain":0.0,"pressure":983.8,"uv_index":6.55,"wind_gusts":32.8,"aqi":67,"pm10":40.6,"pm2_5":19.3,"mosquito_risk":0,"arthritis_risk":5,"migraine_risk":7,"frizz_risk":0,"updated_at":"2026-03-05T16:13:12.983714+05:30"},{"city":"Indore","state":"Madhya Pradesh","latitude":22.7196,"longitude":75.8577,"temp":33.5,"humidity":19,"rain":0.0,"pressure":950.1,"uv_index":7.5,"wind_gusts":25.2,"aqi":77,"pm10":23.2,"pm2_5":12.0,"mosquito_risk":0,"arthritis_risk":5,"migraine_risk":7,"frizz_risk":0,"updated_at":"2026-03-05T16:13:12.983739+05:30"},{"city":"Bhopal","state":"Madhya Pradesh","latitude":23.2599,"longitude":77.4126,"temp":33.7,"humidity":21,"rain":0.0,"pressure":955.4,"uv_index":7.35,"wind_gusts":29.5,"aqi":67,"pm10":29.3,"pm2_5":13.0,"mosquito_risk":0,"arthritis_risk":5,"migraine_risk":7,"frizz_risk":0,"updated_at":"2026-03-05T16:13:12.983747+05:30"},{"city":"Jabalpur","state":"Madhya Pradesh","latitude":23.1815,"longitude":79.9864,"temp":34.2,"humidity":22,"rain":0.0,"pressure":962.1,"uv_index":7.5,"wind_gusts":30.2,"aqi":55,"pm10":28.6,"pm2_5":13.2,"mosquito_risk":0,"arthritis_risk":5,"migraine_risk":7,"frizz_risk":0,"updated_at":"2026-03-05T16:13:12.983753+05:30"},{"city":"Ujjain","state":"Madhya Pradesh","latitude":23.1765,"longitude":75.7885,"temp":33.5,"humidity":20,"rain":0.0,"pressure":955.7,"uv_index":7.4,"wind_gusts":23.0,"aqi":107,"pm10":25.8,"pm2_5":13.7,"mosquito_risk":0,"arthritis_risk":5,"migraine_risk":7,"frizz_risk":0,"updated_at":"2026-03-05T16:13:12.983760+05:30"},{"city":"Visakhapatnam","state":"Andhra Pradesh","latitude":17.6868,"longitude":83.2185,"temp":33.1,"humidity":41,"rain":0.0,"pressure":1001.5,"uv_index":8.45,"wind_gusts":33.1,"aqi":106,"pm10":46.1,"pm2_5":42.1,"mosquito_risk":0,"arthritis_risk":5,"migraine_risk":4,"frizz_risk":1,"updated_at":"2026-03-05T16:13:12.983767+05:30"},{"city":"Vijayawada","state":"Andhra Pradesh","latitude":16.5062,"longitude":80.648,"temp":35.6,"humidity":29,"rain":0.0,"pressure":1000.9,"uv_index":8.5,"wind_gusts":17.3,"aqi":116,"pm10":23.9,"pm2_5":21.4,"mosquito_risk":0,"arthritis_risk":5,"migraine_risk":7,"frizz_risk":0,"updated_at":"2026-03-05T16:13:12.983774+05:30"},{"city":"Guntur","state":"Andhra Pradesh","latitude":16.3067,"longitude":80.4365,"temp":36.2,"humidity":24,"rain":0.0,"pressure":1002.1,"uv_index":8.5,"wind_gusts":20.9,"aqi":111,"pm10":18.9,"pm2_5":16.5,"mosquito_risk":0,"arthritis_risk":5,"migraine_risk":7,"frizz_risk":0,"updated_at":"2026-03-05T16:13:12.983780+05:30"},{"city":"Nellore","state":"Andhra Pradesh","latitude":14.4426,"longitude":79.9865,"temp":36.5,"humidity":29,"rain":0.0,"pressure":1004.1,"uv_index":8.7,"wind_gusts":28.4,"aqi":100,"pm10":31.8,"pm2_5":28.6,"mosquito_risk":0,"arthritis_risk":5,"migraine_risk":7,"frizz_risk":0,"updated_at":"2026-03-05T16:13:12.983787+05:30"},{"city":"Kurnool","state":"Andhra Pradesh","latitude":15.8281,"longitude":78.0373,"temp":37.2,"humidity":18,"rain":0.0,"pressure":975.9,"uv_index":8.5,"wind_gusts":27.0,"aqi":101,"pm10":16.8,"pm2_5":14.9,"mosquito_risk":0,"arthritis_risk":5,"migraine_risk":10,"frizz_risk":0,"updated_at":"2026-03-05T16:13:12.983795+05:30"},{"city":"Kakinada","state":"Andhra Pradesh","latitude":16.9891,"longitude":82.2475,"temp":36.8,"humidity":27,"rain":0.0,"pressure":1004.6,"uv_index":8.45,"wind_gusts":27.4,"aqi":99,"pm10":34.5,"pm2_5":31.1,"mosquito_risk":0,"arthritis_risk":5,"migraine_risk":7,"frizz_risk":0,"updated_at":"2026-03-05T16:13:12.983801+05:30"},{"city":"Tirupati","state":"Andhra Pradesh","latitude":13.6288,"longitude":79.4192,"temp":35.4,"humidity":20,"rain":0.0,"pressure":990.2,"uv_index":8.8,"wind_gusts":29.5,"aqi":130,"pm10":28.7,"pm2_5":24.6,"mosquito_risk":0,"arthritis_risk":5,"migraine_risk":10,"frizz_risk":0,"updated_at":"2026-03-05T16:13:12.983808+05:30"},{"city":"Warangal","state":"Telangana","latitude":17.9689,"longitude":79.5941,"temp":35.3,"humidity":21,"rain":0.0,"pressure":978.1,"uv_index":8.3,"wind_gusts":27.4,"aqi":116,"pm10":16.2,"pm2_5":12.6,"mosquito_risk":0,"arthritis_risk":5,"migraine_risk":10,"frizz_risk":0,"updated_at":"2026-03-05T16:13:12.983814+05:30"},{"city":"Nizamabad","state":"Telangana","latitude":18.6725,"longitude":78.0941,"temp":35.4,"humidity":21,"rain":0.0,"pressure":964.7,"uv_index":8.15,"wind_gusts":22.3,"aqi":89,"pm10":13.0,"pm2_5":10.7,"mosquito_risk":0,"arthritis_risk":5,"migraine_risk":10,"frizz_risk":0,"updated_at":"2026-03-05T16:13:12.983820+05:30"},{"city":"Mysore","state":"Karnataka","latitude":12.2958,"longitude":76.6396,"temp":32.5,"humidity":27,"rain":0.0,"pressure":927.8,"uv_index":9.15,"wind_gusts":24.5,"aqi":113,"pm10":30.0,"pm2_5":29.0,"mosquito_risk":0,"arthritis_risk":5,"migraine_risk":7,"frizz_risk":0,"updated_at":"2026-03-05T16:13:12.983827+05:30"},{"city":"Mangalore","state":"Karnataka","latitude":12.9141,"longitude":74.856,"temp":28.6,"humidity":80,"rain":0.0,"pressure":1004.8,"uv_index":8.75,"wind_gusts":30.2,"aqi":131,"pm10":46.4,"pm2_5":43.0,"mosquito_risk":7,"arthritis_risk":5,"migraine_risk":4,"frizz_risk":1,"updated_at":"2026-03-05T16:13:12.983833+05:30"},{"city":"Hubli-Dharwad","state":"Karnataka","latitude":15.3647,"longitude":75.124,"temp":35.3,"humidity":21,"rain":0.0,"pressure":940.3,"uv_index":8.75,"wind_gusts":29.2,"aqi":125,"pm10":24.0,"pm2_5":22.5,"mosquito_risk":0,"arthritis_risk":5,"migraine_risk":10,"frizz_risk":0,"updated_at":"2026-03-05T16:13:12.983840+05:30"},{"city":"Belgaum","state":"Karnataka","latitude":15.8497,"longitude":74.4977,"temp":34.3,"humidity":22,"rain":0.0,"pressure":925.8,"uv_index":8.75,"wind_gusts":36.7,"aqi":129,"pm10":23.2,"pm2_5":21.2,"mosquito_risk":0,"arthritis_risk":5,"migraine_risk":7,"frizz_risk":0,"updated_at":"2026-03-05T16:13:16.197301+05:30"},{"city":"Coimbatore","state":"Tamil Nadu","latitude":11.0168,"longitude":76.9558,"temp":34.4,"humidity":24,"rain":0.0,"pressure":960.5,"uv_index":9.15,"wind_gusts":34.2,"aqi":111,"pm10":24.5,"pm2_5":23.9,"mosquito_risk":0,"arthritis_risk":5,"migraine_risk":7,"frizz_risk":0,"updated_at":"2026-03-05T16:13:16.197331+05:30"},{"city":"Madurai","state":"Tamil Nadu","latitude":9.9252,"longitude":78.1198,"temp":36.8,"humidity":20,"rain":0.0,"pressure":990.9,"uv_index":9.1,"wind_gusts":29.9,"aqi":76,"pm10":26.8,"pm2_5":24.7,"mosquito_risk":0,"arthritis_risk":5,"migraine_risk":10,"frizz_risk":0,"updated_at":"2026-03-05T16:13:16.197341+05:30"},{"city":"Trichy","state":"Tamil Nadu","latitude":10.7905,"longitude":78.7047,"temp":35.2,"humidity":26,"rain":0.0,"pressure":998.2,"uv_index":9.0,"wind_gusts":33.8,"aqi":89,"pm10":34.5,"pm2_5":31.2,"mosquito_risk":0,"arthritis_risk":5,"migraine_risk":10,"frizz_risk":0,"updated_at":"2026-03-05T16:13:16.197349+05:30"},{"city":"Salem","state":"Tamil Nadu","latitude":11.6643,"longitude":78.146,"temp":37.0,"humidity":19,"rain":0.0,"pressure":975.3,"uv_index":9.05,"wind_gusts":19.8,"aqi":104,"pm10":26.1,"pm2_5":24.2,"mosquito_risk":0,"arthritis_risk":5,"migraine_risk":10,"frizz_risk":0,"updated_at":"2026-03-05T16:13:16.197356+05:30"},{"city":"Tirunelveli","state":"Tamil Nadu","latitude":8.7139,"longitude":77.7567,"temp":37.4,"humidity":20,"rain":0.0,"pressure":1001.3,"uv_index":9.15,"wind_gusts":48.6,"aqi":73,"pm10":15.2,"pm2_5":14.2,"mosquito_risk":0,"arthritis_risk":5,"migraine_risk":7,"frizz_risk":0,"updated_at":"2026-03-05T16:13:16.197364+05:30"},{"city":"Vellore","state":"Tamil Nadu","latitude":12.9165,"longitude":79.1325,"temp":34.8,"humidity":21,"rain":0.0,"pressure":983.3,"uv_index":8.9,"wind_gusts":29.2,"aqi":119,"pm10":33.6,"pm2_5":28.9,"mosquito_risk":0,"arthritis_risk":5,"migraine_risk":7,"frizz_risk":0,"updated_at":"2026-03-05T16:13:16.197370+05:30"},{"city":"Erode","state":"Tamil Nadu","latitude":11.341,"longitude":77.7172,"temp":36.1,"humidity":29,"rain":0.0,"pressure":987.0,"uv_index":9.05,"wind_gusts":19.8,"aqi":82,"pm10":30.0,"pm2_5":28.8,"mosquito_risk":0,"arthritis_risk":5,"migraine_risk":10,"frizz_risk":0,"updated_at":"2026-03-05T16:13:16.197377+05:30"},{"city":"Kochi","state":"Kerala","latitude":9.9312,"longitude":76.2673,"temp":28.4,"humidity":76,"rain":0.0,"pressure":1007.0,"uv_index":8.95,"wind_gusts":38.2,"aqi":144,"pm10":44.0,"pm2_5":41.7,"mosquito_risk":7,"arthritis_risk":5,"migraine_risk":4,"frizz_risk":1,"updated_at":"2026-03-05T16:13:16.197384+05:30"},{"city":"Thiruvananthapuram","state":"Kerala","latitude":8.5241,"longitude":76.9366,"temp":28.2,"humidity":76,"rain":0.0,"pressure":1006.8,"uv_index":9.0,"wind_gusts":32.8,"aqi":125,"pm10":34.1,"pm2_5":31.4,"mosquito_risk":7,"arthritis_risk":5,"migraine_risk":4,"frizz_risk":1,"updated_at":"2026-03-05T16:13:16.197391+05:30"},{"city":"Kozhikode","state":"Kerala","latitude":11.2588,"longitude":75.7804,"temp":29.2,"humidity":75,"rain":0.0,"pressure":1006.3,"uv_index":8.85,"wind_gusts":30.6,"aqi":126,"pm10":45.6,"pm2_5":41.0,"mosquito_risk":7,"arthritis_risk":5,"migraine_risk":4,"frizz_risk":1,"updated_at":"2026-03-05T16:13:16.197397+05:30"},{"city":"Thrissur","state":"Kerala","latitude":10.5276,"longitude":76.2144,"temp":31.1,"humidity":66,"rain":0.0,"pressure":1005.4,"uv_index":8.95,"wind_gusts":36.7,"aqi":141,"pm10":33.5,"pm2_5":31.9,"mosquito_risk":3,"arthritis_risk":5,"migraine_risk":4,"frizz_risk":1,"updated_at":"2026-03-05T16:13:16.197404+05:30"},{"city":"Kannur","state":"Kerala","latitude":11.8745,"longitude":75.3704,"temp":30.0,"humidity":71,"rain":0.0,"pressure":1005.5,"uv_index":8.85,"wind_gusts":37.4,"aqi":133,"pm10":46.2,"pm2_5":42.4,"mosquito_risk":7,"arthritis_risk":5,"migraine_risk":4,"frizz_risk":1,"updated_at":"2026-03-05T16:13:16.197411+05:30"},{"city":"Patna","state":"Bihar","latitude":25.5941,"longitude":85.1376,"temp":30.5,"humidity":40,"rain":0.0,"pressure":1000.8,"uv_index":7.2,"wind_gusts":14.4,"aqi":167,"pm10":115.9,"pm2_5":56.5,"mosquito_risk":0,"arthritis_risk":5,"migraine_risk":4,"frizz_risk":0,"updated_at":"2026-03-05T16:13:16.197418+05:30"},{"city":"Gaya","state":"Bihar","latitude":24.7914,"longitude":85.0002,"temp":28.9,"humidity":49,"rain":0.0,"pressure":994.2,"uv_index":7.3,"wind_gusts":12.6,"aqi":152,"pm10":141.1,"pm2_5":49.1,"mosquito_risk":4,"arthritis_risk":5,"migraine_risk":7,"frizz_risk":1,"updated_at":"2026-03-05T16:13:16.197424+05:30"},{"city":"Muzaffarpur","state":"Bihar","latitude":26.1209,"longitude":85.3647,"temp":30.7,"humidity":39,"rain":0.0,"pressure":1000.8,"uv_index":7.15,"wind_gusts":15.5,"aqi":172,"pm10":87.5,"pm2_5":57.5,"mosquito_risk":0,"arthritis_risk":5,"migraine_risk":4,"frizz_risk":0,"updated_at":"2026-03-05T16:13:16.197430+05:30"},{"city":"Bhagalpur","state":"Bihar","latitude":25.2425,"longitude":87.0117,"temp":29.6,"humidity":41,"rain":0.0,"pressure":1001.5,"uv_index":7.25,"wind_gusts":14.0,"aqi":163,"pm10":74.5,"pm2_5":54.0,"mosquito_risk":4,"arthritis_risk":5,"migraine_risk":4,"frizz_risk":0,"updated_at":"2026-03-05T16:13:16.197436+05:30"},{"city":"Ranchi","state":"Jharkhand","latitude":23.3441,"longitude":85.3096,"temp":29.0,"humidity":34,"rain":0.0,"pressure":937.4,"uv_index":7.95,"wind_gusts":19.1,"aqi":132,"pm10":102.2,"pm2_5":38.5,"mosquito_risk":4,"arthritis_risk":5,"migraine_risk":7,"frizz_risk":0,"updated_at":"2026-03-05T16:13:16.197442+05:30"},{"city":"Jamshedpur","state":"Jharkhand","latitude":22.8046,"longitude":86.2029,"temp":32.6,"humidity":26,"rain":0.0,"pressure":989.7,"uv_index":7.85,"wind_gusts":11.2,"aqi":155,"pm10":105.2,"pm2_5":57.7,"mosquito_risk":0,"arthritis_risk":5,"migraine_risk":7,"frizz_risk":0,"updated_at":"2026-03-05T16:13:16.197448+05:30"},{"city":"Dhanbad","state":"Jharkhand","latitude":23.7957,"longitude":86.4304,"temp":32.6,"humidity":25,"rain":0.0,"pressure":979.1,"uv_index":7.75,"wind_gusts":16.2,"aqi":157,"pm10":116.9,"pm2_5":69.8,"mosquito_risk":0,"arthritis_risk":5,"migraine_risk":7,"frizz_risk":0,"updated_at":"2026-03-05T16:13:16.197454+05:30"},{"city":"Bokaro","state":"Jharkhand","latitude":23.6693,"longitude":86.1511,"temp":31.9,"humidity":29,"rain":0.0,"pressure":983.1,"uv_index":7.75,"wind_gusts":13.3,"aqi":159,"pm10":119.2,"pm2_5":73.8,"mosquito_risk":0,"arthritis_risk":5,"migraine_risk":7,"frizz_risk":0,"updated_at":"2026-03-05T16:13:16.197460+05:30"},{"city":"Bhubaneswar","state":"Odisha","latitude":20.2961,"longitude":85.8245,"temp":36.0,"humidity":17,"rain":0.0,"pressure":1000.1,"uv_index":8.15,"wind_gusts":25.2,"aqi":152,"pm10":81.7,"pm2_5":44.0,"mosquito_risk":0,"arthritis_risk":5,"migraine_risk":7,"frizz_risk":0,"updated_at":"2026-03-05T16:13:16.197467+05:30"},{"city":"Cuttack","state":"Odisha","latitude":20.4625,"longitude":85.8828,"temp":35.6,"humidity":20,"rain":0.0,"pressure":1002.2,"uv_index":8.2,"wind_gusts":26.6,"aqi":152,"pm10":81.7,"pm2_5":44.0,"mosquito_risk":0,"arthritis_risk":5,"migraine_risk":7,"frizz_risk":0,"updated_at":"2026-03-05T16:13:16.197473+05:30"},{"city":"Rourkela","state":"Odisha","latitude":22.2604,"longitude":84.8536,"temp":33.8,"humidity":28,"rain":0.0,"pressure":983.5,"uv_index":7.8,"wind_gusts":23.0,"aqi":107,"pm10":129.9,"pm2_5":40.6,"mosquito_risk":0,"arthritis_risk":5,"migraine_risk":7,"frizz_risk":0,"updated_at":"2026-03-05T16:13:16.197479+05:30"},{"city":"Raipur","state":"Chhattisgarh","latitude":21.2514,"longitude":81.6296,"temp":37.1,"humidity":15,"rain":0.0,"pressure":973.7,"uv_index":7.85,"wind_gusts":27.7,"aqi":115,"pm10":27.9,"pm2_5":15.3,"mosquito_risk":0,"arthritis_risk":5,"migraine_risk":10,"frizz_risk":0,"updated_at":"2026-03-05T16:13:16.197485+05:30"},{"city":"Bhilai","state":"Chhattisgarh","latitude":21.1938,"longitude":81.3509,"temp":37.3,"humidity":15,"rain":0.0,"pressure":974.2,"uv_index":7.85,"wind_gusts":27.7,"aqi":96,"pm10":27.1,"pm2_5":14.0,"mosquito_risk":0,"arthritis_risk":5,"migraine_risk":10,"frizz_risk":0,"updated_at":"2026-03-05T16:13:16.197491+05:30"},{"city":"Guwahati","state":"Assam","latitude":26.1158,"longitude":91.7086,"temp":30.3,"humidity":44,"rain":0.0,"pressure":1000.7,"uv_index":7.15,"wind_gusts":18.0,"aqi":140,"pm10":41.1,"pm2_5":35.3,"mosquito_risk":0,"arthritis_risk":5,"migraine_risk":4,"frizz_risk":1,"updated_at":"2026-03-05T16:13:16.197497+05:30"},{"city":"Agartala","state":"Tripura","latitude":23.8315,"longitude":91.2868,"temp":30.6,"humidity":44,"rain":0.0,"pressure":1005.1,"uv_index":7.55,"wind_gusts":16.2,"aqi":160,"pm10":66.4,"pm2_5":50.2,"mosquito_risk":0,"arthritis_risk":5,"migraine_risk":4,"frizz_risk":1,"updated_at":"2026-03-05T16:13:16.197503+05:30"},{"city":"Shillong","state":"Meghalaya","latitude":25.5788,"longitude":91.8933,"temp":19.3,"humidity":50,"rain":0.0,"pressure":856.8,"uv_index":7.55,"wind_gusts":15.8,"aqi":120,"pm10":47.4,"pm2_5":39.2,"mosquito_risk":0,"arthritis_risk":5,"migraine_risk":7,"frizz_risk":0,"updated_at":"2026-03-05T16:13:16.197510+05:30"},{"city":"Imphal","state":"Manipur","latitude":24.817,"longitude":93.9368,"temp":23.9,"humidity":44,"rain":0.0,"pressure":922.5,"uv_index":7.75,"wind_gusts":23.0,"aqi":150,"pm10":34.8,"pm2_5":29.6,"mosquito_risk":0,"arthritis_risk":5,"migraine_risk":7,"frizz_risk":0,"updated_at":"2026-03-05T16:13:16.197516+05:30"},{"city":"Aizawl","state":"Mizoram","latitude":23.7271,"longitude":92.7176,"temp":25.3,"humidity":37,"rain":0.0,"pressure":892.6,"uv_index":7.75,"wind_gusts":23.8,"aqi":156,"pm10":59.3,"pm2_5":48.5,"mosquito_risk":4,"arthritis_risk":5,"migraine_risk":7,"frizz_risk":0,"updated_at":"2026-03-05T16:13:16.197522+05:30"},{"city":"Kohima","state":"Nagaland","latitude":25.6701,"longitude":94.1077,"temp":18.3,"humidity":73,"rain":0.0,"pressure":854.8,"uv_index":7.6,"wind_gusts":36.7,"aqi":142,"pm10":36.4,"pm2_5":31.2,"mosquito_risk":3,"arthritis_risk":5,"migraine_risk":7,"frizz_risk":0,"updated_at":"2026-03-05T16:13:16.197528+05:30"},{"city":"Gangtok","state":"Sikkim","latitude":27.3314,"longitude":88.6138,"temp":19.7,"humidity":59,"rain":0.0,"pressure":838.7,"uv_index":7.5,"wind_gusts":21.2,"aqi":118,"pm10":31.4,"pm2_5":27.4,"mosquito_risk":0,"arthritis_risk":5,"migraine_risk":7,"frizz_risk":0,"updated_at":"2026-03-05T16:13:16.197534+05:30"},{"city":"Siliguri","state":"West Bengal","latitude":26.7271,"longitude":88.3953,"temp":25.8,"humidity":53,"rain":0.0,"pressure":994.1,"uv_index":7.15,"wind_gusts":22.3,"aqi":143,"pm10":37.3,"pm2_5":30.3,"mosquito_risk":4,"arthritis_risk":5,"migraine_risk":7,"frizz_risk":0,"updated_at":"2026-03-05T16:13:19.412138+05:30"},{"city":"Durgapur","state":"West Bengal","latitude":23.5204,"longitude":87.3119,"temp":32.7,"humidity":28,"rain":0.0,"pressure":994.2,"uv_index":7.7,"wind_gusts":20.2,"aqi":157,"pm10":103.8,"pm2_5":61.0,"mosquito_risk":0,"arthritis_risk":5,"migraine_risk":7,"frizz_risk":0,"updated_at":"2026-03-05T16:13:19.412166+05:30"},{"city":"Asansol","state":"West Bengal","latitude":23.6739,"longitude":86.9524,"temp":32.6,"humidity":29,"rain":0.0,"pressure":992.7,"uv_index":7.7,"wind_gusts":15.1,"aqi":155,"pm10":118.7,"pm2_5":64.3,"mosquito_risk":0,"arthritis_risk":5,"migraine_risk":7,"frizz_risk":0,"updated_at":"2026-03-05T16:13:19.412176+05:30"},{"city":"Pondicherry","state":"Puducherry","latitude":11.9139,"longitude":79.8145,"temp":34.1,"humidity":39,"rain":0.0,"pressure":1007.0,"uv_index":8.85,"wind_gusts":24.5,"aqi":82,"pm10":21.0,"pm2_5":18.0,"mosquito_risk":0,"arthritis_risk":5,"migraine_risk":4,"frizz_risk":1,"updated_at":"2026-03-05T16:13:19.412183+05:30"},{"city":"Port Blair","state":"Andaman and Nicobar Islands","latitude":11.6234,"longitude":92.7265,"temp":27.1,"humidity":72,"rain":0.0,"pressure":1005.8,"uv_index":8.8,"wind_gusts":23.4,"aqi":68,"pm10":17.8,"pm2_5":13.3,"mosquito_risk":7,"arthritis_risk":5,"migraine_risk":4,"frizz_risk":1,"updated_at":"2026-03-05T16:13:19.412191+05:30"},{"city":"Haridwar","state":"Uttarakhand","latitude":29.9457,"longitude":78.1642,"temp":29.6,"humidity":51,"rain":0.0,"pressure":974.7,"uv_index":5.65,"wind_gusts":21.6,"aqi":137,"pm10":72.6,"pm2_5":42.7,"mosquito_risk":4,"arthritis_risk":5,"migraine_risk":3,"frizz_risk":1,"updated_at":"2026-03-05T16:13:19.412198+05:30"},{"city":"Rishikesh","state":"Uttarakhand","latitude":30.0869,"longitude":78.2676,"temp":28.8,"humidity":51,"rain":0.0,"pressure":967.6,"uv_index":5.7,"wind_gusts":20.9,"aqi":112,"pm10":79.4,"pm2_5":45.3,"mosquito_risk":4,"arthritis_risk":5,"migraine_risk":3,"frizz_risk":1,"updated_at":"2026-03-05T16:13:19.412205+05:30"},{"city":"Nainital","state":"Uttarakhand","latitude":29.3919,"longitude":79.4542,"temp":20.7,"humidity":67,"rain":0.0,"pressure":807.3,"uv_index":6.5,"wind_gusts":53.6,"aqi":153,"pm10":99.9,"pm2_5":59.5,"mosquito_risk":3,"arthritis_risk":5,"migraine_risk":7,"frizz_risk":0,"updated_at":"2026-03-05T16:13:19.412213+05:30"},{"city":"Mussoorie","state":"Uttarakhand","latitude":30.4599,"longitude":78.0664,"temp":20.7,"humidity":64,"rain":0.0,"pressure":804.6,"uv_index":6.05,"wind_gusts":37.1,"aqi":104,"pm10":53.8,"pm2_5":39.1,"mosquito_risk":3,"arthritis_risk":5,"migraine_risk":7,"frizz_risk":0,"updated_at":"2026-03-05T16:13:19.412220+05:30"},{"city":"Dharamshala","state":"Himachal Pradesh","latitude":32.219,"longitude":76.3234,"temp":27.0,"humidity":41,"rain":0.0,"pressure":872.0,"uv_index":6.3,"wind_gusts":24.5,"aqi":50,"pm10":21.1,"pm2_5":9.3,"mosquito_risk":4,"arthritis_risk":5,"migraine_risk":7,"frizz_risk":0,"updated_at":"2026-03-05T16:13:19.412227+05:30"},{"city":"Dalhousie","state":"Himachal Pradesh","latitude":32.5387,"longitude":75.971,"temp":25.9,"humidity":36,"rain":0.0,"pressure":808.2,"uv_index":6.45,"wind_gusts":21.2,"aqi":82,"pm10":35.6,"pm2_5":19.9,"mosquito_risk":4,"arthritis_risk":5,"migraine_risk":7,"frizz_risk":0,"updated_at":"2026-03-05T16:13:19.412235+05:30"},{"city":"Patiala","state":"Punjab","latitude":30.3398,"longitude":76.3869,"temp":32.2,"humidity":36,"rain":0.0,"pressure":979.0,"uv_index":5.7,"wind_gusts":28.4,"aqi":352,"pm10":575.6,"pm2_5":90.8,"mosquito_risk":0,"arthritis_risk":5,"migraine_risk":3,"frizz_risk":0,"updated_at":"2026-03-05T16:13:19.412242+05:30"},{"city":"Bhatinda","state":"Punjab","latitude":30.211,"longitude":74.9455,"temp":33.6,"humidity":35,"rain":0.0,"pressure":985.0,"uv_index":6.35,"wind_gusts":27.0,"aqi":137,"pm10":70.3,"pm2_5":39.8,"mosquito_risk":0,"arthritis_risk":5,"migraine_risk":7,"frizz_risk":1,"updated_at":"2026-03-05T16:13:19.412249+05:30"},{"city":"Rohtak","state":"Haryana","latitude":28.8955,"longitude":76.6066,"temp":32.9,"humidity":36,"rain":0.0,"pressure":982.7,"uv_index":5.85,"wind_gusts":33.1,"aqi":549,"pm10":976.0,"pm2_5":122.0,"mosquito_risk":0,"arthritis_risk":5,"migraine_risk":3,"frizz_risk":0,"updated_at":"2026-03-05T16:13:19.412255+05:30"},{"city":"Panipat","state":"Haryana","latitude":29.3909,"longitude":76.9635,"temp":32.8,"humidity":35,"rain":0.0,"pressure":980.9,"uv_index":5.65,"wind_gusts":32.4,"aqi":1246,"pm10":1624.2,"pm2_5":181.1,"mosquito_risk":0,"arthritis_risk":5,"migraine_risk":3,"frizz_risk":0,"updated_at":"2026-03-05T16:13:19.412261+05:30"},{"city":"Mathura","state":"Uttar Pradesh","latitude":27.4924,"longitude":77.6737,"temp":34.6,"humidity":27,"rain":0.0,"pressure":987.2,"uv_index":6.15,"wind_gusts":34.9,"aqi":622,"pm10":1173.5,"pm2_5":134.1,"mosquito_risk":0,"arthritis_risk":5,"migraine_risk":7,"frizz_risk":0,"updated_at":"2026-03-05T16:13:19.412268+05:30"},{"city":"Vrindavan","state":"Uttar Pradesh","latitude":27.5823,"longitude":77.7027,"temp":34.3,"humidity":28,"rain":0.0,"pressure":987.6,"uv_index":6.1,"wind_gusts":37.1,"aqi":622,"pm10":1173.5,"pm2_5":134.1,"mosquito_risk":0,"arthritis_risk":5,"migraine_risk":7,"frizz_risk":0,"updated_at":"2026-03-05T16:13:19.412274+05:30"},{"city":"Ayodhya","state":"Uttar Pradesh","latitude":26.7922,"longitude":82.1998,"temp":30.4,"humidity":43,"rain":0.0,"pressure":995.6,"uv_index":6.55,"wind_gusts":10.1,"aqi":177,"pm10":130.9,"pm2_5":69.2,"mosquito_risk":0,"arthritis_risk":5,"migraine_risk":7,"frizz_risk":1,"updated_at":"2026-03-05T16:13:19.412280+05:30"},{"city":"Ratlam","state":"Madhya Pradesh","latitude":23.3315,"longitude":75.0367,"temp":33.8,"humidity":21,"rain":0.0,"pressure":956.7,"uv_index":7.35,"wind_gusts":23.0,"aqi":95,"pm10":23.0,"pm2_5":13.1,"mosquito_risk":0,"arthritis_risk":5,"migraine_risk":7,"frizz_risk":0,"updated_at":"2026-03-05T16:13:19.412287+05:30"},{"city":"Sagar","state":"Madhya Pradesh","latitude":23.8388,"longitude":78.7378,"temp":33.7,"humidity":21,"rain":0.0,"pressure":951.3,"uv_index":7.3,"wind_gusts":31.7,"aqi":59,"pm10":38.2,"pm2_5":12.6,"mosquito_risk":0,"arthritis_risk":5,"migraine_risk":7,"frizz_risk":0,"updated_at":"2026-03-05T16:13:19.412293+05:30"},{"city":"Satna","state":"Madhya Pradesh","latitude":24.6005,"longitude":80.8322,"temp":34.4,"humidity":21,"rain":0.0,"pressure":971.5,"uv_index":7.3,"wind_gusts":40.0,"aqi":69,"pm10":55.9,"pm2_5":25.2,"mosquito_risk":0,"arthritis_risk":5,"migraine_risk":7,"frizz_risk":0,"updated_at":"2026-03-05T16:13:19.412299+05:30"},{"city":"Akola","state":"Maharashtra","latitude":20.7002,"longitude":77.0082,"temp":37.3,"humidity":14,"rain":0.0,"pressure":975.2,"uv_index":7.8,"wind_gusts":26.6,"aqi":77,"pm10":18.9,"pm2_5":12.3,"mosquito_risk":0,"arthritis_risk":5,"migraine_risk":10,"frizz_risk":0,"updated_at":"2026-03-05T16:13:19.412307+05:30"},{"city":"Amravati","state":"Maharashtra","latitude":20.9374,"longitude":77.7796,"temp":37.5,"humidity":11,"rain":0.0,"pressure":967.3,"uv_index":7.8,"wind_gusts":16.9,"aqi":76,"pm10":18.3,"pm2_5":12.0,"mosquito_risk":0,"arthritis_risk":5,"migraine_risk":10,"frizz_risk":0,"updated_at":"2026-03-05T16:13:19.412314+05:30"},{"city":"Latur","state":"Maharashtra","latitude":18.4088,"longitude":76.5604,"temp":34.5,"humidity":16,"rain":0.0,"pressure":940.3,"uv_index":8.3,"wind_gusts":32.0,"aqi":105,"pm10":20.2,"pm2_5":17.9,"mosquito_risk":0,"arthritis_risk":5,"migraine_risk":7,"frizz_risk":0,"updated_at":"2026-03-05T16:13:19.412321+05:30"},{"city":"Nanded","state":"Maharashtra","latitude":19.1383,"longitude":77.3091,"temp":36.9,"humidity":16,"rain":0.0,"pressure":968.5,"uv_index":8.05,"wind_gusts":25.2,"aqi":92,"pm10":13.4,"pm2_5":11.2,"mosquito_risk":0,"arthritis_risk":5,"migraine_risk":10,"frizz_risk":0,"updated_at":"2026-03-05T16:13:19.412328+05:30"},{"city":"Gulbarga","state":"Karnataka","latitude":17.3297,"longitude":76.8343,"temp":36.7,"humidity":19,"rain":0.0,"pressure":958.3,"uv_index":8.35,"wind_gusts":22.3,"aqi":106,"pm10":15.4,"pm2_5":13.5,"mosquito_risk":0,"arthritis_risk":5,"migraine_risk":10,"frizz_risk":0,"updated_at":"2026-03-05T16:13:19.412334+05:30"},{"city":"Bidar","state":"Karnataka","latitude":17.9104,"longitude":77.5199,"temp":35.0,"humidity":18,"rain":0.0,"pressure":935.7,"uv_index":8.3,"wind_gusts":24.8,"aqi":103,"pm10":15.0,"pm2_5":13.2,"mosquito_risk":0,"arthritis_risk":5,"migraine_risk":7,"frizz_risk":0,"updated_at":"2026-03-05T16:13:19.412340+05:30"},{"city":"Hospet","state":"Karnataka","latitude":15.2689,"longitude":76.3909,"temp":35.8,"humidity":18,"rain":0.0,"pressure":955.1,"uv_index":8.7,"wind_gusts":25.9,"aqi":107,"pm10":24.8,"pm2_5":23.1,"mosquito_risk":0,"arthritis_risk":5,"migraine_risk":10,"frizz_risk":0,"updated_at":"2026-03-05T16:13:19.412346+05:30"},{"city":"Tirupur","state":"Tamil Nadu","latitude":11.1085,"longitude":77.3411,"temp":35.8,"humidity":19,"rain":0.0,"pressure":973.7,"uv_index":9.15,"wind_gusts":29.2,"aqi":99,"pm10":28.6,"pm2_5":27.6,"mosquito_risk":0,"arthritis_risk":5,"migraine_risk":10,"frizz_risk":0,"updated_at":"2026-03-05T16:13:19.412352+05:30"},{"city":"Alappuzha","state":"Kerala","latitude":9.4981,"longitude":76.3388,"temp":28.3,"humidity":76,"rain":0.0,"pressure":1007.3,"uv_index":8.95,"wind_gusts":35.3,"aqi":120,"pm10":39.9,"pm2_5":36.9,"mosquito_risk":7,"arthritis_risk":5,"migraine_risk":4,"frizz_risk":1,"updated_at":"2026-03-05T16:13:19.412358+05:30"},{"city":"Munnar","state":"Kerala","latitude":10.0889,"longitude":77.0595,"temp":29.6,"humidity":38,"rain":0.0,"pressure":858.0,"uv_index":9.45,"wind_gusts":23.4,"aqi":87,"pm10":19.4,"pm2_5":18.6,"mosquito_risk":4,"arthritis_risk":5,"migraine_risk":7,"frizz_risk":0,"updated_at":"2026-03-05T16:13:19.412365+05:30"},{"city":"Silchar","state":"Assam","latitude":24.8333,"longitude":92.7789,"temp":31.3,"humidity":37,"rain":0.0,"pressure":1003.4,"uv_index":7.5,"wind_gusts":13.7,"aqi":151,"pm10":52.7,"pm2_5":43.2,"mosquito_risk":0,"arthritis_risk":5,"migraine_risk":4,"frizz_risk":0,"updated_at":"2026-03-05T16:13:19.412371+05:30"},{"city":"Dibrugarh","state":"Assam","latitude":27.4728,"longitude":94.912,"temp":29.0,"humidity":46,"rain":0.0,"pressure":994.2,"uv_index":7.2,"wind_gusts":14.4,"aqi":121,"pm10":29.6,"pm2_5":25.2,"mosquito_risk":4,"arthritis_risk":5,"migraine_risk":7,"frizz_risk":1,"updated_at":"2026-03-05T16:13:19.412378+05:30"}]