[{"city":"Delhi","state":"Delhi","latitude":28.6139,"longitude":77.209,"temp":28.9,"humidity":50,"rain":0.0,"pressure":983.6,"uv_index":5.95,"wind_gusts":32.4,"aqi":145,"pm10":444.2,"pm2_5":83.1,"mosquito_risk":4,"arthritis_risk":5,"migraine_risk":3,"frizz_risk":1,"updated_at":"2026-03-29T10:44:05.779943+05:30"},{"city":"Mumbai","state":"Maharashtra","latitude":19.076,"longitude":72.8777,"temp":28.2,"humidity":77,"rain":0.0,"pressure":1010.5,"uv_index":8.0,"wind_gusts":24.5,"aqi":63,"pm10":29.6,"pm2_5":17.4,"mosquito_risk":7,"arthritis_risk":0,"migraine_risk":4,"frizz_risk":1,"updated_at":"2026-03-29T10:44:05.780001+05:30"},{"city":"Bangalore","state":"Karnataka","latitude":12.9716,"longitude":77.5946,"temp":28.7,"humidity":56,"rain":0.0,"pressure":913.7,"uv_index":9.55,"wind_gusts":28.8,"aqi":132,"pm10":62.6,"pm2_5":52.6,"mosquito_risk":4,"arthritis_risk":5,"migraine_risk":7,"frizz_risk":1,"updated_at":"2026-03-29T10:44:05.780018+05:30"},{"city":"Hyderabad","state":"Telangana","latitude":17.385,"longitude":78.4867,"temp":32.3,"humidity":40,"rain":0.0,"pressure":954.6,"uv_index":9.05,"wind_gusts":31.0,"aqi":108,"pm10":28.6,"pm2_5":26.1,"mosquito_risk":0,"arthritis_risk":5,"migraine_risk":7,"frizz_risk":1,"updated_at":"2026-03-29T10:44:05.780028+05:30"},{"city":"Chennai","state":"Tamil Nadu","latitude":13.0827,"longitude":80.2707,"temp":32.2,"humidity":60,"rain":0.0,"pressure":1008.1,"uv_index":9.25,"wind_gusts":37.4,"aqi":60,"pm10":23.3,"pm2_5":17.6,"mosquito_risk":0,"arthritis_risk":0,"migraine_risk":4,"frizz_risk":1,"updated_at":"2026-03-29T10:44:05.780038+05:30"},{"city":"Kolkata","state":"West Bengal","latitude":22.5726,"longitude":88.3639,"temp":28.9,"humidity":77,"rain":0.0,"pressure":1007.7,"uv_index":8.45,"wind_gusts":27.7,"aqi":122,"pm10":41.6,"pm2_5":30.6,"mosquito_risk":7,"arthritis_risk":5,"migraine_risk":4,"frizz_risk":1,"updated_at":"2026-03-29T10:44:05.780048+05:30"},{"city":"Pune","state":"Maharashtra","latitude":18.5204,"longitude":73.8567,"temp":30.5,"humidity":36,"rain":0.0,"pressure":950.7,"uv_index":8.55,"wind_gusts":33.8,"aqi":67,"pm10":39.7,"pm2_5":16.5,"mosquito_risk":0,"arthritis_risk":5,"migraine_risk":7,"frizz_risk":0,"updated_at":"2026-03-29T10:44:05.780061+05:30"},{"city":"Ahmedabad","state":"Gujarat","latitude":23.0225,"longitude":72.5714,"temp":30.7,"humidity":57,"rain":0.0,"pressure":1004.1,"uv_index":7.85,"wind_gusts":30.6,"aqi":33,"pm10":45.2,"pm2_5":11.7,"mosquito_risk":0,"arthritis_risk":5,"migraine_risk":4,"frizz_risk":1,"updated_at":"2026-03-29T10:44:05.780070+05:30"},{"city":"Jaipur","state":"Rajasthan","latitude":26.9124,"longitude":75.7873,"temp":31.3,"humidity":40,"rain":0.0,"pressure":960.1,"uv_index":7.2,"wind_gusts":38.2,"aqi":71,"pm10":134.6,"pm2_5":21.4,"mosquito_risk":0,"arthritis_risk":5,"migraine_risk":7,"frizz_risk":1,"updated_at":"2026-03-29T10:44:05.780078+05:30"},{"city":"Lucknow","state":"Uttar Pradesh","latitude":26.8467,"longitude":80.9462,"temp":29.4,"humidity":52,"rain":0.0,"pressure":994.8,"uv_index":7.25,"wind_gusts":16.6,"aqi":119,"pm10":193.2,"pm2_5":42.8,"mosquito_risk":4,"arthritis_risk":5,"migraine_risk":7,"frizz_risk":1,"updated_at":"2026-03-29T10:44:05.780086+05:30"},{"city":"Kanpur","state":"Uttar Pradesh","latitude":26.4499,"longitude":80.3319,"temp":29.5,"humidity":55,"rain":0.0,"pressure":992.8,"uv_index":7.25,"wind_gusts":16.9,"aqi":132,"pm10":206.8,"pm2_5":41.8,"mosquito_risk":4,"arthritis_risk":5,"migraine_risk":7,"frizz_risk":1,"updated_at":"2026-03-29T10:44:05.780094+05:30"},{"city":"Chandigarh","state":"Chandigarh","latitude":30.7333,"longitude":76.7794,"temp":25.0,"humidity":63,"rain":0.0,"pressure":970.0,"uv_index":6.5,"wind_gusts":28.1,"aqi":85,"pm10":49.7,"pm2_5":21.3,"mosquito_risk":7,"arthritis_risk":5,"migraine_risk":7,"frizz_risk":1,"updated_at":"2026-03-29T10:44:05.780101+05:30"},{"city":"Srinagar","state":"Jammu and Kashmir","latitude":34.0837,"longitude":74.7973,"temp":12.3,"humidity":85,"rain":0.0,"pressure":841.9,"uv_index":7.35,"wind_gusts":22.3,"aqi":87,"pm10":11.5,"pm2_5":7.4,"mosquito_risk":3,"arthritis_risk":10,"migraine_risk":7,"frizz_risk":0,"updated_at":"2026-03-29T10:44:05.780109+05:30"},{"city":"Jammu","state":"Jammu and Kashmir","latitude":32.7266,"longitude":74.857,"temp":20.1,"humidity":86,"rain":0.1,"pressure":974.4,"uv_index":6.75,"wind_gusts":28.1,"aqi":84,"pm10":32.7,"pm2_5":23.5,"mosquito_risk":6,"arthritis_risk":5,"migraine_risk":7,"frizz_risk":1,"updated_at":"2026-03-29T10:44:05.780118+05:30"},{"city":"Amritsar","state":"Punjab","latitude":31.634,"longitude":74.8723,"temp":22.0,"humidity":82,"rain":0.0,"pressure":981.9,"uv_index":7.3,"wind_gusts":35.3,"aqi":73,"pm10":38.2,"pm2_5":16.6,"mosquito_risk":3,"arthritis_risk":5,"migraine_risk":7,"frizz_risk":1,"updated_at":"2026-03-29T10:44:05.780126+05:30"},{"city":"Ludhiana","state":"Punjab","latitude":30.901,"longitude":75.8573,"temp":25.7,"humidity":66,"rain":0.0,"pressure":979.7,"uv_index":6.95,"wind_gusts":31.7,"aqi":97,"pm10":41.1,"pm2_5":29.3,"mosquito_risk":7,"arthritis_risk":5,"migraine_risk":7,"frizz_risk":1,"updated_at":"2026-03-29T10:44:05.780134+05:30"},{"city":"Jalandhar","state":"Punjab","latitude":31.326,"longitude":75.5762,"temp":22.7,"humidity":83,"rain":0.0,"pressure":981.2,"uv_index":7.1,"wind_gusts":29.2,"aqi":92,"pm10":37.1,"pm2_5":16.6,"mosquito_risk":3,"arthritis_risk":5,"migraine_risk":7,"frizz_risk":1,"updated_at":"2026-03-29T10:44:05.780143+05:30"},{"city":"Dehradun","state":"Uttarakhand","latitude":30.6284,"longitude":78.0322,"temp":18.3,"humidity":70,"rain":0.0,"pressure":831.4,"uv_index":3.05,"wind_gusts":19.4,"aqi":68,"pm10":41.4,"pm2_5":20.3,"mosquito_risk":3,"arthritis_risk":5,"migraine_risk":3,"frizz_risk":0,"updated_at":"2026-03-29T10:44:05.780150+05:30"},{"city":"Shimla","state":"Himachal Pradesh","latitude":31.1048,"longitude":77.1734,"temp":16.8,"humidity":58,"rain":0.0,"pressure":785.8,"uv_index":1.8,"wind_gusts":22.3,"aqi":77,"pm10":47.0,"pm2_5":20.4,"mosquito_risk":0,"arthritis_risk":5,"migraine_risk":3,"frizz_risk":0,"updated_at":"2026-03-29T10:44:05.780158+05:30"},{"city":"Manali","state":"Himachal Pradesh","latitude":32.2396,"longitude":77.1887,"temp":13.1,"humidity":96,"rain":0.5,"pressure":819.2,"uv_index":7.45,"wind_gusts":28.1,"aqi":52,"pm10":14.2,"pm2_5":7.7,"mosquito_risk":6,"arthritis_risk":10,"migraine_risk":7,"frizz_risk":0,"updated_at":"2026-03-29T10:44:05.780165+05:30"},{"city":"Gurgaon","state":"Haryana","latitude":28.4595,"longitude":77.0266,"temp":29.2,"humidity":50,"rain":0.0,"pressure":981.6,"uv_index":5.7,"wind_gusts":27.0,"aqi":300,"pm10":1277.8,"pm2_5":141.6,"mosquito_risk":4,"arthritis_risk":5,"migraine_risk":3,"frizz_risk":1,"updated_at":"2026-03-29T10:44:05.780172+05:30"},{"city":"Noida","state":"Uttar Pradesh","latitude":28.5355,"longitude":77.391,"temp":29.0,"humidity":52,"rain":0.0,"pressure":985.1,"uv_index":6.05,"wind_gusts":24.8,"aqi":300,"pm10":1277.8,"pm2_5":141.6,"mosquito_risk":4,"arthritis_risk":5,"migraine_risk":7,"frizz_risk":1,"updated_at":"2026-03-29T10:44:05.780180+05:30"},{"city":"Ghaziabad","state":"Uttar Pradesh","latitude":28.6692,"longitude":77.4538,"temp":27.8,"humidity":59,"rain":0.0,"pressure":983.6,"uv_index":6.1,"wind_gusts":24.1,"aqi":150,"pm10":314.8,"pm2_5":63.1,"mosquito_risk":4,"arthritis_risk":5,"migraine_risk":7,"frizz_risk":1,"updated_at":"2026-03-29T10:44:05.780187+05:30"},{"city":"Faridabad","state":"Haryana","latitude":28.4089,"longitude":77.3178,"temp":29.1,"humidity":51,"rain":0.0,"pressure":984.2,"uv_index":6.15,"wind_gusts":28.8,"aqi":300,"pm10":1277.8,"pm2_5":141.6,"mosquito_risk":4,"arthritis_risk":5,"migraine_risk":7,"frizz_risk":1,"updated_at":"2026-03-29T10:44:05.780194+05:30"},{"city":"Meerut","state":"Uttar Pradesh","latitude":28.9845,"longitude":77.7064,"temp":25.9,"humidity":70,"rain":0.0,"pressure":983.3,"uv_index":5.6,"wind_gusts":20.5,"aqi":150,"pm10":314.8,"pm2_5":63.1,"mosquito_risk":7,"arthritis_risk":5,"migraine_risk":3,"frizz_risk":1,"updated_at":"2026-03-29T10:44:05.780201+05:30"},{"city":"Agra","state":"Uttar Pradesh","latitude":27.1767,"longitude":78.0081,"temp":32.5,"humidity":39,"rain":0.0,"pressure":988.2,"uv_index":7.1,"wind_gusts":36.0,"aqi":349,"pm10":786.0,"pm2_5":87.1,"mosquito_risk":0,"arthritis_risk":5,"migraine_risk":7,"frizz_risk":1,"updated_at":"2026-03-29T10:44:05.780209+05:30"},{"city":"Varanasi","state":"Uttar Pradesh","latitude":25.3176,"longitude":82.9739,"temp":32.0,"humidity":44,"rain":0.0,"pressure":998.6,"uv_index":7.95,"wind_gusts":26.6,"aqi":91,"pm10":66.4,"pm2_5":25.0,"mosquito_risk":0,"arthritis_risk":5,"migraine_risk":7,"frizz_risk":1,"updated_at":"2026-03-29T10:44:05.780218+05:30"},{"city":"Prayagraj","state":"Uttar Pradesh","latitude":25.4358,"longitude":81.8463,"temp":31.0,"humidity":49,"rain":0.0,"pressure":996.9,"uv_index":7.8,"wind_gusts":22.7,"aqi":112,"pm10":70.1,"pm2_5":29.2,"mosquito_risk":0,"arthritis_risk":5,"migraine_risk":7,"frizz_risk":1,"updated_at":"2026-03-29T10:44:05.780226+05:30"},{"city":"Gorakhpur","state":"Uttar Pradesh","latitude":26.7606,"longitude":83.3732,"temp":28.2,"humidity":62,"rain":0.0,"pressure":999.3,"uv_index":7.65,"wind_gusts":26.3,"aqi":121,"pm10":71.2,"pm2_5":47.8,"mosquito_risk":7,"arthritis_risk":5,"migraine_risk":7,"frizz_risk":1,"updated_at":"2026-03-29T10:44:05.780233+05:30"},{"city":"Bareilly","state":"Uttar Pradesh","latitude":28.367,"longitude":79.4304,"temp":29.1,"humidity":57,"rain":0.0,"pressure":988.1,"uv_index":7.0,"wind_gusts":15.8,"aqi":95,"pm10":38.3,"pm2_5":25.7,"mosquito_risk":4,"arthritis_risk":5,"migraine_risk":7,"frizz_risk":1,"updated_at":"2026-03-29T10:44:05.780240+05:30"},{"city":"Aligarh","state":"Uttar Pradesh","latitude":27.8974,"longitude":78.088,"temp":29.9,"humidity":50,"rain":0.0,"pressure":986.3,"uv_index":6.9,"wind_gusts":26.3,"aqi":177,"pm10":441.4,"pm2_5":65.7,"mosquito_risk":4,"arthritis_risk":5,"migraine_risk":7,"frizz_risk":1,"updated_at":"2026-03-29T10:44:05.780249+05:30"},{"city":"Moradabad","state":"Uttar Pradesh","latitude":28.8386,"longitude":78.7733,"temp":28.1,"humidity":64,"rain":0.0,"pressure":984.9,"uv_index":6.6,"wind_gusts":18.0,"aqi":139,"pm10":41.8,"pm2_5":34.2,"mosquito_risk":7,"arthritis_risk":5,"migraine_risk":7,"frizz_risk":1,"updated_at":"2026-03-29T10:44:05.780256+05:30"},{"city":"Saharanpur","state":"Uttar Pradesh","latitude":29.9637,"longitude":77.546,"temp":25.7,"humidity":68,"rain":0.0,"pressure":977.4,"uv_index":5.4,"wind_gusts":25.6,"aqi":106,"pm10":41.7,"pm2_5":32.6,"mosquito_risk":7,"arthritis_risk":5,"migraine_risk":3,"frizz_risk":1,"updated_at":"2026-03-29T10:44:05.780264+05:30"},{"city":"Jhansi","state":"Uttar Pradesh","latitude":25.4484,"longitude":78.5685,"temp":34.5,"humidity":31,"rain":0.0,"pressure":978.0,"uv_index":7.8,"wind_gusts":27.4,"aqi":69,"pm10":46.7,"pm2_5":16.6,"mosquito_risk":0,"arthritis_risk":5,"migraine_risk":7,"frizz_risk":0,"updated_at":"2026-03-29T10:44:08.996733+05:30"},{"city":"Surat","state":"Gujarat","latitude":21.1702,"longitude":72.8311,"temp":29.4,"humidity":66,"rain":0.0,"pressure":1009.2,"uv_index":7.75,"wind_gusts":25.9,"aqi":73,"pm10":44.8,"pm2_5":27.5,"mosquito_risk":7,"arthritis_risk":0,"migraine_risk":4,"frizz_risk":1,"updated_at":"2026-03-29T10:44:08.996763+05:30"},{"city":"Vadodara","state":"Gujarat","latitude":22.3072,"longitude":73.1812,"temp":31.0,"humidity":60,"rain":0.0,"pressure":1006.6,"uv_index":7.85,"wind_gusts":31.3,"aqi":53,"pm10":27.8,"pm2_5":11.7,"mosquito_risk":0,"arthritis_risk":5,"migraine_risk":4,"frizz_risk":1,"updated_at":"2026-03-29T10:44:08.996773+05:30"},{"city":"Rajkot","state":"Gujarat","latitude":22.3039,"longitude":70.8022,"temp":29.4,"humidity":63,"rain":0.0,"pressure":996.2,"uv_index":7.6,"wind_gusts":32.8,"aqi":37,"pm10":56.1,"pm2_5":15.4,"mosquito_risk":7,"arthritis_risk":5,"migraine_risk":7,"frizz_risk":1,"updated_at":"2026-03-29T10:44:08.996782+05:30"},{"city":"Thane","state":"Maharashtra","latitude":19.2183,"longitude":72.9781,"temp":30.0,"humidity":65,"rain":0.0,"pressure":1010.0,"uv_index":8.0,"wind_gusts":35.3,"aqi":63,"pm10":29.6,"pm2_5":17.4,"mosquito_risk":7,"arthritis_risk":0,"migraine_risk":4,"frizz_risk":1,"updated_at":"2026-03-29T10:44:08.996790+05:30"},{"city":"Nagpur","state":"Maharashtra","latitude":21.1458,"longitude":79.0882,"temp":33.8,"humidity":34,"rain":0.0,"pressure":974.3,"uv_index":8.55,"wind_gusts":25.2,"aqi":64,"pm10":14.7,"pm2_5":13.6,"mosquito_risk":0,"arthritis_risk":5,"migraine_risk":7,"frizz_risk":0,"updated_at":"2026-03-29T10:44:08.996798+05:30"},{"city":"Nashik","state":"Maharashtra","latitude":19.9975,"longitude":73.7898,"temp":27.8,"humidity":64,"rain":0.0,"pressure":947.9,"uv_index":8.25,"wind_gusts":28.8,"aqi":51,"pm10":13.7,"pm2_5":8.3,"mosquito_risk":7,"arthritis_risk":5,"migraine_risk":7,"frizz_risk":1,"updated_at":"2026-03-29T10:44:08.996805+05:30"},{"city":"Aurangabad","state":"Maharashtra","latitude":19.8762,"longitude":75.3433,"temp":30.8,"humidity":43,"rain":0.0,"pressure":946.4,"uv_index":8.75,"wind_gusts":31.0,"aqi":42,"pm10":16.1,"pm2_5":8.5,"mosquito_risk":0,"arthritis_risk":5,"migraine_risk":7,"frizz_risk":1,"updated_at":"2026-03-29T10:44:08.996813+05:30"},{"city":"Solapur","state":"Maharashtra","latitude":17.6599,"longitude":75.9064,"temp":32.4,"humidity":29,"rain":0.0,"pressure":959.4,"uv_index":8.9,"wind_gusts":23.0,"aqi":56,"pm10":25.9,"pm2_5":11.7,"mosquito_risk":0,"arthritis_risk":5,"migraine_risk":7,"frizz_risk":0,"updated_at":"2026-03-29T10:44:08.996821+05:30"},{"city":"Kolhapur","state":"Maharashtra","latitude":16.705,"longitude":74.2433,"temp":30.3,"humidity":34,"rain":0.0,"pressure":950.0,"uv_index":9.0,"wind_gusts":36.7,"aqi":78,"pm10":46.1,"pm2_5":20.6,"mosquito_risk":0,"arthritis_risk":5,"migraine_risk":7,"frizz_risk":0,"updated_at":"2026-03-29T10:44:08.996828+05:30"},{"city":"Goa","state":"Goa","latitude":15.2993,"longitude":74.124,"temp":31.1,"humidity":54,"rain":0.0,"pressure":999.7,"uv_index":8.95,"wind_gusts":36.4,"aqi":93,"pm10":21.2,"pm2_5":15.4,"mosquito_risk":0,"arthritis_risk":5,"migraine_risk":7,"frizz_risk":1,"updated_at":"2026-03-29T10:44:08.996835+05:30"},{"city":"Jodhpur","state":"Rajasthan","latitude":26.2389,"longitude":73.0243,"temp":30.1,"humidity":46,"rain":0.0,"pressure":983.0,"uv_index":7.4,"wind_gusts":43.2,"aqi":110,"pm10":205.8,"pm2_5":27.0,"mosquito_risk":0,"arthritis_risk":5,"migraine_risk":7,"frizz_risk":1,"updated_at":"2026-03-29T10:44:08.996842+05:30"},{"city":"Udaipur","state":"Rajasthan","latitude":24.5854,"longitude":73.7125,"temp":29.5,"humidity":44,"rain":0.0,"pressure":947.9,"uv_index":8.2,"wind_gusts":35.3,"aqi":25,"pm10":39.9,"pm2_5":9.6,"mosquito_risk":4,"arthritis_risk":5,"migraine_risk":7,"frizz_risk":0,"updated_at":"2026-03-29T10:44:08.996851+05:30"},{"city":"Kota","state":"Rajasthan","latitude":25.2138,"longitude":75.8648,"temp":34.5,"humidity":34,"rain":0.0,"pressure":979.0,"uv_index":7.5,"wind_gusts":34.9,"aqi":54,"pm10":31.9,"pm2_5":10.0,"mosquito_risk":0,"arthritis_risk":5,"migraine_risk":7,"frizz_risk":1,"updated_at":"2026-03-29T10:44:08.996858+05:30"},{"city":"Bikaner","state":"Rajasthan","latitude":28.0229,"longitude":73.3119,"temp":30.9,"humidity":44,"rain":0.0,"pressure":980.5,"uv_index":7.55,"wind_gusts":34.6,"aqi":81,"pm10":263.6,"pm2_5":60.3,"mosquito_risk":0,"arthritis_risk":5,"migraine_risk":7,"frizz_risk":1,"updated_at":"2026-03-29T10:44:08.996865+05:30"},{"city":"Ajmer","state":"Rajasthan","latitude":26.4499,"longitude":74.6399,"temp":29.6,"humidity":49,"rain":0.0,"pressure":954.8,"uv_index":7.55,"wind_gusts":42.8,"aqi":34,"pm10":46.7,"pm2_5":12.7,"mosquito_risk":4,"arthritis_risk":5,"migraine_risk":7,"frizz_risk":1,"updated_at":"2026-03-29T10:44:08.996873+05:30"},{"city":"Gwalior","state":"Madhya Pradesh","latitude":26.2183,"longitude":78.1828,"temp":33.2,"humidity":36,"rain":0.0,"pressure":983.7,"uv_index":7.35,"wind_gusts":30.6,"aqi":93,"pm10":110.4,"pm2_5":27.9,"mosquito_risk":0,"arthritis_risk":5,"migraine_risk":7,"frizz_risk":1,"updated_at":"2026-03-29T10:44:08.996880+05:30"},{"city":"Indore","state":"Madhya Pradesh","latitude":22.7196,"longitude":75.8577,"temp":30.2,"humidity":52,"rain":0.0,"pressure":949.9,"uv_index":8.25,"wind_gusts":32.0,"aqi":38,"pm10":20.3,"pm2_5":10.0,"mosquito_risk":0,"arthritis_risk":5,"migraine_risk":7,"frizz_risk":1,"updated_at":"2026-03-29T10:44:08.996887+05:30"},{"city":"Bhopal","state":"Madhya Pradesh","latitude":23.2599,"longitude":77.4126,"temp":32.3,"humidity":41,"rain":0.0,"pressure":955.2,"uv_index":8.2,"wind_gusts":35.6,"aqi":33,"pm10":19.8,"pm2_5":7.4,"mosquito_risk":0,"arthritis_risk":5,"migraine_risk":7,"frizz_risk":1,"updated_at":"2026-03-29T10:44:08.996894+05:30"},{"city":"Jabalpur","state":"Madhya Pradesh","latitude":23.1815,"longitude":79.9864,"temp":32.1,"humidity":41,"rain":0.0,"pressure":962.7,"uv_index":8.3,"wind_gusts":33.8,"aqi":61,"pm10":16.0,"pm2_5":13.4,"mosquito_risk":0,"arthritis_risk":5,"migraine_risk":7,"frizz_risk":1,"updated_at":"2026-03-29T10:44:08.996923+05:30"},{"city":"Ujjain","state":"Madhya Pradesh","latitude":23.1765,"longitude":75.7885,"temp":29.7,"humidity":55,"rain":0.0,"pressure":955.5,"uv_index":8.15,"wind_gusts":34.9,"aqi":37,"pm10":22.8,"pm2_5":10.8,"mosquito_risk":4,"arthritis_risk":5,"migraine_risk":7,"frizz_risk":1,"updated_at":"2026-03-29T10:44:08.996932+05:30"},{"city":"Visakhapatnam","state":"Andhra Pradesh","latitude":17.6868,"longitude":83.2185,"temp":32.9,"humidity":51,"rain":0.0,"pressure":1005.3,"uv_index":9.0,"wind_gusts":40.3,"aqi":77,"pm10":32.2,"pm2_5":22.7,"mosquito_risk":0,"arthritis_risk":5,"migraine_risk":4,"frizz_risk":1,"updated_at":"2026-03-29T10:44:08.996939+05:30"},{"city":"Vijayawada","state":"Andhra Pradesh","latitude":16.5062,"longitude":80.648,"temp":31.6,"humidity":63,"rain":0.0,"pressure":1004.0,"uv_index":9.05,"wind_gusts":29.9,"aqi":75,"pm10":26.3,"pm2_5":18.9,"mosquito_risk":3,"arthritis_risk":5,"migraine_risk":4,"frizz_risk":1,"updated_at":"2026-03-29T10:44:08.996947+05:30"},{"city":"Guntur","state":"Andhra Pradesh","latitude":16.3067,"longitude":80.4365,"temp":31.6,"humidity":63,"rain":0.0,"pressure":1005.0,"uv_index":9.05,"wind_gusts":31.3,"aqi":79,"pm10":32.0,"pm2_5":25.7,"mosquito_risk":3,"arthritis_risk":5,"migraine_risk":4,"frizz_risk":1,"updated_at":"2026-03-29T10:44:08.996955+05:30"},{"city":"Nellore","state":"Andhra Pradesh","latitude":14.4426,"longitude":79.9865,"temp":32.6,"humidity":57,"rain":0.0,"pressure":1006.9,"uv_index":8.75,"wind_gusts":33.8,"aqi":71,"pm10":27.0,"pm2_5":23.3,"mosquito_risk":0,"arthritis_risk":5,"migraine_risk":4,"frizz_risk":1,"updated_at":"2026-03-29T10:44:08.996963+05:30"},{"city":"Kurnool","state":"Andhra Pradesh","latitude":15.8281,"longitude":78.0373,"temp":33.7,"humidity":35,"rain":0.0,"pressure":978.2,"uv_index":9.1,"wind_gusts":29.2,"aqi":119,"pm10":23.7,"pm2_5":21.6,"mosquito_risk":0,"arthritis_risk":5,"migraine_risk":7,"frizz_risk":1,"updated_at":"2026-03-29T10:44:08.996971+05:30"},{"city":"Kakinada","state":"Andhra Pradesh","latitude":16.9891,"longitude":82.2475,"temp":32.3,"humidity":60,"rain":0.0,"pressure":1009.2,"uv_index":9.0,"wind_gusts":30.2,"aqi":63,"pm10":26.4,"pm2_5":16.1,"mosquito_risk":0,"arthritis_risk":0,"migraine_risk":4,"frizz_risk":1,"updated_at":"2026-03-29T10:44:08.996978+05:30"},{"city":"Tirupati","state":"Andhra Pradesh","latitude":13.6288,"longitude":79.4192,"temp":34.2,"humidity":45,"rain":0.0,"pressure":992.7,"uv_index":9.2,"wind_gusts":34.6,"aqi":94,"pm10":35.0,"pm2_5":30.5,"mosquito_risk":0,"arthritis_risk":5,"migraine_risk":7,"frizz_risk":1,"updated_at":"2026-03-29T10:44:08.996986+05:30"},{"city":"Warangal","state":"Telangana","latitude":17.9689,"longitude":79.5941,"temp":31.8,"humidity":58,"rain":0.0,"pressure":980.0,"uv_index":8.9,"wind_gusts":28.4,"aqi":110,"pm10":45.6,"pm2_5":40.2,"mosquito_risk":0,"arthritis_risk":5,"migraine_risk":7,"frizz_risk":1,"updated_at":"2026-03-29T10:44:08.996993+05:30"},{"city":"Nizamabad","state":"Telangana","latitude":18.6725,"longitude":78.0941,"temp":32.7,"humidity":38,"rain":0.0,"pressure":966.7,"uv_index":8.8,"wind_gusts":29.2,"aqi":72,"pm10":20.0,"pm2_5":17.9,"mosquito_risk":0,"arthritis_risk":5,"migraine_risk":7,"frizz_risk":1,"updated_at":"2026-03-29T10:44:08.997000+05:30"},{"city":"Mysore","state":"Karnataka","latitude":12.2958,"longitude":76.6396,"temp":27.8,"humidity":66,"rain":0.0,"pressure":930.1,"uv_index":8.55,"wind_gusts":36.0,"aqi":110,"pm10":48.4,"pm2_5":40.6,"mosquito_risk":7,"arthritis_risk":5,"migraine_risk":7,"frizz_risk":1,"updated_at":"2026-03-29T10:44:08.997007+05:30"},{"city":"Mangalore","state":"Karnataka","latitude":12.9141,"longitude":74.856,"temp":28.6,"humidity":80,"rain":0.0,"pressure":1007.5,"uv_index":9.1,"wind_gusts":29.2,"aqi":101,"pm10":43.0,"pm2_5":36.1,"mosquito_risk":7,"arthritis_risk":5,"migraine_risk":4,"frizz_risk":1,"updated_at":"2026-03-29T10:44:08.997014+05:30"},{"city":"Hubli-Dharwad","state":"Karnataka","latitude":15.3647,"longitude":75.124,"temp":29.6,"humidity":49,"rain":0.0,"pressure":943.2,"uv_index":9.15,"wind_gusts":27.7,"aqi":103,"pm10":17.6,"pm2_5":15.7,"mosquito_risk":4,"arthritis_risk":5,"migraine_risk":7,"frizz_risk":1,"updated_at":"2026-03-29T10:44:08.997022+05:30"},{"city":"Belgaum","state":"Karnataka","latitude":15.8497,"longitude":74.4977,"temp":30.2,"humidity":28,"rain":0.0,"pressure":928.0,"uv_index":9.2,"wind_gusts":36.4,"aqi":85,"pm10":29.0,"pm2_5":10.2,"mosquito_risk":0,"arthritis_risk":5,"migraine_risk":7,"frizz_risk":0,"updated_at":"2026-03-29T10:44:12.212440+05:30"},{"city":"Coimbatore","state":"Tamil Nadu","latitude":11.0168,"longitude":76.9558,"temp":32.0,"humidity":49,"rain":0.0,"pressure":963.1,"uv_index":9.4,"wind_gusts":53.6,"aqi":94,"pm10":43.2,"pm2_5":36.7,"mosquito_risk":0,"arthritis_risk":5,"migraine_risk":7,"frizz_risk":1,"updated_at":"2026-03-29T10:44:12.212471+05:30"},{"city":"Madurai","state":"Tamil Nadu","latitude":9.9252,"longitude":78.1198,"temp":31.7,"humidity":57,"rain":0.0,"pressure":994.0,"uv_index":9.0,"wind_gusts":26.3,"aqi":82,"pm10":30.3,"pm2_5":26.7,"mosquito_risk":0,"arthritis_risk":5,"migraine_risk":7,"frizz_risk":1,"updated_at":"2026-03-29T10:44:12.212482+05:30"},{"city":"Trichy","state":"Tamil Nadu","latitude":10.7905,"longitude":78.7047,"temp":31.9,"humidity":62,"rain":0.0,"pressure":1000.7,"uv_index":8.85,"wind_gusts":29.5,"aqi":68,"pm10":24.7,"pm2_5":21.4,"mosquito_risk":3,"arthritis_risk":5,"migraine_risk":4,"frizz_risk":1,"updated_at":"2026-03-29T10:44:12.212490+05:30"},{"city":"Salem","state":"Tamil Nadu","latitude":11.6643,"longitude":78.146,"temp":32.6,"humidity":50,"rain":0.0,"pressure":978.5,"uv_index":9.4,"wind_gusts":35.6,"aqi":81,"pm10":31.3,"pm2_5":26.1,"mosquito_risk":0,"arthritis_risk":5,"migraine_risk":7,"frizz_risk":1,"updated_at":"2026-03-29T10:44:12.212497+05:30"},{"city":"Tirunelveli","state":"Tamil Nadu","latitude":8.7139,"longitude":77.7567,"temp":33.4,"humidity":50,"rain":0.0,"pressure":1004.2,"uv_index":9.4,"wind_gusts":43.9,"aqi":72,"pm10":25.8,"pm2_5":22.9,"mosquito_risk":0,"arthritis_risk":5,"migraine_risk":4,"frizz_risk":1,"updated_at":"2026-03-29T10:44:12.212504+05:30"},{"city":"Vellore","state":"Tamil Nadu","latitude":12.9165,"longitude":79.1325,"temp":32.3,"humidity":51,"rain":0.0,"pressure":985.7,"uv_index":9.35,"wind_gusts":37.4,"aqi":123,"pm10":39.7,"pm2_5":35.6,"mosquito_risk":0,"arthritis_risk":5,"migraine_risk":7,"frizz_risk":1,"updated_at":"2026-03-29T10:44:12.212511+05:30"},{"city":"Erode","state":"Tamil Nadu","latitude":11.341,"longitude":77.7172,"temp":33.5,"humidity":46,"rain":0.0,"pressure":989.8,"uv_index":9.35,"wind_gusts":38.9,"aqi":98,"pm10":37.8,"pm2_5":33.9,"mosquito_risk":0,"arthritis_risk":5,"migraine_risk":7,"frizz_risk":1,"updated_at":"2026-03-29T10:44:12.212519+05:30"},{"city":"Kochi","state":"Kerala","latitude":9.9312,"longitude":76.2673,"temp":28.5,"humidity":81,"rain":0.0,"pressure":1009.0,"uv_index":8.8,"wind_gusts":27.4,"aqi":90,"pm10":30.4,"pm2_5":26.7,"mosquito_risk":7,"arthritis_risk":0,"migraine_risk":4,"frizz_risk":1,"updated_at":"2026-03-29T10:44:12.212526+05:30"},{"city":"Thiruvananthapuram","state":"Kerala","latitude":8.5241,"longitude":76.9366,"temp":28.8,"humidity":77,"rain":0.0,"pressure":1008.4,"uv_index":9.2,"wind_gusts":31.3,"aqi":75,"pm10":28.0,"pm2_5":24.6,"mosquito_risk":7,"arthritis_risk":0,"migraine_risk":4,"frizz_risk":1,"updated_at":"2026-03-29T10:44:12.212534+05:30"},{"city":"Kozhikode","state":"Kerala","latitude":11.2588,"longitude":75.7804,"temp":30.2,"humidity":72,"rain":0.0,"pressure":1008.1,"uv_index":9.1,"wind_gusts":28.4,"aqi":79,"pm10":30.3,"pm2_5":25.8,"mosquito_risk":3,"arthritis_risk":0,"migraine_risk":4,"frizz_risk":1,"updated_at":"2026-03-29T10:44:12.212540+05:30"},{"city":"Thrissur","state":"Kerala","latitude":10.5276,"longitude":76.2144,"temp":32.2,"humidity":63,"rain":0.0,"pressure":1007.2,"uv_index":9.15,"wind_gusts":34.6,"aqi":90,"pm10":32.5,"pm2_5":28.3,"mosquito_risk":3,"arthritis_risk":5,"migraine_risk":4,"frizz_risk":1,"updated_at":"2026-03-29T10:44:12.212548+05:30"},{"city":"Kannur","state":"Kerala","latitude":11.8745,"longitude":75.3704,"temp":30.6,"humidity":68,"rain":0.0,"pressure":1007.6,"uv_index":9.15,"wind_gusts":34.6,"aqi":90,"pm10":37.3,"pm2_5":32.0,"mosquito_risk":3,"arthritis_risk":5,"migraine_risk":4,"frizz_risk":1,"updated_at":"2026-03-29T10:44:12.212555+05:30"},{"city":"Patna","state":"Bihar","latitude":25.5941,"longitude":85.1376,"temp":27.9,"humidity":67,"rain":0.0,"pressure":1002.6,"uv_index":8.05,"wind_gusts":23.8,"aqi":110,"pm10":57.3,"pm2_5":46.9,"mosquito_risk":7,"arthritis_risk":5,"migraine_risk":4,"frizz_risk":1,"updated_at":"2026-03-29T10:44:12.212561+05:30"},{"city":"Gaya","state":"Bihar","latitude":24.7914,"longitude":85.0002,"temp":30.2,"humidity":59,"rain":0.0,"pressure":995.2,"uv_index":8.15,"wind_gusts":17.6,"aqi":95,"pm10":66.1,"pm2_5":43.0,"mosquito_risk":0,"arthritis_risk":5,"migraine_risk":7,"frizz_risk":1,"updated_at":"2026-03-29T10:44:12.212568+05:30"},{"city":"Muzaffarpur","state":"Bihar","latitude":26.1209,"longitude":85.3647,"temp":27.1,"humidity":68,"rain":0.0,"pressure":1003.0,"uv_index":8.05,"wind_gusts":28.1,"aqi":117,"pm10":58.9,"pm2_5":46.4,"mosquito_risk":7,"arthritis_risk":5,"migraine_risk":4,"frizz_risk":1,"updated_at":"2026-03-29T10:44:12.212574+05:30"},{"city":"Bhagalpur","state":"Bihar","latitude":25.2425,"longitude":87.0117,"temp":27.2,"humidity":71,"rain":0.0,"pressure":1003.8,"uv_index":7.85,"wind_gusts":19.8,"aqi":113,"pm10":61.0,"pm2_5":47.3,"mosquito_risk":7,"arthritis_risk":5,"migraine_risk":4,"frizz_risk":1,"updated_at":"2026-03-29T10:44:12.212586+05:30"},{"city":"Ranchi","state":"Jharkhand","latitude":23.3441,"longitude":85.3096,"temp":28.6,"humidity":60,"rain":0.0,"pressure":939.6,"uv_index":8.75,"wind_gusts":33.5,"aqi":114,"pm10":46.8,"pm2_5":33.9,"mosquito_risk":4,"arthritis_risk":5,"migraine_risk":7,"frizz_risk":1,"updated_at":"2026-03-29T10:44:12.212594+05:30"},{"city":"Jamshedpur","state":"Jharkhand","latitude":22.8046,"longitude":86.2029,"temp":31.3,"humidity":59,"rain":0.0,"pressure":992.2,"uv_index":8.55,"wind_gusts":33.8,"aqi":130,"pm10":56.8,"pm2_5":49.1,"mosquito_risk":0,"arthritis_risk":5,"migraine_risk":7,"frizz_risk":1,"updated_at":"2026-03-29T10:44:12.212600+05:30"},{"city":"Dhanbad","state":"Jharkhand","latitude":23.7957,"longitude":86.4304,"temp":29.2,"humidity":62,"rain":0.0,"pressure":981.6,"uv_index":8.5,"wind_gusts":18.7,"aqi":153,"pm10":84.1,"pm2_5":75.0,"mosquito_risk":7,"arthritis_risk":5,"migraine_risk":7,"frizz_risk":1,"updated_at":"2026-03-29T10:44:12.212607+05:30"},{"city":"Bokaro","state":"Jharkhand","latitude":23.6693,"longitude":86.1511,"temp":29.9,"humidity":62,"rain":0.0,"pressure":985.7,"uv_index":8.5,"wind_gusts":23.0,"aqi":154,"pm10":82.9,"pm2_5":73.3,"mosquito_risk":7,"arthritis_risk":5,"migraine_risk":7,"frizz_risk":1,"updated_at":"2026-03-29T10:44:12.212613+05:30"},{"city":"Bhubaneswar","state":"Odisha","latitude":20.2961,"longitude":85.8245,"temp":32.3,"humidity":64,"rain":0.0,"pressure":1003.7,"uv_index":8.8,"wind_gusts":31.3,"aqi":82,"pm10":30.3,"pm2_5":23.0,"mosquito_risk":3,"arthritis_risk":5,"migraine_risk":4,"frizz_risk":1,"updated_at":"2026-03-29T10:44:12.212620+05:30"},{"city":"Cuttack","state":"Odisha","latitude":20.4625,"longitude":85.8828,"temp":32.7,"humidity":62,"rain":0.0,"pressure":1005.5,"uv_index":8.85,"wind_gusts":34.6,"aqi":82,"pm10":30.3,"pm2_5":23.0,"mosquito_risk":3,"arthritis_risk":5,"migraine_risk":4,"frizz_risk":1,"updated_at":"2026-03-29T10:44:12.212627+05:30"},{"city":"Rourkela","state":"Odisha","latitude":22.2604,"longitude":84.8536,"temp":32.1,"humidity":60,"rain":0.0,"pressure":986.1,"uv_index":8.5,"wind_gusts":32.4,"aqi":110,"pm10":67.1,"pm2_5":59.3,"mosquito_risk":0,"arthritis_risk":5,"migraine_risk":7,"frizz_risk":1,"updated_at":"2026-03-29T10:44:12.212633+05:30"},{"city":"Raipur","state":"Chhattisgarh","latitude":21.2514,"longitude":81.6296,"temp":35.4,"humidity":31,"rain":0.0,"pressure":975.7,"uv_index":8.6,"wind_gusts":29.9,"aqi":101,"pm10":34.8,"pm2_5":31.9,"mosquito_risk":0,"arthritis_risk":5,"migraine_risk":10,"frizz_risk":0,"updated_at":"2026-03-29T10:44:12.212640+05:30"},{"city":"Bhilai","state":"Chhattisgarh","latitude":21.1938,"longitude":81.3509,"temp":35.1,"humidity":34,"rain":0.0,"pressure":976.1,"uv_index":8.6,"wind_gusts":32.8,"aqi":81,"pm10":31.5,"pm2_5":28.3,"mosquito_risk":0,"arthritis_risk":5,"migraine_risk":10,"frizz_risk":1,"updated_at":"2026-03-29T10:44:12.212647+05:30"},{"city":"Guwahati","state":"Assam","latitude":26.1158,"longitude":91.7086,"temp":24.8,"humidity":74,"rain":0.0,"pressure":1005.0,"uv_index":7.15,"wind_gusts":14.4,"aqi":103,"pm10":58.3,"pm2_5":31.5,"mosquito_risk":3,"arthritis_risk":5,"migraine_risk":4,"frizz_risk":1,"updated_at":"2026-03-29T10:44:12.212654+05:30"},{"city":"Agartala","state":"Tripura","latitude":23.8315,"longitude":91.2868,"temp":26.8,"humidity":77,"rain":0.0,"pressure":1009.0,"uv_index":8.2,"wind_gusts":37.4,"aqi":120,"pm10":45.3,"pm2_5":35.2,"mosquito_risk":7,"arthritis_risk":0,"migraine_risk":4,"frizz_risk":1,"updated_at":"2026-03-29T10:44:12.212660+05:30"},{"city":"Shillong","state":"Meghalaya","latitude":25.5788,"longitude":91.8933,"temp":16.4,"humidity":67,"rain":0.0,"pressure":857.7,"uv_index":5.65,"wind_gusts":43.9,"aqi":70,"pm10":68.9,"pm2_5":33.8,"mosquito_risk":3,"arthritis_risk":5,"migraine_risk":3,"frizz_risk":0,"updated_at":"2026-03-29T10:44:12.212667+05:30"},{"city":"Imphal","state":"Manipur","latitude":24.817,"longitude":93.9368,"temp":18.9,"humidity":83,"rain":0.0,"pressure":925.5,"uv_index":7.35,"wind_gusts":61.9,"aqi":122,"pm10":58.0,"pm2_5":34.3,"mosquito_risk":3,"arthritis_risk":10,"migraine_risk":7,"frizz_risk":0,"updated_at":"2026-03-29T10:44:12.212674+05:30"},{"city":"Aizawl","state":"Mizoram","latitude":23.7271,"longitude":92.7176,"temp":23.0,"humidity":61,"rain":0.0,"pressure":895.6,"uv_index":6.95,"wind_gusts":52.9,"aqi":127,"pm10":63.8,"pm2_5":46.8,"mosquito_risk":3,"arthritis_risk":5,"migraine_risk":7,"frizz_risk":0,"updated_at":"2026-03-29T10:44:12.212681+05:30"},{"city":"Kohima","state":"Nagaland","latitude":25.6701,"longitude":94.1077,"temp":16.7,"humidity":83,"rain":0.0,"pressure":856.8,"uv_index":7.15,"wind_gusts":86.4,"aqi":103,"pm10":62.4,"pm2_5":29.8,"mosquito_risk":3,"arthritis_risk":10,"migraine_risk":7,"frizz_risk":0,"updated_at":"2026-03-29T10:44:12.212687+05:30"},{"city":"Gangtok","state":"Sikkim","latitude":27.3314,"longitude":88.6138,"temp":16.8,"humidity":70,"rain":0.0,"pressure":839.0,"uv_index":8.1,"wind_gusts":19.8,"aqi":61,"pm10":16.0,"pm2_5":13.1,"mosquito_risk":3,"arthritis_risk":5,"migraine_risk":7,"frizz_risk":0,"updated_at":"2026-03-29T10:44:12.212695+05:30"},{"city":"Siliguri","state":"West Bengal","latitude":26.7271,"longitude":88.3953,"temp":19.7,"humidity":83,"rain":0.0,"pressure":997.5,"uv_index":6.7,"wind_gusts":12.6,"aqi":130,"pm10":45.9,"pm2_5":34.5,"mosquito_risk":3,"arthritis_risk":10,"migraine_risk":7,"frizz_risk":1,"updated_at":"2026-03-29T10:44:15.454012+05:30"},{"city":"Durgapur","state":"West Bengal","latitude":23.5204,"longitude":87.3119,"temp":29.7,"humidity":65,"rain":0.0,"pressure":997.0,"uv_index":8.45,"wind_gusts":22.3,"aqi":144,"pm10":69.6,"pm2_5":61.0,"mosquito_risk":7,"arthritis_risk":5,"migraine_risk":7,"frizz_risk":1,"updated_at":"2026-03-29T10:44:15.454046+05:30"},{"city":"Asansol","state":"West Bengal","latitude":23.6739,"longitude":86.9524,"temp":29.6,"humidity":66,"rain":0.0,"pressure":995.5,"uv_index":8.45,"wind_gusts":23.4,"aqi":145,"pm10":72.4,"pm2_5":63.8,"mosquito_risk":7,"arthritis_risk":5,"migraine_risk":7,"frizz_risk":1,"updated_at":"2026-03-29T10:44:15.454059+05:30"},{"city":"Pondicherry","state":"Puducherry","latitude":11.9139,"longitude":79.8145,"temp":32.3,"humidity":63,"rain":0.0,"pressure":1009.3,"uv_index":9.0,"wind_gusts":32.4,"aqi":57,"pm10":21.7,"pm2_5":16.6,"mosquito_risk":3,"arthritis_risk":0,"migraine_risk":4,"frizz_risk":1,"updated_at":"2026-03-29T10:44:15.454068+05:30"},{"city":"Port Blair","state":"Andaman and Nicobar Islands","latitude":11.6234,"longitude":92.7265,"temp":28.6,"humidity":73,"rain":0.0,"pressure":1008.7,"uv_index":8.85,"wind_gusts":15.5,"aqi":64,"pm10":22.1,"pm2_5":17.2,"mosquito_risk":7,"arthritis_risk":0,"migraine_risk":4,"frizz_risk":1,"updated_at":"2026-03-29T10:44:15.454078+05:30"},{"city":"Haridwar","state":"Uttarakhand","latitude":29.9457,"longitude":78.1642,"temp":27.8,"humidity":58,"rain":0.0,"pressure":976.0,"uv_index":6.05,"wind_gusts":34.6,"aqi":87,"pm10":34.0,"pm2_5":23.8,"mosquito_risk":4,"arthritis_risk":5,"migraine_risk":7,"frizz_risk":1,"updated_at":"2026-03-29T10:44:15.454087+05:30"},{"city":"Rishikesh","state":"Uttarakhand","latitude":30.0869,"longitude":78.2676,"temp":28.4,"humidity":53,"rain":0.0,"pressure":968.4,"uv_index":4.45,"wind_gusts":29.5,"aqi":74,"pm10":35.7,"pm2_5":17.7,"mosquito_risk":4,"arthritis_risk":5,"migraine_risk":3,"frizz_risk":1,"updated_at":"2026-03-29T10:44:15.454097+05:30"},{"city":"Nainital","state":"Uttarakhand","latitude":29.3919,"longitude":79.4542,"temp":21.9,"humidity":60,"rain":0.0,"pressure":808.2,"uv_index":7.1,"wind_gusts":58.7,"aqi":77,"pm10":35.4,"pm2_5":18.3,"mosquito_risk":0,"arthritis_risk":5,"migraine_risk":7,"frizz_risk":0,"updated_at":"2026-03-29T10:44:15.454106+05:30"},{"city":"Mussoorie","state":"Uttarakhand","latitude":30.4599,"longitude":78.0664,"temp":19.3,"humidity":63,"rain":0.0,"pressure":804.4,"uv_index":4.4,"wind_gusts":23.8,"aqi":86,"pm10":31.9,"pm2_5":22.4,"mosquito_risk":3,"arthritis_risk":5,"migraine_risk":3,"frizz_risk":0,"updated_at":"2026-03-29T10:44:15.454115+05:30"},{"city":"Dharamshala","state":"Himachal Pradesh","latitude":32.219,"longitude":76.3234,"temp":17.8,"humidity":63,"rain":0.1,"pressure":868.3,"uv_index":6.95,"wind_gusts":26.6,"aqi":53,"pm10":10.9,"pm2_5":4.1,"mosquito_risk":6,"arthritis_risk":5,"migraine_risk":7,"frizz_risk":0,"updated_at":"2026-03-29T10:44:15.454124+05:30"},{"city":"Dalhousie","state":"Himachal Pradesh","latitude":32.5387,"longitude":75.971,"temp":13.7,"humidity":74,"rain":0.4,"pressure":802.4,"uv_index":7.4,"wind_gusts":27.0,"aqi":79,"pm10":27.1,"pm2_5":18.7,"mosquito_risk":6,"arthritis_risk":5,"migraine_risk":7,"frizz_risk":0,"updated_at":"2026-03-29T10:44:15.454134+05:30"},{"city":"Patiala","state":"Punjab","latitude":30.3398,"longitude":76.3869,"temp":25.2,"humidity":61,"rain":0.0,"pressure":979.1,"uv_index":6.6,"wind_gusts":35.6,"aqi":109,"pm10":180.7,"pm2_5":41.7,"mosquito_risk":7,"arthritis_risk":5,"migraine_risk":7,"frizz_risk":1,"updated_at":"2026-03-29T10:44:15.454143+05:30"},{"city":"Bhatinda","state":"Punjab","latitude":30.211,"longitude":74.9455,"temp":26.6,"humidity":60,"rain":0.0,"pressure":983.4,"uv_index":7.25,"wind_gusts":38.5,"aqi":81,"pm10":145.3,"pm2_5":42.1,"mosquito_risk":4,"arthritis_risk":5,"migraine_risk":7,"frizz_risk":1,"updated_at":"2026-03-29T10:44:15.454152+05:30"},{"city":"Rohtak","state":"Haryana","latitude":28.8955,"longitude":76.6066,"temp":27.1,"humidity":59,"rain":0.0,"pressure":982.3,"uv_index":6.25,"wind_gusts":31.7,"aqi":151,"pm10":560.7,"pm2_5":92.2,"mosquito_risk":4,"arthritis_risk":5,"migraine_risk":7,"frizz_risk":1,"updated_at":"2026-03-29T10:44:15.454160+05:30"},{"city":"Panipat","state":"Haryana","latitude":29.3909,"longitude":76.9635,"temp":23.8,"humidity":76,"rain":0.0,"pressure":981.9,"uv_index":6.1,"wind_gusts":30.2,"aqi":211,"pm10":642.6,"pm2_5":99.4,"mosquito_risk":3,"arthritis_risk":5,"migraine_risk":7,"frizz_risk":1,"updated_at":"2026-03-29T10:44:15.454168+05:30"},{"city":"Mathura","state":"Uttar Pradesh","latitude":27.4924,"longitude":77.6737,"temp":31.5,"humidity":43,"rain":0.0,"pressure":986.9,"uv_index":7.0,"wind_gusts":26.6,"aqi":223,"pm10":754.4,"pm2_5":89.9,"mosquito_risk":0,"arthritis_risk":5,"migraine_risk":7,"frizz_risk":1,"updated_at":"2026-03-29T10:44:15.454175+05:30"},{"city":"Vrindavan","state":"Uttar Pradesh","latitude":27.5823,"longitude":77.7027,"temp":30.7,"humidity":46,"rain":0.0,"pressure":987.5,"uv_index":6.9,"wind_gusts":29.5,"aqi":223,"pm10":754.4,"pm2_5":89.9,"mosquito_risk":0,"arthritis_risk":5,"migraine_risk":7,"frizz_risk":1,"updated_at":"2026-03-29T10:44:15.454181+05:30"},{"city":"Ayodhya","state":"Uttar Pradesh","latitude":26.7922,"longitude":82.1998,"temp":28.6,"humidity":58,"rain":0.0,"pressure":997.1,"uv_index":7.35,"wind_gusts":20.9,"aqi":133,"pm10":70.8,"pm2_5":49.1,"mosquito_risk":4,"arthritis_risk":5,"migraine_risk":7,"frizz_risk":1,"updated_at":"2026-03-29T10:44:15.454188+05:30"},{"city":"Ratlam","state":"Madhya Pradesh","latitude":23.3315,"longitude":75.0367,"temp":28.4,"humidity":61,"rain":0.0,"pressure":956.4,"uv_index":8.1,"wind_gusts":33.8,"aqi":35,"pm10":22.3,"pm2_5":9.7,"mosquito_risk":7,"arthritis_risk":5,"migraine_risk":7,"frizz_risk":1,"updated_at":"2026-03-29T10:44:15.454194+05:30"},{"city":"Sagar","state":"Madhya Pradesh","latitude":23.8388,"longitude":78.7378,"temp":33.1,"humidity":33,"rain":0.0,"pressure":951.2,"uv_index":8.2,"wind_gusts":33.1,"aqi":45,"pm10":8.9,"pm2_5":4.6,"mosquito_risk":0,"arthritis_risk":5,"migraine_risk":7,"frizz_risk":0,"updated_at":"2026-03-29T10:44:15.454201+05:30"},{"city":"Satna","state":"Madhya Pradesh","latitude":24.6005,"longitude":80.8322,"temp":32.4,"humidity":36,"rain":0.0,"pressure":972.3,"uv_index":8.15,"wind_gusts":36.0,"aqi":67,"pm10":39.1,"pm2_5":16.2,"mosquito_risk":0,"arthritis_risk":5,"migraine_risk":7,"frizz_risk":0,"updated_at":"2026-03-29T10:44:15.454207+05:30"},{"city":"Akola","state":"Maharashtra","latitude":20.7002,"longitude":77.0082,"temp":32.7,"humidity":38,"rain":0.0,"pressure":977.2,"uv_index":8.5,"wind_gusts":27.4,"aqi":43,"pm10":23.9,"pm2_5":12.8,"mosquito_risk":0,"arthritis_risk":5,"migraine_risk":7,"frizz_risk":1,"updated_at":"2026-03-29T10:44:15.454214+05:30"},{"city":"Amravati","state":"Maharashtra","latitude":20.9374,"longitude":77.7796,"temp":33.3,"humidity":37,"rain":0.0,"pressure":969.0,"uv_index":8.5,"wind_gusts":27.4,"aqi":38,"pm10":20.3,"pm2_5":11.4,"mosquito_risk":0,"arthritis_risk":5,"migraine_risk":7,"frizz_risk":1,"updated_at":"2026-03-29T10:44:15.454222+05:30"},{"city":"Latur","state":"Maharashtra","latitude":18.4088,"longitude":76.5604,"temp":31.9,"humidity":33,"rain":0.0,"pressure":942.0,"uv_index":8.85,"wind_gusts":28.4,"aqi":53,"pm10":22.4,"pm2_5":11.8,"mosquito_risk":0,"arthritis_risk":5,"migraine_risk":7,"frizz_risk":0,"updated_at":"2026-03-29T10:44:15.454228+05:30"},{"city":"Nanded","state":"Maharashtra","latitude":19.1383,"longitude":77.3091,"temp":33.4,"humidity":34,"rain":0.0,"pressure":970.6,"uv_index":8.7,"wind_gusts":18.4,"aqi":56,"pm10":21.1,"pm2_5":15.9,"mosquito_risk":0,"arthritis_risk":5,"migraine_risk":7,"frizz_risk":0,"updated_at":"2026-03-29T10:44:15.454235+05:30"},{"city":"Gulbarga","state":"Karnataka","latitude":17.3297,"longitude":76.8343,"temp":33.5,"humidity":28,"rain":0.0,"pressure":960.6,"uv_index":8.9,"wind_gusts":32.0,"aqi":66,"pm10":19.7,"pm2_5":13.0,"mosquito_risk":0,"arthritis_risk":5,"migraine_risk":7,"frizz_risk":0,"updated_at":"2026-03-29T10:44:15.454241+05:30"},{"city":"Bidar","state":"Karnataka","latitude":17.9104,"longitude":77.5199,"temp":32.6,"humidity":28,"rain":0.0,"pressure":937.5,"uv_index":8.9,"wind_gusts":30.2,"aqi":77,"pm10":20.4,"pm2_5":17.3,"mosquito_risk":0,"arthritis_risk":5,"migraine_risk":7,"frizz_risk":0,"updated_at":"2026-03-29T10:44:15.454247+05:30"},{"city":"Hospet","state":"Karnataka","latitude":15.2689,"longitude":76.3909,"temp":29.6,"humidity":55,"rain":0.0,"pressure":958.0,"uv_index":9.1,"wind_gusts":18.7,"aqi":106,"pm10":18.5,"pm2_5":16.2,"mosquito_risk":4,"arthritis_risk":5,"migraine_risk":7,"frizz_risk":1,"updated_at":"2026-03-29T10:44:15.454253+05:30"},{"city":"Tirupur","state":"Tamil Nadu","latitude":11.1085,"longitude":77.3411,"temp":32.7,"humidity":48,"rain":0.0,"pressure":976.4,"uv_index":9.45,"wind_gusts":39.2,"aqi":105,"pm10":45.9,"pm2_5":40.7,"mosquito_risk":0,"arthritis_risk":5,"migraine_risk":7,"frizz_risk":1,"updated_at":"2026-03-29T10:44:15.454260+05:30"},{"city":"Alappuzha","state":"Kerala","latitude":9.4981,"longitude":76.3388,"temp":28.9,"humidity":77,"rain":0.0,"pressure":1009.1,"uv_index":8.85,"wind_gusts":25.6,"aqi":87,"pm10":29.9,"pm2_5":26.2,"mosquito_risk":7,"arthritis_risk":0,"migraine_risk":4,"frizz_risk":1,"updated_at":"2026-03-29T10:44:15.454266+05:30"},{"city":"Munnar","state":"Kerala","latitude":10.0889,"longitude":77.0595,"temp":28.4,"humidity":47,"rain":0.0,"pressure":859.7,"uv_index":8.8,"wind_gusts":33.1,"aqi":85,"pm10":29.5,"pm2_5":24.6,"mosquito_risk":4,"arthritis_risk":5,"migraine_risk":7,"frizz_risk":0,"updated_at":"2026-03-29T10:44:15.454273+05:30"},{"city":"Silchar","state":"Assam","latitude":24.8333,"longitude":92.7789,"temp":23.7,"humidity":81,"rain":0.0,"pressure":1009.0,"uv_index":8.2,"wind_gusts":34.9,"aqi":147,"pm10":66.6,"pm2_5":39.0,"mosquito_risk":3,"arthritis_risk":0,"migraine_risk":4,"frizz_risk":1,"updated_at":"2026-03-29T10:44:15.454280+05:30"},{"city":"Dibrugarh","state":"Assam","latitude":27.4728,"longitude":94.912,"temp":21.6,"humidity":83,"rain":0.0,"pressure":999.8,"uv_index":7.45,"wind_gusts":16.9,"aqi":89,"pm10":26.7,"pm2_5":19.7,"mosquito_risk":3,"arthritis_risk":5,"migraine_risk":7,"frizz_risk":1,"updated_at":"2026-03-29T10:44:15.454287+05:30"}]