[{"city":"Delhi","state":"Delhi","latitude":28.6139,"longitude":77.209,"temp":27.1,"humidity":60,"rain":0.0,"pressure":982.9,"uv_index":6.85,"wind_gusts":38.9,"aqi":152,"pm10":127.6,"pm2_5":56.3,"no2":34.3,"co":879.0,"o3":80.0,"so2":28.4,"mosquito_risk":4,"arthritis_risk":5,"migraine_risk":7,"frizz_risk":1,"updated_at":"2026-06-02T00:11:14.111889+05:30"},{"city":"Mumbai","state":"Maharashtra","latitude":19.076,"longitude":72.8777,"temp":30.5,"humidity":70,"rain":0.0,"pressure":1009.2,"uv_index":7.7,"wind_gusts":41.0,"aqi":51,"pm10":29.7,"pm2_5":12.4,"no2":6.3,"co":172.0,"o3":49.0,"so2":4.8,"mosquito_risk":3,"arthritis_risk":0,"migraine_risk":4,"frizz_risk":1,"updated_at":"2026-06-02T00:11:14.111933+05:30"},{"city":"Bangalore","state":"Karnataka","latitude":12.9716,"longitude":77.5946,"temp":22.7,"humidity":86,"rain":0.0,"pressure":913.2,"uv_index":8.95,"wind_gusts":29.5,"aqi":66,"pm10":24.6,"pm2_5":21.7,"no2":32.1,"co":789.0,"o3":59.0,"so2":8.1,"mosquito_risk":3,"arthritis_risk":5,"migraine_risk":7,"frizz_risk":1,"updated_at":"2026-06-02T00:11:14.111949+05:30"},{"city":"Hyderabad","state":"Telangana","latitude":17.385,"longitude":78.4867,"temp":30.4,"humidity":43,"rain":0.0,"pressure":953.6,"uv_index":9.1,"wind_gusts":28.4,"aqi":73,"pm10":70.5,"pm2_5":58.6,"no2":73.8,"co":807.0,"o3":22.0,"so2":23.0,"mosquito_risk":0,"arthritis_risk":5,"migraine_risk":7,"frizz_risk":1,"updated_at":"2026-06-02T00:11:14.111959+05:30"},{"city":"Chennai","state":"Tamil Nadu","latitude":13.0827,"longitude":80.2707,"temp":30.2,"humidity":77,"rain":0.0,"pressure":1006.9,"uv_index":8.75,"wind_gusts":46.4,"aqi":113,"pm10":24.6,"pm2_5":18.2,"no2":10.0,"co":259.0,"o3":88.0,"so2":6.2,"mosquito_risk":3,"arthritis_risk":5,"migraine_risk":4,"frizz_risk":1,"updated_at":"2026-06-02T00:11:14.111968+05:30"},{"city":"Kolkata","state":"West Bengal","latitude":22.5726,"longitude":88.3639,"temp":28.8,"humidity":86,"rain":0.0,"pressure":1005.9,"uv_index":8.9,"wind_gusts":33.8,"aqi":127,"pm10":58.6,"pm2_5":52.5,"no2":18.0,"co":503.0,"o3":57.0,"so2":9.5,"mosquito_risk":7,"arthritis_risk":5,"migraine_risk":4,"frizz_risk":1,"updated_at":"2026-06-02T00:11:14.111975+05:30"},{"city":"Pune","state":"Maharashtra","latitude":18.5204,"longitude":73.8567,"temp":25.5,"humidity":81,"rain":0.0,"pressure":949.2,"uv_index":8.3,"wind_gusts":42.1,"aqi":52,"pm10":15.4,"pm2_5":8.5,"no2":7.0,"co":170.0,"o3":52.0,"so2":6.8,"mosquito_risk":7,"arthritis_risk":5,"migraine_risk":7,"frizz_risk":1,"updated_at":"2026-06-02T00:11:14.111983+05:30"},{"city":"Ahmedabad","state":"Gujarat","latitude":23.0225,"longitude":72.5714,"temp":31.5,"humidity":67,"rain":0.0,"pressure":1001.5,"uv_index":8.0,"wind_gusts":32.8,"aqi":73,"pm10":41.9,"pm2_5":25.3,"no2":17.6,"co":182.0,"o3":36.0,"so2":8.1,"mosquito_risk":3,"arthritis_risk":5,"migraine_risk":4,"frizz_risk":1,"updated_at":"2026-06-02T00:11:14.111989+05:30"},{"city":"Jaipur","state":"Rajasthan","latitude":26.9124,"longitude":75.7873,"temp":26.4,"humidity":70,"rain":0.0,"pressure":958.7,"uv_index":8.15,"wind_gusts":49.0,"aqi":118,"pm10":75.7,"pm2_5":33.2,"no2":9.2,"co":210.0,"o3":68.0,"so2":5.3,"mosquito_risk":7,"arthritis_risk":5,"migraine_risk":7,"frizz_risk":1,"updated_at":"2026-06-02T00:11:14.112001+05:30"},{"city":"Lucknow","state":"Uttar Pradesh","latitude":26.8467,"longitude":80.9462,"temp":27.6,"humidity":75,"rain":0.0,"pressure":993.7,"uv_index":8.25,"wind_gusts":31.0,"aqi":99,"pm10":58.4,"pm2_5":45.9,"no2":37.8,"co":561.0,"o3":46.0,"so2":14.2,"mosquito_risk":7,"arthritis_risk":5,"migraine_risk":7,"frizz_risk":1,"updated_at":"2026-06-02T00:11:14.112007+05:30"},{"city":"Kanpur","state":"Uttar Pradesh","latitude":26.4499,"longitude":80.3319,"temp":28.5,"humidity":69,"rain":0.0,"pressure":991.7,"uv_index":8.25,"wind_gusts":25.9,"aqi":100,"pm10":74.7,"pm2_5":47.4,"no2":40.7,"co":467.0,"o3":50.0,"so2":13.9,"mosquito_risk":7,"arthritis_risk":5,"migraine_risk":7,"frizz_risk":1,"updated_at":"2026-06-02T00:11:14.112014+05:30"},{"city":"Chandigarh","state":"Chandigarh","latitude":30.7333,"longitude":76.7794,"temp":23.6,"humidity":84,"rain":0.0,"pressure":969.4,"uv_index":6.95,"wind_gusts":43.6,"aqi":84,"pm10":61.5,"pm2_5":51.9,"no2":58.9,"co":1370.0,"o3":33.0,"so2":12.1,"mosquito_risk":3,"arthritis_risk":5,"migraine_risk":7,"frizz_risk":1,"updated_at":"2026-06-02T00:11:14.112020+05:30"},{"city":"Srinagar","state":"Jammu and Kashmir","latitude":34.0837,"longitude":74.7973,"temp":17.7,"humidity":68,"rain":0.0,"pressure":841.3,"uv_index":9.0,"wind_gusts":20.2,"aqi":120,"pm10":57.3,"pm2_5":47.7,"no2":32.5,"co":921.0,"o3":18.0,"so2":1.3,"mosquito_risk":3,"arthritis_risk":5,"migraine_risk":7,"frizz_risk":0,"updated_at":"2026-06-02T00:11:14.112027+05:30"},{"city":"Jammu","state":"Jammu and Kashmir","latitude":32.7266,"longitude":74.857,"temp":26.6,"humidity":57,"rain":0.0,"pressure":973.0,"uv_index":8.55,"wind_gusts":21.2,"aqi":129,"pm10":113.6,"pm2_5":64.7,"no2":44.7,"co":676.0,"o3":55.0,"so2":8.4,"mosquito_risk":4,"arthritis_risk":5,"migraine_risk":7,"frizz_risk":1,"updated_at":"2026-06-02T00:11:14.112033+05:30"},{"city":"Amritsar","state":"Punjab","latitude":31.634,"longitude":74.8723,"temp":28.0,"humidity":54,"rain":0.0,"pressure":981.0,"uv_index":8.45,"wind_gusts":20.2,"aqi":111,"pm10":77.5,"pm2_5":55.1,"no2":25.7,"co":1126.0,"o3":61.0,"so2":7.1,"mosquito_risk":4,"arthritis_risk":5,"migraine_risk":7,"frizz_risk":1,"updated_at":"2026-06-02T00:11:14.112040+05:30"},{"city":"Ludhiana","state":"Punjab","latitude":30.901,"longitude":75.8573,"temp":27.2,"humidity":54,"rain":0.0,"pressure":979.1,"uv_index":8.0,"wind_gusts":25.2,"aqi":142,"pm10":208.2,"pm2_5":65.2,"no2":25.4,"co":478.0,"o3":77.0,"so2":12.0,"mosquito_risk":4,"arthritis_risk":5,"migraine_risk":7,"frizz_risk":1,"updated_at":"2026-06-02T00:11:14.112046+05:30"},{"city":"Jalandhar","state":"Punjab","latitude":31.326,"longitude":75.5762,"temp":26.8,"humidity":61,"rain":0.0,"pressure":980.2,"uv_index":8.2,"wind_gusts":22.7,"aqi":129,"pm10":90.1,"pm2_5":74.7,"no2":57.7,"co":520.0,"o3":29.0,"so2":11.1,"mosquito_risk":7,"arthritis_risk":5,"migraine_risk":7,"frizz_risk":1,"updated_at":"2026-06-02T00:11:14.112052+05:30"},{"city":"Dehradun","state":"Uttarakhand","latitude":30.6284,"longitude":78.0322,"temp":14.1,"humidity":92,"rain":0.0,"pressure":830.0,"uv_index":7.8,"wind_gusts":26.3,"aqi":66,"pm10":17.9,"pm2_5":12.6,"no2":24.5,"co":230.0,"o3":67.0,"so2":1.1,"mosquito_risk":3,"arthritis_risk":10,"migraine_risk":7,"frizz_risk":0,"updated_at":"2026-06-02T00:11:14.112059+05:30"},{"city":"Shimla","state":"Himachal Pradesh","latitude":31.1048,"longitude":77.1734,"temp":12.1,"humidity":82,"rain":0.0,"pressure":784.2,"uv_index":7.7,"wind_gusts":28.8,"aqi":86,"pm10":30.2,"pm2_5":24.6,"no2":29.7,"co":453.0,"o3":59.0,"so2":4.7,"mosquito_risk":3,"arthritis_risk":10,"migraine_risk":7,"frizz_risk":0,"updated_at":"2026-06-02T00:11:14.112068+05:30"},{"city":"Manali","state":"Himachal Pradesh","latitude":32.2396,"longitude":77.1887,"temp":11.0,"humidity":80,"rain":0.0,"pressure":817.6,"uv_index":8.8,"wind_gusts":42.8,"aqi":45,"pm10":6.0,"pm2_5":5.4,"no2":32.3,"co":385.0,"o3":62.0,"so2":0.0,"mosquito_risk":3,"arthritis_risk":5,"migraine_risk":7,"frizz_risk":0,"updated_at":"2026-06-02T00:11:14.112077+05:30"},{"city":"Gurgaon","state":"Haryana","latitude":28.4595,"longitude":77.0266,"temp":26.9,"humidity":59,"rain":0.0,"pressure":981.2,"uv_index":7.75,"wind_gusts":37.8,"aqi":324,"pm10":290.6,"pm2_5":79.9,"no2":40.1,"co":915.0,"o3":68.0,"so2":28.5,"mosquito_risk":4,"arthritis_risk":5,"migraine_risk":7,"frizz_risk":1,"updated_at":"2026-06-02T00:11:14.112083+05:30"},{"city":"Noida","state":"Uttar Pradesh","latitude":28.5355,"longitude":77.391,"temp":26.0,"humidity":66,"rain":0.0,"pressure":984.2,"uv_index":7.45,"wind_gusts":42.5,"aqi":324,"pm10":290.6,"pm2_5":79.9,"no2":40.1,"co":941.0,"o3":68.0,"so2":28.5,"mosquito_risk":7,"arthritis_risk":5,"migraine_risk":7,"frizz_risk":1,"updated_at":"2026-06-02T00:11:14.112089+05:30"},{"city":"Ghaziabad","state":"Uttar Pradesh","latitude":28.6692,"longitude":77.4538,"temp":25.8,"humidity":65,"rain":0.0,"pressure":982.6,"uv_index":7.55,"wind_gusts":52.2,"aqi":118,"pm10":50.5,"pm2_5":39.8,"no2":17.9,"co":602.0,"o3":87.0,"so2":12.8,"mosquito_risk":7,"arthritis_risk":5,"migraine_risk":7,"frizz_risk":1,"updated_at":"2026-06-02T00:11:14.112095+05:30"},{"city":"Faridabad","state":"Haryana","latitude":28.4089,"longitude":77.3178,"temp":26.5,"humidity":62,"rain":0.0,"pressure":983.6,"uv_index":7.65,"wind_gusts":42.5,"aqi":324,"pm10":290.6,"pm2_5":79.9,"no2":40.1,"co":707.0,"o3":68.0,"so2":28.5,"mosquito_risk":7,"arthritis_risk":5,"migraine_risk":7,"frizz_risk":1,"updated_at":"2026-06-02T00:11:14.112108+05:30"},{"city":"Meerut","state":"Uttar Pradesh","latitude":28.9845,"longitude":77.7064,"temp":25.1,"humidity":74,"rain":0.0,"pressure":981.5,"uv_index":7.6,"wind_gusts":60.1,"aqi":118,"pm10":50.5,"pm2_5":39.8,"no2":17.9,"co":513.0,"o3":87.0,"so2":12.8,"mosquito_risk":7,"arthritis_risk":5,"migraine_risk":7,"frizz_risk":1,"updated_at":"2026-06-02T00:11:14.112114+05:30"},{"city":"Agra","state":"Uttar Pradesh","latitude":27.1767,"longitude":78.0081,"temp":25.2,"humidity":82,"rain":0.0,"pressure":987.6,"uv_index":8.05,"wind_gusts":38.5,"aqi":145,"pm10":154.6,"pm2_5":53.3,"no2":16.7,"co":634.0,"o3":79.0,"so2":9.5,"mosquito_risk":7,"arthritis_risk":5,"migraine_risk":7,"frizz_risk":1,"updated_at":"2026-06-02T00:11:14.112120+05:30"},{"city":"Varanasi","state":"Uttar Pradesh","latitude":25.3176,"longitude":82.9739,"temp":28.3,"humidity":74,"rain":0.0,"pressure":997.6,"uv_index":8.75,"wind_gusts":43.2,"aqi":148,"pm10":83.6,"pm2_5":74.3,"no2":40.6,"co":1869.0,"o3":72.0,"so2":20.4,"mosquito_risk":7,"arthritis_risk":5,"migraine_risk":7,"frizz_risk":1,"updated_at":"2026-06-02T00:11:14.112127+05:30"},{"city":"Prayagraj","state":"Uttar Pradesh","latitude":25.4358,"longitude":81.8463,"temp":28.8,"humidity":63,"rain":0.0,"pressure":996.0,"uv_index":8.65,"wind_gusts":30.2,"aqi":114,"pm10":91.3,"pm2_5":82.4,"no2":53.9,"co":524.0,"o3":57.0,"so2":21.6,"mosquito_risk":7,"arthritis_risk":5,"migraine_risk":7,"frizz_risk":1,"updated_at":"2026-06-02T00:11:14.112134+05:30"},{"city":"Gorakhpur","state":"Uttar Pradesh","latitude":26.7606,"longitude":83.3732,"temp":27.4,"humidity":73,"rain":0.0,"pressure":997.3,"uv_index":8.6,"wind_gusts":36.7,"aqi":156,"pm10":79.2,"pm2_5":68.0,"no2":48.1,"co":530.0,"o3":35.0,"so2":13.1,"mosquito_risk":7,"arthritis_risk":5,"migraine_risk":7,"frizz_risk":1,"updated_at":"2026-06-02T00:11:14.112142+05:30"},{"city":"Bareilly","state":"Uttar Pradesh","latitude":28.367,"longitude":79.4304,"temp":25.3,"humidity":79,"rain":0.0,"pressure":987.1,"uv_index":8.0,"wind_gusts":43.6,"aqi":119,"pm10":53.1,"pm2_5":41.1,"no2":27.2,"co":506.0,"o3":65.0,"so2":6.8,"mosquito_risk":7,"arthritis_risk":5,"migraine_risk":7,"frizz_risk":1,"updated_at":"2026-06-02T00:11:14.112149+05:30"},{"city":"Aligarh","state":"Uttar Pradesh","latitude":27.8974,"longitude":78.088,"temp":27.0,"humidity":66,"rain":0.0,"pressure":985.8,"uv_index":7.9,"wind_gusts":42.8,"aqi":110,"pm10":166.7,"pm2_5":53.1,"no2":17.8,"co":442.0,"o3":76.0,"so2":8.7,"mosquito_risk":7,"arthritis_risk":5,"migraine_risk":7,"frizz_risk":1,"updated_at":"2026-06-02T00:11:14.112155+05:30"},{"city":"Moradabad","state":"Uttar Pradesh","latitude":28.8386,"longitude":78.7733,"temp":25.0,"humidity":77,"rain":0.0,"pressure":984.1,"uv_index":7.75,"wind_gusts":56.9,"aqi":146,"pm10":94.1,"pm2_5":73.8,"no2":45.2,"co":562.0,"o3":51.0,"so2":16.1,"mosquito_risk":7,"arthritis_risk":5,"migraine_risk":7,"frizz_risk":1,"updated_at":"2026-06-02T00:11:14.112161+05:30"},{"city":"Saharanpur","state":"Uttar Pradesh","latitude":29.9637,"longitude":77.546,"temp":24.9,"humidity":70,"rain":0.0,"pressure":976.4,"uv_index":7.05,"wind_gusts":34.2,"aqi":127,"pm10":96.9,"pm2_5":78.7,"no2":62.9,"co":908.0,"o3":30.0,"so2":18.2,"mosquito_risk":3,"arthritis_risk":5,"migraine_risk":7,"frizz_risk":1,"updated_at":"2026-06-02T00:11:14.112167+05:30"},{"city":"Jhansi","state":"Uttar Pradesh","latitude":25.4484,"longitude":78.5685,"temp":27.9,"humidity":62,"rain":0.0,"pressure":977.7,"uv_index":8.45,"wind_gusts":26.3,"aqi":92,"pm10":51.0,"pm2_5":31.2,"no2":6.7,"co":328.0,"o3":94.0,"so2":5.2,"mosquito_risk":7,"arthritis_risk":5,"migraine_risk":7,"frizz_risk":1,"updated_at":"2026-06-02T00:11:17.357257+05:30"},{"city":"Surat","state":"Gujarat","latitude":21.1702,"longitude":72.8311,"temp":30.0,"humidity":77,"rain":0.0,"pressure":1006.9,"uv_index":7.55,"wind_gusts":41.8,"aqi":71,"pm10":28.1,"pm2_5":16.9,"no2":18.7,"co":237.0,"o3":33.0,"so2":30.7,"mosquito_risk":7,"arthritis_risk":5,"migraine_risk":4,"frizz_risk":1,"updated_at":"2026-06-02T00:11:17.357290+05:30"},{"city":"Vadodara","state":"Gujarat","latitude":22.3072,"longitude":73.1812,"temp":30.2,"humidity":73,"rain":0.0,"pressure":1004.0,"uv_index":8.0,"wind_gusts":43.6,"aqi":69,"pm10":35.7,"pm2_5":21.8,"no2":22.4,"co":195.0,"o3":29.0,"so2":25.3,"mosquito_risk":3,"arthritis_risk":5,"migraine_risk":4,"frizz_risk":1,"updated_at":"2026-06-02T00:11:17.357301+05:30"},{"city":"Rajkot","state":"Gujarat","latitude":22.3039,"longitude":70.8022,"temp":30.0,"humidity":66,"rain":0.0,"pressure":993.9,"uv_index":7.55,"wind_gusts":44.6,"aqi":60,"pm10":29.7,"pm2_5":16.5,"no2":5.4,"co":123.0,"o3":46.0,"so2":5.5,"mosquito_risk":7,"arthritis_risk":5,"migraine_risk":7,"frizz_risk":1,"updated_at":"2026-06-02T00:11:17.357309+05:30"},{"city":"Thane","state":"Maharashtra","latitude":19.2183,"longitude":72.9781,"temp":30.1,"humidity":73,"rain":0.0,"pressure":1008.6,"uv_index":7.7,"wind_gusts":39.6,"aqi":51,"pm10":29.7,"pm2_5":12.4,"no2":6.3,"co":165.0,"o3":49.0,"so2":4.8,"mosquito_risk":3,"arthritis_risk":0,"migraine_risk":4,"frizz_risk":1,"updated_at":"2026-06-02T00:11:17.357316+05:30"},{"city":"Nagpur","state":"Maharashtra","latitude":21.1458,"longitude":79.0882,"temp":32.2,"humidity":46,"rain":0.0,"pressure":973.3,"uv_index":8.85,"wind_gusts":31.7,"aqi":79,"pm10":52.6,"pm2_5":34.6,"no2":31.6,"co":236.0,"o3":55.0,"so2":18.3,"mosquito_risk":0,"arthritis_risk":5,"migraine_risk":7,"frizz_risk":1,"updated_at":"2026-06-02T00:11:17.357324+05:30"},{"city":"Nashik","state":"Maharashtra","latitude":19.9975,"longitude":73.7898,"temp":25.5,"humidity":81,"rain":0.0,"pressure":946.9,"uv_index":8.0,"wind_gusts":37.1,"aqi":46,"pm10":22.5,"pm2_5":11.1,"no2":4.3,"co":139.0,"o3":46.0,"so2":1.5,"mosquito_risk":7,"arthritis_risk":5,"migraine_risk":7,"frizz_risk":1,"updated_at":"2026-06-02T00:11:17.357332+05:30"},{"city":"Aurangabad","state":"Maharashtra","latitude":19.8762,"longitude":75.3433,"temp":24.9,"humidity":79,"rain":0.0,"pressure":945.6,"uv_index":8.9,"wind_gusts":50.0,"aqi":55,"pm10":29.3,"pm2_5":17.1,"no2":8.7,"co":160.0,"o3":64.0,"so2":4.4,"mosquito_risk":3,"arthritis_risk":5,"migraine_risk":7,"frizz_risk":1,"updated_at":"2026-06-02T00:11:17.357339+05:30"},{"city":"Solapur","state":"Maharashtra","latitude":17.6599,"longitude":75.9064,"temp":30.2,"humidity":48,"rain":0.0,"pressure":957.7,"uv_index":8.9,"wind_gusts":33.8,"aqi":60,"pm10":28.8,"pm2_5":17.6,"no2":9.5,"co":226.0,"o3":83.0,"so2":3.8,"mosquito_risk":0,"arthritis_risk":5,"migraine_risk":7,"frizz_risk":1,"updated_at":"2026-06-02T00:11:17.357347+05:30"},{"city":"Kolhapur","state":"Maharashtra","latitude":16.705,"longitude":74.2433,"temp":25.1,"humidity":83,"rain":0.0,"pressure":949.4,"uv_index":8.75,"wind_gusts":52.2,"aqi":42,"pm10":12.0,"pm2_5":8.4,"no2":7.1,"co":185.0,"o3":47.0,"so2":3.1,"mosquito_risk":7,"arthritis_risk":5,"migraine_risk":7,"frizz_risk":1,"updated_at":"2026-06-02T00:11:17.357354+05:30"},{"city":"Goa","state":"Goa","latitude":15.2993,"longitude":74.124,"temp":27.0,"humidity":96,"rain":0.0,"pressure":999.3,"uv_index":8.7,"wind_gusts":29.9,"aqi":48,"pm10":21.1,"pm2_5":17.0,"no2":9.5,"co":440.0,"o3":41.0,"so2":2.7,"mosquito_risk":7,"arthritis_risk":5,"migraine_risk":7,"frizz_risk":1,"updated_at":"2026-06-02T00:11:17.357361+05:30"},{"city":"Jodhpur","state":"Rajasthan","latitude":26.2389,"longitude":73.0243,"temp":27.8,"humidity":74,"rain":0.0,"pressure":981.6,"uv_index":8.4,"wind_gusts":53.3,"aqi":94,"pm10":105.0,"pm2_5":38.8,"no2":19.9,"co":206.0,"o3":35.0,"so2":4.4,"mosquito_risk":7,"arthritis_risk":5,"migraine_risk":7,"frizz_risk":1,"updated_at":"2026-06-02T00:11:17.357369+05:30"},{"city":"Udaipur","state":"Rajasthan","latitude":24.5854,"longitude":73.7125,"temp":28.2,"humidity":59,"rain":0.0,"pressure":945.7,"uv_index":8.8,"wind_gusts":42.8,"aqi":69,"pm10":45.8,"pm2_5":22.1,"no2":4.7,"co":139.0,"o3":71.0,"so2":3.3,"mosquito_risk":4,"arthritis_risk":5,"migraine_risk":7,"frizz_risk":1,"updated_at":"2026-06-02T00:11:17.357377+05:30"},{"city":"Kota","state":"Rajasthan","latitude":25.2138,"longitude":75.8648,"temp":27.0,"humidity":78,"rain":0.0,"pressure":978.1,"uv_index":8.3,"wind_gusts":52.9,"aqi":86,"pm10":75.4,"pm2_5":33.6,"no2":7.6,"co":201.0,"o3":72.0,"so2":4.5,"mosquito_risk":7,"arthritis_risk":5,"migraine_risk":7,"frizz_risk":1,"updated_at":"2026-06-02T00:11:17.357384+05:30"},{"city":"Bikaner","state":"Rajasthan","latitude":28.0229,"longitude":73.3119,"temp":27.0,"humidity":79,"rain":0.0,"pressure":980.4,"uv_index":8.4,"wind_gusts":38.9,"aqi":123,"pm10":132.7,"pm2_5":48.3,"no2":5.6,"co":217.0,"o3":53.0,"so2":3.2,"mosquito_risk":7,"arthritis_risk":5,"migraine_risk":7,"frizz_risk":1,"updated_at":"2026-06-02T00:11:17.357391+05:30"},{"city":"Ajmer","state":"Rajasthan","latitude":26.4499,"longitude":74.6399,"temp":27.2,"humidity":60,"rain":0.0,"pressure":953.9,"uv_index":8.3,"wind_gusts":44.6,"aqi":85,"pm10":77.8,"pm2_5":31.8,"no2":7.6,"co":191.0,"o3":60.0,"so2":3.1,"mosquito_risk":4,"arthritis_risk":5,"migraine_risk":7,"frizz_risk":1,"updated_at":"2026-06-02T00:11:17.357398+05:30"},{"city":"Gwalior","state":"Madhya Pradesh","latitude":26.2183,"longitude":78.1828,"temp":25.5,"humidity":84,"rain":0.0,"pressure":983.0,"uv_index":8.2,"wind_gusts":30.6,"aqi":101,"pm10":71.9,"pm2_5":36.2,"no2":9.5,"co":323.0,"o3":77.0,"so2":4.9,"mosquito_risk":7,"arthritis_risk":5,"migraine_risk":7,"frizz_risk":1,"updated_at":"2026-06-02T00:11:17.357405+05:30"},{"city":"Indore","state":"Madhya Pradesh","latitude":22.7196,"longitude":75.8577,"temp":27.5,"humidity":70,"rain":0.0,"pressure":948.2,"uv_index":8.6,"wind_gusts":40.0,"aqi":78,"pm10":55.5,"pm2_5":39.8,"no2":21.3,"co":616.0,"o3":48.0,"so2":9.8,"mosquito_risk":7,"arthritis_risk":5,"migraine_risk":7,"frizz_risk":1,"updated_at":"2026-06-02T00:11:17.357411+05:30"},{"city":"Bhopal","state":"Madhya Pradesh","latitude":23.2599,"longitude":77.4126,"temp":27.8,"humidity":69,"rain":0.0,"pressure":953.7,"uv_index":8.65,"wind_gusts":35.6,"aqi":66,"pm10":40.3,"pm2_5":23.7,"no2":5.2,"co":260.0,"o3":84.0,"so2":4.2,"mosquito_risk":7,"arthritis_risk":5,"migraine_risk":7,"frizz_risk":1,"updated_at":"2026-06-02T00:11:17.357418+05:30"},{"city":"Jabalpur","state":"Madhya Pradesh","latitude":23.1815,"longitude":79.9864,"temp":29.3,"humidity":52,"rain":0.0,"pressure":961.4,"uv_index":8.8,"wind_gusts":26.6,"aqi":91,"pm10":48.9,"pm2_5":30.3,"no2":18.4,"co":342.0,"o3":62.0,"so2":5.6,"mosquito_risk":4,"arthritis_risk":5,"migraine_risk":7,"frizz_risk":1,"updated_at":"2026-06-02T00:11:17.357424+05:30"},{"city":"Ujjain","state":"Madhya Pradesh","latitude":23.1765,"longitude":75.7885,"temp":27.8,"humidity":68,"rain":0.0,"pressure":953.4,"uv_index":8.55,"wind_gusts":46.8,"aqi":75,"pm10":45.8,"pm2_5":30.2,"no2":6.6,"co":460.0,"o3":70.0,"so2":6.1,"mosquito_risk":7,"arthritis_risk":5,"migraine_risk":7,"frizz_risk":1,"updated_at":"2026-06-02T00:11:17.357431+05:30"},{"city":"Visakhapatnam","state":"Andhra Pradesh","latitude":17.6868,"longitude":83.2185,"temp":29.7,"humidity":85,"rain":0.0,"pressure":1003.2,"uv_index":8.95,"wind_gusts":31.3,"aqi":97,"pm10":43.0,"pm2_5":34.2,"no2":31.5,"co":439.0,"o3":85.0,"so2":44.0,"mosquito_risk":7,"arthritis_risk":5,"migraine_risk":4,"frizz_risk":1,"updated_at":"2026-06-02T00:11:17.357438+05:30"},{"city":"Vijayawada","state":"Andhra Pradesh","latitude":16.5062,"longitude":80.648,"temp":29.9,"humidity":76,"rain":0.0,"pressure":1001.8,"uv_index":9.0,"wind_gusts":25.2,"aqi":91,"pm10":45.6,"pm2_5":37.4,"no2":16.2,"co":826.0,"o3":72.0,"so2":6.8,"mosquito_risk":7,"arthritis_risk":5,"migraine_risk":4,"frizz_risk":1,"updated_at":"2026-06-02T00:11:17.357445+05:30"},{"city":"Guntur","state":"Andhra Pradesh","latitude":16.3067,"longitude":80.4365,"temp":29.5,"humidity":77,"rain":0.0,"pressure":1003.1,"uv_index":9.0,"wind_gusts":28.4,"aqi":92,"pm10":72.4,"pm2_5":58.2,"no2":33.3,"co":664.0,"o3":52.0,"so2":10.5,"mosquito_risk":7,"arthritis_risk":5,"migraine_risk":4,"frizz_risk":1,"updated_at":"2026-06-02T00:11:17.357451+05:30"},{"city":"Nellore","state":"Andhra Pradesh","latitude":14.4426,"longitude":79.9865,"temp":29.5,"humidity":74,"rain":0.0,"pressure":1005.6,"uv_index":8.8,"wind_gusts":30.2,"aqi":116,"pm10":29.9,"pm2_5":27.1,"no2":8.6,"co":385.0,"o3":127.0,"so2":12.0,"mosquito_risk":7,"arthritis_risk":5,"migraine_risk":4,"frizz_risk":1,"updated_at":"2026-06-02T00:11:17.357459+05:30"},{"city":"Kurnool","state":"Andhra Pradesh","latitude":15.8281,"longitude":78.0373,"temp":30.0,"humidity":56,"rain":0.0,"pressure":977.1,"uv_index":8.95,"wind_gusts":37.1,"aqi":75,"pm10":70.3,"pm2_5":45.4,"no2":35.1,"co":240.0,"o3":60.0,"so2":10.6,"mosquito_risk":4,"arthritis_risk":5,"migraine_risk":7,"frizz_risk":1,"updated_at":"2026-06-02T00:11:17.357466+05:30"},{"city":"Kakinada","state":"Andhra Pradesh","latitude":16.9891,"longitude":82.2475,"temp":28.7,"humidity":82,"rain":0.0,"pressure":1006.7,"uv_index":8.95,"wind_gusts":34.6,"aqi":94,"pm10":38.3,"pm2_5":27.0,"no2":3.8,"co":253.0,"o3":121.0,"so2":4.0,"mosquito_risk":7,"arthritis_risk":5,"migraine_risk":4,"frizz_risk":1,"updated_at":"2026-06-02T00:11:17.357472+05:30"},{"city":"Tirupati","state":"Andhra Pradesh","latitude":13.6288,"longitude":79.4192,"temp":28.5,"humidity":70,"rain":0.0,"pressure":991.6,"uv_index":8.85,"wind_gusts":34.6,"aqi":73,"pm10":32.0,"pm2_5":28.5,"no2":21.8,"co":191.0,"o3":68.0,"so2":7.2,"mosquito_risk":7,"arthritis_risk":5,"migraine_risk":7,"frizz_risk":1,"updated_at":"2026-06-02T00:11:17.357478+05:30"},{"city":"Warangal","state":"Telangana","latitude":17.9689,"longitude":79.5941,"temp":30.0,"humidity":54,"rain":0.0,"pressure":978.2,"uv_index":9.0,"wind_gusts":26.3,"aqi":116,"pm10":111.8,"pm2_5":82.2,"no2":46.2,"co":717.0,"o3":67.0,"so2":20.1,"mosquito_risk":4,"arthritis_risk":5,"migraine_risk":7,"frizz_risk":1,"updated_at":"2026-06-02T00:11:17.357485+05:30"},{"city":"Nizamabad","state":"Telangana","latitude":18.6725,"longitude":78.0941,"temp":29.1,"humidity":57,"rain":0.0,"pressure":965.2,"uv_index":9.0,"wind_gusts":34.6,"aqi":69,"pm10":98.0,"pm2_5":53.3,"no2":22.1,"co":546.0,"o3":70.0,"so2":7.2,"mosquito_risk":4,"arthritis_risk":5,"migraine_risk":7,"frizz_risk":1,"updated_at":"2026-06-02T00:11:17.357491+05:30"},{"city":"Mysore","state":"Karnataka","latitude":12.2958,"longitude":76.6396,"temp":23.1,"humidity":93,"rain":0.0,"pressure":929.8,"uv_index":8.95,"wind_gusts":26.6,"aqi":45,"pm10":15.5,"pm2_5":14.3,"no2":18.3,"co":425.0,"o3":56.0,"so2":3.1,"mosquito_risk":3,"arthritis_risk":5,"migraine_risk":7,"frizz_risk":1,"updated_at":"2026-06-02T00:11:17.357497+05:30"},{"city":"Mangalore","state":"Karnataka","latitude":12.9141,"longitude":74.856,"temp":26.0,"humidity":94,"rain":0.1,"pressure":1009.2,"uv_index":8.75,"wind_gusts":36.7,"aqi":43,"pm10":28.6,"pm2_5":26.0,"no2":24.9,"co":395.0,"o3":28.0,"so2":6.6,"mosquito_risk":10,"arthritis_risk":0,"migraine_risk":4,"frizz_risk":1,"updated_at":"2026-06-02T00:11:17.357504+05:30"},{"city":"Hubli-Dharwad","state":"Karnataka","latitude":15.3647,"longitude":75.124,"temp":24.9,"humidity":84,"rain":0.0,"pressure":942.2,"uv_index":8.9,"wind_gusts":45.4,"aqi":40,"pm10":8.1,"pm2_5":6.1,"no2":6.2,"co":162.0,"o3":50.0,"so2":1.9,"mosquito_risk":3,"arthritis_risk":5,"migraine_risk":7,"frizz_risk":1,"updated_at":"2026-06-02T00:11:17.357511+05:30"},{"city":"Belgaum","state":"Karnataka","latitude":15.8497,"longitude":74.4977,"temp":23.1,"humidity":94,"rain":0.0,"pressure":927.0,"uv_index":8.95,"wind_gusts":42.8,"aqi":45,"pm10":15.2,"pm2_5":11.8,"no2":11.9,"co":156.0,"o3":39.0,"so2":1.8,"mosquito_risk":3,"arthritis_risk":5,"migraine_risk":7,"frizz_risk":1,"updated_at":"2026-06-02T00:11:20.592871+05:30"},{"city":"Coimbatore","state":"Tamil Nadu","latitude":11.0168,"longitude":76.9558,"temp":25.5,"humidity":87,"rain":0.0,"pressure":963.2,"uv_index":8.75,"wind_gusts":41.8,"aqi":42,"pm10":7.2,"pm2_5":6.7,"no2":7.7,"co":213.0,"o3":67.0,"so2":3.4,"mosquito_risk":7,"arthritis_risk":5,"migraine_risk":7,"frizz_risk":1,"updated_at":"2026-06-02T00:11:20.592906+05:30"},{"city":"Madurai","state":"Tamil Nadu","latitude":9.9252,"longitude":78.1198,"temp":27.3,"humidity":90,"rain":0.0,"pressure":994.3,"uv_index":8.85,"wind_gusts":30.2,"aqi":75,"pm10":44.4,"pm2_5":36.1,"no2":53.2,"co":569.0,"o3":4.0,"so2":9.8,"mosquito_risk":7,"arthritis_risk":5,"migraine_risk":7,"frizz_risk":1,"updated_at":"2026-06-02T00:11:20.592918+05:30"},{"city":"Trichy","state":"Tamil Nadu","latitude":10.7905,"longitude":78.7047,"temp":29.2,"humidity":70,"rain":0.0,"pressure":1000.9,"uv_index":8.6,"wind_gusts":32.0,"aqi":56,"pm10":23.2,"pm2_5":19.0,"no2":19.5,"co":283.0,"o3":48.0,"so2":5.5,"mosquito_risk":7,"arthritis_risk":5,"migraine_risk":4,"frizz_risk":1,"updated_at":"2026-06-02T00:11:20.592927+05:30"},{"city":"Salem","state":"Tamil Nadu","latitude":11.6643,"longitude":78.146,"temp":26.7,"humidity":81,"rain":0.0,"pressure":978.5,"uv_index":8.45,"wind_gusts":30.2,"aqi":99,"pm10":25.2,"pm2_5":22.5,"no2":21.6,"co":287.0,"o3":68.0,"so2":9.2,"mosquito_risk":7,"arthritis_risk":5,"migraine_risk":7,"frizz_risk":1,"updated_at":"2026-06-02T00:11:20.592936+05:30"},{"city":"Tirunelveli","state":"Tamil Nadu","latitude":8.7139,"longitude":77.7567,"temp":29.6,"humidity":67,"rain":0.0,"pressure":1004.7,"uv_index":8.75,"wind_gusts":44.3,"aqi":30,"pm10":13.4,"pm2_5":11.3,"no2":10.9,"co":171.0,"o3":39.0,"so2":2.1,"mosquito_risk":7,"arthritis_risk":5,"migraine_risk":4,"frizz_risk":1,"updated_at":"2026-06-02T00:11:20.592944+05:30"},{"city":"Vellore","state":"Tamil Nadu","latitude":12.9165,"longitude":79.1325,"temp":26.0,"humidity":97,"rain":0.0,"pressure":984.9,"uv_index":9.0,"wind_gusts":35.6,"aqi":78,"pm10":34.3,"pm2_5":29.4,"no2":18.0,"co":228.0,"o3":73.0,"so2":8.0,"mosquito_risk":7,"arthritis_risk":5,"migraine_risk":7,"frizz_risk":1,"updated_at":"2026-06-02T00:11:20.592951+05:30"},{"city":"Erode","state":"Tamil Nadu","latitude":11.341,"longitude":77.7172,"temp":28.8,"humidity":68,"rain":0.0,"pressure":990.4,"uv_index":8.3,"wind_gusts":25.6,"aqi":60,"pm10":10.7,"pm2_5":10.2,"no2":14.6,"co":337.0,"o3":56.0,"so2":4.9,"mosquito_risk":7,"arthritis_risk":5,"migraine_risk":7,"frizz_risk":1,"updated_at":"2026-06-02T00:11:20.592959+05:30"},{"city":"Kochi","state":"Kerala","latitude":9.9312,"longitude":76.2673,"temp":25.5,"humidity":94,"rain":0.0,"pressure":1010.9,"uv_index":7.7,"wind_gusts":31.7,"aqi":51,"pm10":20.9,"pm2_5":19.6,"no2":22.9,"co":287.0,"o3":19.0,"so2":6.4,"mosquito_risk":7,"arthritis_risk":0,"migraine_risk":4,"frizz_risk":1,"updated_at":"2026-06-02T00:11:20.592966+05:30"},{"city":"Thiruvananthapuram","state":"Kerala","latitude":8.5241,"longitude":76.9366,"temp":25.2,"humidity":96,"rain":0.0,"pressure":1010.7,"uv_index":7.2,"wind_gusts":36.4,"aqi":31,"pm10":7.6,"pm2_5":4.4,"no2":1.7,"co":569.0,"o3":44.0,"so2":0.6,"mosquito_risk":7,"arthritis_risk":0,"migraine_risk":4,"frizz_risk":1,"updated_at":"2026-06-02T00:11:20.592974+05:30"},{"city":"Kozhikode","state":"Kerala","latitude":11.2588,"longitude":75.7804,"temp":25.9,"humidity":96,"rain":0.0,"pressure":1010.0,"uv_index":7.75,"wind_gusts":31.0,"aqi":35,"pm10":11.1,"pm2_5":8.2,"no2":4.7,"co":594.0,"o3":69.0,"so2":2.8,"mosquito_risk":7,"arthritis_risk":0,"migraine_risk":4,"frizz_risk":1,"updated_at":"2026-06-02T00:11:20.592982+05:30"},{"city":"Thrissur","state":"Kerala","latitude":10.5276,"longitude":76.2144,"temp":24.8,"humidity":97,"rain":0.0,"pressure":1009.2,"uv_index":8.1,"wind_gusts":23.0,"aqi":48,"pm10":14.0,"pm2_5":13.1,"no2":16.9,"co":295.0,"o3":26.0,"so2":5.1,"mosquito_risk":3,"arthritis_risk":0,"migraine_risk":4,"frizz_risk":1,"updated_at":"2026-06-02T00:11:20.592990+05:30"},{"city":"Kannur","state":"Kerala","latitude":11.8745,"longitude":75.3704,"temp":26.2,"humidity":98,"rain":0.1,"pressure":1009.3,"uv_index":8.35,"wind_gusts":27.7,"aqi":32,"pm10":22.2,"pm2_5":20.6,"no2":24.0,"co":395.0,"o3":27.0,"so2":4.7,"mosquito_risk":10,"arthritis_risk":0,"migraine_risk":4,"frizz_risk":1,"updated_at":"2026-06-02T00:11:20.592997+05:30"},{"city":"Patna","state":"Bihar","latitude":25.5941,"longitude":85.1376,"temp":28.6,"humidity":72,"rain":0.0,"pressure":1000.5,"uv_index":8.85,"wind_gusts":14.0,"aqi":158,"pm10":98.5,"pm2_5":89.6,"no2":53.4,"co":594.0,"o3":44.0,"so2":22.5,"mosquito_risk":7,"arthritis_risk":5,"migraine_risk":4,"frizz_risk":1,"updated_at":"2026-06-02T00:11:20.593004+05:30"},{"city":"Gaya","state":"Bihar","latitude":24.7914,"longitude":85.0002,"temp":28.6,"humidity":72,"rain":0.0,"pressure":993.9,"uv_index":8.9,"wind_gusts":24.5,"aqi":153,"pm10":85.2,"pm2_5":75.9,"no2":35.8,"co":746.0,"o3":73.0,"so2":16.0,"mosquito_risk":7,"arthritis_risk":5,"migraine_risk":7,"frizz_risk":1,"updated_at":"2026-06-02T00:11:20.593012+05:30"},{"city":"Muzaffarpur","state":"Bihar","latitude":26.1209,"longitude":85.3647,"temp":28.3,"humidity":70,"rain":0.0,"pressure":1000.3,"uv_index":8.85,"wind_gusts":15.5,"aqi":162,"pm10":105.7,"pm2_5":95.7,"no2":55.1,"co":918.0,"o3":44.0,"so2":22.1,"mosquito_risk":7,"arthritis_risk":5,"migraine_risk":4,"frizz_risk":1,"updated_at":"2026-06-02T00:11:20.593019+05:30"},{"city":"Bhagalpur","state":"Bihar","latitude":25.2425,"longitude":87.0117,"temp":28.6,"humidity":82,"rain":0.0,"pressure":1000.8,"uv_index":8.8,"wind_gusts":18.7,"aqi":153,"pm10":115.5,"pm2_5":103.8,"no2":41.3,"co":587.0,"o3":66.0,"so2":24.0,"mosquito_risk":7,"arthritis_risk":5,"migraine_risk":4,"frizz_risk":1,"updated_at":"2026-06-02T00:11:20.593026+05:30"},{"city":"Ranchi","state":"Jharkhand","latitude":23.3441,"longitude":85.3096,"temp":24.4,"humidity":76,"rain":0.0,"pressure":938.0,"uv_index":9.2,"wind_gusts":37.4,"aqi":121,"pm10":81.7,"pm2_5":65.4,"no2":32.9,"co":834.0,"o3":59.0,"so2":11.4,"mosquito_risk":3,"arthritis_risk":5,"migraine_risk":7,"frizz_risk":1,"updated_at":"2026-06-02T00:11:20.593033+05:30"},{"city":"Jamshedpur","state":"Jharkhand","latitude":22.8046,"longitude":86.2029,"temp":28.2,"humidity":83,"rain":0.0,"pressure":990.9,"uv_index":9.05,"wind_gusts":27.0,"aqi":154,"pm10":67.1,"pm2_5":59.5,"no2":24.6,"co":709.0,"o3":65.0,"so2":17.3,"mosquito_risk":7,"arthritis_risk":5,"migraine_risk":7,"frizz_risk":1,"updated_at":"2026-06-02T00:11:20.593040+05:30"},{"city":"Dhanbad","state":"Jharkhand","latitude":23.7957,"longitude":86.4304,"temp":28.0,"humidity":81,"rain":0.0,"pressure":979.9,"uv_index":9.0,"wind_gusts":17.6,"aqi":174,"pm10":113.9,"pm2_5":106.9,"no2":68.0,"co":476.0,"o3":39.0,"so2":157.5,"mosquito_risk":7,"arthritis_risk":5,"migraine_risk":7,"frizz_risk":1,"updated_at":"2026-06-02T00:11:20.593047+05:30"},{"city":"Bokaro","state":"Jharkhand","latitude":23.6693,"longitude":86.1511,"temp":27.2,"humidity":84,"rain":0.0,"pressure":983.7,"uv_index":9.05,"wind_gusts":25.9,"aqi":176,"pm10":145.3,"pm2_5":132.7,"no2":73.4,"co":567.0,"o3":39.0,"so2":142.3,"mosquito_risk":7,"arthritis_risk":5,"migraine_risk":7,"frizz_risk":1,"updated_at":"2026-06-02T00:11:20.593054+05:30"},{"city":"Bhubaneswar","state":"Odisha","latitude":20.2961,"longitude":85.8245,"temp":28.5,"humidity":97,"rain":0.0,"pressure":1002.3,"uv_index":9.0,"wind_gusts":35.3,"aqi":110,"pm10":45.8,"pm2_5":42.0,"no2":12.3,"co":317.0,"o3":87.0,"so2":8.8,"mosquito_risk":7,"arthritis_risk":5,"migraine_risk":4,"frizz_risk":1,"updated_at":"2026-06-02T00:11:20.593061+05:30"},{"city":"Cuttack","state":"Odisha","latitude":20.4625,"longitude":85.8828,"temp":28.8,"humidity":95,"rain":0.0,"pressure":1004.1,"uv_index":9.1,"wind_gusts":30.6,"aqi":110,"pm10":45.8,"pm2_5":42.0,"no2":12.3,"co":350.0,"o3":87.0,"so2":8.8,"mosquito_risk":7,"arthritis_risk":5,"migraine_risk":4,"frizz_risk":1,"updated_at":"2026-06-02T00:11:20.593067+05:30"},{"city":"Rourkela","state":"Odisha","latitude":22.2604,"longitude":84.8536,"temp":28.4,"humidity":81,"rain":0.0,"pressure":985.1,"uv_index":8.95,"wind_gusts":51.8,"aqi":149,"pm10":111.5,"pm2_5":97.6,"no2":46.5,"co":414.0,"o3":53.0,"so2":23.4,"mosquito_risk":7,"arthritis_risk":5,"migraine_risk":7,"frizz_risk":1,"updated_at":"2026-06-02T00:11:20.593074+05:30"},{"city":"Raipur","state":"Chhattisgarh","latitude":21.2514,"longitude":81.6296,"temp":31.9,"humidity":46,"rain":0.0,"pressure":974.1,"uv_index":8.3,"wind_gusts":23.8,"aqi":135,"pm10":74.7,"pm2_5":56.7,"no2":35.6,"co":569.0,"o3":77.0,"so2":34.5,"mosquito_risk":0,"arthritis_risk":5,"migraine_risk":7,"frizz_risk":1,"updated_at":"2026-06-02T00:11:20.593081+05:30"},{"city":"Bhilai","state":"Chhattisgarh","latitude":21.1938,"longitude":81.3509,"temp":30.5,"humidity":52,"rain":0.0,"pressure":974.4,"uv_index":8.45,"wind_gusts":29.2,"aqi":146,"pm10":104.1,"pm2_5":76.1,"no2":67.9,"co":857.0,"o3":40.0,"so2":68.4,"mosquito_risk":0,"arthritis_risk":5,"migraine_risk":7,"frizz_risk":1,"updated_at":"2026-06-02T00:11:20.593087+05:30"},{"city":"Guwahati","state":"Assam","latitude":26.1158,"longitude":91.7086,"temp":27.4,"humidity":76,"rain":0.0,"pressure":1001.1,"uv_index":8.55,"wind_gusts":25.9,"aqi":86,"pm10":61.5,"pm2_5":54.6,"no2":24.2,"co":367.0,"o3":24.0,"so2":3.9,"mosquito_risk":7,"arthritis_risk":5,"migraine_risk":4,"frizz_risk":1,"updated_at":"2026-06-02T00:11:20.593094+05:30"},{"city":"Agartala","state":"Tripura","latitude":23.8315,"longitude":91.2868,"temp":26.9,"humidity":91,"rain":0.0,"pressure":1006.4,"uv_index":8.85,"wind_gusts":29.5,"aqi":124,"pm10":54.6,"pm2_5":48.4,"no2":16.5,"co":268.0,"o3":74.0,"so2":4.2,"mosquito_risk":7,"arthritis_risk":5,"migraine_risk":4,"frizz_risk":1,"updated_at":"2026-06-02T00:11:20.593100+05:30"},{"city":"Shillong","state":"Meghalaya","latitude":25.5788,"longitude":91.8933,"temp":18.4,"humidity":98,"rain":0.0,"pressure":857.9,"uv_index":8.3,"wind_gusts":24.1,"aqi":52,"pm10":25.7,"pm2_5":21.3,"no2":9.5,"co":356.0,"o3":59.0,"so2":2.0,"mosquito_risk":3,"arthritis_risk":10,"migraine_risk":7,"frizz_risk":1,"updated_at":"2026-06-02T00:11:20.593107+05:30"},{"city":"Imphal","state":"Manipur","latitude":24.817,"longitude":93.9368,"temp":22.5,"humidity":99,"rain":0.0,"pressure":923.4,"uv_index":9.05,"wind_gusts":15.1,"aqi":52,"pm10":21.7,"pm2_5":21.4,"no2":18.2,"co":1027.0,"o3":26.0,"so2":1.8,"mosquito_risk":3,"arthritis_risk":5,"migraine_risk":7,"frizz_risk":1,"updated_at":"2026-06-02T00:11:20.593114+05:30"},{"city":"Aizawl","state":"Mizoram","latitude":23.7271,"longitude":92.7176,"temp":19.3,"humidity":99,"rain":0.0,"pressure":892.6,"uv_index":9.05,"wind_gusts":19.8,"aqi":45,"pm10":15.0,"pm2_5":12.4,"no2":8.0,"co":238.0,"o3":40.0,"so2":1.5,"mosquito_risk":3,"arthritis_risk":10,"migraine_risk":7,"frizz_risk":1,"updated_at":"2026-06-02T00:11:20.593120+05:30"},{"city":"Kohima","state":"Nagaland","latitude":25.6701,"longitude":94.1077,"temp":19.0,"humidity":98,"rain":0.0,"pressure":855.7,"uv_index":8.5,"wind_gusts":24.1,"aqi":25,"pm10":10.3,"pm2_5":9.7,"no2":8.4,"co":263.0,"o3":47.0,"so2":1.1,"mosquito_risk":3,"arthritis_risk":10,"migraine_risk":7,"frizz_risk":1,"updated_at":"2026-06-02T00:11:20.593127+05:30"},{"city":"Gangtok","state":"Sikkim","latitude":27.3314,"longitude":88.6138,"temp":14.6,"humidity":81,"rain":0.0,"pressure":837.6,"uv_index":9.2,"wind_gusts":38.9,"aqi":60,"pm10":29.0,"pm2_5":26.5,"no2":22.3,"co":505.0,"o3":19.0,"so2":0.7,"mosquito_risk":3,"arthritis_risk":10,"migraine_risk":7,"frizz_risk":0,"updated_at":"2026-06-02T00:11:20.593133+05:30"},{"city":"Siliguri","state":"West Bengal","latitude":26.7271,"longitude":88.3953,"temp":27.4,"humidity":73,"rain":0.0,"pressure":992.9,"uv_index":8.75,"wind_gusts":25.2,"aqi":108,"pm10":71.7,"pm2_5":67.3,"no2":49.9,"co":1190.0,"o3":15.0,"so2":5.4,"mosquito_risk":7,"arthritis_risk":5,"migraine_risk":7,"frizz_risk":1,"updated_at":"2026-06-02T00:11:23.828834+05:30"},{"city":"Durgapur","state":"West Bengal","latitude":23.5204,"longitude":87.3119,"temp":28.2,"humidity":81,"rain":0.0,"pressure":994.9,"uv_index":8.95,"wind_gusts":32.0,"aqi":159,"pm10":88.0,"pm2_5":82.7,"no2":52.1,"co":710.0,"o3":33.0,"so2":65.2,"mosquito_risk":7,"arthritis_risk":5,"migraine_risk":7,"frizz_risk":1,"updated_at":"2026-06-02T00:11:23.828868+05:30"},{"city":"Asansol","state":"West Bengal","latitude":23.6739,"longitude":86.9524,"temp":28.3,"humidity":82,"rain":0.0,"pressure":993.4,"uv_index":9.0,"wind_gusts":28.8,"aqi":157,"pm10":75.4,"pm2_5":69.2,"no2":45.5,"co":1451.0,"o3":48.0,"so2":56.6,"mosquito_risk":7,"arthritis_risk":5,"migraine_risk":7,"frizz_risk":1,"updated_at":"2026-06-02T00:11:23.828878+05:30"},{"city":"Pondicherry","state":"Puducherry","latitude":11.9139,"longitude":79.8145,"temp":29.5,"humidity":75,"rain":0.0,"pressure":1009.0,"uv_index":8.85,"wind_gusts":32.8,"aqi":67,"pm10":12.0,"pm2_5":9.1,"no2":12.1,"co":224.0,"o3":43.0,"so2":9.2,"mosquito_risk":7,"arthritis_risk":0,"migraine_risk":4,"frizz_risk":1,"updated_at":"2026-06-02T00:11:23.828886+05:30"},{"city":"Port Blair","state":"Andaman and Nicobar Islands","latitude":11.6234,"longitude":92.7265,"temp":25.1,"humidity":97,"rain":0.0,"pressure":1008.2,"uv_index":8.85,"wind_gusts":37.1,"aqi":31,"pm10":11.1,"pm2_5":5.9,"no2":0.3,"co":115.0,"o3":65.0,"so2":0.4,"mosquito_risk":7,"arthritis_risk":0,"migraine_risk":4,"frizz_risk":1,"updated_at":"2026-06-02T00:11:23.828895+05:30"},{"city":"Haridwar","state":"Uttarakhand","latitude":29.9457,"longitude":78.1642,"temp":23.0,"humidity":81,"rain":0.0,"pressure":974.7,"uv_index":7.55,"wind_gusts":31.7,"aqi":92,"pm10":66.8,"pm2_5":51.8,"no2":35.1,"co":424.0,"o3":82.0,"so2":12.0,"mosquito_risk":3,"arthritis_risk":5,"migraine_risk":7,"frizz_risk":1,"updated_at":"2026-06-02T00:11:23.828903+05:30"},{"city":"Rishikesh","state":"Uttarakhand","latitude":30.0869,"longitude":78.2676,"temp":22.4,"humidity":72,"rain":0.0,"pressure":967.4,"uv_index":7.55,"wind_gusts":32.0,"aqi":105,"pm10":39.1,"pm2_5":26.3,"no2":15.7,"co":503.0,"o3":110.0,"so2":5.1,"mosquito_risk":3,"arthritis_risk":5,"migraine_risk":7,"frizz_risk":1,"updated_at":"2026-06-02T00:11:23.828910+05:30"},{"city":"Nainital","state":"Uttarakhand","latitude":29.3919,"longitude":79.4542,"temp":12.4,"humidity":82,"rain":0.0,"pressure":804.7,"uv_index":6.9,"wind_gusts":51.1,"aqi":67,"pm10":29.3,"pm2_5":23.1,"no2":23.6,"co":329.0,"o3":57.0,"so2":2.7,"mosquito_risk":3,"arthritis_risk":10,"migraine_risk":7,"frizz_risk":0,"updated_at":"2026-06-02T00:11:23.828918+05:30"},{"city":"Mussoorie","state":"Uttarakhand","latitude":30.4599,"longitude":78.0664,"temp":14.0,"humidity":83,"rain":0.0,"pressure":803.1,"uv_index":8.0,"wind_gusts":33.1,"aqi":76,"pm10":30.6,"pm2_5":27.4,"no2":40.7,"co":316.0,"o3":52.0,"so2":7.9,"mosquito_risk":3,"arthritis_risk":10,"migraine_risk":7,"frizz_risk":0,"updated_at":"2026-06-02T00:11:23.828926+05:30"},{"city":"Dharamshala","state":"Himachal Pradesh","latitude":32.219,"longitude":76.3234,"temp":19.8,"humidity":62,"rain":0.0,"pressure":870.6,"uv_index":8.35,"wind_gusts":37.8,"aqi":44,"pm10":17.6,"pm2_5":15.8,"no2":18.9,"co":210.0,"o3":26.0,"so2":0.0,"mosquito_risk":3,"arthritis_risk":5,"migraine_risk":7,"frizz_risk":0,"updated_at":"2026-06-02T00:11:23.828934+05:30"},{"city":"Dalhousie","state":"Himachal Pradesh","latitude":32.5387,"longitude":75.971,"temp":12.9,"humidity":86,"rain":0.0,"pressure":804.5,"uv_index":8.3,"wind_gusts":34.2,"aqi":82,"pm10":37.5,"pm2_5":29.2,"no2":41.0,"co":465.0,"o3":58.0,"so2":2.9,"mosquito_risk":3,"arthritis_risk":10,"migraine_risk":7,"frizz_risk":0,"updated_at":"2026-06-02T00:11:23.828941+05:30"},{"city":"Patiala","state":"Punjab","latitude":30.3398,"longitude":76.3869,"temp":25.7,"humidity":58,"rain":0.0,"pressure":978.6,"uv_index":7.45,"wind_gusts":33.8,"aqi":150,"pm10":694.8,"pm2_5":105.7,"no2":11.5,"co":446.0,"o3":95.0,"so2":9.3,"mosquito_risk":4,"arthritis_risk":5,"migraine_risk":7,"frizz_risk":1,"updated_at":"2026-06-02T00:11:23.828949+05:30"},{"city":"Bhatinda","state":"Punjab","latitude":30.211,"longitude":74.9455,"temp":28.4,"humidity":46,"rain":0.0,"pressure":983.7,"uv_index":8.3,"wind_gusts":33.8,"aqi":251,"pm10":343.7,"pm2_5":83.8,"no2":26.8,"co":322.0,"o3":65.0,"so2":11.0,"mosquito_risk":4,"arthritis_risk":5,"migraine_risk":7,"frizz_risk":0,"updated_at":"2026-06-02T00:11:23.828956+05:30"},{"city":"Rohtak","state":"Haryana","latitude":28.8955,"longitude":76.6066,"temp":26.2,"humidity":61,"rain":0.0,"pressure":981.6,"uv_index":7.1,"wind_gusts":33.5,"aqi":193,"pm10":354.8,"pm2_5":81.7,"no2":31.7,"co":495.0,"o3":85.0,"so2":26.6,"mosquito_risk":7,"arthritis_risk":5,"migraine_risk":7,"frizz_risk":1,"updated_at":"2026-06-02T00:11:23.828963+05:30"},{"city":"Panipat","state":"Haryana","latitude":29.3909,"longitude":76.9635,"temp":25.5,"humidity":66,"rain":0.0,"pressure":980.5,"uv_index":7.3,"wind_gusts":37.4,"aqi":461,"pm10":676.1,"pm2_5":117.1,"no2":16.6,"co":716.0,"o3":97.0,"so2":8.7,"mosquito_risk":7,"arthritis_risk":5,"migraine_risk":7,"frizz_risk":1,"updated_at":"2026-06-02T00:11:23.828970+05:30"},{"city":"Mathura","state":"Uttar Pradesh","latitude":27.4924,"longitude":77.6737,"temp":25.9,"humidity":79,"rain":0.0,"pressure":986.8,"uv_index":8.0,"wind_gusts":37.1,"aqi":159,"pm10":187.7,"pm2_5":55.8,"no2":22.5,"co":467.0,"o3":73.0,"so2":8.3,"mosquito_risk":7,"arthritis_risk":5,"migraine_risk":7,"frizz_risk":1,"updated_at":"2026-06-02T00:11:23.828977+05:30"},{"city":"Vrindavan","state":"Uttar Pradesh","latitude":27.5823,"longitude":77.7027,"temp":25.8,"humidity":83,"rain":0.0,"pressure":987.1,"uv_index":7.95,"wind_gusts":34.2,"aqi":159,"pm10":187.7,"pm2_5":55.8,"no2":22.5,"co":429.0,"o3":73.0,"so2":8.3,"mosquito_risk":7,"arthritis_risk":5,"migraine_risk":7,"frizz_risk":1,"updated_at":"2026-06-02T00:11:23.828984+05:30"},{"city":"Ayodhya","state":"Uttar Pradesh","latitude":26.7922,"longitude":82.1998,"temp":26.9,"humidity":75,"rain":0.0,"pressure":995.5,"uv_index":8.35,"wind_gusts":38.9,"aqi":113,"pm10":90.8,"pm2_5":72.6,"no2":62.6,"co":583.0,"o3":27.0,"so2":14.9,"mosquito_risk":7,"arthritis_risk":5,"migraine_risk":7,"frizz_risk":1,"updated_at":"2026-06-02T00:11:23.828991+05:30"},{"city":"Ratlam","state":"Madhya Pradesh","latitude":23.3315,"longitude":75.0367,"temp":29.6,"humidity":58,"rain":0.0,"pressure":954.7,"uv_index":8.45,"wind_gusts":39.2,"aqi":73,"pm10":46.6,"pm2_5":29.8,"no2":5.7,"co":303.0,"o3":68.0,"so2":5.9,"mosquito_risk":4,"arthritis_risk":5,"migraine_risk":7,"frizz_risk":1,"updated_at":"2026-06-02T00:11:23.828998+05:30"},{"city":"Sagar","state":"Madhya Pradesh","latitude":23.8388,"longitude":78.7378,"temp":26.3,"humidity":65,"rain":0.0,"pressure":950.0,"uv_index":8.15,"wind_gusts":38.2,"aqi":72,"pm10":59.1,"pm2_5":27.2,"no2":11.9,"co":168.0,"o3":60.0,"so2":2.9,"mosquito_risk":7,"arthritis_risk":5,"migraine_risk":7,"frizz_risk":1,"updated_at":"2026-06-02T00:11:23.829005+05:30"},{"city":"Satna","state":"Madhya Pradesh","latitude":24.6005,"longitude":80.8322,"temp":27.2,"humidity":67,"rain":0.0,"pressure":971.4,"uv_index":8.75,"wind_gusts":48.2,"aqi":93,"pm10":34.0,"pm2_5":30.0,"no2":18.2,"co":414.0,"o3":69.0,"so2":5.1,"mosquito_risk":7,"arthritis_risk":5,"migraine_risk":7,"frizz_risk":1,"updated_at":"2026-06-02T00:11:23.829013+05:30"},{"city":"Akola","state":"Maharashtra","latitude":20.7002,"longitude":77.0082,"temp":27.6,"humidity":71,"rain":0.0,"pressure":975.7,"uv_index":8.75,"wind_gusts":64.1,"aqi":66,"pm10":44.4,"pm2_5":23.7,"no2":10.8,"co":207.0,"o3":73.0,"so2":5.0,"mosquito_risk":7,"arthritis_risk":5,"migraine_risk":7,"frizz_risk":1,"updated_at":"2026-06-02T00:11:23.829020+05:30"},{"city":"Amravati","state":"Maharashtra","latitude":20.9374,"longitude":77.7796,"temp":27.5,"humidity":75,"rain":0.0,"pressure":967.5,"uv_index":8.8,"wind_gusts":42.8,"aqi":66,"pm10":44.8,"pm2_5":23.7,"no2":10.4,"co":274.0,"o3":74.0,"so2":5.3,"mosquito_risk":7,"arthritis_risk":5,"migraine_risk":7,"frizz_risk":1,"updated_at":"2026-06-02T00:11:23.829028+05:30"},{"city":"Latur","state":"Maharashtra","latitude":18.4088,"longitude":76.5604,"temp":27.7,"humidity":59,"rain":0.0,"pressure":940.4,"uv_index":8.95,"wind_gusts":50.4,"aqi":62,"pm10":44.9,"pm2_5":28.8,"no2":19.2,"co":170.0,"o3":63.0,"so2":6.9,"mosquito_risk":4,"arthritis_risk":5,"migraine_risk":7,"frizz_risk":1,"updated_at":"2026-06-02T00:11:23.829035+05:30"},{"city":"Nanded","state":"Maharashtra","latitude":19.1383,"longitude":77.3091,"temp":27.4,"humidity":69,"rain":0.0,"pressure":969.0,"uv_index":8.85,"wind_gusts":40.3,"aqi":64,"pm10":41.1,"pm2_5":23.7,"no2":10.1,"co":223.0,"o3":80.0,"so2":4.2,"mosquito_risk":7,"arthritis_risk":5,"migraine_risk":7,"frizz_risk":1,"updated_at":"2026-06-02T00:11:23.829043+05:30"},{"city":"Gulbarga","state":"Karnataka","latitude":17.3297,"longitude":76.8343,"temp":29.4,"humidity":52,"rain":0.0,"pressure":959.5,"uv_index":8.85,"wind_gusts":34.6,"aqi":63,"pm10":36.7,"pm2_5":23.5,"no2":22.0,"co":204.0,"o3":71.0,"so2":4.8,"mosquito_risk":4,"arthritis_risk":5,"migraine_risk":7,"frizz_risk":1,"updated_at":"2026-06-02T00:11:23.829049+05:30"},{"city":"Bidar","state":"Karnataka","latitude":17.9104,"longitude":77.5199,"temp":28.9,"humidity":48,"rain":0.0,"pressure":936.0,"uv_index":9.0,"wind_gusts":35.6,"aqi":69,"pm10":65.2,"pm2_5":48.8,"no2":45.0,"co":635.0,"o3":35.0,"so2":6.6,"mosquito_risk":4,"arthritis_risk":5,"migraine_risk":7,"frizz_risk":1,"updated_at":"2026-06-02T00:11:23.829057+05:30"},{"city":"Hospet","state":"Karnataka","latitude":15.2689,"longitude":76.3909,"temp":25.4,"humidity":77,"rain":0.0,"pressure":957.2,"uv_index":8.95,"wind_gusts":42.8,"aqi":53,"pm10":11.8,"pm2_5":9.6,"no2":8.4,"co":197.0,"o3":62.0,"so2":2.1,"mosquito_risk":7,"arthritis_risk":5,"migraine_risk":7,"frizz_risk":1,"updated_at":"2026-06-02T00:11:23.829063+05:30"},{"city":"Tirupur","state":"Tamil Nadu","latitude":11.1085,"longitude":77.3411,"temp":26.1,"humidity":84,"rain":0.0,"pressure":976.5,"uv_index":8.75,"wind_gusts":34.9,"aqi":49,"pm10":12.3,"pm2_5":11.6,"no2":14.8,"co":179.0,"o3":63.0,"so2":5.8,"mosquito_risk":7,"arthritis_risk":5,"migraine_risk":7,"frizz_risk":1,"updated_at":"2026-06-02T00:11:23.829070+05:30"},{"city":"Alappuzha","state":"Kerala","latitude":9.4981,"longitude":76.3388,"temp":25.2,"humidity":99,"rain":0.0,"pressure":1010.8,"uv_index":7.1,"wind_gusts":30.6,"aqi":39,"pm10":17.5,"pm2_5":15.2,"no2":14.6,"co":211.0,"o3":37.0,"so2":4.1,"mosquito_risk":7,"arthritis_risk":0,"migraine_risk":4,"frizz_risk":1,"updated_at":"2026-06-02T00:11:23.829076+05:30"},{"city":"Munnar","state":"Kerala","latitude":10.0889,"longitude":77.0595,"temp":17.8,"humidity":91,"rain":0.0,"pressure":857.9,"uv_index":8.35,"wind_gusts":27.7,"aqi":43,"pm10":9.6,"pm2_5":9.3,"no2":10.1,"co":273.0,"o3":39.0,"so2":1.6,"mosquito_risk":3,"arthritis_risk":10,"migraine_risk":7,"frizz_risk":1,"updated_at":"2026-06-02T00:11:23.829083+05:30"},{"city":"Silchar","state":"Assam","latitude":24.8333,"longitude":92.7789,"temp":26.0,"humidity":97,"rain":0.3,"pressure":1005.5,"uv_index":8.9,"wind_gusts":23.0,"aqi":82,"pm10":39.3,"pm2_5":34.3,"no2":12.7,"co":340.0,"o3":77.0,"so2":5.5,"mosquito_risk":10,"arthritis_risk":5,"migraine_risk":4,"frizz_risk":1,"updated_at":"2026-06-02T00:11:23.829089+05:30"},{"city":"Dibrugarh","state":"Assam","latitude":27.4728,"longitude":94.912,"temp":26.1,"humidity":95,"rain":0.0,"pressure":995.1,"uv_index":8.8,"wind_gusts":14.4,"aqi":70,"pm10":31.8,"pm2_5":30.4,"no2":23.8,"co":220.0,"o3":23.0,"so2":2.2,"mosquito_risk":7,"arthritis_risk":5,"migraine_risk":7,"frizz_risk":1,"updated_at":"2026-06-02T00:11:23.829096+05:30"}]