[{"city":"Delhi","state":"Delhi","latitude":28.6139,"longitude":77.209,"temp":18.8,"humidity":69,"rain":0.0,"pressure":987.2,"uv_index":5.75,"wind_gusts":37.4,"aqi":225,"pm10":347.4,"pm2_5":88.9,"mosquito_risk":3,"arthritis_risk":5,"migraine_risk":3,"frizz_risk":0,"updated_at":"2026-03-03T00:24:27.611704+05:30"},{"city":"Mumbai","state":"Maharashtra","latitude":19.076,"longitude":72.8777,"temp":26.7,"humidity":77,"rain":0.0,"pressure":1011.3,"uv_index":7.3,"wind_gusts":25.6,"aqi":89,"pm10":38.2,"pm2_5":31.3,"mosquito_risk":7,"arthritis_risk":0,"migraine_risk":4,"frizz_risk":1,"updated_at":"2026-03-03T00:24:27.611738+05:30"},{"city":"Bangalore","state":"Karnataka","latitude":12.9716,"longitude":77.5946,"temp":22.2,"humidity":57,"rain":0.0,"pressure":913.0,"uv_index":9.05,"wind_gusts":28.8,"aqi":130,"pm10":47.0,"pm2_5":46.3,"mosquito_risk":0,"arthritis_risk":5,"migraine_risk":7,"frizz_risk":0,"updated_at":"2026-03-03T00:24:27.611753+05:30"},{"city":"Hyderabad","state":"Telangana","latitude":17.385,"longitude":78.4867,"temp":24.9,"humidity":65,"rain":0.0,"pressure":955.5,"uv_index":8.3,"wind_gusts":14.8,"aqi":141,"pm10":61.9,"pm2_5":61.2,"mosquito_risk":3,"arthritis_risk":5,"migraine_risk":7,"frizz_risk":1,"updated_at":"2026-03-03T00:24:27.611762+05:30"},{"city":"Chennai","state":"Tamil Nadu","latitude":13.0827,"longitude":80.2707,"temp":24.8,"humidity":82,"rain":0.0,"pressure":1009.8,"uv_index":8.8,"wind_gusts":30.2,"aqi":124,"pm10":46.9,"pm2_5":42.8,"mosquito_risk":3,"arthritis_risk":0,"migraine_risk":4,"frizz_risk":1,"updated_at":"2026-03-03T00:24:27.611770+05:30"},{"city":"Kolkata","state":"West Bengal","latitude":22.5726,"longitude":88.3639,"temp":24.3,"humidity":69,"rain":0.0,"pressure":1008.7,"uv_index":7.65,"wind_gusts":16.6,"aqi":157,"pm10":136.9,"pm2_5":125.3,"mosquito_risk":3,"arthritis_risk":0,"migraine_risk":4,"frizz_risk":1,"updated_at":"2026-03-03T00:24:27.611778+05:30"},{"city":"Pune","state":"Maharashtra","latitude":18.5204,"longitude":73.8567,"temp":23.0,"humidity":72,"rain":0.0,"pressure":950.7,"uv_index":7.85,"wind_gusts":26.3,"aqi":104,"pm10":42.3,"pm2_5":40.0,"mosquito_risk":3,"arthritis_risk":5,"migraine_risk":7,"frizz_risk":1,"updated_at":"2026-03-03T00:24:27.611790+05:30"},{"city":"Ahmedabad","state":"Gujarat","latitude":23.0225,"longitude":72.5714,"temp":25.4,"humidity":57,"rain":0.0,"pressure":1006.4,"uv_index":7.1,"wind_gusts":15.5,"aqi":100,"pm10":67.1,"pm2_5":56.2,"mosquito_risk":4,"arthritis_risk":5,"migraine_risk":4,"frizz_risk":1,"updated_at":"2026-03-03T00:24:27.611797+05:30"},{"city":"Jaipur","state":"Rajasthan","latitude":26.9124,"longitude":75.7873,"temp":23.0,"humidity":42,"rain":0.0,"pressure":964.2,"uv_index":6.5,"wind_gusts":30.2,"aqi":101,"pm10":80.6,"pm2_5":47.1,"mosquito_risk":0,"arthritis_risk":5,"migraine_risk":7,"frizz_risk":0,"updated_at":"2026-03-03T00:24:27.611806+05:30"},{"city":"Lucknow","state":"Uttar Pradesh","latitude":26.8467,"longitude":80.9462,"temp":19.7,"humidity":70,"rain":0.0,"pressure":997.2,"uv_index":6.25,"wind_gusts":37.4,"aqi":151,"pm10":263.6,"pm2_5":71.5,"mosquito_risk":3,"arthritis_risk":5,"migraine_risk":7,"frizz_risk":0,"updated_at":"2026-03-03T00:24:27.611814+05:30"},{"city":"Kanpur","state":"Uttar Pradesh","latitude":26.4499,"longitude":80.3319,"temp":18.8,"humidity":82,"rain":0.0,"pressure":995.6,"uv_index":6.25,"wind_gusts":32.0,"aqi":158,"pm10":328.8,"pm2_5":68.9,"mosquito_risk":3,"arthritis_risk":10,"migraine_risk":7,"frizz_risk":0,"updated_at":"2026-03-03T00:24:27.611821+05:30"},{"city":"Chandigarh","state":"Chandigarh","latitude":30.7333,"longitude":76.7794,"temp":17.7,"humidity":62,"rain":0.0,"pressure":972.3,"uv_index":5.65,"wind_gusts":38.9,"aqi":82,"pm10":31.2,"pm2_5":29.3,"mosquito_risk":3,"arthritis_risk":5,"migraine_risk":3,"frizz_risk":0,"updated_at":"2026-03-03T00:24:27.611829+05:30"},{"city":"Srinagar","state":"Jammu and Kashmir","latitude":34.0837,"longitude":74.7973,"temp":4.5,"humidity":61,"rain":0.0,"pressure":840.6,"uv_index":6.55,"wind_gusts":18.4,"aqi":147,"pm10":102.7,"pm2_5":90.6,"mosquito_risk":3,"arthritis_risk":5,"migraine_risk":7,"frizz_risk":1,"updated_at":"2026-03-03T00:24:27.611835+05:30"},{"city":"Jammu","state":"Jammu and Kashmir","latitude":32.7266,"longitude":74.857,"temp":19.1,"humidity":60,"rain":0.0,"pressure":976.5,"uv_index":6.25,"wind_gusts":26.3,"aqi":99,"pm10":56.2,"pm2_5":53.0,"mosquito_risk":0,"arthritis_risk":5,"migraine_risk":7,"frizz_risk":0,"updated_at":"2026-03-03T00:24:27.611842+05:30"},{"city":"Amritsar","state":"Punjab","latitude":31.634,"longitude":74.8723,"temp":16.7,"humidity":73,"rain":0.0,"pressure":985.0,"uv_index":6.1,"wind_gusts":25.2,"aqi":135,"pm10":34.7,"pm2_5":28.2,"mosquito_risk":3,"arthritis_risk":5,"migraine_risk":7,"frizz_risk":0,"updated_at":"2026-03-03T00:24:27.611848+05:30"},{"city":"Ludhiana","state":"Punjab","latitude":30.901,"longitude":75.8573,"temp":18.7,"humidity":62,"rain":0.0,"pressure":983.1,"uv_index":5.85,"wind_gusts":32.4,"aqi":156,"pm10":73.1,"pm2_5":58.8,"mosquito_risk":3,"arthritis_risk":5,"migraine_risk":3,"frizz_risk":0,"updated_at":"2026-03-03T00:24:27.611854+05:30"},{"city":"Jalandhar","state":"Punjab","latitude":31.326,"longitude":75.5762,"temp":19.5,"humidity":60,"rain":0.0,"pressure":984.2,"uv_index":6.0,"wind_gusts":30.2,"aqi":157,"pm10":82.9,"pm2_5":55.5,"mosquito_risk":0,"arthritis_risk":5,"migraine_risk":3,"frizz_risk":0,"updated_at":"2026-03-03T00:24:27.611862+05:30"},{"city":"Dehradun","state":"Uttarakhand","latitude":30.6284,"longitude":78.0322,"temp":11.5,"humidity":67,"rain":0.0,"pressure":829.8,"uv_index":6.0,"wind_gusts":27.0,"aqi":59,"pm10":30.4,"pm2_5":25.7,"mosquito_risk":3,"arthritis_risk":5,"migraine_risk":3,"frizz_risk":0,"updated_at":"2026-03-03T00:24:27.611869+05:30"},{"city":"Shimla","state":"Himachal Pradesh","latitude":31.1048,"longitude":77.1734,"temp":8.0,"humidity":60,"rain":0.0,"pressure":783.0,"uv_index":6.0,"wind_gusts":56.5,"aqi":73,"pm10":37.8,"pm2_5":30.3,"mosquito_risk":0,"arthritis_risk":5,"migraine_risk":3,"frizz_risk":0,"updated_at":"2026-03-03T00:24:27.611875+05:30"},{"city":"Manali","state":"Himachal Pradesh","latitude":32.2396,"longitude":77.1887,"temp":14.0,"humidity":16,"rain":0.0,"pressure":819.9,"uv_index":7.7,"wind_gusts":36.7,"aqi":72,"pm10":20.0,"pm2_5":16.6,"mosquito_risk":0,"arthritis_risk":5,"migraine_risk":7,"frizz_risk":1,"updated_at":"2026-03-03T00:24:27.611882+05:30"},{"city":"Gurgaon","state":"Haryana","latitude":28.4595,"longitude":77.0266,"temp":16.4,"humidity":79,"rain":0.0,"pressure":985.6,"uv_index":5.85,"wind_gusts":35.3,"aqi":907,"pm10":925.7,"pm2_5":142.0,"mosquito_risk":3,"arthritis_risk":5,"migraine_risk":3,"frizz_risk":0,"updated_at":"2026-03-03T00:24:27.611889+05:30"},{"city":"Noida","state":"Uttar Pradesh","latitude":28.5355,"longitude":77.391,"temp":19.0,"humidity":68,"rain":0.0,"pressure":988.8,"uv_index":5.75,"wind_gusts":37.1,"aqi":907,"pm10":925.7,"pm2_5":142.0,"mosquito_risk":3,"arthritis_risk":5,"migraine_risk":3,"frizz_risk":0,"updated_at":"2026-03-03T00:24:27.611896+05:30"},{"city":"Ghaziabad","state":"Uttar Pradesh","latitude":28.6692,"longitude":77.4538,"temp":18.8,"humidity":69,"rain":0.0,"pressure":986.8,"uv_index":5.75,"wind_gusts":36.0,"aqi":187,"pm10":357.6,"pm2_5":88.9,"mosquito_risk":3,"arthritis_risk":5,"migraine_risk":3,"frizz_risk":0,"updated_at":"2026-03-03T00:24:27.611902+05:30"},{"city":"Faridabad","state":"Haryana","latitude":28.4089,"longitude":77.3178,"temp":19.2,"humidity":62,"rain":0.0,"pressure":988.0,"uv_index":5.8,"wind_gusts":33.1,"aqi":907,"pm10":925.7,"pm2_5":142.0,"mosquito_risk":3,"arthritis_risk":5,"migraine_risk":3,"frizz_risk":0,"updated_at":"2026-03-03T00:24:27.611909+05:30"},{"city":"Meerut","state":"Uttar Pradesh","latitude":28.9845,"longitude":77.7064,"temp":16.7,"humidity":74,"rain":0.0,"pressure":985.3,"uv_index":5.6,"wind_gusts":38.9,"aqi":187,"pm10":357.6,"pm2_5":88.9,"mosquito_risk":3,"arthritis_risk":5,"migraine_risk":3,"frizz_risk":0,"updated_at":"2026-03-03T00:24:27.611914+05:30"},{"city":"Agra","state":"Uttar Pradesh","latitude":27.1767,"longitude":78.0081,"temp":19.0,"humidity":72,"rain":0.0,"pressure":992.0,"uv_index":6.1,"wind_gusts":35.3,"aqi":368,"pm10":676.1,"pm2_5":112.9,"mosquito_risk":3,"arthritis_risk":5,"migraine_risk":7,"frizz_risk":0,"updated_at":"2026-03-03T00:24:27.611921+05:30"},{"city":"Varanasi","state":"Uttar Pradesh","latitude":25.3176,"longitude":82.9739,"temp":18.8,"humidity":67,"rain":0.0,"pressure":1001.3,"uv_index":6.9,"wind_gusts":31.7,"aqi":92,"pm10":51.2,"pm2_5":34.7,"mosquito_risk":3,"arthritis_risk":5,"migraine_risk":4,"frizz_risk":0,"updated_at":"2026-03-03T00:24:27.611929+05:30"},{"city":"Prayagraj","state":"Uttar Pradesh","latitude":25.4358,"longitude":81.8463,"temp":18.9,"humidity":69,"rain":0.0,"pressure":999.9,"uv_index":6.75,"wind_gusts":29.9,"aqi":102,"pm10":68.5,"pm2_5":39.2,"mosquito_risk":3,"arthritis_risk":5,"migraine_risk":7,"frizz_risk":0,"updated_at":"2026-03-03T00:24:27.611936+05:30"},{"city":"Gorakhpur","state":"Uttar Pradesh","latitude":26.7606,"longitude":83.3732,"temp":17.2,"humidity":63,"rain":0.0,"pressure":1000.3,"uv_index":6.6,"wind_gusts":25.2,"aqi":124,"pm10":71.2,"pm2_5":46.1,"mosquito_risk":3,"arthritis_risk":5,"migraine_risk":4,"frizz_risk":0,"updated_at":"2026-03-03T00:24:27.611942+05:30"},{"city":"Bareilly","state":"Uttar Pradesh","latitude":28.367,"longitude":79.4304,"temp":17.0,"humidity":70,"rain":0.0,"pressure":990.1,"uv_index":5.9,"wind_gusts":31.3,"aqi":134,"pm10":192.8,"pm2_5":57.7,"mosquito_risk":3,"arthritis_risk":5,"migraine_risk":3,"frizz_risk":0,"updated_at":"2026-03-03T00:24:27.611948+05:30"},{"city":"Aligarh","state":"Uttar Pradesh","latitude":27.8974,"longitude":78.088,"temp":17.5,"humidity":73,"rain":0.0,"pressure":989.7,"uv_index":5.85,"wind_gusts":34.2,"aqi":549,"pm10":704.1,"pm2_5":126.2,"mosquito_risk":3,"arthritis_risk":5,"migraine_risk":3,"frizz_risk":0,"updated_at":"2026-03-03T00:24:27.611955+05:30"},{"city":"Moradabad","state":"Uttar Pradesh","latitude":28.8386,"longitude":78.7733,"temp":16.7,"humidity":69,"rain":0.0,"pressure":987.0,"uv_index":5.75,"wind_gusts":35.6,"aqi":143,"pm10":202.6,"pm2_5":66.6,"mosquito_risk":3,"arthritis_risk":5,"migraine_risk":3,"frizz_risk":0,"updated_at":"2026-03-03T00:24:27.611960+05:30"},{"city":"Saharanpur","state":"Uttar Pradesh","latitude":29.9637,"longitude":77.546,"temp":16.7,"humidity":70,"rain":0.0,"pressure":978.7,"uv_index":5.4,"wind_gusts":52.9,"aqi":112,"pm10":73.6,"pm2_5":43.1,"mosquito_risk":3,"arthritis_risk":5,"migraine_risk":3,"frizz_risk":0,"updated_at":"2026-03-03T00:24:27.611966+05:30"},{"city":"Jhansi","state":"Uttar Pradesh","latitude":25.4484,"longitude":78.5685,"temp":19.6,"humidity":64,"rain":0.0,"pressure":981.9,"uv_index":6.7,"wind_gusts":29.2,"aqi":76,"pm10":40.7,"pm2_5":30.6,"mosquito_risk":3,"arthritis_risk":5,"migraine_risk":7,"frizz_risk":0,"updated_at":"2026-03-03T00:24:30.957606+05:30"},{"city":"Surat","state":"Gujarat","latitude":21.1702,"longitude":72.8311,"temp":24.0,"humidity":75,"rain":0.0,"pressure":1010.1,"uv_index":7.0,"wind_gusts":23.0,"aqi":153,"pm10":91.7,"pm2_5":85.0,"mosquito_risk":3,"arthritis_risk":0,"migraine_risk":4,"frizz_risk":1,"updated_at":"2026-03-03T00:24:30.957634+05:30"},{"city":"Vadodara","state":"Gujarat","latitude":22.3072,"longitude":73.1812,"temp":24.4,"humidity":53,"rain":0.0,"pressure":1008.0,"uv_index":7.1,"wind_gusts":13.0,"aqi":151,"pm10":86.6,"pm2_5":78.7,"mosquito_risk":0,"arthritis_risk":0,"migraine_risk":4,"frizz_risk":0,"updated_at":"2026-03-03T00:24:30.957642+05:30"},{"city":"Rajkot","state":"Gujarat","latitude":22.3039,"longitude":70.8022,"temp":23.4,"humidity":69,"rain":0.0,"pressure":998.7,"uv_index":6.9,"wind_gusts":21.2,"aqi":65,"pm10":40.6,"pm2_5":28.3,"mosquito_risk":3,"arthritis_risk":5,"migraine_risk":7,"frizz_risk":1,"updated_at":"2026-03-03T00:24:30.957650+05:30"},{"city":"Thane","state":"Maharashtra","latitude":19.2183,"longitude":72.9781,"temp":24.7,"humidity":85,"rain":0.0,"pressure":1010.8,"uv_index":7.3,"wind_gusts":35.6,"aqi":89,"pm10":38.2,"pm2_5":31.3,"mosquito_risk":3,"arthritis_risk":0,"migraine_risk":4,"frizz_risk":1,"updated_at":"2026-03-03T00:24:30.957657+05:30"},{"city":"Nagpur","state":"Maharashtra","latitude":21.1458,"longitude":79.0882,"temp":23.8,"humidity":59,"rain":0.0,"pressure":976.2,"uv_index":7.7,"wind_gusts":20.9,"aqi":70,"pm10":28.8,"pm2_5":25.6,"mosquito_risk":0,"arthritis_risk":5,"migraine_risk":7,"frizz_risk":0,"updated_at":"2026-03-03T00:24:30.957663+05:30"},{"city":"Nashik","state":"Maharashtra","latitude":19.9975,"longitude":73.7898,"temp":23.5,"humidity":64,"rain":0.0,"pressure":948.5,"uv_index":7.5,"wind_gusts":28.1,"aqi":91,"pm10":37.7,"pm2_5":33.8,"mosquito_risk":3,"arthritis_risk":5,"migraine_risk":7,"frizz_risk":1,"updated_at":"2026-03-03T00:24:30.957669+05:30"},{"city":"Aurangabad","state":"Maharashtra","latitude":19.8762,"longitude":75.3433,"temp":24.6,"humidity":56,"rain":0.0,"pressure":946.5,"uv_index":8.0,"wind_gusts":21.2,"aqi":92,"pm10":39.8,"pm2_5":38.9,"mosquito_risk":0,"arthritis_risk":5,"migraine_risk":7,"frizz_risk":0,"updated_at":"2026-03-03T00:24:30.957676+05:30"},{"city":"Solapur","state":"Maharashtra","latitude":17.6599,"longitude":75.9064,"temp":25.3,"humidity":64,"rain":0.0,"pressure":958.6,"uv_index":8.25,"wind_gusts":14.0,"aqi":128,"pm10":45.4,"pm2_5":45.2,"mosquito_risk":7,"arthritis_risk":5,"migraine_risk":7,"frizz_risk":1,"updated_at":"2026-03-03T00:24:30.957682+05:30"},{"city":"Kolhapur","state":"Maharashtra","latitude":16.705,"longitude":74.2433,"temp":20.7,"humidity":87,"rain":0.0,"pressure":949.6,"uv_index":8.35,"wind_gusts":37.4,"aqi":107,"pm10":47.0,"pm2_5":45.5,"mosquito_risk":3,"arthritis_risk":5,"migraine_risk":7,"frizz_risk":1,"updated_at":"2026-03-03T00:24:30.957688+05:30"},{"city":"Goa","state":"Goa","latitude":15.2993,"longitude":74.124,"temp":26.6,"humidity":79,"rain":0.0,"pressure":1000.1,"uv_index":8.4,"wind_gusts":29.9,"aqi":73,"pm10":37.3,"pm2_5":27.2,"mosquito_risk":7,"arthritis_risk":5,"migraine_risk":4,"frizz_risk":1,"updated_at":"2026-03-03T00:24:30.957694+05:30"},{"city":"Jodhpur","state":"Rajasthan","latitude":26.2389,"longitude":73.0243,"temp":23.8,"humidity":46,"rain":0.0,"pressure":987.7,"uv_index":6.75,"wind_gusts":12.6,"aqi":89,"pm10":74.3,"pm2_5":35.3,"mosquito_risk":0,"arthritis_risk":5,"migraine_risk":7,"frizz_risk":0,"updated_at":"2026-03-03T00:24:30.957700+05:30"},{"city":"Udaipur","state":"Rajasthan","latitude":24.5854,"longitude":73.7125,"temp":21.4,"humidity":56,"rain":0.0,"pressure":951.0,"uv_index":7.4,"wind_gusts":15.5,"aqi":73,"pm10":37.1,"pm2_5":28.0,"mosquito_risk":0,"arthritis_risk":5,"migraine_risk":7,"frizz_risk":0,"updated_at":"2026-03-03T00:24:30.957706+05:30"},{"city":"Kota","state":"Rajasthan","latitude":25.2138,"longitude":75.8648,"temp":20.6,"humidity":69,"rain":0.0,"pressure":982.9,"uv_index":6.8,"wind_gusts":17.6,"aqi":91,"pm10":55.3,"pm2_5":39.6,"mosquito_risk":3,"arthritis_risk":5,"migraine_risk":7,"frizz_risk":0,"updated_at":"2026-03-03T00:24:30.957711+05:30"},{"city":"Bikaner","state":"Rajasthan","latitude":28.0229,"longitude":73.3119,"temp":23.8,"humidity":54,"rain":0.0,"pressure":986.9,"uv_index":6.5,"wind_gusts":20.2,"aqi":72,"pm10":45.5,"pm2_5":25.3,"mosquito_risk":0,"arthritis_risk":5,"migraine_risk":7,"frizz_risk":0,"updated_at":"2026-03-03T00:24:30.957717+05:30"},{"city":"Ajmer","state":"Rajasthan","latitude":26.4499,"longitude":74.6399,"temp":22.5,"humidity":44,"rain":0.0,"pressure":958.9,"uv_index":6.75,"wind_gusts":22.0,"aqi":82,"pm10":69.8,"pm2_5":28.8,"mosquito_risk":0,"arthritis_risk":5,"migraine_risk":7,"frizz_risk":0,"updated_at":"2026-03-03T00:24:30.957723+05:30"},{"city":"Gwalior","state":"Madhya Pradesh","latitude":26.2183,"longitude":78.1828,"temp":22.2,"humidity":61,"rain":0.0,"pressure":987.6,"uv_index":6.4,"wind_gusts":31.0,"aqi":95,"pm10":180.7,"pm2_5":54.0,"mosquito_risk":3,"arthritis_risk":5,"migraine_risk":7,"frizz_risk":0,"updated_at":"2026-03-03T00:24:30.957728+05:30"},{"city":"Indore","state":"Madhya Pradesh","latitude":22.7196,"longitude":75.8577,"temp":20.5,"humidity":59,"rain":0.0,"pressure":951.3,"uv_index":7.4,"wind_gusts":14.4,"aqi":91,"pm10":42.8,"pm2_5":34.6,"mosquito_risk":0,"arthritis_risk":5,"migraine_risk":7,"frizz_risk":0,"updated_at":"2026-03-03T00:24:30.957734+05:30"},{"city":"Bhopal","state":"Madhya Pradesh","latitude":23.2599,"longitude":77.4126,"temp":23.0,"humidity":51,"rain":0.0,"pressure":957.3,"uv_index":7.25,"wind_gusts":20.5,"aqi":79,"pm10":40.6,"pm2_5":31.0,"mosquito_risk":0,"arthritis_risk":5,"migraine_risk":7,"frizz_risk":0,"updated_at":"2026-03-03T00:24:30.957740+05:30"},{"city":"Jabalpur","state":"Madhya Pradesh","latitude":23.1815,"longitude":79.9864,"temp":22.2,"humidity":43,"rain":0.0,"pressure":964.8,"uv_index":7.35,"wind_gusts":20.9,"aqi":73,"pm10":34.8,"pm2_5":24.6,"mosquito_risk":0,"arthritis_risk":5,"migraine_risk":7,"frizz_risk":0,"updated_at":"2026-03-03T00:24:30.957745+05:30"},{"city":"Ujjain","state":"Madhya Pradesh","latitude":23.1765,"longitude":75.7885,"temp":22.4,"humidity":56,"rain":0.0,"pressure":957.2,"uv_index":7.25,"wind_gusts":11.5,"aqi":113,"pm10":47.6,"pm2_5":40.4,"mosquito_risk":0,"arthritis_risk":5,"migraine_risk":7,"frizz_risk":0,"updated_at":"2026-03-03T00:24:30.957751+05:30"},{"city":"Visakhapatnam","state":"Andhra Pradesh","latitude":17.6868,"longitude":83.2185,"temp":25.0,"humidity":79,"rain":0.0,"pressure":1005.7,"uv_index":8.35,"wind_gusts":37.8,"aqi":141,"pm10":42.4,"pm2_5":39.3,"mosquito_risk":7,"arthritis_risk":5,"migraine_risk":4,"frizz_risk":1,"updated_at":"2026-03-03T00:24:30.957757+05:30"},{"city":"Vijayawada","state":"Andhra Pradesh","latitude":16.5062,"longitude":80.648,"temp":24.4,"humidity":81,"rain":0.0,"pressure":1005.1,"uv_index":8.4,"wind_gusts":24.1,"aqi":142,"pm10":43.2,"pm2_5":41.6,"mosquito_risk":3,"arthritis_risk":5,"migraine_risk":4,"frizz_risk":1,"updated_at":"2026-03-03T00:24:30.957763+05:30"},{"city":"Guntur","state":"Andhra Pradesh","latitude":16.3067,"longitude":80.4365,"temp":23.9,"humidity":86,"rain":0.0,"pressure":1006.4,"uv_index":8.4,"wind_gusts":30.2,"aqi":136,"pm10":40.6,"pm2_5":39.2,"mosquito_risk":3,"arthritis_risk":5,"migraine_risk":4,"frizz_risk":1,"updated_at":"2026-03-03T00:24:30.957769+05:30"},{"city":"Nellore","state":"Andhra Pradesh","latitude":14.4426,"longitude":79.9865,"temp":23.7,"humidity":87,"rain":0.0,"pressure":1008.5,"uv_index":8.65,"wind_gusts":29.5,"aqi":123,"pm10":38.5,"pm2_5":36.1,"mosquito_risk":3,"arthritis_risk":0,"migraine_risk":4,"frizz_risk":1,"updated_at":"2026-03-03T00:24:30.957775+05:30"},{"city":"Kurnool","state":"Andhra Pradesh","latitude":15.8281,"longitude":78.0373,"temp":28.1,"humidity":46,"rain":0.0,"pressure":978.4,"uv_index":8.45,"wind_gusts":26.3,"aqi":127,"pm10":45.5,"pm2_5":45.2,"mosquito_risk":4,"arthritis_risk":5,"migraine_risk":7,"frizz_risk":0,"updated_at":"2026-03-03T00:24:30.957781+05:30"},{"city":"Kakinada","state":"Andhra Pradesh","latitude":16.9891,"longitude":82.2475,"temp":22.8,"humidity":91,"rain":0.0,"pressure":1009.9,"uv_index":8.35,"wind_gusts":29.2,"aqi":131,"pm10":44.4,"pm2_5":40.3,"mosquito_risk":3,"arthritis_risk":0,"migraine_risk":4,"frizz_risk":1,"updated_at":"2026-03-03T00:24:30.957787+05:30"},{"city":"Tirupati","state":"Andhra Pradesh","latitude":13.6288,"longitude":79.4192,"temp":24.1,"humidity":61,"rain":0.0,"pressure":994.2,"uv_index":8.75,"wind_gusts":32.4,"aqi":141,"pm10":68.9,"pm2_5":67.1,"mosquito_risk":3,"arthritis_risk":5,"migraine_risk":7,"frizz_risk":1,"updated_at":"2026-03-03T00:24:30.957793+05:30"},{"city":"Warangal","state":"Telangana","latitude":17.9689,"longitude":79.5941,"temp":26.9,"humidity":55,"rain":0.0,"pressure":980.7,"uv_index":8.15,"wind_gusts":17.3,"aqi":131,"pm10":48.9,"pm2_5":48.3,"mosquito_risk":4,"arthritis_risk":5,"migraine_risk":7,"frizz_risk":1,"updated_at":"2026-03-03T00:24:30.957799+05:30"},{"city":"Nizamabad","state":"Telangana","latitude":18.6725,"longitude":78.0941,"temp":23.9,"humidity":58,"rain":0.0,"pressure":966.8,"uv_index":8.05,"wind_gusts":25.6,"aqi":104,"pm10":50.2,"pm2_5":49.1,"mosquito_risk":0,"arthritis_risk":5,"migraine_risk":7,"frizz_risk":0,"updated_at":"2026-03-03T00:24:30.957805+05:30"},{"city":"Mysore","state":"Karnataka","latitude":12.2958,"longitude":76.6396,"temp":23.0,"humidity":80,"rain":0.0,"pressure":929.3,"uv_index":9.1,"wind_gusts":25.6,"aqi":145,"pm10":57.6,"pm2_5":56.8,"mosquito_risk":3,"arthritis_risk":5,"migraine_risk":7,"frizz_risk":1,"updated_at":"2026-03-03T00:24:30.957810+05:30"},{"city":"Mangalore","state":"Karnataka","latitude":12.9141,"longitude":74.856,"temp":28.4,"humidity":78,"rain":0.0,"pressure":1008.5,"uv_index":8.65,"wind_gusts":27.4,"aqi":57,"pm10":23.6,"pm2_5":16.5,"mosquito_risk":7,"arthritis_risk":0,"migraine_risk":4,"frizz_risk":1,"updated_at":"2026-03-03T00:24:30.957816+05:30"},{"city":"Hubli-Dharwad","state":"Karnataka","latitude":15.3647,"longitude":75.124,"temp":22.1,"humidity":85,"rain":0.0,"pressure":942.1,"uv_index":8.6,"wind_gusts":27.0,"aqi":83,"pm10":33.5,"pm2_5":31.7,"mosquito_risk":3,"arthritis_risk":5,"migraine_risk":7,"frizz_risk":1,"updated_at":"2026-03-03T00:24:30.957822+05:30"},{"city":"Belgaum","state":"Karnataka","latitude":15.8497,"longitude":74.4977,"temp":21.0,"humidity":85,"rain":0.0,"pressure":927.0,"uv_index":8.65,"wind_gusts":38.2,"aqi":87,"pm10":23.5,"pm2_5":19.0,"mosquito_risk":3,"arthritis_risk":5,"migraine_risk":7,"frizz_risk":1,"updated_at":"2026-03-03T00:24:34.300396+05:30"},{"city":"Coimbatore","state":"Tamil Nadu","latitude":11.0168,"longitude":76.9558,"temp":23.8,"humidity":87,"rain":0.0,"pressure":963.7,"uv_index":9.1,"wind_gusts":29.5,"aqi":143,"pm10":60.3,"pm2_5":59.1,"mosquito_risk":3,"arthritis_risk":5,"migraine_risk":7,"frizz_risk":1,"updated_at":"2026-03-03T00:24:34.300419+05:30"},{"city":"Madurai","state":"Tamil Nadu","latitude":9.9252,"longitude":78.1198,"temp":24.9,"humidity":77,"rain":0.0,"pressure":995.4,"uv_index":9.05,"wind_gusts":32.8,"aqi":122,"pm10":49.4,"pm2_5":48.2,"mosquito_risk":3,"arthritis_risk":5,"migraine_risk":7,"frizz_risk":1,"updated_at":"2026-03-03T00:24:34.300429+05:30"},{"city":"Trichy","state":"Tamil Nadu","latitude":10.7905,"longitude":78.7047,"temp":22.8,"humidity":85,"rain":0.0,"pressure":1002.0,"uv_index":8.95,"wind_gusts":32.0,"aqi":140,"pm10":45.2,"pm2_5":43.4,"mosquito_risk":3,"arthritis_risk":5,"migraine_risk":4,"frizz_risk":1,"updated_at":"2026-03-03T00:24:34.300438+05:30"},{"city":"Salem","state":"Tamil Nadu","latitude":11.6643,"longitude":78.146,"temp":25.3,"humidity":64,"rain":0.0,"pressure":979.0,"uv_index":9.0,"wind_gusts":31.0,"aqi":139,"pm10":58.4,"pm2_5":57.4,"mosquito_risk":7,"arthritis_risk":5,"migraine_risk":7,"frizz_risk":1,"updated_at":"2026-03-03T00:24:34.300446+05:30"},{"city":"Tirunelveli","state":"Tamil Nadu","latitude":8.7139,"longitude":77.7567,"temp":24.0,"humidity":87,"rain":0.0,"pressure":1005.4,"uv_index":9.05,"wind_gusts":38.2,"aqi":132,"pm10":50.5,"pm2_5":48.9,"mosquito_risk":3,"arthritis_risk":5,"migraine_risk":4,"frizz_risk":1,"updated_at":"2026-03-03T00:24:34.300454+05:30"},{"city":"Vellore","state":"Tamil Nadu","latitude":12.9165,"longitude":79.1325,"temp":22.7,"humidity":76,"rain":0.0,"pressure":987.2,"uv_index":8.85,"wind_gusts":36.7,"aqi":149,"pm10":71.0,"pm2_5":69.2,"mosquito_risk":3,"arthritis_risk":5,"migraine_risk":7,"frizz_risk":1,"updated_at":"2026-03-03T00:24:34.300461+05:30"},{"city":"Erode","state":"Tamil Nadu","latitude":11.341,"longitude":77.7172,"temp":26.4,"humidity":69,"rain":0.0,"pressure":990.9,"uv_index":9.0,"wind_gusts":23.0,"aqi":123,"pm10":45.9,"pm2_5":45.1,"mosquito_risk":7,"arthritis_risk":5,"migraine_risk":7,"frizz_risk":1,"updated_at":"2026-03-03T00:24:34.300468+05:30"},{"city":"Kochi","state":"Kerala","latitude":9.9312,"longitude":76.2673,"temp":27.7,"humidity":81,"rain":0.0,"pressure":1010.4,"uv_index":8.9,"wind_gusts":35.6,"aqi":96,"pm10":54.1,"pm2_5":53.6,"mosquito_risk":7,"arthritis_risk":0,"migraine_risk":4,"frizz_risk":1,"updated_at":"2026-03-03T00:24:34.300476+05:30"},{"city":"Thiruvananthapuram","state":"Kerala","latitude":8.5241,"longitude":76.9366,"temp":27.6,"humidity":80,"rain":0.0,"pressure":1009.5,"uv_index":8.85,"wind_gusts":27.7,"aqi":108,"pm10":31.3,"pm2_5":28.8,"mosquito_risk":7,"arthritis_risk":0,"migraine_risk":4,"frizz_risk":1,"updated_at":"2026-03-03T00:24:34.300483+05:30"},{"city":"Kozhikode","state":"Kerala","latitude":11.2588,"longitude":75.7804,"temp":28.4,"humidity":77,"rain":0.0,"pressure":1009.2,"uv_index":8.75,"wind_gusts":31.7,"aqi":58,"pm10":22.9,"pm2_5":18.1,"mosquito_risk":7,"arthritis_risk":0,"migraine_risk":4,"frizz_risk":1,"updated_at":"2026-03-03T00:24:34.300490+05:30"},{"city":"Thrissur","state":"Kerala","latitude":10.5276,"longitude":76.2144,"temp":26.1,"humidity":90,"rain":0.0,"pressure":1008.7,"uv_index":8.85,"wind_gusts":38.5,"aqi":94,"pm10":53.7,"pm2_5":51.0,"mosquito_risk":7,"arthritis_risk":0,"migraine_risk":4,"frizz_risk":1,"updated_at":"2026-03-03T00:24:34.300498+05:30"},{"city":"Kannur","state":"Kerala","latitude":11.8745,"longitude":75.3704,"temp":27.3,"humidity":79,"rain":0.0,"pressure":1008.6,"uv_index":8.75,"wind_gusts":34.9,"aqi":59,"pm10":19.3,"pm2_5":15.8,"mosquito_risk":7,"arthritis_risk":0,"migraine_risk":4,"frizz_risk":1,"updated_at":"2026-03-03T00:24:34.300506+05:30"},{"city":"Patna","state":"Bihar","latitude":25.5941,"longitude":85.1376,"temp":19.5,"humidity":56,"rain":0.0,"pressure":1003.8,"uv_index":7.05,"wind_gusts":28.8,"aqi":120,"pm10":67.3,"pm2_5":52.6,"mosquito_risk":0,"arthritis_risk":5,"migraine_risk":4,"frizz_risk":0,"updated_at":"2026-03-03T00:24:34.300514+05:30"},{"city":"Gaya","state":"Bihar","latitude":24.7914,"longitude":85.0002,"temp":19.1,"humidity":53,"rain":0.0,"pressure":997.3,"uv_index":7.15,"wind_gusts":23.8,"aqi":110,"pm10":54.6,"pm2_5":36.3,"mosquito_risk":0,"arthritis_risk":5,"migraine_risk":7,"frizz_risk":0,"updated_at":"2026-03-03T00:24:34.300522+05:30"},{"city":"Muzaffarpur","state":"Bihar","latitude":26.1209,"longitude":85.3647,"temp":18.0,"humidity":62,"rain":0.0,"pressure":1003.5,"uv_index":7.0,"wind_gusts":27.0,"aqi":119,"pm10":76.6,"pm2_5":61.2,"mosquito_risk":3,"arthritis_risk":5,"migraine_risk":4,"frizz_risk":0,"updated_at":"2026-03-03T00:24:34.300529+05:30"},{"city":"Bhagalpur","state":"Bihar","latitude":25.2425,"longitude":87.0117,"temp":20.2,"humidity":57,"rain":0.0,"pressure":1004.5,"uv_index":7.1,"wind_gusts":19.4,"aqi":135,"pm10":89.4,"pm2_5":45.4,"mosquito_risk":0,"arthritis_risk":5,"migraine_risk":4,"frizz_risk":0,"updated_at":"2026-03-03T00:24:34.300536+05:30"},{"city":"Ranchi","state":"Jharkhand","latitude":23.3441,"longitude":85.3096,"temp":18.2,"humidity":37,"rain":0.0,"pressure":940.3,"uv_index":7.8,"wind_gusts":40.3,"aqi":78,"pm10":44.4,"pm2_5":24.3,"mosquito_risk":0,"arthritis_risk":5,"migraine_risk":7,"frizz_risk":0,"updated_at":"2026-03-03T00:24:34.300544+05:30"},{"city":"Jamshedpur","state":"Jharkhand","latitude":22.8046,"longitude":86.2029,"temp":21.6,"humidity":50,"rain":0.0,"pressure":993.8,"uv_index":7.75,"wind_gusts":18.7,"aqi":117,"pm10":66.8,"pm2_5":41.1,"mosquito_risk":0,"arthritis_risk":5,"migraine_risk":7,"frizz_risk":0,"updated_at":"2026-03-03T00:24:34.300551+05:30"},{"city":"Dhanbad","state":"Jharkhand","latitude":23.7957,"longitude":86.4304,"temp":21.6,"humidity":36,"rain":0.0,"pressure":983.2,"uv_index":7.6,"wind_gusts":33.8,"aqi":117,"pm10":61.9,"pm2_5":39.9,"mosquito_risk":0,"arthritis_risk":5,"migraine_risk":7,"frizz_risk":0,"updated_at":"2026-03-03T00:24:34.300558+05:30"},{"city":"Bokaro","state":"Jharkhand","latitude":23.6693,"longitude":86.1511,"temp":18.9,"humidity":51,"rain":0.0,"pressure":987.5,"uv_index":7.6,"wind_gusts":37.1,"aqi":120,"pm10":63.6,"pm2_5":43.8,"mosquito_risk":0,"arthritis_risk":5,"migraine_risk":7,"frizz_risk":0,"updated_at":"2026-03-03T00:24:34.300566+05:30"},{"city":"Bhubaneswar","state":"Odisha","latitude":20.2961,"longitude":85.8245,"temp":24.6,"humidity":88,"rain":0.0,"pressure":1004.4,"uv_index":8.05,"wind_gusts":25.2,"aqi":150,"pm10":71.5,"pm2_5":67.5,"mosquito_risk":3,"arthritis_risk":5,"migraine_risk":4,"frizz_risk":1,"updated_at":"2026-03-03T00:24:34.300573+05:30"},{"city":"Cuttack","state":"Odisha","latitude":20.4625,"longitude":85.8828,"temp":24.8,"humidity":86,"rain":0.0,"pressure":1006.4,"uv_index":8.1,"wind_gusts":21.2,"aqi":150,"pm10":71.5,"pm2_5":67.5,"mosquito_risk":3,"arthritis_risk":5,"migraine_risk":4,"frizz_risk":1,"updated_at":"2026-03-03T00:24:34.300580+05:30"},{"city":"Rourkela","state":"Odisha","latitude":22.2604,"longitude":84.8536,"temp":22.9,"humidity":44,"rain":0.0,"pressure":988.0,"uv_index":7.65,"wind_gusts":24.8,"aqi":96,"pm10":50.1,"pm2_5":36.4,"mosquito_risk":0,"arthritis_risk":5,"migraine_risk":7,"frizz_risk":0,"updated_at":"2026-03-03T00:24:34.300587+05:30"},{"city":"Raipur","state":"Chhattisgarh","latitude":21.2514,"longitude":81.6296,"temp":23.9,"humidity":53,"rain":0.0,"pressure":977.3,"uv_index":7.75,"wind_gusts":24.1,"aqi":96,"pm10":77.8,"pm2_5":66.8,"mosquito_risk":0,"arthritis_risk":5,"migraine_risk":7,"frizz_risk":0,"updated_at":"2026-03-03T00:24:34.300594+05:30"},{"city":"Bhilai","state":"Chhattisgarh","latitude":21.1938,"longitude":81.3509,"temp":22.5,"humidity":62,"rain":0.0,"pressure":977.5,"uv_index":7.8,"wind_gusts":22.7,"aqi":93,"pm10":79.9,"pm2_5":69.8,"mosquito_risk":3,"arthritis_risk":5,"migraine_risk":7,"frizz_risk":0,"updated_at":"2026-03-03T00:24:34.300601+05:30"},{"city":"Guwahati","state":"Assam","latitude":26.1158,"longitude":91.7086,"temp":21.3,"humidity":83,"rain":0.0,"pressure":1005.3,"uv_index":7.0,"wind_gusts":28.4,"aqi":151,"pm10":74.0,"pm2_5":63.1,"mosquito_risk":3,"arthritis_risk":5,"migraine_risk":4,"frizz_risk":1,"updated_at":"2026-03-03T00:24:34.300608+05:30"},{"city":"Agartala","state":"Tripura","latitude":23.8315,"longitude":91.2868,"temp":21.1,"humidity":92,"rain":0.0,"pressure":1008.7,"uv_index":7.3,"wind_gusts":18.0,"aqi":153,"pm10":115.3,"pm2_5":105.2,"mosquito_risk":3,"arthritis_risk":0,"migraine_risk":4,"frizz_risk":1,"updated_at":"2026-03-03T00:24:34.300616+05:30"},{"city":"Shillong","state":"Meghalaya","latitude":25.5788,"longitude":91.8933,"temp":7.7,"humidity":87,"rain":0.0,"pressure":854.5,"uv_index":7.35,"wind_gusts":66.2,"aqi":112,"pm10":51.6,"pm2_5":44.0,"mosquito_risk":3,"arthritis_risk":10,"migraine_risk":7,"frizz_risk":0,"updated_at":"2026-03-03T00:24:34.300623+05:30"},{"city":"Imphal","state":"Manipur","latitude":24.817,"longitude":93.9368,"temp":13.9,"humidity":75,"rain":0.0,"pressure":924.2,"uv_index":7.6,"wind_gusts":72.4,"aqi":153,"pm10":113.9,"pm2_5":95.5,"mosquito_risk":3,"arthritis_risk":5,"migraine_risk":7,"frizz_risk":0,"updated_at":"2026-03-03T00:24:34.300631+05:30"},{"city":"Aizawl","state":"Mizoram","latitude":23.7271,"longitude":92.7176,"temp":15.0,"humidity":91,"rain":0.0,"pressure":893.3,"uv_index":7.6,"wind_gusts":42.8,"aqi":151,"pm10":89.2,"pm2_5":83.1,"mosquito_risk":3,"arthritis_risk":10,"migraine_risk":7,"frizz_risk":0,"updated_at":"2026-03-03T00:24:34.300638+05:30"},{"city":"Kohima","state":"Nagaland","latitude":25.6701,"longitude":94.1077,"temp":12.0,"humidity":83,"rain":0.0,"pressure":855.1,"uv_index":7.45,"wind_gusts":82.8,"aqi":146,"pm10":80.3,"pm2_5":72.6,"mosquito_risk":3,"arthritis_risk":10,"migraine_risk":7,"frizz_risk":0,"updated_at":"2026-03-03T00:24:34.300645+05:30"},{"city":"Gangtok","state":"Sikkim","latitude":27.3314,"longitude":88.6138,"temp":10.7,"humidity":81,"rain":0.0,"pressure":836.5,"uv_index":5.8,"wind_gusts":19.4,"aqi":125,"pm10":85.2,"pm2_5":65.4,"mosquito_risk":3,"arthritis_risk":10,"migraine_risk":3,"frizz_risk":0,"updated_at":"2026-03-03T00:24:34.300653+05:30"},{"city":"Siliguri","state":"West Bengal","latitude":26.7271,"longitude":88.3953,"temp":18.5,"humidity":69,"rain":0.0,"pressure":997.0,"uv_index":7.0,"wind_gusts":20.5,"aqi":167,"pm10":127.1,"pm2_5":98.5,"mosquito_risk":3,"arthritis_risk":5,"migraine_risk":7,"frizz_risk":0,"updated_at":"2026-03-03T00:24:37.649910+05:30"},{"city":"Durgapur","state":"West Bengal","latitude":23.5204,"longitude":87.3119,"temp":22.5,"humidity":34,"rain":0.0,"pressure":998.3,"uv_index":7.6,"wind_gusts":26.3,"aqi":109,"pm10":57.4,"pm2_5":30.2,"mosquito_risk":0,"arthritis_risk":5,"migraine_risk":7,"frizz_risk":0,"updated_at":"2026-03-03T00:24:37.649937+05:30"},{"city":"Asansol","state":"West Bengal","latitude":23.6739,"longitude":86.9524,"temp":23.4,"humidity":32,"rain":0.0,"pressure":996.9,"uv_index":7.6,"wind_gusts":28.4,"aqi":96,"pm10":49.0,"pm2_5":27.5,"mosquito_risk":0,"arthritis_risk":5,"migraine_risk":7,"frizz_risk":0,"updated_at":"2026-03-03T00:24:37.649949+05:30"},{"city":"Pondicherry","state":"Puducherry","latitude":11.9139,"longitude":79.8145,"temp":22.0,"humidity":94,"rain":0.0,"pressure":1011.0,"uv_index":8.8,"wind_gusts":29.5,"aqi":118,"pm10":39.8,"pm2_5":35.6,"mosquito_risk":3,"arthritis_risk":0,"migraine_risk":4,"frizz_risk":1,"updated_at":"2026-03-03T00:24:37.649958+05:30"},{"city":"Port Blair","state":"Andaman and Nicobar Islands","latitude":11.6234,"longitude":92.7265,"temp":27.4,"humidity":74,"rain":0.0,"pressure":1008.2,"uv_index":8.75,"wind_gusts":16.2,"aqi":80,"pm10":33.1,"pm2_5":25.6,"mosquito_risk":7,"arthritis_risk":0,"migraine_risk":4,"frizz_risk":1,"updated_at":"2026-03-03T00:24:37.649967+05:30"},{"city":"Haridwar","state":"Uttarakhand","latitude":29.9457,"longitude":78.1642,"temp":15.5,"humidity":82,"rain":0.0,"pressure":977.1,"uv_index":5.55,"wind_gusts":41.8,"aqi":96,"pm10":54.5,"pm2_5":50.6,"mosquito_risk":3,"arthritis_risk":10,"migraine_risk":3,"frizz_risk":0,"updated_at":"2026-03-03T00:24:37.649975+05:30"},{"city":"Rishikesh","state":"Uttarakhand","latitude":30.0869,"longitude":78.2676,"temp":16.5,"humidity":68,"rain":0.0,"pressure":969.7,"uv_index":5.6,"wind_gusts":31.3,"aqi":84,"pm10":37.4,"pm2_5":35.0,"mosquito_risk":3,"arthritis_risk":5,"migraine_risk":3,"frizz_risk":0,"updated_at":"2026-03-03T00:24:37.649983+05:30"},{"city":"Nainital","state":"Uttarakhand","latitude":29.3919,"longitude":79.4542,"temp":14.4,"humidity":59,"rain":0.0,"pressure":805.7,"uv_index":6.4,"wind_gusts":45.7,"aqi":91,"pm10":37.6,"pm2_5":28.6,"mosquito_risk":0,"arthritis_risk":5,"migraine_risk":7,"frizz_risk":0,"updated_at":"2026-03-03T00:24:37.649991+05:30"},{"city":"Mussoorie","state":"Uttarakhand","latitude":30.4599,"longitude":78.0664,"temp":13.2,"humidity":62,"rain":0.0,"pressure":802.5,"uv_index":5.9,"wind_gusts":33.8,"aqi":81,"pm10":45.4,"pm2_5":43.0,"mosquito_risk":3,"arthritis_risk":5,"migraine_risk":3,"frizz_risk":0,"updated_at":"2026-03-03T00:24:37.649999+05:30"},{"city":"Dharamshala","state":"Himachal Pradesh","latitude":32.219,"longitude":76.3234,"temp":17.6,"humidity":38,"rain":0.0,"pressure":871.2,"uv_index":6.1,"wind_gusts":26.3,"aqi":89,"pm10":22.4,"pm2_5":18.3,"mosquito_risk":0,"arthritis_risk":5,"migraine_risk":7,"frizz_risk":0,"updated_at":"2026-03-03T00:24:37.650007+05:30"},{"city":"Dalhousie","state":"Himachal Pradesh","latitude":32.5387,"longitude":75.971,"temp":14.1,"humidity":39,"rain":0.0,"pressure":804.9,"uv_index":6.35,"wind_gusts":22.3,"aqi":98,"pm10":55.8,"pm2_5":51.3,"mosquito_risk":0,"arthritis_risk":5,"migraine_risk":7,"frizz_risk":0,"updated_at":"2026-03-03T00:24:37.650015+05:30"},{"city":"Patiala","state":"Punjab","latitude":30.3398,"longitude":76.3869,"temp":16.7,"humidity":71,"rain":0.0,"pressure":982.3,"uv_index":5.55,"wind_gusts":37.4,"aqi":158,"pm10":267.3,"pm2_5":69.2,"mosquito_risk":3,"arthritis_risk":5,"migraine_risk":3,"frizz_risk":0,"updated_at":"2026-03-03T00:24:37.650022+05:30"},{"city":"Bhatinda","state":"Punjab","latitude":30.211,"longitude":74.9455,"temp":18.1,"humidity":71,"rain":0.0,"pressure":988.3,"uv_index":6.2,"wind_gusts":24.8,"aqi":156,"pm10":71.7,"pm2_5":60.1,"mosquito_risk":3,"arthritis_risk":5,"migraine_risk":7,"frizz_risk":0,"updated_at":"2026-03-03T00:24:37.650030+05:30"},{"city":"Rohtak","state":"Haryana","latitude":28.8955,"longitude":76.6066,"temp":17.2,"humidity":74,"rain":0.0,"pressure":986.1,"uv_index":5.75,"wind_gusts":34.9,"aqi":295,"pm10":395.8,"pm2_5":88.7,"mosquito_risk":3,"arthritis_risk":5,"migraine_risk":3,"frizz_risk":0,"updated_at":"2026-03-03T00:24:37.650038+05:30"},{"city":"Panipat","state":"Haryana","latitude":29.3909,"longitude":76.9635,"temp":16.3,"humidity":74,"rain":0.0,"pressure":984.4,"uv_index":5.55,"wind_gusts":35.3,"aqi":736,"pm10":845.6,"pm2_5":131.8,"mosquito_risk":3,"arthritis_risk":5,"migraine_risk":3,"frizz_risk":0,"updated_at":"2026-03-03T00:24:37.650045+05:30"},{"city":"Mathura","state":"Uttar Pradesh","latitude":27.4924,"longitude":77.6737,"temp":19.9,"humidity":66,"rain":0.0,"pressure":991.1,"uv_index":6.0,"wind_gusts":29.2,"aqi":429,"pm10":646.3,"pm2_5":115.5,"mosquito_risk":3,"arthritis_risk":5,"migraine_risk":3,"frizz_risk":0,"updated_at":"2026-03-03T00:24:37.650053+05:30"},{"city":"Vrindavan","state":"Uttar Pradesh","latitude":27.5823,"longitude":77.7027,"temp":18.1,"humidity":74,"rain":0.0,"pressure":991.6,"uv_index":5.95,"wind_gusts":31.3,"aqi":429,"pm10":646.3,"pm2_5":115.5,"mosquito_risk":3,"arthritis_risk":5,"migraine_risk":3,"frizz_risk":0,"updated_at":"2026-03-03T00:24:37.650060+05:30"},{"city":"Ayodhya","state":"Uttar Pradesh","latitude":26.7922,"longitude":82.1998,"temp":18.5,"humidity":58,"rain":0.0,"pressure":998.6,"uv_index":6.4,"wind_gusts":34.6,"aqi":129,"pm10":160.7,"pm2_5":59.6,"mosquito_risk":0,"arthritis_risk":5,"migraine_risk":7,"frizz_risk":0,"updated_at":"2026-03-03T00:24:37.650068+05:30"},{"city":"Ratlam","state":"Madhya Pradesh","latitude":23.3315,"longitude":75.0367,"temp":20.8,"humidity":73,"rain":0.0,"pressure":958.0,"uv_index":7.25,"wind_gusts":7.2,"aqi":103,"pm10":49.1,"pm2_5":43.3,"mosquito_risk":3,"arthritis_risk":5,"migraine_risk":7,"frizz_risk":0,"updated_at":"2026-03-03T00:24:37.650075+05:30"},{"city":"Sagar","state":"Madhya Pradesh","latitude":23.8388,"longitude":78.7378,"temp":22.5,"humidity":43,"rain":0.0,"pressure":953.6,"uv_index":7.2,"wind_gusts":25.2,"aqi":67,"pm10":34.7,"pm2_5":21.9,"mosquito_risk":0,"arthritis_risk":5,"migraine_risk":7,"frizz_risk":0,"updated_at":"2026-03-03T00:24:37.650082+05:30"},{"city":"Satna","state":"Madhya Pradesh","latitude":24.6005,"longitude":80.8322,"temp":21.7,"humidity":41,"rain":0.0,"pressure":975.0,"uv_index":7.15,"wind_gusts":38.2,"aqi":63,"pm10":34.6,"pm2_5":20.7,"mosquito_risk":0,"arthritis_risk":5,"migraine_risk":7,"frizz_risk":0,"updated_at":"2026-03-03T00:24:37.650090+05:30"},{"city":"Akola","state":"Maharashtra","latitude":20.7002,"longitude":77.0082,"temp":23.8,"humidity":59,"rain":0.0,"pressure":978.0,"uv_index":7.75,"wind_gusts":25.9,"aqi":74,"pm10":34.1,"pm2_5":32.7,"mosquito_risk":0,"arthritis_risk":5,"migraine_risk":7,"frizz_risk":0,"updated_at":"2026-03-03T00:24:37.650098+05:30"},{"city":"Amravati","state":"Maharashtra","latitude":20.9374,"longitude":77.7796,"temp":22.8,"humidity":54,"rain":0.0,"pressure":969.9,"uv_index":7.7,"wind_gusts":24.5,"aqi":75,"pm10":39.2,"pm2_5":37.5,"mosquito_risk":0,"arthritis_risk":5,"migraine_risk":7,"frizz_risk":0,"updated_at":"2026-03-03T00:24:37.650107+05:30"},{"city":"Latur","state":"Maharashtra","latitude":18.4088,"longitude":76.5604,"temp":24.1,"humidity":56,"rain":0.0,"pressure":941.7,"uv_index":8.15,"wind_gusts":26.3,"aqi":124,"pm10":37.4,"pm2_5":36.9,"mosquito_risk":0,"arthritis_risk":5,"migraine_risk":7,"frizz_risk":0,"updated_at":"2026-03-03T00:24:37.650114+05:30"},{"city":"Nanded","state":"Maharashtra","latitude":19.1383,"longitude":77.3091,"temp":27.3,"humidity":52,"rain":0.0,"pressure":970.8,"uv_index":7.95,"wind_gusts":17.3,"aqi":85,"pm10":59.8,"pm2_5":58.8,"mosquito_risk":4,"arthritis_risk":5,"migraine_risk":7,"frizz_risk":1,"updated_at":"2026-03-03T00:24:37.650122+05:30"},{"city":"Gulbarga","state":"Karnataka","latitude":17.3297,"longitude":76.8343,"temp":26.8,"humidity":54,"rain":0.0,"pressure":960.6,"uv_index":8.25,"wind_gusts":19.4,"aqi":137,"pm10":60.5,"pm2_5":60.1,"mosquito_risk":4,"arthritis_risk":5,"migraine_risk":7,"frizz_risk":1,"updated_at":"2026-03-03T00:24:37.650129+05:30"},{"city":"Bidar","state":"Karnataka","latitude":17.9104,"longitude":77.5199,"temp":24.2,"humidity":56,"rain":0.0,"pressure":937.4,"uv_index":8.2,"wind_gusts":16.2,"aqi":144,"pm10":30.7,"pm2_5":30.2,"mosquito_risk":0,"arthritis_risk":5,"migraine_risk":7,"frizz_risk":0,"updated_at":"2026-03-03T00:24:37.650137+05:30"},{"city":"Hospet","state":"Karnataka","latitude":15.2689,"longitude":76.3909,"temp":28.7,"humidity":44,"rain":0.0,"pressure":957.2,"uv_index":8.6,"wind_gusts":21.2,"aqi":147,"pm10":51.6,"pm2_5":51.0,"mosquito_risk":4,"arthritis_risk":5,"migraine_risk":7,"frizz_risk":0,"updated_at":"2026-03-03T00:24:37.650144+05:30"},{"city":"Tirupur","state":"Tamil Nadu","latitude":11.1085,"longitude":77.3411,"temp":26.3,"humidity":68,"rain":0.0,"pressure":977.4,"uv_index":9.1,"wind_gusts":33.5,"aqi":147,"pm10":56.2,"pm2_5":55.3,"mosquito_risk":7,"arthritis_risk":5,"migraine_risk":7,"frizz_risk":1,"updated_at":"2026-03-03T00:24:37.650152+05:30"},{"city":"Alappuzha","state":"Kerala","latitude":9.4981,"longitude":76.3388,"temp":27.5,"humidity":82,"rain":0.0,"pressure":1010.6,"uv_index":8.9,"wind_gusts":32.8,"aqi":95,"pm10":40.2,"pm2_5":38.4,"mosquito_risk":7,"arthritis_risk":0,"migraine_risk":4,"frizz_risk":1,"updated_at":"2026-03-03T00:24:37.650160+05:30"},{"city":"Munnar","state":"Kerala","latitude":10.0889,"longitude":77.0595,"temp":19.2,"humidity":83,"rain":0.0,"pressure":857.1,"uv_index":9.4,"wind_gusts":22.0,"aqi":123,"pm10":51.6,"pm2_5":50.5,"mosquito_risk":3,"arthritis_risk":10,"migraine_risk":7,"frizz_risk":1,"updated_at":"2026-03-03T00:24:37.650168+05:30"},{"city":"Silchar","state":"Assam","latitude":24.8333,"longitude":92.7789,"temp":20.3,"humidity":85,"rain":0.0,"pressure":1007.8,"uv_index":7.35,"wind_gusts":18.7,"aqi":155,"pm10":105.9,"pm2_5":86.1,"mosquito_risk":3,"arthritis_risk":5,"migraine_risk":4,"frizz_risk":1,"updated_at":"2026-03-03T00:24:37.650176+05:30"},{"city":"Dibrugarh","state":"Assam","latitude":27.4728,"longitude":94.912,"temp":19.9,"humidity":88,"rain":0.0,"pressure":1000.2,"uv_index":7.05,"wind_gusts":12.6,"aqi":152,"pm10":80.6,"pm2_5":71.0,"mosquito_risk":3,"arthritis_risk":10,"migraine_risk":4,"frizz_risk":1,"updated_at":"2026-03-03T00:24:37.650183+05:30"}]