[{"city":"Delhi","state":"Delhi","latitude":28.6139,"longitude":77.209,"temp":30.9,"humidity":69,"rain":0.0,"pressure":978.4,"uv_index":7.65,"wind_gusts":27.4,"aqi":436,"pm10":257.0,"pm2_5":58.8,"no2":18.7,"co":550.0,"o3":100.0,"so2":24.8,"mosquito_risk":3,"arthritis_risk":5,"migraine_risk":7,"frizz_risk":1,"updated_at":"2026-07-01T10:53:19.759008+05:30"},{"city":"Mumbai","state":"Maharashtra","latitude":19.076,"longitude":72.8777,"temp":26.8,"humidity":92,"rain":0.3,"pressure":1005.6,"uv_index":1.05,"wind_gusts":45.4,"aqi":40,"pm10":21.4,"pm2_5":10.9,"no2":7.0,"co":282.0,"o3":51.0,"so2":5.1,"mosquito_risk":10,"arthritis_risk":5,"migraine_risk":0,"frizz_risk":1,"updated_at":"2026-07-01T10:53:19.759048+05:30"},{"city":"Bangalore","state":"Karnataka","latitude":12.9716,"longitude":77.5946,"temp":25.4,"humidity":65,"rain":0.0,"pressure":912.1,"uv_index":6.8,"wind_gusts":60.8,"aqi":17,"pm10":2.4,"pm2_5":2.3,"no2":5.3,"co":268.0,"o3":55.0,"so2":2.8,"mosquito_risk":7,"arthritis_risk":5,"migraine_risk":7,"frizz_risk":1,"updated_at":"2026-07-01T10:53:19.759063+05:30"},{"city":"Hyderabad","state":"Telangana","latitude":17.385,"longitude":78.4867,"temp":25.6,"humidity":78,"rain":0.1,"pressure":951.0,"uv_index":4.85,"wind_gusts":51.1,"aqi":22,"pm10":7.0,"pm2_5":5.3,"no2":7.5,"co":256.0,"o3":42.0,"so2":4.0,"mosquito_risk":10,"arthritis_risk":5,"migraine_risk":3,"frizz_risk":1,"updated_at":"2026-07-01T10:53:19.759073+05:30"},{"city":"Chennai","state":"Tamil Nadu","latitude":13.0827,"longitude":80.2707,"temp":33.9,"humidity":48,"rain":0.0,"pressure":1005.4,"uv_index":5.3,"wind_gusts":46.8,"aqi":43,"pm10":6.3,"pm2_5":5.8,"no2":9.3,"co":265.0,"o3":53.0,"so2":12.7,"mosquito_risk":0,"arthritis_risk":5,"migraine_risk":0,"frizz_risk":1,"updated_at":"2026-07-01T10:53:19.759081+05:30"},{"city":"Kolkata","state":"West Bengal","latitude":22.5726,"longitude":88.3639,"temp":30.6,"humidity":76,"rain":0.0,"pressure":1000.7,"uv_index":8.6,"wind_gusts":22.7,"aqi":104,"pm10":27.9,"pm2_5":27.2,"no2":6.1,"co":369.0,"o3":150.0,"so2":16.2,"mosquito_risk":3,"arthritis_risk":5,"migraine_risk":4,"frizz_risk":1,"updated_at":"2026-07-01T10:53:19.759089+05:30"},{"city":"Pune","state":"Maharashtra","latitude":18.5204,"longitude":73.8567,"temp":23.7,"humidity":92,"rain":0.3,"pressure":944.9,"uv_index":1.4,"wind_gusts":45.4,"aqi":20,"pm10":2.7,"pm2_5":2.5,"no2":6.3,"co":205.0,"o3":44.0,"so2":3.8,"mosquito_risk":6,"arthritis_risk":5,"migraine_risk":3,"frizz_risk":1,"updated_at":"2026-07-01T10:53:19.759096+05:30"},{"city":"Ahmedabad","state":"Gujarat","latitude":23.0225,"longitude":72.5714,"temp":34.2,"humidity":54,"rain":0.0,"pressure":996.7,"uv_index":7.5,"wind_gusts":45.4,"aqi":53,"pm10":31.3,"pm2_5":15.0,"no2":2.6,"co":147.0,"o3":72.0,"so2":3.9,"mosquito_risk":0,"arthritis_risk":5,"migraine_risk":7,"frizz_risk":1,"updated_at":"2026-07-01T10:53:19.759103+05:30"},{"city":"Jaipur","state":"Rajasthan","latitude":26.9124,"longitude":75.7873,"temp":35.9,"humidity":39,"rain":0.1,"pressure":955.0,"uv_index":8.2,"wind_gusts":40.7,"aqi":150,"pm10":359.5,"pm2_5":67.5,"no2":3.0,"co":155.0,"o3":84.0,"so2":4.4,"mosquito_risk":3,"arthritis_risk":5,"migraine_risk":10,"frizz_risk":1,"updated_at":"2026-07-01T10:53:19.759114+05:30"},{"city":"Lucknow","state":"Uttar Pradesh","latitude":26.8467,"longitude":80.9462,"temp":30.8,"humidity":73,"rain":0.1,"pressure":988.8,"uv_index":6.3,"wind_gusts":22.7,"aqi":113,"pm10":54.7,"pm2_5":27.6,"no2":4.0,"co":279.0,"o3":132.0,"so2":7.2,"mosquito_risk":6,"arthritis_risk":5,"migraine_risk":7,"frizz_risk":1,"updated_at":"2026-07-01T10:53:19.759123+05:30"},{"city":"Kanpur","state":"Uttar Pradesh","latitude":26.4499,"longitude":80.3319,"temp":31.5,"humidity":69,"rain":0.0,"pressure":987.1,"uv_index":6.05,"wind_gusts":33.5,"aqi":109,"pm10":35.5,"pm2_5":21.5,"no2":5.5,"co":254.0,"o3":119.0,"so2":5.9,"mosquito_risk":3,"arthritis_risk":5,"migraine_risk":7,"frizz_risk":1,"updated_at":"2026-07-01T10:53:19.759130+05:30"},{"city":"Chandigarh","state":"Chandigarh","latitude":30.7333,"longitude":76.7794,"temp":30.1,"humidity":71,"rain":0.0,"pressure":964.2,"uv_index":6.05,"wind_gusts":38.2,"aqi":101,"pm10":84.3,"pm2_5":32.9,"no2":4.1,"co":334.0,"o3":144.0,"so2":10.5,"mosquito_risk":3,"arthritis_risk":5,"migraine_risk":7,"frizz_risk":1,"updated_at":"2026-07-01T10:53:19.759136+05:30"},{"city":"Srinagar","state":"Jammu and Kashmir","latitude":34.0837,"longitude":74.7973,"temp":29.5,"humidity":49,"rain":0.0,"pressure":840.2,"uv_index":9.1,"wind_gusts":32.8,"aqi":93,"pm10":43.0,"pm2_5":32.7,"no2":2.9,"co":409.0,"o3":161.0,"so2":5.0,"mosquito_risk":4,"arthritis_risk":5,"migraine_risk":7,"frizz_risk":1,"updated_at":"2026-07-01T10:53:19.759143+05:30"},{"city":"Jammu","state":"Jammu and Kashmir","latitude":32.7266,"longitude":74.857,"temp":31.8,"humidity":63,"rain":0.0,"pressure":967.4,"uv_index":8.35,"wind_gusts":31.3,"aqi":123,"pm10":89.4,"pm2_5":42.3,"no2":4.7,"co":235.0,"o3":145.0,"so2":4.8,"mosquito_risk":3,"arthritis_risk":5,"migraine_risk":7,"frizz_risk":1,"updated_at":"2026-07-01T10:53:19.759150+05:30"},{"city":"Amritsar","state":"Punjab","latitude":31.634,"longitude":74.8723,"temp":33.3,"humidity":63,"rain":0.0,"pressure":974.6,"uv_index":6.45,"wind_gusts":37.1,"aqi":153,"pm10":231.9,"pm2_5":68.7,"no2":5.3,"co":355.0,"o3":147.0,"so2":14.1,"mosquito_risk":3,"arthritis_risk":5,"migraine_risk":7,"frizz_risk":1,"updated_at":"2026-07-01T10:53:19.759156+05:30"},{"city":"Ludhiana","state":"Punjab","latitude":30.901,"longitude":75.8573,"temp":33.8,"humidity":57,"rain":0.0,"pressure":972.8,"uv_index":4.35,"wind_gusts":42.5,"aqi":161,"pm10":471.2,"pm2_5":90.1,"no2":5.3,"co":362.0,"o3":141.0,"so2":14.2,"mosquito_risk":0,"arthritis_risk":5,"migraine_risk":3,"frizz_risk":1,"updated_at":"2026-07-01T10:53:19.759162+05:30"},{"city":"Jalandhar","state":"Punjab","latitude":31.326,"longitude":75.5762,"temp":34.1,"humidity":57,"rain":0.0,"pressure":973.9,"uv_index":5.65,"wind_gusts":39.6,"aqi":152,"pm10":221.7,"pm2_5":61.2,"no2":6.1,"co":312.0,"o3":147.0,"so2":14.9,"mosquito_risk":0,"arthritis_risk":5,"migraine_risk":3,"frizz_risk":1,"updated_at":"2026-07-01T10:53:19.759168+05:30"},{"city":"Dehradun","state":"Uttarakhand","latitude":30.6284,"longitude":78.0322,"temp":19.9,"humidity":95,"rain":0.3,"pressure":828.8,"uv_index":5.95,"wind_gusts":16.2,"aqi":50,"pm10":26.1,"pm2_5":13.2,"no2":4.5,"co":200.0,"o3":119.0,"so2":1.6,"mosquito_risk":6,"arthritis_risk":10,"migraine_risk":3,"frizz_risk":1,"updated_at":"2026-07-01T10:53:19.759174+05:30"},{"city":"Shimla","state":"Himachal Pradesh","latitude":31.1048,"longitude":77.1734,"temp":19.9,"humidity":77,"rain":0.1,"pressure":784.4,"uv_index":7.65,"wind_gusts":24.8,"aqi":69,"pm10":24.6,"pm2_5":14.8,"no2":2.1,"co":233.0,"o3":132.0,"so2":2.4,"mosquito_risk":6,"arthritis_risk":5,"migraine_risk":7,"frizz_risk":0,"updated_at":"2026-07-01T10:53:19.759181+05:30"},{"city":"Manali","state":"Himachal Pradesh","latitude":32.2396,"longitude":77.1887,"temp":24.8,"humidity":69,"rain":0.0,"pressure":818.5,"uv_index":6.6,"wind_gusts":34.9,"aqi":64,"pm10":11.3,"pm2_5":7.9,"no2":16.1,"co":198.0,"o3":102.0,"so2":0.6,"mosquito_risk":3,"arthritis_risk":5,"migraine_risk":7,"frizz_risk":1,"updated_at":"2026-07-01T10:53:19.759191+05:30"},{"city":"Gurgaon","state":"Haryana","latitude":28.4595,"longitude":77.0266,"temp":31.9,"humidity":64,"rain":0.0,"pressure":976.7,"uv_index":7.05,"wind_gusts":33.5,"aqi":1009,"pm10":676.1,"pm2_5":95.9,"no2":10.0,"co":311.0,"o3":110.0,"so2":12.1,"mosquito_risk":3,"arthritis_risk":5,"migraine_risk":7,"frizz_risk":1,"updated_at":"2026-07-01T10:53:19.759198+05:30"},{"city":"Noida","state":"Uttar Pradesh","latitude":28.5355,"longitude":77.391,"temp":31.4,"humidity":68,"rain":0.0,"pressure":979.8,"uv_index":7.65,"wind_gusts":25.9,"aqi":1009,"pm10":676.1,"pm2_5":95.9,"no2":10.0,"co":333.0,"o3":110.0,"so2":12.1,"mosquito_risk":3,"arthritis_risk":5,"migraine_risk":7,"frizz_risk":1,"updated_at":"2026-07-01T10:53:19.759204+05:30"},{"city":"Ghaziabad","state":"Uttar Pradesh","latitude":28.6692,"longitude":77.4538,"temp":32.0,"humidity":65,"rain":0.0,"pressure":978.2,"uv_index":7.7,"wind_gusts":25.9,"aqi":150,"pm10":95.5,"pm2_5":36.0,"no2":7.2,"co":281.0,"o3":114.0,"so2":9.9,"mosquito_risk":3,"arthritis_risk":5,"migraine_risk":7,"frizz_risk":1,"updated_at":"2026-07-01T10:53:19.759210+05:30"},{"city":"Faridabad","state":"Haryana","latitude":28.4089,"longitude":77.3178,"temp":31.7,"humidity":64,"rain":0.0,"pressure":979.2,"uv_index":7.7,"wind_gusts":31.0,"aqi":1009,"pm10":676.1,"pm2_5":95.9,"no2":10.0,"co":347.0,"o3":110.0,"so2":12.1,"mosquito_risk":3,"arthritis_risk":5,"migraine_risk":7,"frizz_risk":1,"updated_at":"2026-07-01T10:53:19.759216+05:30"},{"city":"Meerut","state":"Uttar Pradesh","latitude":28.9845,"longitude":77.7064,"temp":28.1,"humidity":89,"rain":0.1,"pressure":977.4,"uv_index":7.55,"wind_gusts":29.5,"aqi":150,"pm10":95.5,"pm2_5":36.0,"no2":7.2,"co":259.0,"o3":114.0,"so2":9.9,"mosquito_risk":10,"arthritis_risk":5,"migraine_risk":7,"frizz_risk":1,"updated_at":"2026-07-01T10:53:19.759222+05:30"},{"city":"Agra","state":"Uttar Pradesh","latitude":27.1767,"longitude":78.0081,"temp":32.5,"humidity":63,"rain":0.0,"pressure":982.9,"uv_index":5.15,"wind_gusts":29.9,"aqi":403,"pm10":83.4,"pm2_5":32.2,"no2":6.8,"co":213.0,"o3":117.0,"so2":6.7,"mosquito_risk":3,"arthritis_risk":5,"migraine_risk":3,"frizz_risk":1,"updated_at":"2026-07-01T10:53:19.759228+05:30"},{"city":"Varanasi","state":"Uttar Pradesh","latitude":25.3176,"longitude":82.9739,"temp":32.8,"humidity":68,"rain":0.0,"pressure":992.8,"uv_index":7.2,"wind_gusts":18.0,"aqi":82,"pm10":26.3,"pm2_5":20.1,"no2":7.0,"co":310.0,"o3":136.0,"so2":12.8,"mosquito_risk":3,"arthritis_risk":5,"migraine_risk":7,"frizz_risk":1,"updated_at":"2026-07-01T10:53:19.759235+05:30"},{"city":"Prayagraj","state":"Uttar Pradesh","latitude":25.4358,"longitude":81.8463,"temp":32.7,"humidity":65,"rain":0.0,"pressure":991.1,"uv_index":8.15,"wind_gusts":22.7,"aqi":97,"pm10":32.0,"pm2_5":20.0,"no2":4.8,"co":280.0,"o3":136.0,"so2":7.9,"mosquito_risk":3,"arthritis_risk":5,"migraine_risk":7,"frizz_risk":1,"updated_at":"2026-07-01T10:53:19.759241+05:30"},{"city":"Gorakhpur","state":"Uttar Pradesh","latitude":26.7606,"longitude":83.3732,"temp":31.2,"humidity":72,"rain":0.0,"pressure":993.0,"uv_index":6.8,"wind_gusts":24.8,"aqi":114,"pm10":40.4,"pm2_5":34.9,"no2":5.2,"co":298.0,"o3":137.0,"so2":11.2,"mosquito_risk":3,"arthritis_risk":5,"migraine_risk":7,"frizz_risk":1,"updated_at":"2026-07-01T10:53:19.759247+05:30"},{"city":"Bareilly","state":"Uttar Pradesh","latitude":28.367,"longitude":79.4304,"temp":30.4,"humidity":76,"rain":0.0,"pressure":982.6,"uv_index":8.0,"wind_gusts":24.5,"aqi":92,"pm10":76.6,"pm2_5":36.9,"no2":6.6,"co":318.0,"o3":134.0,"so2":12.2,"mosquito_risk":3,"arthritis_risk":5,"migraine_risk":7,"frizz_risk":1,"updated_at":"2026-07-01T10:53:19.759255+05:30"},{"city":"Aligarh","state":"Uttar Pradesh","latitude":27.8974,"longitude":78.088,"temp":32.1,"humidity":64,"rain":0.0,"pressure":980.9,"uv_index":7.25,"wind_gusts":29.2,"aqi":276,"pm10":121.5,"pm2_5":40.0,"no2":6.3,"co":222.0,"o3":108.0,"so2":8.4,"mosquito_risk":3,"arthritis_risk":5,"migraine_risk":7,"frizz_risk":1,"updated_at":"2026-07-01T10:53:19.759261+05:30"},{"city":"Moradabad","state":"Uttar Pradesh","latitude":28.8386,"longitude":78.7733,"temp":29.6,"humidity":77,"rain":0.1,"pressure":979.7,"uv_index":7.65,"wind_gusts":25.9,"aqi":79,"pm10":59.1,"pm2_5":34.8,"no2":11.4,"co":265.0,"o3":96.0,"so2":12.4,"mosquito_risk":10,"arthritis_risk":5,"migraine_risk":7,"frizz_risk":1,"updated_at":"2026-07-01T10:53:19.759267+05:30"},{"city":"Saharanpur","state":"Uttar Pradesh","latitude":29.9637,"longitude":77.546,"temp":28.4,"humidity":82,"rain":0.2,"pressure":971.7,"uv_index":4.55,"wind_gusts":32.0,"aqi":72,"pm10":65.4,"pm2_5":29.2,"no2":7.3,"co":271.0,"o3":104.0,"so2":9.9,"mosquito_risk":10,"arthritis_risk":5,"migraine_risk":3,"frizz_risk":1,"updated_at":"2026-07-01T10:53:19.759273+05:30"},{"city":"Jhansi","state":"Uttar Pradesh","latitude":25.4484,"longitude":78.5685,"temp":34.1,"humidity":55,"rain":0.0,"pressure":973.2,"uv_index":6.95,"wind_gusts":38.9,"aqi":66,"pm10":109.2,"pm2_5":32.9,"no2":2.8,"co":158.0,"o3":100.0,"so2":7.0,"mosquito_risk":0,"arthritis_risk":5,"migraine_risk":7,"frizz_risk":1,"updated_at":"2026-07-01T10:53:23.010321+05:30"},{"city":"Surat","state":"Gujarat","latitude":21.1702,"longitude":72.8311,"temp":28.3,"humidity":86,"rain":0.2,"pressure":1002.2,"uv_index":5.0,"wind_gusts":38.9,"aqi":62,"pm10":19.8,"pm2_5":15.8,"no2":20.8,"co":519.0,"o3":37.0,"so2":47.4,"mosquito_risk":10,"arthritis_risk":5,"migraine_risk":0,"frizz_risk":1,"updated_at":"2026-07-01T10:53:23.010355+05:30"},{"city":"Vadodara","state":"Gujarat","latitude":22.3072,"longitude":73.1812,"temp":27.0,"humidity":94,"rain":0.4,"pressure":999.9,"uv_index":6.45,"wind_gusts":36.7,"aqi":54,"pm10":32.4,"pm2_5":20.0,"no2":5.2,"co":147.0,"o3":73.0,"so2":8.1,"mosquito_risk":10,"arthritis_risk":5,"migraine_risk":7,"frizz_risk":1,"updated_at":"2026-07-01T10:53:23.010366+05:30"},{"city":"Rajkot","state":"Gujarat","latitude":22.3039,"longitude":70.8022,"temp":33.8,"humidity":52,"rain":0.1,"pressure":988.6,"uv_index":5.9,"wind_gusts":39.2,"aqi":52,"pm10":32.1,"pm2_5":14.0,"no2":2.1,"co":106.0,"o3":72.0,"so2":4.6,"mosquito_risk":3,"arthritis_risk":5,"migraine_risk":3,"frizz_risk":1,"updated_at":"2026-07-01T10:53:23.010399+05:30"},{"city":"Thane","state":"Maharashtra","latitude":19.2183,"longitude":72.9781,"temp":26.5,"humidity":95,"rain":0.6,"pressure":1004.8,"uv_index":0.55,"wind_gusts":34.2,"aqi":40,"pm10":21.4,"pm2_5":10.9,"no2":7.0,"co":327.0,"o3":51.0,"so2":5.1,"mosquito_risk":10,"arthritis_risk":5,"migraine_risk":0,"frizz_risk":1,"updated_at":"2026-07-01T10:53:23.010409+05:30"},{"city":"Nagpur","state":"Maharashtra","latitude":21.1458,"longitude":79.0882,"temp":27.3,"humidity":83,"rain":0.1,"pressure":969.5,"uv_index":5.85,"wind_gusts":28.1,"aqi":60,"pm10":14.3,"pm2_5":10.9,"no2":11.7,"co":218.0,"o3":69.0,"so2":23.5,"mosquito_risk":10,"arthritis_risk":5,"migraine_risk":3,"frizz_risk":1,"updated_at":"2026-07-01T10:53:23.010419+05:30"},{"city":"Nashik","state":"Maharashtra","latitude":19.9975,"longitude":73.7898,"temp":24.0,"humidity":95,"rain":0.1,"pressure":941.5,"uv_index":4.55,"wind_gusts":42.1,"aqi":19,"pm10":4.3,"pm2_5":2.9,"no2":4.0,"co":139.0,"o3":48.0,"so2":1.2,"mosquito_risk":6,"arthritis_risk":5,"migraine_risk":3,"frizz_risk":1,"updated_at":"2026-07-01T10:53:23.010427+05:30"},{"city":"Aurangabad","state":"Maharashtra","latitude":19.8762,"longitude":75.3433,"temp":23.5,"humidity":94,"rain":0.4,"pressure":940.2,"uv_index":3.95,"wind_gusts":40.7,"aqi":26,"pm10":6.0,"pm2_5":3.9,"no2":2.6,"co":157.0,"o3":58.0,"so2":3.5,"mosquito_risk":6,"arthritis_risk":5,"migraine_risk":3,"frizz_risk":1,"updated_at":"2026-07-01T10:53:23.010436+05:30"},{"city":"Solapur","state":"Maharashtra","latitude":17.6599,"longitude":75.9064,"temp":27.1,"humidity":73,"rain":0.0,"pressure":955.2,"uv_index":3.55,"wind_gusts":52.9,"aqi":18,"pm10":3.9,"pm2_5":3.4,"no2":4.0,"co":119.0,"o3":49.0,"so2":2.3,"mosquito_risk":7,"arthritis_risk":5,"migraine_risk":3,"frizz_risk":1,"updated_at":"2026-07-01T10:53:23.010444+05:30"},{"city":"Kolhapur","state":"Maharashtra","latitude":16.705,"longitude":74.2433,"temp":23.3,"humidity":96,"rain":0.2,"pressure":946.5,"uv_index":3.35,"wind_gusts":42.8,"aqi":21,"pm10":5.2,"pm2_5":4.3,"no2":3.6,"co":162.0,"o3":51.0,"so2":1.8,"mosquito_risk":6,"arthritis_risk":5,"migraine_risk":3,"frizz_risk":1,"updated_at":"2026-07-01T10:53:23.010452+05:30"},{"city":"Goa","state":"Goa","latitude":15.2993,"longitude":74.124,"temp":25.4,"humidity":96,"rain":0.2,"pressure":998.6,"uv_index":0.95,"wind_gusts":29.5,"aqi":28,"pm10":20.1,"pm2_5":10.6,"no2":1.8,"co":178.0,"o3":52.0,"so2":0.7,"mosquito_risk":10,"arthritis_risk":5,"migraine_risk":3,"frizz_risk":1,"updated_at":"2026-07-01T10:53:23.010460+05:30"},{"city":"Jodhpur","state":"Rajasthan","latitude":26.2389,"longitude":73.0243,"temp":34.8,"humidity":41,"rain":0.0,"pressure":977.4,"uv_index":8.45,"wind_gusts":37.4,"aqi":157,"pm10":204.9,"pm2_5":51.2,"no2":1.2,"co":113.0,"o3":72.0,"so2":2.8,"mosquito_risk":0,"arthritis_risk":5,"migraine_risk":7,"frizz_risk":1,"updated_at":"2026-07-01T10:53:23.010468+05:30"},{"city":"Udaipur","state":"Rajasthan","latitude":24.5854,"longitude":73.7125,"temp":30.8,"humidity":60,"rain":0.0,"pressure":942.0,"uv_index":8.75,"wind_gusts":33.8,"aqi":55,"pm10":36.8,"pm2_5":18.6,"no2":1.6,"co":115.0,"o3":76.0,"so2":4.0,"mosquito_risk":0,"arthritis_risk":5,"migraine_risk":7,"frizz_risk":1,"updated_at":"2026-07-01T10:53:23.010475+05:30"},{"city":"Kota","state":"Rajasthan","latitude":25.2138,"longitude":75.8648,"temp":34.4,"humidity":53,"rain":0.0,"pressure":973.7,"uv_index":5.45,"wind_gusts":31.0,"aqi":70,"pm10":36.2,"pm2_5":20.8,"no2":3.4,"co":150.0,"o3":94.0,"so2":10.1,"mosquito_risk":0,"arthritis_risk":5,"migraine_risk":3,"frizz_risk":1,"updated_at":"2026-07-01T10:53:23.010483+05:30"},{"city":"Bikaner","state":"Rajasthan","latitude":28.0229,"longitude":73.3119,"temp":36.9,"humidity":36,"rain":0.0,"pressure":975.4,"uv_index":8.45,"wind_gusts":33.5,"aqi":162,"pm10":297.1,"pm2_5":94.1,"no2":0.5,"co":113.0,"o3":72.0,"so2":1.8,"mosquito_risk":0,"arthritis_risk":5,"migraine_risk":10,"frizz_risk":1,"updated_at":"2026-07-01T10:53:23.010491+05:30"},{"city":"Ajmer","state":"Rajasthan","latitude":26.4499,"longitude":74.6399,"temp":33.2,"humidity":47,"rain":0.0,"pressure":950.2,"uv_index":8.05,"wind_gusts":41.4,"aqi":68,"pm10":127.6,"pm2_5":43.0,"no2":1.4,"co":118.0,"o3":77.0,"so2":3.0,"mosquito_risk":0,"arthritis_risk":5,"migraine_risk":7,"frizz_risk":1,"updated_at":"2026-07-01T10:53:23.010498+05:30"},{"city":"Gwalior","state":"Madhya Pradesh","latitude":26.2183,"longitude":78.1828,"temp":32.3,"humidity":58,"rain":0.0,"pressure":978.5,"uv_index":6.2,"wind_gusts":27.0,"aqi":83,"pm10":40.0,"pm2_5":19.0,"no2":3.4,"co":167.0,"o3":95.0,"so2":4.4,"mosquito_risk":0,"arthritis_risk":5,"migraine_risk":7,"frizz_risk":1,"updated_at":"2026-07-01T10:53:23.010506+05:30"},{"city":"Indore","state":"Madhya Pradesh","latitude":22.7196,"longitude":75.8577,"temp":29.7,"humidity":68,"rain":0.0,"pressure":944.3,"uv_index":7.95,"wind_gusts":30.6,"aqi":59,"pm10":23.2,"pm2_5":16.8,"no2":4.2,"co":193.0,"o3":70.0,"so2":5.9,"mosquito_risk":7,"arthritis_risk":5,"migraine_risk":7,"frizz_risk":1,"updated_at":"2026-07-01T10:53:23.010514+05:30"},{"city":"Bhopal","state":"Madhya Pradesh","latitude":23.2599,"longitude":77.4126,"temp":29.8,"humidity":68,"rain":0.0,"pressure":949.7,"uv_index":7.85,"wind_gusts":24.8,"aqi":68,"pm10":22.8,"pm2_5":14.9,"no2":3.3,"co":190.0,"o3":87.0,"so2":5.6,"mosquito_risk":7,"arthritis_risk":5,"migraine_risk":7,"frizz_risk":1,"updated_at":"2026-07-01T10:53:23.010521+05:30"},{"city":"Jabalpur","state":"Madhya Pradesh","latitude":23.1815,"longitude":79.9864,"temp":32.3,"humidity":59,"rain":0.0,"pressure":957.3,"uv_index":7.8,"wind_gusts":29.9,"aqi":60,"pm10":22.8,"pm2_5":15.4,"no2":2.5,"co":176.0,"o3":95.0,"so2":2.6,"mosquito_risk":0,"arthritis_risk":5,"migraine_risk":7,"frizz_risk":1,"updated_at":"2026-07-01T10:53:23.010529+05:30"},{"city":"Ujjain","state":"Madhya Pradesh","latitude":23.1765,"longitude":75.7885,"temp":30.4,"humidity":65,"rain":0.0,"pressure":949.9,"uv_index":3.9,"wind_gusts":37.4,"aqi":59,"pm10":25.9,"pm2_5":17.1,"no2":2.5,"co":164.0,"o3":80.0,"so2":7.7,"mosquito_risk":3,"arthritis_risk":5,"migraine_risk":3,"frizz_risk":1,"updated_at":"2026-07-01T10:53:23.010537+05:30"},{"city":"Visakhapatnam","state":"Andhra Pradesh","latitude":17.6868,"longitude":83.2185,"temp":32.4,"humidity":62,"rain":0.0,"pressure":998.3,"uv_index":6.25,"wind_gusts":34.6,"aqi":79,"pm10":19.8,"pm2_5":18.4,"no2":19.6,"co":389.0,"o3":61.0,"so2":42.7,"mosquito_risk":3,"arthritis_risk":5,"migraine_risk":7,"frizz_risk":1,"updated_at":"2026-07-01T10:53:23.010544+05:30"},{"city":"Vijayawada","state":"Andhra Pradesh","latitude":16.5062,"longitude":80.648,"temp":31.8,"humidity":60,"rain":0.0,"pressure":999.5,"uv_index":6.2,"wind_gusts":47.9,"aqi":50,"pm10":6.2,"pm2_5":5.8,"no2":3.3,"co":145.0,"o3":72.0,"so2":5.9,"mosquito_risk":0,"arthritis_risk":5,"migraine_risk":7,"frizz_risk":1,"updated_at":"2026-07-01T10:53:23.010551+05:30"},{"city":"Guntur","state":"Andhra Pradesh","latitude":16.3067,"longitude":80.4365,"temp":32.8,"humidity":53,"rain":0.0,"pressure":1000.7,"uv_index":5.3,"wind_gusts":47.9,"aqi":40,"pm10":4.9,"pm2_5":4.6,"no2":2.9,"co":144.0,"o3":69.0,"so2":5.5,"mosquito_risk":0,"arthritis_risk":5,"migraine_risk":0,"frizz_risk":1,"updated_at":"2026-07-01T10:53:23.010559+05:30"},{"city":"Nellore","state":"Andhra Pradesh","latitude":14.4426,"longitude":79.9865,"temp":32.9,"humidity":52,"rain":0.0,"pressure":1003.6,"uv_index":3.05,"wind_gusts":51.8,"aqi":25,"pm10":3.1,"pm2_5":2.6,"no2":3.3,"co":114.0,"o3":58.0,"so2":4.3,"mosquito_risk":0,"arthritis_risk":5,"migraine_risk":0,"frizz_risk":1,"updated_at":"2026-07-01T10:53:23.010567+05:30"},{"city":"Kurnool","state":"Andhra Pradesh","latitude":15.8281,"longitude":78.0373,"temp":29.6,"humidity":61,"rain":0.0,"pressure":975.8,"uv_index":3.0,"wind_gusts":55.8,"aqi":19,"pm10":3.4,"pm2_5":2.5,"no2":1.9,"co":114.0,"o3":61.0,"so2":1.9,"mosquito_risk":7,"arthritis_risk":5,"migraine_risk":3,"frizz_risk":1,"updated_at":"2026-07-01T10:53:23.010576+05:30"},{"city":"Kakinada","state":"Andhra Pradesh","latitude":16.9891,"longitude":82.2475,"temp":31.2,"humidity":64,"rain":0.0,"pressure":1003.2,"uv_index":5.5,"wind_gusts":47.5,"aqi":52,"pm10":14.5,"pm2_5":12.7,"no2":5.5,"co":195.0,"o3":85.0,"so2":7.3,"mosquito_risk":3,"arthritis_risk":5,"migraine_risk":0,"frizz_risk":1,"updated_at":"2026-07-01T10:53:23.010583+05:30"},{"city":"Tirupati","state":"Andhra Pradesh","latitude":13.6288,"longitude":79.4192,"temp":33.7,"humidity":44,"rain":0.0,"pressure":989.6,"uv_index":5.7,"wind_gusts":48.2,"aqi":23,"pm10":3.3,"pm2_5":3.1,"no2":3.5,"co":115.0,"o3":55.0,"so2":1.8,"mosquito_risk":0,"arthritis_risk":5,"migraine_risk":3,"frizz_risk":1,"updated_at":"2026-07-01T10:53:23.010591+05:30"},{"city":"Warangal","state":"Telangana","latitude":17.9689,"longitude":79.5941,"temp":29.8,"humidity":69,"rain":0.0,"pressure":975.9,"uv_index":2.1,"wind_gusts":42.1,"aqi":40,"pm10":5.9,"pm2_5":5.6,"no2":4.3,"co":158.0,"o3":52.0,"so2":2.7,"mosquito_risk":7,"arthritis_risk":5,"migraine_risk":3,"frizz_risk":1,"updated_at":"2026-07-01T10:53:23.010599+05:30"},{"city":"Nizamabad","state":"Telangana","latitude":18.6725,"longitude":78.0941,"temp":25.5,"humidity":94,"rain":0.1,"pressure":962.0,"uv_index":2.25,"wind_gusts":35.3,"aqi":43,"pm10":6.4,"pm2_5":6.0,"no2":7.0,"co":212.0,"o3":40.0,"so2":3.8,"mosquito_risk":10,"arthritis_risk":5,"migraine_risk":3,"frizz_risk":1,"updated_at":"2026-07-01T10:53:23.010606+05:30"},{"city":"Mysore","state":"Karnataka","latitude":12.2958,"longitude":76.6396,"temp":24.4,"humidity":76,"rain":0.1,"pressure":929.3,"uv_index":6.7,"wind_gusts":55.1,"aqi":18,"pm10":1.7,"pm2_5":1.6,"no2":3.6,"co":122.0,"o3":48.0,"so2":1.4,"mosquito_risk":6,"arthritis_risk":5,"migraine_risk":7,"frizz_risk":1,"updated_at":"2026-07-01T10:53:23.010614+05:30"},{"city":"Mangalore","state":"Karnataka","latitude":12.9141,"longitude":74.856,"temp":25.7,"humidity":93,"rain":0.2,"pressure":1008.7,"uv_index":1.8,"wind_gusts":34.6,"aqi":26,"pm10":13.6,"pm2_5":7.9,"no2":4.3,"co":140.0,"o3":46.0,"so2":1.5,"mosquito_risk":10,"arthritis_risk":0,"migraine_risk":0,"frizz_risk":1,"updated_at":"2026-07-01T10:53:23.010621+05:30"},{"city":"Hubli-Dharwad","state":"Karnataka","latitude":15.3647,"longitude":75.124,"temp":24.1,"humidity":90,"rain":0.4,"pressure":940.5,"uv_index":6.3,"wind_gusts":49.0,"aqi":20,"pm10":1.8,"pm2_5":1.6,"no2":4.1,"co":121.0,"o3":48.0,"so2":0.9,"mosquito_risk":6,"arthritis_risk":5,"migraine_risk":7,"frizz_risk":1,"updated_at":"2026-07-01T10:53:23.010629+05:30"},{"city":"Belgaum","state":"Karnataka","latitude":15.8497,"longitude":74.4977,"temp":22.4,"humidity":97,"rain":0.2,"pressure":924.6,"uv_index":3.9,"wind_gusts":43.6,"aqi":21,"pm10":4.3,"pm2_5":2.6,"no2":3.4,"co":155.0,"o3":46.0,"so2":1.3,"mosquito_risk":6,"arthritis_risk":5,"migraine_risk":3,"frizz_risk":1,"updated_at":"2026-07-01T10:53:26.301363+05:30"},{"city":"Coimbatore","state":"Tamil Nadu","latitude":11.0168,"longitude":76.9558,"temp":27.9,"humidity":65,"rain":0.0,"pressure":962.7,"uv_index":6.0,"wind_gusts":58.7,"aqi":19,"pm10":2.8,"pm2_5":2.4,"no2":3.7,"co":145.0,"o3":47.0,"so2":1.9,"mosquito_risk":7,"arthritis_risk":5,"migraine_risk":3,"frizz_risk":1,"updated_at":"2026-07-01T10:53:26.301426+05:30"},{"city":"Madurai","state":"Tamil Nadu","latitude":9.9252,"longitude":78.1198,"temp":33.0,"humidity":46,"rain":0.0,"pressure":993.2,"uv_index":7.65,"wind_gusts":52.9,"aqi":47,"pm10":10.8,"pm2_5":6.8,"no2":5.3,"co":134.0,"o3":54.0,"so2":3.4,"mosquito_risk":0,"arthritis_risk":5,"migraine_risk":7,"frizz_risk":1,"updated_at":"2026-07-01T10:53:26.301439+05:30"},{"city":"Trichy","state":"Tamil Nadu","latitude":10.7905,"longitude":78.7047,"temp":33.2,"humidity":45,"rain":0.0,"pressure":999.5,"uv_index":7.45,"wind_gusts":62.3,"aqi":26,"pm10":4.9,"pm2_5":3.6,"no2":1.9,"co":123.0,"o3":65.0,"so2":2.0,"mosquito_risk":0,"arthritis_risk":5,"migraine_risk":7,"frizz_risk":1,"updated_at":"2026-07-01T10:53:26.301448+05:30"},{"city":"Salem","state":"Tamil Nadu","latitude":11.6643,"longitude":78.146,"temp":28.3,"humidity":68,"rain":0.0,"pressure":977.9,"uv_index":5.75,"wind_gusts":34.2,"aqi":45,"pm10":8.9,"pm2_5":7.3,"no2":5.1,"co":190.0,"o3":72.0,"so2":7.8,"mosquito_risk":7,"arthritis_risk":5,"migraine_risk":3,"frizz_risk":1,"updated_at":"2026-07-01T10:53:26.301457+05:30"},{"city":"Tirunelveli","state":"Tamil Nadu","latitude":8.7139,"longitude":77.7567,"temp":34.7,"humidity":40,"rain":0.0,"pressure":1003.9,"uv_index":8.45,"wind_gusts":46.4,"aqi":33,"pm10":12.7,"pm2_5":7.1,"no2":2.4,"co":116.0,"o3":60.0,"so2":1.5,"mosquito_risk":0,"arthritis_risk":5,"migraine_risk":4,"frizz_risk":1,"updated_at":"2026-07-01T10:53:26.301465+05:30"},{"city":"Vellore","state":"Tamil Nadu","latitude":12.9165,"longitude":79.1325,"temp":31.7,"humidity":52,"rain":0.0,"pressure":983.4,"uv_index":3.85,"wind_gusts":48.6,"aqi":23,"pm10":3.9,"pm2_5":3.7,"no2":4.9,"co":139.0,"o3":52.0,"so2":3.1,"mosquito_risk":0,"arthritis_risk":5,"migraine_risk":3,"frizz_risk":1,"updated_at":"2026-07-01T10:53:26.301473+05:30"},{"city":"Erode","state":"Tamil Nadu","latitude":11.341,"longitude":77.7172,"temp":32.1,"humidity":48,"rain":0.0,"pressure":989.4,"uv_index":7.2,"wind_gusts":41.8,"aqi":39,"pm10":6.0,"pm2_5":4.8,"no2":4.9,"co":164.0,"o3":52.0,"so2":2.7,"mosquito_risk":0,"arthritis_risk":5,"migraine_risk":7,"frizz_risk":1,"updated_at":"2026-07-01T10:53:26.301481+05:30"},{"city":"Kochi","state":"Kerala","latitude":9.9312,"longitude":76.2673,"temp":27.4,"humidity":80,"rain":0.0,"pressure":1011.3,"uv_index":2.15,"wind_gusts":38.2,"aqi":51,"pm10":8.8,"pm2_5":5.6,"no2":5.9,"co":154.0,"o3":45.0,"so2":3.1,"mosquito_risk":7,"arthritis_risk":0,"migraine_risk":0,"frizz_risk":1,"updated_at":"2026-07-01T10:53:26.301489+05:30"},{"city":"Thiruvananthapuram","state":"Kerala","latitude":8.5241,"longitude":76.9366,"temp":28.2,"humidity":75,"rain":0.0,"pressure":1010.4,"uv_index":8.35,"wind_gusts":42.8,"aqi":45,"pm10":21.6,"pm2_5":13.1,"no2":2.8,"co":130.0,"o3":65.0,"so2":2.4,"mosquito_risk":7,"arthritis_risk":0,"migraine_risk":4,"frizz_risk":1,"updated_at":"2026-07-01T10:53:26.301496+05:30"},{"city":"Kozhikode","state":"Kerala","latitude":11.2588,"longitude":75.7804,"temp":25.1,"humidity":97,"rain":0.1,"pressure":1010.8,"uv_index":7.15,"wind_gusts":28.8,"aqi":28,"pm10":11.1,"pm2_5":5.5,"no2":0.7,"co":178.0,"o3":52.0,"so2":0.4,"mosquito_risk":10,"arthritis_risk":0,"migraine_risk":4,"frizz_risk":1,"updated_at":"2026-07-01T10:53:26.301503+05:30"},{"city":"Thrissur","state":"Kerala","latitude":10.5276,"longitude":76.2144,"temp":27.4,"humidity":81,"rain":0.0,"pressure":1009.7,"uv_index":2.9,"wind_gusts":38.2,"aqi":51,"pm10":7.2,"pm2_5":5.4,"no2":4.1,"co":141.0,"o3":42.0,"so2":1.7,"mosquito_risk":7,"arthritis_risk":0,"migraine_risk":0,"frizz_risk":1,"updated_at":"2026-07-01T10:53:26.301511+05:30"},{"city":"Kannur","state":"Kerala","latitude":11.8745,"longitude":75.3704,"temp":25.0,"humidity":96,"rain":0.4,"pressure":1010.0,"uv_index":5.2,"wind_gusts":29.5,"aqi":29,"pm10":8.8,"pm2_5":5.8,"no2":4.7,"co":277.0,"o3":42.0,"so2":1.0,"mosquito_risk":10,"arthritis_risk":0,"migraine_risk":0,"frizz_risk":1,"updated_at":"2026-07-01T10:53:26.301519+05:30"},{"city":"Patna","state":"Bihar","latitude":25.5941,"longitude":85.1376,"temp":31.9,"humidity":71,"rain":0.0,"pressure":995.9,"uv_index":8.3,"wind_gusts":24.8,"aqi":132,"pm10":37.4,"pm2_5":36.6,"no2":6.0,"co":307.0,"o3":151.0,"so2":18.3,"mosquito_risk":3,"arthritis_risk":5,"migraine_risk":7,"frizz_risk":1,"updated_at":"2026-07-01T10:53:26.301526+05:30"},{"city":"Gaya","state":"Bihar","latitude":24.7914,"longitude":85.0002,"temp":32.5,"humidity":64,"rain":0.0,"pressure":989.1,"uv_index":8.85,"wind_gusts":23.4,"aqi":118,"pm10":32.1,"pm2_5":31.2,"no2":4.4,"co":255.0,"o3":145.0,"so2":15.7,"mosquito_risk":3,"arthritis_risk":5,"migraine_risk":7,"frizz_risk":1,"updated_at":"2026-07-01T10:53:26.301534+05:30"},{"city":"Muzaffarpur","state":"Bihar","latitude":26.1209,"longitude":85.3647,"temp":31.6,"humidity":71,"rain":0.0,"pressure":996.0,"uv_index":8.4,"wind_gusts":27.7,"aqi":139,"pm10":43.7,"pm2_5":43.0,"no2":6.1,"co":290.0,"o3":153.0,"so2":19.4,"mosquito_risk":3,"arthritis_risk":5,"migraine_risk":7,"frizz_risk":1,"updated_at":"2026-07-01T10:53:26.301541+05:30"},{"city":"Bhagalpur","state":"Bihar","latitude":25.2425,"longitude":87.0117,"temp":30.0,"humidity":79,"rain":0.0,"pressure":996.6,"uv_index":8.4,"wind_gusts":29.5,"aqi":136,"pm10":32.7,"pm2_5":32.1,"no2":8.2,"co":340.0,"o3":150.0,"so2":27.0,"mosquito_risk":7,"arthritis_risk":5,"migraine_risk":7,"frizz_risk":1,"updated_at":"2026-07-01T10:53:26.301548+05:30"},{"city":"Ranchi","state":"Jharkhand","latitude":23.3441,"longitude":85.3096,"temp":26.8,"humidity":77,"rain":0.1,"pressure":933.9,"uv_index":8.95,"wind_gusts":23.4,"aqi":74,"pm10":10.6,"pm2_5":10.4,"no2":3.4,"co":220.0,"o3":115.0,"so2":7.1,"mosquito_risk":10,"arthritis_risk":5,"migraine_risk":7,"frizz_risk":1,"updated_at":"2026-07-01T10:53:26.301556+05:30"},{"city":"Jamshedpur","state":"Jharkhand","latitude":22.8046,"longitude":86.2029,"temp":28.5,"humidity":80,"rain":0.0,"pressure":986.3,"uv_index":8.35,"wind_gusts":21.6,"aqi":107,"pm10":16.1,"pm2_5":15.9,"no2":6.9,"co":272.0,"o3":139.0,"so2":27.4,"mosquito_risk":7,"arthritis_risk":5,"migraine_risk":7,"frizz_risk":1,"updated_at":"2026-07-01T10:53:26.301563+05:30"},{"city":"Dhanbad","state":"Jharkhand","latitude":23.7957,"longitude":86.4304,"temp":27.0,"humidity":93,"rain":0.0,"pressure":975.6,"uv_index":6.75,"wind_gusts":20.9,"aqi":162,"pm10":47.8,"pm2_5":47.4,"no2":35.3,"co":370.0,"o3":103.0,"so2":86.1,"mosquito_risk":7,"arthritis_risk":5,"migraine_risk":7,"frizz_risk":1,"updated_at":"2026-07-01T10:53:26.301570+05:30"},{"city":"Bokaro","state":"Jharkhand","latitude":23.6693,"longitude":86.1511,"temp":27.3,"humidity":88,"rain":0.1,"pressure":979.4,"uv_index":8.25,"wind_gusts":24.8,"aqi":155,"pm10":42.3,"pm2_5":41.9,"no2":39.3,"co":1498.0,"o3":99.0,"so2":94.9,"mosquito_risk":10,"arthritis_risk":5,"migraine_risk":7,"frizz_risk":1,"updated_at":"2026-07-01T10:53:26.301578+05:30"},{"city":"Bhubaneswar","state":"Odisha","latitude":20.2961,"longitude":85.8245,"temp":27.0,"humidity":92,"rain":0.2,"pressure":997.5,"uv_index":8.5,"wind_gusts":20.9,"aqi":67,"pm10":12.3,"pm2_5":12.0,"no2":5.1,"co":244.0,"o3":112.0,"so2":8.1,"mosquito_risk":10,"arthritis_risk":5,"migraine_risk":7,"frizz_risk":1,"updated_at":"2026-07-01T10:53:26.301585+05:30"},{"city":"Cuttack","state":"Odisha","latitude":20.4625,"longitude":85.8828,"temp":27.8,"humidity":87,"rain":0.1,"pressure":999.4,"uv_index":8.25,"wind_gusts":25.6,"aqi":67,"pm10":12.3,"pm2_5":12.0,"no2":5.1,"co":226.0,"o3":112.0,"so2":8.1,"mosquito_risk":10,"arthritis_risk":5,"migraine_risk":7,"frizz_risk":1,"updated_at":"2026-07-01T10:53:26.301592+05:30"},{"city":"Rourkela","state":"Odisha","latitude":22.2604,"longitude":84.8536,"temp":29.0,"humidity":75,"rain":0.0,"pressure":980.5,"uv_index":6.85,"wind_gusts":34.2,"aqi":58,"pm10":10.0,"pm2_5":9.9,"no2":4.2,"co":289.0,"o3":116.0,"so2":20.0,"mosquito_risk":7,"arthritis_risk":5,"migraine_risk":7,"frizz_risk":1,"updated_at":"2026-07-01T10:53:26.301599+05:30"},{"city":"Raipur","state":"Chhattisgarh","latitude":21.2514,"longitude":81.6296,"temp":27.6,"humidity":78,"rain":0.0,"pressure":970.4,"uv_index":6.9,"wind_gusts":27.7,"aqi":80,"pm10":23.7,"pm2_5":19.4,"no2":23.6,"co":209.0,"o3":54.0,"so2":54.8,"mosquito_risk":7,"arthritis_risk":5,"migraine_risk":7,"frizz_risk":1,"updated_at":"2026-07-01T10:53:26.301605+05:30"},{"city":"Bhilai","state":"Chhattisgarh","latitude":21.1938,"longitude":81.3509,"temp":27.2,"humidity":79,"rain":0.0,"pressure":970.9,"uv_index":4.6,"wind_gusts":27.4,"aqi":74,"pm10":21.8,"pm2_5":17.2,"no2":19.9,"co":362.0,"o3":61.0,"so2":48.3,"mosquito_risk":7,"arthritis_risk":5,"migraine_risk":3,"frizz_risk":1,"updated_at":"2026-07-01T10:53:26.301612+05:30"},{"city":"Guwahati","state":"Assam","latitude":26.1158,"longitude":91.7086,"temp":29.8,"humidity":82,"rain":0.0,"pressure":996.8,"uv_index":8.6,"wind_gusts":23.0,"aqi":54,"pm10":9.6,"pm2_5":9.4,"no2":2.2,"co":272.0,"o3":92.0,"so2":1.7,"mosquito_risk":7,"arthritis_risk":5,"migraine_risk":7,"frizz_risk":1,"updated_at":"2026-07-01T10:53:26.301619+05:30"},{"city":"Agartala","state":"Tripura","latitude":23.8315,"longitude":91.2868,"temp":29.4,"humidity":79,"rain":0.0,"pressure":1001.7,"uv_index":8.05,"wind_gusts":29.5,"aqi":65,"pm10":17.5,"pm2_5":16.8,"no2":3.8,"co":150.0,"o3":110.0,"so2":2.2,"mosquito_risk":7,"arthritis_risk":5,"migraine_risk":4,"frizz_risk":1,"updated_at":"2026-07-01T10:53:26.301628+05:30"},{"city":"Shillong","state":"Meghalaya","latitude":25.5788,"longitude":91.8933,"temp":21.9,"humidity":89,"rain":0.1,"pressure":855.4,"uv_index":6.05,"wind_gusts":24.1,"aqi":32,"pm10":4.8,"pm2_5":4.7,"no2":2.1,"co":172.0,"o3":79.0,"so2":1.6,"mosquito_risk":6,"arthritis_risk":5,"migraine_risk":7,"frizz_risk":1,"updated_at":"2026-07-01T10:53:26.301635+05:30"},{"city":"Imphal","state":"Manipur","latitude":24.817,"longitude":93.9368,"temp":26.9,"humidity":80,"rain":0.0,"pressure":920.2,"uv_index":7.2,"wind_gusts":27.4,"aqi":39,"pm10":2.5,"pm2_5":2.5,"no2":1.6,"co":191.0,"o3":75.0,"so2":1.2,"mosquito_risk":7,"arthritis_risk":5,"migraine_risk":7,"frizz_risk":1,"updated_at":"2026-07-01T10:53:26.301643+05:30"},{"city":"Aizawl","state":"Mizoram","latitude":23.7271,"longitude":92.7176,"temp":24.2,"humidity":76,"rain":0.1,"pressure":889.7,"uv_index":8.75,"wind_gusts":27.0,"aqi":26,"pm10":3.3,"pm2_5":3.2,"no2":1.0,"co":133.0,"o3":78.0,"so2":0.4,"mosquito_risk":6,"arthritis_risk":5,"migraine_risk":7,"frizz_risk":1,"updated_at":"2026-07-01T10:53:26.301650+05:30"},{"city":"Kohima","state":"Nagaland","latitude":25.6701,"longitude":94.1077,"temp":23.2,"humidity":85,"rain":0.0,"pressure":853.8,"uv_index":2.35,"wind_gusts":20.5,"aqi":29,"pm10":6.3,"pm2_5":6.2,"no2":1.6,"co":153.0,"o3":74.0,"so2":0.8,"mosquito_risk":3,"arthritis_risk":5,"migraine_risk":3,"frizz_risk":1,"updated_at":"2026-07-01T10:53:26.301658+05:30"},{"city":"Gangtok","state":"Sikkim","latitude":27.3314,"longitude":88.6138,"temp":21.0,"humidity":88,"rain":0.0,"pressure":837.1,"uv_index":8.75,"wind_gusts":28.1,"aqi":52,"pm10":15.2,"pm2_5":14.0,"no2":2.1,"co":277.0,"o3":113.0,"so2":1.3,"mosquito_risk":3,"arthritis_risk":5,"migraine_risk":7,"frizz_risk":1,"updated_at":"2026-07-01T10:53:26.301665+05:30"},{"city":"Siliguri","state":"West Bengal","latitude":26.7271,"longitude":88.3953,"temp":29.3,"humidity":85,"rain":0.1,"pressure":989.2,"uv_index":8.5,"wind_gusts":24.5,"aqi":100,"pm10":32.7,"pm2_5":29.2,"no2":2.0,"co":354.0,"o3":140.0,"so2":2.8,"mosquito_risk":10,"arthritis_risk":5,"migraine_risk":7,"frizz_risk":1,"updated_at":"2026-07-01T10:53:29.598353+05:30"},{"city":"Durgapur","state":"West Bengal","latitude":23.5204,"longitude":87.3119,"temp":30.6,"humidity":71,"rain":0.1,"pressure":990.1,"uv_index":8.45,"wind_gusts":25.9,"aqi":151,"pm10":36.4,"pm2_5":36.0,"no2":20.9,"co":391.0,"o3":118.0,"so2":53.1,"mosquito_risk":6,"arthritis_risk":5,"migraine_risk":7,"frizz_risk":1,"updated_at":"2026-07-01T10:53:29.598408+05:30"},{"city":"Asansol","state":"West Bengal","latitude":23.6739,"longitude":86.9524,"temp":29.5,"humidity":75,"rain":0.1,"pressure":988.9,"uv_index":7.05,"wind_gusts":25.6,"aqi":153,"pm10":43.1,"pm2_5":42.5,"no2":21.4,"co":410.0,"o3":114.0,"so2":54.8,"mosquito_risk":10,"arthritis_risk":5,"migraine_risk":7,"frizz_risk":1,"updated_at":"2026-07-01T10:53:29.598421+05:30"},{"city":"Pondicherry","state":"Puducherry","latitude":11.9139,"longitude":79.8145,"temp":32.6,"humidity":52,"rain":0.0,"pressure":1007.4,"uv_index":2.85,"wind_gusts":43.2,"aqi":51,"pm10":17.6,"pm2_5":13.6,"no2":6.9,"co":206.0,"o3":84.0,"so2":10.7,"mosquito_risk":0,"arthritis_risk":5,"migraine_risk":0,"frizz_risk":1,"updated_at":"2026-07-01T10:53:29.598431+05:30"},{"city":"Port Blair","state":"Andaman and Nicobar Islands","latitude":11.6234,"longitude":92.7265,"temp":26.9,"humidity":92,"rain":0.1,"pressure":1006.6,"uv_index":3.75,"wind_gusts":51.5,"aqi":32,"pm10":13.3,"pm2_5":7.9,"no2":0.3,"co":98.0,"o3":68.0,"so2":0.5,"mosquito_risk":10,"arthritis_risk":5,"migraine_risk":0,"frizz_risk":1,"updated_at":"2026-07-01T10:53:29.598440+05:30"},{"city":"Haridwar","state":"Uttarakhand","latitude":29.9457,"longitude":78.1642,"temp":29.3,"humidity":78,"rain":0.0,"pressure":970.3,"uv_index":7.5,"wind_gusts":24.5,"aqi":65,"pm10":50.2,"pm2_5":23.6,"no2":6.2,"co":225.0,"o3":103.0,"so2":10.3,"mosquito_risk":7,"arthritis_risk":5,"migraine_risk":7,"frizz_risk":1,"updated_at":"2026-07-01T10:53:29.598449+05:30"},{"city":"Rishikesh","state":"Uttarakhand","latitude":30.0869,"longitude":78.2676,"temp":26.5,"humidity":96,"rain":0.0,"pressure":963.0,"uv_index":7.55,"wind_gusts":14.8,"aqi":57,"pm10":33.4,"pm2_5":16.6,"no2":4.4,"co":204.0,"o3":107.0,"so2":6.0,"mosquito_risk":7,"arthritis_risk":5,"migraine_risk":7,"frizz_risk":1,"updated_at":"2026-07-01T10:53:29.598458+05:30"},{"city":"Nainital","state":"Uttarakhand","latitude":29.3919,"longitude":79.4542,"temp":19.4,"humidity":88,"rain":0.1,"pressure":804.7,"uv_index":6.85,"wind_gusts":23.4,"aqi":45,"pm10":40.9,"pm2_5":19.8,"no2":2.8,"co":198.0,"o3":121.0,"so2":2.2,"mosquito_risk":6,"arthritis_risk":10,"migraine_risk":7,"frizz_risk":1,"updated_at":"2026-07-01T10:53:29.598466+05:30"},{"city":"Mussoorie","state":"Uttarakhand","latitude":30.4599,"longitude":78.0664,"temp":18.2,"humidity":97,"rain":0.4,"pressure":801.6,"uv_index":6.95,"wind_gusts":22.7,"aqi":61,"pm10":18.9,"pm2_5":13.0,"no2":8.7,"co":251.0,"o3":91.0,"so2":6.4,"mosquito_risk":6,"arthritis_risk":10,"migraine_risk":7,"frizz_risk":1,"updated_at":"2026-07-01T10:53:29.598474+05:30"},{"city":"Dharamshala","state":"Himachal Pradesh","latitude":32.219,"longitude":76.3234,"temp":22.1,"humidity":94,"rain":0.2,"pressure":866.3,"uv_index":8.4,"wind_gusts":25.2,"aqi":41,"pm10":13.9,"pm2_5":9.0,"no2":2.0,"co":254.0,"o3":129.0,"so2":1.6,"mosquito_risk":6,"arthritis_risk":5,"migraine_risk":7,"frizz_risk":1,"updated_at":"2026-07-01T10:53:29.598482+05:30"},{"city":"Dalhousie","state":"Himachal Pradesh","latitude":32.5387,"longitude":75.971,"temp":19.3,"humidity":95,"rain":0.1,"pressure":803.1,"uv_index":8.35,"wind_gusts":22.3,"aqi":77,"pm10":47.6,"pm2_5":25.6,"no2":3.9,"co":270.0,"o3":144.0,"so2":2.7,"mosquito_risk":6,"arthritis_risk":10,"migraine_risk":7,"frizz_risk":1,"updated_at":"2026-07-01T10:53:29.598490+05:30"},{"city":"Patiala","state":"Punjab","latitude":30.3398,"longitude":76.3869,"temp":30.6,"humidity":70,"rain":0.0,"pressure":973.3,"uv_index":6.55,"wind_gusts":41.0,"aqi":377,"pm10":933.2,"pm2_5":123.9,"no2":5.7,"co":314.0,"o3":124.0,"so2":14.8,"mosquito_risk":3,"arthritis_risk":5,"migraine_risk":7,"frizz_risk":1,"updated_at":"2026-07-01T10:53:29.598498+05:30"},{"city":"Bhatinda","state":"Punjab","latitude":30.211,"longitude":74.9455,"temp":37.6,"humidity":39,"rain":0.0,"pressure":976.9,"uv_index":5.65,"wind_gusts":29.2,"aqi":698,"pm10":1519.9,"pm2_5":344.6,"no2":7.9,"co":272.0,"o3":158.0,"so2":20.4,"mosquito_risk":0,"arthritis_risk":5,"migraine_risk":6,"frizz_risk":1,"updated_at":"2026-07-01T10:53:29.598505+05:30"},{"city":"Rohtak","state":"Haryana","latitude":28.8955,"longitude":76.6066,"temp":29.6,"humidity":79,"rain":0.2,"pressure":977.0,"uv_index":6.0,"wind_gusts":29.5,"aqi":1372,"pm10":741.3,"pm2_5":128.1,"no2":12.4,"co":231.0,"o3":106.0,"so2":14.4,"mosquito_risk":10,"arthritis_risk":5,"migraine_risk":3,"frizz_risk":1,"updated_at":"2026-07-01T10:53:29.598514+05:30"},{"city":"Panipat","state":"Haryana","latitude":29.3909,"longitude":76.9635,"temp":31.7,"humidity":67,"rain":0.0,"pressure":975.8,"uv_index":5.55,"wind_gusts":30.6,"aqi":1843,"pm10":431.2,"pm2_5":81.7,"no2":18.3,"co":309.0,"o3":81.0,"so2":19.2,"mosquito_risk":3,"arthritis_risk":5,"migraine_risk":3,"frizz_risk":1,"updated_at":"2026-07-01T10:53:29.598522+05:30"},{"city":"Mathura","state":"Uttar Pradesh","latitude":27.4924,"longitude":77.6737,"temp":34.4,"humidity":56,"rain":0.0,"pressure":981.6,"uv_index":6.35,"wind_gusts":37.1,"aqi":607,"pm10":223.1,"pm2_5":41.0,"no2":5.4,"co":199.0,"o3":111.0,"so2":4.2,"mosquito_risk":0,"arthritis_risk":5,"migraine_risk":7,"frizz_risk":1,"updated_at":"2026-07-01T10:53:29.598530+05:30"},{"city":"Vrindavan","state":"Uttar Pradesh","latitude":27.5823,"longitude":77.7027,"temp":34.0,"humidity":57,"rain":0.0,"pressure":982.0,"uv_index":6.6,"wind_gusts":35.6,"aqi":607,"pm10":223.1,"pm2_5":41.0,"no2":5.4,"co":210.0,"o3":111.0,"so2":4.2,"mosquito_risk":0,"arthritis_risk":5,"migraine_risk":7,"frizz_risk":1,"updated_at":"2026-07-01T10:53:29.598537+05:30"},{"city":"Ayodhya","state":"Uttar Pradesh","latitude":26.7922,"longitude":82.1998,"temp":31.5,"humidity":74,"rain":0.0,"pressure":990.8,"uv_index":6.55,"wind_gusts":23.8,"aqi":100,"pm10":41.2,"pm2_5":35.4,"no2":3.6,"co":301.0,"o3":141.0,"so2":7.4,"mosquito_risk":3,"arthritis_risk":5,"migraine_risk":7,"frizz_risk":1,"updated_at":"2026-07-01T10:53:29.598544+05:30"},{"city":"Ratlam","state":"Madhya Pradesh","latitude":23.3315,"longitude":75.0367,"temp":31.3,"humidity":63,"rain":0.0,"pressure":950.7,"uv_index":7.2,"wind_gusts":31.7,"aqi":57,"pm10":27.1,"pm2_5":17.1,"no2":2.5,"co":138.0,"o3":81.0,"so2":8.7,"mosquito_risk":3,"arthritis_risk":5,"migraine_risk":7,"frizz_risk":1,"updated_at":"2026-07-01T10:53:29.598551+05:30"},{"city":"Sagar","state":"Madhya Pradesh","latitude":23.8388,"longitude":78.7378,"temp":31.0,"humidity":64,"rain":0.0,"pressure":946.3,"uv_index":8.55,"wind_gusts":34.9,"aqi":70,"pm10":32.7,"pm2_5":21.1,"no2":1.9,"co":191.0,"o3":103.0,"so2":3.6,"mosquito_risk":3,"arthritis_risk":5,"migraine_risk":7,"frizz_risk":1,"updated_at":"2026-07-01T10:53:29.598558+05:30"},{"city":"Satna","state":"Madhya Pradesh","latitude":24.6005,"longitude":80.8322,"temp":31.2,"humidity":66,"rain":0.0,"pressure":966.8,"uv_index":8.25,"wind_gusts":28.8,"aqi":70,"pm10":32.0,"pm2_5":20.3,"no2":2.3,"co":177.0,"o3":112.0,"so2":4.3,"mosquito_risk":3,"arthritis_risk":5,"migraine_risk":7,"frizz_risk":1,"updated_at":"2026-07-01T10:53:29.598566+05:30"},{"city":"Akola","state":"Maharashtra","latitude":20.7002,"longitude":77.0082,"temp":29.3,"humidity":74,"rain":0.0,"pressure":971.6,"uv_index":4.15,"wind_gusts":34.9,"aqi":52,"pm10":11.5,"pm2_5":8.5,"no2":5.1,"co":141.0,"o3":72.0,"so2":12.1,"mosquito_risk":7,"arthritis_risk":5,"migraine_risk":3,"frizz_risk":1,"updated_at":"2026-07-01T10:53:29.598574+05:30"},{"city":"Amravati","state":"Maharashtra","latitude":20.9374,"longitude":77.7796,"temp":27.9,"humidity":79,"rain":0.1,"pressure":963.9,"uv_index":5.75,"wind_gusts":30.2,"aqi":53,"pm10":11.6,"pm2_5":8.6,"no2":6.2,"co":159.0,"o3":69.0,"so2":14.0,"mosquito_risk":10,"arthritis_risk":5,"migraine_risk":3,"frizz_risk":1,"updated_at":"2026-07-01T10:53:29.598582+05:30"},{"city":"Latur","state":"Maharashtra","latitude":18.4088,"longitude":76.5604,"temp":26.6,"humidity":74,"rain":0.0,"pressure":937.4,"uv_index":5.85,"wind_gusts":47.2,"aqi":18,"pm10":3.7,"pm2_5":3.3,"no2":3.6,"co":117.0,"o3":45.0,"so2":1.2,"mosquito_risk":7,"arthritis_risk":5,"migraine_risk":3,"frizz_risk":1,"updated_at":"2026-07-01T10:53:29.598590+05:30"},{"city":"Nanded","state":"Maharashtra","latitude":19.1383,"longitude":77.3091,"temp":28.5,"humidity":74,"rain":0.0,"pressure":965.7,"uv_index":1.1,"wind_gusts":38.5,"aqi":41,"pm10":5.6,"pm2_5":5.2,"no2":6.0,"co":168.0,"o3":47.0,"so2":3.6,"mosquito_risk":7,"arthritis_risk":5,"migraine_risk":3,"frizz_risk":1,"updated_at":"2026-07-01T10:53:29.598597+05:30"},{"city":"Gulbarga","state":"Karnataka","latitude":17.3297,"longitude":76.8343,"temp":26.8,"humidity":73,"rain":0.1,"pressure":957.0,"uv_index":4.35,"wind_gusts":49.7,"aqi":17,"pm10":5.2,"pm2_5":4.0,"no2":6.5,"co":128.0,"o3":43.0,"so2":3.2,"mosquito_risk":10,"arthritis_risk":5,"migraine_risk":3,"frizz_risk":1,"updated_at":"2026-07-01T10:53:29.598604+05:30"},{"city":"Bidar","state":"Karnataka","latitude":17.9104,"longitude":77.5199,"temp":25.8,"humidity":80,"rain":0.1,"pressure":933.2,"uv_index":5.05,"wind_gusts":46.1,"aqi":20,"pm10":5.2,"pm2_5":4.6,"no2":8.6,"co":146.0,"o3":36.0,"so2":1.7,"mosquito_risk":10,"arthritis_risk":5,"migraine_risk":3,"frizz_risk":1,"updated_at":"2026-07-01T10:53:29.598611+05:30"},{"city":"Hospet","state":"Karnataka","latitude":15.2689,"longitude":76.3909,"temp":28.5,"humidity":61,"rain":0.0,"pressure":955.3,"uv_index":4.7,"wind_gusts":59.0,"aqi":20,"pm10":2.0,"pm2_5":1.6,"no2":2.8,"co":117.0,"o3":52.0,"so2":1.4,"mosquito_risk":7,"arthritis_risk":5,"migraine_risk":3,"frizz_risk":1,"updated_at":"2026-07-01T10:53:29.598618+05:30"},{"city":"Tirupur","state":"Tamil Nadu","latitude":11.1085,"longitude":77.3411,"temp":30.2,"humidity":57,"rain":0.0,"pressure":975.8,"uv_index":7.95,"wind_gusts":60.5,"aqi":44,"pm10":5.9,"pm2_5":4.9,"no2":5.4,"co":143.0,"o3":50.0,"so2":3.1,"mosquito_risk":0,"arthritis_risk":5,"migraine_risk":7,"frizz_risk":1,"updated_at":"2026-07-01T10:53:29.598625+05:30"},{"city":"Alappuzha","state":"Kerala","latitude":9.4981,"longitude":76.3388,"temp":26.4,"humidity":87,"rain":0.1,"pressure":1011.5,"uv_index":6.35,"wind_gusts":37.8,"aqi":47,"pm10":14.5,"pm2_5":8.5,"no2":3.7,"co":90.0,"o3":58.0,"so2":2.8,"mosquito_risk":10,"arthritis_risk":0,"migraine_risk":4,"frizz_risk":1,"updated_at":"2026-07-01T10:53:29.598632+05:30"},{"city":"Munnar","state":"Kerala","latitude":10.0889,"longitude":77.0595,"temp":18.8,"humidity":87,"rain":0.2,"pressure":858.4,"uv_index":4.6,"wind_gusts":51.5,"aqi":21,"pm10":5.2,"pm2_5":3.0,"no2":1.9,"co":96.0,"o3":50.0,"so2":1.1,"mosquito_risk":6,"arthritis_risk":10,"migraine_risk":3,"frizz_risk":1,"updated_at":"2026-07-01T10:53:29.598640+05:30"},{"city":"Silchar","state":"Assam","latitude":24.8333,"longitude":92.7789,"temp":30.1,"humidity":77,"rain":0.0,"pressure":1000.7,"uv_index":8.85,"wind_gusts":19.8,"aqi":60,"pm10":9.5,"pm2_5":9.3,"no2":1.4,"co":180.0,"o3":100.0,"so2":3.2,"mosquito_risk":3,"arthritis_risk":5,"migraine_risk":4,"frizz_risk":1,"updated_at":"2026-07-01T10:53:29.598647+05:30"},{"city":"Dibrugarh","state":"Assam","latitude":27.4728,"longitude":94.912,"temp":30.2,"humidity":74,"rain":0.0,"pressure":990.7,"uv_index":7.8,"wind_gusts":26.3,"aqi":76,"pm10":11.4,"pm2_5":10.9,"no2":1.3,"co":160.0,"o3":95.0,"so2":0.8,"mosquito_risk":3,"arthritis_risk":5,"migraine_risk":7,"frizz_risk":1,"updated_at":"2026-07-01T10:53:29.598653+05:30"}]