[{"city":"Delhi","state":"Delhi","latitude":28.6139,"longitude":77.209,"temp":30.2,"humidity":50,"rain":0.0,"pressure":976.8,"uv_index":7.8,"wind_gusts":35.3,"aqi":372,"pm10":175.1,"pm2_5":52.9,"no2":34.9,"co":338.0,"o3":33.0,"so2":13.7,"mosquito_risk":0,"arthritis_risk":5,"migraine_risk":7,"frizz_risk":1,"updated_at":"2026-06-23T03:34:46.110183+05:30"},{"city":"Mumbai","state":"Maharashtra","latitude":19.076,"longitude":72.8777,"temp":25.4,"humidity":94,"rain":0.3,"pressure":1005.1,"uv_index":1.3,"wind_gusts":35.3,"aqi":38,"pm10":8.1,"pm2_5":6.4,"no2":12.9,"co":137.0,"o3":38.0,"so2":11.0,"mosquito_risk":10,"arthritis_risk":5,"migraine_risk":0,"frizz_risk":1,"updated_at":"2026-06-23T03:34:46.110218+05:30"},{"city":"Bangalore","state":"Karnataka","latitude":12.9716,"longitude":77.5946,"temp":20.3,"humidity":96,"rain":0.0,"pressure":910.1,"uv_index":5.5,"wind_gusts":52.2,"aqi":24,"pm10":3.5,"pm2_5":3.2,"no2":7.4,"co":167.0,"o3":36.0,"so2":3.6,"mosquito_risk":3,"arthritis_risk":5,"migraine_risk":3,"frizz_risk":1,"updated_at":"2026-06-23T03:34:46.110233+05:30"},{"city":"Hyderabad","state":"Telangana","latitude":17.385,"longitude":78.4867,"temp":27.6,"humidity":64,"rain":0.0,"pressure":950.9,"uv_index":3.1,"wind_gusts":48.2,"aqi":38,"pm10":8.7,"pm2_5":7.9,"no2":12.7,"co":147.0,"o3":37.0,"so2":5.0,"mosquito_risk":7,"arthritis_risk":5,"migraine_risk":3,"frizz_risk":1,"updated_at":"2026-06-23T03:34:46.110242+05:30"},{"city":"Chennai","state":"Tamil Nadu","latitude":13.0827,"longitude":80.2707,"temp":27.8,"humidity":80,"rain":0.0,"pressure":1004.8,"uv_index":6.35,"wind_gusts":37.1,"aqi":58,"pm10":9.3,"pm2_5":9.1,"no2":15.0,"co":185.0,"o3":44.0,"so2":9.0,"mosquito_risk":7,"arthritis_risk":5,"migraine_risk":4,"frizz_risk":1,"updated_at":"2026-06-23T03:34:46.110250+05:30"},{"city":"Kolkata","state":"West Bengal","latitude":22.5726,"longitude":88.3639,"temp":27.3,"humidity":93,"rain":0.0,"pressure":999.4,"uv_index":8.5,"wind_gusts":26.3,"aqi":118,"pm10":54.4,"pm2_5":51.3,"no2":18.3,"co":373.0,"o3":61.0,"so2":12.2,"mosquito_risk":7,"arthritis_risk":5,"migraine_risk":7,"frizz_risk":1,"updated_at":"2026-06-23T03:34:46.110258+05:30"},{"city":"Pune","state":"Maharashtra","latitude":18.5204,"longitude":73.8567,"temp":24.1,"humidity":86,"rain":0.0,"pressure":945.1,"uv_index":3.1,"wind_gusts":36.4,"aqi":24,"pm10":6.1,"pm2_5":5.4,"no2":11.1,"co":110.0,"o3":29.0,"so2":5.8,"mosquito_risk":3,"arthritis_risk":5,"migraine_risk":3,"frizz_risk":1,"updated_at":"2026-06-23T03:34:46.110265+05:30"},{"city":"Ahmedabad","state":"Gujarat","latitude":23.0225,"longitude":72.5714,"temp":30.0,"humidity":72,"rain":0.0,"pressure":997.4,"uv_index":8.05,"wind_gusts":42.1,"aqi":65,"pm10":34.1,"pm2_5":15.7,"no2":8.0,"co":161.0,"o3":35.0,"so2":4.2,"mosquito_risk":7,"arthritis_risk":5,"migraine_risk":7,"frizz_risk":1,"updated_at":"2026-06-23T03:34:46.110271+05:30"},{"city":"Jaipur","state":"Rajasthan","latitude":26.9124,"longitude":75.7873,"temp":27.8,"humidity":57,"rain":0.0,"pressure":954.2,"uv_index":8.2,"wind_gusts":35.6,"aqi":142,"pm10":107.6,"pm2_5":47.4,"no2":20.4,"co":271.0,"o3":34.0,"so2":7.9,"mosquito_risk":4,"arthritis_risk":5,"migraine_risk":7,"frizz_risk":1,"updated_at":"2026-06-23T03:34:46.110278+05:30"},{"city":"Lucknow","state":"Uttar Pradesh","latitude":26.8467,"longitude":80.9462,"temp":31.5,"humidity":48,"rain":0.0,"pressure":986.7,"uv_index":8.3,"wind_gusts":40.3,"aqi":157,"pm10":156.5,"pm2_5":62.9,"no2":19.9,"co":307.0,"o3":69.0,"so2":11.9,"mosquito_risk":0,"arthritis_risk":5,"migraine_risk":7,"frizz_risk":1,"updated_at":"2026-06-23T03:34:46.110289+05:30"},{"city":"Kanpur","state":"Uttar Pradesh","latitude":26.4499,"longitude":80.3319,"temp":31.6,"humidity":45,"rain":0.0,"pressure":985.3,"uv_index":8.25,"wind_gusts":43.6,"aqi":218,"pm10":322.2,"pm2_5":83.8,"no2":23.1,"co":280.0,"o3":54.0,"so2":9.3,"mosquito_risk":0,"arthritis_risk":5,"migraine_risk":7,"frizz_risk":1,"updated_at":"2026-06-23T03:34:46.110295+05:30"},{"city":"Chandigarh","state":"Chandigarh","latitude":30.7333,"longitude":76.7794,"temp":26.4,"humidity":56,"rain":0.0,"pressure":962.4,"uv_index":7.8,"wind_gusts":36.0,"aqi":96,"pm10":43.2,"pm2_5":40.0,"no2":38.1,"co":533.0,"o3":26.0,"so2":9.5,"mosquito_risk":4,"arthritis_risk":5,"migraine_risk":7,"frizz_risk":1,"updated_at":"2026-06-23T03:34:46.110302+05:30"},{"city":"Srinagar","state":"Jammu and Kashmir","latitude":34.0837,"longitude":74.7973,"temp":14.5,"humidity":99,"rain":0.0,"pressure":838.5,"uv_index":9.1,"wind_gusts":18.7,"aqi":73,"pm10":31.5,"pm2_5":30.5,"no2":21.2,"co":624.0,"o3":11.0,"so2":1.0,"mosquito_risk":3,"arthritis_risk":10,"migraine_risk":7,"frizz_risk":0,"updated_at":"2026-06-23T03:34:46.110309+05:30"},{"city":"Jammu","state":"Jammu and Kashmir","latitude":32.7266,"longitude":74.857,"temp":25.4,"humidity":56,"rain":0.0,"pressure":966.3,"uv_index":8.65,"wind_gusts":35.6,"aqi":81,"pm10":36.9,"pm2_5":35.3,"no2":47.0,"co":469.0,"o3":0.0,"so2":2.6,"mosquito_risk":4,"arthritis_risk":5,"migraine_risk":7,"frizz_risk":0,"updated_at":"2026-06-23T03:34:46.110316+05:30"},{"city":"Amritsar","state":"Punjab","latitude":31.634,"longitude":74.8723,"temp":26.3,"humidity":73,"rain":0.0,"pressure":974.5,"uv_index":8.5,"wind_gusts":18.4,"aqi":130,"pm10":85.4,"pm2_5":72.4,"no2":69.5,"co":513.0,"o3":7.0,"so2":13.5,"mosquito_risk":7,"arthritis_risk":5,"migraine_risk":7,"frizz_risk":1,"updated_at":"2026-06-23T03:34:46.110322+05:30"},{"city":"Ludhiana","state":"Punjab","latitude":30.901,"longitude":75.8573,"temp":27.4,"humidity":65,"rain":0.0,"pressure":972.7,"uv_index":8.05,"wind_gusts":32.4,"aqi":116,"pm10":65.9,"pm2_5":49.6,"no2":31.6,"co":335.0,"o3":41.0,"so2":6.4,"mosquito_risk":7,"arthritis_risk":5,"migraine_risk":7,"frizz_risk":1,"updated_at":"2026-06-23T03:34:46.110328+05:30"},{"city":"Jalandhar","state":"Punjab","latitude":31.326,"longitude":75.5762,"temp":27.7,"humidity":64,"rain":0.0,"pressure":973.7,"uv_index":8.25,"wind_gusts":27.7,"aqi":126,"pm10":74.7,"pm2_5":60.3,"no2":51.1,"co":389.0,"o3":16.0,"so2":6.8,"mosquito_risk":7,"arthritis_risk":5,"migraine_risk":7,"frizz_risk":1,"updated_at":"2026-06-23T03:34:46.110334+05:30"},{"city":"Dehradun","state":"Uttarakhand","latitude":30.6284,"longitude":78.0322,"temp":14.9,"humidity":93,"rain":0.0,"pressure":824.6,"uv_index":6.4,"wind_gusts":32.4,"aqi":63,"pm10":34.7,"pm2_5":23.7,"no2":27.5,"co":308.0,"o3":27.0,"so2":0.8,"mosquito_risk":3,"arthritis_risk":10,"migraine_risk":7,"frizz_risk":0,"updated_at":"2026-06-23T03:34:46.110340+05:30"},{"city":"Shimla","state":"Himachal Pradesh","latitude":31.1048,"longitude":77.1734,"temp":12.8,"humidity":72,"rain":0.0,"pressure":778.8,"uv_index":8.35,"wind_gusts":40.3,"aqi":70,"pm10":24.2,"pm2_5":19.0,"no2":17.7,"co":195.0,"o3":51.0,"so2":1.2,"mosquito_risk":3,"arthritis_risk":5,"migraine_risk":7,"frizz_risk":0,"updated_at":"2026-06-23T03:34:46.110346+05:30"},{"city":"Manali","state":"Himachal Pradesh","latitude":32.2396,"longitude":77.1887,"temp":13.5,"humidity":71,"rain":0.0,"pressure":813.0,"uv_index":9.65,"wind_gusts":36.4,"aqi":39,"pm10":4.3,"pm2_5":3.9,"no2":13.3,"co":178.0,"o3":128.0,"so2":0.0,"mosquito_risk":3,"arthritis_risk":5,"migraine_risk":7,"frizz_risk":0,"updated_at":"2026-06-23T03:34:46.110355+05:30"},{"city":"Gurgaon","state":"Haryana","latitude":28.4595,"longitude":77.0266,"temp":27.7,"humidity":61,"rain":0.0,"pressure":975.3,"uv_index":7.85,"wind_gusts":47.9,"aqi":655,"pm10":214.2,"pm2_5":63.1,"no2":33.0,"co":188.0,"o3":34.0,"so2":11.7,"mosquito_risk":7,"arthritis_risk":5,"migraine_risk":7,"frizz_risk":1,"updated_at":"2026-06-23T03:34:46.110361+05:30"},{"city":"Noida","state":"Uttar Pradesh","latitude":28.5355,"longitude":77.391,"temp":29.0,"humidity":58,"rain":0.0,"pressure":978.2,"uv_index":7.8,"wind_gusts":27.7,"aqi":655,"pm10":214.2,"pm2_5":63.1,"no2":33.0,"co":376.0,"o3":34.0,"so2":11.7,"mosquito_risk":4,"arthritis_risk":5,"migraine_risk":7,"frizz_risk":1,"updated_at":"2026-06-23T03:34:46.110369+05:30"},{"city":"Ghaziabad","state":"Uttar Pradesh","latitude":28.6692,"longitude":77.4538,"temp":28.3,"humidity":58,"rain":0.0,"pressure":976.5,"uv_index":7.8,"wind_gusts":29.2,"aqi":307,"pm10":156.9,"pm2_5":53.2,"no2":38.2,"co":384.0,"o3":33.0,"so2":18.6,"mosquito_risk":4,"arthritis_risk":5,"migraine_risk":7,"frizz_risk":1,"updated_at":"2026-06-23T03:34:46.110376+05:30"},{"city":"Faridabad","state":"Haryana","latitude":28.4089,"longitude":77.3178,"temp":29.7,"humidity":52,"rain":0.0,"pressure":977.6,"uv_index":7.85,"wind_gusts":41.0,"aqi":655,"pm10":214.2,"pm2_5":63.1,"no2":33.0,"co":257.0,"o3":34.0,"so2":11.7,"mosquito_risk":4,"arthritis_risk":5,"migraine_risk":7,"frizz_risk":1,"updated_at":"2026-06-23T03:34:46.110382+05:30"},{"city":"Meerut","state":"Uttar Pradesh","latitude":28.9845,"longitude":77.7064,"temp":28.4,"humidity":58,"rain":0.0,"pressure":975.3,"uv_index":7.7,"wind_gusts":34.9,"aqi":307,"pm10":156.9,"pm2_5":53.2,"no2":38.2,"co":376.0,"o3":33.0,"so2":18.6,"mosquito_risk":4,"arthritis_risk":5,"migraine_risk":7,"frizz_risk":1,"updated_at":"2026-06-23T03:34:46.110388+05:30"},{"city":"Agra","state":"Uttar Pradesh","latitude":27.1767,"longitude":78.0081,"temp":30.2,"humidity":55,"rain":0.0,"pressure":981.6,"uv_index":8.1,"wind_gusts":33.1,"aqi":731,"pm10":191.4,"pm2_5":50.8,"no2":25.8,"co":358.0,"o3":30.0,"so2":5.5,"mosquito_risk":0,"arthritis_risk":5,"migraine_risk":7,"frizz_risk":1,"updated_at":"2026-06-23T03:34:46.110394+05:30"},{"city":"Varanasi","state":"Uttar Pradesh","latitude":25.3176,"longitude":82.9739,"temp":30.4,"humidity":64,"rain":0.0,"pressure":990.2,"uv_index":8.75,"wind_gusts":41.8,"aqi":112,"pm10":44.8,"pm2_5":32.6,"no2":15.2,"co":386.0,"o3":48.0,"so2":6.6,"mosquito_risk":3,"arthritis_risk":5,"migraine_risk":7,"frizz_risk":1,"updated_at":"2026-06-23T03:34:46.110401+05:30"},{"city":"Prayagraj","state":"Uttar Pradesh","latitude":25.4358,"longitude":81.8463,"temp":32.0,"humidity":47,"rain":0.0,"pressure":989.0,"uv_index":8.7,"wind_gusts":41.4,"aqi":119,"pm10":83.8,"pm2_5":51.8,"no2":38.3,"co":196.0,"o3":21.0,"so2":9.5,"mosquito_risk":0,"arthritis_risk":5,"migraine_risk":7,"frizz_risk":1,"updated_at":"2026-06-23T03:34:46.110407+05:30"},{"city":"Gorakhpur","state":"Uttar Pradesh","latitude":26.7606,"longitude":83.3732,"temp":28.3,"humidity":84,"rain":0.0,"pressure":990.4,"uv_index":8.3,"wind_gusts":37.1,"aqi":162,"pm10":110.6,"pm2_5":82.9,"no2":20.6,"co":650.0,"o3":85.0,"so2":13.7,"mosquito_risk":7,"arthritis_risk":5,"migraine_risk":7,"frizz_risk":1,"updated_at":"2026-06-23T03:34:46.110414+05:30"},{"city":"Bareilly","state":"Uttar Pradesh","latitude":28.367,"longitude":79.4304,"temp":29.4,"humidity":55,"rain":0.0,"pressure":980.2,"uv_index":8.1,"wind_gusts":32.8,"aqi":161,"pm10":236.6,"pm2_5":79.2,"no2":26.6,"co":374.0,"o3":49.0,"so2":14.0,"mosquito_risk":4,"arthritis_risk":5,"migraine_risk":7,"frizz_risk":1,"updated_at":"2026-06-23T03:34:46.110425+05:30"},{"city":"Aligarh","state":"Uttar Pradesh","latitude":27.8974,"longitude":78.088,"temp":28.7,"humidity":55,"rain":0.0,"pressure":979.3,"uv_index":7.95,"wind_gusts":31.7,"aqi":520,"pm10":329.7,"pm2_5":77.5,"no2":27.9,"co":352.0,"o3":37.0,"so2":8.9,"mosquito_risk":4,"arthritis_risk":5,"migraine_risk":7,"frizz_risk":1,"updated_at":"2026-06-23T03:34:46.110432+05:30"},{"city":"Moradabad","state":"Uttar Pradesh","latitude":28.8386,"longitude":78.7733,"temp":28.8,"humidity":56,"rain":0.0,"pressure":977.2,"uv_index":7.95,"wind_gusts":37.8,"aqi":167,"pm10":310.1,"pm2_5":94.3,"no2":25.6,"co":434.0,"o3":45.0,"so2":14.2,"mosquito_risk":4,"arthritis_risk":5,"migraine_risk":7,"frizz_risk":1,"updated_at":"2026-06-23T03:34:46.110438+05:30"},{"city":"Saharanpur","state":"Uttar Pradesh","latitude":29.9637,"longitude":77.546,"temp":26.2,"humidity":67,"rain":0.0,"pressure":969.4,"uv_index":7.45,"wind_gusts":34.2,"aqi":158,"pm10":436.8,"pm2_5":131.3,"no2":42.7,"co":398.0,"o3":30.0,"so2":11.3,"mosquito_risk":7,"arthritis_risk":5,"migraine_risk":7,"frizz_risk":1,"updated_at":"2026-06-23T03:34:46.110444+05:30"},{"city":"Jhansi","state":"Uttar Pradesh","latitude":25.4484,"longitude":78.5685,"temp":29.5,"humidity":58,"rain":0.0,"pressure":972.4,"uv_index":8.45,"wind_gusts":37.1,"aqi":91,"pm10":57.9,"pm2_5":32.9,"no2":7.5,"co":178.0,"o3":67.0,"so2":7.5,"mosquito_risk":4,"arthritis_risk":5,"migraine_risk":7,"frizz_risk":1,"updated_at":"2026-06-23T03:34:49.471295+05:30"},{"city":"Surat","state":"Gujarat","latitude":21.1702,"longitude":72.8311,"temp":25.4,"humidity":95,"rain":0.2,"pressure":1002.6,"uv_index":6.35,"wind_gusts":41.8,"aqi":60,"pm10":26.7,"pm2_5":18.2,"no2":25.1,"co":294.0,"o3":22.0,"so2":36.6,"mosquito_risk":10,"arthritis_risk":5,"migraine_risk":4,"frizz_risk":1,"updated_at":"2026-06-23T03:34:49.471316+05:30"},{"city":"Vadodara","state":"Gujarat","latitude":22.3072,"longitude":73.1812,"temp":29.0,"humidity":80,"rain":0.0,"pressure":999.9,"uv_index":8.0,"wind_gusts":44.3,"aqi":53,"pm10":16.9,"pm2_5":12.3,"no2":17.5,"co":123.0,"o3":25.0,"so2":17.4,"mosquito_risk":7,"arthritis_risk":5,"migraine_risk":7,"frizz_risk":1,"updated_at":"2026-06-23T03:34:49.471326+05:30"},{"city":"Rajkot","state":"Gujarat","latitude":22.3039,"longitude":70.8022,"temp":28.1,"humidity":77,"rain":0.0,"pressure":989.7,"uv_index":7.55,"wind_gusts":44.3,"aqi":68,"pm10":41.6,"pm2_5":16.1,"no2":5.7,"co":102.0,"o3":39.0,"so2":5.3,"mosquito_risk":7,"arthritis_risk":5,"migraine_risk":7,"frizz_risk":1,"updated_at":"2026-06-23T03:34:49.471333+05:30"},{"city":"Thane","state":"Maharashtra","latitude":19.2183,"longitude":72.9781,"temp":25.0,"humidity":97,"rain":0.3,"pressure":1004.5,"uv_index":1.25,"wind_gusts":31.0,"aqi":38,"pm10":8.1,"pm2_5":6.4,"no2":12.9,"co":140.0,"o3":38.0,"so2":11.0,"mosquito_risk":10,"arthritis_risk":5,"migraine_risk":0,"frizz_risk":1,"updated_at":"2026-06-23T03:34:49.471341+05:30"},{"city":"Nagpur","state":"Maharashtra","latitude":21.1458,"longitude":79.0882,"temp":26.7,"humidity":77,"rain":0.0,"pressure":970.1,"uv_index":7.3,"wind_gusts":54.0,"aqi":66,"pm10":8.0,"pm2_5":7.7,"no2":11.7,"co":185.0,"o3":60.0,"so2":11.2,"mosquito_risk":7,"arthritis_risk":5,"migraine_risk":7,"frizz_risk":1,"updated_at":"2026-06-23T03:34:49.471348+05:30"},{"city":"Nashik","state":"Maharashtra","latitude":19.9975,"longitude":73.7898,"temp":23.0,"humidity":96,"rain":0.0,"pressure":942.2,"uv_index":7.45,"wind_gusts":38.2,"aqi":25,"pm10":8.2,"pm2_5":6.9,"no2":12.8,"co":129.0,"o3":36.0,"so2":15.2,"mosquito_risk":3,"arthritis_risk":5,"migraine_risk":7,"frizz_risk":1,"updated_at":"2026-06-23T03:34:49.471355+05:30"},{"city":"Aurangabad","state":"Maharashtra","latitude":19.8762,"longitude":75.3433,"temp":25.1,"humidity":83,"rain":0.0,"pressure":941.1,"uv_index":7.55,"wind_gusts":32.0,"aqi":32,"pm10":5.1,"pm2_5":5.0,"no2":9.1,"co":145.0,"o3":50.0,"so2":8.1,"mosquito_risk":7,"arthritis_risk":5,"migraine_risk":7,"frizz_risk":1,"updated_at":"2026-06-23T03:34:49.471361+05:30"},{"city":"Solapur","state":"Maharashtra","latitude":17.6599,"longitude":75.9064,"temp":26.6,"humidity":72,"rain":0.0,"pressure":955.3,"uv_index":6.55,"wind_gusts":56.9,"aqi":23,"pm10":5.0,"pm2_5":4.0,"no2":4.3,"co":132.0,"o3":39.0,"so2":1.5,"mosquito_risk":7,"arthritis_risk":5,"migraine_risk":7,"frizz_risk":1,"updated_at":"2026-06-23T03:34:49.471368+05:30"},{"city":"Kolhapur","state":"Maharashtra","latitude":16.705,"longitude":74.2433,"temp":23.9,"humidity":87,"rain":0.0,"pressure":945.4,"uv_index":6.0,"wind_gusts":56.9,"aqi":19,"pm10":3.3,"pm2_5":2.9,"no2":3.9,"co":128.0,"o3":39.0,"so2":1.5,"mosquito_risk":3,"arthritis_risk":5,"migraine_risk":3,"frizz_risk":1,"updated_at":"2026-06-23T03:34:49.471375+05:30"},{"city":"Goa","state":"Goa","latitude":15.2993,"longitude":74.124,"temp":23.8,"humidity":99,"rain":0.0,"pressure":997.2,"uv_index":3.8,"wind_gusts":35.3,"aqi":25,"pm10":12.6,"pm2_5":7.2,"no2":1.8,"co":123.0,"o3":46.0,"so2":0.5,"mosquito_risk":3,"arthritis_risk":5,"migraine_risk":3,"frizz_risk":1,"updated_at":"2026-06-23T03:34:49.471381+05:30"},{"city":"Jodhpur","state":"Rajasthan","latitude":26.2389,"longitude":73.0243,"temp":30.8,"humidity":48,"rain":0.0,"pressure":977.0,"uv_index":8.4,"wind_gusts":37.1,"aqi":129,"pm10":132.2,"pm2_5":37.6,"no2":8.3,"co":125.0,"o3":42.0,"so2":2.0,"mosquito_risk":0,"arthritis_risk":5,"migraine_risk":7,"frizz_risk":1,"updated_at":"2026-06-23T03:34:49.471387+05:30"},{"city":"Udaipur","state":"Rajasthan","latitude":24.5854,"longitude":73.7125,"temp":25.7,"humidity":75,"rain":0.0,"pressure":942.1,"uv_index":8.8,"wind_gusts":35.6,"aqi":69,"pm10":15.8,"pm2_5":11.9,"no2":13.2,"co":151.0,"o3":40.0,"so2":15.1,"mosquito_risk":7,"arthritis_risk":5,"migraine_risk":7,"frizz_risk":1,"updated_at":"2026-06-23T03:34:49.471394+05:30"},{"city":"Kota","state":"Rajasthan","latitude":25.2138,"longitude":75.8648,"temp":29.4,"humidity":58,"rain":0.0,"pressure":973.4,"uv_index":8.3,"wind_gusts":34.6,"aqi":87,"pm10":42.5,"pm2_5":24.3,"no2":8.9,"co":172.0,"o3":51.0,"so2":4.7,"mosquito_risk":4,"arthritis_risk":5,"migraine_risk":7,"frizz_risk":1,"updated_at":"2026-06-23T03:34:49.471400+05:30"},{"city":"Bikaner","state":"Rajasthan","latitude":28.0229,"longitude":73.3119,"temp":30.7,"humidity":45,"rain":0.0,"pressure":975.4,"uv_index":8.5,"wind_gusts":35.3,"aqi":142,"pm10":173.7,"pm2_5":45.5,"no2":4.3,"co":128.0,"o3":50.0,"so2":2.5,"mosquito_risk":0,"arthritis_risk":5,"migraine_risk":7,"frizz_risk":1,"updated_at":"2026-06-23T03:34:49.471406+05:30"},{"city":"Ajmer","state":"Rajasthan","latitude":26.4499,"longitude":74.6399,"temp":27.4,"humidity":52,"rain":0.0,"pressure":949.2,"uv_index":8.35,"wind_gusts":45.7,"aqi":96,"pm10":48.2,"pm2_5":25.4,"no2":13.2,"co":169.0,"o3":38.0,"so2":4.2,"mosquito_risk":4,"arthritis_risk":5,"migraine_risk":7,"frizz_risk":1,"updated_at":"2026-06-23T03:34:49.471412+05:30"},{"city":"Gwalior","state":"Madhya Pradesh","latitude":26.2183,"longitude":78.1828,"temp":29.1,"humidity":52,"rain":0.0,"pressure":977.2,"uv_index":8.25,"wind_gusts":42.1,"aqi":104,"pm10":83.1,"pm2_5":39.6,"no2":15.4,"co":160.0,"o3":36.0,"so2":3.4,"mosquito_risk":4,"arthritis_risk":5,"migraine_risk":7,"frizz_risk":1,"updated_at":"2026-06-23T03:34:49.471419+05:30"},{"city":"Indore","state":"Madhya Pradesh","latitude":22.7196,"longitude":75.8577,"temp":26.6,"humidity":72,"rain":0.0,"pressure":944.5,"uv_index":7.85,"wind_gusts":38.2,"aqi":61,"pm10":15.3,"pm2_5":14.4,"no2":8.9,"co":191.0,"o3":57.0,"so2":7.1,"mosquito_risk":7,"arthritis_risk":5,"migraine_risk":7,"frizz_risk":1,"updated_at":"2026-06-23T03:34:49.471425+05:30"},{"city":"Bhopal","state":"Madhya Pradesh","latitude":23.2599,"longitude":77.4126,"temp":25.8,"humidity":75,"rain":0.0,"pressure":949.8,"uv_index":7.6,"wind_gusts":38.2,"aqi":71,"pm10":17.5,"pm2_5":13.8,"no2":6.9,"co":245.0,"o3":53.0,"so2":3.1,"mosquito_risk":7,"arthritis_risk":5,"migraine_risk":7,"frizz_risk":1,"updated_at":"2026-06-23T03:34:49.471431+05:30"},{"city":"Jabalpur","state":"Madhya Pradesh","latitude":23.1815,"longitude":79.9864,"temp":28.4,"humidity":61,"rain":0.0,"pressure":957.4,"uv_index":8.3,"wind_gusts":34.6,"aqi":89,"pm10":26.0,"pm2_5":21.1,"no2":11.7,"co":208.0,"o3":45.0,"so2":3.8,"mosquito_risk":7,"arthritis_risk":5,"migraine_risk":7,"frizz_risk":1,"updated_at":"2026-06-23T03:34:49.471437+05:30"},{"city":"Ujjain","state":"Madhya Pradesh","latitude":23.1765,"longitude":75.7885,"temp":27.4,"humidity":66,"rain":0.0,"pressure":950.1,"uv_index":6.7,"wind_gusts":35.6,"aqi":63,"pm10":16.1,"pm2_5":15.0,"no2":6.7,"co":240.0,"o3":63.0,"so2":8.4,"mosquito_risk":7,"arthritis_risk":5,"migraine_risk":7,"frizz_risk":1,"updated_at":"2026-06-23T03:34:49.471443+05:30"},{"city":"Visakhapatnam","state":"Andhra Pradesh","latitude":17.6868,"longitude":83.2185,"temp":28.5,"humidity":85,"rain":0.0,"pressure":999.2,"uv_index":8.5,"wind_gusts":32.4,"aqi":91,"pm10":30.2,"pm2_5":27.5,"no2":16.9,"co":345.0,"o3":71.0,"so2":30.4,"mosquito_risk":7,"arthritis_risk":5,"migraine_risk":7,"frizz_risk":1,"updated_at":"2026-06-23T03:34:49.471450+05:30"},{"city":"Vijayawada","state":"Andhra Pradesh","latitude":16.5062,"longitude":80.648,"temp":27.5,"humidity":77,"rain":0.0,"pressure":999.3,"uv_index":3.45,"wind_gusts":38.5,"aqi":83,"pm10":24.5,"pm2_5":23.6,"no2":9.9,"co":236.0,"o3":73.0,"so2":4.5,"mosquito_risk":7,"arthritis_risk":5,"migraine_risk":3,"frizz_risk":1,"updated_at":"2026-06-23T03:34:49.471456+05:30"},{"city":"Guntur","state":"Andhra Pradesh","latitude":16.3067,"longitude":80.4365,"temp":27.4,"humidity":77,"rain":0.0,"pressure":1000.6,"uv_index":1.5,"wind_gusts":39.2,"aqi":77,"pm10":21.3,"pm2_5":20.7,"no2":10.8,"co":247.0,"o3":62.0,"so2":4.5,"mosquito_risk":7,"arthritis_risk":5,"migraine_risk":0,"frizz_risk":1,"updated_at":"2026-06-23T03:34:49.471462+05:30"},{"city":"Nellore","state":"Andhra Pradesh","latitude":14.4426,"longitude":79.9865,"temp":26.3,"humidity":86,"rain":0.0,"pressure":1003.2,"uv_index":5.6,"wind_gusts":37.1,"aqi":62,"pm10":7.9,"pm2_5":7.5,"no2":7.0,"co":120.0,"o3":56.0,"so2":3.2,"mosquito_risk":7,"arthritis_risk":5,"migraine_risk":0,"frizz_risk":1,"updated_at":"2026-06-23T03:34:49.471469+05:30"},{"city":"Kurnool","state":"Andhra Pradesh","latitude":15.8281,"longitude":78.0373,"temp":27.2,"humidity":70,"rain":0.0,"pressure":975.5,"uv_index":4.55,"wind_gusts":46.1,"aqi":26,"pm10":6.1,"pm2_5":5.3,"no2":10.6,"co":156.0,"o3":29.0,"so2":3.9,"mosquito_risk":7,"arthritis_risk":5,"migraine_risk":3,"frizz_risk":1,"updated_at":"2026-06-23T03:34:49.471476+05:30"},{"city":"Kakinada","state":"Andhra Pradesh","latitude":16.9891,"longitude":82.2475,"temp":28.6,"humidity":82,"rain":0.0,"pressure":1003.6,"uv_index":8.05,"wind_gusts":42.1,"aqi":78,"pm10":22.2,"pm2_5":19.2,"no2":5.1,"co":197.0,"o3":99.0,"so2":6.5,"mosquito_risk":7,"arthritis_risk":5,"migraine_risk":4,"frizz_risk":1,"updated_at":"2026-06-23T03:34:49.471482+05:30"},{"city":"Tirupati","state":"Andhra Pradesh","latitude":13.6288,"longitude":79.4192,"temp":25.6,"humidity":85,"rain":0.0,"pressure":988.8,"uv_index":6.55,"wind_gusts":37.8,"aqi":59,"pm10":8.7,"pm2_5":8.2,"no2":14.8,"co":160.0,"o3":31.0,"so2":2.6,"mosquito_risk":7,"arthritis_risk":5,"migraine_risk":7,"frizz_risk":1,"updated_at":"2026-06-23T03:34:49.471488+05:30"},{"city":"Warangal","state":"Telangana","latitude":17.9689,"longitude":79.5941,"temp":24.5,"humidity":93,"rain":0.0,"pressure":976.3,"uv_index":3.9,"wind_gusts":37.1,"aqi":54,"pm10":13.2,"pm2_5":12.9,"no2":10.9,"co":222.0,"o3":52.0,"so2":4.0,"mosquito_risk":3,"arthritis_risk":5,"migraine_risk":3,"frizz_risk":1,"updated_at":"2026-06-23T03:34:49.471494+05:30"},{"city":"Nizamabad","state":"Telangana","latitude":18.6725,"longitude":78.0941,"temp":25.8,"humidity":81,"rain":0.0,"pressure":962.2,"uv_index":8.8,"wind_gusts":59.0,"aqi":31,"pm10":9.0,"pm2_5":8.8,"no2":10.1,"co":154.0,"o3":45.0,"so2":3.4,"mosquito_risk":7,"arthritis_risk":5,"migraine_risk":7,"frizz_risk":1,"updated_at":"2026-06-23T03:34:49.471500+05:30"},{"city":"Mysore","state":"Karnataka","latitude":12.2958,"longitude":76.6396,"temp":21.3,"humidity":94,"rain":0.0,"pressure":927.7,"uv_index":7.1,"wind_gusts":47.2,"aqi":19,"pm10":2.0,"pm2_5":1.9,"no2":4.4,"co":119.0,"o3":40.0,"so2":1.7,"mosquito_risk":3,"arthritis_risk":5,"migraine_risk":7,"frizz_risk":1,"updated_at":"2026-06-23T03:34:49.471507+05:30"},{"city":"Mangalore","state":"Karnataka","latitude":12.9141,"longitude":74.856,"temp":24.5,"humidity":97,"rain":0.1,"pressure":1006.9,"uv_index":7.85,"wind_gusts":36.7,"aqi":24,"pm10":10.2,"pm2_5":6.7,"no2":3.1,"co":114.0,"o3":39.0,"so2":1.3,"mosquito_risk":6,"arthritis_risk":5,"migraine_risk":4,"frizz_risk":1,"updated_at":"2026-06-23T03:34:49.471513+05:30"},{"city":"Hubli-Dharwad","state":"Karnataka","latitude":15.3647,"longitude":75.124,"temp":22.6,"humidity":93,"rain":0.0,"pressure":939.3,"uv_index":7.95,"wind_gusts":63.4,"aqi":21,"pm10":1.2,"pm2_5":0.8,"no2":1.4,"co":90.0,"o3":47.0,"so2":0.6,"mosquito_risk":3,"arthritis_risk":5,"migraine_risk":7,"frizz_risk":1,"updated_at":"2026-06-23T03:34:49.471558+05:30"},{"city":"Belgaum","state":"Karnataka","latitude":15.8497,"longitude":74.4977,"temp":21.5,"humidity":98,"rain":0.1,"pressure":923.5,"uv_index":2.7,"wind_gusts":51.5,"aqi":20,"pm10":1.9,"pm2_5":1.7,"no2":2.9,"co":108.0,"o3":41.0,"so2":1.1,"mosquito_risk":6,"arthritis_risk":5,"migraine_risk":3,"frizz_risk":1,"updated_at":"2026-06-23T03:34:52.831760+05:30"},{"city":"Coimbatore","state":"Tamil Nadu","latitude":11.0168,"longitude":76.9558,"temp":23.0,"humidity":91,"rain":0.0,"pressure":960.7,"uv_index":8.0,"wind_gusts":51.5,"aqi":20,"pm10":3.0,"pm2_5":2.6,"no2":3.9,"co":111.0,"o3":40.0,"so2":2.1,"mosquito_risk":3,"arthritis_risk":5,"migraine_risk":7,"frizz_risk":1,"updated_at":"2026-06-23T03:34:52.831787+05:30"},{"city":"Madurai","state":"Tamil Nadu","latitude":9.9252,"longitude":78.1198,"temp":27.4,"humidity":61,"rain":0.0,"pressure":992.3,"uv_index":8.35,"wind_gusts":44.6,"aqi":56,"pm10":29.9,"pm2_5":29.4,"no2":37.6,"co":163.0,"o3":0.0,"so2":6.8,"mosquito_risk":7,"arthritis_risk":5,"migraine_risk":7,"frizz_risk":1,"updated_at":"2026-06-23T03:34:52.831798+05:30"},{"city":"Trichy","state":"Tamil Nadu","latitude":10.7905,"longitude":78.7047,"temp":27.2,"humidity":68,"rain":0.0,"pressure":998.7,"uv_index":8.35,"wind_gusts":52.9,"aqi":26,"pm10":4.1,"pm2_5":3.5,"no2":6.2,"co":123.0,"o3":37.0,"so2":2.6,"mosquito_risk":7,"arthritis_risk":5,"migraine_risk":7,"frizz_risk":1,"updated_at":"2026-06-23T03:34:52.831806+05:30"},{"city":"Salem","state":"Tamil Nadu","latitude":11.6643,"longitude":78.146,"temp":24.8,"humidity":86,"rain":0.0,"pressure":976.0,"uv_index":7.85,"wind_gusts":43.9,"aqi":39,"pm10":13.1,"pm2_5":11.9,"no2":17.8,"co":308.0,"o3":27.0,"so2":5.9,"mosquito_risk":3,"arthritis_risk":5,"migraine_risk":7,"frizz_risk":1,"updated_at":"2026-06-23T03:34:52.831814+05:30"},{"city":"Tirunelveli","state":"Tamil Nadu","latitude":8.7139,"longitude":77.7567,"temp":27.4,"humidity":71,"rain":0.0,"pressure":1002.9,"uv_index":1.75,"wind_gusts":43.9,"aqi":17,"pm10":5.4,"pm2_5":4.6,"no2":7.2,"co":140.0,"o3":28.0,"so2":1.8,"mosquito_risk":7,"arthritis_risk":5,"migraine_risk":0,"frizz_risk":1,"updated_at":"2026-06-23T03:34:52.831821+05:30"},{"city":"Vellore","state":"Tamil Nadu","latitude":12.9165,"longitude":79.1325,"temp":26.7,"humidity":70,"rain":0.0,"pressure":982.3,"uv_index":8.2,"wind_gusts":41.4,"aqi":51,"pm10":9.1,"pm2_5":8.4,"no2":14.3,"co":189.0,"o3":28.0,"so2":4.3,"mosquito_risk":7,"arthritis_risk":5,"migraine_risk":7,"frizz_risk":1,"updated_at":"2026-06-23T03:34:52.831828+05:30"},{"city":"Erode","state":"Tamil Nadu","latitude":11.341,"longitude":77.7172,"temp":25.6,"humidity":79,"rain":0.0,"pressure":988.2,"uv_index":7.6,"wind_gusts":32.8,"aqi":29,"pm10":8.9,"pm2_5":8.0,"no2":12.0,"co":141.0,"o3":30.0,"so2":3.2,"mosquito_risk":7,"arthritis_risk":5,"migraine_risk":7,"frizz_risk":1,"updated_at":"2026-06-23T03:34:52.831834+05:30"},{"city":"Kochi","state":"Kerala","latitude":9.9312,"longitude":76.2673,"temp":25.3,"humidity":91,"rain":0.0,"pressure":1009.6,"uv_index":7.9,"wind_gusts":37.4,"aqi":37,"pm10":10.4,"pm2_5":8.9,"no2":12.2,"co":83.0,"o3":23.0,"so2":3.8,"mosquito_risk":7,"arthritis_risk":0,"migraine_risk":4,"frizz_risk":1,"updated_at":"2026-06-23T03:34:52.831841+05:30"},{"city":"Thiruvananthapuram","state":"Kerala","latitude":8.5241,"longitude":76.9366,"temp":24.4,"humidity":97,"rain":0.1,"pressure":1009.2,"uv_index":5.55,"wind_gusts":46.8,"aqi":21,"pm10":10.4,"pm2_5":6.7,"no2":4.3,"co":101.0,"o3":43.0,"so2":2.0,"mosquito_risk":6,"arthritis_risk":0,"migraine_risk":0,"frizz_risk":1,"updated_at":"2026-06-23T03:34:52.831848+05:30"},{"city":"Kozhikode","state":"Kerala","latitude":11.2588,"longitude":75.7804,"temp":23.6,"humidity":99,"rain":0.0,"pressure":1008.4,"uv_index":7.5,"wind_gusts":35.6,"aqi":25,"pm10":6.2,"pm2_5":3.1,"no2":0.6,"co":157.0,"o3":53.0,"so2":0.4,"mosquito_risk":3,"arthritis_risk":0,"migraine_risk":4,"frizz_risk":1,"updated_at":"2026-06-23T03:34:52.831855+05:30"},{"city":"Thrissur","state":"Kerala","latitude":10.5276,"longitude":76.2144,"temp":23.8,"humidity":100,"rain":0.0,"pressure":1007.7,"uv_index":8.1,"wind_gusts":35.3,"aqi":36,"pm10":11.7,"pm2_5":10.0,"no2":9.5,"co":192.0,"o3":26.0,"so2":2.8,"mosquito_risk":3,"arthritis_risk":5,"migraine_risk":4,"frizz_risk":1,"updated_at":"2026-06-23T03:34:52.831862+05:30"},{"city":"Kannur","state":"Kerala","latitude":11.8745,"longitude":75.3704,"temp":23.7,"humidity":98,"rain":0.0,"pressure":1007.7,"uv_index":6.85,"wind_gusts":34.9,"aqi":20,"pm10":6.6,"pm2_5":4.7,"no2":4.4,"co":135.0,"o3":37.0,"so2":1.4,"mosquito_risk":3,"arthritis_risk":5,"migraine_risk":4,"frizz_risk":1,"updated_at":"2026-06-23T03:34:52.831868+05:30"},{"city":"Patna","state":"Bihar","latitude":25.5941,"longitude":85.1376,"temp":27.1,"humidity":94,"rain":0.0,"pressure":993.3,"uv_index":8.6,"wind_gusts":32.0,"aqi":150,"pm10":83.6,"pm2_5":67.3,"no2":23.9,"co":578.0,"o3":47.0,"so2":11.2,"mosquito_risk":7,"arthritis_risk":5,"migraine_risk":7,"frizz_risk":1,"updated_at":"2026-06-23T03:34:52.831875+05:30"},{"city":"Gaya","state":"Bihar","latitude":24.7914,"longitude":85.0002,"temp":29.2,"humidity":70,"rain":0.0,"pressure":986.8,"uv_index":8.65,"wind_gusts":37.4,"aqi":98,"pm10":58.8,"pm2_5":39.6,"no2":14.9,"co":244.0,"o3":60.0,"so2":8.4,"mosquito_risk":7,"arthritis_risk":5,"migraine_risk":7,"frizz_risk":1,"updated_at":"2026-06-23T03:34:52.831881+05:30"},{"city":"Muzaffarpur","state":"Bihar","latitude":26.1209,"longitude":85.3647,"temp":25.6,"humidity":94,"rain":0.0,"pressure":994.1,"uv_index":8.7,"wind_gusts":26.3,"aqi":155,"pm10":95.7,"pm2_5":79.2,"no2":16.8,"co":512.0,"o3":72.0,"so2":13.2,"mosquito_risk":7,"arthritis_risk":5,"migraine_risk":7,"frizz_risk":1,"updated_at":"2026-06-23T03:34:52.831888+05:30"},{"city":"Bhagalpur","state":"Bihar","latitude":25.2425,"longitude":87.0117,"temp":26.3,"humidity":97,"rain":0.0,"pressure":994.8,"uv_index":8.85,"wind_gusts":22.3,"aqi":150,"pm10":79.4,"pm2_5":52.4,"no2":17.1,"co":302.0,"o3":59.0,"so2":6.8,"mosquito_risk":7,"arthritis_risk":5,"migraine_risk":7,"frizz_risk":1,"updated_at":"2026-06-23T03:34:52.831894+05:30"},{"city":"Ranchi","state":"Jharkhand","latitude":23.3441,"longitude":85.3096,"temp":24.1,"humidity":84,"rain":0.0,"pressure":932.1,"uv_index":8.95,"wind_gusts":37.8,"aqi":87,"pm10":32.2,"pm2_5":24.7,"no2":8.0,"co":241.0,"o3":78.0,"so2":4.5,"mosquito_risk":3,"arthritis_risk":5,"migraine_risk":7,"frizz_risk":1,"updated_at":"2026-06-23T03:34:52.831901+05:30"},{"city":"Jamshedpur","state":"Jharkhand","latitude":22.8046,"longitude":86.2029,"temp":26.0,"humidity":83,"rain":0.0,"pressure":984.9,"uv_index":9.05,"wind_gusts":43.2,"aqi":117,"pm10":42.5,"pm2_5":38.6,"no2":16.4,"co":362.0,"o3":83.0,"so2":25.4,"mosquito_risk":7,"arthritis_risk":5,"migraine_risk":7,"frizz_risk":1,"updated_at":"2026-06-23T03:34:52.831907+05:30"},{"city":"Dhanbad","state":"Jharkhand","latitude":23.7957,"longitude":86.4304,"temp":26.3,"humidity":85,"rain":0.0,"pressure":973.5,"uv_index":9.1,"wind_gusts":27.0,"aqi":153,"pm10":76.8,"pm2_5":66.1,"no2":61.5,"co":202.0,"o3":19.0,"so2":116.9,"mosquito_risk":7,"arthritis_risk":5,"migraine_risk":7,"frizz_risk":1,"updated_at":"2026-06-23T03:34:52.831914+05:30"},{"city":"Bokaro","state":"Jharkhand","latitude":23.6693,"longitude":86.1511,"temp":26.6,"humidity":82,"rain":0.0,"pressure":977.3,"uv_index":8.85,"wind_gusts":29.9,"aqi":133,"pm10":54.5,"pm2_5":43.3,"no2":35.9,"co":257.0,"o3":37.0,"so2":77.1,"mosquito_risk":7,"arthritis_risk":5,"migraine_risk":7,"frizz_risk":1,"updated_at":"2026-06-23T03:34:52.831920+05:30"},{"city":"Bhubaneswar","state":"Odisha","latitude":20.2961,"longitude":85.8245,"temp":27.7,"humidity":91,"rain":0.0,"pressure":997.3,"uv_index":9.05,"wind_gusts":33.1,"aqi":76,"pm10":26.8,"pm2_5":25.8,"no2":12.3,"co":307.0,"o3":60.0,"so2":4.1,"mosquito_risk":7,"arthritis_risk":5,"migraine_risk":7,"frizz_risk":1,"updated_at":"2026-06-23T03:34:52.831931+05:30"},{"city":"Cuttack","state":"Odisha","latitude":20.4625,"longitude":85.8828,"temp":28.0,"humidity":85,"rain":0.0,"pressure":999.0,"uv_index":9.15,"wind_gusts":36.7,"aqi":76,"pm10":26.8,"pm2_5":25.8,"no2":12.3,"co":303.0,"o3":60.0,"so2":4.1,"mosquito_risk":7,"arthritis_risk":5,"migraine_risk":7,"frizz_risk":1,"updated_at":"2026-06-23T03:34:52.831938+05:30"},{"city":"Rourkela","state":"Odisha","latitude":22.2604,"longitude":84.8536,"temp":26.5,"humidity":86,"rain":0.0,"pressure":980.1,"uv_index":9.0,"wind_gusts":38.5,"aqi":102,"pm10":38.6,"pm2_5":35.2,"no2":10.5,"co":267.0,"o3":75.0,"so2":7.4,"mosquito_risk":7,"arthritis_risk":5,"migraine_risk":7,"frizz_risk":1,"updated_at":"2026-06-23T03:34:52.831945+05:30"},{"city":"Raipur","state":"Chhattisgarh","latitude":21.2514,"longitude":81.6296,"temp":27.9,"humidity":68,"rain":0.0,"pressure":970.7,"uv_index":8.95,"wind_gusts":45.0,"aqi":88,"pm10":27.1,"pm2_5":26.5,"no2":36.8,"co":592.0,"o3":50.0,"so2":54.5,"mosquito_risk":7,"arthritis_risk":5,"migraine_risk":7,"frizz_risk":1,"updated_at":"2026-06-23T03:34:52.831951+05:30"},{"city":"Bhilai","state":"Chhattisgarh","latitude":21.1938,"longitude":81.3509,"temp":27.7,"humidity":69,"rain":0.0,"pressure":971.2,"uv_index":8.95,"wind_gusts":44.3,"aqi":85,"pm10":22.9,"pm2_5":22.3,"no2":30.2,"co":719.0,"o3":48.0,"so2":42.9,"mosquito_risk":7,"arthritis_risk":5,"migraine_risk":7,"frizz_risk":1,"updated_at":"2026-06-23T03:34:52.831958+05:30"},{"city":"Guwahati","state":"Assam","latitude":26.1158,"longitude":91.7086,"temp":24.8,"humidity":99,"rain":0.2,"pressure":996.0,"uv_index":8.05,"wind_gusts":29.9,"aqi":79,"pm10":34.3,"pm2_5":26.8,"no2":7.1,"co":323.0,"o3":65.0,"so2":3.0,"mosquito_risk":6,"arthritis_risk":5,"migraine_risk":7,"frizz_risk":1,"updated_at":"2026-06-23T03:34:52.831965+05:30"},{"city":"Agartala","state":"Tripura","latitude":23.8315,"longitude":91.2868,"temp":24.8,"humidity":98,"rain":0.0,"pressure":1001.1,"uv_index":7.6,"wind_gusts":38.2,"aqi":65,"pm10":17.1,"pm2_5":15.9,"no2":14.9,"co":217.0,"o3":46.0,"so2":4.5,"mosquito_risk":3,"arthritis_risk":5,"migraine_risk":4,"frizz_risk":1,"updated_at":"2026-06-23T03:34:52.831971+05:30"},{"city":"Shillong","state":"Meghalaya","latitude":25.5788,"longitude":91.8933,"temp":18.5,"humidity":96,"rain":0.0,"pressure":852.7,"uv_index":7.35,"wind_gusts":29.2,"aqi":55,"pm10":14.7,"pm2_5":12.0,"no2":3.8,"co":206.0,"o3":83.0,"so2":2.3,"mosquito_risk":3,"arthritis_risk":10,"migraine_risk":7,"frizz_risk":1,"updated_at":"2026-06-23T03:34:52.831978+05:30"},{"city":"Imphal","state":"Manipur","latitude":24.817,"longitude":93.9368,"temp":22.0,"humidity":98,"rain":0.0,"pressure":918.7,"uv_index":8.1,"wind_gusts":29.2,"aqi":71,"pm10":29.3,"pm2_5":27.6,"no2":10.8,"co":413.0,"o3":31.0,"so2":2.5,"mosquito_risk":3,"arthritis_risk":5,"migraine_risk":7,"frizz_risk":1,"updated_at":"2026-06-23T03:34:52.831985+05:30"},{"city":"Aizawl","state":"Mizoram","latitude":23.7271,"longitude":92.7176,"temp":18.9,"humidity":98,"rain":0.0,"pressure":887.7,"uv_index":7.65,"wind_gusts":28.1,"aqi":21,"pm10":3.5,"pm2_5":3.4,"no2":4.5,"co":159.0,"o3":35.0,"so2":0.4,"mosquito_risk":3,"arthritis_risk":10,"migraine_risk":7,"frizz_risk":1,"updated_at":"2026-06-23T03:34:52.831991+05:30"},{"city":"Kohima","state":"Nagaland","latitude":25.6701,"longitude":94.1077,"temp":18.4,"humidity":94,"rain":0.0,"pressure":850.6,"uv_index":7.05,"wind_gusts":22.3,"aqi":54,"pm10":20.2,"pm2_5":16.2,"no2":5.9,"co":248.0,"o3":39.0,"so2":1.0,"mosquito_risk":3,"arthritis_risk":10,"migraine_risk":7,"frizz_risk":1,"updated_at":"2026-06-23T03:34:52.831998+05:30"},{"city":"Gangtok","state":"Sikkim","latitude":27.3314,"longitude":88.6138,"temp":17.2,"humidity":94,"rain":0.1,"pressure":832.3,"uv_index":9.2,"wind_gusts":34.9,"aqi":56,"pm10":11.9,"pm2_5":8.7,"no2":5.5,"co":407.0,"o3":112.0,"so2":2.8,"mosquito_risk":6,"arthritis_risk":10,"migraine_risk":7,"frizz_risk":1,"updated_at":"2026-06-23T03:34:52.832005+05:30"},{"city":"Siliguri","state":"West Bengal","latitude":26.7271,"longitude":88.3953,"temp":23.7,"humidity":98,"rain":0.0,"pressure":987.2,"uv_index":8.8,"wind_gusts":20.9,"aqi":78,"pm10":39.6,"pm2_5":28.5,"no2":7.6,"co":428.0,"o3":122.0,"so2":5.2,"mosquito_risk":3,"arthritis_risk":5,"migraine_risk":7,"frizz_risk":1,"updated_at":"2026-06-23T03:34:56.190892+05:30"},{"city":"Durgapur","state":"West Bengal","latitude":23.5204,"longitude":87.3119,"temp":26.6,"humidity":91,"rain":0.0,"pressure":988.6,"uv_index":9.0,"wind_gusts":29.2,"aqi":157,"pm10":83.6,"pm2_5":80.6,"no2":52.9,"co":1189.0,"o3":17.0,"so2":58.3,"mosquito_risk":7,"arthritis_risk":5,"migraine_risk":7,"frizz_risk":1,"updated_at":"2026-06-23T03:34:56.190920+05:30"},{"city":"Asansol","state":"West Bengal","latitude":23.6739,"longitude":86.9524,"temp":26.5,"humidity":88,"rain":0.0,"pressure":987.1,"uv_index":9.05,"wind_gusts":30.6,"aqi":153,"pm10":85.0,"pm2_5":76.8,"no2":58.3,"co":674.0,"o3":16.0,"so2":71.5,"mosquito_risk":7,"arthritis_risk":5,"migraine_risk":7,"frizz_risk":1,"updated_at":"2026-06-23T03:34:56.190930+05:30"},{"city":"Pondicherry","state":"Puducherry","latitude":11.9139,"longitude":79.8145,"temp":28.0,"humidity":73,"rain":0.0,"pressure":1006.2,"uv_index":7.5,"wind_gusts":40.3,"aqi":55,"pm10":17.9,"pm2_5":16.4,"no2":21.6,"co":287.0,"o3":33.0,"so2":11.4,"mosquito_risk":7,"arthritis_risk":5,"migraine_risk":4,"frizz_risk":1,"updated_at":"2026-06-23T03:34:56.190938+05:30"},{"city":"Port Blair","state":"Andaman and Nicobar Islands","latitude":11.6234,"longitude":92.7265,"temp":27.3,"humidity":81,"rain":0.0,"pressure":1006.2,"uv_index":8.75,"wind_gusts":45.0,"aqi":27,"pm10":9.4,"pm2_5":5.3,"no2":0.2,"co":88.0,"o3":41.0,"so2":0.2,"mosquito_risk":7,"arthritis_risk":5,"migraine_risk":4,"frizz_risk":1,"updated_at":"2026-06-23T03:34:56.190945+05:30"},{"city":"Haridwar","state":"Uttarakhand","latitude":29.9457,"longitude":78.1642,"temp":25.2,"humidity":73,"rain":0.0,"pressure":967.4,"uv_index":7.6,"wind_gusts":28.4,"aqi":119,"pm10":183.9,"pm2_5":75.0,"no2":35.4,"co":474.0,"o3":47.0,"so2":14.0,"mosquito_risk":7,"arthritis_risk":5,"migraine_risk":7,"frizz_risk":1,"updated_at":"2026-06-23T03:34:56.190952+05:30"},{"city":"Rishikesh","state":"Uttarakhand","latitude":30.0869,"longitude":78.2676,"temp":23.5,"humidity":77,"rain":0.0,"pressure":960.0,"uv_index":7.7,"wind_gusts":23.4,"aqi":92,"pm10":68.5,"pm2_5":39.1,"no2":13.4,"co":384.0,"o3":99.0,"so2":9.5,"mosquito_risk":3,"arthritis_risk":5,"migraine_risk":7,"frizz_risk":1,"updated_at":"2026-06-23T03:34:56.190959+05:30"},{"city":"Nainital","state":"Uttarakhand","latitude":29.3919,"longitude":79.4542,"temp":14.4,"humidity":98,"rain":0.0,"pressure":800.8,"uv_index":6.6,"wind_gusts":33.8,"aqi":112,"pm10":47.5,"pm2_5":29.5,"no2":13.8,"co":338.0,"o3":73.0,"so2":3.1,"mosquito_risk":3,"arthritis_risk":10,"migraine_risk":7,"frizz_risk":0,"updated_at":"2026-06-23T03:34:56.190966+05:30"},{"city":"Mussoorie","state":"Uttarakhand","latitude":30.4599,"longitude":78.0664,"temp":14.4,"humidity":82,"rain":0.0,"pressure":797.6,"uv_index":6.8,"wind_gusts":40.0,"aqi":82,"pm10":47.5,"pm2_5":36.9,"no2":28.4,"co":298.0,"o3":56.0,"so2":6.1,"mosquito_risk":3,"arthritis_risk":10,"migraine_risk":7,"frizz_risk":0,"updated_at":"2026-06-23T03:34:56.190973+05:30"},{"city":"Dharamshala","state":"Himachal Pradesh","latitude":32.219,"longitude":76.3234,"temp":20.5,"humidity":57,"rain":0.0,"pressure":864.6,"uv_index":8.55,"wind_gusts":40.7,"aqi":44,"pm10":10.9,"pm2_5":8.4,"no2":15.1,"co":204.0,"o3":48.0,"so2":0.1,"mosquito_risk":0,"arthritis_risk":5,"migraine_risk":7,"frizz_risk":0,"updated_at":"2026-06-23T03:34:56.190979+05:30"},{"city":"Dalhousie","state":"Himachal Pradesh","latitude":32.5387,"longitude":75.971,"temp":12.1,"humidity":87,"rain":0.0,"pressure":798.0,"uv_index":8.8,"wind_gusts":37.8,"aqi":75,"pm10":33.5,"pm2_5":28.1,"no2":35.7,"co":229.0,"o3":21.0,"so2":1.3,"mosquito_risk":3,"arthritis_risk":10,"migraine_risk":7,"frizz_risk":0,"updated_at":"2026-06-23T03:34:56.190987+05:30"},{"city":"Patiala","state":"Punjab","latitude":30.3398,"longitude":76.3869,"temp":27.5,"humidity":66,"rain":0.0,"pressure":972.3,"uv_index":7.7,"wind_gusts":32.4,"aqi":280,"pm10":285.9,"pm2_5":85.7,"no2":23.4,"co":270.0,"o3":48.0,"so2":7.0,"mosquito_risk":7,"arthritis_risk":5,"migraine_risk":7,"frizz_risk":1,"updated_at":"2026-06-23T03:34:56.190994+05:30"},{"city":"Bhatinda","state":"Punjab","latitude":30.211,"longitude":74.9455,"temp":28.2,"humidity":61,"rain":0.0,"pressure":977.6,"uv_index":8.3,"wind_gusts":28.8,"aqi":103,"pm10":105.5,"pm2_5":56.1,"no2":59.9,"co":385.0,"o3":12.0,"so2":5.1,"mosquito_risk":7,"arthritis_risk":5,"migraine_risk":7,"frizz_risk":1,"updated_at":"2026-06-23T03:34:56.191002+05:30"},{"city":"Rohtak","state":"Haryana","latitude":28.8955,"longitude":76.6066,"temp":26.9,"humidity":67,"rain":0.0,"pressure":975.5,"uv_index":7.75,"wind_gusts":33.1,"aqi":453,"pm10":191.4,"pm2_5":50.4,"no2":30.5,"co":292.0,"o3":32.0,"so2":4.0,"mosquito_risk":7,"arthritis_risk":5,"migraine_risk":7,"frizz_risk":1,"updated_at":"2026-06-23T03:34:56.191008+05:30"},{"city":"Panipat","state":"Haryana","latitude":29.3909,"longitude":76.9635,"temp":27.0,"humidity":68,"rain":0.0,"pressure":974.1,"uv_index":7.65,"wind_gusts":32.4,"aqi":1432,"pm10":385.6,"pm2_5":95.5,"no2":31.3,"co":315.0,"o3":32.0,"so2":5.4,"mosquito_risk":7,"arthritis_risk":5,"migraine_risk":7,"frizz_risk":1,"updated_at":"2026-06-23T03:34:56.191015+05:30"},{"city":"Mathura","state":"Uttar Pradesh","latitude":27.4924,"longitude":77.6737,"temp":28.2,"humidity":62,"rain":0.0,"pressure":980.5,"uv_index":8.05,"wind_gusts":39.2,"aqi":603,"pm10":174.2,"pm2_5":49.4,"no2":28.5,"co":331.0,"o3":27.0,"so2":3.7,"mosquito_risk":7,"arthritis_risk":5,"migraine_risk":7,"frizz_risk":1,"updated_at":"2026-06-23T03:34:56.191021+05:30"},{"city":"Vrindavan","state":"Uttar Pradesh","latitude":27.5823,"longitude":77.7027,"temp":27.6,"humidity":66,"rain":0.0,"pressure":980.9,"uv_index":8.05,"wind_gusts":38.5,"aqi":603,"pm10":174.2,"pm2_5":49.4,"no2":28.5,"co":326.0,"o3":27.0,"so2":3.7,"mosquito_risk":7,"arthritis_risk":5,"migraine_risk":7,"frizz_risk":1,"updated_at":"2026-06-23T03:34:56.191028+05:30"},{"city":"Ayodhya","state":"Uttar Pradesh","latitude":26.7922,"longitude":82.1998,"temp":28.6,"humidity":80,"rain":0.0,"pressure":988.1,"uv_index":8.4,"wind_gusts":36.0,"aqi":159,"pm10":131.3,"pm2_5":60.8,"no2":29.6,"co":957.0,"o3":44.0,"so2":11.1,"mosquito_risk":7,"arthritis_risk":5,"migraine_risk":7,"frizz_risk":1,"updated_at":"2026-06-23T03:34:56.191034+05:30"},{"city":"Ratlam","state":"Madhya Pradesh","latitude":23.3315,"longitude":75.0367,"temp":26.0,"humidity":76,"rain":0.0,"pressure":950.9,"uv_index":8.45,"wind_gusts":34.2,"aqi":61,"pm10":15.4,"pm2_5":14.4,"no2":8.0,"co":229.0,"o3":60.0,"so2":12.2,"mosquito_risk":7,"arthritis_risk":5,"migraine_risk":7,"frizz_risk":1,"updated_at":"2026-06-23T03:34:56.191041+05:30"},{"city":"Sagar","state":"Madhya Pradesh","latitude":23.8388,"longitude":78.7378,"temp":27.2,"humidity":66,"rain":0.0,"pressure":946.0,"uv_index":6.85,"wind_gusts":38.9,"aqi":93,"pm10":31.7,"pm2_5":20.7,"no2":8.6,"co":211.0,"o3":52.0,"so2":3.2,"mosquito_risk":7,"arthritis_risk":5,"migraine_risk":7,"frizz_risk":1,"updated_at":"2026-06-23T03:34:56.191047+05:30"},{"city":"Satna","state":"Madhya Pradesh","latitude":24.6005,"longitude":80.8322,"temp":29.7,"humidity":55,"rain":0.0,"pressure":966.0,"uv_index":8.8,"wind_gusts":39.2,"aqi":86,"pm10":47.0,"pm2_5":29.7,"no2":9.1,"co":160.0,"o3":56.0,"so2":3.6,"mosquito_risk":4,"arthritis_risk":5,"migraine_risk":7,"frizz_risk":1,"updated_at":"2026-06-23T03:34:56.191054+05:30"},{"city":"Akola","state":"Maharashtra","latitude":20.7002,"longitude":77.0082,"temp":27.2,"humidity":83,"rain":0.0,"pressure":972.0,"uv_index":7.95,"wind_gusts":37.1,"aqi":44,"pm10":9.3,"pm2_5":9.1,"no2":12.2,"co":173.0,"o3":52.0,"so2":7.0,"mosquito_risk":7,"arthritis_risk":5,"migraine_risk":7,"frizz_risk":1,"updated_at":"2026-06-23T03:34:56.191061+05:30"},{"city":"Amravati","state":"Maharashtra","latitude":20.9374,"longitude":77.7796,"temp":25.4,"humidity":90,"rain":0.1,"pressure":964.4,"uv_index":7.85,"wind_gusts":38.9,"aqi":51,"pm10":10.0,"pm2_5":9.6,"no2":12.1,"co":161.0,"o3":55.0,"so2":6.3,"mosquito_risk":10,"arthritis_risk":5,"migraine_risk":7,"frizz_risk":1,"updated_at":"2026-06-23T03:34:56.191068+05:30"},{"city":"Latur","state":"Maharashtra","latitude":18.4088,"longitude":76.5604,"temp":25.1,"humidity":86,"rain":0.0,"pressure":937.3,"uv_index":7.95,"wind_gusts":47.9,"aqi":26,"pm10":4.1,"pm2_5":3.5,"no2":5.5,"co":143.0,"o3":41.0,"so2":1.2,"mosquito_risk":7,"arthritis_risk":5,"migraine_risk":7,"frizz_risk":1,"updated_at":"2026-06-23T03:34:56.191075+05:30"},{"city":"Nanded","state":"Maharashtra","latitude":19.1383,"longitude":77.3091,"temp":26.7,"humidity":77,"rain":0.0,"pressure":965.9,"uv_index":8.15,"wind_gusts":43.2,"aqi":37,"pm10":5.6,"pm2_5":5.6,"no2":7.8,"co":152.0,"o3":48.0,"so2":2.4,"mosquito_risk":7,"arthritis_risk":5,"migraine_risk":7,"frizz_risk":1,"updated_at":"2026-06-23T03:34:56.191082+05:30"},{"city":"Gulbarga","state":"Karnataka","latitude":17.3297,"longitude":76.8343,"temp":26.6,"humidity":71,"rain":0.0,"pressure":956.8,"uv_index":8.35,"wind_gusts":64.4,"aqi":25,"pm10":6.2,"pm2_5":4.9,"no2":7.8,"co":147.0,"o3":34.0,"so2":2.9,"mosquito_risk":7,"arthritis_risk":5,"migraine_risk":7,"frizz_risk":1,"updated_at":"2026-06-23T03:34:56.191088+05:30"},{"city":"Bidar","state":"Karnataka","latitude":17.9104,"longitude":77.5199,"temp":26.5,"humidity":70,"rain":0.0,"pressure":933.3,"uv_index":7.5,"wind_gusts":59.0,"aqi":27,"pm10":7.5,"pm2_5":6.9,"no2":10.0,"co":136.0,"o3":40.0,"so2":2.0,"mosquito_risk":7,"arthritis_risk":5,"migraine_risk":7,"frizz_risk":1,"updated_at":"2026-06-23T03:34:56.191095+05:30"},{"city":"Hospet","state":"Karnataka","latitude":15.2689,"longitude":76.3909,"temp":24.1,"humidity":86,"rain":0.0,"pressure":954.2,"uv_index":7.1,"wind_gusts":55.4,"aqi":21,"pm10":2.8,"pm2_5":2.1,"no2":2.9,"co":108.0,"o3":43.0,"so2":1.1,"mosquito_risk":3,"arthritis_risk":5,"migraine_risk":7,"frizz_risk":1,"updated_at":"2026-06-23T03:34:56.191101+05:30"},{"city":"Tirupur","state":"Tamil Nadu","latitude":11.1085,"longitude":77.3411,"temp":23.7,"humidity":89,"rain":0.0,"pressure":974.3,"uv_index":7.9,"wind_gusts":51.1,"aqi":31,"pm10":10.7,"pm2_5":10.0,"no2":14.5,"co":112.0,"o3":26.0,"so2":3.8,"mosquito_risk":3,"arthritis_risk":5,"migraine_risk":7,"frizz_risk":1,"updated_at":"2026-06-23T03:34:56.191108+05:30"},{"city":"Alappuzha","state":"Kerala","latitude":9.4981,"longitude":76.3388,"temp":25.5,"humidity":92,"rain":0.1,"pressure":1009.6,"uv_index":5.55,"wind_gusts":38.9,"aqi":29,"pm10":9.3,"pm2_5":6.9,"no2":7.7,"co":81.0,"o3":35.0,"so2":2.8,"mosquito_risk":10,"arthritis_risk":0,"migraine_risk":0,"frizz_risk":1,"updated_at":"2026-06-23T03:34:56.191114+05:30"},{"city":"Munnar","state":"Kerala","latitude":10.0889,"longitude":77.0595,"temp":16.5,"humidity":99,"rain":0.1,"pressure":856.1,"uv_index":8.15,"wind_gusts":41.0,"aqi":19,"pm10":3.7,"pm2_5":2.8,"no2":3.9,"co":88.0,"o3":29.0,"so2":1.2,"mosquito_risk":6,"arthritis_risk":10,"migraine_risk":7,"frizz_risk":1,"updated_at":"2026-06-23T03:34:56.191121+05:30"},{"city":"Silchar","state":"Assam","latitude":24.8333,"longitude":92.7789,"temp":25.1,"humidity":96,"rain":0.0,"pressure":1000.3,"uv_index":8.3,"wind_gusts":23.4,"aqi":83,"pm10":49.7,"pm2_5":44.9,"no2":17.5,"co":279.0,"o3":48.0,"so2":7.1,"mosquito_risk":7,"arthritis_risk":5,"migraine_risk":4,"frizz_risk":1,"updated_at":"2026-06-23T03:34:56.191128+05:30"},{"city":"Dibrugarh","state":"Assam","latitude":27.4728,"longitude":94.912,"temp":24.1,"humidity":97,"rain":0.1,"pressure":990.3,"uv_index":8.15,"wind_gusts":20.5,"aqi":80,"pm10":29.5,"pm2_5":22.4,"no2":8.4,"co":223.0,"o3":71.0,"so2":1.2,"mosquito_risk":6,"arthritis_risk":5,"migraine_risk":7,"frizz_risk":1,"updated_at":"2026-06-23T03:34:56.191134+05:30"}]