[{"city":"Delhi","state":"Delhi","latitude":28.6139,"longitude":77.209,"temp":29.9,"humidity":26,"rain":0.0,"pressure":982.2,"uv_index":5.6,"aqi":152,"mosquito_risk":4,"arthritis_risk":5,"migraine_risk":3,"frizz_risk":0,"updated_at":"2026-02-27T16:29:34.479577+05:30"},{"city":"Mumbai","state":"Maharashtra","latitude":19.076,"longitude":72.8777,"temp":25.8,"humidity":68,"rain":0.0,"pressure":1007.6,"uv_index":7.3,"aqi":67,"mosquito_risk":7,"arthritis_risk":5,"migraine_risk":4,"frizz_risk":1,"updated_at":"2026-02-27T16:29:34.479627+05:30"},{"city":"Bangalore","state":"Karnataka","latitude":12.9716,"longitude":77.5946,"temp":30.4,"humidity":32,"rain":0.0,"pressure":909.4,"uv_index":8.95,"aqi":112,"mosquito_risk":0,"arthritis_risk":5,"migraine_risk":7,"frizz_risk":0,"updated_at":"2026-02-27T16:29:34.479642+05:30"},{"city":"Hyderabad","state":"Telangana","latitude":17.385,"longitude":78.4867,"temp":31.0,"humidity":38,"rain":0.0,"pressure":951.7,"uv_index":8.15,"aqi":130,"mosquito_risk":0,"arthritis_risk":5,"migraine_risk":7,"frizz_risk":0,"updated_at":"2026-02-27T16:29:34.479651+05:30"},{"city":"Chennai","state":"Tamil Nadu","latitude":13.0827,"longitude":80.2707,"temp":30.7,"humidity":53,"rain":0.0,"pressure":1005.6,"uv_index":8.65,"aqi":106,"mosquito_risk":0,"arthritis_risk":5,"migraine_risk":4,"frizz_risk":1,"updated_at":"2026-02-27T16:29:34.479659+05:30"},{"city":"Kolkata","state":"West Bengal","latitude":22.5726,"longitude":88.3639,"temp":29.0,"humidity":35,"rain":0.0,"pressure":1004.6,"uv_index":7.5,"aqi":162,"mosquito_risk":4,"arthritis_risk":5,"migraine_risk":4,"frizz_risk":0,"updated_at":"2026-02-27T16:29:34.479666+05:30"},{"city":"Pune","state":"Maharashtra","latitude":18.5204,"longitude":73.8567,"temp":31.2,"humidity":26,"rain":0.0,"pressure":946.7,"uv_index":7.85,"aqi":70,"mosquito_risk":0,"arthritis_risk":5,"migraine_risk":7,"frizz_risk":0,"updated_at":"2026-02-27T16:29:34.479672+05:30"},{"city":"Ahmedabad","state":"Gujarat","latitude":23.0225,"longitude":72.5714,"temp":31.9,"humidity":31,"rain":0.0,"pressure":1000.1,"uv_index":7.1,"aqi":63,"mosquito_risk":0,"arthritis_risk":5,"migraine_risk":4,"frizz_risk":0,"updated_at":"2026-02-27T16:29:34.479678+05:30"},{"city":"Jaipur","state":"Rajasthan","latitude":26.9124,"longitude":75.7873,"temp":31.3,"humidity":19,"rain":0.0,"pressure":958.2,"uv_index":6.4,"aqi":75,"mosquito_risk":0,"arthritis_risk":5,"migraine_risk":7,"frizz_risk":0,"updated_at":"2026-02-27T16:29:34.479686+05:30"},{"city":"Lucknow","state":"Uttar Pradesh","latitude":26.8467,"longitude":80.9462,"temp":30.1,"humidity":26,"rain":0.0,"pressure":993.0,"uv_index":6.05,"aqi":126,"mosquito_risk":0,"arthritis_risk":5,"migraine_risk":7,"frizz_risk":0,"updated_at":"2026-02-27T16:29:34.479692+05:30"},{"city":"Kanpur","state":"Uttar Pradesh","latitude":26.4499,"longitude":80.3319,"temp":30.5,"humidity":27,"rain":0.0,"pressure":991.3,"uv_index":6.05,"aqi":135,"mosquito_risk":0,"arthritis_risk":5,"migraine_risk":7,"frizz_risk":0,"updated_at":"2026-02-27T16:29:34.479697+05:30"},{"city":"Chandigarh","state":"Chandigarh","latitude":30.7333,"longitude":76.7794,"temp":26.7,"humidity":44,"rain":0.0,"pressure":967.8,"uv_index":5.5,"aqi":119,"mosquito_risk":4,"arthritis_risk":5,"migraine_risk":3,"frizz_risk":0,"updated_at":"2026-02-27T16:29:34.479703+05:30"},{"city":"Srinagar","state":"Jammu and Kashmir","latitude":34.0837,"longitude":74.7973,"temp":16.0,"humidity":37,"rain":0.0,"pressure":839.1,"uv_index":6.35,"aqi":152,"mosquito_risk":0,"arthritis_risk":5,"migraine_risk":7,"frizz_risk":0,"updated_at":"2026-02-27T16:29:34.479709+05:30"},{"city":"Jammu","state":"Jammu and Kashmir","latitude":32.7266,"longitude":74.857,"temp":26.8,"humidity":42,"rain":0.0,"pressure":971.3,"uv_index":6.05,"aqi":115,"mosquito_risk":4,"arthritis_risk":5,"migraine_risk":7,"frizz_risk":0,"updated_at":"2026-02-27T16:29:34.479714+05:30"},{"city":"Amritsar","state":"Punjab","latitude":31.634,"longitude":74.8723,"temp":26.2,"humidity":46,"rain":0.0,"pressure":979.8,"uv_index":6.0,"aqi":162,"mosquito_risk":4,"arthritis_risk":5,"migraine_risk":3,"frizz_risk":0,"updated_at":"2026-02-27T16:29:34.479719+05:30"},{"city":"Ludhiana","state":"Punjab","latitude":30.901,"longitude":75.8573,"temp":27.2,"humidity":41,"rain":0.0,"pressure":977.9,"uv_index":5.75,"aqi":173,"mosquito_risk":4,"arthritis_risk":5,"migraine_risk":3,"frizz_risk":0,"updated_at":"2026-02-27T16:29:34.479724+05:30"},{"city":"Jalandhar","state":"Punjab","latitude":31.326,"longitude":75.5762,"temp":27.1,"humidity":42,"rain":0.0,"pressure":978.9,"uv_index":5.9,"aqi":176,"mosquito_risk":4,"arthritis_risk":5,"migraine_risk":3,"frizz_risk":0,"updated_at":"2026-02-27T16:29:34.479729+05:30"},{"city":"Dehradun","state":"Uttarakhand","latitude":30.6284,"longitude":78.0322,"temp":16.8,"humidity":53,"rain":0.0,"pressure":828.0,"uv_index":5.85,"aqi":84,"mosquito_risk":0,"arthritis_risk":5,"migraine_risk":3,"frizz_risk":0,"updated_at":"2026-02-27T16:29:34.479734+05:30"},{"city":"Shimla","state":"Himachal Pradesh","latitude":31.1048,"longitude":77.1734,"temp":15.2,"humidity":47,"rain":0.0,"pressure":782.8,"uv_index":5.9,"aqi":89,"mosquito_risk":0,"arthritis_risk":5,"migraine_risk":3,"frizz_risk":0,"updated_at":"2026-02-27T16:29:34.479741+05:30"},{"city":"Manali","state":"Himachal Pradesh","latitude":32.2396,"longitude":77.1887,"temp":14.4,"humidity":58,"rain":0.0,"pressure":816.1,"uv_index":7.6,"aqi":120,"mosquito_risk":0,"arthritis_risk":5,"migraine_risk":7,"frizz_risk":0,"updated_at":"2026-02-27T16:29:34.479748+05:30"},{"city":"Gurgaon","state":"Haryana","latitude":28.4595,"longitude":77.0266,"temp":30.0,"humidity":27,"rain":0.0,"pressure":980.5,"uv_index":5.7,"aqi":178,"mosquito_risk":4,"arthritis_risk":5,"migraine_risk":3,"frizz_risk":0,"updated_at":"2026-02-27T16:29:34.479753+05:30"},{"city":"Noida","state":"Uttar Pradesh","latitude":28.5355,"longitude":77.391,"temp":30.4,"humidity":25,"rain":0.0,"pressure":983.7,"uv_index":5.6,"aqi":178,"mosquito_risk":0,"arthritis_risk":5,"migraine_risk":3,"frizz_risk":0,"updated_at":"2026-02-27T16:29:34.479758+05:30"},{"city":"Ghaziabad","state":"Uttar Pradesh","latitude":28.6692,"longitude":77.4538,"temp":29.2,"humidity":31,"rain":0.0,"pressure":981.9,"uv_index":5.55,"aqi":151,"mosquito_risk":4,"arthritis_risk":5,"migraine_risk":3,"frizz_risk":0,"updated_at":"2026-02-27T16:29:34.479762+05:30"},{"city":"Faridabad","state":"Haryana","latitude":28.4089,"longitude":77.3178,"temp":29.7,"humidity":29,"rain":0.0,"pressure":982.8,"uv_index":5.65,"aqi":178,"mosquito_risk":4,"arthritis_risk":5,"migraine_risk":3,"frizz_risk":0,"updated_at":"2026-02-27T16:29:34.479767+05:30"},{"city":"Meerut","state":"Uttar Pradesh","latitude":28.9845,"longitude":77.7064,"temp":28.2,"humidity":40,"rain":0.0,"pressure":980.7,"uv_index":5.45,"aqi":151,"mosquito_risk":4,"arthritis_risk":5,"migraine_risk":3,"frizz_risk":0,"updated_at":"2026-02-27T16:29:34.479772+05:30"},{"city":"Agra","state":"Uttar Pradesh","latitude":27.1767,"longitude":78.0081,"temp":31.0,"humidity":27,"rain":0.0,"pressure":986.7,"uv_index":5.9,"aqi":143,"mosquito_risk":0,"arthritis_risk":5,"migraine_risk":3,"frizz_risk":0,"updated_at":"2026-02-27T16:29:34.479777+05:30"},{"city":"Varanasi","state":"Uttar Pradesh","latitude":25.3176,"longitude":82.9739,"temp":29.0,"humidity":34,"rain":0.0,"pressure":997.1,"uv_index":6.75,"aqi":124,"mosquito_risk":4,"arthritis_risk":5,"migraine_risk":7,"frizz_risk":0,"updated_at":"2026-02-27T16:29:34.479782+05:30"},{"city":"Prayagraj","state":"Uttar Pradesh","latitude":25.4358,"longitude":81.8463,"temp":29.5,"humidity":34,"rain":0.0,"pressure":995.6,"uv_index":6.6,"aqi":150,"mosquito_risk":4,"arthritis_risk":5,"migraine_risk":7,"frizz_risk":0,"updated_at":"2026-02-27T16:29:34.479787+05:30"},{"city":"Gorakhpur","state":"Uttar Pradesh","latitude":26.7606,"longitude":83.3732,"temp":27.6,"humidity":38,"rain":0.0,"pressure":996.4,"uv_index":6.45,"aqi":154,"mosquito_risk":4,"arthritis_risk":5,"migraine_risk":7,"frizz_risk":0,"updated_at":"2026-02-27T16:29:34.479794+05:30"},{"city":"Bareilly","state":"Uttar Pradesh","latitude":28.367,"longitude":79.4304,"temp":28.0,"humidity":38,"rain":0.0,"pressure":985.9,"uv_index":5.75,"aqi":150,"mosquito_risk":4,"arthritis_risk":5,"migraine_risk":3,"frizz_risk":0,"updated_at":"2026-02-27T16:29:34.479798+05:30"},{"city":"Aligarh","state":"Uttar Pradesh","latitude":27.8974,"longitude":78.088,"temp":29.9,"humidity":30,"rain":0.0,"pressure":984.7,"uv_index":5.7,"aqi":154,"mosquito_risk":4,"arthritis_risk":5,"migraine_risk":3,"frizz_risk":0,"updated_at":"2026-02-27T16:29:34.479803+05:30"},{"city":"Moradabad","state":"Uttar Pradesh","latitude":28.8386,"longitude":78.7733,"temp":27.9,"humidity":38,"rain":0.0,"pressure":982.6,"uv_index":5.6,"aqi":151,"mosquito_risk":4,"arthritis_risk":5,"migraine_risk":3,"frizz_risk":0,"updated_at":"2026-02-27T16:29:34.479808+05:30"},{"city":"Saharanpur","state":"Uttar Pradesh","latitude":29.9637,"longitude":77.546,"temp":27.2,"humidity":37,"rain":0.0,"pressure":974.4,"uv_index":5.25,"aqi":156,"mosquito_risk":4,"arthritis_risk":5,"migraine_risk":3,"frizz_risk":0,"updated_at":"2026-02-27T16:29:34.479813+05:30"},{"city":"Jhansi","state":"Uttar Pradesh","latitude":25.4484,"longitude":78.5685,"temp":31.7,"humidity":27,"rain":0.0,"pressure":976.6,"uv_index":6.55,"aqi":73,"mosquito_risk":0,"arthritis_risk":5,"migraine_risk":7,"frizz_risk":0,"updated_at":"2026-02-27T16:29:37.781824+05:30"},{"city":"Surat","state":"Gujarat","latitude":21.1702,"longitude":72.8311,"temp":27.0,"humidity":57,"rain":0.0,"pressure":1006.3,"uv_index":7.05,"aqi":76,"mosquito_risk":4,"arthritis_risk":5,"migraine_risk":4,"frizz_risk":1,"updated_at":"2026-02-27T16:29:37.781856+05:30"},{"city":"Vadodara","state":"Gujarat","latitude":22.3072,"longitude":73.1812,"temp":31.1,"humidity":33,"rain":0.0,"pressure":1003.0,"uv_index":7.1,"aqi":65,"mosquito_risk":0,"arthritis_risk":5,"migraine_risk":4,"frizz_risk":0,"updated_at":"2026-02-27T16:29:37.781866+05:30"},{"city":"Rajkot","state":"Gujarat","latitude":22.3039,"longitude":70.8022,"temp":31.6,"humidity":30,"rain":0.0,"pressure":992.0,"uv_index":7.0,"aqi":60,"mosquito_risk":0,"arthritis_risk":5,"migraine_risk":7,"frizz_risk":0,"updated_at":"2026-02-27T16:29:37.781875+05:30"},{"city":"Thane","state":"Maharashtra","latitude":19.2183,"longitude":72.9781,"temp":27.5,"humidity":55,"rain":0.0,"pressure":1007.0,"uv_index":7.3,"aqi":67,"mosquito_risk":4,"arthritis_risk":5,"migraine_risk":4,"frizz_risk":1,"updated_at":"2026-02-27T16:29:37.781883+05:30"},{"city":"Nagpur","state":"Maharashtra","latitude":21.1458,"longitude":79.0882,"temp":31.6,"humidity":32,"rain":0.0,"pressure":972.2,"uv_index":7.45,"aqi":109,"mosquito_risk":0,"arthritis_risk":5,"migraine_risk":7,"frizz_risk":0,"updated_at":"2026-02-27T16:29:37.781891+05:30"},{"city":"Nashik","state":"Maharashtra","latitude":19.9975,"longitude":73.7898,"temp":28.5,"humidity":37,"rain":0.0,"pressure":944.0,"uv_index":7.5,"aqi":54,"mosquito_risk":4,"arthritis_risk":5,"migraine_risk":7,"frizz_risk":0,"updated_at":"2026-02-27T16:29:37.781898+05:30"},{"city":"Aurangabad","state":"Maharashtra","latitude":19.8762,"longitude":75.3433,"temp":32.3,"humidity":22,"rain":0.0,"pressure":942.0,"uv_index":7.8,"aqi":56,"mosquito_risk":0,"arthritis_risk":5,"migraine_risk":7,"frizz_risk":0,"updated_at":"2026-02-27T16:29:37.781906+05:30"},{"city":"Solapur","state":"Maharashtra","latitude":17.6599,"longitude":75.9064,"temp":32.3,"humidity":28,"rain":0.0,"pressure":955.1,"uv_index":8.1,"aqi":62,"mosquito_risk":0,"arthritis_risk":5,"migraine_risk":7,"frizz_risk":0,"updated_at":"2026-02-27T16:29:37.781914+05:30"},{"city":"Kolhapur","state":"Maharashtra","latitude":16.705,"longitude":74.2433,"temp":30.4,"humidity":28,"rain":0.0,"pressure":946.1,"uv_index":8.3,"aqi":47,"mosquito_risk":0,"arthritis_risk":5,"migraine_risk":7,"frizz_risk":0,"updated_at":"2026-02-27T16:29:37.781921+05:30"},{"city":"Goa","state":"Goa","latitude":15.2993,"longitude":74.124,"temp":29.8,"humidity":53,"rain":0.0,"pressure":995.9,"uv_index":8.3,"aqi":44,"mosquito_risk":4,"arthritis_risk":5,"migraine_risk":7,"frizz_risk":1,"updated_at":"2026-02-27T16:29:37.781929+05:30"},{"city":"Jodhpur","state":"Rajasthan","latitude":26.2389,"longitude":73.0243,"temp":33.1,"humidity":18,"rain":0.0,"pressure":980.6,"uv_index":6.7,"aqi":70,"mosquito_risk":0,"arthritis_risk":5,"migraine_risk":7,"frizz_risk":0,"updated_at":"2026-02-27T16:29:37.781936+05:30"},{"city":"Udaipur","state":"Rajasthan","latitude":24.5854,"longitude":73.7125,"temp":29.2,"humidity":29,"rain":0.0,"pressure":944.9,"uv_index":7.35,"aqi":68,"mosquito_risk":4,"arthritis_risk":5,"migraine_risk":7,"frizz_risk":0,"updated_at":"2026-02-27T16:29:37.781943+05:30"},{"city":"Kota","state":"Rajasthan","latitude":25.2138,"longitude":75.8648,"temp":32.0,"humidity":29,"rain":0.0,"pressure":977.1,"uv_index":6.75,"aqi":78,"mosquito_risk":0,"arthritis_risk":5,"migraine_risk":7,"frizz_risk":0,"updated_at":"2026-02-27T16:29:37.781951+05:30"},{"city":"Bikaner","state":"Rajasthan","latitude":28.0229,"longitude":73.3119,"temp":32.5,"humidity":19,"rain":0.0,"pressure":979.4,"uv_index":6.35,"aqi":58,"mosquito_risk":0,"arthritis_risk":5,"migraine_risk":7,"frizz_risk":0,"updated_at":"2026-02-27T16:29:37.781958+05:30"},{"city":"Ajmer","state":"Rajasthan","latitude":26.4499,"longitude":74.6399,"temp":31.6,"humidity":21,"rain":0.0,"pressure":952.6,"uv_index":6.7,"aqi":69,"mosquito_risk":0,"arthritis_risk":5,"migraine_risk":7,"frizz_risk":0,"updated_at":"2026-02-27T16:29:37.781966+05:30"},{"city":"Gwalior","state":"Madhya Pradesh","latitude":26.2183,"longitude":78.1828,"temp":30.9,"humidity":25,"rain":0.0,"pressure":982.1,"uv_index":6.25,"aqi":76,"mosquito_risk":0,"arthritis_risk":5,"migraine_risk":7,"frizz_risk":0,"updated_at":"2026-02-27T16:29:37.781973+05:30"},{"city":"Indore","state":"Madhya Pradesh","latitude":22.7196,"longitude":75.8577,"temp":29.9,"humidity":34,"rain":0.0,"pressure":946.5,"uv_index":7.25,"aqi":89,"mosquito_risk":4,"arthritis_risk":5,"migraine_risk":7,"frizz_risk":0,"updated_at":"2026-02-27T16:29:37.781980+05:30"},{"city":"Bhopal","state":"Madhya Pradesh","latitude":23.2599,"longitude":77.4126,"temp":29.7,"humidity":33,"rain":0.0,"pressure":952.4,"uv_index":7.1,"aqi":79,"mosquito_risk":4,"arthritis_risk":5,"migraine_risk":7,"frizz_risk":0,"updated_at":"2026-02-27T16:29:37.781988+05:30"},{"city":"Jabalpur","state":"Madhya Pradesh","latitude":23.1815,"longitude":79.9864,"temp":31.2,"humidity":25,"rain":0.0,"pressure":960.8,"uv_index":7.15,"aqi":73,"mosquito_risk":0,"arthritis_risk":5,"migraine_risk":7,"frizz_risk":0,"updated_at":"2026-02-27T16:29:37.781995+05:30"},{"city":"Ujjain","state":"Madhya Pradesh","latitude":23.1765,"longitude":75.7885,"temp":29.5,"humidity":37,"rain":0.0,"pressure":952.5,"uv_index":7.15,"aqi":92,"mosquito_risk":4,"arthritis_risk":5,"migraine_risk":7,"frizz_risk":0,"updated_at":"2026-02-27T16:29:37.782003+05:30"},{"city":"Visakhapatnam","state":"Andhra Pradesh","latitude":17.6868,"longitude":83.2185,"temp":29.3,"humidity":61,"rain":0.0,"pressure":1002.3,"uv_index":8.15,"aqi":100,"mosquito_risk":7,"arthritis_risk":5,"migraine_risk":4,"frizz_risk":1,"updated_at":"2026-02-27T16:29:37.782011+05:30"},{"city":"Vijayawada","state":"Andhra Pradesh","latitude":16.5062,"longitude":80.648,"temp":33.4,"humidity":37,"rain":0.0,"pressure":1000.5,"uv_index":8.2,"aqi":109,"mosquito_risk":0,"arthritis_risk":5,"migraine_risk":4,"frizz_risk":1,"updated_at":"2026-02-27T16:29:37.782018+05:30"},{"city":"Guntur","state":"Andhra Pradesh","latitude":16.3067,"longitude":80.4365,"temp":34.0,"humidity":35,"rain":0.0,"pressure":1001.6,"uv_index":8.2,"aqi":105,"mosquito_risk":0,"arthritis_risk":5,"migraine_risk":4,"frizz_risk":1,"updated_at":"2026-02-27T16:29:37.782025+05:30"},{"city":"Nellore","state":"Andhra Pradesh","latitude":14.4426,"longitude":79.9865,"temp":31.4,"humidity":49,"rain":0.0,"pressure":1004.1,"uv_index":8.45,"aqi":100,"mosquito_risk":0,"arthritis_risk":5,"migraine_risk":4,"frizz_risk":1,"updated_at":"2026-02-27T16:29:37.782034+05:30"},{"city":"Kurnool","state":"Andhra Pradesh","latitude":15.8281,"longitude":78.0373,"temp":34.6,"humidity":29,"rain":0.0,"pressure":974.6,"uv_index":8.25,"aqi":102,"mosquito_risk":0,"arthritis_risk":5,"migraine_risk":7,"frizz_risk":0,"updated_at":"2026-02-27T16:29:37.782042+05:30"},{"city":"Kakinada","state":"Andhra Pradesh","latitude":16.9891,"longitude":82.2475,"temp":30.3,"humidity":56,"rain":0.0,"pressure":1005.7,"uv_index":8.15,"aqi":90,"mosquito_risk":0,"arthritis_risk":5,"migraine_risk":4,"frizz_risk":1,"updated_at":"2026-02-27T16:29:37.782049+05:30"},{"city":"Tirupati","state":"Andhra Pradesh","latitude":13.6288,"longitude":79.4192,"temp":33.2,"humidity":30,"rain":0.0,"pressure":988.9,"uv_index":8.6,"aqi":110,"mosquito_risk":0,"arthritis_risk":5,"migraine_risk":7,"frizz_risk":0,"updated_at":"2026-02-27T16:29:37.782056+05:30"},{"city":"Warangal","state":"Telangana","latitude":17.9689,"longitude":79.5941,"temp":32.3,"humidity":35,"rain":0.0,"pressure":977.2,"uv_index":7.95,"aqi":155,"mosquito_risk":0,"arthritis_risk":5,"migraine_risk":7,"frizz_risk":0,"updated_at":"2026-02-27T16:29:37.782063+05:30"},{"city":"Nizamabad","state":"Telangana","latitude":18.6725,"longitude":78.0941,"temp":33.1,"humidity":29,"rain":0.0,"pressure":962.9,"uv_index":7.85,"aqi":145,"mosquito_risk":0,"arthritis_risk":5,"migraine_risk":7,"frizz_risk":0,"updated_at":"2026-02-27T16:29:37.782071+05:30"},{"city":"Mysore","state":"Karnataka","latitude":12.2958,"longitude":76.6396,"temp":30.8,"humidity":36,"rain":0.0,"pressure":925.7,"uv_index":8.85,"aqi":122,"mosquito_risk":0,"arthritis_risk":5,"migraine_risk":7,"frizz_risk":0,"updated_at":"2026-02-27T16:29:37.782078+05:30"},{"city":"Mangalore","state":"Karnataka","latitude":12.9141,"longitude":74.856,"temp":28.5,"humidity":72,"rain":0.0,"pressure":1004.0,"uv_index":8.55,"aqi":42,"mosquito_risk":7,"arthritis_risk":5,"migraine_risk":4,"frizz_risk":1,"updated_at":"2026-02-27T16:29:37.782085+05:30"},{"city":"Hubli-Dharwad","state":"Karnataka","latitude":15.3647,"longitude":75.124,"temp":32.8,"humidity":23,"rain":0.0,"pressure":938.4,"uv_index":8.45,"aqi":46,"mosquito_risk":0,"arthritis_risk":5,"migraine_risk":7,"frizz_risk":0,"updated_at":"2026-02-27T16:29:37.782093+05:30"},{"city":"Belgaum","state":"Karnataka","latitude":15.8497,"longitude":74.4977,"temp":31.0,"humidity":24,"rain":0.0,"pressure":923.9,"uv_index":8.55,"aqi":48,"mosquito_risk":0,"arthritis_risk":5,"migraine_risk":7,"frizz_risk":0,"updated_at":"2026-02-27T16:29:41.086922+05:30"},{"city":"Coimbatore","state":"Tamil Nadu","latitude":11.0168,"longitude":76.9558,"temp":29.2,"humidity":58,"rain":0.0,"pressure":959.4,"uv_index":5.45,"aqi":112,"mosquito_risk":4,"arthritis_risk":5,"migraine_risk":3,"frizz_risk":1,"updated_at":"2026-02-27T16:29:41.086955+05:30"},{"city":"Madurai","state":"Tamil Nadu","latitude":9.9252,"longitude":78.1198,"temp":33.1,"humidity":39,"rain":0.0,"pressure":989.8,"uv_index":8.95,"aqi":152,"mosquito_risk":0,"arthritis_risk":5,"migraine_risk":7,"frizz_risk":1,"updated_at":"2026-02-27T16:29:41.086965+05:30"},{"city":"Trichy","state":"Tamil Nadu","latitude":10.7905,"longitude":78.7047,"temp":34.3,"humidity":33,"rain":0.0,"pressure":996.5,"uv_index":8.85,"aqi":104,"mosquito_risk":0,"arthritis_risk":5,"migraine_risk":7,"frizz_risk":0,"updated_at":"2026-02-27T16:29:41.086975+05:30"},{"city":"Salem","state":"Tamil Nadu","latitude":11.6643,"longitude":78.146,"temp":32.9,"humidity":38,"rain":0.0,"pressure":974.3,"uv_index":8.85,"aqi":115,"mosquito_risk":0,"arthritis_risk":5,"migraine_risk":7,"frizz_risk":1,"updated_at":"2026-02-27T16:29:41.086983+05:30"},{"city":"Tirunelveli","state":"Tamil Nadu","latitude":8.7139,"longitude":77.7567,"temp":32.6,"humidity":44,"rain":0.0,"pressure":999.8,"uv_index":9.0,"aqi":113,"mosquito_risk":0,"arthritis_risk":5,"migraine_risk":7,"frizz_risk":1,"updated_at":"2026-02-27T16:29:41.086991+05:30"},{"city":"Vellore","state":"Tamil Nadu","latitude":12.9165,"longitude":79.1325,"temp":33.3,"humidity":29,"rain":0.0,"pressure":981.8,"uv_index":8.7,"aqi":107,"mosquito_risk":0,"arthritis_risk":5,"migraine_risk":7,"frizz_risk":0,"updated_at":"2026-02-27T16:29:41.086998+05:30"},{"city":"Erode","state":"Tamil Nadu","latitude":11.341,"longitude":77.7172,"temp":34.8,"humidity":33,"rain":0.0,"pressure":985.6,"uv_index":8.85,"aqi":115,"mosquito_risk":0,"arthritis_risk":5,"migraine_risk":7,"frizz_risk":1,"updated_at":"2026-02-27T16:29:41.087006+05:30"},{"city":"Kochi","state":"Kerala","latitude":9.9312,"longitude":76.2673,"temp":28.1,"humidity":78,"rain":0.0,"pressure":1005.9,"uv_index":8.8,"aqi":88,"mosquito_risk":7,"arthritis_risk":5,"migraine_risk":4,"frizz_risk":1,"updated_at":"2026-02-27T16:29:41.087014+05:30"},{"city":"Thiruvananthapuram","state":"Kerala","latitude":8.5241,"longitude":76.9366,"temp":28.0,"humidity":78,"rain":0.0,"pressure":1005.2,"uv_index":8.8,"aqi":100,"mosquito_risk":7,"arthritis_risk":5,"migraine_risk":4,"frizz_risk":1,"updated_at":"2026-02-27T16:29:41.087021+05:30"},{"city":"Kozhikode","state":"Kerala","latitude":11.2588,"longitude":75.7804,"temp":29.6,"humidity":69,"rain":0.0,"pressure":1005.2,"uv_index":8.7,"aqi":82,"mosquito_risk":7,"arthritis_risk":5,"migraine_risk":4,"frizz_risk":1,"updated_at":"2026-02-27T16:29:41.087029+05:30"},{"city":"Thrissur","state":"Kerala","latitude":10.5276,"longitude":76.2144,"temp":30.4,"humidity":67,"rain":0.0,"pressure":1004.3,"uv_index":8.8,"aqi":99,"mosquito_risk":3,"arthritis_risk":5,"migraine_risk":4,"frizz_risk":1,"updated_at":"2026-02-27T16:29:41.087037+05:30"},{"city":"Kannur","state":"Kerala","latitude":11.8745,"longitude":75.3704,"temp":30.4,"humidity":63,"rain":0.0,"pressure":1004.6,"uv_index":8.65,"aqi":50,"mosquito_risk":3,"arthritis_risk":5,"migraine_risk":4,"frizz_risk":1,"updated_at":"2026-02-27T16:29:41.087045+05:30"},{"city":"Patna","state":"Bihar","latitude":25.5941,"longitude":85.1376,"temp":28.3,"humidity":33,"rain":0.0,"pressure":999.9,"uv_index":6.9,"aqi":151,"mosquito_risk":4,"arthritis_risk":5,"migraine_risk":7,"frizz_risk":0,"updated_at":"2026-02-27T16:29:41.087052+05:30"},{"city":"Gaya","state":"Bihar","latitude":24.7914,"longitude":85.0002,"temp":26.9,"humidity":48,"rain":0.0,"pressure":993.4,"uv_index":7.0,"aqi":107,"mosquito_risk":4,"arthritis_risk":5,"migraine_risk":7,"frizz_risk":0,"updated_at":"2026-02-27T16:29:41.087060+05:30"},{"city":"Muzaffarpur","state":"Bihar","latitude":26.1209,"longitude":85.3647,"temp":28.2,"humidity":32,"rain":0.0,"pressure":999.6,"uv_index":6.85,"aqi":155,"mosquito_risk":4,"arthritis_risk":5,"migraine_risk":7,"frizz_risk":0,"updated_at":"2026-02-27T16:29:41.087067+05:30"},{"city":"Bhagalpur","state":"Bihar","latitude":25.2425,"longitude":87.0117,"temp":26.4,"humidity":44,"rain":0.0,"pressure":1000.5,"uv_index":6.9,"aqi":119,"mosquito_risk":4,"arthritis_risk":5,"migraine_risk":4,"frizz_risk":0,"updated_at":"2026-02-27T16:29:41.087075+05:30"},{"city":"Ranchi","state":"Jharkhand","latitude":23.3441,"longitude":85.3096,"temp":26.9,"humidity":20,"rain":0.0,"pressure":936.8,"uv_index":7.65,"aqi":100,"mosquito_risk":4,"arthritis_risk":5,"migraine_risk":7,"frizz_risk":0,"updated_at":"2026-02-27T16:29:41.087082+05:30"},{"city":"Jamshedpur","state":"Jharkhand","latitude":22.8046,"longitude":86.2029,"temp":30.4,"humidity":29,"rain":0.0,"pressure":989.2,"uv_index":7.55,"aqi":121,"mosquito_risk":0,"arthritis_risk":5,"migraine_risk":7,"frizz_risk":0,"updated_at":"2026-02-27T16:29:41.087090+05:30"},{"city":"Dhanbad","state":"Jharkhand","latitude":23.7957,"longitude":86.4304,"temp":30.8,"humidity":18,"rain":0.0,"pressure":978.5,"uv_index":7.4,"aqi":130,"mosquito_risk":0,"arthritis_risk":5,"migraine_risk":7,"frizz_risk":0,"updated_at":"2026-02-27T16:29:41.087097+05:30"},{"city":"Bokaro","state":"Jharkhand","latitude":23.6693,"longitude":86.1511,"temp":30.3,"humidity":18,"rain":0.0,"pressure":982.5,"uv_index":7.45,"aqi":127,"mosquito_risk":0,"arthritis_risk":5,"migraine_risk":7,"frizz_risk":0,"updated_at":"2026-02-27T16:29:41.087105+05:30"},{"city":"Bhubaneswar","state":"Odisha","latitude":20.2961,"longitude":85.8245,"temp":32.6,"humidity":21,"rain":0.0,"pressure":1000.9,"uv_index":7.85,"aqi":124,"mosquito_risk":0,"arthritis_risk":5,"migraine_risk":4,"frizz_risk":0,"updated_at":"2026-02-27T16:29:41.087113+05:30"},{"city":"Cuttack","state":"Odisha","latitude":20.4625,"longitude":85.8828,"temp":32.5,"humidity":25,"rain":0.0,"pressure":1002.7,"uv_index":7.9,"aqi":124,"mosquito_risk":0,"arthritis_risk":5,"migraine_risk":4,"frizz_risk":0,"updated_at":"2026-02-27T16:29:41.087120+05:30"},{"city":"Rourkela","state":"Odisha","latitude":22.2604,"longitude":84.8536,"temp":31.9,"humidity":23,"rain":0.0,"pressure":983.6,"uv_index":7.45,"aqi":107,"mosquito_risk":0,"arthritis_risk":5,"migraine_risk":7,"frizz_risk":0,"updated_at":"2026-02-27T16:29:41.087128+05:30"},{"city":"Raipur","state":"Chhattisgarh","latitude":21.2514,"longitude":81.6296,"temp":32.1,"humidity":25,"rain":0.0,"pressure":973.8,"uv_index":7.55,"aqi":151,"mosquito_risk":0,"arthritis_risk":5,"migraine_risk":7,"frizz_risk":0,"updated_at":"2026-02-27T16:29:41.087135+05:30"},{"city":"Bhilai","state":"Chhattisgarh","latitude":21.1938,"longitude":81.3509,"temp":32.1,"humidity":26,"rain":0.0,"pressure":974.0,"uv_index":7.55,"aqi":152,"mosquito_risk":0,"arthritis_risk":5,"migraine_risk":7,"frizz_risk":0,"updated_at":"2026-02-27T16:29:41.087143+05:30"},{"city":"Guwahati","state":"Assam","latitude":26.1158,"longitude":91.7086,"temp":26.5,"humidity":51,"rain":0.0,"pressure":999.7,"uv_index":6.9,"aqi":141,"mosquito_risk":4,"arthritis_risk":5,"migraine_risk":7,"frizz_risk":0,"updated_at":"2026-02-27T16:29:41.087150+05:30"},{"city":"Agartala","state":"Tripura","latitude":23.8315,"longitude":91.2868,"temp":27.6,"humidity":40,"rain":0.0,"pressure":1004.2,"uv_index":7.25,"aqi":164,"mosquito_risk":4,"arthritis_risk":5,"migraine_risk":4,"frizz_risk":0,"updated_at":"2026-02-27T16:29:41.087158+05:30"},{"city":"Shillong","state":"Meghalaya","latitude":25.5788,"longitude":91.8933,"temp":12.4,"humidity":71,"rain":0.0,"pressure":852.4,"uv_index":5.45,"aqi":127,"mosquito_risk":3,"arthritis_risk":5,"migraine_risk":3,"frizz_risk":0,"updated_at":"2026-02-27T16:29:41.087165+05:30"},{"city":"Imphal","state":"Manipur","latitude":24.817,"longitude":93.9368,"temp":18.8,"humidity":51,"rain":0.0,"pressure":919.9,"uv_index":7.45,"aqi":157,"mosquito_risk":0,"arthritis_risk":5,"migraine_risk":7,"frizz_risk":0,"updated_at":"2026-02-27T16:29:41.087172+05:30"},{"city":"Aizawl","state":"Mizoram","latitude":23.7271,"longitude":92.7176,"temp":21.0,"humidity":38,"rain":0.0,"pressure":890.5,"uv_index":7.4,"aqi":173,"mosquito_risk":0,"arthritis_risk":5,"migraine_risk":7,"frizz_risk":0,"updated_at":"2026-02-27T16:29:41.087179+05:30"},{"city":"Kohima","state":"Nagaland","latitude":25.6701,"longitude":94.1077,"temp":12.7,"humidity":88,"rain":0.0,"pressure":851.0,"uv_index":5.85,"aqi":156,"mosquito_risk":3,"arthritis_risk":10,"migraine_risk":3,"frizz_risk":0,"updated_at":"2026-02-27T16:29:41.087187+05:30"},{"city":"Gangtok","state":"Sikkim","latitude":27.3314,"longitude":88.6138,"temp":12.5,"humidity":87,"rain":0.0,"pressure":833.3,"uv_index":5.15,"aqi":154,"mosquito_risk":3,"arthritis_risk":10,"migraine_risk":3,"frizz_risk":0,"updated_at":"2026-02-27T16:29:41.087195+05:30"},{"city":"Siliguri","state":"West Bengal","latitude":26.7271,"longitude":88.3953,"temp":20.9,"humidity":60,"rain":0.0,"pressure":992.6,"uv_index":6.85,"aqi":163,"mosquito_risk":0,"arthritis_risk":5,"migraine_risk":7,"frizz_risk":0,"updated_at":"2026-02-27T16:29:44.392097+05:30"},{"city":"Durgapur","state":"West Bengal","latitude":23.5204,"longitude":87.3119,"temp":31.0,"humidity":19,"rain":0.0,"pressure":993.5,"uv_index":7.4,"aqi":113,"mosquito_risk":0,"arthritis_risk":5,"migraine_risk":7,"frizz_risk":0,"updated_at":"2026-02-27T16:29:44.392127+05:30"},{"city":"Asansol","state":"West Bengal","latitude":23.6739,"longitude":86.9524,"temp":30.9,"humidity":20,"rain":0.0,"pressure":992.1,"uv_index":7.4,"aqi":104,"mosquito_risk":0,"arthritis_risk":5,"migraine_risk":7,"frizz_risk":0,"updated_at":"2026-02-27T16:29:44.392136+05:30"},{"city":"Pondicherry","state":"Puducherry","latitude":11.9139,"longitude":79.8145,"temp":31.4,"humidity":50,"rain":0.0,"pressure":1006.2,"uv_index":8.7,"aqi":100,"mosquito_risk":0,"arthritis_risk":5,"migraine_risk":4,"frizz_risk":1,"updated_at":"2026-02-27T16:29:44.392144+05:30"},{"city":"Port Blair","state":"Andaman and Nicobar Islands","latitude":11.6234,"longitude":92.7265,"temp":27.0,"humidity":82,"rain":0.0,"pressure":1003.9,"uv_index":8.65,"aqi":36,"mosquito_risk":7,"arthritis_risk":5,"migraine_risk":4,"frizz_risk":1,"updated_at":"2026-02-27T16:29:44.392151+05:30"},{"city":"Haridwar","state":"Uttarakhand","latitude":29.9457,"longitude":78.1642,"temp":27.4,"humidity":40,"rain":0.0,"pressure":972.8,"uv_index":5.3,"aqi":136,"mosquito_risk":4,"arthritis_risk":5,"migraine_risk":3,"frizz_risk":0,"updated_at":"2026-02-27T16:29:44.392158+05:30"},{"city":"Rishikesh","state":"Uttarakhand","latitude":30.0869,"longitude":78.2676,"temp":26.2,"humidity":42,"rain":0.0,"pressure":965.5,"uv_index":5.4,"aqi":112,"mosquito_risk":4,"arthritis_risk":5,"migraine_risk":3,"frizz_risk":0,"updated_at":"2026-02-27T16:29:44.392164+05:30"},{"city":"Nainital","state":"Uttarakhand","latitude":29.3919,"longitude":79.4542,"temp":18.1,"humidity":61,"rain":0.0,"pressure":804.3,"uv_index":6.2,"aqi":138,"mosquito_risk":3,"arthritis_risk":5,"migraine_risk":7,"frizz_risk":0,"updated_at":"2026-02-27T16:29:44.392171+05:30"},{"city":"Mussoorie","state":"Uttarakhand","latitude":30.4599,"longitude":78.0664,"temp":17.1,"humidity":53,"rain":0.0,"pressure":800.8,"uv_index":5.75,"aqi":106,"mosquito_risk":0,"arthritis_risk":5,"migraine_risk":3,"frizz_risk":0,"updated_at":"2026-02-27T16:29:44.392177+05:30"},{"city":"Dharamshala","state":"Himachal Pradesh","latitude":32.219,"longitude":76.3234,"temp":21.1,"humidity":38,"rain":0.0,"pressure":867.3,"uv_index":5.95,"aqi":104,"mosquito_risk":0,"arthritis_risk":5,"migraine_risk":3,"frizz_risk":0,"updated_at":"2026-02-27T16:29:44.392184+05:30"},{"city":"Dalhousie","state":"Himachal Pradesh","latitude":32.5387,"longitude":75.971,"temp":19.4,"humidity":37,"rain":0.0,"pressure":802.6,"uv_index":6.2,"aqi":129,"mosquito_risk":0,"arthritis_risk":5,"migraine_risk":7,"frizz_risk":0,"updated_at":"2026-02-27T16:29:44.392191+05:30"},{"city":"Patiala","state":"Punjab","latitude":30.3398,"longitude":76.3869,"temp":27.2,"humidity":41,"rain":0.0,"pressure":977.5,"uv_index":5.4,"aqi":165,"mosquito_risk":4,"arthritis_risk":5,"migraine_risk":3,"frizz_risk":0,"updated_at":"2026-02-27T16:29:44.392197+05:30"},{"city":"Bhatinda","state":"Punjab","latitude":30.211,"longitude":74.9455,"temp":29.0,"humidity":36,"rain":0.0,"pressure":982.5,"uv_index":6.1,"aqi":157,"mosquito_risk":4,"arthritis_risk":5,"migraine_risk":7,"frizz_risk":0,"updated_at":"2026-02-27T16:29:44.392203+05:30"},{"city":"Rohtak","state":"Haryana","latitude":28.8955,"longitude":76.6066,"temp":29.9,"humidity":28,"rain":0.0,"pressure":980.8,"uv_index":5.6,"aqi":152,"mosquito_risk":4,"arthritis_risk":5,"migraine_risk":3,"frizz_risk":0,"updated_at":"2026-02-27T16:29:44.392209+05:30"},{"city":"Panipat","state":"Haryana","latitude":29.3909,"longitude":76.9635,"temp":28.3,"humidity":38,"rain":0.0,"pressure":979.5,"uv_index":5.4,"aqi":160,"mosquito_risk":4,"arthritis_risk":5,"migraine_risk":3,"frizz_risk":0,"updated_at":"2026-02-27T16:29:44.392216+05:30"},{"city":"Mathura","state":"Uttar Pradesh","latitude":27.4924,"longitude":77.6737,"temp":30.4,"humidity":29,"rain":0.0,"pressure":985.8,"uv_index":5.85,"aqi":129,"mosquito_risk":0,"arthritis_risk":5,"migraine_risk":3,"frizz_risk":0,"updated_at":"2026-02-27T16:29:44.392222+05:30"},{"city":"Vrindavan","state":"Uttar Pradesh","latitude":27.5823,"longitude":77.7027,"temp":30.4,"humidity":29,"rain":0.0,"pressure":986.3,"uv_index":5.8,"aqi":129,"mosquito_risk":0,"arthritis_risk":5,"migraine_risk":3,"frizz_risk":0,"updated_at":"2026-02-27T16:29:44.392228+05:30"},{"city":"Ayodhya","state":"Uttar Pradesh","latitude":26.7922,"longitude":82.1998,"temp":29.3,"humidity":28,"rain":0.0,"pressure":994.5,"uv_index":6.2,"aqi":144,"mosquito_risk":4,"arthritis_risk":5,"migraine_risk":7,"frizz_risk":0,"updated_at":"2026-02-27T16:29:44.392234+05:30"},{"city":"Ratlam","state":"Madhya Pradesh","latitude":23.3315,"longitude":75.0367,"temp":29.2,"humidity":42,"rain":0.0,"pressure":953.3,"uv_index":7.1,"aqi":73,"mosquito_risk":4,"arthritis_risk":5,"migraine_risk":7,"frizz_risk":0,"updated_at":"2026-02-27T16:29:44.392241+05:30"},{"city":"Sagar","state":"Madhya Pradesh","latitude":23.8388,"longitude":78.7378,"temp":30.0,"humidity":27,"rain":0.0,"pressure":949.5,"uv_index":7.05,"aqi":60,"mosquito_risk":4,"arthritis_risk":5,"migraine_risk":7,"frizz_risk":0,"updated_at":"2026-02-27T16:29:44.392247+05:30"},{"city":"Satna","state":"Madhya Pradesh","latitude":24.6005,"longitude":80.8322,"temp":31.9,"humidity":19,"rain":0.0,"pressure":970.5,"uv_index":7.0,"aqi":67,"mosquito_risk":0,"arthritis_risk":5,"migraine_risk":7,"frizz_risk":0,"updated_at":"2026-02-27T16:29:44.392253+05:30"},{"city":"Akola","state":"Maharashtra","latitude":20.7002,"longitude":77.0082,"temp":34.3,"humidity":25,"rain":0.0,"pressure":973.0,"uv_index":7.55,"aqi":119,"mosquito_risk":0,"arthritis_risk":5,"migraine_risk":7,"frizz_risk":0,"updated_at":"2026-02-27T16:29:44.392261+05:30"},{"city":"Amravati","state":"Maharashtra","latitude":20.9374,"longitude":77.7796,"temp":33.4,"humidity":28,"rain":0.0,"pressure":965.7,"uv_index":7.5,"aqi":125,"mosquito_risk":0,"arthritis_risk":5,"migraine_risk":7,"frizz_risk":0,"updated_at":"2026-02-27T16:29:44.392268+05:30"},{"city":"Latur","state":"Maharashtra","latitude":18.4088,"longitude":76.5604,"temp":31.5,"humidity":27,"rain":0.0,"pressure":937.9,"uv_index":8.0,"aqi":106,"mosquito_risk":0,"arthritis_risk":5,"migraine_risk":7,"frizz_risk":0,"updated_at":"2026-02-27T16:29:44.392274+05:30"},{"city":"Nanded","state":"Maharashtra","latitude":19.1383,"longitude":77.3091,"temp":34.2,"humidity":25,"rain":0.0,"pressure":966.4,"uv_index":7.75,"aqi":143,"mosquito_risk":0,"arthritis_risk":5,"migraine_risk":7,"frizz_risk":0,"updated_at":"2026-02-27T16:29:44.392280+05:30"},{"city":"Gulbarga","state":"Karnataka","latitude":17.3297,"longitude":76.8343,"temp":33.6,"humidity":24,"rain":0.0,"pressure":956.4,"uv_index":8.1,"aqi":99,"mosquito_risk":0,"arthritis_risk":5,"migraine_risk":7,"frizz_risk":0,"updated_at":"2026-02-27T16:29:44.392286+05:30"},{"city":"Bidar","state":"Karnataka","latitude":17.9104,"longitude":77.5199,"temp":31.7,"humidity":29,"rain":0.0,"pressure":933.8,"uv_index":8.05,"aqi":132,"mosquito_risk":0,"arthritis_risk":5,"migraine_risk":7,"frizz_risk":0,"updated_at":"2026-02-27T16:29:44.392293+05:30"},{"city":"Hospet","state":"Karnataka","latitude":15.2689,"longitude":76.3909,"temp":33.5,"humidity":23,"rain":0.0,"pressure":953.3,"uv_index":8.4,"aqi":91,"mosquito_risk":0,"arthritis_risk":5,"migraine_risk":7,"frizz_risk":0,"updated_at":"2026-02-27T16:29:44.392299+05:30"},{"city":"Tirupur","state":"Tamil Nadu","latitude":11.1085,"longitude":77.3411,"temp":33.8,"humidity":32,"rain":0.0,"pressure":972.0,"uv_index":7.1,"aqi":150,"mosquito_risk":0,"arthritis_risk":5,"migraine_risk":7,"frizz_risk":0,"updated_at":"2026-02-27T16:29:44.392305+05:30"},{"city":"Alappuzha","state":"Kerala","latitude":9.4981,"longitude":76.3388,"temp":27.8,"humidity":80,"rain":0.0,"pressure":1006.0,"uv_index":8.7,"aqi":138,"mosquito_risk":7,"arthritis_risk":5,"migraine_risk":4,"frizz_risk":1,"updated_at":"2026-02-27T16:29:44.392312+05:30"},{"city":"Munnar","state":"Kerala","latitude":10.0889,"longitude":77.0595,"temp":23.6,"humidity":77,"rain":0.0,"pressure":855.2,"uv_index":6.35,"aqi":93,"mosquito_risk":3,"arthritis_risk":5,"migraine_risk":7,"frizz_risk":1,"updated_at":"2026-02-27T16:29:44.392318+05:30"},{"city":"Silchar","state":"Assam","latitude":24.8333,"longitude":92.7789,"temp":27.2,"humidity":45,"rain":0.0,"pressure":1002.8,"uv_index":7.2,"aqi":164,"mosquito_risk":4,"arthritis_risk":5,"migraine_risk":4,"frizz_risk":0,"updated_at":"2026-02-27T16:29:44.392324+05:30"},{"city":"Dibrugarh","state":"Assam","latitude":27.4728,"longitude":94.912,"temp":23.0,"humidity":72,"rain":0.0,"pressure":994.5,"uv_index":6.95,"aqi":150,"mosquito_risk":3,"arthritis_risk":5,"migraine_risk":7,"frizz_risk":1,"updated_at":"2026-02-27T16:29:44.392331+05:30"}]