[{"city":"Delhi","state":"Delhi","latitude":28.6139,"longitude":77.209,"temp":23.3,"humidity":65,"rain":0.0,"pressure":984.6,"uv_index":5.85,"wind_gusts":34.6,"aqi":458,"pm10":516.0,"pm2_5":114.1,"mosquito_risk":3,"arthritis_risk":5,"migraine_risk":3,"frizz_risk":1,"updated_at":"2026-03-05T23:37:34.748043+05:30"},{"city":"Mumbai","state":"Maharashtra","latitude":19.076,"longitude":72.8777,"temp":28.7,"humidity":62,"rain":0.0,"pressure":1009.7,"uv_index":7.4,"wind_gusts":26.6,"aqi":137,"pm10":30.4,"pm2_5":28.6,"mosquito_risk":7,"arthritis_risk":0,"migraine_risk":4,"frizz_risk":1,"updated_at":"2026-03-05T23:37:34.748081+05:30"},{"city":"Bangalore","state":"Karnataka","latitude":12.9716,"longitude":77.5946,"temp":22.2,"humidity":51,"rain":0.0,"pressure":912.3,"uv_index":9.15,"wind_gusts":31.3,"aqi":86,"pm10":35.9,"pm2_5":33.4,"mosquito_risk":0,"arthritis_risk":5,"migraine_risk":7,"frizz_risk":0,"updated_at":"2026-03-05T23:37:34.748095+05:30"},{"city":"Hyderabad","state":"Telangana","latitude":17.385,"longitude":78.4867,"temp":26.2,"humidity":46,"rain":0.0,"pressure":954.6,"uv_index":8.45,"wind_gusts":27.4,"aqi":91,"pm10":58.2,"pm2_5":56.0,"mosquito_risk":4,"arthritis_risk":5,"migraine_risk":7,"frizz_risk":0,"updated_at":"2026-03-05T23:37:34.748105+05:30"},{"city":"Chennai","state":"Tamil Nadu","latitude":13.0827,"longitude":80.2707,"temp":25.5,"humidity":90,"rain":0.0,"pressure":1008.6,"uv_index":8.85,"wind_gusts":31.3,"aqi":94,"pm10":26.7,"pm2_5":23.0,"mosquito_risk":7,"arthritis_risk":0,"migraine_risk":4,"frizz_risk":1,"updated_at":"2026-03-05T23:37:34.748114+05:30"},{"city":"Kolkata","state":"West Bengal","latitude":22.5726,"longitude":88.3639,"temp":22.7,"humidity":84,"rain":0.0,"pressure":1007.5,"uv_index":7.8,"wind_gusts":10.8,"aqi":167,"pm10":140.6,"pm2_5":126.2,"mosquito_risk":3,"arthritis_risk":5,"migraine_risk":4,"frizz_risk":1,"updated_at":"2026-03-05T23:37:34.748123+05:30"},{"city":"Pune","state":"Maharashtra","latitude":18.5204,"longitude":73.8567,"temp":23.6,"humidity":56,"rain":0.0,"pressure":949.5,"uv_index":7.95,"wind_gusts":31.3,"aqi":81,"pm10":35.9,"pm2_5":34.5,"mosquito_risk":0,"arthritis_risk":5,"migraine_risk":7,"frizz_risk":0,"updated_at":"2026-03-05T23:37:34.748134+05:30"},{"city":"Ahmedabad","state":"Gujarat","latitude":23.0225,"longitude":72.5714,"temp":24.5,"humidity":51,"rain":0.0,"pressure":1005.1,"uv_index":7.15,"wind_gusts":28.4,"aqi":68,"pm10":52.2,"pm2_5":50.8,"mosquito_risk":0,"arthritis_risk":5,"migraine_risk":4,"frizz_risk":0,"updated_at":"2026-03-05T23:37:34.748141+05:30"},{"city":"Jaipur","state":"Rajasthan","latitude":26.9124,"longitude":75.7873,"temp":26.6,"humidity":32,"rain":0.0,"pressure":962.0,"uv_index":6.65,"wind_gusts":34.9,"aqi":99,"pm10":117.1,"pm2_5":32.5,"mosquito_risk":4,"arthritis_risk":5,"migraine_risk":7,"frizz_risk":0,"updated_at":"2026-03-05T23:37:34.748148+05:30"},{"city":"Lucknow","state":"Uttar Pradesh","latitude":26.8467,"longitude":80.9462,"temp":23.0,"humidity":76,"rain":0.0,"pressure":995.5,"uv_index":6.4,"wind_gusts":15.1,"aqi":168,"pm10":203.5,"pm2_5":112.0,"mosquito_risk":3,"arthritis_risk":5,"migraine_risk":7,"frizz_risk":1,"updated_at":"2026-03-05T23:37:34.748155+05:30"},{"city":"Kanpur","state":"Uttar Pradesh","latitude":26.4499,"longitude":80.3319,"temp":22.7,"humidity":74,"rain":0.0,"pressure":993.7,"uv_index":6.4,"wind_gusts":28.4,"aqi":178,"pm10":294.3,"pm2_5":92.9,"mosquito_risk":3,"arthritis_risk":5,"migraine_risk":7,"frizz_risk":1,"updated_at":"2026-03-05T23:37:34.748162+05:30"},{"city":"Chandigarh","state":"Chandigarh","latitude":30.7333,"longitude":76.7794,"temp":21.2,"humidity":75,"rain":0.0,"pressure":969.6,"uv_index":5.75,"wind_gusts":31.0,"aqi":97,"pm10":49.4,"pm2_5":43.3,"mosquito_risk":3,"arthritis_risk":5,"migraine_risk":3,"frizz_risk":1,"updated_at":"2026-03-05T23:37:34.748169+05:30"},{"city":"Srinagar","state":"Jammu and Kashmir","latitude":34.0837,"longitude":74.7973,"temp":9.6,"humidity":83,"rain":0.0,"pressure":839.9,"uv_index":6.75,"wind_gusts":14.8,"aqi":150,"pm10":103.6,"pm2_5":87.3,"mosquito_risk":3,"arthritis_risk":10,"migraine_risk":7,"frizz_risk":0,"updated_at":"2026-03-05T23:37:34.748177+05:30"},{"city":"Jammu","state":"Jammu and Kashmir","latitude":32.7266,"longitude":74.857,"temp":19.1,"humidity":90,"rain":0.0,"pressure":973.5,"uv_index":6.4,"wind_gusts":23.8,"aqi":110,"pm10":78.5,"pm2_5":60.8,"mosquito_risk":3,"arthritis_risk":10,"migraine_risk":7,"frizz_risk":1,"updated_at":"2026-03-05T23:37:34.748184+05:30"},{"city":"Amritsar","state":"Punjab","latitude":31.634,"longitude":74.8723,"temp":20.5,"humidity":70,"rain":0.0,"pressure":981.9,"uv_index":6.35,"wind_gusts":22.7,"aqi":144,"pm10":84.3,"pm2_5":72.2,"mosquito_risk":3,"arthritis_risk":5,"migraine_risk":7,"frizz_risk":0,"updated_at":"2026-03-05T23:37:34.748190+05:30"},{"city":"Ludhiana","state":"Punjab","latitude":30.901,"longitude":75.8573,"temp":23.6,"humidity":65,"rain":0.0,"pressure":980.0,"uv_index":6.0,"wind_gusts":25.6,"aqi":156,"pm10":120.1,"pm2_5":83.1,"mosquito_risk":3,"arthritis_risk":5,"migraine_risk":3,"frizz_risk":1,"updated_at":"2026-03-05T23:37:34.748196+05:30"},{"city":"Jalandhar","state":"Punjab","latitude":31.326,"longitude":75.5762,"temp":21.0,"humidity":78,"rain":0.0,"pressure":981.0,"uv_index":6.2,"wind_gusts":24.1,"aqi":156,"pm10":104.1,"pm2_5":90.3,"mosquito_risk":3,"arthritis_risk":5,"migraine_risk":7,"frizz_risk":1,"updated_at":"2026-03-05T23:37:34.748205+05:30"},{"city":"Dehradun","state":"Uttarakhand","latitude":30.6284,"longitude":78.0322,"temp":13.8,"humidity":85,"rain":0.0,"pressure":829.5,"uv_index":6.15,"wind_gusts":31.7,"aqi":67,"pm10":40.9,"pm2_5":33.8,"mosquito_risk":3,"arthritis_risk":10,"migraine_risk":7,"frizz_risk":0,"updated_at":"2026-03-05T23:37:34.748211+05:30"},{"city":"Shimla","state":"Himachal Pradesh","latitude":31.1048,"longitude":77.1734,"temp":13.9,"humidity":52,"rain":0.0,"pressure":784.9,"uv_index":6.2,"wind_gusts":55.1,"aqi":66,"pm10":46.6,"pm2_5":28.6,"mosquito_risk":0,"arthritis_risk":5,"migraine_risk":7,"frizz_risk":0,"updated_at":"2026-03-05T23:37:34.748218+05:30"},{"city":"Manali","state":"Himachal Pradesh","latitude":32.2396,"longitude":77.1887,"temp":18.7,"humidity":33,"rain":0.0,"pressure":823.0,"uv_index":7.8,"wind_gusts":36.7,"aqi":62,"pm10":30.5,"pm2_5":21.0,"mosquito_risk":0,"arthritis_risk":5,"migraine_risk":7,"frizz_risk":0,"updated_at":"2026-03-05T23:37:34.748225+05:30"},{"city":"Gurgaon","state":"Haryana","latitude":28.4595,"longitude":77.0266,"temp":20.3,"humidity":74,"rain":0.0,"pressure":982.9,"uv_index":5.95,"wind_gusts":33.5,"aqi":1533,"pm10":1035.6,"pm2_5":161.1,"mosquito_risk":3,"arthritis_risk":5,"migraine_risk":3,"frizz_risk":0,"updated_at":"2026-03-05T23:37:34.748231+05:30"},{"city":"Noida","state":"Uttar Pradesh","latitude":28.5355,"longitude":77.391,"temp":23.4,"humidity":65,"rain":0.0,"pressure":986.1,"uv_index":5.85,"wind_gusts":34.6,"aqi":1533,"pm10":1035.6,"pm2_5":161.1,"mosquito_risk":3,"arthritis_risk":5,"migraine_risk":3,"frizz_risk":1,"updated_at":"2026-03-05T23:37:34.748238+05:30"},{"city":"Ghaziabad","state":"Uttar Pradesh","latitude":28.6692,"longitude":77.4538,"temp":23.2,"humidity":69,"rain":0.0,"pressure":984.2,"uv_index":5.8,"wind_gusts":31.7,"aqi":317,"pm10":529.0,"pm2_5":124.3,"mosquito_risk":3,"arthritis_risk":5,"migraine_risk":3,"frizz_risk":1,"updated_at":"2026-03-05T23:37:34.748244+05:30"},{"city":"Faridabad","state":"Haryana","latitude":28.4089,"longitude":77.3178,"temp":23.7,"humidity":56,"rain":0.0,"pressure":985.3,"uv_index":5.9,"wind_gusts":33.1,"aqi":1533,"pm10":1035.6,"pm2_5":161.1,"mosquito_risk":0,"arthritis_risk":5,"migraine_risk":3,"frizz_risk":0,"updated_at":"2026-03-05T23:37:34.748250+05:30"},{"city":"Meerut","state":"Uttar Pradesh","latitude":28.9845,"longitude":77.7064,"temp":22.1,"humidity":75,"rain":0.0,"pressure":983.0,"uv_index":5.7,"wind_gusts":30.6,"aqi":317,"pm10":529.0,"pm2_5":124.3,"mosquito_risk":3,"arthritis_risk":5,"migraine_risk":3,"frizz_risk":1,"updated_at":"2026-03-05T23:37:34.748257+05:30"},{"city":"Agra","state":"Uttar Pradesh","latitude":27.1767,"longitude":78.0081,"temp":21.1,"humidity":65,"rain":0.0,"pressure":989.4,"uv_index":6.2,"wind_gusts":37.8,"aqi":525,"pm10":698.5,"pm2_5":114.6,"mosquito_risk":3,"arthritis_risk":5,"migraine_risk":7,"frizz_risk":0,"updated_at":"2026-03-05T23:37:34.748263+05:30"},{"city":"Varanasi","state":"Uttar Pradesh","latitude":25.3176,"longitude":82.9739,"temp":22.0,"humidity":74,"rain":0.0,"pressure":999.3,"uv_index":7.05,"wind_gusts":16.6,"aqi":158,"pm10":169.5,"pm2_5":103.8,"mosquito_risk":3,"arthritis_risk":5,"migraine_risk":7,"frizz_risk":1,"updated_at":"2026-03-05T23:37:34.748272+05:30"},{"city":"Prayagraj","state":"Uttar Pradesh","latitude":25.4358,"longitude":81.8463,"temp":22.6,"humidity":75,"rain":0.0,"pressure":997.8,"uv_index":6.9,"wind_gusts":19.4,"aqi":160,"pm10":178.8,"pm2_5":104.8,"mosquito_risk":3,"arthritis_risk":5,"migraine_risk":7,"frizz_risk":1,"updated_at":"2026-03-05T23:37:34.748279+05:30"},{"city":"Gorakhpur","state":"Uttar Pradesh","latitude":26.7606,"longitude":83.3732,"temp":20.4,"humidity":78,"rain":0.0,"pressure":999.3,"uv_index":6.75,"wind_gusts":11.2,"aqi":174,"pm10":156.0,"pm2_5":123.9,"mosquito_risk":3,"arthritis_risk":5,"migraine_risk":7,"frizz_risk":1,"updated_at":"2026-03-05T23:37:34.748285+05:30"},{"city":"Bareilly","state":"Uttar Pradesh","latitude":28.367,"longitude":79.4304,"temp":20.8,"humidity":84,"rain":0.0,"pressure":988.7,"uv_index":6.05,"wind_gusts":14.0,"aqi":171,"pm10":112.2,"pm2_5":85.0,"mosquito_risk":3,"arthritis_risk":5,"migraine_risk":7,"frizz_risk":1,"updated_at":"2026-03-05T23:37:34.748292+05:30"},{"city":"Aligarh","state":"Uttar Pradesh","latitude":27.8974,"longitude":78.088,"temp":21.0,"humidity":70,"rain":0.0,"pressure":987.1,"uv_index":5.95,"wind_gusts":35.3,"aqi":746,"pm10":817.7,"pm2_5":158.3,"mosquito_risk":3,"arthritis_risk":5,"migraine_risk":3,"frizz_risk":0,"updated_at":"2026-03-05T23:37:34.748298+05:30"},{"city":"Moradabad","state":"Uttar Pradesh","latitude":28.8386,"longitude":78.7733,"temp":20.7,"humidity":85,"rain":0.0,"pressure":985.4,"uv_index":5.85,"wind_gusts":18.0,"aqi":174,"pm10":103.6,"pm2_5":83.4,"mosquito_risk":3,"arthritis_risk":5,"migraine_risk":3,"frizz_risk":1,"updated_at":"2026-03-05T23:37:34.748304+05:30"},{"city":"Saharanpur","state":"Uttar Pradesh","latitude":29.9637,"longitude":77.546,"temp":20.7,"humidity":78,"rain":0.0,"pressure":976.9,"uv_index":5.5,"wind_gusts":23.4,"aqi":160,"pm10":291.5,"pm2_5":115.3,"mosquito_risk":3,"arthritis_risk":5,"migraine_risk":3,"frizz_risk":1,"updated_at":"2026-03-05T23:37:34.748313+05:30"},{"city":"Jhansi","state":"Uttar Pradesh","latitude":25.4484,"longitude":78.5685,"temp":22.6,"humidity":54,"rain":0.0,"pressure":979.7,"uv_index":6.85,"wind_gusts":35.3,"aqi":58,"pm10":38.9,"pm2_5":24.9,"mosquito_risk":0,"arthritis_risk":5,"migraine_risk":7,"frizz_risk":0,"updated_at":"2026-03-05T23:37:38.084933+05:30"},{"city":"Surat","state":"Gujarat","latitude":21.1702,"longitude":72.8311,"temp":26.2,"humidity":53,"rain":0.0,"pressure":1008.7,"uv_index":7.1,"wind_gusts":29.5,"aqi":110,"pm10":58.3,"pm2_5":56.6,"mosquito_risk":4,"arthritis_risk":0,"migraine_risk":4,"frizz_risk":0,"updated_at":"2026-03-05T23:37:38.084966+05:30"},{"city":"Vadodara","state":"Gujarat","latitude":22.3072,"longitude":73.1812,"temp":26.1,"humidity":38,"rain":0.0,"pressure":1006.9,"uv_index":7.2,"wind_gusts":24.5,"aqi":82,"pm10":45.5,"pm2_5":44.7,"mosquito_risk":4,"arthritis_risk":5,"migraine_risk":4,"frizz_risk":0,"updated_at":"2026-03-05T23:37:38.084978+05:30"},{"city":"Rajkot","state":"Gujarat","latitude":22.3039,"longitude":70.8022,"temp":23.4,"humidity":64,"rain":0.0,"pressure":997.7,"uv_index":7.05,"wind_gusts":36.4,"aqi":73,"pm10":15.6,"pm2_5":14.3,"mosquito_risk":3,"arthritis_risk":5,"migraine_risk":7,"frizz_risk":1,"updated_at":"2026-03-05T23:37:38.084989+05:30"},{"city":"Thane","state":"Maharashtra","latitude":19.2183,"longitude":72.9781,"temp":27.8,"humidity":47,"rain":0.0,"pressure":1009.1,"uv_index":7.4,"wind_gusts":41.4,"aqi":137,"pm10":30.4,"pm2_5":28.6,"mosquito_risk":4,"arthritis_risk":0,"migraine_risk":4,"frizz_risk":0,"updated_at":"2026-03-05T23:37:38.084998+05:30"},{"city":"Nagpur","state":"Maharashtra","latitude":21.1458,"longitude":79.0882,"temp":24.3,"humidity":44,"rain":0.0,"pressure":974.5,"uv_index":7.8,"wind_gusts":27.0,"aqi":56,"pm10":23.1,"pm2_5":17.2,"mosquito_risk":0,"arthritis_risk":5,"migraine_risk":7,"frizz_risk":0,"updated_at":"2026-03-05T23:37:38.085007+05:30"},{"city":"Nashik","state":"Maharashtra","latitude":19.9975,"longitude":73.7898,"temp":23.8,"humidity":46,"rain":0.0,"pressure":947.6,"uv_index":7.55,"wind_gusts":37.4,"aqi":83,"pm10":25.1,"pm2_5":23.5,"mosquito_risk":0,"arthritis_risk":5,"migraine_risk":7,"frizz_risk":0,"updated_at":"2026-03-05T23:37:38.085015+05:30"},{"city":"Aurangabad","state":"Maharashtra","latitude":19.8762,"longitude":75.3433,"temp":24.9,"humidity":46,"rain":0.0,"pressure":945.7,"uv_index":8.1,"wind_gusts":30.2,"aqi":80,"pm10":31.9,"pm2_5":28.0,"mosquito_risk":0,"arthritis_risk":5,"migraine_risk":7,"frizz_risk":0,"updated_at":"2026-03-05T23:37:38.085023+05:30"},{"city":"Solapur","state":"Maharashtra","latitude":17.6599,"longitude":75.9064,"temp":25.4,"humidity":51,"rain":0.0,"pressure":957.9,"uv_index":8.35,"wind_gusts":19.1,"aqi":109,"pm10":23.2,"pm2_5":21.9,"mosquito_risk":4,"arthritis_risk":5,"migraine_risk":7,"frizz_risk":0,"updated_at":"2026-03-05T23:37:38.085032+05:30"},{"city":"Kolhapur","state":"Maharashtra","latitude":16.705,"longitude":74.2433,"temp":20.9,"humidity":61,"rain":0.0,"pressure":948.7,"uv_index":8.5,"wind_gusts":34.6,"aqi":151,"pm10":79.4,"pm2_5":78.7,"mosquito_risk":3,"arthritis_risk":5,"migraine_risk":7,"frizz_risk":0,"updated_at":"2026-03-05T23:37:38.085040+05:30"},{"city":"Goa","state":"Goa","latitude":15.2993,"longitude":74.124,"temp":26.7,"humidity":88,"rain":0.0,"pressure":999.3,"uv_index":8.55,"wind_gusts":36.0,"aqi":152,"pm10":74.5,"pm2_5":71.2,"mosquito_risk":7,"arthritis_risk":5,"migraine_risk":7,"frizz_risk":1,"updated_at":"2026-03-05T23:37:38.085048+05:30"},{"city":"Jodhpur","state":"Rajasthan","latitude":26.2389,"longitude":73.0243,"temp":24.2,"humidity":29,"rain":0.0,"pressure":985.3,"uv_index":6.9,"wind_gusts":24.1,"aqi":77,"pm10":99.2,"pm2_5":21.4,"mosquito_risk":0,"arthritis_risk":5,"migraine_risk":7,"frizz_risk":0,"updated_at":"2026-03-05T23:37:38.085057+05:30"},{"city":"Udaipur","state":"Rajasthan","latitude":24.5854,"longitude":73.7125,"temp":20.7,"humidity":36,"rain":0.0,"pressure":949.1,"uv_index":7.55,"wind_gusts":25.9,"aqi":57,"pm10":16.6,"pm2_5":15.9,"mosquito_risk":0,"arthritis_risk":5,"migraine_risk":7,"frizz_risk":0,"updated_at":"2026-03-05T23:37:38.085064+05:30"},{"city":"Kota","state":"Rajasthan","latitude":25.2138,"longitude":75.8648,"temp":21.5,"humidity":62,"rain":0.0,"pressure":980.8,"uv_index":6.95,"wind_gusts":28.8,"aqi":78,"pm10":65.0,"pm2_5":39.0,"mosquito_risk":3,"arthritis_risk":5,"migraine_risk":7,"frizz_risk":0,"updated_at":"2026-03-05T23:37:38.085070+05:30"},{"city":"Bikaner","state":"Rajasthan","latitude":28.0229,"longitude":73.3119,"temp":25.7,"humidity":35,"rain":0.0,"pressure":983.8,"uv_index":6.6,"wind_gusts":20.9,"aqi":62,"pm10":15.4,"pm2_5":12.3,"mosquito_risk":4,"arthritis_risk":5,"migraine_risk":7,"frizz_risk":0,"updated_at":"2026-03-05T23:37:38.085076+05:30"},{"city":"Ajmer","state":"Rajasthan","latitude":26.4499,"longitude":74.6399,"temp":24.2,"humidity":41,"rain":0.0,"pressure":957.0,"uv_index":6.9,"wind_gusts":25.6,"aqi":69,"pm10":30.4,"pm2_5":17.6,"mosquito_risk":0,"arthritis_risk":5,"migraine_risk":7,"frizz_risk":0,"updated_at":"2026-03-05T23:37:38.085082+05:30"},{"city":"Gwalior","state":"Madhya Pradesh","latitude":26.2183,"longitude":78.1828,"temp":23.5,"humidity":58,"rain":0.0,"pressure":985.2,"uv_index":6.55,"wind_gusts":32.8,"aqi":74,"pm10":195.6,"pm2_5":48.4,"mosquito_risk":0,"arthritis_risk":5,"migraine_risk":7,"frizz_risk":0,"updated_at":"2026-03-05T23:37:38.085089+05:30"},{"city":"Indore","state":"Madhya Pradesh","latitude":22.7196,"longitude":75.8577,"temp":20.6,"humidity":60,"rain":0.0,"pressure":950.1,"uv_index":7.5,"wind_gusts":25.2,"aqi":77,"pm10":43.0,"pm2_5":32.0,"mosquito_risk":0,"arthritis_risk":5,"migraine_risk":7,"frizz_risk":0,"updated_at":"2026-03-05T23:37:38.085095+05:30"},{"city":"Bhopal","state":"Madhya Pradesh","latitude":23.2599,"longitude":77.4126,"temp":22.1,"humidity":48,"rain":0.0,"pressure":955.7,"uv_index":7.35,"wind_gusts":29.5,"aqi":64,"pm10":35.6,"pm2_5":26.5,"mosquito_risk":0,"arthritis_risk":5,"migraine_risk":7,"frizz_risk":0,"updated_at":"2026-03-05T23:37:38.085102+05:30"},{"city":"Jabalpur","state":"Madhya Pradesh","latitude":23.1815,"longitude":79.9864,"temp":25.0,"humidity":43,"rain":0.0,"pressure":962.9,"uv_index":7.5,"wind_gusts":30.2,"aqi":60,"pm10":41.9,"pm2_5":25.0,"mosquito_risk":4,"arthritis_risk":5,"migraine_risk":7,"frizz_risk":0,"updated_at":"2026-03-05T23:37:38.085108+05:30"},{"city":"Ujjain","state":"Madhya Pradesh","latitude":23.1765,"longitude":75.7885,"temp":20.9,"humidity":58,"rain":0.0,"pressure":955.9,"uv_index":7.4,"wind_gusts":23.0,"aqi":107,"pm10":60.3,"pm2_5":50.9,"mosquito_risk":0,"arthritis_risk":5,"migraine_risk":7,"frizz_risk":0,"updated_at":"2026-03-05T23:37:38.085115+05:30"},{"city":"Visakhapatnam","state":"Andhra Pradesh","latitude":17.6868,"longitude":83.2185,"temp":25.1,"humidity":85,"rain":0.0,"pressure":1003.8,"uv_index":8.45,"wind_gusts":33.1,"aqi":113,"pm10":44.5,"pm2_5":41.3,"mosquito_risk":7,"arthritis_risk":5,"migraine_risk":4,"frizz_risk":1,"updated_at":"2026-03-05T23:37:38.085121+05:30"},{"city":"Vijayawada","state":"Andhra Pradesh","latitude":16.5062,"longitude":80.648,"temp":25.6,"humidity":71,"rain":0.0,"pressure":1003.1,"uv_index":8.5,"wind_gusts":17.3,"aqi":113,"pm10":48.8,"pm2_5":47.4,"mosquito_risk":7,"arthritis_risk":5,"migraine_risk":4,"frizz_risk":1,"updated_at":"2026-03-05T23:37:38.085128+05:30"},{"city":"Guntur","state":"Andhra Pradesh","latitude":16.3067,"longitude":80.4365,"temp":24.8,"humidity":79,"rain":0.0,"pressure":1004.3,"uv_index":8.5,"wind_gusts":20.9,"aqi":106,"pm10":50.4,"pm2_5":48.7,"mosquito_risk":3,"arthritis_risk":5,"migraine_risk":4,"frizz_risk":1,"updated_at":"2026-03-05T23:37:38.085135+05:30"},{"city":"Nellore","state":"Andhra Pradesh","latitude":14.4426,"longitude":79.9865,"temp":25.2,"humidity":78,"rain":0.0,"pressure":1007.0,"uv_index":8.7,"wind_gusts":28.4,"aqi":109,"pm10":30.5,"pm2_5":28.6,"mosquito_risk":7,"arthritis_risk":5,"migraine_risk":4,"frizz_risk":1,"updated_at":"2026-03-05T23:37:38.085142+05:30"},{"city":"Kurnool","state":"Andhra Pradesh","latitude":15.8281,"longitude":78.0373,"temp":27.7,"humidity":36,"rain":0.0,"pressure":977.3,"uv_index":8.5,"wind_gusts":27.0,"aqi":89,"pm10":19.6,"pm2_5":18.4,"mosquito_risk":4,"arthritis_risk":5,"migraine_risk":7,"frizz_risk":0,"updated_at":"2026-03-05T23:37:38.085149+05:30"},{"city":"Kakinada","state":"Andhra Pradesh","latitude":16.9891,"longitude":82.2475,"temp":24.1,"humidity":88,"rain":0.0,"pressure":1007.7,"uv_index":8.45,"wind_gusts":27.4,"aqi":102,"pm10":38.2,"pm2_5":34.5,"mosquito_risk":3,"arthritis_risk":5,"migraine_risk":4,"frizz_risk":1,"updated_at":"2026-03-05T23:37:38.085155+05:30"},{"city":"Tirupati","state":"Andhra Pradesh","latitude":13.6288,"longitude":79.4192,"temp":25.5,"humidity":63,"rain":0.0,"pressure":993.2,"uv_index":8.8,"wind_gusts":29.5,"aqi":124,"pm10":56.1,"pm2_5":53.8,"mosquito_risk":7,"arthritis_risk":5,"migraine_risk":7,"frizz_risk":1,"updated_at":"2026-03-05T23:37:38.085161+05:30"},{"city":"Warangal","state":"Telangana","latitude":17.9689,"longitude":79.5941,"temp":26.9,"humidity":40,"rain":0.0,"pressure":979.2,"uv_index":8.3,"wind_gusts":27.4,"aqi":96,"pm10":31.4,"pm2_5":29.6,"mosquito_risk":4,"arthritis_risk":5,"migraine_risk":7,"frizz_risk":0,"updated_at":"2026-03-05T23:37:38.085167+05:30"},{"city":"Nizamabad","state":"Telangana","latitude":18.6725,"longitude":78.0941,"temp":23.4,"humidity":54,"rain":0.0,"pressure":965.8,"uv_index":8.15,"wind_gusts":22.3,"aqi":84,"pm10":34.9,"pm2_5":33.4,"mosquito_risk":0,"arthritis_risk":5,"migraine_risk":7,"frizz_risk":0,"updated_at":"2026-03-05T23:37:38.085173+05:30"},{"city":"Mysore","state":"Karnataka","latitude":12.2958,"longitude":76.6396,"temp":22.5,"humidity":88,"rain":0.0,"pressure":929.4,"uv_index":9.15,"wind_gusts":26.3,"aqi":106,"pm10":68.5,"pm2_5":67.3,"mosquito_risk":3,"arthritis_risk":5,"migraine_risk":7,"frizz_risk":1,"updated_at":"2026-03-05T23:37:38.085180+05:30"},{"city":"Mangalore","state":"Karnataka","latitude":12.9141,"longitude":74.856,"temp":28.9,"humidity":80,"rain":0.0,"pressure":1008.4,"uv_index":8.75,"wind_gusts":30.2,"aqi":132,"pm10":53.2,"pm2_5":48.7,"mosquito_risk":7,"arthritis_risk":0,"migraine_risk":4,"frizz_risk":1,"updated_at":"2026-03-05T23:37:38.085185+05:30"},{"city":"Hubli-Dharwad","state":"Karnataka","latitude":15.3647,"longitude":75.124,"temp":22.5,"humidity":89,"rain":0.0,"pressure":941.7,"uv_index":8.7,"wind_gusts":29.2,"aqi":109,"pm10":27.8,"pm2_5":26.9,"mosquito_risk":3,"arthritis_risk":5,"migraine_risk":7,"frizz_risk":1,"updated_at":"2026-03-05T23:37:38.085192+05:30"},{"city":"Belgaum","state":"Karnataka","latitude":15.8497,"longitude":74.4977,"temp":22.3,"humidity":73,"rain":0.0,"pressure":926.5,"uv_index":8.75,"wind_gusts":36.7,"aqi":120,"pm10":58.9,"pm2_5":57.5,"mosquito_risk":3,"arthritis_risk":5,"migraine_risk":7,"frizz_risk":1,"updated_at":"2026-03-05T23:37:41.426218+05:30"},{"city":"Coimbatore","state":"Tamil Nadu","latitude":11.0168,"longitude":76.9558,"temp":24.1,"humidity":85,"rain":0.0,"pressure":963.3,"uv_index":9.15,"wind_gusts":34.2,"aqi":105,"pm10":56.1,"pm2_5":54.9,"mosquito_risk":3,"arthritis_risk":5,"migraine_risk":7,"frizz_risk":1,"updated_at":"2026-03-05T23:37:41.426251+05:30"},{"city":"Madurai","state":"Tamil Nadu","latitude":9.9252,"longitude":78.1198,"temp":25.3,"humidity":85,"rain":0.0,"pressure":995.2,"uv_index":9.1,"wind_gusts":29.5,"aqi":85,"pm10":33.6,"pm2_5":32.4,"mosquito_risk":7,"arthritis_risk":5,"migraine_risk":7,"frizz_risk":1,"updated_at":"2026-03-05T23:37:41.426263+05:30"},{"city":"Trichy","state":"Tamil Nadu","latitude":10.7905,"longitude":78.7047,"temp":24.4,"humidity":93,"rain":0.0,"pressure":1001.6,"uv_index":9.0,"wind_gusts":33.8,"aqi":95,"pm10":28.0,"pm2_5":26.8,"mosquito_risk":3,"arthritis_risk":5,"migraine_risk":4,"frizz_risk":1,"updated_at":"2026-03-05T23:37:41.426274+05:30"},{"city":"Salem","state":"Tamil Nadu","latitude":11.6643,"longitude":78.146,"temp":25.0,"humidity":64,"rain":0.0,"pressure":978.5,"uv_index":9.05,"wind_gusts":15.1,"aqi":96,"pm10":44.4,"pm2_5":41.8,"mosquito_risk":7,"arthritis_risk":5,"migraine_risk":7,"frizz_risk":1,"updated_at":"2026-03-05T23:37:41.426283+05:30"},{"city":"Tirunelveli","state":"Tamil Nadu","latitude":8.7139,"longitude":77.7567,"temp":25.9,"humidity":74,"rain":0.0,"pressure":1005.4,"uv_index":9.15,"wind_gusts":44.6,"aqi":74,"pm10":30.7,"pm2_5":29.8,"mosquito_risk":7,"arthritis_risk":5,"migraine_risk":4,"frizz_risk":1,"updated_at":"2026-03-05T23:37:41.426292+05:30"},{"city":"Vellore","state":"Tamil Nadu","latitude":12.9165,"longitude":79.1325,"temp":24.4,"humidity":69,"rain":0.0,"pressure":986.2,"uv_index":8.9,"wind_gusts":29.2,"aqi":123,"pm10":54.5,"pm2_5":52.0,"mosquito_risk":3,"arthritis_risk":5,"migraine_risk":7,"frizz_risk":1,"updated_at":"2026-03-05T23:37:41.426301+05:30"},{"city":"Erode","state":"Tamil Nadu","latitude":11.341,"longitude":77.7172,"temp":26.8,"humidity":62,"rain":0.0,"pressure":990.4,"uv_index":9.05,"wind_gusts":19.8,"aqi":121,"pm10":32.6,"pm2_5":31.0,"mosquito_risk":7,"arthritis_risk":5,"migraine_risk":7,"frizz_risk":1,"updated_at":"2026-03-05T23:37:41.426309+05:30"},{"city":"Kochi","state":"Kerala","latitude":9.9312,"longitude":76.2673,"temp":28.2,"humidity":79,"rain":0.0,"pressure":1010.4,"uv_index":8.95,"wind_gusts":38.2,"aqi":143,"pm10":65.7,"pm2_5":64.5,"mosquito_risk":7,"arthritis_risk":0,"migraine_risk":4,"frizz_risk":1,"updated_at":"2026-03-05T23:37:41.426318+05:30"},{"city":"Thiruvananthapuram","state":"Kerala","latitude":8.5241,"longitude":76.9366,"temp":27.8,"humidity":79,"rain":0.0,"pressure":1010.0,"uv_index":9.0,"wind_gusts":32.8,"aqi":91,"pm10":32.8,"pm2_5":29.7,"mosquito_risk":7,"arthritis_risk":0,"migraine_risk":4,"frizz_risk":1,"updated_at":"2026-03-05T23:37:41.426327+05:30"},{"city":"Kozhikode","state":"Kerala","latitude":11.2588,"longitude":75.7804,"temp":28.6,"humidity":81,"rain":0.0,"pressure":1009.4,"uv_index":8.85,"wind_gusts":30.6,"aqi":126,"pm10":47.8,"pm2_5":43.0,"mosquito_risk":7,"arthritis_risk":0,"migraine_risk":4,"frizz_risk":1,"updated_at":"2026-03-05T23:37:41.426336+05:30"},{"city":"Thrissur","state":"Kerala","latitude":10.5276,"longitude":76.2144,"temp":27.1,"humidity":88,"rain":0.0,"pressure":1008.6,"uv_index":8.9,"wind_gusts":36.7,"aqi":142,"pm10":81.0,"pm2_5":78.2,"mosquito_risk":7,"arthritis_risk":0,"migraine_risk":4,"frizz_risk":1,"updated_at":"2026-03-05T23:37:41.426345+05:30"},{"city":"Kannur","state":"Kerala","latitude":11.8745,"longitude":75.3704,"temp":28.4,"humidity":80,"rain":0.0,"pressure":1008.8,"uv_index":8.85,"wind_gusts":37.4,"aqi":131,"pm10":46.4,"pm2_5":43.0,"mosquito_risk":7,"arthritis_risk":0,"migraine_risk":4,"frizz_risk":1,"updated_at":"2026-03-05T23:37:41.426353+05:30"},{"city":"Patna","state":"Bihar","latitude":25.5941,"longitude":85.1376,"temp":24.1,"humidity":66,"rain":0.0,"pressure":1002.4,"uv_index":7.2,"wind_gusts":14.4,"aqi":165,"pm10":114.6,"pm2_5":89.4,"mosquito_risk":3,"arthritis_risk":5,"migraine_risk":4,"frizz_risk":1,"updated_at":"2026-03-05T23:37:41.426360+05:30"},{"city":"Gaya","state":"Bihar","latitude":24.7914,"longitude":85.0002,"temp":21.8,"humidity":70,"rain":0.0,"pressure":995.6,"uv_index":7.3,"wind_gusts":12.6,"aqi":151,"pm10":84.3,"pm2_5":67.1,"mosquito_risk":3,"arthritis_risk":5,"migraine_risk":7,"frizz_risk":1,"updated_at":"2026-03-05T23:37:41.426367+05:30"},{"city":"Muzaffarpur","state":"Bihar","latitude":26.1209,"longitude":85.3647,"temp":21.9,"humidity":69,"rain":0.0,"pressure":1002.5,"uv_index":7.15,"wind_gusts":15.5,"aqi":169,"pm10":129.0,"pm2_5":102.7,"mosquito_risk":3,"arthritis_risk":5,"migraine_risk":4,"frizz_risk":0,"updated_at":"2026-03-05T23:37:41.426373+05:30"},{"city":"Bhagalpur","state":"Bihar","latitude":25.2425,"longitude":87.0117,"temp":23.6,"humidity":58,"rain":0.0,"pressure":1003.4,"uv_index":7.25,"wind_gusts":14.0,"aqi":163,"pm10":95.5,"pm2_5":80.8,"mosquito_risk":0,"arthritis_risk":5,"migraine_risk":4,"frizz_risk":0,"updated_at":"2026-03-05T23:37:41.426380+05:30"},{"city":"Ranchi","state":"Jharkhand","latitude":23.3441,"longitude":85.3096,"temp":19.7,"humidity":60,"rain":0.0,"pressure":938.3,"uv_index":7.95,"wind_gusts":19.1,"aqi":125,"pm10":127.1,"pm2_5":65.7,"mosquito_risk":0,"arthritis_risk":5,"migraine_risk":7,"frizz_risk":0,"updated_at":"2026-03-05T23:37:41.426387+05:30"},{"city":"Jamshedpur","state":"Jharkhand","latitude":22.8046,"longitude":86.2029,"temp":24.9,"humidity":55,"rain":0.0,"pressure":991.9,"uv_index":7.85,"wind_gusts":10.4,"aqi":158,"pm10":99.0,"pm2_5":65.0,"mosquito_risk":0,"arthritis_risk":5,"migraine_risk":7,"frizz_risk":0,"updated_at":"2026-03-05T23:37:41.426393+05:30"},{"city":"Dhanbad","state":"Jharkhand","latitude":23.7957,"longitude":86.4304,"temp":24.3,"humidity":50,"rain":0.0,"pressure":981.5,"uv_index":7.75,"wind_gusts":16.2,"aqi":167,"pm10":121.1,"pm2_5":97.3,"mosquito_risk":0,"arthritis_risk":5,"migraine_risk":7,"frizz_risk":0,"updated_at":"2026-03-05T23:37:41.426399+05:30"},{"city":"Bokaro","state":"Jharkhand","latitude":23.6693,"longitude":86.1511,"temp":23.6,"humidity":55,"rain":0.0,"pressure":985.6,"uv_index":7.75,"wind_gusts":13.3,"aqi":169,"pm10":169.5,"pm2_5":130.4,"mosquito_risk":0,"arthritis_risk":5,"migraine_risk":7,"frizz_risk":0,"updated_at":"2026-03-05T23:37:41.426406+05:30"},{"city":"Bhubaneswar","state":"Odisha","latitude":20.2961,"longitude":85.8245,"temp":24.9,"humidity":92,"rain":0.0,"pressure":1003.3,"uv_index":8.15,"wind_gusts":27.0,"aqi":148,"pm10":33.8,"pm2_5":29.0,"mosquito_risk":3,"arthritis_risk":5,"migraine_risk":4,"frizz_risk":1,"updated_at":"2026-03-05T23:37:41.426413+05:30"},{"city":"Cuttack","state":"Odisha","latitude":20.4625,"longitude":85.8828,"temp":24.8,"humidity":91,"rain":0.0,"pressure":1005.4,"uv_index":8.2,"wind_gusts":26.6,"aqi":148,"pm10":33.8,"pm2_5":29.0,"mosquito_risk":3,"arthritis_risk":5,"migraine_risk":4,"frizz_risk":1,"updated_at":"2026-03-05T23:37:41.426419+05:30"},{"city":"Rourkela","state":"Odisha","latitude":22.2604,"longitude":84.8536,"temp":25.9,"humidity":56,"rain":0.0,"pressure":985.7,"uv_index":7.75,"wind_gusts":23.0,"aqi":123,"pm10":80.6,"pm2_5":49.7,"mosquito_risk":4,"arthritis_risk":5,"migraine_risk":7,"frizz_risk":1,"updated_at":"2026-03-05T23:37:41.426425+05:30"},{"city":"Raipur","state":"Chhattisgarh","latitude":21.2514,"longitude":81.6296,"temp":25.6,"humidity":38,"rain":0.0,"pressure":975.3,"uv_index":7.85,"wind_gusts":27.7,"aqi":118,"pm10":51.5,"pm2_5":42.5,"mosquito_risk":4,"arthritis_risk":5,"migraine_risk":7,"frizz_risk":0,"updated_at":"2026-03-05T23:37:41.426431+05:30"},{"city":"Bhilai","state":"Chhattisgarh","latitude":21.1938,"longitude":81.3509,"temp":24.6,"humidity":42,"rain":0.0,"pressure":975.6,"uv_index":7.85,"wind_gusts":27.7,"aqi":93,"pm10":35.9,"pm2_5":26.7,"mosquito_risk":0,"arthritis_risk":5,"migraine_risk":7,"frizz_risk":0,"updated_at":"2026-03-05T23:37:41.426437+05:30"},{"city":"Guwahati","state":"Assam","latitude":26.1158,"longitude":91.7086,"temp":24.8,"humidity":71,"rain":0.0,"pressure":1003.6,"uv_index":7.15,"wind_gusts":18.0,"aqi":133,"pm10":59.5,"pm2_5":56.3,"mosquito_risk":3,"arthritis_risk":5,"migraine_risk":4,"frizz_risk":1,"updated_at":"2026-03-05T23:37:41.426443+05:30"},{"city":"Agartala","state":"Tripura","latitude":23.8315,"longitude":91.2868,"temp":22.0,"humidity":65,"rain":0.0,"pressure":1007.8,"uv_index":7.55,"wind_gusts":16.2,"aqi":158,"pm10":124.3,"pm2_5":111.1,"mosquito_risk":3,"arthritis_risk":5,"migraine_risk":4,"frizz_risk":0,"updated_at":"2026-03-05T23:37:41.426449+05:30"},{"city":"Shillong","state":"Meghalaya","latitude":25.5788,"longitude":91.8933,"temp":11.4,"humidity":90,"rain":0.0,"pressure":856.2,"uv_index":7.55,"wind_gusts":15.8,"aqi":110,"pm10":43.1,"pm2_5":40.2,"mosquito_risk":3,"arthritis_risk":10,"migraine_risk":7,"frizz_risk":0,"updated_at":"2026-03-05T23:37:41.426456+05:30"},{"city":"Imphal","state":"Manipur","latitude":24.817,"longitude":93.9368,"temp":15.7,"humidity":67,"rain":0.0,"pressure":924.3,"uv_index":7.75,"wind_gusts":23.0,"aqi":142,"pm10":63.1,"pm2_5":58.4,"mosquito_risk":3,"arthritis_risk":5,"migraine_risk":7,"frizz_risk":0,"updated_at":"2026-03-05T23:37:41.426480+05:30"},{"city":"Aizawl","state":"Mizoram","latitude":23.7271,"longitude":92.7176,"temp":17.4,"humidity":66,"rain":0.0,"pressure":892.9,"uv_index":7.7,"wind_gusts":23.8,"aqi":155,"pm10":78.7,"pm2_5":70.1,"mosquito_risk":3,"arthritis_risk":5,"migraine_risk":7,"frizz_risk":0,"updated_at":"2026-03-05T23:37:41.426488+05:30"},{"city":"Kohima","state":"Nagaland","latitude":25.6701,"longitude":94.1077,"temp":15.3,"humidity":70,"rain":0.0,"pressure":856.1,"uv_index":7.6,"wind_gusts":36.7,"aqi":123,"pm10":46.2,"pm2_5":42.6,"mosquito_risk":3,"arthritis_risk":5,"migraine_risk":7,"frizz_risk":0,"updated_at":"2026-03-05T23:37:41.426494+05:30"},{"city":"Gangtok","state":"Sikkim","latitude":27.3314,"longitude":88.6138,"temp":14.1,"humidity":91,"rain":0.0,"pressure":838.9,"uv_index":7.5,"wind_gusts":21.2,"aqi":97,"pm10":45.3,"pm2_5":41.2,"mosquito_risk":3,"arthritis_risk":10,"migraine_risk":7,"frizz_risk":0,"updated_at":"2026-03-05T23:37:41.426500+05:30"},{"city":"Siliguri","state":"West Bengal","latitude":26.7271,"longitude":88.3953,"temp":21.5,"humidity":66,"rain":0.0,"pressure":996.6,"uv_index":7.15,"wind_gusts":22.3,"aqi":133,"pm10":60.1,"pm2_5":55.2,"mosquito_risk":3,"arthritis_risk":5,"migraine_risk":7,"frizz_risk":0,"updated_at":"2026-03-05T23:37:44.763564+05:30"},{"city":"Durgapur","state":"West Bengal","latitude":23.5204,"longitude":87.3119,"temp":24.4,"humidity":53,"rain":0.0,"pressure":996.5,"uv_index":7.7,"wind_gusts":19.8,"aqi":160,"pm10":87.8,"pm2_5":71.5,"mosquito_risk":0,"arthritis_risk":5,"migraine_risk":7,"frizz_risk":0,"updated_at":"2026-03-05T23:37:44.763598+05:30"},{"city":"Asansol","state":"West Bengal","latitude":23.6739,"longitude":86.9524,"temp":25.1,"humidity":49,"rain":0.0,"pressure":995.0,"uv_index":7.7,"wind_gusts":15.1,"aqi":157,"pm10":85.9,"pm2_5":70.8,"mosquito_risk":4,"arthritis_risk":5,"migraine_risk":7,"frizz_risk":0,"updated_at":"2026-03-05T23:37:44.763610+05:30"},{"city":"Pondicherry","state":"Puducherry","latitude":11.9139,"longitude":79.8145,"temp":24.1,"humidity":91,"rain":0.0,"pressure":1010.1,"uv_index":8.85,"wind_gusts":24.5,"aqi":76,"pm10":19.8,"pm2_5":17.1,"mosquito_risk":3,"arthritis_risk":0,"migraine_risk":4,"frizz_risk":1,"updated_at":"2026-03-05T23:37:44.763619+05:30"},{"city":"Port Blair","state":"Andaman and Nicobar Islands","latitude":11.6234,"longitude":92.7265,"temp":27.1,"humidity":71,"rain":0.0,"pressure":1007.6,"uv_index":8.8,"wind_gusts":23.4,"aqi":58,"pm10":20.2,"pm2_5":12.7,"mosquito_risk":7,"arthritis_risk":5,"migraine_risk":4,"frizz_risk":1,"updated_at":"2026-03-05T23:37:44.763629+05:30"},{"city":"Haridwar","state":"Uttarakhand","latitude":29.9457,"longitude":78.1642,"temp":20.3,"humidity":89,"rain":0.0,"pressure":975.8,"uv_index":5.65,"wind_gusts":21.6,"aqi":147,"pm10":89.2,"pm2_5":67.5,"mosquito_risk":3,"arthritis_risk":5,"migraine_risk":3,"frizz_risk":1,"updated_at":"2026-03-05T23:37:44.763639+05:30"},{"city":"Rishikesh","state":"Uttarakhand","latitude":30.0869,"longitude":78.2676,"temp":19.9,"humidity":82,"rain":0.0,"pressure":968.6,"uv_index":5.7,"wind_gusts":20.9,"aqi":148,"pm10":89.9,"pm2_5":62.4,"mosquito_risk":3,"arthritis_risk":10,"migraine_risk":3,"frizz_risk":1,"updated_at":"2026-03-05T23:37:44.763648+05:30"},{"city":"Nainital","state":"Uttarakhand","latitude":29.3919,"longitude":79.4542,"temp":16.7,"humidity":68,"rain":0.0,"pressure":806.3,"uv_index":6.5,"wind_gusts":53.6,"aqi":153,"pm10":93.1,"pm2_5":68.0,"mosquito_risk":3,"arthritis_risk":5,"migraine_risk":7,"frizz_risk":0,"updated_at":"2026-03-05T23:37:44.763656+05:30"},{"city":"Mussoorie","state":"Uttarakhand","latitude":30.4599,"longitude":78.0664,"temp":15.5,"humidity":79,"rain":0.0,"pressure":803.0,"uv_index":6.0,"wind_gusts":37.1,"aqi":165,"pm10":86.1,"pm2_5":58.8,"mosquito_risk":3,"arthritis_risk":5,"migraine_risk":3,"frizz_risk":0,"updated_at":"2026-03-05T23:37:44.763664+05:30"},{"city":"Dharamshala","state":"Himachal Pradesh","latitude":32.219,"longitude":76.3234,"temp":22.2,"humidity":34,"rain":0.0,"pressure":870.7,"uv_index":6.3,"wind_gusts":24.5,"aqi":69,"pm10":26.3,"pm2_5":17.9,"mosquito_risk":0,"arthritis_risk":5,"migraine_risk":7,"frizz_risk":0,"updated_at":"2026-03-05T23:37:44.763670+05:30"},{"city":"Dalhousie","state":"Himachal Pradesh","latitude":32.5387,"longitude":75.971,"temp":18.0,"humidity":51,"rain":0.0,"pressure":804.9,"uv_index":6.45,"wind_gusts":21.2,"aqi":84,"pm10":54.6,"pm2_5":47.3,"mosquito_risk":0,"arthritis_risk":5,"migraine_risk":7,"frizz_risk":0,"updated_at":"2026-03-05T23:37:44.763678+05:30"},{"city":"Patiala","state":"Punjab","latitude":30.3398,"longitude":76.3869,"temp":21.4,"humidity":79,"rain":0.0,"pressure":979.4,"uv_index":5.65,"wind_gusts":28.4,"aqi":333,"pm10":314.8,"pm2_5":85.7,"mosquito_risk":3,"arthritis_risk":5,"migraine_risk":3,"frizz_risk":1,"updated_at":"2026-03-05T23:37:44.763685+05:30"},{"city":"Bhatinda","state":"Punjab","latitude":30.211,"longitude":74.9455,"temp":21.4,"humidity":75,"rain":0.0,"pressure":985.0,"uv_index":6.35,"wind_gusts":27.0,"aqi":138,"pm10":61.7,"pm2_5":46.3,"mosquito_risk":3,"arthritis_risk":5,"migraine_risk":7,"frizz_risk":1,"updated_at":"2026-03-05T23:37:44.763691+05:30"},{"city":"Rohtak","state":"Haryana","latitude":28.8955,"longitude":76.6066,"temp":21.1,"humidity":73,"rain":0.0,"pressure":983.1,"uv_index":5.85,"wind_gusts":33.1,"aqi":600,"pm10":527.1,"pm2_5":104.1,"mosquito_risk":3,"arthritis_risk":5,"migraine_risk":3,"frizz_risk":1,"updated_at":"2026-03-05T23:37:44.763698+05:30"},{"city":"Panipat","state":"Haryana","latitude":29.3909,"longitude":76.9635,"temp":21.2,"humidity":80,"rain":0.0,"pressure":981.7,"uv_index":5.65,"wind_gusts":32.4,"aqi":1244,"pm10":942.5,"pm2_5":143.0,"mosquito_risk":3,"arthritis_risk":5,"migraine_risk":3,"frizz_risk":1,"updated_at":"2026-03-05T23:37:44.763704+05:30"},{"city":"Mathura","state":"Uttar Pradesh","latitude":27.4924,"longitude":77.6737,"temp":24.4,"humidity":47,"rain":0.0,"pressure":988.5,"uv_index":6.1,"wind_gusts":34.9,"aqi":693,"pm10":676.1,"pm2_5":118.3,"mosquito_risk":0,"arthritis_risk":5,"migraine_risk":7,"frizz_risk":0,"updated_at":"2026-03-05T23:37:44.763710+05:30"},{"city":"Vrindavan","state":"Uttar Pradesh","latitude":27.5823,"longitude":77.7027,"temp":21.0,"humidity":66,"rain":0.0,"pressure":988.8,"uv_index":6.1,"wind_gusts":37.1,"aqi":693,"pm10":676.1,"pm2_5":118.3,"mosquito_risk":3,"arthritis_risk":5,"migraine_risk":7,"frizz_risk":0,"updated_at":"2026-03-05T23:37:44.763720+05:30"},{"city":"Ayodhya","state":"Uttar Pradesh","latitude":26.7922,"longitude":82.1998,"temp":21.1,"humidity":78,"rain":0.0,"pressure":997.4,"uv_index":6.55,"wind_gusts":10.1,"aqi":175,"pm10":119.0,"pm2_5":94.5,"mosquito_risk":3,"arthritis_risk":5,"migraine_risk":7,"frizz_risk":1,"updated_at":"2026-03-05T23:37:44.763726+05:30"},{"city":"Ratlam","state":"Madhya Pradesh","latitude":23.3315,"longitude":75.0367,"temp":23.7,"humidity":50,"rain":0.0,"pressure":956.9,"uv_index":7.35,"wind_gusts":23.0,"aqi":96,"pm10":54.2,"pm2_5":47.5,"mosquito_risk":0,"arthritis_risk":5,"migraine_risk":7,"frizz_risk":0,"updated_at":"2026-03-05T23:37:44.763732+05:30"},{"city":"Sagar","state":"Madhya Pradesh","latitude":23.8388,"longitude":78.7378,"temp":22.7,"humidity":53,"rain":0.0,"pressure":952.0,"uv_index":7.3,"wind_gusts":31.7,"aqi":54,"pm10":28.5,"pm2_5":18.9,"mosquito_risk":0,"arthritis_risk":5,"migraine_risk":7,"frizz_risk":0,"updated_at":"2026-03-05T23:37:44.763739+05:30"},{"city":"Satna","state":"Madhya Pradesh","latitude":24.6005,"longitude":80.8322,"temp":22.7,"humidity":52,"rain":0.0,"pressure":972.8,"uv_index":7.3,"wind_gusts":40.0,"aqi":72,"pm10":36.9,"pm2_5":25.1,"mosquito_risk":0,"arthritis_risk":5,"migraine_risk":7,"frizz_risk":0,"updated_at":"2026-03-05T23:37:44.763745+05:30"},{"city":"Akola","state":"Maharashtra","latitude":20.7002,"longitude":77.0082,"temp":25.2,"humidity":40,"rain":0.0,"pressure":976.5,"uv_index":7.8,"wind_gusts":26.6,"aqi":75,"pm10":43.8,"pm2_5":37.6,"mosquito_risk":4,"arthritis_risk":5,"migraine_risk":7,"frizz_risk":0,"updated_at":"2026-03-05T23:37:44.763752+05:30"},{"city":"Amravati","state":"Maharashtra","latitude":20.9374,"longitude":77.7796,"temp":23.3,"humidity":49,"rain":0.0,"pressure":968.5,"uv_index":7.75,"wind_gusts":16.9,"aqi":74,"pm10":47.7,"pm2_5":40.5,"mosquito_risk":0,"arthritis_risk":5,"migraine_risk":7,"frizz_risk":0,"updated_at":"2026-03-05T23:37:44.763759+05:30"},{"city":"Latur","state":"Maharashtra","latitude":18.4088,"longitude":76.5604,"temp":25.0,"humidity":40,"rain":0.0,"pressure":940.9,"uv_index":8.25,"wind_gusts":32.0,"aqi":91,"pm10":40.5,"pm2_5":37.4,"mosquito_risk":4,"arthritis_risk":5,"migraine_risk":7,"frizz_risk":0,"updated_at":"2026-03-05T23:37:44.763766+05:30"},{"city":"Nanded","state":"Maharashtra","latitude":19.1383,"longitude":77.3091,"temp":25.3,"humidity":47,"rain":0.0,"pressure":969.8,"uv_index":8.05,"wind_gusts":25.2,"aqi":91,"pm10":45.5,"pm2_5":43.8,"mosquito_risk":4,"arthritis_risk":5,"migraine_risk":7,"frizz_risk":0,"updated_at":"2026-03-05T23:37:44.763773+05:30"},{"city":"Gulbarga","state":"Karnataka","latitude":17.3297,"longitude":76.8343,"temp":26.7,"humidity":37,"rain":0.0,"pressure":959.5,"uv_index":8.35,"wind_gusts":22.3,"aqi":85,"pm10":19.1,"pm2_5":18.2,"mosquito_risk":4,"arthritis_risk":5,"migraine_risk":7,"frizz_risk":0,"updated_at":"2026-03-05T23:37:44.763778+05:30"},{"city":"Bidar","state":"Karnataka","latitude":17.9104,"longitude":77.5199,"temp":25.7,"humidity":45,"rain":0.0,"pressure":936.7,"uv_index":8.3,"wind_gusts":24.8,"aqi":87,"pm10":25.0,"pm2_5":22.9,"mosquito_risk":4,"arthritis_risk":5,"migraine_risk":7,"frizz_risk":0,"updated_at":"2026-03-05T23:37:44.763785+05:30"},{"city":"Hospet","state":"Karnataka","latitude":15.2689,"longitude":76.3909,"temp":26.7,"humidity":42,"rain":0.0,"pressure":956.7,"uv_index":8.7,"wind_gusts":25.9,"aqi":127,"pm10":39.1,"pm2_5":37.1,"mosquito_risk":4,"arthritis_risk":5,"migraine_risk":7,"frizz_risk":0,"updated_at":"2026-03-05T23:37:44.763791+05:30"},{"city":"Tirupur","state":"Tamil Nadu","latitude":11.1085,"longitude":77.3411,"temp":25.4,"humidity":84,"rain":0.0,"pressure":976.9,"uv_index":9.15,"wind_gusts":29.2,"aqi":113,"pm10":49.0,"pm2_5":47.5,"mosquito_risk":7,"arthritis_risk":5,"migraine_risk":7,"frizz_risk":1,"updated_at":"2026-03-05T23:37:44.763798+05:30"},{"city":"Alappuzha","state":"Kerala","latitude":9.4981,"longitude":76.3388,"temp":28.0,"humidity":80,"rain":0.0,"pressure":1010.6,"uv_index":8.95,"wind_gusts":35.3,"aqi":120,"pm10":60.8,"pm2_5":58.0,"mosquito_risk":7,"arthritis_risk":0,"migraine_risk":4,"frizz_risk":1,"updated_at":"2026-03-05T23:37:44.763804+05:30"},{"city":"Munnar","state":"Kerala","latitude":10.0889,"longitude":77.0595,"temp":19.3,"humidity":69,"rain":0.0,"pressure":857.5,"uv_index":9.45,"wind_gusts":23.4,"aqi":80,"pm10":43.3,"pm2_5":42.3,"mosquito_risk":3,"arthritis_risk":5,"migraine_risk":7,"frizz_risk":0,"updated_at":"2026-03-05T23:37:44.763811+05:30"},{"city":"Silchar","state":"Assam","latitude":24.8333,"longitude":92.7789,"temp":23.0,"humidity":67,"rain":0.0,"pressure":1006.5,"uv_index":7.5,"wind_gusts":13.7,"aqi":148,"pm10":78.7,"pm2_5":70.3,"mosquito_risk":3,"arthritis_risk":5,"migraine_risk":4,"frizz_risk":1,"updated_at":"2026-03-05T23:37:44.763818+05:30"},{"city":"Dibrugarh","state":"Assam","latitude":27.4728,"longitude":94.912,"temp":22.6,"humidity":81,"rain":0.0,"pressure":997.3,"uv_index":7.2,"wind_gusts":14.4,"aqi":104,"pm10":36.3,"pm2_5":34.3,"mosquito_risk":3,"arthritis_risk":5,"migraine_risk":7,"frizz_risk":1,"updated_at":"2026-03-05T23:37:44.763824+05:30"}]