[{"city":"Delhi","state":"Delhi","latitude":28.6139,"longitude":77.209,"temp":17.4,"humidity":92,"rain":0.0,"pressure":988.1,"uv_index":3.1,"wind_gusts":20.2,"aqi":137,"pm10":82.0,"pm2_5":70.5,"mosquito_risk":3,"arthritis_risk":10,"migraine_risk":3,"frizz_risk":0,"updated_at":"2026-03-20T22:20:28.971516+05:30"},{"city":"Mumbai","state":"Maharashtra","latitude":19.076,"longitude":72.8777,"temp":26.9,"humidity":82,"rain":0.0,"pressure":1010.5,"uv_index":7.8,"wind_gusts":24.1,"aqi":85,"pm10":54.9,"pm2_5":22.7,"mosquito_risk":7,"arthritis_risk":0,"migraine_risk":4,"frizz_risk":1,"updated_at":"2026-03-20T22:20:28.971557+05:30"},{"city":"Bangalore","state":"Karnataka","latitude":12.9716,"longitude":77.5946,"temp":24.2,"humidity":66,"rain":0.0,"pressure":912.9,"uv_index":9.4,"wind_gusts":17.3,"aqi":159,"pm10":38.3,"pm2_5":31.4,"mosquito_risk":3,"arthritis_risk":5,"migraine_risk":7,"frizz_risk":1,"updated_at":"2026-03-20T22:20:28.971572+05:30"},{"city":"Hyderabad","state":"Telangana","latitude":17.385,"longitude":78.4867,"temp":24.9,"humidity":69,"rain":0.0,"pressure":954.7,"uv_index":8.8,"wind_gusts":22.3,"aqi":96,"pm10":68.2,"pm2_5":53.3,"mosquito_risk":3,"arthritis_risk":5,"migraine_risk":7,"frizz_risk":1,"updated_at":"2026-03-20T22:20:28.971582+05:30"},{"city":"Chennai","state":"Tamil Nadu","latitude":13.0827,"longitude":80.2707,"temp":27.2,"humidity":84,"rain":0.0,"pressure":1009.4,"uv_index":9.15,"wind_gusts":31.0,"aqi":42,"pm10":10.8,"pm2_5":7.9,"mosquito_risk":7,"arthritis_risk":0,"migraine_risk":4,"frizz_risk":1,"updated_at":"2026-03-20T22:20:28.971591+05:30"},{"city":"Kolkata","state":"West Bengal","latitude":22.5726,"longitude":88.3639,"temp":23.0,"humidity":86,"rain":0.0,"pressure":1010.1,"uv_index":7.5,"wind_gusts":36.0,"aqi":76,"pm10":26.0,"pm2_5":23.1,"mosquito_risk":3,"arthritis_risk":0,"migraine_risk":4,"frizz_risk":1,"updated_at":"2026-03-20T22:20:28.971605+05:30"},{"city":"Pune","state":"Maharashtra","latitude":18.5204,"longitude":73.8567,"temp":24.3,"humidity":71,"rain":0.0,"pressure":950.1,"uv_index":8.35,"wind_gusts":36.7,"aqi":126,"pm10":42.1,"pm2_5":30.2,"mosquito_risk":3,"arthritis_risk":5,"migraine_risk":7,"frizz_risk":1,"updated_at":"2026-03-20T22:20:28.971615+05:30"},{"city":"Ahmedabad","state":"Gujarat","latitude":23.0225,"longitude":72.5714,"temp":23.6,"humidity":56,"rain":0.0,"pressure":1005.2,"uv_index":7.6,"wind_gusts":33.1,"aqi":75,"pm10":54.0,"pm2_5":31.3,"mosquito_risk":0,"arthritis_risk":5,"migraine_risk":4,"frizz_risk":0,"updated_at":"2026-03-20T22:20:28.971627+05:30"},{"city":"Jaipur","state":"Rajasthan","latitude":26.9124,"longitude":75.7873,"temp":19.1,"humidity":74,"rain":0.0,"pressure":963.6,"uv_index":6.7,"wind_gusts":25.6,"aqi":72,"pm10":61.0,"pm2_5":19.7,"mosquito_risk":3,"arthritis_risk":5,"migraine_risk":7,"frizz_risk":0,"updated_at":"2026-03-20T22:20:28.971635+05:30"},{"city":"Lucknow","state":"Uttar Pradesh","latitude":26.8467,"longitude":80.9462,"temp":20.2,"humidity":87,"rain":0.0,"pressure":998.1,"uv_index":4.95,"wind_gusts":36.0,"aqi":107,"pm10":85.4,"pm2_5":57.4,"mosquito_risk":3,"arthritis_risk":5,"migraine_risk":3,"frizz_risk":1,"updated_at":"2026-03-20T22:20:28.971643+05:30"},{"city":"Kanpur","state":"Uttar Pradesh","latitude":26.4499,"longitude":80.3319,"temp":19.9,"humidity":91,"rain":0.0,"pressure":996.5,"uv_index":2.95,"wind_gusts":37.8,"aqi":129,"pm10":95.2,"pm2_5":55.4,"mosquito_risk":3,"arthritis_risk":10,"migraine_risk":3,"frizz_risk":1,"updated_at":"2026-03-20T22:20:28.971650+05:30"},{"city":"Chandigarh","state":"Chandigarh","latitude":30.7333,"longitude":76.7794,"temp":14.7,"humidity":98,"rain":0.0,"pressure":973.3,"uv_index":1.3,"wind_gusts":25.2,"aqi":90,"pm10":75.4,"pm2_5":55.6,"mosquito_risk":3,"arthritis_risk":10,"migraine_risk":3,"frizz_risk":0,"updated_at":"2026-03-20T22:20:28.971658+05:30"},{"city":"Srinagar","state":"Jammu and Kashmir","latitude":34.0837,"longitude":74.7973,"temp":7.1,"humidity":96,"rain":0.0,"pressure":839.5,"uv_index":4.8,"wind_gusts":18.4,"aqi":91,"pm10":24.9,"pm2_5":24.8,"mosquito_risk":3,"arthritis_risk":10,"migraine_risk":3,"frizz_risk":0,"updated_at":"2026-03-20T22:20:28.971665+05:30"},{"city":"Jammu","state":"Jammu and Kashmir","latitude":32.7266,"longitude":74.857,"temp":15.7,"humidity":91,"rain":0.0,"pressure":977.5,"uv_index":4.95,"wind_gusts":14.4,"aqi":92,"pm10":65.9,"pm2_5":51.3,"mosquito_risk":3,"arthritis_risk":10,"migraine_risk":3,"frizz_risk":0,"updated_at":"2026-03-20T22:20:28.971672+05:30"},{"city":"Amritsar","state":"Punjab","latitude":31.634,"longitude":74.8723,"temp":15.2,"humidity":87,"rain":0.0,"pressure":985.8,"uv_index":5.35,"wind_gusts":22.7,"aqi":92,"pm10":52.7,"pm2_5":39.3,"mosquito_risk":3,"arthritis_risk":10,"migraine_risk":3,"frizz_risk":0,"updated_at":"2026-03-20T22:20:28.971679+05:30"},{"city":"Ludhiana","state":"Punjab","latitude":30.901,"longitude":75.8573,"temp":16.5,"humidity":93,"rain":0.0,"pressure":983.6,"uv_index":3.1,"wind_gusts":16.9,"aqi":97,"pm10":92.4,"pm2_5":68.7,"mosquito_risk":3,"arthritis_risk":10,"migraine_risk":3,"frizz_risk":0,"updated_at":"2026-03-20T22:20:28.971685+05:30"},{"city":"Jalandhar","state":"Punjab","latitude":31.326,"longitude":75.5762,"temp":15.4,"humidity":87,"rain":0.0,"pressure":984.9,"uv_index":4.2,"wind_gusts":20.9,"aqi":79,"pm10":47.7,"pm2_5":35.5,"mosquito_risk":3,"arthritis_risk":10,"migraine_risk":3,"frizz_risk":0,"updated_at":"2026-03-20T22:20:28.971694+05:30"},{"city":"Dehradun","state":"Uttarakhand","latitude":30.6284,"longitude":78.0322,"temp":8.2,"humidity":74,"rain":0.0,"pressure":828.6,"uv_index":0.35,"wind_gusts":34.6,"aqi":49,"pm10":3.9,"pm2_5":3.9,"mosquito_risk":3,"arthritis_risk":5,"migraine_risk":3,"frizz_risk":0,"updated_at":"2026-03-20T22:20:28.971700+05:30"},{"city":"Shimla","state":"Himachal Pradesh","latitude":31.1048,"longitude":77.1734,"temp":5.2,"humidity":87,"rain":0.0,"pressure":780.7,"uv_index":0.5,"wind_gusts":33.5,"aqi":50,"pm10":3.7,"pm2_5":3.7,"mosquito_risk":3,"arthritis_risk":10,"migraine_risk":3,"frizz_risk":0,"updated_at":"2026-03-20T22:20:28.971707+05:30"},{"city":"Manali","state":"Himachal Pradesh","latitude":32.2396,"longitude":77.1887,"temp":9.1,"humidity":74,"rain":0.0,"pressure":814.7,"uv_index":3.15,"wind_gusts":26.6,"aqi":49,"pm10":5.9,"pm2_5":5.7,"mosquito_risk":3,"arthritis_risk":5,"migraine_risk":3,"frizz_risk":0,"updated_at":"2026-03-20T22:20:28.971713+05:30"},{"city":"Gurgaon","state":"Haryana","latitude":28.4595,"longitude":77.0266,"temp":16.1,"humidity":96,"rain":0.0,"pressure":986.4,"uv_index":3.25,"wind_gusts":17.3,"aqi":138,"pm10":94.3,"pm2_5":83.8,"mosquito_risk":3,"arthritis_risk":10,"migraine_risk":3,"frizz_risk":0,"updated_at":"2026-03-20T22:20:28.971720+05:30"},{"city":"Noida","state":"Uttar Pradesh","latitude":28.5355,"longitude":77.391,"temp":17.2,"humidity":93,"rain":0.0,"pressure":989.7,"uv_index":2.6,"wind_gusts":21.6,"aqi":138,"pm10":94.3,"pm2_5":83.8,"mosquito_risk":3,"arthritis_risk":10,"migraine_risk":3,"frizz_risk":1,"updated_at":"2026-03-20T22:20:28.971727+05:30"},{"city":"Ghaziabad","state":"Uttar Pradesh","latitude":28.6692,"longitude":77.4538,"temp":16.6,"humidity":97,"rain":0.0,"pressure":987.8,"uv_index":2.35,"wind_gusts":19.1,"aqi":135,"pm10":71.0,"pm2_5":57.7,"mosquito_risk":3,"arthritis_risk":10,"migraine_risk":3,"frizz_risk":1,"updated_at":"2026-03-20T22:20:28.971733+05:30"},{"city":"Faridabad","state":"Haryana","latitude":28.4089,"longitude":77.3178,"temp":16.3,"humidity":94,"rain":0.0,"pressure":988.8,"uv_index":3.1,"wind_gusts":19.8,"aqi":138,"pm10":94.3,"pm2_5":83.8,"mosquito_risk":3,"arthritis_risk":10,"migraine_risk":3,"frizz_risk":0,"updated_at":"2026-03-20T22:20:28.971739+05:30"},{"city":"Meerut","state":"Uttar Pradesh","latitude":28.9845,"longitude":77.7064,"temp":15.6,"humidity":99,"rain":0.0,"pressure":986.4,"uv_index":1.9,"wind_gusts":24.8,"aqi":135,"pm10":71.0,"pm2_5":57.7,"mosquito_risk":3,"arthritis_risk":10,"migraine_risk":3,"frizz_risk":0,"updated_at":"2026-03-20T22:20:28.971746+05:30"},{"city":"Agra","state":"Uttar Pradesh","latitude":27.1767,"longitude":78.0081,"temp":17.3,"humidity":95,"rain":0.0,"pressure":993.0,"uv_index":5.15,"wind_gusts":25.2,"aqi":422,"pm10":46.0,"pm2_5":36.1,"mosquito_risk":3,"arthritis_risk":10,"migraine_risk":3,"frizz_risk":1,"updated_at":"2026-03-20T22:20:28.971755+05:30"},{"city":"Varanasi","state":"Uttar Pradesh","latitude":25.3176,"longitude":82.9739,"temp":22.3,"humidity":83,"rain":0.0,"pressure":1001.4,"uv_index":7.25,"wind_gusts":50.0,"aqi":97,"pm10":54.6,"pm2_5":48.7,"mosquito_risk":3,"arthritis_risk":5,"migraine_risk":4,"frizz_risk":1,"updated_at":"2026-03-20T22:20:28.971769+05:30"},{"city":"Prayagraj","state":"Uttar Pradesh","latitude":25.4358,"longitude":81.8463,"temp":21.4,"humidity":84,"rain":0.0,"pressure":1001.2,"uv_index":4.75,"wind_gusts":56.9,"aqi":89,"pm10":58.1,"pm2_5":42.8,"mosquito_risk":3,"arthritis_risk":5,"migraine_risk":0,"frizz_risk":1,"updated_at":"2026-03-20T22:20:28.971776+05:30"},{"city":"Gorakhpur","state":"Uttar Pradesh","latitude":26.7606,"longitude":83.3732,"temp":20.0,"humidity":78,"rain":0.0,"pressure":1000.3,"uv_index":7.0,"wind_gusts":32.4,"aqi":142,"pm10":59.4,"pm2_5":47.4,"mosquito_risk":3,"arthritis_risk":5,"migraine_risk":4,"frizz_risk":0,"updated_at":"2026-03-20T22:20:28.971782+05:30"},{"city":"Bareilly","state":"Uttar Pradesh","latitude":28.367,"longitude":79.4304,"temp":17.1,"humidity":98,"rain":0.0,"pressure":991.8,"uv_index":2.85,"wind_gusts":29.9,"aqi":88,"pm10":63.3,"pm2_5":45.2,"mosquito_risk":3,"arthritis_risk":10,"migraine_risk":3,"frizz_risk":1,"updated_at":"2026-03-20T22:20:28.971789+05:30"},{"city":"Aligarh","state":"Uttar Pradesh","latitude":27.8974,"longitude":78.088,"temp":16.4,"humidity":98,"rain":0.0,"pressure":990.7,"uv_index":3.8,"wind_gusts":23.4,"aqi":114,"pm10":45.2,"pm2_5":35.4,"mosquito_risk":3,"arthritis_risk":10,"migraine_risk":3,"frizz_risk":1,"updated_at":"2026-03-20T22:20:28.971795+05:30"},{"city":"Moradabad","state":"Uttar Pradesh","latitude":28.8386,"longitude":78.7733,"temp":16.7,"humidity":98,"rain":0.0,"pressure":988.8,"uv_index":2.3,"wind_gusts":25.6,"aqi":99,"pm10":61.7,"pm2_5":47.3,"mosquito_risk":3,"arthritis_risk":10,"migraine_risk":3,"frizz_risk":1,"updated_at":"2026-03-20T22:20:28.971801+05:30"},{"city":"Saharanpur","state":"Uttar Pradesh","latitude":29.9637,"longitude":77.546,"temp":14.3,"humidity":100,"rain":0.0,"pressure":980.6,"uv_index":0.6,"wind_gusts":15.8,"aqi":140,"pm10":57.6,"pm2_5":48.2,"mosquito_risk":3,"arthritis_risk":10,"migraine_risk":3,"frizz_risk":0,"updated_at":"2026-03-20T22:20:28.971807+05:30"},{"city":"Jhansi","state":"Uttar Pradesh","latitude":25.4484,"longitude":78.5685,"temp":19.2,"humidity":87,"rain":0.0,"pressure":982.6,"uv_index":5.8,"wind_gusts":30.6,"aqi":109,"pm10":70.1,"pm2_5":37.8,"mosquito_risk":3,"arthritis_risk":10,"migraine_risk":3,"frizz_risk":1,"updated_at":"2026-03-20T22:20:32.229794+05:30"},{"city":"Surat","state":"Gujarat","latitude":21.1702,"longitude":72.8311,"temp":24.7,"humidity":85,"rain":0.0,"pressure":1009.2,"uv_index":7.5,"wind_gusts":24.8,"aqi":111,"pm10":54.1,"pm2_5":36.1,"mosquito_risk":3,"arthritis_risk":0,"migraine_risk":4,"frizz_risk":1,"updated_at":"2026-03-20T22:20:32.229825+05:30"},{"city":"Vadodara","state":"Gujarat","latitude":22.3072,"longitude":73.1812,"temp":25.5,"humidity":66,"rain":0.0,"pressure":1007.0,"uv_index":7.6,"wind_gusts":28.1,"aqi":82,"pm10":55.1,"pm2_5":31.4,"mosquito_risk":7,"arthritis_risk":5,"migraine_risk":4,"frizz_risk":1,"updated_at":"2026-03-20T22:20:32.229837+05:30"},{"city":"Rajkot","state":"Gujarat","latitude":22.3039,"longitude":70.8022,"temp":24.4,"humidity":64,"rain":0.0,"pressure":997.0,"uv_index":7.45,"wind_gusts":30.2,"aqi":83,"pm10":73.3,"pm2_5":28.1,"mosquito_risk":3,"arthritis_risk":5,"migraine_risk":7,"frizz_risk":1,"updated_at":"2026-03-20T22:20:32.229846+05:30"},{"city":"Thane","state":"Maharashtra","latitude":19.2183,"longitude":72.9781,"temp":25.4,"humidity":82,"rain":0.0,"pressure":1010.0,"uv_index":7.8,"wind_gusts":36.4,"aqi":85,"pm10":54.9,"pm2_5":22.7,"mosquito_risk":7,"arthritis_risk":0,"migraine_risk":4,"frizz_risk":1,"updated_at":"2026-03-20T22:20:32.229854+05:30"},{"city":"Nagpur","state":"Maharashtra","latitude":21.1458,"longitude":79.0882,"temp":23.1,"humidity":74,"rain":0.0,"pressure":975.9,"uv_index":8.15,"wind_gusts":37.8,"aqi":88,"pm10":32.0,"pm2_5":21.0,"mosquito_risk":3,"arthritis_risk":5,"migraine_risk":7,"frizz_risk":1,"updated_at":"2026-03-20T22:20:32.229863+05:30"},{"city":"Nashik","state":"Maharashtra","latitude":19.9975,"longitude":73.7898,"temp":22.2,"humidity":72,"rain":0.0,"pressure":947.2,"uv_index":8.0,"wind_gusts":33.8,"aqi":57,"pm10":36.4,"pm2_5":16.4,"mosquito_risk":3,"arthritis_risk":5,"migraine_risk":7,"frizz_risk":1,"updated_at":"2026-03-20T22:20:32.229871+05:30"},{"city":"Aurangabad","state":"Maharashtra","latitude":19.8762,"longitude":75.3433,"temp":25.3,"humidity":54,"rain":0.0,"pressure":945.5,"uv_index":8.5,"wind_gusts":33.5,"aqi":75,"pm10":40.6,"pm2_5":18.6,"mosquito_risk":4,"arthritis_risk":5,"migraine_risk":7,"frizz_risk":0,"updated_at":"2026-03-20T22:20:32.229879+05:30"},{"city":"Solapur","state":"Maharashtra","latitude":17.6599,"longitude":75.9064,"temp":28.2,"humidity":42,"rain":0.0,"pressure":957.7,"uv_index":8.65,"wind_gusts":23.8,"aqi":111,"pm10":53.3,"pm2_5":39.7,"mosquito_risk":4,"arthritis_risk":5,"migraine_risk":7,"frizz_risk":0,"updated_at":"2026-03-20T22:20:32.229887+05:30"},{"city":"Kolhapur","state":"Maharashtra","latitude":16.705,"longitude":74.2433,"temp":21.1,"humidity":68,"rain":0.0,"pressure":948.8,"uv_index":8.8,"wind_gusts":43.2,"aqi":81,"pm10":31.1,"pm2_5":25.8,"mosquito_risk":3,"arthritis_risk":5,"migraine_risk":7,"frizz_risk":0,"updated_at":"2026-03-20T22:20:32.229895+05:30"},{"city":"Goa","state":"Goa","latitude":15.2993,"longitude":74.124,"temp":27.2,"humidity":78,"rain":0.0,"pressure":999.5,"uv_index":8.8,"wind_gusts":35.6,"aqi":63,"pm10":50.9,"pm2_5":25.8,"mosquito_risk":7,"arthritis_risk":5,"migraine_risk":7,"frizz_risk":1,"updated_at":"2026-03-20T22:20:32.229903+05:30"},{"city":"Jodhpur","state":"Rajasthan","latitude":26.2389,"longitude":73.0243,"temp":23.5,"humidity":54,"rain":0.0,"pressure":986.5,"uv_index":7.25,"wind_gusts":19.8,"aqi":69,"pm10":61.9,"pm2_5":25.9,"mosquito_risk":0,"arthritis_risk":5,"migraine_risk":7,"frizz_risk":0,"updated_at":"2026-03-20T22:20:32.229910+05:30"},{"city":"Udaipur","state":"Rajasthan","latitude":24.5854,"longitude":73.7125,"temp":20.2,"humidity":56,"rain":0.0,"pressure":949.1,"uv_index":4.7,"wind_gusts":30.6,"aqi":59,"pm10":33.3,"pm2_5":14.3,"mosquito_risk":0,"arthritis_risk":5,"migraine_risk":3,"frizz_risk":0,"updated_at":"2026-03-20T22:20:32.229918+05:30"},{"city":"Kota","state":"Rajasthan","latitude":25.2138,"longitude":75.8648,"temp":22.5,"humidity":59,"rain":0.0,"pressure":982.9,"uv_index":6.4,"wind_gusts":34.6,"aqi":60,"pm10":32.4,"pm2_5":18.6,"mosquito_risk":0,"arthritis_risk":5,"migraine_risk":7,"frizz_risk":0,"updated_at":"2026-03-20T22:20:32.229925+05:30"},{"city":"Bikaner","state":"Rajasthan","latitude":28.0229,"longitude":73.3119,"temp":23.4,"humidity":50,"rain":0.0,"pressure":985.4,"uv_index":6.95,"wind_gusts":17.6,"aqi":69,"pm10":40.6,"pm2_5":19.7,"mosquito_risk":0,"arthritis_risk":5,"migraine_risk":7,"frizz_risk":0,"updated_at":"2026-03-20T22:20:32.229933+05:30"},{"city":"Ajmer","state":"Rajasthan","latitude":26.4499,"longitude":74.6399,"temp":21.5,"humidity":58,"rain":0.0,"pressure":957.7,"uv_index":7.2,"wind_gusts":27.4,"aqi":58,"pm10":32.5,"pm2_5":21.4,"mosquito_risk":0,"arthritis_risk":5,"migraine_risk":7,"frizz_risk":0,"updated_at":"2026-03-20T22:20:32.229940+05:30"},{"city":"Gwalior","state":"Madhya Pradesh","latitude":26.2183,"longitude":78.1828,"temp":18.8,"humidity":90,"rain":0.0,"pressure":988.1,"uv_index":6.3,"wind_gusts":31.0,"aqi":123,"pm10":58.7,"pm2_5":31.9,"mosquito_risk":3,"arthritis_risk":10,"migraine_risk":7,"frizz_risk":1,"updated_at":"2026-03-20T22:20:32.229947+05:30"},{"city":"Indore","state":"Madhya Pradesh","latitude":22.7196,"longitude":75.8577,"temp":20.7,"humidity":67,"rain":0.0,"pressure":950.3,"uv_index":7.85,"wind_gusts":38.5,"aqi":69,"pm10":34.2,"pm2_5":20.3,"mosquito_risk":3,"arthritis_risk":5,"migraine_risk":7,"frizz_risk":0,"updated_at":"2026-03-20T22:20:32.229954+05:30"},{"city":"Bhopal","state":"Madhya Pradesh","latitude":23.2599,"longitude":77.4126,"temp":19.0,"humidity":80,"rain":0.0,"pressure":956.6,"uv_index":7.75,"wind_gusts":46.1,"aqi":70,"pm10":61.7,"pm2_5":28.1,"mosquito_risk":3,"arthritis_risk":5,"migraine_risk":7,"frizz_risk":0,"updated_at":"2026-03-20T22:20:32.229961+05:30"},{"city":"Jabalpur","state":"Madhya Pradesh","latitude":23.1815,"longitude":79.9864,"temp":21.9,"humidity":74,"rain":0.0,"pressure":964.6,"uv_index":4.9,"wind_gusts":36.0,"aqi":76,"pm10":34.8,"pm2_5":20.7,"mosquito_risk":3,"arthritis_risk":5,"migraine_risk":3,"frizz_risk":1,"updated_at":"2026-03-20T22:20:32.229968+05:30"},{"city":"Ujjain","state":"Madhya Pradesh","latitude":23.1765,"longitude":75.7885,"temp":21.1,"humidity":66,"rain":0.0,"pressure":956.2,"uv_index":7.75,"wind_gusts":39.6,"aqi":68,"pm10":28.2,"pm2_5":18.0,"mosquito_risk":3,"arthritis_risk":5,"migraine_risk":7,"frizz_risk":0,"updated_at":"2026-03-20T22:20:32.229976+05:30"},{"city":"Visakhapatnam","state":"Andhra Pradesh","latitude":17.6868,"longitude":83.2185,"temp":24.4,"humidity":86,"rain":0.0,"pressure":1007.0,"uv_index":8.8,"wind_gusts":39.2,"aqi":65,"pm10":28.5,"pm2_5":24.2,"mosquito_risk":3,"arthritis_risk":5,"migraine_risk":4,"frizz_risk":1,"updated_at":"2026-03-20T22:20:32.229984+05:30"},{"city":"Vijayawada","state":"Andhra Pradesh","latitude":16.5062,"longitude":80.648,"temp":25.7,"humidity":79,"rain":0.0,"pressure":1005.1,"uv_index":8.85,"wind_gusts":19.1,"aqi":65,"pm10":19.3,"pm2_5":17.3,"mosquito_risk":7,"arthritis_risk":5,"migraine_risk":4,"frizz_risk":1,"updated_at":"2026-03-20T22:20:32.229991+05:30"},{"city":"Guntur","state":"Andhra Pradesh","latitude":16.3067,"longitude":80.4365,"temp":25.4,"humidity":86,"rain":0.0,"pressure":1006.2,"uv_index":8.85,"wind_gusts":19.1,"aqi":60,"pm10":24.6,"pm2_5":22.2,"mosquito_risk":7,"arthritis_risk":5,"migraine_risk":4,"frizz_risk":1,"updated_at":"2026-03-20T22:20:32.229999+05:30"},{"city":"Nellore","state":"Andhra Pradesh","latitude":14.4426,"longitude":79.9865,"temp":26.2,"humidity":88,"rain":0.0,"pressure":1008.4,"uv_index":9.0,"wind_gusts":27.0,"aqi":59,"pm10":9.1,"pm2_5":6.8,"mosquito_risk":7,"arthritis_risk":0,"migraine_risk":4,"frizz_risk":1,"updated_at":"2026-03-20T22:20:32.230008+05:30"},{"city":"Kurnool","state":"Andhra Pradesh","latitude":15.8281,"longitude":78.0373,"temp":29.3,"humidity":46,"rain":0.0,"pressure":977.4,"uv_index":8.85,"wind_gusts":19.4,"aqi":109,"pm10":40.4,"pm2_5":31.1,"mosquito_risk":4,"arthritis_risk":5,"migraine_risk":7,"frizz_risk":1,"updated_at":"2026-03-20T22:20:32.230015+05:30"},{"city":"Kakinada","state":"Andhra Pradesh","latitude":16.9891,"longitude":82.2475,"temp":24.2,"humidity":91,"rain":0.0,"pressure":1010.7,"uv_index":8.8,"wind_gusts":27.7,"aqi":49,"pm10":12.6,"pm2_5":9.5,"mosquito_risk":3,"arthritis_risk":0,"migraine_risk":4,"frizz_risk":1,"updated_at":"2026-03-20T22:20:32.230023+05:30"},{"city":"Tirupati","state":"Andhra Pradesh","latitude":13.6288,"longitude":79.4192,"temp":25.5,"humidity":84,"rain":0.0,"pressure":994.0,"uv_index":9.1,"wind_gusts":20.2,"aqi":60,"pm10":25.6,"pm2_5":23.3,"mosquito_risk":7,"arthritis_risk":5,"migraine_risk":7,"frizz_risk":1,"updated_at":"2026-03-20T22:20:32.230030+05:30"},{"city":"Warangal","state":"Telangana","latitude":17.9689,"longitude":79.5941,"temp":24.6,"humidity":75,"rain":0.0,"pressure":981.1,"uv_index":8.65,"wind_gusts":28.4,"aqi":108,"pm10":85.2,"pm2_5":73.6,"mosquito_risk":3,"arthritis_risk":5,"migraine_risk":7,"frizz_risk":1,"updated_at":"2026-03-20T22:20:32.230038+05:30"},{"city":"Nizamabad","state":"Telangana","latitude":18.6725,"longitude":78.0941,"temp":26.7,"humidity":51,"rain":0.0,"pressure":966.0,"uv_index":8.55,"wind_gusts":25.9,"aqi":89,"pm10":62.2,"pm2_5":47.1,"mosquito_risk":4,"arthritis_risk":5,"migraine_risk":7,"frizz_risk":0,"updated_at":"2026-03-20T22:20:32.230046+05:30"},{"city":"Mysore","state":"Karnataka","latitude":12.2958,"longitude":76.6396,"temp":24.3,"humidity":72,"rain":0.0,"pressure":929.8,"uv_index":9.35,"wind_gusts":28.1,"aqi":125,"pm10":50.9,"pm2_5":43.5,"mosquito_risk":3,"arthritis_risk":5,"migraine_risk":7,"frizz_risk":1,"updated_at":"2026-03-20T22:20:32.230054+05:30"},{"city":"Mangalore","state":"Karnataka","latitude":12.9141,"longitude":74.856,"temp":29.4,"humidity":76,"rain":0.0,"pressure":1007.8,"uv_index":9.0,"wind_gusts":27.7,"aqi":78,"pm10":25.2,"pm2_5":18.3,"mosquito_risk":7,"arthritis_risk":5,"migraine_risk":4,"frizz_risk":1,"updated_at":"2026-03-20T22:20:32.230061+05:30"},{"city":"Hubli-Dharwad","state":"Karnataka","latitude":15.3647,"longitude":75.124,"temp":23.8,"humidity":63,"rain":0.0,"pressure":942.0,"uv_index":9.0,"wind_gusts":31.0,"aqi":118,"pm10":37.1,"pm2_5":29.0,"mosquito_risk":3,"arthritis_risk":5,"migraine_risk":7,"frizz_risk":1,"updated_at":"2026-03-20T22:20:32.230069+05:30"},{"city":"Belgaum","state":"Karnataka","latitude":15.8497,"longitude":74.4977,"temp":21.5,"humidity":78,"rain":0.0,"pressure":926.6,"uv_index":9.05,"wind_gusts":41.4,"aqi":73,"pm10":31.8,"pm2_5":24.3,"mosquito_risk":3,"arthritis_risk":5,"migraine_risk":7,"frizz_risk":1,"updated_at":"2026-03-20T22:20:35.491142+05:30"},{"city":"Coimbatore","state":"Tamil Nadu","latitude":11.0168,"longitude":76.9558,"temp":25.2,"humidity":72,"rain":0.0,"pressure":963.2,"uv_index":9.35,"wind_gusts":36.7,"aqi":86,"pm10":33.2,"pm2_5":30.2,"mosquito_risk":7,"arthritis_risk":5,"migraine_risk":7,"frizz_risk":1,"updated_at":"2026-03-20T22:20:35.491172+05:30"},{"city":"Madurai","state":"Tamil Nadu","latitude":9.9252,"longitude":78.1198,"temp":25.7,"humidity":83,"rain":0.0,"pressure":995.8,"uv_index":9.3,"wind_gusts":23.4,"aqi":93,"pm10":40.5,"pm2_5":35.2,"mosquito_risk":7,"arthritis_risk":5,"migraine_risk":7,"frizz_risk":1,"updated_at":"2026-03-20T22:20:35.491184+05:30"},{"city":"Trichy","state":"Tamil Nadu","latitude":10.7905,"longitude":78.7047,"temp":27.0,"humidity":82,"rain":0.0,"pressure":1001.6,"uv_index":9.25,"wind_gusts":23.4,"aqi":107,"pm10":24.8,"pm2_5":23.5,"mosquito_risk":7,"arthritis_risk":5,"migraine_risk":4,"frizz_risk":1,"updated_at":"2026-03-20T22:20:35.491192+05:30"},{"city":"Salem","state":"Tamil Nadu","latitude":11.6643,"longitude":78.146,"temp":27.7,"humidity":67,"rain":0.0,"pressure":978.6,"uv_index":9.3,"wind_gusts":20.9,"aqi":155,"pm10":34.3,"pm2_5":28.6,"mosquito_risk":7,"arthritis_risk":5,"migraine_risk":7,"frizz_risk":1,"updated_at":"2026-03-20T22:20:35.491201+05:30"},{"city":"Tirunelveli","state":"Tamil Nadu","latitude":8.7139,"longitude":77.7567,"temp":26.4,"humidity":81,"rain":0.0,"pressure":1005.7,"uv_index":9.25,"wind_gusts":34.9,"aqi":75,"pm10":27.6,"pm2_5":24.0,"mosquito_risk":7,"arthritis_risk":5,"migraine_risk":4,"frizz_risk":1,"updated_at":"2026-03-20T22:20:35.491209+05:30"},{"city":"Vellore","state":"Tamil Nadu","latitude":12.9165,"longitude":79.1325,"temp":25.7,"humidity":75,"rain":0.0,"pressure":986.7,"uv_index":9.2,"wind_gusts":21.6,"aqi":73,"pm10":26.7,"pm2_5":25.2,"mosquito_risk":7,"arthritis_risk":5,"migraine_risk":7,"frizz_risk":1,"updated_at":"2026-03-20T22:20:35.491217+05:30"},{"city":"Erode","state":"Tamil Nadu","latitude":11.341,"longitude":77.7172,"temp":28.9,"humidity":63,"rain":0.0,"pressure":990.2,"uv_index":9.25,"wind_gusts":27.0,"aqi":123,"pm10":27.5,"pm2_5":23.5,"mosquito_risk":7,"arthritis_risk":5,"migraine_risk":7,"frizz_risk":1,"updated_at":"2026-03-20T22:20:35.491225+05:30"},{"city":"Kochi","state":"Kerala","latitude":9.9312,"longitude":76.2673,"temp":29.2,"humidity":71,"rain":0.0,"pressure":1010.1,"uv_index":9.15,"wind_gusts":38.2,"aqi":66,"pm10":41.3,"pm2_5":36.1,"mosquito_risk":7,"arthritis_risk":0,"migraine_risk":4,"frizz_risk":1,"updated_at":"2026-03-20T22:20:35.491231+05:30"},{"city":"Thiruvananthapuram","state":"Kerala","latitude":8.5241,"longitude":76.9366,"temp":28.8,"humidity":79,"rain":0.0,"pressure":1009.8,"uv_index":9.15,"wind_gusts":30.6,"aqi":99,"pm10":21.6,"pm2_5":16.2,"mosquito_risk":7,"arthritis_risk":0,"migraine_risk":4,"frizz_risk":1,"updated_at":"2026-03-20T22:20:35.491237+05:30"},{"city":"Kozhikode","state":"Kerala","latitude":11.2588,"longitude":75.7804,"temp":29.3,"humidity":76,"rain":0.0,"pressure":1009.0,"uv_index":9.05,"wind_gusts":32.0,"aqi":59,"pm10":18.9,"pm2_5":12.8,"mosquito_risk":7,"arthritis_risk":0,"migraine_risk":4,"frizz_risk":1,"updated_at":"2026-03-20T22:20:35.491243+05:30"},{"city":"Thrissur","state":"Kerala","latitude":10.5276,"longitude":76.2144,"temp":27.6,"humidity":80,"rain":0.0,"pressure":1008.3,"uv_index":9.1,"wind_gusts":39.6,"aqi":68,"pm10":29.2,"pm2_5":25.0,"mosquito_risk":7,"arthritis_risk":0,"migraine_risk":4,"frizz_risk":1,"updated_at":"2026-03-20T22:20:35.491250+05:30"},{"city":"Kannur","state":"Kerala","latitude":11.8745,"longitude":75.3704,"temp":28.6,"humidity":78,"rain":0.0,"pressure":1008.4,"uv_index":9.05,"wind_gusts":40.3,"aqi":59,"pm10":22.2,"pm2_5":16.8,"mosquito_risk":7,"arthritis_risk":0,"migraine_risk":4,"frizz_risk":1,"updated_at":"2026-03-20T22:20:35.491256+05:30"},{"city":"Patna","state":"Bihar","latitude":25.5941,"longitude":85.1376,"temp":23.4,"humidity":80,"rain":0.0,"pressure":1003.5,"uv_index":7.65,"wind_gusts":31.3,"aqi":166,"pm10":60.8,"pm2_5":53.7,"mosquito_risk":3,"arthritis_risk":5,"migraine_risk":4,"frizz_risk":1,"updated_at":"2026-03-20T22:20:35.491262+05:30"},{"city":"Gaya","state":"Bihar","latitude":24.7914,"longitude":85.0002,"temp":22.3,"humidity":85,"rain":0.0,"pressure":997.7,"uv_index":7.8,"wind_gusts":30.6,"aqi":147,"pm10":48.1,"pm2_5":40.4,"mosquito_risk":3,"arthritis_risk":5,"migraine_risk":7,"frizz_risk":1,"updated_at":"2026-03-20T22:20:35.491268+05:30"},{"city":"Muzaffarpur","state":"Bihar","latitude":26.1209,"longitude":85.3647,"temp":22.3,"humidity":79,"rain":0.0,"pressure":1003.7,"uv_index":7.65,"wind_gusts":42.1,"aqi":158,"pm10":66.4,"pm2_5":59.1,"mosquito_risk":3,"arthritis_risk":5,"migraine_risk":4,"frizz_risk":1,"updated_at":"2026-03-20T22:20:35.491274+05:30"},{"city":"Bhagalpur","state":"Bihar","latitude":25.2425,"longitude":87.0117,"temp":22.4,"humidity":86,"rain":0.0,"pressure":1006.6,"uv_index":7.7,"wind_gusts":44.6,"aqi":165,"pm10":56.0,"pm2_5":53.0,"mosquito_risk":3,"arthritis_risk":5,"migraine_risk":4,"frizz_risk":1,"updated_at":"2026-03-20T22:20:35.491280+05:30"},{"city":"Ranchi","state":"Jharkhand","latitude":23.3441,"longitude":85.3096,"temp":19.7,"humidity":82,"rain":0.0,"pressure":940.1,"uv_index":7.7,"wind_gusts":27.4,"aqi":134,"pm10":39.9,"pm2_5":34.1,"mosquito_risk":3,"arthritis_risk":10,"migraine_risk":7,"frizz_risk":1,"updated_at":"2026-03-20T22:20:35.491286+05:30"},{"city":"Jamshedpur","state":"Jharkhand","latitude":22.8046,"longitude":86.2029,"temp":23.6,"humidity":80,"rain":0.0,"pressure":995.4,"uv_index":7.9,"wind_gusts":25.9,"aqi":130,"pm10":40.6,"pm2_5":36.7,"mosquito_risk":3,"arthritis_risk":5,"migraine_risk":7,"frizz_risk":1,"updated_at":"2026-03-20T22:20:35.491293+05:30"},{"city":"Dhanbad","state":"Jharkhand","latitude":23.7957,"longitude":86.4304,"temp":22.3,"humidity":79,"rain":0.0,"pressure":984.3,"uv_index":7.6,"wind_gusts":51.8,"aqi":155,"pm10":72.9,"pm2_5":67.3,"mosquito_risk":3,"arthritis_risk":5,"migraine_risk":7,"frizz_risk":1,"updated_at":"2026-03-20T22:20:35.491299+05:30"},{"city":"Bokaro","state":"Jharkhand","latitude":23.6693,"longitude":86.1511,"temp":22.0,"humidity":81,"rain":0.0,"pressure":988.4,"uv_index":7.7,"wind_gusts":51.8,"aqi":150,"pm10":57.0,"pm2_5":51.3,"mosquito_risk":3,"arthritis_risk":5,"migraine_risk":7,"frizz_risk":1,"updated_at":"2026-03-20T22:20:35.491305+05:30"},{"city":"Bhubaneswar","state":"Odisha","latitude":20.2961,"longitude":85.8245,"temp":25.0,"humidity":86,"rain":0.0,"pressure":1006.3,"uv_index":8.55,"wind_gusts":33.5,"aqi":63,"pm10":21.1,"pm2_5":18.3,"mosquito_risk":7,"arthritis_risk":5,"migraine_risk":4,"frizz_risk":1,"updated_at":"2026-03-20T22:20:35.491311+05:30"},{"city":"Cuttack","state":"Odisha","latitude":20.4625,"longitude":85.8828,"temp":25.1,"humidity":83,"rain":0.0,"pressure":1008.2,"uv_index":8.35,"wind_gusts":34.2,"aqi":63,"pm10":21.1,"pm2_5":18.3,"mosquito_risk":7,"arthritis_risk":0,"migraine_risk":4,"frizz_risk":1,"updated_at":"2026-03-20T22:20:35.491317+05:30"},{"city":"Rourkela","state":"Odisha","latitude":22.2604,"longitude":84.8536,"temp":22.8,"humidity":77,"rain":0.0,"pressure":988.6,"uv_index":7.55,"wind_gusts":37.1,"aqi":168,"pm10":55.8,"pm2_5":46.8,"mosquito_risk":3,"arthritis_risk":5,"migraine_risk":7,"frizz_risk":1,"updated_at":"2026-03-20T22:20:35.491323+05:30"},{"city":"Raipur","state":"Chhattisgarh","latitude":21.2514,"longitude":81.6296,"temp":23.0,"humidity":68,"rain":0.0,"pressure":977.4,"uv_index":7.4,"wind_gusts":45.0,"aqi":114,"pm10":48.0,"pm2_5":41.6,"mosquito_risk":3,"arthritis_risk":5,"migraine_risk":7,"frizz_risk":1,"updated_at":"2026-03-20T22:20:35.491330+05:30"},{"city":"Bhilai","state":"Chhattisgarh","latitude":21.1938,"longitude":81.3509,"temp":22.6,"humidity":73,"rain":0.0,"pressure":977.8,"uv_index":6.9,"wind_gusts":35.3,"aqi":105,"pm10":44.5,"pm2_5":34.6,"mosquito_risk":3,"arthritis_risk":5,"migraine_risk":7,"frizz_risk":1,"updated_at":"2026-03-20T22:20:35.491336+05:30"},{"city":"Guwahati","state":"Assam","latitude":26.1158,"longitude":91.7086,"temp":23.1,"humidity":87,"rain":0.0,"pressure":1007.1,"uv_index":7.1,"wind_gusts":27.4,"aqi":98,"pm10":46.6,"pm2_5":40.9,"mosquito_risk":3,"arthritis_risk":5,"migraine_risk":4,"frizz_risk":1,"updated_at":"2026-03-20T22:20:35.491341+05:30"},{"city":"Agartala","state":"Tripura","latitude":23.8315,"longitude":91.2868,"temp":22.0,"humidity":95,"rain":0.0,"pressure":1010.4,"uv_index":6.4,"wind_gusts":29.2,"aqi":97,"pm10":48.8,"pm2_5":45.1,"mosquito_risk":3,"arthritis_risk":0,"migraine_risk":4,"frizz_risk":1,"updated_at":"2026-03-20T22:20:35.491347+05:30"},{"city":"Shillong","state":"Meghalaya","latitude":25.5788,"longitude":91.8933,"temp":12.0,"humidity":75,"rain":0.0,"pressure":857.9,"uv_index":7.5,"wind_gusts":34.2,"aqi":80,"pm10":32.6,"pm2_5":28.4,"mosquito_risk":3,"arthritis_risk":5,"migraine_risk":7,"frizz_risk":0,"updated_at":"2026-03-20T22:20:35.491353+05:30"},{"city":"Imphal","state":"Manipur","latitude":24.817,"longitude":93.9368,"temp":16.6,"humidity":80,"rain":0.0,"pressure":927.1,"uv_index":7.9,"wind_gusts":44.6,"aqi":89,"pm10":48.7,"pm2_5":40.6,"mosquito_risk":3,"arthritis_risk":5,"migraine_risk":7,"frizz_risk":0,"updated_at":"2026-03-20T22:20:35.491359+05:30"},{"city":"Aizawl","state":"Mizoram","latitude":23.7271,"longitude":92.7176,"temp":16.3,"humidity":85,"rain":0.0,"pressure":895.0,"uv_index":7.6,"wind_gusts":24.8,"aqi":85,"pm10":59.5,"pm2_5":48.7,"mosquito_risk":3,"arthritis_risk":10,"migraine_risk":7,"frizz_risk":0,"updated_at":"2026-03-20T22:20:35.491365+05:30"},{"city":"Kohima","state":"Nagaland","latitude":25.6701,"longitude":94.1077,"temp":14.4,"humidity":59,"rain":0.0,"pressure":857.7,"uv_index":7.7,"wind_gusts":62.3,"aqi":76,"pm10":46.0,"pm2_5":36.1,"mosquito_risk":0,"arthritis_risk":5,"migraine_risk":7,"frizz_risk":0,"updated_at":"2026-03-20T22:20:35.491371+05:30"},{"city":"Gangtok","state":"Sikkim","latitude":27.3314,"longitude":88.6138,"temp":12.8,"humidity":92,"rain":0.0,"pressure":839.7,"uv_index":7.9,"wind_gusts":20.2,"aqi":95,"pm10":47.5,"pm2_5":34.7,"mosquito_risk":3,"arthritis_risk":10,"migraine_risk":7,"frizz_risk":0,"updated_at":"2026-03-20T22:20:35.491377+05:30"},{"city":"Siliguri","state":"West Bengal","latitude":26.7271,"longitude":88.3953,"temp":18.8,"humidity":89,"rain":0.0,"pressure":999.9,"uv_index":7.6,"wind_gusts":23.0,"aqi":151,"pm10":69.2,"pm2_5":53.6,"mosquito_risk":3,"arthritis_risk":10,"migraine_risk":7,"frizz_risk":1,"updated_at":"2026-03-20T22:20:38.754046+05:30"},{"city":"Durgapur","state":"West Bengal","latitude":23.5204,"longitude":87.3119,"temp":23.3,"humidity":80,"rain":0.0,"pressure":999.2,"uv_index":7.0,"wind_gusts":41.0,"aqi":153,"pm10":61.2,"pm2_5":57.9,"mosquito_risk":3,"arthritis_risk":5,"migraine_risk":7,"frizz_risk":1,"updated_at":"2026-03-20T22:20:38.754076+05:30"},{"city":"Asansol","state":"West Bengal","latitude":23.6739,"longitude":86.9524,"temp":23.9,"humidity":78,"rain":0.0,"pressure":997.9,"uv_index":5.4,"wind_gusts":37.4,"aqi":151,"pm10":56.6,"pm2_5":53.8,"mosquito_risk":3,"arthritis_risk":5,"migraine_risk":3,"frizz_risk":1,"updated_at":"2026-03-20T22:20:38.754088+05:30"},{"city":"Pondicherry","state":"Puducherry","latitude":11.9139,"longitude":79.8145,"temp":25.8,"humidity":93,"rain":0.0,"pressure":1010.3,"uv_index":9.1,"wind_gusts":23.0,"aqi":70,"pm10":12.6,"pm2_5":9.4,"mosquito_risk":7,"arthritis_risk":0,"migraine_risk":4,"frizz_risk":1,"updated_at":"2026-03-20T22:20:38.754097+05:30"},{"city":"Port Blair","state":"Andaman and Nicobar Islands","latitude":11.6234,"longitude":92.7265,"temp":28.4,"humidity":77,"rain":0.0,"pressure":1009.6,"uv_index":6.3,"wind_gusts":11.5,"aqi":43,"pm10":14.8,"pm2_5":10.6,"mosquito_risk":7,"arthritis_risk":0,"migraine_risk":4,"frizz_risk":1,"updated_at":"2026-03-20T22:20:38.754105+05:30"},{"city":"Haridwar","state":"Uttarakhand","latitude":29.9457,"longitude":78.1642,"temp":16.4,"humidity":96,"rain":0.1,"pressure":979.1,"uv_index":0.7,"wind_gusts":27.7,"aqi":79,"pm10":28.6,"pm2_5":26.0,"mosquito_risk":6,"arthritis_risk":10,"migraine_risk":3,"frizz_risk":0,"updated_at":"2026-03-20T22:20:38.754114+05:30"},{"city":"Rishikesh","state":"Uttarakhand","latitude":30.0869,"longitude":78.2676,"temp":16.6,"humidity":91,"rain":0.2,"pressure":971.2,"uv_index":0.9,"wind_gusts":27.7,"aqi":67,"pm10":30.5,"pm2_5":23.3,"mosquito_risk":6,"arthritis_risk":10,"migraine_risk":3,"frizz_risk":0,"updated_at":"2026-03-20T22:20:38.754123+05:30"},{"city":"Nainital","state":"Uttarakhand","latitude":29.3919,"longitude":79.4542,"temp":11.5,"humidity":93,"rain":0.1,"pressure":804.9,"uv_index":1.9,"wind_gusts":67.0,"aqi":68,"pm10":28.5,"pm2_5":21.9,"mosquito_risk":6,"arthritis_risk":10,"migraine_risk":3,"frizz_risk":0,"updated_at":"2026-03-20T22:20:38.754131+05:30"},{"city":"Mussoorie","state":"Uttarakhand","latitude":30.4599,"longitude":78.0664,"temp":9.0,"humidity":75,"rain":0.0,"pressure":800.6,"uv_index":0.45,"wind_gusts":46.8,"aqi":64,"pm10":17.6,"pm2_5":17.6,"mosquito_risk":3,"arthritis_risk":5,"migraine_risk":3,"frizz_risk":0,"updated_at":"2026-03-20T22:20:38.754139+05:30"},{"city":"Dharamshala","state":"Himachal Pradesh","latitude":32.219,"longitude":76.3234,"temp":11.7,"humidity":78,"rain":0.0,"pressure":869.0,"uv_index":2.15,"wind_gusts":27.0,"aqi":48,"pm10":16.0,"pm2_5":12.9,"mosquito_risk":3,"arthritis_risk":5,"migraine_risk":3,"frizz_risk":0,"updated_at":"2026-03-20T22:20:38.754146+05:30"},{"city":"Dalhousie","state":"Himachal Pradesh","latitude":32.5387,"longitude":75.971,"temp":8.3,"humidity":93,"rain":0.0,"pressure":801.8,"uv_index":1.7,"wind_gusts":25.9,"aqi":58,"pm10":46.7,"pm2_5":34.0,"mosquito_risk":3,"arthritis_risk":10,"migraine_risk":3,"frizz_risk":0,"updated_at":"2026-03-20T22:20:38.754155+05:30"},{"city":"Patiala","state":"Punjab","latitude":30.3398,"longitude":76.3869,"temp":14.6,"humidity":99,"rain":0.0,"pressure":982.9,"uv_index":2.2,"wind_gusts":17.6,"aqi":97,"pm10":93.4,"pm2_5":68.5,"mosquito_risk":3,"arthritis_risk":10,"migraine_risk":3,"frizz_risk":0,"updated_at":"2026-03-20T22:20:38.754163+05:30"},{"city":"Bhatinda","state":"Punjab","latitude":30.211,"longitude":74.9455,"temp":16.0,"humidity":89,"rain":0.0,"pressure":988.5,"uv_index":5.95,"wind_gusts":27.7,"aqi":113,"pm10":67.8,"pm2_5":56.5,"mosquito_risk":3,"arthritis_risk":10,"migraine_risk":3,"frizz_risk":0,"updated_at":"2026-03-20T22:20:38.754171+05:30"},{"city":"Rohtak","state":"Haryana","latitude":28.8955,"longitude":76.6066,"temp":15.9,"humidity":98,"rain":0.0,"pressure":986.8,"uv_index":3.75,"wind_gusts":22.3,"aqi":124,"pm10":95.5,"pm2_5":80.8,"mosquito_risk":3,"arthritis_risk":10,"migraine_risk":3,"frizz_risk":0,"updated_at":"2026-03-20T22:20:38.754179+05:30"},{"city":"Panipat","state":"Haryana","latitude":29.3909,"longitude":76.9635,"temp":14.9,"humidity":99,"rain":0.0,"pressure":985.3,"uv_index":2.6,"wind_gusts":15.8,"aqi":130,"pm10":90.1,"pm2_5":73.1,"mosquito_risk":3,"arthritis_risk":10,"migraine_risk":3,"frizz_risk":0,"updated_at":"2026-03-20T22:20:38.754186+05:30"},{"city":"Mathura","state":"Uttar Pradesh","latitude":27.4924,"longitude":77.6737,"temp":16.5,"humidity":96,"rain":0.0,"pressure":992.2,"uv_index":5.25,"wind_gusts":22.0,"aqi":114,"pm10":52.6,"pm2_5":43.7,"mosquito_risk":3,"arthritis_risk":10,"migraine_risk":3,"frizz_risk":0,"updated_at":"2026-03-20T22:20:38.754193+05:30"},{"city":"Vrindavan","state":"Uttar Pradesh","latitude":27.5823,"longitude":77.7027,"temp":16.3,"humidity":96,"rain":0.0,"pressure":992.5,"uv_index":5.25,"wind_gusts":22.3,"aqi":114,"pm10":52.6,"pm2_5":43.7,"mosquito_risk":3,"arthritis_risk":10,"migraine_risk":3,"frizz_risk":0,"updated_at":"2026-03-20T22:20:38.754201+05:30"},{"city":"Ayodhya","state":"Uttar Pradesh","latitude":26.7922,"longitude":82.1998,"temp":19.9,"humidity":79,"rain":0.0,"pressure":999.2,"uv_index":6.25,"wind_gusts":34.9,"aqi":127,"pm10":72.4,"pm2_5":53.6,"mosquito_risk":3,"arthritis_risk":5,"migraine_risk":7,"frizz_risk":1,"updated_at":"2026-03-20T22:20:38.754208+05:30"},{"city":"Ratlam","state":"Madhya Pradesh","latitude":23.3315,"longitude":75.0367,"temp":22.7,"humidity":61,"rain":0.0,"pressure":956.8,"uv_index":7.7,"wind_gusts":41.4,"aqi":66,"pm10":26.0,"pm2_5":15.5,"mosquito_risk":3,"arthritis_risk":5,"migraine_risk":7,"frizz_risk":0,"updated_at":"2026-03-20T22:20:38.754216+05:30"},{"city":"Sagar","state":"Madhya Pradesh","latitude":23.8388,"longitude":78.7378,"temp":19.4,"humidity":83,"rain":0.0,"pressure":953.1,"uv_index":7.6,"wind_gusts":38.9,"aqi":64,"pm10":45.3,"pm2_5":24.6,"mosquito_risk":3,"arthritis_risk":10,"migraine_risk":7,"frizz_risk":1,"updated_at":"2026-03-20T22:20:38.754223+05:30"},{"city":"Satna","state":"Madhya Pradesh","latitude":24.6005,"longitude":80.8322,"temp":21.0,"humidity":82,"rain":0.0,"pressure":975.0,"uv_index":4.75,"wind_gusts":50.4,"aqi":64,"pm10":26.8,"pm2_5":18.5,"mosquito_risk":3,"arthritis_risk":5,"migraine_risk":3,"frizz_risk":1,"updated_at":"2026-03-20T22:20:38.754231+05:30"},{"city":"Akola","state":"Maharashtra","latitude":20.7002,"longitude":77.0082,"temp":25.8,"humidity":52,"rain":0.0,"pressure":977.2,"uv_index":8.2,"wind_gusts":29.5,"aqi":71,"pm10":45.4,"pm2_5":21.7,"mosquito_risk":4,"arthritis_risk":5,"migraine_risk":7,"frizz_risk":0,"updated_at":"2026-03-20T22:20:38.754239+05:30"},{"city":"Amravati","state":"Maharashtra","latitude":20.9374,"longitude":77.7796,"temp":25.4,"humidity":49,"rain":0.0,"pressure":969.0,"uv_index":8.15,"wind_gusts":35.6,"aqi":73,"pm10":46.2,"pm2_5":21.9,"mosquito_risk":4,"arthritis_risk":5,"migraine_risk":7,"frizz_risk":0,"updated_at":"2026-03-20T22:20:38.754247+05:30"},{"city":"Latur","state":"Maharashtra","latitude":18.4088,"longitude":76.5604,"temp":24.6,"humidity":44,"rain":0.0,"pressure":940.4,"uv_index":8.6,"wind_gusts":23.8,"aqi":91,"pm10":53.8,"pm2_5":44.8,"mosquito_risk":0,"arthritis_risk":5,"migraine_risk":7,"frizz_risk":0,"updated_at":"2026-03-20T22:20:38.754255+05:30"},{"city":"Nanded","state":"Maharashtra","latitude":19.1383,"longitude":77.3091,"temp":26.7,"humidity":52,"rain":0.0,"pressure":969.5,"uv_index":8.4,"wind_gusts":23.8,"aqi":76,"pm10":32.7,"pm2_5":28.0,"mosquito_risk":4,"arthritis_risk":5,"migraine_risk":7,"frizz_risk":0,"updated_at":"2026-03-20T22:20:38.754262+05:30"},{"city":"Gulbarga","state":"Karnataka","latitude":17.3297,"longitude":76.8343,"temp":28.8,"humidity":36,"rain":0.0,"pressure":959.5,"uv_index":8.7,"wind_gusts":24.5,"aqi":123,"pm10":58.1,"pm2_5":39.3,"mosquito_risk":4,"arthritis_risk":5,"migraine_risk":7,"frizz_risk":0,"updated_at":"2026-03-20T22:20:38.754269+05:30"},{"city":"Bidar","state":"Karnataka","latitude":17.9104,"longitude":77.5199,"temp":26.6,"humidity":45,"rain":0.0,"pressure":936.4,"uv_index":8.65,"wind_gusts":26.3,"aqi":105,"pm10":45.9,"pm2_5":36.1,"mosquito_risk":4,"arthritis_risk":5,"migraine_risk":7,"frizz_risk":0,"updated_at":"2026-03-20T22:20:38.754277+05:30"},{"city":"Hospet","state":"Karnataka","latitude":15.2689,"longitude":76.3909,"temp":28.1,"humidity":52,"rain":0.0,"pressure":956.6,"uv_index":8.95,"wind_gusts":11.5,"aqi":139,"pm10":36.7,"pm2_5":30.6,"mosquito_risk":4,"arthritis_risk":5,"migraine_risk":7,"frizz_risk":1,"updated_at":"2026-03-20T22:20:38.754283+05:30"},{"city":"Tirupur","state":"Tamil Nadu","latitude":11.1085,"longitude":77.3411,"temp":28.0,"humidity":57,"rain":0.0,"pressure":976.9,"uv_index":9.35,"wind_gusts":28.1,"aqi":118,"pm10":40.2,"pm2_5":35.2,"mosquito_risk":4,"arthritis_risk":5,"migraine_risk":7,"frizz_risk":1,"updated_at":"2026-03-20T22:20:38.754291+05:30"},{"city":"Alappuzha","state":"Kerala","latitude":9.4981,"longitude":76.3388,"temp":29.0,"humidity":73,"rain":0.0,"pressure":1010.5,"uv_index":9.1,"wind_gusts":32.8,"aqi":77,"pm10":36.6,"pm2_5":29.0,"mosquito_risk":7,"arthritis_risk":0,"migraine_risk":4,"frizz_risk":1,"updated_at":"2026-03-20T22:20:38.754298+05:30"},{"city":"Munnar","state":"Kerala","latitude":10.0889,"longitude":77.0595,"temp":20.2,"humidity":83,"rain":0.0,"pressure":857.9,"uv_index":9.6,"wind_gusts":37.4,"aqi":53,"pm10":24.4,"pm2_5":20.8,"mosquito_risk":3,"arthritis_risk":5,"migraine_risk":7,"frizz_risk":1,"updated_at":"2026-03-20T22:20:38.754309+05:30"},{"city":"Silchar","state":"Assam","latitude":24.8333,"longitude":92.7789,"temp":22.7,"humidity":89,"rain":0.0,"pressure":1009.6,"uv_index":7.55,"wind_gusts":19.1,"aqi":105,"pm10":56.3,"pm2_5":49.6,"mosquito_risk":3,"arthritis_risk":0,"migraine_risk":4,"frizz_risk":1,"updated_at":"2026-03-20T22:20:38.754317+05:30"},{"city":"Dibrugarh","state":"Assam","latitude":27.4728,"longitude":94.912,"temp":22.3,"humidity":86,"rain":0.0,"pressure":1001.9,"uv_index":7.75,"wind_gusts":14.0,"aqi":91,"pm10":38.1,"pm2_5":32.8,"mosquito_risk":3,"arthritis_risk":5,"migraine_risk":4,"frizz_risk":1,"updated_at":"2026-03-20T22:20:38.754325+05:30"}]