[{"city":"Delhi","state":"Delhi","latitude":28.6139,"longitude":77.209,"temp":33.7,"humidity":40,"rain":0.0,"pressure":988.8,"uv_index":6.05,"wind_gusts":22.3,"aqi":480,"pm10":219.3,"pm2_5":85.0,"mosquito_risk":0,"arthritis_risk":5,"migraine_risk":7,"frizz_risk":1,"updated_at":"2026-03-10T14:20:14.434557+05:30"},{"city":"Mumbai","state":"Maharashtra","latitude":19.076,"longitude":72.8777,"temp":28.8,"humidity":65,"rain":0.0,"pressure":1009.1,"uv_index":7.55,"wind_gusts":17.3,"aqi":189,"pm10":96.9,"pm2_5":94.5,"mosquito_risk":7,"arthritis_risk":0,"migraine_risk":4,"frizz_risk":1,"updated_at":"2026-03-10T14:20:14.434596+05:30"},{"city":"Bangalore","state":"Karnataka","latitude":12.9716,"longitude":77.5946,"temp":30.5,"humidity":22,"rain":0.0,"pressure":914.4,"uv_index":9.25,"wind_gusts":32.8,"aqi":117,"pm10":23.2,"pm2_5":17.6,"mosquito_risk":0,"arthritis_risk":5,"migraine_risk":7,"frizz_risk":0,"updated_at":"2026-03-10T14:20:14.434611+05:30"},{"city":"Hyderabad","state":"Telangana","latitude":17.385,"longitude":78.4867,"temp":33.3,"humidity":36,"rain":0.0,"pressure":956.9,"uv_index":8.6,"wind_gusts":30.6,"aqi":131,"pm10":63.3,"pm2_5":48.7,"mosquito_risk":0,"arthritis_risk":5,"migraine_risk":7,"frizz_risk":1,"updated_at":"2026-03-10T14:20:14.434622+05:30"},{"city":"Chennai","state":"Tamil Nadu","latitude":13.0827,"longitude":80.2707,"temp":30.7,"humidity":55,"rain":0.0,"pressure":1011.3,"uv_index":8.95,"wind_gusts":34.2,"aqi":92,"pm10":23.7,"pm2_5":18.0,"mosquito_risk":0,"arthritis_risk":0,"migraine_risk":4,"frizz_risk":1,"updated_at":"2026-03-10T14:20:14.434631+05:30"},{"city":"Kolkata","state":"West Bengal","latitude":22.5726,"longitude":88.3639,"temp":29.0,"humidity":68,"rain":0.0,"pressure":1010.8,"uv_index":4.85,"wind_gusts":13.7,"aqi":116,"pm10":55.8,"pm2_5":43.9,"mosquito_risk":7,"arthritis_risk":0,"migraine_risk":0,"frizz_risk":1,"updated_at":"2026-03-10T14:20:14.434640+05:30"},{"city":"Pune","state":"Maharashtra","latitude":18.5204,"longitude":73.8567,"temp":37.2,"humidity":19,"rain":0.0,"pressure":951.2,"uv_index":8.1,"wind_gusts":37.4,"aqi":86,"pm10":28.5,"pm2_5":23.3,"mosquito_risk":0,"arthritis_risk":5,"migraine_risk":10,"frizz_risk":0,"updated_at":"2026-03-10T14:20:14.434652+05:30"},{"city":"Ahmedabad","state":"Gujarat","latitude":23.0225,"longitude":72.5714,"temp":39.5,"humidity":15,"rain":0.0,"pressure":1005.5,"uv_index":7.4,"wind_gusts":15.8,"aqi":56,"pm10":16.4,"pm2_5":13.1,"mosquito_risk":0,"arthritis_risk":5,"migraine_risk":7,"frizz_risk":0,"updated_at":"2026-03-10T14:20:14.434660+05:30"},{"city":"Jaipur","state":"Rajasthan","latitude":26.9124,"longitude":75.7873,"temp":37.3,"humidity":14,"rain":0.0,"pressure":965.4,"uv_index":6.85,"wind_gusts":22.0,"aqi":82,"pm10":126.2,"pm2_5":21.2,"mosquito_risk":0,"arthritis_risk":5,"migraine_risk":10,"frizz_risk":0,"updated_at":"2026-03-10T14:20:14.434668+05:30"},{"city":"Lucknow","state":"Uttar Pradesh","latitude":26.8467,"longitude":80.9462,"temp":32.4,"humidity":47,"rain":0.0,"pressure":998.8,"uv_index":6.55,"wind_gusts":20.2,"aqi":175,"pm10":134.6,"pm2_5":104.3,"mosquito_risk":0,"arthritis_risk":5,"migraine_risk":7,"frizz_risk":1,"updated_at":"2026-03-10T14:20:14.434676+05:30"},{"city":"Kanpur","state":"Uttar Pradesh","latitude":26.4499,"longitude":80.3319,"temp":32.5,"humidity":49,"rain":0.0,"pressure":997.0,"uv_index":6.6,"wind_gusts":15.5,"aqi":169,"pm10":181.1,"pm2_5":103.1,"mosquito_risk":0,"arthritis_risk":5,"migraine_risk":7,"frizz_risk":1,"updated_at":"2026-03-10T14:20:14.434683+05:30"},{"city":"Chandigarh","state":"Chandigarh","latitude":30.7333,"longitude":76.7794,"temp":30.0,"humidity":62,"rain":0.0,"pressure":975.1,"uv_index":5.95,"wind_gusts":19.1,"aqi":128,"pm10":105.0,"pm2_5":58.7,"mosquito_risk":7,"arthritis_risk":5,"migraine_risk":3,"frizz_risk":1,"updated_at":"2026-03-10T14:20:14.434690+05:30"},{"city":"Srinagar","state":"Jammu and Kashmir","latitude":34.0837,"longitude":74.7973,"temp":16.0,"humidity":68,"rain":0.0,"pressure":848.6,"uv_index":3.8,"wind_gusts":22.3,"aqi":117,"pm10":46.9,"pm2_5":31.3,"mosquito_risk":3,"arthritis_risk":5,"migraine_risk":3,"frizz_risk":0,"updated_at":"2026-03-10T14:20:14.434697+05:30"},{"city":"Jammu","state":"Jammu and Kashmir","latitude":32.7266,"longitude":74.857,"temp":24.6,"humidity":59,"rain":0.0,"pressure":979.3,"uv_index":6.05,"wind_gusts":38.2,"aqi":99,"pm10":61.0,"pm2_5":35.0,"mosquito_risk":0,"arthritis_risk":5,"migraine_risk":7,"frizz_risk":1,"updated_at":"2026-03-10T14:20:14.434703+05:30"},{"city":"Amritsar","state":"Punjab","latitude":31.634,"longitude":74.8723,"temp":29.7,"humidity":46,"rain":0.0,"pressure":987.9,"uv_index":6.0,"wind_gusts":26.6,"aqi":163,"pm10":74.0,"pm2_5":52.0,"mosquito_risk":4,"arthritis_risk":5,"migraine_risk":3,"frizz_risk":1,"updated_at":"2026-03-10T14:20:14.434710+05:30"},{"city":"Ludhiana","state":"Punjab","latitude":30.901,"longitude":75.8573,"temp":31.2,"humidity":55,"rain":0.0,"pressure":985.2,"uv_index":5.6,"wind_gusts":18.4,"aqi":169,"pm10":124.8,"pm2_5":71.7,"mosquito_risk":0,"arthritis_risk":5,"migraine_risk":3,"frizz_risk":1,"updated_at":"2026-03-10T14:20:14.434717+05:30"},{"city":"Jalandhar","state":"Punjab","latitude":31.326,"longitude":75.5762,"temp":30.6,"humidity":53,"rain":0.0,"pressure":986.6,"uv_index":6.2,"wind_gusts":25.9,"aqi":167,"pm10":102.7,"pm2_5":64.0,"mosquito_risk":0,"arthritis_risk":5,"migraine_risk":7,"frizz_risk":1,"updated_at":"2026-03-10T14:20:14.434726+05:30"},{"city":"Dehradun","state":"Uttarakhand","latitude":30.6284,"longitude":78.0322,"temp":21.6,"humidity":64,"rain":0.0,"pressure":837.3,"uv_index":6.4,"wind_gusts":28.1,"aqi":74,"pm10":48.8,"pm2_5":26.8,"mosquito_risk":3,"arthritis_risk":5,"migraine_risk":7,"frizz_risk":0,"updated_at":"2026-03-10T14:20:14.434733+05:30"},{"city":"Shimla","state":"Himachal Pradesh","latitude":31.1048,"longitude":77.1734,"temp":19.4,"humidity":63,"rain":0.0,"pressure":792.1,"uv_index":6.05,"wind_gusts":34.6,"aqi":80,"pm10":41.2,"pm2_5":20.8,"mosquito_risk":3,"arthritis_risk":5,"migraine_risk":7,"frizz_risk":0,"updated_at":"2026-03-10T14:20:14.434739+05:30"},{"city":"Manali","state":"Himachal Pradesh","latitude":32.2396,"longitude":77.1887,"temp":21.7,"humidity":30,"rain":0.0,"pressure":827.8,"uv_index":7.35,"wind_gusts":41.4,"aqi":54,"pm10":27.6,"pm2_5":10.2,"mosquito_risk":0,"arthritis_risk":5,"migraine_risk":7,"frizz_risk":0,"updated_at":"2026-03-10T14:20:14.434746+05:30"},{"city":"Gurgaon","state":"Haryana","latitude":28.4595,"longitude":77.0266,"temp":34.0,"humidity":37,"rain":0.0,"pressure":987.3,"uv_index":5.7,"wind_gusts":20.5,"aqi":623,"pm10":393.9,"pm2_5":92.0,"mosquito_risk":0,"arthritis_risk":5,"migraine_risk":3,"frizz_risk":1,"updated_at":"2026-03-10T14:20:14.434753+05:30"},{"city":"Noida","state":"Uttar Pradesh","latitude":28.5355,"longitude":77.391,"temp":34.0,"humidity":41,"rain":0.0,"pressure":990.3,"uv_index":6.05,"wind_gusts":22.7,"aqi":623,"pm10":393.9,"pm2_5":92.0,"mosquito_risk":0,"arthritis_risk":5,"migraine_risk":7,"frizz_risk":1,"updated_at":"2026-03-10T14:20:14.434759+05:30"},{"city":"Ghaziabad","state":"Uttar Pradesh","latitude":28.6692,"longitude":77.4538,"temp":32.5,"humidity":47,"rain":0.0,"pressure":988.6,"uv_index":5.95,"wind_gusts":16.9,"aqi":289,"pm10":211.9,"pm2_5":85.4,"mosquito_risk":0,"arthritis_risk":5,"migraine_risk":3,"frizz_risk":1,"updated_at":"2026-03-10T14:20:14.434766+05:30"},{"city":"Faridabad","state":"Haryana","latitude":28.4089,"longitude":77.3178,"temp":33.7,"humidity":41,"rain":0.0,"pressure":989.5,"uv_index":5.95,"wind_gusts":22.3,"aqi":623,"pm10":393.9,"pm2_5":92.0,"mosquito_risk":0,"arthritis_risk":5,"migraine_risk":3,"frizz_risk":1,"updated_at":"2026-03-10T14:20:14.434773+05:30"},{"city":"Meerut","state":"Uttar Pradesh","latitude":28.9845,"longitude":77.7064,"temp":32.4,"humidity":48,"rain":0.0,"pressure":987.5,"uv_index":5.85,"wind_gusts":16.2,"aqi":289,"pm10":211.9,"pm2_5":85.4,"mosquito_risk":0,"arthritis_risk":5,"migraine_risk":3,"frizz_risk":1,"updated_at":"2026-03-10T14:20:14.434779+05:30"},{"city":"Agra","state":"Uttar Pradesh","latitude":27.1767,"longitude":78.0081,"temp":36.5,"humidity":26,"rain":0.0,"pressure":992.9,"uv_index":6.45,"wind_gusts":22.3,"aqi":198,"pm10":410.7,"pm2_5":85.2,"mosquito_risk":0,"arthritis_risk":5,"migraine_risk":10,"frizz_risk":0,"updated_at":"2026-03-10T14:20:14.434785+05:30"},{"city":"Varanasi","state":"Uttar Pradesh","latitude":25.3176,"longitude":82.9739,"temp":32.3,"humidity":50,"rain":0.0,"pressure":1002.3,"uv_index":7.25,"wind_gusts":14.8,"aqi":183,"pm10":119.7,"pm2_5":107.6,"mosquito_risk":0,"arthritis_risk":5,"migraine_risk":4,"frizz_risk":1,"updated_at":"2026-03-10T14:20:14.434794+05:30"},{"city":"Prayagraj","state":"Uttar Pradesh","latitude":25.4358,"longitude":81.8463,"temp":32.4,"humidity":50,"rain":0.0,"pressure":1000.9,"uv_index":7.1,"wind_gusts":14.4,"aqi":180,"pm10":125.7,"pm2_5":107.8,"mosquito_risk":0,"arthritis_risk":5,"migraine_risk":4,"frizz_risk":1,"updated_at":"2026-03-10T14:20:14.434801+05:30"},{"city":"Gorakhpur","state":"Uttar Pradesh","latitude":26.7606,"longitude":83.3732,"temp":30.4,"humidity":60,"rain":0.0,"pressure":1002.6,"uv_index":6.95,"wind_gusts":20.2,"aqi":191,"pm10":100.6,"pm2_5":89.2,"mosquito_risk":0,"arthritis_risk":5,"migraine_risk":4,"frizz_risk":1,"updated_at":"2026-03-10T14:20:14.434808+05:30"},{"city":"Bareilly","state":"Uttar Pradesh","latitude":28.367,"longitude":79.4304,"temp":31.3,"humidity":53,"rain":0.0,"pressure":992.8,"uv_index":5.9,"wind_gusts":18.0,"aqi":179,"pm10":192.3,"pm2_5":133.2,"mosquito_risk":0,"arthritis_risk":5,"migraine_risk":3,"frizz_risk":1,"updated_at":"2026-03-10T14:20:14.434817+05:30"},{"city":"Aligarh","state":"Uttar Pradesh","latitude":27.8974,"longitude":78.088,"temp":34.4,"humidity":38,"rain":0.0,"pressure":991.0,"uv_index":6.15,"wind_gusts":22.0,"aqi":190,"pm10":332.5,"pm2_5":85.2,"mosquito_risk":0,"arthritis_risk":5,"migraine_risk":7,"frizz_risk":1,"updated_at":"2026-03-10T14:20:14.434824+05:30"},{"city":"Moradabad","state":"Uttar Pradesh","latitude":28.8386,"longitude":78.7733,"temp":31.4,"humidity":51,"rain":0.0,"pressure":989.8,"uv_index":5.25,"wind_gusts":23.4,"aqi":178,"pm10":164.8,"pm2_5":129.0,"mosquito_risk":0,"arthritis_risk":5,"migraine_risk":3,"frizz_risk":1,"updated_at":"2026-03-10T14:20:14.434830+05:30"},{"city":"Saharanpur","state":"Uttar Pradesh","latitude":29.9637,"longitude":77.546,"temp":30.4,"humidity":58,"rain":0.0,"pressure":982.0,"uv_index":5.65,"wind_gusts":19.4,"aqi":164,"pm10":138.8,"pm2_5":85.7,"mosquito_risk":0,"arthritis_risk":5,"migraine_risk":3,"frizz_risk":1,"updated_at":"2026-03-10T14:20:14.434835+05:30"},{"city":"Jhansi","state":"Uttar Pradesh","latitude":25.4484,"longitude":78.5685,"temp":36.7,"humidity":24,"rain":0.0,"pressure":982.7,"uv_index":7.05,"wind_gusts":25.2,"aqi":97,"pm10":129.0,"pm2_5":36.2,"mosquito_risk":0,"arthritis_risk":5,"migraine_risk":10,"frizz_risk":0,"updated_at":"2026-03-10T14:20:17.694108+05:30"},{"city":"Surat","state":"Gujarat","latitude":21.1702,"longitude":72.8311,"temp":39.6,"humidity":18,"rain":0.0,"pressure":1008.4,"uv_index":7.3,"wind_gusts":23.4,"aqi":99,"pm10":47.5,"pm2_5":46.4,"mosquito_risk":0,"arthritis_risk":0,"migraine_risk":7,"frizz_risk":0,"updated_at":"2026-03-10T14:20:17.694143+05:30"},{"city":"Vadodara","state":"Gujarat","latitude":22.3072,"longitude":73.1812,"temp":41.4,"humidity":14,"rain":0.0,"pressure":1006.8,"uv_index":7.4,"wind_gusts":15.5,"aqi":68,"pm10":15.7,"pm2_5":12.4,"mosquito_risk":0,"arthritis_risk":5,"migraine_risk":7,"frizz_risk":0,"updated_at":"2026-03-10T14:20:17.694154+05:30"},{"city":"Rajkot","state":"Gujarat","latitude":22.3039,"longitude":70.8022,"temp":37.7,"humidity":18,"rain":0.0,"pressure":998.0,"uv_index":7.25,"wind_gusts":33.1,"aqi":60,"pm10":17.2,"pm2_5":14.4,"mosquito_risk":0,"arthritis_risk":5,"migraine_risk":10,"frizz_risk":0,"updated_at":"2026-03-10T14:20:17.694163+05:30"},{"city":"Thane","state":"Maharashtra","latitude":19.2183,"longitude":72.9781,"temp":39.1,"humidity":23,"rain":0.0,"pressure":1008.7,"uv_index":7.55,"wind_gusts":32.0,"aqi":189,"pm10":96.9,"pm2_5":94.5,"mosquito_risk":0,"arthritis_risk":0,"migraine_risk":7,"frizz_risk":0,"updated_at":"2026-03-10T14:20:17.694172+05:30"},{"city":"Nagpur","state":"Maharashtra","latitude":21.1458,"longitude":79.0882,"temp":36.2,"humidity":24,"rain":0.0,"pressure":976.7,"uv_index":7.95,"wind_gusts":23.4,"aqi":76,"pm10":40.0,"pm2_5":29.2,"mosquito_risk":0,"arthritis_risk":5,"migraine_risk":10,"frizz_risk":0,"updated_at":"2026-03-10T14:20:17.694180+05:30"},{"city":"Nashik","state":"Maharashtra","latitude":19.9975,"longitude":73.7898,"temp":36.7,"humidity":17,"rain":0.0,"pressure":948.8,"uv_index":7.75,"wind_gusts":29.2,"aqi":69,"pm10":15.5,"pm2_5":12.6,"mosquito_risk":0,"arthritis_risk":5,"migraine_risk":10,"frizz_risk":0,"updated_at":"2026-03-10T14:20:17.694188+05:30"},{"city":"Aurangabad","state":"Maharashtra","latitude":19.8762,"longitude":75.3433,"temp":36.5,"humidity":18,"rain":0.0,"pressure":947.4,"uv_index":8.3,"wind_gusts":21.2,"aqi":90,"pm10":14.7,"pm2_5":11.6,"mosquito_risk":0,"arthritis_risk":5,"migraine_risk":10,"frizz_risk":0,"updated_at":"2026-03-10T14:20:17.694196+05:30"},{"city":"Solapur","state":"Maharashtra","latitude":17.6599,"longitude":75.9064,"temp":34.7,"humidity":33,"rain":0.0,"pressure":959.8,"uv_index":8.5,"wind_gusts":29.2,"aqi":93,"pm10":49.5,"pm2_5":40.6,"mosquito_risk":0,"arthritis_risk":5,"migraine_risk":7,"frizz_risk":1,"updated_at":"2026-03-10T14:20:17.694205+05:30"},{"city":"Kolhapur","state":"Maharashtra","latitude":16.705,"longitude":74.2433,"temp":34.6,"humidity":28,"rain":0.0,"pressure":950.0,"uv_index":8.6,"wind_gusts":40.7,"aqi":105,"pm10":51.0,"pm2_5":42.7,"mosquito_risk":0,"arthritis_risk":5,"migraine_risk":7,"frizz_risk":0,"updated_at":"2026-03-10T14:20:17.694214+05:30"},{"city":"Goa","state":"Goa","latitude":15.2993,"longitude":74.124,"temp":33.2,"humidity":54,"rain":0.0,"pressure":998.4,"uv_index":8.6,"wind_gusts":37.4,"aqi":151,"pm10":58.8,"pm2_5":49.0,"mosquito_risk":0,"arthritis_risk":5,"migraine_risk":7,"frizz_risk":1,"updated_at":"2026-03-10T14:20:17.694221+05:30"},{"city":"Jodhpur","state":"Rajasthan","latitude":26.2389,"longitude":73.0243,"temp":37.6,"humidity":14,"rain":0.0,"pressure":988.6,"uv_index":7.15,"wind_gusts":23.0,"aqi":78,"pm10":31.0,"pm2_5":16.0,"mosquito_risk":0,"arthritis_risk":5,"migraine_risk":10,"frizz_risk":0,"updated_at":"2026-03-10T14:20:17.694231+05:30"},{"city":"Udaipur","state":"Rajasthan","latitude":24.5854,"longitude":73.7125,"temp":35.7,"humidity":14,"rain":0.0,"pressure":952.3,"uv_index":7.75,"wind_gusts":21.6,"aqi":49,"pm10":13.0,"pm2_5":5.6,"mosquito_risk":0,"arthritis_risk":5,"migraine_risk":10,"frizz_risk":0,"updated_at":"2026-03-10T14:20:17.694238+05:30"},{"city":"Kota","state":"Rajasthan","latitude":25.2138,"longitude":75.8648,"temp":38.0,"humidity":14,"rain":0.0,"pressure":983.8,"uv_index":7.15,"wind_gusts":13.7,"aqi":69,"pm10":59.8,"pm2_5":17.9,"mosquito_risk":0,"arthritis_risk":5,"migraine_risk":10,"frizz_risk":0,"updated_at":"2026-03-10T14:20:17.694246+05:30"},{"city":"Bikaner","state":"Rajasthan","latitude":28.0229,"longitude":73.3119,"temp":35.5,"humidity":17,"rain":0.0,"pressure":987.3,"uv_index":6.85,"wind_gusts":25.6,"aqi":69,"pm10":18.0,"pm2_5":15.0,"mosquito_risk":0,"arthritis_risk":5,"migraine_risk":10,"frizz_risk":0,"updated_at":"2026-03-10T14:20:17.694254+05:30"},{"city":"Ajmer","state":"Rajasthan","latitude":26.4499,"longitude":74.6399,"temp":36.2,"humidity":14,"rain":0.0,"pressure":960.4,"uv_index":7.1,"wind_gusts":21.6,"aqi":61,"pm10":178.8,"pm2_5":27.2,"mosquito_risk":0,"arthritis_risk":5,"migraine_risk":10,"frizz_risk":0,"updated_at":"2026-03-10T14:20:17.694263+05:30"},{"city":"Gwalior","state":"Madhya Pradesh","latitude":26.2183,"longitude":78.1828,"temp":35.1,"humidity":30,"rain":0.0,"pressure":988.3,"uv_index":6.75,"wind_gusts":24.5,"aqi":127,"pm10":196.5,"pm2_5":46.3,"mosquito_risk":0,"arthritis_risk":5,"migraine_risk":10,"frizz_risk":0,"updated_at":"2026-03-10T14:20:17.694270+05:30"},{"city":"Indore","state":"Madhya Pradesh","latitude":22.7196,"longitude":75.8577,"temp":36.5,"humidity":17,"rain":0.0,"pressure":952.7,"uv_index":7.65,"wind_gusts":26.3,"aqi":69,"pm10":18.5,"pm2_5":8.5,"mosquito_risk":0,"arthritis_risk":5,"migraine_risk":10,"frizz_risk":0,"updated_at":"2026-03-10T14:20:17.694278+05:30"},{"city":"Bhopal","state":"Madhya Pradesh","latitude":23.2599,"longitude":77.4126,"temp":36.6,"humidity":19,"rain":0.0,"pressure":958.2,"uv_index":7.55,"wind_gusts":23.8,"aqi":58,"pm10":17.9,"pm2_5":7.7,"mosquito_risk":0,"arthritis_risk":5,"migraine_risk":10,"frizz_risk":0,"updated_at":"2026-03-10T14:20:17.694286+05:30"},{"city":"Jabalpur","state":"Madhya Pradesh","latitude":23.1815,"longitude":79.9864,"temp":35.4,"humidity":22,"rain":0.0,"pressure":965.8,"uv_index":7.65,"wind_gusts":25.9,"aqi":80,"pm10":40.5,"pm2_5":17.2,"mosquito_risk":0,"arthritis_risk":5,"migraine_risk":10,"frizz_risk":0,"updated_at":"2026-03-10T14:20:17.694294+05:30"},{"city":"Ujjain","state":"Madhya Pradesh","latitude":23.1765,"longitude":75.7885,"temp":35.9,"humidity":19,"rain":0.0,"pressure":958.6,"uv_index":7.55,"wind_gusts":19.1,"aqi":87,"pm10":21.1,"pm2_5":8.5,"mosquito_risk":0,"arthritis_risk":5,"migraine_risk":10,"frizz_risk":0,"updated_at":"2026-03-10T14:20:17.694303+05:30"},{"city":"Visakhapatnam","state":"Andhra Pradesh","latitude":17.6868,"longitude":83.2185,"temp":32.0,"humidity":38,"rain":0.0,"pressure":1007.7,"uv_index":8.55,"wind_gusts":34.6,"aqi":134,"pm10":53.8,"pm2_5":41.3,"mosquito_risk":0,"arthritis_risk":5,"migraine_risk":4,"frizz_risk":0,"updated_at":"2026-03-10T14:20:17.694311+05:30"},{"city":"Vijayawada","state":"Andhra Pradesh","latitude":16.5062,"longitude":80.648,"temp":33.0,"humidity":37,"rain":0.0,"pressure":1006.5,"uv_index":8.6,"wind_gusts":21.6,"aqi":133,"pm10":31.9,"pm2_5":26.5,"mosquito_risk":0,"arthritis_risk":5,"migraine_risk":4,"frizz_risk":1,"updated_at":"2026-03-10T14:20:17.694318+05:30"},{"city":"Guntur","state":"Andhra Pradesh","latitude":16.3067,"longitude":80.4365,"temp":33.1,"humidity":36,"rain":0.0,"pressure":1007.7,"uv_index":8.65,"wind_gusts":24.8,"aqi":129,"pm10":33.1,"pm2_5":26.9,"mosquito_risk":0,"arthritis_risk":5,"migraine_risk":4,"frizz_risk":0,"updated_at":"2026-03-10T14:20:17.694326+05:30"},{"city":"Nellore","state":"Andhra Pradesh","latitude":14.4426,"longitude":79.9865,"temp":32.4,"humidity":45,"rain":0.0,"pressure":1009.7,"uv_index":8.85,"wind_gusts":29.9,"aqi":102,"pm10":26.4,"pm2_5":21.0,"mosquito_risk":0,"arthritis_risk":0,"migraine_risk":4,"frizz_risk":1,"updated_at":"2026-03-10T14:20:17.694334+05:30"},{"city":"Kurnool","state":"Andhra Pradesh","latitude":15.8281,"longitude":78.0373,"temp":35.0,"humidity":28,"rain":0.0,"pressure":979.8,"uv_index":8.65,"wind_gusts":32.4,"aqi":115,"pm10":58.6,"pm2_5":43.3,"mosquito_risk":0,"arthritis_risk":5,"migraine_risk":7,"frizz_risk":0,"updated_at":"2026-03-10T14:20:17.694343+05:30"},{"city":"Kakinada","state":"Andhra Pradesh","latitude":16.9891,"longitude":82.2475,"temp":32.9,"humidity":42,"rain":0.0,"pressure":1011.4,"uv_index":8.6,"wind_gusts":27.0,"aqi":116,"pm10":43.0,"pm2_5":32.4,"mosquito_risk":0,"arthritis_risk":0,"migraine_risk":4,"frizz_risk":1,"updated_at":"2026-03-10T14:20:17.694352+05:30"},{"city":"Tirupati","state":"Andhra Pradesh","latitude":13.6288,"longitude":79.4192,"temp":32.0,"humidity":38,"rain":0.0,"pressure":994.7,"uv_index":8.95,"wind_gusts":34.6,"aqi":142,"pm10":25.0,"pm2_5":21.0,"mosquito_risk":0,"arthritis_risk":5,"migraine_risk":7,"frizz_risk":0,"updated_at":"2026-03-10T14:20:17.694359+05:30"},{"city":"Warangal","state":"Telangana","latitude":17.9689,"longitude":79.5941,"temp":33.0,"humidity":46,"rain":0.0,"pressure":982.4,"uv_index":8.4,"wind_gusts":27.0,"aqi":137,"pm10":63.8,"pm2_5":49.6,"mosquito_risk":0,"arthritis_risk":5,"migraine_risk":7,"frizz_risk":1,"updated_at":"2026-03-10T14:20:17.694367+05:30"},{"city":"Nizamabad","state":"Telangana","latitude":18.6725,"longitude":78.0941,"temp":35.3,"humidity":30,"rain":0.0,"pressure":968.1,"uv_index":8.3,"wind_gusts":29.5,"aqi":133,"pm10":55.8,"pm2_5":44.7,"mosquito_risk":0,"arthritis_risk":5,"migraine_risk":10,"frizz_risk":0,"updated_at":"2026-03-10T14:20:17.694374+05:30"},{"city":"Mysore","state":"Karnataka","latitude":12.2958,"longitude":76.6396,"temp":31.7,"humidity":18,"rain":0.0,"pressure":930.5,"uv_index":9.25,"wind_gusts":36.7,"aqi":119,"pm10":33.2,"pm2_5":24.6,"mosquito_risk":0,"arthritis_risk":5,"migraine_risk":7,"frizz_risk":0,"updated_at":"2026-03-10T14:20:17.694383+05:30"},{"city":"Mangalore","state":"Karnataka","latitude":12.9141,"longitude":74.856,"temp":28.5,"humidity":82,"rain":0.0,"pressure":1007.2,"uv_index":8.9,"wind_gusts":33.5,"aqi":106,"pm10":48.4,"pm2_5":38.3,"mosquito_risk":7,"arthritis_risk":5,"migraine_risk":4,"frizz_risk":1,"updated_at":"2026-03-10T14:20:17.694391+05:30"},{"city":"Hubli-Dharwad","state":"Karnataka","latitude":15.3647,"longitude":75.124,"temp":34.8,"humidity":24,"rain":0.0,"pressure":942.8,"uv_index":8.8,"wind_gusts":43.9,"aqi":100,"pm10":63.1,"pm2_5":50.1,"mosquito_risk":0,"arthritis_risk":5,"migraine_risk":7,"frizz_risk":0,"updated_at":"2026-03-10T14:20:17.694400+05:30"},{"city":"Belgaum","state":"Karnataka","latitude":15.8497,"longitude":74.4977,"temp":34.2,"humidity":26,"rain":0.0,"pressure":927.9,"uv_index":8.85,"wind_gusts":45.4,"aqi":89,"pm10":53.7,"pm2_5":43.8,"mosquito_risk":0,"arthritis_risk":5,"migraine_risk":7,"frizz_risk":0,"updated_at":"2026-03-10T14:20:20.949315+05:30"},{"city":"Coimbatore","state":"Tamil Nadu","latitude":11.0168,"longitude":76.9558,"temp":32.8,"humidity":27,"rain":0.0,"pressure":963.4,"uv_index":9.25,"wind_gusts":43.2,"aqi":122,"pm10":31.1,"pm2_5":24.2,"mosquito_risk":0,"arthritis_risk":5,"migraine_risk":7,"frizz_risk":0,"updated_at":"2026-03-10T14:20:20.949346+05:30"},{"city":"Madurai","state":"Tamil Nadu","latitude":9.9252,"longitude":78.1198,"temp":33.9,"humidity":37,"rain":0.0,"pressure":994.2,"uv_index":9.2,"wind_gusts":43.6,"aqi":117,"pm10":25.3,"pm2_5":22.5,"mosquito_risk":0,"arthritis_risk":5,"migraine_risk":7,"frizz_risk":1,"updated_at":"2026-03-10T14:20:20.949356+05:30"},{"city":"Trichy","state":"Tamil Nadu","latitude":10.7905,"longitude":78.7047,"temp":31.3,"humidity":50,"rain":0.0,"pressure":1002.0,"uv_index":8.7,"wind_gusts":37.4,"aqi":115,"pm10":27.0,"pm2_5":24.7,"mosquito_risk":0,"arthritis_risk":5,"migraine_risk":4,"frizz_risk":1,"updated_at":"2026-03-10T14:20:20.949364+05:30"},{"city":"Salem","state":"Tamil Nadu","latitude":11.6643,"longitude":78.146,"temp":33.4,"humidity":36,"rain":0.0,"pressure":979.2,"uv_index":9.15,"wind_gusts":37.4,"aqi":136,"pm10":28.1,"pm2_5":23.1,"mosquito_risk":0,"arthritis_risk":5,"migraine_risk":7,"frizz_risk":1,"updated_at":"2026-03-10T14:20:20.949371+05:30"},{"city":"Tirunelveli","state":"Tamil Nadu","latitude":8.7139,"longitude":77.7567,"temp":35.2,"humidity":34,"rain":0.0,"pressure":1003.9,"uv_index":9.2,"wind_gusts":43.6,"aqi":96,"pm10":21.4,"pm2_5":17.6,"mosquito_risk":0,"arthritis_risk":5,"migraine_risk":7,"frizz_risk":1,"updated_at":"2026-03-10T14:20:20.949378+05:30"},{"city":"Vellore","state":"Tamil Nadu","latitude":12.9165,"longitude":79.1325,"temp":31.5,"humidity":38,"rain":0.0,"pressure":987.4,"uv_index":9.05,"wind_gusts":36.4,"aqi":147,"pm10":30.4,"pm2_5":26.5,"mosquito_risk":0,"arthritis_risk":5,"migraine_risk":7,"frizz_risk":0,"updated_at":"2026-03-10T14:20:20.949386+05:30"},{"city":"Erode","state":"Tamil Nadu","latitude":11.341,"longitude":77.7172,"temp":34.2,"humidity":34,"rain":0.0,"pressure":990.8,"uv_index":9.1,"wind_gusts":36.7,"aqi":125,"pm10":36.1,"pm2_5":29.5,"mosquito_risk":0,"arthritis_risk":5,"migraine_risk":7,"frizz_risk":1,"updated_at":"2026-03-10T14:20:20.949393+05:30"},{"city":"Kochi","state":"Kerala","latitude":9.9312,"longitude":76.2673,"temp":28.2,"humidity":76,"rain":0.0,"pressure":1009.3,"uv_index":9.05,"wind_gusts":40.3,"aqi":152,"pm10":54.6,"pm2_5":44.6,"mosquito_risk":7,"arthritis_risk":0,"migraine_risk":4,"frizz_risk":1,"updated_at":"2026-03-10T14:20:20.949400+05:30"},{"city":"Thiruvananthapuram","state":"Kerala","latitude":8.5241,"longitude":76.9366,"temp":28.8,"humidity":63,"rain":0.0,"pressure":1008.2,"uv_index":9.1,"wind_gusts":27.0,"aqi":121,"pm10":37.3,"pm2_5":30.5,"mosquito_risk":7,"arthritis_risk":0,"migraine_risk":4,"frizz_risk":1,"updated_at":"2026-03-10T14:20:20.949408+05:30"},{"city":"Kozhikode","state":"Kerala","latitude":11.2588,"longitude":75.7804,"temp":29.8,"humidity":66,"rain":0.0,"pressure":1008.4,"uv_index":8.95,"wind_gusts":24.1,"aqi":102,"pm10":59.8,"pm2_5":49.8,"mosquito_risk":7,"arthritis_risk":0,"migraine_risk":4,"frizz_risk":1,"updated_at":"2026-03-10T14:20:20.949415+05:30"},{"city":"Thrissur","state":"Kerala","latitude":10.5276,"longitude":76.2144,"temp":33.9,"humidity":49,"rain":0.0,"pressure":1007.3,"uv_index":9.0,"wind_gusts":36.7,"aqi":151,"pm10":31.4,"pm2_5":23.3,"mosquito_risk":0,"arthritis_risk":5,"migraine_risk":4,"frizz_risk":1,"updated_at":"2026-03-10T14:20:20.949422+05:30"},{"city":"Kannur","state":"Kerala","latitude":11.8745,"longitude":75.3704,"temp":30.2,"humidity":69,"rain":0.0,"pressure":1008.0,"uv_index":8.95,"wind_gusts":39.2,"aqi":94,"pm10":46.1,"pm2_5":37.6,"mosquito_risk":3,"arthritis_risk":0,"migraine_risk":4,"frizz_risk":1,"updated_at":"2026-03-10T14:20:20.949428+05:30"},{"city":"Patna","state":"Bihar","latitude":25.5941,"longitude":85.1376,"temp":31.8,"humidity":51,"rain":0.0,"pressure":1005.0,"uv_index":7.4,"wind_gusts":24.8,"aqi":174,"pm10":91.3,"pm2_5":80.6,"mosquito_risk":0,"arthritis_risk":5,"migraine_risk":4,"frizz_risk":1,"updated_at":"2026-03-10T14:20:20.949434+05:30"},{"city":"Gaya","state":"Bihar","latitude":24.7914,"longitude":85.0002,"temp":30.8,"humidity":59,"rain":0.0,"pressure":998.2,"uv_index":7.5,"wind_gusts":15.8,"aqi":174,"pm10":76.6,"pm2_5":66.4,"mosquito_risk":0,"arthritis_risk":5,"migraine_risk":7,"frizz_risk":1,"updated_at":"2026-03-10T14:20:20.949441+05:30"},{"city":"Muzaffarpur","state":"Bihar","latitude":26.1209,"longitude":85.3647,"temp":32.0,"humidity":49,"rain":0.0,"pressure":1005.1,"uv_index":7.35,"wind_gusts":22.0,"aqi":175,"pm10":95.2,"pm2_5":83.6,"mosquito_risk":0,"arthritis_risk":5,"migraine_risk":4,"frizz_risk":1,"updated_at":"2026-03-10T14:20:20.949447+05:30"},{"city":"Bhagalpur","state":"Bihar","latitude":25.2425,"longitude":87.0117,"temp":31.6,"humidity":49,"rain":0.0,"pressure":1005.7,"uv_index":7.4,"wind_gusts":17.6,"aqi":166,"pm10":91.0,"pm2_5":77.3,"mosquito_risk":0,"arthritis_risk":5,"migraine_risk":4,"frizz_risk":1,"updated_at":"2026-03-10T14:20:20.949453+05:30"},{"city":"Ranchi","state":"Jharkhand","latitude":23.3441,"longitude":85.3096,"temp":30.4,"humidity":38,"rain":0.0,"pressure":941.4,"uv_index":8.15,"wind_gusts":24.1,"aqi":158,"pm10":92.9,"pm2_5":70.1,"mosquito_risk":0,"arthritis_risk":5,"migraine_risk":7,"frizz_risk":0,"updated_at":"2026-03-10T14:20:20.949459+05:30"},{"city":"Jamshedpur","state":"Jharkhand","latitude":22.8046,"longitude":86.2029,"temp":32.1,"humidity":53,"rain":0.0,"pressure":994.1,"uv_index":8.05,"wind_gusts":32.4,"aqi":138,"pm10":84.1,"pm2_5":68.7,"mosquito_risk":0,"arthritis_risk":5,"migraine_risk":7,"frizz_risk":1,"updated_at":"2026-03-10T14:20:20.949466+05:30"},{"city":"Dhanbad","state":"Jharkhand","latitude":23.7957,"longitude":86.4304,"temp":30.3,"humidity":51,"rain":0.0,"pressure":984.0,"uv_index":7.55,"wind_gusts":23.4,"aqi":169,"pm10":98.3,"pm2_5":84.5,"mosquito_risk":0,"arthritis_risk":5,"migraine_risk":7,"frizz_risk":1,"updated_at":"2026-03-10T14:20:20.949472+05:30"},{"city":"Bokaro","state":"Jharkhand","latitude":23.6693,"longitude":86.1511,"temp":31.0,"humidity":50,"rain":0.0,"pressure":987.9,"uv_index":7.95,"wind_gusts":19.4,"aqi":175,"pm10":98.0,"pm2_5":86.4,"mosquito_risk":0,"arthritis_risk":5,"migraine_risk":7,"frizz_risk":1,"updated_at":"2026-03-10T14:20:20.949478+05:30"},{"city":"Bhubaneswar","state":"Odisha","latitude":20.2961,"longitude":85.8245,"temp":32.3,"humidity":50,"rain":0.0,"pressure":1006.2,"uv_index":8.35,"wind_gusts":32.8,"aqi":105,"pm10":58.1,"pm2_5":45.4,"mosquito_risk":0,"arthritis_risk":5,"migraine_risk":4,"frizz_risk":1,"updated_at":"2026-03-10T14:20:20.949504+05:30"},{"city":"Cuttack","state":"Odisha","latitude":20.4625,"longitude":85.8828,"temp":34.3,"humidity":44,"rain":0.0,"pressure":1007.6,"uv_index":8.35,"wind_gusts":29.2,"aqi":105,"pm10":58.1,"pm2_5":45.4,"mosquito_risk":0,"arthritis_risk":5,"migraine_risk":4,"frizz_risk":1,"updated_at":"2026-03-10T14:20:20.949510+05:30"},{"city":"Rourkela","state":"Odisha","latitude":22.2604,"longitude":84.8536,"temp":34.8,"humidity":28,"rain":0.0,"pressure":987.9,"uv_index":7.95,"wind_gusts":22.3,"aqi":159,"pm10":84.5,"pm2_5":67.5,"mosquito_risk":0,"arthritis_risk":5,"migraine_risk":7,"frizz_risk":0,"updated_at":"2026-03-10T14:20:20.949517+05:30"},{"city":"Raipur","state":"Chhattisgarh","latitude":21.2514,"longitude":81.6296,"temp":36.4,"humidity":25,"rain":0.0,"pressure":977.7,"uv_index":8.05,"wind_gusts":14.8,"aqi":155,"pm10":84.1,"pm2_5":54.5,"mosquito_risk":0,"arthritis_risk":5,"migraine_risk":10,"frizz_risk":0,"updated_at":"2026-03-10T14:20:20.949524+05:30"},{"city":"Bhilai","state":"Chhattisgarh","latitude":21.1938,"longitude":81.3509,"temp":37.0,"humidity":24,"rain":0.0,"pressure":978.1,"uv_index":8.05,"wind_gusts":11.9,"aqi":152,"pm10":77.1,"pm2_5":48.8,"mosquito_risk":0,"arthritis_risk":5,"migraine_risk":10,"frizz_risk":0,"updated_at":"2026-03-10T14:20:20.949531+05:30"},{"city":"Guwahati","state":"Assam","latitude":26.1158,"longitude":91.7086,"temp":31.1,"humidity":53,"rain":0.0,"pressure":1004.9,"uv_index":7.3,"wind_gusts":11.2,"aqi":156,"pm10":82.4,"pm2_5":72.2,"mosquito_risk":0,"arthritis_risk":5,"migraine_risk":4,"frizz_risk":1,"updated_at":"2026-03-10T14:20:20.949538+05:30"},{"city":"Agartala","state":"Tripura","latitude":23.8315,"longitude":91.2868,"temp":30.8,"humidity":51,"rain":0.0,"pressure":1009.8,"uv_index":7.7,"wind_gusts":12.6,"aqi":168,"pm10":82.7,"pm2_5":68.7,"mosquito_risk":0,"arthritis_risk":0,"migraine_risk":4,"frizz_risk":1,"updated_at":"2026-03-10T14:20:20.949544+05:30"},{"city":"Shillong","state":"Meghalaya","latitude":25.5788,"longitude":91.8933,"temp":18.8,"humidity":59,"rain":0.0,"pressure":860.4,"uv_index":6.75,"wind_gusts":18.4,"aqi":154,"pm10":66.6,"pm2_5":58.9,"mosquito_risk":0,"arthritis_risk":5,"migraine_risk":7,"frizz_risk":0,"updated_at":"2026-03-10T14:20:20.949550+05:30"},{"city":"Imphal","state":"Manipur","latitude":24.817,"longitude":93.9368,"temp":24.9,"humidity":49,"rain":0.0,"pressure":926.7,"uv_index":6.35,"wind_gusts":28.8,"aqi":153,"pm10":46.0,"pm2_5":39.2,"mosquito_risk":0,"arthritis_risk":5,"migraine_risk":7,"frizz_risk":0,"updated_at":"2026-03-10T14:20:20.949556+05:30"},{"city":"Aizawl","state":"Mizoram","latitude":23.7271,"longitude":92.7176,"temp":26.0,"humidity":43,"rain":0.0,"pressure":896.7,"uv_index":7.85,"wind_gusts":28.4,"aqi":152,"pm10":53.3,"pm2_5":42.1,"mosquito_risk":4,"arthritis_risk":5,"migraine_risk":7,"frizz_risk":0,"updated_at":"2026-03-10T14:20:20.949563+05:30"},{"city":"Kohima","state":"Nagaland","latitude":25.6701,"longitude":94.1077,"temp":18.2,"humidity":83,"rain":0.0,"pressure":858.8,"uv_index":6.8,"wind_gusts":50.0,"aqi":137,"pm10":54.5,"pm2_5":48.3,"mosquito_risk":3,"arthritis_risk":10,"migraine_risk":7,"frizz_risk":0,"updated_at":"2026-03-10T14:20:20.949569+05:30"},{"city":"Gangtok","state":"Sikkim","latitude":27.3314,"longitude":88.6138,"temp":22.1,"humidity":47,"rain":0.0,"pressure":843.4,"uv_index":6.25,"wind_gusts":19.8,"aqi":152,"pm10":53.2,"pm2_5":43.8,"mosquito_risk":0,"arthritis_risk":5,"migraine_risk":7,"frizz_risk":0,"updated_at":"2026-03-10T14:20:20.949575+05:30"},{"city":"Siliguri","state":"West Bengal","latitude":26.7271,"longitude":88.3953,"temp":28.2,"humidity":49,"rain":0.0,"pressure":998.3,"uv_index":7.35,"wind_gusts":23.4,"aqi":164,"pm10":65.0,"pm2_5":52.4,"mosquito_risk":4,"arthritis_risk":5,"migraine_risk":7,"frizz_risk":1,"updated_at":"2026-03-10T14:20:24.206125+05:30"},{"city":"Durgapur","state":"West Bengal","latitude":23.5204,"longitude":87.3119,"temp":28.9,"humidity":64,"rain":0.0,"pressure":999.7,"uv_index":7.8,"wind_gusts":24.5,"aqi":157,"pm10":71.9,"pm2_5":60.5,"mosquito_risk":7,"arthritis_risk":5,"migraine_risk":7,"frizz_risk":1,"updated_at":"2026-03-10T14:20:24.206156+05:30"},{"city":"Asansol","state":"West Bengal","latitude":23.6739,"longitude":86.9524,"temp":29.9,"humidity":61,"rain":0.0,"pressure":998.0,"uv_index":7.9,"wind_gusts":22.0,"aqi":161,"pm10":87.1,"pm2_5":73.1,"mosquito_risk":7,"arthritis_risk":5,"migraine_risk":7,"frizz_risk":1,"updated_at":"2026-03-10T14:20:24.206168+05:30"},{"city":"Pondicherry","state":"Puducherry","latitude":11.9139,"longitude":79.8145,"temp":30.9,"humidity":59,"rain":0.0,"pressure":1011.7,"uv_index":8.95,"wind_gusts":36.0,"aqi":87,"pm10":23.2,"pm2_5":17.1,"mosquito_risk":0,"arthritis_risk":0,"migraine_risk":4,"frizz_risk":1,"updated_at":"2026-03-10T14:20:24.206177+05:30"},{"city":"Port Blair","state":"Andaman and Nicobar Islands","latitude":11.6234,"longitude":92.7265,"temp":29.5,"humidity":67,"rain":0.0,"pressure":1008.3,"uv_index":8.95,"wind_gusts":29.5,"aqi":77,"pm10":25.3,"pm2_5":22.3,"mosquito_risk":7,"arthritis_risk":0,"migraine_risk":4,"frizz_risk":1,"updated_at":"2026-03-10T14:20:24.206187+05:30"},{"city":"Haridwar","state":"Uttarakhand","latitude":29.9457,"longitude":78.1642,"temp":30.3,"humidity":57,"rain":0.0,"pressure":980.6,"uv_index":5.85,"wind_gusts":21.2,"aqi":154,"pm10":135.5,"pm2_5":88.0,"mosquito_risk":0,"arthritis_risk":5,"migraine_risk":3,"frizz_risk":1,"updated_at":"2026-03-10T14:20:24.206195+05:30"},{"city":"Rishikesh","state":"Uttarakhand","latitude":30.0869,"longitude":78.2676,"temp":29.7,"humidity":57,"rain":0.0,"pressure":973.4,"uv_index":5.9,"wind_gusts":23.0,"aqi":152,"pm10":124.3,"pm2_5":80.1,"mosquito_risk":4,"arthritis_risk":5,"migraine_risk":3,"frizz_risk":1,"updated_at":"2026-03-10T14:20:24.206202+05:30"},{"city":"Nainital","state":"Uttarakhand","latitude":29.3919,"longitude":79.4542,"temp":22.0,"humidity":66,"rain":0.0,"pressure":812.8,"uv_index":6.75,"wind_gusts":51.5,"aqi":172,"pm10":147.1,"pm2_5":109.0,"mosquito_risk":3,"arthritis_risk":5,"migraine_risk":7,"frizz_risk":0,"updated_at":"2026-03-10T14:20:24.206208+05:30"},{"city":"Mussoorie","state":"Uttarakhand","latitude":30.4599,"longitude":78.0664,"temp":21.7,"humidity":63,"rain":0.0,"pressure":810.1,"uv_index":6.25,"wind_gusts":37.1,"aqi":144,"pm10":114.3,"pm2_5":70.1,"mosquito_risk":3,"arthritis_risk":5,"migraine_risk":7,"frizz_risk":0,"updated_at":"2026-03-10T14:20:24.206216+05:30"},{"city":"Dharamshala","state":"Himachal Pradesh","latitude":32.219,"longitude":76.3234,"temp":25.1,"humidity":47,"rain":0.0,"pressure":876.5,"uv_index":6.45,"wind_gusts":20.5,"aqi":58,"pm10":26.4,"pm2_5":9.4,"mosquito_risk":4,"arthritis_risk":5,"migraine_risk":7,"frizz_risk":0,"updated_at":"2026-03-10T14:20:24.206223+05:30"},{"city":"Dalhousie","state":"Himachal Pradesh","latitude":32.5387,"longitude":75.971,"temp":23.1,"humidity":42,"rain":0.0,"pressure":811.5,"uv_index":6.1,"wind_gusts":19.4,"aqi":90,"pm10":42.4,"pm2_5":18.0,"mosquito_risk":0,"arthritis_risk":5,"migraine_risk":7,"frizz_risk":0,"updated_at":"2026-03-10T14:20:24.206230+05:30"},{"city":"Patiala","state":"Punjab","latitude":30.3398,"longitude":76.3869,"temp":32.0,"humidity":51,"rain":0.0,"pressure":984.2,"uv_index":5.9,"wind_gusts":18.4,"aqi":169,"pm10":206.8,"pm2_5":80.8,"mosquito_risk":0,"arthritis_risk":5,"migraine_risk":3,"frizz_risk":1,"updated_at":"2026-03-10T14:20:24.206237+05:30"},{"city":"Bhatinda","state":"Punjab","latitude":30.211,"longitude":74.9455,"temp":33.3,"humidity":40,"rain":0.0,"pressure":989.5,"uv_index":6.45,"wind_gusts":15.5,"aqi":155,"pm10":123.9,"pm2_5":40.4,"mosquito_risk":0,"arthritis_risk":5,"migraine_risk":7,"frizz_risk":1,"updated_at":"2026-03-10T14:20:24.206244+05:30"},{"city":"Rohtak","state":"Haryana","latitude":28.8955,"longitude":76.6066,"temp":33.8,"humidity":39,"rain":0.0,"pressure":987.6,"uv_index":5.35,"wind_gusts":19.8,"aqi":507,"pm10":242.1,"pm2_5":71.2,"mosquito_risk":0,"arthritis_risk":5,"migraine_risk":3,"frizz_risk":1,"updated_at":"2026-03-10T14:20:24.206250+05:30"},{"city":"Panipat","state":"Haryana","latitude":29.3909,"longitude":76.9635,"temp":32.8,"humidity":45,"rain":0.0,"pressure":986.5,"uv_index":5.9,"wind_gusts":16.6,"aqi":549,"pm10":266.4,"pm2_5":84.3,"mosquito_risk":0,"arthritis_risk":5,"migraine_risk":3,"frizz_risk":1,"updated_at":"2026-03-10T14:20:24.206256+05:30"},{"city":"Mathura","state":"Uttar Pradesh","latitude":27.4924,"longitude":77.6737,"temp":36.2,"humidity":25,"rain":0.0,"pressure":992.1,"uv_index":6.35,"wind_gusts":23.8,"aqi":391,"pm10":478.7,"pm2_5":99.0,"mosquito_risk":0,"arthritis_risk":5,"migraine_risk":10,"frizz_risk":0,"updated_at":"2026-03-10T14:20:24.206263+05:30"},{"city":"Vrindavan","state":"Uttar Pradesh","latitude":27.5823,"longitude":77.7027,"temp":35.6,"humidity":30,"rain":0.0,"pressure":992.6,"uv_index":6.3,"wind_gusts":24.8,"aqi":391,"pm10":478.7,"pm2_5":99.0,"mosquito_risk":0,"arthritis_risk":5,"migraine_risk":10,"frizz_risk":0,"updated_at":"2026-03-10T14:20:24.206269+05:30"},{"city":"Ayodhya","state":"Uttar Pradesh","latitude":26.7922,"longitude":82.1998,"temp":31.7,"humidity":51,"rain":0.0,"pressure":1000.6,"uv_index":6.75,"wind_gusts":19.4,"aqi":189,"pm10":105.0,"pm2_5":94.1,"mosquito_risk":0,"arthritis_risk":5,"migraine_risk":4,"frizz_risk":1,"updated_at":"2026-03-10T14:20:24.206276+05:30"},{"city":"Ratlam","state":"Madhya Pradesh","latitude":23.3315,"longitude":75.0367,"temp":36.4,"humidity":17,"rain":0.0,"pressure":959.3,"uv_index":7.55,"wind_gusts":18.4,"aqi":71,"pm10":17.2,"pm2_5":8.0,"mosquito_risk":0,"arthritis_risk":5,"migraine_risk":10,"frizz_risk":0,"updated_at":"2026-03-10T14:20:24.206282+05:30"},{"city":"Sagar","state":"Madhya Pradesh","latitude":23.8388,"longitude":78.7378,"temp":36.0,"humidity":20,"rain":0.0,"pressure":954.9,"uv_index":7.5,"wind_gusts":19.8,"aqi":54,"pm10":41.1,"pm2_5":13.0,"mosquito_risk":0,"arthritis_risk":5,"migraine_risk":10,"frizz_risk":0,"updated_at":"2026-03-10T14:20:24.206288+05:30"},{"city":"Satna","state":"Madhya Pradesh","latitude":24.6005,"longitude":80.8322,"temp":35.3,"humidity":29,"rain":0.0,"pressure":975.8,"uv_index":7.5,"wind_gusts":20.2,"aqi":129,"pm10":102.9,"pm2_5":50.1,"mosquito_risk":0,"arthritis_risk":5,"migraine_risk":10,"frizz_risk":0,"updated_at":"2026-03-10T14:20:24.206294+05:30"},{"city":"Akola","state":"Maharashtra","latitude":20.7002,"longitude":77.0082,"temp":38.7,"humidity":17,"rain":0.0,"pressure":978.2,"uv_index":8.0,"wind_gusts":18.4,"aqi":68,"pm10":16.0,"pm2_5":9.5,"mosquito_risk":0,"arthritis_risk":5,"migraine_risk":10,"frizz_risk":0,"updated_at":"2026-03-10T14:20:24.206301+05:30"},{"city":"Amravati","state":"Maharashtra","latitude":20.9374,"longitude":77.7796,"temp":38.2,"humidity":17,"rain":0.0,"pressure":970.7,"uv_index":7.95,"wind_gusts":19.4,"aqi":71,"pm10":17.0,"pm2_5":9.7,"mosquito_risk":0,"arthritis_risk":5,"migraine_risk":10,"frizz_risk":0,"updated_at":"2026-03-10T14:20:24.206308+05:30"},{"city":"Latur","state":"Maharashtra","latitude":18.4088,"longitude":76.5604,"temp":34.7,"humidity":25,"rain":0.0,"pressure":943.1,"uv_index":8.4,"wind_gusts":26.6,"aqi":98,"pm10":39.8,"pm2_5":31.3,"mosquito_risk":0,"arthritis_risk":5,"migraine_risk":7,"frizz_risk":0,"updated_at":"2026-03-10T14:20:24.206315+05:30"},{"city":"Nanded","state":"Maharashtra","latitude":19.1383,"longitude":77.3091,"temp":37.3,"humidity":23,"rain":0.0,"pressure":971.6,"uv_index":8.2,"wind_gusts":19.8,"aqi":119,"pm10":30.3,"pm2_5":22.8,"mosquito_risk":0,"arthritis_risk":5,"migraine_risk":10,"frizz_risk":0,"updated_at":"2026-03-10T14:20:24.206321+05:30"},{"city":"Gulbarga","state":"Karnataka","latitude":17.3297,"longitude":76.8343,"temp":35.3,"humidity":30,"rain":0.0,"pressure":961.4,"uv_index":8.5,"wind_gusts":30.6,"aqi":110,"pm10":57.2,"pm2_5":46.4,"mosquito_risk":0,"arthritis_risk":5,"migraine_risk":10,"frizz_risk":0,"updated_at":"2026-03-10T14:20:24.206327+05:30"},{"city":"Bidar","state":"Karnataka","latitude":17.9104,"longitude":77.5199,"temp":34.8,"humidity":26,"rain":0.0,"pressure":938.8,"uv_index":8.45,"wind_gusts":31.0,"aqi":123,"pm10":52.7,"pm2_5":42.3,"mosquito_risk":0,"arthritis_risk":5,"migraine_risk":7,"frizz_risk":0,"updated_at":"2026-03-10T14:20:24.206333+05:30"},{"city":"Hospet","state":"Karnataka","latitude":15.2689,"longitude":76.3909,"temp":34.1,"humidity":28,"rain":0.0,"pressure":958.1,"uv_index":8.8,"wind_gusts":36.4,"aqi":116,"pm10":63.1,"pm2_5":49.9,"mosquito_risk":0,"arthritis_risk":5,"migraine_risk":7,"frizz_risk":0,"updated_at":"2026-03-10T14:20:24.206339+05:30"},{"city":"Tirupur","state":"Tamil Nadu","latitude":11.1085,"longitude":77.3411,"temp":34.0,"humidity":29,"rain":0.0,"pressure":977.1,"uv_index":9.25,"wind_gusts":43.9,"aqi":129,"pm10":41.3,"pm2_5":32.9,"mosquito_risk":0,"arthritis_risk":5,"migraine_risk":7,"frizz_risk":0,"updated_at":"2026-03-10T14:20:24.206346+05:30"},{"city":"Alappuzha","state":"Kerala","latitude":9.4981,"longitude":76.3388,"temp":28.5,"humidity":73,"rain":0.0,"pressure":1009.4,"uv_index":9.05,"wind_gusts":33.5,"aqi":151,"pm10":61.5,"pm2_5":51.8,"mosquito_risk":7,"arthritis_risk":0,"migraine_risk":4,"frizz_risk":1,"updated_at":"2026-03-10T14:20:24.206352+05:30"},{"city":"Munnar","state":"Kerala","latitude":10.0889,"longitude":77.0595,"temp":30.6,"humidity":26,"rain":0.0,"pressure":860.3,"uv_index":9.55,"wind_gusts":27.4,"aqi":114,"pm10":20.1,"pm2_5":16.1,"mosquito_risk":0,"arthritis_risk":5,"migraine_risk":7,"frizz_risk":0,"updated_at":"2026-03-10T14:20:24.206359+05:30"},{"city":"Silchar","state":"Assam","latitude":24.8333,"longitude":92.7789,"temp":31.5,"humidity":50,"rain":0.0,"pressure":1007.9,"uv_index":7.65,"wind_gusts":13.3,"aqi":170,"pm10":77.1,"pm2_5":66.4,"mosquito_risk":0,"arthritis_risk":5,"migraine_risk":4,"frizz_risk":1,"updated_at":"2026-03-10T14:20:24.206365+05:30"},{"city":"Dibrugarh","state":"Assam","latitude":27.4728,"longitude":94.912,"temp":30.4,"humidity":54,"rain":0.0,"pressure":998.1,"uv_index":7.4,"wind_gusts":15.5,"aqi":166,"pm10":84.5,"pm2_5":72.4,"mosquito_risk":0,"arthritis_risk":5,"migraine_risk":7,"frizz_risk":1,"updated_at":"2026-03-10T14:20:24.206371+05:30"}]