[{"city":"Delhi","state":"Delhi","latitude":28.6139,"longitude":77.209,"temp":26.9,"humidity":60,"rain":0.0,"pressure":979.6,"uv_index":7.45,"wind_gusts":58.7,"aqi":421,"pm10":434.0,"pm2_5":73.3,"no2":9.5,"co":425.0,"o3":140.0,"so2":19.1,"mosquito_risk":4,"arthritis_risk":5,"migraine_risk":7,"frizz_risk":1,"updated_at":"2026-05-04T02:19:25.949204+05:30"},{"city":"Mumbai","state":"Maharashtra","latitude":19.076,"longitude":72.8777,"temp":28.5,"humidity":78,"rain":0.0,"pressure":1006.3,"uv_index":7.85,"wind_gusts":43.2,"aqi":67,"pm10":35.9,"pm2_5":16.0,"no2":9.3,"co":210.0,"o3":64.0,"so2":16.1,"mosquito_risk":7,"arthritis_risk":5,"migraine_risk":4,"frizz_risk":1,"updated_at":"2026-05-04T02:19:25.949252+05:30"},{"city":"Bangalore","state":"Karnataka","latitude":12.9716,"longitude":77.5946,"temp":22.4,"humidity":82,"rain":0.0,"pressure":909.6,"uv_index":9.5,"wind_gusts":29.9,"aqi":81,"pm10":34.1,"pm2_5":21.2,"no2":20.3,"co":552.0,"o3":56.0,"so2":8.0,"mosquito_risk":3,"arthritis_risk":5,"migraine_risk":7,"frizz_risk":1,"updated_at":"2026-05-04T02:19:25.949270+05:30"},{"city":"Hyderabad","state":"Telangana","latitude":17.385,"longitude":78.4867,"temp":28.1,"humidity":54,"rain":0.0,"pressure":950.4,"uv_index":9.25,"wind_gusts":36.0,"aqi":77,"pm10":60.8,"pm2_5":36.2,"no2":37.2,"co":380.0,"o3":49.0,"so2":12.6,"mosquito_risk":4,"arthritis_risk":5,"migraine_risk":7,"frizz_risk":1,"updated_at":"2026-05-04T02:19:25.949284+05:30"},{"city":"Chennai","state":"Tamil Nadu","latitude":13.0827,"longitude":80.2707,"temp":29.9,"humidity":84,"rain":0.0,"pressure":1003.7,"uv_index":9.2,"wind_gusts":53.3,"aqi":109,"pm10":23.6,"pm2_5":17.8,"no2":6.9,"co":210.0,"o3":91.0,"so2":5.1,"mosquito_risk":7,"arthritis_risk":5,"migraine_risk":4,"frizz_risk":1,"updated_at":"2026-05-04T02:19:25.949294+05:30"},{"city":"Kolkata","state":"West Bengal","latitude":22.5726,"longitude":88.3639,"temp":26.3,"humidity":95,"rain":0.0,"pressure":1005.2,"uv_index":6.75,"wind_gusts":34.6,"aqi":118,"pm10":40.6,"pm2_5":34.2,"no2":12.2,"co":353.0,"o3":67.0,"so2":7.8,"mosquito_risk":7,"arthritis_risk":5,"migraine_risk":4,"frizz_risk":1,"updated_at":"2026-05-04T02:19:25.949303+05:30"},{"city":"Pune","state":"Maharashtra","latitude":18.5204,"longitude":73.8567,"temp":22.2,"humidity":84,"rain":0.0,"pressure":945.9,"uv_index":8.45,"wind_gusts":47.5,"aqi":60,"pm10":26.1,"pm2_5":13.4,"no2":13.1,"co":225.0,"o3":46.0,"so2":11.0,"mosquito_risk":3,"arthritis_risk":5,"migraine_risk":7,"frizz_risk":1,"updated_at":"2026-05-04T02:19:25.949311+05:30"},{"city":"Ahmedabad","state":"Gujarat","latitude":23.0225,"longitude":72.5714,"temp":29.5,"humidity":70,"rain":0.0,"pressure":997.2,"uv_index":8.1,"wind_gusts":48.2,"aqi":54,"pm10":33.1,"pm2_5":14.6,"no2":5.1,"co":291.0,"o3":73.0,"so2":6.4,"mosquito_risk":7,"arthritis_risk":5,"migraine_risk":7,"frizz_risk":1,"updated_at":"2026-05-04T02:19:25.949321+05:30"},{"city":"Jaipur","state":"Rajasthan","latitude":26.9124,"longitude":75.7873,"temp":27.9,"humidity":34,"rain":0.0,"pressure":954.8,"uv_index":7.8,"wind_gusts":58.3,"aqi":113,"pm10":302.7,"pm2_5":53.2,"no2":14.3,"co":269.0,"o3":70.0,"so2":6.1,"mosquito_risk":4,"arthritis_risk":5,"migraine_risk":7,"frizz_risk":0,"updated_at":"2026-05-04T02:19:25.949330+05:30"},{"city":"Lucknow","state":"Uttar Pradesh","latitude":26.8467,"longitude":80.9462,"temp":25.0,"humidity":70,"rain":0.0,"pressure":991.8,"uv_index":8.05,"wind_gusts":54.0,"aqi":112,"pm10":51.5,"pm2_5":37.1,"no2":6.2,"co":355.0,"o3":130.0,"so2":6.5,"mosquito_risk":7,"arthritis_risk":5,"migraine_risk":7,"frizz_risk":1,"updated_at":"2026-05-04T02:19:25.949338+05:30"},{"city":"Kanpur","state":"Uttar Pradesh","latitude":26.4499,"longitude":80.3319,"temp":26.5,"humidity":66,"rain":0.0,"pressure":989.3,"uv_index":8.05,"wind_gusts":48.2,"aqi":198,"pm10":538.3,"pm2_5":81.0,"no2":4.6,"co":330.0,"o3":144.0,"so2":6.3,"mosquito_risk":7,"arthritis_risk":5,"migraine_risk":7,"frizz_risk":1,"updated_at":"2026-05-04T02:19:25.949346+05:30"},{"city":"Chandigarh","state":"Chandigarh","latitude":30.7333,"longitude":76.7794,"temp":22.1,"humidity":63,"rain":0.0,"pressure":965.2,"uv_index":7.25,"wind_gusts":55.8,"aqi":109,"pm10":90.8,"pm2_5":39.1,"no2":15.2,"co":395.0,"o3":92.0,"so2":11.4,"mosquito_risk":3,"arthritis_risk":5,"migraine_risk":7,"frizz_risk":0,"updated_at":"2026-05-04T02:19:25.949353+05:30"},{"city":"Srinagar","state":"Jammu and Kashmir","latitude":34.0837,"longitude":74.7973,"temp":9.2,"humidity":98,"rain":0.0,"pressure":841.0,"uv_index":6.6,"wind_gusts":23.4,"aqi":69,"pm10":32.1,"pm2_5":22.9,"no2":12.9,"co":648.0,"o3":91.0,"so2":3.1,"mosquito_risk":3,"arthritis_risk":10,"migraine_risk":7,"frizz_risk":0,"updated_at":"2026-05-04T02:19:25.949362+05:30"},{"city":"Jammu","state":"Jammu and Kashmir","latitude":32.7266,"longitude":74.857,"temp":21.6,"humidity":50,"rain":0.0,"pressure":968.8,"uv_index":7.1,"wind_gusts":58.0,"aqi":69,"pm10":41.6,"pm2_5":28.8,"no2":16.9,"co":317.0,"o3":73.0,"so2":4.6,"mosquito_risk":0,"arthritis_risk":5,"migraine_risk":7,"frizz_risk":0,"updated_at":"2026-05-04T02:19:25.949370+05:30"},{"city":"Amritsar","state":"Punjab","latitude":31.634,"longitude":74.8723,"temp":24.2,"humidity":55,"rain":0.0,"pressure":977.1,"uv_index":8.0,"wind_gusts":53.3,"aqi":111,"pm10":203.0,"pm2_5":53.7,"no2":5.8,"co":421.0,"o3":111.0,"so2":6.8,"mosquito_risk":0,"arthritis_risk":5,"migraine_risk":7,"frizz_risk":0,"updated_at":"2026-05-04T02:19:25.949377+05:30"},{"city":"Ludhiana","state":"Punjab","latitude":30.901,"longitude":75.8573,"temp":24.4,"humidity":60,"rain":0.0,"pressure":975.7,"uv_index":7.7,"wind_gusts":56.2,"aqi":232,"pm10":160.2,"pm2_5":52.5,"no2":9.1,"co":480.0,"o3":109.0,"so2":11.9,"mosquito_risk":0,"arthritis_risk":5,"migraine_risk":7,"frizz_risk":1,"updated_at":"2026-05-04T02:19:25.949384+05:30"},{"city":"Jalandhar","state":"Punjab","latitude":31.326,"longitude":75.5762,"temp":23.1,"humidity":60,"rain":0.0,"pressure":976.1,"uv_index":7.85,"wind_gusts":61.9,"aqi":151,"pm10":231.4,"pm2_5":63.1,"no2":9.6,"co":414.0,"o3":99.0,"so2":12.0,"mosquito_risk":0,"arthritis_risk":5,"migraine_risk":7,"frizz_risk":0,"updated_at":"2026-05-04T02:19:25.949391+05:30"},{"city":"Dehradun","state":"Uttarakhand","latitude":30.6284,"longitude":78.0322,"temp":11.6,"humidity":88,"rain":0.0,"pressure":826.1,"uv_index":5.35,"wind_gusts":34.2,"aqi":69,"pm10":49.7,"pm2_5":27.0,"no2":21.3,"co":300.0,"o3":65.0,"so2":1.1,"mosquito_risk":3,"arthritis_risk":10,"migraine_risk":3,"frizz_risk":0,"updated_at":"2026-05-04T02:19:25.949401+05:30"},{"city":"Shimla","state":"Himachal Pradesh","latitude":31.1048,"longitude":77.1734,"temp":9.8,"humidity":64,"rain":0.0,"pressure":778.8,"uv_index":6.75,"wind_gusts":36.7,"aqi":83,"pm10":83.6,"pm2_5":29.5,"no2":10.3,"co":276.0,"o3":124.0,"so2":7.1,"mosquito_risk":3,"arthritis_risk":5,"migraine_risk":7,"frizz_risk":0,"updated_at":"2026-05-04T02:19:25.949408+05:30"},{"city":"Manali","state":"Himachal Pradesh","latitude":32.2396,"longitude":77.1887,"temp":6.5,"humidity":68,"rain":0.0,"pressure":812.8,"uv_index":7.4,"wind_gusts":44.3,"aqi":92,"pm10":10.6,"pm2_5":5.6,"no2":10.9,"co":196.0,"o3":128.0,"so2":0.0,"mosquito_risk":3,"arthritis_risk":5,"migraine_risk":7,"frizz_risk":0,"updated_at":"2026-05-04T02:19:25.949415+05:30"},{"city":"Gurgaon","state":"Haryana","latitude":28.4595,"longitude":77.0266,"temp":24.8,"humidity":70,"rain":0.0,"pressure":977.7,"uv_index":7.45,"wind_gusts":59.0,"aqi":1494,"pm10":3255.9,"pm2_5":334.3,"no2":8.8,"co":414.0,"o3":133.0,"so2":18.0,"mosquito_risk":3,"arthritis_risk":5,"migraine_risk":7,"frizz_risk":1,"updated_at":"2026-05-04T02:19:25.949422+05:30"},{"city":"Noida","state":"Uttar Pradesh","latitude":28.5355,"longitude":77.391,"temp":25.6,"humidity":65,"rain":0.0,"pressure":981.9,"uv_index":7.5,"wind_gusts":58.7,"aqi":1494,"pm10":3255.9,"pm2_5":334.3,"no2":8.8,"co":378.0,"o3":133.0,"so2":18.0,"mosquito_risk":7,"arthritis_risk":5,"migraine_risk":7,"frizz_risk":1,"updated_at":"2026-05-04T02:19:25.949430+05:30"},{"city":"Ghaziabad","state":"Uttar Pradesh","latitude":28.6692,"longitude":77.4538,"temp":25.8,"humidity":66,"rain":0.0,"pressure":980.5,"uv_index":7.45,"wind_gusts":61.2,"aqi":254,"pm10":90.6,"pm2_5":37.1,"no2":4.8,"co":344.0,"o3":139.0,"so2":13.1,"mosquito_risk":7,"arthritis_risk":5,"migraine_risk":7,"frizz_risk":1,"updated_at":"2026-05-04T02:19:25.949437+05:30"},{"city":"Faridabad","state":"Haryana","latitude":28.4089,"longitude":77.3178,"temp":25.6,"humidity":67,"rain":0.0,"pressure":981.0,"uv_index":7.55,"wind_gusts":61.6,"aqi":1494,"pm10":3255.9,"pm2_5":334.3,"no2":8.8,"co":385.0,"o3":133.0,"so2":18.0,"mosquito_risk":7,"arthritis_risk":5,"migraine_risk":7,"frizz_risk":1,"updated_at":"2026-05-04T02:19:25.949443+05:30"},{"city":"Meerut","state":"Uttar Pradesh","latitude":28.9845,"longitude":77.7064,"temp":24.1,"humidity":75,"rain":0.0,"pressure":979.6,"uv_index":7.4,"wind_gusts":65.5,"aqi":254,"pm10":90.6,"pm2_5":37.1,"no2":4.8,"co":338.0,"o3":139.0,"so2":13.1,"mosquito_risk":3,"arthritis_risk":5,"migraine_risk":7,"frizz_risk":1,"updated_at":"2026-05-04T02:19:25.949450+05:30"},{"city":"Agra","state":"Uttar Pradesh","latitude":27.1767,"longitude":78.0081,"temp":27.2,"humidity":62,"rain":0.0,"pressure":983.7,"uv_index":7.15,"wind_gusts":68.0,"aqi":865,"pm10":1117.6,"pm2_5":151.8,"no2":5.8,"co":315.0,"o3":116.0,"so2":11.6,"mosquito_risk":7,"arthritis_risk":5,"migraine_risk":7,"frizz_risk":1,"updated_at":"2026-05-04T02:19:25.949457+05:30"},{"city":"Varanasi","state":"Uttar Pradesh","latitude":25.3176,"longitude":82.9739,"temp":25.9,"humidity":76,"rain":0.0,"pressure":996.0,"uv_index":8.6,"wind_gusts":38.5,"aqi":152,"pm10":67.3,"pm2_5":61.0,"no2":8.1,"co":418.0,"o3":143.0,"so2":13.4,"mosquito_risk":7,"arthritis_risk":5,"migraine_risk":7,"frizz_risk":1,"updated_at":"2026-05-04T02:19:25.949464+05:30"},{"city":"Prayagraj","state":"Uttar Pradesh","latitude":25.4358,"longitude":81.8463,"temp":26.7,"humidity":69,"rain":0.0,"pressure":994.1,"uv_index":8.5,"wind_gusts":57.2,"aqi":133,"pm10":61.5,"pm2_5":55.2,"no2":7.5,"co":358.0,"o3":138.0,"so2":9.6,"mosquito_risk":7,"arthritis_risk":5,"migraine_risk":7,"frizz_risk":1,"updated_at":"2026-05-04T02:19:25.949473+05:30"},{"city":"Gorakhpur","state":"Uttar Pradesh","latitude":26.7606,"longitude":83.3732,"temp":23.5,"humidity":84,"rain":0.0,"pressure":997.4,"uv_index":8.45,"wind_gusts":38.5,"aqi":102,"pm10":32.4,"pm2_5":25.0,"no2":8.9,"co":451.0,"o3":110.0,"so2":6.4,"mosquito_risk":3,"arthritis_risk":5,"migraine_risk":7,"frizz_risk":1,"updated_at":"2026-05-04T02:19:25.949480+05:30"},{"city":"Bareilly","state":"Uttar Pradesh","latitude":28.367,"longitude":79.4304,"temp":23.6,"humidity":74,"rain":0.0,"pressure":985.0,"uv_index":7.65,"wind_gusts":49.0,"aqi":123,"pm10":76.4,"pm2_5":37.1,"no2":6.3,"co":312.0,"o3":107.0,"so2":5.1,"mosquito_risk":3,"arthritis_risk":5,"migraine_risk":7,"frizz_risk":1,"updated_at":"2026-05-04T02:19:25.949487+05:30"},{"city":"Aligarh","state":"Uttar Pradesh","latitude":27.8974,"longitude":78.088,"temp":26.1,"humidity":66,"rain":0.0,"pressure":982.1,"uv_index":7.6,"wind_gusts":59.0,"aqi":828,"pm10":273.8,"pm2_5":60.5,"no2":5.9,"co":350.0,"o3":132.0,"so2":17.2,"mosquito_risk":7,"arthritis_risk":5,"migraine_risk":7,"frizz_risk":1,"updated_at":"2026-05-04T02:19:25.949494+05:30"},{"city":"Moradabad","state":"Uttar Pradesh","latitude":28.8386,"longitude":78.7733,"temp":24.0,"humidity":73,"rain":0.0,"pressure":981.5,"uv_index":7.55,"wind_gusts":56.2,"aqi":123,"pm10":86.8,"pm2_5":40.5,"no2":9.0,"co":315.0,"o3":103.0,"so2":6.4,"mosquito_risk":3,"arthritis_risk":5,"migraine_risk":7,"frizz_risk":1,"updated_at":"2026-05-04T02:19:25.949501+05:30"},{"city":"Saharanpur","state":"Uttar Pradesh","latitude":29.9637,"longitude":77.546,"temp":24.3,"humidity":68,"rain":0.0,"pressure":973.1,"uv_index":7.2,"wind_gusts":54.7,"aqi":136,"pm10":103.1,"pm2_5":46.3,"no2":11.9,"co":363.0,"o3":97.0,"so2":11.7,"mosquito_risk":3,"arthritis_risk":5,"migraine_risk":7,"frizz_risk":1,"updated_at":"2026-05-04T02:19:25.949508+05:30"},{"city":"Jhansi","state":"Uttar Pradesh","latitude":25.4484,"longitude":78.5685,"temp":27.9,"humidity":59,"rain":0.0,"pressure":973.9,"uv_index":7.75,"wind_gusts":50.0,"aqi":79,"pm10":63.3,"pm2_5":26.7,"no2":4.6,"co":298.0,"o3":95.0,"so2":14.6,"mosquito_risk":4,"arthritis_risk":5,"migraine_risk":7,"frizz_risk":1,"updated_at":"2026-05-04T02:19:29.275114+05:30"},{"city":"Surat","state":"Gujarat","latitude":21.1702,"longitude":72.8311,"temp":28.2,"humidity":82,"rain":0.0,"pressure":1003.0,"uv_index":7.7,"wind_gusts":51.8,"aqi":59,"pm10":26.3,"pm2_5":14.9,"no2":14.8,"co":241.0,"o3":58.0,"so2":25.4,"mosquito_risk":7,"arthritis_risk":5,"migraine_risk":4,"frizz_risk":1,"updated_at":"2026-05-04T02:19:29.275149+05:30"},{"city":"Vadodara","state":"Gujarat","latitude":22.3072,"longitude":73.1812,"temp":28.0,"humidity":85,"rain":0.0,"pressure":1000.1,"uv_index":8.05,"wind_gusts":46.8,"aqi":52,"pm10":18.0,"pm2_5":11.0,"no2":9.6,"co":194.0,"o3":57.0,"so2":12.1,"mosquito_risk":7,"arthritis_risk":5,"migraine_risk":4,"frizz_risk":1,"updated_at":"2026-05-04T02:19:29.275160+05:30"},{"city":"Rajkot","state":"Gujarat","latitude":22.3039,"longitude":70.8022,"temp":26.6,"humidity":84,"rain":0.0,"pressure":989.3,"uv_index":7.7,"wind_gusts":45.4,"aqi":49,"pm10":28.9,"pm2_5":12.8,"no2":3.4,"co":166.0,"o3":68.0,"so2":4.5,"mosquito_risk":7,"arthritis_risk":5,"migraine_risk":7,"frizz_risk":1,"updated_at":"2026-05-04T02:19:29.275169+05:30"},{"city":"Thane","state":"Maharashtra","latitude":19.2183,"longitude":72.9781,"temp":27.8,"humidity":83,"rain":0.0,"pressure":1005.7,"uv_index":7.9,"wind_gusts":40.3,"aqi":67,"pm10":35.9,"pm2_5":16.0,"no2":9.3,"co":226.0,"o3":64.0,"so2":16.1,"mosquito_risk":7,"arthritis_risk":5,"migraine_risk":4,"frizz_risk":1,"updated_at":"2026-05-04T02:19:29.275178+05:30"},{"city":"Nagpur","state":"Maharashtra","latitude":21.1458,"longitude":79.0882,"temp":30.3,"humidity":27,"rain":0.0,"pressure":968.5,"uv_index":8.9,"wind_gusts":47.5,"aqi":79,"pm10":42.4,"pm2_5":19.6,"no2":11.1,"co":278.0,"o3":74.0,"so2":10.2,"mosquito_risk":0,"arthritis_risk":5,"migraine_risk":7,"frizz_risk":0,"updated_at":"2026-05-04T02:19:29.275185+05:30"},{"city":"Nashik","state":"Maharashtra","latitude":19.9975,"longitude":73.7898,"temp":22.7,"humidity":91,"rain":0.0,"pressure":943.0,"uv_index":8.2,"wind_gusts":45.0,"aqi":61,"pm10":28.1,"pm2_5":16.1,"no2":14.5,"co":220.0,"o3":49.0,"so2":15.8,"mosquito_risk":3,"arthritis_risk":5,"migraine_risk":7,"frizz_risk":1,"updated_at":"2026-05-04T02:19:29.275194+05:30"},{"city":"Aurangabad","state":"Maharashtra","latitude":19.8762,"longitude":75.3433,"temp":25.0,"humidity":53,"rain":0.0,"pressure":941.4,"uv_index":9.05,"wind_gusts":42.8,"aqi":55,"pm10":27.6,"pm2_5":12.3,"no2":9.2,"co":193.0,"o3":69.0,"so2":12.8,"mosquito_risk":4,"arthritis_risk":5,"migraine_risk":7,"frizz_risk":0,"updated_at":"2026-05-04T02:19:29.275202+05:30"},{"city":"Solapur","state":"Maharashtra","latitude":17.6599,"longitude":75.9064,"temp":28.0,"humidity":45,"rain":0.0,"pressure":954.8,"uv_index":9.1,"wind_gusts":32.4,"aqi":57,"pm10":24.4,"pm2_5":11.7,"no2":5.7,"co":193.0,"o3":74.0,"so2":4.1,"mosquito_risk":4,"arthritis_risk":5,"migraine_risk":7,"frizz_risk":0,"updated_at":"2026-05-04T02:19:29.275209+05:30"},{"city":"Kolhapur","state":"Maharashtra","latitude":16.705,"longitude":74.2433,"temp":22.4,"humidity":96,"rain":0.0,"pressure":946.2,"uv_index":8.95,"wind_gusts":46.4,"aqi":62,"pm10":28.7,"pm2_5":13.8,"no2":7.0,"co":185.0,"o3":52.0,"so2":1.8,"mosquito_risk":3,"arthritis_risk":5,"migraine_risk":7,"frizz_risk":1,"updated_at":"2026-05-04T02:19:29.275217+05:30"},{"city":"Goa","state":"Goa","latitude":15.2993,"longitude":74.124,"temp":27.2,"humidity":87,"rain":0.0,"pressure":996.3,"uv_index":8.9,"wind_gusts":37.8,"aqi":66,"pm10":56.5,"pm2_5":21.9,"no2":7.4,"co":231.0,"o3":58.0,"so2":2.1,"mosquito_risk":7,"arthritis_risk":5,"migraine_risk":7,"frizz_risk":1,"updated_at":"2026-05-04T02:19:29.275224+05:30"},{"city":"Jodhpur","state":"Rajasthan","latitude":26.2389,"longitude":73.0243,"temp":29.4,"humidity":35,"rain":0.0,"pressure":976.2,"uv_index":8.25,"wind_gusts":49.0,"aqi":121,"pm10":139.2,"pm2_5":27.4,"no2":5.2,"co":195.0,"o3":82.0,"so2":2.7,"mosquito_risk":4,"arthritis_risk":5,"migraine_risk":7,"frizz_risk":0,"updated_at":"2026-05-04T02:19:29.275232+05:30"},{"city":"Udaipur","state":"Rajasthan","latitude":24.5854,"longitude":73.7125,"temp":25.0,"humidity":59,"rain":0.0,"pressure":941.5,"uv_index":8.75,"wind_gusts":33.5,"aqi":54,"pm10":27.3,"pm2_5":14.7,"no2":6.4,"co":184.0,"o3":75.0,"so2":7.2,"mosquito_risk":4,"arthritis_risk":5,"migraine_risk":7,"frizz_risk":1,"updated_at":"2026-05-04T02:19:29.275239+05:30"},{"city":"Kota","state":"Rajasthan","latitude":25.2138,"longitude":75.8648,"temp":30.1,"humidity":39,"rain":0.0,"pressure":973.3,"uv_index":8.3,"wind_gusts":73.8,"aqi":66,"pm10":19.6,"pm2_5":11.8,"no2":3.0,"co":182.0,"o3":113.0,"so2":7.8,"mosquito_risk":0,"arthritis_risk":5,"migraine_risk":7,"frizz_risk":0,"updated_at":"2026-05-04T02:19:29.275247+05:30"},{"city":"Bikaner","state":"Rajasthan","latitude":28.0229,"longitude":73.3119,"temp":29.1,"humidity":34,"rain":0.0,"pressure":975.8,"uv_index":8.15,"wind_gusts":60.1,"aqi":87,"pm10":152.7,"pm2_5":35.0,"no2":2.2,"co":217.0,"o3":105.0,"so2":4.9,"mosquito_risk":4,"arthritis_risk":5,"migraine_risk":7,"frizz_risk":0,"updated_at":"2026-05-04T02:19:29.275254+05:30"},{"city":"Ajmer","state":"Rajasthan","latitude":26.4499,"longitude":74.6399,"temp":27.5,"humidity":33,"rain":0.0,"pressure":948.9,"uv_index":8.2,"wind_gusts":58.7,"aqi":68,"pm10":61.0,"pm2_5":20.3,"no2":3.5,"co":205.0,"o3":91.0,"so2":3.7,"mosquito_risk":4,"arthritis_risk":5,"migraine_risk":7,"frizz_risk":0,"updated_at":"2026-05-04T02:19:29.275261+05:30"},{"city":"Gwalior","state":"Madhya Pradesh","latitude":26.2183,"longitude":78.1828,"temp":28.2,"humidity":57,"rain":0.0,"pressure":978.9,"uv_index":8.1,"wind_gusts":49.7,"aqi":78,"pm10":91.0,"pm2_5":32.2,"no2":5.1,"co":315.0,"o3":97.0,"so2":8.6,"mosquito_risk":4,"arthritis_risk":5,"migraine_risk":7,"frizz_risk":1,"updated_at":"2026-05-04T02:19:29.275268+05:30"},{"city":"Indore","state":"Madhya Pradesh","latitude":22.7196,"longitude":75.8577,"temp":27.1,"humidity":48,"rain":0.0,"pressure":944.3,"uv_index":8.6,"wind_gusts":39.2,"aqi":57,"pm10":15.6,"pm2_5":11.1,"no2":4.0,"co":193.0,"o3":94.0,"so2":9.2,"mosquito_risk":4,"arthritis_risk":5,"migraine_risk":7,"frizz_risk":0,"updated_at":"2026-05-04T02:19:29.275275+05:30"},{"city":"Bhopal","state":"Madhya Pradesh","latitude":23.2599,"longitude":77.4126,"temp":28.7,"humidity":33,"rain":0.0,"pressure":949.4,"uv_index":8.65,"wind_gusts":48.2,"aqi":68,"pm10":33.2,"pm2_5":22.5,"no2":8.8,"co":196.0,"o3":65.0,"so2":5.4,"mosquito_risk":4,"arthritis_risk":5,"migraine_risk":7,"frizz_risk":0,"updated_at":"2026-05-04T02:19:29.275283+05:30"},{"city":"Jabalpur","state":"Madhya Pradesh","latitude":23.1815,"longitude":79.9864,"temp":27.5,"humidity":40,"rain":0.0,"pressure":957.1,"uv_index":8.8,"wind_gusts":58.3,"aqi":71,"pm10":71.0,"pm2_5":26.3,"no2":13.7,"co":280.0,"o3":61.0,"so2":3.6,"mosquito_risk":4,"arthritis_risk":5,"migraine_risk":7,"frizz_risk":0,"updated_at":"2026-05-04T02:19:29.275289+05:30"},{"city":"Ujjain","state":"Madhya Pradesh","latitude":23.1765,"longitude":75.7885,"temp":27.1,"humidity":52,"rain":0.0,"pressure":949.8,"uv_index":8.55,"wind_gusts":36.0,"aqi":54,"pm10":15.1,"pm2_5":10.8,"no2":3.3,"co":180.0,"o3":87.0,"so2":8.4,"mosquito_risk":4,"arthritis_risk":5,"migraine_risk":7,"frizz_risk":1,"updated_at":"2026-05-04T02:19:29.275297+05:30"},{"city":"Visakhapatnam","state":"Andhra Pradesh","latitude":17.6868,"longitude":83.2185,"temp":27.0,"humidity":97,"rain":0.0,"pressure":1001.8,"uv_index":8.3,"wind_gusts":37.1,"aqi":69,"pm10":30.5,"pm2_5":23.2,"no2":18.9,"co":310.0,"o3":79.0,"so2":3.5,"mosquito_risk":7,"arthritis_risk":5,"migraine_risk":4,"frizz_risk":1,"updated_at":"2026-05-04T02:19:29.275304+05:30"},{"city":"Vijayawada","state":"Andhra Pradesh","latitude":16.5062,"longitude":80.648,"temp":28.0,"humidity":92,"rain":0.0,"pressure":999.9,"uv_index":9.2,"wind_gusts":43.9,"aqi":101,"pm10":31.7,"pm2_5":26.4,"no2":5.3,"co":270.0,"o3":115.0,"so2":5.0,"mosquito_risk":7,"arthritis_risk":5,"migraine_risk":7,"frizz_risk":1,"updated_at":"2026-05-04T02:19:29.275310+05:30"},{"city":"Guntur","state":"Andhra Pradesh","latitude":16.3067,"longitude":80.4365,"temp":28.5,"humidity":87,"rain":0.0,"pressure":1000.8,"uv_index":9.2,"wind_gusts":36.7,"aqi":81,"pm10":32.2,"pm2_5":27.0,"no2":4.7,"co":238.0,"o3":128.0,"so2":5.3,"mosquito_risk":7,"arthritis_risk":5,"migraine_risk":4,"frizz_risk":1,"updated_at":"2026-05-04T02:19:29.275317+05:30"},{"city":"Nellore","state":"Andhra Pradesh","latitude":14.4426,"longitude":79.9865,"temp":29.8,"humidity":75,"rain":0.0,"pressure":1002.0,"uv_index":9.25,"wind_gusts":37.8,"aqi":122,"pm10":31.4,"pm2_5":28.1,"no2":7.5,"co":272.0,"o3":130.0,"so2":8.6,"mosquito_risk":7,"arthritis_risk":5,"migraine_risk":4,"frizz_risk":1,"updated_at":"2026-05-04T02:19:29.275325+05:30"},{"city":"Kurnool","state":"Andhra Pradesh","latitude":15.8281,"longitude":78.0373,"temp":31.2,"humidity":38,"rain":0.0,"pressure":974.2,"uv_index":9.15,"wind_gusts":37.4,"aqi":65,"pm10":47.8,"pm2_5":26.1,"no2":15.5,"co":340.0,"o3":66.0,"so2":6.2,"mosquito_risk":0,"arthritis_risk":5,"migraine_risk":7,"frizz_risk":0,"updated_at":"2026-05-04T02:19:29.275332+05:30"},{"city":"Kakinada","state":"Andhra Pradesh","latitude":16.9891,"longitude":82.2475,"temp":27.4,"humidity":95,"rain":0.0,"pressure":1005.2,"uv_index":9.05,"wind_gusts":32.4,"aqi":64,"pm10":30.4,"pm2_5":21.5,"no2":1.5,"co":215.0,"o3":107.0,"so2":1.9,"mosquito_risk":7,"arthritis_risk":5,"migraine_risk":4,"frizz_risk":1,"updated_at":"2026-05-04T02:19:29.275339+05:30"},{"city":"Tirupati","state":"Andhra Pradesh","latitude":13.6288,"longitude":79.4192,"temp":29.0,"humidity":74,"rain":0.0,"pressure":988.2,"uv_index":9.3,"wind_gusts":58.3,"aqi":80,"pm10":34.2,"pm2_5":32.1,"no2":11.4,"co":297.0,"o3":112.0,"so2":13.3,"mosquito_risk":7,"arthritis_risk":5,"migraine_risk":7,"frizz_risk":1,"updated_at":"2026-05-04T02:19:29.275346+05:30"},{"city":"Warangal","state":"Telangana","latitude":17.9689,"longitude":79.5941,"temp":27.5,"humidity":76,"rain":0.0,"pressure":975.6,"uv_index":9.15,"wind_gusts":41.8,"aqi":87,"pm10":33.3,"pm2_5":30.9,"no2":8.8,"co":305.0,"o3":114.0,"so2":11.2,"mosquito_risk":7,"arthritis_risk":5,"migraine_risk":7,"frizz_risk":1,"updated_at":"2026-05-04T02:19:29.275353+05:30"},{"city":"Nizamabad","state":"Telangana","latitude":18.6725,"longitude":78.0941,"temp":28.4,"humidity":37,"rain":0.0,"pressure":961.4,"uv_index":9.15,"wind_gusts":29.9,"aqi":79,"pm10":66.4,"pm2_5":35.9,"no2":23.1,"co":330.0,"o3":50.0,"so2":6.0,"mosquito_risk":4,"arthritis_risk":5,"migraine_risk":7,"frizz_risk":0,"updated_at":"2026-05-04T02:19:29.275359+05:30"},{"city":"Mysore","state":"Karnataka","latitude":12.2958,"longitude":76.6396,"temp":22.0,"humidity":96,"rain":0.0,"pressure":926.7,"uv_index":9.35,"wind_gusts":35.3,"aqi":66,"pm10":37.4,"pm2_5":20.6,"no2":10.2,"co":191.0,"o3":54.0,"so2":2.8,"mosquito_risk":3,"arthritis_risk":5,"migraine_risk":7,"frizz_risk":1,"updated_at":"2026-05-04T02:19:29.275366+05:30"},{"city":"Mangalore","state":"Karnataka","latitude":12.9141,"longitude":74.856,"temp":27.9,"humidity":80,"rain":0.0,"pressure":1005.5,"uv_index":9.0,"wind_gusts":45.7,"aqi":68,"pm10":46.9,"pm2_5":17.9,"no2":6.2,"co":271.0,"o3":51.0,"so2":2.2,"mosquito_risk":7,"arthritis_risk":5,"migraine_risk":4,"frizz_risk":1,"updated_at":"2026-05-04T02:19:29.275373+05:30"},{"city":"Hubli-Dharwad","state":"Karnataka","latitude":15.3647,"longitude":75.124,"temp":23.0,"humidity":95,"rain":0.0,"pressure":939.3,"uv_index":9.15,"wind_gusts":43.6,"aqi":57,"pm10":27.7,"pm2_5":11.9,"no2":4.3,"co":192.0,"o3":58.0,"so2":1.4,"mosquito_risk":3,"arthritis_risk":5,"migraine_risk":7,"frizz_risk":1,"updated_at":"2026-05-04T02:19:29.275380+05:30"},{"city":"Belgaum","state":"Karnataka","latitude":15.8497,"longitude":74.4977,"temp":21.0,"humidity":99,"rain":0.0,"pressure":923.5,"uv_index":9.15,"wind_gusts":41.0,"aqi":59,"pm10":30.4,"pm2_5":15.0,"no2":7.3,"co":166.0,"o3":48.0,"so2":1.0,"mosquito_risk":3,"arthritis_risk":5,"migraine_risk":7,"frizz_risk":1,"updated_at":"2026-05-04T02:19:32.671910+05:30"},{"city":"Coimbatore","state":"Tamil Nadu","latitude":11.0168,"longitude":76.9558,"temp":25.0,"humidity":87,"rain":0.0,"pressure":960.0,"uv_index":9.35,"wind_gusts":47.5,"aqi":62,"pm10":42.0,"pm2_5":23.6,"no2":7.6,"co":196.0,"o3":61.0,"so2":3.4,"mosquito_risk":7,"arthritis_risk":5,"migraine_risk":7,"frizz_risk":1,"updated_at":"2026-05-04T02:19:32.671946+05:30"},{"city":"Madurai","state":"Tamil Nadu","latitude":9.9252,"longitude":78.1198,"temp":29.0,"humidity":66,"rain":0.0,"pressure":990.6,"uv_index":6.35,"wind_gusts":46.4,"aqi":80,"pm10":31.5,"pm2_5":27.8,"no2":28.5,"co":432.0,"o3":28.0,"so2":6.9,"mosquito_risk":7,"arthritis_risk":5,"migraine_risk":7,"frizz_risk":1,"updated_at":"2026-05-04T02:19:32.671959+05:30"},{"city":"Trichy","state":"Tamil Nadu","latitude":10.7905,"longitude":78.7047,"temp":29.5,"humidity":75,"rain":0.0,"pressure":997.9,"uv_index":8.95,"wind_gusts":40.3,"aqi":79,"pm10":35.7,"pm2_5":30.6,"no2":22.0,"co":300.0,"o3":56.0,"so2":5.1,"mosquito_risk":7,"arthritis_risk":5,"migraine_risk":7,"frizz_risk":1,"updated_at":"2026-05-04T02:19:32.671967+05:30"},{"city":"Salem","state":"Tamil Nadu","latitude":11.6643,"longitude":78.146,"temp":28.6,"humidity":66,"rain":0.0,"pressure":975.4,"uv_index":9.3,"wind_gusts":61.9,"aqi":79,"pm10":30.3,"pm2_5":23.5,"no2":12.6,"co":228.0,"o3":62.0,"so2":5.5,"mosquito_risk":7,"arthritis_risk":5,"migraine_risk":7,"frizz_risk":1,"updated_at":"2026-05-04T02:19:32.671976+05:30"},{"city":"Tirunelveli","state":"Tamil Nadu","latitude":8.7139,"longitude":77.7567,"temp":28.6,"humidity":73,"rain":0.0,"pressure":1000.9,"uv_index":8.55,"wind_gusts":33.5,"aqi":71,"pm10":26.4,"pm2_5":22.5,"no2":11.3,"co":226.0,"o3":40.0,"so2":2.8,"mosquito_risk":7,"arthritis_risk":5,"migraine_risk":4,"frizz_risk":1,"updated_at":"2026-05-04T02:19:32.671984+05:30"},{"city":"Vellore","state":"Tamil Nadu","latitude":12.9165,"longitude":79.1325,"temp":29.2,"humidity":65,"rain":0.0,"pressure":981.7,"uv_index":9.05,"wind_gusts":45.7,"aqi":84,"pm10":32.0,"pm2_5":29.5,"no2":10.7,"co":295.0,"o3":96.0,"so2":14.0,"mosquito_risk":7,"arthritis_risk":5,"migraine_risk":7,"frizz_risk":1,"updated_at":"2026-05-04T02:19:32.671992+05:30"},{"city":"Erode","state":"Tamil Nadu","latitude":11.341,"longitude":77.7172,"temp":27.8,"humidity":74,"rain":0.0,"pressure":987.1,"uv_index":9.3,"wind_gusts":51.5,"aqi":68,"pm10":30.3,"pm2_5":21.1,"no2":15.4,"co":202.0,"o3":51.0,"so2":4.0,"mosquito_risk":7,"arthritis_risk":5,"migraine_risk":7,"frizz_risk":1,"updated_at":"2026-05-04T02:19:32.671999+05:30"},{"city":"Kochi","state":"Kerala","latitude":9.9312,"longitude":76.2673,"temp":27.1,"humidity":100,"rain":0.0,"pressure":1007.7,"uv_index":8.9,"wind_gusts":30.2,"aqi":102,"pm10":77.8,"pm2_5":65.2,"no2":49.5,"co":589.0,"o3":3.0,"so2":11.3,"mosquito_risk":7,"arthritis_risk":5,"migraine_risk":4,"frizz_risk":1,"updated_at":"2026-05-04T02:19:32.672007+05:30"},{"city":"Thiruvananthapuram","state":"Kerala","latitude":8.5241,"longitude":76.9366,"temp":25.3,"humidity":98,"rain":0.0,"pressure":1007.2,"uv_index":8.45,"wind_gusts":40.3,"aqi":57,"pm10":31.4,"pm2_5":19.1,"no2":4.1,"co":386.0,"o3":62.0,"so2":1.7,"mosquito_risk":7,"arthritis_risk":5,"migraine_risk":4,"frizz_risk":1,"updated_at":"2026-05-04T02:19:32.672015+05:30"},{"city":"Kozhikode","state":"Kerala","latitude":11.2588,"longitude":75.7804,"temp":26.4,"humidity":92,"rain":0.0,"pressure":1006.7,"uv_index":9.05,"wind_gusts":41.0,"aqi":65,"pm10":66.6,"pm2_5":20.7,"no2":2.3,"co":291.0,"o3":70.0,"so2":0.8,"mosquito_risk":7,"arthritis_risk":5,"migraine_risk":4,"frizz_risk":1,"updated_at":"2026-05-04T02:19:32.672022+05:30"},{"city":"Thrissur","state":"Kerala","latitude":10.5276,"longitude":76.2144,"temp":25.9,"humidity":90,"rain":0.0,"pressure":1006.1,"uv_index":9.05,"wind_gusts":34.2,"aqi":94,"pm10":69.6,"pm2_5":48.0,"no2":38.0,"co":406.0,"o3":20.0,"so2":6.3,"mosquito_risk":7,"arthritis_risk":5,"migraine_risk":4,"frizz_risk":1,"updated_at":"2026-05-04T02:19:32.672030+05:30"},{"city":"Kannur","state":"Kerala","latitude":11.8745,"longitude":75.3704,"temp":27.0,"humidity":81,"rain":0.0,"pressure":1006.0,"uv_index":8.6,"wind_gusts":48.2,"aqi":66,"pm10":48.3,"pm2_5":17.1,"no2":7.0,"co":359.0,"o3":45.0,"so2":1.3,"mosquito_risk":7,"arthritis_risk":5,"migraine_risk":4,"frizz_risk":1,"updated_at":"2026-05-04T02:19:32.672037+05:30"},{"city":"Patna","state":"Bihar","latitude":25.5941,"longitude":85.1376,"temp":24.4,"humidity":85,"rain":0.0,"pressure":1000.3,"uv_index":8.7,"wind_gusts":59.0,"aqi":140,"pm10":50.2,"pm2_5":42.4,"no2":10.2,"co":366.0,"o3":116.0,"so2":11.2,"mosquito_risk":3,"arthritis_risk":5,"migraine_risk":4,"frizz_risk":1,"updated_at":"2026-05-04T02:19:32.672044+05:30"},{"city":"Gaya","state":"Bihar","latitude":24.7914,"longitude":85.0002,"temp":25.0,"humidity":77,"rain":0.0,"pressure":992.9,"uv_index":8.8,"wind_gusts":41.8,"aqi":150,"pm10":60.3,"pm2_5":54.5,"no2":9.3,"co":353.0,"o3":117.0,"so2":18.9,"mosquito_risk":7,"arthritis_risk":5,"migraine_risk":7,"frizz_risk":1,"updated_at":"2026-05-04T02:19:32.672051+05:30"},{"city":"Muzaffarpur","state":"Bihar","latitude":26.1209,"longitude":85.3647,"temp":23.6,"humidity":82,"rain":0.0,"pressure":1000.8,"uv_index":8.7,"wind_gusts":39.6,"aqi":111,"pm10":38.9,"pm2_5":33.1,"no2":11.5,"co":428.0,"o3":97.0,"so2":8.7,"mosquito_risk":3,"arthritis_risk":5,"migraine_risk":4,"frizz_risk":1,"updated_at":"2026-05-04T02:19:32.672058+05:30"},{"city":"Bhagalpur","state":"Bihar","latitude":25.2425,"longitude":87.0117,"temp":22.9,"humidity":92,"rain":0.0,"pressure":1002.0,"uv_index":8.7,"wind_gusts":31.7,"aqi":131,"pm10":51.5,"pm2_5":42.0,"no2":11.2,"co":357.0,"o3":87.0,"so2":5.3,"mosquito_risk":3,"arthritis_risk":5,"migraine_risk":4,"frizz_risk":1,"updated_at":"2026-05-04T02:19:32.672064+05:30"},{"city":"Ranchi","state":"Jharkhand","latitude":23.3441,"longitude":85.3096,"temp":22.8,"humidity":96,"rain":0.0,"pressure":936.2,"uv_index":9.25,"wind_gusts":43.2,"aqi":82,"pm10":50.5,"pm2_5":42.0,"no2":10.5,"co":398.0,"o3":103.0,"so2":20.9,"mosquito_risk":3,"arthritis_risk":5,"migraine_risk":7,"frizz_risk":1,"updated_at":"2026-05-04T02:19:32.672071+05:30"},{"city":"Jamshedpur","state":"Jharkhand","latitude":22.8046,"longitude":86.2029,"temp":25.8,"humidity":88,"rain":0.0,"pressure":989.6,"uv_index":9.1,"wind_gusts":30.2,"aqi":112,"pm10":40.4,"pm2_5":32.2,"no2":12.4,"co":289.0,"o3":78.0,"so2":11.9,"mosquito_risk":7,"arthritis_risk":5,"migraine_risk":7,"frizz_risk":1,"updated_at":"2026-05-04T02:19:32.672079+05:30"},{"city":"Dhanbad","state":"Jharkhand","latitude":23.7957,"longitude":86.4304,"temp":25.0,"humidity":87,"rain":0.0,"pressure":979.2,"uv_index":9.0,"wind_gusts":34.9,"aqi":156,"pm10":78.7,"pm2_5":71.2,"no2":39.7,"co":726.0,"o3":67.0,"so2":53.5,"mosquito_risk":7,"arthritis_risk":5,"migraine_risk":7,"frizz_risk":1,"updated_at":"2026-05-04T02:19:32.672086+05:30"},{"city":"Bokaro","state":"Jharkhand","latitude":23.6693,"longitude":86.1511,"temp":25.4,"humidity":87,"rain":0.0,"pressure":983.0,"uv_index":9.05,"wind_gusts":38.5,"aqi":161,"pm10":88.2,"pm2_5":78.7,"no2":44.9,"co":726.0,"o3":59.0,"so2":71.5,"mosquito_risk":7,"arthritis_risk":5,"migraine_risk":7,"frizz_risk":1,"updated_at":"2026-05-04T02:19:32.672093+05:30"},{"city":"Bhubaneswar","state":"Odisha","latitude":20.2961,"longitude":85.8245,"temp":25.8,"humidity":95,"rain":0.0,"pressure":1001.4,"uv_index":9.1,"wind_gusts":36.0,"aqi":69,"pm10":19.0,"pm2_5":15.1,"no2":4.4,"co":183.0,"o3":69.0,"so2":2.7,"mosquito_risk":7,"arthritis_risk":5,"migraine_risk":4,"frizz_risk":1,"updated_at":"2026-05-04T02:19:32.672100+05:30"},{"city":"Cuttack","state":"Odisha","latitude":20.4625,"longitude":85.8828,"temp":25.8,"humidity":96,"rain":0.0,"pressure":1003.3,"uv_index":9.15,"wind_gusts":33.5,"aqi":69,"pm10":19.0,"pm2_5":15.1,"no2":4.4,"co":201.0,"o3":69.0,"so2":2.7,"mosquito_risk":7,"arthritis_risk":5,"migraine_risk":4,"frizz_risk":1,"updated_at":"2026-05-04T02:19:32.672106+05:30"},{"city":"Rourkela","state":"Odisha","latitude":22.2604,"longitude":84.8536,"temp":26.3,"humidity":80,"rain":0.0,"pressure":983.0,"uv_index":8.7,"wind_gusts":28.4,"aqi":112,"pm10":60.5,"pm2_5":44.9,"no2":25.4,"co":389.0,"o3":65.0,"so2":39.2,"mosquito_risk":7,"arthritis_risk":5,"migraine_risk":7,"frizz_risk":1,"updated_at":"2026-05-04T02:19:32.672113+05:30"},{"city":"Raipur","state":"Chhattisgarh","latitude":21.2514,"longitude":81.6296,"temp":29.5,"humidity":37,"rain":0.0,"pressure":970.8,"uv_index":9.0,"wind_gusts":57.2,"aqi":112,"pm10":89.9,"pm2_5":69.4,"no2":45.2,"co":503.0,"o3":27.0,"so2":9.6,"mosquito_risk":4,"arthritis_risk":5,"migraine_risk":7,"frizz_risk":0,"updated_at":"2026-05-04T02:19:32.672119+05:30"},{"city":"Bhilai","state":"Chhattisgarh","latitude":21.1938,"longitude":81.3509,"temp":28.1,"humidity":43,"rain":0.0,"pressure":971.1,"uv_index":9.0,"wind_gusts":59.8,"aqi":99,"pm10":96.2,"pm2_5":64.7,"no2":51.9,"co":565.0,"o3":24.0,"so2":10.5,"mosquito_risk":4,"arthritis_risk":5,"migraine_risk":7,"frizz_risk":0,"updated_at":"2026-05-04T02:19:32.672125+05:30"},{"city":"Guwahati","state":"Assam","latitude":26.1158,"longitude":91.7086,"temp":20.2,"humidity":94,"rain":0.0,"pressure":1003.5,"uv_index":8.35,"wind_gusts":28.8,"aqi":54,"pm10":20.2,"pm2_5":18.0,"no2":11.7,"co":368.0,"o3":55.0,"so2":2.0,"mosquito_risk":3,"arthritis_risk":5,"migraine_risk":4,"frizz_risk":1,"updated_at":"2026-05-04T02:19:32.672131+05:30"},{"city":"Agartala","state":"Tripura","latitude":23.8315,"longitude":91.2868,"temp":22.7,"humidity":92,"rain":0.0,"pressure":1007.3,"uv_index":8.85,"wind_gusts":31.3,"aqi":54,"pm10":9.7,"pm2_5":7.5,"no2":6.9,"co":193.0,"o3":71.0,"so2":1.2,"mosquito_risk":3,"arthritis_risk":5,"migraine_risk":4,"frizz_risk":1,"updated_at":"2026-05-04T02:19:32.672137+05:30"},{"city":"Shillong","state":"Meghalaya","latitude":25.5788,"longitude":91.8933,"temp":13.3,"humidity":97,"rain":0.0,"pressure":855.6,"uv_index":8.5,"wind_gusts":31.0,"aqi":39,"pm10":14.4,"pm2_5":12.3,"no2":8.7,"co":295.0,"o3":65.0,"so2":0.7,"mosquito_risk":3,"arthritis_risk":10,"migraine_risk":7,"frizz_risk":0,"updated_at":"2026-05-04T02:19:32.672143+05:30"},{"city":"Imphal","state":"Manipur","latitude":24.817,"longitude":93.9368,"temp":16.8,"humidity":98,"rain":0.0,"pressure":924.0,"uv_index":8.0,"wind_gusts":25.2,"aqi":67,"pm10":38.6,"pm2_5":30.9,"no2":20.6,"co":363.0,"o3":36.0,"so2":2.3,"mosquito_risk":3,"arthritis_risk":10,"migraine_risk":7,"frizz_risk":1,"updated_at":"2026-05-04T02:19:32.672150+05:30"},{"city":"Aizawl","state":"Mizoram","latitude":23.7271,"longitude":92.7176,"temp":13.7,"humidity":100,"rain":0.0,"pressure":891.0,"uv_index":8.85,"wind_gusts":36.7,"aqi":43,"pm10":20.3,"pm2_5":16.2,"no2":10.8,"co":342.0,"o3":23.0,"so2":0.6,"mosquito_risk":3,"arthritis_risk":10,"migraine_risk":7,"frizz_risk":0,"updated_at":"2026-05-04T02:19:32.672156+05:30"},{"city":"Kohima","state":"Nagaland","latitude":25.6701,"longitude":94.1077,"temp":13.1,"humidity":93,"rain":0.0,"pressure":853.9,"uv_index":8.6,"wind_gusts":29.2,"aqi":30,"pm10":15.4,"pm2_5":10.3,"no2":8.0,"co":218.0,"o3":45.0,"so2":0.3,"mosquito_risk":3,"arthritis_risk":10,"migraine_risk":7,"frizz_risk":0,"updated_at":"2026-05-04T02:19:32.672163+05:30"},{"city":"Gangtok","state":"Sikkim","latitude":27.3314,"longitude":88.6138,"temp":12.4,"humidity":97,"rain":0.1,"pressure":836.6,"uv_index":8.9,"wind_gusts":41.8,"aqi":60,"pm10":15.8,"pm2_5":14.5,"no2":11.7,"co":396.0,"o3":98.0,"so2":1.9,"mosquito_risk":6,"arthritis_risk":10,"migraine_risk":7,"frizz_risk":0,"updated_at":"2026-05-04T02:19:32.672169+05:30"},{"city":"Siliguri","state":"West Bengal","latitude":26.7271,"longitude":88.3953,"temp":21.1,"humidity":79,"rain":0.0,"pressure":994.8,"uv_index":8.35,"wind_gusts":31.7,"aqi":57,"pm10":25.4,"pm2_5":23.2,"no2":11.3,"co":360.0,"o3":107.0,"so2":4.2,"mosquito_risk":3,"arthritis_risk":5,"migraine_risk":7,"frizz_risk":1,"updated_at":"2026-05-04T02:19:35.986987+05:30"},{"city":"Durgapur","state":"West Bengal","latitude":23.5204,"longitude":87.3119,"temp":24.5,"humidity":96,"rain":0.0,"pressure":994.7,"uv_index":8.95,"wind_gusts":36.4,"aqi":146,"pm10":62.9,"pm2_5":58.1,"no2":25.5,"co":452.0,"o3":68.0,"so2":24.5,"mosquito_risk":3,"arthritis_risk":5,"migraine_risk":7,"frizz_risk":1,"updated_at":"2026-05-04T02:19:35.987021+05:30"},{"city":"Asansol","state":"West Bengal","latitude":23.6739,"longitude":86.9524,"temp":25.0,"humidity":89,"rain":0.0,"pressure":993.1,"uv_index":9.0,"wind_gusts":38.2,"aqi":152,"pm10":68.7,"pm2_5":62.9,"no2":26.9,"co":428.0,"o3":75.0,"so2":34.7,"mosquito_risk":7,"arthritis_risk":5,"migraine_risk":7,"frizz_risk":1,"updated_at":"2026-05-04T02:19:35.987033+05:30"},{"city":"Pondicherry","state":"Puducherry","latitude":11.9139,"longitude":79.8145,"temp":28.0,"humidity":85,"rain":0.0,"pressure":1005.5,"uv_index":9.2,"wind_gusts":46.4,"aqi":76,"pm10":15.8,"pm2_5":12.7,"no2":7.4,"co":211.0,"o3":79.0,"so2":6.1,"mosquito_risk":7,"arthritis_risk":5,"migraine_risk":4,"frizz_risk":1,"updated_at":"2026-05-04T02:19:35.987042+05:30"},{"city":"Port Blair","state":"Andaman and Nicobar Islands","latitude":11.6234,"longitude":92.7265,"temp":26.6,"humidity":88,"rain":0.0,"pressure":1006.6,"uv_index":9.1,"wind_gusts":33.1,"aqi":25,"pm10":5.1,"pm2_5":3.6,"no2":0.6,"co":242.0,"o3":53.0,"so2":0.3,"mosquito_risk":7,"arthritis_risk":5,"migraine_risk":4,"frizz_risk":1,"updated_at":"2026-05-04T02:19:35.987050+05:30"},{"city":"Haridwar","state":"Uttarakhand","latitude":29.9457,"longitude":78.1642,"temp":20.8,"humidity":85,"rain":0.0,"pressure":971.3,"uv_index":6.65,"wind_gusts":45.7,"aqi":128,"pm10":107.1,"pm2_5":40.7,"no2":12.1,"co":339.0,"o3":88.0,"so2":7.9,"mosquito_risk":3,"arthritis_risk":5,"migraine_risk":7,"frizz_risk":1,"updated_at":"2026-05-04T02:19:35.987059+05:30"},{"city":"Rishikesh","state":"Uttarakhand","latitude":30.0869,"longitude":78.2676,"temp":18.6,"humidity":91,"rain":0.0,"pressure":963.7,"uv_index":6.3,"wind_gusts":49.7,"aqi":117,"pm10":125.3,"pm2_5":38.3,"no2":11.0,"co":413.0,"o3":89.0,"so2":5.1,"mosquito_risk":3,"arthritis_risk":10,"migraine_risk":7,"frizz_risk":1,"updated_at":"2026-05-04T02:19:35.987066+05:30"},{"city":"Nainital","state":"Uttarakhand","latitude":29.3919,"longitude":79.4542,"temp":11.7,"humidity":90,"rain":0.0,"pressure":802.3,"uv_index":5.4,"wind_gusts":35.6,"aqi":109,"pm10":88.7,"pm2_5":38.8,"no2":7.6,"co":295.0,"o3":102.0,"so2":3.1,"mosquito_risk":3,"arthritis_risk":10,"migraine_risk":3,"frizz_risk":0,"updated_at":"2026-05-04T02:19:35.987074+05:30"},{"city":"Mussoorie","state":"Uttarakhand","latitude":30.4599,"longitude":78.0664,"temp":11.1,"humidity":81,"rain":0.0,"pressure":798.6,"uv_index":5.95,"wind_gusts":47.9,"aqi":110,"pm10":114.8,"pm2_5":42.7,"no2":21.9,"co":312.0,"o3":66.0,"so2":8.7,"mosquito_risk":3,"arthritis_risk":10,"migraine_risk":3,"frizz_risk":0,"updated_at":"2026-05-04T02:19:35.987081+05:30"},{"city":"Dharamshala","state":"Himachal Pradesh","latitude":32.219,"longitude":76.3234,"temp":20.2,"humidity":35,"rain":0.0,"pressure":866.1,"uv_index":6.7,"wind_gusts":54.4,"aqi":62,"pm10":32.1,"pm2_5":18.2,"no2":8.3,"co":185.0,"o3":91.0,"so2":0.7,"mosquito_risk":0,"arthritis_risk":5,"migraine_risk":7,"frizz_risk":0,"updated_at":"2026-05-04T02:19:35.987089+05:30"},{"city":"Dalhousie","state":"Himachal Pradesh","latitude":32.5387,"longitude":75.971,"temp":9.1,"humidity":80,"rain":0.0,"pressure":798.5,"uv_index":5.4,"wind_gusts":50.8,"aqi":61,"pm10":44.9,"pm2_5":27.0,"no2":24.9,"co":233.0,"o3":59.0,"so2":2.5,"mosquito_risk":3,"arthritis_risk":5,"migraine_risk":3,"frizz_risk":0,"updated_at":"2026-05-04T02:19:35.987097+05:30"},{"city":"Patiala","state":"Punjab","latitude":30.3398,"longitude":76.3869,"temp":24.5,"humidity":68,"rain":0.0,"pressure":975.9,"uv_index":7.35,"wind_gusts":70.6,"aqi":811,"pm10":204.0,"pm2_5":52.0,"no2":7.8,"co":396.0,"o3":105.0,"so2":9.1,"mosquito_risk":3,"arthritis_risk":5,"migraine_risk":7,"frizz_risk":1,"updated_at":"2026-05-04T02:19:35.987104+05:30"},{"city":"Bhatinda","state":"Punjab","latitude":30.211,"longitude":74.9455,"temp":25.9,"humidity":60,"rain":0.0,"pressure":979.8,"uv_index":8.0,"wind_gusts":55.1,"aqi":455,"pm10":307.3,"pm2_5":66.1,"no2":4.8,"co":398.0,"o3":128.0,"so2":9.2,"mosquito_risk":4,"arthritis_risk":5,"migraine_risk":7,"frizz_risk":1,"updated_at":"2026-05-04T02:19:35.987112+05:30"},{"city":"Rohtak","state":"Haryana","latitude":28.8955,"longitude":76.6066,"temp":26.8,"humidity":59,"rain":0.0,"pressure":978.0,"uv_index":7.5,"wind_gusts":63.4,"aqi":774,"pm10":1143.7,"pm2_5":146.7,"no2":10.8,"co":380.0,"o3":133.0,"so2":22.6,"mosquito_risk":4,"arthritis_risk":5,"migraine_risk":7,"frizz_risk":1,"updated_at":"2026-05-04T02:19:35.987119+05:30"},{"city":"Panipat","state":"Haryana","latitude":29.3909,"longitude":76.9635,"temp":25.1,"humidity":69,"rain":0.0,"pressure":977.0,"uv_index":7.35,"wind_gusts":63.0,"aqi":1431,"pm10":1713.6,"pm2_5":187.2,"no2":7.9,"co":365.0,"o3":132.0,"so2":18.4,"mosquito_risk":7,"arthritis_risk":5,"migraine_risk":7,"frizz_risk":1,"updated_at":"2026-05-04T02:19:35.987126+05:30"},{"city":"Mathura","state":"Uttar Pradesh","latitude":27.4924,"longitude":77.6737,"temp":26.5,"humidity":63,"rain":0.0,"pressure":983.0,"uv_index":7.8,"wind_gusts":57.6,"aqi":987,"pm10":1687.6,"pm2_5":200.2,"no2":5.9,"co":296.0,"o3":121.0,"so2":14.4,"mosquito_risk":7,"arthritis_risk":5,"migraine_risk":7,"frizz_risk":1,"updated_at":"2026-05-04T02:19:35.987133+05:30"},{"city":"Vrindavan","state":"Uttar Pradesh","latitude":27.5823,"longitude":77.7027,"temp":26.5,"humidity":63,"rain":0.0,"pressure":983.4,"uv_index":7.75,"wind_gusts":57.2,"aqi":987,"pm10":1687.6,"pm2_5":200.2,"no2":5.9,"co":281.0,"o3":121.0,"so2":14.4,"mosquito_risk":7,"arthritis_risk":5,"migraine_risk":7,"frizz_risk":1,"updated_at":"2026-05-04T02:19:35.987140+05:30"},{"city":"Ayodhya","state":"Uttar Pradesh","latitude":26.7922,"longitude":82.1998,"temp":23.9,"humidity":81,"rain":0.0,"pressure":994.9,"uv_index":8.2,"wind_gusts":49.3,"aqi":100,"pm10":41.1,"pm2_5":34.0,"no2":7.9,"co":385.0,"o3":118.0,"so2":6.7,"mosquito_risk":3,"arthritis_risk":5,"migraine_risk":7,"frizz_risk":1,"updated_at":"2026-05-04T02:19:35.987147+05:30"},{"city":"Ratlam","state":"Madhya Pradesh","latitude":23.3315,"longitude":75.0367,"temp":25.8,"humidity":67,"rain":0.0,"pressure":950.9,"uv_index":8.5,"wind_gusts":37.8,"aqi":60,"pm10":16.1,"pm2_5":10.1,"no2":3.7,"co":174.0,"o3":80.0,"so2":9.8,"mosquito_risk":7,"arthritis_risk":5,"migraine_risk":7,"frizz_risk":1,"updated_at":"2026-05-04T02:19:35.987154+05:30"},{"city":"Sagar","state":"Madhya Pradesh","latitude":23.8388,"longitude":78.7378,"temp":26.1,"humidity":45,"rain":0.0,"pressure":945.6,"uv_index":8.65,"wind_gusts":43.2,"aqi":70,"pm10":82.7,"pm2_5":27.6,"no2":7.8,"co":277.0,"o3":73.0,"so2":3.0,"mosquito_risk":4,"arthritis_risk":5,"migraine_risk":7,"frizz_risk":0,"updated_at":"2026-05-04T02:19:35.987161+05:30"},{"city":"Satna","state":"Madhya Pradesh","latitude":24.6005,"longitude":80.8322,"temp":26.1,"humidity":66,"rain":0.0,"pressure":968.5,"uv_index":8.25,"wind_gusts":67.0,"aqi":71,"pm10":48.1,"pm2_5":39.3,"no2":7.6,"co":377.0,"o3":136.0,"so2":14.8,"mosquito_risk":7,"arthritis_risk":5,"migraine_risk":7,"frizz_risk":1,"updated_at":"2026-05-04T02:19:35.987168+05:30"},{"city":"Akola","state":"Maharashtra","latitude":20.7002,"longitude":77.0082,"temp":29.2,"humidity":24,"rain":0.0,"pressure":971.7,"uv_index":8.85,"wind_gusts":33.1,"aqi":56,"pm10":14.0,"pm2_5":7.5,"no2":5.4,"co":178.0,"o3":86.0,"so2":11.8,"mosquito_risk":4,"arthritis_risk":5,"migraine_risk":7,"frizz_risk":0,"updated_at":"2026-05-04T02:19:35.987176+05:30"},{"city":"Amravati","state":"Maharashtra","latitude":20.9374,"longitude":77.7796,"temp":29.4,"humidity":18,"rain":0.0,"pressure":963.5,"uv_index":8.9,"wind_gusts":32.4,"aqi":58,"pm10":11.8,"pm2_5":7.3,"no2":5.8,"co":202.0,"o3":88.0,"so2":11.5,"mosquito_risk":4,"arthritis_risk":5,"migraine_risk":7,"frizz_risk":0,"updated_at":"2026-05-04T02:19:35.987184+05:30"},{"city":"Latur","state":"Maharashtra","latitude":18.4088,"longitude":76.5604,"temp":28.1,"humidity":29,"rain":0.0,"pressure":936.8,"uv_index":9.1,"wind_gusts":45.0,"aqi":63,"pm10":30.6,"pm2_5":13.4,"no2":6.0,"co":210.0,"o3":83.0,"so2":4.4,"mosquito_risk":4,"arthritis_risk":5,"migraine_risk":7,"frizz_risk":0,"updated_at":"2026-05-04T02:19:35.987191+05:30"},{"city":"Nanded","state":"Maharashtra","latitude":19.1383,"longitude":77.3091,"temp":30.5,"humidity":24,"rain":0.0,"pressure":965.2,"uv_index":9.0,"wind_gusts":28.8,"aqi":62,"pm10":21.9,"pm2_5":13.7,"no2":7.8,"co":186.0,"o3":74.0,"so2":4.1,"mosquito_risk":0,"arthritis_risk":5,"migraine_risk":7,"frizz_risk":0,"updated_at":"2026-05-04T02:19:35.987198+05:30"},{"city":"Gulbarga","state":"Karnataka","latitude":17.3297,"longitude":76.8343,"temp":30.0,"humidity":29,"rain":0.0,"pressure":955.8,"uv_index":9.1,"wind_gusts":40.7,"aqi":60,"pm10":21.0,"pm2_5":12.1,"no2":7.0,"co":222.0,"o3":75.0,"so2":3.7,"mosquito_risk":4,"arthritis_risk":5,"migraine_risk":7,"frizz_risk":0,"updated_at":"2026-05-04T02:19:35.987204+05:30"},{"city":"Bidar","state":"Karnataka","latitude":17.9104,"longitude":77.5199,"temp":26.4,"humidity":35,"rain":0.0,"pressure":932.1,"uv_index":9.15,"wind_gusts":33.5,"aqi":69,"pm10":49.0,"pm2_5":26.3,"no2":21.3,"co":357.0,"o3":55.0,"so2":5.5,"mosquito_risk":4,"arthritis_risk":5,"migraine_risk":7,"frizz_risk":0,"updated_at":"2026-05-04T02:19:35.987211+05:30"},{"city":"Hospet","state":"Karnataka","latitude":15.2689,"longitude":76.3909,"temp":25.0,"humidity":84,"rain":0.0,"pressure":954.2,"uv_index":9.2,"wind_gusts":36.0,"aqi":62,"pm10":21.9,"pm2_5":11.8,"no2":4.9,"co":184.0,"o3":57.0,"so2":1.6,"mosquito_risk":7,"arthritis_risk":5,"migraine_risk":7,"frizz_risk":1,"updated_at":"2026-05-04T02:19:35.987218+05:30"},{"city":"Tirupur","state":"Tamil Nadu","latitude":11.1085,"longitude":77.3411,"temp":25.9,"humidity":84,"rain":0.0,"pressure":973.2,"uv_index":9.4,"wind_gusts":47.5,"aqi":70,"pm10":37.7,"pm2_5":24.7,"no2":18.0,"co":183.0,"o3":48.0,"so2":5.9,"mosquito_risk":7,"arthritis_risk":5,"migraine_risk":7,"frizz_risk":1,"updated_at":"2026-05-04T02:19:35.987224+05:30"},{"city":"Alappuzha","state":"Kerala","latitude":9.4981,"longitude":76.3388,"temp":27.0,"humidity":91,"rain":0.0,"pressure":1007.7,"uv_index":8.7,"wind_gusts":34.9,"aqi":82,"pm10":55.6,"pm2_5":31.8,"no2":18.3,"co":125.0,"o3":50.0,"so2":3.2,"mosquito_risk":7,"arthritis_risk":5,"migraine_risk":4,"frizz_risk":1,"updated_at":"2026-05-04T02:19:35.987230+05:30"},{"city":"Munnar","state":"Kerala","latitude":10.0889,"longitude":77.0595,"temp":17.0,"humidity":89,"rain":0.0,"pressure":855.1,"uv_index":8.65,"wind_gusts":28.1,"aqi":68,"pm10":30.0,"pm2_5":26.4,"no2":11.1,"co":229.0,"o3":38.0,"so2":0.9,"mosquito_risk":3,"arthritis_risk":10,"migraine_risk":7,"frizz_risk":0,"updated_at":"2026-05-04T02:19:35.987237+05:30"},{"city":"Silchar","state":"Assam","latitude":24.8333,"longitude":92.7789,"temp":21.4,"humidity":98,"rain":0.0,"pressure":1006.8,"uv_index":8.6,"wind_gusts":26.6,"aqi":60,"pm10":37.5,"pm2_5":26.3,"no2":12.1,"co":421.0,"o3":64.0,"so2":4.3,"mosquito_risk":3,"arthritis_risk":5,"migraine_risk":4,"frizz_risk":1,"updated_at":"2026-05-04T02:19:35.987244+05:30"},{"city":"Dibrugarh","state":"Assam","latitude":27.4728,"longitude":94.912,"temp":20.2,"humidity":96,"rain":0.0,"pressure":997.9,"uv_index":8.8,"wind_gusts":20.5,"aqi":60,"pm10":21.9,"pm2_5":21.5,"no2":26.5,"co":544.0,"o3":2.0,"so2":0.9,"mosquito_risk":3,"arthritis_risk":5,"migraine_risk":7,"frizz_risk":1,"updated_at":"2026-05-04T02:19:35.987250+05:30"}]