[{"city":"Delhi","state":"Delhi","latitude":28.6139,"longitude":77.209,"temp":41.1,"humidity":14,"rain":0.0,"pressure":977.1,"uv_index":7.75,"wind_gusts":38.5,"aqi":628,"pm10":836.3,"pm2_5":121.5,"no2":13.2,"co":325.0,"o3":148.0,"so2":10.4,"mosquito_risk":0,"arthritis_risk":5,"migraine_risk":10,"frizz_risk":0,"updated_at":"2026-05-27T18:27:33.812574+05:30"},{"city":"Mumbai","state":"Maharashtra","latitude":19.076,"longitude":72.8777,"temp":32.2,"humidity":61,"rain":0.0,"pressure":1007.9,"uv_index":7.8,"wind_gusts":40.3,"aqi":38,"pm10":21.3,"pm2_5":11.5,"no2":6.6,"co":199.0,"o3":58.0,"so2":4.2,"mosquito_risk":3,"arthritis_risk":5,"migraine_risk":4,"frizz_risk":1,"updated_at":"2026-05-27T18:27:33.812630+05:30"},{"city":"Bangalore","state":"Karnataka","latitude":12.9716,"longitude":77.5946,"temp":28.2,"humidity":62,"rain":0.0,"pressure":912.2,"uv_index":9.2,"wind_gusts":29.9,"aqi":88,"pm10":24.6,"pm2_5":17.2,"no2":9.1,"co":691.0,"o3":124.0,"so2":4.0,"mosquito_risk":7,"arthritis_risk":5,"migraine_risk":7,"frizz_risk":1,"updated_at":"2026-05-27T18:27:33.812644+05:30"},{"city":"Hyderabad","state":"Telangana","latitude":17.385,"longitude":78.4867,"temp":33.7,"humidity":51,"rain":0.0,"pressure":951.3,"uv_index":8.7,"wind_gusts":36.0,"aqi":98,"pm10":33.1,"pm2_5":21.1,"no2":7.0,"co":344.0,"o3":143.0,"so2":6.5,"mosquito_risk":0,"arthritis_risk":5,"migraine_risk":7,"frizz_risk":1,"updated_at":"2026-05-27T18:27:33.812654+05:30"},{"city":"Chennai","state":"Tamil Nadu","latitude":13.0827,"longitude":80.2707,"temp":31.8,"humidity":66,"rain":0.0,"pressure":1005.2,"uv_index":9.0,"wind_gusts":36.0,"aqi":146,"pm10":37.6,"pm2_5":30.5,"no2":7.1,"co":290.0,"o3":178.0,"so2":7.9,"mosquito_risk":3,"arthritis_risk":5,"migraine_risk":4,"frizz_risk":1,"updated_at":"2026-05-27T18:27:33.812663+05:30"},{"city":"Kolkata","state":"West Bengal","latitude":22.5726,"longitude":88.3639,"temp":26.8,"humidity":95,"rain":0.8,"pressure":1003.0,"uv_index":8.9,"wind_gusts":41.0,"aqi":116,"pm10":54.6,"pm2_5":39.1,"no2":8.2,"co":354.0,"o3":101.0,"so2":8.5,"mosquito_risk":10,"arthritis_risk":5,"migraine_risk":4,"frizz_risk":1,"updated_at":"2026-05-27T18:27:33.812672+05:30"},{"city":"Pune","state":"Maharashtra","latitude":18.5204,"longitude":73.8567,"temp":32.1,"humidity":48,"rain":0.0,"pressure":948.1,"uv_index":8.2,"wind_gusts":43.9,"aqi":56,"pm10":18.0,"pm2_5":14.1,"no2":3.8,"co":206.0,"o3":133.0,"so2":9.6,"mosquito_risk":0,"arthritis_risk":5,"migraine_risk":7,"frizz_risk":1,"updated_at":"2026-05-27T18:27:33.812679+05:30"},{"city":"Ahmedabad","state":"Gujarat","latitude":23.0225,"longitude":72.5714,"temp":42.0,"humidity":19,"rain":0.0,"pressure":997.9,"uv_index":8.15,"wind_gusts":36.0,"aqi":69,"pm10":74.7,"pm2_5":22.8,"no2":2.6,"co":167.0,"o3":100.0,"so2":2.5,"mosquito_risk":0,"arthritis_risk":5,"migraine_risk":10,"frizz_risk":0,"updated_at":"2026-05-27T18:27:33.812686+05:30"},{"city":"Jaipur","state":"Rajasthan","latitude":26.9124,"longitude":75.7873,"temp":41.3,"humidity":14,"rain":0.0,"pressure":956.0,"uv_index":8.25,"wind_gusts":47.2,"aqi":172,"pm10":146.7,"pm2_5":34.0,"no2":1.9,"co":165.0,"o3":110.0,"so2":2.8,"mosquito_risk":0,"arthritis_risk":5,"migraine_risk":10,"frizz_risk":0,"updated_at":"2026-05-27T18:27:33.812697+05:30"},{"city":"Lucknow","state":"Uttar Pradesh","latitude":26.8467,"longitude":80.9462,"temp":38.7,"humidity":30,"rain":0.0,"pressure":987.3,"uv_index":8.2,"wind_gusts":36.0,"aqi":192,"pm10":207.7,"pm2_5":53.2,"no2":5.0,"co":214.0,"o3":179.0,"so2":8.6,"mosquito_risk":0,"arthritis_risk":5,"migraine_risk":10,"frizz_risk":1,"updated_at":"2026-05-27T18:27:33.812704+05:30"},{"city":"Kanpur","state":"Uttar Pradesh","latitude":26.4499,"longitude":80.3319,"temp":39.9,"humidity":17,"rain":0.0,"pressure":985.5,"uv_index":8.2,"wind_gusts":40.3,"aqi":285,"pm10":689.2,"pm2_5":101.5,"no2":3.8,"co":204.0,"o3":170.0,"so2":7.6,"mosquito_risk":0,"arthritis_risk":5,"migraine_risk":10,"frizz_risk":0,"updated_at":"2026-05-27T18:27:33.812712+05:30"},{"city":"Chandigarh","state":"Chandigarh","latitude":30.7333,"longitude":76.7794,"temp":38.3,"humidity":16,"rain":0.0,"pressure":963.0,"uv_index":7.75,"wind_gusts":37.8,"aqi":177,"pm10":21.5,"pm2_5":13.1,"no2":4.0,"co":314.0,"o3":162.0,"so2":5.8,"mosquito_risk":0,"arthritis_risk":5,"migraine_risk":10,"frizz_risk":0,"updated_at":"2026-05-27T18:27:33.812720+05:30"},{"city":"Srinagar","state":"Jammu and Kashmir","latitude":34.0837,"longitude":74.7973,"temp":25.9,"humidity":36,"rain":0.0,"pressure":842.4,"uv_index":9.0,"wind_gusts":20.9,"aqi":120,"pm10":34.5,"pm2_5":12.9,"no2":2.9,"co":363.0,"o3":137.0,"so2":2.3,"mosquito_risk":4,"arthritis_risk":5,"migraine_risk":7,"frizz_risk":0,"updated_at":"2026-05-27T18:27:33.812727+05:30"},{"city":"Jammu","state":"Jammu and Kashmir","latitude":32.7266,"longitude":74.857,"temp":38.8,"humidity":16,"rain":0.0,"pressure":966.4,"uv_index":8.6,"wind_gusts":58.0,"aqi":136,"pm10":43.3,"pm2_5":17.1,"no2":3.7,"co":192.0,"o3":146.0,"so2":3.3,"mosquito_risk":0,"arthritis_risk":5,"migraine_risk":10,"frizz_risk":0,"updated_at":"2026-05-27T18:27:33.812733+05:30"},{"city":"Amritsar","state":"Punjab","latitude":31.634,"longitude":74.8723,"temp":39.7,"humidity":18,"rain":0.0,"pressure":974.1,"uv_index":8.45,"wind_gusts":31.3,"aqi":160,"pm10":35.0,"pm2_5":17.1,"no2":5.0,"co":210.0,"o3":166.0,"so2":7.4,"mosquito_risk":0,"arthritis_risk":5,"migraine_risk":10,"frizz_risk":0,"updated_at":"2026-05-27T18:27:33.812739+05:30"},{"city":"Ludhiana","state":"Punjab","latitude":30.901,"longitude":75.8573,"temp":40.3,"humidity":15,"rain":0.0,"pressure":972.3,"uv_index":8.05,"wind_gusts":40.3,"aqi":154,"pm10":83.6,"pm2_5":22.3,"no2":2.8,"co":250.0,"o3":156.0,"so2":4.7,"mosquito_risk":0,"arthritis_risk":5,"migraine_risk":10,"frizz_risk":0,"updated_at":"2026-05-27T18:27:33.812744+05:30"},{"city":"Jalandhar","state":"Punjab","latitude":31.326,"longitude":75.5762,"temp":40.5,"humidity":15,"rain":0.0,"pressure":973.3,"uv_index":8.2,"wind_gusts":38.9,"aqi":164,"pm10":78.9,"pm2_5":22.2,"no2":3.9,"co":264.0,"o3":158.0,"so2":5.7,"mosquito_risk":0,"arthritis_risk":5,"migraine_risk":10,"frizz_risk":0,"updated_at":"2026-05-27T18:27:33.812751+05:30"},{"city":"Dehradun","state":"Uttarakhand","latitude":30.6284,"longitude":78.0322,"temp":22.4,"humidity":58,"rain":0.0,"pressure":829.4,"uv_index":8.2,"wind_gusts":33.5,"aqi":162,"pm10":25.8,"pm2_5":13.9,"no2":2.1,"co":217.0,"o3":173.0,"so2":4.8,"mosquito_risk":0,"arthritis_risk":5,"migraine_risk":7,"frizz_risk":0,"updated_at":"2026-05-27T18:27:33.812757+05:30"},{"city":"Shimla","state":"Himachal Pradesh","latitude":31.1048,"longitude":77.1734,"temp":23.0,"humidity":22,"rain":0.0,"pressure":786.3,"uv_index":8.3,"wind_gusts":64.1,"aqi":151,"pm10":30.3,"pm2_5":13.5,"no2":1.7,"co":199.0,"o3":153.0,"so2":2.4,"mosquito_risk":0,"arthritis_risk":5,"migraine_risk":7,"frizz_risk":0,"updated_at":"2026-05-27T18:27:33.812765+05:30"},{"city":"Manali","state":"Himachal Pradesh","latitude":32.2396,"longitude":77.1887,"temp":21.5,"humidity":49,"rain":0.0,"pressure":820.1,"uv_index":9.95,"wind_gusts":51.5,"aqi":152,"pm10":34.8,"pm2_5":20.8,"no2":15.1,"co":143.0,"o3":163.0,"so2":0.5,"mosquito_risk":0,"arthritis_risk":5,"migraine_risk":7,"frizz_risk":0,"updated_at":"2026-05-27T18:27:33.812771+05:30"},{"city":"Gurgaon","state":"Haryana","latitude":28.4595,"longitude":77.0266,"temp":39.7,"humidity":17,"rain":0.0,"pressure":975.6,"uv_index":7.85,"wind_gusts":39.2,"aqi":894,"pm10":1616.8,"pm2_5":210.5,"no2":13.4,"co":302.0,"o3":146.0,"so2":9.1,"mosquito_risk":0,"arthritis_risk":5,"migraine_risk":10,"frizz_risk":0,"updated_at":"2026-05-27T18:27:33.812780+05:30"},{"city":"Noida","state":"Uttar Pradesh","latitude":28.5355,"longitude":77.391,"temp":40.2,"humidity":16,"rain":0.0,"pressure":978.3,"uv_index":7.75,"wind_gusts":31.7,"aqi":894,"pm10":1616.8,"pm2_5":210.5,"no2":13.4,"co":376.0,"o3":146.0,"so2":9.1,"mosquito_risk":0,"arthritis_risk":5,"migraine_risk":10,"frizz_risk":0,"updated_at":"2026-05-27T18:27:33.812786+05:30"},{"city":"Ghaziabad","state":"Uttar Pradesh","latitude":28.6692,"longitude":77.4538,"temp":39.9,"humidity":17,"rain":0.0,"pressure":976.5,"uv_index":7.75,"wind_gusts":35.3,"aqi":390,"pm10":635.2,"pm2_5":99.7,"no2":9.6,"co":241.0,"o3":163.0,"so2":13.4,"mosquito_risk":0,"arthritis_risk":5,"migraine_risk":10,"frizz_risk":0,"updated_at":"2026-05-27T18:27:33.812793+05:30"},{"city":"Faridabad","state":"Haryana","latitude":28.4089,"longitude":77.3178,"temp":40.8,"humidity":15,"rain":0.0,"pressure":977.7,"uv_index":7.8,"wind_gusts":39.6,"aqi":894,"pm10":1616.8,"pm2_5":210.5,"no2":13.4,"co":288.0,"o3":146.0,"so2":9.1,"mosquito_risk":0,"arthritis_risk":5,"migraine_risk":10,"frizz_risk":0,"updated_at":"2026-05-27T18:27:33.812799+05:30"},{"city":"Meerut","state":"Uttar Pradesh","latitude":28.9845,"longitude":77.7064,"temp":38.8,"humidity":23,"rain":0.0,"pressure":975.1,"uv_index":7.65,"wind_gusts":36.7,"aqi":390,"pm10":635.2,"pm2_5":99.7,"no2":9.6,"co":222.0,"o3":163.0,"so2":13.4,"mosquito_risk":0,"arthritis_risk":5,"migraine_risk":10,"frizz_risk":0,"updated_at":"2026-05-27T18:27:33.812805+05:30"},{"city":"Agra","state":"Uttar Pradesh","latitude":27.1767,"longitude":78.0081,"temp":40.8,"humidity":15,"rain":0.0,"pressure":981.9,"uv_index":8.05,"wind_gusts":38.5,"aqi":632,"pm10":1084.1,"pm2_5":140.2,"no2":9.5,"co":211.0,"o3":139.0,"so2":5.3,"mosquito_risk":0,"arthritis_risk":5,"migraine_risk":10,"frizz_risk":0,"updated_at":"2026-05-27T18:27:33.812811+05:30"},{"city":"Varanasi","state":"Uttar Pradesh","latitude":25.3176,"longitude":82.9739,"temp":36.9,"humidity":41,"rain":0.0,"pressure":991.0,"uv_index":8.7,"wind_gusts":41.0,"aqi":203,"pm10":94.3,"pm2_5":41.8,"no2":6.2,"co":351.0,"o3":183.0,"so2":12.2,"mosquito_risk":0,"arthritis_risk":5,"migraine_risk":10,"frizz_risk":1,"updated_at":"2026-05-27T18:27:33.812818+05:30"},{"city":"Prayagraj","state":"Uttar Pradesh","latitude":25.4358,"longitude":81.8463,"temp":40.0,"humidity":24,"rain":0.0,"pressure":988.6,"uv_index":8.55,"wind_gusts":53.6,"aqi":176,"pm10":90.8,"pm2_5":37.4,"no2":4.3,"co":173.0,"o3":158.0,"so2":8.3,"mosquito_risk":0,"arthritis_risk":5,"migraine_risk":10,"frizz_risk":0,"updated_at":"2026-05-27T18:27:33.812825+05:30"},{"city":"Gorakhpur","state":"Uttar Pradesh","latitude":26.7606,"longitude":83.3732,"temp":31.9,"humidity":55,"rain":0.0,"pressure":992.8,"uv_index":8.55,"wind_gusts":42.1,"aqi":167,"pm10":73.3,"pm2_5":37.0,"no2":3.7,"co":352.0,"o3":184.0,"so2":10.9,"mosquito_risk":0,"arthritis_risk":5,"migraine_risk":7,"frizz_risk":1,"updated_at":"2026-05-27T18:27:33.812832+05:30"},{"city":"Bareilly","state":"Uttar Pradesh","latitude":28.367,"longitude":79.4304,"temp":35.2,"humidity":34,"rain":0.0,"pressure":980.8,"uv_index":8.0,"wind_gusts":31.7,"aqi":192,"pm10":35.9,"pm2_5":25.1,"no2":4.7,"co":281.0,"o3":189.0,"so2":8.5,"mosquito_risk":0,"arthritis_risk":5,"migraine_risk":10,"frizz_risk":1,"updated_at":"2026-05-27T18:27:33.812838+05:30"},{"city":"Aligarh","state":"Uttar Pradesh","latitude":27.8974,"longitude":78.088,"temp":38.5,"humidity":21,"rain":0.0,"pressure":979.5,"uv_index":7.9,"wind_gusts":38.9,"aqi":541,"pm10":987.2,"pm2_5":143.9,"no2":8.4,"co":240.0,"o3":173.0,"so2":10.4,"mosquito_risk":0,"arthritis_risk":5,"migraine_risk":10,"frizz_risk":0,"updated_at":"2026-05-27T18:27:33.812844+05:30"},{"city":"Moradabad","state":"Uttar Pradesh","latitude":28.8386,"longitude":78.7733,"temp":35.8,"humidity":33,"rain":0.0,"pressure":977.5,"uv_index":7.85,"wind_gusts":32.0,"aqi":202,"pm10":50.2,"pm2_5":32.0,"no2":10.0,"co":301.0,"o3":177.0,"so2":10.6,"mosquito_risk":0,"arthritis_risk":5,"migraine_risk":10,"frizz_risk":1,"updated_at":"2026-05-27T18:27:33.812849+05:30"},{"city":"Saharanpur","state":"Uttar Pradesh","latitude":29.9637,"longitude":77.546,"temp":37.7,"humidity":20,"rain":0.0,"pressure":969.3,"uv_index":7.5,"wind_gusts":34.9,"aqi":191,"pm10":167.2,"pm2_5":48.0,"no2":14.5,"co":275.0,"o3":161.0,"so2":11.7,"mosquito_risk":0,"arthritis_risk":5,"migraine_risk":10,"frizz_risk":0,"updated_at":"2026-05-27T18:27:33.812855+05:30"},{"city":"Jhansi","state":"Uttar Pradesh","latitude":25.4484,"longitude":78.5685,"temp":40.5,"humidity":19,"rain":0.0,"pressure":972.7,"uv_index":8.45,"wind_gusts":52.2,"aqi":70,"pm10":56.5,"pm2_5":22.8,"no2":2.0,"co":132.0,"o3":117.0,"so2":4.3,"mosquito_risk":0,"arthritis_risk":5,"migraine_risk":10,"frizz_risk":0,"updated_at":"2026-05-27T18:27:37.082438+05:30"},{"city":"Surat","state":"Gujarat","latitude":21.1702,"longitude":72.8311,"temp":31.9,"humidity":66,"rain":0.0,"pressure":1004.9,"uv_index":7.7,"wind_gusts":45.4,"aqi":73,"pm10":60.3,"pm2_5":27.0,"no2":17.2,"co":305.0,"o3":44.0,"so2":42.1,"mosquito_risk":3,"arthritis_risk":5,"migraine_risk":4,"frizz_risk":1,"updated_at":"2026-05-27T18:27:37.082470+05:30"},{"city":"Vadodara","state":"Gujarat","latitude":22.3072,"longitude":73.1812,"temp":38.2,"humidity":38,"rain":0.0,"pressure":1000.8,"uv_index":8.05,"wind_gusts":41.8,"aqi":70,"pm10":70.1,"pm2_5":26.7,"no2":3.3,"co":181.0,"o3":113.0,"so2":4.7,"mosquito_risk":0,"arthritis_risk":5,"migraine_risk":7,"frizz_risk":1,"updated_at":"2026-05-27T18:27:37.082480+05:30"},{"city":"Rajkot","state":"Gujarat","latitude":22.3039,"longitude":70.8022,"temp":36.9,"humidity":47,"rain":0.0,"pressure":991.0,"uv_index":7.75,"wind_gusts":46.4,"aqi":69,"pm10":57.2,"pm2_5":23.3,"no2":2.0,"co":124.0,"o3":106.0,"so2":5.4,"mosquito_risk":0,"arthritis_risk":5,"migraine_risk":10,"frizz_risk":1,"updated_at":"2026-05-27T18:27:37.082489+05:30"},{"city":"Thane","state":"Maharashtra","latitude":19.2183,"longitude":72.9781,"temp":32.5,"humidity":58,"rain":0.0,"pressure":1007.2,"uv_index":7.8,"wind_gusts":37.8,"aqi":38,"pm10":21.3,"pm2_5":11.5,"no2":6.6,"co":175.0,"o3":58.0,"so2":4.2,"mosquito_risk":0,"arthritis_risk":5,"migraine_risk":4,"frizz_risk":1,"updated_at":"2026-05-27T18:27:37.082497+05:30"},{"city":"Nagpur","state":"Maharashtra","latitude":21.1458,"longitude":79.0882,"temp":40.8,"humidity":15,"rain":0.0,"pressure":969.3,"uv_index":8.9,"wind_gusts":44.3,"aqi":94,"pm10":39.3,"pm2_5":18.1,"no2":5.7,"co":171.0,"o3":123.0,"so2":12.8,"mosquito_risk":0,"arthritis_risk":5,"migraine_risk":10,"frizz_risk":0,"updated_at":"2026-05-27T18:27:37.082505+05:30"},{"city":"Nashik","state":"Maharashtra","latitude":19.9975,"longitude":73.7898,"temp":31.6,"humidity":54,"rain":0.0,"pressure":945.3,"uv_index":8.1,"wind_gusts":40.3,"aqi":35,"pm10":27.1,"pm2_5":12.9,"no2":1.8,"co":141.0,"o3":78.0,"so2":0.9,"mosquito_risk":0,"arthritis_risk":5,"migraine_risk":7,"frizz_risk":1,"updated_at":"2026-05-27T18:27:37.082513+05:30"},{"city":"Aurangabad","state":"Maharashtra","latitude":19.8762,"longitude":75.3433,"temp":37.8,"humidity":22,"rain":0.0,"pressure":942.6,"uv_index":9.0,"wind_gusts":42.1,"aqi":46,"pm10":27.4,"pm2_5":12.5,"no2":1.5,"co":150.0,"o3":106.0,"so2":1.4,"mosquito_risk":0,"arthritis_risk":5,"migraine_risk":10,"frizz_risk":0,"updated_at":"2026-05-27T18:27:37.082521+05:30"},{"city":"Solapur","state":"Maharashtra","latitude":17.6599,"longitude":75.9064,"temp":36.0,"humidity":32,"rain":0.0,"pressure":955.7,"uv_index":7.65,"wind_gusts":37.4,"aqi":51,"pm10":13.3,"pm2_5":8.4,"no2":2.2,"co":158.0,"o3":116.0,"so2":2.5,"mosquito_risk":0,"arthritis_risk":5,"migraine_risk":10,"frizz_risk":1,"updated_at":"2026-05-27T18:27:37.082528+05:30"},{"city":"Kolhapur","state":"Maharashtra","latitude":16.705,"longitude":74.2433,"temp":29.6,"humidity":62,"rain":0.0,"pressure":947.9,"uv_index":8.3,"wind_gusts":44.3,"aqi":44,"pm10":11.2,"pm2_5":7.5,"no2":3.1,"co":153.0,"o3":92.0,"so2":1.8,"mosquito_risk":7,"arthritis_risk":5,"migraine_risk":7,"frizz_risk":1,"updated_at":"2026-05-27T18:27:37.082536+05:30"},{"city":"Goa","state":"Goa","latitude":15.2993,"longitude":74.124,"temp":28.6,"humidity":89,"rain":0.1,"pressure":998.2,"uv_index":7.1,"wind_gusts":27.0,"aqi":39,"pm10":9.4,"pm2_5":6.5,"no2":1.5,"co":135.0,"o3":59.0,"so2":1.0,"mosquito_risk":10,"arthritis_risk":5,"migraine_risk":7,"frizz_risk":1,"updated_at":"2026-05-27T18:27:37.082544+05:30"},{"city":"Jodhpur","state":"Rajasthan","latitude":26.2389,"longitude":73.0243,"temp":41.0,"humidity":20,"rain":0.0,"pressure":978.8,"uv_index":8.45,"wind_gusts":42.8,"aqi":153,"pm10":312.0,"pm2_5":50.3,"no2":1.4,"co":134.0,"o3":105.0,"so2":1.6,"mosquito_risk":0,"arthritis_risk":5,"migraine_risk":10,"frizz_risk":0,"updated_at":"2026-05-27T18:27:37.082551+05:30"},{"city":"Udaipur","state":"Rajasthan","latitude":24.5854,"longitude":73.7125,"temp":37.7,"humidity":21,"rain":0.0,"pressure":944.9,"uv_index":8.85,"wind_gusts":39.6,"aqi":66,"pm10":75.7,"pm2_5":21.3,"no2":0.9,"co":133.0,"o3":105.0,"so2":2.2,"mosquito_risk":0,"arthritis_risk":5,"migraine_risk":10,"frizz_risk":0,"updated_at":"2026-05-27T18:27:37.082558+05:30"},{"city":"Kota","state":"Rajasthan","latitude":25.2138,"longitude":75.8648,"temp":41.8,"humidity":16,"rain":0.0,"pressure":974.5,"uv_index":8.4,"wind_gusts":41.8,"aqi":73,"pm10":67.5,"pm2_5":19.8,"no2":1.6,"co":137.0,"o3":113.0,"so2":3.6,"mosquito_risk":0,"arthritis_risk":5,"migraine_risk":10,"frizz_risk":0,"updated_at":"2026-05-27T18:27:37.082566+05:30"},{"city":"Bikaner","state":"Rajasthan","latitude":28.0229,"longitude":73.3119,"temp":44.4,"humidity":10,"rain":0.0,"pressure":975.7,"uv_index":8.4,"wind_gusts":43.9,"aqi":126,"pm10":104.1,"pm2_5":36.3,"no2":0.5,"co":145.0,"o3":109.0,"so2":2.3,"mosquito_risk":0,"arthritis_risk":5,"migraine_risk":10,"frizz_risk":0,"updated_at":"2026-05-27T18:27:37.082574+05:30"},{"city":"Ajmer","state":"Rajasthan","latitude":26.4499,"longitude":74.6399,"temp":38.7,"humidity":21,"rain":0.0,"pressure":951.9,"uv_index":8.4,"wind_gusts":56.2,"aqi":68,"pm10":85.2,"pm2_5":22.1,"no2":1.2,"co":141.0,"o3":107.0,"so2":2.3,"mosquito_risk":0,"arthritis_risk":5,"migraine_risk":10,"frizz_risk":0,"updated_at":"2026-05-27T18:27:37.082580+05:30"},{"city":"Gwalior","state":"Madhya Pradesh","latitude":26.2183,"longitude":78.1828,"temp":41.3,"humidity":14,"rain":0.0,"pressure":977.7,"uv_index":8.25,"wind_gusts":53.6,"aqi":100,"pm10":68.5,"pm2_5":25.2,"no2":2.1,"co":146.0,"o3":135.0,"so2":3.8,"mosquito_risk":0,"arthritis_risk":5,"migraine_risk":10,"frizz_risk":0,"updated_at":"2026-05-27T18:27:37.082588+05:30"},{"city":"Indore","state":"Madhya Pradesh","latitude":22.7196,"longitude":75.8577,"temp":37.4,"humidity":27,"rain":0.0,"pressure":946.6,"uv_index":8.6,"wind_gusts":46.1,"aqi":63,"pm10":39.5,"pm2_5":18.9,"no2":1.9,"co":179.0,"o3":120.0,"so2":4.1,"mosquito_risk":0,"arthritis_risk":5,"migraine_risk":10,"frizz_risk":0,"updated_at":"2026-05-27T18:27:37.082595+05:30"},{"city":"Bhopal","state":"Madhya Pradesh","latitude":23.2599,"longitude":77.4126,"temp":40.0,"humidity":16,"rain":0.0,"pressure":950.9,"uv_index":8.65,"wind_gusts":39.6,"aqi":66,"pm10":40.6,"pm2_5":17.0,"no2":1.4,"co":161.0,"o3":116.0,"so2":3.1,"mosquito_risk":0,"arthritis_risk":5,"migraine_risk":10,"frizz_risk":0,"updated_at":"2026-05-27T18:27:37.082602+05:30"},{"city":"Jabalpur","state":"Madhya Pradesh","latitude":23.1815,"longitude":79.9864,"temp":40.3,"humidity":16,"rain":0.0,"pressure":957.2,"uv_index":8.85,"wind_gusts":42.1,"aqi":80,"pm10":41.1,"pm2_5":17.1,"no2":2.1,"co":144.0,"o3":121.0,"so2":2.9,"mosquito_risk":0,"arthritis_risk":5,"migraine_risk":10,"frizz_risk":0,"updated_at":"2026-05-27T18:27:37.082609+05:30"},{"city":"Ujjain","state":"Madhya Pradesh","latitude":23.1765,"longitude":75.7885,"temp":38.1,"humidity":25,"rain":0.0,"pressure":951.9,"uv_index":8.55,"wind_gusts":47.9,"aqi":65,"pm10":50.3,"pm2_5":21.0,"no2":1.0,"co":144.0,"o3":118.0,"so2":4.3,"mosquito_risk":0,"arthritis_risk":5,"migraine_risk":10,"frizz_risk":0,"updated_at":"2026-05-27T18:27:37.082616+05:30"},{"city":"Visakhapatnam","state":"Andhra Pradesh","latitude":17.6868,"longitude":83.2185,"temp":37.2,"humidity":45,"rain":0.0,"pressure":997.5,"uv_index":9.0,"wind_gusts":40.7,"aqi":202,"pm10":79.9,"pm2_5":58.3,"no2":25.1,"co":424.0,"o3":194.0,"so2":56.9,"mosquito_risk":0,"arthritis_risk":5,"migraine_risk":10,"frizz_risk":1,"updated_at":"2026-05-27T18:27:37.082623+05:30"},{"city":"Vijayawada","state":"Andhra Pradesh","latitude":16.5062,"longitude":80.648,"temp":38.2,"humidity":37,"rain":0.0,"pressure":997.9,"uv_index":8.35,"wind_gusts":41.0,"aqi":116,"pm10":39.0,"pm2_5":28.6,"no2":6.3,"co":222.0,"o3":143.0,"so2":6.5,"mosquito_risk":0,"arthritis_risk":5,"migraine_risk":10,"frizz_risk":1,"updated_at":"2026-05-27T18:27:37.082630+05:30"},{"city":"Guntur","state":"Andhra Pradesh","latitude":16.3067,"longitude":80.4365,"temp":37.3,"humidity":42,"rain":0.0,"pressure":999.4,"uv_index":8.35,"wind_gusts":38.9,"aqi":106,"pm10":34.2,"pm2_5":23.7,"no2":3.7,"co":218.0,"o3":148.0,"so2":5.9,"mosquito_risk":0,"arthritis_risk":5,"migraine_risk":10,"frizz_risk":1,"updated_at":"2026-05-27T18:27:37.082637+05:30"},{"city":"Nellore","state":"Andhra Pradesh","latitude":14.4426,"longitude":79.9865,"temp":35.5,"humidity":45,"rain":0.0,"pressure":1002.6,"uv_index":9.0,"wind_gusts":36.0,"aqi":111,"pm10":27.9,"pm2_5":21.3,"no2":6.6,"co":232.0,"o3":145.0,"so2":4.2,"mosquito_risk":0,"arthritis_risk":5,"migraine_risk":7,"frizz_risk":1,"updated_at":"2026-05-27T18:27:37.082645+05:30"},{"city":"Kurnool","state":"Andhra Pradesh","latitude":15.8281,"longitude":78.0373,"temp":34.5,"humidity":45,"rain":0.0,"pressure":975.2,"uv_index":2.55,"wind_gusts":46.4,"aqi":69,"pm10":25.6,"pm2_5":18.2,"no2":3.3,"co":191.0,"o3":138.0,"so2":10.0,"mosquito_risk":0,"arthritis_risk":5,"migraine_risk":3,"frizz_risk":1,"updated_at":"2026-05-27T18:27:37.082653+05:30"},{"city":"Kakinada","state":"Andhra Pradesh","latitude":16.9891,"longitude":82.2475,"temp":36.8,"humidity":47,"rain":0.0,"pressure":1002.0,"uv_index":9.0,"wind_gusts":49.0,"aqi":170,"pm10":45.8,"pm2_5":30.7,"no2":4.9,"co":313.0,"o3":163.0,"so2":3.9,"mosquito_risk":0,"arthritis_risk":5,"migraine_risk":7,"frizz_risk":1,"updated_at":"2026-05-27T18:27:37.082660+05:30"},{"city":"Tirupati","state":"Andhra Pradesh","latitude":13.6288,"longitude":79.4192,"temp":34.2,"humidity":50,"rain":0.0,"pressure":988.8,"uv_index":8.6,"wind_gusts":34.2,"aqi":96,"pm10":25.2,"pm2_5":17.9,"no2":8.4,"co":289.0,"o3":127.0,"so2":4.1,"mosquito_risk":0,"arthritis_risk":5,"migraine_risk":7,"frizz_risk":1,"updated_at":"2026-05-27T18:27:37.082667+05:30"},{"city":"Warangal","state":"Telangana","latitude":17.9689,"longitude":79.5941,"temp":36.5,"humidity":42,"rain":0.0,"pressure":975.3,"uv_index":9.0,"wind_gusts":43.6,"aqi":105,"pm10":40.7,"pm2_5":25.3,"no2":4.6,"co":205.0,"o3":138.0,"so2":7.0,"mosquito_risk":0,"arthritis_risk":5,"migraine_risk":10,"frizz_risk":1,"updated_at":"2026-05-27T18:27:37.082672+05:30"},{"city":"Nizamabad","state":"Telangana","latitude":18.6725,"longitude":78.0941,"temp":37.0,"humidity":35,"rain":0.0,"pressure":962.3,"uv_index":8.5,"wind_gusts":41.8,"aqi":71,"pm10":26.4,"pm2_5":13.6,"no2":1.8,"co":172.0,"o3":121.0,"so2":3.1,"mosquito_risk":0,"arthritis_risk":5,"migraine_risk":10,"frizz_risk":1,"updated_at":"2026-05-27T18:27:37.082678+05:30"},{"city":"Mysore","state":"Karnataka","latitude":12.2958,"longitude":76.6396,"temp":26.9,"humidity":69,"rain":0.0,"pressure":929.4,"uv_index":7.65,"wind_gusts":40.7,"aqi":65,"pm10":21.0,"pm2_5":15.7,"no2":6.9,"co":200.0,"o3":123.0,"so2":2.1,"mosquito_risk":7,"arthritis_risk":5,"migraine_risk":7,"frizz_risk":1,"updated_at":"2026-05-27T18:27:37.082683+05:30"},{"city":"Mangalore","state":"Karnataka","latitude":12.9141,"longitude":74.856,"temp":28.8,"humidity":80,"rain":0.0,"pressure":1007.6,"uv_index":7.65,"wind_gusts":29.5,"aqi":55,"pm10":10.1,"pm2_5":6.7,"no2":3.2,"co":172.0,"o3":60.0,"so2":1.7,"mosquito_risk":7,"arthritis_risk":5,"migraine_risk":4,"frizz_risk":1,"updated_at":"2026-05-27T18:27:37.082689+05:30"},{"city":"Hubli-Dharwad","state":"Karnataka","latitude":15.3647,"longitude":75.124,"temp":29.8,"humidity":61,"rain":0.0,"pressure":941.1,"uv_index":6.05,"wind_gusts":36.0,"aqi":39,"pm10":9.5,"pm2_5":7.6,"no2":3.8,"co":156.0,"o3":91.0,"so2":1.3,"mosquito_risk":7,"arthritis_risk":5,"migraine_risk":7,"frizz_risk":1,"updated_at":"2026-05-27T18:27:37.082695+05:30"},{"city":"Belgaum","state":"Karnataka","latitude":15.8497,"longitude":74.4977,"temp":27.3,"humidity":75,"rain":0.0,"pressure":926.2,"uv_index":7.5,"wind_gusts":36.7,"aqi":39,"pm10":11.0,"pm2_5":8.2,"no2":3.9,"co":176.0,"o3":73.0,"so2":1.6,"mosquito_risk":7,"arthritis_risk":5,"migraine_risk":7,"frizz_risk":1,"updated_at":"2026-05-27T18:27:40.348116+05:30"},{"city":"Coimbatore","state":"Tamil Nadu","latitude":11.0168,"longitude":76.9558,"temp":27.6,"humidity":73,"rain":0.1,"pressure":962.1,"uv_index":8.6,"wind_gusts":53.3,"aqi":44,"pm10":9.9,"pm2_5":8.7,"no2":4.8,"co":170.0,"o3":88.0,"so2":2.3,"mosquito_risk":10,"arthritis_risk":5,"migraine_risk":7,"frizz_risk":1,"updated_at":"2026-05-27T18:27:40.348148+05:30"},{"city":"Madurai","state":"Tamil Nadu","latitude":9.9252,"longitude":78.1198,"temp":28.9,"humidity":75,"rain":0.0,"pressure":993.0,"uv_index":8.35,"wind_gusts":41.4,"aqi":113,"pm10":35.0,"pm2_5":24.7,"no2":5.7,"co":220.0,"o3":142.0,"so2":3.3,"mosquito_risk":7,"arthritis_risk":5,"migraine_risk":7,"frizz_risk":1,"updated_at":"2026-05-27T18:27:40.348159+05:30"},{"city":"Trichy","state":"Tamil Nadu","latitude":10.7905,"longitude":78.7047,"temp":31.6,"humidity":58,"rain":0.0,"pressure":998.9,"uv_index":8.35,"wind_gusts":52.2,"aqi":69,"pm10":26.8,"pm2_5":21.0,"no2":13.6,"co":201.0,"o3":113.0,"so2":4.3,"mosquito_risk":0,"arthritis_risk":5,"migraine_risk":7,"frizz_risk":1,"updated_at":"2026-05-27T18:27:40.348168+05:30"},{"city":"Salem","state":"Tamil Nadu","latitude":11.6643,"longitude":78.146,"temp":30.6,"humidity":65,"rain":0.1,"pressure":977.1,"uv_index":8.3,"wind_gusts":40.0,"aqi":130,"pm10":29.0,"pm2_5":19.4,"no2":5.5,"co":201.0,"o3":154.0,"so2":9.0,"mosquito_risk":6,"arthritis_risk":5,"migraine_risk":7,"frizz_risk":1,"updated_at":"2026-05-27T18:27:40.348177+05:30"},{"city":"Tirunelveli","state":"Tamil Nadu","latitude":8.7139,"longitude":77.7567,"temp":33.4,"humidity":50,"rain":0.0,"pressure":1002.7,"uv_index":8.65,"wind_gusts":32.0,"aqi":36,"pm10":6.7,"pm2_5":5.1,"no2":3.1,"co":130.0,"o3":71.0,"so2":1.0,"mosquito_risk":0,"arthritis_risk":5,"migraine_risk":4,"frizz_risk":1,"updated_at":"2026-05-27T18:27:40.348184+05:30"},{"city":"Vellore","state":"Tamil Nadu","latitude":12.9165,"longitude":79.1325,"temp":30.6,"humidity":69,"rain":0.0,"pressure":982.6,"uv_index":8.75,"wind_gusts":35.3,"aqi":93,"pm10":36.3,"pm2_5":20.8,"no2":6.8,"co":210.0,"o3":120.0,"so2":2.9,"mosquito_risk":3,"arthritis_risk":5,"migraine_risk":7,"frizz_risk":1,"updated_at":"2026-05-27T18:27:40.348192+05:30"},{"city":"Erode","state":"Tamil Nadu","latitude":11.341,"longitude":77.7172,"temp":32.8,"humidity":51,"rain":0.0,"pressure":988.4,"uv_index":8.05,"wind_gusts":37.4,"aqi":82,"pm10":18.7,"pm2_5":14.1,"no2":5.6,"co":223.0,"o3":130.0,"so2":2.2,"mosquito_risk":0,"arthritis_risk":5,"migraine_risk":7,"frizz_risk":1,"updated_at":"2026-05-27T18:27:40.348200+05:30"},{"city":"Kochi","state":"Kerala","latitude":9.9312,"longitude":76.2673,"temp":26.5,"humidity":89,"rain":0.1,"pressure":1010.4,"uv_index":7.85,"wind_gusts":29.5,"aqi":54,"pm10":12.8,"pm2_5":9.4,"no2":9.2,"co":165.0,"o3":52.0,"so2":2.6,"mosquito_risk":10,"arthritis_risk":0,"migraine_risk":4,"frizz_risk":1,"updated_at":"2026-05-27T18:27:40.348208+05:30"},{"city":"Thiruvananthapuram","state":"Kerala","latitude":8.5241,"longitude":76.9366,"temp":26.8,"humidity":88,"rain":0.1,"pressure":1009.7,"uv_index":7.65,"wind_gusts":35.3,"aqi":29,"pm10":15.3,"pm2_5":7.5,"no2":1.8,"co":140.0,"o3":61.0,"so2":0.6,"mosquito_risk":10,"arthritis_risk":0,"migraine_risk":4,"frizz_risk":1,"updated_at":"2026-05-27T18:27:40.348215+05:30"},{"city":"Kozhikode","state":"Kerala","latitude":11.2588,"longitude":75.7804,"temp":26.4,"humidity":98,"rain":0.1,"pressure":1009.4,"uv_index":8.2,"wind_gusts":30.2,"aqi":31,"pm10":6.9,"pm2_5":4.4,"no2":1.3,"co":164.0,"o3":66.0,"so2":0.7,"mosquito_risk":10,"arthritis_risk":0,"migraine_risk":4,"frizz_risk":1,"updated_at":"2026-05-27T18:27:40.348241+05:30"},{"city":"Thrissur","state":"Kerala","latitude":10.5276,"longitude":76.2144,"temp":25.9,"humidity":94,"rain":0.1,"pressure":1008.8,"uv_index":8.25,"wind_gusts":28.8,"aqi":51,"pm10":12.0,"pm2_5":10.1,"no2":8.1,"co":188.0,"o3":56.0,"so2":2.2,"mosquito_risk":10,"arthritis_risk":0,"migraine_risk":4,"frizz_risk":1,"updated_at":"2026-05-27T18:27:40.348250+05:30"},{"city":"Kannur","state":"Kerala","latitude":11.8745,"longitude":75.3704,"temp":27.9,"humidity":82,"rain":0.0,"pressure":1008.4,"uv_index":7.95,"wind_gusts":23.8,"aqi":52,"pm10":7.0,"pm2_5":4.9,"no2":3.0,"co":146.0,"o3":65.0,"so2":1.2,"mosquito_risk":7,"arthritis_risk":0,"migraine_risk":4,"frizz_risk":1,"updated_at":"2026-05-27T18:27:40.348257+05:30"},{"city":"Patna","state":"Bihar","latitude":25.5941,"longitude":85.1376,"temp":31.6,"humidity":59,"rain":0.0,"pressure":996.2,"uv_index":8.75,"wind_gusts":46.8,"aqi":162,"pm10":54.9,"pm2_5":42.3,"no2":6.7,"co":419.0,"o3":169.0,"so2":15.4,"mosquito_risk":0,"arthritis_risk":5,"migraine_risk":7,"frizz_risk":1,"updated_at":"2026-05-27T18:27:40.348265+05:30"},{"city":"Gaya","state":"Bihar","latitude":24.7914,"longitude":85.0002,"temp":33.8,"humidity":53,"rain":0.0,"pressure":988.9,"uv_index":8.8,"wind_gusts":35.6,"aqi":184,"pm10":66.1,"pm2_5":54.5,"no2":4.7,"co":372.0,"o3":190.0,"so2":16.0,"mosquito_risk":0,"arthritis_risk":5,"migraine_risk":7,"frizz_risk":1,"updated_at":"2026-05-27T18:27:40.348272+05:30"},{"city":"Muzaffarpur","state":"Bihar","latitude":26.1209,"longitude":85.3647,"temp":29.5,"humidity":69,"rain":0.0,"pressure":997.0,"uv_index":8.75,"wind_gusts":46.4,"aqi":144,"pm10":46.1,"pm2_5":34.9,"no2":6.7,"co":384.0,"o3":151.0,"so2":11.3,"mosquito_risk":7,"arthritis_risk":5,"migraine_risk":7,"frizz_risk":1,"updated_at":"2026-05-27T18:27:40.348279+05:30"},{"city":"Bhagalpur","state":"Bihar","latitude":25.2425,"longitude":87.0117,"temp":27.8,"humidity":78,"rain":0.0,"pressure":997.9,"uv_index":8.7,"wind_gusts":41.4,"aqi":101,"pm10":40.2,"pm2_5":32.4,"no2":8.3,"co":329.0,"o3":140.0,"so2":18.6,"mosquito_risk":7,"arthritis_risk":5,"migraine_risk":7,"frizz_risk":1,"updated_at":"2026-05-27T18:27:40.348286+05:30"},{"city":"Ranchi","state":"Jharkhand","latitude":23.3441,"longitude":85.3096,"temp":30.2,"humidity":47,"rain":0.0,"pressure":934.0,"uv_index":9.2,"wind_gusts":31.7,"aqi":137,"pm10":44.2,"pm2_5":22.2,"no2":6.6,"co":284.0,"o3":119.0,"so2":4.7,"mosquito_risk":0,"arthritis_risk":5,"migraine_risk":7,"frizz_risk":1,"updated_at":"2026-05-27T18:27:40.348292+05:30"},{"city":"Jamshedpur","state":"Jharkhand","latitude":22.8046,"longitude":86.2029,"temp":29.8,"humidity":75,"rain":0.0,"pressure":986.5,"uv_index":9.05,"wind_gusts":45.0,"aqi":205,"pm10":82.9,"pm2_5":59.4,"no2":14.4,"co":446.0,"o3":162.0,"so2":27.1,"mosquito_risk":7,"arthritis_risk":5,"migraine_risk":7,"frizz_risk":1,"updated_at":"2026-05-27T18:27:40.348300+05:30"},{"city":"Dhanbad","state":"Jharkhand","latitude":23.7957,"longitude":86.4304,"temp":29.1,"humidity":76,"rain":0.0,"pressure":975.9,"uv_index":9.0,"wind_gusts":36.4,"aqi":187,"pm10":93.8,"pm2_5":77.1,"no2":24.2,"co":245.0,"o3":192.0,"so2":54.6,"mosquito_risk":7,"arthritis_risk":5,"migraine_risk":7,"frizz_risk":1,"updated_at":"2026-05-27T18:27:40.348307+05:30"},{"city":"Bokaro","state":"Jharkhand","latitude":23.6693,"longitude":86.1511,"temp":30.1,"humidity":72,"rain":0.0,"pressure":979.5,"uv_index":9.0,"wind_gusts":45.0,"aqi":189,"pm10":88.7,"pm2_5":71.9,"no2":21.2,"co":254.0,"o3":210.0,"so2":56.4,"mosquito_risk":3,"arthritis_risk":5,"migraine_risk":7,"frizz_risk":1,"updated_at":"2026-05-27T18:27:40.348315+05:30"},{"city":"Bhubaneswar","state":"Odisha","latitude":20.2961,"longitude":85.8245,"temp":30.3,"humidity":83,"rain":0.2,"pressure":998.5,"uv_index":9.05,"wind_gusts":46.8,"aqi":148,"pm10":62.4,"pm2_5":44.8,"no2":8.2,"co":358.0,"o3":144.0,"so2":9.3,"mosquito_risk":6,"arthritis_risk":5,"migraine_risk":7,"frizz_risk":1,"updated_at":"2026-05-27T18:27:40.348324+05:30"},{"city":"Cuttack","state":"Odisha","latitude":20.4625,"longitude":85.8828,"temp":29.2,"humidity":86,"rain":0.8,"pressure":1000.6,"uv_index":9.1,"wind_gusts":43.6,"aqi":148,"pm10":62.4,"pm2_5":44.8,"no2":8.2,"co":326.0,"o3":144.0,"so2":9.3,"mosquito_risk":10,"arthritis_risk":5,"migraine_risk":4,"frizz_risk":1,"updated_at":"2026-05-27T18:27:40.348331+05:30"},{"city":"Rourkela","state":"Odisha","latitude":22.2604,"longitude":84.8536,"temp":33.0,"humidity":58,"rain":0.0,"pressure":980.2,"uv_index":8.95,"wind_gusts":50.0,"aqi":177,"pm10":82.4,"pm2_5":40.3,"no2":8.8,"co":388.0,"o3":154.0,"so2":7.7,"mosquito_risk":0,"arthritis_risk":5,"migraine_risk":7,"frizz_risk":1,"updated_at":"2026-05-27T18:27:40.348338+05:30"},{"city":"Raipur","state":"Chhattisgarh","latitude":21.2514,"longitude":81.6296,"temp":40.6,"humidity":18,"rain":0.0,"pressure":969.8,"uv_index":8.95,"wind_gusts":43.6,"aqi":129,"pm10":59.8,"pm2_5":29.6,"no2":12.3,"co":165.0,"o3":128.0,"so2":27.2,"mosquito_risk":0,"arthritis_risk":5,"migraine_risk":10,"frizz_risk":0,"updated_at":"2026-05-27T18:27:40.348346+05:30"},{"city":"Bhilai","state":"Chhattisgarh","latitude":21.1938,"longitude":81.3509,"temp":38.3,"humidity":26,"rain":0.0,"pressure":970.4,"uv_index":8.95,"wind_gusts":43.9,"aqi":106,"pm10":56.5,"pm2_5":29.0,"no2":14.2,"co":206.0,"o3":112.0,"so2":27.7,"mosquito_risk":0,"arthritis_risk":5,"migraine_risk":10,"frizz_risk":0,"updated_at":"2026-05-27T18:27:40.348354+05:30"},{"city":"Guwahati","state":"Assam","latitude":26.1158,"longitude":91.7086,"temp":26.1,"humidity":86,"rain":0.0,"pressure":999.6,"uv_index":8.75,"wind_gusts":28.4,"aqi":73,"pm10":13.1,"pm2_5":10.8,"no2":4.4,"co":444.0,"o3":94.0,"so2":1.9,"mosquito_risk":7,"arthritis_risk":5,"migraine_risk":7,"frizz_risk":1,"updated_at":"2026-05-27T18:27:40.348360+05:30"},{"city":"Agartala","state":"Tripura","latitude":23.8315,"longitude":91.2868,"temp":26.8,"humidity":91,"rain":0.0,"pressure":1003.7,"uv_index":8.85,"wind_gusts":38.2,"aqi":80,"pm10":29.8,"pm2_5":21.9,"no2":11.9,"co":239.0,"o3":96.0,"so2":2.2,"mosquito_risk":7,"arthritis_risk":5,"migraine_risk":4,"frizz_risk":1,"updated_at":"2026-05-27T18:27:40.348367+05:30"},{"city":"Shillong","state":"Meghalaya","latitude":25.5788,"longitude":91.8933,"temp":18.8,"humidity":89,"rain":0.0,"pressure":855.6,"uv_index":9.05,"wind_gusts":36.7,"aqi":51,"pm10":16.4,"pm2_5":11.8,"no2":5.9,"co":265.0,"o3":93.0,"so2":2.2,"mosquito_risk":3,"arthritis_risk":10,"migraine_risk":7,"frizz_risk":1,"updated_at":"2026-05-27T18:27:40.348375+05:30"},{"city":"Imphal","state":"Manipur","latitude":24.817,"longitude":93.9368,"temp":25.0,"humidity":73,"rain":0.0,"pressure":921.0,"uv_index":9.25,"wind_gusts":39.6,"aqi":79,"pm10":35.6,"pm2_5":23.5,"no2":7.7,"co":219.0,"o3":74.0,"so2":2.5,"mosquito_risk":7,"arthritis_risk":5,"migraine_risk":7,"frizz_risk":1,"updated_at":"2026-05-27T18:27:40.348383+05:30"},{"city":"Aizawl","state":"Mizoram","latitude":23.7271,"longitude":92.7176,"temp":21.0,"humidity":88,"rain":0.0,"pressure":890.4,"uv_index":9.05,"wind_gusts":33.8,"aqi":65,"pm10":29.6,"pm2_5":18.8,"no2":4.9,"co":183.0,"o3":66.0,"so2":1.3,"mosquito_risk":3,"arthritis_risk":5,"migraine_risk":7,"frizz_risk":1,"updated_at":"2026-05-27T18:27:40.348390+05:30"},{"city":"Kohima","state":"Nagaland","latitude":25.6701,"longitude":94.1077,"temp":19.5,"humidity":93,"rain":0.0,"pressure":853.6,"uv_index":8.7,"wind_gusts":29.2,"aqi":67,"pm10":33.2,"pm2_5":18.7,"no2":4.5,"co":227.0,"o3":83.0,"so2":1.8,"mosquito_risk":3,"arthritis_risk":10,"migraine_risk":7,"frizz_risk":1,"updated_at":"2026-05-27T18:27:40.348397+05:30"},{"city":"Gangtok","state":"Sikkim","latitude":27.3314,"longitude":88.6138,"temp":17.0,"humidity":94,"rain":0.0,"pressure":836.2,"uv_index":9.1,"wind_gusts":38.5,"aqi":86,"pm10":13.8,"pm2_5":9.3,"no2":6.0,"co":283.0,"o3":123.0,"so2":2.1,"mosquito_risk":3,"arthritis_risk":10,"migraine_risk":7,"frizz_risk":0,"updated_at":"2026-05-27T18:27:40.348404+05:30"},{"city":"Siliguri","state":"West Bengal","latitude":26.7271,"longitude":88.3953,"temp":24.8,"humidity":88,"rain":0.0,"pressure":991.3,"uv_index":8.65,"wind_gusts":30.2,"aqi":95,"pm10":31.8,"pm2_5":18.5,"no2":7.7,"co":634.0,"o3":126.0,"so2":4.3,"mosquito_risk":3,"arthritis_risk":5,"migraine_risk":7,"frizz_risk":1,"updated_at":"2026-05-27T18:27:43.635172+05:30"},{"city":"Durgapur","state":"West Bengal","latitude":23.5204,"longitude":87.3119,"temp":28.5,"humidity":89,"rain":0.0,"pressure":991.1,"uv_index":8.85,"wind_gusts":34.9,"aqi":185,"pm10":86.6,"pm2_5":72.9,"no2":25.3,"co":578.0,"o3":164.0,"so2":43.7,"mosquito_risk":7,"arthritis_risk":5,"migraine_risk":7,"frizz_risk":1,"updated_at":"2026-05-27T18:27:43.635206+05:30"},{"city":"Asansol","state":"West Bengal","latitude":23.6739,"longitude":86.9524,"temp":28.4,"humidity":85,"rain":0.0,"pressure":989.8,"uv_index":8.95,"wind_gusts":39.6,"aqi":181,"pm10":101.3,"pm2_5":80.3,"no2":25.7,"co":613.0,"o3":174.0,"so2":44.2,"mosquito_risk":7,"arthritis_risk":5,"migraine_risk":7,"frizz_risk":1,"updated_at":"2026-05-27T18:27:43.635215+05:30"},{"city":"Pondicherry","state":"Puducherry","latitude":11.9139,"longitude":79.8145,"temp":30.1,"humidity":80,"rain":0.0,"pressure":1006.6,"uv_index":8.7,"wind_gusts":42.1,"aqi":177,"pm10":40.6,"pm2_5":34.3,"no2":13.6,"co":260.0,"o3":184.0,"so2":9.5,"mosquito_risk":3,"arthritis_risk":5,"migraine_risk":4,"frizz_risk":1,"updated_at":"2026-05-27T18:27:43.635239+05:30"},{"city":"Port Blair","state":"Andaman and Nicobar Islands","latitude":11.6234,"longitude":92.7265,"temp":27.2,"humidity":77,"rain":0.0,"pressure":1006.2,"uv_index":8.3,"wind_gusts":37.1,"aqi":33,"pm10":6.2,"pm2_5":3.9,"no2":0.6,"co":145.0,"o3":67.0,"so2":0.4,"mosquito_risk":7,"arthritis_risk":5,"migraine_risk":4,"frizz_risk":1,"updated_at":"2026-05-27T18:27:43.635246+05:30"},{"city":"Haridwar","state":"Uttarakhand","latitude":29.9457,"longitude":78.1642,"temp":34.2,"humidity":32,"rain":0.0,"pressure":967.9,"uv_index":7.55,"wind_gusts":37.4,"aqi":191,"pm10":65.4,"pm2_5":24.2,"no2":4.5,"co":234.0,"o3":209.0,"so2":11.8,"mosquito_risk":0,"arthritis_risk":5,"migraine_risk":7,"frizz_risk":0,"updated_at":"2026-05-27T18:27:43.635253+05:30"},{"city":"Rishikesh","state":"Uttarakhand","latitude":30.0869,"longitude":78.2676,"temp":33.2,"humidity":32,"rain":0.0,"pressure":961.1,"uv_index":7.7,"wind_gusts":35.6,"aqi":176,"pm10":25.8,"pm2_5":15.0,"no2":1.6,"co":219.0,"o3":203.0,"so2":8.0,"mosquito_risk":0,"arthritis_risk":5,"migraine_risk":7,"frizz_risk":0,"updated_at":"2026-05-27T18:27:43.635260+05:30"},{"city":"Nainital","state":"Uttarakhand","latitude":29.3919,"longitude":79.4542,"temp":20.0,"humidity":64,"rain":0.0,"pressure":804.9,"uv_index":8.5,"wind_gusts":32.8,"aqi":168,"pm10":27.0,"pm2_5":20.4,"no2":2.5,"co":272.0,"o3":205.0,"so2":10.5,"mosquito_risk":3,"arthritis_risk":5,"migraine_risk":7,"frizz_risk":0,"updated_at":"2026-05-27T18:27:43.635266+05:30"},{"city":"Mussoorie","state":"Uttarakhand","latitude":30.4599,"longitude":78.0664,"temp":21.3,"humidity":53,"rain":0.0,"pressure":802.9,"uv_index":8.1,"wind_gusts":50.0,"aqi":185,"pm10":28.1,"pm2_5":17.8,"no2":3.3,"co":227.0,"o3":203.0,"so2":9.7,"mosquito_risk":0,"arthritis_risk":5,"migraine_risk":7,"frizz_risk":0,"updated_at":"2026-05-27T18:27:43.635272+05:30"},{"city":"Dharamshala","state":"Himachal Pradesh","latitude":32.219,"longitude":76.3234,"temp":27.2,"humidity":34,"rain":0.0,"pressure":868.0,"uv_index":8.45,"wind_gusts":46.4,"aqi":135,"pm10":24.3,"pm2_5":11.6,"no2":1.2,"co":194.0,"o3":164.0,"so2":1.4,"mosquito_risk":4,"arthritis_risk":5,"migraine_risk":7,"frizz_risk":0,"updated_at":"2026-05-27T18:27:43.635278+05:30"},{"city":"Dalhousie","state":"Himachal Pradesh","latitude":32.5387,"longitude":75.971,"temp":22.6,"humidity":51,"rain":0.0,"pressure":805.8,"uv_index":8.7,"wind_gusts":40.7,"aqi":167,"pm10":37.4,"pm2_5":17.1,"no2":3.2,"co":207.0,"o3":166.0,"so2":1.9,"mosquito_risk":0,"arthritis_risk":5,"migraine_risk":7,"frizz_risk":0,"updated_at":"2026-05-27T18:27:43.635285+05:30"},{"city":"Patiala","state":"Punjab","latitude":30.3398,"longitude":76.3869,"temp":40.2,"humidity":15,"rain":0.0,"pressure":971.9,"uv_index":7.65,"wind_gusts":44.3,"aqi":530,"pm10":1128.8,"pm2_5":133.2,"no2":3.0,"co":224.0,"o3":152.0,"so2":5.2,"mosquito_risk":0,"arthritis_risk":5,"migraine_risk":10,"frizz_risk":0,"updated_at":"2026-05-27T18:27:43.635291+05:30"},{"city":"Bhatinda","state":"Punjab","latitude":30.211,"longitude":74.9455,"temp":41.7,"humidity":17,"rain":0.0,"pressure":976.8,"uv_index":8.3,"wind_gusts":32.8,"aqi":154,"pm10":38.5,"pm2_5":14.9,"no2":3.6,"co":203.0,"o3":149.0,"so2":7.2,"mosquito_risk":0,"arthritis_risk":5,"migraine_risk":10,"frizz_risk":0,"updated_at":"2026-05-27T18:27:43.635297+05:30"},{"city":"Rohtak","state":"Haryana","latitude":28.8955,"longitude":76.6066,"temp":38.6,"humidity":24,"rain":0.0,"pressure":975.5,"uv_index":7.8,"wind_gusts":35.6,"aqi":886,"pm10":1087.8,"pm2_5":145.3,"no2":10.7,"co":266.0,"o3":140.0,"so2":5.8,"mosquito_risk":0,"arthritis_risk":5,"migraine_risk":10,"frizz_risk":0,"updated_at":"2026-05-27T18:27:43.635303+05:30"},{"city":"Panipat","state":"Haryana","latitude":29.3909,"longitude":76.9635,"temp":40.2,"humidity":16,"rain":0.0,"pressure":974.0,"uv_index":7.6,"wind_gusts":38.2,"aqi":1610,"pm10":2518.3,"pm2_5":301.7,"no2":6.9,"co":200.0,"o3":148.0,"so2":8.9,"mosquito_risk":0,"arthritis_risk":5,"migraine_risk":10,"frizz_risk":0,"updated_at":"2026-05-27T18:27:43.635309+05:30"},{"city":"Mathura","state":"Uttar Pradesh","latitude":27.4924,"longitude":77.6737,"temp":40.2,"humidity":17,"rain":0.0,"pressure":980.8,"uv_index":8.0,"wind_gusts":37.8,"aqi":559,"pm10":1147.4,"pm2_5":142.5,"no2":7.4,"co":219.0,"o3":140.0,"so2":3.8,"mosquito_risk":0,"arthritis_risk":5,"migraine_risk":10,"frizz_risk":0,"updated_at":"2026-05-27T18:27:43.635315+05:30"},{"city":"Vrindavan","state":"Uttar Pradesh","latitude":27.5823,"longitude":77.7027,"temp":39.2,"humidity":23,"rain":0.0,"pressure":981.2,"uv_index":8.0,"wind_gusts":36.4,"aqi":559,"pm10":1147.4,"pm2_5":142.5,"no2":7.4,"co":251.0,"o3":140.0,"so2":3.8,"mosquito_risk":0,"arthritis_risk":5,"migraine_risk":10,"frizz_risk":0,"updated_at":"2026-05-27T18:27:43.635320+05:30"},{"city":"Ayodhya","state":"Uttar Pradesh","latitude":26.7922,"longitude":82.1998,"temp":34.6,"humidity":44,"rain":0.0,"pressure":989.8,"uv_index":8.3,"wind_gusts":36.4,"aqi":185,"pm10":115.5,"pm2_5":41.1,"no2":3.1,"co":352.0,"o3":196.0,"so2":11.0,"mosquito_risk":0,"arthritis_risk":5,"migraine_risk":7,"frizz_risk":1,"updated_at":"2026-05-27T18:27:43.635326+05:30"},{"city":"Ratlam","state":"Madhya Pradesh","latitude":23.3315,"longitude":75.0367,"temp":37.0,"humidity":27,"rain":0.0,"pressure":953.3,"uv_index":8.5,"wind_gusts":48.2,"aqi":66,"pm10":60.1,"pm2_5":23.3,"no2":0.8,"co":137.0,"o3":118.0,"so2":4.6,"mosquito_risk":0,"arthritis_risk":5,"migraine_risk":10,"frizz_risk":0,"updated_at":"2026-05-27T18:27:43.635333+05:30"},{"city":"Sagar","state":"Madhya Pradesh","latitude":23.8388,"longitude":78.7378,"temp":39.2,"humidity":16,"rain":0.0,"pressure":947.2,"uv_index":8.7,"wind_gusts":45.0,"aqi":76,"pm10":70.3,"pm2_5":23.2,"no2":1.0,"co":134.0,"o3":120.0,"so2":3.2,"mosquito_risk":0,"arthritis_risk":5,"migraine_risk":10,"frizz_risk":0,"updated_at":"2026-05-27T18:27:43.635339+05:30"},{"city":"Satna","state":"Madhya Pradesh","latitude":24.6005,"longitude":80.8322,"temp":39.6,"humidity":18,"rain":0.0,"pressure":966.0,"uv_index":8.75,"wind_gusts":51.1,"aqi":84,"pm10":75.2,"pm2_5":28.0,"no2":1.6,"co":140.0,"o3":121.0,"so2":3.5,"mosquito_risk":0,"arthritis_risk":5,"migraine_risk":10,"frizz_risk":0,"updated_at":"2026-05-27T18:27:43.635344+05:30"},{"city":"Akola","state":"Maharashtra","latitude":20.7002,"longitude":77.0082,"temp":39.8,"humidity":18,"rain":0.0,"pressure":971.9,"uv_index":8.85,"wind_gusts":45.4,"aqi":57,"pm10":25.7,"pm2_5":12.5,"no2":2.1,"co":145.0,"o3":117.0,"so2":4.5,"mosquito_risk":0,"arthritis_risk":5,"migraine_risk":10,"frizz_risk":0,"updated_at":"2026-05-27T18:27:43.635351+05:30"},{"city":"Amravati","state":"Maharashtra","latitude":20.9374,"longitude":77.7796,"temp":39.9,"humidity":19,"rain":0.0,"pressure":964.3,"uv_index":8.85,"wind_gusts":43.6,"aqi":66,"pm10":26.7,"pm2_5":13.2,"no2":2.6,"co":150.0,"o3":118.0,"so2":5.2,"mosquito_risk":0,"arthritis_risk":5,"migraine_risk":10,"frizz_risk":0,"updated_at":"2026-05-27T18:27:43.635358+05:30"},{"city":"Latur","state":"Maharashtra","latitude":18.4088,"longitude":76.5604,"temp":35.8,"humidity":32,"rain":0.0,"pressure":938.8,"uv_index":8.75,"wind_gusts":41.4,"aqi":69,"pm10":16.5,"pm2_5":11.2,"no2":1.6,"co":174.0,"o3":122.0,"so2":3.4,"mosquito_risk":0,"arthritis_risk":5,"migraine_risk":10,"frizz_risk":1,"updated_at":"2026-05-27T18:27:43.635364+05:30"},{"city":"Nanded","state":"Maharashtra","latitude":19.1383,"longitude":77.3091,"temp":38.5,"humidity":27,"rain":0.0,"pressure":966.0,"uv_index":8.85,"wind_gusts":39.6,"aqi":61,"pm10":19.7,"pm2_5":10.8,"no2":1.9,"co":171.0,"o3":115.0,"so2":2.2,"mosquito_risk":0,"arthritis_risk":5,"migraine_risk":10,"frizz_risk":1,"updated_at":"2026-05-27T18:27:43.635370+05:30"},{"city":"Gulbarga","state":"Karnataka","latitude":17.3297,"longitude":76.8343,"temp":35.6,"humidity":34,"rain":0.0,"pressure":957.0,"uv_index":4.65,"wind_gusts":41.4,"aqi":66,"pm10":18.8,"pm2_5":11.8,"no2":3.4,"co":185.0,"o3":126.0,"so2":4.0,"mosquito_risk":0,"arthritis_risk":5,"migraine_risk":6,"frizz_risk":1,"updated_at":"2026-05-27T18:27:43.635377+05:30"},{"city":"Bidar","state":"Karnataka","latitude":17.9104,"longitude":77.5199,"temp":34.1,"humidity":43,"rain":0.0,"pressure":934.3,"uv_index":7.7,"wind_gusts":41.8,"aqi":96,"pm10":30.9,"pm2_5":17.1,"no2":2.8,"co":256.0,"o3":135.0,"so2":5.2,"mosquito_risk":0,"arthritis_risk":5,"migraine_risk":7,"frizz_risk":1,"updated_at":"2026-05-27T18:27:43.635383+05:30"},{"city":"Hospet","state":"Karnataka","latitude":15.2689,"longitude":76.3909,"temp":30.5,"humidity":59,"rain":0.0,"pressure":955.3,"uv_index":7.0,"wind_gusts":38.5,"aqi":44,"pm10":13.5,"pm2_5":10.2,"no2":4.3,"co":226.0,"o3":111.0,"so2":3.8,"mosquito_risk":0,"arthritis_risk":5,"migraine_risk":7,"frizz_risk":1,"updated_at":"2026-05-27T18:27:43.635389+05:30"},{"city":"Tirupur","state":"Tamil Nadu","latitude":11.1085,"longitude":77.3411,"temp":30.1,"humidity":63,"rain":0.0,"pressure":975.0,"uv_index":8.8,"wind_gusts":52.9,"aqi":69,"pm10":13.3,"pm2_5":10.7,"no2":5.2,"co":171.0,"o3":115.0,"so2":2.7,"mosquito_risk":3,"arthritis_risk":5,"migraine_risk":7,"frizz_risk":1,"updated_at":"2026-05-27T18:27:43.635394+05:30"},{"city":"Alappuzha","state":"Kerala","latitude":9.4981,"longitude":76.3388,"temp":26.6,"humidity":91,"rain":0.2,"pressure":1010.8,"uv_index":8.0,"wind_gusts":29.2,"aqi":40,"pm10":10.7,"pm2_5":7.2,"no2":5.9,"co":109.0,"o3":58.0,"so2":1.3,"mosquito_risk":10,"arthritis_risk":0,"migraine_risk":4,"frizz_risk":1,"updated_at":"2026-05-27T18:27:43.635400+05:30"},{"city":"Munnar","state":"Kerala","latitude":10.0889,"longitude":77.0595,"temp":18.0,"humidity":100,"rain":0.1,"pressure":858.2,"uv_index":8.4,"wind_gusts":27.0,"aqi":44,"pm10":7.6,"pm2_5":6.7,"no2":4.8,"co":165.0,"o3":84.0,"so2":1.4,"mosquito_risk":6,"arthritis_risk":10,"migraine_risk":7,"frizz_risk":1,"updated_at":"2026-05-27T18:27:43.635406+05:30"},{"city":"Silchar","state":"Assam","latitude":24.8333,"longitude":92.7789,"temp":26.0,"humidity":89,"rain":0.0,"pressure":1003.0,"uv_index":8.9,"wind_gusts":43.6,"aqi":96,"pm10":35.6,"pm2_5":23.4,"no2":5.1,"co":277.0,"o3":99.0,"so2":4.6,"mosquito_risk":7,"arthritis_risk":5,"migraine_risk":4,"frizz_risk":1,"updated_at":"2026-05-27T18:27:43.635413+05:30"},{"city":"Dibrugarh","state":"Assam","latitude":27.4728,"longitude":94.912,"temp":28.4,"humidity":81,"rain":0.0,"pressure":993.2,"uv_index":8.65,"wind_gusts":23.8,"aqi":88,"pm10":42.5,"pm2_5":24.7,"no2":8.9,"co":282.0,"o3":92.0,"so2":3.2,"mosquito_risk":7,"arthritis_risk":5,"migraine_risk":7,"frizz_risk":1,"updated_at":"2026-05-27T18:27:43.635419+05:30"}]