[{"city":"Delhi","state":"Delhi","latitude":28.6139,"longitude":77.209,"temp":42.7,"humidity":17,"rain":0.0,"pressure":977.0,"uv_index":7.75,"wind_gusts":45.7,"aqi":439,"pm10":1367.2,"pm2_5":208.6,"no2":2.9,"co":208.0,"o3":139.0,"so2":9.0,"mosquito_risk":0,"arthritis_risk":5,"migraine_risk":10,"frizz_risk":0,"updated_at":"2026-05-21T14:03:11.469044+05:30"},{"city":"Mumbai","state":"Maharashtra","latitude":19.076,"longitude":72.8777,"temp":33.3,"humidity":59,"rain":0.0,"pressure":1006.1,"uv_index":7.75,"wind_gusts":39.2,"aqi":53,"pm10":18.1,"pm2_5":11.9,"no2":3.9,"co":176.0,"o3":95.0,"so2":5.2,"mosquito_risk":0,"arthritis_risk":5,"migraine_risk":4,"frizz_risk":1,"updated_at":"2026-05-21T14:03:11.469082+05:30"},{"city":"Bangalore","state":"Karnataka","latitude":12.9716,"longitude":77.5946,"temp":32.5,"humidity":45,"rain":0.0,"pressure":910.7,"uv_index":6.8,"wind_gusts":33.8,"aqi":39,"pm10":8.6,"pm2_5":7.3,"no2":2.2,"co":266.0,"o3":123.0,"so2":3.1,"mosquito_risk":0,"arthritis_risk":5,"migraine_risk":7,"frizz_risk":1,"updated_at":"2026-05-21T14:03:11.469097+05:30"},{"city":"Hyderabad","state":"Telangana","latitude":17.385,"longitude":78.4867,"temp":39.9,"humidity":22,"rain":0.0,"pressure":950.0,"uv_index":8.4,"wind_gusts":34.9,"aqi":93,"pm10":41.6,"pm2_5":26.7,"no2":1.7,"co":231.0,"o3":161.0,"so2":7.6,"mosquito_risk":0,"arthritis_risk":5,"migraine_risk":10,"frizz_risk":0,"updated_at":"2026-05-21T14:03:11.469106+05:30"},{"city":"Chennai","state":"Tamil Nadu","latitude":13.0827,"longitude":80.2707,"temp":37.2,"humidity":53,"rain":0.0,"pressure":1001.5,"uv_index":8.35,"wind_gusts":42.8,"aqi":65,"pm10":33.6,"pm2_5":26.7,"no2":3.4,"co":311.0,"o3":194.0,"so2":7.8,"mosquito_risk":0,"arthritis_risk":5,"migraine_risk":7,"frizz_risk":1,"updated_at":"2026-05-21T14:03:11.469115+05:30"},{"city":"Kolkata","state":"West Bengal","latitude":22.5726,"longitude":88.3639,"temp":36.8,"humidity":59,"rain":0.0,"pressure":999.2,"uv_index":8.95,"wind_gusts":31.0,"aqi":114,"pm10":95.2,"pm2_5":48.7,"no2":1.9,"co":442.0,"o3":155.0,"so2":10.8,"mosquito_risk":0,"arthritis_risk":5,"migraine_risk":10,"frizz_risk":1,"updated_at":"2026-05-21T14:03:11.469122+05:30"},{"city":"Pune","state":"Maharashtra","latitude":18.5204,"longitude":73.8567,"temp":37.5,"humidity":30,"rain":0.0,"pressure":946.3,"uv_index":7.1,"wind_gusts":49.7,"aqi":57,"pm10":34.6,"pm2_5":20.9,"no2":1.4,"co":156.0,"o3":132.0,"so2":8.2,"mosquito_risk":0,"arthritis_risk":5,"migraine_risk":10,"frizz_risk":1,"updated_at":"2026-05-21T14:03:11.469129+05:30"},{"city":"Ahmedabad","state":"Gujarat","latitude":23.0225,"longitude":72.5714,"temp":40.5,"humidity":20,"rain":0.0,"pressure":998.5,"uv_index":8.15,"wind_gusts":31.0,"aqi":72,"pm10":88.2,"pm2_5":26.4,"no2":1.4,"co":162.0,"o3":105.0,"so2":3.2,"mosquito_risk":0,"arthritis_risk":5,"migraine_risk":10,"frizz_risk":0,"updated_at":"2026-05-21T14:03:11.469136+05:30"},{"city":"Jaipur","state":"Rajasthan","latitude":26.9124,"longitude":75.7873,"temp":40.8,"humidity":10,"rain":0.0,"pressure":956.5,"uv_index":8.25,"wind_gusts":45.7,"aqi":183,"pm10":294.3,"pm2_5":50.3,"no2":0.9,"co":145.0,"o3":115.0,"so2":2.6,"mosquito_risk":0,"arthritis_risk":5,"migraine_risk":10,"frizz_risk":0,"updated_at":"2026-05-21T14:03:11.469147+05:30"},{"city":"Lucknow","state":"Uttar Pradesh","latitude":26.8467,"longitude":80.9462,"temp":42.6,"humidity":20,"rain":0.0,"pressure":986.9,"uv_index":8.25,"wind_gusts":36.7,"aqi":156,"pm10":290.6,"pm2_5":60.8,"no2":0.7,"co":179.0,"o3":148.0,"so2":5.2,"mosquito_risk":0,"arthritis_risk":5,"migraine_risk":10,"frizz_risk":0,"updated_at":"2026-05-21T14:03:11.469155+05:30"},{"city":"Kanpur","state":"Uttar Pradesh","latitude":26.4499,"longitude":80.3319,"temp":43.1,"humidity":17,"rain":0.0,"pressure":985.5,"uv_index":8.25,"wind_gusts":46.4,"aqi":211,"pm10":527.1,"pm2_5":73.1,"no2":0.8,"co":148.0,"o3":130.0,"so2":4.4,"mosquito_risk":0,"arthritis_risk":5,"migraine_risk":10,"frizz_risk":0,"updated_at":"2026-05-21T14:03:11.469161+05:30"},{"city":"Chandigarh","state":"Chandigarh","latitude":30.7333,"longitude":76.7794,"temp":41.5,"humidity":13,"rain":0.0,"pressure":963.3,"uv_index":7.75,"wind_gusts":32.4,"aqi":100,"pm10":80.6,"pm2_5":29.8,"no2":1.7,"co":338.0,"o3":176.0,"so2":11.8,"mosquito_risk":0,"arthritis_risk":5,"migraine_risk":10,"frizz_risk":0,"updated_at":"2026-05-21T14:03:11.469170+05:30"},{"city":"Srinagar","state":"Jammu and Kashmir","latitude":34.0837,"longitude":74.7973,"temp":21.1,"humidity":52,"rain":0.0,"pressure":845.6,"uv_index":8.85,"wind_gusts":24.5,"aqi":73,"pm10":45.8,"pm2_5":15.4,"no2":1.6,"co":228.0,"o3":127.0,"so2":3.0,"mosquito_risk":0,"arthritis_risk":5,"migraine_risk":7,"frizz_risk":0,"updated_at":"2026-05-21T14:03:11.469177+05:30"},{"city":"Jammu","state":"Jammu and Kashmir","latitude":32.7266,"longitude":74.857,"temp":40.4,"humidity":13,"rain":0.0,"pressure":968.0,"uv_index":8.55,"wind_gusts":46.8,"aqi":82,"pm10":65.9,"pm2_5":19.1,"no2":0.9,"co":152.0,"o3":131.0,"so2":3.1,"mosquito_risk":0,"arthritis_risk":5,"migraine_risk":10,"frizz_risk":0,"updated_at":"2026-05-21T14:03:11.469183+05:30"},{"city":"Amritsar","state":"Punjab","latitude":31.634,"longitude":74.8723,"temp":41.6,"humidity":14,"rain":0.0,"pressure":975.2,"uv_index":8.45,"wind_gusts":40.7,"aqi":91,"pm10":58.9,"pm2_5":20.6,"no2":0.2,"co":169.0,"o3":140.0,"so2":3.5,"mosquito_risk":0,"arthritis_risk":5,"migraine_risk":10,"frizz_risk":0,"updated_at":"2026-05-21T14:03:11.469189+05:30"},{"city":"Ludhiana","state":"Punjab","latitude":30.901,"longitude":75.8573,"temp":40.7,"humidity":16,"rain":0.0,"pressure":973.3,"uv_index":8.05,"wind_gusts":34.6,"aqi":144,"pm10":105.0,"pm2_5":31.3,"no2":1.0,"co":308.0,"o3":154.0,"so2":6.4,"mosquito_risk":0,"arthritis_risk":5,"migraine_risk":10,"frizz_risk":0,"updated_at":"2026-05-21T14:03:11.469196+05:30"},{"city":"Jalandhar","state":"Punjab","latitude":31.326,"longitude":75.5762,"temp":41.3,"humidity":15,"rain":0.0,"pressure":974.2,"uv_index":8.2,"wind_gusts":26.6,"aqi":104,"pm10":78.2,"pm2_5":25.7,"no2":0.9,"co":284.0,"o3":159.0,"so2":4.6,"mosquito_risk":0,"arthritis_risk":5,"migraine_risk":10,"frizz_risk":0,"updated_at":"2026-05-21T14:03:11.469202+05:30"},{"city":"Dehradun","state":"Uttarakhand","latitude":30.6284,"longitude":78.0322,"temp":29.2,"humidity":29,"rain":0.0,"pressure":832.1,"uv_index":8.05,"wind_gusts":45.4,"aqi":68,"pm10":51.0,"pm2_5":18.5,"no2":0.7,"co":255.0,"o3":154.0,"so2":6.2,"mosquito_risk":4,"arthritis_risk":5,"migraine_risk":7,"frizz_risk":0,"updated_at":"2026-05-21T14:03:11.469208+05:30"},{"city":"Shimla","state":"Himachal Pradesh","latitude":31.1048,"longitude":77.1734,"temp":27.0,"humidity":18,"rain":0.0,"pressure":788.1,"uv_index":8.3,"wind_gusts":46.8,"aqi":78,"pm10":44.2,"pm2_5":17.3,"no2":0.7,"co":170.0,"o3":161.0,"so2":8.9,"mosquito_risk":4,"arthritis_risk":5,"migraine_risk":7,"frizz_risk":0,"updated_at":"2026-05-21T14:03:11.469216+05:30"},{"city":"Manali","state":"Himachal Pradesh","latitude":32.2396,"longitude":77.1887,"temp":26.8,"humidity":36,"rain":0.0,"pressure":821.5,"uv_index":10.0,"wind_gusts":45.7,"aqi":77,"pm10":36.3,"pm2_5":12.5,"no2":1.7,"co":143.0,"o3":145.0,"so2":0.8,"mosquito_risk":4,"arthritis_risk":5,"migraine_risk":7,"frizz_risk":0,"updated_at":"2026-05-21T14:03:11.469223+05:30"},{"city":"Gurgaon","state":"Haryana","latitude":28.4595,"longitude":77.0266,"temp":42.0,"humidity":18,"rain":0.0,"pressure":975.7,"uv_index":7.85,"wind_gusts":49.3,"aqi":1585,"pm10":2645.0,"pm2_5":338.1,"no2":2.7,"co":172.0,"o3":137.0,"so2":7.2,"mosquito_risk":0,"arthritis_risk":5,"migraine_risk":10,"frizz_risk":0,"updated_at":"2026-05-21T14:03:11.469231+05:30"},{"city":"Noida","state":"Uttar Pradesh","latitude":28.5355,"longitude":77.391,"temp":42.7,"humidity":18,"rain":0.0,"pressure":978.1,"uv_index":7.75,"wind_gusts":42.1,"aqi":1585,"pm10":2645.0,"pm2_5":338.1,"no2":2.7,"co":214.0,"o3":137.0,"so2":7.2,"mosquito_risk":0,"arthritis_risk":5,"migraine_risk":10,"frizz_risk":0,"updated_at":"2026-05-21T14:03:11.469238+05:30"},{"city":"Ghaziabad","state":"Uttar Pradesh","latitude":28.6692,"longitude":77.4538,"temp":42.4,"humidity":18,"rain":0.0,"pressure":976.4,"uv_index":7.75,"wind_gusts":45.0,"aqi":402,"pm10":1166.0,"pm2_5":194.2,"no2":2.5,"co":177.0,"o3":155.0,"so2":12.2,"mosquito_risk":0,"arthritis_risk":5,"migraine_risk":10,"frizz_risk":0,"updated_at":"2026-05-21T14:03:11.469244+05:30"},{"city":"Faridabad","state":"Haryana","latitude":28.4089,"longitude":77.3178,"temp":42.5,"humidity":17,"rain":0.0,"pressure":977.6,"uv_index":7.8,"wind_gusts":51.1,"aqi":1585,"pm10":2645.0,"pm2_5":338.1,"no2":2.7,"co":186.0,"o3":137.0,"so2":7.2,"mosquito_risk":0,"arthritis_risk":5,"migraine_risk":10,"frizz_risk":0,"updated_at":"2026-05-21T14:03:11.469250+05:30"},{"city":"Meerut","state":"Uttar Pradesh","latitude":28.9845,"longitude":77.7064,"temp":41.8,"humidity":21,"rain":0.0,"pressure":975.2,"uv_index":7.7,"wind_gusts":40.7,"aqi":402,"pm10":1166.0,"pm2_5":194.2,"no2":2.5,"co":189.0,"o3":155.0,"so2":12.2,"mosquito_risk":0,"arthritis_risk":5,"migraine_risk":10,"frizz_risk":0,"updated_at":"2026-05-21T14:03:11.469256+05:30"},{"city":"Agra","state":"Uttar Pradesh","latitude":27.1767,"longitude":78.0081,"temp":42.6,"humidity":16,"rain":0.0,"pressure":982.0,"uv_index":8.1,"wind_gusts":47.9,"aqi":899,"pm10":1393.3,"pm2_5":170.0,"no2":0.6,"co":160.0,"o3":128.0,"so2":3.5,"mosquito_risk":0,"arthritis_risk":5,"migraine_risk":10,"frizz_risk":0,"updated_at":"2026-05-21T14:03:11.469262+05:30"},{"city":"Varanasi","state":"Uttar Pradesh","latitude":25.3176,"longitude":82.9739,"temp":43.8,"humidity":16,"rain":0.0,"pressure":990.8,"uv_index":8.75,"wind_gusts":40.0,"aqi":152,"pm10":76.6,"pm2_5":31.3,"no2":1.1,"co":234.0,"o3":191.0,"so2":12.0,"mosquito_risk":0,"arthritis_risk":5,"migraine_risk":10,"frizz_risk":0,"updated_at":"2026-05-21T14:03:11.469269+05:30"},{"city":"Prayagraj","state":"Uttar Pradesh","latitude":25.4358,"longitude":81.8463,"temp":43.4,"humidity":15,"rain":0.0,"pressure":989.6,"uv_index":8.65,"wind_gusts":41.0,"aqi":154,"pm10":70.3,"pm2_5":26.8,"no2":0.8,"co":147.0,"o3":163.0,"so2":7.4,"mosquito_risk":0,"arthritis_risk":5,"migraine_risk":10,"frizz_risk":0,"updated_at":"2026-05-21T14:03:11.469276+05:30"},{"city":"Gorakhpur","state":"Uttar Pradesh","latitude":26.7606,"longitude":83.3732,"temp":39.5,"humidity":40,"rain":0.0,"pressure":990.8,"uv_index":8.65,"wind_gusts":38.2,"aqi":157,"pm10":117.3,"pm2_5":71.0,"no2":1.4,"co":397.0,"o3":204.0,"so2":13.2,"mosquito_risk":0,"arthritis_risk":5,"migraine_risk":10,"frizz_risk":1,"updated_at":"2026-05-21T14:03:11.469285+05:30"},{"city":"Bareilly","state":"Uttar Pradesh","latitude":28.367,"longitude":79.4304,"temp":39.8,"humidity":29,"rain":0.0,"pressure":980.1,"uv_index":8.05,"wind_gusts":27.7,"aqi":160,"pm10":303.6,"pm2_5":90.6,"no2":1.6,"co":279.0,"o3":211.0,"so2":12.1,"mosquito_risk":0,"arthritis_risk":5,"migraine_risk":10,"frizz_risk":1,"updated_at":"2026-05-21T14:03:11.469292+05:30"},{"city":"Aligarh","state":"Uttar Pradesh","latitude":27.8974,"longitude":78.088,"temp":42.0,"humidity":19,"rain":0.0,"pressure":979.5,"uv_index":7.95,"wind_gusts":44.6,"aqi":900,"pm10":1896.2,"pm2_5":272.9,"no2":1.6,"co":176.0,"o3":155.0,"so2":9.2,"mosquito_risk":0,"arthritis_risk":5,"migraine_risk":10,"frizz_risk":0,"updated_at":"2026-05-21T14:03:11.469298+05:30"},{"city":"Moradabad","state":"Uttar Pradesh","latitude":28.8386,"longitude":78.7733,"temp":40.2,"humidity":28,"rain":0.0,"pressure":977.2,"uv_index":7.8,"wind_gusts":31.7,"aqi":173,"pm10":272.9,"pm2_5":92.4,"no2":2.4,"co":328.0,"o3":258.0,"so2":22.6,"mosquito_risk":0,"arthritis_risk":5,"migraine_risk":10,"frizz_risk":1,"updated_at":"2026-05-21T14:03:11.469305+05:30"},{"city":"Saharanpur","state":"Uttar Pradesh","latitude":29.9637,"longitude":77.546,"temp":40.3,"humidity":24,"rain":0.0,"pressure":969.6,"uv_index":7.15,"wind_gusts":32.4,"aqi":161,"pm10":266.4,"pm2_5":74.5,"no2":2.3,"co":335.0,"o3":235.0,"so2":22.5,"mosquito_risk":0,"arthritis_risk":5,"migraine_risk":10,"frizz_risk":1,"updated_at":"2026-05-21T14:03:11.469311+05:30"},{"city":"Jhansi","state":"Uttar Pradesh","latitude":25.4484,"longitude":78.5685,"temp":42.0,"humidity":14,"rain":0.0,"pressure":973.6,"uv_index":8.5,"wind_gusts":43.2,"aqi":56,"pm10":92.7,"pm2_5":25.6,"no2":0.7,"co":132.0,"o3":111.0,"so2":3.3,"mosquito_risk":0,"arthritis_risk":5,"migraine_risk":10,"frizz_risk":0,"updated_at":"2026-05-21T14:03:14.749131+05:30"},{"city":"Surat","state":"Gujarat","latitude":21.1702,"longitude":72.8311,"temp":36.0,"humidity":44,"rain":0.0,"pressure":1003.9,"uv_index":7.7,"wind_gusts":37.1,"aqi":67,"pm10":69.4,"pm2_5":32.4,"no2":19.0,"co":492.0,"o3":74.0,"so2":59.6,"mosquito_risk":0,"arthritis_risk":5,"migraine_risk":7,"frizz_risk":1,"updated_at":"2026-05-21T14:03:14.749159+05:30"},{"city":"Vadodara","state":"Gujarat","latitude":22.3072,"longitude":73.1812,"temp":40.7,"humidity":20,"rain":0.0,"pressure":1000.6,"uv_index":8.1,"wind_gusts":36.4,"aqi":68,"pm10":107.1,"pm2_5":36.6,"no2":2.0,"co":182.0,"o3":134.0,"so2":8.9,"mosquito_risk":0,"arthritis_risk":5,"migraine_risk":7,"frizz_risk":0,"updated_at":"2026-05-21T14:03:14.749170+05:30"},{"city":"Rajkot","state":"Gujarat","latitude":22.3039,"longitude":70.8022,"temp":40.5,"humidity":19,"rain":0.0,"pressure":990.9,"uv_index":7.75,"wind_gusts":47.9,"aqi":68,"pm10":89.6,"pm2_5":27.0,"no2":0.9,"co":133.0,"o3":104.0,"so2":4.5,"mosquito_risk":0,"arthritis_risk":5,"migraine_risk":10,"frizz_risk":0,"updated_at":"2026-05-21T14:03:14.749178+05:30"},{"city":"Thane","state":"Maharashtra","latitude":19.2183,"longitude":72.9781,"temp":35.5,"humidity":48,"rain":0.1,"pressure":1004.9,"uv_index":7.85,"wind_gusts":34.9,"aqi":53,"pm10":18.1,"pm2_5":11.9,"no2":3.9,"co":176.0,"o3":95.0,"so2":5.2,"mosquito_risk":3,"arthritis_risk":5,"migraine_risk":7,"frizz_risk":1,"updated_at":"2026-05-21T14:03:14.749187+05:30"},{"city":"Nagpur","state":"Maharashtra","latitude":21.1458,"longitude":79.0882,"temp":43.8,"humidity":13,"rain":0.0,"pressure":968.7,"uv_index":8.95,"wind_gusts":42.5,"aqi":66,"pm10":42.1,"pm2_5":20.1,"no2":4.0,"co":158.0,"o3":147.0,"so2":15.0,"mosquito_risk":0,"arthritis_risk":5,"migraine_risk":10,"frizz_risk":0,"updated_at":"2026-05-21T14:03:14.749195+05:30"},{"city":"Nashik","state":"Maharashtra","latitude":19.9975,"longitude":73.7898,"temp":34.5,"humidity":38,"rain":0.0,"pressure":944.1,"uv_index":4.1,"wind_gusts":34.6,"aqi":51,"pm10":31.3,"pm2_5":13.0,"no2":0.6,"co":131.0,"o3":83.0,"so2":0.8,"mosquito_risk":0,"arthritis_risk":5,"migraine_risk":3,"frizz_risk":1,"updated_at":"2026-05-21T14:03:14.749202+05:30"},{"city":"Aurangabad","state":"Maharashtra","latitude":19.8762,"longitude":75.3433,"temp":39.5,"humidity":23,"rain":0.0,"pressure":942.0,"uv_index":8.75,"wind_gusts":38.9,"aqi":63,"pm10":38.3,"pm2_5":17.4,"no2":0.7,"co":145.0,"o3":112.0,"so2":2.4,"mosquito_risk":0,"arthritis_risk":5,"migraine_risk":10,"frizz_risk":0,"updated_at":"2026-05-21T14:03:14.749209+05:30"},{"city":"Solapur","state":"Maharashtra","latitude":17.6599,"longitude":75.9064,"temp":36.7,"humidity":35,"rain":0.0,"pressure":954.8,"uv_index":9.05,"wind_gusts":42.1,"aqi":75,"pm10":49.2,"pm2_5":27.8,"no2":1.2,"co":149.0,"o3":136.0,"so2":4.6,"mosquito_risk":0,"arthritis_risk":5,"migraine_risk":10,"frizz_risk":1,"updated_at":"2026-05-21T14:03:14.749218+05:30"},{"city":"Kolhapur","state":"Maharashtra","latitude":16.705,"longitude":74.2433,"temp":35.1,"humidity":41,"rain":0.0,"pressure":946.4,"uv_index":8.85,"wind_gusts":41.4,"aqi":62,"pm10":29.9,"pm2_5":17.7,"no2":1.3,"co":164.0,"o3":113.0,"so2":2.2,"mosquito_risk":0,"arthritis_risk":5,"migraine_risk":10,"frizz_risk":1,"updated_at":"2026-05-21T14:03:14.749225+05:30"},{"city":"Goa","state":"Goa","latitude":15.2993,"longitude":74.124,"temp":33.3,"humidity":60,"rain":0.1,"pressure":995.9,"uv_index":7.75,"wind_gusts":29.2,"aqi":45,"pm10":10.7,"pm2_5":7.0,"no2":0.5,"co":138.0,"o3":79.0,"so2":0.9,"mosquito_risk":3,"arthritis_risk":5,"migraine_risk":7,"frizz_risk":1,"updated_at":"2026-05-21T14:03:14.749233+05:30"},{"city":"Jodhpur","state":"Rajasthan","latitude":26.2389,"longitude":73.0243,"temp":40.1,"humidity":14,"rain":0.0,"pressure":979.1,"uv_index":8.45,"wind_gusts":47.2,"aqi":167,"pm10":310.1,"pm2_5":50.5,"no2":0.6,"co":127.0,"o3":107.0,"so2":2.2,"mosquito_risk":0,"arthritis_risk":5,"migraine_risk":10,"frizz_risk":0,"updated_at":"2026-05-21T14:03:14.749240+05:30"},{"city":"Udaipur","state":"Rajasthan","latitude":24.5854,"longitude":73.7125,"temp":38.0,"humidity":12,"rain":0.0,"pressure":944.8,"uv_index":8.85,"wind_gusts":38.9,"aqi":69,"pm10":62.6,"pm2_5":19.8,"no2":0.4,"co":123.0,"o3":103.0,"so2":2.0,"mosquito_risk":0,"arthritis_risk":5,"migraine_risk":10,"frizz_risk":0,"updated_at":"2026-05-21T14:03:14.749248+05:30"},{"city":"Kota","state":"Rajasthan","latitude":25.2138,"longitude":75.8648,"temp":41.8,"humidity":9,"rain":0.0,"pressure":975.3,"uv_index":8.45,"wind_gusts":44.3,"aqi":62,"pm10":42.8,"pm2_5":15.9,"no2":0.8,"co":127.0,"o3":115.0,"so2":2.6,"mosquito_risk":0,"arthritis_risk":5,"migraine_risk":10,"frizz_risk":0,"updated_at":"2026-05-21T14:03:14.749255+05:30"},{"city":"Bikaner","state":"Rajasthan","latitude":28.0229,"longitude":73.3119,"temp":40.4,"humidity":14,"rain":0.0,"pressure":977.3,"uv_index":8.4,"wind_gusts":31.3,"aqi":157,"pm10":102.0,"pm2_5":38.6,"no2":0.4,"co":133.0,"o3":118.0,"so2":2.1,"mosquito_risk":0,"arthritis_risk":5,"migraine_risk":10,"frizz_risk":0,"updated_at":"2026-05-21T14:03:14.749262+05:30"},{"city":"Ajmer","state":"Rajasthan","latitude":26.4499,"longitude":74.6399,"temp":37.8,"humidity":13,"rain":0.0,"pressure":952.1,"uv_index":8.4,"wind_gusts":52.9,"aqi":82,"pm10":58.8,"pm2_5":18.5,"no2":0.5,"co":126.0,"o3":110.0,"so2":2.0,"mosquito_risk":0,"arthritis_risk":5,"migraine_risk":10,"frizz_risk":0,"updated_at":"2026-05-21T14:03:14.749269+05:30"},{"city":"Gwalior","state":"Madhya Pradesh","latitude":26.2183,"longitude":78.1828,"temp":41.7,"humidity":16,"rain":0.0,"pressure":978.6,"uv_index":8.25,"wind_gusts":52.6,"aqi":62,"pm10":111.1,"pm2_5":34.3,"no2":0.5,"co":142.0,"o3":116.0,"so2":2.9,"mosquito_risk":0,"arthritis_risk":5,"migraine_risk":10,"frizz_risk":0,"updated_at":"2026-05-21T14:03:14.749276+05:30"},{"city":"Indore","state":"Madhya Pradesh","latitude":22.7196,"longitude":75.8577,"temp":39.8,"humidity":18,"rain":0.0,"pressure":946.0,"uv_index":8.7,"wind_gusts":37.8,"aqi":66,"pm10":53.4,"pm2_5":22.5,"no2":0.8,"co":163.0,"o3":114.0,"so2":3.7,"mosquito_risk":0,"arthritis_risk":5,"migraine_risk":10,"frizz_risk":0,"updated_at":"2026-05-21T14:03:14.749283+05:30"},{"city":"Bhopal","state":"Madhya Pradesh","latitude":23.2599,"longitude":77.4126,"temp":41.4,"humidity":15,"rain":0.0,"pressure":950.9,"uv_index":8.7,"wind_gusts":43.9,"aqi":62,"pm10":34.0,"pm2_5":16.0,"no2":0.6,"co":148.0,"o3":119.0,"so2":3.1,"mosquito_risk":0,"arthritis_risk":5,"migraine_risk":10,"frizz_risk":0,"updated_at":"2026-05-21T14:03:14.749290+05:30"},{"city":"Jabalpur","state":"Madhya Pradesh","latitude":23.1815,"longitude":79.9864,"temp":42.5,"humidity":14,"rain":0.0,"pressure":958.0,"uv_index":8.9,"wind_gusts":36.0,"aqi":66,"pm10":47.5,"pm2_5":18.0,"no2":0.6,"co":134.0,"o3":126.0,"so2":3.8,"mosquito_risk":0,"arthritis_risk":5,"migraine_risk":10,"frizz_risk":0,"updated_at":"2026-05-21T14:03:14.749297+05:30"},{"city":"Ujjain","state":"Madhya Pradesh","latitude":23.1765,"longitude":75.7885,"temp":40.0,"humidity":18,"rain":0.0,"pressure":951.6,"uv_index":8.65,"wind_gusts":37.4,"aqi":66,"pm10":64.5,"pm2_5":24.4,"no2":0.5,"co":148.0,"o3":110.0,"so2":3.7,"mosquito_risk":0,"arthritis_risk":5,"migraine_risk":10,"frizz_risk":0,"updated_at":"2026-05-21T14:03:14.749305+05:30"},{"city":"Visakhapatnam","state":"Andhra Pradesh","latitude":17.6868,"longitude":83.2185,"temp":40.0,"humidity":48,"rain":0.0,"pressure":996.1,"uv_index":8.9,"wind_gusts":37.1,"aqi":121,"pm10":78.5,"pm2_5":61.5,"no2":9.6,"co":428.0,"o3":233.0,"so2":47.2,"mosquito_risk":0,"arthritis_risk":5,"migraine_risk":10,"frizz_risk":1,"updated_at":"2026-05-21T14:03:14.749312+05:30"},{"city":"Vijayawada","state":"Andhra Pradesh","latitude":16.5062,"longitude":80.648,"temp":44.0,"humidity":22,"rain":0.0,"pressure":995.3,"uv_index":9.15,"wind_gusts":41.8,"aqi":136,"pm10":60.5,"pm2_5":42.7,"no2":1.2,"co":209.0,"o3":176.0,"so2":9.3,"mosquito_risk":0,"arthritis_risk":5,"migraine_risk":10,"frizz_risk":1,"updated_at":"2026-05-21T14:03:14.749319+05:30"},{"city":"Guntur","state":"Andhra Pradesh","latitude":16.3067,"longitude":80.4365,"temp":44.0,"humidity":22,"rain":0.0,"pressure":996.7,"uv_index":9.1,"wind_gusts":42.5,"aqi":115,"pm10":54.7,"pm2_5":38.1,"no2":1.2,"co":205.0,"o3":169.0,"so2":9.2,"mosquito_risk":0,"arthritis_risk":5,"migraine_risk":10,"frizz_risk":1,"updated_at":"2026-05-21T14:03:14.749326+05:30"},{"city":"Nellore","state":"Andhra Pradesh","latitude":14.4426,"longitude":79.9865,"temp":42.8,"humidity":28,"rain":0.0,"pressure":999.2,"uv_index":9.1,"wind_gusts":42.8,"aqi":78,"pm10":36.3,"pm2_5":24.8,"no2":2.5,"co":170.0,"o3":162.0,"so2":6.6,"mosquito_risk":0,"arthritis_risk":5,"migraine_risk":10,"frizz_risk":1,"updated_at":"2026-05-21T14:03:14.749334+05:30"},{"city":"Kurnool","state":"Andhra Pradesh","latitude":15.8281,"longitude":78.0373,"temp":40.0,"humidity":31,"rain":0.0,"pressure":972.8,"uv_index":8.7,"wind_gusts":41.4,"aqi":73,"pm10":54.1,"pm2_5":34.1,"no2":1.4,"co":174.0,"o3":156.0,"so2":11.0,"mosquito_risk":0,"arthritis_risk":5,"migraine_risk":10,"frizz_risk":1,"updated_at":"2026-05-21T14:03:14.749341+05:30"},{"city":"Kakinada","state":"Andhra Pradesh","latitude":16.9891,"longitude":82.2475,"temp":43.5,"humidity":27,"rain":0.0,"pressure":999.6,"uv_index":8.4,"wind_gusts":35.6,"aqi":121,"pm10":48.5,"pm2_5":38.9,"no2":2.9,"co":263.0,"o3":179.0,"so2":5.0,"mosquito_risk":0,"arthritis_risk":5,"migraine_risk":10,"frizz_risk":1,"updated_at":"2026-05-21T14:03:14.749349+05:30"},{"city":"Tirupati","state":"Andhra Pradesh","latitude":13.6288,"longitude":79.4192,"temp":40.5,"humidity":33,"rain":0.0,"pressure":985.6,"uv_index":9.1,"wind_gusts":32.8,"aqi":59,"pm10":24.8,"pm2_5":17.6,"no2":0.3,"co":167.0,"o3":143.0,"so2":3.2,"mosquito_risk":0,"arthritis_risk":5,"migraine_risk":10,"frizz_risk":1,"updated_at":"2026-05-21T14:03:14.749355+05:30"},{"city":"Warangal","state":"Telangana","latitude":17.9689,"longitude":79.5941,"temp":42.0,"humidity":20,"rain":0.0,"pressure":973.6,"uv_index":8.85,"wind_gusts":44.6,"aqi":120,"pm10":41.2,"pm2_5":28.3,"no2":1.7,"co":197.0,"o3":182.0,"so2":14.5,"mosquito_risk":0,"arthritis_risk":5,"migraine_risk":10,"frizz_risk":0,"updated_at":"2026-05-21T14:03:14.749362+05:30"},{"city":"Nizamabad","state":"Telangana","latitude":18.6725,"longitude":78.0941,"temp":41.5,"humidity":20,"rain":0.0,"pressure":961.1,"uv_index":9.1,"wind_gusts":33.8,"aqi":94,"pm10":41.1,"pm2_5":23.5,"no2":1.0,"co":166.0,"o3":147.0,"so2":6.7,"mosquito_risk":0,"arthritis_risk":5,"migraine_risk":10,"frizz_risk":0,"updated_at":"2026-05-21T14:03:14.749369+05:30"},{"city":"Mysore","state":"Karnataka","latitude":12.2958,"longitude":76.6396,"temp":34.0,"humidity":40,"rain":0.0,"pressure":927.5,"uv_index":7.15,"wind_gusts":45.0,"aqi":30,"pm10":5.4,"pm2_5":4.2,"no2":1.7,"co":126.0,"o3":92.0,"so2":1.2,"mosquito_risk":0,"arthritis_risk":5,"migraine_risk":7,"frizz_risk":1,"updated_at":"2026-05-21T14:03:14.749376+05:30"},{"city":"Mangalore","state":"Karnataka","latitude":12.9141,"longitude":74.856,"temp":30.6,"humidity":73,"rain":0.1,"pressure":1004.9,"uv_index":8.9,"wind_gusts":37.4,"aqi":53,"pm10":6.6,"pm2_5":4.6,"no2":1.6,"co":124.0,"o3":68.0,"so2":1.3,"mosquito_risk":6,"arthritis_risk":5,"migraine_risk":4,"frizz_risk":1,"updated_at":"2026-05-21T14:03:14.749383+05:30"},{"city":"Hubli-Dharwad","state":"Karnataka","latitude":15.3647,"longitude":75.124,"temp":31.6,"humidity":52,"rain":0.0,"pressure":939.6,"uv_index":9.05,"wind_gusts":37.8,"aqi":31,"pm10":7.0,"pm2_5":4.9,"no2":1.4,"co":144.0,"o3":86.0,"so2":0.7,"mosquito_risk":0,"arthritis_risk":5,"migraine_risk":7,"frizz_risk":1,"updated_at":"2026-05-21T14:03:14.749390+05:30"},{"city":"Belgaum","state":"Karnataka","latitude":15.8497,"longitude":74.4977,"temp":32.5,"humidity":46,"rain":0.0,"pressure":925.1,"uv_index":6.8,"wind_gusts":39.2,"aqi":58,"pm10":18.9,"pm2_5":12.0,"no2":1.6,"co":139.0,"o3":98.0,"so2":2.0,"mosquito_risk":0,"arthritis_risk":5,"migraine_risk":7,"frizz_risk":1,"updated_at":"2026-05-21T14:03:18.033804+05:30"},{"city":"Coimbatore","state":"Tamil Nadu","latitude":11.0168,"longitude":76.9558,"temp":32.8,"humidity":52,"rain":0.1,"pressure":959.6,"uv_index":8.95,"wind_gusts":53.6,"aqi":29,"pm10":4.6,"pm2_5":4.0,"no2":2.1,"co":133.0,"o3":73.0,"so2":1.8,"mosquito_risk":3,"arthritis_risk":5,"migraine_risk":7,"frizz_risk":1,"updated_at":"2026-05-21T14:03:18.033837+05:30"},{"city":"Madurai","state":"Tamil Nadu","latitude":9.9252,"longitude":78.1198,"temp":37.5,"humidity":39,"rain":0.0,"pressure":989.3,"uv_index":9.0,"wind_gusts":47.5,"aqi":70,"pm10":10.3,"pm2_5":8.0,"no2":1.1,"co":121.0,"o3":115.0,"so2":1.9,"mosquito_risk":0,"arthritis_risk":5,"migraine_risk":10,"frizz_risk":1,"updated_at":"2026-05-21T14:03:18.033851+05:30"},{"city":"Trichy","state":"Tamil Nadu","latitude":10.7905,"longitude":78.7047,"temp":37.5,"humidity":42,"rain":0.0,"pressure":995.1,"uv_index":9.0,"wind_gusts":38.5,"aqi":38,"pm10":8.3,"pm2_5":6.5,"no2":1.2,"co":128.0,"o3":102.0,"so2":2.2,"mosquito_risk":0,"arthritis_risk":5,"migraine_risk":10,"frizz_risk":1,"updated_at":"2026-05-21T14:03:18.033863+05:30"},{"city":"Salem","state":"Tamil Nadu","latitude":11.6643,"longitude":78.146,"temp":38.2,"humidity":36,"rain":0.0,"pressure":973.8,"uv_index":8.95,"wind_gusts":46.8,"aqi":53,"pm10":9.9,"pm2_5":8.5,"no2":1.8,"co":156.0,"o3":132.0,"so2":7.0,"mosquito_risk":0,"arthritis_risk":5,"migraine_risk":10,"frizz_risk":1,"updated_at":"2026-05-21T14:03:18.033912+05:30"},{"city":"Tirunelveli","state":"Tamil Nadu","latitude":8.7139,"longitude":77.7567,"temp":37.3,"humidity":43,"rain":0.1,"pressure":1000.0,"uv_index":7.65,"wind_gusts":38.5,"aqi":24,"pm10":3.8,"pm2_5":3.1,"no2":1.4,"co":109.0,"o3":64.0,"so2":0.7,"mosquito_risk":3,"arthritis_risk":5,"migraine_risk":7,"frizz_risk":1,"updated_at":"2026-05-21T14:03:18.033926+05:30"},{"city":"Vellore","state":"Tamil Nadu","latitude":12.9165,"longitude":79.1325,"temp":39.8,"humidity":31,"rain":0.0,"pressure":979.6,"uv_index":8.75,"wind_gusts":46.1,"aqi":45,"pm10":17.3,"pm2_5":13.7,"no2":0.8,"co":186.0,"o3":144.0,"so2":2.7,"mosquito_risk":0,"arthritis_risk":5,"migraine_risk":10,"frizz_risk":1,"updated_at":"2026-05-21T14:03:18.033936+05:30"},{"city":"Erode","state":"Tamil Nadu","latitude":11.341,"longitude":77.7172,"temp":38.2,"humidity":32,"rain":0.0,"pressure":985.2,"uv_index":9.05,"wind_gusts":50.4,"aqi":44,"pm10":10.0,"pm2_5":7.6,"no2":1.8,"co":143.0,"o3":105.0,"so2":1.9,"mosquito_risk":0,"arthritis_risk":5,"migraine_risk":10,"frizz_risk":1,"updated_at":"2026-05-21T14:03:18.033946+05:30"},{"city":"Kochi","state":"Kerala","latitude":9.9312,"longitude":76.2673,"temp":30.8,"humidity":75,"rain":0.0,"pressure":1007.0,"uv_index":8.5,"wind_gusts":36.7,"aqi":60,"pm10":9.1,"pm2_5":7.1,"no2":3.3,"co":124.0,"o3":67.0,"so2":2.6,"mosquito_risk":3,"arthritis_risk":5,"migraine_risk":4,"frizz_risk":1,"updated_at":"2026-05-21T14:03:18.033955+05:30"},{"city":"Thiruvananthapuram","state":"Kerala","latitude":8.5241,"longitude":76.9366,"temp":30.2,"humidity":77,"rain":0.0,"pressure":1006.6,"uv_index":7.5,"wind_gusts":45.4,"aqi":24,"pm10":10.0,"pm2_5":5.9,"no2":0.9,"co":104.0,"o3":60.0,"so2":0.4,"mosquito_risk":3,"arthritis_risk":5,"migraine_risk":4,"frizz_risk":1,"updated_at":"2026-05-21T14:03:18.033964+05:30"},{"city":"Kozhikode","state":"Kerala","latitude":11.2588,"longitude":75.7804,"temp":30.8,"humidity":75,"rain":0.0,"pressure":1006.3,"uv_index":8.8,"wind_gusts":34.2,"aqi":27,"pm10":5.5,"pm2_5":3.5,"no2":0.5,"co":107.0,"o3":64.0,"so2":0.4,"mosquito_risk":3,"arthritis_risk":5,"migraine_risk":4,"frizz_risk":1,"updated_at":"2026-05-21T14:03:18.033973+05:30"},{"city":"Thrissur","state":"Kerala","latitude":10.5276,"longitude":76.2144,"temp":31.4,"humidity":69,"rain":0.0,"pressure":1005.3,"uv_index":8.65,"wind_gusts":35.6,"aqi":55,"pm10":6.8,"pm2_5":5.6,"no2":2.7,"co":124.0,"o3":61.0,"so2":1.8,"mosquito_risk":3,"arthritis_risk":5,"migraine_risk":4,"frizz_risk":1,"updated_at":"2026-05-21T14:03:18.033990+05:30"},{"city":"Kannur","state":"Kerala","latitude":11.8745,"longitude":75.3704,"temp":30.3,"humidity":77,"rain":0.0,"pressure":1005.6,"uv_index":8.85,"wind_gusts":31.7,"aqi":32,"pm10":6.4,"pm2_5":4.7,"no2":1.5,"co":96.0,"o3":66.0,"so2":0.9,"mosquito_risk":3,"arthritis_risk":5,"migraine_risk":4,"frizz_risk":1,"updated_at":"2026-05-21T14:03:18.033999+05:30"},{"city":"Patna","state":"Bihar","latitude":25.5941,"longitude":85.1376,"temp":36.2,"humidity":57,"rain":0.0,"pressure":994.6,"uv_index":8.9,"wind_gusts":43.6,"aqi":158,"pm10":116.2,"pm2_5":79.2,"no2":2.1,"co":379.0,"o3":227.0,"so2":20.9,"mosquito_risk":0,"arthritis_risk":5,"migraine_risk":10,"frizz_risk":1,"updated_at":"2026-05-21T14:03:18.034007+05:30"},{"city":"Gaya","state":"Bihar","latitude":24.7914,"longitude":85.0002,"temp":40.7,"humidity":29,"rain":0.0,"pressure":987.5,"uv_index":8.9,"wind_gusts":33.8,"aqi":160,"pm10":149.9,"pm2_5":61.0,"no2":0.9,"co":298.0,"o3":195.0,"so2":13.1,"mosquito_risk":0,"arthritis_risk":5,"migraine_risk":10,"frizz_risk":1,"updated_at":"2026-05-21T14:03:18.034016+05:30"},{"city":"Muzaffarpur","state":"Bihar","latitude":26.1209,"longitude":85.3647,"temp":33.5,"humidity":66,"rain":0.0,"pressure":995.4,"uv_index":8.85,"wind_gusts":42.8,"aqi":157,"pm10":104.5,"pm2_5":71.9,"no2":2.1,"co":352.0,"o3":214.0,"so2":18.5,"mosquito_risk":3,"arthritis_risk":5,"migraine_risk":7,"frizz_risk":1,"updated_at":"2026-05-21T14:03:18.034024+05:30"},{"city":"Bhagalpur","state":"Bihar","latitude":25.2425,"longitude":87.0117,"temp":33.2,"humidity":65,"rain":0.0,"pressure":996.1,"uv_index":8.85,"wind_gusts":37.4,"aqi":149,"pm10":85.0,"pm2_5":61.7,"no2":4.5,"co":344.0,"o3":211.0,"so2":29.4,"mosquito_risk":3,"arthritis_risk":5,"migraine_risk":7,"frizz_risk":1,"updated_at":"2026-05-21T14:03:18.034033+05:30"},{"city":"Ranchi","state":"Jharkhand","latitude":23.3441,"longitude":85.3096,"temp":36.8,"humidity":26,"rain":0.0,"pressure":934.7,"uv_index":9.3,"wind_gusts":36.7,"aqi":143,"pm10":106.9,"pm2_5":31.9,"no2":0.6,"co":180.0,"o3":152.0,"so2":6.3,"mosquito_risk":0,"arthritis_risk":5,"migraine_risk":10,"frizz_risk":0,"updated_at":"2026-05-21T14:03:18.034042+05:30"},{"city":"Jamshedpur","state":"Jharkhand","latitude":22.8046,"longitude":86.2029,"temp":39.2,"humidity":30,"rain":0.0,"pressure":985.2,"uv_index":9.1,"wind_gusts":31.7,"aqi":153,"pm10":136.4,"pm2_5":53.9,"no2":1.5,"co":338.0,"o3":210.0,"so2":23.4,"mosquito_risk":0,"arthritis_risk":5,"migraine_risk":10,"frizz_risk":1,"updated_at":"2026-05-21T14:03:18.034050+05:30"},{"city":"Dhanbad","state":"Jharkhand","latitude":23.7957,"longitude":86.4304,"temp":40.3,"humidity":28,"rain":0.0,"pressure":974.3,"uv_index":9.1,"wind_gusts":33.8,"aqi":168,"pm10":153.7,"pm2_5":74.5,"no2":7.2,"co":360.0,"o3":237.0,"so2":46.1,"mosquito_risk":0,"arthritis_risk":5,"migraine_risk":10,"frizz_risk":1,"updated_at":"2026-05-21T14:03:18.034059+05:30"},{"city":"Bokaro","state":"Jharkhand","latitude":23.6693,"longitude":86.1511,"temp":39.8,"humidity":27,"rain":0.0,"pressure":978.2,"uv_index":9.1,"wind_gusts":33.1,"aqi":167,"pm10":147.1,"pm2_5":59.8,"no2":6.5,"co":242.0,"o3":212.0,"so2":38.5,"mosquito_risk":0,"arthritis_risk":5,"migraine_risk":10,"frizz_risk":1,"updated_at":"2026-05-21T14:03:18.034067+05:30"},{"city":"Bhubaneswar","state":"Odisha","latitude":20.2961,"longitude":85.8245,"temp":41.6,"humidity":35,"rain":0.0,"pressure":995.0,"uv_index":9.15,"wind_gusts":33.5,"aqi":124,"pm10":78.7,"pm2_5":51.6,"no2":1.4,"co":268.0,"o3":195.0,"so2":14.2,"mosquito_risk":0,"arthritis_risk":5,"migraine_risk":10,"frizz_risk":1,"updated_at":"2026-05-21T14:03:18.034076+05:30"},{"city":"Cuttack","state":"Odisha","latitude":20.4625,"longitude":85.8828,"temp":40.3,"humidity":43,"rain":0.0,"pressure":996.8,"uv_index":9.2,"wind_gusts":28.4,"aqi":124,"pm10":78.7,"pm2_5":51.6,"no2":1.4,"co":267.0,"o3":195.0,"so2":14.2,"mosquito_risk":0,"arthritis_risk":5,"migraine_risk":10,"frizz_risk":1,"updated_at":"2026-05-21T14:03:18.034084+05:30"},{"city":"Rourkela","state":"Odisha","latitude":22.2604,"longitude":84.8536,"temp":39.8,"humidity":26,"rain":0.2,"pressure":979.5,"uv_index":9.0,"wind_gusts":45.0,"aqi":139,"pm10":133.2,"pm2_5":44.1,"no2":0.3,"co":286.0,"o3":187.0,"so2":13.5,"mosquito_risk":3,"arthritis_risk":5,"migraine_risk":10,"frizz_risk":1,"updated_at":"2026-05-21T14:03:18.034092+05:30"},{"city":"Raipur","state":"Chhattisgarh","latitude":21.2514,"longitude":81.6296,"temp":43.7,"humidity":15,"rain":0.0,"pressure":969.4,"uv_index":9.0,"wind_gusts":36.0,"aqi":151,"pm10":53.6,"pm2_5":27.4,"no2":3.5,"co":164.0,"o3":176.0,"so2":20.0,"mosquito_risk":0,"arthritis_risk":5,"migraine_risk":10,"frizz_risk":0,"updated_at":"2026-05-21T14:03:18.034101+05:30"},{"city":"Bhilai","state":"Chhattisgarh","latitude":21.1938,"longitude":81.3509,"temp":42.8,"humidity":16,"rain":0.0,"pressure":969.8,"uv_index":9.0,"wind_gusts":36.7,"aqi":142,"pm10":29.3,"pm2_5":16.8,"no2":4.4,"co":156.0,"o3":151.0,"so2":19.6,"mosquito_risk":0,"arthritis_risk":5,"migraine_risk":10,"frizz_risk":0,"updated_at":"2026-05-21T14:03:18.034110+05:30"},{"city":"Guwahati","state":"Assam","latitude":26.1158,"longitude":91.7086,"temp":29.9,"humidity":79,"rain":0.0,"pressure":997.5,"uv_index":8.65,"wind_gusts":25.2,"aqi":110,"pm10":48.9,"pm2_5":36.3,"no2":1.2,"co":317.0,"o3":140.0,"so2":3.2,"mosquito_risk":7,"arthritis_risk":5,"migraine_risk":7,"frizz_risk":1,"updated_at":"2026-05-21T14:03:18.034118+05:30"},{"city":"Agartala","state":"Tripura","latitude":23.8315,"longitude":91.2868,"temp":31.1,"humidity":76,"rain":0.0,"pressure":1001.3,"uv_index":8.25,"wind_gusts":28.4,"aqi":91,"pm10":44.1,"pm2_5":26.6,"no2":2.7,"co":222.0,"o3":142.0,"so2":3.0,"mosquito_risk":3,"arthritis_risk":5,"migraine_risk":4,"frizz_risk":1,"updated_at":"2026-05-21T14:03:18.034127+05:30"},{"city":"Shillong","state":"Meghalaya","latitude":25.5788,"longitude":91.8933,"temp":25.1,"humidity":59,"rain":0.0,"pressure":856.4,"uv_index":8.45,"wind_gusts":25.2,"aqi":86,"pm10":40.4,"pm2_5":25.7,"no2":0.9,"co":240.0,"o3":122.0,"so2":3.1,"mosquito_risk":4,"arthritis_risk":5,"migraine_risk":7,"frizz_risk":1,"updated_at":"2026-05-21T14:03:18.034135+05:30"},{"city":"Imphal","state":"Manipur","latitude":24.817,"longitude":93.9368,"temp":27.8,"humidity":72,"rain":0.1,"pressure":920.1,"uv_index":8.95,"wind_gusts":37.4,"aqi":130,"pm10":58.0,"pm2_5":30.7,"no2":0.7,"co":203.0,"o3":126.0,"so2":3.1,"mosquito_risk":10,"arthritis_risk":5,"migraine_risk":7,"frizz_risk":1,"updated_at":"2026-05-21T14:03:18.034144+05:30"},{"city":"Aizawl","state":"Mizoram","latitude":23.7271,"longitude":92.7176,"temp":27.4,"humidity":65,"rain":0.1,"pressure":890.4,"uv_index":8.5,"wind_gusts":25.6,"aqi":93,"pm10":41.8,"pm2_5":23.4,"no2":0.4,"co":187.0,"o3":108.0,"so2":3.0,"mosquito_risk":10,"arthritis_risk":5,"migraine_risk":7,"frizz_risk":1,"updated_at":"2026-05-21T14:03:18.034153+05:30"},{"city":"Kohima","state":"Nagaland","latitude":25.6701,"longitude":94.1077,"temp":22.2,"humidity":89,"rain":0.1,"pressure":854.2,"uv_index":9.2,"wind_gusts":23.4,"aqi":94,"pm10":65.7,"pm2_5":36.4,"no2":0.5,"co":206.0,"o3":121.0,"so2":2.8,"mosquito_risk":6,"arthritis_risk":5,"migraine_risk":7,"frizz_risk":1,"updated_at":"2026-05-21T14:03:18.034161+05:30"},{"city":"Gangtok","state":"Sikkim","latitude":27.3314,"longitude":88.6138,"temp":21.8,"humidity":75,"rain":0.0,"pressure":837.6,"uv_index":9.2,"wind_gusts":37.1,"aqi":86,"pm10":36.2,"pm2_5":26.0,"no2":0.8,"co":294.0,"o3":139.0,"so2":2.8,"mosquito_risk":3,"arthritis_risk":5,"migraine_risk":7,"frizz_risk":1,"updated_at":"2026-05-21T14:03:18.034170+05:30"},{"city":"Siliguri","state":"West Bengal","latitude":26.7271,"longitude":88.3953,"temp":29.0,"humidity":79,"rain":0.0,"pressure":989.7,"uv_index":8.75,"wind_gusts":36.4,"aqi":151,"pm10":57.4,"pm2_5":38.8,"no2":1.6,"co":326.0,"o3":159.0,"so2":4.5,"mosquito_risk":7,"arthritis_risk":5,"migraine_risk":7,"frizz_risk":1,"updated_at":"2026-05-21T14:03:21.316870+05:30"},{"city":"Durgapur","state":"West Bengal","latitude":23.5204,"longitude":87.3119,"temp":38.4,"humidity":47,"rain":0.0,"pressure":988.6,"uv_index":9.0,"wind_gusts":34.9,"aqi":165,"pm10":136.4,"pm2_5":83.1,"no2":9.4,"co":606.0,"o3":240.0,"so2":58.9,"mosquito_risk":0,"arthritis_risk":5,"migraine_risk":10,"frizz_risk":1,"updated_at":"2026-05-21T14:03:21.316932+05:30"},{"city":"Asansol","state":"West Bengal","latitude":23.6739,"longitude":86.9524,"temp":40.0,"humidity":32,"rain":0.0,"pressure":987.1,"uv_index":9.05,"wind_gusts":27.4,"aqi":164,"pm10":141.1,"pm2_5":79.9,"no2":7.7,"co":466.0,"o3":240.0,"so2":53.2,"mosquito_risk":0,"arthritis_risk":5,"migraine_risk":10,"frizz_risk":1,"updated_at":"2026-05-21T14:03:21.316943+05:30"},{"city":"Pondicherry","state":"Puducherry","latitude":11.9139,"longitude":79.8145,"temp":35.2,"humidity":65,"rain":0.0,"pressure":1003.1,"uv_index":7.25,"wind_gusts":42.8,"aqi":68,"pm10":28.5,"pm2_5":24.7,"no2":4.1,"co":201.0,"o3":181.0,"so2":14.3,"mosquito_risk":3,"arthritis_risk":5,"migraine_risk":7,"frizz_risk":1,"updated_at":"2026-05-21T14:03:21.316952+05:30"},{"city":"Port Blair","state":"Andaman and Nicobar Islands","latitude":11.6234,"longitude":92.7265,"temp":29.5,"humidity":78,"rain":0.1,"pressure":1003.6,"uv_index":8.65,"wind_gusts":38.5,"aqi":31,"pm10":9.2,"pm2_5":5.8,"no2":0.3,"co":111.0,"o3":67.0,"so2":0.4,"mosquito_risk":10,"arthritis_risk":5,"migraine_risk":4,"frizz_risk":1,"updated_at":"2026-05-21T14:03:21.316961+05:30"},{"city":"Haridwar","state":"Uttarakhand","latitude":29.9457,"longitude":78.1642,"temp":40.2,"humidity":26,"rain":0.0,"pressure":967.8,"uv_index":7.45,"wind_gusts":28.4,"aqi":128,"pm10":157.4,"pm2_5":47.6,"no2":1.5,"co":293.0,"o3":189.0,"so2":10.5,"mosquito_risk":0,"arthritis_risk":5,"migraine_risk":10,"frizz_risk":1,"updated_at":"2026-05-21T14:03:21.316970+05:30"},{"city":"Rishikesh","state":"Uttarakhand","latitude":30.0869,"longitude":78.2676,"temp":39.2,"humidity":26,"rain":0.0,"pressure":960.8,"uv_index":7.55,"wind_gusts":29.9,"aqi":93,"pm10":139.2,"pm2_5":37.6,"no2":0.7,"co":224.0,"o3":166.0,"so2":6.7,"mosquito_risk":0,"arthritis_risk":5,"migraine_risk":10,"frizz_risk":1,"updated_at":"2026-05-21T14:03:21.316982+05:30"},{"city":"Nainital","state":"Uttarakhand","latitude":29.3919,"longitude":79.4542,"temp":27.2,"humidity":33,"rain":0.0,"pressure":807.8,"uv_index":8.55,"wind_gusts":34.6,"aqi":100,"pm10":221.2,"pm2_5":54.2,"no2":1.2,"co":217.0,"o3":182.0,"so2":8.7,"mosquito_risk":4,"arthritis_risk":5,"migraine_risk":7,"frizz_risk":0,"updated_at":"2026-05-21T14:03:21.316990+05:30"},{"city":"Mussoorie","state":"Uttarakhand","latitude":30.4599,"longitude":78.0664,"temp":27.8,"humidity":24,"rain":0.0,"pressure":805.6,"uv_index":7.85,"wind_gusts":53.6,"aqi":98,"pm10":87.1,"pm2_5":33.9,"no2":1.5,"co":269.0,"o3":189.0,"so2":10.8,"mosquito_risk":4,"arthritis_risk":5,"migraine_risk":7,"frizz_risk":0,"updated_at":"2026-05-21T14:03:21.316997+05:30"},{"city":"Dharamshala","state":"Himachal Pradesh","latitude":32.219,"longitude":76.3234,"temp":30.2,"humidity":23,"rain":0.0,"pressure":869.6,"uv_index":8.45,"wind_gusts":48.2,"aqi":58,"pm10":39.6,"pm2_5":11.1,"no2":0.4,"co":185.0,"o3":127.0,"so2":3.1,"mosquito_risk":0,"arthritis_risk":5,"migraine_risk":7,"frizz_risk":0,"updated_at":"2026-05-21T14:03:21.317005+05:30"},{"city":"Dalhousie","state":"Himachal Pradesh","latitude":32.5387,"longitude":75.971,"temp":26.2,"humidity":26,"rain":0.0,"pressure":807.8,"uv_index":8.7,"wind_gusts":43.2,"aqi":74,"pm10":57.4,"pm2_5":18.4,"no2":0.7,"co":160.0,"o3":141.0,"so2":4.0,"mosquito_risk":4,"arthritis_risk":5,"migraine_risk":7,"frizz_risk":0,"updated_at":"2026-05-21T14:03:21.317013+05:30"},{"city":"Patiala","state":"Punjab","latitude":30.3398,"longitude":76.3869,"temp":42.5,"humidity":14,"rain":0.0,"pressure":972.3,"uv_index":7.65,"wind_gusts":40.3,"aqi":183,"pm10":332.5,"pm2_5":57.2,"no2":1.0,"co":232.0,"o3":162.0,"so2":9.3,"mosquito_risk":0,"arthritis_risk":5,"migraine_risk":10,"frizz_risk":0,"updated_at":"2026-05-21T14:03:21.317020+05:30"},{"city":"Bhatinda","state":"Punjab","latitude":30.211,"longitude":74.9455,"temp":42.7,"humidity":16,"rain":0.0,"pressure":977.6,"uv_index":8.3,"wind_gusts":26.6,"aqi":91,"pm10":67.3,"pm2_5":27.0,"no2":2.5,"co":208.0,"o3":171.0,"so2":12.9,"mosquito_risk":0,"arthritis_risk":5,"migraine_risk":10,"frizz_risk":0,"updated_at":"2026-05-21T14:03:21.317027+05:30"},{"city":"Rohtak","state":"Haryana","latitude":28.8955,"longitude":76.6066,"temp":41.9,"humidity":19,"rain":0.0,"pressure":976.0,"uv_index":7.8,"wind_gusts":47.9,"aqi":707,"pm10":1315.0,"pm2_5":183.5,"no2":1.1,"co":155.0,"o3":127.0,"so2":4.2,"mosquito_risk":0,"arthritis_risk":5,"migraine_risk":10,"frizz_risk":0,"updated_at":"2026-05-21T14:03:21.317034+05:30"},{"city":"Panipat","state":"Haryana","latitude":29.3909,"longitude":76.9635,"temp":43.0,"humidity":15,"rain":0.0,"pressure":974.0,"uv_index":7.5,"wind_gusts":39.2,"aqi":1199,"pm10":1899.9,"pm2_5":253.3,"no2":2.1,"co":166.0,"o3":129.0,"so2":9.7,"mosquito_risk":0,"arthritis_risk":5,"migraine_risk":10,"frizz_risk":0,"updated_at":"2026-05-21T14:03:21.317041+05:30"},{"city":"Mathura","state":"Uttar Pradesh","latitude":27.4924,"longitude":77.6737,"temp":42.8,"humidity":15,"rain":0.0,"pressure":981.1,"uv_index":8.05,"wind_gusts":46.1,"aqi":891,"pm10":1605.6,"pm2_5":196.5,"no2":0.6,"co":158.0,"o3":124.0,"so2":3.0,"mosquito_risk":0,"arthritis_risk":5,"migraine_risk":10,"frizz_risk":0,"updated_at":"2026-05-21T14:03:21.317048+05:30"},{"city":"Vrindavan","state":"Uttar Pradesh","latitude":27.5823,"longitude":77.7027,"temp":42.5,"humidity":16,"rain":0.0,"pressure":981.3,"uv_index":8.0,"wind_gusts":44.6,"aqi":891,"pm10":1605.6,"pm2_5":196.5,"no2":0.6,"co":156.0,"o3":124.0,"so2":3.0,"mosquito_risk":0,"arthritis_risk":5,"migraine_risk":10,"frizz_risk":0,"updated_at":"2026-05-21T14:03:21.317056+05:30"},{"city":"Ayodhya","state":"Uttar Pradesh","latitude":26.7922,"longitude":82.1998,"temp":40.8,"humidity":28,"rain":0.0,"pressure":988.6,"uv_index":8.4,"wind_gusts":27.7,"aqi":158,"pm10":102.4,"pm2_5":50.9,"no2":1.0,"co":396.0,"o3":178.0,"so2":9.6,"mosquito_risk":0,"arthritis_risk":5,"migraine_risk":10,"frizz_risk":1,"updated_at":"2026-05-21T14:03:21.317063+05:30"},{"city":"Ratlam","state":"Madhya Pradesh","latitude":23.3315,"longitude":75.0367,"temp":38.7,"humidity":20,"rain":0.0,"pressure":952.9,"uv_index":8.55,"wind_gusts":36.0,"aqi":65,"pm10":72.6,"pm2_5":25.4,"no2":0.5,"co":141.0,"o3":107.0,"so2":3.4,"mosquito_risk":0,"arthritis_risk":5,"migraine_risk":10,"frizz_risk":0,"updated_at":"2026-05-21T14:03:21.317071+05:30"},{"city":"Sagar","state":"Madhya Pradesh","latitude":23.8388,"longitude":78.7378,"temp":41.3,"humidity":11,"rain":0.0,"pressure":947.5,"uv_index":8.75,"wind_gusts":50.4,"aqi":52,"pm10":34.0,"pm2_5":14.3,"no2":0.6,"co":131.0,"o3":118.0,"so2":2.9,"mosquito_risk":0,"arthritis_risk":5,"migraine_risk":10,"frizz_risk":0,"updated_at":"2026-05-21T14:03:21.317078+05:30"},{"city":"Satna","state":"Madhya Pradesh","latitude":24.6005,"longitude":80.8322,"temp":41.7,"humidity":16,"rain":0.0,"pressure":967.2,"uv_index":8.8,"wind_gusts":47.5,"aqi":66,"pm10":66.4,"pm2_5":19.5,"no2":0.5,"co":133.0,"o3":121.0,"so2":2.3,"mosquito_risk":0,"arthritis_risk":5,"migraine_risk":10,"frizz_risk":0,"updated_at":"2026-05-21T14:03:21.317085+05:30"},{"city":"Akola","state":"Maharashtra","latitude":20.7002,"longitude":77.0082,"temp":42.0,"humidity":19,"rain":0.0,"pressure":971.0,"uv_index":8.9,"wind_gusts":42.1,"aqi":75,"pm10":41.8,"pm2_5":20.4,"no2":1.2,"co":145.0,"o3":127.0,"so2":6.9,"mosquito_risk":0,"arthritis_risk":5,"migraine_risk":10,"frizz_risk":0,"updated_at":"2026-05-21T14:03:21.317092+05:30"},{"city":"Amravati","state":"Maharashtra","latitude":20.9374,"longitude":77.7796,"temp":42.9,"humidity":15,"rain":0.0,"pressure":963.4,"uv_index":8.9,"wind_gusts":34.9,"aqi":74,"pm10":41.4,"pm2_5":20.6,"no2":1.6,"co":160.0,"o3":131.0,"so2":7.9,"mosquito_risk":0,"arthritis_risk":5,"migraine_risk":10,"frizz_risk":0,"updated_at":"2026-05-21T14:03:21.317101+05:30"},{"city":"Latur","state":"Maharashtra","latitude":18.4088,"longitude":76.5604,"temp":39.3,"humidity":25,"rain":0.0,"pressure":937.7,"uv_index":9.1,"wind_gusts":41.8,"aqi":92,"pm10":40.6,"pm2_5":23.6,"no2":0.9,"co":158.0,"o3":138.0,"so2":6.0,"mosquito_risk":0,"arthritis_risk":5,"migraine_risk":10,"frizz_risk":0,"updated_at":"2026-05-21T14:03:21.317109+05:30"},{"city":"Nanded","state":"Maharashtra","latitude":19.1383,"longitude":77.3091,"temp":41.9,"humidity":20,"rain":0.0,"pressure":964.9,"uv_index":9.0,"wind_gusts":34.6,"aqi":85,"pm10":38.0,"pm2_5":20.5,"no2":1.0,"co":166.0,"o3":140.0,"so2":5.1,"mosquito_risk":0,"arthritis_risk":5,"migraine_risk":10,"frizz_risk":0,"updated_at":"2026-05-21T14:03:21.317116+05:30"},{"city":"Gulbarga","state":"Karnataka","latitude":17.3297,"longitude":76.8343,"temp":38.7,"humidity":32,"rain":0.0,"pressure":955.7,"uv_index":9.05,"wind_gusts":33.8,"aqi":79,"pm10":50.4,"pm2_5":29.1,"no2":1.4,"co":166.0,"o3":143.0,"so2":5.1,"mosquito_risk":0,"arthritis_risk":5,"migraine_risk":10,"frizz_risk":1,"updated_at":"2026-05-21T14:03:21.317123+05:30"},{"city":"Bidar","state":"Karnataka","latitude":17.9104,"longitude":77.5199,"temp":38.5,"humidity":28,"rain":0.1,"pressure":933.4,"uv_index":9.1,"wind_gusts":37.4,"aqi":92,"pm10":40.9,"pm2_5":24.2,"no2":1.1,"co":172.0,"o3":148.0,"so2":6.7,"mosquito_risk":3,"arthritis_risk":5,"migraine_risk":10,"frizz_risk":1,"updated_at":"2026-05-21T14:03:21.317130+05:30"},{"city":"Hospet","state":"Karnataka","latitude":15.2689,"longitude":76.3909,"temp":34.3,"humidity":47,"rain":0.0,"pressure":953.6,"uv_index":8.95,"wind_gusts":40.7,"aqi":36,"pm10":21.5,"pm2_5":13.4,"no2":1.2,"co":155.0,"o3":112.0,"so2":2.8,"mosquito_risk":0,"arthritis_risk":5,"migraine_risk":7,"frizz_risk":1,"updated_at":"2026-05-21T14:03:21.317138+05:30"},{"city":"Tirupur","state":"Tamil Nadu","latitude":11.1085,"longitude":77.3411,"temp":34.5,"humidity":47,"rain":0.1,"pressure":972.6,"uv_index":9.15,"wind_gusts":60.5,"aqi":49,"pm10":6.7,"pm2_5":5.7,"no2":1.9,"co":128.0,"o3":98.0,"so2":2.4,"mosquito_risk":3,"arthritis_risk":5,"migraine_risk":7,"frizz_risk":1,"updated_at":"2026-05-21T14:03:21.317144+05:30"},{"city":"Alappuzha","state":"Kerala","latitude":9.4981,"longitude":76.3388,"temp":30.8,"humidity":74,"rain":0.0,"pressure":1007.1,"uv_index":8.65,"wind_gusts":40.0,"aqi":41,"pm10":10.1,"pm2_5":6.8,"no2":2.3,"co":107.0,"o3":62.0,"so2":1.3,"mosquito_risk":3,"arthritis_risk":5,"migraine_risk":4,"frizz_risk":1,"updated_at":"2026-05-21T14:03:21.317151+05:30"},{"city":"Munnar","state":"Kerala","latitude":10.0889,"longitude":77.0595,"temp":20.5,"humidity":92,"rain":0.1,"pressure":856.8,"uv_index":8.1,"wind_gusts":30.6,"aqi":27,"pm10":4.9,"pm2_5":4.4,"no2":2.0,"co":115.0,"o3":68.0,"so2":1.0,"mosquito_risk":6,"arthritis_risk":5,"migraine_risk":7,"frizz_risk":1,"updated_at":"2026-05-21T14:03:21.317159+05:30"},{"city":"Silchar","state":"Assam","latitude":24.8333,"longitude":92.7789,"temp":33.7,"humidity":63,"rain":0.0,"pressure":999.4,"uv_index":8.95,"wind_gusts":29.9,"aqi":137,"pm10":33.6,"pm2_5":23.5,"no2":1.1,"co":212.0,"o3":126.0,"so2":5.3,"mosquito_risk":3,"arthritis_risk":5,"migraine_risk":7,"frizz_risk":1,"updated_at":"2026-05-21T14:03:21.317166+05:30"},{"city":"Dibrugarh","state":"Assam","latitude":27.4728,"longitude":94.912,"temp":32.7,"humidity":60,"rain":0.0,"pressure":990.4,"uv_index":8.9,"wind_gusts":16.6,"aqi":93,"pm10":43.1,"pm2_5":27.4,"no2":0.6,"co":269.0,"o3":135.0,"so2":2.6,"mosquito_risk":0,"arthritis_risk":5,"migraine_risk":7,"frizz_risk":1,"updated_at":"2026-05-21T14:03:21.317173+05:30"}]