[{"city":"Delhi","state":"Delhi","latitude":28.6139,"longitude":77.209,"temp":19.5,"humidity":75,"rain":0.0,"pressure":983.9,"uv_index":5.65,"wind_gusts":21.6,"aqi":403,"pm10":170.9,"pm2_5":56.6,"mosquito_risk":3,"arthritis_risk":5,"migraine_risk":3,"frizz_risk":0,"updated_at":"2026-03-17T02:11:56.434101+05:30"},{"city":"Mumbai","state":"Maharashtra","latitude":19.076,"longitude":72.8777,"temp":26.8,"humidity":81,"rain":0.0,"pressure":1008.8,"uv_index":7.7,"wind_gusts":17.6,"aqi":104,"pm10":105.9,"pm2_5":35.3,"mosquito_risk":7,"arthritis_risk":0,"migraine_risk":4,"frizz_risk":1,"updated_at":"2026-03-17T02:11:56.434147+05:30"},{"city":"Bangalore","state":"Karnataka","latitude":12.9716,"longitude":77.5946,"temp":21.0,"humidity":78,"rain":0.0,"pressure":911.0,"uv_index":9.35,"wind_gusts":31.0,"aqi":91,"pm10":33.5,"pm2_5":32.0,"mosquito_risk":3,"arthritis_risk":5,"migraine_risk":7,"frizz_risk":1,"updated_at":"2026-03-17T02:11:56.434163+05:30"},{"city":"Hyderabad","state":"Telangana","latitude":17.385,"longitude":78.4867,"temp":22.5,"humidity":79,"rain":0.0,"pressure":953.0,"uv_index":7.95,"wind_gusts":22.0,"aqi":96,"pm10":24.2,"pm2_5":20.9,"mosquito_risk":3,"arthritis_risk":5,"migraine_risk":7,"frizz_risk":1,"updated_at":"2026-03-17T02:11:56.434173+05:30"},{"city":"Chennai","state":"Tamil Nadu","latitude":13.0827,"longitude":80.2707,"temp":25.9,"humidity":85,"rain":0.0,"pressure":1007.9,"uv_index":9.1,"wind_gusts":33.1,"aqi":34,"pm10":9.6,"pm2_5":7.1,"mosquito_risk":7,"arthritis_risk":5,"migraine_risk":4,"frizz_risk":1,"updated_at":"2026-03-17T02:11:56.434183+05:30"},{"city":"Kolkata","state":"West Bengal","latitude":22.5726,"longitude":88.3639,"temp":23.3,"humidity":92,"rain":0.0,"pressure":1006.6,"uv_index":8.1,"wind_gusts":38.9,"aqi":74,"pm10":21.5,"pm2_5":18.5,"mosquito_risk":3,"arthritis_risk":5,"migraine_risk":4,"frizz_risk":1,"updated_at":"2026-03-17T02:11:56.434192+05:30"},{"city":"Pune","state":"Maharashtra","latitude":18.5204,"longitude":73.8567,"temp":18.8,"humidity":81,"rain":0.0,"pressure":947.6,"uv_index":8.25,"wind_gusts":38.5,"aqi":88,"pm10":59.3,"pm2_5":35.5,"mosquito_risk":3,"arthritis_risk":10,"migraine_risk":7,"frizz_risk":0,"updated_at":"2026-03-17T02:11:56.434205+05:30"},{"city":"Ahmedabad","state":"Gujarat","latitude":23.0225,"longitude":72.5714,"temp":23.4,"humidity":62,"rain":0.0,"pressure":1002.0,"uv_index":7.55,"wind_gusts":17.3,"aqi":64,"pm10":39.6,"pm2_5":20.5,"mosquito_risk":3,"arthritis_risk":5,"migraine_risk":4,"frizz_risk":0,"updated_at":"2026-03-17T02:11:56.434213+05:30"},{"city":"Jaipur","state":"Rajasthan","latitude":26.9124,"longitude":75.7873,"temp":21.7,"humidity":58,"rain":0.0,"pressure":959.2,"uv_index":6.4,"wind_gusts":31.7,"aqi":164,"pm10":627.7,"pm2_5":111.1,"mosquito_risk":0,"arthritis_risk":5,"migraine_risk":7,"frizz_risk":0,"updated_at":"2026-03-17T02:11:56.434220+05:30"},{"city":"Lucknow","state":"Uttar Pradesh","latitude":26.8467,"longitude":80.9462,"temp":20.5,"humidity":58,"rain":0.0,"pressure":994.6,"uv_index":6.3,"wind_gusts":23.8,"aqi":90,"pm10":60.8,"pm2_5":45.3,"mosquito_risk":0,"arthritis_risk":5,"migraine_risk":7,"frizz_risk":0,"updated_at":"2026-03-17T02:11:56.434227+05:30"},{"city":"Kanpur","state":"Uttar Pradesh","latitude":26.4499,"longitude":80.3319,"temp":20.4,"humidity":68,"rain":0.0,"pressure":992.2,"uv_index":6.55,"wind_gusts":22.7,"aqi":114,"pm10":161.6,"pm2_5":47.8,"mosquito_risk":3,"arthritis_risk":5,"migraine_risk":7,"frizz_risk":0,"updated_at":"2026-03-17T02:11:56.434234+05:30"},{"city":"Chandigarh","state":"Chandigarh","latitude":30.7333,"longitude":76.7794,"temp":13.7,"humidity":73,"rain":0.0,"pressure":969.9,"uv_index":5.7,"wind_gusts":11.9,"aqi":66,"pm10":26.4,"pm2_5":18.0,"mosquito_risk":3,"arthritis_risk":5,"migraine_risk":3,"frizz_risk":0,"updated_at":"2026-03-17T02:11:56.434242+05:30"},{"city":"Srinagar","state":"Jammu and Kashmir","latitude":34.0837,"longitude":74.7973,"temp":3.2,"humidity":89,"rain":0.0,"pressure":838.3,"uv_index":6.95,"wind_gusts":19.1,"aqi":67,"pm10":24.5,"pm2_5":24.2,"mosquito_risk":3,"arthritis_risk":10,"migraine_risk":7,"frizz_risk":0,"updated_at":"2026-03-17T02:11:56.434249+05:30"},{"city":"Jammu","state":"Jammu and Kashmir","latitude":32.7266,"longitude":74.857,"temp":13.3,"humidity":74,"rain":0.0,"pressure":975.3,"uv_index":6.6,"wind_gusts":13.3,"aqi":69,"pm10":38.3,"pm2_5":33.5,"mosquito_risk":3,"arthritis_risk":5,"migraine_risk":7,"frizz_risk":0,"updated_at":"2026-03-17T02:11:56.434256+05:30"},{"city":"Amritsar","state":"Punjab","latitude":31.634,"longitude":74.8723,"temp":10.8,"humidity":91,"rain":0.0,"pressure":983.4,"uv_index":6.65,"wind_gusts":17.3,"aqi":80,"pm10":46.7,"pm2_5":29.3,"mosquito_risk":3,"arthritis_risk":10,"migraine_risk":7,"frizz_risk":0,"updated_at":"2026-03-17T02:11:56.434279+05:30"},{"city":"Ludhiana","state":"Punjab","latitude":30.901,"longitude":75.8573,"temp":12.5,"humidity":77,"rain":0.0,"pressure":980.7,"uv_index":6.35,"wind_gusts":11.5,"aqi":78,"pm10":34.1,"pm2_5":18.2,"mosquito_risk":3,"arthritis_risk":5,"migraine_risk":7,"frizz_risk":0,"updated_at":"2026-03-17T02:11:56.434287+05:30"},{"city":"Jalandhar","state":"Punjab","latitude":31.326,"longitude":75.5762,"temp":11.5,"humidity":89,"rain":0.0,"pressure":982.1,"uv_index":6.45,"wind_gusts":14.0,"aqi":69,"pm10":44.9,"pm2_5":15.8,"mosquito_risk":3,"arthritis_risk":10,"migraine_risk":7,"frizz_risk":0,"updated_at":"2026-03-17T02:11:56.434296+05:30"},{"city":"Dehradun","state":"Uttarakhand","latitude":30.6284,"longitude":78.0322,"temp":8.8,"humidity":60,"rain":0.0,"pressure":827.7,"uv_index":5.4,"wind_gusts":24.5,"aqi":47,"pm10":31.3,"pm2_5":9.1,"mosquito_risk":0,"arthritis_risk":5,"migraine_risk":3,"frizz_risk":0,"updated_at":"2026-03-17T02:11:56.434304+05:30"},{"city":"Shimla","state":"Himachal Pradesh","latitude":31.1048,"longitude":77.1734,"temp":7.0,"humidity":61,"rain":0.0,"pressure":780.5,"uv_index":5.75,"wind_gusts":22.3,"aqi":69,"pm10":36.0,"pm2_5":10.5,"mosquito_risk":3,"arthritis_risk":5,"migraine_risk":3,"frizz_risk":0,"updated_at":"2026-03-17T02:11:56.434311+05:30"},{"city":"Manali","state":"Himachal Pradesh","latitude":32.2396,"longitude":77.1887,"temp":5.7,"humidity":41,"rain":0.0,"pressure":814.6,"uv_index":8.5,"wind_gusts":29.9,"aqi":61,"pm10":23.9,"pm2_5":10.5,"mosquito_risk":0,"arthritis_risk":5,"migraine_risk":7,"frizz_risk":1,"updated_at":"2026-03-17T02:11:56.434318+05:30"},{"city":"Gurgaon","state":"Haryana","latitude":28.4595,"longitude":77.0266,"temp":17.4,"humidity":86,"rain":0.0,"pressure":982.3,"uv_index":5.8,"wind_gusts":21.2,"aqi":1584,"pm10":599.8,"pm2_5":108.3,"mosquito_risk":3,"arthritis_risk":10,"migraine_risk":3,"frizz_risk":0,"updated_at":"2026-03-17T02:11:56.434325+05:30"},{"city":"Noida","state":"Uttar Pradesh","latitude":28.5355,"longitude":77.391,"temp":19.3,"humidity":74,"rain":0.0,"pressure":985.4,"uv_index":5.45,"wind_gusts":22.0,"aqi":1584,"pm10":599.8,"pm2_5":108.3,"mosquito_risk":3,"arthritis_risk":5,"migraine_risk":3,"frizz_risk":0,"updated_at":"2026-03-17T02:11:56.434332+05:30"},{"city":"Ghaziabad","state":"Uttar Pradesh","latitude":28.6692,"longitude":77.4538,"temp":18.1,"humidity":82,"rain":0.0,"pressure":983.5,"uv_index":5.6,"wind_gusts":18.7,"aqi":116,"pm10":85.9,"pm2_5":42.8,"mosquito_risk":3,"arthritis_risk":10,"migraine_risk":3,"frizz_risk":0,"updated_at":"2026-03-17T02:11:56.434341+05:30"},{"city":"Faridabad","state":"Haryana","latitude":28.4089,"longitude":77.3178,"temp":18.1,"humidity":76,"rain":0.0,"pressure":984.5,"uv_index":5.35,"wind_gusts":20.5,"aqi":1584,"pm10":599.8,"pm2_5":108.3,"mosquito_risk":3,"arthritis_risk":5,"migraine_risk":3,"frizz_risk":0,"updated_at":"2026-03-17T02:11:56.434348+05:30"},{"city":"Meerut","state":"Uttar Pradesh","latitude":28.9845,"longitude":77.7064,"temp":17.3,"humidity":81,"rain":0.0,"pressure":982.2,"uv_index":5.9,"wind_gusts":20.5,"aqi":116,"pm10":85.9,"pm2_5":42.8,"mosquito_risk":3,"arthritis_risk":10,"migraine_risk":3,"frizz_risk":0,"updated_at":"2026-03-17T02:11:56.434354+05:30"},{"city":"Agra","state":"Uttar Pradesh","latitude":27.1767,"longitude":78.0081,"temp":19.0,"humidity":79,"rain":0.0,"pressure":988.1,"uv_index":6.2,"wind_gusts":25.9,"aqi":892,"pm10":1128.8,"pm2_5":137.8,"mosquito_risk":3,"arthritis_risk":5,"migraine_risk":7,"frizz_risk":0,"updated_at":"2026-03-17T02:11:56.434361+05:30"},{"city":"Varanasi","state":"Uttar Pradesh","latitude":25.3176,"longitude":82.9739,"temp":21.9,"humidity":78,"rain":0.0,"pressure":997.7,"uv_index":7.35,"wind_gusts":18.4,"aqi":147,"pm10":70.5,"pm2_5":55.2,"mosquito_risk":3,"arthritis_risk":5,"migraine_risk":7,"frizz_risk":1,"updated_at":"2026-03-17T02:11:56.434370+05:30"},{"city":"Prayagraj","state":"Uttar Pradesh","latitude":25.4358,"longitude":81.8463,"temp":22.4,"humidity":79,"rain":0.0,"pressure":996.3,"uv_index":7.2,"wind_gusts":18.7,"aqi":132,"pm10":54.5,"pm2_5":44.0,"mosquito_risk":3,"arthritis_risk":5,"migraine_risk":7,"frizz_risk":1,"updated_at":"2026-03-17T02:11:56.434377+05:30"},{"city":"Gorakhpur","state":"Uttar Pradesh","latitude":26.7606,"longitude":83.3732,"temp":19.1,"humidity":71,"rain":0.0,"pressure":997.9,"uv_index":6.55,"wind_gusts":24.5,"aqi":118,"pm10":92.2,"pm2_5":63.1,"mosquito_risk":3,"arthritis_risk":5,"migraine_risk":7,"frizz_risk":0,"updated_at":"2026-03-17T02:11:56.434384+05:30"},{"city":"Bareilly","state":"Uttar Pradesh","latitude":28.367,"longitude":79.4304,"temp":19.3,"humidity":68,"rain":0.0,"pressure":987.5,"uv_index":5.7,"wind_gusts":18.4,"aqi":100,"pm10":73.3,"pm2_5":46.1,"mosquito_risk":3,"arthritis_risk":5,"migraine_risk":3,"frizz_risk":0,"updated_at":"2026-03-17T02:11:56.434390+05:30"},{"city":"Aligarh","state":"Uttar Pradesh","latitude":27.8974,"longitude":78.088,"temp":18.6,"humidity":76,"rain":0.0,"pressure":985.9,"uv_index":5.9,"wind_gusts":18.7,"aqi":495,"pm10":149.0,"pm2_5":39.8,"mosquito_risk":3,"arthritis_risk":5,"migraine_risk":3,"frizz_risk":0,"updated_at":"2026-03-17T02:11:56.434396+05:30"},{"city":"Moradabad","state":"Uttar Pradesh","latitude":28.8386,"longitude":78.7733,"temp":18.4,"humidity":69,"rain":0.0,"pressure":984.4,"uv_index":5.05,"wind_gusts":22.7,"aqi":97,"pm10":70.1,"pm2_5":43.2,"mosquito_risk":3,"arthritis_risk":5,"migraine_risk":3,"frizz_risk":0,"updated_at":"2026-03-17T02:11:56.434402+05:30"},{"city":"Saharanpur","state":"Uttar Pradesh","latitude":29.9637,"longitude":77.546,"temp":17.1,"humidity":62,"rain":0.0,"pressure":976.9,"uv_index":5.15,"wind_gusts":17.6,"aqi":92,"pm10":94.8,"pm2_5":70.3,"mosquito_risk":3,"arthritis_risk":5,"migraine_risk":3,"frizz_risk":0,"updated_at":"2026-03-17T02:11:56.434408+05:30"},{"city":"Jhansi","state":"Uttar Pradesh","latitude":25.4484,"longitude":78.5685,"temp":23.4,"humidity":46,"rain":0.0,"pressure":977.4,"uv_index":7.2,"wind_gusts":29.2,"aqi":93,"pm10":134.1,"pm2_5":42.8,"mosquito_risk":0,"arthritis_risk":5,"migraine_risk":7,"frizz_risk":0,"updated_at":"2026-03-17T02:11:59.690155+05:30"},{"city":"Surat","state":"Gujarat","latitude":21.1702,"longitude":72.8311,"temp":25.2,"humidity":90,"rain":0.0,"pressure":1007.0,"uv_index":7.4,"wind_gusts":25.2,"aqi":99,"pm10":41.1,"pm2_5":27.4,"mosquito_risk":7,"arthritis_risk":5,"migraine_risk":4,"frizz_risk":1,"updated_at":"2026-03-17T02:11:59.690188+05:30"},{"city":"Vadodara","state":"Gujarat","latitude":22.3072,"longitude":73.1812,"temp":24.3,"humidity":78,"rain":0.0,"pressure":1004.4,"uv_index":7.5,"wind_gusts":23.8,"aqi":77,"pm10":46.1,"pm2_5":27.1,"mosquito_risk":3,"arthritis_risk":5,"migraine_risk":4,"frizz_risk":1,"updated_at":"2026-03-17T02:11:59.690198+05:30"},{"city":"Rajkot","state":"Gujarat","latitude":22.3039,"longitude":70.8022,"temp":23.8,"humidity":80,"rain":0.0,"pressure":994.3,"uv_index":7.4,"wind_gusts":27.0,"aqi":62,"pm10":39.6,"pm2_5":18.7,"mosquito_risk":3,"arthritis_risk":5,"migraine_risk":7,"frizz_risk":1,"updated_at":"2026-03-17T02:11:59.690206+05:30"},{"city":"Thane","state":"Maharashtra","latitude":19.2183,"longitude":72.9781,"temp":25.2,"humidity":88,"rain":0.0,"pressure":1008.4,"uv_index":7.7,"wind_gusts":30.2,"aqi":104,"pm10":105.9,"pm2_5":35.3,"mosquito_risk":7,"arthritis_risk":0,"migraine_risk":4,"frizz_risk":1,"updated_at":"2026-03-17T02:11:59.690213+05:30"},{"city":"Nagpur","state":"Maharashtra","latitude":21.1458,"longitude":79.0882,"temp":24.6,"humidity":62,"rain":0.0,"pressure":972.6,"uv_index":8.05,"wind_gusts":16.9,"aqi":98,"pm10":47.7,"pm2_5":43.5,"mosquito_risk":3,"arthritis_risk":5,"migraine_risk":7,"frizz_risk":1,"updated_at":"2026-03-17T02:11:59.690220+05:30"},{"city":"Nashik","state":"Maharashtra","latitude":19.9975,"longitude":73.7898,"temp":20.4,"humidity":74,"rain":0.0,"pressure":945.3,"uv_index":7.9,"wind_gusts":25.9,"aqi":79,"pm10":85.2,"pm2_5":32.6,"mosquito_risk":3,"arthritis_risk":5,"migraine_risk":7,"frizz_risk":0,"updated_at":"2026-03-17T02:11:59.690227+05:30"},{"city":"Aurangabad","state":"Maharashtra","latitude":19.8762,"longitude":75.3433,"temp":22.7,"humidity":55,"rain":0.0,"pressure":943.6,"uv_index":8.35,"wind_gusts":25.6,"aqi":66,"pm10":38.3,"pm2_5":19.9,"mosquito_risk":0,"arthritis_risk":5,"migraine_risk":7,"frizz_risk":0,"updated_at":"2026-03-17T02:11:59.690233+05:30"},{"city":"Solapur","state":"Maharashtra","latitude":17.6599,"longitude":75.9064,"temp":22.7,"humidity":57,"rain":0.0,"pressure":956.5,"uv_index":8.55,"wind_gusts":37.1,"aqi":90,"pm10":42.5,"pm2_5":39.7,"mosquito_risk":0,"arthritis_risk":5,"migraine_risk":7,"frizz_risk":0,"updated_at":"2026-03-17T02:11:59.690241+05:30"},{"city":"Kolhapur","state":"Maharashtra","latitude":16.705,"longitude":74.2433,"temp":19.3,"humidity":89,"rain":0.0,"pressure":947.2,"uv_index":8.45,"wind_gusts":40.0,"aqi":96,"pm10":39.5,"pm2_5":30.5,"mosquito_risk":3,"arthritis_risk":10,"migraine_risk":7,"frizz_risk":1,"updated_at":"2026-03-17T02:11:59.690248+05:30"},{"city":"Goa","state":"Goa","latitude":15.2993,"longitude":74.124,"temp":26.8,"humidity":82,"rain":0.0,"pressure":997.8,"uv_index":8.75,"wind_gusts":34.6,"aqi":87,"pm10":56.0,"pm2_5":32.4,"mosquito_risk":7,"arthritis_risk":5,"migraine_risk":7,"frizz_risk":1,"updated_at":"2026-03-17T02:11:59.690256+05:30"},{"city":"Jodhpur","state":"Rajasthan","latitude":26.2389,"longitude":73.0243,"temp":22.2,"humidity":31,"rain":0.0,"pressure":982.2,"uv_index":6.45,"wind_gusts":24.1,"aqi":101,"pm10":118.5,"pm2_5":28.2,"mosquito_risk":0,"arthritis_risk":5,"migraine_risk":7,"frizz_risk":0,"updated_at":"2026-03-17T02:11:59.690281+05:30"},{"city":"Udaipur","state":"Rajasthan","latitude":24.5854,"longitude":73.7125,"temp":21.4,"humidity":34,"rain":0.0,"pressure":945.7,"uv_index":7.85,"wind_gusts":35.6,"aqi":51,"pm10":38.9,"pm2_5":14.4,"mosquito_risk":0,"arthritis_risk":5,"migraine_risk":7,"frizz_risk":0,"updated_at":"2026-03-17T02:11:59.690288+05:30"},{"city":"Kota","state":"Rajasthan","latitude":25.2138,"longitude":75.8648,"temp":22.4,"humidity":33,"rain":0.0,"pressure":977.6,"uv_index":7.3,"wind_gusts":32.0,"aqi":72,"pm10":15.5,"pm2_5":11.5,"mosquito_risk":0,"arthritis_risk":5,"migraine_risk":7,"frizz_risk":0,"updated_at":"2026-03-17T02:11:59.690295+05:30"},{"city":"Bikaner","state":"Rajasthan","latitude":28.0229,"longitude":73.3119,"temp":21.9,"humidity":57,"rain":0.0,"pressure":982.4,"uv_index":6.9,"wind_gusts":20.9,"aqi":65,"pm10":173.7,"pm2_5":62.4,"mosquito_risk":0,"arthritis_risk":5,"migraine_risk":7,"frizz_risk":0,"updated_at":"2026-03-17T02:11:59.690301+05:30"},{"city":"Ajmer","state":"Rajasthan","latitude":26.4499,"longitude":74.6399,"temp":21.5,"humidity":34,"rain":0.0,"pressure":953.7,"uv_index":7.05,"wind_gusts":27.0,"aqi":65,"pm10":115.0,"pm2_5":33.4,"mosquito_risk":0,"arthritis_risk":5,"migraine_risk":7,"frizz_risk":0,"updated_at":"2026-03-17T02:11:59.690308+05:30"},{"city":"Gwalior","state":"Madhya Pradesh","latitude":26.2183,"longitude":78.1828,"temp":22.7,"humidity":59,"rain":0.0,"pressure":982.8,"uv_index":6.9,"wind_gusts":36.4,"aqi":104,"pm10":79.2,"pm2_5":29.6,"mosquito_risk":0,"arthritis_risk":5,"migraine_risk":7,"frizz_risk":0,"updated_at":"2026-03-17T02:11:59.690314+05:30"},{"city":"Indore","state":"Madhya Pradesh","latitude":22.7196,"longitude":75.8577,"temp":21.4,"humidity":61,"rain":0.0,"pressure":947.5,"uv_index":7.7,"wind_gusts":30.2,"aqi":64,"pm10":31.1,"pm2_5":20.3,"mosquito_risk":3,"arthritis_risk":5,"migraine_risk":7,"frizz_risk":0,"updated_at":"2026-03-17T02:11:59.690320+05:30"},{"city":"Bhopal","state":"Madhya Pradesh","latitude":23.2599,"longitude":77.4126,"temp":21.5,"humidity":51,"rain":0.0,"pressure":953.0,"uv_index":7.65,"wind_gusts":30.2,"aqi":53,"pm10":39.8,"pm2_5":27.5,"mosquito_risk":0,"arthritis_risk":5,"migraine_risk":7,"frizz_risk":0,"updated_at":"2026-03-17T02:11:59.690327+05:30"},{"city":"Jabalpur","state":"Madhya Pradesh","latitude":23.1815,"longitude":79.9864,"temp":24.2,"humidity":42,"rain":0.0,"pressure":960.7,"uv_index":7.75,"wind_gusts":31.0,"aqi":60,"pm10":25.3,"pm2_5":16.4,"mosquito_risk":0,"arthritis_risk":5,"migraine_risk":7,"frizz_risk":0,"updated_at":"2026-03-17T02:11:59.690334+05:30"},{"city":"Ujjain","state":"Madhya Pradesh","latitude":23.1765,"longitude":75.7885,"temp":21.9,"humidity":60,"rain":0.0,"pressure":953.4,"uv_index":7.65,"wind_gusts":28.4,"aqi":62,"pm10":30.3,"pm2_5":18.9,"mosquito_risk":0,"arthritis_risk":5,"migraine_risk":7,"frizz_risk":0,"updated_at":"2026-03-17T02:11:59.690341+05:30"},{"city":"Visakhapatnam","state":"Andhra Pradesh","latitude":17.6868,"longitude":83.2185,"temp":24.1,"humidity":86,"rain":0.0,"pressure":1005.2,"uv_index":8.7,"wind_gusts":38.2,"aqi":55,"pm10":16.1,"pm2_5":13.9,"mosquito_risk":3,"arthritis_risk":5,"migraine_risk":4,"frizz_risk":1,"updated_at":"2026-03-17T02:11:59.690348+05:30"},{"city":"Vijayawada","state":"Andhra Pradesh","latitude":16.5062,"longitude":80.648,"temp":23.7,"humidity":87,"rain":0.0,"pressure":1004.1,"uv_index":8.8,"wind_gusts":26.6,"aqi":43,"pm10":10.8,"pm2_5":9.6,"mosquito_risk":3,"arthritis_risk":5,"migraine_risk":4,"frizz_risk":1,"updated_at":"2026-03-17T02:11:59.690355+05:30"},{"city":"Guntur","state":"Andhra Pradesh","latitude":16.3067,"longitude":80.4365,"temp":23.6,"humidity":88,"rain":0.0,"pressure":1005.2,"uv_index":8.8,"wind_gusts":27.4,"aqi":41,"pm10":9.8,"pm2_5":8.7,"mosquito_risk":3,"arthritis_risk":5,"migraine_risk":4,"frizz_risk":1,"updated_at":"2026-03-17T02:11:59.690361+05:30"},{"city":"Nellore","state":"Andhra Pradesh","latitude":14.4426,"longitude":79.9865,"temp":24.7,"humidity":88,"rain":0.0,"pressure":1006.9,"uv_index":8.95,"wind_gusts":31.3,"aqi":39,"pm10":6.9,"pm2_5":5.0,"mosquito_risk":3,"arthritis_risk":5,"migraine_risk":4,"frizz_risk":1,"updated_at":"2026-03-17T02:11:59.690368+05:30"},{"city":"Kurnool","state":"Andhra Pradesh","latitude":15.8281,"longitude":78.0373,"temp":25.9,"humidity":59,"rain":0.0,"pressure":976.7,"uv_index":8.25,"wind_gusts":35.3,"aqi":76,"pm10":15.1,"pm2_5":14.1,"mosquito_risk":4,"arthritis_risk":5,"migraine_risk":7,"frizz_risk":1,"updated_at":"2026-03-17T02:11:59.690375+05:30"},{"city":"Kakinada","state":"Andhra Pradesh","latitude":16.9891,"longitude":82.2475,"temp":22.3,"humidity":91,"rain":0.0,"pressure":1009.2,"uv_index":8.75,"wind_gusts":26.6,"aqi":34,"pm10":10.9,"pm2_5":8.4,"mosquito_risk":3,"arthritis_risk":0,"migraine_risk":4,"frizz_risk":1,"updated_at":"2026-03-17T02:11:59.690382+05:30"},{"city":"Tirupati","state":"Andhra Pradesh","latitude":13.6288,"longitude":79.4192,"temp":23.4,"humidity":89,"rain":0.0,"pressure":992.6,"uv_index":9.05,"wind_gusts":25.6,"aqi":58,"pm10":20.0,"pm2_5":18.1,"mosquito_risk":3,"arthritis_risk":5,"migraine_risk":7,"frizz_risk":1,"updated_at":"2026-03-17T02:11:59.690388+05:30"},{"city":"Warangal","state":"Telangana","latitude":17.9689,"longitude":79.5941,"temp":23.6,"humidity":78,"rain":0.0,"pressure":979.3,"uv_index":8.3,"wind_gusts":31.0,"aqi":70,"pm10":14.6,"pm2_5":13.5,"mosquito_risk":3,"arthritis_risk":5,"migraine_risk":7,"frizz_risk":1,"updated_at":"2026-03-17T02:11:59.690394+05:30"},{"city":"Nizamabad","state":"Telangana","latitude":18.6725,"longitude":78.0941,"temp":24.8,"humidity":60,"rain":0.0,"pressure":964.3,"uv_index":8.45,"wind_gusts":23.4,"aqi":129,"pm10":49.9,"pm2_5":46.0,"mosquito_risk":0,"arthritis_risk":5,"migraine_risk":7,"frizz_risk":1,"updated_at":"2026-03-17T02:11:59.690400+05:30"},{"city":"Mysore","state":"Karnataka","latitude":12.2958,"longitude":76.6396,"temp":21.4,"humidity":89,"rain":0.0,"pressure":928.3,"uv_index":9.35,"wind_gusts":32.0,"aqi":113,"pm10":47.6,"pm2_5":44.7,"mosquito_risk":3,"arthritis_risk":5,"migraine_risk":7,"frizz_risk":1,"updated_at":"2026-03-17T02:11:59.690407+05:30"},{"city":"Mangalore","state":"Karnataka","latitude":12.9141,"longitude":74.856,"temp":29.1,"humidity":73,"rain":0.0,"pressure":1006.3,"uv_index":8.95,"wind_gusts":19.4,"aqi":102,"pm10":41.4,"pm2_5":30.7,"mosquito_risk":7,"arthritis_risk":5,"migraine_risk":4,"frizz_risk":1,"updated_at":"2026-03-17T02:11:59.690413+05:30"},{"city":"Hubli-Dharwad","state":"Karnataka","latitude":15.3647,"longitude":75.124,"temp":21.7,"humidity":91,"rain":0.0,"pressure":940.1,"uv_index":8.8,"wind_gusts":27.7,"aqi":99,"pm10":29.7,"pm2_5":22.7,"mosquito_risk":3,"arthritis_risk":5,"migraine_risk":7,"frizz_risk":1,"updated_at":"2026-03-17T02:11:59.690420+05:30"},{"city":"Belgaum","state":"Karnataka","latitude":15.8497,"longitude":74.4977,"temp":20.0,"humidity":97,"rain":0.0,"pressure":924.8,"uv_index":8.95,"wind_gusts":31.7,"aqi":83,"pm10":43.1,"pm2_5":27.5,"mosquito_risk":3,"arthritis_risk":5,"migraine_risk":7,"frizz_risk":1,"updated_at":"2026-03-17T02:12:02.944427+05:30"},{"city":"Coimbatore","state":"Tamil Nadu","latitude":11.0168,"longitude":76.9558,"temp":22.9,"humidity":92,"rain":0.0,"pressure":961.8,"uv_index":9.35,"wind_gusts":29.2,"aqi":93,"pm10":42.4,"pm2_5":40.0,"mosquito_risk":3,"arthritis_risk":5,"migraine_risk":7,"frizz_risk":1,"updated_at":"2026-03-17T02:12:02.944461+05:30"},{"city":"Madurai","state":"Tamil Nadu","latitude":9.9252,"longitude":78.1198,"temp":25.1,"humidity":82,"rain":0.0,"pressure":993.4,"uv_index":8.1,"wind_gusts":22.3,"aqi":54,"pm10":17.3,"pm2_5":15.7,"mosquito_risk":7,"arthritis_risk":5,"migraine_risk":7,"frizz_risk":1,"updated_at":"2026-03-17T02:12:02.944473+05:30"},{"city":"Trichy","state":"Tamil Nadu","latitude":10.7905,"longitude":78.7047,"temp":25.1,"humidity":91,"rain":0.0,"pressure":1000.4,"uv_index":9.2,"wind_gusts":24.5,"aqi":56,"pm10":15.7,"pm2_5":14.0,"mosquito_risk":7,"arthritis_risk":5,"migraine_risk":4,"frizz_risk":1,"updated_at":"2026-03-17T02:12:02.944481+05:30"},{"city":"Salem","state":"Tamil Nadu","latitude":11.6643,"longitude":78.146,"temp":24.9,"humidity":81,"rain":0.0,"pressure":977.7,"uv_index":9.25,"wind_gusts":27.4,"aqi":70,"pm10":28.2,"pm2_5":26.8,"mosquito_risk":3,"arthritis_risk":5,"migraine_risk":7,"frizz_risk":1,"updated_at":"2026-03-17T02:12:02.944489+05:30"},{"city":"Tirunelveli","state":"Tamil Nadu","latitude":8.7139,"longitude":77.7567,"temp":25.3,"humidity":83,"rain":0.0,"pressure":1003.2,"uv_index":7.3,"wind_gusts":49.7,"aqi":60,"pm10":25.9,"pm2_5":24.7,"mosquito_risk":7,"arthritis_risk":5,"migraine_risk":4,"frizz_risk":1,"updated_at":"2026-03-17T02:12:02.944496+05:30"},{"city":"Vellore","state":"Tamil Nadu","latitude":12.9165,"longitude":79.1325,"temp":23.1,"humidity":89,"rain":0.0,"pressure":985.5,"uv_index":9.15,"wind_gusts":31.0,"aqi":77,"pm10":29.3,"pm2_5":27.2,"mosquito_risk":3,"arthritis_risk":5,"migraine_risk":7,"frizz_risk":1,"updated_at":"2026-03-17T02:12:02.944503+05:30"},{"city":"Erode","state":"Tamil Nadu","latitude":11.341,"longitude":77.7172,"temp":25.8,"humidity":76,"rain":0.0,"pressure":989.3,"uv_index":9.25,"wind_gusts":29.5,"aqi":53,"pm10":12.9,"pm2_5":11.9,"mosquito_risk":7,"arthritis_risk":5,"migraine_risk":7,"frizz_risk":1,"updated_at":"2026-03-17T02:12:02.944510+05:30"},{"city":"Kochi","state":"Kerala","latitude":9.9312,"longitude":76.2673,"temp":27.2,"humidity":83,"rain":0.0,"pressure":1008.7,"uv_index":8.95,"wind_gusts":32.4,"aqi":81,"pm10":32.8,"pm2_5":31.9,"mosquito_risk":7,"arthritis_risk":0,"migraine_risk":4,"frizz_risk":1,"updated_at":"2026-03-17T02:12:02.944517+05:30"},{"city":"Thiruvananthapuram","state":"Kerala","latitude":8.5241,"longitude":76.9366,"temp":27.4,"humidity":83,"rain":0.0,"pressure":1007.8,"uv_index":7.8,"wind_gusts":25.9,"aqi":65,"pm10":16.1,"pm2_5":14.2,"mosquito_risk":7,"arthritis_risk":5,"migraine_risk":4,"frizz_risk":1,"updated_at":"2026-03-17T02:12:02.944524+05:30"},{"city":"Kozhikode","state":"Kerala","latitude":11.2588,"longitude":75.7804,"temp":27.2,"humidity":83,"rain":0.0,"pressure":1007.8,"uv_index":8.95,"wind_gusts":29.9,"aqi":79,"pm10":39.6,"pm2_5":33.8,"mosquito_risk":7,"arthritis_risk":5,"migraine_risk":4,"frizz_risk":1,"updated_at":"2026-03-17T02:12:02.944531+05:30"},{"city":"Thrissur","state":"Kerala","latitude":10.5276,"longitude":76.2144,"temp":26.0,"humidity":89,"rain":0.0,"pressure":1007.0,"uv_index":9.05,"wind_gusts":36.7,"aqi":82,"pm10":33.4,"pm2_5":31.3,"mosquito_risk":7,"arthritis_risk":5,"migraine_risk":4,"frizz_risk":1,"updated_at":"2026-03-17T02:12:02.944538+05:30"},{"city":"Kannur","state":"Kerala","latitude":11.8745,"longitude":75.3704,"temp":26.9,"humidity":79,"rain":0.0,"pressure":1006.9,"uv_index":9.0,"wind_gusts":27.7,"aqi":95,"pm10":50.2,"pm2_5":45.9,"mosquito_risk":7,"arthritis_risk":5,"migraine_risk":4,"frizz_risk":1,"updated_at":"2026-03-17T02:12:02.944547+05:30"},{"city":"Patna","state":"Bihar","latitude":25.5941,"longitude":85.1376,"temp":24.6,"humidity":72,"rain":0.0,"pressure":1000.5,"uv_index":7.5,"wind_gusts":39.2,"aqi":153,"pm10":76.6,"pm2_5":62.9,"mosquito_risk":3,"arthritis_risk":5,"migraine_risk":4,"frizz_risk":1,"updated_at":"2026-03-17T02:12:02.944554+05:30"},{"city":"Gaya","state":"Bihar","latitude":24.7914,"longitude":85.0002,"temp":23.1,"humidity":68,"rain":0.0,"pressure":993.4,"uv_index":7.6,"wind_gusts":22.3,"aqi":123,"pm10":47.8,"pm2_5":37.8,"mosquito_risk":3,"arthritis_risk":5,"migraine_risk":7,"frizz_risk":1,"updated_at":"2026-03-17T02:12:02.944559+05:30"},{"city":"Muzaffarpur","state":"Bihar","latitude":26.1209,"longitude":85.3647,"temp":20.5,"humidity":85,"rain":0.0,"pressure":1000.6,"uv_index":7.45,"wind_gusts":29.5,"aqi":156,"pm10":98.7,"pm2_5":80.8,"mosquito_risk":3,"arthritis_risk":5,"migraine_risk":4,"frizz_risk":1,"updated_at":"2026-03-17T02:12:02.944565+05:30"},{"city":"Bhagalpur","state":"Bihar","latitude":25.2425,"longitude":87.0117,"temp":23.1,"humidity":81,"rain":0.0,"pressure":1000.8,"uv_index":7.5,"wind_gusts":39.2,"aqi":152,"pm10":59.8,"pm2_5":42.6,"mosquito_risk":3,"arthritis_risk":5,"migraine_risk":4,"frizz_risk":1,"updated_at":"2026-03-17T02:12:02.944571+05:30"},{"city":"Ranchi","state":"Jharkhand","latitude":23.3441,"longitude":85.3096,"temp":20.6,"humidity":80,"rain":0.0,"pressure":937.7,"uv_index":8.2,"wind_gusts":49.7,"aqi":126,"pm10":46.8,"pm2_5":41.7,"mosquito_risk":3,"arthritis_risk":5,"migraine_risk":7,"frizz_risk":1,"updated_at":"2026-03-17T02:12:02.944577+05:30"},{"city":"Jamshedpur","state":"Jharkhand","latitude":22.8046,"longitude":86.2029,"temp":20.9,"humidity":85,"rain":0.0,"pressure":991.6,"uv_index":8.15,"wind_gusts":35.3,"aqi":138,"pm10":61.5,"pm2_5":54.8,"mosquito_risk":3,"arthritis_risk":5,"migraine_risk":7,"frizz_risk":1,"updated_at":"2026-03-17T02:12:02.944583+05:30"},{"city":"Dhanbad","state":"Jharkhand","latitude":23.7957,"longitude":86.4304,"temp":22.0,"humidity":75,"rain":0.0,"pressure":980.0,"uv_index":8.0,"wind_gusts":38.2,"aqi":157,"pm10":100.1,"pm2_5":89.2,"mosquito_risk":3,"arthritis_risk":5,"migraine_risk":7,"frizz_risk":1,"updated_at":"2026-03-17T02:12:02.944590+05:30"},{"city":"Bokaro","state":"Jharkhand","latitude":23.6693,"longitude":86.1511,"temp":21.5,"humidity":80,"rain":0.0,"pressure":984.0,"uv_index":8.0,"wind_gusts":38.2,"aqi":152,"pm10":81.3,"pm2_5":72.2,"mosquito_risk":3,"arthritis_risk":5,"migraine_risk":7,"frizz_risk":1,"updated_at":"2026-03-17T02:12:02.944596+05:30"},{"city":"Bhubaneswar","state":"Odisha","latitude":20.2961,"longitude":85.8245,"temp":24.8,"humidity":86,"rain":0.0,"pressure":1003.5,"uv_index":8.3,"wind_gusts":34.6,"aqi":71,"pm10":13.3,"pm2_5":11.4,"mosquito_risk":3,"arthritis_risk":5,"migraine_risk":4,"frizz_risk":1,"updated_at":"2026-03-17T02:12:02.944602+05:30"},{"city":"Cuttack","state":"Odisha","latitude":20.4625,"longitude":85.8828,"temp":24.1,"humidity":94,"rain":0.0,"pressure":1005.5,"uv_index":8.1,"wind_gusts":37.1,"aqi":71,"pm10":13.3,"pm2_5":11.4,"mosquito_risk":3,"arthritis_risk":5,"migraine_risk":4,"frizz_risk":1,"updated_at":"2026-03-17T02:12:02.944608+05:30"},{"city":"Rourkela","state":"Odisha","latitude":22.2604,"longitude":84.8536,"temp":22.5,"humidity":81,"rain":0.0,"pressure":985.7,"uv_index":8.05,"wind_gusts":44.6,"aqi":139,"pm10":52.7,"pm2_5":46.0,"mosquito_risk":3,"arthritis_risk":5,"migraine_risk":7,"frizz_risk":1,"updated_at":"2026-03-17T02:12:02.944613+05:30"},{"city":"Raipur","state":"Chhattisgarh","latitude":21.2514,"longitude":81.6296,"temp":23.6,"humidity":64,"rain":0.0,"pressure":975.3,"uv_index":8.15,"wind_gusts":38.2,"aqi":126,"pm10":51.5,"pm2_5":48.2,"mosquito_risk":3,"arthritis_risk":5,"migraine_risk":7,"frizz_risk":1,"updated_at":"2026-03-17T02:12:02.944618+05:30"},{"city":"Bhilai","state":"Chhattisgarh","latitude":21.1938,"longitude":81.3509,"temp":23.1,"humidity":65,"rain":0.0,"pressure":975.5,"uv_index":8.15,"wind_gusts":33.1,"aqi":122,"pm10":53.9,"pm2_5":50.5,"mosquito_risk":3,"arthritis_risk":5,"migraine_risk":7,"frizz_risk":1,"updated_at":"2026-03-17T02:12:02.944624+05:30"},{"city":"Guwahati","state":"Assam","latitude":26.1158,"longitude":91.7086,"temp":20.4,"humidity":88,"rain":0.0,"pressure":1003.2,"uv_index":7.45,"wind_gusts":39.2,"aqi":78,"pm10":26.9,"pm2_5":23.1,"mosquito_risk":3,"arthritis_risk":5,"migraine_risk":4,"frizz_risk":1,"updated_at":"2026-03-17T02:12:02.944629+05:30"},{"city":"Agartala","state":"Tripura","latitude":23.8315,"longitude":91.2868,"temp":22.1,"humidity":96,"rain":0.0,"pressure":1007.2,"uv_index":7.85,"wind_gusts":46.4,"aqi":70,"pm10":26.5,"pm2_5":23.9,"mosquito_risk":3,"arthritis_risk":5,"migraine_risk":4,"frizz_risk":1,"updated_at":"2026-03-17T02:12:02.944635+05:30"},{"city":"Shillong","state":"Meghalaya","latitude":25.5788,"longitude":91.8933,"temp":12.1,"humidity":90,"rain":0.0,"pressure":854.6,"uv_index":6.5,"wind_gusts":70.9,"aqi":51,"pm10":16.2,"pm2_5":13.4,"mosquito_risk":3,"arthritis_risk":10,"migraine_risk":7,"frizz_risk":0,"updated_at":"2026-03-17T02:12:02.944642+05:30"},{"city":"Imphal","state":"Manipur","latitude":24.817,"longitude":93.9368,"temp":14.9,"humidity":88,"rain":0.0,"pressure":923.7,"uv_index":8.1,"wind_gusts":75.2,"aqi":82,"pm10":29.0,"pm2_5":26.0,"mosquito_risk":3,"arthritis_risk":10,"migraine_risk":7,"frizz_risk":0,"updated_at":"2026-03-17T02:12:02.944649+05:30"},{"city":"Aizawl","state":"Mizoram","latitude":23.7271,"longitude":92.7176,"temp":16.2,"humidity":87,"rain":0.0,"pressure":892.8,"uv_index":8.05,"wind_gusts":63.7,"aqi":94,"pm10":54.5,"pm2_5":44.6,"mosquito_risk":3,"arthritis_risk":10,"migraine_risk":7,"frizz_risk":0,"updated_at":"2026-03-17T02:12:02.944655+05:30"},{"city":"Kohima","state":"Nagaland","latitude":25.6701,"longitude":94.1077,"temp":14.5,"humidity":70,"rain":0.0,"pressure":853.7,"uv_index":8.05,"wind_gusts":100.1,"aqi":70,"pm10":23.1,"pm2_5":19.3,"mosquito_risk":3,"arthritis_risk":5,"migraine_risk":7,"frizz_risk":0,"updated_at":"2026-03-17T02:12:02.944660+05:30"},{"city":"Gangtok","state":"Sikkim","latitude":27.3314,"longitude":88.6138,"temp":10.3,"humidity":64,"rain":0.0,"pressure":833.8,"uv_index":7.75,"wind_gusts":19.4,"aqi":72,"pm10":41.4,"pm2_5":22.1,"mosquito_risk":3,"arthritis_risk":5,"migraine_risk":7,"frizz_risk":0,"updated_at":"2026-03-17T02:12:02.944666+05:30"},{"city":"Siliguri","state":"West Bengal","latitude":26.7271,"longitude":88.3953,"temp":18.2,"humidity":72,"rain":0.0,"pressure":993.8,"uv_index":7.4,"wind_gusts":46.1,"aqi":109,"pm10":59.6,"pm2_5":41.7,"mosquito_risk":3,"arthritis_risk":5,"migraine_risk":7,"frizz_risk":0,"updated_at":"2026-03-17T02:12:06.202940+05:30"},{"city":"Durgapur","state":"West Bengal","latitude":23.5204,"longitude":87.3119,"temp":22.0,"humidity":83,"rain":0.0,"pressure":995.2,"uv_index":8.0,"wind_gusts":32.4,"aqi":153,"pm10":86.1,"pm2_5":74.3,"mosquito_risk":3,"arthritis_risk":5,"migraine_risk":7,"frizz_risk":1,"updated_at":"2026-03-17T02:12:06.202974+05:30"},{"city":"Asansol","state":"West Bengal","latitude":23.6739,"longitude":86.9524,"temp":22.3,"humidity":76,"rain":0.0,"pressure":993.8,"uv_index":8.0,"wind_gusts":46.4,"aqi":152,"pm10":80.1,"pm2_5":67.8,"mosquito_risk":3,"arthritis_risk":5,"migraine_risk":7,"frizz_risk":1,"updated_at":"2026-03-17T02:12:06.202984+05:30"},{"city":"Pondicherry","state":"Puducherry","latitude":11.9139,"longitude":79.8145,"temp":24.4,"humidity":93,"rain":0.0,"pressure":1009.1,"uv_index":9.1,"wind_gusts":30.2,"aqi":33,"pm10":9.3,"pm2_5":6.4,"mosquito_risk":3,"arthritis_risk":0,"migraine_risk":4,"frizz_risk":1,"updated_at":"2026-03-17T02:12:06.202992+05:30"},{"city":"Port Blair","state":"Andaman and Nicobar Islands","latitude":11.6234,"longitude":92.7265,"temp":27.3,"humidity":83,"rain":0.0,"pressure":1006.7,"uv_index":9.0,"wind_gusts":18.0,"aqi":72,"pm10":13.5,"pm2_5":11.7,"mosquito_risk":7,"arthritis_risk":5,"migraine_risk":4,"frizz_risk":1,"updated_at":"2026-03-17T02:12:06.203000+05:30"},{"city":"Haridwar","state":"Uttarakhand","latitude":29.9457,"longitude":78.1642,"temp":17.6,"humidity":62,"rain":0.0,"pressure":975.4,"uv_index":5.15,"wind_gusts":18.0,"aqi":67,"pm10":24.7,"pm2_5":17.3,"mosquito_risk":3,"arthritis_risk":5,"migraine_risk":3,"frizz_risk":0,"updated_at":"2026-03-17T02:12:06.203007+05:30"},{"city":"Rishikesh","state":"Uttarakhand","latitude":30.0869,"longitude":78.2676,"temp":17.4,"humidity":52,"rain":0.0,"pressure":968.3,"uv_index":5.35,"wind_gusts":20.5,"aqi":54,"pm10":23.5,"pm2_5":10.9,"mosquito_risk":0,"arthritis_risk":5,"migraine_risk":3,"frizz_risk":0,"updated_at":"2026-03-17T02:12:06.203015+05:30"},{"city":"Nainital","state":"Uttarakhand","latitude":29.3919,"longitude":79.4542,"temp":15.1,"humidity":47,"rain":0.0,"pressure":805.0,"uv_index":5.2,"wind_gusts":42.8,"aqi":62,"pm10":19.2,"pm2_5":12.8,"mosquito_risk":0,"arthritis_risk":5,"migraine_risk":3,"frizz_risk":0,"updated_at":"2026-03-17T02:12:06.203022+05:30"},{"city":"Mussoorie","state":"Uttarakhand","latitude":30.4599,"longitude":78.0664,"temp":11.6,"humidity":48,"rain":0.0,"pressure":800.7,"uv_index":5.75,"wind_gusts":28.4,"aqi":59,"pm10":25.7,"pm2_5":14.3,"mosquito_risk":0,"arthritis_risk":5,"migraine_risk":3,"frizz_risk":0,"updated_at":"2026-03-17T02:12:06.203029+05:30"},{"city":"Dharamshala","state":"Himachal Pradesh","latitude":32.219,"longitude":76.3234,"temp":13.5,"humidity":29,"rain":0.0,"pressure":867.7,"uv_index":6.0,"wind_gusts":27.0,"aqi":63,"pm10":15.0,"pm2_5":5.8,"mosquito_risk":0,"arthritis_risk":5,"migraine_risk":3,"frizz_risk":1,"updated_at":"2026-03-17T02:12:06.203036+05:30"},{"city":"Dalhousie","state":"Himachal Pradesh","latitude":32.5387,"longitude":75.971,"temp":9.4,"humidity":36,"rain":0.0,"pressure":800.7,"uv_index":6.25,"wind_gusts":25.2,"aqi":56,"pm10":23.6,"pm2_5":16.1,"mosquito_risk":0,"arthritis_risk":5,"migraine_risk":7,"frizz_risk":1,"updated_at":"2026-03-17T02:12:06.203043+05:30"},{"city":"Patiala","state":"Punjab","latitude":30.3398,"longitude":76.3869,"temp":13.4,"humidity":84,"rain":0.0,"pressure":979.8,"uv_index":5.85,"wind_gusts":13.7,"aqi":75,"pm10":40.3,"pm2_5":28.8,"mosquito_risk":3,"arthritis_risk":10,"migraine_risk":3,"frizz_risk":0,"updated_at":"2026-03-17T02:12:06.203051+05:30"},{"city":"Bhatinda","state":"Punjab","latitude":30.211,"longitude":74.9455,"temp":13.5,"humidity":80,"rain":0.0,"pressure":985.8,"uv_index":6.6,"wind_gusts":18.4,"aqi":87,"pm10":46.9,"pm2_5":25.6,"mosquito_risk":3,"arthritis_risk":5,"migraine_risk":7,"frizz_risk":0,"updated_at":"2026-03-17T02:12:06.203058+05:30"},{"city":"Rohtak","state":"Haryana","latitude":28.8955,"longitude":76.6066,"temp":16.5,"humidity":83,"rain":0.0,"pressure":982.8,"uv_index":6.0,"wind_gusts":16.9,"aqi":688,"pm10":239.3,"pm2_5":69.6,"mosquito_risk":3,"arthritis_risk":10,"migraine_risk":3,"frizz_risk":0,"updated_at":"2026-03-17T02:12:06.203064+05:30"},{"city":"Panipat","state":"Haryana","latitude":29.3909,"longitude":76.9635,"temp":15.8,"humidity":84,"rain":0.0,"pressure":981.5,"uv_index":5.9,"wind_gusts":18.7,"aqi":302,"pm10":135.5,"pm2_5":56.5,"mosquito_risk":3,"arthritis_risk":10,"migraine_risk":3,"frizz_risk":0,"updated_at":"2026-03-17T02:12:06.203070+05:30"},{"city":"Mathura","state":"Uttar Pradesh","latitude":27.4924,"longitude":77.6737,"temp":18.8,"humidity":78,"rain":0.0,"pressure":987.1,"uv_index":6.35,"wind_gusts":18.0,"aqi":899,"pm10":538.3,"pm2_5":86.6,"mosquito_risk":3,"arthritis_risk":5,"migraine_risk":7,"frizz_risk":0,"updated_at":"2026-03-17T02:12:06.203076+05:30"},{"city":"Vrindavan","state":"Uttar Pradesh","latitude":27.5823,"longitude":77.7027,"temp":18.7,"humidity":77,"rain":0.0,"pressure":987.6,"uv_index":6.4,"wind_gusts":18.0,"aqi":899,"pm10":538.3,"pm2_5":86.6,"mosquito_risk":3,"arthritis_risk":5,"migraine_risk":7,"frizz_risk":0,"updated_at":"2026-03-17T02:12:06.203083+05:30"},{"city":"Ayodhya","state":"Uttar Pradesh","latitude":26.7922,"longitude":82.1998,"temp":19.9,"humidity":61,"rain":0.0,"pressure":996.2,"uv_index":6.85,"wind_gusts":24.8,"aqi":102,"pm10":99.0,"pm2_5":69.4,"mosquito_risk":3,"arthritis_risk":5,"migraine_risk":7,"frizz_risk":0,"updated_at":"2026-03-17T02:12:06.203089+05:30"},{"city":"Ratlam","state":"Madhya Pradesh","latitude":23.3315,"longitude":75.0367,"temp":24.0,"humidity":56,"rain":0.0,"pressure":954.2,"uv_index":7.6,"wind_gusts":33.5,"aqi":59,"pm10":33.5,"pm2_5":18.5,"mosquito_risk":0,"arthritis_risk":5,"migraine_risk":7,"frizz_risk":0,"updated_at":"2026-03-17T02:12:06.203095+05:30"},{"city":"Sagar","state":"Madhya Pradesh","latitude":23.8388,"longitude":78.7378,"temp":22.6,"humidity":41,"rain":0.0,"pressure":949.2,"uv_index":7.55,"wind_gusts":30.6,"aqi":49,"pm10":18.4,"pm2_5":11.8,"mosquito_risk":0,"arthritis_risk":5,"migraine_risk":7,"frizz_risk":0,"updated_at":"2026-03-17T02:12:06.203101+05:30"},{"city":"Satna","state":"Madhya Pradesh","latitude":24.6005,"longitude":80.8322,"temp":22.8,"humidity":75,"rain":0.0,"pressure":971.1,"uv_index":7.55,"wind_gusts":37.4,"aqi":85,"pm10":55.9,"pm2_5":46.1,"mosquito_risk":3,"arthritis_risk":5,"migraine_risk":7,"frizz_risk":1,"updated_at":"2026-03-17T02:12:06.203107+05:30"},{"city":"Akola","state":"Maharashtra","latitude":20.7002,"longitude":77.0082,"temp":25.2,"humidity":45,"rain":0.0,"pressure":974.5,"uv_index":8.05,"wind_gusts":24.1,"aqi":69,"pm10":47.6,"pm2_5":31.0,"mosquito_risk":4,"arthritis_risk":5,"migraine_risk":7,"frizz_risk":0,"updated_at":"2026-03-17T02:12:06.203114+05:30"},{"city":"Amravati","state":"Maharashtra","latitude":20.9374,"longitude":77.7796,"temp":25.3,"humidity":48,"rain":0.0,"pressure":966.6,"uv_index":8.0,"wind_gusts":30.6,"aqi":73,"pm10":49.1,"pm2_5":35.4,"mosquito_risk":4,"arthritis_risk":5,"migraine_risk":7,"frizz_risk":0,"updated_at":"2026-03-17T02:12:06.203121+05:30"},{"city":"Latur","state":"Maharashtra","latitude":18.4088,"longitude":76.5604,"temp":21.6,"humidity":69,"rain":0.0,"pressure":939.1,"uv_index":8.55,"wind_gusts":23.4,"aqi":94,"pm10":45.4,"pm2_5":42.3,"mosquito_risk":3,"arthritis_risk":5,"migraine_risk":7,"frizz_risk":0,"updated_at":"2026-03-17T02:12:06.203128+05:30"},{"city":"Nanded","state":"Maharashtra","latitude":19.1383,"longitude":77.3091,"temp":24.4,"humidity":63,"rain":0.0,"pressure":968.1,"uv_index":8.3,"wind_gusts":19.1,"aqi":106,"pm10":61.7,"pm2_5":56.8,"mosquito_risk":3,"arthritis_risk":5,"migraine_risk":7,"frizz_risk":1,"updated_at":"2026-03-17T02:12:06.203134+05:30"},{"city":"Gulbarga","state":"Karnataka","latitude":17.3297,"longitude":76.8343,"temp":24.1,"humidity":65,"rain":0.0,"pressure":958.3,"uv_index":8.3,"wind_gusts":24.5,"aqi":109,"pm10":45.1,"pm2_5":41.0,"mosquito_risk":3,"arthritis_risk":5,"migraine_risk":7,"frizz_risk":1,"updated_at":"2026-03-17T02:12:06.203140+05:30"},{"city":"Bidar","state":"Karnataka","latitude":17.9104,"longitude":77.5199,"temp":23.2,"humidity":65,"rain":0.0,"pressure":934.6,"uv_index":8.55,"wind_gusts":34.9,"aqi":123,"pm10":45.3,"pm2_5":41.0,"mosquito_risk":3,"arthritis_risk":5,"migraine_risk":7,"frizz_risk":1,"updated_at":"2026-03-17T02:12:06.203145+05:30"},{"city":"Hospet","state":"Karnataka","latitude":15.2689,"longitude":76.3909,"temp":24.2,"humidity":75,"rain":0.0,"pressure":955.8,"uv_index":8.7,"wind_gusts":27.7,"aqi":118,"pm10":46.9,"pm2_5":42.7,"mosquito_risk":3,"arthritis_risk":5,"migraine_risk":7,"frizz_risk":1,"updated_at":"2026-03-17T02:12:06.203151+05:30"},{"city":"Tirupur","state":"Tamil Nadu","latitude":11.1085,"longitude":77.3411,"temp":24.2,"humidity":83,"rain":0.0,"pressure":975.4,"uv_index":9.35,"wind_gusts":37.1,"aqi":73,"pm10":30.5,"pm2_5":29.0,"mosquito_risk":3,"arthritis_risk":5,"migraine_risk":7,"frizz_risk":1,"updated_at":"2026-03-17T02:12:06.203156+05:30"},{"city":"Alappuzha","state":"Kerala","latitude":9.4981,"longitude":76.3388,"temp":27.1,"humidity":83,"rain":0.0,"pressure":1008.7,"uv_index":9.05,"wind_gusts":30.2,"aqi":79,"pm10":24.5,"pm2_5":22.7,"mosquito_risk":7,"arthritis_risk":0,"migraine_risk":4,"frizz_risk":1,"updated_at":"2026-03-17T02:12:06.203161+05:30"},{"city":"Munnar","state":"Kerala","latitude":10.0889,"longitude":77.0595,"temp":17.8,"humidity":91,"rain":0.0,"pressure":855.1,"uv_index":9.6,"wind_gusts":33.5,"aqi":72,"pm10":26.3,"pm2_5":25.2,"mosquito_risk":3,"arthritis_risk":10,"migraine_risk":7,"frizz_risk":1,"updated_at":"2026-03-17T02:12:06.203168+05:30"},{"city":"Silchar","state":"Assam","latitude":24.8333,"longitude":92.7789,"temp":19.2,"humidity":94,"rain":0.0,"pressure":1007.9,"uv_index":7.9,"wind_gusts":41.0,"aqi":66,"pm10":22.9,"pm2_5":19.8,"mosquito_risk":3,"arthritis_risk":10,"migraine_risk":4,"frizz_risk":1,"updated_at":"2026-03-17T02:12:06.203174+05:30"},{"city":"Dibrugarh","state":"Assam","latitude":27.4728,"longitude":94.912,"temp":18.5,"humidity":91,"rain":0.0,"pressure":996.8,"uv_index":6.25,"wind_gusts":33.1,"aqi":78,"pm10":30.4,"pm2_5":25.4,"mosquito_risk":3,"arthritis_risk":10,"migraine_risk":7,"frizz_risk":1,"updated_at":"2026-03-17T02:12:06.203180+05:30"}]