[{"city":"Delhi","state":"Delhi","latitude":28.6139,"longitude":77.209,"temp":33.4,"humidity":34,"rain":0.0,"pressure":984.1,"uv_index":5.85,"wind_gusts":34.6,"aqi":388,"pm10":583.0,"pm2_5":98.0,"mosquito_risk":0,"arthritis_risk":5,"migraine_risk":3,"frizz_risk":0,"updated_at":"2026-03-05T15:20:13.643748+05:30"},{"city":"Mumbai","state":"Maharashtra","latitude":19.076,"longitude":72.8777,"temp":29.1,"humidity":64,"rain":0.0,"pressure":1008.4,"uv_index":7.4,"wind_gusts":26.6,"aqi":118,"pm10":39.7,"pm2_5":37.3,"mosquito_risk":7,"arthritis_risk":0,"migraine_risk":4,"frizz_risk":1,"updated_at":"2026-03-05T15:20:13.643787+05:30"},{"city":"Bangalore","state":"Karnataka","latitude":12.9716,"longitude":77.5946,"temp":31.9,"humidity":25,"rain":0.0,"pressure":911.9,"uv_index":9.1,"wind_gusts":31.3,"aqi":87,"pm10":25.6,"pm2_5":24.0,"mosquito_risk":0,"arthritis_risk":5,"migraine_risk":7,"frizz_risk":0,"updated_at":"2026-03-05T15:20:13.643802+05:30"},{"city":"Hyderabad","state":"Telangana","latitude":17.385,"longitude":78.4867,"temp":35.7,"humidity":20,"rain":0.0,"pressure":953.5,"uv_index":8.45,"wind_gusts":27.4,"aqi":107,"pm10":16.4,"pm2_5":14.7,"mosquito_risk":0,"arthritis_risk":5,"migraine_risk":10,"frizz_risk":0,"updated_at":"2026-03-05T15:20:13.643813+05:30"},{"city":"Chennai","state":"Tamil Nadu","latitude":13.0827,"longitude":80.2707,"temp":34.1,"humidity":40,"rain":0.0,"pressure":1006.7,"uv_index":8.85,"wind_gusts":31.3,"aqi":97,"pm10":34.9,"pm2_5":31.1,"mosquito_risk":0,"arthritis_risk":5,"migraine_risk":4,"frizz_risk":1,"updated_at":"2026-03-05T15:20:13.643822+05:30"},{"city":"Kolkata","state":"West Bengal","latitude":22.5726,"longitude":88.3639,"temp":31.6,"humidity":37,"rain":0.0,"pressure":1005.2,"uv_index":7.8,"wind_gusts":10.8,"aqi":174,"pm10":107.1,"pm2_5":57.6,"mosquito_risk":0,"arthritis_risk":5,"migraine_risk":4,"frizz_risk":0,"updated_at":"2026-03-05T15:20:13.643830+05:30"},{"city":"Pune","state":"Maharashtra","latitude":18.5204,"longitude":73.8567,"temp":37.5,"humidity":17,"rain":0.0,"pressure":949.4,"uv_index":7.95,"wind_gusts":31.3,"aqi":85,"pm10":17.1,"pm2_5":15.6,"mosquito_risk":0,"arthritis_risk":5,"migraine_risk":10,"frizz_risk":0,"updated_at":"2026-03-05T15:20:13.643842+05:30"},{"city":"Ahmedabad","state":"Gujarat","latitude":23.0225,"longitude":72.5714,"temp":37.7,"humidity":12,"rain":0.0,"pressure":1004.5,"uv_index":7.2,"wind_gusts":28.4,"aqi":65,"pm10":12.8,"pm2_5":11.4,"mosquito_risk":0,"arthritis_risk":5,"migraine_risk":7,"frizz_risk":0,"updated_at":"2026-03-05T15:20:13.643850+05:30"},{"city":"Jaipur","state":"Rajasthan","latitude":26.9124,"longitude":75.7873,"temp":36.6,"humidity":16,"rain":0.0,"pressure":962.1,"uv_index":6.65,"wind_gusts":34.9,"aqi":87,"pm10":162.5,"pm2_5":27.5,"mosquito_risk":0,"arthritis_risk":5,"migraine_risk":10,"frizz_risk":0,"updated_at":"2026-03-05T15:20:13.643857+05:30"},{"city":"Lucknow","state":"Uttar Pradesh","latitude":26.8467,"longitude":80.9462,"temp":31.8,"humidity":41,"rain":0.0,"pressure":993.8,"uv_index":6.4,"wind_gusts":15.1,"aqi":164,"pm10":280.3,"pm2_5":82.2,"mosquito_risk":0,"arthritis_risk":5,"migraine_risk":7,"frizz_risk":1,"updated_at":"2026-03-05T15:20:13.643865+05:30"},{"city":"Kanpur","state":"Uttar Pradesh","latitude":26.4499,"longitude":80.3319,"temp":33.0,"humidity":35,"rain":0.0,"pressure":992.0,"uv_index":6.4,"wind_gusts":28.4,"aqi":178,"pm10":313.9,"pm2_5":74.5,"mosquito_risk":0,"arthritis_risk":5,"migraine_risk":7,"frizz_risk":0,"updated_at":"2026-03-05T15:20:13.643872+05:30"},{"city":"Chandigarh","state":"Chandigarh","latitude":30.7333,"longitude":76.7794,"temp":32.2,"humidity":34,"rain":0.0,"pressure":970.0,"uv_index":5.75,"wind_gusts":31.0,"aqi":91,"pm10":45.5,"pm2_5":28.3,"mosquito_risk":0,"arthritis_risk":5,"migraine_risk":3,"frizz_risk":0,"updated_at":"2026-03-05T15:20:13.643880+05:30"},{"city":"Srinagar","state":"Jammu and Kashmir","latitude":34.0837,"longitude":74.7973,"temp":22.1,"humidity":36,"rain":0.0,"pressure":846.5,"uv_index":6.55,"wind_gusts":14.4,"aqi":152,"pm10":36.9,"pm2_5":19.3,"mosquito_risk":0,"arthritis_risk":5,"migraine_risk":7,"frizz_risk":0,"updated_at":"2026-03-05T15:20:13.643887+05:30"},{"city":"Jammu","state":"Jammu and Kashmir","latitude":32.7266,"longitude":74.857,"temp":32.2,"humidity":40,"rain":0.0,"pressure":973.8,"uv_index":6.4,"wind_gusts":23.8,"aqi":104,"pm10":54.7,"pm2_5":27.3,"mosquito_risk":0,"arthritis_risk":5,"migraine_risk":7,"frizz_risk":1,"updated_at":"2026-03-05T15:20:13.643894+05:30"},{"city":"Amritsar","state":"Punjab","latitude":31.634,"longitude":74.8723,"temp":32.3,"humidity":35,"rain":0.0,"pressure":982.5,"uv_index":6.35,"wind_gusts":22.7,"aqi":152,"pm10":56.0,"pm2_5":33.8,"mosquito_risk":0,"arthritis_risk":5,"migraine_risk":7,"frizz_risk":0,"updated_at":"2026-03-05T15:20:13.643900+05:30"},{"city":"Ludhiana","state":"Punjab","latitude":30.901,"longitude":75.8573,"temp":32.2,"humidity":36,"rain":0.0,"pressure":980.3,"uv_index":6.0,"wind_gusts":25.6,"aqi":156,"pm10":78.7,"pm2_5":51.2,"mosquito_risk":0,"arthritis_risk":5,"migraine_risk":3,"frizz_risk":0,"updated_at":"2026-03-05T15:20:13.643907+05:30"},{"city":"Jalandhar","state":"Punjab","latitude":31.326,"longitude":75.5762,"temp":32.0,"humidity":38,"rain":0.0,"pressure":981.4,"uv_index":6.2,"wind_gusts":24.1,"aqi":159,"pm10":85.7,"pm2_5":43.3,"mosquito_risk":0,"arthritis_risk":5,"migraine_risk":7,"frizz_risk":0,"updated_at":"2026-03-05T15:20:13.643915+05:30"},{"city":"Dehradun","state":"Uttarakhand","latitude":30.6284,"longitude":78.0322,"temp":21.7,"humidity":61,"rain":0.0,"pressure":832.7,"uv_index":6.15,"wind_gusts":31.7,"aqi":65,"pm10":23.4,"pm2_5":12.7,"mosquito_risk":3,"arthritis_risk":5,"migraine_risk":7,"frizz_risk":0,"updated_at":"2026-03-05T15:20:13.643922+05:30"},{"city":"Shimla","state":"Himachal Pradesh","latitude":31.1048,"longitude":77.1734,"temp":22.8,"humidity":35,"rain":0.0,"pressure":789.7,"uv_index":6.2,"wind_gusts":55.1,"aqi":65,"pm10":22.8,"pm2_5":9.4,"mosquito_risk":0,"arthritis_risk":5,"migraine_risk":7,"frizz_risk":0,"updated_at":"2026-03-05T15:20:13.643928+05:30"},{"city":"Manali","state":"Himachal Pradesh","latitude":32.2396,"longitude":77.1887,"temp":27.1,"humidity":27,"rain":0.0,"pressure":825.7,"uv_index":7.8,"wind_gusts":36.7,"aqi":55,"pm10":21.0,"pm2_5":9.4,"mosquito_risk":4,"arthritis_risk":5,"migraine_risk":7,"frizz_risk":0,"updated_at":"2026-03-05T15:20:13.643935+05:30"},{"city":"Gurgaon","state":"Haryana","latitude":28.4595,"longitude":77.0266,"temp":33.4,"humidity":33,"rain":0.0,"pressure":982.8,"uv_index":5.95,"wind_gusts":33.5,"aqi":1372,"pm10":1777.0,"pm2_5":191.4,"mosquito_risk":0,"arthritis_risk":5,"migraine_risk":3,"frizz_risk":0,"updated_at":"2026-03-05T15:20:13.643942+05:30"},{"city":"Noida","state":"Uttar Pradesh","latitude":28.5355,"longitude":77.391,"temp":33.8,"humidity":33,"rain":0.0,"pressure":985.6,"uv_index":5.85,"wind_gusts":34.6,"aqi":1372,"pm10":1777.0,"pm2_5":191.4,"mosquito_risk":0,"arthritis_risk":5,"migraine_risk":3,"frizz_risk":0,"updated_at":"2026-03-05T15:20:13.643949+05:30"},{"city":"Ghaziabad","state":"Uttar Pradesh","latitude":28.6692,"longitude":77.4538,"temp":33.0,"humidity":38,"rain":0.0,"pressure":983.6,"uv_index":5.85,"wind_gusts":31.7,"aqi":257,"pm10":339.9,"pm2_5":77.1,"mosquito_risk":0,"arthritis_risk":5,"migraine_risk":3,"frizz_risk":1,"updated_at":"2026-03-05T15:20:13.643955+05:30"},{"city":"Faridabad","state":"Haryana","latitude":28.4089,"longitude":77.3178,"temp":33.1,"humidity":33,"rain":0.0,"pressure":984.9,"uv_index":5.9,"wind_gusts":33.1,"aqi":1372,"pm10":1777.0,"pm2_5":191.4,"mosquito_risk":0,"arthritis_risk":5,"migraine_risk":3,"frizz_risk":0,"updated_at":"2026-03-05T15:20:13.643962+05:30"},{"city":"Meerut","state":"Uttar Pradesh","latitude":28.9845,"longitude":77.7064,"temp":33.0,"humidity":34,"rain":0.0,"pressure":982.2,"uv_index":5.75,"wind_gusts":30.6,"aqi":257,"pm10":339.9,"pm2_5":77.1,"mosquito_risk":0,"arthritis_risk":5,"migraine_risk":3,"frizz_risk":0,"updated_at":"2026-03-05T15:20:13.643968+05:30"},{"city":"Agra","state":"Uttar Pradesh","latitude":27.1767,"longitude":78.0081,"temp":35.7,"humidity":23,"rain":0.0,"pressure":988.7,"uv_index":6.25,"wind_gusts":37.8,"aqi":439,"pm10":570.0,"pm2_5":76.4,"mosquito_risk":0,"arthritis_risk":5,"migraine_risk":10,"frizz_risk":0,"updated_at":"2026-03-05T15:20:13.643975+05:30"},{"city":"Varanasi","state":"Uttar Pradesh","latitude":25.3176,"longitude":82.9739,"temp":30.6,"humidity":43,"rain":0.0,"pressure":998.1,"uv_index":7.05,"wind_gusts":16.6,"aqi":155,"pm10":217.0,"pm2_5":64.5,"mosquito_risk":0,"arthritis_risk":5,"migraine_risk":7,"frizz_risk":1,"updated_at":"2026-03-05T15:20:13.643984+05:30"},{"city":"Prayagraj","state":"Uttar Pradesh","latitude":25.4358,"longitude":81.8463,"temp":31.5,"humidity":42,"rain":0.0,"pressure":996.4,"uv_index":6.9,"wind_gusts":19.4,"aqi":155,"pm10":258.9,"pm2_5":70.5,"mosquito_risk":0,"arthritis_risk":5,"migraine_risk":7,"frizz_risk":1,"updated_at":"2026-03-05T15:20:13.643991+05:30"},{"city":"Gorakhpur","state":"Uttar Pradesh","latitude":26.7606,"longitude":83.3732,"temp":30.1,"humidity":45,"rain":0.0,"pressure":997.9,"uv_index":6.75,"wind_gusts":11.2,"aqi":173,"pm10":88.9,"pm2_5":64.7,"mosquito_risk":0,"arthritis_risk":5,"migraine_risk":7,"frizz_risk":1,"updated_at":"2026-03-05T15:20:13.644001+05:30"},{"city":"Bareilly","state":"Uttar Pradesh","latitude":28.367,"longitude":79.4304,"temp":30.2,"humidity":50,"rain":0.0,"pressure":987.5,"uv_index":6.05,"wind_gusts":14.0,"aqi":167,"pm10":156.9,"pm2_5":72.4,"mosquito_risk":0,"arthritis_risk":5,"migraine_risk":7,"frizz_risk":1,"updated_at":"2026-03-05T15:20:13.644008+05:30"},{"city":"Aligarh","state":"Uttar Pradesh","latitude":27.8974,"longitude":78.088,"temp":34.0,"humidity":31,"rain":0.0,"pressure":986.3,"uv_index":5.95,"wind_gusts":35.3,"aqi":681,"pm10":756.2,"pm2_5":127.6,"mosquito_risk":0,"arthritis_risk":5,"migraine_risk":3,"frizz_risk":0,"updated_at":"2026-03-05T15:20:13.644014+05:30"},{"city":"Moradabad","state":"Uttar Pradesh","latitude":28.8386,"longitude":78.7733,"temp":30.3,"humidity":48,"rain":0.0,"pressure":984.5,"uv_index":5.9,"wind_gusts":18.0,"aqi":169,"pm10":138.3,"pm2_5":72.2,"mosquito_risk":0,"arthritis_risk":5,"migraine_risk":3,"frizz_risk":1,"updated_at":"2026-03-05T15:20:13.644021+05:30"},{"city":"Saharanpur","state":"Uttar Pradesh","latitude":29.9637,"longitude":77.546,"temp":31.2,"humidity":48,"rain":0.0,"pressure":976.4,"uv_index":5.5,"wind_gusts":23.4,"aqi":154,"pm10":112.9,"pm2_5":49.7,"mosquito_risk":0,"arthritis_risk":5,"migraine_risk":3,"frizz_risk":1,"updated_at":"2026-03-05T15:20:13.644026+05:30"},{"city":"Jhansi","state":"Uttar Pradesh","latitude":25.4484,"longitude":78.5685,"temp":36.0,"humidity":21,"rain":0.0,"pressure":979.1,"uv_index":6.85,"wind_gusts":35.3,"aqi":56,"pm10":38.6,"pm2_5":15.3,"mosquito_risk":0,"arthritis_risk":5,"migraine_risk":10,"frizz_risk":0,"updated_at":"2026-03-05T15:20:16.867037+05:30"},{"city":"Surat","state":"Gujarat","latitude":21.1702,"longitude":72.8311,"temp":35.6,"humidity":26,"rain":0.0,"pressure":1008.4,"uv_index":7.1,"wind_gusts":29.5,"aqi":114,"pm10":31.7,"pm2_5":29.4,"mosquito_risk":0,"arthritis_risk":0,"migraine_risk":7,"frizz_risk":0,"updated_at":"2026-03-05T15:20:16.867066+05:30"},{"city":"Vadodara","state":"Gujarat","latitude":22.3072,"longitude":73.1812,"temp":39.1,"humidity":17,"rain":0.0,"pressure":1006.0,"uv_index":7.2,"wind_gusts":24.5,"aqi":84,"pm10":23.3,"pm2_5":19.5,"mosquito_risk":0,"arthritis_risk":5,"migraine_risk":7,"frizz_risk":0,"updated_at":"2026-03-05T15:20:16.867076+05:30"},{"city":"Rajkot","state":"Gujarat","latitude":22.3039,"longitude":70.8022,"temp":35.2,"humidity":19,"rain":0.0,"pressure":997.7,"uv_index":7.05,"wind_gusts":36.4,"aqi":57,"pm10":20.1,"pm2_5":19.0,"mosquito_risk":0,"arthritis_risk":5,"migraine_risk":10,"frizz_risk":0,"updated_at":"2026-03-05T15:20:16.867084+05:30"},{"city":"Thane","state":"Maharashtra","latitude":19.2183,"longitude":72.9781,"temp":37.0,"humidity":27,"rain":0.0,"pressure":1008.1,"uv_index":7.4,"wind_gusts":41.4,"aqi":118,"pm10":39.7,"pm2_5":37.3,"mosquito_risk":0,"arthritis_risk":0,"migraine_risk":7,"frizz_risk":0,"updated_at":"2026-03-05T15:20:16.867091+05:30"},{"city":"Nagpur","state":"Maharashtra","latitude":21.1458,"longitude":79.0882,"temp":36.7,"humidity":13,"rain":0.0,"pressure":973.7,"uv_index":7.8,"wind_gusts":27.0,"aqi":64,"pm10":15.3,"pm2_5":11.8,"mosquito_risk":0,"arthritis_risk":5,"migraine_risk":10,"frizz_risk":0,"updated_at":"2026-03-05T15:20:16.867098+05:30"},{"city":"Nashik","state":"Maharashtra","latitude":19.9975,"longitude":73.7898,"temp":35.8,"humidity":20,"rain":0.0,"pressure":947.3,"uv_index":7.6,"wind_gusts":37.4,"aqi":74,"pm10":17.7,"pm2_5":14.3,"mosquito_risk":0,"arthritis_risk":5,"migraine_risk":10,"frizz_risk":0,"updated_at":"2026-03-05T15:20:16.867106+05:30"},{"city":"Aurangabad","state":"Maharashtra","latitude":19.8762,"longitude":75.3433,"temp":36.1,"humidity":17,"rain":0.0,"pressure":945.5,"uv_index":8.1,"wind_gusts":30.2,"aqi":73,"pm10":19.1,"pm2_5":15.8,"mosquito_risk":0,"arthritis_risk":5,"migraine_risk":10,"frizz_risk":0,"updated_at":"2026-03-05T15:20:16.867112+05:30"},{"city":"Solapur","state":"Maharashtra","latitude":17.6599,"longitude":75.9064,"temp":35.7,"humidity":20,"rain":0.0,"pressure":957.7,"uv_index":8.35,"wind_gusts":19.1,"aqi":82,"pm10":23.4,"pm2_5":20.8,"mosquito_risk":0,"arthritis_risk":5,"migraine_risk":10,"frizz_risk":0,"updated_at":"2026-03-05T15:20:16.867119+05:30"},{"city":"Kolhapur","state":"Maharashtra","latitude":16.705,"longitude":74.2433,"temp":35.6,"humidity":20,"rain":0.0,"pressure":948.3,"uv_index":8.5,"wind_gusts":34.6,"aqi":154,"pm10":23.9,"pm2_5":21.9,"mosquito_risk":0,"arthritis_risk":5,"migraine_risk":10,"frizz_risk":0,"updated_at":"2026-03-05T15:20:16.867127+05:30"},{"city":"Goa","state":"Goa","latitude":15.2993,"longitude":74.124,"temp":30.5,"humidity":68,"rain":0.0,"pressure":997.5,"uv_index":8.55,"wind_gusts":36.0,"aqi":153,"pm10":50.4,"pm2_5":47.5,"mosquito_risk":3,"arthritis_risk":5,"migraine_risk":7,"frizz_risk":1,"updated_at":"2026-03-05T15:20:16.867134+05:30"},{"city":"Jodhpur","state":"Rajasthan","latitude":26.2389,"longitude":73.0243,"temp":36.3,"humidity":16,"rain":0.0,"pressure":986.0,"uv_index":6.9,"wind_gusts":24.1,"aqi":84,"pm10":41.6,"pm2_5":14.4,"mosquito_risk":0,"arthritis_risk":5,"migraine_risk":10,"frizz_risk":0,"updated_at":"2026-03-05T15:20:16.867141+05:30"},{"city":"Udaipur","state":"Rajasthan","latitude":24.5854,"longitude":73.7125,"temp":34.6,"humidity":16,"rain":0.0,"pressure":949.9,"uv_index":7.55,"wind_gusts":25.9,"aqi":60,"pm10":12.5,"pm2_5":10.1,"mosquito_risk":0,"arthritis_risk":5,"migraine_risk":7,"frizz_risk":0,"updated_at":"2026-03-05T15:20:16.867148+05:30"},{"city":"Kota","state":"Rajasthan","latitude":25.2138,"longitude":75.8648,"temp":36.9,"humidity":19,"rain":0.0,"pressure":980.7,"uv_index":6.95,"wind_gusts":28.8,"aqi":73,"pm10":52.9,"pm2_5":17.7,"mosquito_risk":0,"arthritis_risk":5,"migraine_risk":10,"frizz_risk":0,"updated_at":"2026-03-05T15:20:16.867155+05:30"},{"city":"Bikaner","state":"Rajasthan","latitude":28.0229,"longitude":73.3119,"temp":35.7,"humidity":19,"rain":0.0,"pressure":984.6,"uv_index":6.6,"wind_gusts":20.9,"aqi":61,"pm10":132.7,"pm2_5":24.3,"mosquito_risk":0,"arthritis_risk":5,"migraine_risk":10,"frizz_risk":0,"updated_at":"2026-03-05T15:20:16.867161+05:30"},{"city":"Ajmer","state":"Rajasthan","latitude":26.4499,"longitude":74.6399,"temp":35.2,"humidity":19,"rain":0.0,"pressure":957.5,"uv_index":6.9,"wind_gusts":25.6,"aqi":69,"pm10":113.9,"pm2_5":25.4,"mosquito_risk":0,"arthritis_risk":5,"migraine_risk":10,"frizz_risk":0,"updated_at":"2026-03-05T15:20:16.867168+05:30"},{"city":"Gwalior","state":"Madhya Pradesh","latitude":26.2183,"longitude":78.1828,"temp":34.2,"humidity":28,"rain":0.0,"pressure":984.5,"uv_index":6.55,"wind_gusts":32.8,"aqi":66,"pm10":42.7,"pm2_5":19.3,"mosquito_risk":0,"arthritis_risk":5,"migraine_risk":7,"frizz_risk":0,"updated_at":"2026-03-05T15:20:16.867175+05:30"},{"city":"Indore","state":"Madhya Pradesh","latitude":22.7196,"longitude":75.8577,"temp":34.0,"humidity":19,"rain":0.0,"pressure":950.7,"uv_index":7.5,"wind_gusts":25.2,"aqi":78,"pm10":23.8,"pm2_5":12.1,"mosquito_risk":0,"arthritis_risk":5,"migraine_risk":7,"frizz_risk":0,"updated_at":"2026-03-05T15:20:16.867181+05:30"},{"city":"Bhopal","state":"Madhya Pradesh","latitude":23.2599,"longitude":77.4126,"temp":34.3,"humidity":20,"rain":0.0,"pressure":955.8,"uv_index":7.35,"wind_gusts":29.5,"aqi":58,"pm10":25.6,"pm2_5":13.1,"mosquito_risk":0,"arthritis_risk":5,"migraine_risk":7,"frizz_risk":0,"updated_at":"2026-03-05T15:20:16.867187+05:30"},{"city":"Jabalpur","state":"Madhya Pradesh","latitude":23.1815,"longitude":79.9864,"temp":34.6,"humidity":20,"rain":0.0,"pressure":962.5,"uv_index":7.5,"wind_gusts":30.2,"aqi":55,"pm10":29.9,"pm2_5":12.3,"mosquito_risk":0,"arthritis_risk":5,"migraine_risk":7,"frizz_risk":0,"updated_at":"2026-03-05T15:20:16.867194+05:30"},{"city":"Ujjain","state":"Madhya Pradesh","latitude":23.1765,"longitude":75.7885,"temp":34.0,"humidity":19,"rain":0.0,"pressure":956.3,"uv_index":7.4,"wind_gusts":23.0,"aqi":107,"pm10":29.2,"pm2_5":14.5,"mosquito_risk":0,"arthritis_risk":5,"migraine_risk":7,"frizz_risk":0,"updated_at":"2026-03-05T15:20:16.867201+05:30"},{"city":"Visakhapatnam","state":"Andhra Pradesh","latitude":17.6868,"longitude":83.2185,"temp":34.1,"humidity":35,"rain":0.0,"pressure":1001.8,"uv_index":8.45,"wind_gusts":33.1,"aqi":104,"pm10":42.7,"pm2_5":38.4,"mosquito_risk":0,"arthritis_risk":5,"migraine_risk":4,"frizz_risk":1,"updated_at":"2026-03-05T15:20:16.867207+05:30"},{"city":"Vijayawada","state":"Andhra Pradesh","latitude":16.5062,"longitude":80.648,"temp":35.8,"humidity":30,"rain":0.0,"pressure":1001.4,"uv_index":8.5,"wind_gusts":17.3,"aqi":114,"pm10":32.0,"pm2_5":29.6,"mosquito_risk":0,"arthritis_risk":5,"migraine_risk":7,"frizz_risk":0,"updated_at":"2026-03-05T15:20:16.867214+05:30"},{"city":"Guntur","state":"Andhra Pradesh","latitude":16.3067,"longitude":80.4365,"temp":36.6,"humidity":26,"rain":0.0,"pressure":1002.5,"uv_index":8.5,"wind_gusts":20.9,"aqi":111,"pm10":25.2,"pm2_5":22.8,"mosquito_risk":0,"arthritis_risk":5,"migraine_risk":7,"frizz_risk":0,"updated_at":"2026-03-05T15:20:16.867220+05:30"},{"city":"Nellore","state":"Andhra Pradesh","latitude":14.4426,"longitude":79.9865,"temp":37.5,"humidity":26,"rain":0.0,"pressure":1004.4,"uv_index":8.7,"wind_gusts":28.4,"aqi":99,"pm10":33.2,"pm2_5":30.2,"mosquito_risk":0,"arthritis_risk":5,"migraine_risk":7,"frizz_risk":0,"updated_at":"2026-03-05T15:20:16.867227+05:30"},{"city":"Kurnool","state":"Andhra Pradesh","latitude":15.8281,"longitude":78.0373,"temp":37.4,"humidity":17,"rain":0.0,"pressure":976.4,"uv_index":8.5,"wind_gusts":27.0,"aqi":88,"pm10":23.7,"pm2_5":21.4,"mosquito_risk":0,"arthritis_risk":5,"migraine_risk":10,"frizz_risk":0,"updated_at":"2026-03-05T15:20:16.867235+05:30"},{"city":"Kakinada","state":"Andhra Pradesh","latitude":16.9891,"longitude":82.2475,"temp":37.0,"humidity":28,"rain":0.0,"pressure":1005.1,"uv_index":8.45,"wind_gusts":27.4,"aqi":95,"pm10":35.7,"pm2_5":32.2,"mosquito_risk":0,"arthritis_risk":5,"migraine_risk":7,"frizz_risk":0,"updated_at":"2026-03-05T15:20:16.867241+05:30"},{"city":"Tirupati","state":"Andhra Pradesh","latitude":13.6288,"longitude":79.4192,"temp":35.9,"humidity":20,"rain":0.0,"pressure":990.5,"uv_index":8.8,"wind_gusts":29.5,"aqi":131,"pm10":29.4,"pm2_5":25.8,"mosquito_risk":0,"arthritis_risk":5,"migraine_risk":10,"frizz_risk":0,"updated_at":"2026-03-05T15:20:16.867247+05:30"},{"city":"Warangal","state":"Telangana","latitude":17.9689,"longitude":79.5941,"temp":35.7,"humidity":20,"rain":0.0,"pressure":978.6,"uv_index":8.3,"wind_gusts":27.4,"aqi":86,"pm10":16.5,"pm2_5":12.5,"mosquito_risk":0,"arthritis_risk":5,"migraine_risk":10,"frizz_risk":0,"updated_at":"2026-03-05T15:20:16.867254+05:30"},{"city":"Nizamabad","state":"Telangana","latitude":18.6725,"longitude":78.0941,"temp":35.8,"humidity":21,"rain":0.0,"pressure":965.3,"uv_index":8.15,"wind_gusts":22.3,"aqi":88,"pm10":13.9,"pm2_5":11.1,"mosquito_risk":0,"arthritis_risk":5,"migraine_risk":10,"frizz_risk":0,"updated_at":"2026-03-05T15:20:16.867260+05:30"},{"city":"Mysore","state":"Karnataka","latitude":12.2958,"longitude":76.6396,"temp":32.6,"humidity":28,"rain":0.0,"pressure":928.3,"uv_index":9.15,"wind_gusts":24.5,"aqi":96,"pm10":31.8,"pm2_5":30.7,"mosquito_risk":0,"arthritis_risk":5,"migraine_risk":7,"frizz_risk":0,"updated_at":"2026-03-05T15:20:16.867266+05:30"},{"city":"Mangalore","state":"Karnataka","latitude":12.9141,"longitude":74.856,"temp":28.6,"humidity":79,"rain":0.0,"pressure":1005.3,"uv_index":8.75,"wind_gusts":30.2,"aqi":131,"pm10":48.1,"pm2_5":44.6,"mosquito_risk":7,"arthritis_risk":5,"migraine_risk":4,"frizz_risk":1,"updated_at":"2026-03-05T15:20:16.867273+05:30"},{"city":"Hubli-Dharwad","state":"Karnataka","latitude":15.3647,"longitude":75.124,"temp":35.5,"humidity":20,"rain":0.0,"pressure":940.9,"uv_index":8.75,"wind_gusts":29.2,"aqi":97,"pm10":23.3,"pm2_5":21.8,"mosquito_risk":0,"arthritis_risk":5,"migraine_risk":10,"frizz_risk":0,"updated_at":"2026-03-05T15:20:16.867279+05:30"},{"city":"Belgaum","state":"Karnataka","latitude":15.8497,"longitude":74.4977,"temp":34.6,"humidity":21,"rain":0.0,"pressure":926.4,"uv_index":8.75,"wind_gusts":36.7,"aqi":125,"pm10":21.7,"pm2_5":20.0,"mosquito_risk":0,"arthritis_risk":5,"migraine_risk":7,"frizz_risk":0,"updated_at":"2026-03-05T15:20:20.092126+05:30"},{"city":"Coimbatore","state":"Tamil Nadu","latitude":11.0168,"longitude":76.9558,"temp":34.6,"humidity":25,"rain":0.0,"pressure":960.9,"uv_index":9.15,"wind_gusts":34.2,"aqi":100,"pm10":24.2,"pm2_5":23.5,"mosquito_risk":0,"arthritis_risk":5,"migraine_risk":7,"frizz_risk":0,"updated_at":"2026-03-05T15:20:20.092154+05:30"},{"city":"Madurai","state":"Tamil Nadu","latitude":9.9252,"longitude":78.1198,"temp":37.1,"humidity":19,"rain":0.0,"pressure":991.3,"uv_index":9.1,"wind_gusts":29.9,"aqi":75,"pm10":25.4,"pm2_5":23.4,"mosquito_risk":0,"arthritis_risk":5,"migraine_risk":10,"frizz_risk":0,"updated_at":"2026-03-05T15:20:20.092163+05:30"},{"city":"Trichy","state":"Tamil Nadu","latitude":10.7905,"longitude":78.7047,"temp":35.8,"humidity":23,"rain":0.0,"pressure":998.5,"uv_index":9.0,"wind_gusts":33.8,"aqi":88,"pm10":37.8,"pm2_5":34.3,"mosquito_risk":0,"arthritis_risk":5,"migraine_risk":10,"frizz_risk":0,"updated_at":"2026-03-05T15:20:20.092170+05:30"},{"city":"Salem","state":"Tamil Nadu","latitude":11.6643,"longitude":78.146,"temp":36.9,"humidity":22,"rain":0.0,"pressure":975.8,"uv_index":9.05,"wind_gusts":19.8,"aqi":90,"pm10":29.5,"pm2_5":27.7,"mosquito_risk":0,"arthritis_risk":5,"migraine_risk":10,"frizz_risk":0,"updated_at":"2026-03-05T15:20:20.092177+05:30"},{"city":"Tirunelveli","state":"Tamil Nadu","latitude":8.7139,"longitude":77.7567,"temp":37.6,"humidity":21,"rain":0.0,"pressure":1001.8,"uv_index":9.15,"wind_gusts":48.6,"aqi":71,"pm10":16.2,"pm2_5":15.3,"mosquito_risk":0,"arthritis_risk":5,"migraine_risk":7,"frizz_risk":0,"updated_at":"2026-03-05T15:20:20.092184+05:30"},{"city":"Vellore","state":"Tamil Nadu","latitude":12.9165,"longitude":79.1325,"temp":35.2,"humidity":22,"rain":0.0,"pressure":983.6,"uv_index":8.9,"wind_gusts":29.2,"aqi":120,"pm10":29.1,"pm2_5":25.1,"mosquito_risk":0,"arthritis_risk":5,"migraine_risk":10,"frizz_risk":0,"updated_at":"2026-03-05T15:20:20.092190+05:30"},{"city":"Erode","state":"Tamil Nadu","latitude":11.341,"longitude":77.7172,"temp":36.3,"humidity":29,"rain":0.0,"pressure":987.5,"uv_index":9.05,"wind_gusts":19.8,"aqi":80,"pm10":31.1,"pm2_5":29.8,"mosquito_risk":0,"arthritis_risk":5,"migraine_risk":10,"frizz_risk":0,"updated_at":"2026-03-05T15:20:20.092196+05:30"},{"city":"Kochi","state":"Kerala","latitude":9.9312,"longitude":76.2673,"temp":28.4,"humidity":75,"rain":0.0,"pressure":1007.5,"uv_index":8.95,"wind_gusts":38.2,"aqi":143,"pm10":47.0,"pm2_5":44.8,"mosquito_risk":7,"arthritis_risk":5,"migraine_risk":4,"frizz_risk":1,"updated_at":"2026-03-05T15:20:20.092203+05:30"},{"city":"Thiruvananthapuram","state":"Kerala","latitude":8.5241,"longitude":76.9366,"temp":28.1,"humidity":76,"rain":0.0,"pressure":1007.0,"uv_index":9.0,"wind_gusts":32.8,"aqi":116,"pm10":38.5,"pm2_5":36.0,"mosquito_risk":7,"arthritis_risk":5,"migraine_risk":4,"frizz_risk":1,"updated_at":"2026-03-05T15:20:20.092210+05:30"},{"city":"Kozhikode","state":"Kerala","latitude":11.2588,"longitude":75.7804,"temp":29.4,"humidity":74,"rain":0.0,"pressure":1006.8,"uv_index":8.85,"wind_gusts":30.6,"aqi":127,"pm10":47.6,"pm2_5":43.8,"mosquito_risk":7,"arthritis_risk":5,"migraine_risk":4,"frizz_risk":1,"updated_at":"2026-03-05T15:20:20.092217+05:30"},{"city":"Thrissur","state":"Kerala","latitude":10.5276,"longitude":76.2144,"temp":31.6,"humidity":63,"rain":0.0,"pressure":1005.7,"uv_index":8.95,"wind_gusts":36.7,"aqi":144,"pm10":36.2,"pm2_5":34.5,"mosquito_risk":3,"arthritis_risk":5,"migraine_risk":4,"frizz_risk":1,"updated_at":"2026-03-05T15:20:20.092224+05:30"},{"city":"Kannur","state":"Kerala","latitude":11.8745,"longitude":75.3704,"temp":30.4,"humidity":69,"rain":0.0,"pressure":1005.9,"uv_index":8.85,"wind_gusts":37.4,"aqi":130,"pm10":46.8,"pm2_5":42.8,"mosquito_risk":3,"arthritis_risk":5,"migraine_risk":4,"frizz_risk":1,"updated_at":"2026-03-05T15:20:20.092230+05:30"},{"city":"Patna","state":"Bihar","latitude":25.5941,"longitude":85.1376,"temp":30.8,"humidity":39,"rain":0.0,"pressure":1001.0,"uv_index":7.2,"wind_gusts":14.4,"aqi":169,"pm10":82.9,"pm2_5":57.6,"mosquito_risk":0,"arthritis_risk":5,"migraine_risk":4,"frizz_risk":0,"updated_at":"2026-03-05T15:20:20.092237+05:30"},{"city":"Gaya","state":"Bihar","latitude":24.7914,"longitude":85.0002,"temp":29.3,"humidity":48,"rain":0.0,"pressure":994.4,"uv_index":7.3,"wind_gusts":12.6,"aqi":153,"pm10":86.1,"pm2_5":53.2,"mosquito_risk":4,"arthritis_risk":5,"migraine_risk":7,"frizz_risk":1,"updated_at":"2026-03-05T15:20:20.092243+05:30"},{"city":"Muzaffarpur","state":"Bihar","latitude":26.1209,"longitude":85.3647,"temp":31.1,"humidity":39,"rain":0.0,"pressure":1001.0,"uv_index":7.15,"wind_gusts":15.5,"aqi":175,"pm10":79.6,"pm2_5":57.2,"mosquito_risk":0,"arthritis_risk":5,"migraine_risk":4,"frizz_risk":0,"updated_at":"2026-03-05T15:20:20.092249+05:30"},{"city":"Bhagalpur","state":"Bihar","latitude":25.2425,"longitude":87.0117,"temp":29.9,"humidity":41,"rain":0.0,"pressure":1001.6,"uv_index":7.25,"wind_gusts":14.0,"aqi":164,"pm10":73.1,"pm2_5":55.4,"mosquito_risk":4,"arthritis_risk":5,"migraine_risk":4,"frizz_risk":0,"updated_at":"2026-03-05T15:20:20.092255+05:30"},{"city":"Ranchi","state":"Jharkhand","latitude":23.3441,"longitude":85.3096,"temp":29.4,"humidity":33,"rain":0.0,"pressure":937.8,"uv_index":7.95,"wind_gusts":19.1,"aqi":132,"pm10":129.0,"pm2_5":44.8,"mosquito_risk":4,"arthritis_risk":5,"migraine_risk":7,"frizz_risk":0,"updated_at":"2026-03-05T15:20:20.092262+05:30"},{"city":"Jamshedpur","state":"Jharkhand","latitude":22.8046,"longitude":86.2029,"temp":32.8,"humidity":26,"rain":0.0,"pressure":990.0,"uv_index":7.85,"wind_gusts":11.2,"aqi":155,"pm10":119.7,"pm2_5":60.3,"mosquito_risk":0,"arthritis_risk":5,"migraine_risk":7,"frizz_risk":0,"updated_at":"2026-03-05T15:20:20.092268+05:30"},{"city":"Dhanbad","state":"Jharkhand","latitude":23.7957,"longitude":86.4304,"temp":32.9,"humidity":24,"rain":0.0,"pressure":979.3,"uv_index":7.75,"wind_gusts":16.2,"aqi":157,"pm10":133.2,"pm2_5":71.0,"mosquito_risk":0,"arthritis_risk":5,"migraine_risk":7,"frizz_risk":0,"updated_at":"2026-03-05T15:20:20.092274+05:30"},{"city":"Bokaro","state":"Jharkhand","latitude":23.6693,"longitude":86.1511,"temp":32.2,"humidity":28,"rain":0.0,"pressure":983.3,"uv_index":7.75,"wind_gusts":13.3,"aqi":158,"pm10":142.5,"pm2_5":74.5,"mosquito_risk":0,"arthritis_risk":5,"migraine_risk":7,"frizz_risk":0,"updated_at":"2026-03-05T15:20:20.092280+05:30"},{"city":"Bhubaneswar","state":"Odisha","latitude":20.2961,"longitude":85.8245,"temp":36.5,"humidity":17,"rain":0.0,"pressure":1000.4,"uv_index":8.15,"wind_gusts":25.2,"aqi":153,"pm10":80.6,"pm2_5":49.5,"mosquito_risk":0,"arthritis_risk":5,"migraine_risk":7,"frizz_risk":0,"updated_at":"2026-03-05T15:20:20.092286+05:30"},{"city":"Cuttack","state":"Odisha","latitude":20.4625,"longitude":85.8828,"temp":35.9,"humidity":21,"rain":0.0,"pressure":1002.5,"uv_index":8.2,"wind_gusts":26.6,"aqi":153,"pm10":80.6,"pm2_5":49.5,"mosquito_risk":0,"arthritis_risk":5,"migraine_risk":7,"frizz_risk":0,"updated_at":"2026-03-05T15:20:20.092293+05:30"},{"city":"Rourkela","state":"Odisha","latitude":22.2604,"longitude":84.8536,"temp":33.9,"humidity":28,"rain":0.0,"pressure":984.0,"uv_index":7.8,"wind_gusts":23.0,"aqi":106,"pm10":127.6,"pm2_5":42.0,"mosquito_risk":0,"arthritis_risk":5,"migraine_risk":7,"frizz_risk":0,"updated_at":"2026-03-05T15:20:20.092299+05:30"},{"city":"Raipur","state":"Chhattisgarh","latitude":21.2514,"longitude":81.6296,"temp":37.3,"humidity":15,"rain":0.0,"pressure":974.2,"uv_index":7.85,"wind_gusts":27.7,"aqi":120,"pm10":24.3,"pm2_5":15.0,"mosquito_risk":0,"arthritis_risk":5,"migraine_risk":10,"frizz_risk":0,"updated_at":"2026-03-05T15:20:20.092305+05:30"},{"city":"Bhilai","state":"Chhattisgarh","latitude":21.1938,"longitude":81.3509,"temp":37.6,"humidity":15,"rain":0.0,"pressure":974.6,"uv_index":7.85,"wind_gusts":27.7,"aqi":99,"pm10":23.4,"pm2_5":13.0,"mosquito_risk":0,"arthritis_risk":5,"migraine_risk":10,"frizz_risk":0,"updated_at":"2026-03-05T15:20:20.092310+05:30"},{"city":"Guwahati","state":"Assam","latitude":26.1158,"longitude":91.7086,"temp":30.8,"humidity":42,"rain":0.0,"pressure":1000.6,"uv_index":7.15,"wind_gusts":18.0,"aqi":148,"pm10":45.6,"pm2_5":38.1,"mosquito_risk":0,"arthritis_risk":5,"migraine_risk":4,"frizz_risk":1,"updated_at":"2026-03-05T15:20:20.092316+05:30"},{"city":"Agartala","state":"Tripura","latitude":23.8315,"longitude":91.2868,"temp":31.2,"humidity":41,"rain":0.0,"pressure":1005.1,"uv_index":7.55,"wind_gusts":16.2,"aqi":152,"pm10":66.8,"pm2_5":47.5,"mosquito_risk":0,"arthritis_risk":5,"migraine_risk":4,"frizz_risk":1,"updated_at":"2026-03-05T15:20:20.092322+05:30"},{"city":"Shillong","state":"Meghalaya","latitude":25.5788,"longitude":91.8933,"temp":20.2,"humidity":45,"rain":0.0,"pressure":856.8,"uv_index":7.55,"wind_gusts":15.8,"aqi":113,"pm10":40.6,"pm2_5":34.2,"mosquito_risk":0,"arthritis_risk":5,"migraine_risk":7,"frizz_risk":0,"updated_at":"2026-03-05T15:20:20.092328+05:30"},{"city":"Imphal","state":"Manipur","latitude":24.817,"longitude":93.9368,"temp":24.8,"humidity":39,"rain":0.0,"pressure":922.6,"uv_index":7.75,"wind_gusts":23.0,"aqi":150,"pm10":37.7,"pm2_5":32.1,"mosquito_risk":0,"arthritis_risk":5,"migraine_risk":7,"frizz_risk":0,"updated_at":"2026-03-05T15:20:20.092334+05:30"},{"city":"Aizawl","state":"Mizoram","latitude":23.7271,"longitude":92.7176,"temp":26.0,"humidity":35,"rain":0.0,"pressure":892.8,"uv_index":7.75,"wind_gusts":23.8,"aqi":159,"pm10":55.6,"pm2_5":47.0,"mosquito_risk":4,"arthritis_risk":5,"migraine_risk":7,"frizz_risk":0,"updated_at":"2026-03-05T15:20:20.092340+05:30"},{"city":"Kohima","state":"Nagaland","latitude":25.6701,"longitude":94.1077,"temp":18.8,"humidity":70,"rain":0.0,"pressure":855.0,"uv_index":7.6,"wind_gusts":36.7,"aqi":150,"pm10":42.3,"pm2_5":36.0,"mosquito_risk":3,"arthritis_risk":5,"migraine_risk":7,"frizz_risk":0,"updated_at":"2026-03-05T15:20:20.092346+05:30"},{"city":"Gangtok","state":"Sikkim","latitude":27.3314,"longitude":88.6138,"temp":20.5,"humidity":55,"rain":0.0,"pressure":838.8,"uv_index":7.5,"wind_gusts":21.2,"aqi":108,"pm10":27.4,"pm2_5":24.2,"mosquito_risk":0,"arthritis_risk":5,"migraine_risk":7,"frizz_risk":0,"updated_at":"2026-03-05T15:20:20.092353+05:30"},{"city":"Siliguri","state":"West Bengal","latitude":26.7271,"longitude":88.3953,"temp":26.1,"humidity":53,"rain":0.0,"pressure":994.1,"uv_index":7.15,"wind_gusts":22.3,"aqi":142,"pm10":37.8,"pm2_5":30.5,"mosquito_risk":4,"arthritis_risk":5,"migraine_risk":7,"frizz_risk":0,"updated_at":"2026-03-05T15:20:23.315594+05:30"},{"city":"Durgapur","state":"West Bengal","latitude":23.5204,"longitude":87.3119,"temp":33.2,"humidity":27,"rain":0.0,"pressure":994.2,"uv_index":7.7,"wind_gusts":20.2,"aqi":158,"pm10":115.0,"pm2_5":66.4,"mosquito_risk":0,"arthritis_risk":5,"migraine_risk":7,"frizz_risk":0,"updated_at":"2026-03-05T15:20:23.315627+05:30"},{"city":"Asansol","state":"West Bengal","latitude":23.6739,"longitude":86.9524,"temp":33.0,"humidity":28,"rain":0.0,"pressure":992.9,"uv_index":7.7,"wind_gusts":15.1,"aqi":151,"pm10":127.6,"pm2_5":67.8,"mosquito_risk":0,"arthritis_risk":5,"migraine_risk":7,"frizz_risk":0,"updated_at":"2026-03-05T15:20:23.315639+05:30"},{"city":"Pondicherry","state":"Puducherry","latitude":11.9139,"longitude":79.8145,"temp":35.0,"humidity":36,"rain":0.0,"pressure":1007.3,"uv_index":8.85,"wind_gusts":24.5,"aqi":78,"pm10":23.9,"pm2_5":20.5,"mosquito_risk":0,"arthritis_risk":5,"migraine_risk":4,"frizz_risk":1,"updated_at":"2026-03-05T15:20:23.315648+05:30"},{"city":"Port Blair","state":"Andaman and Nicobar Islands","latitude":11.6234,"longitude":92.7265,"temp":27.0,"humidity":72,"rain":0.0,"pressure":1005.6,"uv_index":8.8,"wind_gusts":23.4,"aqi":75,"pm10":22.7,"pm2_5":18.3,"mosquito_risk":7,"arthritis_risk":5,"migraine_risk":4,"frizz_risk":1,"updated_at":"2026-03-05T15:20:23.315658+05:30"},{"city":"Haridwar","state":"Uttarakhand","latitude":29.9457,"longitude":78.1642,"temp":29.6,"humidity":51,"rain":0.0,"pressure":975.3,"uv_index":5.65,"wind_gusts":21.6,"aqi":138,"pm10":75.7,"pm2_5":45.1,"mosquito_risk":4,"arthritis_risk":5,"migraine_risk":3,"frizz_risk":1,"updated_at":"2026-03-05T15:20:23.315668+05:30"},{"city":"Rishikesh","state":"Uttarakhand","latitude":30.0869,"longitude":78.2676,"temp":29.0,"humidity":50,"rain":0.0,"pressure":968.2,"uv_index":5.7,"wind_gusts":20.9,"aqi":113,"pm10":91.3,"pm2_5":49.7,"mosquito_risk":4,"arthritis_risk":5,"migraine_risk":3,"frizz_risk":1,"updated_at":"2026-03-05T15:20:23.315677+05:30"},{"city":"Nainital","state":"Uttarakhand","latitude":29.3919,"longitude":79.4542,"temp":21.0,"humidity":66,"rain":0.0,"pressure":807.9,"uv_index":6.5,"wind_gusts":53.6,"aqi":152,"pm10":97.3,"pm2_5":55.5,"mosquito_risk":3,"arthritis_risk":5,"migraine_risk":7,"frizz_risk":0,"updated_at":"2026-03-05T15:20:23.315686+05:30"},{"city":"Mussoorie","state":"Uttarakhand","latitude":30.4599,"longitude":78.0664,"temp":21.2,"humidity":62,"rain":0.0,"pressure":805.3,"uv_index":6.05,"wind_gusts":37.1,"aqi":103,"pm10":55.2,"pm2_5":38.1,"mosquito_risk":3,"arthritis_risk":5,"migraine_risk":7,"frizz_risk":0,"updated_at":"2026-03-05T15:20:23.315696+05:30"},{"city":"Dharamshala","state":"Himachal Pradesh","latitude":32.219,"longitude":76.3234,"temp":27.5,"humidity":39,"rain":0.0,"pressure":872.6,"uv_index":6.3,"wind_gusts":24.5,"aqi":51,"pm10":20.2,"pm2_5":8.4,"mosquito_risk":4,"arthritis_risk":5,"migraine_risk":7,"frizz_risk":0,"updated_at":"2026-03-05T15:20:23.315704+05:30"},{"city":"Dalhousie","state":"Himachal Pradesh","latitude":32.5387,"longitude":75.971,"temp":26.6,"humidity":31,"rain":0.0,"pressure":808.9,"uv_index":6.45,"wind_gusts":21.2,"aqi":83,"pm10":34.6,"pm2_5":18.1,"mosquito_risk":4,"arthritis_risk":5,"migraine_risk":7,"frizz_risk":0,"updated_at":"2026-03-05T15:20:23.315714+05:30"},{"city":"Patiala","state":"Punjab","latitude":30.3398,"longitude":76.3869,"temp":32.5,"humidity":34,"rain":0.0,"pressure":979.5,"uv_index":5.7,"wind_gusts":28.4,"aqi":329,"pm10":475.0,"pm2_5":85.2,"mosquito_risk":0,"arthritis_risk":5,"migraine_risk":3,"frizz_risk":0,"updated_at":"2026-03-05T15:20:23.315722+05:30"},{"city":"Bhatinda","state":"Punjab","latitude":30.211,"longitude":74.9455,"temp":33.9,"humidity":35,"rain":0.0,"pressure":985.6,"uv_index":6.35,"wind_gusts":27.0,"aqi":137,"pm10":75.2,"pm2_5":43.7,"mosquito_risk":0,"arthritis_risk":5,"migraine_risk":7,"frizz_risk":1,"updated_at":"2026-03-05T15:20:23.315730+05:30"},{"city":"Rohtak","state":"Haryana","latitude":28.8955,"longitude":76.6066,"temp":33.2,"humidity":35,"rain":0.0,"pressure":983.3,"uv_index":5.85,"wind_gusts":33.1,"aqi":539,"pm10":841.9,"pm2_5":112.2,"mosquito_risk":0,"arthritis_risk":5,"migraine_risk":3,"frizz_risk":0,"updated_at":"2026-03-05T15:20:23.315763+05:30"},{"city":"Panipat","state":"Haryana","latitude":29.3909,"longitude":76.9635,"temp":33.2,"humidity":34,"rain":0.0,"pressure":981.5,"uv_index":5.65,"wind_gusts":32.4,"aqi":1195,"pm10":1333.7,"pm2_5":155.1,"mosquito_risk":0,"arthritis_risk":5,"migraine_risk":3,"frizz_risk":0,"updated_at":"2026-03-05T15:20:23.315772+05:30"},{"city":"Mathura","state":"Uttar Pradesh","latitude":27.4924,"longitude":77.6737,"temp":35.1,"humidity":26,"rain":0.0,"pressure":987.8,"uv_index":6.15,"wind_gusts":34.9,"aqi":563,"pm10":864.3,"pm2_5":106.2,"mosquito_risk":0,"arthritis_risk":5,"migraine_risk":10,"frizz_risk":0,"updated_at":"2026-03-05T15:20:23.315780+05:30"},{"city":"Vrindavan","state":"Uttar Pradesh","latitude":27.5823,"longitude":77.7027,"temp":34.6,"humidity":28,"rain":0.0,"pressure":988.3,"uv_index":6.1,"wind_gusts":37.1,"aqi":563,"pm10":864.3,"pm2_5":106.2,"mosquito_risk":0,"arthritis_risk":5,"migraine_risk":7,"frizz_risk":0,"updated_at":"2026-03-05T15:20:23.315789+05:30"},{"city":"Ayodhya","state":"Uttar Pradesh","latitude":26.7922,"longitude":82.1998,"temp":30.7,"humidity":42,"rain":0.0,"pressure":996.0,"uv_index":6.55,"wind_gusts":10.1,"aqi":176,"pm10":144.8,"pm2_5":68.5,"mosquito_risk":0,"arthritis_risk":5,"migraine_risk":7,"frizz_risk":1,"updated_at":"2026-03-05T15:20:23.315796+05:30"},{"city":"Ratlam","state":"Madhya Pradesh","latitude":23.3315,"longitude":75.0367,"temp":34.2,"humidity":21,"rain":0.0,"pressure":957.4,"uv_index":7.35,"wind_gusts":23.0,"aqi":94,"pm10":27.2,"pm2_5":13.9,"mosquito_risk":0,"arthritis_risk":5,"migraine_risk":7,"frizz_risk":0,"updated_at":"2026-03-05T15:20:23.315805+05:30"},{"city":"Sagar","state":"Madhya Pradesh","latitude":23.8388,"longitude":78.7378,"temp":34.2,"humidity":20,"rain":0.0,"pressure":951.8,"uv_index":7.3,"wind_gusts":31.7,"aqi":49,"pm10":34.2,"pm2_5":12.7,"mosquito_risk":0,"arthritis_risk":5,"migraine_risk":7,"frizz_risk":0,"updated_at":"2026-03-05T15:20:23.315812+05:30"},{"city":"Satna","state":"Madhya Pradesh","latitude":24.6005,"longitude":80.8322,"temp":35.1,"humidity":18,"rain":0.0,"pressure":972.0,"uv_index":7.3,"wind_gusts":40.0,"aqi":65,"pm10":46.8,"pm2_5":21.0,"mosquito_risk":0,"arthritis_risk":5,"migraine_risk":10,"frizz_risk":0,"updated_at":"2026-03-05T15:20:23.315820+05:30"},{"city":"Akola","state":"Maharashtra","latitude":20.7002,"longitude":77.0082,"temp":37.7,"humidity":13,"rain":0.0,"pressure":975.8,"uv_index":7.8,"wind_gusts":26.6,"aqi":77,"pm10":16.4,"pm2_5":11.8,"mosquito_risk":0,"arthritis_risk":5,"migraine_risk":10,"frizz_risk":0,"updated_at":"2026-03-05T15:20:23.315828+05:30"},{"city":"Amravati","state":"Maharashtra","latitude":20.9374,"longitude":77.7796,"temp":37.8,"humidity":12,"rain":0.0,"pressure":968.0,"uv_index":7.8,"wind_gusts":16.9,"aqi":75,"pm10":15.0,"pm2_5":11.4,"mosquito_risk":0,"arthritis_risk":5,"migraine_risk":10,"frizz_risk":0,"updated_at":"2026-03-05T15:20:23.315836+05:30"},{"city":"Latur","state":"Maharashtra","latitude":18.4088,"longitude":76.5604,"temp":34.9,"humidity":16,"rain":0.0,"pressure":940.9,"uv_index":8.3,"wind_gusts":32.0,"aqi":98,"pm10":22.2,"pm2_5":19.4,"mosquito_risk":0,"arthritis_risk":5,"migraine_risk":7,"frizz_risk":0,"updated_at":"2026-03-05T15:20:23.315842+05:30"},{"city":"Nanded","state":"Maharashtra","latitude":19.1383,"longitude":77.3091,"temp":37.3,"humidity":16,"rain":0.0,"pressure":969.1,"uv_index":8.05,"wind_gusts":25.2,"aqi":95,"pm10":13.1,"pm2_5":10.7,"mosquito_risk":0,"arthritis_risk":5,"migraine_risk":10,"frizz_risk":0,"updated_at":"2026-03-05T15:20:23.315848+05:30"},{"city":"Gulbarga","state":"Karnataka","latitude":17.3297,"longitude":76.8343,"temp":36.9,"humidity":19,"rain":0.0,"pressure":958.9,"uv_index":8.35,"wind_gusts":22.3,"aqi":81,"pm10":16.5,"pm2_5":14.3,"mosquito_risk":0,"arthritis_risk":5,"migraine_risk":10,"frizz_risk":0,"updated_at":"2026-03-05T15:20:23.315854+05:30"},{"city":"Bidar","state":"Karnataka","latitude":17.9104,"longitude":77.5199,"temp":35.4,"humidity":18,"rain":0.0,"pressure":936.3,"uv_index":8.3,"wind_gusts":24.8,"aqi":93,"pm10":15.1,"pm2_5":12.9,"mosquito_risk":0,"arthritis_risk":5,"migraine_risk":10,"frizz_risk":0,"updated_at":"2026-03-05T15:20:23.315861+05:30"},{"city":"Hospet","state":"Karnataka","latitude":15.2689,"longitude":76.3909,"temp":35.9,"humidity":19,"rain":0.0,"pressure":955.7,"uv_index":8.7,"wind_gusts":25.9,"aqi":83,"pm10":22.1,"pm2_5":20.3,"mosquito_risk":0,"arthritis_risk":5,"migraine_risk":10,"frizz_risk":0,"updated_at":"2026-03-05T15:20:23.315868+05:30"},{"city":"Tirupur","state":"Tamil Nadu","latitude":11.1085,"longitude":77.3411,"temp":35.9,"humidity":21,"rain":0.0,"pressure":974.2,"uv_index":9.15,"wind_gusts":29.2,"aqi":98,"pm10":28.5,"pm2_5":27.5,"mosquito_risk":0,"arthritis_risk":5,"migraine_risk":10,"frizz_risk":0,"updated_at":"2026-03-05T15:20:23.315874+05:30"},{"city":"Alappuzha","state":"Kerala","latitude":9.4981,"longitude":76.3388,"temp":28.3,"humidity":76,"rain":0.0,"pressure":1007.8,"uv_index":8.95,"wind_gusts":35.3,"aqi":119,"pm10":37.1,"pm2_5":35.0,"mosquito_risk":7,"arthritis_risk":5,"migraine_risk":4,"frizz_risk":1,"updated_at":"2026-03-05T15:20:23.315880+05:30"},{"city":"Munnar","state":"Kerala","latitude":10.0889,"longitude":77.0595,"temp":29.9,"humidity":37,"rain":0.0,"pressure":858.4,"uv_index":9.45,"wind_gusts":23.4,"aqi":73,"pm10":19.7,"pm2_5":18.9,"mosquito_risk":4,"arthritis_risk":5,"migraine_risk":7,"frizz_risk":0,"updated_at":"2026-03-05T15:20:23.315887+05:30"},{"city":"Silchar","state":"Assam","latitude":24.8333,"longitude":92.7789,"temp":32.1,"humidity":35,"rain":0.0,"pressure":1003.4,"uv_index":7.5,"wind_gusts":13.7,"aqi":152,"pm10":53.9,"pm2_5":44.9,"mosquito_risk":0,"arthritis_risk":5,"migraine_risk":4,"frizz_risk":0,"updated_at":"2026-03-05T15:20:23.315894+05:30"},{"city":"Dibrugarh","state":"Assam","latitude":27.4728,"longitude":94.912,"temp":29.5,"humidity":45,"rain":0.0,"pressure":994.0,"uv_index":7.2,"wind_gusts":14.4,"aqi":129,"pm10":49.4,"pm2_5":40.7,"mosquito_risk":4,"arthritis_risk":5,"migraine_risk":7,"frizz_risk":1,"updated_at":"2026-03-05T15:20:23.315900+05:30"}]