[{"city":"Delhi","state":"Delhi","latitude":28.6139,"longitude":77.209,"temp":32.1,"humidity":40,"rain":0.0,"pressure":984.7,"uv_index":5.9,"wind_gusts":40.0,"aqi":152,"pm10":491.7,"pm2_5":74.5,"mosquito_risk":0,"arthritis_risk":5,"migraine_risk":3,"frizz_risk":1,"updated_at":"2026-04-03T12:44:32.541876+05:30"},{"city":"Mumbai","state":"Maharashtra","latitude":19.076,"longitude":72.8777,"temp":28.0,"humidity":75,"rain":0.0,"pressure":1011.1,"uv_index":7.6,"wind_gusts":25.2,"aqi":75,"pm10":53.8,"pm2_5":28.2,"mosquito_risk":7,"arthritis_risk":0,"migraine_risk":4,"frizz_risk":1,"updated_at":"2026-04-03T12:44:32.541917+05:30"},{"city":"Bangalore","state":"Karnataka","latitude":12.9716,"longitude":77.5946,"temp":31.2,"humidity":43,"rain":0.0,"pressure":914.4,"uv_index":9.6,"wind_gusts":27.7,"aqi":69,"pm10":19.7,"pm2_5":17.8,"mosquito_risk":0,"arthritis_risk":5,"migraine_risk":7,"frizz_risk":1,"updated_at":"2026-04-03T12:44:32.541933+05:30"},{"city":"Hyderabad","state":"Telangana","latitude":17.385,"longitude":78.4867,"temp":35.0,"humidity":32,"rain":0.0,"pressure":955.7,"uv_index":8.85,"wind_gusts":22.7,"aqi":70,"pm10":24.0,"pm2_5":17.5,"mosquito_risk":0,"arthritis_risk":5,"migraine_risk":7,"frizz_risk":0,"updated_at":"2026-04-03T12:44:32.541943+05:30"},{"city":"Chennai","state":"Tamil Nadu","latitude":13.0827,"longitude":80.2707,"temp":35.1,"humidity":44,"rain":0.0,"pressure":1009.5,"uv_index":9.3,"wind_gusts":36.0,"aqi":44,"pm10":16.2,"pm2_5":12.8,"mosquito_risk":0,"arthritis_risk":0,"migraine_risk":7,"frizz_risk":1,"updated_at":"2026-04-03T12:44:32.541951+05:30"},{"city":"Kolkata","state":"West Bengal","latitude":22.5726,"longitude":88.3639,"temp":35.7,"humidity":50,"rain":0.0,"pressure":1006.2,"uv_index":8.7,"wind_gusts":20.9,"aqi":66,"pm10":33.6,"pm2_5":27.1,"mosquito_risk":0,"arthritis_risk":5,"migraine_risk":7,"frizz_risk":1,"updated_at":"2026-04-03T12:44:32.541960+05:30"},{"city":"Pune","state":"Maharashtra","latitude":18.5204,"longitude":73.8567,"temp":34.1,"humidity":36,"rain":0.0,"pressure":950.4,"uv_index":8.5,"wind_gusts":37.1,"aqi":132,"pm10":45.9,"pm2_5":36.8,"mosquito_risk":0,"arthritis_risk":5,"migraine_risk":7,"frizz_risk":1,"updated_at":"2026-04-03T12:44:32.541971+05:30"},{"city":"Ahmedabad","state":"Gujarat","latitude":23.0225,"longitude":72.5714,"temp":32.2,"humidity":35,"rain":0.0,"pressure":1004.9,"uv_index":7.25,"wind_gusts":42.5,"aqi":62,"pm10":68.7,"pm2_5":20.0,"mosquito_risk":0,"arthritis_risk":5,"migraine_risk":4,"frizz_risk":0,"updated_at":"2026-04-03T12:44:32.541979+05:30"},{"city":"Jaipur","state":"Rajasthan","latitude":26.9124,"longitude":75.7873,"temp":29.5,"humidity":39,"rain":0.0,"pressure":962.5,"uv_index":7.5,"wind_gusts":63.0,"aqi":125,"pm10":278.5,"pm2_5":40.3,"mosquito_risk":4,"arthritis_risk":5,"migraine_risk":7,"frizz_risk":0,"updated_at":"2026-04-03T12:44:32.541987+05:30"},{"city":"Lucknow","state":"Uttar Pradesh","latitude":26.8467,"longitude":80.9462,"temp":33.8,"humidity":41,"rain":0.0,"pressure":995.3,"uv_index":6.85,"wind_gusts":32.4,"aqi":81,"pm10":71.7,"pm2_5":23.9,"mosquito_risk":0,"arthritis_risk":5,"migraine_risk":7,"frizz_risk":1,"updated_at":"2026-04-03T12:44:32.541995+05:30"},{"city":"Kanpur","state":"Uttar Pradesh","latitude":26.4499,"longitude":80.3319,"temp":30.4,"humidity":60,"rain":0.0,"pressure":994.0,"uv_index":5.2,"wind_gusts":26.3,"aqi":105,"pm10":243.1,"pm2_5":38.6,"mosquito_risk":0,"arthritis_risk":5,"migraine_risk":3,"frizz_risk":1,"updated_at":"2026-04-03T12:44:32.542003+05:30"},{"city":"Chandigarh","state":"Chandigarh","latitude":30.7333,"longitude":76.7794,"temp":24.8,"humidity":65,"rain":0.0,"pressure":972.4,"uv_index":5.85,"wind_gusts":43.9,"aqi":73,"pm10":160.7,"pm2_5":45.5,"mosquito_risk":3,"arthritis_risk":5,"migraine_risk":3,"frizz_risk":1,"updated_at":"2026-04-03T12:44:32.542010+05:30"},{"city":"Srinagar","state":"Jammu and Kashmir","latitude":34.0837,"longitude":74.7973,"temp":15.2,"humidity":67,"rain":0.0,"pressure":841.5,"uv_index":6.45,"wind_gusts":42.8,"aqi":101,"pm10":27.1,"pm2_5":14.5,"mosquito_risk":3,"arthritis_risk":5,"migraine_risk":7,"frizz_risk":0,"updated_at":"2026-04-03T12:44:32.542018+05:30"},{"city":"Jammu","state":"Jammu and Kashmir","latitude":32.7266,"longitude":74.857,"temp":21.4,"humidity":81,"rain":0.0,"pressure":975.8,"uv_index":6.05,"wind_gusts":40.3,"aqi":68,"pm10":31.5,"pm2_5":15.4,"mosquito_risk":3,"arthritis_risk":5,"migraine_risk":7,"frizz_risk":1,"updated_at":"2026-04-03T12:44:32.542025+05:30"},{"city":"Amritsar","state":"Punjab","latitude":31.634,"longitude":74.8723,"temp":21.3,"humidity":85,"rain":0.1,"pressure":982.9,"uv_index":4.15,"wind_gusts":49.7,"aqi":93,"pm10":46.9,"pm2_5":18.7,"mosquito_risk":6,"arthritis_risk":5,"migraine_risk":3,"frizz_risk":1,"updated_at":"2026-04-03T12:44:32.542033+05:30"},{"city":"Ludhiana","state":"Punjab","latitude":30.901,"longitude":75.8573,"temp":23.7,"humidity":71,"rain":0.0,"pressure":982.5,"uv_index":4.9,"wind_gusts":47.5,"aqi":116,"pm10":68.7,"pm2_5":24.2,"mosquito_risk":3,"arthritis_risk":5,"migraine_risk":3,"frizz_risk":1,"updated_at":"2026-04-03T12:44:32.542039+05:30"},{"city":"Jalandhar","state":"Punjab","latitude":31.326,"longitude":75.5762,"temp":22.9,"humidity":76,"rain":0.0,"pressure":982.9,"uv_index":5.2,"wind_gusts":51.5,"aqi":94,"pm10":64.7,"pm2_5":21.1,"mosquito_risk":3,"arthritis_risk":5,"migraine_risk":3,"frizz_risk":1,"updated_at":"2026-04-03T12:44:32.542048+05:30"},{"city":"Dehradun","state":"Uttarakhand","latitude":30.6284,"longitude":78.0322,"temp":23.2,"humidity":43,"rain":0.0,"pressure":834.6,"uv_index":5.4,"wind_gusts":46.8,"aqi":32,"pm10":22.0,"pm2_5":7.5,"mosquito_risk":0,"arthritis_risk":5,"migraine_risk":3,"frizz_risk":0,"updated_at":"2026-04-03T12:44:32.542055+05:30"},{"city":"Shimla","state":"Himachal Pradesh","latitude":31.1048,"longitude":77.1734,"temp":20.3,"humidity":47,"rain":0.0,"pressure":788.5,"uv_index":6.15,"wind_gusts":59.0,"aqi":53,"pm10":20.1,"pm2_5":8.4,"mosquito_risk":0,"arthritis_risk":5,"migraine_risk":7,"frizz_risk":0,"updated_at":"2026-04-03T12:44:32.542062+05:30"},{"city":"Manali","state":"Himachal Pradesh","latitude":32.2396,"longitude":77.1887,"temp":22.4,"humidity":42,"rain":0.0,"pressure":823.2,"uv_index":7.1,"wind_gusts":50.0,"aqi":54,"pm10":12.4,"pm2_5":4.9,"mosquito_risk":0,"arthritis_risk":5,"migraine_risk":7,"frizz_risk":0,"updated_at":"2026-04-03T12:44:32.542069+05:30"},{"city":"Gurgaon","state":"Haryana","latitude":28.4595,"longitude":77.0266,"temp":33.0,"humidity":36,"rain":0.0,"pressure":982.9,"uv_index":6.3,"wind_gusts":41.4,"aqi":612,"pm10":1598.1,"pm2_5":162.5,"mosquito_risk":0,"arthritis_risk":5,"migraine_risk":7,"frizz_risk":0,"updated_at":"2026-04-03T12:44:32.542075+05:30"},{"city":"Noida","state":"Uttar Pradesh","latitude":28.5355,"longitude":77.391,"temp":32.5,"humidity":40,"rain":0.0,"pressure":986.2,"uv_index":6.0,"wind_gusts":40.0,"aqi":612,"pm10":1598.1,"pm2_5":162.5,"mosquito_risk":0,"arthritis_risk":5,"migraine_risk":3,"frizz_risk":1,"updated_at":"2026-04-03T12:44:32.542082+05:30"},{"city":"Ghaziabad","state":"Uttar Pradesh","latitude":28.6692,"longitude":77.4538,"temp":31.8,"humidity":45,"rain":0.0,"pressure":984.5,"uv_index":5.85,"wind_gusts":33.5,"aqi":140,"pm10":381.8,"pm2_5":76.1,"mosquito_risk":0,"arthritis_risk":5,"migraine_risk":3,"frizz_risk":1,"updated_at":"2026-04-03T12:44:32.542088+05:30"},{"city":"Faridabad","state":"Haryana","latitude":28.4089,"longitude":77.3178,"temp":33.3,"humidity":36,"rain":0.0,"pressure":985.3,"uv_index":6.25,"wind_gusts":37.8,"aqi":612,"pm10":1598.1,"pm2_5":162.5,"mosquito_risk":0,"arthritis_risk":5,"migraine_risk":7,"frizz_risk":1,"updated_at":"2026-04-03T12:44:32.542095+05:30"},{"city":"Meerut","state":"Uttar Pradesh","latitude":28.9845,"longitude":77.7064,"temp":31.7,"humidity":49,"rain":0.0,"pressure":983.5,"uv_index":6.3,"wind_gusts":29.9,"aqi":140,"pm10":381.8,"pm2_5":76.1,"mosquito_risk":0,"arthritis_risk":5,"migraine_risk":7,"frizz_risk":1,"updated_at":"2026-04-03T12:44:32.542102+05:30"},{"city":"Agra","state":"Uttar Pradesh","latitude":27.1767,"longitude":78.0081,"temp":36.7,"humidity":25,"rain":0.0,"pressure":989.4,"uv_index":7.35,"wind_gusts":48.2,"aqi":324,"pm10":882.9,"pm2_5":87.8,"mosquito_risk":0,"arthritis_risk":5,"migraine_risk":10,"frizz_risk":0,"updated_at":"2026-04-03T12:44:32.542108+05:30"},{"city":"Varanasi","state":"Uttar Pradesh","latitude":25.3176,"longitude":82.9739,"temp":37.0,"humidity":33,"rain":0.0,"pressure":998.4,"uv_index":7.7,"wind_gusts":37.1,"aqi":91,"pm10":40.4,"pm2_5":21.2,"mosquito_risk":0,"arthritis_risk":5,"migraine_risk":10,"frizz_risk":1,"updated_at":"2026-04-03T12:44:32.542120+05:30"},{"city":"Prayagraj","state":"Uttar Pradesh","latitude":25.4358,"longitude":81.8463,"temp":35.6,"humidity":29,"rain":0.0,"pressure":997.4,"uv_index":7.25,"wind_gusts":36.7,"aqi":91,"pm10":42.4,"pm2_5":22.1,"mosquito_risk":0,"arthritis_risk":5,"migraine_risk":10,"frizz_risk":0,"updated_at":"2026-04-03T12:44:32.542127+05:30"},{"city":"Gorakhpur","state":"Uttar Pradesh","latitude":26.7606,"longitude":83.3732,"temp":38.4,"humidity":21,"rain":0.0,"pressure":997.2,"uv_index":7.1,"wind_gusts":42.8,"aqi":59,"pm10":29.8,"pm2_5":16.5,"mosquito_risk":0,"arthritis_risk":5,"migraine_risk":10,"frizz_risk":0,"updated_at":"2026-04-03T12:44:32.542134+05:30"},{"city":"Bareilly","state":"Uttar Pradesh","latitude":28.367,"longitude":79.4304,"temp":31.8,"humidity":45,"rain":0.0,"pressure":988.9,"uv_index":6.1,"wind_gusts":25.2,"aqi":69,"pm10":40.3,"pm2_5":18.0,"mosquito_risk":0,"arthritis_risk":5,"migraine_risk":7,"frizz_risk":1,"updated_at":"2026-04-03T12:44:32.542141+05:30"},{"city":"Aligarh","state":"Uttar Pradesh","latitude":27.8974,"longitude":78.088,"temp":35.5,"humidity":33,"rain":0.0,"pressure":987.3,"uv_index":7.0,"wind_gusts":36.7,"aqi":137,"pm10":951.8,"pm2_5":118.0,"mosquito_risk":0,"arthritis_risk":5,"migraine_risk":10,"frizz_risk":1,"updated_at":"2026-04-03T12:44:32.542147+05:30"},{"city":"Moradabad","state":"Uttar Pradesh","latitude":28.8386,"longitude":78.7733,"temp":30.5,"humidity":47,"rain":0.0,"pressure":985.8,"uv_index":6.25,"wind_gusts":22.0,"aqi":95,"pm10":49.5,"pm2_5":26.5,"mosquito_risk":0,"arthritis_risk":5,"migraine_risk":7,"frizz_risk":1,"updated_at":"2026-04-03T12:44:32.542153+05:30"},{"city":"Saharanpur","state":"Uttar Pradesh","latitude":29.9637,"longitude":77.546,"temp":29.7,"humidity":49,"rain":0.0,"pressure":978.5,"uv_index":6.55,"wind_gusts":42.5,"aqi":84,"pm10":137.4,"pm2_5":44.8,"mosquito_risk":4,"arthritis_risk":5,"migraine_risk":7,"frizz_risk":1,"updated_at":"2026-04-03T12:44:32.542162+05:30"},{"city":"Jhansi","state":"Uttar Pradesh","latitude":25.4484,"longitude":78.5685,"temp":35.4,"humidity":29,"rain":0.0,"pressure":980.2,"uv_index":7.8,"wind_gusts":33.5,"aqi":61,"pm10":54.4,"pm2_5":16.5,"mosquito_risk":0,"arthritis_risk":5,"migraine_risk":10,"frizz_risk":0,"updated_at":"2026-04-03T12:44:35.760824+05:30"},{"city":"Surat","state":"Gujarat","latitude":21.1702,"longitude":72.8311,"temp":30.8,"humidity":52,"rain":0.0,"pressure":1009.6,"uv_index":7.65,"wind_gusts":29.9,"aqi":97,"pm10":61.5,"pm2_5":42.8,"mosquito_risk":0,"arthritis_risk":0,"migraine_risk":4,"frizz_risk":1,"updated_at":"2026-04-03T12:44:35.760853+05:30"},{"city":"Vadodara","state":"Gujarat","latitude":22.3072,"longitude":73.1812,"temp":32.3,"humidity":38,"rain":0.0,"pressure":1007.0,"uv_index":7.85,"wind_gusts":27.7,"aqi":78,"pm10":44.9,"pm2_5":22.4,"mosquito_risk":0,"arthritis_risk":5,"migraine_risk":4,"frizz_risk":1,"updated_at":"2026-04-03T12:44:35.760863+05:30"},{"city":"Rajkot","state":"Gujarat","latitude":22.3039,"longitude":70.8022,"temp":28.4,"humidity":56,"rain":0.0,"pressure":997.6,"uv_index":7.25,"wind_gusts":39.2,"aqi":66,"pm10":35.3,"pm2_5":10.8,"mosquito_risk":4,"arthritis_risk":5,"migraine_risk":7,"frizz_risk":1,"updated_at":"2026-04-03T12:44:35.760870+05:30"},{"city":"Thane","state":"Maharashtra","latitude":19.2183,"longitude":72.9781,"temp":31.1,"humidity":56,"rain":0.0,"pressure":1010.6,"uv_index":7.7,"wind_gusts":37.8,"aqi":75,"pm10":53.8,"pm2_5":28.2,"mosquito_risk":0,"arthritis_risk":0,"migraine_risk":4,"frizz_risk":1,"updated_at":"2026-04-03T12:44:35.760877+05:30"},{"city":"Nagpur","state":"Maharashtra","latitude":21.1458,"longitude":79.0882,"temp":35.3,"humidity":37,"rain":0.0,"pressure":975.4,"uv_index":8.7,"wind_gusts":23.4,"aqi":83,"pm10":34.1,"pm2_5":28.6,"mosquito_risk":0,"arthritis_risk":5,"migraine_risk":10,"frizz_risk":1,"updated_at":"2026-04-03T12:44:35.760884+05:30"},{"city":"Nashik","state":"Maharashtra","latitude":19.9975,"longitude":73.7898,"temp":31.9,"humidity":31,"rain":0.0,"pressure":948.2,"uv_index":8.15,"wind_gusts":41.4,"aqi":74,"pm10":22.2,"pm2_5":12.1,"mosquito_risk":0,"arthritis_risk":5,"migraine_risk":7,"frizz_risk":0,"updated_at":"2026-04-03T12:44:35.760891+05:30"},{"city":"Aurangabad","state":"Maharashtra","latitude":19.8762,"longitude":75.3433,"temp":32.6,"humidity":41,"rain":0.0,"pressure":946.7,"uv_index":8.75,"wind_gusts":25.6,"aqi":104,"pm10":39.1,"pm2_5":33.1,"mosquito_risk":0,"arthritis_risk":5,"migraine_risk":7,"frizz_risk":1,"updated_at":"2026-04-03T12:44:35.760897+05:30"},{"city":"Solapur","state":"Maharashtra","latitude":17.6599,"longitude":75.9064,"temp":35.8,"humidity":33,"rain":0.0,"pressure":958.8,"uv_index":8.95,"wind_gusts":34.9,"aqi":103,"pm10":28.9,"pm2_5":23.5,"mosquito_risk":0,"arthritis_risk":5,"migraine_risk":10,"frizz_risk":1,"updated_at":"2026-04-03T12:44:35.760904+05:30"},{"city":"Kolhapur","state":"Maharashtra","latitude":16.705,"longitude":74.2433,"temp":31.8,"humidity":49,"rain":0.0,"pressure":949.9,"uv_index":8.95,"wind_gusts":37.1,"aqi":146,"pm10":37.1,"pm2_5":32.2,"mosquito_risk":0,"arthritis_risk":5,"migraine_risk":7,"frizz_risk":1,"updated_at":"2026-04-03T12:44:35.760910+05:30"},{"city":"Goa","state":"Goa","latitude":15.2993,"longitude":74.124,"temp":32.7,"humidity":60,"rain":0.0,"pressure":999.6,"uv_index":9.0,"wind_gusts":31.3,"aqi":76,"pm10":28.3,"pm2_5":23.7,"mosquito_risk":0,"arthritis_risk":5,"migraine_risk":7,"frizz_risk":1,"updated_at":"2026-04-03T12:44:35.760917+05:30"},{"city":"Jodhpur","state":"Rajasthan","latitude":26.2389,"longitude":73.0243,"temp":29.6,"humidity":38,"rain":0.0,"pressure":984.7,"uv_index":7.45,"wind_gusts":46.8,"aqi":129,"pm10":200.2,"pm2_5":29.2,"mosquito_risk":4,"arthritis_risk":5,"migraine_risk":7,"frizz_risk":0,"updated_at":"2026-04-03T12:44:35.760924+05:30"},{"city":"Udaipur","state":"Rajasthan","latitude":24.5854,"longitude":73.7125,"temp":28.2,"humidity":38,"rain":0.0,"pressure":948.8,"uv_index":7.95,"wind_gusts":56.5,"aqi":44,"pm10":48.1,"pm2_5":14.2,"mosquito_risk":4,"arthritis_risk":5,"migraine_risk":7,"frizz_risk":0,"updated_at":"2026-04-03T12:44:35.760931+05:30"},{"city":"Kota","state":"Rajasthan","latitude":25.2138,"longitude":75.8648,"temp":36.2,"humidity":26,"rain":0.0,"pressure":980.1,"uv_index":7.85,"wind_gusts":47.2,"aqi":58,"pm10":78.0,"pm2_5":23.5,"mosquito_risk":0,"arthritis_risk":5,"migraine_risk":10,"frizz_risk":0,"updated_at":"2026-04-03T12:44:35.760937+05:30"},{"city":"Bikaner","state":"Rajasthan","latitude":28.0229,"longitude":73.3119,"temp":25.3,"humidity":57,"rain":0.0,"pressure":983.6,"uv_index":7.25,"wind_gusts":54.7,"aqi":63,"pm10":70.1,"pm2_5":21.8,"mosquito_risk":4,"arthritis_risk":5,"migraine_risk":7,"frizz_risk":1,"updated_at":"2026-04-03T12:44:35.760943+05:30"},{"city":"Ajmer","state":"Rajasthan","latitude":26.4499,"longitude":74.6399,"temp":29.2,"humidity":36,"rain":0.0,"pressure":956.5,"uv_index":7.55,"wind_gusts":62.6,"aqi":74,"pm10":56.6,"pm2_5":17.5,"mosquito_risk":4,"arthritis_risk":5,"migraine_risk":7,"frizz_risk":0,"updated_at":"2026-04-03T12:44:35.760950+05:30"},{"city":"Gwalior","state":"Madhya Pradesh","latitude":26.2183,"longitude":78.1828,"temp":35.1,"humidity":32,"rain":0.0,"pressure":985.2,"uv_index":7.65,"wind_gusts":34.9,"aqi":63,"pm10":75.7,"pm2_5":21.4,"mosquito_risk":0,"arthritis_risk":5,"migraine_risk":10,"frizz_risk":0,"updated_at":"2026-04-03T12:44:35.760957+05:30"},{"city":"Indore","state":"Madhya Pradesh","latitude":22.7196,"longitude":75.8577,"temp":33.0,"humidity":33,"rain":0.0,"pressure":950.7,"uv_index":8.3,"wind_gusts":38.9,"aqi":79,"pm10":30.4,"pm2_5":23.6,"mosquito_risk":0,"arthritis_risk":5,"migraine_risk":7,"frizz_risk":0,"updated_at":"2026-04-03T12:44:35.760963+05:30"},{"city":"Bhopal","state":"Madhya Pradesh","latitude":23.2599,"longitude":77.4126,"temp":34.5,"humidity":35,"rain":0.0,"pressure":956.3,"uv_index":8.1,"wind_gusts":34.9,"aqi":72,"pm10":24.1,"pm2_5":19.7,"mosquito_risk":0,"arthritis_risk":5,"migraine_risk":7,"frizz_risk":1,"updated_at":"2026-04-03T12:44:35.760969+05:30"},{"city":"Jabalpur","state":"Madhya Pradesh","latitude":23.1815,"longitude":79.9864,"temp":34.5,"humidity":32,"rain":0.0,"pressure":964.2,"uv_index":7.65,"wind_gusts":31.3,"aqi":73,"pm10":24.5,"pm2_5":19.0,"mosquito_risk":0,"arthritis_risk":5,"migraine_risk":7,"frizz_risk":0,"updated_at":"2026-04-03T12:44:35.760975+05:30"},{"city":"Ujjain","state":"Madhya Pradesh","latitude":23.1765,"longitude":75.7885,"temp":32.8,"humidity":31,"rain":0.0,"pressure":956.2,"uv_index":8.2,"wind_gusts":40.3,"aqi":77,"pm10":28.7,"pm2_5":21.4,"mosquito_risk":0,"arthritis_risk":5,"migraine_risk":7,"frizz_risk":0,"updated_at":"2026-04-03T12:44:35.760982+05:30"},{"city":"Visakhapatnam","state":"Andhra Pradesh","latitude":17.6868,"longitude":83.2185,"temp":35.2,"humidity":49,"rain":0.0,"pressure":1005.4,"uv_index":8.95,"wind_gusts":42.1,"aqi":57,"pm10":26.1,"pm2_5":22.5,"mosquito_risk":0,"arthritis_risk":5,"migraine_risk":7,"frizz_risk":1,"updated_at":"2026-04-03T12:44:35.760988+05:30"},{"city":"Vijayawada","state":"Andhra Pradesh","latitude":16.5062,"longitude":80.648,"temp":35.2,"humidity":46,"rain":0.0,"pressure":1004.6,"uv_index":8.5,"wind_gusts":29.9,"aqi":51,"pm10":16.7,"pm2_5":12.3,"mosquito_risk":0,"arthritis_risk":5,"migraine_risk":7,"frizz_risk":1,"updated_at":"2026-04-03T12:44:35.760995+05:30"},{"city":"Guntur","state":"Andhra Pradesh","latitude":16.3067,"longitude":80.4365,"temp":35.4,"humidity":45,"rain":0.0,"pressure":1005.7,"uv_index":8.45,"wind_gusts":30.2,"aqi":47,"pm10":15.4,"pm2_5":10.7,"mosquito_risk":0,"arthritis_risk":5,"migraine_risk":7,"frizz_risk":1,"updated_at":"2026-04-03T12:44:35.761001+05:30"},{"city":"Nellore","state":"Andhra Pradesh","latitude":14.4426,"longitude":79.9865,"temp":35.6,"humidity":42,"rain":0.0,"pressure":1007.5,"uv_index":9.25,"wind_gusts":34.2,"aqi":41,"pm10":15.5,"pm2_5":14.0,"mosquito_risk":0,"arthritis_risk":5,"migraine_risk":7,"frizz_risk":1,"updated_at":"2026-04-03T12:44:35.761008+05:30"},{"city":"Kurnool","state":"Andhra Pradesh","latitude":15.8281,"longitude":78.0373,"temp":36.9,"humidity":30,"rain":0.0,"pressure":978.6,"uv_index":8.75,"wind_gusts":19.8,"aqi":52,"pm10":17.6,"pm2_5":13.4,"mosquito_risk":0,"arthritis_risk":5,"migraine_risk":10,"frizz_risk":1,"updated_at":"2026-04-03T12:44:35.761015+05:30"},{"city":"Kakinada","state":"Andhra Pradesh","latitude":16.9891,"longitude":82.2475,"temp":37.4,"humidity":38,"rain":0.0,"pressure":1009.0,"uv_index":8.85,"wind_gusts":39.6,"aqi":40,"pm10":12.7,"pm2_5":9.7,"mosquito_risk":0,"arthritis_risk":0,"migraine_risk":7,"frizz_risk":1,"updated_at":"2026-04-03T12:44:35.761021+05:30"},{"city":"Tirupati","state":"Andhra Pradesh","latitude":13.6288,"longitude":79.4192,"temp":35.1,"humidity":37,"rain":0.0,"pressure":993.5,"uv_index":9.35,"wind_gusts":31.7,"aqi":54,"pm10":11.2,"pm2_5":9.9,"mosquito_risk":0,"arthritis_risk":5,"migraine_risk":10,"frizz_risk":1,"updated_at":"2026-04-03T12:44:35.761027+05:30"},{"city":"Warangal","state":"Telangana","latitude":17.9689,"longitude":79.5941,"temp":34.7,"humidity":44,"rain":0.0,"pressure":981.1,"uv_index":8.75,"wind_gusts":18.4,"aqi":73,"pm10":25.4,"pm2_5":19.4,"mosquito_risk":0,"arthritis_risk":5,"migraine_risk":7,"frizz_risk":1,"updated_at":"2026-04-03T12:44:35.761033+05:30"},{"city":"Nizamabad","state":"Telangana","latitude":18.6725,"longitude":78.0941,"temp":34.7,"humidity":40,"rain":0.0,"pressure":967.1,"uv_index":8.55,"wind_gusts":25.9,"aqi":117,"pm10":35.3,"pm2_5":28.8,"mosquito_risk":0,"arthritis_risk":5,"migraine_risk":7,"frizz_risk":1,"updated_at":"2026-04-03T12:44:35.761039+05:30"},{"city":"Mysore","state":"Karnataka","latitude":12.2958,"longitude":76.6396,"temp":31.7,"humidity":42,"rain":0.0,"pressure":931.0,"uv_index":9.5,"wind_gusts":42.8,"aqi":82,"pm10":24.0,"pm2_5":21.0,"mosquito_risk":0,"arthritis_risk":5,"migraine_risk":7,"frizz_risk":1,"updated_at":"2026-04-03T12:44:35.761045+05:30"},{"city":"Mangalore","state":"Karnataka","latitude":12.9141,"longitude":74.856,"temp":29.7,"humidity":75,"rain":0.0,"pressure":1008.2,"uv_index":9.15,"wind_gusts":24.8,"aqi":70,"pm10":29.0,"pm2_5":23.6,"mosquito_risk":7,"arthritis_risk":0,"migraine_risk":4,"frizz_risk":1,"updated_at":"2026-04-03T12:44:35.761051+05:30"},{"city":"Hubli-Dharwad","state":"Karnataka","latitude":15.3647,"longitude":75.124,"temp":32.2,"humidity":45,"rain":0.0,"pressure":942.9,"uv_index":9.2,"wind_gusts":40.7,"aqi":77,"pm10":28.8,"pm2_5":24.4,"mosquito_risk":0,"arthritis_risk":5,"migraine_risk":7,"frizz_risk":1,"updated_at":"2026-04-03T12:44:35.761057+05:30"},{"city":"Belgaum","state":"Karnataka","latitude":15.8497,"longitude":74.4977,"temp":30.8,"humidity":50,"rain":0.0,"pressure":928.0,"uv_index":9.25,"wind_gusts":35.3,"aqi":91,"pm10":32.2,"pm2_5":27.0,"mosquito_risk":0,"arthritis_risk":5,"migraine_risk":7,"frizz_risk":1,"updated_at":"2026-04-03T12:44:38.988735+05:30"},{"city":"Coimbatore","state":"Tamil Nadu","latitude":11.0168,"longitude":76.9558,"temp":33.7,"humidity":41,"rain":0.0,"pressure":964.2,"uv_index":9.45,"wind_gusts":45.4,"aqi":69,"pm10":22.5,"pm2_5":19.7,"mosquito_risk":0,"arthritis_risk":5,"migraine_risk":7,"frizz_risk":1,"updated_at":"2026-04-03T12:44:38.988788+05:30"},{"city":"Madurai","state":"Tamil Nadu","latitude":9.9252,"longitude":78.1198,"temp":33.8,"humidity":49,"rain":0.0,"pressure":995.3,"uv_index":9.1,"wind_gusts":31.3,"aqi":51,"pm10":14.0,"pm2_5":12.8,"mosquito_risk":0,"arthritis_risk":5,"migraine_risk":7,"frizz_risk":1,"updated_at":"2026-04-03T12:44:38.988799+05:30"},{"city":"Trichy","state":"Tamil Nadu","latitude":10.7905,"longitude":78.7047,"temp":34.8,"humidity":43,"rain":0.0,"pressure":1001.8,"uv_index":9.4,"wind_gusts":30.6,"aqi":57,"pm10":13.2,"pm2_5":11.9,"mosquito_risk":0,"arthritis_risk":5,"migraine_risk":4,"frizz_risk":1,"updated_at":"2026-04-03T12:44:38.988807+05:30"},{"city":"Salem","state":"Tamil Nadu","latitude":11.6643,"longitude":78.146,"temp":34.4,"humidity":41,"rain":0.0,"pressure":979.6,"uv_index":9.45,"wind_gusts":24.8,"aqi":63,"pm10":15.1,"pm2_5":13.6,"mosquito_risk":0,"arthritis_risk":5,"migraine_risk":7,"frizz_risk":1,"updated_at":"2026-04-03T12:44:38.988815+05:30"},{"city":"Tirunelveli","state":"Tamil Nadu","latitude":8.7139,"longitude":77.7567,"temp":35.5,"humidity":43,"rain":0.0,"pressure":1005.1,"uv_index":9.35,"wind_gusts":29.5,"aqi":59,"pm10":16.5,"pm2_5":14.3,"mosquito_risk":0,"arthritis_risk":5,"migraine_risk":7,"frizz_risk":1,"updated_at":"2026-04-03T12:44:38.988822+05:30"},{"city":"Vellore","state":"Tamil Nadu","latitude":12.9165,"longitude":79.1325,"temp":34.9,"humidity":35,"rain":0.0,"pressure":986.7,"uv_index":9.4,"wind_gusts":30.2,"aqi":64,"pm10":17.6,"pm2_5":16.2,"mosquito_risk":0,"arthritis_risk":5,"migraine_risk":7,"frizz_risk":1,"updated_at":"2026-04-03T12:44:38.988829+05:30"},{"city":"Erode","state":"Tamil Nadu","latitude":11.341,"longitude":77.7172,"temp":35.5,"humidity":41,"rain":0.0,"pressure":990.9,"uv_index":9.4,"wind_gusts":20.2,"aqi":47,"pm10":16.5,"pm2_5":14.9,"mosquito_risk":0,"arthritis_risk":5,"migraine_risk":10,"frizz_risk":1,"updated_at":"2026-04-03T12:44:38.988835+05:30"},{"city":"Kochi","state":"Kerala","latitude":9.9312,"longitude":76.2673,"temp":28.5,"humidity":79,"rain":0.0,"pressure":1010.9,"uv_index":9.2,"wind_gusts":22.3,"aqi":66,"pm10":16.2,"pm2_5":14.0,"mosquito_risk":7,"arthritis_risk":0,"migraine_risk":4,"frizz_risk":1,"updated_at":"2026-04-03T12:44:38.988842+05:30"},{"city":"Thiruvananthapuram","state":"Kerala","latitude":8.5241,"longitude":76.9366,"temp":28.6,"humidity":78,"rain":0.0,"pressure":1010.2,"uv_index":8.95,"wind_gusts":17.6,"aqi":62,"pm10":22.8,"pm2_5":19.0,"mosquito_risk":7,"arthritis_risk":0,"migraine_risk":4,"frizz_risk":1,"updated_at":"2026-04-03T12:44:38.988849+05:30"},{"city":"Kozhikode","state":"Kerala","latitude":11.2588,"longitude":75.7804,"temp":30.3,"humidity":73,"rain":0.0,"pressure":1009.9,"uv_index":9.15,"wind_gusts":25.6,"aqi":56,"pm10":14.3,"pm2_5":12.3,"mosquito_risk":3,"arthritis_risk":0,"migraine_risk":4,"frizz_risk":1,"updated_at":"2026-04-03T12:44:38.988855+05:30"},{"city":"Thrissur","state":"Kerala","latitude":10.5276,"longitude":76.2144,"temp":33.2,"humidity":57,"rain":0.0,"pressure":1009.0,"uv_index":9.2,"wind_gusts":29.2,"aqi":63,"pm10":17.4,"pm2_5":14.9,"mosquito_risk":0,"arthritis_risk":0,"migraine_risk":4,"frizz_risk":1,"updated_at":"2026-04-03T12:44:38.988862+05:30"},{"city":"Kannur","state":"Kerala","latitude":11.8745,"longitude":75.3704,"temp":31.2,"humidity":67,"rain":0.0,"pressure":1009.1,"uv_index":9.15,"wind_gusts":27.4,"aqi":72,"pm10":18.1,"pm2_5":15.4,"mosquito_risk":3,"arthritis_risk":0,"migraine_risk":4,"frizz_risk":1,"updated_at":"2026-04-03T12:44:38.988869+05:30"},{"city":"Patna","state":"Bihar","latitude":25.5941,"longitude":85.1376,"temp":37.0,"humidity":29,"rain":0.0,"pressure":1000.3,"uv_index":8.3,"wind_gusts":36.0,"aqi":77,"pm10":38.6,"pm2_5":19.4,"mosquito_risk":0,"arthritis_risk":5,"migraine_risk":7,"frizz_risk":0,"updated_at":"2026-04-03T12:44:38.988876+05:30"},{"city":"Gaya","state":"Bihar","latitude":24.7914,"longitude":85.0002,"temp":37.8,"humidity":29,"rain":0.0,"pressure":993.9,"uv_index":8.4,"wind_gusts":31.3,"aqi":73,"pm10":29.9,"pm2_5":17.7,"mosquito_risk":0,"arthritis_risk":5,"migraine_risk":10,"frizz_risk":1,"updated_at":"2026-04-03T12:44:38.988882+05:30"},{"city":"Muzaffarpur","state":"Bihar","latitude":26.1209,"longitude":85.3647,"temp":36.9,"humidity":30,"rain":0.0,"pressure":999.9,"uv_index":8.25,"wind_gusts":36.4,"aqi":73,"pm10":32.7,"pm2_5":18.5,"mosquito_risk":0,"arthritis_risk":5,"migraine_risk":10,"frizz_risk":1,"updated_at":"2026-04-03T12:44:38.988888+05:30"},{"city":"Bhagalpur","state":"Bihar","latitude":25.2425,"longitude":87.0117,"temp":35.3,"humidity":40,"rain":0.0,"pressure":1001.2,"uv_index":8.3,"wind_gusts":25.9,"aqi":68,"pm10":42.4,"pm2_5":20.9,"mosquito_risk":0,"arthritis_risk":5,"migraine_risk":7,"frizz_risk":1,"updated_at":"2026-04-03T12:44:38.988894+05:30"},{"city":"Ranchi","state":"Jharkhand","latitude":23.3441,"longitude":85.3096,"temp":35.0,"humidity":26,"rain":0.0,"pressure":939.9,"uv_index":8.95,"wind_gusts":29.9,"aqi":69,"pm10":25.8,"pm2_5":19.1,"mosquito_risk":0,"arthritis_risk":5,"migraine_risk":7,"frizz_risk":0,"updated_at":"2026-04-03T12:44:38.988901+05:30"},{"city":"Jamshedpur","state":"Jharkhand","latitude":22.8046,"longitude":86.2029,"temp":37.7,"humidity":35,"rain":0.0,"pressure":991.3,"uv_index":8.8,"wind_gusts":24.5,"aqi":105,"pm10":38.4,"pm2_5":32.4,"mosquito_risk":0,"arthritis_risk":5,"migraine_risk":10,"frizz_risk":1,"updated_at":"2026-04-03T12:44:38.988907+05:30"},{"city":"Dhanbad","state":"Jharkhand","latitude":23.7957,"longitude":86.4304,"temp":38.6,"humidity":23,"rain":0.0,"pressure":980.1,"uv_index":8.7,"wind_gusts":22.7,"aqi":146,"pm10":39.7,"pm2_5":31.9,"mosquito_risk":0,"arthritis_risk":5,"migraine_risk":10,"frizz_risk":0,"updated_at":"2026-04-03T12:44:38.988914+05:30"},{"city":"Bokaro","state":"Jharkhand","latitude":23.6693,"longitude":86.1511,"temp":38.1,"humidity":25,"rain":0.0,"pressure":984.2,"uv_index":8.7,"wind_gusts":25.2,"aqi":146,"pm10":36.9,"pm2_5":29.6,"mosquito_risk":0,"arthritis_risk":5,"migraine_risk":10,"frizz_risk":0,"updated_at":"2026-04-03T12:44:38.988920+05:30"},{"city":"Bhubaneswar","state":"Odisha","latitude":20.2961,"longitude":85.8245,"temp":37.8,"humidity":41,"rain":0.0,"pressure":1003.2,"uv_index":8.95,"wind_gusts":27.4,"aqi":52,"pm10":28.3,"pm2_5":21.2,"mosquito_risk":0,"arthritis_risk":5,"migraine_risk":7,"frizz_risk":1,"updated_at":"2026-04-03T12:44:38.988927+05:30"},{"city":"Cuttack","state":"Odisha","latitude":20.4625,"longitude":85.8828,"temp":38.4,"humidity":37,"rain":0.0,"pressure":1005.1,"uv_index":9.0,"wind_gusts":39.6,"aqi":52,"pm10":28.3,"pm2_5":21.2,"mosquito_risk":0,"arthritis_risk":5,"migraine_risk":7,"frizz_risk":1,"updated_at":"2026-04-03T12:44:38.988933+05:30"},{"city":"Rourkela","state":"Odisha","latitude":22.2604,"longitude":84.8536,"temp":38.3,"humidity":32,"rain":0.0,"pressure":986.2,"uv_index":8.7,"wind_gusts":27.0,"aqi":122,"pm10":42.1,"pm2_5":35.5,"mosquito_risk":0,"arthritis_risk":5,"migraine_risk":10,"frizz_risk":1,"updated_at":"2026-04-03T12:44:38.988940+05:30"},{"city":"Raipur","state":"Chhattisgarh","latitude":21.2514,"longitude":81.6296,"temp":37.2,"humidity":32,"rain":0.0,"pressure":976.7,"uv_index":8.8,"wind_gusts":34.9,"aqi":145,"pm10":34.1,"pm2_5":29.2,"mosquito_risk":0,"arthritis_risk":5,"migraine_risk":10,"frizz_risk":1,"updated_at":"2026-04-03T12:44:38.988946+05:30"},{"city":"Bhilai","state":"Chhattisgarh","latitude":21.1938,"longitude":81.3509,"temp":37.3,"humidity":33,"rain":0.0,"pressure":977.0,"uv_index":8.8,"wind_gusts":24.5,"aqi":124,"pm10":30.3,"pm2_5":25.0,"mosquito_risk":0,"arthritis_risk":5,"migraine_risk":10,"frizz_risk":1,"updated_at":"2026-04-03T12:44:38.988952+05:30"},{"city":"Guwahati","state":"Assam","latitude":26.1158,"longitude":91.7086,"temp":29.4,"humidity":71,"rain":0.0,"pressure":1002.1,"uv_index":8.25,"wind_gusts":43.6,"aqi":123,"pm10":50.5,"pm2_5":41.4,"mosquito_risk":7,"arthritis_risk":5,"migraine_risk":4,"frizz_risk":1,"updated_at":"2026-04-03T12:44:38.988958+05:30"},{"city":"Agartala","state":"Tripura","latitude":23.8315,"longitude":91.2868,"temp":33.6,"humidity":59,"rain":0.0,"pressure":1006.6,"uv_index":8.45,"wind_gusts":24.1,"aqi":79,"pm10":31.8,"pm2_5":25.0,"mosquito_risk":0,"arthritis_risk":5,"migraine_risk":4,"frizz_risk":1,"updated_at":"2026-04-03T12:44:38.988965+05:30"},{"city":"Shillong","state":"Meghalaya","latitude":25.5788,"longitude":91.8933,"temp":22.2,"humidity":50,"rain":0.0,"pressure":859.1,"uv_index":8.55,"wind_gusts":55.1,"aqi":112,"pm10":39.8,"pm2_5":30.6,"mosquito_risk":0,"arthritis_risk":5,"migraine_risk":7,"frizz_risk":0,"updated_at":"2026-04-03T12:44:38.988972+05:30"},{"city":"Imphal","state":"Manipur","latitude":24.817,"longitude":93.9368,"temp":25.2,"humidity":62,"rain":0.0,"pressure":924.8,"uv_index":8.85,"wind_gusts":60.8,"aqi":109,"pm10":40.5,"pm2_5":29.8,"mosquito_risk":7,"arthritis_risk":5,"migraine_risk":7,"frizz_risk":1,"updated_at":"2026-04-03T12:44:38.988978+05:30"},{"city":"Aizawl","state":"Mizoram","latitude":23.7271,"longitude":92.7176,"temp":28.0,"humidity":51,"rain":0.0,"pressure":895.7,"uv_index":8.7,"wind_gusts":52.9,"aqi":113,"pm10":40.4,"pm2_5":28.1,"mosquito_risk":4,"arthritis_risk":5,"migraine_risk":7,"frizz_risk":1,"updated_at":"2026-04-03T12:44:38.988985+05:30"},{"city":"Kohima","state":"Nagaland","latitude":25.6701,"longitude":94.1077,"temp":22.2,"humidity":56,"rain":0.0,"pressure":857.8,"uv_index":8.75,"wind_gusts":80.6,"aqi":104,"pm10":37.1,"pm2_5":26.0,"mosquito_risk":0,"arthritis_risk":5,"migraine_risk":7,"frizz_risk":0,"updated_at":"2026-04-03T12:44:38.988991+05:30"},{"city":"Gangtok","state":"Sikkim","latitude":27.3314,"longitude":88.6138,"temp":22.3,"humidity":65,"rain":0.0,"pressure":840.1,"uv_index":7.55,"wind_gusts":19.1,"aqi":92,"pm10":33.8,"pm2_5":25.8,"mosquito_risk":3,"arthritis_risk":5,"migraine_risk":7,"frizz_risk":0,"updated_at":"2026-04-03T12:44:38.988997+05:30"},{"city":"Siliguri","state":"West Bengal","latitude":26.7271,"longitude":88.3953,"temp":27.6,"humidity":62,"rain":0.0,"pressure":994.2,"uv_index":8.25,"wind_gusts":18.7,"aqi":143,"pm10":56.3,"pm2_5":42.3,"mosquito_risk":7,"arthritis_risk":5,"migraine_risk":7,"frizz_risk":1,"updated_at":"2026-04-03T12:44:42.226455+05:30"},{"city":"Durgapur","state":"West Bengal","latitude":23.5204,"longitude":87.3119,"temp":38.4,"humidity":30,"rain":0.0,"pressure":995.1,"uv_index":8.65,"wind_gusts":18.7,"aqi":154,"pm10":41.9,"pm2_5":33.6,"mosquito_risk":0,"arthritis_risk":5,"migraine_risk":10,"frizz_risk":1,"updated_at":"2026-04-03T12:44:42.226484+05:30"},{"city":"Asansol","state":"West Bengal","latitude":23.6739,"longitude":86.9524,"temp":38.0,"humidity":31,"rain":0.0,"pressure":993.6,"uv_index":8.65,"wind_gusts":18.7,"aqi":128,"pm10":38.5,"pm2_5":30.5,"mosquito_risk":0,"arthritis_risk":5,"migraine_risk":10,"frizz_risk":1,"updated_at":"2026-04-03T12:44:42.226494+05:30"},{"city":"Pondicherry","state":"Puducherry","latitude":11.9139,"longitude":79.8145,"temp":34.0,"humidity":49,"rain":0.0,"pressure":1010.6,"uv_index":9.3,"wind_gusts":34.2,"aqi":41,"pm10":20.2,"pm2_5":16.1,"mosquito_risk":0,"arthritis_risk":0,"migraine_risk":4,"frizz_risk":1,"updated_at":"2026-04-03T12:44:42.226503+05:30"},{"city":"Port Blair","state":"Andaman and Nicobar Islands","latitude":11.6234,"longitude":92.7265,"temp":28.8,"humidity":77,"rain":0.0,"pressure":1008.2,"uv_index":9.2,"wind_gusts":23.8,"aqi":38,"pm10":17.6,"pm2_5":9.0,"mosquito_risk":7,"arthritis_risk":0,"migraine_risk":4,"frizz_risk":1,"updated_at":"2026-04-03T12:44:42.226510+05:30"},{"city":"Haridwar","state":"Uttarakhand","latitude":29.9457,"longitude":78.1642,"temp":32.7,"humidity":38,"rain":0.0,"pressure":976.5,"uv_index":6.4,"wind_gusts":40.0,"aqi":57,"pm10":25.8,"pm2_5":11.4,"mosquito_risk":0,"arthritis_risk":5,"migraine_risk":7,"frizz_risk":1,"updated_at":"2026-04-03T12:44:42.226518+05:30"},{"city":"Rishikesh","state":"Uttarakhand","latitude":30.0869,"longitude":78.2676,"temp":32.8,"humidity":32,"rain":0.0,"pressure":969.3,"uv_index":5.85,"wind_gusts":31.7,"aqi":39,"pm10":35.7,"pm2_5":10.3,"mosquito_risk":0,"arthritis_risk":5,"migraine_risk":3,"frizz_risk":0,"updated_at":"2026-04-03T12:44:42.226525+05:30"},{"city":"Nainital","state":"Uttarakhand","latitude":29.3919,"longitude":79.4542,"temp":26.0,"humidity":37,"rain":0.0,"pressure":811.7,"uv_index":4.8,"wind_gusts":36.4,"aqi":50,"pm10":24.2,"pm2_5":9.1,"mosquito_risk":4,"arthritis_risk":5,"migraine_risk":3,"frizz_risk":0,"updated_at":"2026-04-03T12:44:42.226532+05:30"},{"city":"Mussoorie","state":"Uttarakhand","latitude":30.4599,"longitude":78.0664,"temp":24.5,"humidity":38,"rain":0.0,"pressure":807.9,"uv_index":5.3,"wind_gusts":60.5,"aqi":52,"pm10":33.8,"pm2_5":10.7,"mosquito_risk":0,"arthritis_risk":5,"migraine_risk":3,"frizz_risk":0,"updated_at":"2026-04-03T12:44:42.226539+05:30"},{"city":"Dharamshala","state":"Himachal Pradesh","latitude":32.219,"longitude":76.3234,"temp":20.4,"humidity":76,"rain":0.0,"pressure":871.6,"uv_index":5.1,"wind_gusts":56.9,"aqi":47,"pm10":17.1,"pm2_5":8.0,"mosquito_risk":3,"arthritis_risk":5,"migraine_risk":3,"frizz_risk":0,"updated_at":"2026-04-03T12:44:42.226546+05:30"},{"city":"Dalhousie","state":"Himachal Pradesh","latitude":32.5387,"longitude":75.971,"temp":18.1,"humidity":62,"rain":0.0,"pressure":806.3,"uv_index":5.85,"wind_gusts":53.6,"aqi":57,"pm10":24.3,"pm2_5":10.4,"mosquito_risk":3,"arthritis_risk":5,"migraine_risk":3,"frizz_risk":0,"updated_at":"2026-04-03T12:44:42.226553+05:30"},{"city":"Patiala","state":"Punjab","latitude":30.3398,"longitude":76.3869,"temp":23.7,"humidity":72,"rain":0.0,"pressure":981.2,"uv_index":6.25,"wind_gusts":51.1,"aqi":170,"pm10":556.9,"pm2_5":71.9,"mosquito_risk":3,"arthritis_risk":5,"migraine_risk":7,"frizz_risk":1,"updated_at":"2026-04-03T12:44:42.226560+05:30"},{"city":"Bhatinda","state":"Punjab","latitude":30.211,"longitude":74.9455,"temp":27.7,"humidity":60,"rain":0.0,"pressure":984.6,"uv_index":5.45,"wind_gusts":42.8,"aqi":84,"pm10":67.1,"pm2_5":20.8,"mosquito_risk":4,"arthritis_risk":5,"migraine_risk":3,"frizz_risk":1,"updated_at":"2026-04-03T12:44:42.226567+05:30"},{"city":"Rohtak","state":"Haryana","latitude":28.8955,"longitude":76.6066,"temp":31.8,"humidity":40,"rain":0.0,"pressure":983.4,"uv_index":5.9,"wind_gusts":37.1,"aqi":180,"pm10":627.7,"pm2_5":70.5,"mosquito_risk":0,"arthritis_risk":5,"migraine_risk":3,"frizz_risk":1,"updated_at":"2026-04-03T12:44:42.226573+05:30"},{"city":"Panipat","state":"Haryana","latitude":29.3909,"longitude":76.9635,"temp":27.9,"humidity":59,"rain":0.0,"pressure":983.1,"uv_index":5.9,"wind_gusts":43.9,"aqi":258,"pm10":1151.1,"pm2_5":116.4,"mosquito_risk":4,"arthritis_risk":5,"migraine_risk":3,"frizz_risk":1,"updated_at":"2026-04-03T12:44:42.226579+05:30"},{"city":"Mathura","state":"Uttar Pradesh","latitude":27.4924,"longitude":77.6737,"temp":35.3,"humidity":30,"rain":0.0,"pressure":988.3,"uv_index":7.25,"wind_gusts":43.6,"aqi":414,"pm10":938.8,"pm2_5":100.6,"mosquito_risk":0,"arthritis_risk":5,"migraine_risk":10,"frizz_risk":0,"updated_at":"2026-04-03T12:44:42.226585+05:30"},{"city":"Vrindavan","state":"Uttar Pradesh","latitude":27.5823,"longitude":77.7027,"temp":35.6,"humidity":28,"rain":0.0,"pressure":988.8,"uv_index":7.2,"wind_gusts":36.7,"aqi":414,"pm10":938.8,"pm2_5":100.6,"mosquito_risk":0,"arthritis_risk":5,"migraine_risk":10,"frizz_risk":0,"updated_at":"2026-04-03T12:44:42.226592+05:30"},{"city":"Ayodhya","state":"Uttar Pradesh","latitude":26.7922,"longitude":82.1998,"temp":36.2,"humidity":28,"rain":0.0,"pressure":996.4,"uv_index":6.85,"wind_gusts":35.3,"aqi":65,"pm10":46.9,"pm2_5":20.4,"mosquito_risk":0,"arthritis_risk":5,"migraine_risk":10,"frizz_risk":0,"updated_at":"2026-04-03T12:44:42.226598+05:30"},{"city":"Ratlam","state":"Madhya Pradesh","latitude":23.3315,"longitude":75.0367,"temp":31.9,"humidity":41,"rain":0.0,"pressure":956.9,"uv_index":8.15,"wind_gusts":45.0,"aqi":72,"pm10":27.6,"pm2_5":19.2,"mosquito_risk":0,"arthritis_risk":5,"migraine_risk":7,"frizz_risk":1,"updated_at":"2026-04-03T12:44:42.226605+05:30"},{"city":"Sagar","state":"Madhya Pradesh","latitude":23.8388,"longitude":78.7378,"temp":34.5,"humidity":30,"rain":0.0,"pressure":953.1,"uv_index":7.35,"wind_gusts":26.6,"aqi":67,"pm10":19.7,"pm2_5":15.5,"mosquito_risk":0,"arthritis_risk":5,"migraine_risk":7,"frizz_risk":0,"updated_at":"2026-04-03T12:44:42.226611+05:30"},{"city":"Satna","state":"Madhya Pradesh","latitude":24.6005,"longitude":80.8322,"temp":35.7,"humidity":28,"rain":0.0,"pressure":974.0,"uv_index":7.2,"wind_gusts":36.0,"aqi":67,"pm10":18.2,"pm2_5":15.4,"mosquito_risk":0,"arthritis_risk":5,"migraine_risk":10,"frizz_risk":0,"updated_at":"2026-04-03T12:44:42.226617+05:30"},{"city":"Akola","state":"Maharashtra","latitude":20.7002,"longitude":77.0082,"temp":35.3,"humidity":40,"rain":0.0,"pressure":977.2,"uv_index":8.6,"wind_gusts":33.8,"aqi":87,"pm10":44.2,"pm2_5":37.4,"mosquito_risk":0,"arthritis_risk":5,"migraine_risk":10,"frizz_risk":1,"updated_at":"2026-04-03T12:44:42.226624+05:30"},{"city":"Amravati","state":"Maharashtra","latitude":20.9374,"longitude":77.7796,"temp":35.1,"humidity":40,"rain":0.0,"pressure":969.6,"uv_index":8.65,"wind_gusts":55.4,"aqi":82,"pm10":41.4,"pm2_5":33.6,"mosquito_risk":0,"arthritis_risk":5,"migraine_risk":10,"frizz_risk":1,"updated_at":"2026-04-03T12:44:42.226632+05:30"},{"city":"Latur","state":"Maharashtra","latitude":18.4088,"longitude":76.5604,"temp":33.3,"humidity":39,"rain":0.0,"pressure":942.0,"uv_index":8.8,"wind_gusts":26.6,"aqi":105,"pm10":28.3,"pm2_5":22.3,"mosquito_risk":0,"arthritis_risk":5,"migraine_risk":7,"frizz_risk":1,"updated_at":"2026-04-03T12:44:42.226639+05:30"},{"city":"Nanded","state":"Maharashtra","latitude":19.1383,"longitude":77.3091,"temp":35.5,"humidity":41,"rain":0.0,"pressure":970.6,"uv_index":8.3,"wind_gusts":19.4,"aqi":103,"pm10":33.4,"pm2_5":27.1,"mosquito_risk":0,"arthritis_risk":5,"migraine_risk":10,"frizz_risk":1,"updated_at":"2026-04-03T12:44:42.226645+05:30"},{"city":"Gulbarga","state":"Karnataka","latitude":17.3297,"longitude":76.8343,"temp":36.2,"humidity":27,"rain":0.0,"pressure":960.7,"uv_index":8.6,"wind_gusts":45.0,"aqi":82,"pm10":22.6,"pm2_5":18.9,"mosquito_risk":0,"arthritis_risk":5,"migraine_risk":10,"frizz_risk":0,"updated_at":"2026-04-03T12:44:42.226651+05:30"},{"city":"Bidar","state":"Karnataka","latitude":17.9104,"longitude":77.5199,"temp":34.3,"humidity":31,"rain":0.0,"pressure":937.8,"uv_index":8.45,"wind_gusts":32.8,"aqi":93,"pm10":23.7,"pm2_5":18.2,"mosquito_risk":0,"arthritis_risk":5,"migraine_risk":7,"frizz_risk":0,"updated_at":"2026-04-03T12:44:42.226657+05:30"},{"city":"Hospet","state":"Karnataka","latitude":15.2689,"longitude":76.3909,"temp":33.5,"humidity":41,"rain":0.0,"pressure":957.7,"uv_index":9.2,"wind_gusts":37.8,"aqi":76,"pm10":17.9,"pm2_5":15.0,"mosquito_risk":0,"arthritis_risk":5,"migraine_risk":7,"frizz_risk":1,"updated_at":"2026-04-03T12:44:42.226664+05:30"},{"city":"Tirupur","state":"Tamil Nadu","latitude":11.1085,"longitude":77.3411,"temp":34.7,"humidity":41,"rain":0.0,"pressure":977.3,"uv_index":9.5,"wind_gusts":39.2,"aqi":65,"pm10":23.2,"pm2_5":21.0,"mosquito_risk":0,"arthritis_risk":5,"migraine_risk":7,"frizz_risk":1,"updated_at":"2026-04-03T12:44:42.226670+05:30"},{"city":"Alappuzha","state":"Kerala","latitude":9.4981,"longitude":76.3388,"temp":28.6,"humidity":79,"rain":0.0,"pressure":1011.1,"uv_index":9.2,"wind_gusts":19.8,"aqi":66,"pm10":18.7,"pm2_5":16.2,"mosquito_risk":7,"arthritis_risk":0,"migraine_risk":4,"frizz_risk":1,"updated_at":"2026-04-03T12:44:42.226676+05:30"},{"city":"Munnar","state":"Kerala","latitude":10.0889,"longitude":77.0595,"temp":26.9,"humidity":66,"rain":0.0,"pressure":860.8,"uv_index":8.0,"wind_gusts":32.0,"aqi":68,"pm10":13.9,"pm2_5":12.7,"mosquito_risk":7,"arthritis_risk":5,"migraine_risk":7,"frizz_risk":1,"updated_at":"2026-04-03T12:44:42.226683+05:30"},{"city":"Silchar","state":"Assam","latitude":24.8333,"longitude":92.7789,"temp":29.2,"humidity":73,"rain":0.0,"pressure":1006.4,"uv_index":8.5,"wind_gusts":29.5,"aqi":145,"pm10":44.8,"pm2_5":32.0,"mosquito_risk":7,"arthritis_risk":5,"migraine_risk":4,"frizz_risk":1,"updated_at":"2026-04-03T12:44:42.226689+05:30"},{"city":"Dibrugarh","state":"Assam","latitude":27.4728,"longitude":94.912,"temp":26.6,"humidity":70,"rain":0.0,"pressure":996.5,"uv_index":8.3,"wind_gusts":12.6,"aqi":96,"pm10":29.5,"pm2_5":24.0,"mosquito_risk":7,"arthritis_risk":5,"migraine_risk":7,"frizz_risk":1,"updated_at":"2026-04-03T12:44:42.226696+05:30"}]