[{"city":"Delhi","state":"Delhi","latitude":28.6139,"longitude":77.209,"temp":30.8,"humidity":35,"rain":0.0,"pressure":980.9,"uv_index":6.8,"wind_gusts":24.8,"aqi":211,"pm10":374.4,"pm2_5":75.0,"mosquito_risk":0,"arthritis_risk":5,"migraine_risk":7,"frizz_risk":0,"updated_at":"2026-04-19T01:12:53.760172+05:30"},{"city":"Mumbai","state":"Maharashtra","latitude":19.076,"longitude":72.8777,"temp":30.1,"humidity":76,"rain":0.0,"pressure":1006.9,"uv_index":6.6,"wind_gusts":23.4,"aqi":90,"pm10":55.8,"pm2_5":26.0,"mosquito_risk":3,"arthritis_risk":5,"migraine_risk":4,"frizz_risk":1,"updated_at":"2026-04-19T01:12:53.760220+05:30"},{"city":"Bangalore","state":"Karnataka","latitude":12.9716,"longitude":77.5946,"temp":25.2,"humidity":54,"rain":0.0,"pressure":911.3,"uv_index":9.6,"wind_gusts":25.6,"aqi":95,"pm10":26.0,"pm2_5":22.9,"mosquito_risk":4,"arthritis_risk":5,"migraine_risk":7,"frizz_risk":0,"updated_at":"2026-04-19T01:12:53.760236+05:30"},{"city":"Hyderabad","state":"Telangana","latitude":17.385,"longitude":78.4867,"temp":28.0,"humidity":59,"rain":0.0,"pressure":952.5,"uv_index":9.3,"wind_gusts":53.3,"aqi":97,"pm10":39.9,"pm2_5":35.5,"mosquito_risk":4,"arthritis_risk":5,"migraine_risk":7,"frizz_risk":1,"updated_at":"2026-04-19T01:12:53.760246+05:30"},{"city":"Chennai","state":"Tamil Nadu","latitude":13.0827,"longitude":80.2707,"temp":27.8,"humidity":86,"rain":0.0,"pressure":1006.7,"uv_index":9.3,"wind_gusts":34.2,"aqi":36,"pm10":11.8,"pm2_5":7.4,"mosquito_risk":7,"arthritis_risk":5,"migraine_risk":4,"frizz_risk":1,"updated_at":"2026-04-19T01:12:53.760259+05:30"},{"city":"Kolkata","state":"West Bengal","latitude":22.5726,"longitude":88.3639,"temp":27.4,"humidity":91,"rain":0.0,"pressure":1004.2,"uv_index":8.9,"wind_gusts":29.5,"aqi":78,"pm10":22.1,"pm2_5":17.2,"mosquito_risk":7,"arthritis_risk":5,"migraine_risk":4,"frizz_risk":1,"updated_at":"2026-04-19T01:12:53.760270+05:30"},{"city":"Pune","state":"Maharashtra","latitude":18.5204,"longitude":73.8567,"temp":28.0,"humidity":80,"rain":0.0,"pressure":948.0,"uv_index":8.55,"wind_gusts":32.0,"aqi":135,"pm10":44.2,"pm2_5":35.7,"mosquito_risk":7,"arthritis_risk":5,"migraine_risk":7,"frizz_risk":1,"updated_at":"2026-04-19T01:12:53.760278+05:30"},{"city":"Ahmedabad","state":"Gujarat","latitude":23.0225,"longitude":72.5714,"temp":28.7,"humidity":36,"rain":0.0,"pressure":1001.0,"uv_index":8.05,"wind_gusts":24.8,"aqi":62,"pm10":26.3,"pm2_5":18.0,"mosquito_risk":4,"arthritis_risk":5,"migraine_risk":4,"frizz_risk":0,"updated_at":"2026-04-19T01:12:53.760286+05:30"},{"city":"Jaipur","state":"Rajasthan","latitude":26.9124,"longitude":75.7873,"temp":30.2,"humidity":25,"rain":0.0,"pressure":958.5,"uv_index":7.7,"wind_gusts":39.2,"aqi":196,"pm10":136.4,"pm2_5":35.6,"mosquito_risk":0,"arthritis_risk":5,"migraine_risk":7,"frizz_risk":0,"updated_at":"2026-04-19T01:12:53.760293+05:30"},{"city":"Lucknow","state":"Uttar Pradesh","latitude":26.8467,"longitude":80.9462,"temp":28.3,"humidity":58,"rain":0.0,"pressure":990.5,"uv_index":7.85,"wind_gusts":28.4,"aqi":115,"pm10":264.5,"pm2_5":58.7,"mosquito_risk":4,"arthritis_risk":5,"migraine_risk":7,"frizz_risk":1,"updated_at":"2026-04-19T01:12:53.760302+05:30"},{"city":"Kanpur","state":"Uttar Pradesh","latitude":26.4499,"longitude":80.3319,"temp":26.9,"humidity":60,"rain":0.0,"pressure":988.7,"uv_index":7.9,"wind_gusts":22.3,"aqi":144,"pm10":330.6,"pm2_5":68.0,"mosquito_risk":4,"arthritis_risk":5,"migraine_risk":7,"frizz_risk":1,"updated_at":"2026-04-19T01:12:53.760330+05:30"},{"city":"Chandigarh","state":"Chandigarh","latitude":30.7333,"longitude":76.7794,"temp":25.3,"humidity":50,"rain":0.0,"pressure":967.2,"uv_index":6.25,"wind_gusts":27.0,"aqi":61,"pm10":34.9,"pm2_5":27.1,"mosquito_risk":4,"arthritis_risk":5,"migraine_risk":7,"frizz_risk":0,"updated_at":"2026-04-19T01:12:53.760339+05:30"},{"city":"Srinagar","state":"Jammu and Kashmir","latitude":34.0837,"longitude":74.7973,"temp":11.0,"humidity":91,"rain":0.0,"pressure":844.3,"uv_index":7.0,"wind_gusts":17.3,"aqi":76,"pm10":56.6,"pm2_5":30.3,"mosquito_risk":3,"arthritis_risk":10,"migraine_risk":7,"frizz_risk":0,"updated_at":"2026-04-19T01:12:53.760347+05:30"},{"city":"Jammu","state":"Jammu and Kashmir","latitude":32.7266,"longitude":74.857,"temp":24.3,"humidity":47,"rain":0.0,"pressure":972.3,"uv_index":5.5,"wind_gusts":42.8,"aqi":65,"pm10":33.6,"pm2_5":23.1,"mosquito_risk":0,"arthritis_risk":5,"migraine_risk":3,"frizz_risk":0,"updated_at":"2026-04-19T01:12:53.760355+05:30"},{"city":"Amritsar","state":"Punjab","latitude":31.634,"longitude":74.8723,"temp":23.3,"humidity":54,"rain":0.0,"pressure":979.9,"uv_index":6.75,"wind_gusts":32.4,"aqi":66,"pm10":45.2,"pm2_5":31.1,"mosquito_risk":0,"arthritis_risk":5,"migraine_risk":7,"frizz_risk":0,"updated_at":"2026-04-19T01:12:53.760362+05:30"},{"city":"Ludhiana","state":"Punjab","latitude":30.901,"longitude":75.8573,"temp":26.0,"humidity":52,"rain":0.0,"pressure":977.1,"uv_index":6.75,"wind_gusts":30.6,"aqi":75,"pm10":101.5,"pm2_5":60.3,"mosquito_risk":4,"arthritis_risk":5,"migraine_risk":7,"frizz_risk":0,"updated_at":"2026-04-19T01:12:53.760372+05:30"},{"city":"Jalandhar","state":"Punjab","latitude":31.326,"longitude":75.5762,"temp":24.5,"humidity":56,"rain":0.0,"pressure":978.5,"uv_index":7.2,"wind_gusts":32.0,"aqi":72,"pm10":65.7,"pm2_5":34.2,"mosquito_risk":0,"arthritis_risk":5,"migraine_risk":7,"frizz_risk":0,"updated_at":"2026-04-19T01:12:53.760380+05:30"},{"city":"Dehradun","state":"Uttarakhand","latitude":30.6284,"longitude":78.0322,"temp":17.5,"humidity":40,"rain":0.0,"pressure":831.0,"uv_index":6.15,"wind_gusts":38.5,"aqi":39,"pm10":20.8,"pm2_5":12.2,"mosquito_risk":0,"arthritis_risk":5,"migraine_risk":7,"frizz_risk":0,"updated_at":"2026-04-19T01:12:53.760386+05:30"},{"city":"Shimla","state":"Himachal Pradesh","latitude":31.1048,"longitude":77.1734,"temp":15.5,"humidity":48,"rain":0.0,"pressure":785.2,"uv_index":5.8,"wind_gusts":41.4,"aqi":51,"pm10":31.8,"pm2_5":16.8,"mosquito_risk":0,"arthritis_risk":5,"migraine_risk":3,"frizz_risk":0,"updated_at":"2026-04-19T01:12:53.760393+05:30"},{"city":"Manali","state":"Himachal Pradesh","latitude":32.2396,"longitude":77.1887,"temp":16.5,"humidity":36,"rain":0.0,"pressure":822.6,"uv_index":7.95,"wind_gusts":43.6,"aqi":49,"pm10":14.6,"pm2_5":6.5,"mosquito_risk":0,"arthritis_risk":5,"migraine_risk":7,"frizz_risk":0,"updated_at":"2026-04-19T01:12:53.760401+05:30"},{"city":"Gurgaon","state":"Haryana","latitude":28.4595,"longitude":77.0266,"temp":25.6,"humidity":54,"rain":0.0,"pressure":979.0,"uv_index":6.85,"wind_gusts":23.4,"aqi":480,"pm10":474.0,"pm2_5":88.7,"mosquito_risk":4,"arthritis_risk":5,"migraine_risk":7,"frizz_risk":0,"updated_at":"2026-04-19T01:12:53.760408+05:30"},{"city":"Noida","state":"Uttar Pradesh","latitude":28.5355,"longitude":77.391,"temp":29.5,"humidity":40,"rain":0.0,"pressure":982.2,"uv_index":6.35,"wind_gusts":24.8,"aqi":480,"pm10":474.0,"pm2_5":88.7,"mosquito_risk":4,"arthritis_risk":5,"migraine_risk":7,"frizz_risk":0,"updated_at":"2026-04-19T01:12:53.760415+05:30"},{"city":"Ghaziabad","state":"Uttar Pradesh","latitude":28.6692,"longitude":77.4538,"temp":27.3,"humidity":48,"rain":0.0,"pressure":980.4,"uv_index":6.65,"wind_gusts":26.3,"aqi":154,"pm10":309.2,"pm2_5":67.5,"mosquito_risk":4,"arthritis_risk":5,"migraine_risk":7,"frizz_risk":0,"updated_at":"2026-04-19T01:12:53.760423+05:30"},{"city":"Faridabad","state":"Haryana","latitude":28.4089,"longitude":77.3178,"temp":27.8,"humidity":45,"rain":0.0,"pressure":981.4,"uv_index":5.95,"wind_gusts":24.1,"aqi":480,"pm10":474.0,"pm2_5":88.7,"mosquito_risk":4,"arthritis_risk":5,"migraine_risk":3,"frizz_risk":0,"updated_at":"2026-04-19T01:12:53.760431+05:30"},{"city":"Meerut","state":"Uttar Pradesh","latitude":28.9845,"longitude":77.7064,"temp":26.0,"humidity":54,"rain":0.0,"pressure":979.3,"uv_index":6.0,"wind_gusts":27.7,"aqi":154,"pm10":309.2,"pm2_5":67.5,"mosquito_risk":4,"arthritis_risk":5,"migraine_risk":3,"frizz_risk":0,"updated_at":"2026-04-19T01:12:53.760439+05:30"},{"city":"Agra","state":"Uttar Pradesh","latitude":27.1767,"longitude":78.0081,"temp":27.0,"humidity":54,"rain":0.0,"pressure":985.0,"uv_index":7.75,"wind_gusts":30.2,"aqi":389,"pm10":890.3,"pm2_5":99.4,"mosquito_risk":4,"arthritis_risk":5,"migraine_risk":7,"frizz_risk":1,"updated_at":"2026-04-19T01:12:53.760448+05:30"},{"city":"Varanasi","state":"Uttar Pradesh","latitude":25.3176,"longitude":82.9739,"temp":27.7,"humidity":49,"rain":0.0,"pressure":994.5,"uv_index":8.5,"wind_gusts":27.7,"aqi":114,"pm10":101.3,"pm2_5":46.9,"mosquito_risk":4,"arthritis_risk":5,"migraine_risk":7,"frizz_risk":0,"updated_at":"2026-04-19T01:12:53.760455+05:30"},{"city":"Prayagraj","state":"Uttar Pradesh","latitude":25.4358,"longitude":81.8463,"temp":29.2,"humidity":49,"rain":0.0,"pressure":993.4,"uv_index":8.35,"wind_gusts":24.5,"aqi":99,"pm10":123.4,"pm2_5":37.6,"mosquito_risk":4,"arthritis_risk":5,"migraine_risk":7,"frizz_risk":1,"updated_at":"2026-04-19T01:12:53.760462+05:30"},{"city":"Gorakhpur","state":"Uttar Pradesh","latitude":26.7606,"longitude":83.3732,"temp":27.2,"humidity":78,"rain":0.0,"pressure":994.6,"uv_index":8.3,"wind_gusts":28.8,"aqi":137,"pm10":88.9,"pm2_5":40.4,"mosquito_risk":7,"arthritis_risk":5,"migraine_risk":7,"frizz_risk":1,"updated_at":"2026-04-19T01:12:53.760470+05:30"},{"city":"Bareilly","state":"Uttar Pradesh","latitude":28.367,"longitude":79.4304,"temp":24.8,"humidity":59,"rain":0.0,"pressure":984.2,"uv_index":7.3,"wind_gusts":27.7,"aqi":81,"pm10":92.2,"pm2_5":39.6,"mosquito_risk":0,"arthritis_risk":5,"migraine_risk":7,"frizz_risk":1,"updated_at":"2026-04-19T01:12:53.760476+05:30"},{"city":"Aligarh","state":"Uttar Pradesh","latitude":27.8974,"longitude":78.088,"temp":28.4,"humidity":43,"rain":0.0,"pressure":983.1,"uv_index":7.45,"wind_gusts":28.4,"aqi":243,"pm10":271.9,"pm2_5":91.3,"mosquito_risk":4,"arthritis_risk":5,"migraine_risk":7,"frizz_risk":0,"updated_at":"2026-04-19T01:12:53.760483+05:30"},{"city":"Moradabad","state":"Uttar Pradesh","latitude":28.8386,"longitude":78.7733,"temp":24.9,"humidity":62,"rain":0.0,"pressure":981.3,"uv_index":6.75,"wind_gusts":22.7,"aqi":98,"pm10":129.5,"pm2_5":51.7,"mosquito_risk":3,"arthritis_risk":5,"migraine_risk":7,"frizz_risk":1,"updated_at":"2026-04-19T01:12:53.760492+05:30"},{"city":"Saharanpur","state":"Uttar Pradesh","latitude":29.9637,"longitude":77.546,"temp":23.4,"humidity":66,"rain":0.0,"pressure":973.8,"uv_index":6.9,"wind_gusts":40.7,"aqi":104,"pm10":99.9,"pm2_5":57.6,"mosquito_risk":3,"arthritis_risk":5,"migraine_risk":7,"frizz_risk":1,"updated_at":"2026-04-19T01:12:53.760498+05:30"},{"city":"Jhansi","state":"Uttar Pradesh","latitude":25.4484,"longitude":78.5685,"temp":28.8,"humidity":50,"rain":0.0,"pressure":975.9,"uv_index":8.25,"wind_gusts":32.0,"aqi":89,"pm10":65.7,"pm2_5":30.2,"mosquito_risk":4,"arthritis_risk":5,"migraine_risk":7,"frizz_risk":1,"updated_at":"2026-04-19T01:12:57.100207+05:30"},{"city":"Surat","state":"Gujarat","latitude":21.1702,"longitude":72.8311,"temp":28.8,"humidity":74,"rain":0.0,"pressure":1005.3,"uv_index":7.85,"wind_gusts":27.4,"aqi":111,"pm10":40.2,"pm2_5":25.7,"mosquito_risk":7,"arthritis_risk":5,"migraine_risk":4,"frizz_risk":1,"updated_at":"2026-04-19T01:12:57.100237+05:30"},{"city":"Vadodara","state":"Gujarat","latitude":22.3072,"longitude":73.1812,"temp":28.7,"humidity":66,"rain":0.0,"pressure":1002.9,"uv_index":8.05,"wind_gusts":28.1,"aqi":95,"pm10":58.3,"pm2_5":46.9,"mosquito_risk":7,"arthritis_risk":5,"migraine_risk":4,"frizz_risk":1,"updated_at":"2026-04-19T01:12:57.100246+05:30"},{"city":"Rajkot","state":"Gujarat","latitude":22.3039,"longitude":70.8022,"temp":25.6,"humidity":62,"rain":0.0,"pressure":994.2,"uv_index":7.65,"wind_gusts":24.5,"aqi":55,"pm10":20.5,"pm2_5":11.5,"mosquito_risk":7,"arthritis_risk":5,"migraine_risk":7,"frizz_risk":1,"updated_at":"2026-04-19T01:12:57.100254+05:30"},{"city":"Thane","state":"Maharashtra","latitude":19.2183,"longitude":72.9781,"temp":27.8,"humidity":82,"rain":0.0,"pressure":1006.5,"uv_index":6.2,"wind_gusts":35.6,"aqi":90,"pm10":55.8,"pm2_5":26.0,"mosquito_risk":7,"arthritis_risk":5,"migraine_risk":4,"frizz_risk":1,"updated_at":"2026-04-19T01:12:57.100261+05:30"},{"city":"Nagpur","state":"Maharashtra","latitude":21.1458,"longitude":79.0882,"temp":29.5,"humidity":56,"rain":0.0,"pressure":971.9,"uv_index":8.9,"wind_gusts":23.4,"aqi":88,"pm10":31.2,"pm2_5":28.8,"mosquito_risk":4,"arthritis_risk":5,"migraine_risk":7,"frizz_risk":1,"updated_at":"2026-04-19T01:12:57.100268+05:30"},{"city":"Nashik","state":"Maharashtra","latitude":19.9975,"longitude":73.7898,"temp":26.6,"humidity":70,"rain":0.0,"pressure":945.2,"uv_index":8.25,"wind_gusts":28.8,"aqi":101,"pm10":39.8,"pm2_5":29.4,"mosquito_risk":7,"arthritis_risk":5,"migraine_risk":7,"frizz_risk":1,"updated_at":"2026-04-19T01:12:57.100274+05:30"},{"city":"Aurangabad","state":"Maharashtra","latitude":19.8762,"longitude":75.3433,"temp":29.5,"humidity":26,"rain":0.0,"pressure":943.0,"uv_index":9.05,"wind_gusts":23.8,"aqi":79,"pm10":25.9,"pm2_5":19.3,"mosquito_risk":4,"arthritis_risk":5,"migraine_risk":7,"frizz_risk":0,"updated_at":"2026-04-19T01:12:57.100281+05:30"},{"city":"Solapur","state":"Maharashtra","latitude":17.6599,"longitude":75.9064,"temp":28.6,"humidity":60,"rain":0.0,"pressure":956.0,"uv_index":9.0,"wind_gusts":57.2,"aqi":127,"pm10":52.5,"pm2_5":46.8,"mosquito_risk":4,"arthritis_risk":5,"migraine_risk":7,"frizz_risk":1,"updated_at":"2026-04-19T01:12:57.100288+05:30"},{"city":"Kolhapur","state":"Maharashtra","latitude":16.705,"longitude":74.2433,"temp":25.0,"humidity":88,"rain":0.0,"pressure":946.9,"uv_index":9.05,"wind_gusts":38.2,"aqi":97,"pm10":51.6,"pm2_5":37.6,"mosquito_risk":7,"arthritis_risk":5,"migraine_risk":7,"frizz_risk":1,"updated_at":"2026-04-19T01:12:57.100295+05:30"},{"city":"Goa","state":"Goa","latitude":15.2993,"longitude":74.124,"temp":28.1,"humidity":83,"rain":0.0,"pressure":996.6,"uv_index":9.05,"wind_gusts":29.5,"aqi":79,"pm10":68.5,"pm2_5":33.2,"mosquito_risk":7,"arthritis_risk":5,"migraine_risk":7,"frizz_risk":1,"updated_at":"2026-04-19T01:12:57.100301+05:30"},{"city":"Jodhpur","state":"Rajasthan","latitude":26.2389,"longitude":73.0243,"temp":28.7,"humidity":35,"rain":0.0,"pressure":982.1,"uv_index":7.6,"wind_gusts":29.2,"aqi":98,"pm10":147.6,"pm2_5":22.1,"mosquito_risk":4,"arthritis_risk":5,"migraine_risk":7,"frizz_risk":0,"updated_at":"2026-04-19T01:12:57.100308+05:30"},{"city":"Udaipur","state":"Rajasthan","latitude":24.5854,"longitude":73.7125,"temp":27.3,"humidity":31,"rain":0.0,"pressure":946.4,"uv_index":8.5,"wind_gusts":33.8,"aqi":48,"pm10":17.8,"pm2_5":8.8,"mosquito_risk":4,"arthritis_risk":5,"migraine_risk":7,"frizz_risk":0,"updated_at":"2026-04-19T01:12:57.100336+05:30"},{"city":"Kota","state":"Rajasthan","latitude":25.2138,"longitude":75.8648,"temp":29.6,"humidity":37,"rain":0.0,"pressure":976.9,"uv_index":8.2,"wind_gusts":31.3,"aqi":84,"pm10":82.9,"pm2_5":40.3,"mosquito_risk":4,"arthritis_risk":5,"migraine_risk":7,"frizz_risk":0,"updated_at":"2026-04-19T01:12:57.100343+05:30"},{"city":"Bikaner","state":"Rajasthan","latitude":28.0229,"longitude":73.3119,"temp":31.0,"humidity":22,"rain":0.0,"pressure":980.4,"uv_index":8.0,"wind_gusts":32.4,"aqi":78,"pm10":253.3,"pm2_5":45.6,"mosquito_risk":0,"arthritis_risk":5,"migraine_risk":7,"frizz_risk":0,"updated_at":"2026-04-19T01:12:57.100349+05:30"},{"city":"Ajmer","state":"Rajasthan","latitude":26.4499,"longitude":74.6399,"temp":29.1,"humidity":30,"rain":0.0,"pressure":954.2,"uv_index":6.95,"wind_gusts":33.5,"aqi":63,"pm10":74.3,"pm2_5":15.9,"mosquito_risk":4,"arthritis_risk":5,"migraine_risk":7,"frizz_risk":0,"updated_at":"2026-04-19T01:12:57.100356+05:30"},{"city":"Gwalior","state":"Madhya Pradesh","latitude":26.2183,"longitude":78.1828,"temp":29.6,"humidity":48,"rain":0.0,"pressure":980.9,"uv_index":7.3,"wind_gusts":37.4,"aqi":120,"pm10":58.6,"pm2_5":21.0,"mosquito_risk":4,"arthritis_risk":5,"migraine_risk":7,"frizz_risk":1,"updated_at":"2026-04-19T01:12:57.100362+05:30"},{"city":"Indore","state":"Madhya Pradesh","latitude":22.7196,"longitude":75.8577,"temp":26.0,"humidity":52,"rain":0.0,"pressure":947.2,"uv_index":8.6,"wind_gusts":31.0,"aqi":55,"pm10":31.9,"pm2_5":28.9,"mosquito_risk":4,"arthritis_risk":5,"migraine_risk":7,"frizz_risk":0,"updated_at":"2026-04-19T01:12:57.100368+05:30"},{"city":"Bhopal","state":"Madhya Pradesh","latitude":23.2599,"longitude":77.4126,"temp":27.9,"humidity":35,"rain":0.0,"pressure":952.6,"uv_index":8.6,"wind_gusts":30.6,"aqi":64,"pm10":24.4,"pm2_5":22.9,"mosquito_risk":4,"arthritis_risk":5,"migraine_risk":7,"frizz_risk":0,"updated_at":"2026-04-19T01:12:57.100375+05:30"},{"city":"Jabalpur","state":"Madhya Pradesh","latitude":23.1815,"longitude":79.9864,"temp":28.3,"humidity":51,"rain":0.0,"pressure":959.4,"uv_index":8.75,"wind_gusts":28.8,"aqi":74,"pm10":19.6,"pm2_5":16.9,"mosquito_risk":4,"arthritis_risk":5,"migraine_risk":7,"frizz_risk":1,"updated_at":"2026-04-19T01:12:57.100381+05:30"},{"city":"Ujjain","state":"Madhya Pradesh","latitude":23.1765,"longitude":75.7885,"temp":26.2,"humidity":52,"rain":0.0,"pressure":952.8,"uv_index":8.5,"wind_gusts":31.7,"aqi":58,"pm10":24.5,"pm2_5":19.4,"mosquito_risk":4,"arthritis_risk":5,"migraine_risk":7,"frizz_risk":0,"updated_at":"2026-04-19T01:12:57.100389+05:30"},{"city":"Visakhapatnam","state":"Andhra Pradesh","latitude":17.6868,"longitude":83.2185,"temp":27.5,"humidity":90,"rain":0.0,"pressure":1002.9,"uv_index":9.2,"wind_gusts":38.9,"aqi":61,"pm10":19.3,"pm2_5":13.7,"mosquito_risk":7,"arthritis_risk":5,"migraine_risk":4,"frizz_risk":1,"updated_at":"2026-04-19T01:12:57.100402+05:30"},{"city":"Vijayawada","state":"Andhra Pradesh","latitude":16.5062,"longitude":80.648,"temp":27.5,"humidity":87,"rain":0.0,"pressure":1002.1,"uv_index":9.25,"wind_gusts":27.4,"aqi":57,"pm10":13.4,"pm2_5":10.3,"mosquito_risk":7,"arthritis_risk":5,"migraine_risk":4,"frizz_risk":1,"updated_at":"2026-04-19T01:12:57.100415+05:30"},{"city":"Guntur","state":"Andhra Pradesh","latitude":16.3067,"longitude":80.4365,"temp":27.5,"humidity":88,"rain":0.0,"pressure":1003.2,"uv_index":9.25,"wind_gusts":31.0,"aqi":60,"pm10":13.9,"pm2_5":10.7,"mosquito_risk":7,"arthritis_risk":5,"migraine_risk":4,"frizz_risk":1,"updated_at":"2026-04-19T01:12:57.100422+05:30"},{"city":"Nellore","state":"Andhra Pradesh","latitude":14.4426,"longitude":79.9865,"temp":27.6,"humidity":83,"rain":0.0,"pressure":1005.0,"uv_index":9.3,"wind_gusts":36.4,"aqi":52,"pm10":9.9,"pm2_5":7.3,"mosquito_risk":7,"arthritis_risk":5,"migraine_risk":4,"frizz_risk":1,"updated_at":"2026-04-19T01:12:57.100429+05:30"},{"city":"Kurnool","state":"Andhra Pradesh","latitude":15.8281,"longitude":78.0373,"temp":32.6,"humidity":52,"rain":0.0,"pressure":975.3,"uv_index":9.25,"wind_gusts":25.6,"aqi":89,"pm10":27.5,"pm2_5":24.7,"mosquito_risk":0,"arthritis_risk":5,"migraine_risk":7,"frizz_risk":1,"updated_at":"2026-04-19T01:12:57.100436+05:30"},{"city":"Kakinada","state":"Andhra Pradesh","latitude":16.9891,"longitude":82.2475,"temp":27.5,"humidity":89,"rain":0.0,"pressure":1007.1,"uv_index":9.2,"wind_gusts":30.2,"aqi":52,"pm10":16.2,"pm2_5":10.2,"mosquito_risk":7,"arthritis_risk":5,"migraine_risk":4,"frizz_risk":1,"updated_at":"2026-04-19T01:12:57.100443+05:30"},{"city":"Tirupati","state":"Andhra Pradesh","latitude":13.6288,"longitude":79.4192,"temp":26.7,"humidity":85,"rain":0.0,"pressure":991.5,"uv_index":9.35,"wind_gusts":31.3,"aqi":61,"pm10":20.1,"pm2_5":17.9,"mosquito_risk":7,"arthritis_risk":5,"migraine_risk":7,"frizz_risk":1,"updated_at":"2026-04-19T01:12:57.100449+05:30"},{"city":"Warangal","state":"Telangana","latitude":17.9689,"longitude":79.5941,"temp":29.4,"humidity":69,"rain":0.0,"pressure":977.9,"uv_index":9.15,"wind_gusts":29.5,"aqi":84,"pm10":28.8,"pm2_5":25.6,"mosquito_risk":7,"arthritis_risk":5,"migraine_risk":7,"frizz_risk":1,"updated_at":"2026-04-19T01:12:57.100455+05:30"},{"city":"Nizamabad","state":"Telangana","latitude":18.6725,"longitude":78.0941,"temp":30.1,"humidity":50,"rain":0.0,"pressure":963.4,"uv_index":9.1,"wind_gusts":33.1,"aqi":109,"pm10":39.9,"pm2_5":36.8,"mosquito_risk":0,"arthritis_risk":5,"migraine_risk":7,"frizz_risk":1,"updated_at":"2026-04-19T01:12:57.100461+05:30"},{"city":"Mysore","state":"Karnataka","latitude":12.2958,"longitude":76.6396,"temp":24.5,"humidity":86,"rain":0.0,"pressure":928.2,"uv_index":9.5,"wind_gusts":41.4,"aqi":88,"pm10":35.3,"pm2_5":31.8,"mosquito_risk":3,"arthritis_risk":5,"migraine_risk":7,"frizz_risk":1,"updated_at":"2026-04-19T01:12:57.100467+05:30"},{"city":"Mangalore","state":"Karnataka","latitude":12.9141,"longitude":74.856,"temp":30.7,"humidity":77,"rain":0.0,"pressure":1005.6,"uv_index":9.15,"wind_gusts":24.5,"aqi":63,"pm10":35.3,"pm2_5":20.4,"mosquito_risk":3,"arthritis_risk":5,"migraine_risk":4,"frizz_risk":1,"updated_at":"2026-04-19T01:12:57.100474+05:30"},{"city":"Hubli-Dharwad","state":"Karnataka","latitude":15.3647,"longitude":75.124,"temp":24.6,"humidity":89,"rain":0.0,"pressure":939.6,"uv_index":9.25,"wind_gusts":36.0,"aqi":67,"pm10":31.0,"pm2_5":21.8,"mosquito_risk":3,"arthritis_risk":5,"migraine_risk":7,"frizz_risk":1,"updated_at":"2026-04-19T01:12:57.100480+05:30"},{"city":"Belgaum","state":"Karnataka","latitude":15.8497,"longitude":74.4977,"temp":23.5,"humidity":94,"rain":0.0,"pressure":924.6,"uv_index":9.25,"wind_gusts":29.5,"aqi":81,"pm10":49.7,"pm2_5":31.1,"mosquito_risk":3,"arthritis_risk":5,"migraine_risk":7,"frizz_risk":1,"updated_at":"2026-04-19T01:13:00.461116+05:30"},{"city":"Coimbatore","state":"Tamil Nadu","latitude":11.0168,"longitude":76.9558,"temp":25.1,"humidity":90,"rain":0.0,"pressure":961.5,"uv_index":9.45,"wind_gusts":57.2,"aqi":99,"pm10":44.1,"pm2_5":39.2,"mosquito_risk":7,"arthritis_risk":5,"migraine_risk":7,"frizz_risk":1,"updated_at":"2026-04-19T01:13:00.461145+05:30"},{"city":"Madurai","state":"Tamil Nadu","latitude":9.9252,"longitude":78.1198,"temp":27.8,"humidity":84,"rain":0.0,"pressure":992.9,"uv_index":9.3,"wind_gusts":40.7,"aqi":68,"pm10":24.4,"pm2_5":22.9,"mosquito_risk":7,"arthritis_risk":5,"migraine_risk":7,"frizz_risk":1,"updated_at":"2026-04-19T01:13:00.461156+05:30"},{"city":"Trichy","state":"Tamil Nadu","latitude":10.7905,"longitude":78.7047,"temp":26.8,"humidity":86,"rain":0.0,"pressure":999.5,"uv_index":9.3,"wind_gusts":22.0,"aqi":53,"pm10":14.5,"pm2_5":13.4,"mosquito_risk":7,"arthritis_risk":5,"migraine_risk":7,"frizz_risk":1,"updated_at":"2026-04-19T01:13:00.461165+05:30"},{"city":"Salem","state":"Tamil Nadu","latitude":11.6643,"longitude":78.146,"temp":26.5,"humidity":78,"rain":0.0,"pressure":976.5,"uv_index":9.4,"wind_gusts":17.6,"aqi":77,"pm10":24.5,"pm2_5":21.9,"mosquito_risk":7,"arthritis_risk":5,"migraine_risk":7,"frizz_risk":1,"updated_at":"2026-04-19T01:13:00.461173+05:30"},{"city":"Tirunelveli","state":"Tamil Nadu","latitude":8.7139,"longitude":77.7567,"temp":27.8,"humidity":76,"rain":0.0,"pressure":1002.8,"uv_index":9.25,"wind_gusts":48.2,"aqi":83,"pm10":26.9,"pm2_5":23.4,"mosquito_risk":7,"arthritis_risk":5,"migraine_risk":4,"frizz_risk":1,"updated_at":"2026-04-19T01:13:00.461180+05:30"},{"city":"Vellore","state":"Tamil Nadu","latitude":12.9165,"longitude":79.1325,"temp":25.6,"humidity":91,"rain":0.0,"pressure":984.4,"uv_index":9.4,"wind_gusts":28.1,"aqi":84,"pm10":36.3,"pm2_5":34.6,"mosquito_risk":7,"arthritis_risk":5,"migraine_risk":7,"frizz_risk":1,"updated_at":"2026-04-19T01:13:00.461188+05:30"},{"city":"Erode","state":"Tamil Nadu","latitude":11.341,"longitude":77.7172,"temp":28.5,"humidity":73,"rain":0.0,"pressure":988.4,"uv_index":9.35,"wind_gusts":28.1,"aqi":66,"pm10":15.4,"pm2_5":13.7,"mosquito_risk":7,"arthritis_risk":5,"migraine_risk":7,"frizz_risk":1,"updated_at":"2026-04-19T01:13:00.461195+05:30"},{"city":"Kochi","state":"Kerala","latitude":9.9312,"longitude":76.2673,"temp":28.9,"humidity":82,"rain":0.0,"pressure":1008.1,"uv_index":9.15,"wind_gusts":27.0,"aqi":79,"pm10":35.0,"pm2_5":28.4,"mosquito_risk":7,"arthritis_risk":0,"migraine_risk":4,"frizz_risk":1,"updated_at":"2026-04-19T01:13:00.461202+05:30"},{"city":"Thiruvananthapuram","state":"Kerala","latitude":8.5241,"longitude":76.9366,"temp":28.6,"humidity":84,"rain":0.0,"pressure":1007.5,"uv_index":9.1,"wind_gusts":27.0,"aqi":75,"pm10":30.0,"pm2_5":19.7,"mosquito_risk":7,"arthritis_risk":5,"migraine_risk":4,"frizz_risk":1,"updated_at":"2026-04-19T01:13:00.461208+05:30"},{"city":"Kozhikode","state":"Kerala","latitude":11.2588,"longitude":75.7804,"temp":29.8,"humidity":83,"rain":0.0,"pressure":1006.9,"uv_index":9.15,"wind_gusts":29.5,"aqi":68,"pm10":26.8,"pm2_5":17.5,"mosquito_risk":7,"arthritis_risk":5,"migraine_risk":4,"frizz_risk":1,"updated_at":"2026-04-19T01:13:00.461215+05:30"},{"city":"Thrissur","state":"Kerala","latitude":10.5276,"longitude":76.2144,"temp":28.9,"humidity":87,"rain":0.0,"pressure":1006.2,"uv_index":9.15,"wind_gusts":35.3,"aqi":76,"pm10":36.1,"pm2_5":30.6,"mosquito_risk":7,"arthritis_risk":5,"migraine_risk":4,"frizz_risk":1,"updated_at":"2026-04-19T01:13:00.461222+05:30"},{"city":"Kannur","state":"Kerala","latitude":11.8745,"longitude":75.3704,"temp":29.9,"humidity":80,"rain":0.0,"pressure":1006.3,"uv_index":9.1,"wind_gusts":31.0,"aqi":68,"pm10":29.1,"pm2_5":20.3,"mosquito_risk":7,"arthritis_risk":5,"migraine_risk":4,"frizz_risk":1,"updated_at":"2026-04-19T01:13:00.461229+05:30"},{"city":"Patna","state":"Bihar","latitude":25.5941,"longitude":85.1376,"temp":28.6,"humidity":79,"rain":0.0,"pressure":997.8,"uv_index":8.6,"wind_gusts":25.9,"aqi":142,"pm10":57.0,"pm2_5":53.6,"mosquito_risk":7,"arthritis_risk":5,"migraine_risk":7,"frizz_risk":1,"updated_at":"2026-04-19T01:13:00.461235+05:30"},{"city":"Gaya","state":"Bihar","latitude":24.7914,"longitude":85.0002,"temp":29.7,"humidity":49,"rain":0.0,"pressure":990.6,"uv_index":8.7,"wind_gusts":27.0,"aqi":101,"pm10":63.3,"pm2_5":43.3,"mosquito_risk":4,"arthritis_risk":5,"migraine_risk":7,"frizz_risk":1,"updated_at":"2026-04-19T01:13:00.461241+05:30"},{"city":"Muzaffarpur","state":"Bihar","latitude":26.1209,"longitude":85.3647,"temp":27.2,"humidity":84,"rain":0.0,"pressure":998.1,"uv_index":8.6,"wind_gusts":29.9,"aqi":152,"pm10":59.6,"pm2_5":54.8,"mosquito_risk":7,"arthritis_risk":5,"migraine_risk":7,"frizz_risk":1,"updated_at":"2026-04-19T01:13:00.461247+05:30"},{"city":"Bhagalpur","state":"Bihar","latitude":25.2425,"longitude":87.0117,"temp":27.2,"humidity":88,"rain":0.0,"pressure":999.2,"uv_index":8.65,"wind_gusts":30.2,"aqi":150,"pm10":52.4,"pm2_5":48.5,"mosquito_risk":7,"arthritis_risk":5,"migraine_risk":7,"frizz_risk":1,"updated_at":"2026-04-19T01:13:00.461254+05:30"},{"city":"Ranchi","state":"Jharkhand","latitude":23.3441,"longitude":85.3096,"temp":27.7,"humidity":44,"rain":0.0,"pressure":936.7,"uv_index":9.2,"wind_gusts":42.8,"aqi":80,"pm10":70.1,"pm2_5":29.9,"mosquito_risk":4,"arthritis_risk":5,"migraine_risk":7,"frizz_risk":0,"updated_at":"2026-04-19T01:13:00.461260+05:30"},{"city":"Jamshedpur","state":"Jharkhand","latitude":22.8046,"longitude":86.2029,"temp":28.6,"humidity":90,"rain":0.0,"pressure":988.6,"uv_index":9.0,"wind_gusts":32.8,"aqi":107,"pm10":45.8,"pm2_5":39.1,"mosquito_risk":7,"arthritis_risk":5,"migraine_risk":7,"frizz_risk":1,"updated_at":"2026-04-19T01:13:00.461267+05:30"},{"city":"Dhanbad","state":"Jharkhand","latitude":23.7957,"longitude":86.4304,"temp":29.3,"humidity":81,"rain":0.0,"pressure":977.6,"uv_index":8.95,"wind_gusts":39.6,"aqi":153,"pm10":88.9,"pm2_5":78.7,"mosquito_risk":7,"arthritis_risk":5,"migraine_risk":7,"frizz_risk":1,"updated_at":"2026-04-19T01:13:00.461273+05:30"},{"city":"Bokaro","state":"Jharkhand","latitude":23.6693,"longitude":86.1511,"temp":28.5,"humidity":81,"rain":0.0,"pressure":981.7,"uv_index":8.95,"wind_gusts":42.8,"aqi":152,"pm10":91.7,"pm2_5":62.4,"mosquito_risk":7,"arthritis_risk":5,"migraine_risk":7,"frizz_risk":1,"updated_at":"2026-04-19T01:13:00.461279+05:30"},{"city":"Bhubaneswar","state":"Odisha","latitude":20.2961,"longitude":85.8245,"temp":27.1,"humidity":92,"rain":0.0,"pressure":1001.0,"uv_index":9.1,"wind_gusts":30.6,"aqi":60,"pm10":20.1,"pm2_5":15.0,"mosquito_risk":7,"arthritis_risk":5,"migraine_risk":4,"frizz_risk":1,"updated_at":"2026-04-19T01:13:00.461285+05:30"},{"city":"Cuttack","state":"Odisha","latitude":20.4625,"longitude":85.8828,"temp":27.3,"humidity":92,"rain":0.0,"pressure":1002.7,"uv_index":9.15,"wind_gusts":27.4,"aqi":60,"pm10":20.1,"pm2_5":15.0,"mosquito_risk":7,"arthritis_risk":5,"migraine_risk":4,"frizz_risk":1,"updated_at":"2026-04-19T01:13:00.461291+05:30"},{"city":"Rourkela","state":"Odisha","latitude":22.2604,"longitude":84.8536,"temp":29.9,"humidity":67,"rain":0.0,"pressure":982.8,"uv_index":8.9,"wind_gusts":47.5,"aqi":126,"pm10":74.0,"pm2_5":54.0,"mosquito_risk":7,"arthritis_risk":5,"migraine_risk":7,"frizz_risk":1,"updated_at":"2026-04-19T01:13:00.461297+05:30"},{"city":"Raipur","state":"Chhattisgarh","latitude":21.2514,"longitude":81.6296,"temp":29.0,"humidity":58,"rain":0.0,"pressure":972.9,"uv_index":8.7,"wind_gusts":38.2,"aqi":141,"pm10":74.7,"pm2_5":57.2,"mosquito_risk":4,"arthritis_risk":5,"migraine_risk":7,"frizz_risk":1,"updated_at":"2026-04-19T01:13:00.461303+05:30"},{"city":"Bhilai","state":"Chhattisgarh","latitude":21.1938,"longitude":81.3509,"temp":28.4,"humidity":62,"rain":0.0,"pressure":973.2,"uv_index":8.45,"wind_gusts":33.5,"aqi":151,"pm10":80.6,"pm2_5":63.6,"mosquito_risk":7,"arthritis_risk":5,"migraine_risk":7,"frizz_risk":1,"updated_at":"2026-04-19T01:13:00.461309+05:30"},{"city":"Guwahati","state":"Assam","latitude":26.1158,"longitude":91.7086,"temp":24.6,"humidity":91,"rain":0.0,"pressure":1001.3,"uv_index":8.55,"wind_gusts":25.2,"aqi":136,"pm10":49.4,"pm2_5":42.8,"mosquito_risk":3,"arthritis_risk":5,"migraine_risk":4,"frizz_risk":1,"updated_at":"2026-04-19T01:13:00.461338+05:30"},{"city":"Agartala","state":"Tripura","latitude":23.8315,"longitude":91.2868,"temp":25.6,"humidity":92,"rain":0.0,"pressure":1005.8,"uv_index":8.75,"wind_gusts":26.3,"aqi":120,"pm10":58.1,"pm2_5":52.0,"mosquito_risk":7,"arthritis_risk":5,"migraine_risk":4,"frizz_risk":1,"updated_at":"2026-04-19T01:13:00.461345+05:30"},{"city":"Shillong","state":"Meghalaya","latitude":25.5788,"longitude":91.8933,"temp":15.3,"humidity":92,"rain":0.0,"pressure":855.7,"uv_index":8.15,"wind_gusts":43.9,"aqi":122,"pm10":42.1,"pm2_5":34.0,"mosquito_risk":3,"arthritis_risk":10,"migraine_risk":7,"frizz_risk":0,"updated_at":"2026-04-19T01:13:00.461352+05:30"},{"city":"Imphal","state":"Manipur","latitude":24.817,"longitude":93.9368,"temp":18.8,"humidity":82,"rain":0.0,"pressure":922.9,"uv_index":8.5,"wind_gusts":56.5,"aqi":151,"pm10":79.9,"pm2_5":66.6,"mosquito_risk":3,"arthritis_risk":10,"migraine_risk":7,"frizz_risk":0,"updated_at":"2026-04-19T01:13:00.461358+05:30"},{"city":"Aizawl","state":"Mizoram","latitude":23.7271,"longitude":92.7176,"temp":20.3,"humidity":86,"rain":0.0,"pressure":891.9,"uv_index":8.3,"wind_gusts":41.0,"aqi":119,"pm10":70.1,"pm2_5":54.6,"mosquito_risk":3,"arthritis_risk":5,"migraine_risk":7,"frizz_risk":1,"updated_at":"2026-04-19T01:13:00.461365+05:30"},{"city":"Kohima","state":"Nagaland","latitude":25.6701,"longitude":94.1077,"temp":16.3,"humidity":88,"rain":0.0,"pressure":854.7,"uv_index":8.2,"wind_gusts":46.1,"aqi":129,"pm10":55.5,"pm2_5":43.8,"mosquito_risk":3,"arthritis_risk":10,"migraine_risk":7,"frizz_risk":0,"updated_at":"2026-04-19T01:13:00.461372+05:30"},{"city":"Gangtok","state":"Sikkim","latitude":27.3314,"longitude":88.6138,"temp":16.3,"humidity":92,"rain":0.0,"pressure":836.8,"uv_index":8.9,"wind_gusts":22.0,"aqi":104,"pm10":39.2,"pm2_5":32.0,"mosquito_risk":3,"arthritis_risk":10,"migraine_risk":7,"frizz_risk":0,"updated_at":"2026-04-19T01:13:00.461379+05:30"},{"city":"Siliguri","state":"West Bengal","latitude":26.7271,"longitude":88.3953,"temp":22.2,"humidity":83,"rain":0.0,"pressure":993.3,"uv_index":8.45,"wind_gusts":22.0,"aqi":156,"pm10":85.9,"pm2_5":67.3,"mosquito_risk":3,"arthritis_risk":5,"migraine_risk":7,"frizz_risk":1,"updated_at":"2026-04-19T01:13:03.811507+05:30"},{"city":"Durgapur","state":"West Bengal","latitude":23.5204,"longitude":87.3119,"temp":27.8,"humidity":87,"rain":0.0,"pressure":992.7,"uv_index":8.9,"wind_gusts":38.5,"aqi":122,"pm10":30.9,"pm2_5":28.6,"mosquito_risk":7,"arthritis_risk":5,"migraine_risk":7,"frizz_risk":1,"updated_at":"2026-04-19T01:13:03.811536+05:30"},{"city":"Asansol","state":"West Bengal","latitude":23.6739,"longitude":86.9524,"temp":28.4,"humidity":85,"rain":0.0,"pressure":991.2,"uv_index":8.95,"wind_gusts":39.6,"aqi":131,"pm10":45.5,"pm2_5":44.2,"mosquito_risk":7,"arthritis_risk":5,"migraine_risk":7,"frizz_risk":1,"updated_at":"2026-04-19T01:13:03.811546+05:30"},{"city":"Pondicherry","state":"Puducherry","latitude":11.9139,"longitude":79.8145,"temp":26.3,"humidity":95,"rain":0.0,"pressure":1008.1,"uv_index":9.25,"wind_gusts":31.3,"aqi":31,"pm10":9.5,"pm2_5":5.7,"mosquito_risk":7,"arthritis_risk":0,"migraine_risk":4,"frizz_risk":1,"updated_at":"2026-04-19T01:13:03.811554+05:30"},{"city":"Port Blair","state":"Andaman and Nicobar Islands","latitude":11.6234,"longitude":92.7265,"temp":29.5,"humidity":75,"rain":0.0,"pressure":1006.2,"uv_index":9.15,"wind_gusts":15.5,"aqi":55,"pm10":19.3,"pm2_5":14.9,"mosquito_risk":7,"arthritis_risk":5,"migraine_risk":4,"frizz_risk":1,"updated_at":"2026-04-19T01:13:03.811562+05:30"},{"city":"Haridwar","state":"Uttarakhand","latitude":29.9457,"longitude":78.1642,"temp":23.1,"humidity":67,"rain":0.0,"pressure":972.5,"uv_index":6.65,"wind_gusts":31.3,"aqi":63,"pm10":36.7,"pm2_5":26.0,"mosquito_risk":3,"arthritis_risk":5,"migraine_risk":7,"frizz_risk":1,"updated_at":"2026-04-19T01:13:03.811569+05:30"},{"city":"Rishikesh","state":"Uttarakhand","latitude":30.0869,"longitude":78.2676,"temp":22.6,"humidity":62,"rain":0.0,"pressure":965.8,"uv_index":6.7,"wind_gusts":34.2,"aqi":63,"pm10":45.6,"pm2_5":21.1,"mosquito_risk":3,"arthritis_risk":5,"migraine_risk":7,"frizz_risk":0,"updated_at":"2026-04-19T01:13:03.811576+05:30"},{"city":"Nainital","state":"Uttarakhand","latitude":29.3919,"longitude":79.4542,"temp":23.7,"humidity":31,"rain":0.0,"pressure":807.8,"uv_index":7.55,"wind_gusts":59.0,"aqi":82,"pm10":54.4,"pm2_5":20.2,"mosquito_risk":0,"arthritis_risk":5,"migraine_risk":7,"frizz_risk":0,"updated_at":"2026-04-19T01:13:03.811583+05:30"},{"city":"Mussoorie","state":"Uttarakhand","latitude":30.4599,"longitude":78.0664,"temp":19.7,"humidity":43,"rain":0.0,"pressure":804.0,"uv_index":6.65,"wind_gusts":42.1,"aqi":59,"pm10":32.6,"pm2_5":24.3,"mosquito_risk":0,"arthritis_risk":5,"migraine_risk":7,"frizz_risk":0,"updated_at":"2026-04-19T01:13:03.811590+05:30"},{"city":"Dharamshala","state":"Himachal Pradesh","latitude":32.219,"longitude":76.3234,"temp":23.5,"humidity":25,"rain":0.0,"pressure":870.3,"uv_index":6.5,"wind_gusts":31.3,"aqi":48,"pm10":27.3,"pm2_5":11.5,"mosquito_risk":0,"arthritis_risk":5,"migraine_risk":7,"frizz_risk":0,"updated_at":"2026-04-19T01:13:03.811596+05:30"},{"city":"Dalhousie","state":"Himachal Pradesh","latitude":32.5387,"longitude":75.971,"temp":19.6,"humidity":28,"rain":0.0,"pressure":805.0,"uv_index":5.6,"wind_gusts":25.6,"aqi":55,"pm10":43.9,"pm2_5":24.3,"mosquito_risk":0,"arthritis_risk":5,"migraine_risk":3,"frizz_risk":0,"updated_at":"2026-04-19T01:13:03.811604+05:30"},{"city":"Patiala","state":"Punjab","latitude":30.3398,"longitude":76.3869,"temp":24.2,"humidity":61,"rain":0.0,"pressure":976.5,"uv_index":6.75,"wind_gusts":33.1,"aqi":121,"pm10":76.1,"pm2_5":69.2,"mosquito_risk":3,"arthritis_risk":5,"migraine_risk":7,"frizz_risk":1,"updated_at":"2026-04-19T01:13:03.811611+05:30"},{"city":"Bhatinda","state":"Punjab","latitude":30.211,"longitude":74.9455,"temp":26.0,"humidity":53,"rain":0.0,"pressure":982.0,"uv_index":7.7,"wind_gusts":29.2,"aqi":81,"pm10":49.9,"pm2_5":32.4,"mosquito_risk":4,"arthritis_risk":5,"migraine_risk":7,"frizz_risk":0,"updated_at":"2026-04-19T01:13:03.811617+05:30"},{"city":"Rohtak","state":"Haryana","latitude":28.8955,"longitude":76.6066,"temp":23.1,"humidity":75,"rain":0.0,"pressure":979.6,"uv_index":6.6,"wind_gusts":33.5,"aqi":298,"pm10":414.4,"pm2_5":75.0,"mosquito_risk":3,"arthritis_risk":5,"migraine_risk":7,"frizz_risk":1,"updated_at":"2026-04-19T01:13:03.811623+05:30"},{"city":"Panipat","state":"Haryana","latitude":29.3909,"longitude":76.9635,"temp":24.6,"humidity":59,"rain":0.0,"pressure":978.5,"uv_index":6.2,"wind_gusts":46.1,"aqi":439,"pm10":597.9,"pm2_5":94.5,"mosquito_risk":0,"arthritis_risk":5,"migraine_risk":7,"frizz_risk":1,"updated_at":"2026-04-19T01:13:03.811629+05:30"},{"city":"Mathura","state":"Uttar Pradesh","latitude":27.4924,"longitude":77.6737,"temp":26.1,"humidity":59,"rain":0.0,"pressure":984.1,"uv_index":7.4,"wind_gusts":27.0,"aqi":304,"pm10":336.2,"pm2_5":76.4,"mosquito_risk":4,"arthritis_risk":5,"migraine_risk":7,"frizz_risk":1,"updated_at":"2026-04-19T01:13:03.811636+05:30"},{"city":"Vrindavan","state":"Uttar Pradesh","latitude":27.5823,"longitude":77.7027,"temp":27.4,"humidity":48,"rain":0.0,"pressure":984.8,"uv_index":7.3,"wind_gusts":29.2,"aqi":304,"pm10":336.2,"pm2_5":76.4,"mosquito_risk":4,"arthritis_risk":5,"migraine_risk":7,"frizz_risk":0,"updated_at":"2026-04-19T01:13:03.811643+05:30"},{"city":"Ayodhya","state":"Uttar Pradesh","latitude":26.7922,"longitude":82.1998,"temp":26.4,"humidity":68,"rain":0.0,"pressure":992.5,"uv_index":8.05,"wind_gusts":32.4,"aqi":97,"pm10":156.5,"pm2_5":41.4,"mosquito_risk":7,"arthritis_risk":5,"migraine_risk":7,"frizz_risk":1,"updated_at":"2026-04-19T01:13:03.811649+05:30"},{"city":"Ratlam","state":"Madhya Pradesh","latitude":23.3315,"longitude":75.0367,"temp":28.0,"humidity":49,"rain":0.0,"pressure":953.6,"uv_index":8.45,"wind_gusts":23.0,"aqi":49,"pm10":18.2,"pm2_5":12.3,"mosquito_risk":4,"arthritis_risk":5,"migraine_risk":7,"frizz_risk":1,"updated_at":"2026-04-19T01:13:03.811655+05:30"},{"city":"Sagar","state":"Madhya Pradesh","latitude":23.8388,"longitude":78.7378,"temp":29.3,"humidity":43,"rain":0.0,"pressure":948.6,"uv_index":8.6,"wind_gusts":31.0,"aqi":72,"pm10":22.6,"pm2_5":21.4,"mosquito_risk":4,"arthritis_risk":5,"migraine_risk":7,"frizz_risk":0,"updated_at":"2026-04-19T01:13:03.811661+05:30"},{"city":"Satna","state":"Madhya Pradesh","latitude":24.6005,"longitude":80.8322,"temp":30.0,"humidity":44,"rain":0.0,"pressure":969.5,"uv_index":8.65,"wind_gusts":30.2,"aqi":74,"pm10":92.0,"pm2_5":26.4,"mosquito_risk":4,"arthritis_risk":5,"migraine_risk":7,"frizz_risk":1,"updated_at":"2026-04-19T01:13:03.811667+05:30"},{"city":"Akola","state":"Maharashtra","latitude":20.7002,"longitude":77.0082,"temp":29.2,"humidity":54,"rain":0.0,"pressure":973.3,"uv_index":8.85,"wind_gusts":23.0,"aqi":65,"pm10":33.3,"pm2_5":28.2,"mosquito_risk":4,"arthritis_risk":5,"migraine_risk":7,"frizz_risk":1,"updated_at":"2026-04-19T01:13:03.811674+05:30"},{"city":"Amravati","state":"Maharashtra","latitude":20.9374,"longitude":77.7796,"temp":29.1,"humidity":40,"rain":0.0,"pressure":965.5,"uv_index":8.85,"wind_gusts":28.8,"aqi":66,"pm10":36.8,"pm2_5":32.0,"mosquito_risk":4,"arthritis_risk":5,"migraine_risk":7,"frizz_risk":0,"updated_at":"2026-04-19T01:13:03.811681+05:30"},{"city":"Latur","state":"Maharashtra","latitude":18.4088,"longitude":76.5604,"temp":26.2,"humidity":64,"rain":0.0,"pressure":939.4,"uv_index":8.85,"wind_gusts":25.2,"aqi":106,"pm10":49.0,"pm2_5":44.7,"mosquito_risk":7,"arthritis_risk":5,"migraine_risk":7,"frizz_risk":1,"updated_at":"2026-04-19T01:13:03.811688+05:30"},{"city":"Nanded","state":"Maharashtra","latitude":19.1383,"longitude":77.3091,"temp":28.3,"humidity":61,"rain":0.0,"pressure":967.4,"uv_index":9.0,"wind_gusts":25.9,"aqi":85,"pm10":55.8,"pm2_5":49.2,"mosquito_risk":7,"arthritis_risk":5,"migraine_risk":7,"frizz_risk":1,"updated_at":"2026-04-19T01:13:03.811694+05:30"},{"city":"Gulbarga","state":"Karnataka","latitude":17.3297,"longitude":76.8343,"temp":28.8,"humidity":57,"rain":0.0,"pressure":957.6,"uv_index":9.1,"wind_gusts":34.6,"aqi":113,"pm10":42.6,"pm2_5":38.0,"mosquito_risk":4,"arthritis_risk":5,"migraine_risk":7,"frizz_risk":1,"updated_at":"2026-04-19T01:13:03.811700+05:30"},{"city":"Bidar","state":"Karnataka","latitude":17.9104,"longitude":77.5199,"temp":27.3,"humidity":64,"rain":0.0,"pressure":934.7,"uv_index":9.15,"wind_gusts":45.4,"aqi":100,"pm10":47.7,"pm2_5":42.7,"mosquito_risk":7,"arthritis_risk":5,"migraine_risk":7,"frizz_risk":1,"updated_at":"2026-04-19T01:13:03.811707+05:30"},{"city":"Hospet","state":"Karnataka","latitude":15.2689,"longitude":76.3909,"temp":28.8,"humidity":73,"rain":0.0,"pressure":955.0,"uv_index":9.3,"wind_gusts":43.9,"aqi":91,"pm10":41.2,"pm2_5":37.7,"mosquito_risk":7,"arthritis_risk":5,"migraine_risk":7,"frizz_risk":1,"updated_at":"2026-04-19T01:13:03.811713+05:30"},{"city":"Tirupur","state":"Tamil Nadu","latitude":11.1085,"longitude":77.3411,"temp":27.4,"humidity":85,"rain":0.0,"pressure":974.8,"uv_index":9.45,"wind_gusts":31.0,"aqi":84,"pm10":30.6,"pm2_5":26.1,"mosquito_risk":7,"arthritis_risk":5,"migraine_risk":7,"frizz_risk":1,"updated_at":"2026-04-19T01:13:03.811719+05:30"},{"city":"Alappuzha","state":"Kerala","latitude":9.4981,"longitude":76.3388,"temp":28.6,"humidity":83,"rain":0.0,"pressure":1008.3,"uv_index":9.05,"wind_gusts":24.8,"aqi":84,"pm10":38.3,"pm2_5":28.9,"mosquito_risk":7,"arthritis_risk":0,"migraine_risk":4,"frizz_risk":1,"updated_at":"2026-04-19T01:13:03.811725+05:30"},{"city":"Munnar","state":"Kerala","latitude":10.0889,"longitude":77.0595,"temp":21.5,"humidity":83,"rain":0.0,"pressure":856.7,"uv_index":9.7,"wind_gusts":34.9,"aqi":86,"pm10":36.9,"pm2_5":32.2,"mosquito_risk":3,"arthritis_risk":5,"migraine_risk":7,"frizz_risk":1,"updated_at":"2026-04-19T01:13:03.811732+05:30"},{"city":"Silchar","state":"Assam","latitude":24.8333,"longitude":92.7789,"temp":25.4,"humidity":89,"rain":0.0,"pressure":1004.0,"uv_index":8.8,"wind_gusts":25.9,"aqi":158,"pm10":96.9,"pm2_5":79.6,"mosquito_risk":7,"arthritis_risk":5,"migraine_risk":4,"frizz_risk":1,"updated_at":"2026-04-19T01:13:03.811739+05:30"},{"city":"Dibrugarh","state":"Assam","latitude":27.4728,"longitude":94.912,"temp":24.2,"humidity":93,"rain":0.0,"pressure":995.6,"uv_index":8.65,"wind_gusts":24.8,"aqi":120,"pm10":68.2,"pm2_5":55.2,"mosquito_risk":3,"arthritis_risk":5,"migraine_risk":7,"frizz_risk":1,"updated_at":"2026-04-19T01:13:03.811745+05:30"}]