[{"city":"Delhi","state":"Delhi","latitude":28.6139,"longitude":77.209,"temp":26.4,"humidity":53,"rain":0.0,"pressure":977.1,"uv_index":7.6,"wind_gusts":31.7,"aqi":288,"pm10":376.3,"pm2_5":75.2,"no2":16.3,"co":492.0,"o3":97.0,"so2":19.6,"mosquito_risk":4,"arthritis_risk":5,"migraine_risk":7,"frizz_risk":0,"updated_at":"2026-05-02T03:25:13.625862+05:30"},{"city":"Mumbai","state":"Maharashtra","latitude":19.076,"longitude":72.8777,"temp":27.8,"humidity":81,"rain":0.0,"pressure":1006.1,"uv_index":7.9,"wind_gusts":41.4,"aqi":65,"pm10":54.7,"pm2_5":17.3,"no2":8.6,"co":230.0,"o3":63.0,"so2":15.7,"mosquito_risk":7,"arthritis_risk":5,"migraine_risk":4,"frizz_risk":1,"updated_at":"2026-05-02T03:25:13.625909+05:30"},{"city":"Bangalore","state":"Karnataka","latitude":12.9716,"longitude":77.5946,"temp":22.1,"humidity":84,"rain":0.0,"pressure":909.6,"uv_index":9.5,"wind_gusts":40.0,"aqi":101,"pm10":33.3,"pm2_5":29.2,"no2":22.2,"co":398.0,"o3":75.0,"so2":10.3,"mosquito_risk":3,"arthritis_risk":5,"migraine_risk":7,"frizz_risk":1,"updated_at":"2026-05-02T03:25:13.625926+05:30"},{"city":"Hyderabad","state":"Telangana","latitude":17.385,"longitude":78.4867,"temp":28.6,"humidity":37,"rain":0.0,"pressure":949.7,"uv_index":9.25,"wind_gusts":33.1,"aqi":80,"pm10":66.1,"pm2_5":38.5,"no2":39.0,"co":317.0,"o3":51.0,"so2":13.8,"mosquito_risk":4,"arthritis_risk":5,"migraine_risk":7,"frizz_risk":0,"updated_at":"2026-05-02T03:25:13.625944+05:30"},{"city":"Chennai","state":"Tamil Nadu","latitude":13.0827,"longitude":80.2707,"temp":29.5,"humidity":81,"rain":0.0,"pressure":1004.3,"uv_index":9.25,"wind_gusts":56.9,"aqi":61,"pm10":13.3,"pm2_5":9.3,"no2":5.0,"co":238.0,"o3":70.0,"so2":3.5,"mosquito_risk":7,"arthritis_risk":5,"migraine_risk":4,"frizz_risk":1,"updated_at":"2026-05-02T03:25:13.625954+05:30"},{"city":"Kolkata","state":"West Bengal","latitude":22.5726,"longitude":88.3639,"temp":25.0,"humidity":89,"rain":0.0,"pressure":1001.9,"uv_index":8.9,"wind_gusts":46.1,"aqi":90,"pm10":47.8,"pm2_5":43.0,"no2":19.6,"co":245.0,"o3":51.0,"so2":9.0,"mosquito_risk":7,"arthritis_risk":5,"migraine_risk":4,"frizz_risk":1,"updated_at":"2026-05-02T03:25:13.625963+05:30"},{"city":"Pune","state":"Maharashtra","latitude":18.5204,"longitude":73.8567,"temp":22.5,"humidity":81,"rain":0.0,"pressure":945.7,"uv_index":8.5,"wind_gusts":47.5,"aqi":55,"pm10":35.3,"pm2_5":14.6,"no2":11.2,"co":200.0,"o3":47.0,"so2":10.0,"mosquito_risk":3,"arthritis_risk":5,"migraine_risk":7,"frizz_risk":1,"updated_at":"2026-05-02T03:25:13.625971+05:30"},{"city":"Ahmedabad","state":"Gujarat","latitude":23.0225,"longitude":72.5714,"temp":28.9,"humidity":74,"rain":0.0,"pressure":997.5,"uv_index":8.1,"wind_gusts":50.4,"aqi":54,"pm10":31.7,"pm2_5":13.2,"no2":4.3,"co":244.0,"o3":62.0,"so2":5.9,"mosquito_risk":7,"arthritis_risk":5,"migraine_risk":7,"frizz_risk":1,"updated_at":"2026-05-02T03:25:13.625981+05:30"},{"city":"Jaipur","state":"Rajasthan","latitude":26.9124,"longitude":75.7873,"temp":26.4,"humidity":47,"rain":0.0,"pressure":953.8,"uv_index":8.15,"wind_gusts":42.8,"aqi":150,"pm10":116.6,"pm2_5":33.5,"no2":17.7,"co":346.0,"o3":46.0,"so2":5.1,"mosquito_risk":4,"arthritis_risk":5,"migraine_risk":7,"frizz_risk":0,"updated_at":"2026-05-02T03:25:13.625989+05:30"},{"city":"Lucknow","state":"Uttar Pradesh","latitude":26.8467,"longitude":80.9462,"temp":23.7,"humidity":71,"rain":0.0,"pressure":989.2,"uv_index":8.1,"wind_gusts":30.6,"aqi":95,"pm10":49.1,"pm2_5":31.0,"no2":9.2,"co":340.0,"o3":93.0,"so2":8.8,"mosquito_risk":3,"arthritis_risk":5,"migraine_risk":7,"frizz_risk":1,"updated_at":"2026-05-02T03:25:13.625997+05:30"},{"city":"Kanpur","state":"Uttar Pradesh","latitude":26.4499,"longitude":80.3319,"temp":25.3,"humidity":65,"rain":0.0,"pressure":987.3,"uv_index":8.1,"wind_gusts":61.9,"aqi":126,"pm10":212.8,"pm2_5":48.0,"no2":8.2,"co":353.0,"o3":95.0,"so2":11.5,"mosquito_risk":7,"arthritis_risk":5,"migraine_risk":7,"frizz_risk":1,"updated_at":"2026-05-02T03:25:13.626004+05:30"},{"city":"Chandigarh","state":"Chandigarh","latitude":30.7333,"longitude":76.7794,"temp":22.4,"humidity":61,"rain":0.0,"pressure":962.9,"uv_index":7.6,"wind_gusts":43.2,"aqi":94,"pm10":45.4,"pm2_5":33.8,"no2":32.0,"co":385.0,"o3":31.0,"so2":8.5,"mosquito_risk":3,"arthritis_risk":5,"migraine_risk":7,"frizz_risk":0,"updated_at":"2026-05-02T03:25:13.626012+05:30"},{"city":"Srinagar","state":"Jammu and Kashmir","latitude":34.0837,"longitude":74.7973,"temp":8.2,"humidity":100,"rain":0.0,"pressure":835.8,"uv_index":8.8,"wind_gusts":29.9,"aqi":83,"pm10":47.8,"pm2_5":43.5,"no2":32.1,"co":584.0,"o3":10.0,"so2":2.1,"mosquito_risk":3,"arthritis_risk":10,"migraine_risk":7,"frizz_risk":0,"updated_at":"2026-05-02T03:25:13.626020+05:30"},{"city":"Jammu","state":"Jammu and Kashmir","latitude":32.7266,"longitude":74.857,"temp":19.7,"humidity":69,"rain":0.0,"pressure":966.0,"uv_index":8.4,"wind_gusts":31.3,"aqi":57,"pm10":18.5,"pm2_5":16.6,"no2":18.3,"co":280.0,"o3":49.0,"so2":2.7,"mosquito_risk":3,"arthritis_risk":5,"migraine_risk":7,"frizz_risk":0,"updated_at":"2026-05-02T03:25:13.626028+05:30"},{"city":"Amritsar","state":"Punjab","latitude":31.634,"longitude":74.8723,"temp":24.1,"humidity":56,"rain":0.0,"pressure":974.2,"uv_index":8.25,"wind_gusts":45.0,"aqi":126,"pm10":37.1,"pm2_5":26.4,"no2":6.9,"co":515.0,"o3":88.0,"so2":5.9,"mosquito_risk":0,"arthritis_risk":5,"migraine_risk":7,"frizz_risk":0,"updated_at":"2026-05-02T03:25:13.626038+05:30"},{"city":"Ludhiana","state":"Punjab","latitude":30.901,"longitude":75.8573,"temp":24.2,"humidity":59,"rain":0.0,"pressure":972.4,"uv_index":7.85,"wind_gusts":33.1,"aqi":155,"pm10":173.7,"pm2_5":62.4,"no2":18.3,"co":902.0,"o3":64.0,"so2":18.9,"mosquito_risk":0,"arthritis_risk":5,"migraine_risk":7,"frizz_risk":0,"updated_at":"2026-05-02T03:25:13.626045+05:30"},{"city":"Jalandhar","state":"Punjab","latitude":31.326,"longitude":75.5762,"temp":22.8,"humidity":62,"rain":0.0,"pressure":973.2,"uv_index":7.95,"wind_gusts":32.4,"aqi":154,"pm10":107.1,"pm2_5":60.1,"no2":24.9,"co":617.0,"o3":54.0,"so2":11.5,"mosquito_risk":3,"arthritis_risk":5,"migraine_risk":7,"frizz_risk":0,"updated_at":"2026-05-02T03:25:13.626052+05:30"},{"city":"Dehradun","state":"Uttarakhand","latitude":30.6284,"longitude":78.0322,"temp":9.9,"humidity":96,"rain":0.0,"pressure":822.6,"uv_index":8.0,"wind_gusts":46.1,"aqi":75,"pm10":27.0,"pm2_5":22.4,"no2":26.1,"co":282.0,"o3":28.0,"so2":0.2,"mosquito_risk":3,"arthritis_risk":10,"migraine_risk":7,"frizz_risk":0,"updated_at":"2026-05-02T03:25:13.626062+05:30"},{"city":"Shimla","state":"Himachal Pradesh","latitude":31.1048,"longitude":77.1734,"temp":8.5,"humidity":82,"rain":0.0,"pressure":776.4,"uv_index":8.1,"wind_gusts":49.3,"aqi":70,"pm10":32.9,"pm2_5":25.7,"no2":22.2,"co":275.0,"o3":59.0,"so2":4.3,"mosquito_risk":3,"arthritis_risk":10,"migraine_risk":7,"frizz_risk":0,"updated_at":"2026-05-02T03:25:13.626069+05:30"},{"city":"Manali","state":"Himachal Pradesh","latitude":32.2396,"longitude":77.1887,"temp":5.9,"humidity":71,"rain":0.0,"pressure":808.1,"uv_index":9.6,"wind_gusts":37.8,"aqi":46,"pm10":9.8,"pm2_5":9.0,"no2":37.8,"co":261.0,"o3":78.0,"so2":0.0,"mosquito_risk":3,"arthritis_risk":5,"migraine_risk":7,"frizz_risk":0,"updated_at":"2026-05-02T03:25:13.626076+05:30"},{"city":"Gurgaon","state":"Haryana","latitude":28.4595,"longitude":77.0266,"temp":25.2,"humidity":57,"rain":0.0,"pressure":975.4,"uv_index":7.7,"wind_gusts":30.6,"aqi":1363,"pm10":1013.3,"pm2_5":143.4,"no2":11.2,"co":468.0,"o3":104.0,"so2":15.1,"mosquito_risk":4,"arthritis_risk":5,"migraine_risk":7,"frizz_risk":1,"updated_at":"2026-05-02T03:25:13.626083+05:30"},{"city":"Noida","state":"Uttar Pradesh","latitude":28.5355,"longitude":77.391,"temp":23.7,"humidity":64,"rain":0.0,"pressure":978.7,"uv_index":7.65,"wind_gusts":35.3,"aqi":1363,"pm10":1013.3,"pm2_5":143.4,"no2":11.2,"co":445.0,"o3":104.0,"so2":15.1,"mosquito_risk":3,"arthritis_risk":5,"migraine_risk":7,"frizz_risk":1,"updated_at":"2026-05-02T03:25:13.626090+05:30"},{"city":"Ghaziabad","state":"Uttar Pradesh","latitude":28.6692,"longitude":77.4538,"temp":24.2,"humidity":62,"rain":0.0,"pressure":976.9,"uv_index":7.6,"wind_gusts":39.6,"aqi":173,"pm10":196.0,"pm2_5":49.5,"no2":8.6,"co":389.0,"o3":103.0,"so2":16.8,"mosquito_risk":3,"arthritis_risk":5,"migraine_risk":7,"frizz_risk":1,"updated_at":"2026-05-02T03:25:13.626097+05:30"},{"city":"Faridabad","state":"Haryana","latitude":28.4089,"longitude":77.3178,"temp":25.4,"humidity":58,"rain":0.0,"pressure":977.9,"uv_index":7.65,"wind_gusts":25.2,"aqi":1363,"pm10":1013.3,"pm2_5":143.4,"no2":11.2,"co":441.0,"o3":104.0,"so2":15.1,"mosquito_risk":4,"arthritis_risk":5,"migraine_risk":7,"frizz_risk":1,"updated_at":"2026-05-02T03:25:13.626104+05:30"},{"city":"Meerut","state":"Uttar Pradesh","latitude":28.9845,"longitude":77.7064,"temp":23.5,"humidity":69,"rain":0.0,"pressure":976.1,"uv_index":7.5,"wind_gusts":34.2,"aqi":173,"pm10":196.0,"pm2_5":49.5,"no2":8.6,"co":401.0,"o3":103.0,"so2":16.8,"mosquito_risk":3,"arthritis_risk":5,"migraine_risk":7,"frizz_risk":1,"updated_at":"2026-05-02T03:25:13.626110+05:30"},{"city":"Agra","state":"Uttar Pradesh","latitude":27.1767,"longitude":78.0081,"temp":26.4,"humidity":57,"rain":0.0,"pressure":982.5,"uv_index":7.95,"wind_gusts":38.2,"aqi":754,"pm10":1069.2,"pm2_5":136.4,"no2":6.5,"co":369.0,"o3":101.0,"so2":10.0,"mosquito_risk":4,"arthritis_risk":5,"migraine_risk":7,"frizz_risk":1,"updated_at":"2026-05-02T03:25:13.626117+05:30"},{"city":"Varanasi","state":"Uttar Pradesh","latitude":25.3176,"longitude":82.9739,"temp":23.5,"humidity":78,"rain":0.0,"pressure":993.9,"uv_index":8.6,"wind_gusts":29.2,"aqi":94,"pm10":55.3,"pm2_5":39.1,"no2":12.5,"co":444.0,"o3":99.0,"so2":12.5,"mosquito_risk":3,"arthritis_risk":5,"migraine_risk":7,"frizz_risk":1,"updated_at":"2026-05-02T03:25:13.626124+05:30"},{"city":"Prayagraj","state":"Uttar Pradesh","latitude":25.4358,"longitude":81.8463,"temp":24.5,"humidity":69,"rain":0.0,"pressure":991.7,"uv_index":8.5,"wind_gusts":28.8,"aqi":101,"pm10":55.3,"pm2_5":40.3,"no2":13.4,"co":441.0,"o3":92.0,"so2":12.4,"mosquito_risk":3,"arthritis_risk":5,"migraine_risk":7,"frizz_risk":1,"updated_at":"2026-05-02T03:25:13.626133+05:30"},{"city":"Gorakhpur","state":"Uttar Pradesh","latitude":26.7606,"longitude":83.3732,"temp":21.0,"humidity":97,"rain":0.0,"pressure":994.3,"uv_index":8.45,"wind_gusts":28.4,"aqi":77,"pm10":31.7,"pm2_5":21.5,"no2":8.4,"co":506.0,"o3":95.0,"so2":4.6,"mosquito_risk":3,"arthritis_risk":5,"migraine_risk":7,"frizz_risk":1,"updated_at":"2026-05-02T03:25:13.626139+05:30"},{"city":"Bareilly","state":"Uttar Pradesh","latitude":28.367,"longitude":79.4304,"temp":22.6,"humidity":76,"rain":0.0,"pressure":982.3,"uv_index":7.9,"wind_gusts":32.8,"aqi":107,"pm10":69.4,"pm2_5":33.3,"no2":6.0,"co":335.0,"o3":99.0,"so2":4.9,"mosquito_risk":3,"arthritis_risk":5,"migraine_risk":7,"frizz_risk":1,"updated_at":"2026-05-02T03:25:13.626145+05:30"},{"city":"Aligarh","state":"Uttar Pradesh","latitude":27.8974,"longitude":78.088,"temp":24.5,"humidity":62,"rain":0.0,"pressure":980.1,"uv_index":7.75,"wind_gusts":40.3,"aqi":661,"pm10":590.5,"pm2_5":92.7,"no2":7.7,"co":358.0,"o3":103.0,"so2":15.3,"mosquito_risk":3,"arthritis_risk":5,"migraine_risk":7,"frizz_risk":1,"updated_at":"2026-05-02T03:25:13.626151+05:30"},{"city":"Moradabad","state":"Uttar Pradesh","latitude":28.8386,"longitude":78.7733,"temp":23.0,"humidity":75,"rain":0.0,"pressure":979.0,"uv_index":7.7,"wind_gusts":39.6,"aqi":106,"pm10":79.6,"pm2_5":40.2,"no2":9.9,"co":319.0,"o3":97.0,"so2":8.0,"mosquito_risk":3,"arthritis_risk":5,"migraine_risk":7,"frizz_risk":1,"updated_at":"2026-05-02T03:25:13.626158+05:30"},{"city":"Saharanpur","state":"Uttar Pradesh","latitude":29.9637,"longitude":77.546,"temp":22.2,"humidity":77,"rain":0.0,"pressure":970.6,"uv_index":7.3,"wind_gusts":34.6,"aqi":124,"pm10":70.8,"pm2_5":44.6,"no2":14.1,"co":417.0,"o3":68.0,"so2":8.7,"mosquito_risk":3,"arthritis_risk":5,"migraine_risk":7,"frizz_risk":1,"updated_at":"2026-05-02T03:25:13.626163+05:30"},{"city":"Jhansi","state":"Uttar Pradesh","latitude":25.4484,"longitude":78.5685,"temp":25.0,"humidity":60,"rain":0.0,"pressure":972.4,"uv_index":8.4,"wind_gusts":41.0,"aqi":77,"pm10":65.9,"pm2_5":31.7,"no2":11.3,"co":286.0,"o3":49.0,"so2":8.5,"mosquito_risk":4,"arthritis_risk":5,"migraine_risk":7,"frizz_risk":1,"updated_at":"2026-05-02T03:25:16.964940+05:30"},{"city":"Surat","state":"Gujarat","latitude":21.1702,"longitude":72.8311,"temp":28.1,"humidity":83,"rain":0.0,"pressure":1003.2,"uv_index":7.7,"wind_gusts":54.0,"aqi":61,"pm10":29.6,"pm2_5":15.5,"no2":15.3,"co":244.0,"o3":57.0,"so2":26.6,"mosquito_risk":7,"arthritis_risk":5,"migraine_risk":4,"frizz_risk":1,"updated_at":"2026-05-02T03:25:16.964975+05:30"},{"city":"Vadodara","state":"Gujarat","latitude":22.3072,"longitude":73.1812,"temp":27.9,"humidity":84,"rain":0.0,"pressure":1000.1,"uv_index":8.05,"wind_gusts":49.7,"aqi":54,"pm10":18.7,"pm2_5":11.4,"no2":9.6,"co":203.0,"o3":54.0,"so2":12.4,"mosquito_risk":7,"arthritis_risk":5,"migraine_risk":4,"frizz_risk":1,"updated_at":"2026-05-02T03:25:16.964985+05:30"},{"city":"Rajkot","state":"Gujarat","latitude":22.3039,"longitude":70.8022,"temp":26.5,"humidity":84,"rain":0.0,"pressure":989.3,"uv_index":7.75,"wind_gusts":56.9,"aqi":49,"pm10":24.9,"pm2_5":11.1,"no2":3.2,"co":154.0,"o3":65.0,"so2":4.2,"mosquito_risk":7,"arthritis_risk":5,"migraine_risk":7,"frizz_risk":1,"updated_at":"2026-05-02T03:25:16.964994+05:30"},{"city":"Thane","state":"Maharashtra","latitude":19.2183,"longitude":72.9781,"temp":27.4,"humidity":82,"rain":0.0,"pressure":1005.5,"uv_index":7.95,"wind_gusts":38.9,"aqi":65,"pm10":54.7,"pm2_5":17.3,"no2":8.6,"co":255.0,"o3":63.0,"so2":15.7,"mosquito_risk":7,"arthritis_risk":5,"migraine_risk":4,"frizz_risk":1,"updated_at":"2026-05-02T03:25:16.965003+05:30"},{"city":"Nagpur","state":"Maharashtra","latitude":21.1458,"longitude":79.0882,"temp":30.2,"humidity":31,"rain":0.0,"pressure":968.2,"uv_index":8.9,"wind_gusts":41.8,"aqi":84,"pm10":38.4,"pm2_5":22.8,"no2":12.6,"co":240.0,"o3":66.0,"so2":11.5,"mosquito_risk":0,"arthritis_risk":5,"migraine_risk":7,"frizz_risk":0,"updated_at":"2026-05-02T03:25:16.965012+05:30"},{"city":"Nashik","state":"Maharashtra","latitude":19.9975,"longitude":73.7898,"temp":22.7,"humidity":90,"rain":0.0,"pressure":942.7,"uv_index":8.25,"wind_gusts":47.9,"aqi":60,"pm10":40.6,"pm2_5":17.6,"no2":11.8,"co":203.0,"o3":50.0,"so2":11.9,"mosquito_risk":3,"arthritis_risk":5,"migraine_risk":7,"frizz_risk":1,"updated_at":"2026-05-02T03:25:16.965020+05:30"},{"city":"Aurangabad","state":"Maharashtra","latitude":19.8762,"longitude":75.3433,"temp":25.1,"humidity":61,"rain":0.0,"pressure":941.6,"uv_index":9.05,"wind_gusts":44.3,"aqi":54,"pm10":30.4,"pm2_5":13.8,"no2":10.1,"co":182.0,"o3":58.0,"so2":11.9,"mosquito_risk":7,"arthritis_risk":5,"migraine_risk":7,"frizz_risk":1,"updated_at":"2026-05-02T03:25:16.965028+05:30"},{"city":"Solapur","state":"Maharashtra","latitude":17.6599,"longitude":75.9064,"temp":27.1,"humidity":48,"rain":0.0,"pressure":954.8,"uv_index":9.05,"wind_gusts":42.1,"aqi":51,"pm10":24.2,"pm2_5":11.2,"no2":5.9,"co":168.0,"o3":59.0,"so2":3.5,"mosquito_risk":4,"arthritis_risk":5,"migraine_risk":7,"frizz_risk":0,"updated_at":"2026-05-02T03:25:16.965036+05:30"},{"city":"Kolhapur","state":"Maharashtra","latitude":16.705,"longitude":74.2433,"temp":21.9,"humidity":82,"rain":0.0,"pressure":945.6,"uv_index":8.95,"wind_gusts":49.3,"aqi":60,"pm10":36.2,"pm2_5":17.3,"no2":10.6,"co":185.0,"o3":44.0,"so2":2.2,"mosquito_risk":3,"arthritis_risk":5,"migraine_risk":7,"frizz_risk":1,"updated_at":"2026-05-02T03:25:16.965043+05:30"},{"city":"Goa","state":"Goa","latitude":15.2993,"longitude":74.124,"temp":25.4,"humidity":95,"rain":0.0,"pressure":996.6,"uv_index":8.9,"wind_gusts":40.3,"aqi":65,"pm10":41.6,"pm2_5":26.0,"no2":12.0,"co":313.0,"o3":55.0,"so2":3.0,"mosquito_risk":7,"arthritis_risk":5,"migraine_risk":7,"frizz_risk":1,"updated_at":"2026-05-02T03:25:16.965051+05:30"},{"city":"Jodhpur","state":"Rajasthan","latitude":26.2389,"longitude":73.0243,"temp":30.5,"humidity":41,"rain":0.0,"pressure":975.7,"uv_index":8.35,"wind_gusts":40.7,"aqi":132,"pm10":166.2,"pm2_5":27.2,"no2":3.2,"co":180.0,"o3":78.0,"so2":3.6,"mosquito_risk":0,"arthritis_risk":5,"migraine_risk":7,"frizz_risk":0,"updated_at":"2026-05-02T03:25:16.965058+05:30"},{"city":"Udaipur","state":"Rajasthan","latitude":24.5854,"longitude":73.7125,"temp":26.4,"humidity":59,"rain":0.0,"pressure":941.3,"uv_index":8.8,"wind_gusts":40.7,"aqi":55,"pm10":24.4,"pm2_5":14.3,"no2":5.6,"co":187.0,"o3":67.0,"so2":7.3,"mosquito_risk":4,"arthritis_risk":5,"migraine_risk":7,"frizz_risk":1,"updated_at":"2026-05-02T03:25:16.965066+05:30"},{"city":"Kota","state":"Rajasthan","latitude":25.2138,"longitude":75.8648,"temp":30.6,"humidity":35,"rain":0.0,"pressure":972.2,"uv_index":8.35,"wind_gusts":40.3,"aqi":63,"pm10":26.1,"pm2_5":13.8,"no2":2.9,"co":198.0,"o3":99.0,"so2":6.6,"mosquito_risk":0,"arthritis_risk":5,"migraine_risk":7,"frizz_risk":0,"updated_at":"2026-05-02T03:25:16.965073+05:30"},{"city":"Bikaner","state":"Rajasthan","latitude":28.0229,"longitude":73.3119,"temp":28.9,"humidity":28,"rain":0.0,"pressure":974.1,"uv_index":8.3,"wind_gusts":34.6,"aqi":79,"pm10":60.3,"pm2_5":21.9,"no2":4.5,"co":231.0,"o3":67.0,"so2":3.9,"mosquito_risk":4,"arthritis_risk":5,"migraine_risk":7,"frizz_risk":0,"updated_at":"2026-05-02T03:25:16.965080+05:30"},{"city":"Ajmer","state":"Rajasthan","latitude":26.4499,"longitude":74.6399,"temp":29.4,"humidity":32,"rain":0.0,"pressure":948.4,"uv_index":8.3,"wind_gusts":47.2,"aqi":65,"pm10":75.2,"pm2_5":20.1,"no2":2.9,"co":179.0,"o3":78.0,"so2":3.4,"mosquito_risk":4,"arthritis_risk":5,"migraine_risk":7,"frizz_risk":0,"updated_at":"2026-05-02T03:25:16.965087+05:30"},{"city":"Gwalior","state":"Madhya Pradesh","latitude":26.2183,"longitude":78.1828,"temp":26.0,"humidity":53,"rain":0.0,"pressure":977.7,"uv_index":8.15,"wind_gusts":44.6,"aqi":83,"pm10":152.3,"pm2_5":44.7,"no2":7.1,"co":281.0,"o3":72.0,"so2":6.4,"mosquito_risk":4,"arthritis_risk":5,"migraine_risk":7,"frizz_risk":0,"updated_at":"2026-05-02T03:25:16.965094+05:30"},{"city":"Indore","state":"Madhya Pradesh","latitude":22.7196,"longitude":75.8577,"temp":26.5,"humidity":64,"rain":0.0,"pressure":944.0,"uv_index":7.95,"wind_gusts":49.3,"aqi":59,"pm10":19.0,"pm2_5":13.1,"no2":3.9,"co":179.0,"o3":89.0,"so2":10.6,"mosquito_risk":7,"arthritis_risk":5,"migraine_risk":7,"frizz_risk":1,"updated_at":"2026-05-02T03:25:16.965100+05:30"},{"city":"Bhopal","state":"Madhya Pradesh","latitude":23.2599,"longitude":77.4126,"temp":29.1,"humidity":36,"rain":0.0,"pressure":948.6,"uv_index":8.7,"wind_gusts":64.4,"aqi":75,"pm10":33.2,"pm2_5":19.2,"no2":4.2,"co":197.0,"o3":73.0,"so2":4.8,"mosquito_risk":4,"arthritis_risk":5,"migraine_risk":7,"frizz_risk":0,"updated_at":"2026-05-02T03:25:16.965107+05:30"},{"city":"Jabalpur","state":"Madhya Pradesh","latitude":23.1815,"longitude":79.9864,"temp":26.5,"humidity":41,"rain":0.0,"pressure":955.9,"uv_index":8.85,"wind_gusts":50.0,"aqi":80,"pm10":59.6,"pm2_5":23.5,"no2":9.1,"co":214.0,"o3":71.0,"so2":3.8,"mosquito_risk":4,"arthritis_risk":5,"migraine_risk":7,"frizz_risk":0,"updated_at":"2026-05-02T03:25:16.965114+05:30"},{"city":"Ujjain","state":"Madhya Pradesh","latitude":23.1765,"longitude":75.7885,"temp":26.6,"humidity":67,"rain":0.0,"pressure":949.5,"uv_index":8.55,"wind_gusts":47.5,"aqi":58,"pm10":17.8,"pm2_5":11.8,"no2":3.5,"co":177.0,"o3":82.0,"so2":10.1,"mosquito_risk":7,"arthritis_risk":5,"migraine_risk":7,"frizz_risk":1,"updated_at":"2026-05-02T03:25:16.965121+05:30"},{"city":"Visakhapatnam","state":"Andhra Pradesh","latitude":17.6868,"longitude":83.2185,"temp":26.1,"humidity":89,"rain":0.0,"pressure":1001.0,"uv_index":9.1,"wind_gusts":51.8,"aqi":56,"pm10":21.8,"pm2_5":16.9,"no2":18.3,"co":271.0,"o3":55.0,"so2":3.6,"mosquito_risk":7,"arthritis_risk":5,"migraine_risk":4,"frizz_risk":1,"updated_at":"2026-05-02T03:25:16.965128+05:30"},{"city":"Vijayawada","state":"Andhra Pradesh","latitude":16.5062,"longitude":80.648,"temp":27.9,"humidity":90,"rain":0.0,"pressure":998.9,"uv_index":9.2,"wind_gusts":36.7,"aqi":98,"pm10":24.4,"pm2_5":20.8,"no2":4.6,"co":204.0,"o3":119.0,"so2":7.5,"mosquito_risk":7,"arthritis_risk":5,"migraine_risk":7,"frizz_risk":1,"updated_at":"2026-05-02T03:25:16.965134+05:30"},{"city":"Guntur","state":"Andhra Pradesh","latitude":16.3067,"longitude":80.4365,"temp":28.9,"humidity":87,"rain":0.0,"pressure":1000.0,"uv_index":9.2,"wind_gusts":40.0,"aqi":99,"pm10":27.2,"pm2_5":24.2,"no2":5.2,"co":211.0,"o3":132.0,"so2":9.7,"mosquito_risk":7,"arthritis_risk":5,"migraine_risk":4,"frizz_risk":1,"updated_at":"2026-05-02T03:25:16.965141+05:30"},{"city":"Nellore","state":"Andhra Pradesh","latitude":14.4426,"longitude":79.9865,"temp":30.0,"humidity":68,"rain":0.0,"pressure":1001.8,"uv_index":9.2,"wind_gusts":49.0,"aqi":114,"pm10":28.3,"pm2_5":26.4,"no2":8.1,"co":253.0,"o3":110.0,"so2":14.4,"mosquito_risk":7,"arthritis_risk":5,"migraine_risk":4,"frizz_risk":1,"updated_at":"2026-05-02T03:25:16.965148+05:30"},{"city":"Kurnool","state":"Andhra Pradesh","latitude":15.8281,"longitude":78.0373,"temp":29.7,"humidity":44,"rain":0.0,"pressure":974.0,"uv_index":9.2,"wind_gusts":32.0,"aqi":65,"pm10":17.1,"pm2_5":12.6,"no2":10.2,"co":200.0,"o3":59.0,"so2":3.2,"mosquito_risk":4,"arthritis_risk":5,"migraine_risk":7,"frizz_risk":1,"updated_at":"2026-05-02T03:25:16.965155+05:30"},{"city":"Kakinada","state":"Andhra Pradesh","latitude":16.9891,"longitude":82.2475,"temp":27.9,"humidity":97,"rain":0.0,"pressure":1004.6,"uv_index":9.15,"wind_gusts":45.0,"aqi":51,"pm10":17.9,"pm2_5":12.1,"no2":2.4,"co":223.0,"o3":70.0,"so2":1.5,"mosquito_risk":7,"arthritis_risk":5,"migraine_risk":4,"frizz_risk":1,"updated_at":"2026-05-02T03:25:16.965162+05:30"},{"city":"Tirupati","state":"Andhra Pradesh","latitude":13.6288,"longitude":79.4192,"temp":28.9,"humidity":63,"rain":0.0,"pressure":988.5,"uv_index":9.25,"wind_gusts":47.9,"aqi":102,"pm10":33.4,"pm2_5":31.1,"no2":12.5,"co":357.0,"o3":91.0,"so2":24.9,"mosquito_risk":7,"arthritis_risk":5,"migraine_risk":7,"frizz_risk":1,"updated_at":"2026-05-02T03:25:16.965169+05:30"},{"city":"Warangal","state":"Telangana","latitude":17.9689,"longitude":79.5941,"temp":26.9,"humidity":66,"rain":0.0,"pressure":974.7,"uv_index":9.15,"wind_gusts":40.0,"aqi":88,"pm10":55.6,"pm2_5":41.7,"no2":28.5,"co":380.0,"o3":37.0,"so2":6.4,"mosquito_risk":7,"arthritis_risk":5,"migraine_risk":7,"frizz_risk":1,"updated_at":"2026-05-02T03:25:16.965175+05:30"},{"city":"Nizamabad","state":"Telangana","latitude":18.6725,"longitude":78.0941,"temp":29.3,"humidity":31,"rain":0.0,"pressure":961.1,"uv_index":9.1,"wind_gusts":32.0,"aqi":71,"pm10":32.8,"pm2_5":21.8,"no2":13.4,"co":255.0,"o3":64.0,"so2":5.4,"mosquito_risk":4,"arthritis_risk":5,"migraine_risk":7,"frizz_risk":0,"updated_at":"2026-05-02T03:25:16.965182+05:30"},{"city":"Mysore","state":"Karnataka","latitude":12.2958,"longitude":76.6396,"temp":22.2,"humidity":91,"rain":0.0,"pressure":926.4,"uv_index":9.4,"wind_gusts":43.9,"aqi":79,"pm10":25.5,"pm2_5":23.1,"no2":13.5,"co":254.0,"o3":66.0,"so2":2.5,"mosquito_risk":3,"arthritis_risk":5,"migraine_risk":7,"frizz_risk":1,"updated_at":"2026-05-02T03:25:16.965188+05:30"},{"city":"Mangalore","state":"Karnataka","latitude":12.9141,"longitude":74.856,"temp":27.9,"humidity":86,"rain":0.0,"pressure":1005.1,"uv_index":9.05,"wind_gusts":43.2,"aqi":65,"pm10":25.3,"pm2_5":16.1,"no2":5.4,"co":381.0,"o3":56.0,"so2":1.9,"mosquito_risk":7,"arthritis_risk":5,"migraine_risk":4,"frizz_risk":1,"updated_at":"2026-05-02T03:25:16.965195+05:30"},{"city":"Hubli-Dharwad","state":"Karnataka","latitude":15.3647,"longitude":75.124,"temp":21.6,"humidity":99,"rain":0.0,"pressure":938.9,"uv_index":9.2,"wind_gusts":48.6,"aqi":56,"pm10":22.2,"pm2_5":15.5,"no2":6.8,"co":192.0,"o3":56.0,"so2":1.8,"mosquito_risk":3,"arthritis_risk":5,"migraine_risk":7,"frizz_risk":1,"updated_at":"2026-05-02T03:25:16.965201+05:30"},{"city":"Belgaum","state":"Karnataka","latitude":15.8497,"longitude":74.4977,"temp":20.5,"humidity":93,"rain":0.0,"pressure":922.9,"uv_index":9.2,"wind_gusts":44.6,"aqi":56,"pm10":34.9,"pm2_5":18.0,"no2":9.9,"co":165.0,"o3":51.0,"so2":0.8,"mosquito_risk":3,"arthritis_risk":5,"migraine_risk":7,"frizz_risk":1,"updated_at":"2026-05-02T03:25:20.314778+05:30"},{"city":"Coimbatore","state":"Tamil Nadu","latitude":11.0168,"longitude":76.9558,"temp":25.8,"humidity":85,"rain":0.0,"pressure":959.8,"uv_index":9.0,"wind_gusts":53.3,"aqi":71,"pm10":27.8,"pm2_5":23.7,"no2":7.1,"co":259.0,"o3":67.0,"so2":3.6,"mosquito_risk":7,"arthritis_risk":5,"migraine_risk":7,"frizz_risk":1,"updated_at":"2026-05-02T03:25:20.314814+05:30"},{"city":"Madurai","state":"Tamil Nadu","latitude":9.9252,"longitude":78.1198,"temp":29.0,"humidity":80,"rain":0.0,"pressure":990.8,"uv_index":8.95,"wind_gusts":52.2,"aqi":74,"pm10":32.5,"pm2_5":30.2,"no2":35.3,"co":386.0,"o3":22.0,"so2":7.2,"mosquito_risk":7,"arthritis_risk":5,"migraine_risk":7,"frizz_risk":1,"updated_at":"2026-05-02T03:25:20.314826+05:30"},{"city":"Trichy","state":"Tamil Nadu","latitude":10.7905,"longitude":78.7047,"temp":29.0,"humidity":77,"rain":0.0,"pressure":997.5,"uv_index":9.1,"wind_gusts":45.7,"aqi":70,"pm10":9.6,"pm2_5":9.3,"no2":8.8,"co":322.0,"o3":72.0,"so2":5.1,"mosquito_risk":7,"arthritis_risk":5,"migraine_risk":7,"frizz_risk":1,"updated_at":"2026-05-02T03:25:20.314834+05:30"},{"city":"Salem","state":"Tamil Nadu","latitude":11.6643,"longitude":78.146,"temp":28.5,"humidity":62,"rain":0.0,"pressure":975.4,"uv_index":9.3,"wind_gusts":58.3,"aqi":110,"pm10":38.3,"pm2_5":33.9,"no2":20.8,"co":382.0,"o3":62.0,"so2":8.3,"mosquito_risk":7,"arthritis_risk":5,"migraine_risk":7,"frizz_risk":1,"updated_at":"2026-05-02T03:25:20.314842+05:30"},{"city":"Tirunelveli","state":"Tamil Nadu","latitude":8.7139,"longitude":77.7567,"temp":28.4,"humidity":70,"rain":0.0,"pressure":1000.8,"uv_index":8.95,"wind_gusts":36.4,"aqi":51,"pm10":21.4,"pm2_5":20.4,"no2":11.0,"co":373.0,"o3":44.0,"so2":2.5,"mosquito_risk":7,"arthritis_risk":5,"migraine_risk":4,"frizz_risk":1,"updated_at":"2026-05-02T03:25:20.314850+05:30"},{"city":"Vellore","state":"Tamil Nadu","latitude":12.9165,"longitude":79.1325,"temp":28.4,"humidity":67,"rain":0.0,"pressure":982.0,"uv_index":9.3,"wind_gusts":39.2,"aqi":112,"pm10":35.9,"pm2_5":33.5,"no2":15.0,"co":316.0,"o3":67.0,"so2":19.6,"mosquito_risk":7,"arthritis_risk":5,"migraine_risk":7,"frizz_risk":1,"updated_at":"2026-05-02T03:25:20.314858+05:30"},{"city":"Erode","state":"Tamil Nadu","latitude":11.341,"longitude":77.7172,"temp":27.9,"humidity":74,"rain":0.0,"pressure":987.0,"uv_index":9.25,"wind_gusts":51.8,"aqi":85,"pm10":30.4,"pm2_5":27.3,"no2":18.3,"co":297.0,"o3":50.0,"so2":3.7,"mosquito_risk":7,"arthritis_risk":5,"migraine_risk":7,"frizz_risk":1,"updated_at":"2026-05-02T03:25:20.314865+05:30"},{"city":"Kochi","state":"Kerala","latitude":9.9312,"longitude":76.2673,"temp":26.7,"humidity":92,"rain":0.0,"pressure":1007.3,"uv_index":8.8,"wind_gusts":31.7,"aqi":71,"pm10":39.2,"pm2_5":37.5,"no2":39.0,"co":415.0,"o3":13.0,"so2":5.8,"mosquito_risk":7,"arthritis_risk":5,"migraine_risk":4,"frizz_risk":1,"updated_at":"2026-05-02T03:25:20.314873+05:30"},{"city":"Thiruvananthapuram","state":"Kerala","latitude":8.5241,"longitude":76.9366,"temp":25.9,"humidity":96,"rain":0.0,"pressure":1006.5,"uv_index":7.35,"wind_gusts":35.3,"aqi":42,"pm10":21.7,"pm2_5":14.8,"no2":4.6,"co":407.0,"o3":81.0,"so2":2.1,"mosquito_risk":7,"arthritis_risk":5,"migraine_risk":4,"frizz_risk":1,"updated_at":"2026-05-02T03:25:20.314879+05:30"},{"city":"Kozhikode","state":"Kerala","latitude":11.2588,"longitude":75.7804,"temp":25.8,"humidity":95,"rain":0.0,"pressure":1006.4,"uv_index":8.35,"wind_gusts":44.6,"aqi":62,"pm10":27.8,"pm2_5":17.2,"no2":3.6,"co":823.0,"o3":78.0,"so2":1.4,"mosquito_risk":7,"arthritis_risk":5,"migraine_risk":4,"frizz_risk":1,"updated_at":"2026-05-02T03:25:20.314887+05:30"},{"city":"Thrissur","state":"Kerala","latitude":10.5276,"longitude":76.2144,"temp":26.0,"humidity":97,"rain":0.0,"pressure":1005.7,"uv_index":8.15,"wind_gusts":35.3,"aqi":73,"pm10":40.0,"pm2_5":33.1,"no2":19.6,"co":373.0,"o3":38.0,"so2":4.1,"mosquito_risk":7,"arthritis_risk":5,"migraine_risk":4,"frizz_risk":1,"updated_at":"2026-05-02T03:25:20.314895+05:30"},{"city":"Kannur","state":"Kerala","latitude":11.8745,"longitude":75.3704,"temp":27.8,"humidity":87,"rain":0.0,"pressure":1005.2,"uv_index":9.05,"wind_gusts":48.6,"aqi":68,"pm10":26.4,"pm2_5":20.1,"no2":16.3,"co":804.0,"o3":40.0,"so2":2.4,"mosquito_risk":7,"arthritis_risk":5,"migraine_risk":4,"frizz_risk":1,"updated_at":"2026-05-02T03:25:20.314902+05:30"},{"city":"Patna","state":"Bihar","latitude":25.5941,"longitude":85.1376,"temp":21.0,"humidity":94,"rain":0.0,"pressure":997.5,"uv_index":8.7,"wind_gusts":26.6,"aqi":95,"pm10":36.4,"pm2_5":32.4,"no2":12.4,"co":391.0,"o3":83.0,"so2":9.4,"mosquito_risk":3,"arthritis_risk":5,"migraine_risk":7,"frizz_risk":1,"updated_at":"2026-05-02T03:25:20.314908+05:30"},{"city":"Gaya","state":"Bihar","latitude":24.7914,"longitude":85.0002,"temp":21.7,"humidity":89,"rain":0.0,"pressure":990.3,"uv_index":8.8,"wind_gusts":27.7,"aqi":96,"pm10":40.0,"pm2_5":30.0,"no2":9.4,"co":366.0,"o3":104.0,"so2":8.6,"mosquito_risk":3,"arthritis_risk":5,"migraine_risk":7,"frizz_risk":1,"updated_at":"2026-05-02T03:25:20.314915+05:30"},{"city":"Muzaffarpur","state":"Bihar","latitude":26.1209,"longitude":85.3647,"temp":20.0,"humidity":97,"rain":0.0,"pressure":997.7,"uv_index":8.7,"wind_gusts":28.1,"aqi":85,"pm10":39.9,"pm2_5":35.5,"no2":12.9,"co":416.0,"o3":76.0,"so2":8.6,"mosquito_risk":3,"arthritis_risk":5,"migraine_risk":7,"frizz_risk":1,"updated_at":"2026-05-02T03:25:20.314921+05:30"},{"city":"Bhagalpur","state":"Bihar","latitude":25.2425,"longitude":87.0117,"temp":21.0,"humidity":92,"rain":0.0,"pressure":998.3,"uv_index":8.65,"wind_gusts":30.2,"aqi":87,"pm10":54.4,"pm2_5":46.1,"no2":16.2,"co":271.0,"o3":72.0,"so2":9.8,"mosquito_risk":3,"arthritis_risk":5,"migraine_risk":7,"frizz_risk":1,"updated_at":"2026-05-02T03:25:20.314927+05:30"},{"city":"Ranchi","state":"Jharkhand","latitude":23.3441,"longitude":85.3096,"temp":20.6,"humidity":68,"rain":0.0,"pressure":932.6,"uv_index":9.2,"wind_gusts":44.3,"aqi":95,"pm10":85.4,"pm2_5":33.4,"no2":10.6,"co":294.0,"o3":110.0,"so2":5.5,"mosquito_risk":3,"arthritis_risk":5,"migraine_risk":7,"frizz_risk":0,"updated_at":"2026-05-02T03:25:20.314934+05:30"},{"city":"Jamshedpur","state":"Jharkhand","latitude":22.8046,"longitude":86.2029,"temp":22.6,"humidity":90,"rain":0.0,"pressure":986.5,"uv_index":9.05,"wind_gusts":61.6,"aqi":118,"pm10":98.5,"pm2_5":62.2,"no2":31.2,"co":591.0,"o3":55.0,"so2":21.0,"mosquito_risk":3,"arthritis_risk":5,"migraine_risk":7,"frizz_risk":1,"updated_at":"2026-05-02T03:25:20.314941+05:30"},{"city":"Dhanbad","state":"Jharkhand","latitude":23.7957,"longitude":86.4304,"temp":21.8,"humidity":88,"rain":0.0,"pressure":975.7,"uv_index":9.0,"wind_gusts":29.9,"aqi":154,"pm10":104.3,"pm2_5":82.9,"no2":60.1,"co":634.0,"o3":42.0,"so2":65.7,"mosquito_risk":3,"arthritis_risk":5,"migraine_risk":7,"frizz_risk":1,"updated_at":"2026-05-02T03:25:20.314947+05:30"},{"city":"Bokaro","state":"Jharkhand","latitude":23.6693,"longitude":86.1511,"temp":21.0,"humidity":99,"rain":0.0,"pressure":979.5,"uv_index":8.8,"wind_gusts":36.4,"aqi":150,"pm10":125.7,"pm2_5":87.3,"no2":70.0,"co":3544.0,"o3":19.0,"so2":57.9,"mosquito_risk":3,"arthritis_risk":5,"migraine_risk":7,"frizz_risk":1,"updated_at":"2026-05-02T03:25:20.314954+05:30"},{"city":"Bhubaneswar","state":"Odisha","latitude":20.2961,"longitude":85.8245,"temp":24.8,"humidity":96,"rain":0.0,"pressure":998.9,"uv_index":9.1,"wind_gusts":46.1,"aqi":66,"pm10":23.2,"pm2_5":20.5,"no2":9.0,"co":207.0,"o3":63.0,"so2":5.0,"mosquito_risk":3,"arthritis_risk":5,"migraine_risk":7,"frizz_risk":1,"updated_at":"2026-05-02T03:25:20.314960+05:30"},{"city":"Cuttack","state":"Odisha","latitude":20.4625,"longitude":85.8828,"temp":25.2,"humidity":95,"rain":0.0,"pressure":1000.7,"uv_index":9.15,"wind_gusts":51.8,"aqi":66,"pm10":23.2,"pm2_5":20.5,"no2":9.0,"co":217.0,"o3":63.0,"so2":5.0,"mosquito_risk":7,"arthritis_risk":5,"migraine_risk":4,"frizz_risk":1,"updated_at":"2026-05-02T03:25:20.314966+05:30"},{"city":"Rourkela","state":"Odisha","latitude":22.2604,"longitude":84.8536,"temp":22.4,"humidity":75,"rain":0.0,"pressure":980.6,"uv_index":8.6,"wind_gusts":47.5,"aqi":126,"pm10":117.3,"pm2_5":69.2,"no2":36.7,"co":288.0,"o3":48.0,"so2":28.7,"mosquito_risk":3,"arthritis_risk":5,"migraine_risk":7,"frizz_risk":1,"updated_at":"2026-05-02T03:25:20.314972+05:30"},{"city":"Raipur","state":"Chhattisgarh","latitude":21.2514,"longitude":81.6296,"temp":28.0,"humidity":38,"rain":0.0,"pressure":969.4,"uv_index":9.0,"wind_gusts":50.0,"aqi":109,"pm10":143.9,"pm2_5":66.1,"no2":50.3,"co":470.0,"o3":52.0,"so2":11.5,"mosquito_risk":4,"arthritis_risk":5,"migraine_risk":7,"frizz_risk":0,"updated_at":"2026-05-02T03:25:20.314978+05:30"},{"city":"Bhilai","state":"Chhattisgarh","latitude":21.1938,"longitude":81.3509,"temp":28.0,"humidity":42,"rain":0.0,"pressure":969.7,"uv_index":9.0,"wind_gusts":48.2,"aqi":110,"pm10":143.0,"pm2_5":65.9,"no2":44.0,"co":508.0,"o3":54.0,"so2":10.6,"mosquito_risk":4,"arthritis_risk":5,"migraine_risk":7,"frizz_risk":0,"updated_at":"2026-05-02T03:25:20.314986+05:30"},{"city":"Guwahati","state":"Assam","latitude":26.1158,"longitude":91.7086,"temp":19.8,"humidity":98,"rain":0.0,"pressure":1000.1,"uv_index":7.0,"wind_gusts":18.0,"aqi":73,"pm10":12.3,"pm2_5":10.9,"no2":5.5,"co":421.0,"o3":76.0,"so2":1.1,"mosquito_risk":3,"arthritis_risk":10,"migraine_risk":4,"frizz_risk":1,"updated_at":"2026-05-02T03:25:20.314993+05:30"},{"city":"Agartala","state":"Tripura","latitude":23.8315,"longitude":91.2868,"temp":21.7,"humidity":96,"rain":0.0,"pressure":1004.1,"uv_index":8.55,"wind_gusts":36.7,"aqi":77,"pm10":10.9,"pm2_5":10.7,"no2":15.2,"co":187.0,"o3":28.0,"so2":2.5,"mosquito_risk":3,"arthritis_risk":5,"migraine_risk":4,"frizz_risk":1,"updated_at":"2026-05-02T03:25:20.314999+05:30"},{"city":"Shillong","state":"Meghalaya","latitude":25.5788,"longitude":91.8933,"temp":12.8,"humidity":96,"rain":0.0,"pressure":851.5,"uv_index":6.8,"wind_gusts":34.9,"aqi":56,"pm10":19.2,"pm2_5":18.8,"no2":7.4,"co":257.0,"o3":59.0,"so2":1.5,"mosquito_risk":3,"arthritis_risk":10,"migraine_risk":7,"frizz_risk":0,"updated_at":"2026-05-02T03:25:20.315006+05:30"},{"city":"Imphal","state":"Manipur","latitude":24.817,"longitude":93.9368,"temp":16.5,"humidity":100,"rain":0.1,"pressure":920.6,"uv_index":6.3,"wind_gusts":33.1,"aqi":72,"pm10":31.0,"pm2_5":30.4,"no2":19.0,"co":365.0,"o3":19.0,"so2":0.8,"mosquito_risk":6,"arthritis_risk":10,"migraine_risk":7,"frizz_risk":1,"updated_at":"2026-05-02T03:25:20.315012+05:30"},{"city":"Aizawl","state":"Mizoram","latitude":23.7271,"longitude":92.7176,"temp":14.7,"humidity":97,"rain":0.0,"pressure":889.2,"uv_index":8.95,"wind_gusts":38.9,"aqi":41,"pm10":5.0,"pm2_5":3.9,"no2":3.0,"co":187.0,"o3":52.0,"so2":0.4,"mosquito_risk":3,"arthritis_risk":10,"migraine_risk":7,"frizz_risk":0,"updated_at":"2026-05-02T03:25:20.315019+05:30"},{"city":"Kohima","state":"Nagaland","latitude":25.6701,"longitude":94.1077,"temp":14.4,"humidity":97,"rain":0.1,"pressure":851.2,"uv_index":6.65,"wind_gusts":29.5,"aqi":53,"pm10":12.9,"pm2_5":11.4,"no2":6.2,"co":265.0,"o3":53.0,"so2":0.6,"mosquito_risk":6,"arthritis_risk":10,"migraine_risk":7,"frizz_risk":0,"updated_at":"2026-05-02T03:25:20.315025+05:30"},{"city":"Gangtok","state":"Sikkim","latitude":27.3314,"longitude":88.6138,"temp":11.3,"humidity":94,"rain":0.0,"pressure":832.1,"uv_index":3.9,"wind_gusts":31.0,"aqi":55,"pm10":17.9,"pm2_5":11.7,"no2":6.2,"co":466.0,"o3":107.0,"so2":0.6,"mosquito_risk":3,"arthritis_risk":10,"migraine_risk":3,"frizz_risk":0,"updated_at":"2026-05-02T03:25:20.315098+05:30"},{"city":"Siliguri","state":"West Bengal","latitude":26.7271,"longitude":88.3953,"temp":19.6,"humidity":98,"rain":0.5,"pressure":991.1,"uv_index":6.05,"wind_gusts":24.1,"aqi":70,"pm10":37.4,"pm2_5":29.0,"no2":11.3,"co":317.0,"o3":94.0,"so2":3.7,"mosquito_risk":6,"arthritis_risk":10,"migraine_risk":7,"frizz_risk":1,"updated_at":"2026-05-02T03:25:23.648763+05:30"},{"city":"Durgapur","state":"West Bengal","latitude":23.5204,"longitude":87.3119,"temp":23.0,"humidity":92,"rain":0.0,"pressure":991.2,"uv_index":8.9,"wind_gusts":31.0,"aqi":152,"pm10":77.1,"pm2_5":64.3,"no2":27.7,"co":499.0,"o3":78.0,"so2":37.1,"mosquito_risk":3,"arthritis_risk":5,"migraine_risk":7,"frizz_risk":1,"updated_at":"2026-05-02T03:25:23.648800+05:30"},{"city":"Asansol","state":"West Bengal","latitude":23.6739,"longitude":86.9524,"temp":22.0,"humidity":94,"rain":0.0,"pressure":989.9,"uv_index":8.95,"wind_gusts":29.5,"aqi":150,"pm10":80.1,"pm2_5":67.5,"no2":30.1,"co":772.0,"o3":75.0,"so2":52.9,"mosquito_risk":3,"arthritis_risk":5,"migraine_risk":7,"frizz_risk":1,"updated_at":"2026-05-02T03:25:23.648811+05:30"},{"city":"Pondicherry","state":"Puducherry","latitude":11.9139,"longitude":79.8145,"temp":28.7,"humidity":85,"rain":0.0,"pressure":1005.8,"uv_index":9.15,"wind_gusts":53.3,"aqi":56,"pm10":7.9,"pm2_5":6.3,"no2":7.4,"co":282.0,"o3":60.0,"so2":4.7,"mosquito_risk":7,"arthritis_risk":5,"migraine_risk":4,"frizz_risk":1,"updated_at":"2026-05-02T03:25:23.648821+05:30"},{"city":"Port Blair","state":"Andaman and Nicobar Islands","latitude":11.6234,"longitude":92.7265,"temp":24.5,"humidity":92,"rain":0.0,"pressure":1005.7,"uv_index":9.0,"wind_gusts":31.3,"aqi":27,"pm10":6.6,"pm2_5":4.5,"no2":0.3,"co":205.0,"o3":60.0,"so2":0.8,"mosquito_risk":3,"arthritis_risk":5,"migraine_risk":4,"frizz_risk":1,"updated_at":"2026-05-02T03:25:23.648829+05:30"},{"city":"Haridwar","state":"Uttarakhand","latitude":29.9457,"longitude":78.1642,"temp":19.6,"humidity":84,"rain":0.0,"pressure":968.9,"uv_index":7.4,"wind_gusts":30.6,"aqi":110,"pm10":67.3,"pm2_5":43.1,"no2":13.0,"co":277.0,"o3":64.0,"so2":5.1,"mosquito_risk":3,"arthritis_risk":10,"migraine_risk":7,"frizz_risk":1,"updated_at":"2026-05-02T03:25:23.648837+05:30"},{"city":"Rishikesh","state":"Uttarakhand","latitude":30.0869,"longitude":78.2676,"temp":18.0,"humidity":91,"rain":0.0,"pressure":961.4,"uv_index":7.5,"wind_gusts":24.8,"aqi":100,"pm10":65.0,"pm2_5":37.0,"no2":7.9,"co":298.0,"o3":80.0,"so2":2.4,"mosquito_risk":3,"arthritis_risk":10,"migraine_risk":7,"frizz_risk":1,"updated_at":"2026-05-02T03:25:23.648845+05:30"},{"city":"Nainital","state":"Uttarakhand","latitude":29.3919,"longitude":79.4542,"temp":10.8,"humidity":95,"rain":0.0,"pressure":799.1,"uv_index":7.85,"wind_gusts":42.1,"aqi":92,"pm10":73.6,"pm2_5":32.0,"no2":13.0,"co":276.0,"o3":75.0,"so2":4.4,"mosquito_risk":3,"arthritis_risk":10,"migraine_risk":7,"frizz_risk":0,"updated_at":"2026-05-02T03:25:23.648853+05:30"},{"city":"Mussoorie","state":"Uttarakhand","latitude":30.4599,"longitude":78.0664,"temp":11.7,"humidity":84,"rain":0.0,"pressure":796.8,"uv_index":7.9,"wind_gusts":52.9,"aqi":110,"pm10":71.2,"pm2_5":46.4,"no2":27.7,"co":280.0,"o3":40.0,"so2":6.1,"mosquito_risk":3,"arthritis_risk":10,"migraine_risk":7,"frizz_risk":0,"updated_at":"2026-05-02T03:25:23.648860+05:30"},{"city":"Dharamshala","state":"Himachal Pradesh","latitude":32.219,"longitude":76.3234,"temp":19.5,"humidity":52,"rain":0.0,"pressure":863.8,"uv_index":8.25,"wind_gusts":48.2,"aqi":39,"pm10":7.3,"pm2_5":6.5,"no2":9.5,"co":231.0,"o3":49.0,"so2":0.2,"mosquito_risk":0,"arthritis_risk":5,"migraine_risk":7,"frizz_risk":0,"updated_at":"2026-05-02T03:25:23.648867+05:30"},{"city":"Dalhousie","state":"Himachal Pradesh","latitude":32.5387,"longitude":75.971,"temp":7.8,"humidity":87,"rain":0.0,"pressure":795.2,"uv_index":8.5,"wind_gusts":42.5,"aqi":61,"pm10":19.2,"pm2_5":17.6,"no2":30.8,"co":343.0,"o3":30.0,"so2":1.3,"mosquito_risk":3,"arthritis_risk":10,"migraine_risk":7,"frizz_risk":0,"updated_at":"2026-05-02T03:25:23.648875+05:30"},{"city":"Patiala","state":"Punjab","latitude":30.3398,"longitude":76.3869,"temp":23.9,"humidity":67,"rain":0.0,"pressure":972.3,"uv_index":7.5,"wind_gusts":35.6,"aqi":448,"pm10":329.7,"pm2_5":65.0,"no2":10.6,"co":475.0,"o3":90.0,"so2":17.6,"mosquito_risk":3,"arthritis_risk":5,"migraine_risk":7,"frizz_risk":1,"updated_at":"2026-05-02T03:25:23.648882+05:30"},{"city":"Bhatinda","state":"Punjab","latitude":30.211,"longitude":74.9455,"temp":25.8,"humidity":43,"rain":0.0,"pressure":977.0,"uv_index":8.15,"wind_gusts":43.6,"aqi":194,"pm10":71.9,"pm2_5":37.4,"no2":15.6,"co":342.0,"o3":64.0,"so2":7.5,"mosquito_risk":4,"arthritis_risk":5,"migraine_risk":7,"frizz_risk":0,"updated_at":"2026-05-02T03:25:23.648889+05:30"},{"city":"Rohtak","state":"Haryana","latitude":28.8955,"longitude":76.6066,"temp":25.1,"humidity":58,"rain":0.0,"pressure":975.6,"uv_index":7.65,"wind_gusts":28.1,"aqi":544,"pm10":607.2,"pm2_5":109.0,"no2":17.2,"co":620.0,"o3":91.0,"so2":22.4,"mosquito_risk":4,"arthritis_risk":5,"migraine_risk":7,"frizz_risk":1,"updated_at":"2026-05-02T03:25:23.648897+05:30"},{"city":"Panipat","state":"Haryana","latitude":29.3909,"longitude":76.9635,"temp":23.3,"humidity":68,"rain":0.0,"pressure":974.7,"uv_index":7.45,"wind_gusts":29.2,"aqi":893,"pm10":436.8,"pm2_5":81.7,"no2":14.9,"co":394.0,"o3":81.0,"so2":15.8,"mosquito_risk":3,"arthritis_risk":5,"migraine_risk":7,"frizz_risk":1,"updated_at":"2026-05-02T03:25:23.648903+05:30"},{"city":"Mathura","state":"Uttar Pradesh","latitude":27.4924,"longitude":77.6737,"temp":25.6,"humidity":59,"rain":0.0,"pressure":981.3,"uv_index":7.9,"wind_gusts":29.2,"aqi":727,"pm10":964.9,"pm2_5":129.9,"no2":6.4,"co":356.0,"o3":102.0,"so2":10.2,"mosquito_risk":4,"arthritis_risk":5,"migraine_risk":7,"frizz_risk":1,"updated_at":"2026-05-02T03:25:23.648911+05:30"},{"city":"Vrindavan","state":"Uttar Pradesh","latitude":27.5823,"longitude":77.7027,"temp":25.6,"humidity":57,"rain":0.0,"pressure":981.7,"uv_index":7.85,"wind_gusts":28.8,"aqi":727,"pm10":964.9,"pm2_5":129.9,"no2":6.4,"co":355.0,"o3":102.0,"so2":10.2,"mosquito_risk":4,"arthritis_risk":5,"migraine_risk":7,"frizz_risk":1,"updated_at":"2026-05-02T03:25:23.648917+05:30"},{"city":"Ayodhya","state":"Uttar Pradesh","latitude":26.7922,"longitude":82.1998,"temp":22.2,"humidity":83,"rain":0.0,"pressure":991.8,"uv_index":8.25,"wind_gusts":27.4,"aqi":87,"pm10":32.6,"pm2_5":23.0,"no2":8.0,"co":371.0,"o3":99.0,"so2":5.4,"mosquito_risk":3,"arthritis_risk":5,"migraine_risk":7,"frizz_risk":1,"updated_at":"2026-05-02T03:25:23.648925+05:30"},{"city":"Ratlam","state":"Madhya Pradesh","latitude":23.3315,"longitude":75.0367,"temp":25.4,"humidity":78,"rain":0.0,"pressure":950.3,"uv_index":8.55,"wind_gusts":49.7,"aqi":56,"pm10":18.6,"pm2_5":10.7,"no2":4.1,"co":161.0,"o3":72.0,"so2":11.0,"mosquito_risk":7,"arthritis_risk":5,"migraine_risk":7,"frizz_risk":1,"updated_at":"2026-05-02T03:25:23.648932+05:30"},{"city":"Sagar","state":"Madhya Pradesh","latitude":23.8388,"longitude":78.7378,"temp":24.0,"humidity":43,"rain":0.0,"pressure":943.9,"uv_index":8.7,"wind_gusts":45.0,"aqi":67,"pm10":44.4,"pm2_5":18.5,"no2":4.3,"co":199.0,"o3":78.0,"so2":3.2,"mosquito_risk":0,"arthritis_risk":5,"migraine_risk":7,"frizz_risk":0,"updated_at":"2026-05-02T03:25:23.648939+05:30"},{"city":"Satna","state":"Madhya Pradesh","latitude":24.6005,"longitude":80.8322,"temp":24.0,"humidity":61,"rain":0.0,"pressure":965.8,"uv_index":8.75,"wind_gusts":60.1,"aqi":77,"pm10":58.2,"pm2_5":29.7,"no2":10.7,"co":302.0,"o3":104.0,"so2":9.9,"mosquito_risk":3,"arthritis_risk":5,"migraine_risk":7,"frizz_risk":0,"updated_at":"2026-05-02T03:25:23.648946+05:30"},{"city":"Akola","state":"Maharashtra","latitude":20.7002,"longitude":77.0082,"temp":30.0,"humidity":42,"rain":0.0,"pressure":971.4,"uv_index":8.85,"wind_gusts":45.0,"aqi":54,"pm10":21.2,"pm2_5":11.9,"no2":5.7,"co":184.0,"o3":75.0,"so2":16.2,"mosquito_risk":4,"arthritis_risk":5,"migraine_risk":7,"frizz_risk":0,"updated_at":"2026-05-02T03:25:23.648954+05:30"},{"city":"Amravati","state":"Maharashtra","latitude":20.9374,"longitude":77.7796,"temp":29.6,"humidity":42,"rain":0.0,"pressure":963.3,"uv_index":8.9,"wind_gusts":41.0,"aqi":55,"pm10":22.8,"pm2_5":13.2,"no2":6.0,"co":203.0,"o3":81.0,"so2":16.8,"mosquito_risk":4,"arthritis_risk":5,"migraine_risk":7,"frizz_risk":0,"updated_at":"2026-05-02T03:25:23.648961+05:30"},{"city":"Latur","state":"Maharashtra","latitude":18.4088,"longitude":76.5604,"temp":27.0,"humidity":43,"rain":0.0,"pressure":937.2,"uv_index":9.05,"wind_gusts":43.6,"aqi":58,"pm10":24.4,"pm2_5":12.3,"no2":5.6,"co":187.0,"o3":75.0,"so2":4.4,"mosquito_risk":4,"arthritis_risk":5,"migraine_risk":7,"frizz_risk":0,"updated_at":"2026-05-02T03:25:23.648969+05:30"},{"city":"Nanded","state":"Maharashtra","latitude":19.1383,"longitude":77.3091,"temp":30.0,"humidity":41,"rain":0.0,"pressure":965.2,"uv_index":9.0,"wind_gusts":36.0,"aqi":60,"pm10":19.4,"pm2_5":12.7,"no2":6.9,"co":173.0,"o3":70.0,"so2":5.4,"mosquito_risk":4,"arthritis_risk":5,"migraine_risk":7,"frizz_risk":0,"updated_at":"2026-05-02T03:25:23.648975+05:30"},{"city":"Gulbarga","state":"Karnataka","latitude":17.3297,"longitude":76.8343,"temp":28.5,"humidity":44,"rain":0.0,"pressure":955.9,"uv_index":9.1,"wind_gusts":42.1,"aqi":55,"pm10":18.7,"pm2_5":10.1,"no2":4.5,"co":171.0,"o3":70.0,"so2":3.3,"mosquito_risk":4,"arthritis_risk":5,"migraine_risk":7,"frizz_risk":0,"updated_at":"2026-05-02T03:25:23.648981+05:30"},{"city":"Bidar","state":"Karnataka","latitude":17.9104,"longitude":77.5199,"temp":27.9,"humidity":37,"rain":0.0,"pressure":932.9,"uv_index":9.15,"wind_gusts":30.2,"aqi":68,"pm10":42.4,"pm2_5":28.5,"no2":24.7,"co":187.0,"o3":42.0,"so2":5.5,"mosquito_risk":4,"arthritis_risk":5,"migraine_risk":7,"frizz_risk":0,"updated_at":"2026-05-02T03:25:23.648987+05:30"},{"city":"Hospet","state":"Karnataka","latitude":15.2689,"longitude":76.3909,"temp":24.9,"humidity":82,"rain":0.0,"pressure":954.0,"uv_index":9.25,"wind_gusts":46.8,"aqi":56,"pm10":21.8,"pm2_5":14.6,"no2":6.7,"co":187.0,"o3":59.0,"so2":2.2,"mosquito_risk":3,"arthritis_risk":5,"migraine_risk":7,"frizz_risk":1,"updated_at":"2026-05-02T03:25:23.648994+05:30"},{"city":"Tirupur","state":"Tamil Nadu","latitude":11.1085,"longitude":77.3411,"temp":26.4,"humidity":84,"rain":0.0,"pressure":973.1,"uv_index":9.25,"wind_gusts":61.6,"aqi":81,"pm10":31.0,"pm2_5":26.8,"no2":16.1,"co":208.0,"o3":52.0,"so2":4.1,"mosquito_risk":7,"arthritis_risk":5,"migraine_risk":7,"frizz_risk":1,"updated_at":"2026-05-02T03:25:23.649000+05:30"},{"city":"Alappuzha","state":"Kerala","latitude":9.4981,"longitude":76.3388,"temp":27.1,"humidity":91,"rain":0.0,"pressure":1007.4,"uv_index":8.95,"wind_gusts":38.2,"aqi":61,"pm10":35.4,"pm2_5":27.9,"no2":20.8,"co":350.0,"o3":55.0,"so2":5.1,"mosquito_risk":7,"arthritis_risk":5,"migraine_risk":4,"frizz_risk":1,"updated_at":"2026-05-02T03:25:23.649007+05:30"},{"city":"Munnar","state":"Kerala","latitude":10.0889,"longitude":77.0595,"temp":17.4,"humidity":94,"rain":0.0,"pressure":855.0,"uv_index":8.8,"wind_gusts":27.4,"aqi":49,"pm10":20.9,"pm2_5":18.1,"no2":10.4,"co":296.0,"o3":41.0,"so2":1.3,"mosquito_risk":3,"arthritis_risk":10,"migraine_risk":7,"frizz_risk":1,"updated_at":"2026-05-02T03:25:23.649014+05:30"},{"city":"Silchar","state":"Assam","latitude":24.8333,"longitude":92.7789,"temp":20.0,"humidity":98,"rain":0.0,"pressure":1004.6,"uv_index":8.55,"wind_gusts":26.6,"aqi":95,"pm10":17.6,"pm2_5":16.4,"no2":7.7,"co":256.0,"o3":66.0,"so2":1.9,"mosquito_risk":3,"arthritis_risk":5,"migraine_risk":4,"frizz_risk":1,"updated_at":"2026-05-02T03:25:23.649020+05:30"},{"city":"Dibrugarh","state":"Assam","latitude":27.4728,"longitude":94.912,"temp":20.0,"humidity":98,"rain":0.2,"pressure":993.9,"uv_index":8.3,"wind_gusts":20.9,"aqi":71,"pm10":42.0,"pm2_5":35.6,"no2":31.3,"co":344.0,"o3":10.0,"so2":1.6,"mosquito_risk":6,"arthritis_risk":5,"migraine_risk":7,"frizz_risk":1,"updated_at":"2026-05-02T03:25:23.649027+05:30"}]