[{"city":"Delhi","state":"Delhi","latitude":28.6139,"longitude":77.209,"temp":33.0,"humidity":33,"rain":0.0,"pressure":974.6,"uv_index":7.8,"wind_gusts":41.4,"aqi":461,"pm10":705.9,"pm2_5":157.4,"no2":58.7,"co":700.0,"o3":32.0,"so2":22.3,"mosquito_risk":0,"arthritis_risk":5,"migraine_risk":7,"frizz_risk":0,"updated_at":"2026-06-09T01:56:58.343016+05:30"},{"city":"Mumbai","state":"Maharashtra","latitude":19.076,"longitude":72.8777,"temp":29.1,"humidity":82,"rain":0.0,"pressure":1006.2,"uv_index":7.7,"wind_gusts":40.7,"aqi":75,"pm10":44.4,"pm2_5":15.8,"no2":6.7,"co":140.0,"o3":50.0,"so2":6.1,"mosquito_risk":7,"arthritis_risk":5,"migraine_risk":4,"frizz_risk":1,"updated_at":"2026-06-09T01:56:58.343055+05:30"},{"city":"Bangalore","state":"Karnataka","latitude":12.9716,"longitude":77.5946,"temp":21.5,"humidity":93,"rain":0.0,"pressure":911.2,"uv_index":5.5,"wind_gusts":51.5,"aqi":24,"pm10":4.2,"pm2_5":3.7,"no2":8.8,"co":177.0,"o3":37.0,"so2":3.8,"mosquito_risk":3,"arthritis_risk":5,"migraine_risk":3,"frizz_risk":1,"updated_at":"2026-06-09T01:56:58.343067+05:30"},{"city":"Hyderabad","state":"Telangana","latitude":17.385,"longitude":78.4867,"temp":26.8,"humidity":72,"rain":0.0,"pressure":950.4,"uv_index":8.5,"wind_gusts":44.3,"aqi":69,"pm10":22.1,"pm2_5":17.7,"no2":12.6,"co":225.0,"o3":63.0,"so2":8.3,"mosquito_risk":7,"arthritis_risk":5,"migraine_risk":7,"frizz_risk":1,"updated_at":"2026-06-09T01:56:58.343075+05:30"},{"city":"Chennai","state":"Tamil Nadu","latitude":13.0827,"longitude":80.2707,"temp":32.7,"humidity":47,"rain":0.0,"pressure":1004.4,"uv_index":7.35,"wind_gusts":50.8,"aqi":54,"pm10":25.3,"pm2_5":21.7,"no2":29.9,"co":253.0,"o3":50.0,"so2":14.1,"mosquito_risk":0,"arthritis_risk":5,"migraine_risk":4,"frizz_risk":1,"updated_at":"2026-06-09T01:56:58.343081+05:30"},{"city":"Kolkata","state":"West Bengal","latitude":22.5726,"longitude":88.3639,"temp":28.6,"humidity":96,"rain":0.0,"pressure":999.0,"uv_index":9.0,"wind_gusts":49.0,"aqi":126,"pm10":40.4,"pm2_5":34.3,"no2":11.4,"co":503.0,"o3":87.0,"so2":8.5,"mosquito_risk":7,"arthritis_risk":5,"migraine_risk":7,"frizz_risk":1,"updated_at":"2026-06-09T01:56:58.343087+05:30"},{"city":"Pune","state":"Maharashtra","latitude":18.5204,"longitude":73.8567,"temp":25.0,"humidity":86,"rain":0.0,"pressure":946.3,"uv_index":7.7,"wind_gusts":46.1,"aqi":52,"pm10":15.0,"pm2_5":7.1,"no2":7.6,"co":133.0,"o3":48.0,"so2":6.7,"mosquito_risk":7,"arthritis_risk":5,"migraine_risk":7,"frizz_risk":1,"updated_at":"2026-06-09T01:56:58.343092+05:30"},{"city":"Ahmedabad","state":"Gujarat","latitude":23.0225,"longitude":72.5714,"temp":31.6,"humidity":63,"rain":0.0,"pressure":997.9,"uv_index":8.1,"wind_gusts":44.3,"aqi":78,"pm10":54.7,"pm2_5":25.3,"no2":4.4,"co":147.0,"o3":63.0,"so2":3.9,"mosquito_risk":3,"arthritis_risk":5,"migraine_risk":7,"frizz_risk":1,"updated_at":"2026-06-09T01:56:58.343097+05:30"},{"city":"Jaipur","state":"Rajasthan","latitude":26.9124,"longitude":75.7873,"temp":31.8,"humidity":42,"rain":0.0,"pressure":953.5,"uv_index":8.25,"wind_gusts":43.2,"aqi":136,"pm10":235.6,"pm2_5":53.4,"no2":6.5,"co":214.0,"o3":69.0,"so2":4.9,"mosquito_risk":0,"arthritis_risk":5,"migraine_risk":7,"frizz_risk":1,"updated_at":"2026-06-09T01:56:58.343106+05:30"},{"city":"Lucknow","state":"Uttar Pradesh","latitude":26.8467,"longitude":80.9462,"temp":31.3,"humidity":35,"rain":0.0,"pressure":985.3,"uv_index":8.3,"wind_gusts":37.1,"aqi":158,"pm10":313.9,"pm2_5":92.9,"no2":27.2,"co":348.0,"o3":43.0,"so2":10.1,"mosquito_risk":0,"arthritis_risk":5,"migraine_risk":7,"frizz_risk":0,"updated_at":"2026-06-09T01:56:58.343111+05:30"},{"city":"Kanpur","state":"Uttar Pradesh","latitude":26.4499,"longitude":80.3319,"temp":32.3,"humidity":33,"rain":0.0,"pressure":983.9,"uv_index":8.3,"wind_gusts":54.0,"aqi":196,"pm10":297.1,"pm2_5":67.8,"no2":18.4,"co":214.0,"o3":49.0,"so2":6.5,"mosquito_risk":0,"arthritis_risk":5,"migraine_risk":7,"frizz_risk":0,"updated_at":"2026-06-09T01:56:58.343116+05:30"},{"city":"Chandigarh","state":"Chandigarh","latitude":30.7333,"longitude":76.7794,"temp":26.3,"humidity":48,"rain":0.0,"pressure":959.7,"uv_index":7.85,"wind_gusts":33.1,"aqi":76,"pm10":29.8,"pm2_5":28.3,"no2":36.2,"co":514.0,"o3":44.0,"so2":7.7,"mosquito_risk":4,"arthritis_risk":5,"migraine_risk":7,"frizz_risk":0,"updated_at":"2026-06-09T01:56:58.343122+05:30"},{"city":"Srinagar","state":"Jammu and Kashmir","latitude":34.0837,"longitude":74.7973,"temp":14.4,"humidity":91,"rain":0.0,"pressure":835.8,"uv_index":9.0,"wind_gusts":37.1,"aqi":79,"pm10":39.1,"pm2_5":36.3,"no2":29.9,"co":511.0,"o3":8.0,"so2":1.7,"mosquito_risk":3,"arthritis_risk":10,"migraine_risk":7,"frizz_risk":0,"updated_at":"2026-06-09T01:56:58.343127+05:30"},{"city":"Jammu","state":"Jammu and Kashmir","latitude":32.7266,"longitude":74.857,"temp":27.9,"humidity":39,"rain":0.0,"pressure":963.2,"uv_index":8.6,"wind_gusts":33.8,"aqi":70,"pm10":32.7,"pm2_5":31.0,"no2":29.0,"co":462.0,"o3":40.0,"so2":3.4,"mosquito_risk":4,"arthritis_risk":5,"migraine_risk":7,"frizz_risk":0,"updated_at":"2026-06-09T01:56:58.343133+05:30"},{"city":"Amritsar","state":"Punjab","latitude":31.634,"longitude":74.8723,"temp":32.1,"humidity":35,"rain":0.0,"pressure":971.2,"uv_index":8.45,"wind_gusts":28.1,"aqi":117,"pm10":71.5,"pm2_5":62.9,"no2":67.1,"co":634.0,"o3":21.0,"so2":14.0,"mosquito_risk":0,"arthritis_risk":5,"migraine_risk":7,"frizz_risk":0,"updated_at":"2026-06-09T01:56:58.343139+05:30"},{"city":"Ludhiana","state":"Punjab","latitude":30.901,"longitude":75.8573,"temp":30.6,"humidity":40,"rain":0.0,"pressure":969.4,"uv_index":8.0,"wind_gusts":42.5,"aqi":110,"pm10":74.7,"pm2_5":48.8,"no2":31.9,"co":546.0,"o3":54.0,"so2":8.8,"mosquito_risk":0,"arthritis_risk":5,"migraine_risk":7,"frizz_risk":0,"updated_at":"2026-06-09T01:56:58.343145+05:30"},{"city":"Jalandhar","state":"Punjab","latitude":31.326,"longitude":75.5762,"temp":30.2,"humidity":39,"rain":0.0,"pressure":970.5,"uv_index":8.2,"wind_gusts":30.2,"aqi":99,"pm10":82.0,"pm2_5":51.6,"no2":44.9,"co":536.0,"o3":46.0,"so2":9.6,"mosquito_risk":0,"arthritis_risk":5,"migraine_risk":7,"frizz_risk":0,"updated_at":"2026-06-09T01:56:58.343150+05:30"},{"city":"Dehradun","state":"Uttarakhand","latitude":30.6284,"longitude":78.0322,"temp":15.3,"humidity":88,"rain":0.0,"pressure":824.1,"uv_index":8.25,"wind_gusts":42.8,"aqi":55,"pm10":20.1,"pm2_5":17.3,"no2":30.1,"co":241.0,"o3":35.0,"so2":1.3,"mosquito_risk":3,"arthritis_risk":10,"migraine_risk":7,"frizz_risk":0,"updated_at":"2026-06-09T01:56:58.343157+05:30"},{"city":"Shimla","state":"Himachal Pradesh","latitude":31.1048,"longitude":77.1734,"temp":15.8,"humidity":46,"rain":0.0,"pressure":779.6,"uv_index":8.35,"wind_gusts":51.8,"aqi":88,"pm10":24.0,"pm2_5":18.6,"no2":19.2,"co":209.0,"o3":96.0,"so2":2.4,"mosquito_risk":0,"arthritis_risk":5,"migraine_risk":7,"frizz_risk":0,"updated_at":"2026-06-09T01:56:58.343171+05:30"},{"city":"Manali","state":"Himachal Pradesh","latitude":32.2396,"longitude":77.1887,"temp":11.9,"humidity":62,"rain":0.0,"pressure":811.6,"uv_index":9.6,"wind_gusts":34.6,"aqi":46,"pm10":11.3,"pm2_5":9.9,"no2":51.9,"co":282.0,"o3":66.0,"so2":0.1,"mosquito_risk":3,"arthritis_risk":5,"migraine_risk":7,"frizz_risk":0,"updated_at":"2026-06-09T01:56:58.343176+05:30"},{"city":"Gurgaon","state":"Haryana","latitude":28.4595,"longitude":77.0266,"temp":30.1,"humidity":42,"rain":0.0,"pressure":973.0,"uv_index":7.85,"wind_gusts":45.4,"aqi":1004,"pm10":726.4,"pm2_5":158.8,"no2":70.3,"co":906.0,"o3":17.0,"so2":23.6,"mosquito_risk":0,"arthritis_risk":5,"migraine_risk":7,"frizz_risk":0,"updated_at":"2026-06-09T01:56:58.343187+05:30"},{"city":"Noida","state":"Uttar Pradesh","latitude":28.5355,"longitude":77.391,"temp":31.6,"humidity":42,"rain":0.0,"pressure":975.8,"uv_index":7.85,"wind_gusts":34.6,"aqi":1004,"pm10":726.4,"pm2_5":158.8,"no2":70.3,"co":1155.0,"o3":17.0,"so2":23.6,"mosquito_risk":0,"arthritis_risk":5,"migraine_risk":7,"frizz_risk":1,"updated_at":"2026-06-09T01:56:58.343193+05:30"},{"city":"Ghaziabad","state":"Uttar Pradesh","latitude":28.6692,"longitude":77.4538,"temp":29.6,"humidity":56,"rain":0.0,"pressure":974.0,"uv_index":7.85,"wind_gusts":35.6,"aqi":289,"pm10":683.6,"pm2_5":151.3,"no2":50.6,"co":1066.0,"o3":43.0,"so2":25.1,"mosquito_risk":4,"arthritis_risk":5,"migraine_risk":7,"frizz_risk":1,"updated_at":"2026-06-09T01:56:58.343198+05:30"},{"city":"Faridabad","state":"Haryana","latitude":28.4089,"longitude":77.3178,"temp":32.6,"humidity":33,"rain":0.0,"pressure":975.2,"uv_index":7.9,"wind_gusts":43.6,"aqi":1004,"pm10":726.4,"pm2_5":158.8,"no2":70.3,"co":1017.0,"o3":17.0,"so2":23.6,"mosquito_risk":0,"arthritis_risk":5,"migraine_risk":7,"frizz_risk":0,"updated_at":"2026-06-09T01:56:58.343203+05:30"},{"city":"Meerut","state":"Uttar Pradesh","latitude":28.9845,"longitude":77.7064,"temp":28.9,"humidity":64,"rain":0.0,"pressure":972.8,"uv_index":7.75,"wind_gusts":32.0,"aqi":289,"pm10":683.6,"pm2_5":151.3,"no2":50.6,"co":596.0,"o3":43.0,"so2":25.1,"mosquito_risk":7,"arthritis_risk":5,"migraine_risk":7,"frizz_risk":1,"updated_at":"2026-06-09T01:56:58.343207+05:30"},{"city":"Agra","state":"Uttar Pradesh","latitude":27.1767,"longitude":78.0081,"temp":32.0,"humidity":33,"rain":0.0,"pressure":979.4,"uv_index":8.15,"wind_gusts":49.0,"aqi":804,"pm10":478.7,"pm2_5":118.0,"no2":67.3,"co":402.0,"o3":0.0,"so2":14.7,"mosquito_risk":0,"arthritis_risk":5,"migraine_risk":7,"frizz_risk":0,"updated_at":"2026-06-09T01:56:58.343212+05:30"},{"city":"Varanasi","state":"Uttar Pradesh","latitude":25.3176,"longitude":82.9739,"temp":32.6,"humidity":46,"rain":0.0,"pressure":989.6,"uv_index":8.75,"wind_gusts":40.3,"aqi":127,"pm10":76.6,"pm2_5":42.7,"no2":24.3,"co":395.0,"o3":42.0,"so2":10.4,"mosquito_risk":0,"arthritis_risk":5,"migraine_risk":7,"frizz_risk":1,"updated_at":"2026-06-09T01:56:58.343217+05:30"},{"city":"Prayagraj","state":"Uttar Pradesh","latitude":25.4358,"longitude":81.8463,"temp":31.5,"humidity":50,"rain":0.0,"pressure":988.2,"uv_index":8.65,"wind_gusts":46.4,"aqi":134,"pm10":88.2,"pm2_5":41.9,"no2":19.4,"co":256.0,"o3":50.0,"so2":7.6,"mosquito_risk":0,"arthritis_risk":5,"migraine_risk":7,"frizz_risk":1,"updated_at":"2026-06-09T01:56:58.343222+05:30"},{"city":"Gorakhpur","state":"Uttar Pradesh","latitude":26.7606,"longitude":83.3732,"temp":28.0,"humidity":63,"rain":0.0,"pressure":989.4,"uv_index":8.7,"wind_gusts":21.6,"aqi":135,"pm10":108.0,"pm2_5":71.9,"no2":39.0,"co":703.0,"o3":33.0,"so2":11.9,"mosquito_risk":7,"arthritis_risk":5,"migraine_risk":7,"frizz_risk":1,"updated_at":"2026-06-09T01:56:58.343229+05:30"},{"city":"Bareilly","state":"Uttar Pradesh","latitude":28.367,"longitude":79.4304,"temp":28.4,"humidity":56,"rain":0.0,"pressure":978.1,"uv_index":8.15,"wind_gusts":24.8,"aqi":152,"pm10":86.6,"pm2_5":77.3,"no2":56.6,"co":474.0,"o3":39.0,"so2":16.8,"mosquito_risk":4,"arthritis_risk":5,"migraine_risk":7,"frizz_risk":1,"updated_at":"2026-06-09T01:56:58.343233+05:30"},{"city":"Aligarh","state":"Uttar Pradesh","latitude":27.8974,"longitude":78.088,"temp":28.8,"humidity":55,"rain":0.0,"pressure":977.0,"uv_index":8.0,"wind_gusts":45.7,"aqi":643,"pm10":722.7,"pm2_5":175.6,"no2":72.5,"co":571.0,"o3":7.0,"so2":16.7,"mosquito_risk":4,"arthritis_risk":5,"migraine_risk":7,"frizz_risk":1,"updated_at":"2026-06-09T01:56:58.343238+05:30"},{"city":"Moradabad","state":"Uttar Pradesh","latitude":28.8386,"longitude":78.7733,"temp":30.2,"humidity":45,"rain":0.0,"pressure":975.3,"uv_index":7.95,"wind_gusts":34.2,"aqi":163,"pm10":186.7,"pm2_5":124.8,"no2":85.8,"co":638.0,"o3":5.0,"so2":21.6,"mosquito_risk":0,"arthritis_risk":5,"migraine_risk":7,"frizz_risk":1,"updated_at":"2026-06-09T01:56:58.343243+05:30"},{"city":"Saharanpur","state":"Uttar Pradesh","latitude":29.9637,"longitude":77.546,"temp":27.5,"humidity":46,"rain":0.0,"pressure":966.9,"uv_index":7.45,"wind_gusts":31.7,"aqi":129,"pm10":88.5,"pm2_5":56.3,"no2":42.4,"co":454.0,"o3":54.0,"so2":13.3,"mosquito_risk":4,"arthritis_risk":5,"migraine_risk":7,"frizz_risk":0,"updated_at":"2026-06-09T01:56:58.343247+05:30"},{"city":"Jhansi","state":"Uttar Pradesh","latitude":25.4484,"longitude":78.5685,"temp":29.3,"humidity":61,"rain":0.0,"pressure":970.7,"uv_index":8.5,"wind_gusts":42.5,"aqi":83,"pm10":53.6,"pm2_5":29.4,"no2":6.0,"co":174.0,"o3":73.0,"so2":5.8,"mosquito_risk":7,"arthritis_risk":5,"migraine_risk":7,"frizz_risk":1,"updated_at":"2026-06-09T01:57:01.715875+05:30"},{"city":"Surat","state":"Gujarat","latitude":21.1702,"longitude":72.8311,"temp":30.0,"humidity":78,"rain":0.0,"pressure":1003.4,"uv_index":7.6,"wind_gusts":52.9,"aqi":78,"pm10":54.9,"pm2_5":25.9,"no2":12.8,"co":237.0,"o3":47.0,"so2":22.5,"mosquito_risk":7,"arthritis_risk":5,"migraine_risk":4,"frizz_risk":1,"updated_at":"2026-06-09T01:57:01.715907+05:30"},{"city":"Vadodara","state":"Gujarat","latitude":22.3072,"longitude":73.1812,"temp":31.1,"humidity":69,"rain":0.0,"pressure":1000.3,"uv_index":8.05,"wind_gusts":47.5,"aqi":76,"pm10":39.9,"pm2_5":22.6,"no2":10.8,"co":138.0,"o3":45.0,"so2":11.8,"mosquito_risk":3,"arthritis_risk":5,"migraine_risk":4,"frizz_risk":1,"updated_at":"2026-06-09T01:57:01.715915+05:30"},{"city":"Rajkot","state":"Gujarat","latitude":22.3039,"longitude":70.8022,"temp":29.5,"humidity":72,"rain":0.0,"pressure":990.4,"uv_index":7.6,"wind_gusts":50.0,"aqi":73,"pm10":63.6,"pm2_5":26.7,"no2":4.1,"co":105.0,"o3":58.0,"so2":4.9,"mosquito_risk":7,"arthritis_risk":5,"migraine_risk":7,"frizz_risk":1,"updated_at":"2026-06-09T01:57:01.715921+05:30"},{"city":"Thane","state":"Maharashtra","latitude":19.2183,"longitude":72.9781,"temp":28.8,"humidity":81,"rain":0.0,"pressure":1005.6,"uv_index":7.6,"wind_gusts":40.3,"aqi":75,"pm10":44.4,"pm2_5":15.8,"no2":6.7,"co":147.0,"o3":50.0,"so2":6.1,"mosquito_risk":7,"arthritis_risk":5,"migraine_risk":4,"frizz_risk":1,"updated_at":"2026-06-09T01:57:01.715927+05:30"},{"city":"Nagpur","state":"Maharashtra","latitude":21.1458,"longitude":79.0882,"temp":31.8,"humidity":54,"rain":0.0,"pressure":968.7,"uv_index":8.9,"wind_gusts":35.3,"aqi":90,"pm10":63.3,"pm2_5":39.2,"no2":20.7,"co":182.0,"o3":58.0,"so2":14.6,"mosquito_risk":0,"arthritis_risk":5,"migraine_risk":7,"frizz_risk":1,"updated_at":"2026-06-09T01:57:01.715933+05:30"},{"city":"Nashik","state":"Maharashtra","latitude":19.9975,"longitude":73.7898,"temp":25.0,"humidity":88,"rain":0.0,"pressure":943.3,"uv_index":8.05,"wind_gusts":48.6,"aqi":62,"pm10":27.8,"pm2_5":12.7,"no2":8.5,"co":148.0,"o3":42.0,"so2":8.0,"mosquito_risk":7,"arthritis_risk":5,"migraine_risk":7,"frizz_risk":1,"updated_at":"2026-06-09T01:57:01.715938+05:30"},{"city":"Aurangabad","state":"Maharashtra","latitude":19.8762,"longitude":75.3433,"temp":26.8,"humidity":66,"rain":0.0,"pressure":941.8,"uv_index":8.95,"wind_gusts":47.9,"aqi":69,"pm10":40.6,"pm2_5":19.6,"no2":8.3,"co":131.0,"o3":56.0,"so2":9.7,"mosquito_risk":7,"arthritis_risk":5,"migraine_risk":7,"frizz_risk":1,"updated_at":"2026-06-09T01:57:01.715944+05:30"},{"city":"Solapur","state":"Maharashtra","latitude":17.6599,"longitude":75.9064,"temp":27.6,"humidity":69,"rain":0.0,"pressure":955.1,"uv_index":8.0,"wind_gusts":52.6,"aqi":54,"pm10":10.3,"pm2_5":7.6,"no2":7.6,"co":152.0,"o3":46.0,"so2":2.6,"mosquito_risk":7,"arthritis_risk":5,"migraine_risk":7,"frizz_risk":1,"updated_at":"2026-06-09T01:57:01.715950+05:30"},{"city":"Kolhapur","state":"Maharashtra","latitude":16.705,"longitude":74.2433,"temp":23.1,"humidity":91,"rain":0.0,"pressure":946.7,"uv_index":4.55,"wind_gusts":42.8,"aqi":25,"pm10":5.8,"pm2_5":4.4,"no2":4.8,"co":128.0,"o3":49.0,"so2":2.1,"mosquito_risk":3,"arthritis_risk":5,"migraine_risk":3,"frizz_risk":1,"updated_at":"2026-06-09T01:57:01.715956+05:30"},{"city":"Goa","state":"Goa","latitude":15.2993,"longitude":74.124,"temp":24.9,"humidity":97,"rain":0.0,"pressure":997.8,"uv_index":0.95,"wind_gusts":33.1,"aqi":31,"pm10":8.8,"pm2_5":6.0,"no2":5.8,"co":331.0,"o3":47.0,"so2":0.9,"mosquito_risk":3,"arthritis_risk":5,"migraine_risk":3,"frizz_risk":1,"updated_at":"2026-06-09T01:57:01.715962+05:30"},{"city":"Jodhpur","state":"Rajasthan","latitude":26.2389,"longitude":73.0243,"temp":33.4,"humidity":48,"rain":0.0,"pressure":976.7,"uv_index":8.45,"wind_gusts":45.7,"aqi":151,"pm10":179.7,"pm2_5":48.2,"no2":4.2,"co":148.0,"o3":65.0,"so2":2.1,"mosquito_risk":0,"arthritis_risk":5,"migraine_risk":7,"frizz_risk":1,"updated_at":"2026-06-09T01:57:01.715968+05:30"},{"city":"Udaipur","state":"Rajasthan","latitude":24.5854,"longitude":73.7125,"temp":29.2,"humidity":53,"rain":0.0,"pressure":942.5,"uv_index":8.85,"wind_gusts":42.1,"aqi":78,"pm10":42.3,"pm2_5":24.9,"no2":6.5,"co":168.0,"o3":62.0,"so2":6.2,"mosquito_risk":4,"arthritis_risk":5,"migraine_risk":7,"frizz_risk":1,"updated_at":"2026-06-09T01:57:01.715973+05:30"},{"city":"Kota","state":"Rajasthan","latitude":25.2138,"longitude":75.8648,"temp":32.6,"humidity":50,"rain":0.0,"pressure":972.6,"uv_index":8.4,"wind_gusts":41.4,"aqi":86,"pm10":36.4,"pm2_5":24.2,"no2":5.9,"co":163.0,"o3":79.0,"so2":7.0,"mosquito_risk":0,"arthritis_risk":5,"migraine_risk":7,"frizz_risk":1,"updated_at":"2026-06-09T01:57:01.715979+05:30"},{"city":"Bikaner","state":"Rajasthan","latitude":28.0229,"longitude":73.3119,"temp":34.9,"humidity":37,"rain":0.0,"pressure":974.0,"uv_index":8.45,"wind_gusts":40.0,"aqi":151,"pm10":206.8,"pm2_5":67.8,"no2":2.5,"co":122.0,"o3":74.0,"so2":4.4,"mosquito_risk":0,"arthritis_risk":5,"migraine_risk":7,"frizz_risk":1,"updated_at":"2026-06-09T01:57:01.715984+05:30"},{"city":"Ajmer","state":"Rajasthan","latitude":26.4499,"longitude":74.6399,"temp":30.6,"humidity":56,"rain":0.0,"pressure":948.9,"uv_index":8.4,"wind_gusts":51.8,"aqi":91,"pm10":43.9,"pm2_5":22.4,"no2":4.3,"co":139.0,"o3":74.0,"so2":3.9,"mosquito_risk":0,"arthritis_risk":5,"migraine_risk":7,"frizz_risk":1,"updated_at":"2026-06-09T01:57:01.715990+05:30"},{"city":"Gwalior","state":"Madhya Pradesh","latitude":26.2183,"longitude":78.1828,"temp":31.8,"humidity":34,"rain":0.0,"pressure":975.6,"uv_index":8.3,"wind_gusts":50.4,"aqi":94,"pm10":52.6,"pm2_5":27.1,"no2":10.9,"co":152.0,"o3":52.0,"so2":3.4,"mosquito_risk":0,"arthritis_risk":5,"migraine_risk":7,"frizz_risk":0,"updated_at":"2026-06-09T01:57:01.715996+05:30"},{"city":"Indore","state":"Madhya Pradesh","latitude":22.7196,"longitude":75.8577,"temp":28.1,"humidity":60,"rain":0.0,"pressure":944.7,"uv_index":8.65,"wind_gusts":48.2,"aqi":87,"pm10":40.7,"pm2_5":27.4,"no2":5.8,"co":195.0,"o3":89.0,"so2":11.6,"mosquito_risk":4,"arthritis_risk":5,"migraine_risk":7,"frizz_risk":1,"updated_at":"2026-06-09T01:57:01.716002+05:30"},{"city":"Bhopal","state":"Madhya Pradesh","latitude":23.2599,"longitude":77.4126,"temp":30.7,"humidity":49,"rain":0.0,"pressure":948.9,"uv_index":8.7,"wind_gusts":41.4,"aqi":90,"pm10":48.9,"pm2_5":32.7,"no2":11.2,"co":354.0,"o3":55.0,"so2":5.6,"mosquito_risk":0,"arthritis_risk":5,"migraine_risk":7,"frizz_risk":1,"updated_at":"2026-06-09T01:57:01.716007+05:30"},{"city":"Jabalpur","state":"Madhya Pradesh","latitude":23.1815,"longitude":79.9864,"temp":30.0,"humidity":56,"rain":0.0,"pressure":956.7,"uv_index":8.9,"wind_gusts":34.2,"aqi":84,"pm10":49.2,"pm2_5":30.0,"no2":12.8,"co":181.0,"o3":56.0,"so2":4.5,"mosquito_risk":4,"arthritis_risk":5,"migraine_risk":7,"frizz_risk":1,"updated_at":"2026-06-09T01:57:01.716013+05:30"},{"city":"Ujjain","state":"Madhya Pradesh","latitude":23.1765,"longitude":75.7885,"temp":28.3,"humidity":63,"rain":0.0,"pressure":950.0,"uv_index":8.6,"wind_gusts":45.7,"aqi":86,"pm10":38.0,"pm2_5":25.5,"no2":4.8,"co":185.0,"o3":82.0,"so2":10.8,"mosquito_risk":7,"arthritis_risk":5,"migraine_risk":7,"frizz_risk":1,"updated_at":"2026-06-09T01:57:01.716019+05:30"},{"city":"Visakhapatnam","state":"Andhra Pradesh","latitude":17.6868,"longitude":83.2185,"temp":30.2,"humidity":71,"rain":0.0,"pressure":998.0,"uv_index":8.4,"wind_gusts":39.6,"aqi":88,"pm10":31.2,"pm2_5":26.1,"no2":16.7,"co":371.0,"o3":78.0,"so2":29.0,"mosquito_risk":3,"arthritis_risk":5,"migraine_risk":7,"frizz_risk":1,"updated_at":"2026-06-09T01:57:01.716024+05:30"},{"city":"Vijayawada","state":"Andhra Pradesh","latitude":16.5062,"longitude":80.648,"temp":31.6,"humidity":56,"rain":0.0,"pressure":998.7,"uv_index":7.7,"wind_gusts":41.0,"aqi":75,"pm10":30.7,"pm2_5":25.1,"no2":10.2,"co":224.0,"o3":67.0,"so2":5.6,"mosquito_risk":0,"arthritis_risk":5,"migraine_risk":7,"frizz_risk":1,"updated_at":"2026-06-09T01:57:01.716029+05:30"},{"city":"Guntur","state":"Andhra Pradesh","latitude":16.3067,"longitude":80.4365,"temp":31.4,"humidity":54,"rain":0.0,"pressure":1000.1,"uv_index":4.6,"wind_gusts":40.3,"aqi":68,"pm10":29.7,"pm2_5":23.4,"no2":8.9,"co":202.0,"o3":71.0,"so2":6.0,"mosquito_risk":0,"arthritis_risk":5,"migraine_risk":0,"frizz_risk":1,"updated_at":"2026-06-09T01:57:01.716035+05:30"},{"city":"Nellore","state":"Andhra Pradesh","latitude":14.4426,"longitude":79.9865,"temp":30.7,"humidity":60,"rain":0.0,"pressure":1003.1,"uv_index":6.55,"wind_gusts":48.6,"aqi":40,"pm10":17.5,"pm2_5":15.5,"no2":11.4,"co":146.0,"o3":60.0,"so2":4.4,"mosquito_risk":0,"arthritis_risk":5,"migraine_risk":4,"frizz_risk":1,"updated_at":"2026-06-09T01:57:01.716041+05:30"},{"city":"Kurnool","state":"Andhra Pradesh","latitude":15.8281,"longitude":78.0373,"temp":26.1,"humidity":82,"rain":0.0,"pressure":975.6,"uv_index":6.6,"wind_gusts":45.7,"aqi":52,"pm10":8.6,"pm2_5":7.2,"no2":10.9,"co":154.0,"o3":47.0,"so2":6.7,"mosquito_risk":7,"arthritis_risk":5,"migraine_risk":7,"frizz_risk":1,"updated_at":"2026-06-09T01:57:01.716046+05:30"},{"city":"Kakinada","state":"Andhra Pradesh","latitude":16.9891,"longitude":82.2475,"temp":30.6,"humidity":61,"rain":0.0,"pressure":1002.6,"uv_index":5.3,"wind_gusts":47.5,"aqi":75,"pm10":24.6,"pm2_5":18.3,"no2":5.0,"co":321.0,"o3":94.0,"so2":3.6,"mosquito_risk":3,"arthritis_risk":5,"migraine_risk":0,"frizz_risk":1,"updated_at":"2026-06-09T01:57:01.716052+05:30"},{"city":"Tirupati","state":"Andhra Pradesh","latitude":13.6288,"longitude":79.4192,"temp":29.1,"humidity":59,"rain":0.0,"pressure":989.1,"uv_index":7.9,"wind_gusts":45.7,"aqi":30,"pm10":15.0,"pm2_5":13.9,"no2":21.3,"co":137.0,"o3":26.0,"so2":2.8,"mosquito_risk":4,"arthritis_risk":5,"migraine_risk":7,"frizz_risk":1,"updated_at":"2026-06-09T01:57:01.716057+05:30"},{"city":"Warangal","state":"Telangana","latitude":17.9689,"longitude":79.5941,"temp":29.4,"humidity":60,"rain":0.0,"pressure":974.7,"uv_index":9.0,"wind_gusts":39.2,"aqi":78,"pm10":32.9,"pm2_5":23.8,"no2":11.6,"co":190.0,"o3":65.0,"so2":5.8,"mosquito_risk":4,"arthritis_risk":5,"migraine_risk":7,"frizz_risk":1,"updated_at":"2026-06-09T01:57:01.716062+05:30"},{"city":"Nizamabad","state":"Telangana","latitude":18.6725,"longitude":78.0941,"temp":28.8,"humidity":58,"rain":0.0,"pressure":961.5,"uv_index":9.0,"wind_gusts":49.7,"aqi":80,"pm10":24.3,"pm2_5":16.4,"no2":7.9,"co":222.0,"o3":69.0,"so2":4.6,"mosquito_risk":4,"arthritis_risk":5,"migraine_risk":7,"frizz_risk":1,"updated_at":"2026-06-09T01:57:01.716068+05:30"},{"city":"Mysore","state":"Karnataka","latitude":12.2958,"longitude":76.6396,"temp":22.1,"humidity":91,"rain":0.0,"pressure":928.6,"uv_index":7.5,"wind_gusts":55.4,"aqi":22,"pm10":2.6,"pm2_5":2.4,"no2":5.8,"co":128.0,"o3":39.0,"so2":1.8,"mosquito_risk":3,"arthritis_risk":5,"migraine_risk":7,"frizz_risk":1,"updated_at":"2026-06-09T01:57:01.716073+05:30"},{"city":"Mangalore","state":"Karnataka","latitude":12.9141,"longitude":74.856,"temp":24.0,"humidity":98,"rain":0.1,"pressure":1007.9,"uv_index":4.15,"wind_gusts":41.8,"aqi":32,"pm10":8.9,"pm2_5":5.7,"no2":4.3,"co":177.0,"o3":44.0,"so2":1.6,"mosquito_risk":6,"arthritis_risk":5,"migraine_risk":0,"frizz_risk":1,"updated_at":"2026-06-09T01:57:01.716079+05:30"},{"city":"Hubli-Dharwad","state":"Karnataka","latitude":15.3647,"longitude":75.124,"temp":22.0,"humidity":98,"rain":0.2,"pressure":939.9,"uv_index":2.6,"wind_gusts":42.5,"aqi":21,"pm10":1.5,"pm2_5":1.1,"no2":3.4,"co":140.0,"o3":49.0,"so2":0.7,"mosquito_risk":6,"arthritis_risk":5,"migraine_risk":3,"frizz_risk":1,"updated_at":"2026-06-09T01:57:01.716084+05:30"},{"city":"Belgaum","state":"Karnataka","latitude":15.8497,"longitude":74.4977,"temp":21.4,"humidity":99,"rain":0.0,"pressure":924.5,"uv_index":2.6,"wind_gusts":38.9,"aqi":26,"pm10":3.6,"pm2_5":2.7,"no2":3.2,"co":116.0,"o3":53.0,"so2":1.4,"mosquito_risk":3,"arthritis_risk":5,"migraine_risk":3,"frizz_risk":1,"updated_at":"2026-06-09T01:57:05.089014+05:30"},{"city":"Coimbatore","state":"Tamil Nadu","latitude":11.0168,"longitude":76.9558,"temp":23.5,"humidity":87,"rain":0.0,"pressure":961.7,"uv_index":5.7,"wind_gusts":50.4,"aqi":20,"pm10":1.8,"pm2_5":1.7,"no2":4.4,"co":134.0,"o3":38.0,"so2":1.8,"mosquito_risk":3,"arthritis_risk":5,"migraine_risk":3,"frizz_risk":1,"updated_at":"2026-06-09T01:57:05.089044+05:30"},{"city":"Madurai","state":"Tamil Nadu","latitude":9.9252,"longitude":78.1198,"temp":29.5,"humidity":61,"rain":0.0,"pressure":992.9,"uv_index":7.6,"wind_gusts":69.8,"aqi":26,"pm10":6.3,"pm2_5":5.3,"no2":9.4,"co":128.0,"o3":29.0,"so2":3.7,"mosquito_risk":7,"arthritis_risk":5,"migraine_risk":7,"frizz_risk":1,"updated_at":"2026-06-09T01:57:05.089053+05:30"},{"city":"Trichy","state":"Tamil Nadu","latitude":10.7905,"longitude":78.7047,"temp":29.0,"humidity":65,"rain":0.0,"pressure":999.5,"uv_index":3.5,"wind_gusts":68.8,"aqi":20,"pm10":4.9,"pm2_5":4.5,"no2":9.0,"co":131.0,"o3":29.0,"so2":3.7,"mosquito_risk":7,"arthritis_risk":5,"migraine_risk":3,"frizz_risk":1,"updated_at":"2026-06-09T01:57:05.089061+05:30"},{"city":"Salem","state":"Tamil Nadu","latitude":11.6643,"longitude":78.146,"temp":26.4,"humidity":75,"rain":0.0,"pressure":977.5,"uv_index":5.65,"wind_gusts":39.2,"aqi":26,"pm10":9.3,"pm2_5":8.7,"no2":16.8,"co":172.0,"o3":23.0,"so2":8.5,"mosquito_risk":7,"arthritis_risk":5,"migraine_risk":3,"frizz_risk":1,"updated_at":"2026-06-09T01:57:05.089067+05:30"},{"city":"Tirunelveli","state":"Tamil Nadu","latitude":8.7139,"longitude":77.7567,"temp":28.1,"humidity":73,"rain":0.0,"pressure":1004.2,"uv_index":6.35,"wind_gusts":51.5,"aqi":16,"pm10":4.2,"pm2_5":3.3,"no2":5.3,"co":153.0,"o3":30.0,"so2":1.4,"mosquito_risk":7,"arthritis_risk":5,"migraine_risk":4,"frizz_risk":1,"updated_at":"2026-06-09T01:57:05.089074+05:30"},{"city":"Vellore","state":"Tamil Nadu","latitude":12.9165,"longitude":79.1325,"temp":29.6,"humidity":58,"rain":0.0,"pressure":983.0,"uv_index":6.85,"wind_gusts":59.0,"aqi":35,"pm10":6.0,"pm2_5":4.8,"no2":7.9,"co":126.0,"o3":46.0,"so2":3.6,"mosquito_risk":4,"arthritis_risk":5,"migraine_risk":7,"frizz_risk":1,"updated_at":"2026-06-09T01:57:05.089081+05:30"},{"city":"Erode","state":"Tamil Nadu","latitude":11.341,"longitude":77.7172,"temp":25.9,"humidity":79,"rain":0.0,"pressure":988.9,"uv_index":6.3,"wind_gusts":58.3,"aqi":19,"pm10":4.7,"pm2_5":4.4,"no2":8.9,"co":129.0,"o3":32.0,"so2":3.2,"mosquito_risk":7,"arthritis_risk":5,"migraine_risk":7,"frizz_risk":1,"updated_at":"2026-06-09T01:57:05.089088+05:30"},{"city":"Kochi","state":"Kerala","latitude":9.9312,"longitude":76.2673,"temp":26.6,"humidity":89,"rain":0.1,"pressure":1010.9,"uv_index":6.9,"wind_gusts":47.9,"aqi":34,"pm10":9.1,"pm2_5":5.9,"no2":8.8,"co":89.0,"o3":32.0,"so2":2.5,"mosquito_risk":10,"arthritis_risk":0,"migraine_risk":4,"frizz_risk":1,"updated_at":"2026-06-09T01:57:05.089094+05:30"},{"city":"Thiruvananthapuram","state":"Kerala","latitude":8.5241,"longitude":76.9366,"temp":25.6,"humidity":93,"rain":0.1,"pressure":1010.5,"uv_index":7.6,"wind_gusts":57.6,"aqi":30,"pm10":12.1,"pm2_5":6.2,"no2":1.4,"co":81.0,"o3":41.0,"so2":0.4,"mosquito_risk":10,"arthritis_risk":0,"migraine_risk":4,"frizz_risk":1,"updated_at":"2026-06-09T01:57:05.089100+05:30"},{"city":"Kozhikode","state":"Kerala","latitude":11.2588,"longitude":75.7804,"temp":24.1,"humidity":97,"rain":0.3,"pressure":1010.1,"uv_index":7.65,"wind_gusts":34.9,"aqi":25,"pm10":7.4,"pm2_5":3.7,"no2":0.7,"co":108.0,"o3":56.0,"so2":0.3,"mosquito_risk":6,"arthritis_risk":0,"migraine_risk":4,"frizz_risk":1,"updated_at":"2026-06-09T01:57:05.089105+05:30"},{"city":"Thrissur","state":"Kerala","latitude":10.5276,"longitude":76.2144,"temp":24.6,"humidity":97,"rain":0.2,"pressure":1009.3,"uv_index":7.7,"wind_gusts":41.0,"aqi":30,"pm10":8.8,"pm2_5":6.3,"no2":6.5,"co":138.0,"o3":37.0,"so2":2.0,"mosquito_risk":6,"arthritis_risk":0,"migraine_risk":4,"frizz_risk":1,"updated_at":"2026-06-09T01:57:05.089112+05:30"},{"city":"Kannur","state":"Kerala","latitude":11.8745,"longitude":75.3704,"temp":24.2,"humidity":97,"rain":0.4,"pressure":1009.0,"uv_index":7.65,"wind_gusts":37.1,"aqi":25,"pm10":7.9,"pm2_5":4.7,"no2":4.3,"co":110.0,"o3":48.0,"so2":1.2,"mosquito_risk":6,"arthritis_risk":0,"migraine_risk":4,"frizz_risk":1,"updated_at":"2026-06-09T01:57:05.089117+05:30"},{"city":"Patna","state":"Bihar","latitude":25.5941,"longitude":85.1376,"temp":29.7,"humidity":70,"rain":0.0,"pressure":992.6,"uv_index":8.85,"wind_gusts":24.5,"aqi":159,"pm10":135.0,"pm2_5":85.2,"no2":61.1,"co":650.0,"o3":21.0,"so2":20.5,"mosquito_risk":7,"arthritis_risk":5,"migraine_risk":7,"frizz_risk":1,"updated_at":"2026-06-09T01:57:05.089123+05:30"},{"city":"Gaya","state":"Bihar","latitude":24.7914,"longitude":85.0002,"temp":29.6,"humidity":61,"rain":0.0,"pressure":986.1,"uv_index":5.75,"wind_gusts":31.7,"aqi":149,"pm10":95.0,"pm2_5":60.8,"no2":32.0,"co":435.0,"o3":40.0,"so2":10.1,"mosquito_risk":7,"arthritis_risk":5,"migraine_risk":3,"frizz_risk":1,"updated_at":"2026-06-09T01:57:05.089128+05:30"},{"city":"Muzaffarpur","state":"Bihar","latitude":26.1209,"longitude":85.3647,"temp":28.4,"humidity":74,"rain":0.0,"pressure":992.8,"uv_index":8.85,"wind_gusts":29.5,"aqi":166,"pm10":125.7,"pm2_5":93.6,"no2":51.6,"co":559.0,"o3":33.0,"so2":20.7,"mosquito_risk":7,"arthritis_risk":5,"migraine_risk":7,"frizz_risk":1,"updated_at":"2026-06-09T01:57:05.089133+05:30"},{"city":"Bhagalpur","state":"Bihar","latitude":25.2425,"longitude":87.0117,"temp":29.7,"humidity":58,"rain":0.0,"pressure":993.7,"uv_index":8.85,"wind_gusts":32.0,"aqi":152,"pm10":91.5,"pm2_5":80.8,"no2":22.9,"co":597.0,"o3":73.0,"so2":16.4,"mosquito_risk":4,"arthritis_risk":5,"migraine_risk":7,"frizz_risk":1,"updated_at":"2026-06-09T01:57:05.089138+05:30"},{"city":"Ranchi","state":"Jharkhand","latitude":23.3441,"longitude":85.3096,"temp":26.3,"humidity":64,"rain":0.0,"pressure":932.1,"uv_index":8.05,"wind_gusts":32.0,"aqi":127,"pm10":95.7,"pm2_5":61.9,"no2":26.6,"co":307.0,"o3":70.0,"so2":11.7,"mosquito_risk":7,"arthritis_risk":5,"migraine_risk":7,"frizz_risk":1,"updated_at":"2026-06-09T01:57:05.089143+05:30"},{"city":"Jamshedpur","state":"Jharkhand","latitude":22.8046,"longitude":86.2029,"temp":28.6,"humidity":71,"rain":0.0,"pressure":984.2,"uv_index":8.5,"wind_gusts":26.6,"aqi":146,"pm10":73.6,"pm2_5":53.2,"no2":18.6,"co":425.0,"o3":93.0,"so2":27.0,"mosquito_risk":7,"arthritis_risk":5,"migraine_risk":7,"frizz_risk":1,"updated_at":"2026-06-09T01:57:05.089148+05:30"},{"city":"Dhanbad","state":"Jharkhand","latitude":23.7957,"longitude":86.4304,"temp":28.6,"humidity":68,"rain":0.0,"pressure":972.8,"uv_index":8.5,"wind_gusts":31.0,"aqi":165,"pm10":132.7,"pm2_5":95.7,"no2":79.3,"co":321.0,"o3":29.0,"so2":145.2,"mosquito_risk":7,"arthritis_risk":5,"migraine_risk":7,"frizz_risk":1,"updated_at":"2026-06-09T01:57:05.089154+05:30"},{"city":"Bokaro","state":"Jharkhand","latitude":23.6693,"longitude":86.1511,"temp":28.5,"humidity":71,"rain":0.0,"pressure":976.7,"uv_index":9.05,"wind_gusts":31.7,"aqi":163,"pm10":133.2,"pm2_5":97.1,"no2":66.8,"co":273.0,"o3":9.0,"so2":95.3,"mosquito_risk":7,"arthritis_risk":5,"migraine_risk":7,"frizz_risk":1,"updated_at":"2026-06-09T01:57:05.089159+05:30"},{"city":"Bhubaneswar","state":"Odisha","latitude":20.2961,"longitude":85.8245,"temp":29.1,"humidity":93,"rain":0.0,"pressure":995.8,"uv_index":8.75,"wind_gusts":31.7,"aqi":88,"pm10":35.0,"pm2_5":31.5,"no2":10.2,"co":397.0,"o3":93.0,"so2":8.2,"mosquito_risk":7,"arthritis_risk":5,"migraine_risk":7,"frizz_risk":1,"updated_at":"2026-06-09T01:57:05.089164+05:30"},{"city":"Cuttack","state":"Odisha","latitude":20.4625,"longitude":85.8828,"temp":28.8,"humidity":92,"rain":0.0,"pressure":997.7,"uv_index":8.9,"wind_gusts":30.6,"aqi":88,"pm10":35.0,"pm2_5":31.5,"no2":10.2,"co":404.0,"o3":93.0,"so2":8.2,"mosquito_risk":7,"arthritis_risk":5,"migraine_risk":7,"frizz_risk":1,"updated_at":"2026-06-09T01:57:05.089170+05:30"},{"city":"Rourkela","state":"Odisha","latitude":22.2604,"longitude":84.8536,"temp":28.5,"humidity":72,"rain":0.0,"pressure":979.1,"uv_index":8.75,"wind_gusts":33.1,"aqi":142,"pm10":67.1,"pm2_5":48.8,"no2":13.7,"co":423.0,"o3":95.0,"so2":16.7,"mosquito_risk":7,"arthritis_risk":5,"migraine_risk":7,"frizz_risk":1,"updated_at":"2026-06-09T01:57:05.089176+05:30"},{"city":"Raipur","state":"Chhattisgarh","latitude":21.2514,"longitude":81.6296,"temp":31.1,"humidity":53,"rain":0.0,"pressure":970.0,"uv_index":8.8,"wind_gusts":36.7,"aqi":119,"pm10":51.5,"pm2_5":40.9,"no2":30.2,"co":348.0,"o3":71.0,"so2":46.7,"mosquito_risk":0,"arthritis_risk":5,"migraine_risk":7,"frizz_risk":1,"updated_at":"2026-06-09T01:57:05.089180+05:30"},{"city":"Bhilai","state":"Chhattisgarh","latitude":21.1938,"longitude":81.3509,"temp":29.7,"humidity":61,"rain":0.0,"pressure":970.6,"uv_index":8.3,"wind_gusts":37.8,"aqi":113,"pm10":52.9,"pm2_5":41.6,"no2":27.2,"co":440.0,"o3":69.0,"so2":39.4,"mosquito_risk":7,"arthritis_risk":5,"migraine_risk":7,"frizz_risk":1,"updated_at":"2026-06-09T01:57:05.089185+05:30"},{"city":"Guwahati","state":"Assam","latitude":26.1158,"longitude":91.7086,"temp":24.6,"humidity":99,"rain":0.0,"pressure":996.8,"uv_index":8.85,"wind_gusts":28.1,"aqi":84,"pm10":36.6,"pm2_5":33.4,"no2":9.4,"co":411.0,"o3":75.0,"so2":2.4,"mosquito_risk":3,"arthritis_risk":5,"migraine_risk":7,"frizz_risk":1,"updated_at":"2026-06-09T01:57:05.089190+05:30"},{"city":"Agartala","state":"Tripura","latitude":23.8315,"longitude":91.2868,"temp":25.7,"humidity":90,"rain":0.0,"pressure":1000.9,"uv_index":8.85,"wind_gusts":35.3,"aqi":63,"pm10":14.9,"pm2_5":13.3,"no2":10.1,"co":246.0,"o3":71.0,"so2":3.8,"mosquito_risk":7,"arthritis_risk":5,"migraine_risk":4,"frizz_risk":1,"updated_at":"2026-06-09T01:57:05.089195+05:30"},{"city":"Shillong","state":"Meghalaya","latitude":25.5788,"longitude":91.8933,"temp":18.0,"humidity":95,"rain":0.0,"pressure":852.6,"uv_index":6.5,"wind_gusts":29.5,"aqi":55,"pm10":16.2,"pm2_5":13.9,"no2":3.8,"co":263.0,"o3":98.0,"so2":3.1,"mosquito_risk":3,"arthritis_risk":10,"migraine_risk":7,"frizz_risk":1,"updated_at":"2026-06-09T01:57:05.089200+05:30"},{"city":"Imphal","state":"Manipur","latitude":24.817,"longitude":93.9368,"temp":22.2,"humidity":98,"rain":0.0,"pressure":918.4,"uv_index":8.8,"wind_gusts":34.2,"aqi":55,"pm10":22.9,"pm2_5":21.7,"no2":11.1,"co":455.0,"o3":44.0,"so2":2.1,"mosquito_risk":3,"arthritis_risk":5,"migraine_risk":7,"frizz_risk":1,"updated_at":"2026-06-09T01:57:05.089206+05:30"},{"city":"Aizawl","state":"Mizoram","latitude":23.7271,"longitude":92.7176,"temp":19.3,"humidity":97,"rain":0.1,"pressure":888.1,"uv_index":8.5,"wind_gusts":32.0,"aqi":29,"pm10":6.4,"pm2_5":5.5,"no2":3.4,"co":159.0,"o3":54.0,"so2":0.8,"mosquito_risk":6,"arthritis_risk":10,"migraine_risk":7,"frizz_risk":1,"updated_at":"2026-06-09T01:57:05.089210+05:30"},{"city":"Kohima","state":"Nagaland","latitude":25.6701,"longitude":94.1077,"temp":18.5,"humidity":95,"rain":0.1,"pressure":850.8,"uv_index":8.5,"wind_gusts":28.1,"aqi":25,"pm10":9.3,"pm2_5":8.9,"no2":8.4,"co":271.0,"o3":32.0,"so2":0.5,"mosquito_risk":6,"arthritis_risk":10,"migraine_risk":7,"frizz_risk":1,"updated_at":"2026-06-09T01:57:05.089215+05:30"},{"city":"Gangtok","state":"Sikkim","latitude":27.3314,"longitude":88.6138,"temp":17.1,"humidity":91,"rain":0.2,"pressure":833.4,"uv_index":8.95,"wind_gusts":37.4,"aqi":85,"pm10":10.8,"pm2_5":9.7,"no2":6.2,"co":598.0,"o3":122.0,"so2":3.5,"mosquito_risk":6,"arthritis_risk":10,"migraine_risk":7,"frizz_risk":0,"updated_at":"2026-06-09T01:57:05.089221+05:30"},{"city":"Siliguri","state":"West Bengal","latitude":26.7271,"longitude":88.3953,"temp":23.0,"humidity":99,"rain":0.3,"pressure":987.9,"uv_index":8.8,"wind_gusts":25.2,"aqi":118,"pm10":39.7,"pm2_5":35.3,"no2":10.4,"co":440.0,"o3":115.0,"so2":5.8,"mosquito_risk":6,"arthritis_risk":5,"migraine_risk":7,"frizz_risk":1,"updated_at":"2026-06-09T01:57:08.473249+05:30"},{"city":"Durgapur","state":"West Bengal","latitude":23.5204,"longitude":87.3119,"temp":28.4,"humidity":84,"rain":0.0,"pressure":987.9,"uv_index":8.9,"wind_gusts":28.8,"aqi":163,"pm10":79.6,"pm2_5":63.6,"no2":27.7,"co":947.0,"o3":79.0,"so2":44.3,"mosquito_risk":7,"arthritis_risk":5,"migraine_risk":7,"frizz_risk":1,"updated_at":"2026-06-09T01:57:08.473280+05:30"},{"city":"Asansol","state":"West Bengal","latitude":23.6739,"longitude":86.9524,"temp":28.6,"humidity":79,"rain":0.0,"pressure":986.4,"uv_index":7.55,"wind_gusts":29.2,"aqi":158,"pm10":84.3,"pm2_5":65.0,"no2":38.9,"co":542.0,"o3":64.0,"so2":55.8,"mosquito_risk":7,"arthritis_risk":5,"migraine_risk":7,"frizz_risk":1,"updated_at":"2026-06-09T01:57:08.473289+05:30"},{"city":"Pondicherry","state":"Puducherry","latitude":11.9139,"longitude":79.8145,"temp":30.3,"humidity":61,"rain":0.0,"pressure":1006.4,"uv_index":7.55,"wind_gusts":40.0,"aqi":40,"pm10":7.3,"pm2_5":6.4,"no2":12.9,"co":147.0,"o3":36.0,"so2":9.9,"mosquito_risk":3,"arthritis_risk":5,"migraine_risk":4,"frizz_risk":1,"updated_at":"2026-06-09T01:57:08.473296+05:30"},{"city":"Port Blair","state":"Andaman and Nicobar Islands","latitude":11.6234,"longitude":92.7265,"temp":25.4,"humidity":96,"rain":0.1,"pressure":1006.1,"uv_index":8.25,"wind_gusts":50.0,"aqi":24,"pm10":12.0,"pm2_5":6.9,"no2":0.2,"co":80.0,"o3":45.0,"so2":0.3,"mosquito_risk":10,"arthritis_risk":5,"migraine_risk":4,"frizz_risk":1,"updated_at":"2026-06-09T01:57:08.473303+05:30"},{"city":"Haridwar","state":"Uttarakhand","latitude":29.9457,"longitude":78.1642,"temp":25.9,"humidity":62,"rain":0.0,"pressure":965.5,"uv_index":7.65,"wind_gusts":25.9,"aqi":102,"pm10":47.6,"pm2_5":46.6,"no2":33.8,"co":481.0,"o3":51.0,"so2":10.4,"mosquito_risk":7,"arthritis_risk":5,"migraine_risk":7,"frizz_risk":1,"updated_at":"2026-06-09T01:57:08.473309+05:30"},{"city":"Rishikesh","state":"Uttarakhand","latitude":30.0869,"longitude":78.2676,"temp":22.6,"humidity":80,"rain":0.0,"pressure":958.0,"uv_index":7.75,"wind_gusts":27.7,"aqi":110,"pm10":34.5,"pm2_5":31.3,"no2":21.6,"co":332.0,"o3":81.0,"so2":7.2,"mosquito_risk":3,"arthritis_risk":5,"migraine_risk":7,"frizz_risk":1,"updated_at":"2026-06-09T01:57:08.473315+05:30"},{"city":"Nainital","state":"Uttarakhand","latitude":29.3919,"longitude":79.4542,"temp":16.2,"humidity":65,"rain":0.0,"pressure":800.8,"uv_index":8.6,"wind_gusts":46.8,"aqi":91,"pm10":36.4,"pm2_5":32.1,"no2":23.1,"co":332.0,"o3":69.0,"so2":5.1,"mosquito_risk":3,"arthritis_risk":5,"migraine_risk":7,"frizz_risk":0,"updated_at":"2026-06-09T01:57:08.473321+05:30"},{"city":"Mussoorie","state":"Uttarakhand","latitude":30.4599,"longitude":78.0664,"temp":17.8,"humidity":51,"rain":0.0,"pressure":798.9,"uv_index":8.15,"wind_gusts":51.8,"aqi":89,"pm10":38.2,"pm2_5":35.3,"no2":37.7,"co":239.0,"o3":54.0,"so2":8.6,"mosquito_risk":0,"arthritis_risk":5,"migraine_risk":7,"frizz_risk":0,"updated_at":"2026-06-09T01:57:08.473328+05:30"},{"city":"Dharamshala","state":"Himachal Pradesh","latitude":32.219,"longitude":76.3234,"temp":23.1,"humidity":40,"rain":0.0,"pressure":863.5,"uv_index":8.5,"wind_gusts":48.6,"aqi":43,"pm10":14.0,"pm2_5":12.5,"no2":16.1,"co":200.0,"o3":36.0,"so2":0.2,"mosquito_risk":0,"arthritis_risk":5,"migraine_risk":7,"frizz_risk":0,"updated_at":"2026-06-09T01:57:08.473334+05:30"},{"city":"Dalhousie","state":"Himachal Pradesh","latitude":32.5387,"longitude":75.971,"temp":12.6,"humidity":73,"rain":0.0,"pressure":796.7,"uv_index":8.75,"wind_gusts":39.6,"aqi":65,"pm10":29.9,"pm2_5":27.7,"no2":37.4,"co":355.0,"o3":31.0,"so2":2.0,"mosquito_risk":3,"arthritis_risk":5,"migraine_risk":7,"frizz_risk":0,"updated_at":"2026-06-09T01:57:08.473340+05:30"},{"city":"Patiala","state":"Punjab","latitude":30.3398,"longitude":76.3869,"temp":30.0,"humidity":41,"rain":0.0,"pressure":969.2,"uv_index":7.65,"wind_gusts":38.9,"aqi":190,"pm10":612.8,"pm2_5":119.0,"no2":20.4,"co":528.0,"o3":67.0,"so2":8.5,"mosquito_risk":4,"arthritis_risk":5,"migraine_risk":7,"frizz_risk":0,"updated_at":"2026-06-09T01:57:08.473345+05:30"},{"city":"Bhatinda","state":"Punjab","latitude":30.211,"longitude":74.9455,"temp":32.3,"humidity":38,"rain":0.0,"pressure":974.6,"uv_index":8.35,"wind_gusts":24.5,"aqi":92,"pm10":47.7,"pm2_5":35.5,"no2":31.3,"co":548.0,"o3":60.0,"so2":8.8,"mosquito_risk":0,"arthritis_risk":5,"migraine_risk":7,"frizz_risk":1,"updated_at":"2026-06-09T01:57:08.473351+05:30"},{"city":"Rohtak","state":"Haryana","latitude":28.8955,"longitude":76.6066,"temp":29.1,"humidity":51,"rain":0.0,"pressure":973.0,"uv_index":7.8,"wind_gusts":32.0,"aqi":639,"pm10":791.6,"pm2_5":163.4,"no2":70.1,"co":583.0,"o3":14.0,"so2":11.0,"mosquito_risk":4,"arthritis_risk":5,"migraine_risk":7,"frizz_risk":1,"updated_at":"2026-06-09T01:57:08.473356+05:30"},{"city":"Panipat","state":"Haryana","latitude":29.3909,"longitude":76.9635,"temp":28.8,"humidity":49,"rain":0.0,"pressure":971.3,"uv_index":7.6,"wind_gusts":34.2,"aqi":1108,"pm10":646.3,"pm2_5":147.1,"no2":43.4,"co":447.0,"o3":43.0,"so2":8.4,"mosquito_risk":4,"arthritis_risk":5,"migraine_risk":7,"frizz_risk":1,"updated_at":"2026-06-09T01:57:08.473361+05:30"},{"city":"Mathura","state":"Uttar Pradesh","latitude":27.4924,"longitude":77.6737,"temp":28.9,"humidity":44,"rain":0.0,"pressure":978.5,"uv_index":8.1,"wind_gusts":43.9,"aqi":598,"pm10":421.0,"pm2_5":114.1,"no2":60.6,"co":674.0,"o3":2.0,"so2":7.4,"mosquito_risk":4,"arthritis_risk":5,"migraine_risk":7,"frizz_risk":0,"updated_at":"2026-06-09T01:57:08.473367+05:30"},{"city":"Vrindavan","state":"Uttar Pradesh","latitude":27.5823,"longitude":77.7027,"temp":29.0,"humidity":44,"rain":0.0,"pressure":978.9,"uv_index":8.1,"wind_gusts":43.6,"aqi":598,"pm10":421.0,"pm2_5":114.1,"no2":60.6,"co":593.0,"o3":2.0,"so2":7.4,"mosquito_risk":4,"arthritis_risk":5,"migraine_risk":7,"frizz_risk":0,"updated_at":"2026-06-09T01:57:08.473372+05:30"},{"city":"Ayodhya","state":"Uttar Pradesh","latitude":26.7922,"longitude":82.1998,"temp":28.2,"humidity":55,"rain":0.0,"pressure":986.9,"uv_index":8.45,"wind_gusts":15.5,"aqi":152,"pm10":156.9,"pm2_5":66.4,"no2":25.6,"co":349.0,"o3":45.0,"so2":9.5,"mosquito_risk":4,"arthritis_risk":5,"migraine_risk":7,"frizz_risk":1,"updated_at":"2026-06-09T01:57:08.473378+05:30"},{"city":"Ratlam","state":"Madhya Pradesh","latitude":23.3315,"longitude":75.0367,"temp":27.6,"humidity":74,"rain":0.0,"pressure":951.4,"uv_index":8.55,"wind_gusts":43.6,"aqi":85,"pm10":35.4,"pm2_5":22.5,"no2":5.3,"co":144.0,"o3":71.0,"so2":11.1,"mosquito_risk":7,"arthritis_risk":5,"migraine_risk":7,"frizz_risk":1,"updated_at":"2026-06-09T01:57:08.473383+05:30"},{"city":"Sagar","state":"Madhya Pradesh","latitude":23.8388,"longitude":78.7378,"temp":29.3,"humidity":56,"rain":0.0,"pressure":944.9,"uv_index":7.1,"wind_gusts":40.3,"aqi":81,"pm10":48.7,"pm2_5":26.5,"no2":7.3,"co":159.0,"o3":74.0,"so2":4.7,"mosquito_risk":4,"arthritis_risk":5,"migraine_risk":7,"frizz_risk":1,"updated_at":"2026-06-09T01:57:08.473388+05:30"},{"city":"Satna","state":"Madhya Pradesh","latitude":24.6005,"longitude":80.8322,"temp":31.6,"humidity":46,"rain":0.0,"pressure":965.2,"uv_index":8.8,"wind_gusts":44.6,"aqi":87,"pm10":46.0,"pm2_5":26.4,"no2":11.8,"co":175.0,"o3":58.0,"so2":4.2,"mosquito_risk":0,"arthritis_risk":5,"migraine_risk":7,"frizz_risk":1,"updated_at":"2026-06-09T01:57:08.473393+05:30"},{"city":"Akola","state":"Maharashtra","latitude":20.7002,"longitude":77.0082,"temp":31.3,"humidity":49,"rain":0.0,"pressure":971.2,"uv_index":8.55,"wind_gusts":44.6,"aqi":84,"pm10":39.5,"pm2_5":23.6,"no2":7.9,"co":164.0,"o3":70.0,"so2":8.7,"mosquito_risk":0,"arthritis_risk":5,"migraine_risk":7,"frizz_risk":1,"updated_at":"2026-06-09T01:57:08.473399+05:30"},{"city":"Amravati","state":"Maharashtra","latitude":20.9374,"longitude":77.7796,"temp":32.4,"humidity":43,"rain":0.0,"pressure":963.2,"uv_index":8.85,"wind_gusts":43.2,"aqi":86,"pm10":39.0,"pm2_5":24.2,"no2":9.1,"co":182.0,"o3":73.0,"so2":8.2,"mosquito_risk":0,"arthritis_risk":5,"migraine_risk":7,"frizz_risk":1,"updated_at":"2026-06-09T01:57:08.473419+05:30"},{"city":"Latur","state":"Maharashtra","latitude":18.4088,"longitude":76.5604,"temp":26.8,"humidity":68,"rain":0.0,"pressure":937.4,"uv_index":2.55,"wind_gusts":47.5,"aqi":69,"pm10":16.9,"pm2_5":8.9,"no2":5.5,"co":157.0,"o3":55.0,"so2":2.5,"mosquito_risk":7,"arthritis_risk":5,"migraine_risk":3,"frizz_risk":1,"updated_at":"2026-06-09T01:57:08.473425+05:30"},{"city":"Nanded","state":"Maharashtra","latitude":19.1383,"longitude":77.3091,"temp":30.4,"humidity":53,"rain":0.0,"pressure":965.0,"uv_index":8.9,"wind_gusts":47.5,"aqi":79,"pm10":30.3,"pm2_5":19.8,"no2":6.0,"co":160.0,"o3":87.0,"so2":7.0,"mosquito_risk":0,"arthritis_risk":5,"migraine_risk":7,"frizz_risk":1,"updated_at":"2026-06-09T01:57:08.473431+05:30"},{"city":"Gulbarga","state":"Karnataka","latitude":17.3297,"longitude":76.8343,"temp":24.6,"humidity":93,"rain":0.0,"pressure":956.1,"uv_index":7.4,"wind_gusts":49.0,"aqi":57,"pm10":11.3,"pm2_5":7.9,"no2":8.8,"co":155.0,"o3":52.0,"so2":3.3,"mosquito_risk":3,"arthritis_risk":5,"migraine_risk":7,"frizz_risk":1,"updated_at":"2026-06-09T01:57:08.473437+05:30"},{"city":"Bidar","state":"Karnataka","latitude":17.9104,"longitude":77.5199,"temp":25.5,"humidity":77,"rain":0.0,"pressure":932.9,"uv_index":8.95,"wind_gusts":60.1,"aqi":69,"pm10":21.3,"pm2_5":15.0,"no2":10.2,"co":188.0,"o3":62.0,"so2":3.5,"mosquito_risk":7,"arthritis_risk":5,"migraine_risk":7,"frizz_risk":1,"updated_at":"2026-06-09T01:57:08.473442+05:30"},{"city":"Hospet","state":"Karnataka","latitude":15.2689,"longitude":76.3909,"temp":23.4,"humidity":95,"rain":0.0,"pressure":954.9,"uv_index":2.0,"wind_gusts":45.4,"aqi":26,"pm10":4.7,"pm2_5":3.9,"no2":5.6,"co":154.0,"o3":43.0,"so2":1.2,"mosquito_risk":3,"arthritis_risk":5,"migraine_risk":3,"frizz_risk":1,"updated_at":"2026-06-09T01:57:08.473447+05:30"},{"city":"Tirupur","state":"Tamil Nadu","latitude":11.1085,"longitude":77.3411,"temp":25.2,"humidity":79,"rain":0.0,"pressure":975.2,"uv_index":4.55,"wind_gusts":60.1,"aqi":20,"pm10":5.1,"pm2_5":4.7,"no2":9.2,"co":128.0,"o3":33.0,"so2":3.5,"mosquito_risk":7,"arthritis_risk":5,"migraine_risk":3,"frizz_risk":1,"updated_at":"2026-06-09T01:57:08.473452+05:30"},{"city":"Alappuzha","state":"Kerala","latitude":9.4981,"longitude":76.3388,"temp":26.2,"humidity":94,"rain":0.2,"pressure":1011.3,"uv_index":6.75,"wind_gusts":48.2,"aqi":31,"pm10":13.9,"pm2_5":7.0,"no2":2.7,"co":79.0,"o3":46.0,"so2":0.9,"mosquito_risk":10,"arthritis_risk":0,"migraine_risk":4,"frizz_risk":1,"updated_at":"2026-06-09T01:57:08.473457+05:30"},{"city":"Munnar","state":"Kerala","latitude":10.0889,"longitude":77.0595,"temp":17.2,"humidity":100,"rain":0.5,"pressure":857.4,"uv_index":8.05,"wind_gusts":57.6,"aqi":17,"pm10":1.5,"pm2_5":1.4,"no2":6.4,"co":95.0,"o3":25.0,"so2":1.6,"mosquito_risk":6,"arthritis_risk":10,"migraine_risk":7,"frizz_risk":1,"updated_at":"2026-06-09T01:57:08.473463+05:30"},{"city":"Silchar","state":"Assam","latitude":24.8333,"longitude":92.7789,"temp":24.9,"humidity":99,"rain":0.1,"pressure":1000.6,"uv_index":9.0,"wind_gusts":25.2,"aqi":59,"pm10":14.9,"pm2_5":13.0,"no2":8.4,"co":278.0,"o3":70.0,"so2":3.0,"mosquito_risk":6,"arthritis_risk":5,"migraine_risk":4,"frizz_risk":1,"updated_at":"2026-06-09T01:57:08.473469+05:30"},{"city":"Dibrugarh","state":"Assam","latitude":27.4728,"longitude":94.912,"temp":25.1,"humidity":95,"rain":0.0,"pressure":990.0,"uv_index":8.95,"wind_gusts":24.1,"aqi":65,"pm10":13.7,"pm2_5":12.2,"no2":7.6,"co":268.0,"o3":82.0,"so2":1.1,"mosquito_risk":7,"arthritis_risk":5,"migraine_risk":7,"frizz_risk":1,"updated_at":"2026-06-09T01:57:08.473475+05:30"}]