[{"city":"Delhi","state":"Delhi","latitude":28.6139,"longitude":77.209,"temp":34.7,"humidity":40,"rain":0.0,"pressure":981.6,"uv_index":7.65,"wind_gusts":37.4,"aqi":221,"pm10":327.8,"pm2_5":85.2,"no2":20.8,"co":888.0,"o3":165.0,"so2":35.3,"mosquito_risk":0,"arthritis_risk":5,"migraine_risk":7,"frizz_risk":1,"updated_at":"2026-05-13T10:19:27.472178+05:30"},{"city":"Mumbai","state":"Maharashtra","latitude":19.076,"longitude":72.8777,"temp":32.8,"humidity":63,"rain":0.0,"pressure":1006.5,"uv_index":7.85,"wind_gusts":41.0,"aqi":81,"pm10":51.9,"pm2_5":28.6,"no2":11.6,"co":286.0,"o3":102.0,"so2":38.3,"mosquito_risk":3,"arthritis_risk":5,"migraine_risk":4,"frizz_risk":1,"updated_at":"2026-05-13T10:19:27.472218+05:30"},{"city":"Bangalore","state":"Karnataka","latitude":12.9716,"longitude":77.5946,"temp":30.6,"humidity":38,"rain":0.0,"pressure":911.5,"uv_index":9.45,"wind_gusts":34.9,"aqi":73,"pm10":35.6,"pm2_5":24.0,"no2":14.3,"co":755.0,"o3":127.0,"so2":16.5,"mosquito_risk":0,"arthritis_risk":5,"migraine_risk":7,"frizz_risk":0,"updated_at":"2026-05-13T10:19:27.472234+05:30"},{"city":"Hyderabad","state":"Telangana","latitude":17.385,"longitude":78.4867,"temp":33.5,"humidity":43,"rain":0.0,"pressure":952.6,"uv_index":9.05,"wind_gusts":25.9,"aqi":64,"pm10":28.7,"pm2_5":17.0,"no2":5.5,"co":470.0,"o3":107.0,"so2":5.8,"mosquito_risk":0,"arthritis_risk":5,"migraine_risk":7,"frizz_risk":1,"updated_at":"2026-05-13T10:19:27.472244+05:30"},{"city":"Chennai","state":"Tamil Nadu","latitude":13.0827,"longitude":80.2707,"temp":33.5,"humidity":55,"rain":0.0,"pressure":1004.6,"uv_index":8.8,"wind_gusts":40.3,"aqi":25,"pm10":5.4,"pm2_5":3.9,"no2":3.2,"co":193.0,"o3":53.0,"so2":5.3,"mosquito_risk":0,"arthritis_risk":5,"migraine_risk":4,"frizz_risk":1,"updated_at":"2026-05-13T10:19:27.472253+05:30"},{"city":"Kolkata","state":"West Bengal","latitude":22.5726,"longitude":88.3639,"temp":31.6,"humidity":63,"rain":0.0,"pressure":1005.3,"uv_index":9.0,"wind_gusts":30.2,"aqi":72,"pm10":23.4,"pm2_5":16.5,"no2":3.5,"co":268.0,"o3":89.0,"so2":8.1,"mosquito_risk":3,"arthritis_risk":5,"migraine_risk":4,"frizz_risk":1,"updated_at":"2026-05-13T10:19:27.472262+05:30"},{"city":"Pune","state":"Maharashtra","latitude":18.5204,"longitude":73.8567,"temp":35.2,"humidity":28,"rain":0.0,"pressure":947.1,"uv_index":7.55,"wind_gusts":45.0,"aqi":68,"pm10":46.4,"pm2_5":21.2,"no2":10.9,"co":281.0,"o3":117.0,"so2":19.0,"mosquito_risk":0,"arthritis_risk":5,"migraine_risk":10,"frizz_risk":0,"updated_at":"2026-05-13T10:19:27.472273+05:30"},{"city":"Ahmedabad","state":"Gujarat","latitude":23.0225,"longitude":72.5714,"temp":36.5,"humidity":33,"rain":0.0,"pressure":999.3,"uv_index":8.2,"wind_gusts":37.1,"aqi":69,"pm10":67.1,"pm2_5":20.9,"no2":5.7,"co":281.0,"o3":96.0,"so2":8.8,"mosquito_risk":0,"arthritis_risk":5,"migraine_risk":10,"frizz_risk":1,"updated_at":"2026-05-13T10:19:27.472283+05:30"},{"city":"Jaipur","state":"Rajasthan","latitude":26.9124,"longitude":75.7873,"temp":38.1,"humidity":20,"rain":0.0,"pressure":957.8,"uv_index":8.2,"wind_gusts":35.3,"aqi":174,"pm10":248.7,"pm2_5":60.5,"no2":5.8,"co":471.0,"o3":138.0,"so2":10.0,"mosquito_risk":0,"arthritis_risk":5,"migraine_risk":10,"frizz_risk":0,"updated_at":"2026-05-13T10:19:27.472291+05:30"},{"city":"Lucknow","state":"Uttar Pradesh","latitude":26.8467,"longitude":80.9462,"temp":34.7,"humidity":48,"rain":0.0,"pressure":991.4,"uv_index":8.15,"wind_gusts":33.1,"aqi":133,"pm10":64.3,"pm2_5":54.6,"no2":5.3,"co":443.0,"o3":170.0,"so2":15.5,"mosquito_risk":0,"arthritis_risk":5,"migraine_risk":7,"frizz_risk":1,"updated_at":"2026-05-13T10:19:27.472299+05:30"},{"city":"Kanpur","state":"Uttar Pradesh","latitude":26.4499,"longitude":80.3319,"temp":36.5,"humidity":38,"rain":0.0,"pressure":989.1,"uv_index":8.2,"wind_gusts":43.2,"aqi":152,"pm10":324.1,"pm2_5":75.7,"no2":5.1,"co":433.0,"o3":176.0,"so2":17.5,"mosquito_risk":0,"arthritis_risk":5,"migraine_risk":10,"frizz_risk":1,"updated_at":"2026-05-13T10:19:27.472307+05:30"},{"city":"Chandigarh","state":"Chandigarh","latitude":30.7333,"longitude":76.7794,"temp":30.9,"humidity":51,"rain":0.0,"pressure":967.9,"uv_index":7.7,"wind_gusts":32.8,"aqi":119,"pm10":109.9,"pm2_5":46.6,"no2":4.8,"co":478.0,"o3":184.0,"so2":15.7,"mosquito_risk":0,"arthritis_risk":5,"migraine_risk":7,"frizz_risk":1,"updated_at":"2026-05-13T10:19:27.472314+05:30"},{"city":"Srinagar","state":"Jammu and Kashmir","latitude":34.0837,"longitude":74.7973,"temp":16.8,"humidity":68,"rain":0.0,"pressure":844.2,"uv_index":8.85,"wind_gusts":32.0,"aqi":81,"pm10":34.9,"pm2_5":22.8,"no2":5.0,"co":361.0,"o3":105.0,"so2":2.5,"mosquito_risk":3,"arthritis_risk":5,"migraine_risk":7,"frizz_risk":0,"updated_at":"2026-05-13T10:19:27.472322+05:30"},{"city":"Jammu","state":"Jammu and Kashmir","latitude":32.7266,"longitude":74.857,"temp":32.4,"humidity":34,"rain":0.0,"pressure":971.1,"uv_index":8.45,"wind_gusts":25.6,"aqi":114,"pm10":34.9,"pm2_5":23.1,"no2":10.2,"co":411.0,"o3":98.0,"so2":2.3,"mosquito_risk":0,"arthritis_risk":5,"migraine_risk":7,"frizz_risk":0,"updated_at":"2026-05-13T10:19:27.472330+05:30"},{"city":"Amritsar","state":"Punjab","latitude":31.634,"longitude":74.8723,"temp":33.7,"humidity":45,"rain":0.0,"pressure":978.5,"uv_index":8.35,"wind_gusts":59.0,"aqi":150,"pm10":80.1,"pm2_5":41.3,"no2":8.0,"co":582.0,"o3":132.0,"so2":7.4,"mosquito_risk":0,"arthritis_risk":5,"migraine_risk":7,"frizz_risk":1,"updated_at":"2026-05-13T10:19:27.472336+05:30"},{"city":"Ludhiana","state":"Punjab","latitude":30.901,"longitude":75.8573,"temp":33.3,"humidity":44,"rain":0.0,"pressure":976.7,"uv_index":7.95,"wind_gusts":45.7,"aqi":162,"pm10":174.2,"pm2_5":74.0,"no2":8.2,"co":732.0,"o3":163.0,"so2":22.1,"mosquito_risk":0,"arthritis_risk":5,"migraine_risk":7,"frizz_risk":1,"updated_at":"2026-05-13T10:19:27.472343+05:30"},{"city":"Jalandhar","state":"Punjab","latitude":31.326,"longitude":75.5762,"temp":33.3,"humidity":43,"rain":0.0,"pressure":977.7,"uv_index":8.15,"wind_gusts":41.4,"aqi":150,"pm10":99.0,"pm2_5":52.4,"no2":7.5,"co":646.0,"o3":149.0,"so2":12.6,"mosquito_risk":0,"arthritis_risk":5,"migraine_risk":7,"frizz_risk":1,"updated_at":"2026-05-13T10:19:27.472350+05:30"},{"city":"Dehradun","state":"Uttarakhand","latitude":30.6284,"longitude":78.0322,"temp":20.8,"humidity":57,"rain":0.0,"pressure":832.5,"uv_index":8.1,"wind_gusts":32.4,"aqi":70,"pm10":36.2,"pm2_5":13.4,"no2":1.0,"co":285.0,"o3":137.0,"so2":1.1,"mosquito_risk":0,"arthritis_risk":5,"migraine_risk":7,"frizz_risk":0,"updated_at":"2026-05-13T10:19:27.472359+05:30"},{"city":"Shimla","state":"Himachal Pradesh","latitude":31.1048,"longitude":77.1734,"temp":21.2,"humidity":32,"rain":0.0,"pressure":787.4,"uv_index":8.2,"wind_gusts":42.8,"aqi":79,"pm10":65.2,"pm2_5":20.8,"no2":1.3,"co":248.0,"o3":142.0,"so2":2.4,"mosquito_risk":0,"arthritis_risk":5,"migraine_risk":7,"frizz_risk":0,"updated_at":"2026-05-13T10:19:27.472387+05:30"},{"city":"Manali","state":"Himachal Pradesh","latitude":32.2396,"longitude":77.1887,"temp":20.3,"humidity":29,"rain":0.0,"pressure":819.1,"uv_index":9.6,"wind_gusts":40.3,"aqi":56,"pm10":17.1,"pm2_5":6.8,"no2":6.8,"co":167.0,"o3":132.0,"so2":0.7,"mosquito_risk":0,"arthritis_risk":5,"migraine_risk":7,"frizz_risk":0,"updated_at":"2026-05-13T10:19:27.472395+05:30"},{"city":"Gurgaon","state":"Haryana","latitude":28.4595,"longitude":77.0266,"temp":34.3,"humidity":42,"rain":0.0,"pressure":979.9,"uv_index":7.75,"wind_gusts":41.8,"aqi":928,"pm10":968.6,"pm2_5":139.7,"no2":16.8,"co":615.0,"o3":151.0,"so2":28.0,"mosquito_risk":0,"arthritis_risk":5,"migraine_risk":7,"frizz_risk":1,"updated_at":"2026-05-13T10:19:27.472403+05:30"},{"city":"Noida","state":"Uttar Pradesh","latitude":28.5355,"longitude":77.391,"temp":33.6,"humidity":49,"rain":0.0,"pressure":983.0,"uv_index":7.7,"wind_gusts":35.3,"aqi":928,"pm10":968.6,"pm2_5":139.7,"no2":16.8,"co":703.0,"o3":151.0,"so2":28.0,"mosquito_risk":0,"arthritis_risk":5,"migraine_risk":7,"frizz_risk":1,"updated_at":"2026-05-13T10:19:27.472410+05:30"},{"city":"Ghaziabad","state":"Uttar Pradesh","latitude":28.6692,"longitude":77.4538,"temp":33.3,"humidity":51,"rain":0.0,"pressure":981.3,"uv_index":7.7,"wind_gusts":27.7,"aqi":154,"pm10":213.7,"pm2_5":64.5,"no2":7.6,"co":504.0,"o3":147.0,"so2":14.8,"mosquito_risk":0,"arthritis_risk":5,"migraine_risk":7,"frizz_risk":1,"updated_at":"2026-05-13T10:19:27.472417+05:30"},{"city":"Faridabad","state":"Haryana","latitude":28.4089,"longitude":77.3178,"temp":34.2,"humidity":43,"rain":0.0,"pressure":982.3,"uv_index":7.75,"wind_gusts":41.8,"aqi":928,"pm10":968.6,"pm2_5":139.7,"no2":16.8,"co":599.0,"o3":151.0,"so2":28.0,"mosquito_risk":0,"arthritis_risk":5,"migraine_risk":7,"frizz_risk":1,"updated_at":"2026-05-13T10:19:27.472424+05:30"},{"city":"Meerut","state":"Uttar Pradesh","latitude":28.9845,"longitude":77.7064,"temp":33.2,"humidity":48,"rain":0.0,"pressure":980.4,"uv_index":7.6,"wind_gusts":31.3,"aqi":154,"pm10":213.7,"pm2_5":64.5,"no2":7.6,"co":529.0,"o3":147.0,"so2":14.8,"mosquito_risk":0,"arthritis_risk":5,"migraine_risk":7,"frizz_risk":1,"updated_at":"2026-05-13T10:19:27.472431+05:30"},{"city":"Agra","state":"Uttar Pradesh","latitude":27.1767,"longitude":78.0081,"temp":35.3,"humidity":41,"rain":0.0,"pressure":985.2,"uv_index":8.0,"wind_gusts":43.9,"aqi":711,"pm10":681.7,"pm2_5":107.6,"no2":5.2,"co":492.0,"o3":161.0,"so2":16.1,"mosquito_risk":0,"arthritis_risk":5,"migraine_risk":10,"frizz_risk":1,"updated_at":"2026-05-13T10:19:27.472438+05:30"},{"city":"Varanasi","state":"Uttar Pradesh","latitude":25.3176,"longitude":82.9739,"temp":35.2,"humidity":46,"rain":0.0,"pressure":995.1,"uv_index":8.7,"wind_gusts":40.0,"aqi":148,"pm10":80.3,"pm2_5":63.1,"no2":6.2,"co":456.0,"o3":185.0,"so2":22.6,"mosquito_risk":0,"arthritis_risk":5,"migraine_risk":10,"frizz_risk":1,"updated_at":"2026-05-13T10:19:27.472445+05:30"},{"city":"Prayagraj","state":"Uttar Pradesh","latitude":25.4358,"longitude":81.8463,"temp":36.7,"humidity":36,"rain":0.0,"pressure":993.3,"uv_index":8.55,"wind_gusts":40.3,"aqi":139,"pm10":78.9,"pm2_5":63.8,"no2":6.2,"co":491.0,"o3":187.0,"so2":19.3,"mosquito_risk":0,"arthritis_risk":5,"migraine_risk":10,"frizz_risk":1,"updated_at":"2026-05-13T10:19:27.472455+05:30"},{"city":"Gorakhpur","state":"Uttar Pradesh","latitude":26.7606,"longitude":83.3732,"temp":30.3,"humidity":62,"rain":0.0,"pressure":996.5,"uv_index":8.55,"wind_gusts":38.2,"aqi":128,"pm10":57.9,"pm2_5":51.2,"no2":4.2,"co":396.0,"o3":172.0,"so2":11.4,"mosquito_risk":3,"arthritis_risk":5,"migraine_risk":7,"frizz_risk":1,"updated_at":"2026-05-13T10:19:27.472462+05:30"},{"city":"Bareilly","state":"Uttar Pradesh","latitude":28.367,"longitude":79.4304,"temp":32.7,"humidity":52,"rain":0.0,"pressure":985.7,"uv_index":7.95,"wind_gusts":24.8,"aqi":131,"pm10":98.5,"pm2_5":49.7,"no2":5.3,"co":432.0,"o3":160.0,"so2":13.2,"mosquito_risk":0,"arthritis_risk":5,"migraine_risk":7,"frizz_risk":1,"updated_at":"2026-05-13T10:19:27.472468+05:30"},{"city":"Aligarh","state":"Uttar Pradesh","latitude":27.8974,"longitude":78.088,"temp":34.0,"humidity":47,"rain":0.0,"pressure":983.6,"uv_index":7.8,"wind_gusts":49.7,"aqi":397,"pm10":375.3,"pm2_5":81.5,"no2":5.6,"co":469.0,"o3":152.0,"so2":15.5,"mosquito_risk":0,"arthritis_risk":5,"migraine_risk":7,"frizz_risk":1,"updated_at":"2026-05-13T10:19:27.472476+05:30"},{"city":"Moradabad","state":"Uttar Pradesh","latitude":28.8386,"longitude":78.7733,"temp":32.6,"humidity":52,"rain":0.0,"pressure":982.9,"uv_index":7.8,"wind_gusts":24.1,"aqi":128,"pm10":75.2,"pm2_5":52.5,"no2":6.3,"co":433.0,"o3":165.0,"so2":13.8,"mosquito_risk":0,"arthritis_risk":5,"migraine_risk":7,"frizz_risk":1,"updated_at":"2026-05-13T10:19:27.472483+05:30"},{"city":"Saharanpur","state":"Uttar Pradesh","latitude":29.9637,"longitude":77.546,"temp":31.1,"humidity":55,"rain":0.0,"pressure":974.9,"uv_index":7.4,"wind_gusts":30.6,"aqi":157,"pm10":119.2,"pm2_5":55.8,"no2":8.0,"co":439.0,"o3":168.0,"so2":14.6,"mosquito_risk":0,"arthritis_risk":5,"migraine_risk":7,"frizz_risk":1,"updated_at":"2026-05-13T10:19:27.472489+05:30"},{"city":"Jhansi","state":"Uttar Pradesh","latitude":25.4484,"longitude":78.5685,"temp":38.2,"humidity":29,"rain":0.0,"pressure":974.9,"uv_index":8.45,"wind_gusts":36.4,"aqi":96,"pm10":77.5,"pm2_5":42.4,"no2":3.5,"co":388.0,"o3":141.0,"so2":18.8,"mosquito_risk":0,"arthritis_risk":5,"migraine_risk":10,"frizz_risk":1,"updated_at":"2026-05-13T10:19:30.820726+05:30"},{"city":"Surat","state":"Gujarat","latitude":21.1702,"longitude":72.8311,"temp":35.0,"humidity":57,"rain":0.0,"pressure":1004.0,"uv_index":6.95,"wind_gusts":40.7,"aqi":96,"pm10":55.1,"pm2_5":39.0,"no2":40.5,"co":559.0,"o3":42.0,"so2":104.1,"mosquito_risk":0,"arthritis_risk":5,"migraine_risk":4,"frizz_risk":1,"updated_at":"2026-05-13T10:19:30.820757+05:30"},{"city":"Vadodara","state":"Gujarat","latitude":22.3072,"longitude":73.1812,"temp":37.5,"humidity":28,"rain":0.0,"pressure":1001.4,"uv_index":8.1,"wind_gusts":40.3,"aqi":72,"pm10":57.9,"pm2_5":23.7,"no2":7.4,"co":319.0,"o3":109.0,"so2":14.2,"mosquito_risk":0,"arthritis_risk":5,"migraine_risk":7,"frizz_risk":0,"updated_at":"2026-05-13T10:19:30.820766+05:30"},{"city":"Rajkot","state":"Gujarat","latitude":22.3039,"longitude":70.8022,"temp":35.3,"humidity":37,"rain":0.0,"pressure":991.5,"uv_index":7.75,"wind_gusts":56.5,"aqi":55,"pm10":27.0,"pm2_5":12.3,"no2":3.0,"co":167.0,"o3":99.0,"so2":6.5,"mosquito_risk":0,"arthritis_risk":5,"migraine_risk":10,"frizz_risk":1,"updated_at":"2026-05-13T10:19:30.820775+05:30"},{"city":"Thane","state":"Maharashtra","latitude":19.2183,"longitude":72.9781,"temp":35.0,"humidity":53,"rain":0.0,"pressure":1005.6,"uv_index":7.9,"wind_gusts":37.1,"aqi":81,"pm10":51.9,"pm2_5":28.6,"no2":11.6,"co":348.0,"o3":102.0,"so2":38.3,"mosquito_risk":0,"arthritis_risk":5,"migraine_risk":4,"frizz_risk":1,"updated_at":"2026-05-13T10:19:30.820782+05:30"},{"city":"Nagpur","state":"Maharashtra","latitude":21.1458,"longitude":79.0882,"temp":37.5,"humidity":33,"rain":0.0,"pressure":971.7,"uv_index":8.95,"wind_gusts":37.8,"aqi":112,"pm10":43.2,"pm2_5":30.9,"no2":9.1,"co":294.0,"o3":152.0,"so2":28.9,"mosquito_risk":0,"arthritis_risk":5,"migraine_risk":10,"frizz_risk":1,"updated_at":"2026-05-13T10:19:30.820788+05:30"},{"city":"Nashik","state":"Maharashtra","latitude":19.9975,"longitude":73.7898,"temp":35.8,"humidity":31,"rain":0.0,"pressure":944.7,"uv_index":8.25,"wind_gusts":45.4,"aqi":66,"pm10":45.5,"pm2_5":18.0,"no2":4.0,"co":248.0,"o3":112.0,"so2":4.1,"mosquito_risk":0,"arthritis_risk":5,"migraine_risk":10,"frizz_risk":1,"updated_at":"2026-05-13T10:19:30.820795+05:30"},{"city":"Aurangabad","state":"Maharashtra","latitude":19.8762,"longitude":75.3433,"temp":38.0,"humidity":19,"rain":0.0,"pressure":942.9,"uv_index":9.1,"wind_gusts":31.7,"aqi":85,"pm10":41.9,"pm2_5":22.4,"no2":4.8,"co":268.0,"o3":150.0,"so2":13.7,"mosquito_risk":0,"arthritis_risk":5,"migraine_risk":10,"frizz_risk":0,"updated_at":"2026-05-13T10:19:30.820801+05:30"},{"city":"Solapur","state":"Maharashtra","latitude":17.6599,"longitude":75.9064,"temp":36.2,"humidity":37,"rain":0.0,"pressure":955.8,"uv_index":9.1,"wind_gusts":47.9,"aqi":73,"pm10":38.8,"pm2_5":24.4,"no2":6.0,"co":292.0,"o3":131.0,"so2":10.1,"mosquito_risk":0,"arthritis_risk":5,"migraine_risk":10,"frizz_risk":1,"updated_at":"2026-05-13T10:19:30.820808+05:30"},{"city":"Kolhapur","state":"Maharashtra","latitude":16.705,"longitude":74.2433,"temp":31.0,"humidity":57,"rain":0.0,"pressure":947.3,"uv_index":8.95,"wind_gusts":44.3,"aqi":70,"pm10":45.3,"pm2_5":23.3,"no2":6.4,"co":206.0,"o3":108.0,"so2":6.3,"mosquito_risk":0,"arthritis_risk":5,"migraine_risk":7,"frizz_risk":1,"updated_at":"2026-05-13T10:19:30.820815+05:30"},{"city":"Goa","state":"Goa","latitude":15.2993,"longitude":74.124,"temp":32.9,"humidity":63,"rain":0.0,"pressure":996.5,"uv_index":8.9,"wind_gusts":32.4,"aqi":74,"pm10":37.5,"pm2_5":15.8,"no2":1.1,"co":167.0,"o3":87.0,"so2":2.2,"mosquito_risk":3,"arthritis_risk":5,"migraine_risk":7,"frizz_risk":1,"updated_at":"2026-05-13T10:19:30.820822+05:30"},{"city":"Jodhpur","state":"Rajasthan","latitude":26.2389,"longitude":73.0243,"temp":38.0,"humidity":23,"rain":0.0,"pressure":980.2,"uv_index":8.4,"wind_gusts":39.6,"aqi":122,"pm10":175.6,"pm2_5":33.9,"no2":2.6,"co":203.0,"o3":101.0,"so2":3.8,"mosquito_risk":0,"arthritis_risk":5,"migraine_risk":10,"frizz_risk":0,"updated_at":"2026-05-13T10:19:30.820829+05:30"},{"city":"Udaipur","state":"Rajasthan","latitude":24.5854,"longitude":73.7125,"temp":37.5,"humidity":19,"rain":0.0,"pressure":945.0,"uv_index":8.8,"wind_gusts":43.2,"aqi":50,"pm10":34.2,"pm2_5":13.9,"no2":2.4,"co":199.0,"o3":125.0,"so2":4.1,"mosquito_risk":0,"arthritis_risk":5,"migraine_risk":10,"frizz_risk":0,"updated_at":"2026-05-13T10:19:30.820836+05:30"},{"city":"Kota","state":"Rajasthan","latitude":25.2138,"longitude":75.8648,"temp":40.1,"humidity":18,"rain":0.0,"pressure":976.1,"uv_index":8.4,"wind_gusts":45.4,"aqi":73,"pm10":65.2,"pm2_5":24.0,"no2":4.1,"co":332.0,"o3":118.0,"so2":5.3,"mosquito_risk":0,"arthritis_risk":5,"migraine_risk":10,"frizz_risk":0,"updated_at":"2026-05-13T10:19:30.820843+05:30"},{"city":"Bikaner","state":"Rajasthan","latitude":28.0229,"longitude":73.3119,"temp":37.9,"humidity":25,"rain":0.0,"pressure":978.4,"uv_index":8.35,"wind_gusts":34.9,"aqi":100,"pm10":115.5,"pm2_5":33.5,"no2":1.7,"co":286.0,"o3":96.0,"so2":5.5,"mosquito_risk":0,"arthritis_risk":5,"migraine_risk":10,"frizz_risk":0,"updated_at":"2026-05-13T10:19:30.820850+05:30"},{"city":"Ajmer","state":"Rajasthan","latitude":26.4499,"longitude":74.6399,"temp":38.0,"humidity":18,"rain":0.0,"pressure":952.8,"uv_index":8.35,"wind_gusts":47.2,"aqi":78,"pm10":43.0,"pm2_5":16.6,"no2":3.8,"co":237.0,"o3":115.0,"so2":5.8,"mosquito_risk":0,"arthritis_risk":5,"migraine_risk":10,"frizz_risk":0,"updated_at":"2026-05-13T10:19:30.820856+05:30"},{"city":"Gwalior","state":"Madhya Pradesh","latitude":26.2183,"longitude":78.1828,"temp":38.0,"humidity":30,"rain":0.0,"pressure":980.2,"uv_index":8.2,"wind_gusts":42.5,"aqi":115,"pm10":72.9,"pm2_5":45.6,"no2":3.0,"co":399.0,"o3":143.0,"so2":12.1,"mosquito_risk":0,"arthritis_risk":5,"migraine_risk":10,"frizz_risk":1,"updated_at":"2026-05-13T10:19:30.820863+05:30"},{"city":"Indore","state":"Madhya Pradesh","latitude":22.7196,"longitude":75.8577,"temp":38.8,"humidity":16,"rain":0.0,"pressure":947.0,"uv_index":8.75,"wind_gusts":40.3,"aqi":88,"pm10":67.8,"pm2_5":26.1,"no2":5.0,"co":333.0,"o3":136.0,"so2":7.7,"mosquito_risk":0,"arthritis_risk":5,"migraine_risk":10,"frizz_risk":0,"updated_at":"2026-05-13T10:19:30.820869+05:30"},{"city":"Bhopal","state":"Madhya Pradesh","latitude":23.2599,"longitude":77.4126,"temp":39.5,"humidity":18,"rain":0.0,"pressure":951.9,"uv_index":8.75,"wind_gusts":40.3,"aqi":93,"pm10":81.0,"pm2_5":28.1,"no2":2.9,"co":397.0,"o3":136.0,"so2":6.1,"mosquito_risk":0,"arthritis_risk":5,"migraine_risk":10,"frizz_risk":0,"updated_at":"2026-05-13T10:19:30.820876+05:30"},{"city":"Jabalpur","state":"Madhya Pradesh","latitude":23.1815,"longitude":79.9864,"temp":39.0,"humidity":24,"rain":0.0,"pressure":959.8,"uv_index":8.55,"wind_gusts":34.6,"aqi":101,"pm10":76.6,"pm2_5":33.2,"no2":4.5,"co":298.0,"o3":152.0,"so2":7.6,"mosquito_risk":0,"arthritis_risk":5,"migraine_risk":10,"frizz_risk":0,"updated_at":"2026-05-13T10:19:30.820882+05:30"},{"city":"Ujjain","state":"Madhya Pradesh","latitude":23.1765,"longitude":75.7885,"temp":39.4,"humidity":16,"rain":0.0,"pressure":952.4,"uv_index":8.65,"wind_gusts":38.5,"aqi":87,"pm10":29.6,"pm2_5":16.3,"no2":3.1,"co":251.0,"o3":121.0,"so2":5.3,"mosquito_risk":0,"arthritis_risk":5,"migraine_risk":10,"frizz_risk":0,"updated_at":"2026-05-13T10:19:30.820889+05:30"},{"city":"Visakhapatnam","state":"Andhra Pradesh","latitude":17.6868,"longitude":83.2185,"temp":33.8,"humidity":54,"rain":0.0,"pressure":1001.7,"uv_index":9.15,"wind_gusts":43.2,"aqi":67,"pm10":29.5,"pm2_5":23.6,"no2":31.6,"co":1176.0,"o3":29.0,"so2":43.3,"mosquito_risk":0,"arthritis_risk":5,"migraine_risk":4,"frizz_risk":1,"updated_at":"2026-05-13T10:19:30.820896+05:30"},{"city":"Vijayawada","state":"Andhra Pradesh","latitude":16.5062,"longitude":80.648,"temp":34.3,"humidity":52,"rain":0.0,"pressure":1000.7,"uv_index":9.2,"wind_gusts":37.4,"aqi":56,"pm10":19.8,"pm2_5":13.0,"no2":2.6,"co":152.0,"o3":75.0,"so2":8.9,"mosquito_risk":0,"arthritis_risk":5,"migraine_risk":4,"frizz_risk":1,"updated_at":"2026-05-13T10:19:30.820902+05:30"},{"city":"Guntur","state":"Andhra Pradesh","latitude":16.3067,"longitude":80.4365,"temp":34.4,"humidity":50,"rain":0.0,"pressure":1001.9,"uv_index":8.95,"wind_gusts":34.9,"aqi":56,"pm10":19.2,"pm2_5":12.8,"no2":2.3,"co":166.0,"o3":77.0,"so2":7.9,"mosquito_risk":0,"arthritis_risk":5,"migraine_risk":4,"frizz_risk":1,"updated_at":"2026-05-13T10:19:30.820909+05:30"},{"city":"Nellore","state":"Andhra Pradesh","latitude":14.4426,"longitude":79.9865,"temp":34.3,"humidity":51,"rain":0.0,"pressure":1003.5,"uv_index":9.15,"wind_gusts":40.0,"aqi":29,"pm10":10.9,"pm2_5":6.9,"no2":1.9,"co":142.0,"o3":62.0,"so2":3.7,"mosquito_risk":0,"arthritis_risk":5,"migraine_risk":4,"frizz_risk":1,"updated_at":"2026-05-13T10:19:30.820916+05:30"},{"city":"Kurnool","state":"Andhra Pradesh","latitude":15.8281,"longitude":78.0373,"temp":35.5,"humidity":37,"rain":0.0,"pressure":975.4,"uv_index":9.1,"wind_gusts":33.8,"aqi":54,"pm10":17.9,"pm2_5":9.7,"no2":2.1,"co":185.0,"o3":90.0,"so2":3.3,"mosquito_risk":0,"arthritis_risk":5,"migraine_risk":10,"frizz_risk":1,"updated_at":"2026-05-13T10:19:30.820923+05:30"},{"city":"Kakinada","state":"Andhra Pradesh","latitude":16.9891,"longitude":82.2475,"temp":33.2,"humidity":58,"rain":0.0,"pressure":1005.4,"uv_index":9.15,"wind_gusts":44.6,"aqi":22,"pm10":13.8,"pm2_5":8.6,"no2":3.9,"co":400.0,"o3":63.0,"so2":3.3,"mosquito_risk":0,"arthritis_risk":5,"migraine_risk":4,"frizz_risk":1,"updated_at":"2026-05-13T10:19:30.820929+05:30"},{"city":"Tirupati","state":"Andhra Pradesh","latitude":13.6288,"longitude":79.4192,"temp":33.8,"humidity":44,"rain":0.0,"pressure":988.8,"uv_index":9.25,"wind_gusts":33.1,"aqi":50,"pm10":11.0,"pm2_5":7.1,"no2":1.1,"co":166.0,"o3":73.0,"so2":2.1,"mosquito_risk":0,"arthritis_risk":5,"migraine_risk":7,"frizz_risk":1,"updated_at":"2026-05-13T10:19:30.820935+05:30"},{"city":"Warangal","state":"Telangana","latitude":17.9689,"longitude":79.5941,"temp":33.5,"humidity":51,"rain":0.0,"pressure":977.7,"uv_index":8.6,"wind_gusts":41.4,"aqi":65,"pm10":15.9,"pm2_5":11.4,"no2":4.2,"co":191.0,"o3":78.0,"so2":9.2,"mosquito_risk":0,"arthritis_risk":5,"migraine_risk":7,"frizz_risk":1,"updated_at":"2026-05-13T10:19:30.820941+05:30"},{"city":"Nizamabad","state":"Telangana","latitude":18.6725,"longitude":78.0941,"temp":36.7,"humidity":34,"rain":0.0,"pressure":963.7,"uv_index":9.15,"wind_gusts":33.8,"aqi":76,"pm10":28.3,"pm2_5":20.3,"no2":4.8,"co":233.0,"o3":116.0,"so2":6.3,"mosquito_risk":0,"arthritis_risk":5,"migraine_risk":10,"frizz_risk":1,"updated_at":"2026-05-13T10:19:30.820948+05:30"},{"city":"Mysore","state":"Karnataka","latitude":12.2958,"longitude":76.6396,"temp":29.9,"humidity":52,"rain":0.0,"pressure":927.9,"uv_index":7.0,"wind_gusts":37.8,"aqi":82,"pm10":38.4,"pm2_5":25.6,"no2":4.3,"co":286.0,"o3":133.0,"so2":2.3,"mosquito_risk":4,"arthritis_risk":5,"migraine_risk":7,"frizz_risk":1,"updated_at":"2026-05-13T10:19:30.820955+05:30"},{"city":"Mangalore","state":"Karnataka","latitude":12.9141,"longitude":74.856,"temp":30.5,"humidity":71,"rain":0.0,"pressure":1005.2,"uv_index":8.05,"wind_gusts":34.2,"aqi":80,"pm10":44.7,"pm2_5":20.2,"no2":3.0,"co":246.0,"o3":90.0,"so2":2.8,"mosquito_risk":3,"arthritis_risk":5,"migraine_risk":4,"frizz_risk":1,"updated_at":"2026-05-13T10:19:30.820962+05:30"},{"city":"Hubli-Dharwad","state":"Karnataka","latitude":15.3647,"longitude":75.124,"temp":31.2,"humidity":56,"rain":0.0,"pressure":940.2,"uv_index":8.25,"wind_gusts":43.9,"aqi":66,"pm10":38.3,"pm2_5":18.0,"no2":3.3,"co":203.0,"o3":103.0,"so2":2.9,"mosquito_risk":0,"arthritis_risk":5,"migraine_risk":7,"frizz_risk":1,"updated_at":"2026-05-13T10:19:30.820968+05:30"},{"city":"Belgaum","state":"Karnataka","latitude":15.8497,"longitude":74.4977,"temp":31.4,"humidity":48,"rain":0.0,"pressure":925.7,"uv_index":8.35,"wind_gusts":47.5,"aqi":67,"pm10":43.3,"pm2_5":19.2,"no2":3.6,"co":193.0,"o3":111.0,"so2":5.8,"mosquito_risk":0,"arthritis_risk":5,"migraine_risk":7,"frizz_risk":1,"updated_at":"2026-05-13T10:19:34.156734+05:30"},{"city":"Coimbatore","state":"Tamil Nadu","latitude":11.0168,"longitude":76.9558,"temp":30.2,"humidity":64,"rain":0.0,"pressure":960.2,"uv_index":8.9,"wind_gusts":41.4,"aqi":71,"pm10":36.2,"pm2_5":23.6,"no2":4.0,"co":275.0,"o3":142.0,"so2":6.1,"mosquito_risk":3,"arthritis_risk":5,"migraine_risk":7,"frizz_risk":1,"updated_at":"2026-05-13T10:19:34.156769+05:30"},{"city":"Madurai","state":"Tamil Nadu","latitude":9.9252,"longitude":78.1198,"temp":32.5,"humidity":52,"rain":0.0,"pressure":990.6,"uv_index":9.05,"wind_gusts":25.2,"aqi":83,"pm10":33.6,"pm2_5":28.9,"no2":7.7,"co":299.0,"o3":128.0,"so2":13.9,"mosquito_risk":0,"arthritis_risk":5,"migraine_risk":7,"frizz_risk":1,"updated_at":"2026-05-13T10:19:34.156781+05:30"},{"city":"Trichy","state":"Tamil Nadu","latitude":10.7905,"longitude":78.7047,"temp":32.2,"humidity":62,"rain":0.0,"pressure":997.1,"uv_index":9.1,"wind_gusts":30.6,"aqi":69,"pm10":21.7,"pm2_5":17.8,"no2":5.0,"co":241.0,"o3":95.0,"so2":14.9,"mosquito_risk":3,"arthritis_risk":5,"migraine_risk":7,"frizz_risk":1,"updated_at":"2026-05-13T10:19:34.156792+05:30"},{"city":"Salem","state":"Tamil Nadu","latitude":11.6643,"longitude":78.146,"temp":33.1,"humidity":48,"rain":0.0,"pressure":975.4,"uv_index":8.3,"wind_gusts":34.6,"aqi":81,"pm10":28.3,"pm2_5":24.2,"no2":8.0,"co":228.0,"o3":120.0,"so2":25.0,"mosquito_risk":0,"arthritis_risk":5,"migraine_risk":7,"frizz_risk":1,"updated_at":"2026-05-13T10:19:34.156802+05:30"},{"city":"Tirunelveli","state":"Tamil Nadu","latitude":8.7139,"longitude":77.7567,"temp":34.5,"humidity":49,"rain":0.0,"pressure":1000.6,"uv_index":8.05,"wind_gusts":22.7,"aqi":69,"pm10":19.0,"pm2_5":12.6,"no2":3.6,"co":207.0,"o3":107.0,"so2":1.7,"mosquito_risk":0,"arthritis_risk":5,"migraine_risk":4,"frizz_risk":1,"updated_at":"2026-05-13T10:19:34.156811+05:30"},{"city":"Vellore","state":"Tamil Nadu","latitude":12.9165,"longitude":79.1325,"temp":33.1,"humidity":49,"rain":0.0,"pressure":982.3,"uv_index":9.05,"wind_gusts":36.4,"aqi":66,"pm10":17.3,"pm2_5":11.8,"no2":4.0,"co":227.0,"o3":76.0,"so2":11.4,"mosquito_risk":0,"arthritis_risk":5,"migraine_risk":7,"frizz_risk":1,"updated_at":"2026-05-13T10:19:34.156820+05:30"},{"city":"Erode","state":"Tamil Nadu","latitude":11.341,"longitude":77.7172,"temp":32.8,"humidity":52,"rain":0.0,"pressure":986.9,"uv_index":8.85,"wind_gusts":33.8,"aqi":90,"pm10":39.9,"pm2_5":30.4,"no2":8.6,"co":323.0,"o3":142.0,"so2":5.1,"mosquito_risk":0,"arthritis_risk":5,"migraine_risk":7,"frizz_risk":1,"updated_at":"2026-05-13T10:19:34.156827+05:30"},{"city":"Kochi","state":"Kerala","latitude":9.9312,"longitude":76.2673,"temp":29.2,"humidity":78,"rain":0.0,"pressure":1007.3,"uv_index":8.4,"wind_gusts":32.4,"aqi":83,"pm10":31.5,"pm2_5":19.8,"no2":7.0,"co":330.0,"o3":100.0,"so2":3.7,"mosquito_risk":7,"arthritis_risk":5,"migraine_risk":4,"frizz_risk":1,"updated_at":"2026-05-13T10:19:34.156834+05:30"},{"city":"Thiruvananthapuram","state":"Kerala","latitude":8.5241,"longitude":76.9366,"temp":29.0,"humidity":81,"rain":0.0,"pressure":1006.7,"uv_index":7.75,"wind_gusts":34.6,"aqi":60,"pm10":29.2,"pm2_5":16.5,"no2":3.4,"co":251.0,"o3":102.0,"so2":2.6,"mosquito_risk":7,"arthritis_risk":5,"migraine_risk":4,"frizz_risk":1,"updated_at":"2026-05-13T10:19:34.156841+05:30"},{"city":"Kozhikode","state":"Kerala","latitude":11.2588,"longitude":75.7804,"temp":30.7,"humidity":72,"rain":0.0,"pressure":1006.2,"uv_index":8.25,"wind_gusts":35.6,"aqi":69,"pm10":36.2,"pm2_5":19.5,"no2":2.2,"co":304.0,"o3":100.0,"so2":2.7,"mosquito_risk":3,"arthritis_risk":5,"migraine_risk":4,"frizz_risk":1,"updated_at":"2026-05-13T10:19:34.156848+05:30"},{"city":"Thrissur","state":"Kerala","latitude":10.5276,"longitude":76.2144,"temp":30.9,"humidity":71,"rain":0.0,"pressure":1005.5,"uv_index":8.5,"wind_gusts":34.2,"aqi":80,"pm10":29.7,"pm2_5":18.2,"no2":4.6,"co":289.0,"o3":91.0,"so2":2.3,"mosquito_risk":3,"arthritis_risk":5,"migraine_risk":4,"frizz_risk":1,"updated_at":"2026-05-13T10:19:34.156856+05:30"},{"city":"Kannur","state":"Kerala","latitude":11.8745,"longitude":75.3704,"temp":30.4,"humidity":73,"rain":0.0,"pressure":1005.6,"uv_index":8.85,"wind_gusts":34.2,"aqi":85,"pm10":44.8,"pm2_5":22.9,"no2":3.9,"co":265.0,"o3":98.0,"so2":3.0,"mosquito_risk":3,"arthritis_risk":5,"migraine_risk":4,"frizz_risk":1,"updated_at":"2026-05-13T10:19:34.156862+05:30"},{"city":"Patna","state":"Bihar","latitude":25.5941,"longitude":85.1376,"temp":30.2,"humidity":64,"rain":0.0,"pressure":999.3,"uv_index":8.75,"wind_gusts":37.4,"aqi":148,"pm10":60.3,"pm2_5":49.6,"no2":5.6,"co":364.0,"o3":149.0,"so2":22.1,"mosquito_risk":3,"arthritis_risk":5,"migraine_risk":7,"frizz_risk":1,"updated_at":"2026-05-13T10:19:34.156869+05:30"},{"city":"Gaya","state":"Bihar","latitude":24.7914,"longitude":85.0002,"temp":33.2,"humidity":54,"rain":0.0,"pressure":991.7,"uv_index":8.85,"wind_gusts":29.9,"aqi":151,"pm10":65.9,"pm2_5":51.8,"no2":4.4,"co":440.0,"o3":175.0,"so2":27.9,"mosquito_risk":0,"arthritis_risk":5,"migraine_risk":7,"frizz_risk":1,"updated_at":"2026-05-13T10:19:34.156875+05:30"},{"city":"Muzaffarpur","state":"Bihar","latitude":26.1209,"longitude":85.3647,"temp":29.2,"humidity":65,"rain":0.0,"pressure":999.9,"uv_index":8.75,"wind_gusts":43.2,"aqi":134,"pm10":47.3,"pm2_5":39.8,"no2":4.6,"co":325.0,"o3":152.0,"so2":15.3,"mosquito_risk":7,"arthritis_risk":5,"migraine_risk":7,"frizz_risk":1,"updated_at":"2026-05-13T10:19:34.156881+05:30"},{"city":"Bhagalpur","state":"Bihar","latitude":25.2425,"longitude":87.0117,"temp":30.0,"humidity":61,"rain":0.0,"pressure":1000.8,"uv_index":8.65,"wind_gusts":38.2,"aqi":109,"pm10":26.7,"pm2_5":21.0,"no2":8.4,"co":276.0,"o3":118.0,"so2":12.8,"mosquito_risk":7,"arthritis_risk":5,"migraine_risk":4,"frizz_risk":1,"updated_at":"2026-05-13T10:19:34.156888+05:30"},{"city":"Ranchi","state":"Jharkhand","latitude":23.3441,"longitude":85.3096,"temp":31.0,"humidity":55,"rain":0.0,"pressure":937.0,"uv_index":9.3,"wind_gusts":37.1,"aqi":98,"pm10":31.7,"pm2_5":21.6,"no2":3.8,"co":225.0,"o3":124.0,"so2":27.9,"mosquito_risk":0,"arthritis_risk":5,"migraine_risk":7,"frizz_risk":1,"updated_at":"2026-05-13T10:19:34.156894+05:30"},{"city":"Jamshedpur","state":"Jharkhand","latitude":22.8046,"longitude":86.2029,"temp":32.4,"humidity":55,"rain":0.0,"pressure":989.4,"uv_index":9.15,"wind_gusts":30.2,"aqi":93,"pm10":27.1,"pm2_5":21.1,"no2":6.9,"co":211.0,"o3":100.0,"so2":24.4,"mosquito_risk":0,"arthritis_risk":5,"migraine_risk":7,"frizz_risk":1,"updated_at":"2026-05-13T10:19:34.156900+05:30"},{"city":"Dhanbad","state":"Jharkhand","latitude":23.7957,"longitude":86.4304,"temp":31.6,"humidity":62,"rain":0.0,"pressure":978.4,"uv_index":9.1,"wind_gusts":34.6,"aqi":150,"pm10":45.3,"pm2_5":38.6,"no2":24.1,"co":718.0,"o3":100.0,"so2":68.9,"mosquito_risk":3,"arthritis_risk":5,"migraine_risk":7,"frizz_risk":1,"updated_at":"2026-05-13T10:19:34.156907+05:30"},{"city":"Bokaro","state":"Jharkhand","latitude":23.6693,"longitude":86.1511,"temp":32.8,"humidity":57,"rain":0.0,"pressure":982.0,"uv_index":9.1,"wind_gusts":32.0,"aqi":152,"pm10":35.5,"pm2_5":28.4,"no2":12.7,"co":117.0,"o3":124.0,"so2":44.5,"mosquito_risk":0,"arthritis_risk":5,"migraine_risk":7,"frizz_risk":1,"updated_at":"2026-05-13T10:19:34.156914+05:30"},{"city":"Bhubaneswar","state":"Odisha","latitude":20.2961,"longitude":85.8245,"temp":32.4,"humidity":60,"rain":0.0,"pressure":1001.6,"uv_index":9.15,"wind_gusts":40.7,"aqi":50,"pm10":16.2,"pm2_5":9.7,"no2":1.6,"co":168.0,"o3":78.0,"so2":3.5,"mosquito_risk":0,"arthritis_risk":5,"migraine_risk":4,"frizz_risk":1,"updated_at":"2026-05-13T10:19:34.156920+05:30"},{"city":"Cuttack","state":"Odisha","latitude":20.4625,"longitude":85.8828,"temp":32.3,"humidity":60,"rain":0.0,"pressure":1003.4,"uv_index":9.1,"wind_gusts":43.6,"aqi":50,"pm10":16.2,"pm2_5":9.7,"no2":1.6,"co":184.0,"o3":78.0,"so2":3.5,"mosquito_risk":0,"arthritis_risk":5,"migraine_risk":4,"frizz_risk":1,"updated_at":"2026-05-13T10:19:34.156927+05:30"},{"city":"Rourkela","state":"Odisha","latitude":22.2604,"longitude":84.8536,"temp":33.2,"humidity":53,"rain":0.0,"pressure":983.8,"uv_index":9.05,"wind_gusts":47.9,"aqi":87,"pm10":33.5,"pm2_5":24.5,"no2":4.3,"co":227.0,"o3":113.0,"so2":50.0,"mosquito_risk":0,"arthritis_risk":5,"migraine_risk":7,"frizz_risk":1,"updated_at":"2026-05-13T10:19:34.156933+05:30"},{"city":"Raipur","state":"Chhattisgarh","latitude":21.2514,"longitude":81.6296,"temp":36.3,"humidity":39,"rain":0.0,"pressure":973.1,"uv_index":9.05,"wind_gusts":36.4,"aqi":107,"pm10":46.1,"pm2_5":33.6,"no2":16.9,"co":643.0,"o3":178.0,"so2":7.8,"mosquito_risk":0,"arthritis_risk":5,"migraine_risk":10,"frizz_risk":1,"updated_at":"2026-05-13T10:19:34.156939+05:30"},{"city":"Bhilai","state":"Chhattisgarh","latitude":21.1938,"longitude":81.3509,"temp":35.5,"humidity":42,"rain":0.0,"pressure":973.5,"uv_index":9.1,"wind_gusts":39.2,"aqi":101,"pm10":41.1,"pm2_5":29.3,"no2":14.4,"co":809.0,"o3":148.0,"so2":6.9,"mosquito_risk":0,"arthritis_risk":5,"migraine_risk":10,"frizz_risk":1,"updated_at":"2026-05-13T10:19:34.156946+05:30"},{"city":"Guwahati","state":"Assam","latitude":26.1158,"longitude":91.7086,"temp":26.4,"humidity":77,"rain":0.1,"pressure":1002.8,"uv_index":5.65,"wind_gusts":23.8,"aqi":92,"pm10":34.8,"pm2_5":29.9,"no2":1.3,"co":353.0,"o3":151.0,"so2":2.3,"mosquito_risk":10,"arthritis_risk":5,"migraine_risk":0,"frizz_risk":1,"updated_at":"2026-05-13T10:19:34.156952+05:30"},{"city":"Agartala","state":"Tripura","latitude":23.8315,"longitude":91.2868,"temp":30.7,"humidity":59,"rain":0.0,"pressure":1006.2,"uv_index":8.9,"wind_gusts":23.8,"aqi":100,"pm10":13.8,"pm2_5":11.3,"no2":5.9,"co":198.0,"o3":96.0,"so2":1.2,"mosquito_risk":0,"arthritis_risk":5,"migraine_risk":4,"frizz_risk":1,"updated_at":"2026-05-13T10:19:34.156959+05:30"},{"city":"Shillong","state":"Meghalaya","latitude":25.5788,"longitude":91.8933,"temp":20.8,"humidity":75,"rain":0.0,"pressure":858.1,"uv_index":8.05,"wind_gusts":30.6,"aqi":70,"pm10":22.6,"pm2_5":18.2,"no2":1.3,"co":262.0,"o3":143.0,"so2":1.8,"mosquito_risk":3,"arthritis_risk":5,"migraine_risk":7,"frizz_risk":1,"updated_at":"2026-05-13T10:19:34.156965+05:30"},{"city":"Imphal","state":"Manipur","latitude":24.817,"longitude":93.9368,"temp":26.2,"humidity":62,"rain":0.0,"pressure":924.1,"uv_index":9.3,"wind_gusts":23.8,"aqi":99,"pm10":24.0,"pm2_5":19.0,"no2":0.0,"co":350.0,"o3":140.0,"so2":2.1,"mosquito_risk":7,"arthritis_risk":5,"migraine_risk":7,"frizz_risk":1,"updated_at":"2026-05-13T10:19:34.156972+05:30"},{"city":"Aizawl","state":"Mizoram","latitude":23.7271,"longitude":92.7176,"temp":25.5,"humidity":52,"rain":0.0,"pressure":893.8,"uv_index":9.1,"wind_gusts":26.6,"aqi":79,"pm10":23.9,"pm2_5":19.4,"no2":0.6,"co":244.0,"o3":124.0,"so2":2.3,"mosquito_risk":4,"arthritis_risk":5,"migraine_risk":7,"frizz_risk":0,"updated_at":"2026-05-13T10:19:34.156979+05:30"},{"city":"Kohima","state":"Nagaland","latitude":25.6701,"longitude":94.1077,"temp":21.3,"humidity":77,"rain":0.0,"pressure":856.6,"uv_index":8.4,"wind_gusts":26.3,"aqi":65,"pm10":22.6,"pm2_5":16.7,"no2":0.2,"co":273.0,"o3":139.0,"so2":1.3,"mosquito_risk":3,"arthritis_risk":5,"migraine_risk":7,"frizz_risk":1,"updated_at":"2026-05-13T10:19:34.156985+05:30"},{"city":"Gangtok","state":"Sikkim","latitude":27.3314,"longitude":88.6138,"temp":18.4,"humidity":82,"rain":0.1,"pressure":837.9,"uv_index":8.85,"wind_gusts":31.3,"aqi":56,"pm10":12.8,"pm2_5":10.2,"no2":1.0,"co":301.0,"o3":135.0,"so2":0.7,"mosquito_risk":6,"arthritis_risk":10,"migraine_risk":7,"frizz_risk":0,"updated_at":"2026-05-13T10:19:34.156992+05:30"},{"city":"Siliguri","state":"West Bengal","latitude":26.7271,"longitude":88.3953,"temp":26.9,"humidity":69,"rain":0.0,"pressure":993.5,"uv_index":8.65,"wind_gusts":28.8,"aqi":124,"pm10":32.0,"pm2_5":26.8,"no2":2.8,"co":367.0,"o3":155.0,"so2":2.6,"mosquito_risk":7,"arthritis_risk":5,"migraine_risk":7,"frizz_risk":1,"updated_at":"2026-05-13T10:19:37.511466+05:30"},{"city":"Durgapur","state":"West Bengal","latitude":23.5204,"longitude":87.3119,"temp":32.5,"humidity":58,"rain":0.0,"pressure":993.9,"uv_index":9.0,"wind_gusts":36.4,"aqi":108,"pm10":33.9,"pm2_5":28.5,"no2":18.2,"co":473.0,"o3":65.0,"so2":48.3,"mosquito_risk":0,"arthritis_risk":5,"migraine_risk":7,"frizz_risk":1,"updated_at":"2026-05-13T10:19:37.511493+05:30"},{"city":"Asansol","state":"West Bengal","latitude":23.6739,"longitude":86.9524,"temp":32.0,"humidity":61,"rain":0.0,"pressure":992.3,"uv_index":9.05,"wind_gusts":40.0,"aqi":109,"pm10":40.5,"pm2_5":33.9,"no2":20.6,"co":266.0,"o3":85.0,"so2":59.0,"mosquito_risk":3,"arthritis_risk":5,"migraine_risk":7,"frizz_risk":1,"updated_at":"2026-05-13T10:19:37.511503+05:30"},{"city":"Pondicherry","state":"Puducherry","latitude":11.9139,"longitude":79.8145,"temp":31.6,"humidity":66,"rain":0.0,"pressure":1005.5,"uv_index":8.9,"wind_gusts":39.6,"aqi":30,"pm10":12.6,"pm2_5":10.2,"no2":10.5,"co":209.0,"o3":46.0,"so2":11.7,"mosquito_risk":3,"arthritis_risk":5,"migraine_risk":4,"frizz_risk":1,"updated_at":"2026-05-13T10:19:37.511511+05:30"},{"city":"Port Blair","state":"Andaman and Nicobar Islands","latitude":11.6234,"longitude":92.7265,"temp":27.8,"humidity":89,"rain":0.1,"pressure":1006.2,"uv_index":2.25,"wind_gusts":37.1,"aqi":21,"pm10":4.7,"pm2_5":3.1,"no2":0.6,"co":99.0,"o3":53.0,"so2":0.1,"mosquito_risk":10,"arthritis_risk":5,"migraine_risk":0,"frizz_risk":1,"updated_at":"2026-05-13T10:19:37.511518+05:30"},{"city":"Haridwar","state":"Uttarakhand","latitude":29.9457,"longitude":78.1642,"temp":31.5,"humidity":50,"rain":0.0,"pressure":973.9,"uv_index":7.5,"wind_gusts":22.0,"aqi":152,"pm10":119.2,"pm2_5":49.1,"no2":3.1,"co":345.0,"o3":165.0,"so2":10.7,"mosquito_risk":0,"arthritis_risk":5,"migraine_risk":7,"frizz_risk":1,"updated_at":"2026-05-13T10:19:37.511524+05:30"},{"city":"Rishikesh","state":"Uttarakhand","latitude":30.0869,"longitude":78.2676,"temp":30.5,"humidity":51,"rain":0.0,"pressure":966.9,"uv_index":7.6,"wind_gusts":25.6,"aqi":132,"pm10":118.0,"pm2_5":44.5,"no2":1.3,"co":329.0,"o3":163.0,"so2":7.4,"mosquito_risk":0,"arthritis_risk":5,"migraine_risk":7,"frizz_risk":1,"updated_at":"2026-05-13T10:19:37.511531+05:30"},{"city":"Nainital","state":"Uttarakhand","latitude":29.3919,"longitude":79.4542,"temp":20.2,"humidity":59,"rain":0.0,"pressure":808.0,"uv_index":8.45,"wind_gusts":43.9,"aqi":125,"pm10":88.7,"pm2_5":43.1,"no2":0.1,"co":310.0,"o3":170.0,"so2":6.4,"mosquito_risk":0,"arthritis_risk":5,"migraine_risk":7,"frizz_risk":0,"updated_at":"2026-05-13T10:19:37.511537+05:30"},{"city":"Mussoorie","state":"Uttarakhand","latitude":30.4599,"longitude":78.0664,"temp":19.6,"humidity":53,"rain":0.0,"pressure":805.3,"uv_index":8.0,"wind_gusts":44.6,"aqi":122,"pm10":121.1,"pm2_5":44.5,"no2":2.1,"co":289.0,"o3":167.0,"so2":10.8,"mosquito_risk":0,"arthritis_risk":5,"migraine_risk":7,"frizz_risk":0,"updated_at":"2026-05-13T10:19:37.511543+05:30"},{"city":"Dharamshala","state":"Himachal Pradesh","latitude":32.219,"longitude":76.3234,"temp":24.6,"humidity":43,"rain":0.1,"pressure":869.8,"uv_index":8.35,"wind_gusts":36.7,"aqi":56,"pm10":40.9,"pm2_5":13.4,"no2":0.4,"co":265.0,"o3":144.0,"so2":1.2,"mosquito_risk":3,"arthritis_risk":5,"migraine_risk":7,"frizz_risk":0,"updated_at":"2026-05-13T10:19:37.511549+05:30"},{"city":"Dalhousie","state":"Himachal Pradesh","latitude":32.5387,"longitude":75.971,"temp":20.8,"humidity":40,"rain":0.0,"pressure":806.7,"uv_index":8.6,"wind_gusts":32.8,"aqi":83,"pm10":85.9,"pm2_5":27.1,"no2":5.4,"co":290.0,"o3":134.0,"so2":1.7,"mosquito_risk":0,"arthritis_risk":5,"migraine_risk":7,"frizz_risk":0,"updated_at":"2026-05-13T10:19:37.511556+05:30"},{"city":"Patiala","state":"Punjab","latitude":30.3398,"longitude":76.3869,"temp":33.1,"humidity":46,"rain":0.0,"pressure":976.6,"uv_index":7.6,"wind_gusts":36.0,"aqi":269,"pm10":530.9,"pm2_5":91.7,"no2":4.6,"co":470.0,"o3":165.0,"so2":16.2,"mosquito_risk":0,"arthritis_risk":5,"migraine_risk":7,"frizz_risk":1,"updated_at":"2026-05-13T10:19:37.511563+05:30"},{"city":"Bhatinda","state":"Punjab","latitude":30.211,"longitude":74.9455,"temp":34.7,"humidity":38,"rain":0.0,"pressure":980.9,"uv_index":8.25,"wind_gusts":58.7,"aqi":386,"pm10":314.8,"pm2_5":78.0,"no2":5.1,"co":423.0,"o3":160.0,"so2":21.2,"mosquito_risk":0,"arthritis_risk":5,"migraine_risk":7,"frizz_risk":1,"updated_at":"2026-05-13T10:19:37.511569+05:30"},{"city":"Rohtak","state":"Haryana","latitude":28.8955,"longitude":76.6066,"temp":34.0,"humidity":43,"rain":0.0,"pressure":979.7,"uv_index":7.7,"wind_gusts":43.2,"aqi":482,"pm10":666.8,"pm2_5":115.9,"no2":14.8,"co":570.0,"o3":165.0,"so2":32.0,"mosquito_risk":0,"arthritis_risk":5,"migraine_risk":7,"frizz_risk":1,"updated_at":"2026-05-13T10:19:37.511575+05:30"},{"city":"Panipat","state":"Haryana","latitude":29.3909,"longitude":76.9635,"temp":32.1,"humidity":51,"rain":0.0,"pressure":978.6,"uv_index":7.55,"wind_gusts":29.2,"aqi":630,"pm10":1225.6,"pm2_5":153.7,"no2":10.5,"co":465.0,"o3":167.0,"so2":26.9,"mosquito_risk":0,"arthritis_risk":5,"migraine_risk":7,"frizz_risk":1,"updated_at":"2026-05-13T10:19:37.511581+05:30"},{"city":"Mathura","state":"Uttar Pradesh","latitude":27.4924,"longitude":77.6737,"temp":34.6,"humidity":44,"rain":0.0,"pressure":984.6,"uv_index":7.95,"wind_gusts":50.4,"aqi":616,"pm10":750.6,"pm2_5":115.5,"no2":5.7,"co":474.0,"o3":155.0,"so2":12.6,"mosquito_risk":0,"arthritis_risk":5,"migraine_risk":7,"frizz_risk":1,"updated_at":"2026-05-13T10:19:37.511587+05:30"},{"city":"Vrindavan","state":"Uttar Pradesh","latitude":27.5823,"longitude":77.7027,"temp":34.3,"humidity":46,"rain":0.0,"pressure":985.1,"uv_index":7.95,"wind_gusts":48.2,"aqi":616,"pm10":750.6,"pm2_5":115.5,"no2":5.7,"co":474.0,"o3":155.0,"so2":12.6,"mosquito_risk":0,"arthritis_risk":5,"migraine_risk":7,"frizz_risk":1,"updated_at":"2026-05-13T10:19:37.511593+05:30"},{"city":"Ayodhya","state":"Uttar Pradesh","latitude":26.7922,"longitude":82.1998,"temp":31.0,"humidity":57,"rain":0.0,"pressure":994.2,"uv_index":8.3,"wind_gusts":31.0,"aqi":132,"pm10":60.3,"pm2_5":53.7,"no2":4.8,"co":403.0,"o3":164.0,"so2":12.4,"mosquito_risk":0,"arthritis_risk":5,"migraine_risk":7,"frizz_risk":1,"updated_at":"2026-05-13T10:19:37.511599+05:30"},{"city":"Ratlam","state":"Madhya Pradesh","latitude":23.3315,"longitude":75.0367,"temp":39.0,"humidity":17,"rain":0.0,"pressure":953.3,"uv_index":8.55,"wind_gusts":38.2,"aqi":66,"pm10":26.9,"pm2_5":15.5,"no2":1.8,"co":227.0,"o3":124.0,"so2":4.4,"mosquito_risk":0,"arthritis_risk":5,"migraine_risk":10,"frizz_risk":0,"updated_at":"2026-05-13T10:19:37.511605+05:30"},{"city":"Sagar","state":"Madhya Pradesh","latitude":23.8388,"longitude":78.7378,"temp":39.2,"humidity":18,"rain":0.0,"pressure":948.8,"uv_index":8.75,"wind_gusts":40.3,"aqi":88,"pm10":99.7,"pm2_5":26.5,"no2":1.5,"co":240.0,"o3":142.0,"so2":9.4,"mosquito_risk":0,"arthritis_risk":5,"migraine_risk":10,"frizz_risk":0,"updated_at":"2026-05-13T10:19:37.511611+05:30"},{"city":"Satna","state":"Madhya Pradesh","latitude":24.6005,"longitude":80.8322,"temp":38.7,"humidity":25,"rain":0.0,"pressure":968.9,"uv_index":8.65,"wind_gusts":42.8,"aqi":110,"pm10":71.0,"pm2_5":43.1,"no2":5.4,"co":352.0,"o3":161.0,"so2":19.8,"mosquito_risk":0,"arthritis_risk":5,"migraine_risk":10,"frizz_risk":0,"updated_at":"2026-05-13T10:19:37.511618+05:30"},{"city":"Akola","state":"Maharashtra","latitude":20.7002,"longitude":77.0082,"temp":40.3,"humidity":22,"rain":0.0,"pressure":972.7,"uv_index":8.95,"wind_gusts":28.4,"aqi":90,"pm10":41.8,"pm2_5":27.0,"no2":5.3,"co":297.0,"o3":138.0,"so2":10.8,"mosquito_risk":0,"arthritis_risk":5,"migraine_risk":10,"frizz_risk":0,"updated_at":"2026-05-13T10:19:37.511624+05:30"},{"city":"Amravati","state":"Maharashtra","latitude":20.9374,"longitude":77.7796,"temp":38.3,"humidity":29,"rain":0.0,"pressure":965.6,"uv_index":8.95,"wind_gusts":29.5,"aqi":92,"pm10":40.9,"pm2_5":26.8,"no2":5.2,"co":280.0,"o3":140.0,"so2":7.6,"mosquito_risk":0,"arthritis_risk":5,"migraine_risk":10,"frizz_risk":1,"updated_at":"2026-05-13T10:19:37.511631+05:30"},{"city":"Latur","state":"Maharashtra","latitude":18.4088,"longitude":76.5604,"temp":37.0,"humidity":29,"rain":0.0,"pressure":938.9,"uv_index":8.4,"wind_gusts":34.9,"aqi":73,"pm10":35.4,"pm2_5":21.5,"no2":4.5,"co":243.0,"o3":126.0,"so2":13.0,"mosquito_risk":0,"arthritis_risk":5,"migraine_risk":10,"frizz_risk":0,"updated_at":"2026-05-13T10:19:37.511637+05:30"},{"city":"Nanded","state":"Maharashtra","latitude":19.1383,"longitude":77.3091,"temp":38.3,"humidity":29,"rain":0.0,"pressure":966.8,"uv_index":8.8,"wind_gusts":30.6,"aqi":76,"pm10":35.5,"pm2_5":24.3,"no2":5.5,"co":277.0,"o3":138.0,"so2":8.9,"mosquito_risk":0,"arthritis_risk":5,"migraine_risk":10,"frizz_risk":1,"updated_at":"2026-05-13T10:19:37.511643+05:30"},{"city":"Gulbarga","state":"Karnataka","latitude":17.3297,"longitude":76.8343,"temp":35.8,"humidity":35,"rain":0.0,"pressure":957.6,"uv_index":9.1,"wind_gusts":29.5,"aqi":67,"pm10":22.4,"pm2_5":14.7,"no2":4.2,"co":219.0,"o3":108.0,"so2":9.5,"mosquito_risk":0,"arthritis_risk":5,"migraine_risk":10,"frizz_risk":1,"updated_at":"2026-05-13T10:19:37.511648+05:30"},{"city":"Bidar","state":"Karnataka","latitude":17.9104,"longitude":77.5199,"temp":34.0,"humidity":40,"rain":0.0,"pressure":935.2,"uv_index":9.15,"wind_gusts":32.8,"aqi":72,"pm10":22.6,"pm2_5":14.7,"no2":4.0,"co":213.0,"o3":113.0,"so2":4.5,"mosquito_risk":0,"arthritis_risk":5,"migraine_risk":7,"frizz_risk":1,"updated_at":"2026-05-13T10:19:37.511654+05:30"},{"city":"Hospet","state":"Karnataka","latitude":15.2689,"longitude":76.3909,"temp":31.1,"humidity":63,"rain":0.0,"pressure":955.0,"uv_index":9.2,"wind_gusts":58.7,"aqi":79,"pm10":39.6,"pm2_5":22.5,"no2":4.9,"co":194.0,"o3":108.0,"so2":3.8,"mosquito_risk":3,"arthritis_risk":5,"migraine_risk":7,"frizz_risk":1,"updated_at":"2026-05-13T10:19:37.511660+05:30"},{"city":"Tirupur","state":"Tamil Nadu","latitude":11.1085,"longitude":77.3411,"temp":33.2,"humidity":46,"rain":0.0,"pressure":973.4,"uv_index":9.2,"wind_gusts":41.8,"aqi":93,"pm10":43.3,"pm2_5":32.7,"no2":9.2,"co":282.0,"o3":147.0,"so2":8.5,"mosquito_risk":0,"arthritis_risk":5,"migraine_risk":7,"frizz_risk":1,"updated_at":"2026-05-13T10:19:37.511666+05:30"},{"city":"Alappuzha","state":"Kerala","latitude":9.4981,"longitude":76.3388,"temp":29.4,"humidity":78,"rain":0.0,"pressure":1007.4,"uv_index":8.4,"wind_gusts":33.5,"aqi":76,"pm10":33.2,"pm2_5":20.4,"no2":6.5,"co":214.0,"o3":107.0,"so2":5.4,"mosquito_risk":7,"arthritis_risk":5,"migraine_risk":4,"frizz_risk":1,"updated_at":"2026-05-13T10:19:37.511672+05:30"},{"city":"Munnar","state":"Kerala","latitude":10.0889,"longitude":77.0595,"temp":22.6,"humidity":70,"rain":0.0,"pressure":856.9,"uv_index":9.45,"wind_gusts":29.2,"aqi":72,"pm10":26.4,"pm2_5":17.3,"no2":1.8,"co":228.0,"o3":122.0,"so2":1.2,"mosquito_risk":3,"arthritis_risk":5,"migraine_risk":7,"frizz_risk":1,"updated_at":"2026-05-13T10:19:37.511678+05:30"},{"city":"Silchar","state":"Assam","latitude":24.8333,"longitude":92.7789,"temp":29.0,"humidity":70,"rain":0.0,"pressure":1005.6,"uv_index":8.7,"wind_gusts":27.4,"aqi":114,"pm10":20.6,"pm2_5":17.3,"no2":0.5,"co":362.0,"o3":138.0,"so2":4.0,"mosquito_risk":7,"arthritis_risk":5,"migraine_risk":4,"frizz_risk":1,"updated_at":"2026-05-13T10:19:37.511684+05:30"},{"city":"Dibrugarh","state":"Assam","latitude":27.4728,"longitude":94.912,"temp":26.5,"humidity":75,"rain":0.1,"pressure":996.4,"uv_index":8.85,"wind_gusts":22.0,"aqi":80,"pm10":29.9,"pm2_5":21.1,"no2":0.3,"co":257.0,"o3":146.0,"so2":2.5,"mosquito_risk":10,"arthritis_risk":5,"migraine_risk":7,"frizz_risk":1,"updated_at":"2026-05-13T10:19:37.511690+05:30"}]