[{"city":"Delhi","state":"Delhi","latitude":28.6139,"longitude":77.209,"temp":32.0,"humidity":66,"rain":0.0,"pressure":977.2,"uv_index":6.2,"wind_gusts":33.8,"aqi":417,"pm10":789.8,"pm2_5":211.9,"no2":77.9,"co":638.0,"o3":0.0,"so2":27.8,"mosquito_risk":3,"arthritis_risk":5,"migraine_risk":7,"frizz_risk":1,"updated_at":"2026-07-17T00:45:14.010833+05:30"},{"city":"Mumbai","state":"Maharashtra","latitude":19.076,"longitude":72.8777,"temp":26.3,"humidity":90,"rain":0.1,"pressure":1007.2,"uv_index":7.65,"wind_gusts":40.0,"aqi":69,"pm10":22.9,"pm2_5":11.7,"no2":10.1,"co":209.0,"o3":39.0,"so2":8.4,"mosquito_risk":10,"arthritis_risk":5,"migraine_risk":4,"frizz_risk":1,"updated_at":"2026-07-17T00:45:14.010872+05:30"},{"city":"Bangalore","state":"Karnataka","latitude":12.9716,"longitude":77.5946,"temp":22.2,"humidity":79,"rain":0.0,"pressure":912.3,"uv_index":8.45,"wind_gusts":50.8,"aqi":66,"pm10":18.0,"pm2_5":11.4,"no2":13.0,"co":214.0,"o3":40.0,"so2":4.8,"mosquito_risk":3,"arthritis_risk":5,"migraine_risk":7,"frizz_risk":1,"updated_at":"2026-07-17T00:45:14.010887+05:30"},{"city":"Hyderabad","state":"Telangana","latitude":17.385,"longitude":78.4867,"temp":27.7,"humidity":63,"rain":0.0,"pressure":952.0,"uv_index":1.7,"wind_gusts":42.5,"aqi":65,"pm10":36.2,"pm2_5":21.0,"no2":19.6,"co":265.0,"o3":44.0,"so2":7.2,"mosquito_risk":7,"arthritis_risk":5,"migraine_risk":3,"frizz_risk":1,"updated_at":"2026-07-17T00:45:14.010897+05:30"},{"city":"Chennai","state":"Tamil Nadu","latitude":13.0827,"longitude":80.2707,"temp":29.8,"humidity":79,"rain":0.0,"pressure":1005.4,"uv_index":8.3,"wind_gusts":41.8,"aqi":79,"pm10":31.7,"pm2_5":21.9,"no2":9.5,"co":189.0,"o3":80.0,"so2":7.7,"mosquito_risk":7,"arthritis_risk":5,"migraine_risk":4,"frizz_risk":1,"updated_at":"2026-07-17T00:45:14.010905+05:30"},{"city":"Kolkata","state":"West Bengal","latitude":22.5726,"longitude":88.3639,"temp":27.5,"humidity":88,"rain":0.0,"pressure":998.3,"uv_index":7.2,"wind_gusts":37.8,"aqi":62,"pm10":26.9,"pm2_5":21.5,"no2":9.0,"co":464.0,"o3":84.0,"so2":7.2,"mosquito_risk":7,"arthritis_risk":5,"migraine_risk":7,"frizz_risk":1,"updated_at":"2026-07-17T00:45:14.010912+05:30"},{"city":"Pune","state":"Maharashtra","latitude":18.5204,"longitude":73.8567,"temp":23.6,"humidity":88,"rain":0.0,"pressure":946.9,"uv_index":7.6,"wind_gusts":48.2,"aqi":48,"pm10":9.5,"pm2_5":6.9,"no2":12.4,"co":165.0,"o3":29.0,"so2":8.5,"mosquito_risk":3,"arthritis_risk":5,"migraine_risk":7,"frizz_risk":1,"updated_at":"2026-07-17T00:45:14.010919+05:30"},{"city":"Ahmedabad","state":"Gujarat","latitude":23.0225,"longitude":72.5714,"temp":29.1,"humidity":73,"rain":0.0,"pressure":999.2,"uv_index":5.9,"wind_gusts":37.4,"aqi":80,"pm10":31.9,"pm2_5":20.3,"no2":13.0,"co":231.0,"o3":40.0,"so2":6.0,"mosquito_risk":7,"arthritis_risk":5,"migraine_risk":3,"frizz_risk":1,"updated_at":"2026-07-17T00:45:14.010925+05:30"},{"city":"Jaipur","state":"Rajasthan","latitude":26.9124,"longitude":75.7873,"temp":30.7,"humidity":54,"rain":0.0,"pressure":955.8,"uv_index":8.05,"wind_gusts":40.0,"aqi":242,"pm10":584.9,"pm2_5":107.1,"no2":13.1,"co":261.0,"o3":51.0,"so2":5.2,"mosquito_risk":0,"arthritis_risk":5,"migraine_risk":7,"frizz_risk":1,"updated_at":"2026-07-17T00:45:14.010932+05:30"},{"city":"Lucknow","state":"Uttar Pradesh","latitude":26.8467,"longitude":80.9462,"temp":29.4,"humidity":89,"rain":0.0,"pressure":988.1,"uv_index":6.65,"wind_gusts":28.4,"aqi":160,"pm10":81.0,"pm2_5":59.1,"no2":18.9,"co":496.0,"o3":73.0,"so2":10.3,"mosquito_risk":7,"arthritis_risk":5,"migraine_risk":7,"frizz_risk":1,"updated_at":"2026-07-17T00:45:14.010942+05:30"},{"city":"Kanpur","state":"Uttar Pradesh","latitude":26.4499,"longitude":80.3319,"temp":29.8,"humidity":85,"rain":0.0,"pressure":986.2,"uv_index":8.05,"wind_gusts":20.2,"aqi":164,"pm10":91.5,"pm2_5":56.0,"no2":17.1,"co":407.0,"o3":72.0,"so2":7.0,"mosquito_risk":7,"arthritis_risk":5,"migraine_risk":7,"frizz_risk":1,"updated_at":"2026-07-17T00:45:14.010949+05:30"},{"city":"Chandigarh","state":"Chandigarh","latitude":30.7333,"longitude":76.7794,"temp":28.2,"humidity":81,"rain":0.0,"pressure":963.2,"uv_index":6.85,"wind_gusts":34.6,"aqi":154,"pm10":76.4,"pm2_5":67.5,"no2":36.4,"co":1118.0,"o3":73.0,"so2":15.5,"mosquito_risk":7,"arthritis_risk":5,"migraine_risk":7,"frizz_risk":1,"updated_at":"2026-07-17T00:45:14.010956+05:30"},{"city":"Srinagar","state":"Jammu and Kashmir","latitude":34.0837,"longitude":74.7973,"temp":22.4,"humidity":78,"rain":0.0,"pressure":837.7,"uv_index":9.05,"wind_gusts":23.4,"aqi":93,"pm10":51.7,"pm2_5":48.2,"no2":41.5,"co":985.0,"o3":17.0,"so2":3.1,"mosquito_risk":3,"arthritis_risk":5,"migraine_risk":7,"frizz_risk":1,"updated_at":"2026-07-17T00:45:14.010963+05:30"},{"city":"Jammu","state":"Jammu and Kashmir","latitude":32.7266,"longitude":74.857,"temp":28.8,"humidity":80,"rain":0.1,"pressure":966.8,"uv_index":8.6,"wind_gusts":23.8,"aqi":151,"pm10":69.4,"pm2_5":61.2,"no2":46.8,"co":600.0,"o3":41.0,"so2":7.4,"mosquito_risk":10,"arthritis_risk":5,"migraine_risk":7,"frizz_risk":1,"updated_at":"2026-07-17T00:45:14.010969+05:30"},{"city":"Amritsar","state":"Punjab","latitude":31.634,"longitude":74.8723,"temp":29.8,"humidity":78,"rain":0.0,"pressure":974.5,"uv_index":8.3,"wind_gusts":22.3,"aqi":171,"pm10":158.3,"pm2_5":135.0,"no2":99.6,"co":713.0,"o3":7.0,"so2":18.1,"mosquito_risk":7,"arthritis_risk":5,"migraine_risk":7,"frizz_risk":1,"updated_at":"2026-07-17T00:45:14.010975+05:30"},{"city":"Ludhiana","state":"Punjab","latitude":30.901,"longitude":75.8573,"temp":30.1,"humidity":82,"rain":0.0,"pressure":972.9,"uv_index":7.95,"wind_gusts":30.6,"aqi":171,"pm10":137.8,"pm2_5":102.2,"no2":55.7,"co":1570.0,"o3":33.0,"so2":10.7,"mosquito_risk":3,"arthritis_risk":5,"migraine_risk":7,"frizz_risk":1,"updated_at":"2026-07-17T00:45:14.010982+05:30"},{"city":"Jalandhar","state":"Punjab","latitude":31.326,"longitude":75.5762,"temp":29.2,"humidity":85,"rain":0.0,"pressure":973.7,"uv_index":8.25,"wind_gusts":24.8,"aqi":180,"pm10":167.2,"pm2_5":138.8,"no2":91.7,"co":1579.0,"o3":3.0,"so2":13.2,"mosquito_risk":7,"arthritis_risk":5,"migraine_risk":7,"frizz_risk":1,"updated_at":"2026-07-17T00:45:14.010988+05:30"},{"city":"Dehradun","state":"Uttarakhand","latitude":30.6284,"longitude":78.0322,"temp":18.3,"humidity":100,"rain":0.0,"pressure":827.6,"uv_index":6.6,"wind_gusts":27.0,"aqi":91,"pm10":58.4,"pm2_5":45.5,"no2":28.2,"co":337.0,"o3":89.0,"so2":6.8,"mosquito_risk":3,"arthritis_risk":10,"migraine_risk":7,"frizz_risk":1,"updated_at":"2026-07-17T00:45:14.010994+05:30"},{"city":"Shimla","state":"Himachal Pradesh","latitude":31.1048,"longitude":77.1734,"temp":15.2,"humidity":97,"rain":0.0,"pressure":781.7,"uv_index":6.65,"wind_gusts":39.6,"aqi":100,"pm10":55.5,"pm2_5":41.9,"no2":18.0,"co":408.0,"o3":81.0,"so2":5.9,"mosquito_risk":3,"arthritis_risk":10,"migraine_risk":7,"frizz_risk":0,"updated_at":"2026-07-17T00:45:14.011001+05:30"},{"city":"Manali","state":"Himachal Pradesh","latitude":32.2396,"longitude":77.1887,"temp":19.0,"humidity":93,"rain":0.0,"pressure":816.9,"uv_index":5.25,"wind_gusts":32.8,"aqi":42,"pm10":23.8,"pm2_5":18.4,"no2":42.8,"co":349.0,"o3":42.0,"so2":0.1,"mosquito_risk":3,"arthritis_risk":10,"migraine_risk":3,"frizz_risk":1,"updated_at":"2026-07-17T00:45:14.011009+05:30"},{"city":"Gurgaon","state":"Haryana","latitude":28.4595,"longitude":77.0266,"temp":31.2,"humidity":65,"rain":0.0,"pressure":975.7,"uv_index":6.15,"wind_gusts":35.6,"aqi":392,"pm10":692.9,"pm2_5":166.7,"no2":42.3,"co":424.0,"o3":25.0,"so2":14.7,"mosquito_risk":3,"arthritis_risk":5,"migraine_risk":7,"frizz_risk":1,"updated_at":"2026-07-17T00:45:14.011015+05:30"},{"city":"Noida","state":"Uttar Pradesh","latitude":28.5355,"longitude":77.391,"temp":29.8,"humidity":84,"rain":0.0,"pressure":978.4,"uv_index":6.35,"wind_gusts":25.9,"aqi":392,"pm10":692.9,"pm2_5":166.7,"no2":42.3,"co":637.0,"o3":25.0,"so2":14.7,"mosquito_risk":7,"arthritis_risk":5,"migraine_risk":7,"frizz_risk":1,"updated_at":"2026-07-17T00:45:14.011025+05:30"},{"city":"Ghaziabad","state":"Uttar Pradesh","latitude":28.6692,"longitude":77.4538,"temp":30.3,"humidity":68,"rain":0.0,"pressure":976.7,"uv_index":5.8,"wind_gusts":30.2,"aqi":293,"pm10":717.1,"pm2_5":204.4,"no2":79.4,"co":1394.0,"o3":1.0,"so2":29.6,"mosquito_risk":3,"arthritis_risk":5,"migraine_risk":3,"frizz_risk":1,"updated_at":"2026-07-17T00:45:14.011032+05:30"},{"city":"Faridabad","state":"Haryana","latitude":28.4089,"longitude":77.3178,"temp":31.9,"humidity":68,"rain":0.0,"pressure":977.9,"uv_index":6.35,"wind_gusts":33.5,"aqi":392,"pm10":692.9,"pm2_5":166.7,"no2":42.3,"co":477.0,"o3":25.0,"so2":14.7,"mosquito_risk":3,"arthritis_risk":5,"migraine_risk":7,"frizz_risk":1,"updated_at":"2026-07-17T00:45:14.011038+05:30"},{"city":"Meerut","state":"Uttar Pradesh","latitude":28.9845,"longitude":77.7064,"temp":30.1,"humidity":81,"rain":0.0,"pressure":975.6,"uv_index":7.6,"wind_gusts":29.9,"aqi":293,"pm10":717.1,"pm2_5":204.4,"no2":79.4,"co":1422.0,"o3":1.0,"so2":29.6,"mosquito_risk":3,"arthritis_risk":5,"migraine_risk":7,"frizz_risk":1,"updated_at":"2026-07-17T00:45:14.011044+05:30"},{"city":"Agra","state":"Uttar Pradesh","latitude":27.1767,"longitude":78.0081,"temp":32.3,"humidity":56,"rain":0.0,"pressure":982.1,"uv_index":6.8,"wind_gusts":34.9,"aqi":150,"pm10":94.5,"pm2_5":44.9,"no2":18.0,"co":255.0,"o3":55.0,"so2":6.3,"mosquito_risk":0,"arthritis_risk":5,"migraine_risk":7,"frizz_risk":1,"updated_at":"2026-07-17T00:45:14.011051+05:30"},{"city":"Varanasi","state":"Uttar Pradesh","latitude":25.3176,"longitude":82.9739,"temp":28.3,"humidity":94,"rain":0.0,"pressure":992.1,"uv_index":5.2,"wind_gusts":18.0,"aqi":177,"pm10":60.1,"pm2_5":38.3,"no2":9.5,"co":719.0,"o3":110.0,"so2":6.2,"mosquito_risk":7,"arthritis_risk":5,"migraine_risk":3,"frizz_risk":1,"updated_at":"2026-07-17T00:45:14.011058+05:30"},{"city":"Prayagraj","state":"Uttar Pradesh","latitude":25.4358,"longitude":81.8463,"temp":29.3,"humidity":92,"rain":0.0,"pressure":990.6,"uv_index":7.9,"wind_gusts":29.9,"aqi":166,"pm10":82.2,"pm2_5":55.2,"no2":17.0,"co":423.0,"o3":77.0,"so2":8.8,"mosquito_risk":7,"arthritis_risk":5,"migraine_risk":7,"frizz_risk":1,"updated_at":"2026-07-17T00:45:14.011065+05:30"},{"city":"Gorakhpur","state":"Uttar Pradesh","latitude":26.7606,"longitude":83.3732,"temp":27.0,"humidity":98,"rain":0.1,"pressure":992.4,"uv_index":7.2,"wind_gusts":28.4,"aqi":123,"pm10":15.2,"pm2_5":15.0,"no2":16.3,"co":793.0,"o3":77.0,"so2":4.3,"mosquito_risk":10,"arthritis_risk":5,"migraine_risk":7,"frizz_risk":1,"updated_at":"2026-07-17T00:45:14.011071+05:30"},{"city":"Bareilly","state":"Uttar Pradesh","latitude":28.367,"longitude":79.4304,"temp":29.2,"humidity":90,"rain":0.0,"pressure":981.3,"uv_index":6.8,"wind_gusts":28.8,"aqi":174,"pm10":92.9,"pm2_5":68.7,"no2":17.7,"co":517.0,"o3":77.0,"so2":11.3,"mosquito_risk":7,"arthritis_risk":5,"migraine_risk":7,"frizz_risk":1,"updated_at":"2026-07-17T00:45:14.011079+05:30"},{"city":"Aligarh","state":"Uttar Pradesh","latitude":27.8974,"longitude":78.088,"temp":30.6,"humidity":69,"rain":0.0,"pressure":979.8,"uv_index":7.35,"wind_gusts":27.4,"aqi":241,"pm10":327.8,"pm2_5":98.0,"no2":24.8,"co":351.0,"o3":43.0,"so2":6.4,"mosquito_risk":3,"arthritis_risk":5,"migraine_risk":7,"frizz_risk":1,"updated_at":"2026-07-17T00:45:14.011085+05:30"},{"city":"Moradabad","state":"Uttar Pradesh","latitude":28.8386,"longitude":78.7733,"temp":29.9,"humidity":81,"rain":0.0,"pressure":978.1,"uv_index":7.15,"wind_gusts":31.0,"aqi":189,"pm10":294.3,"pm2_5":147.6,"no2":56.4,"co":971.0,"o3":20.0,"so2":17.3,"mosquito_risk":7,"arthritis_risk":5,"migraine_risk":7,"frizz_risk":1,"updated_at":"2026-07-17T00:45:14.011091+05:30"},{"city":"Saharanpur","state":"Uttar Pradesh","latitude":29.9637,"longitude":77.546,"temp":29.1,"humidity":79,"rain":0.0,"pressure":969.9,"uv_index":7.3,"wind_gusts":32.8,"aqi":167,"pm10":251.5,"pm2_5":112.7,"no2":37.8,"co":673.0,"o3":63.0,"so2":15.4,"mosquito_risk":7,"arthritis_risk":5,"migraine_risk":7,"frizz_risk":1,"updated_at":"2026-07-17T00:45:14.011097+05:30"},{"city":"Jhansi","state":"Uttar Pradesh","latitude":25.4484,"longitude":78.5685,"temp":29.8,"humidity":70,"rain":0.0,"pressure":973.2,"uv_index":7.25,"wind_gusts":42.8,"aqi":89,"pm10":46.4,"pm2_5":25.7,"no2":9.7,"co":167.0,"o3":62.0,"so2":4.6,"mosquito_risk":7,"arthritis_risk":5,"migraine_risk":7,"frizz_risk":1,"updated_at":"2026-07-17T00:45:17.383989+05:30"},{"city":"Surat","state":"Gujarat","latitude":21.1702,"longitude":72.8311,"temp":27.4,"humidity":88,"rain":0.1,"pressure":1004.5,"uv_index":7.7,"wind_gusts":48.2,"aqi":74,"pm10":22.7,"pm2_5":16.8,"no2":25.8,"co":305.0,"o3":20.0,"so2":39.3,"mosquito_risk":10,"arthritis_risk":5,"migraine_risk":4,"frizz_risk":1,"updated_at":"2026-07-17T00:45:17.384019+05:30"},{"city":"Vadodara","state":"Gujarat","latitude":22.3072,"longitude":73.1812,"temp":28.5,"humidity":83,"rain":0.0,"pressure":1001.7,"uv_index":5.5,"wind_gusts":40.0,"aqi":70,"pm10":21.2,"pm2_5":15.6,"no2":22.6,"co":157.0,"o3":23.0,"so2":22.3,"mosquito_risk":7,"arthritis_risk":5,"migraine_risk":0,"frizz_risk":1,"updated_at":"2026-07-17T00:45:17.384029+05:30"},{"city":"Rajkot","state":"Gujarat","latitude":22.3039,"longitude":70.8022,"temp":27.3,"humidity":83,"rain":0.0,"pressure":991.5,"uv_index":6.4,"wind_gusts":44.3,"aqi":64,"pm10":16.4,"pm2_5":10.3,"no2":8.8,"co":117.0,"o3":30.0,"so2":4.6,"mosquito_risk":7,"arthritis_risk":5,"migraine_risk":7,"frizz_risk":1,"updated_at":"2026-07-17T00:45:17.384037+05:30"},{"city":"Thane","state":"Maharashtra","latitude":19.2183,"longitude":72.9781,"temp":25.2,"humidity":97,"rain":0.1,"pressure":1006.7,"uv_index":7.0,"wind_gusts":37.4,"aqi":69,"pm10":22.9,"pm2_5":11.7,"no2":10.1,"co":204.0,"o3":39.0,"so2":8.4,"mosquito_risk":10,"arthritis_risk":5,"migraine_risk":4,"frizz_risk":1,"updated_at":"2026-07-17T00:45:17.384044+05:30"},{"city":"Nagpur","state":"Maharashtra","latitude":21.1458,"longitude":79.0882,"temp":29.5,"humidity":66,"rain":0.0,"pressure":970.1,"uv_index":0.85,"wind_gusts":35.6,"aqi":83,"pm10":36.1,"pm2_5":23.2,"no2":13.9,"co":243.0,"o3":49.0,"so2":9.9,"mosquito_risk":7,"arthritis_risk":5,"migraine_risk":3,"frizz_risk":1,"updated_at":"2026-07-17T00:45:17.384051+05:30"},{"city":"Nashik","state":"Maharashtra","latitude":19.9975,"longitude":73.7898,"temp":23.4,"humidity":92,"rain":0.0,"pressure":943.9,"uv_index":7.4,"wind_gusts":47.5,"aqi":56,"pm10":14.1,"pm2_5":9.2,"no2":13.0,"co":165.0,"o3":34.0,"so2":15.0,"mosquito_risk":3,"arthritis_risk":5,"migraine_risk":7,"frizz_risk":1,"updated_at":"2026-07-17T00:45:17.384059+05:30"},{"city":"Aurangabad","state":"Maharashtra","latitude":19.8762,"longitude":75.3433,"temp":24.0,"humidity":86,"rain":0.0,"pressure":942.7,"uv_index":8.15,"wind_gusts":51.8,"aqi":58,"pm10":16.5,"pm2_5":11.5,"no2":9.6,"co":186.0,"o3":60.0,"so2":12.9,"mosquito_risk":3,"arthritis_risk":5,"migraine_risk":7,"frizz_risk":1,"updated_at":"2026-07-17T00:45:17.384066+05:30"},{"city":"Solapur","state":"Maharashtra","latitude":17.6599,"longitude":75.9064,"temp":27.1,"humidity":68,"rain":0.0,"pressure":956.6,"uv_index":6.7,"wind_gusts":42.8,"aqi":52,"pm10":12.6,"pm2_5":8.6,"no2":7.0,"co":192.0,"o3":41.0,"so2":2.7,"mosquito_risk":7,"arthritis_risk":5,"migraine_risk":7,"frizz_risk":1,"updated_at":"2026-07-17T00:45:17.384074+05:30"},{"city":"Kolhapur","state":"Maharashtra","latitude":16.705,"longitude":74.2433,"temp":22.9,"humidity":91,"rain":0.0,"pressure":947.6,"uv_index":7.6,"wind_gusts":49.7,"aqi":50,"pm10":8.6,"pm2_5":5.8,"no2":6.3,"co":132.0,"o3":38.0,"so2":2.8,"mosquito_risk":3,"arthritis_risk":5,"migraine_risk":7,"frizz_risk":1,"updated_at":"2026-07-17T00:45:17.384081+05:30"},{"city":"Goa","state":"Goa","latitude":15.2993,"longitude":74.124,"temp":24.6,"humidity":98,"rain":0.1,"pressure":999.0,"uv_index":7.1,"wind_gusts":34.6,"aqi":68,"pm10":27.9,"pm2_5":14.6,"no2":3.4,"co":350.0,"o3":46.0,"so2":1.3,"mosquito_risk":6,"arthritis_risk":5,"migraine_risk":7,"frizz_risk":1,"updated_at":"2026-07-17T00:45:17.384088+05:30"},{"city":"Jodhpur","state":"Rajasthan","latitude":26.2389,"longitude":73.0243,"temp":31.1,"humidity":55,"rain":0.0,"pressure":979.1,"uv_index":8.4,"wind_gusts":42.1,"aqi":141,"pm10":144.4,"pm2_5":38.8,"no2":8.0,"co":132.0,"o3":51.0,"so2":2.3,"mosquito_risk":0,"arthritis_risk":5,"migraine_risk":7,"frizz_risk":1,"updated_at":"2026-07-17T00:45:17.384095+05:30"},{"city":"Udaipur","state":"Rajasthan","latitude":24.5854,"longitude":73.7125,"temp":26.0,"humidity":72,"rain":0.0,"pressure":943.7,"uv_index":8.65,"wind_gusts":39.2,"aqi":83,"pm10":40.4,"pm2_5":22.9,"no2":9.6,"co":149.0,"o3":60.0,"so2":7.8,"mosquito_risk":7,"arthritis_risk":5,"migraine_risk":7,"frizz_risk":1,"updated_at":"2026-07-17T00:45:17.384102+05:30"},{"city":"Kota","state":"Rajasthan","latitude":25.2138,"longitude":75.8648,"temp":31.2,"humidity":55,"rain":0.0,"pressure":974.8,"uv_index":8.2,"wind_gusts":33.1,"aqi":83,"pm10":47.0,"pm2_5":27.9,"no2":9.3,"co":177.0,"o3":66.0,"so2":6.5,"mosquito_risk":0,"arthritis_risk":5,"migraine_risk":7,"frizz_risk":1,"updated_at":"2026-07-17T00:45:17.384108+05:30"},{"city":"Bikaner","state":"Rajasthan","latitude":28.0229,"longitude":73.3119,"temp":33.3,"humidity":44,"rain":0.0,"pressure":976.7,"uv_index":8.45,"wind_gusts":37.8,"aqi":140,"pm10":196.0,"pm2_5":64.5,"no2":2.6,"co":120.0,"o3":66.0,"so2":3.7,"mosquito_risk":0,"arthritis_risk":5,"migraine_risk":7,"frizz_risk":1,"updated_at":"2026-07-17T00:45:17.384115+05:30"},{"city":"Ajmer","state":"Rajasthan","latitude":26.4499,"longitude":74.6399,"temp":28.8,"humidity":58,"rain":0.0,"pressure":951.2,"uv_index":8.15,"wind_gusts":45.4,"aqi":89,"pm10":60.3,"pm2_5":28.6,"no2":10.4,"co":142.0,"o3":52.0,"so2":4.8,"mosquito_risk":4,"arthritis_risk":5,"migraine_risk":7,"frizz_risk":1,"updated_at":"2026-07-17T00:45:17.384121+05:30"},{"city":"Gwalior","state":"Madhya Pradesh","latitude":26.2183,"longitude":78.1828,"temp":30.2,"humidity":67,"rain":0.0,"pressure":978.0,"uv_index":5.95,"wind_gusts":41.8,"aqi":104,"pm10":57.6,"pm2_5":28.3,"no2":10.7,"co":143.0,"o3":56.0,"so2":3.0,"mosquito_risk":3,"arthritis_risk":5,"migraine_risk":3,"frizz_risk":1,"updated_at":"2026-07-17T00:45:17.384128+05:30"},{"city":"Indore","state":"Madhya Pradesh","latitude":22.7196,"longitude":75.8577,"temp":26.4,"humidity":75,"rain":0.0,"pressure":945.7,"uv_index":8.55,"wind_gusts":43.6,"aqi":71,"pm10":29.1,"pm2_5":22.2,"no2":9.9,"co":235.0,"o3":72.0,"so2":9.1,"mosquito_risk":7,"arthritis_risk":5,"migraine_risk":7,"frizz_risk":1,"updated_at":"2026-07-17T00:45:17.384135+05:30"},{"city":"Bhopal","state":"Madhya Pradesh","latitude":23.2599,"longitude":77.4126,"temp":28.2,"humidity":64,"rain":0.0,"pressure":950.4,"uv_index":7.65,"wind_gusts":36.0,"aqi":79,"pm10":36.3,"pm2_5":25.7,"no2":9.7,"co":292.0,"o3":61.0,"so2":5.2,"mosquito_risk":7,"arthritis_risk":5,"migraine_risk":7,"frizz_risk":1,"updated_at":"2026-07-17T00:45:17.384142+05:30"},{"city":"Jabalpur","state":"Madhya Pradesh","latitude":23.1815,"longitude":79.9864,"temp":26.0,"humidity":95,"rain":0.0,"pressure":957.6,"uv_index":6.05,"wind_gusts":34.9,"aqi":93,"pm10":41.2,"pm2_5":24.0,"no2":9.9,"co":291.0,"o3":61.0,"so2":4.0,"mosquito_risk":7,"arthritis_risk":5,"migraine_risk":7,"frizz_risk":1,"updated_at":"2026-07-17T00:45:17.384149+05:30"},{"city":"Ujjain","state":"Madhya Pradesh","latitude":23.1765,"longitude":75.7885,"temp":26.5,"humidity":75,"rain":0.0,"pressure":951.3,"uv_index":8.45,"wind_gusts":38.5,"aqi":73,"pm10":28.9,"pm2_5":21.8,"no2":7.5,"co":248.0,"o3":75.0,"so2":8.4,"mosquito_risk":7,"arthritis_risk":5,"migraine_risk":7,"frizz_risk":1,"updated_at":"2026-07-17T00:45:17.384156+05:30"},{"city":"Visakhapatnam","state":"Andhra Pradesh","latitude":17.6868,"longitude":83.2185,"temp":29.2,"humidity":70,"rain":0.0,"pressure":999.4,"uv_index":8.35,"wind_gusts":52.2,"aqi":87,"pm10":31.5,"pm2_5":22.9,"no2":21.1,"co":291.0,"o3":64.0,"so2":38.6,"mosquito_risk":7,"arthritis_risk":5,"migraine_risk":7,"frizz_risk":1,"updated_at":"2026-07-17T00:45:17.384163+05:30"},{"city":"Vijayawada","state":"Andhra Pradesh","latitude":16.5062,"longitude":80.648,"temp":28.6,"humidity":80,"rain":0.0,"pressure":1000.3,"uv_index":3.2,"wind_gusts":42.8,"aqi":72,"pm10":29.6,"pm2_5":21.0,"no2":10.9,"co":265.0,"o3":57.0,"so2":4.6,"mosquito_risk":7,"arthritis_risk":5,"migraine_risk":0,"frizz_risk":1,"updated_at":"2026-07-17T00:45:17.384170+05:30"},{"city":"Guntur","state":"Andhra Pradesh","latitude":16.3067,"longitude":80.4365,"temp":28.7,"humidity":71,"rain":0.0,"pressure":1001.5,"uv_index":3.5,"wind_gusts":42.8,"aqi":70,"pm10":31.8,"pm2_5":23.5,"no2":15.3,"co":245.0,"o3":47.0,"so2":5.1,"mosquito_risk":7,"arthritis_risk":5,"migraine_risk":0,"frizz_risk":1,"updated_at":"2026-07-17T00:45:17.384177+05:30"},{"city":"Nellore","state":"Andhra Pradesh","latitude":14.4426,"longitude":79.9865,"temp":30.0,"humidity":63,"rain":0.0,"pressure":1004.4,"uv_index":6.8,"wind_gusts":49.3,"aqi":71,"pm10":45.2,"pm2_5":27.7,"no2":11.9,"co":228.0,"o3":56.0,"so2":6.8,"mosquito_risk":7,"arthritis_risk":5,"migraine_risk":4,"frizz_risk":1,"updated_at":"2026-07-17T00:45:17.384184+05:30"},{"city":"Kurnool","state":"Andhra Pradesh","latitude":15.8281,"longitude":78.0373,"temp":27.8,"humidity":65,"rain":0.0,"pressure":976.6,"uv_index":8.3,"wind_gusts":47.2,"aqi":63,"pm10":28.6,"pm2_5":16.0,"no2":6.9,"co":171.0,"o3":59.0,"so2":2.0,"mosquito_risk":7,"arthritis_risk":5,"migraine_risk":7,"frizz_risk":1,"updated_at":"2026-07-17T00:45:17.384191+05:30"},{"city":"Kakinada","state":"Andhra Pradesh","latitude":16.9891,"longitude":82.2475,"temp":27.9,"humidity":78,"rain":0.0,"pressure":1004.4,"uv_index":8.7,"wind_gusts":46.8,"aqi":77,"pm10":35.9,"pm2_5":24.6,"no2":8.8,"co":435.0,"o3":80.0,"so2":7.5,"mosquito_risk":7,"arthritis_risk":5,"migraine_risk":4,"frizz_risk":1,"updated_at":"2026-07-17T00:45:17.384220+05:30"},{"city":"Tirupati","state":"Andhra Pradesh","latitude":13.6288,"longitude":79.4192,"temp":29.3,"humidity":58,"rain":0.0,"pressure":990.0,"uv_index":8.35,"wind_gusts":37.8,"aqi":81,"pm10":54.4,"pm2_5":42.7,"no2":41.3,"co":196.0,"o3":16.0,"so2":5.4,"mosquito_risk":4,"arthritis_risk":5,"migraine_risk":7,"frizz_risk":1,"updated_at":"2026-07-17T00:45:17.384228+05:30"},{"city":"Warangal","state":"Telangana","latitude":17.9689,"longitude":79.5941,"temp":27.7,"humidity":80,"rain":0.0,"pressure":976.5,"uv_index":7.0,"wind_gusts":37.8,"aqi":66,"pm10":30.7,"pm2_5":21.2,"no2":12.5,"co":260.0,"o3":49.0,"so2":5.3,"mosquito_risk":7,"arthritis_risk":5,"migraine_risk":7,"frizz_risk":1,"updated_at":"2026-07-17T00:45:17.384234+05:30"},{"city":"Nizamabad","state":"Telangana","latitude":18.6725,"longitude":78.0941,"temp":27.1,"humidity":68,"rain":0.0,"pressure":963.1,"uv_index":3.2,"wind_gusts":40.0,"aqi":64,"pm10":33.2,"pm2_5":20.1,"no2":10.7,"co":176.0,"o3":52.0,"so2":6.7,"mosquito_risk":7,"arthritis_risk":5,"migraine_risk":3,"frizz_risk":1,"updated_at":"2026-07-17T00:45:17.384241+05:30"},{"city":"Mysore","state":"Karnataka","latitude":12.2958,"longitude":76.6396,"temp":21.2,"humidity":90,"rain":0.0,"pressure":929.2,"uv_index":3.75,"wind_gusts":46.4,"aqi":61,"pm10":12.6,"pm2_5":8.0,"no2":8.6,"co":130.0,"o3":38.0,"so2":2.5,"mosquito_risk":3,"arthritis_risk":5,"migraine_risk":3,"frizz_risk":1,"updated_at":"2026-07-17T00:45:17.384247+05:30"},{"city":"Mangalore","state":"Karnataka","latitude":12.9141,"longitude":74.856,"temp":24.3,"humidity":97,"rain":0.2,"pressure":1009.1,"uv_index":0.95,"wind_gusts":37.8,"aqi":68,"pm10":30.9,"pm2_5":17.7,"no2":12.7,"co":157.0,"o3":30.0,"so2":3.7,"mosquito_risk":6,"arthritis_risk":0,"migraine_risk":0,"frizz_risk":1,"updated_at":"2026-07-17T00:45:17.384254+05:30"},{"city":"Hubli-Dharwad","state":"Karnataka","latitude":15.3647,"longitude":75.124,"temp":22.4,"humidity":92,"rain":0.0,"pressure":941.1,"uv_index":8.1,"wind_gusts":52.6,"aqi":51,"pm10":4.8,"pm2_5":2.6,"no2":3.0,"co":121.0,"o3":44.0,"so2":1.2,"mosquito_risk":3,"arthritis_risk":5,"migraine_risk":7,"frizz_risk":1,"updated_at":"2026-07-17T00:45:17.384261+05:30"},{"city":"Belgaum","state":"Karnataka","latitude":15.8497,"longitude":74.4977,"temp":21.4,"humidity":94,"rain":0.0,"pressure":925.5,"uv_index":8.7,"wind_gusts":50.8,"aqi":45,"pm10":7.4,"pm2_5":4.2,"no2":3.9,"co":120.0,"o3":43.0,"so2":2.3,"mosquito_risk":3,"arthritis_risk":5,"migraine_risk":7,"frizz_risk":1,"updated_at":"2026-07-17T00:45:20.763282+05:30"},{"city":"Coimbatore","state":"Tamil Nadu","latitude":11.0168,"longitude":76.9558,"temp":24.0,"humidity":86,"rain":0.0,"pressure":962.3,"uv_index":8.75,"wind_gusts":51.5,"aqi":59,"pm10":20.5,"pm2_5":12.7,"no2":9.6,"co":201.0,"o3":31.0,"so2":3.7,"mosquito_risk":3,"arthritis_risk":5,"migraine_risk":7,"frizz_risk":1,"updated_at":"2026-07-17T00:45:20.763316+05:30"},{"city":"Madurai","state":"Tamil Nadu","latitude":9.9252,"longitude":78.1198,"temp":29.1,"humidity":60,"rain":0.0,"pressure":993.1,"uv_index":8.55,"wind_gusts":43.6,"aqi":82,"pm10":30.2,"pm2_5":24.7,"no2":34.4,"co":147.0,"o3":18.0,"so2":7.6,"mosquito_risk":4,"arthritis_risk":5,"migraine_risk":7,"frizz_risk":1,"updated_at":"2026-07-17T00:45:20.763326+05:30"},{"city":"Trichy","state":"Tamil Nadu","latitude":10.7905,"longitude":78.7047,"temp":29.2,"humidity":59,"rain":0.0,"pressure":999.9,"uv_index":8.8,"wind_gusts":56.9,"aqi":67,"pm10":27.8,"pm2_5":20.5,"no2":18.0,"co":138.0,"o3":33.0,"so2":5.3,"mosquito_risk":4,"arthritis_risk":5,"migraine_risk":7,"frizz_risk":1,"updated_at":"2026-07-17T00:45:20.763334+05:30"},{"city":"Salem","state":"Tamil Nadu","latitude":11.6643,"longitude":78.146,"temp":25.8,"humidity":76,"rain":0.0,"pressure":977.7,"uv_index":8.9,"wind_gusts":31.7,"aqi":76,"pm10":32.2,"pm2_5":22.8,"no2":23.8,"co":278.0,"o3":32.0,"so2":7.0,"mosquito_risk":7,"arthritis_risk":5,"migraine_risk":7,"frizz_risk":1,"updated_at":"2026-07-17T00:45:20.763343+05:30"},{"city":"Tirunelveli","state":"Tamil Nadu","latitude":8.7139,"longitude":77.7567,"temp":28.4,"humidity":66,"rain":0.0,"pressure":1003.9,"uv_index":7.85,"wind_gusts":50.0,"aqi":59,"pm10":22.6,"pm2_5":13.1,"no2":7.7,"co":153.0,"o3":40.0,"so2":2.7,"mosquito_risk":7,"arthritis_risk":5,"migraine_risk":4,"frizz_risk":1,"updated_at":"2026-07-17T00:45:20.763351+05:30"},{"city":"Vellore","state":"Tamil Nadu","latitude":12.9165,"longitude":79.1325,"temp":30.1,"humidity":45,"rain":0.0,"pressure":983.5,"uv_index":8.1,"wind_gusts":41.8,"aqi":79,"pm10":25.8,"pm2_5":18.7,"no2":14.9,"co":132.0,"o3":49.0,"so2":5.1,"mosquito_risk":0,"arthritis_risk":5,"migraine_risk":7,"frizz_risk":1,"updated_at":"2026-07-17T00:45:20.763358+05:30"},{"city":"Erode","state":"Tamil Nadu","latitude":11.341,"longitude":77.7172,"temp":27.0,"humidity":70,"rain":0.0,"pressure":989.4,"uv_index":8.85,"wind_gusts":34.2,"aqi":65,"pm10":25.9,"pm2_5":17.3,"no2":17.3,"co":184.0,"o3":32.0,"so2":4.5,"mosquito_risk":7,"arthritis_risk":5,"migraine_risk":7,"frizz_risk":1,"updated_at":"2026-07-17T00:45:20.763366+05:30"},{"city":"Kochi","state":"Kerala","latitude":9.9312,"longitude":76.2673,"temp":27.0,"humidity":86,"rain":0.0,"pressure":1010.6,"uv_index":8.0,"wind_gusts":37.8,"aqi":75,"pm10":27.2,"pm2_5":17.6,"no2":16.2,"co":138.0,"o3":24.0,"so2":4.7,"mosquito_risk":7,"arthritis_risk":0,"migraine_risk":4,"frizz_risk":1,"updated_at":"2026-07-17T00:45:20.763373+05:30"},{"city":"Thiruvananthapuram","state":"Kerala","latitude":8.5241,"longitude":76.9366,"temp":25.2,"humidity":92,"rain":0.0,"pressure":1010.5,"uv_index":8.1,"wind_gusts":47.9,"aqi":67,"pm10":30.0,"pm2_5":14.4,"no2":5.3,"co":184.0,"o3":46.0,"so2":2.0,"mosquito_risk":7,"arthritis_risk":0,"migraine_risk":4,"frizz_risk":1,"updated_at":"2026-07-17T00:45:20.763380+05:30"},{"city":"Kozhikode","state":"Kerala","latitude":11.2588,"longitude":75.7804,"temp":25.5,"humidity":91,"rain":0.1,"pressure":1009.9,"uv_index":7.9,"wind_gusts":37.8,"aqi":61,"pm10":21.4,"pm2_5":9.8,"no2":2.3,"co":262.0,"o3":51.0,"so2":1.4,"mosquito_risk":10,"arthritis_risk":0,"migraine_risk":4,"frizz_risk":1,"updated_at":"2026-07-17T00:45:20.763386+05:30"},{"city":"Thrissur","state":"Kerala","latitude":10.5276,"longitude":76.2144,"temp":26.3,"humidity":85,"rain":0.0,"pressure":1008.9,"uv_index":7.7,"wind_gusts":38.2,"aqi":70,"pm10":25.4,"pm2_5":16.6,"no2":9.9,"co":347.0,"o3":33.0,"so2":3.5,"mosquito_risk":7,"arthritis_risk":0,"migraine_risk":4,"frizz_risk":1,"updated_at":"2026-07-17T00:45:20.763394+05:30"},{"city":"Kannur","state":"Kerala","latitude":11.8745,"longitude":75.3704,"temp":24.7,"humidity":96,"rain":0.2,"pressure":1009.5,"uv_index":2.2,"wind_gusts":31.7,"aqi":65,"pm10":18.9,"pm2_5":11.7,"no2":12.5,"co":260.0,"o3":28.0,"so2":2.7,"mosquito_risk":6,"arthritis_risk":0,"migraine_risk":0,"frizz_risk":1,"updated_at":"2026-07-17T00:45:20.763401+05:30"},{"city":"Patna","state":"Bihar","latitude":25.5941,"longitude":85.1376,"temp":27.6,"humidity":93,"rain":0.0,"pressure":995.2,"uv_index":8.25,"wind_gusts":30.6,"aqi":107,"pm10":43.1,"pm2_5":42.1,"no2":20.7,"co":447.0,"o3":64.0,"so2":9.4,"mosquito_risk":7,"arthritis_risk":5,"migraine_risk":7,"frizz_risk":1,"updated_at":"2026-07-17T00:45:20.763408+05:30"},{"city":"Gaya","state":"Bihar","latitude":24.7914,"longitude":85.0002,"temp":26.8,"humidity":98,"rain":0.2,"pressure":988.3,"uv_index":8.7,"wind_gusts":27.4,"aqi":96,"pm10":32.5,"pm2_5":31.5,"no2":13.9,"co":326.0,"o3":67.0,"so2":5.2,"mosquito_risk":10,"arthritis_risk":5,"migraine_risk":7,"frizz_risk":1,"updated_at":"2026-07-17T00:45:20.763414+05:30"},{"city":"Muzaffarpur","state":"Bihar","latitude":26.1209,"longitude":85.3647,"temp":27.4,"humidity":93,"rain":0.1,"pressure":995.5,"uv_index":7.2,"wind_gusts":38.2,"aqi":100,"pm10":45.9,"pm2_5":45.1,"no2":24.4,"co":853.0,"o3":55.0,"so2":10.0,"mosquito_risk":10,"arthritis_risk":5,"migraine_risk":7,"frizz_risk":1,"updated_at":"2026-07-17T00:45:20.763421+05:30"},{"city":"Bhagalpur","state":"Bihar","latitude":25.2425,"longitude":87.0117,"temp":28.8,"humidity":82,"rain":0.0,"pressure":995.7,"uv_index":7.55,"wind_gusts":33.1,"aqi":82,"pm10":24.7,"pm2_5":23.2,"no2":12.0,"co":269.0,"o3":74.0,"so2":5.1,"mosquito_risk":7,"arthritis_risk":5,"migraine_risk":7,"frizz_risk":1,"updated_at":"2026-07-17T00:45:20.763428+05:30"},{"city":"Ranchi","state":"Jharkhand","latitude":23.3441,"longitude":85.3096,"temp":23.9,"humidity":97,"rain":0.1,"pressure":932.5,"uv_index":7.75,"wind_gusts":29.9,"aqi":65,"pm10":14.7,"pm2_5":14.2,"no2":10.2,"co":246.0,"o3":82.0,"so2":7.4,"mosquito_risk":6,"arthritis_risk":5,"migraine_risk":7,"frizz_risk":1,"updated_at":"2026-07-17T00:45:20.763435+05:30"},{"city":"Jamshedpur","state":"Jharkhand","latitude":22.8046,"longitude":86.2029,"temp":26.0,"humidity":99,"rain":0.0,"pressure":984.4,"uv_index":8.35,"wind_gusts":23.4,"aqi":87,"pm10":47.4,"pm2_5":46.1,"no2":44.6,"co":226.0,"o3":37.0,"so2":64.8,"mosquito_risk":7,"arthritis_risk":5,"migraine_risk":7,"frizz_risk":1,"updated_at":"2026-07-17T00:45:20.763442+05:30"},{"city":"Dhanbad","state":"Jharkhand","latitude":23.7957,"longitude":86.4304,"temp":27.3,"humidity":87,"rain":0.0,"pressure":973.8,"uv_index":7.85,"wind_gusts":25.6,"aqi":98,"pm10":41.6,"pm2_5":40.3,"no2":42.6,"co":229.0,"o3":44.0,"so2":101.0,"mosquito_risk":7,"arthritis_risk":5,"migraine_risk":7,"frizz_risk":1,"updated_at":"2026-07-17T00:45:20.763449+05:30"},{"city":"Bokaro","state":"Jharkhand","latitude":23.6693,"longitude":86.1511,"temp":26.0,"humidity":95,"rain":0.0,"pressure":977.7,"uv_index":7.35,"wind_gusts":19.4,"aqi":95,"pm10":41.7,"pm2_5":39.9,"no2":38.3,"co":236.0,"o3":51.0,"so2":98.5,"mosquito_risk":7,"arthritis_risk":5,"migraine_risk":7,"frizz_risk":1,"updated_at":"2026-07-17T00:45:20.763456+05:30"},{"city":"Bhubaneswar","state":"Odisha","latitude":20.2961,"longitude":85.8245,"temp":25.0,"humidity":97,"rain":0.0,"pressure":996.7,"uv_index":7.0,"wind_gusts":40.0,"aqi":71,"pm10":22.3,"pm2_5":16.9,"no2":10.3,"co":265.0,"o3":70.0,"so2":7.7,"mosquito_risk":7,"arthritis_risk":5,"migraine_risk":7,"frizz_risk":1,"updated_at":"2026-07-17T00:45:20.763463+05:30"},{"city":"Cuttack","state":"Odisha","latitude":20.4625,"longitude":85.8828,"temp":25.6,"humidity":96,"rain":0.1,"pressure":998.4,"uv_index":7.85,"wind_gusts":37.4,"aqi":71,"pm10":22.3,"pm2_5":16.9,"no2":10.3,"co":301.0,"o3":70.0,"so2":7.7,"mosquito_risk":10,"arthritis_risk":5,"migraine_risk":7,"frizz_risk":1,"updated_at":"2026-07-17T00:45:20.763470+05:30"},{"city":"Rourkela","state":"Odisha","latitude":22.2604,"longitude":84.8536,"temp":25.0,"humidity":98,"rain":0.1,"pressure":979.6,"uv_index":5.85,"wind_gusts":32.8,"aqi":71,"pm10":26.6,"pm2_5":20.1,"no2":10.4,"co":290.0,"o3":67.0,"so2":1.9,"mosquito_risk":10,"arthritis_risk":5,"migraine_risk":3,"frizz_risk":1,"updated_at":"2026-07-17T00:45:20.763476+05:30"},{"city":"Raipur","state":"Chhattisgarh","latitude":21.2514,"longitude":81.6296,"temp":24.7,"humidity":97,"rain":0.3,"pressure":971.1,"uv_index":1.95,"wind_gusts":38.9,"aqi":130,"pm10":49.7,"pm2_5":38.0,"no2":32.5,"co":448.0,"o3":50.0,"so2":55.7,"mosquito_risk":6,"arthritis_risk":5,"migraine_risk":3,"frizz_risk":1,"updated_at":"2026-07-17T00:45:20.763483+05:30"},{"city":"Bhilai","state":"Chhattisgarh","latitude":21.1938,"longitude":81.3509,"temp":25.0,"humidity":97,"rain":0.2,"pressure":971.5,"uv_index":1.75,"wind_gusts":41.0,"aqi":114,"pm10":47.4,"pm2_5":33.8,"no2":24.3,"co":633.0,"o3":55.0,"so2":40.7,"mosquito_risk":10,"arthritis_risk":5,"migraine_risk":3,"frizz_risk":1,"updated_at":"2026-07-17T00:45:20.763489+05:30"},{"city":"Guwahati","state":"Assam","latitude":26.1158,"longitude":91.7086,"temp":27.6,"humidity":90,"rain":0.0,"pressure":996.9,"uv_index":7.8,"wind_gusts":21.6,"aqi":57,"pm10":8.3,"pm2_5":7.3,"no2":12.0,"co":299.0,"o3":28.0,"so2":1.4,"mosquito_risk":7,"arthritis_risk":5,"migraine_risk":7,"frizz_risk":1,"updated_at":"2026-07-17T00:45:20.763496+05:30"},{"city":"Agartala","state":"Tripura","latitude":23.8315,"longitude":91.2868,"temp":26.8,"humidity":85,"rain":0.0,"pressure":1002.6,"uv_index":8.25,"wind_gusts":51.8,"aqi":61,"pm10":25.6,"pm2_5":18.5,"no2":7.0,"co":167.0,"o3":70.0,"so2":3.0,"mosquito_risk":7,"arthritis_risk":5,"migraine_risk":4,"frizz_risk":1,"updated_at":"2026-07-17T00:45:20.763502+05:30"},{"city":"Shillong","state":"Meghalaya","latitude":25.5788,"longitude":91.8933,"temp":20.9,"humidity":93,"rain":0.1,"pressure":855.2,"uv_index":8.4,"wind_gusts":41.4,"aqi":36,"pm10":2.5,"pm2_5":2.0,"no2":5.3,"co":141.0,"o3":66.0,"so2":1.6,"mosquito_risk":6,"arthritis_risk":5,"migraine_risk":7,"frizz_risk":1,"updated_at":"2026-07-17T00:45:20.763509+05:30"},{"city":"Imphal","state":"Manipur","latitude":24.817,"longitude":93.9368,"temp":22.7,"humidity":98,"rain":0.3,"pressure":920.7,"uv_index":7.6,"wind_gusts":32.8,"aqi":56,"pm10":14.5,"pm2_5":11.5,"no2":6.9,"co":425.0,"o3":49.0,"so2":2.0,"mosquito_risk":6,"arthritis_risk":5,"migraine_risk":7,"frizz_risk":1,"updated_at":"2026-07-17T00:45:20.763516+05:30"},{"city":"Aizawl","state":"Mizoram","latitude":23.7271,"longitude":92.7176,"temp":19.7,"humidity":90,"rain":0.0,"pressure":890.2,"uv_index":7.7,"wind_gusts":52.2,"aqi":52,"pm10":19.4,"pm2_5":11.0,"no2":2.4,"co":140.0,"o3":63.0,"so2":1.6,"mosquito_risk":3,"arthritis_risk":10,"migraine_risk":7,"frizz_risk":1,"updated_at":"2026-07-17T00:45:20.763523+05:30"},{"city":"Kohima","state":"Nagaland","latitude":25.6701,"longitude":94.1077,"temp":19.9,"humidity":91,"rain":0.0,"pressure":853.1,"uv_index":4.55,"wind_gusts":23.8,"aqi":43,"pm10":7.1,"pm2_5":5.3,"no2":4.5,"co":216.0,"o3":54.0,"so2":1.1,"mosquito_risk":3,"arthritis_risk":10,"migraine_risk":3,"frizz_risk":1,"updated_at":"2026-07-17T00:45:20.763529+05:30"},{"city":"Gangtok","state":"Sikkim","latitude":27.3314,"longitude":88.6138,"temp":18.7,"humidity":97,"rain":0.1,"pressure":836.2,"uv_index":7.5,"wind_gusts":31.3,"aqi":43,"pm10":7.1,"pm2_5":6.1,"no2":3.6,"co":386.0,"o3":91.0,"so2":1.8,"mosquito_risk":6,"arthritis_risk":10,"migraine_risk":7,"frizz_risk":1,"updated_at":"2026-07-17T00:45:20.763536+05:30"},{"city":"Siliguri","state":"West Bengal","latitude":26.7271,"longitude":88.3953,"temp":27.5,"humidity":80,"rain":0.0,"pressure":988.9,"uv_index":6.65,"wind_gusts":29.5,"aqi":60,"pm10":20.7,"pm2_5":18.1,"no2":11.1,"co":324.0,"o3":87.0,"so2":4.9,"mosquito_risk":7,"arthritis_risk":5,"migraine_risk":7,"frizz_risk":1,"updated_at":"2026-07-17T00:45:24.167071+05:30"},{"city":"Durgapur","state":"West Bengal","latitude":23.5204,"longitude":87.3119,"temp":26.8,"humidity":95,"rain":0.1,"pressure":988.2,"uv_index":8.55,"wind_gusts":32.0,"aqi":81,"pm10":33.6,"pm2_5":32.2,"no2":34.1,"co":264.0,"o3":39.0,"so2":32.6,"mosquito_risk":10,"arthritis_risk":5,"migraine_risk":7,"frizz_risk":1,"updated_at":"2026-07-17T00:45:24.167106+05:30"},{"city":"Asansol","state":"West Bengal","latitude":23.6739,"longitude":86.9524,"temp":27.1,"humidity":91,"rain":0.0,"pressure":986.9,"uv_index":8.3,"wind_gusts":35.3,"aqi":81,"pm10":29.5,"pm2_5":28.6,"no2":34.2,"co":221.0,"o3":42.0,"so2":32.5,"mosquito_risk":7,"arthritis_risk":5,"migraine_risk":7,"frizz_risk":1,"updated_at":"2026-07-17T00:45:24.167118+05:30"},{"city":"Pondicherry","state":"Puducherry","latitude":11.9139,"longitude":79.8145,"temp":28.8,"humidity":74,"rain":0.0,"pressure":1007.6,"uv_index":8.65,"wind_gusts":41.0,"aqi":77,"pm10":21.9,"pm2_5":15.1,"no2":9.4,"co":224.0,"o3":60.0,"so2":7.5,"mosquito_risk":7,"arthritis_risk":5,"migraine_risk":4,"frizz_risk":1,"updated_at":"2026-07-17T00:45:24.167128+05:30"},{"city":"Port Blair","state":"Andaman and Nicobar Islands","latitude":11.6234,"longitude":92.7265,"temp":27.3,"humidity":86,"rain":0.0,"pressure":1007.6,"uv_index":7.8,"wind_gusts":39.2,"aqi":47,"pm10":14.9,"pm2_5":7.7,"no2":0.2,"co":87.0,"o3":44.0,"so2":0.4,"mosquito_risk":7,"arthritis_risk":5,"migraine_risk":4,"frizz_risk":1,"updated_at":"2026-07-17T00:45:24.167137+05:30"},{"city":"Haridwar","state":"Uttarakhand","latitude":29.9457,"longitude":78.1642,"temp":29.2,"humidity":80,"rain":0.0,"pressure":968.4,"uv_index":7.5,"wind_gusts":27.4,"aqi":134,"pm10":125.7,"pm2_5":94.5,"no2":38.4,"co":456.0,"o3":66.0,"so2":17.6,"mosquito_risk":7,"arthritis_risk":5,"migraine_risk":7,"frizz_risk":1,"updated_at":"2026-07-17T00:45:24.167145+05:30"},{"city":"Rishikesh","state":"Uttarakhand","latitude":30.0869,"longitude":78.2676,"temp":28.0,"humidity":78,"rain":0.0,"pressure":961.3,"uv_index":7.4,"wind_gusts":25.9,"aqi":128,"pm10":85.7,"pm2_5":63.8,"no2":12.6,"co":410.0,"o3":128.0,"so2":12.6,"mosquito_risk":7,"arthritis_risk":5,"migraine_risk":7,"frizz_risk":1,"updated_at":"2026-07-17T00:45:24.167154+05:30"},{"city":"Nainital","state":"Uttarakhand","latitude":29.3919,"longitude":79.4542,"temp":17.6,"humidity":99,"rain":0.1,"pressure":803.7,"uv_index":6.35,"wind_gusts":28.4,"aqi":127,"pm10":62.6,"pm2_5":40.9,"no2":9.2,"co":310.0,"o3":108.0,"so2":7.5,"mosquito_risk":6,"arthritis_risk":10,"migraine_risk":7,"frizz_risk":1,"updated_at":"2026-07-17T00:45:24.167162+05:30"},{"city":"Mussoorie","state":"Uttarakhand","latitude":30.4599,"longitude":78.0664,"temp":17.2,"humidity":100,"rain":0.0,"pressure":800.8,"uv_index":6.65,"wind_gusts":39.2,"aqi":108,"pm10":68.0,"pm2_5":60.8,"no2":23.7,"co":427.0,"o3":103.0,"so2":14.3,"mosquito_risk":3,"arthritis_risk":10,"migraine_risk":7,"frizz_risk":1,"updated_at":"2026-07-17T00:45:24.167171+05:30"},{"city":"Dharamshala","state":"Himachal Pradesh","latitude":32.219,"longitude":76.3234,"temp":22.9,"humidity":83,"rain":0.0,"pressure":866.7,"uv_index":7.9,"wind_gusts":23.4,"aqi":70,"pm10":33.9,"pm2_5":28.5,"no2":19.1,"co":341.0,"o3":33.0,"so2":0.8,"mosquito_risk":3,"arthritis_risk":5,"migraine_risk":7,"frizz_risk":1,"updated_at":"2026-07-17T00:45:24.167179+05:30"},{"city":"Dalhousie","state":"Himachal Pradesh","latitude":32.5387,"longitude":75.971,"temp":16.9,"humidity":98,"rain":0.0,"pressure":802.3,"uv_index":7.55,"wind_gusts":24.1,"aqi":114,"pm10":59.8,"pm2_5":50.8,"no2":41.5,"co":676.0,"o3":69.0,"so2":4.6,"mosquito_risk":3,"arthritis_risk":10,"migraine_risk":7,"frizz_risk":1,"updated_at":"2026-07-17T00:45:24.167187+05:30"},{"city":"Patiala","state":"Punjab","latitude":30.3398,"longitude":76.3869,"temp":29.0,"humidity":81,"rain":0.0,"pressure":972.4,"uv_index":6.8,"wind_gusts":29.9,"aqi":184,"pm10":353.9,"pm2_5":147.1,"no2":58.4,"co":1119.0,"o3":20.0,"so2":10.7,"mosquito_risk":7,"arthritis_risk":5,"migraine_risk":7,"frizz_risk":1,"updated_at":"2026-07-17T00:45:24.167221+05:30"},{"city":"Bhatinda","state":"Punjab","latitude":30.211,"longitude":74.9455,"temp":32.8,"humidity":61,"rain":0.0,"pressure":977.8,"uv_index":8.15,"wind_gusts":29.2,"aqi":173,"pm10":151.3,"pm2_5":78.9,"no2":35.7,"co":646.0,"o3":32.0,"so2":4.8,"mosquito_risk":3,"arthritis_risk":5,"migraine_risk":7,"frizz_risk":1,"updated_at":"2026-07-17T00:45:24.167232+05:30"},{"city":"Rohtak","state":"Haryana","latitude":28.8955,"longitude":76.6066,"temp":29.9,"humidity":79,"rain":0.0,"pressure":976.0,"uv_index":6.55,"wind_gusts":30.6,"aqi":619,"pm10":741.3,"pm2_5":187.7,"no2":65.2,"co":397.0,"o3":0.0,"so2":10.4,"mosquito_risk":7,"arthritis_risk":5,"migraine_risk":7,"frizz_risk":1,"updated_at":"2026-07-17T00:45:24.167241+05:30"},{"city":"Panipat","state":"Haryana","latitude":29.3909,"longitude":76.9635,"temp":29.4,"humidity":78,"rain":0.0,"pressure":974.5,"uv_index":6.8,"wind_gusts":29.9,"aqi":1175,"pm10":927.6,"pm2_5":222.1,"no2":58.2,"co":1154.0,"o3":15.0,"so2":11.0,"mosquito_risk":7,"arthritis_risk":5,"migraine_risk":7,"frizz_risk":1,"updated_at":"2026-07-17T00:45:24.167249+05:30"},{"city":"Mathura","state":"Uttar Pradesh","latitude":27.4924,"longitude":77.6737,"temp":31.2,"humidity":63,"rain":0.0,"pressure":981.0,"uv_index":7.1,"wind_gusts":29.5,"aqi":431,"pm10":968.6,"pm2_5":147.1,"no2":21.6,"co":272.0,"o3":50.0,"so2":5.3,"mosquito_risk":3,"arthritis_risk":5,"migraine_risk":7,"frizz_risk":1,"updated_at":"2026-07-17T00:45:24.167257+05:30"},{"city":"Vrindavan","state":"Uttar Pradesh","latitude":27.5823,"longitude":77.7027,"temp":31.3,"humidity":63,"rain":0.0,"pressure":981.5,"uv_index":7.2,"wind_gusts":29.2,"aqi":431,"pm10":968.6,"pm2_5":147.1,"no2":21.6,"co":297.0,"o3":50.0,"so2":5.3,"mosquito_risk":3,"arthritis_risk":5,"migraine_risk":7,"frizz_risk":1,"updated_at":"2026-07-17T00:45:24.167265+05:30"},{"city":"Ayodhya","state":"Uttar Pradesh","latitude":26.7922,"longitude":82.1998,"temp":28.0,"humidity":94,"rain":0.0,"pressure":990.2,"uv_index":7.8,"wind_gusts":24.8,"aqi":169,"pm10":69.2,"pm2_5":56.3,"no2":17.3,"co":759.0,"o3":76.0,"so2":6.8,"mosquito_risk":7,"arthritis_risk":5,"migraine_risk":7,"frizz_risk":1,"updated_at":"2026-07-17T00:45:24.167273+05:30"},{"city":"Ratlam","state":"Madhya Pradesh","latitude":23.3315,"longitude":75.0367,"temp":26.0,"humidity":79,"rain":0.0,"pressure":952.4,"uv_index":8.45,"wind_gusts":38.2,"aqi":73,"pm10":24.7,"pm2_5":19.3,"no2":7.4,"co":201.0,"o3":75.0,"so2":10.6,"mosquito_risk":7,"arthritis_risk":5,"migraine_risk":7,"frizz_risk":1,"updated_at":"2026-07-17T00:45:24.167281+05:30"},{"city":"Sagar","state":"Madhya Pradesh","latitude":23.8388,"longitude":78.7378,"temp":24.7,"humidity":92,"rain":0.1,"pressure":946.4,"uv_index":6.8,"wind_gusts":36.7,"aqi":82,"pm10":36.8,"pm2_5":23.5,"no2":9.4,"co":219.0,"o3":62.0,"so2":4.5,"mosquito_risk":6,"arthritis_risk":5,"migraine_risk":7,"frizz_risk":1,"updated_at":"2026-07-17T00:45:24.167289+05:30"},{"city":"Satna","state":"Madhya Pradesh","latitude":24.6005,"longitude":80.8322,"temp":28.0,"humidity":82,"rain":0.0,"pressure":966.6,"uv_index":7.15,"wind_gusts":36.0,"aqi":129,"pm10":47.5,"pm2_5":31.2,"no2":12.5,"co":182.0,"o3":54.0,"so2":3.2,"mosquito_risk":7,"arthritis_risk":5,"migraine_risk":7,"frizz_risk":1,"updated_at":"2026-07-17T00:45:24.167297+05:30"},{"city":"Akola","state":"Maharashtra","latitude":20.7002,"longitude":77.0082,"temp":29.8,"humidity":60,"rain":0.0,"pressure":972.9,"uv_index":8.65,"wind_gusts":41.4,"aqi":62,"pm10":21.1,"pm2_5":13.9,"no2":9.0,"co":178.0,"o3":60.0,"so2":9.5,"mosquito_risk":4,"arthritis_risk":5,"migraine_risk":7,"frizz_risk":1,"updated_at":"2026-07-17T00:45:24.167305+05:30"},{"city":"Amravati","state":"Maharashtra","latitude":20.9374,"longitude":77.7796,"temp":29.3,"humidity":63,"rain":0.0,"pressure":964.8,"uv_index":7.4,"wind_gusts":45.0,"aqi":64,"pm10":22.5,"pm2_5":14.6,"no2":9.1,"co":152.0,"o3":64.0,"so2":9.9,"mosquito_risk":7,"arthritis_risk":5,"migraine_risk":7,"frizz_risk":1,"updated_at":"2026-07-17T00:45:24.167314+05:30"},{"city":"Latur","state":"Maharashtra","latitude":18.4088,"longitude":76.5604,"temp":24.4,"humidity":85,"rain":0.0,"pressure":938.5,"uv_index":8.25,"wind_gusts":38.9,"aqi":56,"pm10":19.2,"pm2_5":12.5,"no2":6.3,"co":165.0,"o3":52.0,"so2":3.2,"mosquito_risk":3,"arthritis_risk":5,"migraine_risk":7,"frizz_risk":1,"updated_at":"2026-07-17T00:45:24.167322+05:30"},{"city":"Nanded","state":"Maharashtra","latitude":19.1383,"longitude":77.3091,"temp":27.5,"humidity":72,"rain":0.0,"pressure":967.1,"uv_index":3.1,"wind_gusts":37.1,"aqi":63,"pm10":32.1,"pm2_5":18.4,"no2":6.6,"co":185.0,"o3":59.0,"so2":3.6,"mosquito_risk":7,"arthritis_risk":5,"migraine_risk":3,"frizz_risk":1,"updated_at":"2026-07-17T00:45:24.167330+05:30"},{"city":"Gulbarga","state":"Karnataka","latitude":17.3297,"longitude":76.8343,"temp":24.8,"humidity":86,"rain":0.1,"pressure":957.9,"uv_index":7.7,"wind_gusts":45.7,"aqi":53,"pm10":13.2,"pm2_5":8.9,"no2":7.9,"co":146.0,"o3":46.0,"so2":3.2,"mosquito_risk":6,"arthritis_risk":5,"migraine_risk":7,"frizz_risk":1,"updated_at":"2026-07-17T00:45:24.167338+05:30"},{"city":"Bidar","state":"Karnataka","latitude":17.9104,"longitude":77.5199,"temp":25.2,"humidity":75,"rain":0.0,"pressure":934.2,"uv_index":1.8,"wind_gusts":38.2,"aqi":61,"pm10":28.5,"pm2_5":15.8,"no2":8.4,"co":148.0,"o3":54.0,"so2":2.4,"mosquito_risk":7,"arthritis_risk":5,"migraine_risk":3,"frizz_risk":1,"updated_at":"2026-07-17T00:45:24.167346+05:30"},{"city":"Hospet","state":"Karnataka","latitude":15.2689,"longitude":76.3909,"temp":24.4,"humidity":82,"rain":0.0,"pressure":956.3,"uv_index":8.6,"wind_gusts":51.8,"aqi":54,"pm10":8.9,"pm2_5":5.3,"no2":5.3,"co":125.0,"o3":40.0,"so2":1.7,"mosquito_risk":3,"arthritis_risk":5,"migraine_risk":7,"frizz_risk":1,"updated_at":"2026-07-17T00:45:24.167354+05:30"},{"city":"Tirupur","state":"Tamil Nadu","latitude":11.1085,"longitude":77.3411,"temp":25.1,"humidity":81,"rain":0.0,"pressure":975.8,"uv_index":8.85,"wind_gusts":42.5,"aqi":68,"pm10":28.9,"pm2_5":20.0,"no2":21.7,"co":168.0,"o3":26.0,"so2":5.7,"mosquito_risk":7,"arthritis_risk":5,"migraine_risk":7,"frizz_risk":1,"updated_at":"2026-07-17T00:45:24.167362+05:30"},{"city":"Alappuzha","state":"Kerala","latitude":9.4981,"longitude":76.3388,"temp":27.3,"humidity":84,"rain":0.0,"pressure":1010.8,"uv_index":8.55,"wind_gusts":40.0,"aqi":70,"pm10":29.6,"pm2_5":16.6,"no2":10.9,"co":89.0,"o3":39.0,"so2":3.7,"mosquito_risk":7,"arthritis_risk":0,"migraine_risk":4,"frizz_risk":1,"updated_at":"2026-07-17T00:45:24.167368+05:30"},{"city":"Munnar","state":"Kerala","latitude":10.0889,"longitude":77.0595,"temp":15.2,"humidity":87,"rain":0.0,"pressure":856.6,"uv_index":8.85,"wind_gusts":41.4,"aqi":55,"pm10":17.2,"pm2_5":11.5,"no2":10.5,"co":123.0,"o3":27.0,"so2":2.5,"mosquito_risk":3,"arthritis_risk":10,"migraine_risk":7,"frizz_risk":0,"updated_at":"2026-07-17T00:45:24.167375+05:30"},{"city":"Silchar","state":"Assam","latitude":24.8333,"longitude":92.7789,"temp":25.9,"humidity":98,"rain":0.1,"pressure":1002.3,"uv_index":8.75,"wind_gusts":33.5,"aqi":60,"pm10":21.4,"pm2_5":14.8,"no2":7.1,"co":256.0,"o3":59.0,"so2":3.5,"mosquito_risk":10,"arthritis_risk":5,"migraine_risk":4,"frizz_risk":1,"updated_at":"2026-07-17T00:45:24.167381+05:30"},{"city":"Dibrugarh","state":"Assam","latitude":27.4728,"longitude":94.912,"temp":26.3,"humidity":96,"rain":0.2,"pressure":991.0,"uv_index":6.8,"wind_gusts":33.5,"aqi":48,"pm10":7.7,"pm2_5":7.5,"no2":7.6,"co":207.0,"o3":66.0,"so2":1.2,"mosquito_risk":10,"arthritis_risk":5,"migraine_risk":7,"frizz_risk":1,"updated_at":"2026-07-17T00:45:24.167387+05:30"}]