[{"city":"Delhi","state":"Delhi","latitude":28.6139,"longitude":77.209,"temp":39.7,"humidity":25,"rain":0.0,"pressure":976.4,"uv_index":7.8,"wind_gusts":23.8,"aqi":156,"pm10":97.6,"pm2_5":48.2,"no2":5.5,"co":355.0,"o3":231.0,"so2":23.0,"mosquito_risk":0,"arthritis_risk":5,"migraine_risk":10,"frizz_risk":0,"updated_at":"2026-06-03T14:58:22.663248+05:30"},{"city":"Mumbai","state":"Maharashtra","latitude":19.076,"longitude":72.8777,"temp":31.8,"humidity":65,"rain":0.0,"pressure":1003.9,"uv_index":7.7,"wind_gusts":38.9,"aqi":79,"pm10":46.8,"pm2_5":22.2,"no2":4.7,"co":177.0,"o3":92.0,"so2":8.4,"mosquito_risk":3,"arthritis_risk":5,"migraine_risk":4,"frizz_risk":1,"updated_at":"2026-06-03T14:58:22.663318+05:30"},{"city":"Bangalore","state":"Karnataka","latitude":12.9716,"longitude":77.5946,"temp":27.0,"humidity":67,"rain":0.0,"pressure":909.1,"uv_index":8.85,"wind_gusts":33.5,"aqi":53,"pm10":5.4,"pm2_5":4.4,"no2":4.6,"co":360.0,"o3":100.0,"so2":2.4,"mosquito_risk":7,"arthritis_risk":5,"migraine_risk":7,"frizz_risk":1,"updated_at":"2026-06-03T14:58:22.663335+05:30"},{"city":"Hyderabad","state":"Telangana","latitude":17.385,"longitude":78.4867,"temp":35.7,"humidity":34,"rain":0.0,"pressure":949.6,"uv_index":6.75,"wind_gusts":36.0,"aqi":92,"pm10":32.6,"pm2_5":18.2,"no2":2.1,"co":255.0,"o3":148.0,"so2":4.7,"mosquito_risk":0,"arthritis_risk":5,"migraine_risk":10,"frizz_risk":1,"updated_at":"2026-06-03T14:58:22.663347+05:30"},{"city":"Chennai","state":"Tamil Nadu","latitude":13.0827,"longitude":80.2707,"temp":37.0,"humidity":44,"rain":0.1,"pressure":1001.6,"uv_index":8.35,"wind_gusts":40.7,"aqi":57,"pm10":30.2,"pm2_5":23.2,"no2":2.9,"co":320.0,"o3":158.0,"so2":7.9,"mosquito_risk":3,"arthritis_risk":5,"migraine_risk":7,"frizz_risk":1,"updated_at":"2026-06-03T14:58:22.663356+05:30"},{"city":"Kolkata","state":"West Bengal","latitude":22.5726,"longitude":88.3639,"temp":37.8,"humidity":41,"rain":0.0,"pressure":998.2,"uv_index":8.95,"wind_gusts":28.4,"aqi":132,"pm10":52.2,"pm2_5":44.9,"no2":3.6,"co":425.0,"o3":173.0,"so2":12.3,"mosquito_risk":0,"arthritis_risk":5,"migraine_risk":10,"frizz_risk":1,"updated_at":"2026-06-03T14:58:22.663365+05:30"},{"city":"Pune","state":"Maharashtra","latitude":18.5204,"longitude":73.8567,"temp":35.8,"humidity":35,"rain":0.1,"pressure":944.3,"uv_index":8.25,"wind_gusts":42.5,"aqi":71,"pm10":57.4,"pm2_5":22.5,"no2":1.6,"co":155.0,"o3":104.0,"so2":4.0,"mosquito_risk":3,"arthritis_risk":5,"migraine_risk":10,"frizz_risk":1,"updated_at":"2026-06-03T14:58:22.663373+05:30"},{"city":"Ahmedabad","state":"Gujarat","latitude":23.0225,"longitude":72.5714,"temp":39.9,"humidity":33,"rain":0.0,"pressure":995.9,"uv_index":8.05,"wind_gusts":28.8,"aqi":90,"pm10":70.5,"pm2_5":30.2,"no2":1.8,"co":178.0,"o3":122.0,"so2":6.0,"mosquito_risk":0,"arthritis_risk":5,"migraine_risk":10,"frizz_risk":1,"updated_at":"2026-06-03T14:58:22.663382+05:30"},{"city":"Jaipur","state":"Rajasthan","latitude":26.9124,"longitude":75.7873,"temp":38.6,"humidity":23,"rain":0.0,"pressure":954.2,"uv_index":8.25,"wind_gusts":27.0,"aqi":119,"pm10":116.2,"pm2_5":34.2,"no2":1.2,"co":251.0,"o3":152.0,"so2":5.1,"mosquito_risk":0,"arthritis_risk":5,"migraine_risk":10,"frizz_risk":0,"updated_at":"2026-06-03T14:58:22.663394+05:30"},{"city":"Lucknow","state":"Uttar Pradesh","latitude":26.8467,"longitude":80.9462,"temp":35.9,"humidity":41,"rain":0.0,"pressure":986.8,"uv_index":8.3,"wind_gusts":29.2,"aqi":140,"pm10":75.2,"pm2_5":34.3,"no2":1.5,"co":233.0,"o3":152.0,"so2":6.3,"mosquito_risk":0,"arthritis_risk":5,"migraine_risk":10,"frizz_risk":1,"updated_at":"2026-06-03T14:58:22.663402+05:30"},{"city":"Kanpur","state":"Uttar Pradesh","latitude":26.4499,"longitude":80.3319,"temp":37.6,"humidity":35,"rain":0.0,"pressure":984.9,"uv_index":8.3,"wind_gusts":33.8,"aqi":150,"pm10":86.1,"pm2_5":34.1,"no2":2.0,"co":193.0,"o3":152.0,"so2":6.7,"mosquito_risk":0,"arthritis_risk":5,"migraine_risk":10,"frizz_risk":1,"updated_at":"2026-06-03T14:58:22.663409+05:30"},{"city":"Chandigarh","state":"Chandigarh","latitude":30.7333,"longitude":76.7794,"temp":36.0,"humidity":33,"rain":0.0,"pressure":963.4,"uv_index":7.85,"wind_gusts":28.4,"aqi":128,"pm10":134.6,"pm2_5":45.3,"no2":1.9,"co":329.0,"o3":183.0,"so2":12.1,"mosquito_risk":0,"arthritis_risk":5,"migraine_risk":10,"frizz_risk":1,"updated_at":"2026-06-03T14:58:22.663417+05:30"},{"city":"Srinagar","state":"Jammu and Kashmir","latitude":34.0837,"longitude":74.7973,"temp":26.4,"humidity":39,"rain":0.0,"pressure":841.5,"uv_index":6.65,"wind_gusts":24.5,"aqi":91,"pm10":40.0,"pm2_5":17.9,"no2":1.5,"co":277.0,"o3":142.0,"so2":2.1,"mosquito_risk":4,"arthritis_risk":5,"migraine_risk":7,"frizz_risk":0,"updated_at":"2026-06-03T14:58:22.663426+05:30"},{"city":"Jammu","state":"Jammu and Kashmir","latitude":32.7266,"longitude":74.857,"temp":35.6,"humidity":30,"rain":0.0,"pressure":967.6,"uv_index":8.6,"wind_gusts":25.6,"aqi":117,"pm10":85.4,"pm2_5":40.6,"no2":1.6,"co":300.0,"o3":165.0,"so2":4.9,"mosquito_risk":0,"arthritis_risk":5,"migraine_risk":10,"frizz_risk":0,"updated_at":"2026-06-03T14:58:22.663433+05:30"},{"city":"Amritsar","state":"Punjab","latitude":31.634,"longitude":74.8723,"temp":35.9,"humidity":35,"rain":0.0,"pressure":975.3,"uv_index":8.5,"wind_gusts":22.3,"aqi":151,"pm10":179.3,"pm2_5":60.5,"no2":2.0,"co":323.0,"o3":203.0,"so2":12.7,"mosquito_risk":0,"arthritis_risk":5,"migraine_risk":10,"frizz_risk":1,"updated_at":"2026-06-03T14:58:22.663439+05:30"},{"city":"Ludhiana","state":"Punjab","latitude":30.901,"longitude":75.8573,"temp":37.0,"humidity":29,"rain":0.0,"pressure":972.9,"uv_index":8.05,"wind_gusts":33.1,"aqi":154,"pm10":213.7,"pm2_5":58.6,"no2":1.3,"co":306.0,"o3":169.0,"so2":8.4,"mosquito_risk":0,"arthritis_risk":5,"migraine_risk":10,"frizz_risk":1,"updated_at":"2026-06-03T14:58:22.663446+05:30"},{"city":"Jalandhar","state":"Punjab","latitude":31.326,"longitude":75.5762,"temp":36.2,"humidity":32,"rain":0.0,"pressure":974.1,"uv_index":8.25,"wind_gusts":24.8,"aqi":154,"pm10":199.3,"pm2_5":59.0,"no2":1.3,"co":319.0,"o3":172.0,"so2":9.0,"mosquito_risk":0,"arthritis_risk":5,"migraine_risk":10,"frizz_risk":1,"updated_at":"2026-06-03T14:58:22.663454+05:30"},{"city":"Dehradun","state":"Uttarakhand","latitude":30.6284,"longitude":78.0322,"temp":23.0,"humidity":58,"rain":0.0,"pressure":829.5,"uv_index":8.25,"wind_gusts":32.0,"aqi":78,"pm10":21.4,"pm2_5":15.1,"no2":1.4,"co":198.0,"o3":152.0,"so2":3.4,"mosquito_risk":0,"arthritis_risk":5,"migraine_risk":7,"frizz_risk":0,"updated_at":"2026-06-03T14:58:22.663470+05:30"},{"city":"Shimla","state":"Himachal Pradesh","latitude":31.1048,"longitude":77.1734,"temp":21.9,"humidity":49,"rain":0.0,"pressure":784.9,"uv_index":7.75,"wind_gusts":35.3,"aqi":95,"pm10":70.5,"pm2_5":32.9,"no2":1.3,"co":255.0,"o3":158.0,"so2":6.5,"mosquito_risk":0,"arthritis_risk":5,"migraine_risk":7,"frizz_risk":0,"updated_at":"2026-06-03T14:58:22.663479+05:30"},{"city":"Manali","state":"Himachal Pradesh","latitude":32.2396,"longitude":77.1887,"temp":22.1,"humidity":56,"rain":0.0,"pressure":818.3,"uv_index":9.95,"wind_gusts":34.9,"aqi":95,"pm10":25.8,"pm2_5":13.4,"no2":4.9,"co":148.0,"o3":152.0,"so2":0.3,"mosquito_risk":0,"arthritis_risk":5,"migraine_risk":7,"frizz_risk":0,"updated_at":"2026-06-03T14:58:22.663489+05:30"},{"city":"Gurgaon","state":"Haryana","latitude":28.4595,"longitude":77.0266,"temp":37.4,"humidity":32,"rain":0.0,"pressure":975.2,"uv_index":7.9,"wind_gusts":24.8,"aqi":165,"pm10":345.5,"pm2_5":84.8,"no2":5.5,"co":426.0,"o3":249.0,"so2":27.4,"mosquito_risk":0,"arthritis_risk":5,"migraine_risk":10,"frizz_risk":1,"updated_at":"2026-06-03T14:58:22.663496+05:30"},{"city":"Noida","state":"Uttar Pradesh","latitude":28.5355,"longitude":77.391,"temp":37.4,"humidity":33,"rain":0.0,"pressure":978.0,"uv_index":7.85,"wind_gusts":22.7,"aqi":165,"pm10":345.5,"pm2_5":84.8,"no2":5.5,"co":288.0,"o3":249.0,"so2":27.4,"mosquito_risk":0,"arthritis_risk":5,"migraine_risk":10,"frizz_risk":1,"updated_at":"2026-06-03T14:58:22.663503+05:30"},{"city":"Ghaziabad","state":"Uttar Pradesh","latitude":28.6692,"longitude":77.4538,"temp":36.3,"humidity":37,"rain":0.0,"pressure":976.4,"uv_index":7.8,"wind_gusts":18.7,"aqi":151,"pm10":106.2,"pm2_5":42.5,"no2":2.7,"co":246.0,"o3":190.0,"so2":13.1,"mosquito_risk":0,"arthritis_risk":5,"migraine_risk":10,"frizz_risk":1,"updated_at":"2026-06-03T14:58:22.663510+05:30"},{"city":"Faridabad","state":"Haryana","latitude":28.4089,"longitude":77.3178,"temp":37.8,"humidity":31,"rain":0.0,"pressure":977.2,"uv_index":7.85,"wind_gusts":27.4,"aqi":165,"pm10":345.5,"pm2_5":84.8,"no2":5.5,"co":349.0,"o3":249.0,"so2":27.4,"mosquito_risk":0,"arthritis_risk":5,"migraine_risk":10,"frizz_risk":1,"updated_at":"2026-06-03T14:58:22.663517+05:30"},{"city":"Meerut","state":"Uttar Pradesh","latitude":28.9845,"longitude":77.7064,"temp":36.7,"humidity":36,"rain":0.0,"pressure":975.4,"uv_index":7.7,"wind_gusts":23.0,"aqi":151,"pm10":106.2,"pm2_5":42.5,"no2":2.7,"co":273.0,"o3":190.0,"so2":13.1,"mosquito_risk":0,"arthritis_risk":5,"migraine_risk":10,"frizz_risk":1,"updated_at":"2026-06-03T14:58:22.663524+05:30"},{"city":"Agra","state":"Uttar Pradesh","latitude":27.1767,"longitude":78.0081,"temp":38.5,"humidity":30,"rain":0.0,"pressure":981.0,"uv_index":8.15,"wind_gusts":24.5,"aqi":182,"pm10":191.4,"pm2_5":48.3,"no2":1.6,"co":271.0,"o3":157.0,"so2":5.0,"mosquito_risk":0,"arthritis_risk":5,"migraine_risk":10,"frizz_risk":1,"updated_at":"2026-06-03T14:58:22.663531+05:30"},{"city":"Varanasi","state":"Uttar Pradesh","latitude":25.3176,"longitude":82.9739,"temp":38.4,"humidity":31,"rain":0.0,"pressure":990.5,"uv_index":8.75,"wind_gusts":37.1,"aqi":151,"pm10":61.2,"pm2_5":38.3,"no2":1.8,"co":259.0,"o3":167.0,"so2":10.8,"mosquito_risk":0,"arthritis_risk":5,"migraine_risk":10,"frizz_risk":1,"updated_at":"2026-06-03T14:58:22.663538+05:30"},{"city":"Prayagraj","state":"Uttar Pradesh","latitude":25.4358,"longitude":81.8463,"temp":39.0,"humidity":29,"rain":0.0,"pressure":988.9,"uv_index":8.65,"wind_gusts":36.4,"aqi":145,"pm10":64.0,"pm2_5":39.1,"no2":1.7,"co":214.0,"o3":175.0,"so2":8.3,"mosquito_risk":0,"arthritis_risk":5,"migraine_risk":10,"frizz_risk":1,"updated_at":"2026-06-03T14:58:22.663546+05:30"},{"city":"Gorakhpur","state":"Uttar Pradesh","latitude":26.7606,"longitude":83.3732,"temp":36.9,"humidity":35,"rain":0.0,"pressure":990.0,"uv_index":8.65,"wind_gusts":39.2,"aqi":158,"pm10":76.4,"pm2_5":44.7,"no2":1.6,"co":224.0,"o3":179.0,"so2":6.1,"mosquito_risk":0,"arthritis_risk":5,"migraine_risk":10,"frizz_risk":1,"updated_at":"2026-06-03T14:58:22.663554+05:30"},{"city":"Bareilly","state":"Uttar Pradesh","latitude":28.367,"longitude":79.4304,"temp":35.3,"humidity":42,"rain":0.0,"pressure":980.3,"uv_index":8.1,"wind_gusts":20.5,"aqi":152,"pm10":107.8,"pm2_5":39.3,"no2":1.2,"co":281.0,"o3":147.0,"so2":4.0,"mosquito_risk":0,"arthritis_risk":5,"migraine_risk":10,"frizz_risk":1,"updated_at":"2026-06-03T14:58:22.663560+05:30"},{"city":"Aligarh","state":"Uttar Pradesh","latitude":27.8974,"longitude":78.088,"temp":36.1,"humidity":37,"rain":0.0,"pressure":979.1,"uv_index":7.95,"wind_gusts":16.9,"aqi":151,"pm10":204.0,"pm2_5":55.3,"no2":1.9,"co":286.0,"o3":173.0,"so2":11.0,"mosquito_risk":0,"arthritis_risk":5,"migraine_risk":10,"frizz_risk":1,"updated_at":"2026-06-03T14:58:22.663567+05:30"},{"city":"Moradabad","state":"Uttar Pradesh","latitude":28.8386,"longitude":78.7733,"temp":36.8,"humidity":35,"rain":0.0,"pressure":977.4,"uv_index":7.95,"wind_gusts":26.3,"aqi":159,"pm10":109.2,"pm2_5":51.3,"no2":2.4,"co":267.0,"o3":191.0,"so2":15.8,"mosquito_risk":0,"arthritis_risk":5,"migraine_risk":10,"frizz_risk":1,"updated_at":"2026-06-03T14:58:22.663574+05:30"},{"city":"Saharanpur","state":"Uttar Pradesh","latitude":29.9637,"longitude":77.546,"temp":34.8,"humidity":43,"rain":0.0,"pressure":970.1,"uv_index":7.55,"wind_gusts":23.8,"aqi":138,"pm10":74.5,"pm2_5":37.8,"no2":2.2,"co":315.0,"o3":195.0,"so2":16.6,"mosquito_risk":0,"arthritis_risk":5,"migraine_risk":7,"frizz_risk":1,"updated_at":"2026-06-03T14:58:22.663581+05:30"},{"city":"Jhansi","state":"Uttar Pradesh","latitude":25.4484,"longitude":78.5685,"temp":36.7,"humidity":35,"rain":0.0,"pressure":972.0,"uv_index":8.45,"wind_gusts":26.6,"aqi":76,"pm10":91.0,"pm2_5":31.2,"no2":0.9,"co":177.0,"o3":128.0,"so2":6.2,"mosquito_risk":0,"arthritis_risk":5,"migraine_risk":10,"frizz_risk":1,"updated_at":"2026-06-03T14:58:25.898038+05:30"},{"city":"Surat","state":"Gujarat","latitude":21.1702,"longitude":72.8311,"temp":34.0,"humidity":60,"rain":0.0,"pressure":1001.6,"uv_index":7.55,"wind_gusts":42.8,"aqi":87,"pm10":63.3,"pm2_5":32.5,"no2":13.7,"co":289.0,"o3":64.0,"so2":44.5,"mosquito_risk":0,"arthritis_risk":5,"migraine_risk":4,"frizz_risk":1,"updated_at":"2026-06-03T14:58:25.898075+05:30"},{"city":"Vadodara","state":"Gujarat","latitude":22.3072,"longitude":73.1812,"temp":39.8,"humidity":34,"rain":0.0,"pressure":998.0,"uv_index":7.95,"wind_gusts":41.0,"aqi":86,"pm10":61.2,"pm2_5":29.9,"no2":1.6,"co":167.0,"o3":122.0,"so2":4.6,"mosquito_risk":0,"arthritis_risk":5,"migraine_risk":10,"frizz_risk":1,"updated_at":"2026-06-03T14:58:25.898086+05:30"},{"city":"Rajkot","state":"Gujarat","latitude":22.3039,"longitude":70.8022,"temp":40.2,"humidity":31,"rain":0.0,"pressure":988.4,"uv_index":7.55,"wind_gusts":36.0,"aqi":77,"pm10":59.6,"pm2_5":25.6,"no2":0.9,"co":126.0,"o3":103.0,"so2":3.1,"mosquito_risk":0,"arthritis_risk":5,"migraine_risk":10,"frizz_risk":1,"updated_at":"2026-06-03T14:58:25.898096+05:30"},{"city":"Thane","state":"Maharashtra","latitude":19.2183,"longitude":72.9781,"temp":34.5,"humidity":51,"rain":0.0,"pressure":1002.7,"uv_index":7.6,"wind_gusts":33.5,"aqi":79,"pm10":46.8,"pm2_5":22.2,"no2":4.7,"co":179.0,"o3":92.0,"so2":8.4,"mosquito_risk":0,"arthritis_risk":5,"migraine_risk":4,"frizz_risk":1,"updated_at":"2026-06-03T14:58:25.898104+05:30"},{"city":"Nagpur","state":"Maharashtra","latitude":21.1458,"longitude":79.0882,"temp":39.2,"humidity":25,"rain":0.0,"pressure":967.8,"uv_index":8.9,"wind_gusts":34.2,"aqi":67,"pm10":31.1,"pm2_5":17.5,"no2":3.4,"co":165.0,"o3":133.0,"so2":13.2,"mosquito_risk":0,"arthritis_risk":5,"migraine_risk":10,"frizz_risk":0,"updated_at":"2026-06-03T14:58:25.898112+05:30"},{"city":"Nashik","state":"Maharashtra","latitude":19.9975,"longitude":73.7898,"temp":35.3,"humidity":35,"rain":0.1,"pressure":941.4,"uv_index":8.05,"wind_gusts":41.0,"aqi":70,"pm10":63.8,"pm2_5":25.8,"no2":1.4,"co":133.0,"o3":113.0,"so2":4.5,"mosquito_risk":3,"arthritis_risk":5,"migraine_risk":10,"frizz_risk":1,"updated_at":"2026-06-03T14:58:25.898119+05:30"},{"city":"Aurangabad","state":"Maharashtra","latitude":19.8762,"longitude":75.3433,"temp":37.0,"humidity":27,"rain":0.0,"pressure":940.1,"uv_index":8.9,"wind_gusts":45.0,"aqi":69,"pm10":74.3,"pm2_5":25.7,"no2":1.0,"co":138.0,"o3":113.0,"so2":3.8,"mosquito_risk":0,"arthritis_risk":5,"migraine_risk":10,"frizz_risk":0,"updated_at":"2026-06-03T14:58:25.898128+05:30"},{"city":"Solapur","state":"Maharashtra","latitude":17.6599,"longitude":75.9064,"temp":35.2,"humidity":38,"rain":0.0,"pressure":953.9,"uv_index":2.15,"wind_gusts":40.0,"aqi":65,"pm10":52.7,"pm2_5":20.7,"no2":1.2,"co":134.0,"o3":108.0,"so2":2.1,"mosquito_risk":0,"arthritis_risk":5,"migraine_risk":6,"frizz_risk":1,"updated_at":"2026-06-03T14:58:25.898136+05:30"},{"city":"Kolhapur","state":"Maharashtra","latitude":16.705,"longitude":74.2433,"temp":32.5,"humidity":45,"rain":0.0,"pressure":945.4,"uv_index":3.6,"wind_gusts":37.8,"aqi":52,"pm10":32.2,"pm2_5":12.4,"no2":1.5,"co":138.0,"o3":84.0,"so2":1.3,"mosquito_risk":0,"arthritis_risk":5,"migraine_risk":3,"frizz_risk":1,"updated_at":"2026-06-03T14:58:25.898143+05:30"},{"city":"Goa","state":"Goa","latitude":15.2993,"longitude":74.124,"temp":31.0,"humidity":66,"rain":0.1,"pressure":995.4,"uv_index":2.65,"wind_gusts":24.5,"aqi":39,"pm10":7.5,"pm2_5":4.3,"no2":1.1,"co":115.0,"o3":64.0,"so2":0.8,"mosquito_risk":6,"arthritis_risk":5,"migraine_risk":3,"frizz_risk":1,"updated_at":"2026-06-03T14:58:25.898151+05:30"},{"city":"Jodhpur","state":"Rajasthan","latitude":26.2389,"longitude":73.0243,"temp":40.0,"humidity":30,"rain":0.0,"pressure":976.9,"uv_index":8.45,"wind_gusts":31.7,"aqi":107,"pm10":135.0,"pm2_5":37.8,"no2":0.6,"co":150.0,"o3":99.0,"so2":2.4,"mosquito_risk":0,"arthritis_risk":5,"migraine_risk":10,"frizz_risk":1,"updated_at":"2026-06-03T14:58:25.898157+05:30"},{"city":"Udaipur","state":"Rajasthan","latitude":24.5854,"longitude":73.7125,"temp":37.1,"humidity":33,"rain":0.0,"pressure":942.0,"uv_index":8.8,"wind_gusts":25.9,"aqi":83,"pm10":113.6,"pm2_5":37.8,"no2":0.7,"co":163.0,"o3":118.0,"so2":6.0,"mosquito_risk":0,"arthritis_risk":5,"migraine_risk":10,"frizz_risk":1,"updated_at":"2026-06-03T14:58:25.898165+05:30"},{"city":"Kota","state":"Rajasthan","latitude":25.2138,"longitude":75.8648,"temp":39.5,"humidity":28,"rain":0.0,"pressure":972.5,"uv_index":8.4,"wind_gusts":29.9,"aqi":102,"pm10":114.8,"pm2_5":35.0,"no2":0.8,"co":192.0,"o3":130.0,"so2":4.7,"mosquito_risk":0,"arthritis_risk":5,"migraine_risk":10,"frizz_risk":1,"updated_at":"2026-06-03T14:58:25.898172+05:30"},{"city":"Bikaner","state":"Rajasthan","latitude":28.0229,"longitude":73.3119,"temp":40.9,"humidity":21,"rain":0.0,"pressure":975.3,"uv_index":8.45,"wind_gusts":23.8,"aqi":113,"pm10":166.2,"pm2_5":43.4,"no2":0.4,"co":229.0,"o3":133.0,"so2":5.0,"mosquito_risk":0,"arthritis_risk":5,"migraine_risk":10,"frizz_risk":0,"updated_at":"2026-06-03T14:58:25.898180+05:30"},{"city":"Ajmer","state":"Rajasthan","latitude":26.4499,"longitude":74.6399,"temp":37.5,"humidity":28,"rain":0.0,"pressure":949.2,"uv_index":8.35,"wind_gusts":34.6,"aqi":96,"pm10":126.2,"pm2_5":36.9,"no2":0.6,"co":240.0,"o3":137.0,"so2":3.4,"mosquito_risk":0,"arthritis_risk":5,"migraine_risk":10,"frizz_risk":0,"updated_at":"2026-06-03T14:58:25.898187+05:30"},{"city":"Gwalior","state":"Madhya Pradesh","latitude":26.2183,"longitude":78.1828,"temp":36.5,"humidity":37,"rain":0.0,"pressure":976.9,"uv_index":7.75,"wind_gusts":30.6,"aqi":100,"pm10":92.2,"pm2_5":31.3,"no2":0.6,"co":174.0,"o3":120.0,"so2":4.2,"mosquito_risk":0,"arthritis_risk":5,"migraine_risk":10,"frizz_risk":1,"updated_at":"2026-06-03T14:58:25.898194+05:30"},{"city":"Indore","state":"Madhya Pradesh","latitude":22.7196,"longitude":75.8577,"temp":37.0,"humidity":31,"rain":0.0,"pressure":943.7,"uv_index":8.55,"wind_gusts":31.7,"aqi":80,"pm10":58.8,"pm2_5":25.8,"no2":1.2,"co":191.0,"o3":117.0,"so2":4.0,"mosquito_risk":0,"arthritis_risk":5,"migraine_risk":10,"frizz_risk":1,"updated_at":"2026-06-03T14:58:25.898201+05:30"},{"city":"Bhopal","state":"Madhya Pradesh","latitude":23.2599,"longitude":77.4126,"temp":37.5,"humidity":30,"rain":0.0,"pressure":948.6,"uv_index":7.75,"wind_gusts":31.3,"aqi":76,"pm10":57.9,"pm2_5":24.9,"no2":0.8,"co":179.0,"o3":115.0,"so2":3.1,"mosquito_risk":0,"arthritis_risk":5,"migraine_risk":10,"frizz_risk":1,"updated_at":"2026-06-03T14:58:25.898209+05:30"},{"city":"Jabalpur","state":"Madhya Pradesh","latitude":23.1815,"longitude":79.9864,"temp":37.4,"humidity":28,"rain":0.0,"pressure":956.3,"uv_index":8.65,"wind_gusts":29.5,"aqi":72,"pm10":31.0,"pm2_5":16.1,"no2":0.8,"co":158.0,"o3":132.0,"so2":3.6,"mosquito_risk":0,"arthritis_risk":5,"migraine_risk":10,"frizz_risk":0,"updated_at":"2026-06-03T14:58:25.898216+05:30"},{"city":"Ujjain","state":"Madhya Pradesh","latitude":23.1765,"longitude":75.7885,"temp":36.1,"humidity":36,"rain":0.0,"pressure":949.1,"uv_index":7.85,"wind_gusts":34.2,"aqi":81,"pm10":68.2,"pm2_5":27.8,"no2":0.6,"co":194.0,"o3":117.0,"so2":6.0,"mosquito_risk":0,"arthritis_risk":5,"migraine_risk":10,"frizz_risk":1,"updated_at":"2026-06-03T14:58:25.898224+05:30"},{"city":"Visakhapatnam","state":"Andhra Pradesh","latitude":17.6868,"longitude":83.2185,"temp":35.4,"humidity":60,"rain":0.0,"pressure":997.7,"uv_index":9.05,"wind_gusts":44.6,"aqi":101,"pm10":37.0,"pm2_5":30.2,"no2":7.6,"co":390.0,"o3":167.0,"so2":30.8,"mosquito_risk":0,"arthritis_risk":5,"migraine_risk":10,"frizz_risk":1,"updated_at":"2026-06-03T14:58:25.898231+05:30"},{"city":"Vijayawada","state":"Andhra Pradesh","latitude":16.5062,"longitude":80.648,"temp":39.5,"humidity":32,"rain":0.0,"pressure":996.4,"uv_index":8.85,"wind_gusts":64.1,"aqi":88,"pm10":36.3,"pm2_5":24.9,"no2":1.6,"co":194.0,"o3":156.0,"so2":8.3,"mosquito_risk":0,"arthritis_risk":5,"migraine_risk":10,"frizz_risk":1,"updated_at":"2026-06-03T14:58:25.898238+05:30"},{"city":"Guntur","state":"Andhra Pradesh","latitude":16.3067,"longitude":80.4365,"temp":39.9,"humidity":32,"rain":0.0,"pressure":997.4,"uv_index":8.95,"wind_gusts":50.8,"aqi":83,"pm10":36.0,"pm2_5":23.6,"no2":1.4,"co":185.0,"o3":153.0,"so2":7.4,"mosquito_risk":0,"arthritis_risk":5,"migraine_risk":10,"frizz_risk":1,"updated_at":"2026-06-03T14:58:25.898245+05:30"},{"city":"Nellore","state":"Andhra Pradesh","latitude":14.4426,"longitude":79.9865,"temp":38.4,"humidity":37,"rain":0.0,"pressure":1000.1,"uv_index":9.0,"wind_gusts":41.0,"aqi":67,"pm10":29.8,"pm2_5":23.3,"no2":2.7,"co":175.0,"o3":160.0,"so2":4.8,"mosquito_risk":0,"arthritis_risk":5,"migraine_risk":7,"frizz_risk":1,"updated_at":"2026-06-03T14:58:25.898271+05:30"},{"city":"Kurnool","state":"Andhra Pradesh","latitude":15.8281,"longitude":78.0373,"temp":35.6,"humidity":41,"rain":0.0,"pressure":972.8,"uv_index":2.4,"wind_gusts":42.1,"aqi":66,"pm10":30.5,"pm2_5":18.3,"no2":1.2,"co":157.0,"o3":137.0,"so2":6.4,"mosquito_risk":0,"arthritis_risk":5,"migraine_risk":6,"frizz_risk":1,"updated_at":"2026-06-03T14:58:25.898279+05:30"},{"city":"Kakinada","state":"Andhra Pradesh","latitude":16.9891,"longitude":82.2475,"temp":34.2,"humidity":64,"rain":0.0,"pressure":1001.6,"uv_index":9.0,"wind_gusts":36.0,"aqi":82,"pm10":31.3,"pm2_5":22.9,"no2":1.7,"co":229.0,"o3":150.0,"so2":3.8,"mosquito_risk":3,"arthritis_risk":5,"migraine_risk":4,"frizz_risk":1,"updated_at":"2026-06-03T14:58:25.898287+05:30"},{"city":"Tirupati","state":"Andhra Pradesh","latitude":13.6288,"longitude":79.4192,"temp":36.5,"humidity":40,"rain":0.1,"pressure":985.9,"uv_index":9.0,"wind_gusts":37.4,"aqi":72,"pm10":14.6,"pm2_5":10.4,"no2":1.5,"co":173.0,"o3":131.0,"so2":2.1,"mosquito_risk":3,"arthritis_risk":5,"migraine_risk":10,"frizz_risk":1,"updated_at":"2026-06-03T14:58:25.898295+05:30"},{"city":"Warangal","state":"Telangana","latitude":17.9689,"longitude":79.5941,"temp":38.1,"humidity":31,"rain":0.0,"pressure":973.5,"uv_index":9.0,"wind_gusts":31.0,"aqi":106,"pm10":36.9,"pm2_5":20.1,"no2":1.5,"co":174.0,"o3":139.0,"so2":4.1,"mosquito_risk":0,"arthritis_risk":5,"migraine_risk":10,"frizz_risk":1,"updated_at":"2026-06-03T14:58:25.898302+05:30"},{"city":"Nizamabad","state":"Telangana","latitude":18.6725,"longitude":78.0941,"temp":37.0,"humidity":34,"rain":0.0,"pressure":960.5,"uv_index":8.85,"wind_gusts":38.9,"aqi":71,"pm10":37.4,"pm2_5":18.6,"no2":0.9,"co":160.0,"o3":124.0,"so2":4.6,"mosquito_risk":0,"arthritis_risk":5,"migraine_risk":10,"frizz_risk":1,"updated_at":"2026-06-03T14:58:25.898309+05:30"},{"city":"Mysore","state":"Karnataka","latitude":12.2958,"longitude":76.6396,"temp":28.5,"humidity":59,"rain":0.1,"pressure":926.5,"uv_index":8.35,"wind_gusts":51.8,"aqi":38,"pm10":4.3,"pm2_5":3.8,"no2":3.3,"co":153.0,"o3":92.0,"so2":1.3,"mosquito_risk":7,"arthritis_risk":5,"migraine_risk":7,"frizz_risk":1,"updated_at":"2026-06-03T14:58:25.898316+05:30"},{"city":"Mangalore","state":"Karnataka","latitude":12.9141,"longitude":74.856,"temp":26.8,"humidity":85,"rain":0.0,"pressure":1005.5,"uv_index":8.75,"wind_gusts":37.1,"aqi":38,"pm10":10.4,"pm2_5":6.0,"no2":1.5,"co":123.0,"o3":66.0,"so2":1.7,"mosquito_risk":7,"arthritis_risk":5,"migraine_risk":4,"frizz_risk":1,"updated_at":"2026-06-03T14:58:25.898324+05:30"},{"city":"Hubli-Dharwad","state":"Karnataka","latitude":15.3647,"longitude":75.124,"temp":28.4,"humidity":60,"rain":0.1,"pressure":938.9,"uv_index":4.5,"wind_gusts":38.9,"aqi":30,"pm10":8.5,"pm2_5":4.2,"no2":1.7,"co":122.0,"o3":76.0,"so2":0.7,"mosquito_risk":7,"arthritis_risk":5,"migraine_risk":3,"frizz_risk":1,"updated_at":"2026-06-03T14:58:25.898331+05:30"},{"city":"Belgaum","state":"Karnataka","latitude":15.8497,"longitude":74.4977,"temp":28.0,"humidity":61,"rain":0.0,"pressure":924.0,"uv_index":1.5,"wind_gusts":33.1,"aqi":36,"pm10":9.1,"pm2_5":5.3,"no2":2.2,"co":135.0,"o3":76.0,"so2":1.6,"mosquito_risk":7,"arthritis_risk":5,"migraine_risk":3,"frizz_risk":1,"updated_at":"2026-06-03T14:58:29.138099+05:30"},{"city":"Coimbatore","state":"Tamil Nadu","latitude":11.0168,"longitude":76.9558,"temp":29.6,"humidity":59,"rain":0.0,"pressure":959.5,"uv_index":8.8,"wind_gusts":55.4,"aqi":30,"pm10":5.2,"pm2_5":3.4,"no2":1.3,"co":160.0,"o3":80.0,"so2":1.4,"mosquito_risk":4,"arthritis_risk":5,"migraine_risk":7,"frizz_risk":1,"updated_at":"2026-06-03T14:58:29.138137+05:30"},{"city":"Madurai","state":"Tamil Nadu","latitude":9.9252,"longitude":78.1198,"temp":35.1,"humidity":42,"rain":0.0,"pressure":989.0,"uv_index":8.8,"wind_gusts":56.9,"aqi":70,"pm10":7.9,"pm2_5":4.9,"no2":1.9,"co":128.0,"o3":101.0,"so2":1.6,"mosquito_risk":0,"arthritis_risk":5,"migraine_risk":10,"frizz_risk":1,"updated_at":"2026-06-03T14:58:29.138149+05:30"},{"city":"Trichy","state":"Tamil Nadu","latitude":10.7905,"longitude":78.7047,"temp":35.2,"humidity":45,"rain":0.0,"pressure":995.5,"uv_index":8.85,"wind_gusts":52.9,"aqi":48,"pm10":4.1,"pm2_5":3.3,"no2":1.5,"co":126.0,"o3":98.0,"so2":1.7,"mosquito_risk":0,"arthritis_risk":5,"migraine_risk":10,"frizz_risk":1,"updated_at":"2026-06-03T14:58:29.138158+05:30"},{"city":"Salem","state":"Tamil Nadu","latitude":11.6643,"longitude":78.146,"temp":34.4,"humidity":45,"rain":0.0,"pressure":973.9,"uv_index":8.55,"wind_gusts":44.3,"aqi":55,"pm10":6.2,"pm2_5":5.6,"no2":2.7,"co":171.0,"o3":106.0,"so2":5.4,"mosquito_risk":0,"arthritis_risk":5,"migraine_risk":7,"frizz_risk":1,"updated_at":"2026-06-03T14:58:29.138166+05:30"},{"city":"Tirunelveli","state":"Tamil Nadu","latitude":8.7139,"longitude":77.7567,"temp":35.3,"humidity":42,"rain":0.0,"pressure":1000.0,"uv_index":8.4,"wind_gusts":49.3,"aqi":33,"pm10":5.8,"pm2_5":4.0,"no2":1.2,"co":110.0,"o3":74.0,"so2":0.8,"mosquito_risk":0,"arthritis_risk":5,"migraine_risk":7,"frizz_risk":1,"updated_at":"2026-06-03T14:58:29.138174+05:30"},{"city":"Vellore","state":"Tamil Nadu","latitude":12.9165,"longitude":79.1325,"temp":34.5,"humidity":47,"rain":0.1,"pressure":979.5,"uv_index":9.05,"wind_gusts":42.8,"aqi":81,"pm10":13.4,"pm2_5":10.8,"no2":1.9,"co":185.0,"o3":148.0,"so2":2.7,"mosquito_risk":3,"arthritis_risk":5,"migraine_risk":7,"frizz_risk":1,"updated_at":"2026-06-03T14:58:29.138182+05:30"},{"city":"Erode","state":"Tamil Nadu","latitude":11.341,"longitude":77.7172,"temp":35.2,"humidity":42,"rain":0.0,"pressure":985.5,"uv_index":8.55,"wind_gusts":49.3,"aqi":38,"pm10":5.5,"pm2_5":4.1,"no2":2.1,"co":159.0,"o3":96.0,"so2":1.5,"mosquito_risk":0,"arthritis_risk":5,"migraine_risk":10,"frizz_risk":1,"updated_at":"2026-06-03T14:58:29.138189+05:30"},{"city":"Kochi","state":"Kerala","latitude":9.9312,"longitude":76.2673,"temp":29.1,"humidity":75,"rain":0.0,"pressure":1007.8,"uv_index":7.95,"wind_gusts":33.1,"aqi":36,"pm10":10.1,"pm2_5":6.2,"no2":2.5,"co":118.0,"o3":66.0,"so2":2.3,"mosquito_risk":7,"arthritis_risk":5,"migraine_risk":4,"frizz_risk":1,"updated_at":"2026-06-03T14:58:29.138197+05:30"},{"city":"Thiruvananthapuram","state":"Kerala","latitude":8.5241,"longitude":76.9366,"temp":29.3,"humidity":74,"rain":0.0,"pressure":1007.1,"uv_index":8.0,"wind_gusts":49.0,"aqi":29,"pm10":10.0,"pm2_5":5.8,"no2":1.1,"co":102.0,"o3":66.0,"so2":0.5,"mosquito_risk":7,"arthritis_risk":5,"migraine_risk":4,"frizz_risk":1,"updated_at":"2026-06-03T14:58:29.138205+05:30"},{"city":"Kozhikode","state":"Kerala","latitude":11.2588,"longitude":75.7804,"temp":28.0,"humidity":81,"rain":0.0,"pressure":1007.0,"uv_index":8.65,"wind_gusts":33.5,"aqi":30,"pm10":7.4,"pm2_5":3.8,"no2":0.5,"co":120.0,"o3":61.0,"so2":0.6,"mosquito_risk":7,"arthritis_risk":5,"migraine_risk":4,"frizz_risk":1,"updated_at":"2026-06-03T14:58:29.138211+05:30"},{"city":"Thrissur","state":"Kerala","latitude":10.5276,"longitude":76.2144,"temp":28.2,"humidity":77,"rain":0.0,"pressure":1006.3,"uv_index":8.4,"wind_gusts":30.6,"aqi":32,"pm10":9.2,"pm2_5":5.7,"no2":1.5,"co":117.0,"o3":69.0,"so2":1.5,"mosquito_risk":7,"arthritis_risk":5,"migraine_risk":4,"frizz_risk":1,"updated_at":"2026-06-03T14:58:29.138220+05:30"},{"city":"Kannur","state":"Kerala","latitude":11.8745,"longitude":75.3704,"temp":29.0,"humidity":73,"rain":0.0,"pressure":1006.2,"uv_index":8.55,"wind_gusts":37.4,"aqi":30,"pm10":7.9,"pm2_5":3.9,"no2":1.1,"co":116.0,"o3":60.0,"so2":0.8,"mosquito_risk":7,"arthritis_risk":5,"migraine_risk":4,"frizz_risk":1,"updated_at":"2026-06-03T14:58:29.138227+05:30"},{"city":"Patna","state":"Bihar","latitude":25.5941,"longitude":85.1376,"temp":36.8,"humidity":39,"rain":0.0,"pressure":993.0,"uv_index":8.85,"wind_gusts":23.0,"aqi":164,"pm10":70.8,"pm2_5":46.8,"no2":1.9,"co":282.0,"o3":163.0,"so2":5.9,"mosquito_risk":0,"arthritis_risk":5,"migraine_risk":10,"frizz_risk":1,"updated_at":"2026-06-03T14:58:29.138233+05:30"},{"city":"Gaya","state":"Bihar","latitude":24.7914,"longitude":85.0002,"temp":37.3,"humidity":37,"rain":0.0,"pressure":986.8,"uv_index":8.9,"wind_gusts":28.8,"aqi":152,"pm10":65.4,"pm2_5":44.9,"no2":1.4,"co":270.0,"o3":169.0,"so2":6.9,"mosquito_risk":0,"arthritis_risk":5,"migraine_risk":10,"frizz_risk":1,"updated_at":"2026-06-03T14:58:29.138240+05:30"},{"city":"Muzaffarpur","state":"Bihar","latitude":26.1209,"longitude":85.3647,"temp":36.2,"humidity":42,"rain":0.0,"pressure":993.0,"uv_index":8.85,"wind_gusts":28.4,"aqi":168,"pm10":72.9,"pm2_5":47.7,"no2":2.2,"co":282.0,"o3":169.0,"so2":6.5,"mosquito_risk":0,"arthritis_risk":5,"migraine_risk":10,"frizz_risk":1,"updated_at":"2026-06-03T14:58:29.138247+05:30"},{"city":"Bhagalpur","state":"Bihar","latitude":25.2425,"longitude":87.0117,"temp":36.8,"humidity":41,"rain":0.0,"pressure":993.5,"uv_index":8.85,"wind_gusts":28.1,"aqi":159,"pm10":79.6,"pm2_5":57.7,"no2":2.7,"co":291.0,"o3":198.0,"so2":12.9,"mosquito_risk":0,"arthritis_risk":5,"migraine_risk":10,"frizz_risk":1,"updated_at":"2026-06-03T14:58:29.138270+05:30"},{"city":"Ranchi","state":"Jharkhand","latitude":23.3441,"longitude":85.3096,"temp":33.3,"humidity":43,"rain":0.0,"pressure":933.2,"uv_index":9.05,"wind_gusts":32.8,"aqi":155,"pm10":77.1,"pm2_5":50.8,"no2":1.7,"co":231.0,"o3":178.0,"so2":11.8,"mosquito_risk":0,"arthritis_risk":5,"migraine_risk":7,"frizz_risk":1,"updated_at":"2026-06-03T14:58:29.138277+05:30"},{"city":"Jamshedpur","state":"Jharkhand","latitude":22.8046,"longitude":86.2029,"temp":33.3,"humidity":58,"rain":0.0,"pressure":984.7,"uv_index":9.1,"wind_gusts":35.3,"aqi":170,"pm10":75.0,"pm2_5":61.7,"no2":3.4,"co":298.0,"o3":227.0,"so2":23.7,"mosquito_risk":0,"arthritis_risk":5,"migraine_risk":7,"frizz_risk":1,"updated_at":"2026-06-03T14:58:29.138283+05:30"},{"city":"Dhanbad","state":"Jharkhand","latitude":23.7957,"longitude":86.4304,"temp":36.5,"humidity":39,"rain":0.0,"pressure":973.6,"uv_index":9.05,"wind_gusts":40.3,"aqi":169,"pm10":87.3,"pm2_5":68.2,"no2":7.7,"co":271.0,"o3":216.0,"so2":38.7,"mosquito_risk":0,"arthritis_risk":5,"migraine_risk":10,"frizz_risk":1,"updated_at":"2026-06-03T14:58:29.138291+05:30"},{"city":"Bokaro","state":"Jharkhand","latitude":23.6693,"longitude":86.1511,"temp":36.2,"humidity":41,"rain":0.0,"pressure":977.2,"uv_index":9.1,"wind_gusts":32.8,"aqi":165,"pm10":89.9,"pm2_5":68.9,"no2":8.4,"co":271.0,"o3":231.0,"so2":45.7,"mosquito_risk":0,"arthritis_risk":5,"migraine_risk":10,"frizz_risk":1,"updated_at":"2026-06-03T14:58:29.138298+05:30"},{"city":"Bhubaneswar","state":"Odisha","latitude":20.2961,"longitude":85.8245,"temp":35.0,"humidity":58,"rain":0.0,"pressure":995.6,"uv_index":9.0,"wind_gusts":25.9,"aqi":121,"pm10":52.3,"pm2_5":37.0,"no2":2.9,"co":242.0,"o3":177.0,"so2":10.5,"mosquito_risk":0,"arthritis_risk":5,"migraine_risk":7,"frizz_risk":1,"updated_at":"2026-06-03T14:58:29.138305+05:30"},{"city":"Cuttack","state":"Odisha","latitude":20.4625,"longitude":85.8828,"temp":36.2,"humidity":50,"rain":0.0,"pressure":997.2,"uv_index":9.1,"wind_gusts":32.0,"aqi":121,"pm10":52.3,"pm2_5":37.0,"no2":2.9,"co":244.0,"o3":177.0,"so2":10.5,"mosquito_risk":0,"arthritis_risk":5,"migraine_risk":10,"frizz_risk":1,"updated_at":"2026-06-03T14:58:29.138312+05:30"},{"city":"Rourkela","state":"Odisha","latitude":22.2604,"longitude":84.8536,"temp":38.5,"humidity":32,"rain":0.0,"pressure":978.5,"uv_index":9.05,"wind_gusts":26.6,"aqi":159,"pm10":81.3,"pm2_5":51.1,"no2":2.3,"co":251.0,"o3":188.0,"so2":11.8,"mosquito_risk":0,"arthritis_risk":5,"migraine_risk":10,"frizz_risk":1,"updated_at":"2026-06-03T14:58:29.138319+05:30"},{"city":"Raipur","state":"Chhattisgarh","latitude":21.2514,"longitude":81.6296,"temp":39.8,"humidity":23,"rain":0.0,"pressure":968.9,"uv_index":8.95,"wind_gusts":36.0,"aqi":136,"pm10":53.4,"pm2_5":32.9,"no2":5.4,"co":299.0,"o3":178.0,"so2":29.7,"mosquito_risk":0,"arthritis_risk":5,"migraine_risk":10,"frizz_risk":0,"updated_at":"2026-06-03T14:58:29.138325+05:30"},{"city":"Bhilai","state":"Chhattisgarh","latitude":21.1938,"longitude":81.3509,"temp":38.5,"humidity":25,"rain":0.0,"pressure":969.4,"uv_index":8.95,"wind_gusts":34.9,"aqi":107,"pm10":47.5,"pm2_5":26.5,"no2":5.5,"co":376.0,"o3":157.0,"so2":24.2,"mosquito_risk":0,"arthritis_risk":5,"migraine_risk":10,"frizz_risk":0,"updated_at":"2026-06-03T14:58:29.138332+05:30"},{"city":"Guwahati","state":"Assam","latitude":26.1158,"longitude":91.7086,"temp":33.7,"humidity":56,"rain":0.0,"pressure":992.4,"uv_index":8.8,"wind_gusts":38.5,"aqi":116,"pm10":46.9,"pm2_5":40.7,"no2":1.4,"co":334.0,"o3":151.0,"so2":8.9,"mosquito_risk":0,"arthritis_risk":5,"migraine_risk":7,"frizz_risk":1,"updated_at":"2026-06-03T14:58:29.138338+05:30"},{"city":"Agartala","state":"Tripura","latitude":23.8315,"longitude":91.2868,"temp":34.2,"humidity":57,"rain":0.0,"pressure":998.5,"uv_index":8.85,"wind_gusts":22.3,"aqi":112,"pm10":39.7,"pm2_5":28.7,"no2":3.6,"co":254.0,"o3":162.0,"so2":4.9,"mosquito_risk":0,"arthritis_risk":5,"migraine_risk":7,"frizz_risk":1,"updated_at":"2026-06-03T14:58:29.138345+05:30"},{"city":"Shillong","state":"Meghalaya","latitude":25.5788,"longitude":91.8933,"temp":25.4,"humidity":59,"rain":0.1,"pressure":853.8,"uv_index":7.15,"wind_gusts":29.2,"aqi":96,"pm10":29.2,"pm2_5":25.1,"no2":2.4,"co":330.0,"o3":135.0,"so2":4.5,"mosquito_risk":7,"arthritis_risk":5,"migraine_risk":7,"frizz_risk":1,"updated_at":"2026-06-03T14:58:29.138352+05:30"},{"city":"Imphal","state":"Manipur","latitude":24.817,"longitude":93.9368,"temp":29.5,"humidity":60,"rain":0.0,"pressure":917.3,"uv_index":9.25,"wind_gusts":33.5,"aqi":89,"pm10":20.7,"pm2_5":15.2,"no2":1.2,"co":244.0,"o3":116.0,"so2":2.5,"mosquito_risk":4,"arthritis_risk":5,"migraine_risk":7,"frizz_risk":1,"updated_at":"2026-06-03T14:58:29.138359+05:30"},{"city":"Aizawl","state":"Mizoram","latitude":23.7271,"longitude":92.7176,"temp":27.8,"humidity":56,"rain":0.0,"pressure":888.2,"uv_index":9.1,"wind_gusts":22.3,"aqi":83,"pm10":33.8,"pm2_5":21.1,"no2":0.7,"co":188.0,"o3":104.0,"so2":2.2,"mosquito_risk":4,"arthritis_risk":5,"migraine_risk":7,"frizz_risk":1,"updated_at":"2026-06-03T14:58:29.138365+05:30"},{"city":"Kohima","state":"Nagaland","latitude":25.6701,"longitude":94.1077,"temp":24.4,"humidity":77,"rain":0.1,"pressure":851.5,"uv_index":9.25,"wind_gusts":29.5,"aqi":91,"pm10":37.7,"pm2_5":29.0,"no2":0.8,"co":269.0,"o3":138.0,"so2":4.1,"mosquito_risk":6,"arthritis_risk":5,"migraine_risk":7,"frizz_risk":1,"updated_at":"2026-06-03T14:58:29.138372+05:30"},{"city":"Gangtok","state":"Sikkim","latitude":27.3314,"longitude":88.6138,"temp":21.7,"humidity":82,"rain":0.3,"pressure":833.9,"uv_index":9.15,"wind_gusts":38.2,"aqi":117,"pm10":33.4,"pm2_5":27.8,"no2":1.1,"co":300.0,"o3":156.0,"so2":3.9,"mosquito_risk":6,"arthritis_risk":5,"migraine_risk":7,"frizz_risk":1,"updated_at":"2026-06-03T14:58:29.138379+05:30"},{"city":"Siliguri","state":"West Bengal","latitude":26.7271,"longitude":88.3953,"temp":34.1,"humidity":50,"rain":0.0,"pressure":984.4,"uv_index":8.75,"wind_gusts":29.5,"aqi":140,"pm10":69.6,"pm2_5":57.9,"no2":2.3,"co":427.0,"o3":176.0,"so2":9.1,"mosquito_risk":0,"arthritis_risk":5,"migraine_risk":7,"frizz_risk":1,"updated_at":"2026-06-03T14:58:32.384604+05:30"},{"city":"Durgapur","state":"West Bengal","latitude":23.5204,"longitude":87.3119,"temp":36.5,"humidity":45,"rain":0.1,"pressure":987.9,"uv_index":9.0,"wind_gusts":24.5,"aqi":167,"pm10":105.9,"pm2_5":88.2,"no2":8.6,"co":400.0,"o3":258.0,"so2":49.5,"mosquito_risk":3,"arthritis_risk":5,"migraine_risk":10,"frizz_risk":1,"updated_at":"2026-06-03T14:58:32.384643+05:30"},{"city":"Asansol","state":"West Bengal","latitude":23.6739,"longitude":86.9524,"temp":33.8,"humidity":54,"rain":0.0,"pressure":986.9,"uv_index":8.9,"wind_gusts":29.5,"aqi":162,"pm10":91.5,"pm2_5":72.9,"no2":7.1,"co":331.0,"o3":222.0,"so2":35.2,"mosquito_risk":0,"arthritis_risk":5,"migraine_risk":7,"frizz_risk":1,"updated_at":"2026-06-03T14:58:32.384656+05:30"},{"city":"Pondicherry","state":"Puducherry","latitude":11.9139,"longitude":79.8145,"temp":32.7,"humidity":69,"rain":0.1,"pressure":1003.4,"uv_index":8.85,"wind_gusts":39.6,"aqi":52,"pm10":26.0,"pm2_5":21.6,"no2":4.4,"co":213.0,"o3":160.0,"so2":9.5,"mosquito_risk":6,"arthritis_risk":5,"migraine_risk":4,"frizz_risk":1,"updated_at":"2026-06-03T14:58:32.384666+05:30"},{"city":"Port Blair","state":"Andaman and Nicobar Islands","latitude":11.6234,"longitude":92.7265,"temp":26.5,"humidity":94,"rain":0.1,"pressure":1003.8,"uv_index":2.45,"wind_gusts":36.0,"aqi":35,"pm10":9.8,"pm2_5":5.7,"no2":0.6,"co":120.0,"o3":76.0,"so2":0.5,"mosquito_risk":10,"arthritis_risk":5,"migraine_risk":0,"frizz_risk":1,"updated_at":"2026-06-03T14:58:32.384674+05:30"},{"city":"Haridwar","state":"Uttarakhand","latitude":29.9457,"longitude":78.1642,"temp":34.6,"humidity":42,"rain":0.0,"pressure":968.4,"uv_index":7.6,"wind_gusts":22.0,"aqi":131,"pm10":42.5,"pm2_5":27.1,"no2":1.4,"co":275.0,"o3":186.0,"so2":9.1,"mosquito_risk":0,"arthritis_risk":5,"migraine_risk":7,"frizz_risk":1,"updated_at":"2026-06-03T14:58:32.384683+05:30"},{"city":"Rishikesh","state":"Uttarakhand","latitude":30.0869,"longitude":78.2676,"temp":34.3,"humidity":39,"rain":0.0,"pressure":961.3,"uv_index":7.7,"wind_gusts":26.3,"aqi":111,"pm10":29.4,"pm2_5":19.3,"no2":0.9,"co":246.0,"o3":168.0,"so2":4.3,"mosquito_risk":0,"arthritis_risk":5,"migraine_risk":7,"frizz_risk":1,"updated_at":"2026-06-03T14:58:32.384690+05:30"},{"city":"Nainital","state":"Uttarakhand","latitude":29.3919,"longitude":79.4542,"temp":22.4,"humidity":55,"rain":0.0,"pressure":805.3,"uv_index":6.9,"wind_gusts":29.5,"aqi":102,"pm10":78.5,"pm2_5":37.0,"no2":1.2,"co":219.0,"o3":159.0,"so2":6.7,"mosquito_risk":0,"arthritis_risk":5,"migraine_risk":7,"frizz_risk":0,"updated_at":"2026-06-03T14:58:32.384698+05:30"},{"city":"Mussoorie","state":"Uttarakhand","latitude":30.4599,"longitude":78.0664,"temp":21.3,"humidity":64,"rain":0.1,"pressure":802.6,"uv_index":7.75,"wind_gusts":42.1,"aqi":120,"pm10":35.9,"pm2_5":23.6,"no2":1.3,"co":224.0,"o3":181.0,"so2":9.2,"mosquito_risk":6,"arthritis_risk":5,"migraine_risk":7,"frizz_risk":0,"updated_at":"2026-06-03T14:58:32.384706+05:30"},{"city":"Dharamshala","state":"Himachal Pradesh","latitude":32.219,"longitude":76.3234,"temp":23.6,"humidity":67,"rain":0.0,"pressure":866.4,"uv_index":8.55,"wind_gusts":37.8,"aqi":75,"pm10":40.9,"pm2_5":20.1,"no2":0.8,"co":264.0,"o3":141.0,"so2":1.1,"mosquito_risk":3,"arthritis_risk":5,"migraine_risk":7,"frizz_risk":1,"updated_at":"2026-06-03T14:58:32.384713+05:30"},{"city":"Dalhousie","state":"Himachal Pradesh","latitude":32.5387,"longitude":75.971,"temp":20.1,"humidity":74,"rain":0.1,"pressure":803.8,"uv_index":8.5,"wind_gusts":31.7,"aqi":110,"pm10":67.5,"pm2_5":31.1,"no2":1.5,"co":251.0,"o3":165.0,"so2":2.5,"mosquito_risk":6,"arthritis_risk":5,"migraine_risk":7,"frizz_risk":0,"updated_at":"2026-06-03T14:58:32.384721+05:30"},{"city":"Patiala","state":"Punjab","latitude":30.3398,"longitude":76.3869,"temp":37.2,"humidity":32,"rain":0.0,"pressure":972.2,"uv_index":7.7,"wind_gusts":31.7,"aqi":150,"pm10":336.2,"pm2_5":64.7,"no2":1.2,"co":287.0,"o3":168.0,"so2":8.1,"mosquito_risk":0,"arthritis_risk":5,"migraine_risk":10,"frizz_risk":1,"updated_at":"2026-06-03T14:58:32.384728+05:30"},{"city":"Bhatinda","state":"Punjab","latitude":30.211,"longitude":74.9455,"temp":38.3,"humidity":29,"rain":0.0,"pressure":977.6,"uv_index":8.35,"wind_gusts":27.0,"aqi":168,"pm10":167.6,"pm2_5":49.0,"no2":2.0,"co":258.0,"o3":185.0,"so2":13.7,"mosquito_risk":0,"arthritis_risk":5,"migraine_risk":10,"frizz_risk":1,"updated_at":"2026-06-03T14:58:32.384735+05:30"},{"city":"Rohtak","state":"Haryana","latitude":28.8955,"longitude":76.6066,"temp":37.3,"humidity":33,"rain":0.0,"pressure":975.5,"uv_index":7.8,"wind_gusts":19.4,"aqi":157,"pm10":145.3,"pm2_5":51.3,"no2":3.1,"co":310.0,"o3":230.0,"so2":19.1,"mosquito_risk":0,"arthritis_risk":5,"migraine_risk":10,"frizz_risk":1,"updated_at":"2026-06-03T14:58:32.384742+05:30"},{"city":"Panipat","state":"Haryana","latitude":29.3909,"longitude":76.9635,"temp":37.2,"humidity":34,"rain":0.0,"pressure":974.2,"uv_index":7.65,"wind_gusts":20.9,"aqi":157,"pm10":176.0,"pm2_5":53.0,"no2":3.3,"co":294.0,"o3":221.0,"so2":25.3,"mosquito_risk":0,"arthritis_risk":5,"migraine_risk":10,"frizz_risk":1,"updated_at":"2026-06-03T14:58:32.384749+05:30"},{"city":"Mathura","state":"Uttar Pradesh","latitude":27.4924,"longitude":77.6737,"temp":36.3,"humidity":37,"rain":0.0,"pressure":980.3,"uv_index":8.1,"wind_gusts":16.6,"aqi":138,"pm10":231.4,"pm2_5":52.7,"no2":1.6,"co":294.0,"o3":157.0,"so2":4.5,"mosquito_risk":0,"arthritis_risk":5,"migraine_risk":10,"frizz_risk":1,"updated_at":"2026-06-03T14:58:32.384756+05:30"},{"city":"Vrindavan","state":"Uttar Pradesh","latitude":27.5823,"longitude":77.7027,"temp":36.5,"humidity":36,"rain":0.0,"pressure":980.6,"uv_index":8.05,"wind_gusts":17.6,"aqi":138,"pm10":231.4,"pm2_5":52.7,"no2":1.6,"co":281.0,"o3":157.0,"so2":4.5,"mosquito_risk":0,"arthritis_risk":5,"migraine_risk":10,"frizz_risk":1,"updated_at":"2026-06-03T14:58:32.384762+05:30"},{"city":"Ayodhya","state":"Uttar Pradesh","latitude":26.7922,"longitude":82.1998,"temp":35.2,"humidity":46,"rain":0.0,"pressure":988.5,"uv_index":8.4,"wind_gusts":47.2,"aqi":145,"pm10":68.0,"pm2_5":36.3,"no2":1.2,"co":215.0,"o3":151.0,"so2":5.6,"mosquito_risk":0,"arthritis_risk":5,"migraine_risk":10,"frizz_risk":1,"updated_at":"2026-06-03T14:58:32.384769+05:30"},{"city":"Ratlam","state":"Madhya Pradesh","latitude":23.3315,"longitude":75.0367,"temp":36.5,"humidity":37,"rain":0.0,"pressure":950.2,"uv_index":8.5,"wind_gusts":29.9,"aqi":82,"pm10":72.6,"pm2_5":29.3,"no2":0.5,"co":172.0,"o3":116.0,"so2":6.3,"mosquito_risk":0,"arthritis_risk":5,"migraine_risk":10,"frizz_risk":1,"updated_at":"2026-06-03T14:58:32.384776+05:30"},{"city":"Sagar","state":"Madhya Pradesh","latitude":23.8388,"longitude":78.7378,"temp":36.5,"humidity":29,"rain":0.0,"pressure":945.4,"uv_index":7.6,"wind_gusts":28.1,"aqi":66,"pm10":88.0,"pm2_5":34.6,"no2":0.6,"co":166.0,"o3":127.0,"so2":5.6,"mosquito_risk":0,"arthritis_risk":5,"migraine_risk":10,"frizz_risk":0,"updated_at":"2026-06-03T14:58:32.384783+05:30"},{"city":"Satna","state":"Madhya Pradesh","latitude":24.6005,"longitude":80.8322,"temp":36.8,"humidity":31,"rain":0.1,"pressure":965.4,"uv_index":8.75,"wind_gusts":38.5,"aqi":92,"pm10":36.9,"pm2_5":17.3,"no2":0.9,"co":179.0,"o3":126.0,"so2":2.2,"mosquito_risk":3,"arthritis_risk":5,"migraine_risk":10,"frizz_risk":1,"updated_at":"2026-06-03T14:58:32.384790+05:30"},{"city":"Akola","state":"Maharashtra","latitude":20.7002,"longitude":77.0082,"temp":37.9,"humidity":31,"rain":0.0,"pressure":969.9,"uv_index":8.85,"wind_gusts":33.5,"aqi":66,"pm10":49.4,"pm2_5":22.0,"no2":1.3,"co":133.0,"o3":124.0,"so2":6.6,"mosquito_risk":0,"arthritis_risk":5,"migraine_risk":10,"frizz_risk":1,"updated_at":"2026-06-03T14:58:32.384797+05:30"},{"city":"Amravati","state":"Maharashtra","latitude":20.9374,"longitude":77.7796,"temp":38.0,"humidity":28,"rain":0.0,"pressure":962.6,"uv_index":8.85,"wind_gusts":33.1,"aqi":71,"pm10":41.4,"pm2_5":19.8,"no2":1.5,"co":134.0,"o3":127.0,"so2":7.4,"mosquito_risk":0,"arthritis_risk":5,"migraine_risk":10,"frizz_risk":1,"updated_at":"2026-06-03T14:58:32.384806+05:30"},{"city":"Latur","state":"Maharashtra","latitude":18.4088,"longitude":76.5604,"temp":35.8,"humidity":32,"rain":0.0,"pressure":936.6,"uv_index":8.6,"wind_gusts":33.1,"aqi":67,"pm10":47.8,"pm2_5":20.6,"no2":0.9,"co":144.0,"o3":110.0,"so2":2.2,"mosquito_risk":0,"arthritis_risk":5,"migraine_risk":10,"frizz_risk":1,"updated_at":"2026-06-03T14:58:32.384813+05:30"},{"city":"Nanded","state":"Maharashtra","latitude":19.1383,"longitude":77.3091,"temp":37.4,"humidity":34,"rain":0.0,"pressure":964.0,"uv_index":8.9,"wind_gusts":33.5,"aqi":60,"pm10":39.8,"pm2_5":19.6,"no2":1.3,"co":147.0,"o3":121.0,"so2":3.5,"mosquito_risk":0,"arthritis_risk":5,"migraine_risk":10,"frizz_risk":1,"updated_at":"2026-06-03T14:58:32.384821+05:30"},{"city":"Gulbarga","state":"Karnataka","latitude":17.3297,"longitude":76.8343,"temp":35.0,"humidity":38,"rain":0.0,"pressure":955.0,"uv_index":7.0,"wind_gusts":38.9,"aqi":68,"pm10":36.8,"pm2_5":18.2,"no2":1.6,"co":145.0,"o3":122.0,"so2":2.7,"mosquito_risk":0,"arthritis_risk":5,"migraine_risk":7,"frizz_risk":1,"updated_at":"2026-06-03T14:58:32.384827+05:30"},{"city":"Bidar","state":"Karnataka","latitude":17.9104,"longitude":77.5199,"temp":34.2,"humidity":39,"rain":0.0,"pressure":932.4,"uv_index":8.65,"wind_gusts":33.1,"aqi":74,"pm10":74.3,"pm2_5":42.8,"no2":1.7,"co":156.0,"o3":131.0,"so2":3.9,"mosquito_risk":0,"arthritis_risk":5,"migraine_risk":7,"frizz_risk":1,"updated_at":"2026-06-03T14:58:32.384834+05:30"},{"city":"Hospet","state":"Karnataka","latitude":15.2689,"longitude":76.3909,"temp":30.8,"humidity":50,"rain":0.0,"pressure":953.0,"uv_index":6.7,"wind_gusts":38.9,"aqi":36,"pm10":16.5,"pm2_5":8.4,"no2":1.5,"co":142.0,"o3":93.0,"so2":1.8,"mosquito_risk":0,"arthritis_risk":5,"migraine_risk":7,"frizz_risk":1,"updated_at":"2026-06-03T14:58:32.384841+05:30"},{"city":"Tirupur","state":"Tamil Nadu","latitude":11.1085,"longitude":77.3411,"temp":32.8,"humidity":48,"rain":0.0,"pressure":972.5,"uv_index":8.8,"wind_gusts":59.4,"aqi":39,"pm10":5.7,"pm2_5":4.2,"no2":2.0,"co":148.0,"o3":92.0,"so2":1.9,"mosquito_risk":0,"arthritis_risk":5,"migraine_risk":7,"frizz_risk":1,"updated_at":"2026-06-03T14:58:32.384848+05:30"},{"city":"Alappuzha","state":"Kerala","latitude":9.4981,"longitude":76.3388,"temp":29.2,"humidity":76,"rain":0.1,"pressure":1007.7,"uv_index":8.3,"wind_gusts":40.0,"aqi":32,"pm10":11.4,"pm2_5":7.0,"no2":1.8,"co":95.0,"o3":68.0,"so2":1.2,"mosquito_risk":10,"arthritis_risk":5,"migraine_risk":4,"frizz_risk":1,"updated_at":"2026-06-03T14:58:32.384854+05:30"},{"city":"Munnar","state":"Kerala","latitude":10.0889,"longitude":77.0595,"temp":17.6,"humidity":95,"rain":0.3,"pressure":855.6,"uv_index":8.1,"wind_gusts":45.0,"aqi":29,"pm10":9.0,"pm2_5":5.0,"no2":0.9,"co":117.0,"o3":78.0,"so2":1.1,"mosquito_risk":6,"arthritis_risk":10,"migraine_risk":7,"frizz_risk":1,"updated_at":"2026-06-03T14:58:32.384861+05:30"},{"city":"Silchar","state":"Assam","latitude":24.8333,"longitude":92.7789,"temp":32.9,"humidity":67,"rain":0.0,"pressure":996.9,"uv_index":8.65,"wind_gusts":22.3,"aqi":112,"pm10":31.0,"pm2_5":22.3,"no2":1.5,"co":256.0,"o3":137.0,"so2":4.5,"mosquito_risk":3,"arthritis_risk":5,"migraine_risk":7,"frizz_risk":1,"updated_at":"2026-06-03T14:58:32.384867+05:30"},{"city":"Dibrugarh","state":"Assam","latitude":27.4728,"longitude":94.912,"temp":29.0,"humidity":82,"rain":0.0,"pressure":987.2,"uv_index":8.95,"wind_gusts":33.8,"aqi":90,"pm10":19.9,"pm2_5":17.5,"no2":1.5,"co":344.0,"o3":151.0,"so2":4.0,"mosquito_risk":7,"arthritis_risk":5,"migraine_risk":7,"frizz_risk":1,"updated_at":"2026-06-03T14:58:32.384874+05:30"}]