[{"city":"Delhi","state":"Delhi","latitude":28.6139,"longitude":77.209,"temp":20.1,"humidity":74,"rain":0.0,"pressure":986.2,"uv_index":6.9,"wind_gusts":35.6,"aqi":138,"pm10":294.3,"pm2_5":58.1,"mosquito_risk":3,"arthritis_risk":5,"migraine_risk":7,"frizz_risk":0,"updated_at":"2026-04-08T20:43:06.813836+05:30"},{"city":"Mumbai","state":"Maharashtra","latitude":19.076,"longitude":72.8777,"temp":28.6,"humidity":77,"rain":0.0,"pressure":1009.5,"uv_index":7.9,"wind_gusts":20.2,"aqi":77,"pm10":62.6,"pm2_5":18.5,"mosquito_risk":7,"arthritis_risk":0,"migraine_risk":4,"frizz_risk":1,"updated_at":"2026-04-08T20:43:06.813869+05:30"},{"city":"Bangalore","state":"Karnataka","latitude":12.9716,"longitude":77.5946,"temp":29.3,"humidity":31,"rain":0.0,"pressure":912.4,"uv_index":9.6,"wind_gusts":26.6,"aqi":164,"pm10":46.1,"pm2_5":44.5,"mosquito_risk":4,"arthritis_risk":5,"migraine_risk":7,"frizz_risk":0,"updated_at":"2026-04-08T20:43:06.813883+05:30"},{"city":"Hyderabad","state":"Telangana","latitude":17.385,"longitude":78.4867,"temp":32.6,"humidity":34,"rain":0.0,"pressure":953.0,"uv_index":9.15,"wind_gusts":23.4,"aqi":92,"pm10":89.9,"pm2_5":49.9,"mosquito_risk":0,"arthritis_risk":5,"migraine_risk":7,"frizz_risk":0,"updated_at":"2026-04-08T20:43:06.813892+05:30"},{"city":"Chennai","state":"Tamil Nadu","latitude":13.0827,"longitude":80.2707,"temp":29.4,"humidity":83,"rain":0.0,"pressure":1007.8,"uv_index":9.35,"wind_gusts":35.6,"aqi":77,"pm10":28.0,"pm2_5":22.1,"mosquito_risk":7,"arthritis_risk":5,"migraine_risk":4,"frizz_risk":1,"updated_at":"2026-04-08T20:43:06.813900+05:30"},{"city":"Kolkata","state":"West Bengal","latitude":22.5726,"longitude":88.3639,"temp":25.6,"humidity":85,"rain":0.0,"pressure":1008.0,"uv_index":8.7,"wind_gusts":24.8,"aqi":86,"pm10":29.6,"pm2_5":27.4,"mosquito_risk":7,"arthritis_risk":0,"migraine_risk":4,"frizz_risk":1,"updated_at":"2026-04-08T20:43:06.813907+05:30"},{"city":"Pune","state":"Maharashtra","latitude":18.5204,"longitude":73.8567,"temp":25.9,"humidity":76,"rain":0.0,"pressure":949.5,"uv_index":8.5,"wind_gusts":41.0,"aqi":75,"pm10":52.3,"pm2_5":21.2,"mosquito_risk":7,"arthritis_risk":5,"migraine_risk":7,"frizz_risk":1,"updated_at":"2026-04-08T20:43:06.813918+05:30"},{"city":"Ahmedabad","state":"Gujarat","latitude":23.0225,"longitude":72.5714,"temp":30.5,"humidity":26,"rain":0.0,"pressure":1001.2,"uv_index":8.0,"wind_gusts":31.3,"aqi":68,"pm10":43.4,"pm2_5":26.7,"mosquito_risk":0,"arthritis_risk":5,"migraine_risk":4,"frizz_risk":0,"updated_at":"2026-04-08T20:43:06.813925+05:30"},{"city":"Jaipur","state":"Rajasthan","latitude":26.9124,"longitude":75.7873,"temp":25.1,"humidity":44,"rain":0.0,"pressure":960.4,"uv_index":7.65,"wind_gusts":35.6,"aqi":114,"pm10":171.8,"pm2_5":37.5,"mosquito_risk":4,"arthritis_risk":5,"migraine_risk":7,"frizz_risk":0,"updated_at":"2026-04-08T20:43:06.813931+05:30"},{"city":"Lucknow","state":"Uttar Pradesh","latitude":26.8467,"longitude":80.9462,"temp":20.9,"humidity":81,"rain":0.0,"pressure":997.6,"uv_index":6.95,"wind_gusts":41.0,"aqi":97,"pm10":58.7,"pm2_5":40.4,"mosquito_risk":3,"arthritis_risk":5,"migraine_risk":7,"frizz_risk":1,"updated_at":"2026-04-08T20:43:06.813938+05:30"},{"city":"Kanpur","state":"Uttar Pradesh","latitude":26.4499,"longitude":80.3319,"temp":20.8,"humidity":80,"rain":0.0,"pressure":995.4,"uv_index":7.45,"wind_gusts":35.3,"aqi":118,"pm10":461.9,"pm2_5":70.3,"mosquito_risk":3,"arthritis_risk":5,"migraine_risk":7,"frizz_risk":1,"updated_at":"2026-04-08T20:43:06.813944+05:30"},{"city":"Chandigarh","state":"Chandigarh","latitude":30.7333,"longitude":76.7794,"temp":17.9,"humidity":87,"rain":0.0,"pressure":972.0,"uv_index":6.85,"wind_gusts":30.6,"aqi":83,"pm10":39.7,"pm2_5":28.9,"mosquito_risk":3,"arthritis_risk":10,"migraine_risk":7,"frizz_risk":0,"updated_at":"2026-04-08T20:43:06.813950+05:30"},{"city":"Srinagar","state":"Jammu and Kashmir","latitude":34.0837,"longitude":74.7973,"temp":7.8,"humidity":88,"rain":0.0,"pressure":838.1,"uv_index":1.3,"wind_gusts":16.6,"aqi":79,"pm10":18.9,"pm2_5":18.6,"mosquito_risk":3,"arthritis_risk":10,"migraine_risk":3,"frizz_risk":0,"updated_at":"2026-04-08T20:43:06.813957+05:30"},{"city":"Jammu","state":"Jammu and Kashmir","latitude":32.7266,"longitude":74.857,"temp":17.3,"humidity":88,"rain":0.0,"pressure":975.6,"uv_index":7.3,"wind_gusts":27.7,"aqi":89,"pm10":33.3,"pm2_5":27.0,"mosquito_risk":3,"arthritis_risk":10,"migraine_risk":7,"frizz_risk":0,"updated_at":"2026-04-08T20:43:06.813963+05:30"},{"city":"Amritsar","state":"Punjab","latitude":31.634,"longitude":74.8723,"temp":17.3,"humidity":88,"rain":0.0,"pressure":984.0,"uv_index":7.45,"wind_gusts":18.0,"aqi":107,"pm10":37.0,"pm2_5":26.4,"mosquito_risk":3,"arthritis_risk":10,"migraine_risk":7,"frizz_risk":0,"updated_at":"2026-04-08T20:43:06.813969+05:30"},{"city":"Ludhiana","state":"Punjab","latitude":30.901,"longitude":75.8573,"temp":17.2,"humidity":85,"rain":0.0,"pressure":982.6,"uv_index":6.95,"wind_gusts":23.8,"aqi":88,"pm10":53.0,"pm2_5":36.1,"mosquito_risk":3,"arthritis_risk":10,"migraine_risk":7,"frizz_risk":0,"updated_at":"2026-04-08T20:43:06.813975+05:30"},{"city":"Jalandhar","state":"Punjab","latitude":31.326,"longitude":75.5762,"temp":17.1,"humidity":85,"rain":0.0,"pressure":983.4,"uv_index":7.05,"wind_gusts":22.7,"aqi":94,"pm10":42.7,"pm2_5":27.6,"mosquito_risk":3,"arthritis_risk":10,"migraine_risk":7,"frizz_risk":0,"updated_at":"2026-04-08T20:43:06.813982+05:30"},{"city":"Dehradun","state":"Uttarakhand","latitude":30.6284,"longitude":78.0322,"temp":8.6,"humidity":87,"rain":0.0,"pressure":827.9,"uv_index":6.1,"wind_gusts":42.5,"aqi":86,"pm10":6.4,"pm2_5":4.3,"mosquito_risk":3,"arthritis_risk":10,"migraine_risk":7,"frizz_risk":0,"updated_at":"2026-04-08T20:43:06.813989+05:30"},{"city":"Shimla","state":"Himachal Pradesh","latitude":31.1048,"longitude":77.1734,"temp":6.9,"humidity":91,"rain":0.0,"pressure":780.9,"uv_index":1.2,"wind_gusts":41.0,"aqi":84,"pm10":7.7,"pm2_5":6.5,"mosquito_risk":3,"arthritis_risk":10,"migraine_risk":3,"frizz_risk":0,"updated_at":"2026-04-08T20:43:06.813994+05:30"},{"city":"Manali","state":"Himachal Pradesh","latitude":32.2396,"longitude":77.1887,"temp":9.5,"humidity":97,"rain":0.0,"pressure":814.9,"uv_index":5.45,"wind_gusts":29.9,"aqi":123,"pm10":5.1,"pm2_5":5.0,"mosquito_risk":3,"arthritis_risk":10,"migraine_risk":3,"frizz_risk":0,"updated_at":"2026-04-08T20:43:06.814000+05:30"},{"city":"Gurgaon","state":"Haryana","latitude":28.4595,"longitude":77.0266,"temp":20.7,"humidity":70,"rain":0.0,"pressure":984.0,"uv_index":7.05,"wind_gusts":27.7,"aqi":430,"pm10":1844.0,"pm2_5":202.1,"mosquito_risk":3,"arthritis_risk":5,"migraine_risk":7,"frizz_risk":0,"updated_at":"2026-04-08T20:43:06.814006+05:30"},{"city":"Noida","state":"Uttar Pradesh","latitude":28.5355,"longitude":77.391,"temp":19.9,"humidity":76,"rain":0.0,"pressure":987.7,"uv_index":6.95,"wind_gusts":36.7,"aqi":430,"pm10":1844.0,"pm2_5":202.1,"mosquito_risk":3,"arthritis_risk":5,"migraine_risk":7,"frizz_risk":0,"updated_at":"2026-04-08T20:43:06.814011+05:30"},{"city":"Ghaziabad","state":"Uttar Pradesh","latitude":28.6692,"longitude":77.4538,"temp":19.0,"humidity":81,"rain":0.0,"pressure":985.9,"uv_index":6.9,"wind_gusts":34.9,"aqi":113,"pm10":56.6,"pm2_5":36.8,"mosquito_risk":3,"arthritis_risk":10,"migraine_risk":7,"frizz_risk":0,"updated_at":"2026-04-08T20:43:06.814017+05:30"},{"city":"Faridabad","state":"Haryana","latitude":28.4089,"longitude":77.3178,"temp":20.3,"humidity":77,"rain":0.0,"pressure":986.7,"uv_index":7.0,"wind_gusts":30.2,"aqi":430,"pm10":1844.0,"pm2_5":202.1,"mosquito_risk":3,"arthritis_risk":5,"migraine_risk":7,"frizz_risk":1,"updated_at":"2026-04-08T20:43:06.814022+05:30"},{"city":"Meerut","state":"Uttar Pradesh","latitude":28.9845,"longitude":77.7064,"temp":18.2,"humidity":88,"rain":0.0,"pressure":984.9,"uv_index":6.7,"wind_gusts":30.2,"aqi":113,"pm10":56.6,"pm2_5":36.8,"mosquito_risk":3,"arthritis_risk":10,"migraine_risk":7,"frizz_risk":1,"updated_at":"2026-04-08T20:43:06.814028+05:30"},{"city":"Agra","state":"Uttar Pradesh","latitude":27.1767,"longitude":78.0081,"temp":22.9,"humidity":65,"rain":0.0,"pressure":989.9,"uv_index":7.35,"wind_gusts":29.5,"aqi":356,"pm10":1639.1,"pm2_5":165.3,"mosquito_risk":3,"arthritis_risk":5,"migraine_risk":7,"frizz_risk":0,"updated_at":"2026-04-08T20:43:06.814034+05:30"},{"city":"Varanasi","state":"Uttar Pradesh","latitude":25.3176,"longitude":82.9739,"temp":24.6,"humidity":62,"rain":0.0,"pressure":1000.4,"uv_index":7.3,"wind_gusts":36.7,"aqi":126,"pm10":46.7,"pm2_5":33.8,"mosquito_risk":3,"arthritis_risk":5,"migraine_risk":4,"frizz_risk":1,"updated_at":"2026-04-08T20:43:06.814042+05:30"},{"city":"Prayagraj","state":"Uttar Pradesh","latitude":25.4358,"longitude":81.8463,"temp":24.5,"humidity":64,"rain":0.0,"pressure":998.6,"uv_index":8.0,"wind_gusts":33.8,"aqi":135,"pm10":45.4,"pm2_5":30.5,"mosquito_risk":3,"arthritis_risk":5,"migraine_risk":7,"frizz_risk":1,"updated_at":"2026-04-08T20:43:06.814048+05:30"},{"city":"Gorakhpur","state":"Uttar Pradesh","latitude":26.7606,"longitude":83.3732,"temp":20.0,"humidity":76,"rain":0.0,"pressure":1001.6,"uv_index":7.4,"wind_gusts":38.5,"aqi":95,"pm10":58.8,"pm2_5":47.4,"mosquito_risk":3,"arthritis_risk":5,"migraine_risk":4,"frizz_risk":0,"updated_at":"2026-04-08T20:43:06.814054+05:30"},{"city":"Bareilly","state":"Uttar Pradesh","latitude":28.367,"longitude":79.4304,"temp":18.6,"humidity":89,"rain":0.0,"pressure":991.0,"uv_index":7.15,"wind_gusts":31.7,"aqi":95,"pm10":63.3,"pm2_5":37.4,"mosquito_risk":3,"arthritis_risk":10,"migraine_risk":7,"frizz_risk":1,"updated_at":"2026-04-08T20:43:06.814060+05:30"},{"city":"Aligarh","state":"Uttar Pradesh","latitude":27.8974,"longitude":78.088,"temp":20.9,"humidity":73,"rain":0.0,"pressure":988.3,"uv_index":7.1,"wind_gusts":25.9,"aqi":172,"pm10":584.9,"pm2_5":74.0,"mosquito_risk":3,"arthritis_risk":5,"migraine_risk":7,"frizz_risk":0,"updated_at":"2026-04-08T20:43:06.814065+05:30"},{"city":"Moradabad","state":"Uttar Pradesh","latitude":28.8386,"longitude":78.7733,"temp":18.4,"humidity":90,"rain":0.0,"pressure":987.6,"uv_index":6.95,"wind_gusts":27.4,"aqi":101,"pm10":66.8,"pm2_5":47.4,"mosquito_risk":3,"arthritis_risk":10,"migraine_risk":7,"frizz_risk":1,"updated_at":"2026-04-08T20:43:06.814071+05:30"},{"city":"Saharanpur","state":"Uttar Pradesh","latitude":29.9637,"longitude":77.546,"temp":17.2,"humidity":89,"rain":0.0,"pressure":979.3,"uv_index":6.2,"wind_gusts":29.9,"aqi":87,"pm10":64.5,"pm2_5":49.7,"mosquito_risk":3,"arthritis_risk":10,"migraine_risk":7,"frizz_risk":0,"updated_at":"2026-04-08T20:43:06.814078+05:30"},{"city":"Jhansi","state":"Uttar Pradesh","latitude":25.4484,"longitude":78.5685,"temp":25.8,"humidity":31,"rain":0.0,"pressure":979.3,"uv_index":7.95,"wind_gusts":42.8,"aqi":90,"pm10":50.9,"pm2_5":18.0,"mosquito_risk":4,"arthritis_risk":5,"migraine_risk":7,"frizz_risk":0,"updated_at":"2026-04-08T20:43:10.031527+05:30"},{"city":"Surat","state":"Gujarat","latitude":21.1702,"longitude":72.8311,"temp":27.4,"humidity":82,"rain":0.0,"pressure":1007.0,"uv_index":7.7,"wind_gusts":38.5,"aqi":68,"pm10":43.9,"pm2_5":20.0,"mosquito_risk":7,"arthritis_risk":5,"migraine_risk":4,"frizz_risk":1,"updated_at":"2026-04-08T20:43:10.031547+05:30"},{"city":"Vadodara","state":"Gujarat","latitude":22.3072,"longitude":73.1812,"temp":28.6,"humidity":63,"rain":0.0,"pressure":1003.6,"uv_index":7.95,"wind_gusts":38.5,"aqi":64,"pm10":48.0,"pm2_5":26.8,"mosquito_risk":7,"arthritis_risk":5,"migraine_risk":4,"frizz_risk":1,"updated_at":"2026-04-08T20:43:10.031556+05:30"},{"city":"Rajkot","state":"Gujarat","latitude":22.3039,"longitude":70.8022,"temp":28.4,"humidity":44,"rain":0.0,"pressure":993.9,"uv_index":7.7,"wind_gusts":38.9,"aqi":95,"pm10":17.6,"pm2_5":12.2,"mosquito_risk":4,"arthritis_risk":5,"migraine_risk":7,"frizz_risk":0,"updated_at":"2026-04-08T20:43:10.031563+05:30"},{"city":"Thane","state":"Maharashtra","latitude":19.2183,"longitude":72.9781,"temp":28.0,"humidity":75,"rain":0.0,"pressure":1008.9,"uv_index":7.9,"wind_gusts":36.0,"aqi":77,"pm10":62.6,"pm2_5":18.5,"mosquito_risk":7,"arthritis_risk":0,"migraine_risk":4,"frizz_risk":1,"updated_at":"2026-04-08T20:43:10.031570+05:30"},{"city":"Nagpur","state":"Maharashtra","latitude":21.1458,"longitude":79.0882,"temp":28.1,"humidity":53,"rain":0.0,"pressure":972.3,"uv_index":8.7,"wind_gusts":37.8,"aqi":84,"pm10":63.6,"pm2_5":30.5,"mosquito_risk":4,"arthritis_risk":5,"migraine_risk":7,"frizz_risk":1,"updated_at":"2026-04-08T20:43:10.031576+05:30"},{"city":"Nashik","state":"Maharashtra","latitude":19.9975,"longitude":73.7898,"temp":24.5,"humidity":77,"rain":0.0,"pressure":946.4,"uv_index":8.2,"wind_gusts":42.1,"aqi":65,"pm10":39.6,"pm2_5":15.0,"mosquito_risk":3,"arthritis_risk":5,"migraine_risk":7,"frizz_risk":1,"updated_at":"2026-04-08T20:43:10.031582+05:30"},{"city":"Aurangabad","state":"Maharashtra","latitude":19.8762,"longitude":75.3433,"temp":28.2,"humidity":32,"rain":0.0,"pressure":944.4,"uv_index":8.85,"wind_gusts":46.1,"aqi":63,"pm10":41.2,"pm2_5":19.4,"mosquito_risk":4,"arthritis_risk":5,"migraine_risk":7,"frizz_risk":0,"updated_at":"2026-04-08T20:43:10.031588+05:30"},{"city":"Solapur","state":"Maharashtra","latitude":17.6599,"longitude":75.9064,"temp":32.5,"humidity":27,"rain":0.0,"pressure":956.5,"uv_index":8.95,"wind_gusts":29.9,"aqi":73,"pm10":45.4,"pm2_5":21.7,"mosquito_risk":0,"arthritis_risk":5,"migraine_risk":7,"frizz_risk":0,"updated_at":"2026-04-08T20:43:10.031594+05:30"},{"city":"Kolhapur","state":"Maharashtra","latitude":16.705,"longitude":74.2433,"temp":24.9,"humidity":62,"rain":0.0,"pressure":948.8,"uv_index":8.95,"wind_gusts":43.9,"aqi":74,"pm10":53.6,"pm2_5":27.1,"mosquito_risk":3,"arthritis_risk":5,"migraine_risk":7,"frizz_risk":1,"updated_at":"2026-04-08T20:43:10.031600+05:30"},{"city":"Goa","state":"Goa","latitude":15.2993,"longitude":74.124,"temp":27.9,"humidity":78,"rain":0.0,"pressure":999.2,"uv_index":9.0,"wind_gusts":38.5,"aqi":66,"pm10":59.6,"pm2_5":20.6,"mosquito_risk":7,"arthritis_risk":5,"migraine_risk":7,"frizz_risk":1,"updated_at":"2026-04-08T20:43:10.031606+05:30"},{"city":"Jodhpur","state":"Rajasthan","latitude":26.2389,"longitude":73.0243,"temp":26.3,"humidity":47,"rain":0.0,"pressure":982.8,"uv_index":7.9,"wind_gusts":29.2,"aqi":101,"pm10":191.9,"pm2_5":44.1,"mosquito_risk":4,"arthritis_risk":5,"migraine_risk":7,"frizz_risk":0,"updated_at":"2026-04-08T20:43:10.031612+05:30"},{"city":"Udaipur","state":"Rajasthan","latitude":24.5854,"longitude":73.7125,"temp":24.8,"humidity":39,"rain":0.0,"pressure":946.4,"uv_index":8.5,"wind_gusts":36.0,"aqi":91,"pm10":46.9,"pm2_5":16.9,"mosquito_risk":0,"arthritis_risk":5,"migraine_risk":7,"frizz_risk":0,"updated_at":"2026-04-08T20:43:10.031617+05:30"},{"city":"Kota","state":"Rajasthan","latitude":25.2138,"longitude":75.8648,"temp":26.4,"humidity":41,"rain":0.0,"pressure":979.2,"uv_index":7.95,"wind_gusts":34.2,"aqi":104,"pm10":140.6,"pm2_5":49.4,"mosquito_risk":4,"arthritis_risk":5,"migraine_risk":7,"frizz_risk":0,"updated_at":"2026-04-08T20:43:10.031623+05:30"},{"city":"Bikaner","state":"Rajasthan","latitude":28.0229,"longitude":73.3119,"temp":26.8,"humidity":27,"rain":0.0,"pressure":982.8,"uv_index":7.7,"wind_gusts":30.2,"aqi":83,"pm10":84.5,"pm2_5":20.8,"mosquito_risk":4,"arthritis_risk":5,"migraine_risk":7,"frizz_risk":0,"updated_at":"2026-04-08T20:43:10.031629+05:30"},{"city":"Ajmer","state":"Rajasthan","latitude":26.4499,"longitude":74.6399,"temp":24.6,"humidity":44,"rain":0.0,"pressure":954.9,"uv_index":7.85,"wind_gusts":34.9,"aqi":98,"pm10":88.0,"pm2_5":26.8,"mosquito_risk":0,"arthritis_risk":5,"migraine_risk":7,"frizz_risk":0,"updated_at":"2026-04-08T20:43:10.031634+05:30"},{"city":"Gwalior","state":"Madhya Pradesh","latitude":26.2183,"longitude":78.1828,"temp":25.2,"humidity":54,"rain":0.0,"pressure":984.7,"uv_index":7.65,"wind_gusts":35.6,"aqi":88,"pm10":98.3,"pm2_5":29.6,"mosquito_risk":4,"arthritis_risk":5,"migraine_risk":7,"frizz_risk":0,"updated_at":"2026-04-08T20:43:10.031640+05:30"},{"city":"Indore","state":"Madhya Pradesh","latitude":22.7196,"longitude":75.8577,"temp":24.6,"humidity":46,"rain":0.0,"pressure":947.8,"uv_index":8.4,"wind_gusts":50.0,"aqi":73,"pm10":41.6,"pm2_5":24.0,"mosquito_risk":0,"arthritis_risk":5,"migraine_risk":7,"frizz_risk":0,"updated_at":"2026-04-08T20:43:10.031646+05:30"},{"city":"Bhopal","state":"Madhya Pradesh","latitude":23.2599,"longitude":77.4126,"temp":27.2,"humidity":35,"rain":0.0,"pressure":953.7,"uv_index":8.4,"wind_gusts":53.6,"aqi":73,"pm10":31.5,"pm2_5":20.0,"mosquito_risk":4,"arthritis_risk":5,"migraine_risk":7,"frizz_risk":0,"updated_at":"2026-04-08T20:43:10.031651+05:30"},{"city":"Jabalpur","state":"Madhya Pradesh","latitude":23.1815,"longitude":79.9864,"temp":27.9,"humidity":51,"rain":0.0,"pressure":961.7,"uv_index":8.5,"wind_gusts":46.8,"aqi":96,"pm10":75.0,"pm2_5":40.5,"mosquito_risk":4,"arthritis_risk":5,"migraine_risk":7,"frizz_risk":1,"updated_at":"2026-04-08T20:43:10.031656+05:30"},{"city":"Ujjain","state":"Madhya Pradesh","latitude":23.1765,"longitude":75.7885,"temp":25.0,"humidity":46,"rain":0.0,"pressure":953.7,"uv_index":8.3,"wind_gusts":45.4,"aqi":67,"pm10":38.3,"pm2_5":23.6,"mosquito_risk":4,"arthritis_risk":5,"migraine_risk":7,"frizz_risk":0,"updated_at":"2026-04-08T20:43:10.031662+05:30"},{"city":"Visakhapatnam","state":"Andhra Pradesh","latitude":17.6868,"longitude":83.2185,"temp":28.0,"humidity":87,"rain":0.0,"pressure":1004.5,"uv_index":9.1,"wind_gusts":37.8,"aqi":80,"pm10":32.6,"pm2_5":29.7,"mosquito_risk":7,"arthritis_risk":5,"migraine_risk":4,"frizz_risk":1,"updated_at":"2026-04-08T20:43:10.031668+05:30"},{"city":"Vijayawada","state":"Andhra Pradesh","latitude":16.5062,"longitude":80.648,"temp":30.8,"humidity":67,"rain":0.0,"pressure":1002.5,"uv_index":9.15,"wind_gusts":26.6,"aqi":128,"pm10":42.5,"pm2_5":40.2,"mosquito_risk":3,"arthritis_risk":5,"migraine_risk":4,"frizz_risk":1,"updated_at":"2026-04-08T20:43:10.031673+05:30"},{"city":"Guntur","state":"Andhra Pradesh","latitude":16.3067,"longitude":80.4365,"temp":29.0,"humidity":81,"rain":0.0,"pressure":1003.9,"uv_index":9.15,"wind_gusts":27.7,"aqi":142,"pm10":41.2,"pm2_5":39.0,"mosquito_risk":7,"arthritis_risk":5,"migraine_risk":4,"frizz_risk":1,"updated_at":"2026-04-08T20:43:10.031679+05:30"},{"city":"Nellore","state":"Andhra Pradesh","latitude":14.4426,"longitude":79.9865,"temp":29.1,"humidity":83,"rain":0.0,"pressure":1006.1,"uv_index":9.25,"wind_gusts":35.6,"aqi":142,"pm10":31.2,"pm2_5":27.4,"mosquito_risk":7,"arthritis_risk":5,"migraine_risk":4,"frizz_risk":1,"updated_at":"2026-04-08T20:43:10.031685+05:30"},{"city":"Kurnool","state":"Andhra Pradesh","latitude":15.8281,"longitude":78.0373,"temp":33.5,"humidity":27,"rain":0.0,"pressure":976.0,"uv_index":9.15,"wind_gusts":23.0,"aqi":96,"pm10":58.7,"pm2_5":28.7,"mosquito_risk":0,"arthritis_risk":5,"migraine_risk":7,"frizz_risk":0,"updated_at":"2026-04-08T20:43:10.031691+05:30"},{"city":"Kakinada","state":"Andhra Pradesh","latitude":16.9891,"longitude":82.2475,"temp":28.9,"humidity":81,"rain":0.0,"pressure":1007.9,"uv_index":9.1,"wind_gusts":29.2,"aqi":75,"pm10":29.2,"pm2_5":25.6,"mosquito_risk":7,"arthritis_risk":5,"migraine_risk":4,"frizz_risk":1,"updated_at":"2026-04-08T20:43:10.031697+05:30"},{"city":"Tirupati","state":"Andhra Pradesh","latitude":13.6288,"longitude":79.4192,"temp":29.8,"humidity":67,"rain":0.0,"pressure":992.2,"uv_index":9.4,"wind_gusts":34.6,"aqi":146,"pm10":40.3,"pm2_5":38.1,"mosquito_risk":7,"arthritis_risk":5,"migraine_risk":7,"frizz_risk":1,"updated_at":"2026-04-08T20:43:10.031702+05:30"},{"city":"Warangal","state":"Telangana","latitude":17.9689,"longitude":79.5941,"temp":31.4,"humidity":44,"rain":0.0,"pressure":977.7,"uv_index":9.0,"wind_gusts":25.2,"aqi":104,"pm10":103.8,"pm2_5":59.0,"mosquito_risk":0,"arthritis_risk":5,"migraine_risk":7,"frizz_risk":1,"updated_at":"2026-04-08T20:43:10.031708+05:30"},{"city":"Nizamabad","state":"Telangana","latitude":18.6725,"longitude":78.0941,"temp":31.5,"humidity":40,"rain":0.0,"pressure":964.1,"uv_index":8.95,"wind_gusts":27.0,"aqi":85,"pm10":120.6,"pm2_5":61.0,"mosquito_risk":0,"arthritis_risk":5,"migraine_risk":7,"frizz_risk":1,"updated_at":"2026-04-08T20:43:10.031713+05:30"},{"city":"Mysore","state":"Karnataka","latitude":12.2958,"longitude":76.6396,"temp":26.9,"humidity":66,"rain":0.0,"pressure":929.5,"uv_index":9.45,"wind_gusts":42.1,"aqi":110,"pm10":14.7,"pm2_5":14.0,"mosquito_risk":7,"arthritis_risk":5,"migraine_risk":7,"frizz_risk":1,"updated_at":"2026-04-08T20:43:10.031719+05:30"},{"city":"Mangalore","state":"Karnataka","latitude":12.9141,"longitude":74.856,"temp":29.1,"humidity":78,"rain":0.0,"pressure":1008.0,"uv_index":9.15,"wind_gusts":33.5,"aqi":59,"pm10":69.6,"pm2_5":24.1,"mosquito_risk":7,"arthritis_risk":0,"migraine_risk":4,"frizz_risk":1,"updated_at":"2026-04-08T20:43:10.031724+05:30"},{"city":"Hubli-Dharwad","state":"Karnataka","latitude":15.3647,"longitude":75.124,"temp":26.6,"humidity":71,"rain":0.0,"pressure":941.5,"uv_index":9.2,"wind_gusts":37.8,"aqi":93,"pm10":35.3,"pm2_5":19.8,"mosquito_risk":7,"arthritis_risk":5,"migraine_risk":7,"frizz_risk":1,"updated_at":"2026-04-08T20:43:10.031730+05:30"},{"city":"Belgaum","state":"Karnataka","latitude":15.8497,"longitude":74.4977,"temp":24.2,"humidity":72,"rain":0.0,"pressure":926.6,"uv_index":9.2,"wind_gusts":41.4,"aqi":69,"pm10":46.1,"pm2_5":21.6,"mosquito_risk":3,"arthritis_risk":5,"migraine_risk":7,"frizz_risk":1,"updated_at":"2026-04-08T20:43:13.247412+05:30"},{"city":"Coimbatore","state":"Tamil Nadu","latitude":11.0168,"longitude":76.9558,"temp":26.7,"humidity":61,"rain":0.0,"pressure":962.7,"uv_index":9.45,"wind_gusts":55.1,"aqi":84,"pm10":18.0,"pm2_5":15.8,"mosquito_risk":7,"arthritis_risk":5,"migraine_risk":7,"frizz_risk":1,"updated_at":"2026-04-08T20:43:13.247438+05:30"},{"city":"Madurai","state":"Tamil Nadu","latitude":9.9252,"longitude":78.1198,"temp":30.1,"humidity":68,"rain":0.0,"pressure":994.5,"uv_index":9.35,"wind_gusts":27.7,"aqi":119,"pm10":40.2,"pm2_5":35.6,"mosquito_risk":3,"arthritis_risk":5,"migraine_risk":7,"frizz_risk":1,"updated_at":"2026-04-08T20:43:13.247450+05:30"},{"city":"Trichy","state":"Tamil Nadu","latitude":10.7905,"longitude":78.7047,"temp":30.9,"humidity":70,"rain":0.0,"pressure":999.9,"uv_index":8.7,"wind_gusts":28.1,"aqi":95,"pm10":33.9,"pm2_5":30.9,"mosquito_risk":3,"arthritis_risk":5,"migraine_risk":7,"frizz_risk":1,"updated_at":"2026-04-08T20:43:13.247459+05:30"},{"city":"Salem","state":"Tamil Nadu","latitude":11.6643,"longitude":78.146,"temp":33.4,"humidity":44,"rain":0.0,"pressure":976.9,"uv_index":9.45,"wind_gusts":34.2,"aqi":165,"pm10":30.5,"pm2_5":27.6,"mosquito_risk":0,"arthritis_risk":5,"migraine_risk":7,"frizz_risk":1,"updated_at":"2026-04-08T20:43:13.247468+05:30"},{"city":"Tirunelveli","state":"Tamil Nadu","latitude":8.7139,"longitude":77.7567,"temp":28.3,"humidity":74,"rain":0.0,"pressure":1004.7,"uv_index":9.25,"wind_gusts":36.4,"aqi":124,"pm10":44.8,"pm2_5":36.6,"mosquito_risk":7,"arthritis_risk":5,"migraine_risk":4,"frizz_risk":1,"updated_at":"2026-04-08T20:43:13.247477+05:30"},{"city":"Vellore","state":"Tamil Nadu","latitude":12.9165,"longitude":79.1325,"temp":31.0,"humidity":62,"rain":0.0,"pressure":984.6,"uv_index":9.2,"wind_gusts":41.4,"aqi":141,"pm10":45.1,"pm2_5":42.3,"mosquito_risk":3,"arthritis_risk":5,"migraine_risk":7,"frizz_risk":1,"updated_at":"2026-04-08T20:43:13.247485+05:30"},{"city":"Erode","state":"Tamil Nadu","latitude":11.341,"longitude":77.7172,"temp":34.2,"humidity":40,"rain":0.0,"pressure":988.4,"uv_index":9.4,"wind_gusts":30.2,"aqi":113,"pm10":32.0,"pm2_5":28.9,"mosquito_risk":0,"arthritis_risk":5,"migraine_risk":7,"frizz_risk":1,"updated_at":"2026-04-08T20:43:13.247493+05:30"},{"city":"Kochi","state":"Kerala","latitude":9.9312,"longitude":76.2673,"temp":30.0,"humidity":70,"rain":0.0,"pressure":1009.9,"uv_index":9.2,"wind_gusts":36.4,"aqi":60,"pm10":27.0,"pm2_5":20.5,"mosquito_risk":7,"arthritis_risk":0,"migraine_risk":4,"frizz_risk":1,"updated_at":"2026-04-08T20:43:13.247501+05:30"},{"city":"Thiruvananthapuram","state":"Kerala","latitude":8.5241,"longitude":76.9366,"temp":29.8,"humidity":73,"rain":0.0,"pressure":1009.6,"uv_index":9.2,"wind_gusts":45.0,"aqi":55,"pm10":24.9,"pm2_5":13.2,"mosquito_risk":7,"arthritis_risk":0,"migraine_risk":4,"frizz_risk":1,"updated_at":"2026-04-08T20:43:13.247509+05:30"},{"city":"Kozhikode","state":"Kerala","latitude":11.2588,"longitude":75.7804,"temp":29.4,"humidity":76,"rain":0.0,"pressure":1009.0,"uv_index":9.15,"wind_gusts":31.0,"aqi":50,"pm10":22.5,"pm2_5":12.7,"mosquito_risk":7,"arthritis_risk":0,"migraine_risk":4,"frizz_risk":1,"updated_at":"2026-04-08T20:43:13.247515+05:30"},{"city":"Thrissur","state":"Kerala","latitude":10.5276,"longitude":76.2144,"temp":28.9,"humidity":74,"rain":0.0,"pressure":1008.3,"uv_index":9.2,"wind_gusts":37.1,"aqi":60,"pm10":20.4,"pm2_5":14.7,"mosquito_risk":7,"arthritis_risk":0,"migraine_risk":4,"frizz_risk":1,"updated_at":"2026-04-08T20:43:13.247522+05:30"},{"city":"Kannur","state":"Kerala","latitude":11.8745,"longitude":75.3704,"temp":29.0,"humidity":73,"rain":0.0,"pressure":1008.3,"uv_index":9.15,"wind_gusts":36.0,"aqi":55,"pm10":45.2,"pm2_5":19.2,"mosquito_risk":7,"arthritis_risk":0,"migraine_risk":4,"frizz_risk":1,"updated_at":"2026-04-08T20:43:13.247528+05:30"},{"city":"Patna","state":"Bihar","latitude":25.5941,"longitude":85.1376,"temp":23.1,"humidity":82,"rain":0.0,"pressure":1003.7,"uv_index":6.65,"wind_gusts":29.2,"aqi":131,"pm10":51.0,"pm2_5":40.3,"mosquito_risk":3,"arthritis_risk":5,"migraine_risk":4,"frizz_risk":1,"updated_at":"2026-04-08T20:43:13.247534+05:30"},{"city":"Gaya","state":"Bihar","latitude":24.7914,"longitude":85.0002,"temp":23.6,"humidity":78,"rain":0.0,"pressure":996.0,"uv_index":8.25,"wind_gusts":28.1,"aqi":167,"pm10":47.6,"pm2_5":36.3,"mosquito_risk":3,"arthritis_risk":5,"migraine_risk":7,"frizz_risk":1,"updated_at":"2026-04-08T20:43:13.247540+05:30"},{"city":"Muzaffarpur","state":"Bihar","latitude":26.1209,"longitude":85.3647,"temp":21.4,"humidity":84,"rain":0.0,"pressure":1004.0,"uv_index":7.0,"wind_gusts":36.7,"aqi":128,"pm10":54.1,"pm2_5":41.9,"mosquito_risk":3,"arthritis_risk":5,"migraine_risk":4,"frizz_risk":1,"updated_at":"2026-04-08T20:43:13.247545+05:30"},{"city":"Bhagalpur","state":"Bihar","latitude":25.2425,"longitude":87.0117,"temp":24.4,"humidity":89,"rain":0.0,"pressure":1003.9,"uv_index":8.3,"wind_gusts":29.2,"aqi":183,"pm10":56.8,"pm2_5":47.5,"mosquito_risk":3,"arthritis_risk":5,"migraine_risk":4,"frizz_risk":1,"updated_at":"2026-04-08T20:43:13.247551+05:30"},{"city":"Ranchi","state":"Jharkhand","latitude":23.3441,"longitude":85.3096,"temp":21.9,"humidity":78,"rain":0.0,"pressure":938.9,"uv_index":8.65,"wind_gusts":39.2,"aqi":149,"pm10":80.1,"pm2_5":47.0,"mosquito_risk":3,"arthritis_risk":5,"migraine_risk":7,"frizz_risk":1,"updated_at":"2026-04-08T20:43:13.247557+05:30"},{"city":"Jamshedpur","state":"Jharkhand","latitude":22.8046,"longitude":86.2029,"temp":24.1,"humidity":85,"rain":0.0,"pressure":993.4,"uv_index":8.8,"wind_gusts":32.4,"aqi":172,"pm10":44.2,"pm2_5":40.4,"mosquito_risk":3,"arthritis_risk":5,"migraine_risk":7,"frizz_risk":1,"updated_at":"2026-04-08T20:43:13.247563+05:30"},{"city":"Dhanbad","state":"Jharkhand","latitude":23.7957,"longitude":86.4304,"temp":23.3,"humidity":83,"rain":0.0,"pressure":982.2,"uv_index":8.7,"wind_gusts":29.9,"aqi":175,"pm10":68.2,"pm2_5":63.8,"mosquito_risk":3,"arthritis_risk":5,"migraine_risk":7,"frizz_risk":1,"updated_at":"2026-04-08T20:43:13.247569+05:30"},{"city":"Bokaro","state":"Jharkhand","latitude":23.6693,"longitude":86.1511,"temp":23.0,"humidity":86,"rain":0.0,"pressure":986.3,"uv_index":8.7,"wind_gusts":30.2,"aqi":176,"pm10":79.6,"pm2_5":72.2,"mosquito_risk":3,"arthritis_risk":5,"migraine_risk":7,"frizz_risk":1,"updated_at":"2026-04-08T20:43:13.247575+05:30"},{"city":"Bhubaneswar","state":"Odisha","latitude":20.2961,"longitude":85.8245,"temp":27.2,"humidity":86,"rain":0.0,"pressure":1003.4,"uv_index":8.95,"wind_gusts":33.1,"aqi":69,"pm10":26.6,"pm2_5":25.0,"mosquito_risk":7,"arthritis_risk":5,"migraine_risk":4,"frizz_risk":1,"updated_at":"2026-04-08T20:43:13.247580+05:30"},{"city":"Cuttack","state":"Odisha","latitude":20.4625,"longitude":85.8828,"temp":27.6,"humidity":84,"rain":0.0,"pressure":1005.5,"uv_index":9.0,"wind_gusts":33.1,"aqi":69,"pm10":26.6,"pm2_5":25.0,"mosquito_risk":7,"arthritis_risk":5,"migraine_risk":4,"frizz_risk":1,"updated_at":"2026-04-08T20:43:13.247586+05:30"},{"city":"Rourkela","state":"Odisha","latitude":22.2604,"longitude":84.8536,"temp":27.4,"humidity":78,"rain":0.0,"pressure":985.3,"uv_index":8.75,"wind_gusts":32.0,"aqi":161,"pm10":68.2,"pm2_5":52.9,"mosquito_risk":7,"arthritis_risk":5,"migraine_risk":7,"frizz_risk":1,"updated_at":"2026-04-08T20:43:13.247592+05:30"},{"city":"Raipur","state":"Chhattisgarh","latitude":21.2514,"longitude":81.6296,"temp":31.8,"humidity":31,"rain":0.0,"pressure":973.9,"uv_index":8.3,"wind_gusts":37.4,"aqi":106,"pm10":89.2,"pm2_5":48.0,"mosquito_risk":0,"arthritis_risk":5,"migraine_risk":7,"frizz_risk":0,"updated_at":"2026-04-08T20:43:13.247598+05:30"},{"city":"Bhilai","state":"Chhattisgarh","latitude":21.1938,"longitude":81.3509,"temp":31.5,"humidity":35,"rain":0.0,"pressure":974.3,"uv_index":8.5,"wind_gusts":36.7,"aqi":92,"pm10":85.0,"pm2_5":42.3,"mosquito_risk":0,"arthritis_risk":5,"migraine_risk":7,"frizz_risk":0,"updated_at":"2026-04-08T20:43:13.247604+05:30"},{"city":"Guwahati","state":"Assam","latitude":26.1158,"longitude":91.7086,"temp":24.1,"humidity":79,"rain":0.0,"pressure":1005.1,"uv_index":8.15,"wind_gusts":24.1,"aqi":92,"pm10":43.9,"pm2_5":38.6,"mosquito_risk":3,"arthritis_risk":5,"migraine_risk":4,"frizz_risk":1,"updated_at":"2026-04-08T20:43:13.247609+05:30"},{"city":"Agartala","state":"Tripura","latitude":23.8315,"longitude":91.2868,"temp":25.7,"humidity":75,"rain":0.0,"pressure":1008.3,"uv_index":8.45,"wind_gusts":11.9,"aqi":168,"pm10":43.3,"pm2_5":40.9,"mosquito_risk":7,"arthritis_risk":0,"migraine_risk":4,"frizz_risk":1,"updated_at":"2026-04-08T20:43:13.247615+05:30"},{"city":"Shillong","state":"Meghalaya","latitude":25.5788,"longitude":91.8933,"temp":13.3,"humidity":92,"rain":0.0,"pressure":857.3,"uv_index":7.8,"wind_gusts":40.3,"aqi":103,"pm10":31.9,"pm2_5":26.8,"mosquito_risk":3,"arthritis_risk":10,"migraine_risk":7,"frizz_risk":0,"updated_at":"2026-04-08T20:43:13.247622+05:30"},{"city":"Imphal","state":"Manipur","latitude":24.817,"longitude":93.9368,"temp":17.3,"humidity":78,"rain":0.0,"pressure":925.3,"uv_index":8.65,"wind_gusts":42.8,"aqi":73,"pm10":32.1,"pm2_5":28.3,"mosquito_risk":3,"arthritis_risk":5,"migraine_risk":7,"frizz_risk":0,"updated_at":"2026-04-08T20:43:13.247628+05:30"},{"city":"Aizawl","state":"Mizoram","latitude":23.7271,"longitude":92.7176,"temp":19.1,"humidity":71,"rain":0.0,"pressure":894.3,"uv_index":8.7,"wind_gusts":34.9,"aqi":65,"pm10":29.1,"pm2_5":24.5,"mosquito_risk":3,"arthritis_risk":5,"migraine_risk":7,"frizz_risk":0,"updated_at":"2026-04-08T20:43:13.247634+05:30"},{"city":"Kohima","state":"Nagaland","latitude":25.6701,"longitude":94.1077,"temp":14.0,"humidity":77,"rain":0.0,"pressure":855.9,"uv_index":8.0,"wind_gusts":57.2,"aqi":69,"pm10":25.3,"pm2_5":21.4,"mosquito_risk":3,"arthritis_risk":5,"migraine_risk":7,"frizz_risk":0,"updated_at":"2026-04-08T20:43:13.247639+05:30"},{"city":"Gangtok","state":"Sikkim","latitude":27.3314,"longitude":88.6138,"temp":12.6,"humidity":95,"rain":0.6,"pressure":838.3,"uv_index":7.4,"wind_gusts":16.9,"aqi":100,"pm10":25.4,"pm2_5":20.8,"mosquito_risk":6,"arthritis_risk":10,"migraine_risk":7,"frizz_risk":0,"updated_at":"2026-04-08T20:43:13.247645+05:30"},{"city":"Siliguri","state":"West Bengal","latitude":26.7271,"longitude":88.3953,"temp":19.8,"humidity":81,"rain":0.0,"pressure":997.2,"uv_index":7.9,"wind_gusts":25.2,"aqi":109,"pm10":49.2,"pm2_5":42.5,"mosquito_risk":3,"arthritis_risk":10,"migraine_risk":7,"frizz_risk":1,"updated_at":"2026-04-08T20:43:16.465779+05:30"},{"city":"Durgapur","state":"West Bengal","latitude":23.5204,"longitude":87.3119,"temp":24.9,"humidity":84,"rain":0.0,"pressure":998.0,"uv_index":8.65,"wind_gusts":21.6,"aqi":154,"pm10":64.7,"pm2_5":58.8,"mosquito_risk":3,"arthritis_risk":5,"migraine_risk":7,"frizz_risk":1,"updated_at":"2026-04-08T20:43:16.465805+05:30"},{"city":"Asansol","state":"West Bengal","latitude":23.6739,"longitude":86.9524,"temp":24.7,"humidity":83,"rain":0.0,"pressure":996.4,"uv_index":8.7,"wind_gusts":22.3,"aqi":159,"pm10":65.2,"pm2_5":59.8,"mosquito_risk":3,"arthritis_risk":5,"migraine_risk":7,"frizz_risk":1,"updated_at":"2026-04-08T20:43:16.465813+05:30"},{"city":"Pondicherry","state":"Puducherry","latitude":11.9139,"longitude":79.8145,"temp":28.8,"humidity":86,"rain":0.0,"pressure":1008.7,"uv_index":9.3,"wind_gusts":26.6,"aqi":77,"pm10":30.0,"pm2_5":23.0,"mosquito_risk":7,"arthritis_risk":0,"migraine_risk":4,"frizz_risk":1,"updated_at":"2026-04-08T20:43:16.465821+05:30"},{"city":"Port Blair","state":"Andaman and Nicobar Islands","latitude":11.6234,"longitude":92.7265,"temp":28.8,"humidity":78,"rain":0.0,"pressure":1009.5,"uv_index":9.2,"wind_gusts":7.9,"aqi":31,"pm10":7.9,"pm2_5":5.4,"mosquito_risk":7,"arthritis_risk":0,"migraine_risk":4,"frizz_risk":1,"updated_at":"2026-04-08T20:43:16.465827+05:30"},{"city":"Haridwar","state":"Uttarakhand","latitude":29.9457,"longitude":78.1642,"temp":17.9,"humidity":89,"rain":0.0,"pressure":978.0,"uv_index":5.7,"wind_gusts":25.2,"aqi":77,"pm10":43.3,"pm2_5":34.8,"mosquito_risk":3,"arthritis_risk":10,"migraine_risk":3,"frizz_risk":0,"updated_at":"2026-04-08T20:43:16.465834+05:30"},{"city":"Rishikesh","state":"Uttarakhand","latitude":30.0869,"longitude":78.2676,"temp":17.1,"humidity":88,"rain":0.0,"pressure":970.3,"uv_index":4.4,"wind_gusts":24.5,"aqi":77,"pm10":23.1,"pm2_5":13.6,"mosquito_risk":3,"arthritis_risk":10,"migraine_risk":3,"frizz_risk":0,"updated_at":"2026-04-08T20:43:16.465840+05:30"},{"city":"Nainital","state":"Uttarakhand","latitude":29.3919,"longitude":79.4542,"temp":11.6,"humidity":87,"rain":0.0,"pressure":804.5,"uv_index":6.5,"wind_gusts":55.4,"aqi":69,"pm10":35.0,"pm2_5":20.4,"mosquito_risk":3,"arthritis_risk":10,"migraine_risk":7,"frizz_risk":0,"updated_at":"2026-04-08T20:43:16.465846+05:30"},{"city":"Mussoorie","state":"Uttarakhand","latitude":30.4599,"longitude":78.0664,"temp":9.2,"humidity":84,"rain":0.0,"pressure":800.1,"uv_index":6.6,"wind_gusts":50.0,"aqi":83,"pm10":27.1,"pm2_5":19.0,"mosquito_risk":3,"arthritis_risk":10,"migraine_risk":7,"frizz_risk":0,"updated_at":"2026-04-08T20:43:16.465852+05:30"},{"city":"Dharamshala","state":"Himachal Pradesh","latitude":32.219,"longitude":76.3234,"temp":12.0,"humidity":81,"rain":0.0,"pressure":867.6,"uv_index":5.6,"wind_gusts":32.4,"aqi":90,"pm10":4.9,"pm2_5":4.4,"mosquito_risk":3,"arthritis_risk":10,"migraine_risk":3,"frizz_risk":0,"updated_at":"2026-04-08T20:43:16.465858+05:30"},{"city":"Dalhousie","state":"Himachal Pradesh","latitude":32.5387,"longitude":75.971,"temp":8.7,"humidity":75,"rain":0.0,"pressure":800.2,"uv_index":4.7,"wind_gusts":34.9,"aqi":84,"pm10":30.2,"pm2_5":23.7,"mosquito_risk":3,"arthritis_risk":5,"migraine_risk":3,"frizz_risk":0,"updated_at":"2026-04-08T20:43:16.465864+05:30"},{"city":"Patiala","state":"Punjab","latitude":30.3398,"longitude":76.3869,"temp":17.9,"humidity":87,"rain":0.0,"pressure":981.7,"uv_index":6.65,"wind_gusts":27.7,"aqi":88,"pm10":46.8,"pm2_5":32.7,"mosquito_risk":3,"arthritis_risk":10,"migraine_risk":7,"frizz_risk":0,"updated_at":"2026-04-08T20:43:16.465870+05:30"},{"city":"Bhatinda","state":"Punjab","latitude":30.211,"longitude":74.9455,"temp":21.1,"humidity":57,"rain":0.0,"pressure":986.3,"uv_index":7.45,"wind_gusts":32.0,"aqi":110,"pm10":55.1,"pm2_5":35.0,"mosquito_risk":0,"arthritis_risk":5,"migraine_risk":7,"frizz_risk":0,"updated_at":"2026-04-08T20:43:16.465876+05:30"},{"city":"Rohtak","state":"Haryana","latitude":28.8955,"longitude":76.6066,"temp":20.1,"humidity":70,"rain":0.0,"pressure":984.5,"uv_index":6.95,"wind_gusts":28.1,"aqi":151,"pm10":478.7,"pm2_5":74.7,"mosquito_risk":3,"arthritis_risk":5,"migraine_risk":7,"frizz_risk":0,"updated_at":"2026-04-08T20:43:16.465881+05:30"},{"city":"Panipat","state":"Haryana","latitude":29.3909,"longitude":76.9635,"temp":17.9,"humidity":85,"rain":0.0,"pressure":983.6,"uv_index":6.75,"wind_gusts":30.2,"aqi":123,"pm10":271.0,"pm2_5":51.9,"mosquito_risk":3,"arthritis_risk":10,"migraine_risk":7,"frizz_risk":0,"updated_at":"2026-04-08T20:43:16.465887+05:30"},{"city":"Mathura","state":"Uttar Pradesh","latitude":27.4924,"longitude":77.6737,"temp":21.7,"humidity":70,"rain":0.0,"pressure":989.0,"uv_index":7.25,"wind_gusts":31.3,"aqi":193,"pm10":1374.6,"pm2_5":133.2,"mosquito_risk":3,"arthritis_risk":5,"migraine_risk":7,"frizz_risk":0,"updated_at":"2026-04-08T20:43:16.465892+05:30"},{"city":"Vrindavan","state":"Uttar Pradesh","latitude":27.5823,"longitude":77.7027,"temp":21.1,"humidity":72,"rain":0.0,"pressure":989.5,"uv_index":7.25,"wind_gusts":28.4,"aqi":193,"pm10":1374.6,"pm2_5":133.2,"mosquito_risk":3,"arthritis_risk":5,"migraine_risk":7,"frizz_risk":0,"updated_at":"2026-04-08T20:43:16.465897+05:30"},{"city":"Ayodhya","state":"Uttar Pradesh","latitude":26.7922,"longitude":82.1998,"temp":20.9,"humidity":78,"rain":0.0,"pressure":999.6,"uv_index":7.65,"wind_gusts":35.3,"aqi":89,"pm10":58.1,"pm2_5":39.7,"mosquito_risk":3,"arthritis_risk":5,"migraine_risk":7,"frizz_risk":1,"updated_at":"2026-04-08T20:43:16.465903+05:30"},{"city":"Ratlam","state":"Madhya Pradesh","latitude":23.3315,"longitude":75.0367,"temp":26.0,"humidity":51,"rain":0.0,"pressure":954.6,"uv_index":8.25,"wind_gusts":45.0,"aqi":71,"pm10":31.4,"pm2_5":17.8,"mosquito_risk":4,"arthritis_risk":5,"migraine_risk":7,"frizz_risk":0,"updated_at":"2026-04-08T20:43:16.465909+05:30"},{"city":"Sagar","state":"Madhya Pradesh","latitude":23.8388,"longitude":78.7378,"temp":27.2,"humidity":33,"rain":0.0,"pressure":950.5,"uv_index":7.7,"wind_gusts":47.2,"aqi":71,"pm10":51.6,"pm2_5":22.7,"mosquito_risk":4,"arthritis_risk":5,"migraine_risk":7,"frizz_risk":0,"updated_at":"2026-04-08T20:43:16.465914+05:30"},{"city":"Satna","state":"Madhya Pradesh","latitude":24.6005,"longitude":80.8322,"temp":25.2,"humidity":61,"rain":0.0,"pressure":972.7,"uv_index":8.4,"wind_gusts":37.1,"aqi":74,"pm10":48.4,"pm2_5":22.8,"mosquito_risk":7,"arthritis_risk":5,"migraine_risk":7,"frizz_risk":1,"updated_at":"2026-04-08T20:43:16.465920+05:30"},{"city":"Akola","state":"Maharashtra","latitude":20.7002,"longitude":77.0082,"temp":30.2,"humidity":37,"rain":0.0,"pressure":975.1,"uv_index":8.7,"wind_gusts":40.7,"aqi":69,"pm10":44.9,"pm2_5":21.1,"mosquito_risk":0,"arthritis_risk":5,"migraine_risk":7,"frizz_risk":0,"updated_at":"2026-04-08T20:43:16.465926+05:30"},{"city":"Amravati","state":"Maharashtra","latitude":20.9374,"longitude":77.7796,"temp":28.9,"humidity":34,"rain":0.0,"pressure":966.8,"uv_index":8.7,"wind_gusts":41.0,"aqi":69,"pm10":46.2,"pm2_5":21.1,"mosquito_risk":4,"arthritis_risk":5,"migraine_risk":7,"frizz_risk":0,"updated_at":"2026-04-08T20:43:16.465933+05:30"},{"city":"Latur","state":"Maharashtra","latitude":18.4088,"longitude":76.5604,"temp":28.3,"humidity":42,"rain":0.0,"pressure":939.3,"uv_index":8.95,"wind_gusts":33.5,"aqi":76,"pm10":44.0,"pm2_5":23.1,"mosquito_risk":4,"arthritis_risk":5,"migraine_risk":7,"frizz_risk":0,"updated_at":"2026-04-08T20:43:16.465939+05:30"},{"city":"Nanded","state":"Maharashtra","latitude":19.1383,"longitude":77.3091,"temp":29.5,"humidity":43,"rain":0.0,"pressure":967.8,"uv_index":8.85,"wind_gusts":31.7,"aqi":81,"pm10":61.5,"pm2_5":25.6,"mosquito_risk":4,"arthritis_risk":5,"migraine_risk":7,"frizz_risk":0,"updated_at":"2026-04-08T20:43:16.465944+05:30"},{"city":"Gulbarga","state":"Karnataka","latitude":17.3297,"longitude":76.8343,"temp":33.1,"humidity":24,"rain":0.0,"pressure":958.1,"uv_index":9.0,"wind_gusts":32.4,"aqi":74,"pm10":66.8,"pm2_5":30.6,"mosquito_risk":0,"arthritis_risk":5,"migraine_risk":7,"frizz_risk":0,"updated_at":"2026-04-08T20:43:16.465950+05:30"},{"city":"Bidar","state":"Karnataka","latitude":17.9104,"longitude":77.5199,"temp":30.9,"humidity":29,"rain":0.0,"pressure":935.4,"uv_index":9.0,"wind_gusts":31.7,"aqi":79,"pm10":76.6,"pm2_5":36.8,"mosquito_risk":0,"arthritis_risk":5,"migraine_risk":7,"frizz_risk":0,"updated_at":"2026-04-08T20:43:16.465955+05:30"},{"city":"Hospet","state":"Karnataka","latitude":15.2689,"longitude":76.3909,"temp":32.6,"humidity":38,"rain":0.0,"pressure":955.7,"uv_index":9.2,"wind_gusts":27.0,"aqi":138,"pm10":39.3,"pm2_5":26.4,"mosquito_risk":0,"arthritis_risk":5,"migraine_risk":7,"frizz_risk":1,"updated_at":"2026-04-08T20:43:16.465961+05:30"},{"city":"Tirupur","state":"Tamil Nadu","latitude":11.1085,"longitude":77.3411,"temp":30.2,"humidity":51,"rain":0.0,"pressure":975.3,"uv_index":9.5,"wind_gusts":41.8,"aqi":125,"pm10":21.7,"pm2_5":19.7,"mosquito_risk":0,"arthritis_risk":5,"migraine_risk":7,"frizz_risk":1,"updated_at":"2026-04-08T20:43:16.465966+05:30"},{"city":"Alappuzha","state":"Kerala","latitude":9.4981,"longitude":76.3388,"temp":29.7,"humidity":73,"rain":0.0,"pressure":1010.2,"uv_index":8.9,"wind_gusts":32.0,"aqi":58,"pm10":26.4,"pm2_5":16.8,"mosquito_risk":7,"arthritis_risk":0,"migraine_risk":4,"frizz_risk":1,"updated_at":"2026-04-08T20:43:16.465972+05:30"},{"city":"Munnar","state":"Kerala","latitude":10.0889,"longitude":77.0595,"temp":22.4,"humidity":87,"rain":0.0,"pressure":858.8,"uv_index":9.5,"wind_gusts":37.4,"aqi":65,"pm10":24.2,"pm2_5":21.0,"mosquito_risk":3,"arthritis_risk":5,"migraine_risk":7,"frizz_risk":1,"updated_at":"2026-04-08T20:43:16.465978+05:30"},{"city":"Silchar","state":"Assam","latitude":24.8333,"longitude":92.7789,"temp":25.5,"humidity":71,"rain":0.0,"pressure":1007.3,"uv_index":8.45,"wind_gusts":23.0,"aqi":93,"pm10":56.1,"pm2_5":52.4,"mosquito_risk":7,"arthritis_risk":5,"migraine_risk":4,"frizz_risk":1,"updated_at":"2026-04-08T20:43:16.465983+05:30"},{"city":"Dibrugarh","state":"Assam","latitude":27.4728,"longitude":94.912,"temp":23.1,"humidity":82,"rain":0.0,"pressure":999.5,"uv_index":8.0,"wind_gusts":13.0,"aqi":63,"pm10":47.6,"pm2_5":38.3,"mosquito_risk":3,"arthritis_risk":5,"migraine_risk":7,"frizz_risk":1,"updated_at":"2026-04-08T20:43:16.465989+05:30"}]