[{"city":"Delhi","state":"Delhi","latitude":28.6139,"longitude":77.209,"temp":28.3,"humidity":79,"rain":0.0,"pressure":976.4,"uv_index":6.95,"wind_gusts":37.8,"aqi":89,"pm10":35.6,"pm2_5":27.2,"no2":19.3,"co":457.0,"o3":69.0,"so2":21.0,"mosquito_risk":7,"arthritis_risk":5,"migraine_risk":7,"frizz_risk":1,"updated_at":"2026-07-23T08:26:36.837247+05:30"},{"city":"Mumbai","state":"Maharashtra","latitude":19.076,"longitude":72.8777,"temp":26.6,"humidity":87,"rain":0.2,"pressure":1003.1,"uv_index":1.05,"wind_gusts":69.8,"aqi":53,"pm10":26.0,"pm2_5":12.0,"no2":7.1,"co":190.0,"o3":37.0,"so2":4.0,"mosquito_risk":10,"arthritis_risk":5,"migraine_risk":0,"frizz_risk":1,"updated_at":"2026-07-23T08:26:36.837298+05:30"},{"city":"Bangalore","state":"Karnataka","latitude":12.9716,"longitude":77.5946,"temp":22.3,"humidity":82,"rain":0.0,"pressure":911.9,"uv_index":9.1,"wind_gusts":52.2,"aqi":34,"pm10":12.9,"pm2_5":7.5,"no2":9.9,"co":378.0,"o3":25.0,"so2":5.1,"mosquito_risk":3,"arthritis_risk":5,"migraine_risk":7,"frizz_risk":1,"updated_at":"2026-07-23T08:26:36.837314+05:30"},{"city":"Hyderabad","state":"Telangana","latitude":17.385,"longitude":78.4867,"temp":24.4,"humidity":80,"rain":0.0,"pressure":951.1,"uv_index":8.2,"wind_gusts":58.7,"aqi":38,"pm10":9.6,"pm2_5":6.2,"no2":6.1,"co":226.0,"o3":36.0,"so2":4.6,"mosquito_risk":3,"arthritis_risk":5,"migraine_risk":7,"frizz_risk":1,"updated_at":"2026-07-23T08:26:36.837324+05:30"},{"city":"Chennai","state":"Tamil Nadu","latitude":13.0827,"longitude":80.2707,"temp":29.4,"humidity":77,"rain":0.0,"pressure":1007.1,"uv_index":8.95,"wind_gusts":37.4,"aqi":76,"pm10":28.8,"pm2_5":23.2,"no2":20.8,"co":418.0,"o3":42.0,"so2":14.3,"mosquito_risk":7,"arthritis_risk":5,"migraine_risk":4,"frizz_risk":1,"updated_at":"2026-07-23T08:26:36.837331+05:30"},{"city":"Kolkata","state":"West Bengal","latitude":22.5726,"longitude":88.3639,"temp":26.5,"humidity":94,"rain":0.1,"pressure":1003.0,"uv_index":1.85,"wind_gusts":38.5,"aqi":57,"pm10":18.6,"pm2_5":16.5,"no2":11.5,"co":452.0,"o3":55.0,"so2":7.9,"mosquito_risk":10,"arthritis_risk":5,"migraine_risk":0,"frizz_risk":1,"updated_at":"2026-07-23T08:26:36.837338+05:30"},{"city":"Pune","state":"Maharashtra","latitude":18.5204,"longitude":73.8567,"temp":21.3,"humidity":90,"rain":0.2,"pressure":942.1,"uv_index":1.4,"wind_gusts":59.4,"aqi":27,"pm10":5.0,"pm2_5":2.9,"no2":5.2,"co":159.0,"o3":40.0,"so2":2.6,"mosquito_risk":6,"arthritis_risk":5,"migraine_risk":3,"frizz_risk":1,"updated_at":"2026-07-23T08:26:36.837345+05:30"},{"city":"Ahmedabad","state":"Gujarat","latitude":23.0225,"longitude":72.5714,"temp":26.3,"humidity":95,"rain":0.2,"pressure":992.7,"uv_index":3.8,"wind_gusts":45.0,"aqi":59,"pm10":18.0,"pm2_5":9.8,"no2":10.9,"co":183.0,"o3":32.0,"so2":4.1,"mosquito_risk":10,"arthritis_risk":5,"migraine_risk":3,"frizz_risk":1,"updated_at":"2026-07-23T08:26:36.837351+05:30"},{"city":"Jaipur","state":"Rajasthan","latitude":26.9124,"longitude":75.7873,"temp":26.8,"humidity":83,"rain":0.0,"pressure":952.0,"uv_index":7.95,"wind_gusts":35.3,"aqi":52,"pm10":14.3,"pm2_5":13.4,"no2":9.5,"co":300.0,"o3":88.0,"so2":7.5,"mosquito_risk":7,"arthritis_risk":5,"migraine_risk":7,"frizz_risk":1,"updated_at":"2026-07-23T08:26:36.837357+05:30"},{"city":"Lucknow","state":"Uttar Pradesh","latitude":26.8467,"longitude":80.9462,"temp":27.6,"humidity":84,"rain":0.1,"pressure":986.8,"uv_index":5.05,"wind_gusts":51.1,"aqi":73,"pm10":19.1,"pm2_5":19.0,"no2":8.0,"co":289.0,"o3":72.0,"so2":8.9,"mosquito_risk":10,"arthritis_risk":5,"migraine_risk":3,"frizz_risk":1,"updated_at":"2026-07-23T08:26:36.837366+05:30"},{"city":"Kanpur","state":"Uttar Pradesh","latitude":26.4499,"longitude":80.3319,"temp":27.7,"humidity":84,"rain":0.0,"pressure":984.5,"uv_index":5.85,"wind_gusts":45.0,"aqi":71,"pm10":15.3,"pm2_5":15.3,"no2":8.4,"co":284.0,"o3":74.0,"so2":10.6,"mosquito_risk":7,"arthritis_risk":5,"migraine_risk":3,"frizz_risk":1,"updated_at":"2026-07-23T08:26:36.837372+05:30"},{"city":"Chandigarh","state":"Chandigarh","latitude":30.7333,"longitude":76.7794,"temp":28.8,"humidity":70,"rain":0.0,"pressure":963.9,"uv_index":7.15,"wind_gusts":36.4,"aqi":80,"pm10":17.2,"pm2_5":17.1,"no2":13.6,"co":294.0,"o3":74.0,"so2":7.5,"mosquito_risk":7,"arthritis_risk":5,"migraine_risk":7,"frizz_risk":1,"updated_at":"2026-07-23T08:26:36.837378+05:30"},{"city":"Srinagar","state":"Jammu and Kashmir","latitude":34.0837,"longitude":74.7973,"temp":18.3,"humidity":92,"rain":0.0,"pressure":839.6,"uv_index":8.75,"wind_gusts":20.5,"aqi":69,"pm10":13.0,"pm2_5":12.8,"no2":15.2,"co":370.0,"o3":49.0,"so2":2.8,"mosquito_risk":3,"arthritis_risk":10,"migraine_risk":7,"frizz_risk":1,"updated_at":"2026-07-23T08:26:36.837384+05:30"},{"city":"Jammu","state":"Jammu and Kashmir","latitude":32.7266,"longitude":74.857,"temp":24.9,"humidity":93,"rain":0.3,"pressure":968.1,"uv_index":8.1,"wind_gusts":38.5,"aqi":78,"pm10":28.1,"pm2_5":27.3,"no2":24.1,"co":231.0,"o3":38.0,"so2":2.4,"mosquito_risk":6,"arthritis_risk":5,"migraine_risk":7,"frizz_risk":1,"updated_at":"2026-07-23T08:26:36.837390+05:30"},{"city":"Amritsar","state":"Punjab","latitude":31.634,"longitude":74.8723,"temp":25.2,"humidity":96,"rain":0.4,"pressure":975.9,"uv_index":5.85,"wind_gusts":23.4,"aqi":91,"pm10":24.6,"pm2_5":24.4,"no2":17.7,"co":406.0,"o3":49.0,"so2":3.4,"mosquito_risk":10,"arthritis_risk":5,"migraine_risk":3,"frizz_risk":1,"updated_at":"2026-07-23T08:26:36.837395+05:30"},{"city":"Ludhiana","state":"Punjab","latitude":30.901,"longitude":75.8573,"temp":28.0,"humidity":89,"rain":0.0,"pressure":973.3,"uv_index":7.2,"wind_gusts":33.5,"aqi":125,"pm10":45.3,"pm2_5":43.9,"no2":30.8,"co":468.0,"o3":28.0,"so2":10.0,"mosquito_risk":7,"arthritis_risk":5,"migraine_risk":7,"frizz_risk":1,"updated_at":"2026-07-23T08:26:36.837400+05:30"},{"city":"Jalandhar","state":"Punjab","latitude":31.326,"longitude":75.5762,"temp":26.0,"humidity":91,"rain":0.1,"pressure":974.5,"uv_index":7.2,"wind_gusts":29.5,"aqi":113,"pm10":45.8,"pm2_5":45.2,"no2":28.9,"co":429.0,"o3":27.0,"so2":6.9,"mosquito_risk":10,"arthritis_risk":5,"migraine_risk":7,"frizz_risk":1,"updated_at":"2026-07-23T08:26:36.837405+05:30"},{"city":"Dehradun","state":"Uttarakhand","latitude":30.6284,"longitude":78.0322,"temp":19.6,"humidity":89,"rain":0.0,"pressure":828.2,"uv_index":8.0,"wind_gusts":25.6,"aqi":41,"pm10":9.2,"pm2_5":9.1,"no2":11.2,"co":199.0,"o3":76.0,"so2":1.2,"mosquito_risk":3,"arthritis_risk":10,"migraine_risk":7,"frizz_risk":1,"updated_at":"2026-07-23T08:26:36.837411+05:30"},{"city":"Shimla","state":"Himachal Pradesh","latitude":31.1048,"longitude":77.1734,"temp":17.8,"humidity":85,"rain":0.0,"pressure":782.9,"uv_index":6.55,"wind_gusts":26.6,"aqi":51,"pm10":8.5,"pm2_5":8.3,"no2":8.5,"co":214.0,"o3":73.0,"so2":2.1,"mosquito_risk":3,"arthritis_risk":10,"migraine_risk":7,"frizz_risk":0,"updated_at":"2026-07-23T08:26:36.837417+05:30"},{"city":"Manali","state":"Himachal Pradesh","latitude":32.2396,"longitude":77.1887,"temp":20.9,"humidity":90,"rain":0.0,"pressure":817.1,"uv_index":8.1,"wind_gusts":23.0,"aqi":24,"pm10":2.0,"pm2_5":1.9,"no2":11.1,"co":239.0,"o3":58.0,"so2":1.0,"mosquito_risk":3,"arthritis_risk":5,"migraine_risk":7,"frizz_risk":1,"updated_at":"2026-07-23T08:26:36.837439+05:30"},{"city":"Gurgaon","state":"Haryana","latitude":28.4595,"longitude":77.0266,"temp":28.6,"humidity":77,"rain":0.0,"pressure":974.7,"uv_index":6.05,"wind_gusts":39.2,"aqi":91,"pm10":40.3,"pm2_5":28.2,"no2":17.5,"co":387.0,"o3":69.0,"so2":16.0,"mosquito_risk":7,"arthritis_risk":5,"migraine_risk":7,"frizz_risk":1,"updated_at":"2026-07-23T08:26:36.837447+05:30"},{"city":"Noida","state":"Uttar Pradesh","latitude":28.5355,"longitude":77.391,"temp":28.9,"humidity":78,"rain":0.0,"pressure":978.1,"uv_index":7.1,"wind_gusts":37.1,"aqi":91,"pm10":40.3,"pm2_5":28.2,"no2":17.5,"co":363.0,"o3":69.0,"so2":16.0,"mosquito_risk":7,"arthritis_risk":5,"migraine_risk":7,"frizz_risk":1,"updated_at":"2026-07-23T08:26:36.837453+05:30"},{"city":"Ghaziabad","state":"Uttar Pradesh","latitude":28.6692,"longitude":77.4538,"temp":28.7,"humidity":79,"rain":0.0,"pressure":976.4,"uv_index":7.05,"wind_gusts":41.0,"aqi":70,"pm10":22.2,"pm2_5":22.0,"no2":9.8,"co":301.0,"o3":79.0,"so2":10.4,"mosquito_risk":7,"arthritis_risk":5,"migraine_risk":7,"frizz_risk":1,"updated_at":"2026-07-23T08:26:36.837469+05:30"},{"city":"Faridabad","state":"Haryana","latitude":28.4089,"longitude":77.3178,"temp":28.4,"humidity":80,"rain":0.0,"pressure":977.2,"uv_index":6.85,"wind_gusts":40.0,"aqi":91,"pm10":40.3,"pm2_5":28.2,"no2":17.5,"co":354.0,"o3":69.0,"so2":16.0,"mosquito_risk":7,"arthritis_risk":5,"migraine_risk":7,"frizz_risk":1,"updated_at":"2026-07-23T08:26:36.837476+05:30"},{"city":"Meerut","state":"Uttar Pradesh","latitude":28.9845,"longitude":77.7064,"temp":28.5,"humidity":79,"rain":0.0,"pressure":975.6,"uv_index":6.85,"wind_gusts":48.2,"aqi":70,"pm10":22.2,"pm2_5":22.0,"no2":9.8,"co":306.0,"o3":79.0,"so2":10.4,"mosquito_risk":7,"arthritis_risk":5,"migraine_risk":7,"frizz_risk":1,"updated_at":"2026-07-23T08:26:36.837482+05:30"},{"city":"Agra","state":"Uttar Pradesh","latitude":27.1767,"longitude":78.0081,"temp":28.5,"humidity":79,"rain":0.0,"pressure":980.4,"uv_index":6.8,"wind_gusts":38.9,"aqi":68,"pm10":19.0,"pm2_5":18.5,"no2":9.4,"co":319.0,"o3":83.0,"so2":8.7,"mosquito_risk":7,"arthritis_risk":5,"migraine_risk":7,"frizz_risk":1,"updated_at":"2026-07-23T08:26:36.837488+05:30"},{"city":"Varanasi","state":"Uttar Pradesh","latitude":25.3176,"longitude":82.9739,"temp":28.7,"humidity":83,"rain":0.0,"pressure":991.1,"uv_index":6.75,"wind_gusts":38.9,"aqi":71,"pm10":13.6,"pm2_5":13.5,"no2":16.8,"co":542.0,"o3":42.0,"so2":24.8,"mosquito_risk":7,"arthritis_risk":5,"migraine_risk":7,"frizz_risk":1,"updated_at":"2026-07-23T08:26:36.837494+05:30"},{"city":"Prayagraj","state":"Uttar Pradesh","latitude":25.4358,"longitude":81.8463,"temp":28.5,"humidity":83,"rain":0.0,"pressure":988.8,"uv_index":7.85,"wind_gusts":34.6,"aqi":69,"pm10":16.6,"pm2_5":16.6,"no2":12.3,"co":271.0,"o3":58.0,"so2":17.5,"mosquito_risk":7,"arthritis_risk":5,"migraine_risk":7,"frizz_risk":1,"updated_at":"2026-07-23T08:26:36.837499+05:30"},{"city":"Gorakhpur","state":"Uttar Pradesh","latitude":26.7606,"longitude":83.3732,"temp":27.9,"humidity":82,"rain":0.0,"pressure":992.1,"uv_index":8.0,"wind_gusts":47.5,"aqi":67,"pm10":19.9,"pm2_5":19.8,"no2":7.8,"co":280.0,"o3":69.0,"so2":9.0,"mosquito_risk":7,"arthritis_risk":5,"migraine_risk":7,"frizz_risk":1,"updated_at":"2026-07-23T08:26:36.837506+05:30"},{"city":"Bareilly","state":"Uttar Pradesh","latitude":28.367,"longitude":79.4304,"temp":28.9,"humidity":76,"rain":0.0,"pressure":981.1,"uv_index":7.6,"wind_gusts":49.7,"aqi":65,"pm10":17.9,"pm2_5":17.8,"no2":7.3,"co":282.0,"o3":76.0,"so2":6.5,"mosquito_risk":7,"arthritis_risk":5,"migraine_risk":7,"frizz_risk":1,"updated_at":"2026-07-23T08:26:36.837513+05:30"},{"city":"Aligarh","state":"Uttar Pradesh","latitude":27.8974,"longitude":78.088,"temp":27.6,"humidity":82,"rain":0.0,"pressure":979.0,"uv_index":7.45,"wind_gusts":42.1,"aqi":71,"pm10":17.0,"pm2_5":16.9,"no2":8.1,"co":285.0,"o3":82.0,"so2":8.4,"mosquito_risk":7,"arthritis_risk":5,"migraine_risk":7,"frizz_risk":1,"updated_at":"2026-07-23T08:26:36.837519+05:30"},{"city":"Moradabad","state":"Uttar Pradesh","latitude":28.8386,"longitude":78.7733,"temp":28.9,"humidity":77,"rain":0.0,"pressure":978.1,"uv_index":5.95,"wind_gusts":51.8,"aqi":64,"pm10":21.0,"pm2_5":20.9,"no2":8.1,"co":272.0,"o3":80.0,"so2":8.1,"mosquito_risk":7,"arthritis_risk":5,"migraine_risk":3,"frizz_risk":1,"updated_at":"2026-07-23T08:26:36.837524+05:30"},{"city":"Saharanpur","state":"Uttar Pradesh","latitude":29.9637,"longitude":77.546,"temp":28.2,"humidity":79,"rain":0.0,"pressure":970.6,"uv_index":7.2,"wind_gusts":36.7,"aqi":71,"pm10":21.5,"pm2_5":20.7,"no2":10.2,"co":331.0,"o3":78.0,"so2":6.6,"mosquito_risk":7,"arthritis_risk":5,"migraine_risk":7,"frizz_risk":1,"updated_at":"2026-07-23T08:26:36.837529+05:30"},{"city":"Jhansi","state":"Uttar Pradesh","latitude":25.4484,"longitude":78.5685,"temp":27.4,"humidity":87,"rain":0.0,"pressure":969.8,"uv_index":7.2,"wind_gusts":27.7,"aqi":59,"pm10":15.6,"pm2_5":15.5,"no2":7.8,"co":241.0,"o3":84.0,"so2":9.6,"mosquito_risk":7,"arthritis_risk":5,"migraine_risk":7,"frizz_risk":1,"updated_at":"2026-07-23T08:26:40.218243+05:30"},{"city":"Surat","state":"Gujarat","latitude":21.1702,"longitude":72.8311,"temp":26.0,"humidity":93,"rain":0.8,"pressure":997.3,"uv_index":1.1,"wind_gusts":54.0,"aqi":73,"pm10":23.3,"pm2_5":17.1,"no2":24.9,"co":329.0,"o3":20.0,"so2":40.7,"mosquito_risk":10,"arthritis_risk":5,"migraine_risk":3,"frizz_risk":1,"updated_at":"2026-07-23T08:26:40.218277+05:30"},{"city":"Vadodara","state":"Gujarat","latitude":22.3072,"longitude":73.1812,"temp":25.4,"humidity":99,"rain":0.2,"pressure":995.0,"uv_index":0.55,"wind_gusts":53.3,"aqi":61,"pm10":17.8,"pm2_5":11.4,"no2":9.9,"co":183.0,"o3":30.0,"so2":5.7,"mosquito_risk":10,"arthritis_risk":5,"migraine_risk":3,"frizz_risk":1,"updated_at":"2026-07-23T08:26:40.218284+05:30"},{"city":"Rajkot","state":"Gujarat","latitude":22.3039,"longitude":70.8022,"temp":27.2,"humidity":83,"rain":0.0,"pressure":985.7,"uv_index":1.2,"wind_gusts":50.4,"aqi":59,"pm10":17.7,"pm2_5":8.1,"no2":4.7,"co":107.0,"o3":36.0,"so2":4.2,"mosquito_risk":7,"arthritis_risk":5,"migraine_risk":3,"frizz_risk":1,"updated_at":"2026-07-23T08:26:40.218291+05:30"},{"city":"Thane","state":"Maharashtra","latitude":19.2183,"longitude":72.9781,"temp":25.6,"humidity":94,"rain":0.4,"pressure":1002.3,"uv_index":1.1,"wind_gusts":52.9,"aqi":53,"pm10":26.0,"pm2_5":12.0,"no2":7.1,"co":180.0,"o3":37.0,"so2":4.0,"mosquito_risk":10,"arthritis_risk":5,"migraine_risk":0,"frizz_risk":1,"updated_at":"2026-07-23T08:26:40.218298+05:30"},{"city":"Nagpur","state":"Maharashtra","latitude":21.1458,"longitude":79.0882,"temp":24.0,"humidity":90,"rain":0.1,"pressure":967.9,"uv_index":3.35,"wind_gusts":54.7,"aqi":37,"pm10":11.9,"pm2_5":9.4,"no2":9.2,"co":176.0,"o3":31.0,"so2":8.6,"mosquito_risk":6,"arthritis_risk":5,"migraine_risk":3,"frizz_risk":1,"updated_at":"2026-07-23T08:26:40.218304+05:30"},{"city":"Nashik","state":"Maharashtra","latitude":19.9975,"longitude":73.7898,"temp":21.7,"humidity":96,"rain":2.2,"pressure":936.9,"uv_index":0.95,"wind_gusts":75.6,"aqi":15,"pm10":0.8,"pm2_5":0.8,"no2":5.9,"co":120.0,"o3":33.0,"so2":2.7,"mosquito_risk":6,"arthritis_risk":5,"migraine_risk":3,"frizz_risk":1,"updated_at":"2026-07-23T08:26:40.218309+05:30"},{"city":"Aurangabad","state":"Maharashtra","latitude":19.8762,"longitude":75.3433,"temp":23.0,"humidity":81,"rain":0.0,"pressure":937.5,"uv_index":3.15,"wind_gusts":72.0,"aqi":17,"pm10":1.5,"pm2_5":1.5,"no2":4.9,"co":142.0,"o3":34.0,"so2":2.1,"mosquito_risk":3,"arthritis_risk":5,"migraine_risk":3,"frizz_risk":1,"updated_at":"2026-07-23T08:26:40.218315+05:30"},{"city":"Solapur","state":"Maharashtra","latitude":17.6599,"longitude":75.9064,"temp":25.0,"humidity":73,"rain":0.0,"pressure":954.4,"uv_index":4.6,"wind_gusts":65.9,"aqi":37,"pm10":27.8,"pm2_5":13.0,"no2":3.2,"co":117.0,"o3":51.0,"so2":2.0,"mosquito_risk":7,"arthritis_risk":5,"migraine_risk":3,"frizz_risk":1,"updated_at":"2026-07-23T08:26:40.218320+05:30"},{"city":"Kolhapur","state":"Maharashtra","latitude":16.705,"longitude":74.2433,"temp":21.1,"humidity":88,"rain":0.0,"pressure":945.5,"uv_index":4.55,"wind_gusts":57.2,"aqi":35,"pm10":48.8,"pm2_5":21.1,"no2":4.1,"co":141.0,"o3":47.0,"so2":1.8,"mosquito_risk":3,"arthritis_risk":5,"migraine_risk":3,"frizz_risk":1,"updated_at":"2026-07-23T08:26:40.218326+05:30"},{"city":"Goa","state":"Goa","latitude":15.2993,"longitude":74.124,"temp":25.2,"humidity":98,"rain":0.0,"pressure":997.9,"uv_index":1.8,"wind_gusts":45.0,"aqi":57,"pm10":33.4,"pm2_5":15.5,"no2":1.9,"co":238.0,"o3":41.0,"so2":0.7,"mosquito_risk":7,"arthritis_risk":5,"migraine_risk":3,"frizz_risk":1,"updated_at":"2026-07-23T08:26:40.218332+05:30"},{"city":"Jodhpur","state":"Rajasthan","latitude":26.2389,"longitude":73.0243,"temp":27.7,"humidity":86,"rain":0.0,"pressure":974.3,"uv_index":8.15,"wind_gusts":28.4,"aqi":87,"pm10":34.7,"pm2_5":15.3,"no2":6.5,"co":192.0,"o3":75.0,"so2":2.0,"mosquito_risk":7,"arthritis_risk":5,"migraine_risk":7,"frizz_risk":1,"updated_at":"2026-07-23T08:26:40.218338+05:30"},{"city":"Udaipur","state":"Rajasthan","latitude":24.5854,"longitude":73.7125,"temp":24.1,"humidity":96,"rain":0.1,"pressure":937.0,"uv_index":8.65,"wind_gusts":31.0,"aqi":45,"pm10":4.7,"pm2_5":3.9,"no2":8.5,"co":167.0,"o3":35.0,"so2":2.5,"mosquito_risk":6,"arthritis_risk":5,"migraine_risk":7,"frizz_risk":1,"updated_at":"2026-07-23T08:26:40.218343+05:30"},{"city":"Kota","state":"Rajasthan","latitude":25.2138,"longitude":75.8648,"temp":27.5,"humidity":83,"rain":0.0,"pressure":969.8,"uv_index":7.4,"wind_gusts":25.9,"aqi":64,"pm10":23.4,"pm2_5":21.3,"no2":13.6,"co":259.0,"o3":67.0,"so2":16.1,"mosquito_risk":7,"arthritis_risk":5,"migraine_risk":7,"frizz_risk":1,"updated_at":"2026-07-23T08:26:40.218349+05:30"},{"city":"Bikaner","state":"Rajasthan","latitude":28.0229,"longitude":73.3119,"temp":28.5,"humidity":81,"rain":0.0,"pressure":974.0,"uv_index":5.5,"wind_gusts":32.8,"aqi":71,"pm10":4.8,"pm2_5":4.2,"no2":3.6,"co":250.0,"o3":99.0,"so2":3.2,"mosquito_risk":7,"arthritis_risk":5,"migraine_risk":3,"frizz_risk":1,"updated_at":"2026-07-23T08:26:40.218354+05:30"},{"city":"Ajmer","state":"Rajasthan","latitude":26.4499,"longitude":74.6399,"temp":26.1,"humidity":85,"rain":0.0,"pressure":946.3,"uv_index":8.2,"wind_gusts":34.2,"aqi":60,"pm10":9.5,"pm2_5":9.0,"no2":5.9,"co":289.0,"o3":90.0,"so2":3.8,"mosquito_risk":7,"arthritis_risk":5,"migraine_risk":7,"frizz_risk":1,"updated_at":"2026-07-23T08:26:40.218360+05:30"},{"city":"Gwalior","state":"Madhya Pradesh","latitude":26.2183,"longitude":78.1828,"temp":27.6,"humidity":83,"rain":0.0,"pressure":975.2,"uv_index":6.7,"wind_gusts":31.0,"aqi":56,"pm10":17.1,"pm2_5":16.2,"no2":6.0,"co":316.0,"o3":92.0,"so2":9.6,"mosquito_risk":7,"arthritis_risk":5,"migraine_risk":7,"frizz_risk":1,"updated_at":"2026-07-23T08:26:40.218365+05:30"},{"city":"Indore","state":"Madhya Pradesh","latitude":22.7196,"longitude":75.8577,"temp":24.8,"humidity":88,"rain":0.0,"pressure":939.5,"uv_index":4.5,"wind_gusts":38.2,"aqi":49,"pm10":6.7,"pm2_5":6.2,"no2":10.3,"co":245.0,"o3":40.0,"so2":9.5,"mosquito_risk":3,"arthritis_risk":5,"migraine_risk":3,"frizz_risk":1,"updated_at":"2026-07-23T08:26:40.218370+05:30"},{"city":"Bhopal","state":"Madhya Pradesh","latitude":23.2599,"longitude":77.4126,"temp":23.6,"humidity":94,"rain":0.3,"pressure":945.3,"uv_index":1.25,"wind_gusts":42.8,"aqi":42,"pm10":5.0,"pm2_5":4.8,"no2":6.7,"co":271.0,"o3":50.0,"so2":5.3,"mosquito_risk":6,"arthritis_risk":5,"migraine_risk":3,"frizz_risk":1,"updated_at":"2026-07-23T08:26:40.218375+05:30"},{"city":"Jabalpur","state":"Madhya Pradesh","latitude":23.1815,"longitude":79.9864,"temp":24.9,"humidity":94,"rain":0.0,"pressure":954.3,"uv_index":0.95,"wind_gusts":37.1,"aqi":33,"pm10":4.0,"pm2_5":4.0,"no2":8.1,"co":185.0,"o3":34.0,"so2":3.9,"mosquito_risk":3,"arthritis_risk":5,"migraine_risk":3,"frizz_risk":1,"updated_at":"2026-07-23T08:26:40.218380+05:30"},{"city":"Ujjain","state":"Madhya Pradesh","latitude":23.1765,"longitude":75.7885,"temp":24.5,"humidity":94,"rain":0.0,"pressure":944.9,"uv_index":2.9,"wind_gusts":29.5,"aqi":45,"pm10":6.0,"pm2_5":5.3,"no2":5.7,"co":237.0,"o3":58.0,"so2":4.8,"mosquito_risk":3,"arthritis_risk":5,"migraine_risk":3,"frizz_risk":1,"updated_at":"2026-07-23T08:26:40.218386+05:30"},{"city":"Visakhapatnam","state":"Andhra Pradesh","latitude":17.6868,"longitude":83.2185,"temp":28.1,"humidity":74,"rain":0.0,"pressure":1002.2,"uv_index":8.05,"wind_gusts":45.4,"aqi":69,"pm10":23.4,"pm2_5":18.3,"no2":20.4,"co":301.0,"o3":28.0,"so2":37.2,"mosquito_risk":7,"arthritis_risk":5,"migraine_risk":4,"frizz_risk":1,"updated_at":"2026-07-23T08:26:40.218391+05:30"},{"city":"Vijayawada","state":"Andhra Pradesh","latitude":16.5062,"longitude":80.648,"temp":30.0,"humidity":67,"rain":0.0,"pressure":1001.4,"uv_index":8.0,"wind_gusts":39.6,"aqi":57,"pm10":16.9,"pm2_5":11.6,"no2":7.3,"co":158.0,"o3":36.0,"so2":7.4,"mosquito_risk":7,"arthritis_risk":5,"migraine_risk":4,"frizz_risk":1,"updated_at":"2026-07-23T08:26:40.218396+05:30"},{"city":"Guntur","state":"Andhra Pradesh","latitude":16.3067,"longitude":80.4365,"temp":30.7,"humidity":58,"rain":0.0,"pressure":1002.7,"uv_index":8.15,"wind_gusts":43.9,"aqi":54,"pm10":15.2,"pm2_5":10.3,"no2":7.3,"co":149.0,"o3":34.0,"so2":7.2,"mosquito_risk":0,"arthritis_risk":5,"migraine_risk":4,"frizz_risk":1,"updated_at":"2026-07-23T08:26:40.218402+05:30"},{"city":"Nellore","state":"Andhra Pradesh","latitude":14.4426,"longitude":79.9865,"temp":31.2,"humidity":55,"rain":0.0,"pressure":1005.4,"uv_index":8.95,"wind_gusts":34.2,"aqi":57,"pm10":19.4,"pm2_5":14.1,"no2":10.9,"co":217.0,"o3":34.0,"so2":5.1,"mosquito_risk":0,"arthritis_risk":5,"migraine_risk":4,"frizz_risk":1,"updated_at":"2026-07-23T08:26:40.218408+05:30"},{"city":"Kurnool","state":"Andhra Pradesh","latitude":15.8281,"longitude":78.0373,"temp":27.5,"humidity":67,"rain":0.0,"pressure":976.2,"uv_index":7.65,"wind_gusts":58.0,"aqi":38,"pm10":11.2,"pm2_5":5.6,"no2":4.3,"co":115.0,"o3":34.0,"so2":3.7,"mosquito_risk":7,"arthritis_risk":5,"migraine_risk":7,"frizz_risk":1,"updated_at":"2026-07-23T08:26:40.218414+05:30"},{"city":"Kakinada","state":"Andhra Pradesh","latitude":16.9891,"longitude":82.2475,"temp":29.1,"humidity":74,"rain":0.0,"pressure":1006.3,"uv_index":8.65,"wind_gusts":43.6,"aqi":65,"pm10":20.0,"pm2_5":12.2,"no2":9.0,"co":179.0,"o3":36.0,"so2":8.5,"mosquito_risk":7,"arthritis_risk":5,"migraine_risk":4,"frizz_risk":1,"updated_at":"2026-07-23T08:26:40.218419+05:30"},{"city":"Tirupati","state":"Andhra Pradesh","latitude":13.6288,"longitude":79.4192,"temp":28.5,"humidity":62,"rain":0.0,"pressure":991.1,"uv_index":8.95,"wind_gusts":37.1,"aqi":60,"pm10":20.5,"pm2_5":17.8,"no2":17.1,"co":167.0,"o3":24.0,"so2":3.8,"mosquito_risk":7,"arthritis_risk":5,"migraine_risk":7,"frizz_risk":1,"updated_at":"2026-07-23T08:26:40.218423+05:30"},{"city":"Warangal","state":"Telangana","latitude":17.9689,"longitude":79.5941,"temp":26.2,"humidity":75,"rain":0.0,"pressure":976.6,"uv_index":7.1,"wind_gusts":50.8,"aqi":51,"pm10":11.7,"pm2_5":9.5,"no2":7.1,"co":159.0,"o3":34.0,"so2":4.8,"mosquito_risk":7,"arthritis_risk":5,"migraine_risk":7,"frizz_risk":1,"updated_at":"2026-07-23T08:26:40.218428+05:30"},{"city":"Nizamabad","state":"Telangana","latitude":18.6725,"longitude":78.0941,"temp":23.6,"humidity":88,"rain":0.1,"pressure":961.4,"uv_index":6.15,"wind_gusts":61.6,"aqi":43,"pm10":18.0,"pm2_5":10.1,"no2":3.7,"co":140.0,"o3":48.0,"so2":2.0,"mosquito_risk":6,"arthritis_risk":5,"migraine_risk":7,"frizz_risk":1,"updated_at":"2026-07-23T08:26:40.218433+05:30"},{"city":"Mysore","state":"Karnataka","latitude":12.2958,"longitude":76.6396,"temp":23.8,"humidity":77,"rain":0.0,"pressure":929.1,"uv_index":8.75,"wind_gusts":51.1,"aqi":26,"pm10":11.3,"pm2_5":5.8,"no2":4.8,"co":130.0,"o3":33.0,"so2":2.0,"mosquito_risk":3,"arthritis_risk":5,"migraine_risk":7,"frizz_risk":1,"updated_at":"2026-07-23T08:26:40.218438+05:30"},{"city":"Mangalore","state":"Karnataka","latitude":12.9141,"longitude":74.856,"temp":24.6,"humidity":94,"rain":0.0,"pressure":1008.1,"uv_index":8.55,"wind_gusts":40.3,"aqi":52,"pm10":17.5,"pm2_5":10.9,"no2":6.3,"co":168.0,"o3":26.0,"so2":2.9,"mosquito_risk":3,"arthritis_risk":0,"migraine_risk":4,"frizz_risk":1,"updated_at":"2026-07-23T08:26:40.218443+05:30"},{"city":"Hubli-Dharwad","state":"Karnataka","latitude":15.3647,"longitude":75.124,"temp":21.8,"humidity":96,"rain":0.1,"pressure":939.6,"uv_index":6.9,"wind_gusts":60.1,"aqi":17,"pm10":1.8,"pm2_5":1.5,"no2":3.5,"co":115.0,"o3":36.0,"so2":1.0,"mosquito_risk":6,"arthritis_risk":5,"migraine_risk":7,"frizz_risk":1,"updated_at":"2026-07-23T08:26:40.218449+05:30"},{"city":"Belgaum","state":"Karnataka","latitude":15.8497,"longitude":74.4977,"temp":21.4,"humidity":88,"rain":0.0,"pressure":924.2,"uv_index":3.5,"wind_gusts":56.2,"aqi":19,"pm10":6.5,"pm2_5":3.6,"no2":3.5,"co":126.0,"o3":40.0,"so2":1.3,"mosquito_risk":3,"arthritis_risk":5,"migraine_risk":3,"frizz_risk":1,"updated_at":"2026-07-23T08:26:43.596432+05:30"},{"city":"Coimbatore","state":"Tamil Nadu","latitude":11.0168,"longitude":76.9558,"temp":25.2,"humidity":79,"rain":0.0,"pressure":962.3,"uv_index":8.95,"wind_gusts":52.6,"aqi":35,"pm10":16.6,"pm2_5":8.6,"no2":5.7,"co":195.0,"o3":34.0,"so2":3.4,"mosquito_risk":7,"arthritis_risk":5,"migraine_risk":7,"frizz_risk":1,"updated_at":"2026-07-23T08:26:43.596501+05:30"},{"city":"Madurai","state":"Tamil Nadu","latitude":9.9252,"longitude":78.1198,"temp":30.3,"humidity":55,"rain":0.0,"pressure":993.3,"uv_index":7.7,"wind_gusts":28.8,"aqi":66,"pm10":18.6,"pm2_5":15.1,"no2":14.9,"co":176.0,"o3":35.0,"so2":6.4,"mosquito_risk":0,"arthritis_risk":5,"migraine_risk":7,"frizz_risk":1,"updated_at":"2026-07-23T08:26:43.596512+05:30"},{"city":"Trichy","state":"Tamil Nadu","latitude":10.7905,"longitude":78.7047,"temp":30.1,"humidity":60,"rain":0.0,"pressure":1000.0,"uv_index":6.9,"wind_gusts":49.0,"aqi":57,"pm10":12.8,"pm2_5":8.2,"no2":6.8,"co":125.0,"o3":29.0,"so2":4.0,"mosquito_risk":0,"arthritis_risk":5,"migraine_risk":4,"frizz_risk":1,"updated_at":"2026-07-23T08:26:43.596519+05:30"},{"city":"Salem","state":"Tamil Nadu","latitude":11.6643,"longitude":78.146,"temp":27.2,"humidity":76,"rain":0.0,"pressure":978.0,"uv_index":8.9,"wind_gusts":35.3,"aqi":68,"pm10":22.7,"pm2_5":18.3,"no2":21.0,"co":281.0,"o3":24.0,"so2":14.5,"mosquito_risk":7,"arthritis_risk":5,"migraine_risk":7,"frizz_risk":1,"updated_at":"2026-07-23T08:26:43.596526+05:30"},{"city":"Tirunelveli","state":"Tamil Nadu","latitude":8.7139,"longitude":77.7567,"temp":31.0,"humidity":56,"rain":0.0,"pressure":1003.5,"uv_index":7.85,"wind_gusts":50.8,"aqi":44,"pm10":9.9,"pm2_5":7.5,"no2":4.8,"co":136.0,"o3":37.0,"so2":2.3,"mosquito_risk":0,"arthritis_risk":5,"migraine_risk":4,"frizz_risk":1,"updated_at":"2026-07-23T08:26:43.596532+05:30"},{"city":"Vellore","state":"Tamil Nadu","latitude":12.9165,"longitude":79.1325,"temp":28.4,"humidity":60,"rain":0.0,"pressure":984.6,"uv_index":9.0,"wind_gusts":36.4,"aqi":62,"pm10":18.1,"pm2_5":13.1,"no2":10.4,"co":149.0,"o3":30.0,"so2":4.5,"mosquito_risk":4,"arthritis_risk":5,"migraine_risk":7,"frizz_risk":1,"updated_at":"2026-07-23T08:26:43.596538+05:30"},{"city":"Erode","state":"Tamil Nadu","latitude":11.341,"longitude":77.7172,"temp":28.5,"humidity":65,"rain":0.0,"pressure":989.9,"uv_index":8.9,"wind_gusts":38.2,"aqi":56,"pm10":20.5,"pm2_5":15.8,"no2":12.9,"co":192.0,"o3":25.0,"so2":5.1,"mosquito_risk":7,"arthritis_risk":5,"migraine_risk":7,"frizz_risk":1,"updated_at":"2026-07-23T08:26:43.596544+05:30"},{"city":"Kochi","state":"Kerala","latitude":9.9312,"longitude":76.2673,"temp":25.6,"humidity":90,"rain":0.1,"pressure":1010.4,"uv_index":8.45,"wind_gusts":30.6,"aqi":55,"pm10":14.3,"pm2_5":11.8,"no2":12.0,"co":219.0,"o3":28.0,"so2":6.6,"mosquito_risk":10,"arthritis_risk":0,"migraine_risk":4,"frizz_risk":1,"updated_at":"2026-07-23T08:26:43.596551+05:30"},{"city":"Thiruvananthapuram","state":"Kerala","latitude":8.5241,"longitude":76.9366,"temp":26.8,"humidity":84,"rain":0.0,"pressure":1009.3,"uv_index":8.3,"wind_gusts":41.4,"aqi":51,"pm10":12.4,"pm2_5":8.6,"no2":6.2,"co":193.0,"o3":37.0,"so2":4.4,"mosquito_risk":7,"arthritis_risk":0,"migraine_risk":4,"frizz_risk":1,"updated_at":"2026-07-23T08:26:43.596556+05:30"},{"city":"Kozhikode","state":"Kerala","latitude":11.2588,"longitude":75.7804,"temp":25.4,"humidity":93,"rain":0.1,"pressure":1009.6,"uv_index":7.65,"wind_gusts":30.6,"aqi":35,"pm10":11.4,"pm2_5":5.6,"no2":2.8,"co":228.0,"o3":39.0,"so2":2.2,"mosquito_risk":10,"arthritis_risk":0,"migraine_risk":4,"frizz_risk":1,"updated_at":"2026-07-23T08:26:43.596562+05:30"},{"city":"Thrissur","state":"Kerala","latitude":10.5276,"longitude":76.2144,"temp":25.3,"humidity":94,"rain":0.0,"pressure":1008.7,"uv_index":8.7,"wind_gusts":33.8,"aqi":55,"pm10":12.1,"pm2_5":9.5,"no2":8.6,"co":239.0,"o3":30.0,"so2":4.6,"mosquito_risk":7,"arthritis_risk":0,"migraine_risk":4,"frizz_risk":1,"updated_at":"2026-07-23T08:26:43.596568+05:30"},{"city":"Kannur","state":"Kerala","latitude":11.8745,"longitude":75.3704,"temp":24.9,"humidity":94,"rain":0.0,"pressure":1008.7,"uv_index":8.65,"wind_gusts":38.9,"aqi":46,"pm10":11.7,"pm2_5":7.0,"no2":6.6,"co":185.0,"o3":28.0,"so2":3.0,"mosquito_risk":3,"arthritis_risk":0,"migraine_risk":4,"frizz_risk":1,"updated_at":"2026-07-23T08:26:43.596574+05:30"},{"city":"Patna","state":"Bihar","latitude":25.5941,"longitude":85.1376,"temp":28.5,"humidity":83,"rain":0.0,"pressure":995.8,"uv_index":6.35,"wind_gusts":40.7,"aqi":66,"pm10":18.4,"pm2_5":18.3,"no2":15.1,"co":356.0,"o3":51.0,"so2":23.5,"mosquito_risk":7,"arthritis_risk":5,"migraine_risk":7,"frizz_risk":1,"updated_at":"2026-07-23T08:26:43.596579+05:30"},{"city":"Gaya","state":"Bihar","latitude":24.7914,"longitude":85.0002,"temp":29.0,"humidity":74,"rain":0.0,"pressure":988.8,"uv_index":7.95,"wind_gusts":28.4,"aqi":58,"pm10":10.8,"pm2_5":10.5,"no2":11.7,"co":224.0,"o3":45.0,"so2":14.7,"mosquito_risk":7,"arthritis_risk":5,"migraine_risk":7,"frizz_risk":1,"updated_at":"2026-07-23T08:26:43.596585+05:30"},{"city":"Muzaffarpur","state":"Bihar","latitude":26.1209,"longitude":85.3647,"temp":27.8,"humidity":83,"rain":0.1,"pressure":996.5,"uv_index":5.85,"wind_gusts":43.2,"aqi":65,"pm10":18.2,"pm2_5":18.1,"no2":12.1,"co":274.0,"o3":59.0,"so2":18.0,"mosquito_risk":10,"arthritis_risk":5,"migraine_risk":3,"frizz_risk":1,"updated_at":"2026-07-23T08:26:43.596591+05:30"},{"city":"Bhagalpur","state":"Bihar","latitude":25.2425,"longitude":87.0117,"temp":28.2,"humidity":82,"rain":0.0,"pressure":997.7,"uv_index":7.25,"wind_gusts":32.8,"aqi":60,"pm10":16.4,"pm2_5":16.2,"no2":14.1,"co":306.0,"o3":48.0,"so2":22.5,"mosquito_risk":7,"arthritis_risk":5,"migraine_risk":7,"frizz_risk":1,"updated_at":"2026-07-23T08:26:43.596597+05:30"},{"city":"Ranchi","state":"Jharkhand","latitude":23.3441,"longitude":85.3096,"temp":23.5,"humidity":90,"rain":0.0,"pressure":933.5,"uv_index":4.05,"wind_gusts":45.7,"aqi":28,"pm10":2.2,"pm2_5":2.2,"no2":7.8,"co":168.0,"o3":36.0,"so2":8.1,"mosquito_risk":3,"arthritis_risk":5,"migraine_risk":3,"frizz_risk":1,"updated_at":"2026-07-23T08:26:43.596603+05:30"},{"city":"Jamshedpur","state":"Jharkhand","latitude":22.8046,"longitude":86.2029,"temp":26.6,"humidity":85,"rain":0.0,"pressure":987.3,"uv_index":4.35,"wind_gusts":27.0,"aqi":60,"pm10":17.5,"pm2_5":15.9,"no2":20.6,"co":251.0,"o3":25.0,"so2":23.9,"mosquito_risk":7,"arthritis_risk":5,"migraine_risk":3,"frizz_risk":1,"updated_at":"2026-07-23T08:26:43.596609+05:30"},{"city":"Dhanbad","state":"Jharkhand","latitude":23.7957,"longitude":86.4304,"temp":27.3,"humidity":81,"rain":0.0,"pressure":976.0,"uv_index":7.95,"wind_gusts":31.3,"aqi":83,"pm10":30.2,"pm2_5":29.2,"no2":32.3,"co":1001.0,"o3":21.0,"so2":96.9,"mosquito_risk":7,"arthritis_risk":5,"migraine_risk":7,"frizz_risk":1,"updated_at":"2026-07-23T08:26:43.596614+05:30"},{"city":"Bokaro","state":"Jharkhand","latitude":23.6693,"longitude":86.1511,"temp":27.7,"humidity":79,"rain":0.0,"pressure":979.7,"uv_index":6.05,"wind_gusts":32.4,"aqi":73,"pm10":23.0,"pm2_5":21.9,"no2":24.4,"co":260.0,"o3":25.0,"so2":76.5,"mosquito_risk":7,"arthritis_risk":5,"migraine_risk":7,"frizz_risk":1,"updated_at":"2026-07-23T08:26:43.596620+05:30"},{"city":"Bhubaneswar","state":"Odisha","latitude":20.2961,"longitude":85.8245,"temp":27.7,"humidity":86,"rain":0.0,"pressure":999.7,"uv_index":9.0,"wind_gusts":43.9,"aqi":70,"pm10":28.8,"pm2_5":21.8,"no2":8.8,"co":351.0,"o3":57.0,"so2":9.2,"mosquito_risk":7,"arthritis_risk":5,"migraine_risk":7,"frizz_risk":1,"updated_at":"2026-07-23T08:26:43.596626+05:30"},{"city":"Cuttack","state":"Odisha","latitude":20.4625,"longitude":85.8828,"temp":27.5,"humidity":88,"rain":0.0,"pressure":1001.5,"uv_index":7.95,"wind_gusts":39.2,"aqi":70,"pm10":28.8,"pm2_5":21.8,"no2":8.8,"co":378.0,"o3":57.0,"so2":9.2,"mosquito_risk":7,"arthritis_risk":5,"migraine_risk":4,"frizz_risk":1,"updated_at":"2026-07-23T08:26:43.596631+05:30"},{"city":"Rourkela","state":"Odisha","latitude":22.2604,"longitude":84.8536,"temp":25.3,"humidity":93,"rain":0.1,"pressure":981.2,"uv_index":5.7,"wind_gusts":40.3,"aqi":35,"pm10":7.5,"pm2_5":6.3,"no2":7.7,"co":268.0,"o3":39.0,"so2":4.9,"mosquito_risk":10,"arthritis_risk":5,"migraine_risk":3,"frizz_risk":1,"updated_at":"2026-07-23T08:26:43.596637+05:30"},{"city":"Raipur","state":"Chhattisgarh","latitude":21.2514,"longitude":81.6296,"temp":23.7,"humidity":95,"rain":0.4,"pressure":970.3,"uv_index":2.25,"wind_gusts":56.5,"aqi":55,"pm10":21.6,"pm2_5":15.2,"no2":15.5,"co":207.0,"o3":29.0,"so2":29.6,"mosquito_risk":6,"arthritis_risk":5,"migraine_risk":3,"frizz_risk":1,"updated_at":"2026-07-23T08:26:43.596643+05:30"},{"city":"Bhilai","state":"Chhattisgarh","latitude":21.1938,"longitude":81.3509,"temp":23.4,"humidity":95,"rain":0.1,"pressure":970.7,"uv_index":1.5,"wind_gusts":58.3,"aqi":53,"pm10":21.1,"pm2_5":14.6,"no2":14.8,"co":348.0,"o3":30.0,"so2":27.5,"mosquito_risk":6,"arthritis_risk":5,"migraine_risk":3,"frizz_risk":1,"updated_at":"2026-07-23T08:26:43.596648+05:30"},{"city":"Guwahati","state":"Assam","latitude":26.1158,"longitude":91.7086,"temp":27.7,"humidity":85,"rain":0.0,"pressure":999.6,"uv_index":6.75,"wind_gusts":19.8,"aqi":43,"pm10":10.8,"pm2_5":10.0,"no2":5.1,"co":228.0,"o3":56.0,"so2":2.1,"mosquito_risk":7,"arthritis_risk":5,"migraine_risk":7,"frizz_risk":1,"updated_at":"2026-07-23T08:26:43.596654+05:30"},{"city":"Agartala","state":"Tripura","latitude":23.8315,"longitude":91.2868,"temp":26.2,"humidity":95,"rain":0.0,"pressure":1004.8,"uv_index":8.05,"wind_gusts":34.2,"aqi":41,"pm10":7.1,"pm2_5":6.4,"no2":7.0,"co":178.0,"o3":59.0,"so2":2.3,"mosquito_risk":7,"arthritis_risk":5,"migraine_risk":4,"frizz_risk":1,"updated_at":"2026-07-23T08:26:43.596660+05:30"},{"city":"Shillong","state":"Meghalaya","latitude":25.5788,"longitude":91.8933,"temp":21.3,"humidity":89,"rain":0.0,"pressure":856.6,"uv_index":5.8,"wind_gusts":25.2,"aqi":21,"pm10":2.8,"pm2_5":2.6,"no2":3.8,"co":169.0,"o3":57.0,"so2":2.5,"mosquito_risk":3,"arthritis_risk":5,"migraine_risk":3,"frizz_risk":1,"updated_at":"2026-07-23T08:26:43.596665+05:30"},{"city":"Imphal","state":"Manipur","latitude":24.817,"longitude":93.9368,"temp":24.9,"humidity":85,"rain":0.0,"pressure":922.4,"uv_index":8.15,"wind_gusts":24.5,"aqi":40,"pm10":5.2,"pm2_5":4.6,"no2":3.1,"co":255.0,"o3":65.0,"so2":1.6,"mosquito_risk":3,"arthritis_risk":5,"migraine_risk":7,"frizz_risk":1,"updated_at":"2026-07-23T08:26:43.596671+05:30"},{"city":"Aizawl","state":"Mizoram","latitude":23.7271,"longitude":92.7176,"temp":22.3,"humidity":80,"rain":0.0,"pressure":892.0,"uv_index":7.55,"wind_gusts":36.7,"aqi":21,"pm10":1.5,"pm2_5":1.4,"no2":1.8,"co":123.0,"o3":57.0,"so2":0.8,"mosquito_risk":3,"arthritis_risk":5,"migraine_risk":7,"frizz_risk":1,"updated_at":"2026-07-23T08:26:43.596676+05:30"},{"city":"Kohima","state":"Nagaland","latitude":25.6701,"longitude":94.1077,"temp":22.8,"humidity":84,"rain":0.0,"pressure":855.5,"uv_index":8.75,"wind_gusts":28.8,"aqi":22,"pm10":2.6,"pm2_5":2.4,"no2":2.3,"co":177.0,"o3":60.0,"so2":0.6,"mosquito_risk":3,"arthritis_risk":5,"migraine_risk":7,"frizz_risk":1,"updated_at":"2026-07-23T08:26:43.596682+05:30"},{"city":"Gangtok","state":"Sikkim","latitude":27.3314,"longitude":88.6138,"temp":19.3,"humidity":93,"rain":0.1,"pressure":837.2,"uv_index":6.05,"wind_gusts":33.5,"aqi":39,"pm10":9.5,"pm2_5":9.3,"no2":5.3,"co":210.0,"o3":69.0,"so2":1.0,"mosquito_risk":6,"arthritis_risk":10,"migraine_risk":7,"frizz_risk":1,"updated_at":"2026-07-23T08:26:43.596687+05:30"},{"city":"Siliguri","state":"West Bengal","latitude":26.7271,"longitude":88.3953,"temp":27.8,"humidity":83,"rain":0.0,"pressure":991.0,"uv_index":8.0,"wind_gusts":27.7,"aqi":61,"pm10":13.0,"pm2_5":12.4,"no2":6.8,"co":268.0,"o3":79.0,"so2":3.1,"mosquito_risk":7,"arthritis_risk":5,"migraine_risk":7,"frizz_risk":1,"updated_at":"2026-07-23T08:26:46.986087+05:30"},{"city":"Durgapur","state":"West Bengal","latitude":23.5204,"longitude":87.3119,"temp":27.1,"humidity":90,"rain":0.1,"pressure":991.7,"uv_index":8.1,"wind_gusts":40.0,"aqi":67,"pm10":17.9,"pm2_5":17.1,"no2":23.1,"co":683.0,"o3":36.0,"so2":46.2,"mosquito_risk":10,"arthritis_risk":5,"migraine_risk":7,"frizz_risk":1,"updated_at":"2026-07-23T08:26:46.986120+05:30"},{"city":"Asansol","state":"West Bengal","latitude":23.6739,"longitude":86.9524,"temp":27.9,"humidity":87,"rain":0.0,"pressure":989.9,"uv_index":7.9,"wind_gusts":38.9,"aqi":63,"pm10":16.4,"pm2_5":15.5,"no2":26.2,"co":243.0,"o3":30.0,"so2":52.1,"mosquito_risk":7,"arthritis_risk":5,"migraine_risk":7,"frizz_risk":1,"updated_at":"2026-07-23T08:26:46.986129+05:30"},{"city":"Pondicherry","state":"Puducherry","latitude":11.9139,"longitude":79.8145,"temp":30.2,"humidity":69,"rain":0.0,"pressure":1008.3,"uv_index":8.8,"wind_gusts":40.0,"aqi":71,"pm10":20.8,"pm2_5":15.1,"no2":12.3,"co":252.0,"o3":46.0,"so2":11.9,"mosquito_risk":3,"arthritis_risk":0,"migraine_risk":4,"frizz_risk":1,"updated_at":"2026-07-23T08:26:46.986137+05:30"},{"city":"Port Blair","state":"Andaman and Nicobar Islands","latitude":11.6234,"longitude":92.7265,"temp":28.2,"humidity":81,"rain":0.0,"pressure":1009.6,"uv_index":8.35,"wind_gusts":38.2,"aqi":45,"pm10":10.0,"pm2_5":5.6,"no2":0.3,"co":99.0,"o3":51.0,"so2":0.4,"mosquito_risk":7,"arthritis_risk":0,"migraine_risk":4,"frizz_risk":1,"updated_at":"2026-07-23T08:26:46.986144+05:30"},{"city":"Haridwar","state":"Uttarakhand","latitude":29.9457,"longitude":78.1642,"temp":29.1,"humidity":74,"rain":0.0,"pressure":969.3,"uv_index":6.7,"wind_gusts":26.6,"aqi":67,"pm10":15.6,"pm2_5":15.3,"no2":8.1,"co":257.0,"o3":84.0,"so2":5.5,"mosquito_risk":7,"arthritis_risk":5,"migraine_risk":7,"frizz_risk":1,"updated_at":"2026-07-23T08:26:46.986150+05:30"},{"city":"Rishikesh","state":"Uttarakhand","latitude":30.0869,"longitude":78.2676,"temp":27.5,"humidity":82,"rain":0.0,"pressure":962.1,"uv_index":7.35,"wind_gusts":20.5,"aqi":51,"pm10":10.1,"pm2_5":10.0,"no2":4.3,"co":263.0,"o3":91.0,"so2":4.1,"mosquito_risk":7,"arthritis_risk":5,"migraine_risk":7,"frizz_risk":1,"updated_at":"2026-07-23T08:26:46.986156+05:30"},{"city":"Nainital","state":"Uttarakhand","latitude":29.3919,"longitude":79.4542,"temp":19.9,"humidity":76,"rain":0.1,"pressure":804.2,"uv_index":7.15,"wind_gusts":38.9,"aqi":45,"pm10":9.1,"pm2_5":9.0,"no2":4.2,"co":206.0,"o3":86.0,"so2":2.0,"mosquito_risk":6,"arthritis_risk":5,"migraine_risk":7,"frizz_risk":0,"updated_at":"2026-07-23T08:26:46.986162+05:30"},{"city":"Mussoorie","state":"Uttarakhand","latitude":30.4599,"longitude":78.0664,"temp":18.8,"humidity":85,"rain":0.0,"pressure":801.3,"uv_index":7.0,"wind_gusts":30.2,"aqi":56,"pm10":8.7,"pm2_5":8.7,"no2":7.7,"co":195.0,"o3":85.0,"so2":2.7,"mosquito_risk":3,"arthritis_risk":10,"migraine_risk":7,"frizz_risk":1,"updated_at":"2026-07-23T08:26:46.986168+05:30"},{"city":"Dharamshala","state":"Himachal Pradesh","latitude":32.219,"longitude":76.3234,"temp":21.7,"humidity":94,"rain":0.1,"pressure":866.4,"uv_index":7.45,"wind_gusts":27.7,"aqi":49,"pm10":9.7,"pm2_5":9.6,"no2":10.9,"co":226.0,"o3":61.0,"so2":0.8,"mosquito_risk":6,"arthritis_risk":5,"migraine_risk":7,"frizz_risk":1,"updated_at":"2026-07-23T08:26:46.986174+05:30"},{"city":"Dalhousie","state":"Himachal Pradesh","latitude":32.5387,"longitude":75.971,"temp":16.9,"humidity":99,"rain":0.0,"pressure":802.6,"uv_index":2.1,"wind_gusts":22.7,"aqi":63,"pm10":11.3,"pm2_5":10.9,"no2":16.6,"co":247.0,"o3":67.0,"so2":1.8,"mosquito_risk":3,"arthritis_risk":10,"migraine_risk":3,"frizz_risk":1,"updated_at":"2026-07-23T08:26:46.986181+05:30"},{"city":"Patiala","state":"Punjab","latitude":30.3398,"longitude":76.3869,"temp":28.6,"humidity":78,"rain":0.0,"pressure":972.6,"uv_index":7.5,"wind_gusts":40.3,"aqi":79,"pm10":71.9,"pm2_5":27.5,"no2":13.7,"co":364.0,"o3":68.0,"so2":10.2,"mosquito_risk":7,"arthritis_risk":5,"migraine_risk":7,"frizz_risk":1,"updated_at":"2026-07-23T08:26:46.986186+05:30"},{"city":"Bhatinda","state":"Punjab","latitude":30.211,"longitude":74.9455,"temp":27.5,"humidity":92,"rain":0.1,"pressure":977.5,"uv_index":7.25,"wind_gusts":32.4,"aqi":99,"pm10":23.1,"pm2_5":22.9,"no2":18.9,"co":385.0,"o3":52.0,"so2":3.3,"mosquito_risk":10,"arthritis_risk":5,"migraine_risk":7,"frizz_risk":1,"updated_at":"2026-07-23T08:26:46.986192+05:30"},{"city":"Rohtak","state":"Haryana","latitude":28.8955,"longitude":76.6066,"temp":28.8,"humidity":77,"rain":0.0,"pressure":975.3,"uv_index":5.55,"wind_gusts":41.0,"aqi":96,"pm10":65.7,"pm2_5":33.2,"no2":19.7,"co":349.0,"o3":65.0,"so2":21.0,"mosquito_risk":7,"arthritis_risk":5,"migraine_risk":3,"frizz_risk":1,"updated_at":"2026-07-23T08:26:46.986197+05:30"},{"city":"Panipat","state":"Haryana","latitude":29.3909,"longitude":76.9635,"temp":28.4,"humidity":79,"rain":0.0,"pressure":974.5,"uv_index":7.35,"wind_gusts":45.0,"aqi":85,"pm10":1825.4,"pm2_5":194.2,"no2":14.3,"co":300.0,"o3":70.0,"so2":15.4,"mosquito_risk":7,"arthritis_risk":5,"migraine_risk":7,"frizz_risk":1,"updated_at":"2026-07-23T08:26:46.986203+05:30"},{"city":"Mathura","state":"Uttar Pradesh","latitude":27.4924,"longitude":77.6737,"temp":28.2,"humidity":82,"rain":0.0,"pressure":979.7,"uv_index":7.15,"wind_gusts":38.2,"aqi":86,"pm10":22.2,"pm2_5":21.5,"no2":9.1,"co":300.0,"o3":83.0,"so2":5.9,"mosquito_risk":7,"arthritis_risk":5,"migraine_risk":7,"frizz_risk":1,"updated_at":"2026-07-23T08:26:46.986208+05:30"},{"city":"Vrindavan","state":"Uttar Pradesh","latitude":27.5823,"longitude":77.7027,"temp":28.2,"humidity":82,"rain":0.1,"pressure":980.1,"uv_index":7.15,"wind_gusts":37.8,"aqi":86,"pm10":22.2,"pm2_5":21.5,"no2":9.1,"co":298.0,"o3":83.0,"so2":5.9,"mosquito_risk":10,"arthritis_risk":5,"migraine_risk":7,"frizz_risk":1,"updated_at":"2026-07-23T08:26:46.986214+05:30"},{"city":"Ayodhya","state":"Uttar Pradesh","latitude":26.7922,"longitude":82.1998,"temp":27.6,"humidity":84,"rain":0.1,"pressure":989.4,"uv_index":6.55,"wind_gusts":46.4,"aqi":71,"pm10":21.1,"pm2_5":21.0,"no2":8.1,"co":299.0,"o3":67.0,"so2":9.1,"mosquito_risk":10,"arthritis_risk":5,"migraine_risk":7,"frizz_risk":1,"updated_at":"2026-07-23T08:26:46.986219+05:30"},{"city":"Ratlam","state":"Madhya Pradesh","latitude":23.3315,"longitude":75.0367,"temp":23.8,"humidity":96,"rain":0.1,"pressure":945.5,"uv_index":7.2,"wind_gusts":33.5,"aqi":43,"pm10":4.8,"pm2_5":4.0,"no2":5.1,"co":171.0,"o3":57.0,"so2":4.1,"mosquito_risk":6,"arthritis_risk":5,"migraine_risk":7,"frizz_risk":1,"updated_at":"2026-07-23T08:26:46.986225+05:30"},{"city":"Sagar","state":"Madhya Pradesh","latitude":23.8388,"longitude":78.7378,"temp":23.4,"humidity":96,"rain":0.4,"pressure":942.0,"uv_index":3.0,"wind_gusts":36.4,"aqi":40,"pm10":5.9,"pm2_5":5.6,"no2":5.6,"co":176.0,"o3":62.0,"so2":2.6,"mosquito_risk":6,"arthritis_risk":5,"migraine_risk":3,"frizz_risk":1,"updated_at":"2026-07-23T08:26:46.986231+05:30"},{"city":"Satna","state":"Madhya Pradesh","latitude":24.6005,"longitude":80.8322,"temp":26.4,"humidity":85,"rain":0.0,"pressure":963.8,"uv_index":2.85,"wind_gusts":38.5,"aqi":62,"pm10":10.3,"pm2_5":10.2,"no2":7.8,"co":212.0,"o3":62.0,"so2":6.7,"mosquito_risk":7,"arthritis_risk":5,"migraine_risk":3,"frizz_risk":1,"updated_at":"2026-07-23T08:26:46.986236+05:30"},{"city":"Akola","state":"Maharashtra","latitude":20.7002,"longitude":77.0082,"temp":25.4,"humidity":80,"rain":0.1,"pressure":968.9,"uv_index":2.8,"wind_gusts":65.2,"aqi":22,"pm10":3.0,"pm2_5":2.6,"no2":5.3,"co":133.0,"o3":35.0,"so2":2.1,"mosquito_risk":10,"arthritis_risk":5,"migraine_risk":3,"frizz_risk":1,"updated_at":"2026-07-23T08:26:46.986243+05:30"},{"city":"Amravati","state":"Maharashtra","latitude":20.9374,"longitude":77.7796,"temp":23.2,"humidity":93,"rain":0.2,"pressure":961.6,"uv_index":5.1,"wind_gusts":64.1,"aqi":24,"pm10":4.4,"pm2_5":3.3,"no2":5.6,"co":130.0,"o3":35.0,"so2":2.6,"mosquito_risk":6,"arthritis_risk":5,"migraine_risk":3,"frizz_risk":1,"updated_at":"2026-07-23T08:26:46.986250+05:30"},{"city":"Latur","state":"Maharashtra","latitude":18.4088,"longitude":76.5604,"temp":24.0,"humidity":76,"rain":0.0,"pressure":935.8,"uv_index":4.7,"wind_gusts":65.5,"aqi":40,"pm10":39.6,"pm2_5":17.9,"no2":3.2,"co":117.0,"o3":56.0,"so2":1.5,"mosquito_risk":3,"arthritis_risk":5,"migraine_risk":3,"frizz_risk":1,"updated_at":"2026-07-23T08:26:46.986256+05:30"},{"city":"Nanded","state":"Maharashtra","latitude":19.1383,"longitude":77.3091,"temp":24.3,"humidity":80,"rain":0.0,"pressure":964.6,"uv_index":5.15,"wind_gusts":58.0,"aqi":45,"pm10":28.3,"pm2_5":14.1,"no2":4.1,"co":149.0,"o3":53.0,"so2":3.0,"mosquito_risk":3,"arthritis_risk":5,"migraine_risk":3,"frizz_risk":1,"updated_at":"2026-07-23T08:26:46.986262+05:30"},{"city":"Gulbarga","state":"Karnataka","latitude":17.3297,"longitude":76.8343,"temp":25.0,"humidity":76,"rain":0.0,"pressure":956.4,"uv_index":5.9,"wind_gusts":63.7,"aqi":33,"pm10":9.8,"pm2_5":5.9,"no2":4.2,"co":126.0,"o3":42.0,"so2":2.5,"mosquito_risk":7,"arthritis_risk":5,"migraine_risk":3,"frizz_risk":1,"updated_at":"2026-07-23T08:26:46.986268+05:30"},{"city":"Bidar","state":"Karnataka","latitude":17.9104,"longitude":77.5199,"temp":24.4,"humidity":78,"rain":0.0,"pressure":932.5,"uv_index":7.55,"wind_gusts":68.4,"aqi":36,"pm10":14.9,"pm2_5":7.9,"no2":4.1,"co":123.0,"o3":46.0,"so2":2.3,"mosquito_risk":3,"arthritis_risk":5,"migraine_risk":7,"frizz_risk":1,"updated_at":"2026-07-23T08:26:46.986273+05:30"},{"city":"Hospet","state":"Karnataka","latitude":15.2689,"longitude":76.3909,"temp":24.4,"humidity":80,"rain":0.0,"pressure":955.0,"uv_index":7.05,"wind_gusts":58.7,"aqi":20,"pm10":3.0,"pm2_5":2.1,"no2":2.9,"co":112.0,"o3":34.0,"so2":1.5,"mosquito_risk":3,"arthritis_risk":5,"migraine_risk":7,"frizz_risk":1,"updated_at":"2026-07-23T08:26:46.986279+05:30"},{"city":"Tirupur","state":"Tamil Nadu","latitude":11.1085,"longitude":77.3411,"temp":26.5,"humidity":75,"rain":0.0,"pressure":976.0,"uv_index":8.95,"wind_gusts":55.8,"aqi":58,"pm10":22.8,"pm2_5":17.5,"no2":14.0,"co":161.0,"o3":26.0,"so2":6.1,"mosquito_risk":7,"arthritis_risk":5,"migraine_risk":7,"frizz_risk":1,"updated_at":"2026-07-23T08:26:46.986284+05:30"},{"city":"Alappuzha","state":"Kerala","latitude":9.4981,"longitude":76.3388,"temp":26.4,"humidity":92,"rain":0.0,"pressure":1010.2,"uv_index":7.1,"wind_gusts":32.4,"aqi":57,"pm10":18.5,"pm2_5":13.4,"no2":10.1,"co":179.0,"o3":34.0,"so2":5.7,"mosquito_risk":7,"arthritis_risk":0,"migraine_risk":4,"frizz_risk":1,"updated_at":"2026-07-23T08:26:46.986290+05:30"},{"city":"Munnar","state":"Kerala","latitude":10.0889,"longitude":77.0595,"temp":18.6,"humidity":86,"rain":0.0,"pressure":857.8,"uv_index":7.8,"wind_gusts":37.8,"aqi":33,"pm10":9.8,"pm2_5":6.5,"no2":4.2,"co":102.0,"o3":33.0,"so2":1.2,"mosquito_risk":3,"arthritis_risk":10,"migraine_risk":7,"frizz_risk":1,"updated_at":"2026-07-23T08:26:46.986295+05:30"},{"city":"Silchar","state":"Assam","latitude":24.8333,"longitude":92.7789,"temp":27.4,"humidity":87,"rain":0.0,"pressure":1003.9,"uv_index":4.05,"wind_gusts":24.1,"aqi":55,"pm10":10.3,"pm2_5":9.2,"no2":3.9,"co":204.0,"o3":67.0,"so2":3.3,"mosquito_risk":7,"arthritis_risk":5,"migraine_risk":0,"frizz_risk":1,"updated_at":"2026-07-23T08:26:46.986300+05:30"},{"city":"Dibrugarh","state":"Assam","latitude":27.4728,"longitude":94.912,"temp":26.2,"humidity":90,"rain":0.1,"pressure":994.3,"uv_index":8.2,"wind_gusts":22.7,"aqi":52,"pm10":5.4,"pm2_5":5.2,"no2":3.6,"co":185.0,"o3":76.0,"so2":0.9,"mosquito_risk":10,"arthritis_risk":5,"migraine_risk":7,"frizz_risk":1,"updated_at":"2026-07-23T08:26:46.986306+05:30"}]