[{"city":"Delhi","state":"Delhi","latitude":28.6139,"longitude":77.209,"temp":39.2,"humidity":16,"rain":0.0,"pressure":976.4,"uv_index":7.7,"wind_gusts":41.8,"aqi":564,"pm10":601.6,"pm2_5":139.7,"no2":37.6,"co":377.0,"o3":76.0,"so2":18.0,"mosquito_risk":0,"arthritis_risk":5,"migraine_risk":10,"frizz_risk":0,"updated_at":"2026-05-25T19:40:33.045611+05:30"},{"city":"Mumbai","state":"Maharashtra","latitude":19.076,"longitude":72.8777,"temp":30.5,"humidity":74,"rain":0.0,"pressure":1007.9,"uv_index":7.8,"wind_gusts":44.3,"aqi":52,"pm10":17.6,"pm2_5":12.1,"no2":7.0,"co":240.0,"o3":48.0,"so2":4.5,"mosquito_risk":3,"arthritis_risk":5,"migraine_risk":4,"frizz_risk":1,"updated_at":"2026-05-25T19:40:33.045649+05:30"},{"city":"Bangalore","state":"Karnataka","latitude":12.9716,"longitude":77.5946,"temp":23.5,"humidity":89,"rain":0.0,"pressure":912.5,"uv_index":6.6,"wind_gusts":35.3,"aqi":61,"pm10":29.0,"pm2_5":26.1,"no2":35.7,"co":714.0,"o3":63.0,"so2":7.4,"mosquito_risk":3,"arthritis_risk":5,"migraine_risk":7,"frizz_risk":1,"updated_at":"2026-05-25T19:40:33.045664+05:30"},{"city":"Hyderabad","state":"Telangana","latitude":17.385,"longitude":78.4867,"temp":33.3,"humidity":42,"rain":0.0,"pressure":951.9,"uv_index":9.2,"wind_gusts":36.0,"aqi":92,"pm10":72.2,"pm2_5":45.2,"no2":32.8,"co":451.0,"o3":75.0,"so2":10.0,"mosquito_risk":0,"arthritis_risk":5,"migraine_risk":7,"frizz_risk":1,"updated_at":"2026-05-25T19:40:33.045675+05:30"},{"city":"Chennai","state":"Tamil Nadu","latitude":13.0827,"longitude":80.2707,"temp":34.4,"humidity":53,"rain":0.0,"pressure":1004.9,"uv_index":9.0,"wind_gusts":43.9,"aqi":150,"pm10":29.3,"pm2_5":23.8,"no2":8.6,"co":342.0,"o3":131.0,"so2":8.0,"mosquito_risk":0,"arthritis_risk":5,"migraine_risk":4,"frizz_risk":1,"updated_at":"2026-05-25T19:40:33.045684+05:30"},{"city":"Kolkata","state":"West Bengal","latitude":22.5726,"longitude":88.3639,"temp":30.5,"humidity":80,"rain":0.0,"pressure":1002.1,"uv_index":8.95,"wind_gusts":51.8,"aqi":101,"pm10":44.1,"pm2_5":37.7,"no2":6.5,"co":309.0,"o3":84.0,"so2":6.0,"mosquito_risk":3,"arthritis_risk":5,"migraine_risk":4,"frizz_risk":1,"updated_at":"2026-05-25T19:40:33.045693+05:30"},{"city":"Pune","state":"Maharashtra","latitude":18.5204,"longitude":73.8567,"temp":27.8,"humidity":73,"rain":0.0,"pressure":948.0,"uv_index":8.4,"wind_gusts":43.9,"aqi":64,"pm10":15.7,"pm2_5":13.5,"no2":9.9,"co":221.0,"o3":90.0,"so2":10.4,"mosquito_risk":7,"arthritis_risk":5,"migraine_risk":7,"frizz_risk":1,"updated_at":"2026-05-25T19:40:33.045701+05:30"},{"city":"Ahmedabad","state":"Gujarat","latitude":23.0225,"longitude":72.5714,"temp":38.0,"humidity":35,"rain":0.0,"pressure":997.9,"uv_index":8.15,"wind_gusts":34.6,"aqi":65,"pm10":69.8,"pm2_5":31.5,"no2":4.8,"co":179.0,"o3":86.0,"so2":3.7,"mosquito_risk":0,"arthritis_risk":5,"migraine_risk":10,"frizz_risk":1,"updated_at":"2026-05-25T19:40:33.045709+05:30"},{"city":"Jaipur","state":"Rajasthan","latitude":26.9124,"longitude":75.7873,"temp":38.0,"humidity":24,"rain":0.0,"pressure":955.4,"uv_index":8.25,"wind_gusts":48.2,"aqi":197,"pm10":368.8,"pm2_5":84.8,"no2":4.8,"co":185.0,"o3":83.0,"so2":4.2,"mosquito_risk":0,"arthritis_risk":5,"migraine_risk":10,"frizz_risk":0,"updated_at":"2026-05-25T19:40:33.045722+05:30"},{"city":"Lucknow","state":"Uttar Pradesh","latitude":26.8467,"longitude":80.9462,"temp":36.0,"humidity":33,"rain":0.0,"pressure":987.2,"uv_index":8.0,"wind_gusts":63.0,"aqi":359,"pm10":610.9,"pm2_5":146.7,"no2":24.4,"co":209.0,"o3":82.0,"so2":11.7,"mosquito_risk":0,"arthritis_risk":5,"migraine_risk":10,"frizz_risk":1,"updated_at":"2026-05-25T19:40:33.045731+05:30"},{"city":"Kanpur","state":"Uttar Pradesh","latitude":26.4499,"longitude":80.3319,"temp":37.4,"humidity":24,"rain":0.0,"pressure":985.8,"uv_index":8.25,"wind_gusts":57.2,"aqi":519,"pm10":497.3,"pm2_5":98.0,"no2":15.0,"co":251.0,"o3":76.0,"so2":7.2,"mosquito_risk":0,"arthritis_risk":5,"migraine_risk":10,"frizz_risk":0,"updated_at":"2026-05-25T19:40:33.045738+05:30"},{"city":"Chandigarh","state":"Chandigarh","latitude":30.7333,"longitude":76.7794,"temp":34.7,"humidity":18,"rain":0.0,"pressure":962.9,"uv_index":7.7,"wind_gusts":34.2,"aqi":135,"pm10":41.6,"pm2_5":25.1,"no2":14.2,"co":692.0,"o3":119.0,"so2":11.1,"mosquito_risk":0,"arthritis_risk":5,"migraine_risk":7,"frizz_risk":0,"updated_at":"2026-05-25T19:40:33.045747+05:30"},{"city":"Srinagar","state":"Jammu and Kashmir","latitude":34.0837,"longitude":74.7973,"temp":14.8,"humidity":94,"rain":0.1,"pressure":842.0,"uv_index":8.35,"wind_gusts":46.4,"aqi":86,"pm10":16.5,"pm2_5":12.4,"no2":13.4,"co":468.0,"o3":96.0,"so2":3.2,"mosquito_risk":6,"arthritis_risk":10,"migraine_risk":7,"frizz_risk":0,"updated_at":"2026-05-25T19:40:33.045756+05:30"},{"city":"Jammu","state":"Jammu and Kashmir","latitude":32.7266,"longitude":74.857,"temp":33.1,"humidity":20,"rain":0.0,"pressure":967.6,"uv_index":8.55,"wind_gusts":38.5,"aqi":103,"pm10":41.3,"pm2_5":25.3,"no2":13.7,"co":175.0,"o3":106.0,"so2":3.6,"mosquito_risk":0,"arthritis_risk":5,"migraine_risk":7,"frizz_risk":0,"updated_at":"2026-05-25T19:40:33.045763+05:30"},{"city":"Amritsar","state":"Punjab","latitude":31.634,"longitude":74.8723,"temp":35.2,"humidity":20,"rain":0.0,"pressure":975.3,"uv_index":8.4,"wind_gusts":32.4,"aqi":114,"pm10":39.8,"pm2_5":27.1,"no2":20.8,"co":372.0,"o3":105.0,"so2":8.1,"mosquito_risk":0,"arthritis_risk":5,"migraine_risk":10,"frizz_risk":0,"updated_at":"2026-05-25T19:40:33.045769+05:30"},{"city":"Ludhiana","state":"Punjab","latitude":30.901,"longitude":75.8573,"temp":36.0,"humidity":19,"rain":0.0,"pressure":972.8,"uv_index":7.95,"wind_gusts":41.8,"aqi":108,"pm10":54.9,"pm2_5":24.6,"no2":10.1,"co":259.0,"o3":104.0,"so2":3.9,"mosquito_risk":0,"arthritis_risk":5,"migraine_risk":10,"frizz_risk":0,"updated_at":"2026-05-25T19:40:33.045776+05:30"},{"city":"Jalandhar","state":"Punjab","latitude":31.326,"longitude":75.5762,"temp":35.8,"humidity":19,"rain":0.0,"pressure":974.0,"uv_index":8.15,"wind_gusts":35.6,"aqi":106,"pm10":52.9,"pm2_5":26.7,"no2":13.8,"co":326.0,"o3":102.0,"so2":4.4,"mosquito_risk":0,"arthritis_risk":5,"migraine_risk":10,"frizz_risk":0,"updated_at":"2026-05-25T19:40:33.045783+05:30"},{"city":"Dehradun","state":"Uttarakhand","latitude":30.6284,"longitude":78.0322,"temp":18.5,"humidity":67,"rain":0.0,"pressure":827.8,"uv_index":8.15,"wind_gusts":37.1,"aqi":88,"pm10":41.1,"pm2_5":19.6,"no2":15.0,"co":154.0,"o3":104.0,"so2":2.1,"mosquito_risk":3,"arthritis_risk":5,"migraine_risk":7,"frizz_risk":0,"updated_at":"2026-05-25T19:40:33.045789+05:30"},{"city":"Shimla","state":"Himachal Pradesh","latitude":31.1048,"longitude":77.1734,"temp":18.0,"humidity":34,"rain":0.0,"pressure":783.0,"uv_index":8.25,"wind_gusts":38.2,"aqi":116,"pm10":45.9,"pm2_5":19.0,"no2":9.7,"co":262.0,"o3":137.0,"so2":9.0,"mosquito_risk":0,"arthritis_risk":5,"migraine_risk":7,"frizz_risk":0,"updated_at":"2026-05-25T19:40:33.045798+05:30"},{"city":"Manali","state":"Himachal Pradesh","latitude":32.2396,"longitude":77.1887,"temp":14.8,"humidity":68,"rain":0.0,"pressure":817.0,"uv_index":9.9,"wind_gusts":49.3,"aqi":94,"pm10":22.9,"pm2_5":9.6,"no2":14.5,"co":157.0,"o3":117.0,"so2":0.7,"mosquito_risk":3,"arthritis_risk":5,"migraine_risk":7,"frizz_risk":0,"updated_at":"2026-05-25T19:40:33.045808+05:30"},{"city":"Gurgaon","state":"Haryana","latitude":28.4595,"longitude":77.0266,"temp":38.2,"humidity":19,"rain":0.0,"pressure":974.8,"uv_index":7.8,"wind_gusts":46.4,"aqi":1803,"pm10":640.7,"pm2_5":140.6,"no2":37.5,"co":811.0,"o3":68.0,"so2":15.2,"mosquito_risk":0,"arthritis_risk":5,"migraine_risk":10,"frizz_risk":0,"updated_at":"2026-05-25T19:40:33.045815+05:30"},{"city":"Noida","state":"Uttar Pradesh","latitude":28.5355,"longitude":77.391,"temp":35.7,"humidity":30,"rain":0.0,"pressure":977.6,"uv_index":7.75,"wind_gusts":36.0,"aqi":1803,"pm10":640.7,"pm2_5":140.6,"no2":37.5,"co":657.0,"o3":68.0,"so2":15.2,"mosquito_risk":0,"arthritis_risk":5,"migraine_risk":10,"frizz_risk":0,"updated_at":"2026-05-25T19:40:33.045822+05:30"},{"city":"Ghaziabad","state":"Uttar Pradesh","latitude":28.6692,"longitude":77.4538,"temp":35.4,"humidity":33,"rain":0.0,"pressure":975.9,"uv_index":7.7,"wind_gusts":36.0,"aqi":444,"pm10":466.6,"pm2_5":118.3,"no2":24.8,"co":357.0,"o3":103.0,"so2":20.5,"mosquito_risk":0,"arthritis_risk":5,"migraine_risk":10,"frizz_risk":1,"updated_at":"2026-05-25T19:40:33.045829+05:30"},{"city":"Faridabad","state":"Haryana","latitude":28.4089,"longitude":77.3178,"temp":39.7,"humidity":16,"rain":0.0,"pressure":977.0,"uv_index":7.8,"wind_gusts":46.8,"aqi":1803,"pm10":640.7,"pm2_5":140.6,"no2":37.5,"co":633.0,"o3":68.0,"so2":15.2,"mosquito_risk":0,"arthritis_risk":5,"migraine_risk":10,"frizz_risk":0,"updated_at":"2026-05-25T19:40:33.045837+05:30"},{"city":"Meerut","state":"Uttar Pradesh","latitude":28.9845,"longitude":77.7064,"temp":34.9,"humidity":36,"rain":0.0,"pressure":974.9,"uv_index":7.65,"wind_gusts":32.0,"aqi":444,"pm10":466.6,"pm2_5":118.3,"no2":24.8,"co":337.0,"o3":103.0,"so2":20.5,"mosquito_risk":0,"arthritis_risk":5,"migraine_risk":7,"frizz_risk":1,"updated_at":"2026-05-25T19:40:33.045844+05:30"},{"city":"Agra","state":"Uttar Pradesh","latitude":27.1767,"longitude":78.0081,"temp":37.8,"humidity":22,"rain":0.0,"pressure":981.0,"uv_index":8.05,"wind_gusts":49.7,"aqi":1302,"pm10":583.0,"pm2_5":104.3,"no2":29.0,"co":275.0,"o3":61.0,"so2":11.3,"mosquito_risk":0,"arthritis_risk":5,"migraine_risk":10,"frizz_risk":0,"updated_at":"2026-05-25T19:40:33.045850+05:30"},{"city":"Varanasi","state":"Uttar Pradesh","latitude":25.3176,"longitude":82.9739,"temp":38.8,"humidity":18,"rain":0.0,"pressure":991.3,"uv_index":8.7,"wind_gusts":51.8,"aqi":131,"pm10":105.5,"pm2_5":44.8,"no2":12.7,"co":395.0,"o3":86.0,"so2":8.5,"mosquito_risk":0,"arthritis_risk":5,"migraine_risk":10,"frizz_risk":0,"updated_at":"2026-05-25T19:40:33.045857+05:30"},{"city":"Prayagraj","state":"Uttar Pradesh","latitude":25.4358,"longitude":81.8463,"temp":38.7,"humidity":16,"rain":0.0,"pressure":990.0,"uv_index":8.65,"wind_gusts":47.9,"aqi":152,"pm10":134.6,"pm2_5":49.9,"no2":11.1,"co":273.0,"o3":82.0,"so2":7.0,"mosquito_risk":0,"arthritis_risk":5,"migraine_risk":10,"frizz_risk":0,"updated_at":"2026-05-25T19:40:33.045865+05:30"},{"city":"Gorakhpur","state":"Uttar Pradesh","latitude":26.7606,"longitude":83.3732,"temp":34.0,"humidity":55,"rain":0.0,"pressure":991.5,"uv_index":8.6,"wind_gusts":55.1,"aqi":176,"pm10":176.5,"pm2_5":82.4,"no2":20.8,"co":424.0,"o3":113.0,"so2":14.6,"mosquito_risk":0,"arthritis_risk":5,"migraine_risk":7,"frizz_risk":1,"updated_at":"2026-05-25T19:40:33.045874+05:30"},{"city":"Bareilly","state":"Uttar Pradesh","latitude":28.367,"longitude":79.4304,"temp":34.7,"humidity":40,"rain":0.0,"pressure":980.3,"uv_index":8.0,"wind_gusts":25.9,"aqi":179,"pm10":287.8,"pm2_5":97.8,"no2":19.2,"co":343.0,"o3":125.0,"so2":12.9,"mosquito_risk":0,"arthritis_risk":5,"migraine_risk":7,"frizz_risk":1,"updated_at":"2026-05-25T19:40:33.045900+05:30"},{"city":"Aligarh","state":"Uttar Pradesh","latitude":27.8974,"longitude":78.088,"temp":36.5,"humidity":29,"rain":0.0,"pressure":978.6,"uv_index":7.9,"wind_gusts":39.6,"aqi":1054,"pm10":910.8,"pm2_5":181.1,"no2":20.3,"co":296.0,"o3":72.0,"so2":10.2,"mosquito_risk":0,"arthritis_risk":5,"migraine_risk":10,"frizz_risk":0,"updated_at":"2026-05-25T19:40:33.045908+05:30"},{"city":"Moradabad","state":"Uttar Pradesh","latitude":28.8386,"longitude":78.7733,"temp":35.8,"humidity":35,"rain":0.0,"pressure":977.1,"uv_index":7.85,"wind_gusts":27.4,"aqi":199,"pm10":266.4,"pm2_5":105.2,"no2":31.3,"co":421.0,"o3":120.0,"so2":19.8,"mosquito_risk":0,"arthritis_risk":5,"migraine_risk":10,"frizz_risk":1,"updated_at":"2026-05-25T19:40:33.045918+05:30"},{"city":"Saharanpur","state":"Uttar Pradesh","latitude":29.9637,"longitude":77.546,"temp":35.5,"humidity":22,"rain":0.0,"pressure":969.4,"uv_index":7.35,"wind_gusts":30.6,"aqi":155,"pm10":89.4,"pm2_5":39.9,"no2":12.3,"co":267.0,"o3":129.0,"so2":12.2,"mosquito_risk":0,"arthritis_risk":5,"migraine_risk":10,"frizz_risk":0,"updated_at":"2026-05-25T19:40:33.045924+05:30"},{"city":"Jhansi","state":"Uttar Pradesh","latitude":25.4484,"longitude":78.5685,"temp":36.8,"humidity":23,"rain":0.0,"pressure":972.7,"uv_index":8.45,"wind_gusts":44.6,"aqi":53,"pm10":31.4,"pm2_5":15.3,"no2":4.7,"co":176.0,"o3":85.0,"so2":3.7,"mosquito_risk":0,"arthritis_risk":5,"migraine_risk":10,"frizz_risk":0,"updated_at":"2026-05-25T19:40:36.934207+05:30"},{"city":"Surat","state":"Gujarat","latitude":21.1702,"longitude":72.8311,"temp":30.8,"humidity":77,"rain":0.0,"pressure":1004.7,"uv_index":7.7,"wind_gusts":44.3,"aqi":61,"pm10":18.7,"pm2_5":15.5,"no2":21.3,"co":234.0,"o3":34.0,"so2":38.2,"mosquito_risk":3,"arthritis_risk":5,"migraine_risk":4,"frizz_risk":1,"updated_at":"2026-05-25T19:40:36.934238+05:30"},{"city":"Vadodara","state":"Gujarat","latitude":22.3072,"longitude":73.1812,"temp":34.2,"humidity":55,"rain":0.0,"pressure":1000.8,"uv_index":8.1,"wind_gusts":43.2,"aqi":52,"pm10":17.9,"pm2_5":13.4,"no2":11.3,"co":207.0,"o3":71.0,"so2":13.6,"mosquito_risk":0,"arthritis_risk":5,"migraine_risk":4,"frizz_risk":1,"updated_at":"2026-05-25T19:40:36.934249+05:30"},{"city":"Rajkot","state":"Gujarat","latitude":22.3039,"longitude":70.8022,"temp":32.0,"humidity":63,"rain":0.0,"pressure":991.6,"uv_index":7.7,"wind_gusts":52.9,"aqi":61,"pm10":52.2,"pm2_5":23.1,"no2":4.0,"co":147.0,"o3":68.0,"so2":5.4,"mosquito_risk":3,"arthritis_risk":5,"migraine_risk":7,"frizz_risk":1,"updated_at":"2026-05-25T19:40:36.934258+05:30"},{"city":"Thane","state":"Maharashtra","latitude":19.2183,"longitude":72.9781,"temp":30.5,"humidity":74,"rain":0.0,"pressure":1007.3,"uv_index":7.8,"wind_gusts":40.0,"aqi":52,"pm10":17.6,"pm2_5":12.1,"no2":7.0,"co":207.0,"o3":48.0,"so2":4.5,"mosquito_risk":3,"arthritis_risk":5,"migraine_risk":4,"frizz_risk":1,"updated_at":"2026-05-25T19:40:36.934265+05:30"},{"city":"Nagpur","state":"Maharashtra","latitude":21.1458,"longitude":79.0882,"temp":40.5,"humidity":13,"rain":0.0,"pressure":969.0,"uv_index":8.85,"wind_gusts":42.8,"aqi":106,"pm10":57.5,"pm2_5":26.1,"no2":9.4,"co":275.0,"o3":104.0,"so2":12.3,"mosquito_risk":0,"arthritis_risk":5,"migraine_risk":10,"frizz_risk":0,"updated_at":"2026-05-25T19:40:36.934273+05:30"},{"city":"Nashik","state":"Maharashtra","latitude":19.9975,"longitude":73.7898,"temp":28.0,"humidity":71,"rain":0.0,"pressure":945.2,"uv_index":8.15,"wind_gusts":38.2,"aqi":34,"pm10":12.8,"pm2_5":8.6,"no2":3.2,"co":172.0,"o3":55.0,"so2":1.1,"mosquito_risk":7,"arthritis_risk":5,"migraine_risk":7,"frizz_risk":1,"updated_at":"2026-05-25T19:40:36.934280+05:30"},{"city":"Aurangabad","state":"Maharashtra","latitude":19.8762,"longitude":75.3433,"temp":29.7,"humidity":61,"rain":0.0,"pressure":942.8,"uv_index":9.0,"wind_gusts":38.9,"aqi":50,"pm10":24.9,"pm2_5":16.9,"no2":4.7,"co":193.0,"o3":95.0,"so2":3.2,"mosquito_risk":7,"arthritis_risk":5,"migraine_risk":7,"frizz_risk":1,"updated_at":"2026-05-25T19:40:36.934288+05:30"},{"city":"Solapur","state":"Maharashtra","latitude":17.6599,"longitude":75.9064,"temp":33.9,"humidity":41,"rain":0.0,"pressure":955.9,"uv_index":9.0,"wind_gusts":34.9,"aqi":76,"pm10":43.0,"pm2_5":27.0,"no2":16.7,"co":306.0,"o3":86.0,"so2":6.0,"mosquito_risk":0,"arthritis_risk":5,"migraine_risk":7,"frizz_risk":1,"updated_at":"2026-05-25T19:40:36.934296+05:30"},{"city":"Kolhapur","state":"Maharashtra","latitude":16.705,"longitude":74.2433,"temp":27.1,"humidity":76,"rain":0.0,"pressure":948.2,"uv_index":8.85,"wind_gusts":41.0,"aqi":41,"pm10":10.9,"pm2_5":8.3,"no2":4.9,"co":167.0,"o3":63.0,"so2":2.1,"mosquito_risk":7,"arthritis_risk":5,"migraine_risk":7,"frizz_risk":1,"updated_at":"2026-05-25T19:40:36.934303+05:30"},{"city":"Goa","state":"Goa","latitude":15.2993,"longitude":74.124,"temp":28.4,"humidity":87,"rain":0.0,"pressure":998.5,"uv_index":6.35,"wind_gusts":25.2,"aqi":41,"pm10":9.8,"pm2_5":6.9,"no2":2.1,"co":252.0,"o3":51.0,"so2":0.9,"mosquito_risk":7,"arthritis_risk":5,"migraine_risk":7,"frizz_risk":1,"updated_at":"2026-05-25T19:40:36.934310+05:30"},{"city":"Jodhpur","state":"Rajasthan","latitude":26.2389,"longitude":73.0243,"temp":37.4,"humidity":35,"rain":0.0,"pressure":978.6,"uv_index":8.4,"wind_gusts":46.8,"aqi":262,"pm10":390.2,"pm2_5":83.4,"no2":4.2,"co":154.0,"o3":77.0,"so2":4.1,"mosquito_risk":0,"arthritis_risk":5,"migraine_risk":10,"frizz_risk":1,"updated_at":"2026-05-25T19:40:36.934317+05:30"},{"city":"Udaipur","state":"Rajasthan","latitude":24.5854,"longitude":73.7125,"temp":34.6,"humidity":26,"rain":0.0,"pressure":944.2,"uv_index":8.85,"wind_gusts":45.7,"aqi":70,"pm10":61.0,"pm2_5":28.2,"no2":2.3,"co":147.0,"o3":87.0,"so2":2.0,"mosquito_risk":0,"arthritis_risk":5,"migraine_risk":7,"frizz_risk":0,"updated_at":"2026-05-25T19:40:36.934325+05:30"},{"city":"Kota","state":"Rajasthan","latitude":25.2138,"longitude":75.8648,"temp":39.0,"humidity":15,"rain":0.0,"pressure":974.1,"uv_index":8.4,"wind_gusts":42.1,"aqi":56,"pm10":43.0,"pm2_5":23.2,"no2":4.6,"co":161.0,"o3":92.0,"so2":3.8,"mosquito_risk":0,"arthritis_risk":5,"migraine_risk":10,"frizz_risk":0,"updated_at":"2026-05-25T19:40:36.934332+05:30"},{"city":"Bikaner","state":"Rajasthan","latitude":28.0229,"longitude":73.3119,"temp":40.0,"humidity":13,"rain":0.0,"pressure":976.1,"uv_index":8.4,"wind_gusts":40.3,"aqi":182,"pm10":139.2,"pm2_5":54.4,"no2":2.2,"co":233.0,"o3":99.0,"so2":3.2,"mosquito_risk":0,"arthritis_risk":5,"migraine_risk":10,"frizz_risk":0,"updated_at":"2026-05-25T19:40:36.934339+05:30"},{"city":"Ajmer","state":"Rajasthan","latitude":26.4499,"longitude":74.6399,"temp":35.1,"humidity":35,"rain":0.0,"pressure":951.3,"uv_index":8.35,"wind_gusts":54.7,"aqi":92,"pm10":161.1,"pm2_5":52.7,"no2":2.5,"co":150.0,"o3":84.0,"so2":2.9,"mosquito_risk":0,"arthritis_risk":5,"migraine_risk":10,"frizz_risk":1,"updated_at":"2026-05-25T19:40:36.934346+05:30"},{"city":"Gwalior","state":"Madhya Pradesh","latitude":26.2183,"longitude":78.1828,"temp":38.5,"humidity":20,"rain":0.0,"pressure":977.6,"uv_index":8.25,"wind_gusts":55.8,"aqi":57,"pm10":37.3,"pm2_5":20.5,"no2":3.8,"co":161.0,"o3":88.0,"so2":2.5,"mosquito_risk":0,"arthritis_risk":5,"migraine_risk":10,"frizz_risk":0,"updated_at":"2026-05-25T19:40:36.934353+05:30"},{"city":"Indore","state":"Madhya Pradesh","latitude":22.7196,"longitude":75.8577,"temp":36.5,"humidity":25,"rain":0.0,"pressure":946.2,"uv_index":8.65,"wind_gusts":42.8,"aqi":67,"pm10":32.9,"pm2_5":20.4,"no2":5.3,"co":206.0,"o3":104.0,"so2":5.9,"mosquito_risk":0,"arthritis_risk":5,"migraine_risk":10,"frizz_risk":0,"updated_at":"2026-05-25T19:40:36.934360+05:30"},{"city":"Bhopal","state":"Madhya Pradesh","latitude":23.2599,"longitude":77.4126,"temp":38.6,"humidity":14,"rain":0.0,"pressure":950.6,"uv_index":8.7,"wind_gusts":39.2,"aqi":69,"pm10":60.8,"pm2_5":26.5,"no2":7.1,"co":261.0,"o3":88.0,"so2":4.8,"mosquito_risk":0,"arthritis_risk":5,"migraine_risk":10,"frizz_risk":0,"updated_at":"2026-05-25T19:40:36.934367+05:30"},{"city":"Jabalpur","state":"Madhya Pradesh","latitude":23.1815,"longitude":79.9864,"temp":38.2,"humidity":15,"rain":0.0,"pressure":957.8,"uv_index":8.85,"wind_gusts":32.0,"aqi":74,"pm10":72.6,"pm2_5":26.3,"no2":8.7,"co":285.0,"o3":85.0,"so2":4.0,"mosquito_risk":0,"arthritis_risk":5,"migraine_risk":10,"frizz_risk":0,"updated_at":"2026-05-25T19:40:36.934374+05:30"},{"city":"Ujjain","state":"Madhya Pradesh","latitude":23.1765,"longitude":75.7885,"temp":36.2,"humidity":25,"rain":0.0,"pressure":951.5,"uv_index":8.6,"wind_gusts":44.3,"aqi":60,"pm10":29.2,"pm2_5":18.0,"no2":2.3,"co":179.0,"o3":105.0,"so2":5.5,"mosquito_risk":0,"arthritis_risk":5,"migraine_risk":10,"frizz_risk":0,"updated_at":"2026-05-25T19:40:36.934381+05:30"},{"city":"Visakhapatnam","state":"Andhra Pradesh","latitude":17.6868,"longitude":83.2185,"temp":31.4,"humidity":83,"rain":0.0,"pressure":1000.3,"uv_index":9.0,"wind_gusts":33.8,"aqi":132,"pm10":39.9,"pm2_5":33.4,"no2":31.6,"co":471.0,"o3":95.0,"so2":50.0,"mosquito_risk":3,"arthritis_risk":5,"migraine_risk":4,"frizz_risk":1,"updated_at":"2026-05-25T19:40:36.934389+05:30"},{"city":"Vijayawada","state":"Andhra Pradesh","latitude":16.5062,"longitude":80.648,"temp":38.2,"humidity":31,"rain":0.0,"pressure":998.1,"uv_index":9.1,"wind_gusts":40.0,"aqi":130,"pm10":80.1,"pm2_5":62.6,"no2":26.5,"co":256.0,"o3":88.0,"so2":12.9,"mosquito_risk":0,"arthritis_risk":5,"migraine_risk":10,"frizz_risk":1,"updated_at":"2026-05-25T19:40:36.934395+05:30"},{"city":"Guntur","state":"Andhra Pradesh","latitude":16.3067,"longitude":80.4365,"temp":37.9,"humidity":31,"rain":0.0,"pressure":999.4,"uv_index":9.1,"wind_gusts":43.6,"aqi":119,"pm10":68.2,"pm2_5":48.7,"no2":18.9,"co":218.0,"o3":91.0,"so2":11.0,"mosquito_risk":0,"arthritis_risk":5,"migraine_risk":10,"frizz_risk":1,"updated_at":"2026-05-25T19:40:36.934402+05:30"},{"city":"Nellore","state":"Andhra Pradesh","latitude":14.4426,"longitude":79.9865,"temp":35.5,"humidity":45,"rain":0.0,"pressure":1002.7,"uv_index":9.05,"wind_gusts":41.4,"aqi":119,"pm10":26.5,"pm2_5":22.9,"no2":6.3,"co":251.0,"o3":149.0,"so2":9.4,"mosquito_risk":0,"arthritis_risk":5,"migraine_risk":7,"frizz_risk":1,"updated_at":"2026-05-25T19:40:36.934409+05:30"},{"city":"Kurnool","state":"Andhra Pradesh","latitude":15.8281,"longitude":78.0373,"temp":32.5,"humidity":52,"rain":0.0,"pressure":975.1,"uv_index":9.05,"wind_gusts":39.6,"aqi":100,"pm10":43.0,"pm2_5":29.6,"no2":13.7,"co":216.0,"o3":105.0,"so2":11.1,"mosquito_risk":0,"arthritis_risk":5,"migraine_risk":7,"frizz_risk":1,"updated_at":"2026-05-25T19:40:36.934417+05:30"},{"city":"Kakinada","state":"Andhra Pradesh","latitude":16.9891,"longitude":82.2475,"temp":34.3,"humidity":57,"rain":0.0,"pressure":1003.2,"uv_index":9.1,"wind_gusts":33.8,"aqi":116,"pm10":27.8,"pm2_5":21.0,"no2":3.5,"co":271.0,"o3":116.0,"so2":2.8,"mosquito_risk":0,"arthritis_risk":5,"migraine_risk":4,"frizz_risk":1,"updated_at":"2026-05-25T19:40:36.934424+05:30"},{"city":"Tirupati","state":"Andhra Pradesh","latitude":13.6288,"longitude":79.4192,"temp":31.4,"humidity":60,"rain":0.0,"pressure":989.3,"uv_index":9.1,"wind_gusts":35.6,"aqi":76,"pm10":24.3,"pm2_5":21.1,"no2":13.8,"co":683.0,"o3":98.0,"so2":4.6,"mosquito_risk":0,"arthritis_risk":5,"migraine_risk":7,"frizz_risk":1,"updated_at":"2026-05-25T19:40:36.934430+05:30"},{"city":"Warangal","state":"Telangana","latitude":17.9689,"longitude":79.5941,"temp":35.2,"humidity":37,"rain":0.0,"pressure":975.4,"uv_index":8.8,"wind_gusts":41.4,"aqi":127,"pm10":98.5,"pm2_5":63.6,"no2":25.8,"co":492.0,"o3":83.0,"so2":11.2,"mosquito_risk":0,"arthritis_risk":5,"migraine_risk":10,"frizz_risk":1,"updated_at":"2026-05-25T19:40:36.934437+05:30"},{"city":"Nizamabad","state":"Telangana","latitude":18.6725,"longitude":78.0941,"temp":32.1,"humidity":52,"rain":0.0,"pressure":962.2,"uv_index":9.1,"wind_gusts":40.3,"aqi":79,"pm10":67.8,"pm2_5":35.4,"no2":10.5,"co":352.0,"o3":97.0,"so2":5.8,"mosquito_risk":0,"arthritis_risk":5,"migraine_risk":7,"frizz_risk":1,"updated_at":"2026-05-25T19:40:36.934444+05:30"},{"city":"Mysore","state":"Karnataka","latitude":12.2958,"longitude":76.6396,"temp":23.7,"humidity":93,"rain":0.5,"pressure":930.0,"uv_index":9.0,"wind_gusts":37.4,"aqi":63,"pm10":21.5,"pm2_5":18.7,"no2":15.5,"co":405.0,"o3":83.0,"so2":2.9,"mosquito_risk":6,"arthritis_risk":5,"migraine_risk":7,"frizz_risk":1,"updated_at":"2026-05-25T19:40:36.934451+05:30"},{"city":"Mangalore","state":"Karnataka","latitude":12.9141,"longitude":74.856,"temp":28.3,"humidity":83,"rain":0.0,"pressure":1007.6,"uv_index":8.25,"wind_gusts":29.5,"aqi":63,"pm10":20.3,"pm2_5":13.4,"no2":6.1,"co":254.0,"o3":49.0,"so2":2.3,"mosquito_risk":7,"arthritis_risk":5,"migraine_risk":4,"frizz_risk":1,"updated_at":"2026-05-25T19:40:36.934458+05:30"},{"city":"Hubli-Dharwad","state":"Karnataka","latitude":15.3647,"longitude":75.124,"temp":26.8,"humidity":79,"rain":0.0,"pressure":941.3,"uv_index":9.0,"wind_gusts":39.6,"aqi":42,"pm10":8.2,"pm2_5":6.8,"no2":5.8,"co":182.0,"o3":62.0,"so2":1.4,"mosquito_risk":7,"arthritis_risk":5,"migraine_risk":7,"frizz_risk":1,"updated_at":"2026-05-25T19:40:36.934465+05:30"},{"city":"Belgaum","state":"Karnataka","latitude":15.8497,"longitude":74.4977,"temp":24.9,"humidity":88,"rain":0.0,"pressure":926.3,"uv_index":9.0,"wind_gusts":35.3,"aqi":36,"pm10":9.4,"pm2_5":7.1,"no2":5.4,"co":167.0,"o3":53.0,"so2":1.6,"mosquito_risk":3,"arthritis_risk":5,"migraine_risk":7,"frizz_risk":1,"updated_at":"2026-05-25T19:40:40.360957+05:30"},{"city":"Coimbatore","state":"Tamil Nadu","latitude":11.0168,"longitude":76.9558,"temp":26.0,"humidity":80,"rain":0.0,"pressure":962.3,"uv_index":8.9,"wind_gusts":54.4,"aqi":45,"pm10":9.4,"pm2_5":8.0,"no2":6.3,"co":210.0,"o3":69.0,"so2":3.1,"mosquito_risk":7,"arthritis_risk":5,"migraine_risk":7,"frizz_risk":1,"updated_at":"2026-05-25T19:40:40.360994+05:30"},{"city":"Madurai","state":"Tamil Nadu","latitude":9.9252,"longitude":78.1198,"temp":31.2,"humidity":59,"rain":0.0,"pressure":992.2,"uv_index":8.95,"wind_gusts":31.7,"aqi":70,"pm10":24.4,"pm2_5":20.1,"no2":27.4,"co":547.0,"o3":61.0,"so2":6.4,"mosquito_risk":0,"arthritis_risk":5,"migraine_risk":7,"frizz_risk":1,"updated_at":"2026-05-25T19:40:40.361004+05:30"},{"city":"Trichy","state":"Tamil Nadu","latitude":10.7905,"longitude":78.7047,"temp":31.3,"humidity":57,"rain":0.0,"pressure":998.4,"uv_index":8.95,"wind_gusts":45.4,"aqi":69,"pm10":20.9,"pm2_5":18.2,"no2":12.0,"co":286.0,"o3":81.0,"so2":4.4,"mosquito_risk":0,"arthritis_risk":5,"migraine_risk":7,"frizz_risk":1,"updated_at":"2026-05-25T19:40:40.361012+05:30"},{"city":"Salem","state":"Tamil Nadu","latitude":11.6643,"longitude":78.146,"temp":32.8,"humidity":44,"rain":0.0,"pressure":977.1,"uv_index":9.05,"wind_gusts":25.9,"aqi":131,"pm10":24.6,"pm2_5":20.5,"no2":9.8,"co":324.0,"o3":111.0,"so2":6.3,"mosquito_risk":0,"arthritis_risk":5,"migraine_risk":7,"frizz_risk":1,"updated_at":"2026-05-25T19:40:40.361020+05:30"},{"city":"Tirunelveli","state":"Tamil Nadu","latitude":8.7139,"longitude":77.7567,"temp":31.7,"humidity":57,"rain":0.0,"pressure":1002.8,"uv_index":8.85,"wind_gusts":31.7,"aqi":37,"pm10":13.2,"pm2_5":10.0,"no2":5.9,"co":302.0,"o3":59.0,"so2":1.5,"mosquito_risk":0,"arthritis_risk":5,"migraine_risk":4,"frizz_risk":1,"updated_at":"2026-05-25T19:40:40.361028+05:30"},{"city":"Vellore","state":"Tamil Nadu","latitude":12.9165,"longitude":79.1325,"temp":28.8,"humidity":74,"rain":0.0,"pressure":983.2,"uv_index":9.1,"wind_gusts":53.3,"aqi":76,"pm10":29.9,"pm2_5":27.0,"no2":13.4,"co":517.0,"o3":89.0,"so2":4.1,"mosquito_risk":7,"arthritis_risk":5,"migraine_risk":7,"frizz_risk":1,"updated_at":"2026-05-25T19:40:40.361036+05:30"},{"city":"Erode","state":"Tamil Nadu","latitude":11.341,"longitude":77.7172,"temp":30.5,"humidity":61,"rain":0.0,"pressure":988.6,"uv_index":9.0,"wind_gusts":50.8,"aqi":82,"pm10":11.6,"pm2_5":10.1,"no2":7.8,"co":293.0,"o3":86.0,"so2":3.3,"mosquito_risk":3,"arthritis_risk":5,"migraine_risk":7,"frizz_risk":1,"updated_at":"2026-05-25T19:40:40.361044+05:30"},{"city":"Kochi","state":"Kerala","latitude":9.9312,"longitude":76.2673,"temp":26.5,"humidity":95,"rain":0.0,"pressure":1010.1,"uv_index":7.95,"wind_gusts":25.6,"aqi":57,"pm10":16.2,"pm2_5":13.8,"no2":16.0,"co":203.0,"o3":41.0,"so2":4.2,"mosquito_risk":7,"arthritis_risk":0,"migraine_risk":4,"frizz_risk":1,"updated_at":"2026-05-25T19:40:40.361051+05:30"},{"city":"Thiruvananthapuram","state":"Kerala","latitude":8.5241,"longitude":76.9366,"temp":26.1,"humidity":90,"rain":0.0,"pressure":1009.9,"uv_index":7.6,"wind_gusts":33.1,"aqi":37,"pm10":13.7,"pm2_5":8.1,"no2":2.0,"co":258.0,"o3":62.0,"so2":0.7,"mosquito_risk":7,"arthritis_risk":0,"migraine_risk":4,"frizz_risk":1,"updated_at":"2026-05-25T19:40:40.361057+05:30"},{"city":"Kozhikode","state":"Kerala","latitude":11.2588,"longitude":75.7804,"temp":26.7,"humidity":97,"rain":0.1,"pressure":1009.3,"uv_index":8.5,"wind_gusts":29.9,"aqi":38,"pm10":15.6,"pm2_5":9.4,"no2":1.2,"co":339.0,"o3":65.0,"so2":0.7,"mosquito_risk":10,"arthritis_risk":0,"migraine_risk":4,"frizz_risk":1,"updated_at":"2026-05-25T19:40:40.361064+05:30"},{"city":"Thrissur","state":"Kerala","latitude":10.5276,"longitude":76.2144,"temp":25.8,"humidity":99,"rain":0.1,"pressure":1008.6,"uv_index":8.7,"wind_gusts":28.8,"aqi":56,"pm10":15.0,"pm2_5":13.3,"no2":11.8,"co":386.0,"o3":43.0,"so2":3.4,"mosquito_risk":10,"arthritis_risk":0,"migraine_risk":4,"frizz_risk":1,"updated_at":"2026-05-25T19:40:40.361072+05:30"},{"city":"Kannur","state":"Kerala","latitude":11.8745,"longitude":75.3704,"temp":26.5,"humidity":95,"rain":0.1,"pressure":1008.5,"uv_index":8.45,"wind_gusts":29.9,"aqi":56,"pm10":26.1,"pm2_5":18.3,"no2":19.1,"co":309.0,"o3":40.0,"so2":3.7,"mosquito_risk":10,"arthritis_risk":0,"migraine_risk":4,"frizz_risk":1,"updated_at":"2026-05-25T19:40:40.361079+05:30"},{"city":"Patna","state":"Bihar","latitude":25.5941,"longitude":85.1376,"temp":32.7,"humidity":65,"rain":0.0,"pressure":995.1,"uv_index":8.8,"wind_gusts":56.5,"aqi":201,"pm10":83.6,"pm2_5":68.7,"no2":13.3,"co":496.0,"o3":161.0,"so2":20.8,"mosquito_risk":3,"arthritis_risk":5,"migraine_risk":7,"frizz_risk":1,"updated_at":"2026-05-25T19:40:40.361086+05:30"},{"city":"Gaya","state":"Bihar","latitude":24.7914,"longitude":85.0002,"temp":34.7,"humidity":51,"rain":0.0,"pressure":988.1,"uv_index":8.9,"wind_gusts":33.5,"aqi":154,"pm10":196.5,"pm2_5":82.4,"no2":30.5,"co":578.0,"o3":108.0,"so2":18.6,"mosquito_risk":0,"arthritis_risk":5,"migraine_risk":7,"frizz_risk":1,"updated_at":"2026-05-25T19:40:40.361092+05:30"},{"city":"Muzaffarpur","state":"Bihar","latitude":26.1209,"longitude":85.3647,"temp":31.0,"humidity":66,"rain":0.0,"pressure":995.6,"uv_index":8.85,"wind_gusts":48.6,"aqi":192,"pm10":83.4,"pm2_5":69.2,"no2":14.0,"co":490.0,"o3":148.0,"so2":19.7,"mosquito_risk":3,"arthritis_risk":5,"migraine_risk":7,"frizz_risk":1,"updated_at":"2026-05-25T19:40:40.361099+05:30"},{"city":"Bhagalpur","state":"Bihar","latitude":25.2425,"longitude":87.0117,"temp":30.9,"humidity":74,"rain":0.0,"pressure":997.0,"uv_index":8.8,"wind_gusts":32.0,"aqi":159,"pm10":32.2,"pm2_5":28.3,"no2":9.3,"co":401.0,"o3":135.0,"so2":12.7,"mosquito_risk":3,"arthritis_risk":5,"migraine_risk":7,"frizz_risk":1,"updated_at":"2026-05-25T19:40:40.361105+05:30"},{"city":"Ranchi","state":"Jharkhand","latitude":23.3441,"longitude":85.3096,"temp":29.4,"humidity":49,"rain":0.0,"pressure":934.5,"uv_index":9.3,"wind_gusts":38.2,"aqi":127,"pm10":59.5,"pm2_5":34.1,"no2":17.9,"co":327.0,"o3":103.0,"so2":11.1,"mosquito_risk":4,"arthritis_risk":5,"migraine_risk":7,"frizz_risk":1,"updated_at":"2026-05-25T19:40:40.361112+05:30"},{"city":"Jamshedpur","state":"Jharkhand","latitude":22.8046,"longitude":86.2029,"temp":33.5,"humidity":53,"rain":0.0,"pressure":986.2,"uv_index":9.1,"wind_gusts":42.5,"aqi":162,"pm10":91.7,"pm2_5":48.4,"no2":19.7,"co":425.0,"o3":111.0,"so2":19.9,"mosquito_risk":0,"arthritis_risk":5,"migraine_risk":7,"frizz_risk":1,"updated_at":"2026-05-25T19:40:40.361119+05:30"},{"city":"Dhanbad","state":"Jharkhand","latitude":23.7957,"longitude":86.4304,"temp":34.0,"humidity":37,"rain":0.0,"pressure":975.1,"uv_index":9.05,"wind_gusts":40.0,"aqi":152,"pm10":233.8,"pm2_5":108.3,"no2":71.1,"co":674.0,"o3":50.0,"so2":148.4,"mosquito_risk":0,"arthritis_risk":5,"migraine_risk":7,"frizz_risk":1,"updated_at":"2026-05-25T19:40:40.361125+05:30"},{"city":"Bokaro","state":"Jharkhand","latitude":23.6693,"longitude":86.1511,"temp":34.6,"humidity":31,"rain":0.0,"pressure":978.5,"uv_index":9.1,"wind_gusts":41.4,"aqi":152,"pm10":212.3,"pm2_5":101.7,"no2":57.1,"co":1173.0,"o3":74.0,"so2":149.7,"mosquito_risk":0,"arthritis_risk":5,"migraine_risk":7,"frizz_risk":0,"updated_at":"2026-05-25T19:40:40.361133+05:30"},{"city":"Bhubaneswar","state":"Odisha","latitude":20.2961,"longitude":85.8245,"temp":31.0,"humidity":81,"rain":0.0,"pressure":1000.1,"uv_index":9.1,"wind_gusts":44.3,"aqi":104,"pm10":28.8,"pm2_5":24.4,"no2":6.4,"co":276.0,"o3":89.0,"so2":4.8,"mosquito_risk":3,"arthritis_risk":5,"migraine_risk":4,"frizz_risk":1,"updated_at":"2026-05-25T19:40:40.361139+05:30"},{"city":"Cuttack","state":"Odisha","latitude":20.4625,"longitude":85.8828,"temp":31.5,"humidity":81,"rain":0.0,"pressure":1001.1,"uv_index":9.15,"wind_gusts":41.8,"aqi":104,"pm10":28.8,"pm2_5":24.4,"no2":6.4,"co":291.0,"o3":89.0,"so2":4.8,"mosquito_risk":3,"arthritis_risk":5,"migraine_risk":4,"frizz_risk":1,"updated_at":"2026-05-25T19:40:40.361146+05:30"},{"city":"Rourkela","state":"Odisha","latitude":22.2604,"longitude":84.8536,"temp":31.0,"humidity":62,"rain":0.0,"pressure":980.8,"uv_index":9.0,"wind_gusts":43.2,"aqi":142,"pm10":71.7,"pm2_5":39.5,"no2":15.8,"co":390.0,"o3":112.0,"so2":9.8,"mosquito_risk":3,"arthritis_risk":5,"migraine_risk":7,"frizz_risk":1,"updated_at":"2026-05-25T19:40:40.361153+05:30"},{"city":"Raipur","state":"Chhattisgarh","latitude":21.2514,"longitude":81.6296,"temp":38.5,"humidity":19,"rain":0.0,"pressure":970.0,"uv_index":8.95,"wind_gusts":37.1,"aqi":140,"pm10":87.1,"pm2_5":49.2,"no2":26.5,"co":234.0,"o3":98.0,"so2":32.3,"mosquito_risk":0,"arthritis_risk":5,"migraine_risk":10,"frizz_risk":0,"updated_at":"2026-05-25T19:40:40.361160+05:30"},{"city":"Bhilai","state":"Chhattisgarh","latitude":21.1938,"longitude":81.3509,"temp":37.0,"humidity":28,"rain":0.0,"pressure":970.6,"uv_index":8.95,"wind_gusts":27.4,"aqi":123,"pm10":90.6,"pm2_5":50.6,"no2":36.7,"co":682.0,"o3":72.0,"so2":43.4,"mosquito_risk":0,"arthritis_risk":5,"migraine_risk":10,"frizz_risk":0,"updated_at":"2026-05-25T19:40:40.361166+05:30"},{"city":"Guwahati","state":"Assam","latitude":26.1158,"longitude":91.7086,"temp":24.0,"humidity":92,"rain":0.0,"pressure":1000.2,"uv_index":8.8,"wind_gusts":27.4,"aqi":73,"pm10":28.5,"pm2_5":23.2,"no2":11.6,"co":337.0,"o3":62.0,"so2":3.4,"mosquito_risk":3,"arthritis_risk":5,"migraine_risk":4,"frizz_risk":1,"updated_at":"2026-05-25T19:40:40.361173+05:30"},{"city":"Agartala","state":"Tripura","latitude":23.8315,"longitude":91.2868,"temp":25.4,"humidity":93,"rain":0.0,"pressure":1004.8,"uv_index":8.0,"wind_gusts":50.8,"aqi":66,"pm10":29.8,"pm2_5":24.2,"no2":9.2,"co":229.0,"o3":69.0,"so2":3.4,"mosquito_risk":7,"arthritis_risk":5,"migraine_risk":4,"frizz_risk":1,"updated_at":"2026-05-25T19:40:40.361180+05:30"},{"city":"Shillong","state":"Meghalaya","latitude":25.5788,"longitude":91.8933,"temp":18.5,"humidity":94,"rain":0.0,"pressure":856.3,"uv_index":7.15,"wind_gusts":44.3,"aqi":40,"pm10":2.9,"pm2_5":2.4,"no2":7.6,"co":222.0,"o3":76.0,"so2":2.5,"mosquito_risk":3,"arthritis_risk":10,"migraine_risk":7,"frizz_risk":1,"updated_at":"2026-05-25T19:40:40.361187+05:30"},{"city":"Imphal","state":"Manipur","latitude":24.817,"longitude":93.9368,"temp":21.6,"humidity":99,"rain":0.6,"pressure":923.3,"uv_index":9.3,"wind_gusts":28.8,"aqi":92,"pm10":43.5,"pm2_5":27.2,"no2":9.4,"co":564.0,"o3":65.0,"so2":3.3,"mosquito_risk":6,"arthritis_risk":5,"migraine_risk":7,"frizz_risk":1,"updated_at":"2026-05-25T19:40:40.361193+05:30"},{"city":"Aizawl","state":"Mizoram","latitude":23.7271,"longitude":92.7176,"temp":18.9,"humidity":98,"rain":0.0,"pressure":891.8,"uv_index":9.1,"wind_gusts":45.0,"aqi":60,"pm10":15.0,"pm2_5":9.2,"no2":3.2,"co":197.0,"o3":79.0,"so2":1.7,"mosquito_risk":3,"arthritis_risk":10,"migraine_risk":7,"frizz_risk":1,"updated_at":"2026-05-25T19:40:40.361200+05:30"},{"city":"Kohima","state":"Nagaland","latitude":25.6701,"longitude":94.1077,"temp":19.1,"humidity":94,"rain":0.0,"pressure":854.7,"uv_index":9.3,"wind_gusts":36.7,"aqi":68,"pm10":31.2,"pm2_5":16.8,"no2":6.2,"co":368.0,"o3":74.0,"so2":2.0,"mosquito_risk":3,"arthritis_risk":10,"migraine_risk":7,"frizz_risk":1,"updated_at":"2026-05-25T19:40:40.361207+05:30"},{"city":"Gangtok","state":"Sikkim","latitude":27.3314,"longitude":88.6138,"temp":16.1,"humidity":95,"rain":0.1,"pressure":836.3,"uv_index":9.15,"wind_gusts":38.9,"aqi":107,"pm10":51.3,"pm2_5":33.3,"no2":10.9,"co":376.0,"o3":120.0,"so2":4.3,"mosquito_risk":6,"arthritis_risk":10,"migraine_risk":7,"frizz_risk":0,"updated_at":"2026-05-25T19:40:40.361214+05:30"},{"city":"Siliguri","state":"West Bengal","latitude":26.7271,"longitude":88.3953,"temp":25.7,"humidity":83,"rain":0.0,"pressure":990.6,"uv_index":8.7,"wind_gusts":32.8,"aqi":130,"pm10":53.3,"pm2_5":38.1,"no2":11.3,"co":637.0,"o3":127.0,"so2":7.1,"mosquito_risk":7,"arthritis_risk":5,"migraine_risk":7,"frizz_risk":1,"updated_at":"2026-05-25T19:40:43.775806+05:30"},{"city":"Durgapur","state":"West Bengal","latitude":23.5204,"longitude":87.3119,"temp":31.0,"humidity":75,"rain":0.0,"pressure":990.6,"uv_index":9.0,"wind_gusts":38.5,"aqi":204,"pm10":81.7,"pm2_5":69.8,"no2":26.9,"co":376.0,"o3":111.0,"so2":38.6,"mosquito_risk":3,"arthritis_risk":5,"migraine_risk":7,"frizz_risk":1,"updated_at":"2026-05-25T19:40:43.775841+05:30"},{"city":"Asansol","state":"West Bengal","latitude":23.6739,"longitude":86.9524,"temp":31.2,"humidity":71,"rain":0.0,"pressure":989.0,"uv_index":9.05,"wind_gusts":31.0,"aqi":162,"pm10":155.1,"pm2_5":78.9,"no2":49.1,"co":393.0,"o3":76.0,"so2":38.2,"mosquito_risk":3,"arthritis_risk":5,"migraine_risk":7,"frizz_risk":1,"updated_at":"2026-05-25T19:40:43.775854+05:30"},{"city":"Pondicherry","state":"Puducherry","latitude":11.9139,"longitude":79.8145,"temp":31.9,"humidity":67,"rain":0.0,"pressure":1006.6,"uv_index":8.9,"wind_gusts":36.0,"aqi":150,"pm10":23.6,"pm2_5":18.4,"no2":8.8,"co":252.0,"o3":108.0,"so2":5.0,"mosquito_risk":3,"arthritis_risk":5,"migraine_risk":4,"frizz_risk":1,"updated_at":"2026-05-25T19:40:43.775865+05:30"},{"city":"Port Blair","state":"Andaman and Nicobar Islands","latitude":11.6234,"longitude":92.7265,"temp":25.0,"humidity":98,"rain":0.1,"pressure":1008.9,"uv_index":8.8,"wind_gusts":31.7,"aqi":33,"pm10":8.4,"pm2_5":4.9,"no2":0.4,"co":127.0,"o3":68.0,"so2":0.3,"mosquito_risk":10,"arthritis_risk":0,"migraine_risk":4,"frizz_risk":1,"updated_at":"2026-05-25T19:40:43.775876+05:30"},{"city":"Haridwar","state":"Uttarakhand","latitude":29.9457,"longitude":78.1642,"temp":33.7,"humidity":46,"rain":0.0,"pressure":967.5,"uv_index":7.5,"wind_gusts":31.0,"aqi":141,"pm10":86.6,"pm2_5":38.2,"no2":12.4,"co":314.0,"o3":116.0,"so2":9.3,"mosquito_risk":0,"arthritis_risk":5,"migraine_risk":7,"frizz_risk":1,"updated_at":"2026-05-25T19:40:43.775914+05:30"},{"city":"Rishikesh","state":"Uttarakhand","latitude":30.0869,"longitude":78.2676,"temp":32.5,"humidity":31,"rain":0.0,"pressure":960.7,"uv_index":7.6,"wind_gusts":23.4,"aqi":119,"pm10":77.3,"pm2_5":26.4,"no2":3.8,"co":332.0,"o3":139.0,"so2":5.6,"mosquito_risk":0,"arthritis_risk":5,"migraine_risk":7,"frizz_risk":0,"updated_at":"2026-05-25T19:40:43.775926+05:30"},{"city":"Nainital","state":"Uttarakhand","latitude":29.3919,"longitude":79.4542,"temp":18.0,"humidity":63,"rain":0.0,"pressure":803.8,"uv_index":8.45,"wind_gusts":45.7,"aqi":149,"pm10":120.1,"pm2_5":40.7,"no2":7.6,"co":316.0,"o3":160.0,"so2":13.9,"mosquito_risk":3,"arthritis_risk":5,"migraine_risk":7,"frizz_risk":0,"updated_at":"2026-05-25T19:40:43.775935+05:30"},{"city":"Mussoorie","state":"Uttarakhand","latitude":30.4599,"longitude":78.0664,"temp":18.0,"humidity":53,"rain":0.0,"pressure":801.1,"uv_index":8.05,"wind_gusts":51.5,"aqi":121,"pm10":58.0,"pm2_5":29.2,"no2":14.8,"co":240.0,"o3":117.0,"so2":8.3,"mosquito_risk":0,"arthritis_risk":5,"migraine_risk":7,"frizz_risk":0,"updated_at":"2026-05-25T19:40:43.775945+05:30"},{"city":"Dharamshala","state":"Himachal Pradesh","latitude":32.219,"longitude":76.3234,"temp":22.3,"humidity":33,"rain":0.0,"pressure":866.2,"uv_index":8.45,"wind_gusts":54.4,"aqi":92,"pm10":18.2,"pm2_5":9.1,"no2":7.9,"co":214.0,"o3":94.0,"so2":1.3,"mosquito_risk":0,"arthritis_risk":5,"migraine_risk":7,"frizz_risk":0,"updated_at":"2026-05-25T19:40:43.775954+05:30"},{"city":"Dalhousie","state":"Himachal Pradesh","latitude":32.5387,"longitude":75.971,"temp":16.5,"humidity":50,"rain":0.0,"pressure":803.2,"uv_index":8.7,"wind_gusts":44.3,"aqi":92,"pm10":29.0,"pm2_5":15.0,"no2":18.8,"co":224.0,"o3":96.0,"so2":2.1,"mosquito_risk":0,"arthritis_risk":5,"migraine_risk":7,"frizz_risk":0,"updated_at":"2026-05-25T19:40:43.775964+05:30"},{"city":"Patiala","state":"Punjab","latitude":30.3398,"longitude":76.3869,"temp":36.4,"humidity":18,"rain":0.0,"pressure":972.2,"uv_index":7.6,"wind_gusts":36.4,"aqi":132,"pm10":545.8,"pm2_5":88.7,"no2":8.6,"co":312.0,"o3":100.0,"so2":5.4,"mosquito_risk":0,"arthritis_risk":5,"migraine_risk":10,"frizz_risk":0,"updated_at":"2026-05-25T19:40:43.775974+05:30"},{"city":"Bhatinda","state":"Punjab","latitude":30.211,"longitude":74.9455,"temp":36.3,"humidity":22,"rain":0.0,"pressure":977.9,"uv_index":8.25,"wind_gusts":33.1,"aqi":136,"pm10":57.0,"pm2_5":26.4,"no2":7.6,"co":211.0,"o3":123.0,"so2":7.3,"mosquito_risk":0,"arthritis_risk":5,"migraine_risk":10,"frizz_risk":0,"updated_at":"2026-05-25T19:40:43.775983+05:30"},{"city":"Rohtak","state":"Haryana","latitude":28.8955,"longitude":76.6066,"temp":36.9,"humidity":20,"rain":0.0,"pressure":975.2,"uv_index":7.75,"wind_gusts":37.8,"aqi":681,"pm10":553.2,"pm2_5":129.5,"no2":28.4,"co":334.0,"o3":68.0,"so2":8.2,"mosquito_risk":0,"arthritis_risk":5,"migraine_risk":10,"frizz_risk":0,"updated_at":"2026-05-25T19:40:43.775993+05:30"},{"city":"Panipat","state":"Haryana","latitude":29.3909,"longitude":76.9635,"temp":36.1,"humidity":25,"rain":0.0,"pressure":973.9,"uv_index":7.6,"wind_gusts":31.0,"aqi":723,"pm10":665.0,"pm2_5":136.9,"no2":20.4,"co":309.0,"o3":89.0,"so2":12.3,"mosquito_risk":0,"arthritis_risk":5,"migraine_risk":10,"frizz_risk":0,"updated_at":"2026-05-25T19:40:43.776001+05:30"},{"city":"Mathura","state":"Uttar Pradesh","latitude":27.4924,"longitude":77.6737,"temp":35.7,"humidity":34,"rain":0.0,"pressure":980.0,"uv_index":8.0,"wind_gusts":43.9,"aqi":1118,"pm10":551.3,"pm2_5":117.6,"no2":29.9,"co":229.0,"o3":59.0,"so2":6.9,"mosquito_risk":0,"arthritis_risk":5,"migraine_risk":10,"frizz_risk":1,"updated_at":"2026-05-25T19:40:43.776010+05:30"},{"city":"Vrindavan","state":"Uttar Pradesh","latitude":27.5823,"longitude":77.7027,"temp":36.0,"humidity":33,"rain":0.0,"pressure":980.5,"uv_index":8.0,"wind_gusts":40.3,"aqi":1118,"pm10":551.3,"pm2_5":117.6,"no2":29.9,"co":204.0,"o3":59.0,"so2":6.9,"mosquito_risk":0,"arthritis_risk":5,"migraine_risk":10,"frizz_risk":1,"updated_at":"2026-05-25T19:40:43.776019+05:30"},{"city":"Ayodhya","state":"Uttar Pradesh","latitude":26.7922,"longitude":82.1998,"temp":34.5,"humidity":42,"rain":0.0,"pressure":989.2,"uv_index":8.35,"wind_gusts":31.3,"aqi":173,"pm10":241.2,"pm2_5":90.3,"no2":12.3,"co":359.0,"o3":119.0,"so2":9.7,"mosquito_risk":0,"arthritis_risk":5,"migraine_risk":7,"frizz_risk":1,"updated_at":"2026-05-25T19:40:43.776028+05:30"},{"city":"Ratlam","state":"Madhya Pradesh","latitude":23.3315,"longitude":75.0367,"temp":35.0,"humidity":31,"rain":0.0,"pressure":952.6,"uv_index":8.55,"wind_gusts":46.4,"aqi":59,"pm10":27.4,"pm2_5":17.9,"no2":2.0,"co":169.0,"o3":106.0,"so2":6.0,"mosquito_risk":0,"arthritis_risk":5,"migraine_risk":7,"frizz_risk":0,"updated_at":"2026-05-25T19:40:43.776035+05:30"},{"city":"Sagar","state":"Madhya Pradesh","latitude":23.8388,"longitude":78.7378,"temp":36.5,"humidity":19,"rain":0.0,"pressure":947.0,"uv_index":8.7,"wind_gusts":43.6,"aqi":63,"pm10":52.4,"pm2_5":20.5,"no2":7.1,"co":157.0,"o3":83.0,"so2":3.1,"mosquito_risk":0,"arthritis_risk":5,"migraine_risk":10,"frizz_risk":0,"updated_at":"2026-05-25T19:40:43.776045+05:30"},{"city":"Satna","state":"Madhya Pradesh","latitude":24.6005,"longitude":80.8322,"temp":36.2,"humidity":21,"rain":0.0,"pressure":966.9,"uv_index":8.8,"wind_gusts":47.5,"aqi":66,"pm10":40.4,"pm2_5":17.9,"no2":6.9,"co":191.0,"o3":90.0,"so2":3.2,"mosquito_risk":0,"arthritis_risk":5,"migraine_risk":10,"frizz_risk":0,"updated_at":"2026-05-25T19:40:43.776055+05:30"},{"city":"Akola","state":"Maharashtra","latitude":20.7002,"longitude":77.0082,"temp":37.5,"humidity":30,"rain":0.0,"pressure":972.2,"uv_index":8.85,"wind_gusts":45.7,"aqi":71,"pm10":44.7,"pm2_5":23.7,"no2":10.3,"co":196.0,"o3":93.0,"so2":5.9,"mosquito_risk":0,"arthritis_risk":5,"migraine_risk":10,"frizz_risk":1,"updated_at":"2026-05-25T19:40:43.776063+05:30"},{"city":"Amravati","state":"Maharashtra","latitude":20.9374,"longitude":77.7796,"temp":38.5,"humidity":18,"rain":0.0,"pressure":964.1,"uv_index":7.95,"wind_gusts":50.0,"aqi":77,"pm10":55.5,"pm2_5":26.8,"no2":17.2,"co":240.0,"o3":83.0,"so2":7.6,"mosquito_risk":0,"arthritis_risk":5,"migraine_risk":10,"frizz_risk":0,"updated_at":"2026-05-25T19:40:43.776071+05:30"},{"city":"Latur","state":"Maharashtra","latitude":18.4088,"longitude":76.5604,"temp":33.0,"humidity":42,"rain":0.0,"pressure":938.7,"uv_index":9.0,"wind_gusts":33.1,"aqi":65,"pm10":61.2,"pm2_5":33.3,"no2":9.5,"co":215.0,"o3":85.0,"so2":3.8,"mosquito_risk":0,"arthritis_risk":5,"migraine_risk":7,"frizz_risk":1,"updated_at":"2026-05-25T19:40:43.776078+05:30"},{"city":"Nanded","state":"Maharashtra","latitude":19.1383,"longitude":77.3091,"temp":35.0,"humidity":39,"rain":0.0,"pressure":966.3,"uv_index":8.95,"wind_gusts":38.9,"aqi":70,"pm10":58.9,"pm2_5":32.2,"no2":11.8,"co":458.0,"o3":91.0,"so2":5.3,"mosquito_risk":0,"arthritis_risk":5,"migraine_risk":7,"frizz_risk":1,"updated_at":"2026-05-25T19:40:43.776085+05:30"},{"city":"Gulbarga","state":"Karnataka","latitude":17.3297,"longitude":76.8343,"temp":31.5,"humidity":54,"rain":0.0,"pressure":957.3,"uv_index":9.05,"wind_gusts":37.4,"aqi":90,"pm10":40.0,"pm2_5":25.2,"no2":12.9,"co":277.0,"o3":94.0,"so2":5.2,"mosquito_risk":0,"arthritis_risk":5,"migraine_risk":7,"frizz_risk":1,"updated_at":"2026-05-25T19:40:43.776091+05:30"},{"city":"Bidar","state":"Karnataka","latitude":17.9104,"longitude":77.5199,"temp":31.4,"humidity":49,"rain":0.0,"pressure":934.4,"uv_index":9.05,"wind_gusts":38.9,"aqi":78,"pm10":67.5,"pm2_5":38.4,"no2":21.1,"co":233.0,"o3":91.0,"so2":6.2,"mosquito_risk":0,"arthritis_risk":5,"migraine_risk":7,"frizz_risk":1,"updated_at":"2026-05-25T19:40:43.776098+05:30"},{"city":"Hospet","state":"Karnataka","latitude":15.2689,"longitude":76.3909,"temp":29.5,"humidity":63,"rain":0.0,"pressure":955.4,"uv_index":9.1,"wind_gusts":38.2,"aqi":50,"pm10":24.3,"pm2_5":19.8,"no2":8.7,"co":236.0,"o3":89.0,"so2":2.6,"mosquito_risk":7,"arthritis_risk":5,"migraine_risk":7,"frizz_risk":1,"updated_at":"2026-05-25T19:40:43.776104+05:30"},{"city":"Tirupur","state":"Tamil Nadu","latitude":11.1085,"longitude":77.3411,"temp":27.7,"humidity":73,"rain":0.0,"pressure":975.3,"uv_index":9.0,"wind_gusts":58.7,"aqi":69,"pm10":13.1,"pm2_5":11.3,"no2":8.3,"co":191.0,"o3":81.0,"so2":4.1,"mosquito_risk":7,"arthritis_risk":5,"migraine_risk":7,"frizz_risk":1,"updated_at":"2026-05-25T19:40:43.776111+05:30"},{"city":"Alappuzha","state":"Kerala","latitude":9.4981,"longitude":76.3388,"temp":27.4,"humidity":90,"rain":0.0,"pressure":1010.1,"uv_index":8.6,"wind_gusts":26.3,"aqi":43,"pm10":17.8,"pm2_5":14.1,"no2":11.7,"co":108.0,"o3":48.0,"so2":2.7,"mosquito_risk":7,"arthritis_risk":0,"migraine_risk":4,"frizz_risk":1,"updated_at":"2026-05-25T19:40:43.776117+05:30"},{"city":"Munnar","state":"Kerala","latitude":10.0889,"longitude":77.0595,"temp":18.0,"humidity":100,"rain":0.0,"pressure":857.8,"uv_index":8.0,"wind_gusts":27.7,"aqi":37,"pm10":9.7,"pm2_5":8.9,"no2":6.8,"co":235.0,"o3":66.0,"so2":2.2,"mosquito_risk":3,"arthritis_risk":10,"migraine_risk":7,"frizz_risk":1,"updated_at":"2026-05-25T19:40:43.776124+05:30"},{"city":"Silchar","state":"Assam","latitude":24.8333,"longitude":92.7789,"temp":24.2,"humidity":99,"rain":0.2,"pressure":1005.2,"uv_index":8.95,"wind_gusts":30.6,"aqi":85,"pm10":32.0,"pm2_5":22.0,"no2":6.6,"co":374.0,"o3":88.0,"so2":3.8,"mosquito_risk":6,"arthritis_risk":5,"migraine_risk":4,"frizz_risk":1,"updated_at":"2026-05-25T19:40:43.776131+05:30"},{"city":"Dibrugarh","state":"Assam","latitude":27.4728,"longitude":94.912,"temp":23.7,"humidity":97,"rain":0.0,"pressure":995.2,"uv_index":8.95,"wind_gusts":31.7,"aqi":74,"pm10":40.7,"pm2_5":32.0,"no2":15.5,"co":238.0,"o3":56.0,"so2":3.1,"mosquito_risk":3,"arthritis_risk":5,"migraine_risk":7,"frizz_risk":1,"updated_at":"2026-05-25T19:40:43.776137+05:30"}]