[{"city":"Delhi","state":"Delhi","latitude":28.6139,"longitude":77.209,"temp":35.2,"humidity":18,"rain":0.0,"pressure":981.7,"uv_index":6.15,"wind_gusts":30.2,"aqi":198,"pm10":373.5,"pm2_5":57.7,"mosquito_risk":0,"arthritis_risk":5,"migraine_risk":10,"frizz_risk":0,"updated_at":"2026-03-12T15:19:02.999339+05:30"},{"city":"Mumbai","state":"Maharashtra","latitude":19.076,"longitude":72.8777,"temp":27.9,"humidity":87,"rain":0.0,"pressure":1006.7,"uv_index":7.6,"wind_gusts":27.7,"aqi":203,"pm10":105.5,"pm2_5":100.4,"mosquito_risk":7,"arthritis_risk":5,"migraine_risk":4,"frizz_risk":1,"updated_at":"2026-03-12T15:19:02.999379+05:30"},{"city":"Bangalore","state":"Karnataka","latitude":12.9716,"longitude":77.5946,"temp":32.9,"humidity":20,"rain":0.0,"pressure":911.4,"uv_index":9.3,"wind_gusts":32.8,"aqi":69,"pm10":18.3,"pm2_5":14.8,"mosquito_risk":0,"arthritis_risk":5,"migraine_risk":7,"frizz_risk":0,"updated_at":"2026-03-12T15:19:02.999395+05:30"},{"city":"Hyderabad","state":"Telangana","latitude":17.385,"longitude":78.4867,"temp":36.3,"humidity":19,"rain":0.0,"pressure":952.7,"uv_index":8.65,"wind_gusts":23.4,"aqi":102,"pm10":31.5,"pm2_5":21.8,"mosquito_risk":0,"arthritis_risk":5,"migraine_risk":10,"frizz_risk":0,"updated_at":"2026-03-12T15:19:02.999405+05:30"},{"city":"Chennai","state":"Tamil Nadu","latitude":13.0827,"longitude":80.2707,"temp":32.8,"humidity":51,"rain":0.0,"pressure":1006.8,"uv_index":9.0,"wind_gusts":29.5,"aqi":76,"pm10":29.9,"pm2_5":25.3,"mosquito_risk":0,"arthritis_risk":5,"migraine_risk":4,"frizz_risk":1,"updated_at":"2026-03-12T15:19:02.999414+05:30"},{"city":"Kolkata","state":"West Bengal","latitude":22.5726,"longitude":88.3639,"temp":29.5,"humidity":67,"rain":0.0,"pressure":1005.3,"uv_index":8.0,"wind_gusts":20.9,"aqi":132,"pm10":72.6,"pm2_5":60.8,"mosquito_risk":7,"arthritis_risk":5,"migraine_risk":4,"frizz_risk":1,"updated_at":"2026-03-12T15:19:02.999423+05:30"},{"city":"Pune","state":"Maharashtra","latitude":18.5204,"longitude":73.8567,"temp":38.2,"humidity":17,"rain":0.0,"pressure":947.9,"uv_index":8.15,"wind_gusts":25.9,"aqi":148,"pm10":28.3,"pm2_5":24.2,"mosquito_risk":0,"arthritis_risk":5,"migraine_risk":10,"frizz_risk":0,"updated_at":"2026-03-12T15:19:02.999437+05:30"},{"city":"Ahmedabad","state":"Gujarat","latitude":23.0225,"longitude":72.5714,"temp":39.1,"humidity":11,"rain":0.0,"pressure":1001.6,"uv_index":7.45,"wind_gusts":30.6,"aqi":69,"pm10":18.1,"pm2_5":12.6,"mosquito_risk":0,"arthritis_risk":5,"migraine_risk":7,"frizz_risk":0,"updated_at":"2026-03-12T15:19:02.999444+05:30"},{"city":"Jaipur","state":"Rajasthan","latitude":26.9124,"longitude":75.7873,"temp":35.3,"humidity":9,"rain":0.0,"pressure":959.6,"uv_index":5.95,"wind_gusts":42.8,"aqi":104,"pm10":170.9,"pm2_5":23.1,"mosquito_risk":0,"arthritis_risk":5,"migraine_risk":6,"frizz_risk":1,"updated_at":"2026-03-12T15:19:02.999452+05:30"},{"city":"Lucknow","state":"Uttar Pradesh","latitude":26.8467,"longitude":80.9462,"temp":35.1,"humidity":26,"rain":0.0,"pressure":992.2,"uv_index":6.5,"wind_gusts":28.1,"aqi":154,"pm10":199.8,"pm2_5":48.0,"mosquito_risk":0,"arthritis_risk":5,"migraine_risk":10,"frizz_risk":0,"updated_at":"2026-03-12T15:19:02.999460+05:30"},{"city":"Kanpur","state":"Uttar Pradesh","latitude":26.4499,"longitude":80.3319,"temp":34.5,"humidity":36,"rain":0.0,"pressure":990.6,"uv_index":5.9,"wind_gusts":18.0,"aqi":173,"pm10":319.4,"pm2_5":44.5,"mosquito_risk":0,"arthritis_risk":5,"migraine_risk":3,"frizz_risk":1,"updated_at":"2026-03-12T15:19:02.999467+05:30"},{"city":"Chandigarh","state":"Chandigarh","latitude":30.7333,"longitude":76.7794,"temp":31.1,"humidity":38,"rain":0.0,"pressure":967.9,"uv_index":6.05,"wind_gusts":32.0,"aqi":99,"pm10":64.0,"pm2_5":20.8,"mosquito_risk":0,"arthritis_risk":5,"migraine_risk":7,"frizz_risk":0,"updated_at":"2026-03-12T15:19:02.999474+05:30"},{"city":"Srinagar","state":"Jammu and Kashmir","latitude":34.0837,"longitude":74.7973,"temp":13.0,"humidity":79,"rain":0.0,"pressure":840.1,"uv_index":6.35,"wind_gusts":22.3,"aqi":101,"pm10":3.9,"pm2_5":3.9,"mosquito_risk":3,"arthritis_risk":5,"migraine_risk":7,"frizz_risk":0,"updated_at":"2026-03-12T15:19:02.999482+05:30"},{"city":"Jammu","state":"Jammu and Kashmir","latitude":32.7266,"longitude":74.857,"temp":26.6,"humidity":56,"rain":0.0,"pressure":974.1,"uv_index":6.35,"wind_gusts":39.6,"aqi":82,"pm10":63.6,"pm2_5":23.7,"mosquito_risk":4,"arthritis_risk":5,"migraine_risk":7,"frizz_risk":1,"updated_at":"2026-03-12T15:19:02.999489+05:30"},{"city":"Amritsar","state":"Punjab","latitude":31.634,"longitude":74.8723,"temp":27.7,"humidity":54,"rain":0.0,"pressure":981.6,"uv_index":6.65,"wind_gusts":32.4,"aqi":157,"pm10":85.2,"pm2_5":39.0,"mosquito_risk":4,"arthritis_risk":5,"migraine_risk":7,"frizz_risk":1,"updated_at":"2026-03-12T15:19:02.999496+05:30"},{"city":"Ludhiana","state":"Punjab","latitude":30.901,"longitude":75.8573,"temp":30.8,"humidity":38,"rain":0.0,"pressure":978.5,"uv_index":6.2,"wind_gusts":59.4,"aqi":157,"pm10":43.4,"pm2_5":23.5,"mosquito_risk":0,"arthritis_risk":5,"migraine_risk":7,"frizz_risk":0,"updated_at":"2026-03-12T15:19:02.999502+05:30"},{"city":"Jalandhar","state":"Punjab","latitude":31.326,"longitude":75.5762,"temp":29.8,"humidity":43,"rain":0.0,"pressure":980.0,"uv_index":6.45,"wind_gusts":31.7,"aqi":152,"pm10":75.9,"pm2_5":27.7,"mosquito_risk":4,"arthritis_risk":5,"migraine_risk":7,"frizz_risk":0,"updated_at":"2026-03-12T15:19:02.999511+05:30"},{"city":"Dehradun","state":"Uttarakhand","latitude":30.6284,"longitude":78.0322,"temp":21.7,"humidity":42,"rain":0.0,"pressure":831.6,"uv_index":5.7,"wind_gusts":37.1,"aqi":58,"pm10":37.3,"pm2_5":12.7,"mosquito_risk":0,"arthritis_risk":5,"migraine_risk":3,"frizz_risk":0,"updated_at":"2026-03-12T15:19:02.999518+05:30"},{"city":"Shimla","state":"Himachal Pradesh","latitude":31.1048,"longitude":77.1734,"temp":19.9,"humidity":40,"rain":0.0,"pressure":786.5,"uv_index":6.5,"wind_gusts":42.5,"aqi":70,"pm10":47.0,"pm2_5":14.4,"mosquito_risk":0,"arthritis_risk":5,"migraine_risk":7,"frizz_risk":0,"updated_at":"2026-03-12T15:19:02.999524+05:30"},{"city":"Manali","state":"Himachal Pradesh","latitude":32.2396,"longitude":77.1887,"temp":13.4,"humidity":92,"rain":0.3,"pressure":819.3,"uv_index":4.0,"wind_gusts":44.6,"aqi":46,"pm10":10.3,"pm2_5":3.7,"mosquito_risk":6,"arthritis_risk":10,"migraine_risk":3,"frizz_risk":0,"updated_at":"2026-03-12T15:19:02.999531+05:30"},{"city":"Gurgaon","state":"Haryana","latitude":28.4595,"longitude":77.0266,"temp":35.2,"humidity":17,"rain":0.0,"pressure":980.2,"uv_index":6.15,"wind_gusts":31.0,"aqi":882,"pm10":1672.7,"pm2_5":162.1,"mosquito_risk":0,"arthritis_risk":5,"migraine_risk":10,"frizz_risk":0,"updated_at":"2026-03-12T15:19:02.999537+05:30"},{"city":"Noida","state":"Uttar Pradesh","latitude":28.5355,"longitude":77.391,"temp":35.8,"humidity":16,"rain":0.0,"pressure":983.1,"uv_index":6.05,"wind_gusts":29.9,"aqi":882,"pm10":1672.7,"pm2_5":162.1,"mosquito_risk":0,"arthritis_risk":5,"migraine_risk":10,"frizz_risk":0,"updated_at":"2026-03-12T15:19:02.999546+05:30"},{"city":"Ghaziabad","state":"Uttar Pradesh","latitude":28.6692,"longitude":77.4538,"temp":34.6,"humidity":21,"rain":0.0,"pressure":981.4,"uv_index":6.1,"wind_gusts":26.3,"aqi":156,"pm10":276.6,"pm2_5":50.9,"mosquito_risk":0,"arthritis_risk":5,"migraine_risk":7,"frizz_risk":0,"updated_at":"2026-03-12T15:19:02.999554+05:30"},{"city":"Faridabad","state":"Haryana","latitude":28.4089,"longitude":77.3178,"temp":36.0,"humidity":12,"rain":0.0,"pressure":982.2,"uv_index":6.2,"wind_gusts":29.9,"aqi":882,"pm10":1672.7,"pm2_5":162.1,"mosquito_risk":0,"arthritis_risk":5,"migraine_risk":10,"frizz_risk":0,"updated_at":"2026-03-12T15:19:02.999560+05:30"},{"city":"Meerut","state":"Uttar Pradesh","latitude":28.9845,"longitude":77.7064,"temp":34.2,"humidity":26,"rain":0.0,"pressure":980.3,"uv_index":6.0,"wind_gusts":24.5,"aqi":156,"pm10":276.6,"pm2_5":50.9,"mosquito_risk":0,"arthritis_risk":5,"migraine_risk":3,"frizz_risk":0,"updated_at":"2026-03-12T15:19:02.999566+05:30"},{"city":"Agra","state":"Uttar Pradesh","latitude":27.1767,"longitude":78.0081,"temp":38.1,"humidity":10,"rain":0.0,"pressure":986.1,"uv_index":6.15,"wind_gusts":31.7,"aqi":488,"pm10":888.5,"pm2_5":85.2,"mosquito_risk":0,"arthritis_risk":5,"migraine_risk":10,"frizz_risk":0,"updated_at":"2026-03-12T15:19:02.999573+05:30"},{"city":"Varanasi","state":"Uttar Pradesh","latitude":25.3176,"longitude":82.9739,"temp":34.7,"humidity":29,"rain":0.0,"pressure":996.2,"uv_index":7.3,"wind_gusts":23.8,"aqi":151,"pm10":146.7,"pm2_5":36.6,"mosquito_risk":0,"arthritis_risk":5,"migraine_risk":7,"frizz_risk":0,"updated_at":"2026-03-12T15:19:02.999582+05:30"},{"city":"Prayagraj","state":"Uttar Pradesh","latitude":25.4358,"longitude":81.8463,"temp":35.2,"humidity":31,"rain":0.0,"pressure":994.6,"uv_index":6.6,"wind_gusts":23.0,"aqi":150,"pm10":127.1,"pm2_5":32.4,"mosquito_risk":0,"arthritis_risk":5,"migraine_risk":10,"frizz_risk":0,"updated_at":"2026-03-12T15:19:02.999589+05:30"},{"city":"Gorakhpur","state":"Uttar Pradesh","latitude":26.7606,"longitude":83.3732,"temp":32.7,"humidity":39,"rain":0.0,"pressure":995.5,"uv_index":7.0,"wind_gusts":18.4,"aqi":228,"pm10":169.0,"pm2_5":82.0,"mosquito_risk":0,"arthritis_risk":5,"migraine_risk":7,"frizz_risk":1,"updated_at":"2026-03-12T15:19:02.999595+05:30"},{"city":"Bareilly","state":"Uttar Pradesh","latitude":28.367,"longitude":79.4304,"temp":33.8,"humidity":34,"rain":0.0,"pressure":985.2,"uv_index":6.25,"wind_gusts":23.4,"aqi":126,"pm10":63.6,"pm2_5":42.8,"mosquito_risk":0,"arthritis_risk":5,"migraine_risk":7,"frizz_risk":0,"updated_at":"2026-03-12T15:19:02.999602+05:30"},{"city":"Aligarh","state":"Uttar Pradesh","latitude":27.8974,"longitude":78.088,"temp":37.1,"humidity":13,"rain":0.0,"pressure":983.7,"uv_index":5.95,"wind_gusts":29.9,"aqi":496,"pm10":890.3,"pm2_5":111.1,"mosquito_risk":0,"arthritis_risk":5,"migraine_risk":6,"frizz_risk":0,"updated_at":"2026-03-12T15:19:02.999611+05:30"},{"city":"Moradabad","state":"Uttar Pradesh","latitude":28.8386,"longitude":78.7733,"temp":33.9,"humidity":29,"rain":0.0,"pressure":982.2,"uv_index":6.05,"wind_gusts":26.3,"aqi":125,"pm10":86.1,"pm2_5":49.7,"mosquito_risk":0,"arthritis_risk":5,"migraine_risk":7,"frizz_risk":0,"updated_at":"2026-03-12T15:19:02.999620+05:30"},{"city":"Saharanpur","state":"Uttar Pradesh","latitude":29.9637,"longitude":77.546,"temp":32.2,"humidity":36,"rain":0.0,"pressure":974.7,"uv_index":5.3,"wind_gusts":24.8,"aqi":150,"pm10":79.4,"pm2_5":42.1,"mosquito_risk":0,"arthritis_risk":5,"migraine_risk":3,"frizz_risk":0,"updated_at":"2026-03-12T15:19:02.999626+05:30"},{"city":"Jhansi","state":"Uttar Pradesh","latitude":25.4484,"longitude":78.5685,"temp":38.4,"humidity":14,"rain":0.0,"pressure":976.8,"uv_index":6.65,"wind_gusts":29.9,"aqi":64,"pm10":22.6,"pm2_5":9.1,"mosquito_risk":0,"arthritis_risk":5,"migraine_risk":10,"frizz_risk":0,"updated_at":"2026-03-12T15:19:06.263810+05:30"},{"city":"Surat","state":"Gujarat","latitude":21.1702,"longitude":72.8311,"temp":35.2,"humidity":37,"rain":0.0,"pressure":1006.1,"uv_index":7.3,"wind_gusts":26.3,"aqi":149,"pm10":44.1,"pm2_5":42.8,"mosquito_risk":0,"arthritis_risk":5,"migraine_risk":7,"frizz_risk":1,"updated_at":"2026-03-12T15:19:06.263841+05:30"},{"city":"Vadodara","state":"Gujarat","latitude":22.3072,"longitude":73.1812,"temp":40.4,"humidity":14,"rain":0.0,"pressure":1003.3,"uv_index":7.45,"wind_gusts":26.6,"aqi":78,"pm10":25.5,"pm2_5":23.3,"mosquito_risk":0,"arthritis_risk":5,"migraine_risk":7,"frizz_risk":0,"updated_at":"2026-03-12T15:19:06.263851+05:30"},{"city":"Rajkot","state":"Gujarat","latitude":22.3039,"longitude":70.8022,"temp":37.8,"humidity":13,"rain":0.0,"pressure":994.2,"uv_index":7.3,"wind_gusts":31.3,"aqi":57,"pm10":31.8,"pm2_5":14.9,"mosquito_risk":0,"arthritis_risk":5,"migraine_risk":10,"frizz_risk":0,"updated_at":"2026-03-12T15:19:06.263859+05:30"},{"city":"Thane","state":"Maharashtra","latitude":19.2183,"longitude":72.9781,"temp":32.1,"humidity":56,"rain":0.0,"pressure":1006.7,"uv_index":7.6,"wind_gusts":41.4,"aqi":203,"pm10":105.5,"pm2_5":100.4,"mosquito_risk":0,"arthritis_risk":5,"migraine_risk":4,"frizz_risk":1,"updated_at":"2026-03-12T15:19:06.263866+05:30"},{"city":"Nagpur","state":"Maharashtra","latitude":21.1458,"longitude":79.0882,"temp":37.9,"humidity":13,"rain":0.0,"pressure":972.0,"uv_index":8.0,"wind_gusts":16.6,"aqi":88,"pm10":36.3,"pm2_5":19.2,"mosquito_risk":0,"arthritis_risk":5,"migraine_risk":10,"frizz_risk":0,"updated_at":"2026-03-12T15:19:06.263874+05:30"},{"city":"Nashik","state":"Maharashtra","latitude":19.9975,"longitude":73.7898,"temp":37.1,"humidity":15,"rain":0.0,"pressure":945.2,"uv_index":7.8,"wind_gusts":33.8,"aqi":105,"pm10":14.2,"pm2_5":11.5,"mosquito_risk":0,"arthritis_risk":5,"migraine_risk":10,"frizz_risk":0,"updated_at":"2026-03-12T15:19:06.263881+05:30"},{"city":"Aurangabad","state":"Maharashtra","latitude":19.8762,"longitude":75.3433,"temp":37.4,"humidity":16,"rain":0.0,"pressure":943.6,"uv_index":8.35,"wind_gusts":20.5,"aqi":106,"pm10":23.5,"pm2_5":17.9,"mosquito_risk":0,"arthritis_risk":5,"migraine_risk":10,"frizz_risk":0,"updated_at":"2026-03-12T15:19:06.263888+05:30"},{"city":"Solapur","state":"Maharashtra","latitude":17.6599,"longitude":75.9064,"temp":35.9,"humidity":24,"rain":0.0,"pressure":956.6,"uv_index":8.5,"wind_gusts":18.0,"aqi":103,"pm10":33.8,"pm2_5":27.2,"mosquito_risk":0,"arthritis_risk":5,"migraine_risk":10,"frizz_risk":0,"updated_at":"2026-03-12T15:19:06.263895+05:30"},{"city":"Kolhapur","state":"Maharashtra","latitude":16.705,"longitude":74.2433,"temp":35.7,"humidity":20,"rain":0.0,"pressure":947.4,"uv_index":8.65,"wind_gusts":27.7,"aqi":152,"pm10":31.7,"pm2_5":26.0,"mosquito_risk":0,"arthritis_risk":5,"migraine_risk":10,"frizz_risk":0,"updated_at":"2026-03-12T15:19:06.263902+05:30"},{"city":"Goa","state":"Goa","latitude":15.2993,"longitude":74.124,"temp":31.6,"humidity":67,"rain":0.0,"pressure":995.9,"uv_index":8.7,"wind_gusts":33.5,"aqi":149,"pm10":47.5,"pm2_5":41.1,"mosquito_risk":3,"arthritis_risk":5,"migraine_risk":7,"frizz_risk":1,"updated_at":"2026-03-12T15:19:06.263909+05:30"},{"city":"Jodhpur","state":"Rajasthan","latitude":26.2389,"longitude":73.0243,"temp":37.3,"humidity":18,"rain":0.0,"pressure":982.6,"uv_index":6.65,"wind_gusts":25.9,"aqi":68,"pm10":85.4,"pm2_5":19.8,"mosquito_risk":0,"arthritis_risk":5,"migraine_risk":10,"frizz_risk":0,"updated_at":"2026-03-12T15:19:06.263917+05:30"},{"city":"Udaipur","state":"Rajasthan","latitude":24.5854,"longitude":73.7125,"temp":35.3,"humidity":8,"rain":0.0,"pressure":947.3,"uv_index":7.5,"wind_gusts":38.5,"aqi":60,"pm10":9.0,"pm2_5":8.1,"mosquito_risk":0,"arthritis_risk":5,"migraine_risk":10,"frizz_risk":1,"updated_at":"2026-03-12T15:19:06.263924+05:30"},{"city":"Kota","state":"Rajasthan","latitude":25.2138,"longitude":75.8648,"temp":38.1,"humidity":8,"rain":0.0,"pressure":978.2,"uv_index":6.75,"wind_gusts":34.2,"aqi":75,"pm10":10.5,"pm2_5":10.0,"mosquito_risk":0,"arthritis_risk":5,"migraine_risk":10,"frizz_risk":1,"updated_at":"2026-03-12T15:19:06.263931+05:30"},{"city":"Bikaner","state":"Rajasthan","latitude":28.0229,"longitude":73.3119,"temp":35.8,"humidity":21,"rain":0.0,"pressure":981.4,"uv_index":6.2,"wind_gusts":28.4,"aqi":92,"pm10":84.3,"pm2_5":25.3,"mosquito_risk":0,"arthritis_risk":5,"migraine_risk":10,"frizz_risk":0,"updated_at":"2026-03-12T15:19:06.263938+05:30"},{"city":"Ajmer","state":"Rajasthan","latitude":26.4499,"longitude":74.6399,"temp":35.0,"humidity":12,"rain":0.0,"pressure":954.8,"uv_index":6.7,"wind_gusts":34.2,"aqi":55,"pm10":22.3,"pm2_5":9.5,"mosquito_risk":0,"arthritis_risk":5,"migraine_risk":7,"frizz_risk":0,"updated_at":"2026-03-12T15:19:06.263945+05:30"},{"city":"Gwalior","state":"Madhya Pradesh","latitude":26.2183,"longitude":78.1828,"temp":36.2,"humidity":14,"rain":0.0,"pressure":982.4,"uv_index":6.25,"wind_gusts":33.8,"aqi":66,"pm10":21.7,"pm2_5":8.5,"mosquito_risk":0,"arthritis_risk":5,"migraine_risk":10,"frizz_risk":0,"updated_at":"2026-03-12T15:19:06.263952+05:30"},{"city":"Indore","state":"Madhya Pradesh","latitude":22.7196,"longitude":75.8577,"temp":36.4,"humidity":15,"rain":0.0,"pressure":948.4,"uv_index":7.75,"wind_gusts":29.2,"aqi":74,"pm10":19.3,"pm2_5":12.0,"mosquito_risk":0,"arthritis_risk":5,"migraine_risk":10,"frizz_risk":0,"updated_at":"2026-03-12T15:19:06.263959+05:30"},{"city":"Bhopal","state":"Madhya Pradesh","latitude":23.2599,"longitude":77.4126,"temp":36.4,"humidity":17,"rain":0.0,"pressure":953.7,"uv_index":7.6,"wind_gusts":28.8,"aqi":78,"pm10":19.6,"pm2_5":12.5,"mosquito_risk":0,"arthritis_risk":5,"migraine_risk":10,"frizz_risk":0,"updated_at":"2026-03-12T15:19:06.263966+05:30"},{"city":"Jabalpur","state":"Madhya Pradesh","latitude":23.1815,"longitude":79.9864,"temp":35.9,"humidity":18,"rain":0.0,"pressure":961.0,"uv_index":7.65,"wind_gusts":20.5,"aqi":88,"pm10":31.8,"pm2_5":11.1,"mosquito_risk":0,"arthritis_risk":5,"migraine_risk":10,"frizz_risk":0,"updated_at":"2026-03-12T15:19:06.263973+05:30"},{"city":"Ujjain","state":"Madhya Pradesh","latitude":23.1765,"longitude":75.7885,"temp":35.9,"humidity":18,"rain":0.0,"pressure":954.1,"uv_index":7.65,"wind_gusts":27.7,"aqi":96,"pm10":15.1,"pm2_5":12.3,"mosquito_risk":0,"arthritis_risk":5,"migraine_risk":10,"frizz_risk":0,"updated_at":"2026-03-12T15:19:06.263980+05:30"},{"city":"Visakhapatnam","state":"Andhra Pradesh","latitude":17.6868,"longitude":83.2185,"temp":31.8,"humidity":57,"rain":0.0,"pressure":1002.6,"uv_index":8.65,"wind_gusts":40.3,"aqi":87,"pm10":37.5,"pm2_5":33.3,"mosquito_risk":0,"arthritis_risk":5,"migraine_risk":4,"frizz_risk":1,"updated_at":"2026-03-12T15:19:06.263987+05:30"},{"city":"Vijayawada","state":"Andhra Pradesh","latitude":16.5062,"longitude":80.648,"temp":37.6,"humidity":26,"rain":0.0,"pressure":1000.7,"uv_index":8.7,"wind_gusts":33.1,"aqi":71,"pm10":31.5,"pm2_5":26.4,"mosquito_risk":0,"arthritis_risk":5,"migraine_risk":7,"frizz_risk":0,"updated_at":"2026-03-12T15:19:06.263994+05:30"},{"city":"Guntur","state":"Andhra Pradesh","latitude":16.3067,"longitude":80.4365,"temp":37.7,"humidity":29,"rain":0.0,"pressure":1001.9,"uv_index":8.7,"wind_gusts":36.0,"aqi":68,"pm10":31.5,"pm2_5":25.1,"mosquito_risk":0,"arthritis_risk":5,"migraine_risk":7,"frizz_risk":1,"updated_at":"2026-03-12T15:19:06.264000+05:30"},{"city":"Nellore","state":"Andhra Pradesh","latitude":14.4426,"longitude":79.9865,"temp":36.4,"humidity":33,"rain":0.0,"pressure":1004.6,"uv_index":8.9,"wind_gusts":28.1,"aqi":68,"pm10":34.0,"pm2_5":28.9,"mosquito_risk":0,"arthritis_risk":5,"migraine_risk":7,"frizz_risk":1,"updated_at":"2026-03-12T15:19:06.264007+05:30"},{"city":"Kurnool","state":"Andhra Pradesh","latitude":15.8281,"longitude":78.0373,"temp":38.0,"humidity":19,"rain":0.0,"pressure":975.6,"uv_index":8.65,"wind_gusts":25.9,"aqi":75,"pm10":28.2,"pm2_5":20.9,"mosquito_risk":0,"arthritis_risk":5,"migraine_risk":10,"frizz_risk":0,"updated_at":"2026-03-12T15:19:06.264014+05:30"},{"city":"Kakinada","state":"Andhra Pradesh","latitude":16.9891,"longitude":82.2475,"temp":37.2,"humidity":34,"rain":0.0,"pressure":1005.2,"uv_index":8.65,"wind_gusts":41.0,"aqi":70,"pm10":28.1,"pm2_5":23.2,"mosquito_risk":0,"arthritis_risk":5,"migraine_risk":7,"frizz_risk":1,"updated_at":"2026-03-12T15:19:06.264021+05:30"},{"city":"Tirupati","state":"Andhra Pradesh","latitude":13.6288,"longitude":79.4192,"temp":35.7,"humidity":26,"rain":0.0,"pressure":990.4,"uv_index":9.05,"wind_gusts":36.4,"aqi":90,"pm10":27.8,"pm2_5":24.0,"mosquito_risk":0,"arthritis_risk":5,"migraine_risk":10,"frizz_risk":0,"updated_at":"2026-03-12T15:19:06.264028+05:30"},{"city":"Warangal","state":"Telangana","latitude":17.9689,"longitude":79.5941,"temp":36.7,"humidity":23,"rain":0.0,"pressure":977.6,"uv_index":8.45,"wind_gusts":11.9,"aqi":108,"pm10":44.1,"pm2_5":31.5,"mosquito_risk":0,"arthritis_risk":5,"migraine_risk":10,"frizz_risk":0,"updated_at":"2026-03-12T15:19:06.264034+05:30"},{"city":"Nizamabad","state":"Telangana","latitude":18.6725,"longitude":78.0941,"temp":36.5,"humidity":22,"rain":0.0,"pressure":963.9,"uv_index":8.35,"wind_gusts":19.8,"aqi":108,"pm10":34.3,"pm2_5":26.3,"mosquito_risk":0,"arthritis_risk":5,"migraine_risk":10,"frizz_risk":0,"updated_at":"2026-03-12T15:19:06.264041+05:30"},{"city":"Mysore","state":"Karnataka","latitude":12.2958,"longitude":76.6396,"temp":33.0,"humidity":22,"rain":0.0,"pressure":927.8,"uv_index":9.3,"wind_gusts":34.9,"aqi":64,"pm10":12.7,"pm2_5":10.9,"mosquito_risk":0,"arthritis_risk":5,"migraine_risk":7,"frizz_risk":0,"updated_at":"2026-03-12T15:19:06.264048+05:30"},{"city":"Mangalore","state":"Karnataka","latitude":12.9141,"longitude":74.856,"temp":28.9,"humidity":85,"rain":0.0,"pressure":1003.5,"uv_index":8.95,"wind_gusts":32.8,"aqi":103,"pm10":42.5,"pm2_5":36.0,"mosquito_risk":7,"arthritis_risk":5,"migraine_risk":4,"frizz_risk":1,"updated_at":"2026-03-12T15:19:06.264054+05:30"},{"city":"Hubli-Dharwad","state":"Karnataka","latitude":15.3647,"longitude":75.124,"temp":35.9,"humidity":19,"rain":0.0,"pressure":940.1,"uv_index":8.85,"wind_gusts":35.6,"aqi":69,"pm10":20.2,"pm2_5":16.5,"mosquito_risk":0,"arthritis_risk":5,"migraine_risk":10,"frizz_risk":0,"updated_at":"2026-03-12T15:19:06.264061+05:30"},{"city":"Belgaum","state":"Karnataka","latitude":15.8497,"longitude":74.4977,"temp":34.9,"humidity":19,"rain":0.0,"pressure":925.6,"uv_index":8.9,"wind_gusts":37.4,"aqi":109,"pm10":23.9,"pm2_5":20.1,"mosquito_risk":0,"arthritis_risk":5,"migraine_risk":7,"frizz_risk":0,"updated_at":"2026-03-12T15:19:09.530232+05:30"},{"city":"Coimbatore","state":"Tamil Nadu","latitude":11.0168,"longitude":76.9558,"temp":34.6,"humidity":25,"rain":0.0,"pressure":960.2,"uv_index":9.3,"wind_gusts":44.3,"aqi":74,"pm10":15.0,"pm2_5":13.6,"mosquito_risk":0,"arthritis_risk":5,"migraine_risk":7,"frizz_risk":0,"updated_at":"2026-03-12T15:19:09.530264+05:30"},{"city":"Madurai","state":"Tamil Nadu","latitude":9.9252,"longitude":78.1198,"temp":36.0,"humidity":32,"rain":0.0,"pressure":990.6,"uv_index":9.2,"wind_gusts":32.0,"aqi":72,"pm10":18.9,"pm2_5":16.9,"mosquito_risk":0,"arthritis_risk":5,"migraine_risk":10,"frizz_risk":1,"updated_at":"2026-03-12T15:19:09.530274+05:30"},{"city":"Trichy","state":"Tamil Nadu","latitude":10.7905,"longitude":78.7047,"temp":34.7,"humidity":41,"rain":0.0,"pressure":997.9,"uv_index":9.15,"wind_gusts":28.1,"aqi":79,"pm10":25.1,"pm2_5":23.4,"mosquito_risk":0,"arthritis_risk":5,"migraine_risk":7,"frizz_risk":1,"updated_at":"2026-03-12T15:19:09.530282+05:30"},{"city":"Salem","state":"Tamil Nadu","latitude":11.6643,"longitude":78.146,"temp":35.1,"humidity":34,"rain":0.0,"pressure":975.7,"uv_index":9.2,"wind_gusts":27.7,"aqi":75,"pm10":15.5,"pm2_5":14.2,"mosquito_risk":0,"arthritis_risk":5,"migraine_risk":10,"frizz_risk":1,"updated_at":"2026-03-12T15:19:09.530290+05:30"},{"city":"Tirunelveli","state":"Tamil Nadu","latitude":8.7139,"longitude":77.7567,"temp":34.3,"humidity":44,"rain":0.0,"pressure":1001.2,"uv_index":8.3,"wind_gusts":27.4,"aqi":63,"pm10":15.8,"pm2_5":13.7,"mosquito_risk":0,"arthritis_risk":5,"migraine_risk":4,"frizz_risk":1,"updated_at":"2026-03-12T15:19:09.530297+05:30"},{"city":"Vellore","state":"Tamil Nadu","latitude":12.9165,"longitude":79.1325,"temp":35.1,"humidity":27,"rain":0.0,"pressure":983.5,"uv_index":9.1,"wind_gusts":36.4,"aqi":94,"pm10":17.7,"pm2_5":15.8,"mosquito_risk":0,"arthritis_risk":5,"migraine_risk":10,"frizz_risk":0,"updated_at":"2026-03-12T15:19:09.530304+05:30"},{"city":"Erode","state":"Tamil Nadu","latitude":11.341,"longitude":77.7172,"temp":36.0,"humidity":33,"rain":0.0,"pressure":987.2,"uv_index":9.2,"wind_gusts":24.5,"aqi":75,"pm10":21.0,"pm2_5":19.4,"mosquito_risk":0,"arthritis_risk":5,"migraine_risk":10,"frizz_risk":1,"updated_at":"2026-03-12T15:19:09.530311+05:30"},{"city":"Kochi","state":"Kerala","latitude":9.9312,"longitude":76.2673,"temp":29.2,"humidity":76,"rain":0.0,"pressure":1005.8,"uv_index":9.05,"wind_gusts":35.6,"aqi":94,"pm10":32.1,"pm2_5":30.0,"mosquito_risk":7,"arthritis_risk":5,"migraine_risk":4,"frizz_risk":1,"updated_at":"2026-03-12T15:19:09.530318+05:30"},{"city":"Thiruvananthapuram","state":"Kerala","latitude":8.5241,"longitude":76.9366,"temp":28.8,"humidity":75,"rain":0.0,"pressure":1005.9,"uv_index":8.95,"wind_gusts":25.9,"aqi":89,"pm10":18.8,"pm2_5":17.0,"mosquito_risk":7,"arthritis_risk":5,"migraine_risk":4,"frizz_risk":1,"updated_at":"2026-03-12T15:19:09.530325+05:30"},{"city":"Kozhikode","state":"Kerala","latitude":11.2588,"longitude":75.7804,"temp":30.7,"humidity":68,"rain":0.0,"pressure":1005.0,"uv_index":9.0,"wind_gusts":31.7,"aqi":100,"pm10":42.3,"pm2_5":38.1,"mosquito_risk":3,"arthritis_risk":5,"migraine_risk":4,"frizz_risk":1,"updated_at":"2026-03-12T15:19:09.530331+05:30"},{"city":"Thrissur","state":"Kerala","latitude":10.5276,"longitude":76.2144,"temp":32.5,"humidity":62,"rain":0.0,"pressure":1004.2,"uv_index":9.05,"wind_gusts":39.2,"aqi":98,"pm10":18.5,"pm2_5":16.8,"mosquito_risk":3,"arthritis_risk":5,"migraine_risk":4,"frizz_risk":1,"updated_at":"2026-03-12T15:19:09.530338+05:30"},{"city":"Kannur","state":"Kerala","latitude":11.8745,"longitude":75.3704,"temp":31.4,"humidity":67,"rain":0.0,"pressure":1004.3,"uv_index":9.0,"wind_gusts":34.9,"aqi":100,"pm10":32.7,"pm2_5":28.9,"mosquito_risk":3,"arthritis_risk":5,"migraine_risk":4,"frizz_risk":1,"updated_at":"2026-03-12T15:19:09.530345+05:30"},{"city":"Patna","state":"Bihar","latitude":25.5941,"longitude":85.1376,"temp":33.7,"humidity":36,"rain":0.0,"pressure":998.9,"uv_index":7.45,"wind_gusts":22.0,"aqi":238,"pm10":163.0,"pm2_5":117.1,"mosquito_risk":0,"arthritis_risk":5,"migraine_risk":7,"frizz_risk":1,"updated_at":"2026-03-12T15:19:09.530351+05:30"},{"city":"Gaya","state":"Bihar","latitude":24.7914,"longitude":85.0002,"temp":33.5,"humidity":30,"rain":0.0,"pressure":992.7,"uv_index":7.6,"wind_gusts":21.6,"aqi":193,"pm10":175.6,"pm2_5":52.7,"mosquito_risk":0,"arthritis_risk":5,"migraine_risk":7,"frizz_risk":0,"updated_at":"2026-03-12T15:19:09.530358+05:30"},{"city":"Muzaffarpur","state":"Bihar","latitude":26.1209,"longitude":85.3647,"temp":33.0,"humidity":42,"rain":0.0,"pressure":998.9,"uv_index":7.45,"wind_gusts":25.6,"aqi":244,"pm10":166.7,"pm2_5":137.4,"mosquito_risk":0,"arthritis_risk":5,"migraine_risk":7,"frizz_risk":1,"updated_at":"2026-03-12T15:19:09.530364+05:30"},{"city":"Bhagalpur","state":"Bihar","latitude":25.2425,"longitude":87.0117,"temp":29.9,"humidity":63,"rain":0.0,"pressure":1000.3,"uv_index":7.5,"wind_gusts":33.5,"aqi":186,"pm10":97.1,"pm2_5":88.5,"mosquito_risk":7,"arthritis_risk":5,"migraine_risk":4,"frizz_risk":1,"updated_at":"2026-03-12T15:19:09.530370+05:30"},{"city":"Ranchi","state":"Jharkhand","latitude":23.3441,"longitude":85.3096,"temp":32.1,"humidity":22,"rain":0.0,"pressure":937.5,"uv_index":8.2,"wind_gusts":33.8,"aqi":165,"pm10":118.7,"pm2_5":29.9,"mosquito_risk":0,"arthritis_risk":5,"migraine_risk":7,"frizz_risk":0,"updated_at":"2026-03-12T15:19:09.530377+05:30"},{"city":"Jamshedpur","state":"Jharkhand","latitude":22.8046,"longitude":86.2029,"temp":34.2,"humidity":35,"rain":0.0,"pressure":989.3,"uv_index":8.1,"wind_gusts":25.6,"aqi":170,"pm10":113.2,"pm2_5":75.7,"mosquito_risk":0,"arthritis_risk":5,"migraine_risk":7,"frizz_risk":1,"updated_at":"2026-03-12T15:19:09.530383+05:30"},{"city":"Dhanbad","state":"Jharkhand","latitude":23.7957,"longitude":86.4304,"temp":34.2,"humidity":29,"rain":0.0,"pressure":978.5,"uv_index":8.0,"wind_gusts":20.9,"aqi":198,"pm10":133.6,"pm2_5":92.9,"mosquito_risk":0,"arthritis_risk":5,"migraine_risk":7,"frizz_risk":0,"updated_at":"2026-03-12T15:19:09.530389+05:30"},{"city":"Bokaro","state":"Jharkhand","latitude":23.6693,"longitude":86.1511,"temp":34.2,"humidity":29,"rain":0.0,"pressure":982.5,"uv_index":8.0,"wind_gusts":23.4,"aqi":190,"pm10":126.7,"pm2_5":66.1,"mosquito_risk":0,"arthritis_risk":5,"migraine_risk":7,"frizz_risk":0,"updated_at":"2026-03-12T15:19:09.530396+05:30"},{"city":"Bhubaneswar","state":"Odisha","latitude":20.2961,"longitude":85.8245,"temp":36.1,"humidity":31,"rain":0.0,"pressure":1000.4,"uv_index":8.35,"wind_gusts":34.2,"aqi":108,"pm10":74.7,"pm2_5":53.8,"mosquito_risk":0,"arthritis_risk":5,"migraine_risk":7,"frizz_risk":1,"updated_at":"2026-03-12T15:19:09.530403+05:30"},{"city":"Cuttack","state":"Odisha","latitude":20.4625,"longitude":85.8828,"temp":36.4,"humidity":31,"rain":0.0,"pressure":1002.3,"uv_index":8.35,"wind_gusts":31.7,"aqi":108,"pm10":74.7,"pm2_5":53.8,"mosquito_risk":0,"arthritis_risk":5,"migraine_risk":7,"frizz_risk":1,"updated_at":"2026-03-12T15:19:09.530409+05:30"},{"city":"Rourkela","state":"Odisha","latitude":22.2604,"longitude":84.8536,"temp":35.6,"humidity":28,"rain":0.0,"pressure":983.4,"uv_index":8.0,"wind_gusts":16.2,"aqi":158,"pm10":148.5,"pm2_5":36.9,"mosquito_risk":0,"arthritis_risk":5,"migraine_risk":10,"frizz_risk":0,"updated_at":"2026-03-12T15:19:09.530415+05:30"},{"city":"Raipur","state":"Chhattisgarh","latitude":21.2514,"longitude":81.6296,"temp":37.5,"humidity":15,"rain":0.0,"pressure":973.5,"uv_index":8.1,"wind_gusts":16.2,"aqi":164,"pm10":52.7,"pm2_5":24.9,"mosquito_risk":0,"arthritis_risk":5,"migraine_risk":10,"frizz_risk":0,"updated_at":"2026-03-12T15:19:09.530421+05:30"},{"city":"Bhilai","state":"Chhattisgarh","latitude":21.1938,"longitude":81.3509,"temp":37.9,"humidity":17,"rain":0.0,"pressure":973.8,"uv_index":8.1,"wind_gusts":11.9,"aqi":158,"pm10":54.5,"pm2_5":26.5,"mosquito_risk":0,"arthritis_risk":5,"migraine_risk":10,"frizz_risk":0,"updated_at":"2026-03-12T15:19:09.530427+05:30"},{"city":"Guwahati","state":"Assam","latitude":26.1158,"longitude":91.7086,"temp":27.2,"humidity":74,"rain":0.0,"pressure":1001.5,"uv_index":7.05,"wind_gusts":24.1,"aqi":154,"pm10":73.8,"pm2_5":66.8,"mosquito_risk":7,"arthritis_risk":5,"migraine_risk":4,"frizz_risk":1,"updated_at":"2026-03-12T15:19:09.530434+05:30"},{"city":"Agartala","state":"Tripura","latitude":23.8315,"longitude":91.2868,"temp":28.5,"humidity":69,"rain":0.0,"pressure":1006.0,"uv_index":7.7,"wind_gusts":19.1,"aqi":160,"pm10":70.5,"pm2_5":57.6,"mosquito_risk":7,"arthritis_risk":5,"migraine_risk":4,"frizz_risk":1,"updated_at":"2026-03-12T15:19:09.530440+05:30"},{"city":"Shillong","state":"Meghalaya","latitude":25.5788,"longitude":91.8933,"temp":17.8,"humidity":65,"rain":0.0,"pressure":856.6,"uv_index":6.65,"wind_gusts":26.3,"aqi":129,"pm10":62.2,"pm2_5":55.2,"mosquito_risk":3,"arthritis_risk":5,"migraine_risk":7,"frizz_risk":0,"updated_at":"2026-03-12T15:19:09.530446+05:30"},{"city":"Imphal","state":"Manipur","latitude":24.817,"longitude":93.9368,"temp":21.8,"humidity":69,"rain":0.0,"pressure":923.2,"uv_index":8.0,"wind_gusts":31.0,"aqi":171,"pm10":67.8,"pm2_5":61.7,"mosquito_risk":3,"arthritis_risk":5,"migraine_risk":7,"frizz_risk":0,"updated_at":"2026-03-12T15:19:09.530453+05:30"},{"city":"Aizawl","state":"Mizoram","latitude":23.7271,"longitude":92.7176,"temp":23.3,"humidity":60,"rain":0.0,"pressure":892.9,"uv_index":7.9,"wind_gusts":37.1,"aqi":189,"pm10":113.6,"pm2_5":100.1,"mosquito_risk":0,"arthritis_risk":5,"migraine_risk":7,"frizz_risk":0,"updated_at":"2026-03-12T15:19:09.530460+05:30"},{"city":"Kohima","state":"Nagaland","latitude":25.6701,"longitude":94.1077,"temp":17.5,"humidity":87,"rain":0.0,"pressure":854.9,"uv_index":7.1,"wind_gusts":41.4,"aqi":152,"pm10":68.5,"pm2_5":62.9,"mosquito_risk":3,"arthritis_risk":10,"migraine_risk":7,"frizz_risk":0,"updated_at":"2026-03-12T15:19:09.530467+05:30"},{"city":"Gangtok","state":"Sikkim","latitude":27.3314,"longitude":88.6138,"temp":20.7,"humidity":62,"rain":0.0,"pressure":837.9,"uv_index":7.15,"wind_gusts":20.2,"aqi":137,"pm10":52.4,"pm2_5":48.1,"mosquito_risk":3,"arthritis_risk":5,"migraine_risk":7,"frizz_risk":0,"updated_at":"2026-03-12T15:19:09.530473+05:30"},{"city":"Siliguri","state":"West Bengal","latitude":26.7271,"longitude":88.3953,"temp":23.5,"humidity":79,"rain":0.0,"pressure":993.8,"uv_index":7.35,"wind_gusts":23.8,"aqi":176,"pm10":81.0,"pm2_5":74.0,"mosquito_risk":3,"arthritis_risk":5,"migraine_risk":7,"frizz_risk":1,"updated_at":"2026-03-12T15:19:12.798246+05:30"},{"city":"Durgapur","state":"West Bengal","latitude":23.5204,"longitude":87.3119,"temp":31.8,"humidity":51,"rain":0.0,"pressure":993.8,"uv_index":7.8,"wind_gusts":26.6,"aqi":186,"pm10":88.0,"pm2_5":78.2,"mosquito_risk":0,"arthritis_risk":5,"migraine_risk":7,"frizz_risk":1,"updated_at":"2026-03-12T15:19:12.798278+05:30"},{"city":"Asansol","state":"West Bengal","latitude":23.6739,"longitude":86.9524,"temp":31.9,"humidity":52,"rain":0.0,"pressure":992.3,"uv_index":7.35,"wind_gusts":29.5,"aqi":188,"pm10":131.8,"pm2_5":106.4,"mosquito_risk":0,"arthritis_risk":5,"migraine_risk":7,"frizz_risk":1,"updated_at":"2026-03-12T15:19:12.798288+05:30"},{"city":"Pondicherry","state":"Puducherry","latitude":11.9139,"longitude":79.8145,"temp":34.0,"humidity":50,"rain":0.0,"pressure":1007.3,"uv_index":9.0,"wind_gusts":29.5,"aqi":71,"pm10":24.8,"pm2_5":20.5,"mosquito_risk":0,"arthritis_risk":5,"migraine_risk":4,"frizz_risk":1,"updated_at":"2026-03-12T15:19:12.798297+05:30"},{"city":"Port Blair","state":"Andaman and Nicobar Islands","latitude":11.6234,"longitude":92.7265,"temp":28.1,"humidity":78,"rain":0.0,"pressure":1005.9,"uv_index":8.95,"wind_gusts":20.5,"aqi":46,"pm10":17.0,"pm2_5":13.9,"mosquito_risk":7,"arthritis_risk":5,"migraine_risk":4,"frizz_risk":1,"updated_at":"2026-03-12T15:19:12.798306+05:30"},{"city":"Haridwar","state":"Uttarakhand","latitude":29.9457,"longitude":78.1642,"temp":32.5,"humidity":37,"rain":0.0,"pressure":973.2,"uv_index":5.25,"wind_gusts":30.2,"aqi":102,"pm10":63.3,"pm2_5":35.0,"mosquito_risk":0,"arthritis_risk":5,"migraine_risk":3,"frizz_risk":0,"updated_at":"2026-03-12T15:19:12.798314+05:30"},{"city":"Rishikesh","state":"Uttarakhand","latitude":30.0869,"longitude":78.2676,"temp":32.1,"humidity":34,"rain":0.0,"pressure":966.1,"uv_index":5.4,"wind_gusts":29.5,"aqi":81,"pm10":62.2,"pm2_5":29.5,"mosquito_risk":0,"arthritis_risk":5,"migraine_risk":3,"frizz_risk":0,"updated_at":"2026-03-12T15:19:12.798322+05:30"},{"city":"Nainital","state":"Uttarakhand","latitude":29.3919,"longitude":79.4542,"temp":24.4,"humidity":45,"rain":0.0,"pressure":807.9,"uv_index":6.5,"wind_gusts":55.1,"aqi":84,"pm10":57.2,"pm2_5":31.8,"mosquito_risk":0,"arthritis_risk":5,"migraine_risk":7,"frizz_risk":0,"updated_at":"2026-03-12T15:19:12.798329+05:30"},{"city":"Mussoorie","state":"Uttarakhand","latitude":30.4599,"longitude":78.0664,"temp":22.9,"humidity":39,"rain":0.0,"pressure":804.6,"uv_index":5.95,"wind_gusts":42.8,"aqi":85,"pm10":58.1,"pm2_5":22.9,"mosquito_risk":0,"arthritis_risk":5,"migraine_risk":3,"frizz_risk":0,"updated_at":"2026-03-12T15:19:12.798336+05:30"},{"city":"Dharamshala","state":"Himachal Pradesh","latitude":32.219,"longitude":76.3234,"temp":21.5,"humidity":56,"rain":0.0,"pressure":869.8,"uv_index":6.55,"wind_gusts":50.8,"aqi":55,"pm10":38.9,"pm2_5":11.1,"mosquito_risk":0,"arthritis_risk":5,"migraine_risk":7,"frizz_risk":0,"updated_at":"2026-03-12T15:19:12.798343+05:30"},{"city":"Dalhousie","state":"Himachal Pradesh","latitude":32.5387,"longitude":75.971,"temp":19.3,"humidity":51,"rain":0.0,"pressure":804.7,"uv_index":5.95,"wind_gusts":36.0,"aqi":83,"pm10":52.6,"pm2_5":16.7,"mosquito_risk":0,"arthritis_risk":5,"migraine_risk":3,"frizz_risk":0,"updated_at":"2026-03-12T15:19:12.798351+05:30"},{"city":"Patiala","state":"Punjab","latitude":30.3398,"longitude":76.3869,"temp":31.2,"humidity":43,"rain":0.0,"pressure":977.4,"uv_index":5.75,"wind_gusts":37.4,"aqi":161,"pm10":189.5,"pm2_5":38.5,"mosquito_risk":0,"arthritis_risk":5,"migraine_risk":3,"frizz_risk":1,"updated_at":"2026-03-12T15:19:12.798357+05:30"},{"city":"Bhatinda","state":"Punjab","latitude":30.211,"longitude":74.9455,"temp":30.5,"humidity":49,"rain":0.0,"pressure":983.9,"uv_index":6.45,"wind_gusts":28.1,"aqi":155,"pm10":148.1,"pm2_5":54.6,"mosquito_risk":0,"arthritis_risk":5,"migraine_risk":7,"frizz_risk":1,"updated_at":"2026-03-12T15:19:12.798365+05:30"},{"city":"Rohtak","state":"Haryana","latitude":28.8955,"longitude":76.6066,"temp":34.1,"humidity":23,"rain":0.0,"pressure":980.6,"uv_index":6.1,"wind_gusts":27.0,"aqi":333,"pm10":512.2,"pm2_5":69.2,"mosquito_risk":0,"arthritis_risk":5,"migraine_risk":7,"frizz_risk":0,"updated_at":"2026-03-12T15:19:12.798371+05:30"},{"city":"Panipat","state":"Haryana","latitude":29.3909,"longitude":76.9635,"temp":33.4,"humidity":29,"rain":0.0,"pressure":979.4,"uv_index":5.45,"wind_gusts":22.3,"aqi":456,"pm10":800.9,"pm2_5":97.3,"mosquito_risk":0,"arthritis_risk":5,"migraine_risk":3,"frizz_risk":0,"updated_at":"2026-03-12T15:19:12.798378+05:30"},{"city":"Mathura","state":"Uttar Pradesh","latitude":27.4924,"longitude":77.6737,"temp":38.2,"humidity":9,"rain":0.0,"pressure":985.0,"uv_index":5.35,"wind_gusts":30.6,"aqi":447,"pm10":717.1,"pm2_5":80.1,"mosquito_risk":0,"arthritis_risk":5,"migraine_risk":6,"frizz_risk":1,"updated_at":"2026-03-12T15:19:12.798385+05:30"},{"city":"Vrindavan","state":"Uttar Pradesh","latitude":27.5823,"longitude":77.7027,"temp":37.5,"humidity":11,"rain":0.0,"pressure":985.5,"uv_index":5.25,"wind_gusts":32.4,"aqi":447,"pm10":717.1,"pm2_5":80.1,"mosquito_risk":0,"arthritis_risk":5,"migraine_risk":6,"frizz_risk":0,"updated_at":"2026-03-12T15:19:12.798393+05:30"},{"city":"Ayodhya","state":"Uttar Pradesh","latitude":26.7922,"longitude":82.1998,"temp":34.3,"humidity":28,"rain":0.0,"pressure":993.7,"uv_index":6.45,"wind_gusts":26.3,"aqi":158,"pm10":196.0,"pm2_5":54.0,"mosquito_risk":0,"arthritis_risk":5,"migraine_risk":7,"frizz_risk":0,"updated_at":"2026-03-12T15:19:12.798401+05:30"},{"city":"Ratlam","state":"Madhya Pradesh","latitude":23.3315,"longitude":75.0367,"temp":36.3,"humidity":13,"rain":0.0,"pressure":955.2,"uv_index":7.6,"wind_gusts":33.1,"aqi":84,"pm10":11.3,"pm2_5":10.1,"mosquito_risk":0,"arthritis_risk":5,"migraine_risk":10,"frizz_risk":0,"updated_at":"2026-03-12T15:19:12.798408+05:30"},{"city":"Sagar","state":"Madhya Pradesh","latitude":23.8388,"longitude":78.7378,"temp":36.2,"humidity":14,"rain":0.0,"pressure":950.2,"uv_index":7.5,"wind_gusts":27.0,"aqi":79,"pm10":19.6,"pm2_5":9.5,"mosquito_risk":0,"arthritis_risk":5,"migraine_risk":10,"frizz_risk":0,"updated_at":"2026-03-12T15:19:12.798415+05:30"},{"city":"Satna","state":"Madhya Pradesh","latitude":24.6005,"longitude":80.8322,"temp":38.2,"humidity":11,"rain":0.0,"pressure":970.0,"uv_index":7.55,"wind_gusts":29.2,"aqi":76,"pm10":23.2,"pm2_5":9.5,"mosquito_risk":0,"arthritis_risk":5,"migraine_risk":10,"frizz_risk":0,"updated_at":"2026-03-12T15:19:12.798423+05:30"},{"city":"Akola","state":"Maharashtra","latitude":20.7002,"longitude":77.0082,"temp":39.0,"humidity":17,"rain":0.0,"pressure":973.8,"uv_index":8.05,"wind_gusts":22.7,"aqi":96,"pm10":26.2,"pm2_5":15.8,"mosquito_risk":0,"arthritis_risk":5,"migraine_risk":10,"frizz_risk":0,"updated_at":"2026-03-12T15:19:12.798430+05:30"},{"city":"Amravati","state":"Maharashtra","latitude":20.9374,"longitude":77.7796,"temp":38.6,"humidity":15,"rain":0.0,"pressure":966.2,"uv_index":8.0,"wind_gusts":16.9,"aqi":95,"pm10":25.6,"pm2_5":14.3,"mosquito_risk":0,"arthritis_risk":5,"migraine_risk":10,"frizz_risk":0,"updated_at":"2026-03-12T15:19:12.798438+05:30"},{"city":"Latur","state":"Maharashtra","latitude":18.4088,"longitude":76.5604,"temp":35.2,"humidity":22,"rain":0.0,"pressure":939.6,"uv_index":8.45,"wind_gusts":19.1,"aqi":92,"pm10":29.2,"pm2_5":23.6,"mosquito_risk":0,"arthritis_risk":5,"migraine_risk":10,"frizz_risk":0,"updated_at":"2026-03-12T15:19:12.798445+05:30"},{"city":"Nanded","state":"Maharashtra","latitude":19.1383,"longitude":77.3091,"temp":38.8,"humidity":16,"rain":0.0,"pressure":967.4,"uv_index":8.25,"wind_gusts":16.2,"aqi":97,"pm10":31.3,"pm2_5":25.0,"mosquito_risk":0,"arthritis_risk":5,"migraine_risk":10,"frizz_risk":0,"updated_at":"2026-03-12T15:19:12.798451+05:30"},{"city":"Gulbarga","state":"Karnataka","latitude":17.3297,"longitude":76.8343,"temp":37.0,"humidity":21,"rain":0.0,"pressure":957.7,"uv_index":8.55,"wind_gusts":18.0,"aqi":105,"pm10":29.7,"pm2_5":22.6,"mosquito_risk":0,"arthritis_risk":5,"migraine_risk":10,"frizz_risk":0,"updated_at":"2026-03-12T15:19:12.798457+05:30"},{"city":"Bidar","state":"Karnataka","latitude":17.9104,"longitude":77.5199,"temp":35.9,"humidity":21,"rain":0.0,"pressure":935.1,"uv_index":8.5,"wind_gusts":19.1,"aqi":102,"pm10":31.2,"pm2_5":22.6,"mosquito_risk":0,"arthritis_risk":5,"migraine_risk":10,"frizz_risk":0,"updated_at":"2026-03-12T15:19:12.798464+05:30"},{"city":"Hospet","state":"Karnataka","latitude":15.2689,"longitude":76.3909,"temp":35.7,"humidity":22,"rain":0.0,"pressure":954.9,"uv_index":8.8,"wind_gusts":32.4,"aqi":76,"pm10":27.0,"pm2_5":21.5,"mosquito_risk":0,"arthritis_risk":5,"migraine_risk":10,"frizz_risk":0,"updated_at":"2026-03-12T15:19:12.798470+05:30"},{"city":"Tirupur","state":"Tamil Nadu","latitude":11.1085,"longitude":77.3411,"temp":35.9,"humidity":24,"rain":0.0,"pressure":973.6,"uv_index":9.3,"wind_gusts":32.8,"aqi":81,"pm10":21.5,"pm2_5":20.0,"mosquito_risk":0,"arthritis_risk":5,"migraine_risk":10,"frizz_risk":0,"updated_at":"2026-03-12T15:19:12.798476+05:30"},{"city":"Alappuzha","state":"Kerala","latitude":9.4981,"longitude":76.3388,"temp":28.8,"humidity":79,"rain":0.0,"pressure":1006.3,"uv_index":8.9,"wind_gusts":32.0,"aqi":99,"pm10":27.9,"pm2_5":25.8,"mosquito_risk":7,"arthritis_risk":5,"migraine_risk":4,"frizz_risk":1,"updated_at":"2026-03-12T15:19:12.798483+05:30"},{"city":"Munnar","state":"Kerala","latitude":10.0889,"longitude":77.0595,"temp":30.8,"humidity":35,"rain":0.0,"pressure":857.7,"uv_index":9.5,"wind_gusts":23.0,"aqi":74,"pm10":14.5,"pm2_5":12.7,"mosquito_risk":0,"arthritis_risk":5,"migraine_risk":7,"frizz_risk":0,"updated_at":"2026-03-12T15:19:12.798490+05:30"},{"city":"Silchar","state":"Assam","latitude":24.8333,"longitude":92.7789,"temp":28.9,"humidity":65,"rain":0.0,"pressure":1004.5,"uv_index":7.7,"wind_gusts":23.8,"aqi":184,"pm10":96.6,"pm2_5":84.8,"mosquito_risk":7,"arthritis_risk":5,"migraine_risk":4,"frizz_risk":1,"updated_at":"2026-03-12T15:19:12.798497+05:30"},{"city":"Dibrugarh","state":"Assam","latitude":27.4728,"longitude":94.912,"temp":25.5,"humidity":73,"rain":0.0,"pressure":996.6,"uv_index":6.3,"wind_gusts":20.2,"aqi":156,"pm10":79.4,"pm2_5":72.4,"mosquito_risk":7,"arthritis_risk":5,"migraine_risk":7,"frizz_risk":1,"updated_at":"2026-03-12T15:19:12.798503+05:30"}]