[{"city":"Delhi","state":"Delhi","latitude":28.6139,"longitude":77.209,"temp":36.3,"humidity":27,"rain":0.0,"pressure":976.5,"uv_index":7.65,"wind_gusts":29.2,"aqi":211,"pm10":277.5,"pm2_5":96.9,"no2":20.7,"co":581.0,"o3":169.0,"so2":27.8,"mosquito_risk":0,"arthritis_risk":5,"migraine_risk":10,"frizz_risk":0,"updated_at":"2026-05-13T18:42:56.549567+05:30"},{"city":"Mumbai","state":"Maharashtra","latitude":19.076,"longitude":72.8777,"temp":30.2,"humidity":75,"rain":0.0,"pressure":1002.9,"uv_index":7.85,"wind_gusts":40.7,"aqi":73,"pm10":42.4,"pm2_5":21.4,"no2":9.7,"co":243.0,"o3":80.0,"so2":5.8,"mosquito_risk":3,"arthritis_risk":5,"migraine_risk":4,"frizz_risk":1,"updated_at":"2026-05-13T18:42:56.549606+05:30"},{"city":"Bangalore","state":"Karnataka","latitude":12.9716,"longitude":77.5946,"temp":32.0,"humidity":29,"rain":0.0,"pressure":908.0,"uv_index":9.45,"wind_gusts":37.1,"aqi":145,"pm10":32.7,"pm2_5":24.6,"no2":29.8,"co":407.0,"o3":100.0,"so2":7.4,"mosquito_risk":0,"arthritis_risk":5,"migraine_risk":7,"frizz_risk":0,"updated_at":"2026-05-13T18:42:56.549622+05:30"},{"city":"Hyderabad","state":"Telangana","latitude":17.385,"longitude":78.4867,"temp":35.0,"humidity":32,"rain":0.0,"pressure":948.4,"uv_index":8.7,"wind_gusts":25.9,"aqi":112,"pm10":45.4,"pm2_5":26.6,"no2":11.9,"co":343.0,"o3":136.0,"so2":7.2,"mosquito_risk":0,"arthritis_risk":5,"migraine_risk":7,"frizz_risk":0,"updated_at":"2026-05-13T18:42:56.549633+05:30"},{"city":"Chennai","state":"Tamil Nadu","latitude":13.0827,"longitude":80.2707,"temp":30.5,"humidity":70,"rain":0.0,"pressure":1001.6,"uv_index":9.1,"wind_gusts":47.2,"aqi":25,"pm10":7.8,"pm2_5":4.9,"no2":4.0,"co":150.0,"o3":43.0,"so2":4.4,"mosquito_risk":3,"arthritis_risk":5,"migraine_risk":4,"frizz_risk":1,"updated_at":"2026-05-13T18:42:56.549647+05:30"},{"city":"Kolkata","state":"West Bengal","latitude":22.5726,"longitude":88.3639,"temp":24.8,"humidity":96,"rain":0.3,"pressure":1002.5,"uv_index":8.95,"wind_gusts":46.1,"aqi":67,"pm10":13.2,"pm2_5":10.1,"no2":6.0,"co":286.0,"o3":46.0,"so2":4.6,"mosquito_risk":6,"arthritis_risk":5,"migraine_risk":4,"frizz_risk":1,"updated_at":"2026-05-13T18:42:56.549657+05:30"},{"city":"Pune","state":"Maharashtra","latitude":18.5204,"longitude":73.8567,"temp":31.7,"humidity":52,"rain":0.0,"pressure":943.6,"uv_index":8.5,"wind_gusts":49.3,"aqi":134,"pm10":38.8,"pm2_5":22.1,"no2":6.7,"co":269.0,"o3":127.0,"so2":9.7,"mosquito_risk":0,"arthritis_risk":5,"migraine_risk":7,"frizz_risk":1,"updated_at":"2026-05-13T18:42:56.549665+05:30"},{"city":"Ahmedabad","state":"Gujarat","latitude":23.0225,"longitude":72.5714,"temp":42.2,"humidity":15,"rain":0.0,"pressure":993.9,"uv_index":8.15,"wind_gusts":36.7,"aqi":92,"pm10":65.2,"pm2_5":25.2,"no2":5.3,"co":251.0,"o3":117.0,"so2":4.4,"mosquito_risk":0,"arthritis_risk":5,"migraine_risk":10,"frizz_risk":0,"updated_at":"2026-05-13T18:42:56.549676+05:30"},{"city":"Jaipur","state":"Rajasthan","latitude":26.9124,"longitude":75.7873,"temp":39.5,"humidity":14,"rain":0.0,"pressure":953.8,"uv_index":8.25,"wind_gusts":49.3,"aqi":143,"pm10":258.9,"pm2_5":48.7,"no2":8.1,"co":192.0,"o3":102.0,"so2":4.1,"mosquito_risk":0,"arthritis_risk":5,"migraine_risk":10,"frizz_risk":0,"updated_at":"2026-05-13T18:42:56.549684+05:30"},{"city":"Lucknow","state":"Uttar Pradesh","latitude":26.8467,"longitude":80.9462,"temp":35.5,"humidity":36,"rain":0.0,"pressure":986.2,"uv_index":8.15,"wind_gusts":29.9,"aqi":170,"pm10":135.5,"pm2_5":74.0,"no2":14.1,"co":403.0,"o3":131.0,"so2":13.0,"mosquito_risk":0,"arthritis_risk":5,"migraine_risk":10,"frizz_risk":1,"updated_at":"2026-05-13T18:42:56.549692+05:30"},{"city":"Kanpur","state":"Uttar Pradesh","latitude":26.4499,"longitude":80.3319,"temp":36.9,"humidity":34,"rain":0.0,"pressure":984.1,"uv_index":8.2,"wind_gusts":35.3,"aqi":168,"pm10":186.7,"pm2_5":68.2,"no2":12.7,"co":367.0,"o3":124.0,"so2":11.9,"mosquito_risk":0,"arthritis_risk":5,"migraine_risk":10,"frizz_risk":1,"updated_at":"2026-05-13T18:42:56.549699+05:30"},{"city":"Chandigarh","state":"Chandigarh","latitude":30.7333,"longitude":76.7794,"temp":30.7,"humidity":35,"rain":0.0,"pressure":963.2,"uv_index":7.7,"wind_gusts":37.1,"aqi":167,"pm10":97.3,"pm2_5":45.3,"no2":11.9,"co":553.0,"o3":151.0,"so2":14.4,"mosquito_risk":0,"arthritis_risk":5,"migraine_risk":7,"frizz_risk":0,"updated_at":"2026-05-13T18:42:56.549708+05:30"},{"city":"Srinagar","state":"Jammu and Kashmir","latitude":34.0837,"longitude":74.7973,"temp":18.5,"humidity":57,"rain":0.0,"pressure":841.9,"uv_index":8.75,"wind_gusts":32.8,"aqi":75,"pm10":14.5,"pm2_5":11.2,"no2":12.8,"co":534.0,"o3":86.0,"so2":2.3,"mosquito_risk":0,"arthritis_risk":5,"migraine_risk":7,"frizz_risk":0,"updated_at":"2026-05-13T18:42:56.549716+05:30"},{"city":"Jammu","state":"Jammu and Kashmir","latitude":32.7266,"longitude":74.857,"temp":31.0,"humidity":39,"rain":0.0,"pressure":968.2,"uv_index":8.45,"wind_gusts":37.4,"aqi":109,"pm10":54.2,"pm2_5":28.1,"no2":14.6,"co":349.0,"o3":117.0,"so2":3.8,"mosquito_risk":0,"arthritis_risk":5,"migraine_risk":7,"frizz_risk":0,"updated_at":"2026-05-13T18:42:56.549725+05:30"},{"city":"Amritsar","state":"Punjab","latitude":31.634,"longitude":74.8723,"temp":32.0,"humidity":36,"rain":0.0,"pressure":975.4,"uv_index":8.35,"wind_gusts":34.9,"aqi":152,"pm10":141.6,"pm2_5":61.7,"no2":7.5,"co":405.0,"o3":135.0,"so2":8.1,"mosquito_risk":0,"arthritis_risk":5,"migraine_risk":7,"frizz_risk":0,"updated_at":"2026-05-13T18:42:56.549732+05:30"},{"city":"Ludhiana","state":"Punjab","latitude":30.901,"longitude":75.8573,"temp":33.2,"humidity":31,"rain":0.0,"pressure":972.8,"uv_index":7.95,"wind_gusts":38.2,"aqi":161,"pm10":100.6,"pm2_5":49.6,"no2":11.2,"co":527.0,"o3":135.0,"so2":10.2,"mosquito_risk":0,"arthritis_risk":5,"migraine_risk":7,"frizz_risk":0,"updated_at":"2026-05-13T18:42:56.549740+05:30"},{"city":"Jalandhar","state":"Punjab","latitude":31.326,"longitude":75.5762,"temp":32.0,"humidity":38,"rain":0.0,"pressure":974.1,"uv_index":8.1,"wind_gusts":45.4,"aqi":148,"pm10":88.2,"pm2_5":47.7,"no2":11.2,"co":699.0,"o3":117.0,"so2":6.0,"mosquito_risk":0,"arthritis_risk":5,"migraine_risk":7,"frizz_risk":0,"updated_at":"2026-05-13T18:42:56.549747+05:30"},{"city":"Dehradun","state":"Uttarakhand","latitude":30.6284,"longitude":78.0322,"temp":19.8,"humidity":58,"rain":0.0,"pressure":827.5,"uv_index":8.1,"wind_gusts":36.0,"aqi":116,"pm10":44.6,"pm2_5":28.2,"no2":9.1,"co":319.0,"o3":142.0,"so2":5.8,"mosquito_risk":0,"arthritis_risk":5,"migraine_risk":7,"frizz_risk":0,"updated_at":"2026-05-13T18:42:56.549756+05:30"},{"city":"Shimla","state":"Himachal Pradesh","latitude":31.1048,"longitude":77.1734,"temp":16.6,"humidity":47,"rain":0.0,"pressure":782.3,"uv_index":8.2,"wind_gusts":45.7,"aqi":129,"pm10":32.2,"pm2_5":20.3,"no2":4.6,"co":298.0,"o3":150.0,"so2":7.9,"mosquito_risk":0,"arthritis_risk":5,"migraine_risk":7,"frizz_risk":0,"updated_at":"2026-05-13T18:42:56.549763+05:30"},{"city":"Manali","state":"Himachal Pradesh","latitude":32.2396,"longitude":77.1887,"temp":13.7,"humidity":65,"rain":0.0,"pressure":815.0,"uv_index":10.0,"wind_gusts":46.4,"aqi":116,"pm10":14.8,"pm2_5":7.8,"no2":13.1,"co":192.0,"o3":134.0,"so2":0.5,"mosquito_risk":3,"arthritis_risk":5,"migraine_risk":7,"frizz_risk":0,"updated_at":"2026-05-13T18:42:56.549770+05:30"},{"city":"Gurgaon","state":"Haryana","latitude":28.4595,"longitude":77.0266,"temp":34.1,"humidity":35,"rain":0.0,"pressure":974.7,"uv_index":7.75,"wind_gusts":33.8,"aqi":630,"pm10":482.4,"pm2_5":123.4,"no2":26.4,"co":483.0,"o3":156.0,"so2":26.3,"mosquito_risk":0,"arthritis_risk":5,"migraine_risk":7,"frizz_risk":1,"updated_at":"2026-05-13T18:42:56.549777+05:30"},{"city":"Noida","state":"Uttar Pradesh","latitude":28.5355,"longitude":77.391,"temp":32.5,"humidity":56,"rain":0.0,"pressure":977.8,"uv_index":7.7,"wind_gusts":27.0,"aqi":630,"pm10":482.4,"pm2_5":123.4,"no2":26.4,"co":568.0,"o3":156.0,"so2":26.3,"mosquito_risk":0,"arthritis_risk":5,"migraine_risk":7,"frizz_risk":1,"updated_at":"2026-05-13T18:42:56.549784+05:30"},{"city":"Ghaziabad","state":"Uttar Pradesh","latitude":28.6692,"longitude":77.4538,"temp":32.3,"humidity":53,"rain":0.0,"pressure":976.2,"uv_index":7.7,"wind_gusts":28.1,"aqi":184,"pm10":230.0,"pm2_5":84.8,"no2":12.4,"co":429.0,"o3":156.0,"so2":21.5,"mosquito_risk":0,"arthritis_risk":5,"migraine_risk":7,"frizz_risk":1,"updated_at":"2026-05-13T18:42:56.549791+05:30"},{"city":"Faridabad","state":"Haryana","latitude":28.4089,"longitude":77.3178,"temp":34.9,"humidity":36,"rain":0.0,"pressure":977.2,"uv_index":7.75,"wind_gusts":28.4,"aqi":630,"pm10":482.4,"pm2_5":123.4,"no2":26.4,"co":517.0,"o3":156.0,"so2":26.3,"mosquito_risk":0,"arthritis_risk":5,"migraine_risk":7,"frizz_risk":1,"updated_at":"2026-05-13T18:42:56.549797+05:30"},{"city":"Meerut","state":"Uttar Pradesh","latitude":28.9845,"longitude":77.7064,"temp":33.3,"humidity":46,"rain":0.0,"pressure":975.5,"uv_index":7.6,"wind_gusts":33.5,"aqi":184,"pm10":230.0,"pm2_5":84.8,"no2":12.4,"co":420.0,"o3":156.0,"so2":21.5,"mosquito_risk":0,"arthritis_risk":5,"migraine_risk":7,"frizz_risk":1,"updated_at":"2026-05-13T18:42:56.549804+05:30"},{"city":"Agra","state":"Uttar Pradesh","latitude":27.1767,"longitude":78.0081,"temp":36.7,"humidity":31,"rain":0.0,"pressure":980.5,"uv_index":8.05,"wind_gusts":29.5,"aqi":643,"pm10":271.9,"pm2_5":75.7,"no2":15.6,"co":330.0,"o3":111.0,"so2":10.1,"mosquito_risk":0,"arthritis_risk":5,"migraine_risk":10,"frizz_risk":1,"updated_at":"2026-05-13T18:42:56.549814+05:30"},{"city":"Varanasi","state":"Uttar Pradesh","latitude":25.3176,"longitude":82.9739,"temp":34.3,"humidity":43,"rain":0.0,"pressure":990.5,"uv_index":8.7,"wind_gusts":39.2,"aqi":194,"pm10":107.6,"pm2_5":70.1,"no2":16.7,"co":447.0,"o3":151.0,"so2":16.9,"mosquito_risk":0,"arthritis_risk":5,"migraine_risk":7,"frizz_risk":1,"updated_at":"2026-05-13T18:42:56.549822+05:30"},{"city":"Prayagraj","state":"Uttar Pradesh","latitude":25.4358,"longitude":81.8463,"temp":36.3,"humidity":34,"rain":0.0,"pressure":988.4,"uv_index":8.55,"wind_gusts":47.5,"aqi":184,"pm10":108.7,"pm2_5":65.4,"no2":16.7,"co":351.0,"o3":133.0,"so2":16.0,"mosquito_risk":0,"arthritis_risk":5,"migraine_risk":10,"frizz_risk":1,"updated_at":"2026-05-13T18:42:56.549832+05:30"},{"city":"Gorakhpur","state":"Uttar Pradesh","latitude":26.7606,"longitude":83.3732,"temp":31.1,"humidity":63,"rain":0.0,"pressure":990.2,"uv_index":8.5,"wind_gusts":38.2,"aqi":159,"pm10":87.8,"pm2_5":61.7,"no2":8.6,"co":362.0,"o3":151.0,"so2":11.1,"mosquito_risk":3,"arthritis_risk":5,"migraine_risk":7,"frizz_risk":1,"updated_at":"2026-05-13T18:42:56.549839+05:30"},{"city":"Bareilly","state":"Uttar Pradesh","latitude":28.367,"longitude":79.4304,"temp":31.6,"humidity":55,"rain":0.0,"pressure":980.1,"uv_index":7.95,"wind_gusts":28.1,"aqi":179,"pm10":137.8,"pm2_5":71.2,"no2":10.8,"co":396.0,"o3":148.0,"so2":14.6,"mosquito_risk":0,"arthritis_risk":5,"migraine_risk":7,"frizz_risk":1,"updated_at":"2026-05-13T18:42:56.549846+05:30"},{"city":"Aligarh","state":"Uttar Pradesh","latitude":27.8974,"longitude":78.088,"temp":33.5,"humidity":47,"rain":0.0,"pressure":978.9,"uv_index":7.85,"wind_gusts":26.3,"aqi":310,"pm10":259.8,"pm2_5":83.1,"no2":9.4,"co":356.0,"o3":147.0,"so2":14.9,"mosquito_risk":0,"arthritis_risk":5,"migraine_risk":7,"frizz_risk":1,"updated_at":"2026-05-13T18:42:56.549852+05:30"},{"city":"Moradabad","state":"Uttar Pradesh","latitude":28.8386,"longitude":78.7733,"temp":32.0,"humidity":55,"rain":0.0,"pressure":977.4,"uv_index":7.8,"wind_gusts":27.0,"aqi":181,"pm10":169.0,"pm2_5":77.5,"no2":15.7,"co":432.0,"o3":139.0,"so2":17.5,"mosquito_risk":0,"arthritis_risk":5,"migraine_risk":7,"frizz_risk":1,"updated_at":"2026-05-13T18:42:56.549859+05:30"},{"city":"Saharanpur","state":"Uttar Pradesh","latitude":29.9637,"longitude":77.546,"temp":30.8,"humidity":50,"rain":0.0,"pressure":969.7,"uv_index":7.4,"wind_gusts":31.0,"aqi":163,"pm10":111.1,"pm2_5":65.9,"no2":15.3,"co":416.0,"o3":138.0,"so2":17.3,"mosquito_risk":0,"arthritis_risk":5,"migraine_risk":7,"frizz_risk":1,"updated_at":"2026-05-13T18:42:56.549866+05:30"},{"city":"Jhansi","state":"Uttar Pradesh","latitude":25.4484,"longitude":78.5685,"temp":36.0,"humidity":28,"rain":0.0,"pressure":970.9,"uv_index":8.45,"wind_gusts":50.4,"aqi":106,"pm10":99.9,"pm2_5":35.3,"no2":4.5,"co":250.0,"o3":105.0,"so2":5.3,"mosquito_risk":0,"arthritis_risk":5,"migraine_risk":10,"frizz_risk":0,"updated_at":"2026-05-13T18:42:59.920406+05:30"},{"city":"Surat","state":"Gujarat","latitude":21.1702,"longitude":72.8311,"temp":31.2,"humidity":70,"rain":0.0,"pressure":1000.3,"uv_index":7.25,"wind_gusts":43.9,"aqi":87,"pm10":41.2,"pm2_5":27.7,"no2":28.1,"co":268.0,"o3":59.0,"so2":52.9,"mosquito_risk":3,"arthritis_risk":5,"migraine_risk":4,"frizz_risk":1,"updated_at":"2026-05-13T18:42:59.920480+05:30"},{"city":"Vadodara","state":"Gujarat","latitude":22.3072,"longitude":73.1812,"temp":40.9,"humidity":16,"rain":0.0,"pressure":996.4,"uv_index":8.1,"wind_gusts":39.2,"aqi":119,"pm10":56.5,"pm2_5":26.8,"no2":8.7,"co":269.0,"o3":123.0,"so2":10.5,"mosquito_risk":0,"arthritis_risk":5,"migraine_risk":10,"frizz_risk":0,"updated_at":"2026-05-13T18:42:59.920490+05:30"},{"city":"Rajkot","state":"Gujarat","latitude":22.3039,"longitude":70.8022,"temp":35.8,"humidity":23,"rain":0.0,"pressure":988.0,"uv_index":7.75,"wind_gusts":50.8,"aqi":75,"pm10":38.6,"pm2_5":15.3,"no2":3.3,"co":157.0,"o3":104.0,"so2":4.7,"mosquito_risk":0,"arthritis_risk":5,"migraine_risk":10,"frizz_risk":0,"updated_at":"2026-05-13T18:42:59.920497+05:30"},{"city":"Thane","state":"Maharashtra","latitude":19.2183,"longitude":72.9781,"temp":31.3,"humidity":70,"rain":0.0,"pressure":1002.1,"uv_index":7.9,"wind_gusts":37.1,"aqi":73,"pm10":42.4,"pm2_5":21.4,"no2":9.7,"co":211.0,"o3":80.0,"so2":5.8,"mosquito_risk":3,"arthritis_risk":5,"migraine_risk":4,"frizz_risk":1,"updated_at":"2026-05-13T18:42:59.920504+05:30"},{"city":"Nagpur","state":"Maharashtra","latitude":21.1458,"longitude":79.0882,"temp":38.5,"humidity":24,"rain":0.0,"pressure":967.0,"uv_index":8.95,"wind_gusts":40.3,"aqi":146,"pm10":69.8,"pm2_5":31.3,"no2":18.9,"co":286.0,"o3":128.0,"so2":23.5,"mosquito_risk":0,"arthritis_risk":5,"migraine_risk":10,"frizz_risk":0,"updated_at":"2026-05-13T18:42:59.920511+05:30"},{"city":"Nashik","state":"Maharashtra","latitude":19.9975,"longitude":73.7898,"temp":33.5,"humidity":41,"rain":0.0,"pressure":940.7,"uv_index":8.25,"wind_gusts":42.5,"aqi":102,"pm10":46.7,"pm2_5":21.4,"no2":3.0,"co":185.0,"o3":106.0,"so2":1.5,"mosquito_risk":0,"arthritis_risk":5,"migraine_risk":7,"frizz_risk":1,"updated_at":"2026-05-13T18:42:59.920517+05:30"},{"city":"Aurangabad","state":"Maharashtra","latitude":19.8762,"longitude":75.3433,"temp":39.0,"humidity":16,"rain":0.0,"pressure":938.1,"uv_index":8.85,"wind_gusts":40.3,"aqi":125,"pm10":25.7,"pm2_5":15.7,"no2":2.6,"co":231.0,"o3":136.0,"so2":5.2,"mosquito_risk":0,"arthritis_risk":5,"migraine_risk":10,"frizz_risk":0,"updated_at":"2026-05-13T18:42:59.920524+05:30"},{"city":"Solapur","state":"Maharashtra","latitude":17.6599,"longitude":75.9064,"temp":35.5,"humidity":32,"rain":0.0,"pressure":951.9,"uv_index":9.1,"wind_gusts":39.2,"aqi":139,"pm10":63.8,"pm2_5":32.6,"no2":7.5,"co":263.0,"o3":140.0,"so2":6.2,"mosquito_risk":0,"arthritis_risk":5,"migraine_risk":10,"frizz_risk":1,"updated_at":"2026-05-13T18:42:59.920530+05:30"},{"city":"Kolhapur","state":"Maharashtra","latitude":16.705,"longitude":74.2433,"temp":29.4,"humidity":66,"rain":0.0,"pressure":943.7,"uv_index":8.9,"wind_gusts":50.0,"aqi":103,"pm10":26.0,"pm2_5":16.5,"no2":7.3,"co":199.0,"o3":105.0,"so2":3.9,"mosquito_risk":7,"arthritis_risk":5,"migraine_risk":7,"frizz_risk":1,"updated_at":"2026-05-13T18:42:59.920537+05:30"},{"city":"Goa","state":"Goa","latitude":15.2993,"longitude":74.124,"temp":30.2,"humidity":82,"rain":0.0,"pressure":992.8,"uv_index":8.9,"wind_gusts":28.1,"aqi":68,"pm10":43.5,"pm2_5":20.0,"no2":1.7,"co":162.0,"o3":79.0,"so2":1.2,"mosquito_risk":3,"arthritis_risk":5,"migraine_risk":7,"frizz_risk":1,"updated_at":"2026-05-13T18:42:59.920543+05:30"},{"city":"Jodhpur","state":"Rajasthan","latitude":26.2389,"longitude":73.0243,"temp":40.8,"humidity":14,"rain":0.0,"pressure":975.3,"uv_index":8.4,"wind_gusts":36.0,"aqi":108,"pm10":154.1,"pm2_5":34.0,"no2":5.2,"co":195.0,"o3":119.0,"so2":2.7,"mosquito_risk":0,"arthritis_risk":5,"migraine_risk":10,"frizz_risk":0,"updated_at":"2026-05-13T18:42:59.920549+05:30"},{"city":"Udaipur","state":"Rajasthan","latitude":24.5854,"longitude":73.7125,"temp":36.8,"humidity":18,"rain":0.0,"pressure":941.6,"uv_index":8.85,"wind_gusts":43.6,"aqi":92,"pm10":37.3,"pm2_5":20.7,"no2":2.2,"co":195.0,"o3":128.0,"so2":3.8,"mosquito_risk":0,"arthritis_risk":5,"migraine_risk":10,"frizz_risk":0,"updated_at":"2026-05-13T18:42:59.920556+05:30"},{"city":"Kota","state":"Rajasthan","latitude":25.2138,"longitude":75.8648,"temp":40.8,"humidity":13,"rain":0.0,"pressure":971.8,"uv_index":8.4,"wind_gusts":40.0,"aqi":97,"pm10":31.3,"pm2_5":17.1,"no2":5.0,"co":197.0,"o3":112.0,"so2":3.4,"mosquito_risk":0,"arthritis_risk":5,"migraine_risk":10,"frizz_risk":0,"updated_at":"2026-05-13T18:42:59.920562+05:30"},{"city":"Bikaner","state":"Rajasthan","latitude":28.0229,"longitude":73.3119,"temp":39.5,"humidity":18,"rain":0.0,"pressure":974.3,"uv_index":8.35,"wind_gusts":28.8,"aqi":108,"pm10":141.1,"pm2_5":29.0,"no2":1.9,"co":206.0,"o3":99.0,"so2":1.7,"mosquito_risk":0,"arthritis_risk":5,"migraine_risk":10,"frizz_risk":0,"updated_at":"2026-05-13T18:42:59.920568+05:30"},{"city":"Ajmer","state":"Rajasthan","latitude":26.4499,"longitude":74.6399,"temp":37.5,"humidity":16,"rain":0.0,"pressure":948.9,"uv_index":8.35,"wind_gusts":47.9,"aqi":89,"pm10":43.9,"pm2_5":18.6,"no2":3.1,"co":179.0,"o3":118.0,"so2":2.9,"mosquito_risk":0,"arthritis_risk":5,"migraine_risk":10,"frizz_risk":0,"updated_at":"2026-05-13T18:42:59.920574+05:30"},{"city":"Gwalior","state":"Madhya Pradesh","latitude":26.2183,"longitude":78.1828,"temp":37.0,"humidity":24,"rain":0.0,"pressure":976.0,"uv_index":8.25,"wind_gusts":38.5,"aqi":135,"pm10":116.9,"pm2_5":41.6,"no2":5.5,"co":288.0,"o3":110.0,"so2":5.2,"mosquito_risk":0,"arthritis_risk":5,"migraine_risk":10,"frizz_risk":0,"updated_at":"2026-05-13T18:42:59.920580+05:30"},{"city":"Indore","state":"Madhya Pradesh","latitude":22.7196,"longitude":75.8577,"temp":39.2,"humidity":14,"rain":0.0,"pressure":942.3,"uv_index":8.7,"wind_gusts":40.0,"aqi":103,"pm10":40.6,"pm2_5":17.1,"no2":8.6,"co":280.0,"o3":121.0,"so2":6.3,"mosquito_risk":0,"arthritis_risk":5,"migraine_risk":10,"frizz_risk":0,"updated_at":"2026-05-13T18:42:59.920586+05:30"},{"city":"Bhopal","state":"Madhya Pradesh","latitude":23.2599,"longitude":77.4126,"temp":39.0,"humidity":14,"rain":0.0,"pressure":947.8,"uv_index":8.75,"wind_gusts":43.2,"aqi":100,"pm10":37.1,"pm2_5":17.5,"no2":3.9,"co":197.0,"o3":111.0,"so2":3.6,"mosquito_risk":0,"arthritis_risk":5,"migraine_risk":10,"frizz_risk":0,"updated_at":"2026-05-13T18:42:59.920592+05:30"},{"city":"Jabalpur","state":"Madhya Pradesh","latitude":23.1815,"longitude":79.9864,"temp":38.5,"humidity":17,"rain":0.0,"pressure":954.7,"uv_index":8.9,"wind_gusts":37.1,"aqi":117,"pm10":68.2,"pm2_5":27.5,"no2":8.1,"co":201.0,"o3":113.0,"so2":5.0,"mosquito_risk":0,"arthritis_risk":5,"migraine_risk":10,"frizz_risk":0,"updated_at":"2026-05-13T18:42:59.920598+05:30"},{"city":"Ujjain","state":"Madhya Pradesh","latitude":23.1765,"longitude":75.7885,"temp":39.5,"humidity":15,"rain":0.0,"pressure":947.7,"uv_index":8.65,"wind_gusts":36.7,"aqi":97,"pm10":33.1,"pm2_5":16.2,"no2":2.2,"co":214.0,"o3":122.0,"so2":3.6,"mosquito_risk":0,"arthritis_risk":5,"migraine_risk":10,"frizz_risk":0,"updated_at":"2026-05-13T18:42:59.920605+05:30"},{"city":"Visakhapatnam","state":"Andhra Pradesh","latitude":17.6868,"longitude":83.2185,"temp":29.6,"humidity":74,"rain":0.0,"pressure":998.9,"uv_index":9.15,"wind_gusts":40.0,"aqi":74,"pm10":12.3,"pm2_5":10.2,"no2":14.5,"co":371.0,"o3":25.0,"so2":37.3,"mosquito_risk":7,"arthritis_risk":5,"migraine_risk":7,"frizz_risk":1,"updated_at":"2026-05-13T18:42:59.920611+05:30"},{"city":"Vijayawada","state":"Andhra Pradesh","latitude":16.5062,"longitude":80.648,"temp":35.3,"humidity":44,"rain":0.0,"pressure":996.6,"uv_index":9.2,"wind_gusts":37.4,"aqi":64,"pm10":11.4,"pm2_5":9.0,"no2":4.7,"co":173.0,"o3":74.0,"so2":7.1,"mosquito_risk":0,"arthritis_risk":5,"migraine_risk":10,"frizz_risk":1,"updated_at":"2026-05-13T18:42:59.920617+05:30"},{"city":"Guntur","state":"Andhra Pradesh","latitude":16.3067,"longitude":80.4365,"temp":31.9,"humidity":60,"rain":0.0,"pressure":997.9,"uv_index":9.25,"wind_gusts":36.4,"aqi":79,"pm10":27.2,"pm2_5":16.7,"no2":4.3,"co":151.0,"o3":99.0,"so2":6.2,"mosquito_risk":0,"arthritis_risk":5,"migraine_risk":7,"frizz_risk":1,"updated_at":"2026-05-13T18:42:59.920623+05:30"},{"city":"Nellore","state":"Andhra Pradesh","latitude":14.4426,"longitude":79.9865,"temp":30.5,"humidity":64,"rain":0.0,"pressure":1000.1,"uv_index":9.15,"wind_gusts":38.5,"aqi":30,"pm10":7.5,"pm2_5":4.7,"no2":2.1,"co":130.0,"o3":48.0,"so2":1.5,"mosquito_risk":3,"arthritis_risk":5,"migraine_risk":4,"frizz_risk":1,"updated_at":"2026-05-13T18:42:59.920629+05:30"},{"city":"Kurnool","state":"Andhra Pradesh","latitude":15.8281,"longitude":78.0373,"temp":36.5,"humidity":31,"rain":0.0,"pressure":971.3,"uv_index":9.2,"wind_gusts":33.8,"aqi":80,"pm10":31.9,"pm2_5":18.0,"no2":4.1,"co":237.0,"o3":116.0,"so2":3.6,"mosquito_risk":0,"arthritis_risk":5,"migraine_risk":10,"frizz_risk":1,"updated_at":"2026-05-13T18:42:59.920636+05:30"},{"city":"Kakinada","state":"Andhra Pradesh","latitude":16.9891,"longitude":82.2475,"temp":29.6,"humidity":74,"rain":0.0,"pressure":1002.4,"uv_index":9.15,"wind_gusts":37.8,"aqi":32,"pm10":6.6,"pm2_5":4.2,"no2":1.2,"co":126.0,"o3":48.0,"so2":0.5,"mosquito_risk":7,"arthritis_risk":5,"migraine_risk":4,"frizz_risk":1,"updated_at":"2026-05-13T18:42:59.920642+05:30"},{"city":"Tirupati","state":"Andhra Pradesh","latitude":13.6288,"longitude":79.4192,"temp":31.3,"humidity":59,"rain":0.0,"pressure":985.7,"uv_index":9.25,"wind_gusts":37.8,"aqi":51,"pm10":8.8,"pm2_5":6.4,"no2":3.7,"co":149.0,"o3":73.0,"so2":1.9,"mosquito_risk":0,"arthritis_risk":5,"migraine_risk":7,"frizz_risk":1,"updated_at":"2026-05-13T18:42:59.920648+05:30"},{"city":"Warangal","state":"Telangana","latitude":17.9689,"longitude":79.5941,"temp":35.0,"humidity":41,"rain":0.0,"pressure":972.8,"uv_index":9.2,"wind_gusts":41.4,"aqi":88,"pm10":52.4,"pm2_5":33.8,"no2":7.8,"co":306.0,"o3":125.0,"so2":5.6,"mosquito_risk":0,"arthritis_risk":5,"migraine_risk":7,"frizz_risk":1,"updated_at":"2026-05-13T18:42:59.920654+05:30"},{"city":"Nizamabad","state":"Telangana","latitude":18.6725,"longitude":78.0941,"temp":37.9,"humidity":23,"rain":0.0,"pressure":959.0,"uv_index":9.15,"wind_gusts":33.8,"aqi":113,"pm10":61.9,"pm2_5":26.6,"no2":8.3,"co":306.0,"o3":125.0,"so2":6.0,"mosquito_risk":0,"arthritis_risk":5,"migraine_risk":10,"frizz_risk":0,"updated_at":"2026-05-13T18:42:59.920660+05:30"},{"city":"Mysore","state":"Karnataka","latitude":12.2958,"longitude":76.6396,"temp":29.9,"humidity":52,"rain":0.0,"pressure":924.1,"uv_index":9.25,"wind_gusts":31.0,"aqi":140,"pm10":35.5,"pm2_5":25.2,"no2":20.2,"co":264.0,"o3":127.0,"so2":5.2,"mosquito_risk":4,"arthritis_risk":5,"migraine_risk":7,"frizz_risk":1,"updated_at":"2026-05-13T18:42:59.920666+05:30"},{"city":"Mangalore","state":"Karnataka","latitude":12.9141,"longitude":74.856,"temp":28.1,"humidity":87,"rain":0.0,"pressure":1002.5,"uv_index":7.65,"wind_gusts":37.4,"aqi":79,"pm10":34.6,"pm2_5":18.6,"no2":4.7,"co":221.0,"o3":76.0,"so2":2.1,"mosquito_risk":7,"arthritis_risk":5,"migraine_risk":4,"frizz_risk":1,"updated_at":"2026-05-13T18:42:59.920672+05:30"},{"city":"Hubli-Dharwad","state":"Karnataka","latitude":15.3647,"longitude":75.124,"temp":28.7,"humidity":66,"rain":0.0,"pressure":936.2,"uv_index":8.75,"wind_gusts":42.5,"aqi":106,"pm10":22.8,"pm2_5":16.3,"no2":8.7,"co":211.0,"o3":103.0,"so2":2.8,"mosquito_risk":7,"arthritis_risk":5,"migraine_risk":7,"frizz_risk":1,"updated_at":"2026-05-13T18:42:59.920678+05:30"},{"city":"Belgaum","state":"Karnataka","latitude":15.8497,"longitude":74.4977,"temp":27.7,"humidity":70,"rain":0.0,"pressure":921.8,"uv_index":9.15,"wind_gusts":45.0,"aqi":74,"pm10":23.4,"pm2_5":14.1,"no2":5.8,"co":188.0,"o3":88.0,"so2":1.9,"mosquito_risk":7,"arthritis_risk":5,"migraine_risk":7,"frizz_risk":1,"updated_at":"2026-05-13T18:43:03.286830+05:30"},{"city":"Coimbatore","state":"Tamil Nadu","latitude":11.0168,"longitude":76.9558,"temp":28.5,"humidity":69,"rain":0.0,"pressure":957.0,"uv_index":9.2,"wind_gusts":39.6,"aqi":108,"pm10":25.4,"pm2_5":18.8,"no2":6.8,"co":251.0,"o3":117.0,"so2":3.8,"mosquito_risk":7,"arthritis_risk":5,"migraine_risk":7,"frizz_risk":1,"updated_at":"2026-05-13T18:43:03.286853+05:30"},{"city":"Madurai","state":"Tamil Nadu","latitude":9.9252,"longitude":78.1198,"temp":31.4,"humidity":61,"rain":0.0,"pressure":987.6,"uv_index":8.65,"wind_gusts":21.6,"aqi":112,"pm10":31.5,"pm2_5":24.9,"no2":22.5,"co":307.0,"o3":102.0,"so2":6.1,"mosquito_risk":3,"arthritis_risk":5,"migraine_risk":7,"frizz_risk":1,"updated_at":"2026-05-13T18:43:03.286863+05:30"},{"city":"Trichy","state":"Tamil Nadu","latitude":10.7905,"longitude":78.7047,"temp":31.5,"humidity":60,"rain":0.0,"pressure":993.7,"uv_index":9.0,"wind_gusts":33.1,"aqi":113,"pm10":36.2,"pm2_5":31.4,"no2":21.2,"co":291.0,"o3":107.0,"so2":10.8,"mosquito_risk":0,"arthritis_risk":5,"migraine_risk":7,"frizz_risk":1,"updated_at":"2026-05-13T18:43:03.286870+05:30"},{"city":"Salem","state":"Tamil Nadu","latitude":11.6643,"longitude":78.146,"temp":32.9,"humidity":43,"rain":0.0,"pressure":971.3,"uv_index":9.2,"wind_gusts":28.8,"aqi":167,"pm10":39.7,"pm2_5":29.3,"no2":15.3,"co":296.0,"o3":139.0,"so2":11.1,"mosquito_risk":0,"arthritis_risk":5,"migraine_risk":7,"frizz_risk":1,"updated_at":"2026-05-13T18:43:03.286877+05:30"},{"city":"Tirunelveli","state":"Tamil Nadu","latitude":8.7139,"longitude":77.7567,"temp":32.0,"humidity":54,"rain":0.0,"pressure":997.9,"uv_index":7.05,"wind_gusts":19.4,"aqi":68,"pm10":21.9,"pm2_5":15.7,"no2":6.1,"co":267.0,"o3":100.0,"so2":2.4,"mosquito_risk":0,"arthritis_risk":5,"migraine_risk":7,"frizz_risk":1,"updated_at":"2026-05-13T18:43:03.286883+05:30"},{"city":"Vellore","state":"Tamil Nadu","latitude":12.9165,"longitude":79.1325,"temp":32.8,"humidity":47,"rain":0.0,"pressure":978.8,"uv_index":9.15,"wind_gusts":33.1,"aqi":76,"pm10":19.9,"pm2_5":14.6,"no2":6.7,"co":188.0,"o3":108.0,"so2":5.4,"mosquito_risk":0,"arthritis_risk":5,"migraine_risk":7,"frizz_risk":1,"updated_at":"2026-05-13T18:43:03.286889+05:30"},{"city":"Erode","state":"Tamil Nadu","latitude":11.341,"longitude":77.7172,"temp":33.7,"humidity":43,"rain":0.0,"pressure":983.2,"uv_index":9.15,"wind_gusts":33.1,"aqi":162,"pm10":43.9,"pm2_5":32.1,"no2":20.3,"co":395.0,"o3":140.0,"so2":5.8,"mosquito_risk":0,"arthritis_risk":5,"migraine_risk":7,"frizz_risk":1,"updated_at":"2026-05-13T18:43:03.286895+05:30"},{"city":"Kochi","state":"Kerala","latitude":9.9312,"longitude":76.2673,"temp":28.4,"humidity":85,"rain":0.0,"pressure":1004.3,"uv_index":8.6,"wind_gusts":32.8,"aqi":79,"pm10":28.5,"pm2_5":20.4,"no2":10.5,"co":221.0,"o3":77.0,"so2":3.9,"mosquito_risk":7,"arthritis_risk":5,"migraine_risk":4,"frizz_risk":1,"updated_at":"2026-05-13T18:43:03.286903+05:30"},{"city":"Thiruvananthapuram","state":"Kerala","latitude":8.5241,"longitude":76.9366,"temp":27.2,"humidity":90,"rain":0.0,"pressure":1003.6,"uv_index":7.1,"wind_gusts":36.0,"aqi":58,"pm10":15.0,"pm2_5":8.7,"no2":2.7,"co":208.0,"o3":90.0,"so2":1.0,"mosquito_risk":7,"arthritis_risk":5,"migraine_risk":4,"frizz_risk":1,"updated_at":"2026-05-13T18:43:03.286910+05:30"},{"city":"Kozhikode","state":"Kerala","latitude":11.2588,"longitude":75.7804,"temp":26.8,"humidity":92,"rain":0.1,"pressure":1003.5,"uv_index":8.55,"wind_gusts":39.6,"aqi":65,"pm10":32.1,"pm2_5":16.8,"no2":1.6,"co":262.0,"o3":93.0,"so2":1.4,"mosquito_risk":10,"arthritis_risk":5,"migraine_risk":4,"frizz_risk":1,"updated_at":"2026-05-13T18:43:03.286917+05:30"},{"city":"Thrissur","state":"Kerala","latitude":10.5276,"longitude":76.2144,"temp":28.4,"humidity":80,"rain":0.0,"pressure":1002.6,"uv_index":8.7,"wind_gusts":35.3,"aqi":73,"pm10":24.0,"pm2_5":17.1,"no2":8.7,"co":287.0,"o3":78.0,"so2":2.8,"mosquito_risk":7,"arthritis_risk":5,"migraine_risk":4,"frizz_risk":1,"updated_at":"2026-05-13T18:43:03.286924+05:30"},{"city":"Kannur","state":"Kerala","latitude":11.8745,"longitude":75.3704,"temp":26.1,"humidity":97,"rain":0.1,"pressure":1003.1,"uv_index":8.9,"wind_gusts":36.0,"aqi":80,"pm10":36.4,"pm2_5":20.8,"no2":8.2,"co":225.0,"o3":81.0,"so2":2.2,"mosquito_risk":10,"arthritis_risk":5,"migraine_risk":4,"frizz_risk":1,"updated_at":"2026-05-13T18:43:03.286931+05:30"},{"city":"Patna","state":"Bihar","latitude":25.5941,"longitude":85.1376,"temp":30.1,"humidity":69,"rain":0.0,"pressure":994.4,"uv_index":8.75,"wind_gusts":30.2,"aqi":172,"pm10":82.4,"pm2_5":68.5,"no2":12.0,"co":413.0,"o3":159.0,"so2":17.6,"mosquito_risk":3,"arthritis_risk":5,"migraine_risk":7,"frizz_risk":1,"updated_at":"2026-05-13T18:43:03.286937+05:30"},{"city":"Gaya","state":"Bihar","latitude":24.7914,"longitude":85.0002,"temp":32.3,"humidity":56,"rain":0.0,"pressure":987.3,"uv_index":8.85,"wind_gusts":28.1,"aqi":185,"pm10":90.1,"pm2_5":74.7,"no2":10.8,"co":401.0,"o3":161.0,"so2":17.6,"mosquito_risk":0,"arthritis_risk":5,"migraine_risk":7,"frizz_risk":1,"updated_at":"2026-05-13T18:43:03.286943+05:30"},{"city":"Muzaffarpur","state":"Bihar","latitude":26.1209,"longitude":85.3647,"temp":29.4,"humidity":68,"rain":0.0,"pressure":994.8,"uv_index":8.75,"wind_gusts":33.8,"aqi":157,"pm10":84.1,"pm2_5":70.8,"no2":16.9,"co":410.0,"o3":134.0,"so2":18.7,"mosquito_risk":7,"arthritis_risk":5,"migraine_risk":7,"frizz_risk":1,"updated_at":"2026-05-13T18:43:03.286949+05:30"},{"city":"Bhagalpur","state":"Bihar","latitude":25.2425,"longitude":87.0117,"temp":28.5,"humidity":70,"rain":0.0,"pressure":996.1,"uv_index":8.75,"wind_gusts":38.2,"aqi":157,"pm10":55.5,"pm2_5":46.0,"no2":9.9,"co":331.0,"o3":166.0,"so2":23.8,"mosquito_risk":7,"arthritis_risk":5,"migraine_risk":7,"frizz_risk":1,"updated_at":"2026-05-13T18:43:03.286955+05:30"},{"city":"Ranchi","state":"Jharkhand","latitude":23.3441,"longitude":85.3096,"temp":26.8,"humidity":65,"rain":0.0,"pressure":933.1,"uv_index":9.25,"wind_gusts":35.3,"aqi":114,"pm10":49.0,"pm2_5":33.5,"no2":8.1,"co":272.0,"o3":118.0,"so2":7.6,"mosquito_risk":7,"arthritis_risk":5,"migraine_risk":7,"frizz_risk":1,"updated_at":"2026-05-13T18:43:03.286961+05:30"},{"city":"Jamshedpur","state":"Jharkhand","latitude":22.8046,"longitude":86.2029,"temp":31.1,"humidity":62,"rain":0.0,"pressure":984.9,"uv_index":9.15,"wind_gusts":29.5,"aqi":128,"pm10":59.3,"pm2_5":37.7,"no2":10.4,"co":327.0,"o3":126.0,"so2":15.0,"mosquito_risk":3,"arthritis_risk":5,"migraine_risk":7,"frizz_risk":1,"updated_at":"2026-05-13T18:43:03.286967+05:30"},{"city":"Dhanbad","state":"Jharkhand","latitude":23.7957,"longitude":86.4304,"temp":30.4,"humidity":64,"rain":0.0,"pressure":974.1,"uv_index":9.1,"wind_gusts":37.1,"aqi":151,"pm10":63.8,"pm2_5":51.2,"no2":35.8,"co":729.0,"o3":110.0,"so2":83.9,"mosquito_risk":3,"arthritis_risk":5,"migraine_risk":7,"frizz_risk":1,"updated_at":"2026-05-13T18:43:03.286973+05:30"},{"city":"Bokaro","state":"Jharkhand","latitude":23.6693,"longitude":86.1511,"temp":30.4,"humidity":63,"rain":0.0,"pressure":977.7,"uv_index":9.1,"wind_gusts":29.9,"aqi":151,"pm10":96.2,"pm2_5":58.2,"no2":30.3,"co":999.0,"o3":107.0,"so2":72.3,"mosquito_risk":3,"arthritis_risk":5,"migraine_risk":7,"frizz_risk":1,"updated_at":"2026-05-13T18:43:03.286979+05:30"},{"city":"Bhubaneswar","state":"Odisha","latitude":20.2961,"longitude":85.8245,"temp":29.0,"humidity":76,"rain":0.0,"pressure":998.1,"uv_index":9.0,"wind_gusts":41.0,"aqi":40,"pm10":6.8,"pm2_5":5.6,"no2":5.2,"co":178.0,"o3":41.0,"so2":2.5,"mosquito_risk":7,"arthritis_risk":5,"migraine_risk":7,"frizz_risk":1,"updated_at":"2026-05-13T18:43:03.286985+05:30"},{"city":"Cuttack","state":"Odisha","latitude":20.4625,"longitude":85.8828,"temp":29.7,"humidity":73,"rain":0.0,"pressure":999.8,"uv_index":9.05,"wind_gusts":39.6,"aqi":40,"pm10":6.8,"pm2_5":5.6,"no2":5.2,"co":170.0,"o3":41.0,"so2":2.5,"mosquito_risk":7,"arthritis_risk":5,"migraine_risk":7,"frizz_risk":1,"updated_at":"2026-05-13T18:43:03.286991+05:30"},{"city":"Rourkela","state":"Odisha","latitude":22.2604,"longitude":84.8536,"temp":28.8,"humidity":72,"rain":0.0,"pressure":979.3,"uv_index":9.05,"wind_gusts":46.1,"aqi":120,"pm10":46.3,"pm2_5":36.9,"no2":13.3,"co":360.0,"o3":121.0,"so2":12.6,"mosquito_risk":7,"arthritis_risk":5,"migraine_risk":7,"frizz_risk":1,"updated_at":"2026-05-13T18:43:03.286997+05:30"},{"city":"Raipur","state":"Chhattisgarh","latitude":21.2514,"longitude":81.6296,"temp":37.4,"humidity":27,"rain":0.0,"pressure":968.2,"uv_index":9.05,"wind_gusts":38.5,"aqi":151,"pm10":61.5,"pm2_5":43.1,"no2":19.5,"co":330.0,"o3":131.0,"so2":36.3,"mosquito_risk":0,"arthritis_risk":5,"migraine_risk":10,"frizz_risk":0,"updated_at":"2026-05-13T18:43:03.287003+05:30"},{"city":"Bhilai","state":"Chhattisgarh","latitude":21.1938,"longitude":81.3509,"temp":36.7,"humidity":30,"rain":0.0,"pressure":968.6,"uv_index":9.05,"wind_gusts":42.8,"aqi":133,"pm10":64.7,"pm2_5":41.2,"no2":18.7,"co":378.0,"o3":128.0,"so2":34.2,"mosquito_risk":0,"arthritis_risk":5,"migraine_risk":10,"frizz_risk":1,"updated_at":"2026-05-13T18:43:03.287009+05:30"},{"city":"Guwahati","state":"Assam","latitude":26.1158,"longitude":91.7086,"temp":22.6,"humidity":96,"rain":0.0,"pressure":998.7,"uv_index":7.4,"wind_gusts":22.3,"aqi":116,"pm10":41.7,"pm2_5":39.6,"no2":12.5,"co":422.0,"o3":73.0,"so2":2.7,"mosquito_risk":3,"arthritis_risk":5,"migraine_risk":7,"frizz_risk":1,"updated_at":"2026-05-13T18:43:03.287016+05:30"},{"city":"Agartala","state":"Tripura","latitude":23.8315,"longitude":91.2868,"temp":26.8,"humidity":89,"rain":0.0,"pressure":1002.2,"uv_index":8.75,"wind_gusts":24.8,"aqi":100,"pm10":27.0,"pm2_5":22.0,"no2":16.2,"co":300.0,"o3":64.0,"so2":3.1,"mosquito_risk":7,"arthritis_risk":5,"migraine_risk":4,"frizz_risk":1,"updated_at":"2026-05-13T18:43:03.287022+05:30"},{"city":"Shillong","state":"Meghalaya","latitude":25.5788,"longitude":91.8933,"temp":15.8,"humidity":90,"rain":0.0,"pressure":852.8,"uv_index":8.05,"wind_gusts":23.4,"aqi":73,"pm10":13.4,"pm2_5":11.7,"no2":8.9,"co":325.0,"o3":87.0,"so2":2.1,"mosquito_risk":3,"arthritis_risk":10,"migraine_risk":7,"frizz_risk":0,"updated_at":"2026-05-13T18:43:03.287028+05:30"},{"city":"Imphal","state":"Manipur","latitude":24.817,"longitude":93.9368,"temp":22.6,"humidity":80,"rain":0.0,"pressure":919.7,"uv_index":9.3,"wind_gusts":29.5,"aqi":91,"pm10":19.4,"pm2_5":16.9,"no2":10.7,"co":471.0,"o3":87.0,"so2":3.5,"mosquito_risk":3,"arthritis_risk":5,"migraine_risk":7,"frizz_risk":1,"updated_at":"2026-05-13T18:43:03.287034+05:30"},{"city":"Aizawl","state":"Mizoram","latitude":23.7271,"longitude":92.7176,"temp":21.3,"humidity":79,"rain":0.0,"pressure":889.1,"uv_index":9.1,"wind_gusts":24.1,"aqi":69,"pm10":19.2,"pm2_5":14.8,"no2":7.6,"co":256.0,"o3":84.0,"so2":2.3,"mosquito_risk":3,"arthritis_risk":5,"migraine_risk":7,"frizz_risk":1,"updated_at":"2026-05-13T18:43:03.287040+05:30"},{"city":"Kohima","state":"Nagaland","latitude":25.6701,"longitude":94.1077,"temp":17.3,"humidity":97,"rain":0.1,"pressure":852.5,"uv_index":8.85,"wind_gusts":28.8,"aqi":71,"pm10":17.6,"pm2_5":15.9,"no2":10.7,"co":375.0,"o3":73.0,"so2":1.7,"mosquito_risk":6,"arthritis_risk":10,"migraine_risk":7,"frizz_risk":1,"updated_at":"2026-05-13T18:43:03.287046+05:30"},{"city":"Gangtok","state":"Sikkim","latitude":27.3314,"longitude":88.6138,"temp":14.9,"humidity":96,"rain":0.3,"pressure":833.7,"uv_index":8.95,"wind_gusts":35.3,"aqi":104,"pm10":11.1,"pm2_5":10.1,"no2":7.2,"co":388.0,"o3":127.0,"so2":1.9,"mosquito_risk":6,"arthritis_risk":10,"migraine_risk":7,"frizz_risk":0,"updated_at":"2026-05-13T18:43:03.287052+05:30"},{"city":"Siliguri","state":"West Bengal","latitude":26.7271,"longitude":88.3953,"temp":22.8,"humidity":93,"rain":0.0,"pressure":989.6,"uv_index":8.65,"wind_gusts":33.8,"aqi":117,"pm10":29.4,"pm2_5":27.0,"no2":8.7,"co":613.0,"o3":122.0,"so2":3.6,"mosquito_risk":3,"arthritis_risk":5,"migraine_risk":7,"frizz_risk":1,"updated_at":"2026-05-13T18:43:06.658090+05:30"},{"city":"Durgapur","state":"West Bengal","latitude":23.5204,"longitude":87.3119,"temp":27.4,"humidity":81,"rain":0.0,"pressure":990.3,"uv_index":9.0,"wind_gusts":34.6,"aqi":113,"pm10":49.2,"pm2_5":42.7,"no2":30.7,"co":568.0,"o3":86.0,"so2":46.4,"mosquito_risk":7,"arthritis_risk":5,"migraine_risk":7,"frizz_risk":1,"updated_at":"2026-05-13T18:43:06.658113+05:30"},{"city":"Asansol","state":"West Bengal","latitude":23.6739,"longitude":86.9524,"temp":27.7,"humidity":80,"rain":0.0,"pressure":988.5,"uv_index":9.05,"wind_gusts":33.1,"aqi":119,"pm10":46.0,"pm2_5":38.6,"no2":29.4,"co":471.0,"o3":100.0,"so2":47.7,"mosquito_risk":7,"arthritis_risk":5,"migraine_risk":7,"frizz_risk":1,"updated_at":"2026-05-13T18:43:06.658123+05:30"},{"city":"Pondicherry","state":"Puducherry","latitude":11.9139,"longitude":79.8145,"temp":29.5,"humidity":82,"rain":0.0,"pressure":1002.9,"uv_index":9.0,"wind_gusts":32.4,"aqi":43,"pm10":12.9,"pm2_5":9.0,"no2":3.3,"co":185.0,"o3":62.0,"so2":3.5,"mosquito_risk":7,"arthritis_risk":5,"migraine_risk":4,"frizz_risk":1,"updated_at":"2026-05-13T18:43:06.658130+05:30"},{"city":"Port Blair","state":"Andaman and Nicobar Islands","latitude":11.6234,"longitude":92.7265,"temp":25.5,"humidity":97,"rain":0.2,"pressure":1004.6,"uv_index":3.1,"wind_gusts":35.6,"aqi":19,"pm10":4.5,"pm2_5":3.0,"no2":0.7,"co":137.0,"o3":41.0,"so2":0.2,"mosquito_risk":10,"arthritis_risk":5,"migraine_risk":0,"frizz_risk":1,"updated_at":"2026-05-13T18:43:06.658137+05:30"},{"city":"Haridwar","state":"Uttarakhand","latitude":29.9457,"longitude":78.1642,"temp":30.7,"humidity":53,"rain":0.0,"pressure":968.1,"uv_index":7.5,"wind_gusts":29.5,"aqi":162,"pm10":95.5,"pm2_5":55.3,"no2":7.1,"co":407.0,"o3":148.0,"so2":12.4,"mosquito_risk":0,"arthritis_risk":5,"migraine_risk":7,"frizz_risk":1,"updated_at":"2026-05-13T18:43:06.658144+05:30"},{"city":"Rishikesh","state":"Uttarakhand","latitude":30.0869,"longitude":78.2676,"temp":29.4,"humidity":58,"rain":0.0,"pressure":960.9,"uv_index":7.6,"wind_gusts":23.8,"aqi":152,"pm10":94.5,"pm2_5":45.6,"no2":4.0,"co":370.0,"o3":152.0,"so2":10.2,"mosquito_risk":4,"arthritis_risk":5,"migraine_risk":7,"frizz_risk":1,"updated_at":"2026-05-13T18:43:06.658151+05:30"},{"city":"Nainital","state":"Uttarakhand","latitude":29.3919,"longitude":79.4542,"temp":17.6,"humidity":74,"rain":0.0,"pressure":802.4,"uv_index":8.45,"wind_gusts":45.0,"aqi":150,"pm10":151.8,"pm2_5":58.9,"no2":6.7,"co":297.0,"o3":154.0,"so2":16.5,"mosquito_risk":3,"arthritis_risk":5,"migraine_risk":7,"frizz_risk":0,"updated_at":"2026-05-13T18:43:06.658157+05:30"},{"city":"Mussoorie","state":"Uttarakhand","latitude":30.4599,"longitude":78.0664,"temp":17.5,"humidity":64,"rain":0.0,"pressure":800.3,"uv_index":8.0,"wind_gusts":52.2,"aqi":145,"pm10":78.2,"pm2_5":45.1,"no2":7.8,"co":340.0,"o3":156.0,"so2":10.7,"mosquito_risk":3,"arthritis_risk":5,"migraine_risk":7,"frizz_risk":0,"updated_at":"2026-05-13T18:43:06.658164+05:30"},{"city":"Dharamshala","state":"Himachal Pradesh","latitude":32.219,"longitude":76.3234,"temp":21.6,"humidity":58,"rain":0.0,"pressure":866.2,"uv_index":8.35,"wind_gusts":45.0,"aqi":91,"pm10":25.1,"pm2_5":12.6,"no2":4.8,"co":263.0,"o3":114.0,"so2":1.2,"mosquito_risk":0,"arthritis_risk":5,"migraine_risk":7,"frizz_risk":0,"updated_at":"2026-05-13T18:43:06.658170+05:30"},{"city":"Dalhousie","state":"Himachal Pradesh","latitude":32.5387,"longitude":75.971,"temp":17.0,"humidity":53,"rain":0.0,"pressure":802.4,"uv_index":8.6,"wind_gusts":33.1,"aqi":104,"pm10":40.5,"pm2_5":19.3,"no2":11.7,"co":372.0,"o3":125.0,"so2":2.1,"mosquito_risk":0,"arthritis_risk":5,"migraine_risk":7,"frizz_risk":0,"updated_at":"2026-05-13T18:43:06.658177+05:30"},{"city":"Patiala","state":"Punjab","latitude":30.3398,"longitude":76.3869,"temp":33.7,"humidity":32,"rain":0.0,"pressure":972.0,"uv_index":7.6,"wind_gusts":38.2,"aqi":189,"pm10":269.2,"pm2_5":76.6,"no2":8.7,"co":395.0,"o3":145.0,"so2":14.2,"mosquito_risk":0,"arthritis_risk":5,"migraine_risk":7,"frizz_risk":0,"updated_at":"2026-05-13T18:43:06.658184+05:30"},{"city":"Bhatinda","state":"Punjab","latitude":30.211,"longitude":74.9455,"temp":37.8,"humidity":17,"rain":0.0,"pressure":976.7,"uv_index":8.25,"wind_gusts":38.9,"aqi":259,"pm10":197.4,"pm2_5":65.7,"no2":5.6,"co":336.0,"o3":131.0,"so2":11.3,"mosquito_risk":0,"arthritis_risk":5,"migraine_risk":10,"frizz_risk":0,"updated_at":"2026-05-13T18:43:06.658190+05:30"},{"city":"Rohtak","state":"Haryana","latitude":28.8955,"longitude":76.6066,"temp":35.0,"humidity":34,"rain":0.0,"pressure":974.8,"uv_index":7.7,"wind_gusts":33.5,"aqi":355,"pm10":457.3,"pm2_5":110.4,"no2":12.0,"co":394.0,"o3":159.0,"so2":16.7,"mosquito_risk":0,"arthritis_risk":5,"migraine_risk":7,"frizz_risk":1,"updated_at":"2026-05-13T18:43:06.658197+05:30"},{"city":"Panipat","state":"Haryana","latitude":29.3909,"longitude":76.9635,"temp":33.0,"humidity":43,"rain":0.0,"pressure":974.4,"uv_index":7.55,"wind_gusts":34.2,"aqi":492,"pm10":868.0,"pm2_5":161.6,"no2":10.3,"co":411.0,"o3":187.0,"so2":30.5,"mosquito_risk":0,"arthritis_risk":5,"migraine_risk":7,"frizz_risk":1,"updated_at":"2026-05-13T18:43:06.658203+05:30"},{"city":"Mathura","state":"Uttar Pradesh","latitude":27.4924,"longitude":77.6737,"temp":35.8,"humidity":40,"rain":0.0,"pressure":979.4,"uv_index":7.95,"wind_gusts":28.8,"aqi":496,"pm10":343.7,"pm2_5":80.1,"no2":12.0,"co":343.0,"o3":116.0,"so2":7.5,"mosquito_risk":0,"arthritis_risk":5,"migraine_risk":10,"frizz_risk":1,"updated_at":"2026-05-13T18:43:06.658209+05:30"},{"city":"Vrindavan","state":"Uttar Pradesh","latitude":27.5823,"longitude":77.7027,"temp":35.8,"humidity":37,"rain":0.0,"pressure":979.8,"uv_index":7.95,"wind_gusts":29.2,"aqi":496,"pm10":343.7,"pm2_5":80.1,"no2":12.0,"co":337.0,"o3":116.0,"so2":7.5,"mosquito_risk":0,"arthritis_risk":5,"migraine_risk":10,"frizz_risk":1,"updated_at":"2026-05-13T18:43:06.658215+05:30"},{"city":"Ayodhya","state":"Uttar Pradesh","latitude":26.7922,"longitude":82.1998,"temp":32.7,"humidity":60,"rain":0.0,"pressure":987.9,"uv_index":8.3,"wind_gusts":28.8,"aqi":159,"pm10":147.6,"pm2_5":68.7,"no2":9.1,"co":381.0,"o3":132.0,"so2":10.2,"mosquito_risk":0,"arthritis_risk":5,"migraine_risk":7,"frizz_risk":1,"updated_at":"2026-05-13T18:43:06.658221+05:30"},{"city":"Ratlam","state":"Madhya Pradesh","latitude":23.3315,"longitude":75.0367,"temp":36.7,"humidity":22,"rain":0.0,"pressure":949.3,"uv_index":8.55,"wind_gusts":40.0,"aqi":95,"pm10":28.8,"pm2_5":15.4,"no2":1.3,"co":181.0,"o3":124.0,"so2":3.4,"mosquito_risk":0,"arthritis_risk":5,"migraine_risk":10,"frizz_risk":0,"updated_at":"2026-05-13T18:43:06.658227+05:30"},{"city":"Sagar","state":"Madhya Pradesh","latitude":23.8388,"longitude":78.7378,"temp":37.2,"humidity":16,"rain":0.0,"pressure":944.2,"uv_index":8.8,"wind_gusts":39.6,"aqi":87,"pm10":57.5,"pm2_5":19.7,"no2":4.3,"co":203.0,"o3":110.0,"so2":2.5,"mosquito_risk":0,"arthritis_risk":5,"migraine_risk":10,"frizz_risk":0,"updated_at":"2026-05-13T18:43:06.658233+05:30"},{"city":"Satna","state":"Madhya Pradesh","latitude":24.6005,"longitude":80.8322,"temp":37.2,"humidity":21,"rain":0.0,"pressure":964.6,"uv_index":8.75,"wind_gusts":46.8,"aqi":114,"pm10":51.9,"pm2_5":30.6,"no2":5.2,"co":249.0,"o3":118.0,"so2":5.4,"mosquito_risk":0,"arthritis_risk":5,"migraine_risk":10,"frizz_risk":0,"updated_at":"2026-05-13T18:43:06.658240+05:30"},{"city":"Akola","state":"Maharashtra","latitude":20.7002,"longitude":77.0082,"temp":41.0,"humidity":18,"rain":0.0,"pressure":967.5,"uv_index":8.95,"wind_gusts":33.1,"aqi":126,"pm10":66.4,"pm2_5":29.0,"no2":9.7,"co":263.0,"o3":130.0,"so2":9.1,"mosquito_risk":0,"arthritis_risk":5,"migraine_risk":10,"frizz_risk":0,"updated_at":"2026-05-13T18:43:06.658246+05:30"},{"city":"Amravati","state":"Maharashtra","latitude":20.9374,"longitude":77.7796,"temp":39.5,"humidity":19,"rain":0.0,"pressure":960.8,"uv_index":8.95,"wind_gusts":36.7,"aqi":129,"pm10":75.7,"pm2_5":33.3,"no2":7.9,"co":240.0,"o3":130.0,"so2":9.1,"mosquito_risk":0,"arthritis_risk":5,"migraine_risk":10,"frizz_risk":0,"updated_at":"2026-05-13T18:43:06.658254+05:30"},{"city":"Latur","state":"Maharashtra","latitude":18.4088,"longitude":76.5604,"temp":36.2,"humidity":25,"rain":0.0,"pressure":935.2,"uv_index":8.95,"wind_gusts":34.9,"aqi":123,"pm10":80.8,"pm2_5":38.2,"no2":7.4,"co":231.0,"o3":134.0,"so2":7.4,"mosquito_risk":0,"arthritis_risk":5,"migraine_risk":10,"frizz_risk":0,"updated_at":"2026-05-13T18:43:06.658261+05:30"},{"city":"Nanded","state":"Maharashtra","latitude":19.1383,"longitude":77.3091,"temp":38.0,"humidity":24,"rain":0.0,"pressure":962.4,"uv_index":9.05,"wind_gusts":30.6,"aqi":133,"pm10":74.5,"pm2_5":35.3,"no2":11.7,"co":309.0,"o3":130.0,"so2":7.6,"mosquito_risk":0,"arthritis_risk":5,"migraine_risk":10,"frizz_risk":0,"updated_at":"2026-05-13T18:43:06.658267+05:30"},{"city":"Gulbarga","state":"Karnataka","latitude":17.3297,"longitude":76.8343,"temp":35.5,"humidity":32,"rain":0.0,"pressure":953.3,"uv_index":9.1,"wind_gusts":28.1,"aqi":137,"pm10":51.8,"pm2_5":27.3,"no2":10.4,"co":241.0,"o3":139.0,"so2":8.1,"mosquito_risk":0,"arthritis_risk":5,"migraine_risk":10,"frizz_risk":1,"updated_at":"2026-05-13T18:43:06.658274+05:30"},{"city":"Bidar","state":"Karnataka","latitude":17.9104,"longitude":77.5199,"temp":33.7,"humidity":38,"rain":0.0,"pressure":930.8,"uv_index":9.15,"wind_gusts":36.0,"aqi":112,"pm10":47.6,"pm2_5":24.6,"no2":9.7,"co":291.0,"o3":124.0,"so2":5.9,"mosquito_risk":0,"arthritis_risk":5,"migraine_risk":7,"frizz_risk":1,"updated_at":"2026-05-13T18:43:06.658280+05:30"},{"city":"Hospet","state":"Karnataka","latitude":15.2689,"longitude":76.3909,"temp":32.5,"humidity":47,"rain":0.0,"pressure":950.6,"uv_index":9.2,"wind_gusts":28.8,"aqi":122,"pm10":56.8,"pm2_5":35.2,"no2":18.9,"co":322.0,"o3":138.0,"so2":14.5,"mosquito_risk":0,"arthritis_risk":5,"migraine_risk":7,"frizz_risk":1,"updated_at":"2026-05-13T18:43:06.658286+05:30"},{"city":"Tirupur","state":"Tamil Nadu","latitude":11.1085,"longitude":77.3411,"temp":30.9,"humidity":54,"rain":0.0,"pressure":970.0,"uv_index":9.25,"wind_gusts":36.0,"aqi":150,"pm10":38.4,"pm2_5":26.3,"no2":14.9,"co":259.0,"o3":135.0,"so2":5.2,"mosquito_risk":0,"arthritis_risk":5,"migraine_risk":7,"frizz_risk":1,"updated_at":"2026-05-13T18:43:06.658292+05:30"},{"city":"Alappuzha","state":"Kerala","latitude":9.4981,"longitude":76.3388,"temp":29.0,"humidity":83,"rain":0.0,"pressure":1004.2,"uv_index":8.4,"wind_gusts":34.2,"aqi":73,"pm10":26.9,"pm2_5":17.2,"no2":8.9,"co":131.0,"o3":82.0,"so2":3.2,"mosquito_risk":7,"arthritis_risk":5,"migraine_risk":4,"frizz_risk":1,"updated_at":"2026-05-13T18:43:06.658298+05:30"},{"city":"Munnar","state":"Kerala","latitude":10.0889,"longitude":77.0595,"temp":18.4,"humidity":100,"rain":0.0,"pressure":853.5,"uv_index":9.45,"wind_gusts":33.5,"aqi":69,"pm10":23.7,"pm2_5":19.0,"no2":9.9,"co":234.0,"o3":84.0,"so2":2.7,"mosquito_risk":3,"arthritis_risk":10,"migraine_risk":7,"frizz_risk":1,"updated_at":"2026-05-13T18:43:06.658304+05:30"},{"city":"Silchar","state":"Assam","latitude":24.8333,"longitude":92.7789,"temp":26.6,"humidity":82,"rain":0.0,"pressure":1001.2,"uv_index":8.9,"wind_gusts":24.5,"aqi":117,"pm10":29.5,"pm2_5":26.4,"no2":6.8,"co":374.0,"o3":114.0,"so2":5.6,"mosquito_risk":7,"arthritis_risk":5,"migraine_risk":4,"frizz_risk":1,"updated_at":"2026-05-13T18:43:06.658310+05:30"},{"city":"Dibrugarh","state":"Assam","latitude":27.4728,"longitude":94.912,"temp":23.9,"humidity":96,"rain":0.1,"pressure":993.2,"uv_index":8.7,"wind_gusts":23.8,"aqi":104,"pm10":32.6,"pm2_5":29.9,"no2":10.9,"co":403.0,"o3":85.0,"so2":2.6,"mosquito_risk":6,"arthritis_risk":5,"migraine_risk":7,"frizz_risk":1,"updated_at":"2026-05-13T18:43:06.658316+05:30"}]