[{"city":"Delhi","state":"Delhi","latitude":28.6139,"longitude":77.209,"temp":36.4,"humidity":23,"rain":0.0,"pressure":978.1,"uv_index":7.7,"wind_gusts":43.6,"aqi":564,"pm10":530.9,"pm2_5":132.7,"no2":57.1,"co":409.0,"o3":38.0,"so2":28.2,"mosquito_risk":0,"arthritis_risk":5,"migraine_risk":10,"frizz_risk":0,"updated_at":"2026-05-24T22:35:53.603907+05:30"},{"city":"Mumbai","state":"Maharashtra","latitude":19.076,"longitude":72.8777,"temp":30.4,"humidity":74,"rain":0.0,"pressure":1009.8,"uv_index":6.75,"wind_gusts":42.8,"aqi":40,"pm10":17.5,"pm2_5":12.0,"no2":7.0,"co":255.0,"o3":43.0,"so2":5.2,"mosquito_risk":3,"arthritis_risk":0,"migraine_risk":4,"frizz_risk":1,"updated_at":"2026-05-24T22:35:53.603954+05:30"},{"city":"Bangalore","state":"Karnataka","latitude":12.9716,"longitude":77.5946,"temp":21.9,"humidity":96,"rain":0.0,"pressure":913.7,"uv_index":4.75,"wind_gusts":34.6,"aqi":54,"pm10":38.3,"pm2_5":35.3,"no2":52.5,"co":458.0,"o3":28.0,"so2":16.0,"mosquito_risk":3,"arthritis_risk":5,"migraine_risk":3,"frizz_risk":1,"updated_at":"2026-05-24T22:35:53.603970+05:30"},{"city":"Hyderabad","state":"Telangana","latitude":17.385,"longitude":78.4867,"temp":31.2,"humidity":40,"rain":0.0,"pressure":952.7,"uv_index":9.2,"wind_gusts":47.5,"aqi":67,"pm10":24.8,"pm2_5":21.1,"no2":14.2,"co":351.0,"o3":71.0,"so2":7.1,"mosquito_risk":0,"arthritis_risk":5,"migraine_risk":7,"frizz_risk":0,"updated_at":"2026-05-24T22:35:53.603981+05:30"},{"city":"Chennai","state":"Tamil Nadu","latitude":13.0827,"longitude":80.2707,"temp":29.8,"humidity":76,"rain":0.0,"pressure":1006.5,"uv_index":8.6,"wind_gusts":55.8,"aqi":115,"pm10":28.8,"pm2_5":26.3,"no2":11.9,"co":330.0,"o3":101.0,"so2":10.1,"mosquito_risk":7,"arthritis_risk":5,"migraine_risk":4,"frizz_risk":1,"updated_at":"2026-05-24T22:35:53.603989+05:30"},{"city":"Kolkata","state":"West Bengal","latitude":22.5726,"longitude":88.3639,"temp":29.5,"humidity":88,"rain":0.0,"pressure":1003.5,"uv_index":8.95,"wind_gusts":38.2,"aqi":91,"pm10":32.4,"pm2_5":27.4,"no2":5.7,"co":282.0,"o3":94.0,"so2":5.7,"mosquito_risk":7,"arthritis_risk":5,"migraine_risk":4,"frizz_risk":1,"updated_at":"2026-05-24T22:35:53.603997+05:30"},{"city":"Pune","state":"Maharashtra","latitude":18.5204,"longitude":73.8567,"temp":25.6,"humidity":84,"rain":0.0,"pressure":949.5,"uv_index":8.1,"wind_gusts":52.2,"aqi":38,"pm10":10.5,"pm2_5":8.6,"no2":9.4,"co":208.0,"o3":52.0,"so2":11.0,"mosquito_risk":7,"arthritis_risk":5,"migraine_risk":7,"frizz_risk":1,"updated_at":"2026-05-24T22:35:53.604004+05:30"},{"city":"Ahmedabad","state":"Gujarat","latitude":23.0225,"longitude":72.5714,"temp":35.0,"humidity":46,"rain":0.0,"pressure":1001.1,"uv_index":8.15,"wind_gusts":37.1,"aqi":51,"pm10":13.4,"pm2_5":9.9,"no2":4.0,"co":165.0,"o3":60.0,"so2":2.7,"mosquito_risk":0,"arthritis_risk":5,"migraine_risk":4,"frizz_risk":1,"updated_at":"2026-05-24T22:35:53.604010+05:30"},{"city":"Jaipur","state":"Rajasthan","latitude":26.9124,"longitude":75.7873,"temp":34.8,"humidity":23,"rain":0.0,"pressure":957.6,"uv_index":8.25,"wind_gusts":50.0,"aqi":224,"pm10":364.1,"pm2_5":75.0,"no2":4.6,"co":180.0,"o3":80.0,"so2":3.8,"mosquito_risk":0,"arthritis_risk":5,"migraine_risk":7,"frizz_risk":0,"updated_at":"2026-05-24T22:35:53.604022+05:30"},{"city":"Lucknow","state":"Uttar Pradesh","latitude":26.8467,"longitude":80.9462,"temp":35.3,"humidity":30,"rain":0.0,"pressure":988.9,"uv_index":8.2,"wind_gusts":49.0,"aqi":197,"pm10":516.0,"pm2_5":113.2,"no2":20.5,"co":355.0,"o3":77.0,"so2":11.9,"mosquito_risk":0,"arthritis_risk":5,"migraine_risk":10,"frizz_risk":0,"updated_at":"2026-05-24T22:35:53.604029+05:30"},{"city":"Kanpur","state":"Uttar Pradesh","latitude":26.4499,"longitude":80.3319,"temp":36.3,"humidity":23,"rain":0.0,"pressure":987.5,"uv_index":8.2,"wind_gusts":43.2,"aqi":483,"pm10":627.7,"pm2_5":118.3,"no2":25.9,"co":276.0,"o3":64.0,"so2":12.9,"mosquito_risk":0,"arthritis_risk":5,"migraine_risk":10,"frizz_risk":0,"updated_at":"2026-05-24T22:35:53.604036+05:30"},{"city":"Chandigarh","state":"Chandigarh","latitude":30.7333,"longitude":76.7794,"temp":28.7,"humidity":35,"rain":0.0,"pressure":963.1,"uv_index":7.75,"wind_gusts":51.5,"aqi":75,"pm10":60.1,"pm2_5":39.5,"no2":29.3,"co":314.0,"o3":48.0,"so2":9.6,"mosquito_risk":4,"arthritis_risk":5,"migraine_risk":7,"frizz_risk":0,"updated_at":"2026-05-24T22:35:53.604045+05:30"},{"city":"Srinagar","state":"Jammu and Kashmir","latitude":34.0837,"longitude":74.7973,"temp":16.5,"humidity":74,"rain":0.0,"pressure":841.9,"uv_index":8.7,"wind_gusts":25.2,"aqi":76,"pm10":27.0,"pm2_5":22.0,"no2":20.2,"co":437.0,"o3":47.0,"so2":2.4,"mosquito_risk":3,"arthritis_risk":5,"migraine_risk":7,"frizz_risk":0,"updated_at":"2026-05-24T22:35:53.604051+05:30"},{"city":"Jammu","state":"Jammu and Kashmir","latitude":32.7266,"longitude":74.857,"temp":29.8,"humidity":36,"rain":0.0,"pressure":968.3,"uv_index":8.55,"wind_gusts":35.3,"aqi":71,"pm10":42.8,"pm2_5":25.8,"no2":15.4,"co":394.0,"o3":73.0,"so2":4.6,"mosquito_risk":4,"arthritis_risk":5,"migraine_risk":7,"frizz_risk":0,"updated_at":"2026-05-24T22:35:53.604057+05:30"},{"city":"Amritsar","state":"Punjab","latitude":31.634,"longitude":74.8723,"temp":31.4,"humidity":30,"rain":0.0,"pressure":975.9,"uv_index":8.4,"wind_gusts":49.3,"aqi":93,"pm10":53.9,"pm2_5":34.0,"no2":14.6,"co":480.0,"o3":78.0,"so2":6.2,"mosquito_risk":0,"arthritis_risk":5,"migraine_risk":7,"frizz_risk":0,"updated_at":"2026-05-24T22:35:53.604063+05:30"},{"city":"Ludhiana","state":"Punjab","latitude":30.901,"longitude":75.8573,"temp":31.9,"humidity":33,"rain":0.0,"pressure":973.8,"uv_index":8.0,"wind_gusts":40.7,"aqi":80,"pm10":52.9,"pm2_5":41.2,"no2":19.0,"co":322.0,"o3":72.0,"so2":10.1,"mosquito_risk":0,"arthritis_risk":5,"migraine_risk":7,"frizz_risk":0,"updated_at":"2026-05-24T22:35:53.604069+05:30"},{"city":"Jalandhar","state":"Punjab","latitude":31.326,"longitude":75.5762,"temp":32.5,"humidity":27,"rain":0.0,"pressure":974.7,"uv_index":8.2,"wind_gusts":54.7,"aqi":88,"pm10":78.2,"pm2_5":49.2,"no2":22.1,"co":314.0,"o3":70.0,"so2":7.1,"mosquito_risk":0,"arthritis_risk":5,"migraine_risk":7,"frizz_risk":0,"updated_at":"2026-05-24T22:35:53.604075+05:30"},{"city":"Dehradun","state":"Uttarakhand","latitude":30.6284,"longitude":78.0322,"temp":18.1,"humidity":45,"rain":0.0,"pressure":828.1,"uv_index":8.2,"wind_gusts":44.3,"aqi":61,"pm10":83.1,"pm2_5":25.7,"no2":26.8,"co":179.0,"o3":53.0,"so2":1.5,"mosquito_risk":0,"arthritis_risk":5,"migraine_risk":7,"frizz_risk":0,"updated_at":"2026-05-24T22:35:53.604084+05:30"},{"city":"Shimla","state":"Himachal Pradesh","latitude":31.1048,"longitude":77.1734,"temp":14.7,"humidity":43,"rain":0.0,"pressure":782.0,"uv_index":8.25,"wind_gusts":65.5,"aqi":66,"pm10":89.9,"pm2_5":27.6,"no2":20.3,"co":252.0,"o3":61.0,"so2":2.8,"mosquito_risk":0,"arthritis_risk":5,"migraine_risk":7,"frizz_risk":0,"updated_at":"2026-05-24T22:35:53.604093+05:30"},{"city":"Manali","state":"Himachal Pradesh","latitude":32.2396,"longitude":77.1887,"temp":13.1,"humidity":63,"rain":0.0,"pressure":816.5,"uv_index":9.65,"wind_gusts":45.0,"aqi":82,"pm10":6.6,"pm2_5":4.6,"no2":14.7,"co":223.0,"o3":105.0,"so2":0.1,"mosquito_risk":3,"arthritis_risk":5,"migraine_risk":7,"frizz_risk":0,"updated_at":"2026-05-24T22:35:53.604099+05:30"},{"city":"Gurgaon","state":"Haryana","latitude":28.4595,"longitude":77.0266,"temp":34.0,"humidity":25,"rain":0.0,"pressure":976.3,"uv_index":7.8,"wind_gusts":42.5,"aqi":1158,"pm10":1143.7,"pm2_5":203.5,"no2":32.9,"co":353.0,"o3":46.0,"so2":14.4,"mosquito_risk":0,"arthritis_risk":5,"migraine_risk":7,"frizz_risk":0,"updated_at":"2026-05-24T22:35:53.604105+05:30"},{"city":"Noida","state":"Uttar Pradesh","latitude":28.5355,"longitude":77.391,"temp":32.0,"humidity":35,"rain":0.0,"pressure":979.3,"uv_index":7.75,"wind_gusts":40.7,"aqi":1158,"pm10":1143.7,"pm2_5":203.5,"no2":32.9,"co":763.0,"o3":46.0,"so2":14.4,"mosquito_risk":0,"arthritis_risk":5,"migraine_risk":7,"frizz_risk":0,"updated_at":"2026-05-24T22:35:53.604112+05:30"},{"city":"Ghaziabad","state":"Uttar Pradesh","latitude":28.6692,"longitude":77.4538,"temp":31.8,"humidity":38,"rain":0.0,"pressure":977.6,"uv_index":7.7,"wind_gusts":45.7,"aqi":444,"pm10":627.7,"pm2_5":150.9,"no2":48.2,"co":464.0,"o3":51.0,"so2":23.6,"mosquito_risk":0,"arthritis_risk":5,"migraine_risk":7,"frizz_risk":0,"updated_at":"2026-05-24T22:35:53.604118+05:30"},{"city":"Faridabad","state":"Haryana","latitude":28.4089,"longitude":77.3178,"temp":34.3,"humidity":32,"rain":0.0,"pressure":978.5,"uv_index":7.8,"wind_gusts":46.4,"aqi":1158,"pm10":1143.7,"pm2_5":203.5,"no2":32.9,"co":266.0,"o3":46.0,"so2":14.4,"mosquito_risk":0,"arthritis_risk":5,"migraine_risk":7,"frizz_risk":0,"updated_at":"2026-05-24T22:35:53.604124+05:30"},{"city":"Meerut","state":"Uttar Pradesh","latitude":28.9845,"longitude":77.7064,"temp":33.2,"humidity":32,"rain":0.0,"pressure":976.2,"uv_index":7.65,"wind_gusts":51.1,"aqi":444,"pm10":627.7,"pm2_5":150.9,"no2":48.2,"co":413.0,"o3":51.0,"so2":23.6,"mosquito_risk":0,"arthritis_risk":5,"migraine_risk":7,"frizz_risk":0,"updated_at":"2026-05-24T22:35:53.604130+05:30"},{"city":"Agra","state":"Uttar Pradesh","latitude":27.1767,"longitude":78.0081,"temp":35.5,"humidity":22,"rain":0.0,"pressure":983.4,"uv_index":8.05,"wind_gusts":46.1,"aqi":667,"pm10":668.7,"pm2_5":105.5,"no2":18.7,"co":183.0,"o3":58.0,"so2":8.9,"mosquito_risk":0,"arthritis_risk":5,"migraine_risk":10,"frizz_risk":0,"updated_at":"2026-05-24T22:35:53.604136+05:30"},{"city":"Varanasi","state":"Uttar Pradesh","latitude":25.3176,"longitude":82.9739,"temp":36.5,"humidity":21,"rain":0.0,"pressure":993.2,"uv_index":8.75,"wind_gusts":49.3,"aqi":152,"pm10":97.6,"pm2_5":47.6,"no2":22.3,"co":381.0,"o3":65.0,"so2":12.1,"mosquito_risk":0,"arthritis_risk":5,"migraine_risk":10,"frizz_risk":0,"updated_at":"2026-05-24T22:35:53.604143+05:30"},{"city":"Prayagraj","state":"Uttar Pradesh","latitude":25.4358,"longitude":81.8463,"temp":34.2,"humidity":29,"rain":0.0,"pressure":991.8,"uv_index":8.6,"wind_gusts":45.0,"aqi":154,"pm10":163.4,"pm2_5":56.9,"no2":22.4,"co":295.0,"o3":65.0,"so2":11.5,"mosquito_risk":0,"arthritis_risk":5,"migraine_risk":7,"frizz_risk":0,"updated_at":"2026-05-24T22:35:53.604149+05:30"},{"city":"Gorakhpur","state":"Uttar Pradesh","latitude":26.7606,"longitude":83.3732,"temp":31.0,"humidity":55,"rain":0.0,"pressure":993.4,"uv_index":8.6,"wind_gusts":35.3,"aqi":153,"pm10":78.2,"pm2_5":55.8,"no2":16.8,"co":445.0,"o3":86.0,"so2":9.9,"mosquito_risk":0,"arthritis_risk":5,"migraine_risk":7,"frizz_risk":1,"updated_at":"2026-05-24T22:35:53.604157+05:30"},{"city":"Bareilly","state":"Uttar Pradesh","latitude":28.367,"longitude":79.4304,"temp":33.3,"humidity":26,"rain":0.0,"pressure":981.4,"uv_index":8.05,"wind_gusts":43.6,"aqi":150,"pm10":211.4,"pm2_5":69.6,"no2":24.0,"co":370.0,"o3":78.0,"so2":13.1,"mosquito_risk":0,"arthritis_risk":5,"migraine_risk":7,"frizz_risk":0,"updated_at":"2026-05-24T22:35:53.604163+05:30"},{"city":"Aligarh","state":"Uttar Pradesh","latitude":27.8974,"longitude":78.088,"temp":33.5,"humidity":33,"rain":0.0,"pressure":980.6,"uv_index":7.9,"wind_gusts":50.8,"aqi":812,"pm10":814.0,"pm2_5":177.4,"no2":31.4,"co":300.0,"o3":47.0,"so2":11.1,"mosquito_risk":0,"arthritis_risk":5,"migraine_risk":7,"frizz_risk":0,"updated_at":"2026-05-24T22:35:53.604169+05:30"},{"city":"Moradabad","state":"Uttar Pradesh","latitude":28.8386,"longitude":78.7733,"temp":33.0,"humidity":27,"rain":0.0,"pressure":978.2,"uv_index":7.85,"wind_gusts":51.1,"aqi":151,"pm10":304.5,"pm2_5":96.9,"no2":39.4,"co":536.0,"o3":51.0,"so2":14.6,"mosquito_risk":0,"arthritis_risk":5,"migraine_risk":7,"frizz_risk":0,"updated_at":"2026-05-24T22:35:53.604176+05:30"},{"city":"Saharanpur","state":"Uttar Pradesh","latitude":29.9637,"longitude":77.546,"temp":31.6,"humidity":34,"rain":0.0,"pressure":970.3,"uv_index":7.4,"wind_gusts":56.5,"aqi":91,"pm10":106.6,"pm2_5":48.2,"no2":25.2,"co":379.0,"o3":67.0,"so2":13.3,"mosquito_risk":0,"arthritis_risk":5,"migraine_risk":7,"frizz_risk":0,"updated_at":"2026-05-24T22:35:53.604182+05:30"},{"city":"Jhansi","state":"Uttar Pradesh","latitude":25.4484,"longitude":78.5685,"temp":35.5,"humidity":25,"rain":0.0,"pressure":974.8,"uv_index":8.45,"wind_gusts":45.7,"aqi":91,"pm10":54.0,"pm2_5":27.5,"no2":4.3,"co":175.0,"o3":69.0,"so2":2.6,"mosquito_risk":0,"arthritis_risk":5,"migraine_risk":10,"frizz_risk":0,"updated_at":"2026-05-24T22:35:56.868653+05:30"},{"city":"Surat","state":"Gujarat","latitude":21.1702,"longitude":72.8311,"temp":30.5,"humidity":79,"rain":0.0,"pressure":1007.2,"uv_index":7.65,"wind_gusts":45.0,"aqi":55,"pm10":17.9,"pm2_5":14.7,"no2":18.5,"co":187.0,"o3":32.0,"so2":29.8,"mosquito_risk":3,"arthritis_risk":5,"migraine_risk":4,"frizz_risk":1,"updated_at":"2026-05-24T22:35:56.868689+05:30"},{"city":"Vadodara","state":"Gujarat","latitude":22.3072,"longitude":73.1812,"temp":32.2,"humidity":62,"rain":0.0,"pressure":1003.8,"uv_index":8.1,"wind_gusts":43.6,"aqi":48,"pm10":18.6,"pm2_5":15.5,"no2":17.9,"co":230.0,"o3":35.0,"so2":21.7,"mosquito_risk":3,"arthritis_risk":5,"migraine_risk":4,"frizz_risk":1,"updated_at":"2026-05-24T22:35:56.868700+05:30"},{"city":"Rajkot","state":"Gujarat","latitude":22.3039,"longitude":70.8022,"temp":30.0,"humidity":73,"rain":0.0,"pressure":994.3,"uv_index":7.7,"wind_gusts":49.0,"aqi":54,"pm10":20.6,"pm2_5":14.9,"no2":6.1,"co":127.0,"o3":49.0,"so2":7.0,"mosquito_risk":7,"arthritis_risk":5,"migraine_risk":7,"frizz_risk":1,"updated_at":"2026-05-24T22:35:56.868708+05:30"},{"city":"Thane","state":"Maharashtra","latitude":19.2183,"longitude":72.9781,"temp":30.0,"humidity":77,"rain":0.0,"pressure":1009.2,"uv_index":7.1,"wind_gusts":40.3,"aqi":40,"pm10":17.5,"pm2_5":12.0,"no2":7.0,"co":250.0,"o3":43.0,"so2":5.2,"mosquito_risk":7,"arthritis_risk":0,"migraine_risk":4,"frizz_risk":1,"updated_at":"2026-05-24T22:35:56.868715+05:30"},{"city":"Nagpur","state":"Maharashtra","latitude":21.1458,"longitude":79.0882,"temp":37.3,"humidity":20,"rain":0.0,"pressure":970.9,"uv_index":8.9,"wind_gusts":47.2,"aqi":72,"pm10":37.8,"pm2_5":23.4,"no2":9.3,"co":234.0,"o3":87.0,"so2":8.3,"mosquito_risk":0,"arthritis_risk":5,"migraine_risk":10,"frizz_risk":0,"updated_at":"2026-05-24T22:35:56.868723+05:30"},{"city":"Nashik","state":"Maharashtra","latitude":19.9975,"longitude":73.7898,"temp":26.1,"humidity":83,"rain":0.0,"pressure":947.1,"uv_index":8.1,"wind_gusts":42.5,"aqi":27,"pm10":9.1,"pm2_5":6.7,"no2":3.8,"co":168.0,"o3":42.0,"so2":1.5,"mosquito_risk":7,"arthritis_risk":5,"migraine_risk":7,"frizz_risk":1,"updated_at":"2026-05-24T22:35:56.868730+05:30"},{"city":"Aurangabad","state":"Maharashtra","latitude":19.8762,"longitude":75.3433,"temp":29.9,"humidity":61,"rain":0.0,"pressure":945.3,"uv_index":8.95,"wind_gusts":43.2,"aqi":43,"pm10":7.2,"pm2_5":5.7,"no2":4.3,"co":144.0,"o3":52.0,"so2":2.6,"mosquito_risk":7,"arthritis_risk":5,"migraine_risk":7,"frizz_risk":1,"updated_at":"2026-05-24T22:35:56.868737+05:30"},{"city":"Solapur","state":"Maharashtra","latitude":17.6599,"longitude":75.9064,"temp":30.4,"humidity":57,"rain":0.0,"pressure":957.9,"uv_index":9.0,"wind_gusts":41.0,"aqi":57,"pm10":11.8,"pm2_5":9.9,"no2":5.8,"co":170.0,"o3":72.0,"so2":3.1,"mosquito_risk":0,"arthritis_risk":5,"migraine_risk":7,"frizz_risk":1,"updated_at":"2026-05-24T22:35:56.868745+05:30"},{"city":"Kolhapur","state":"Maharashtra","latitude":16.705,"longitude":74.2433,"temp":25.0,"humidity":86,"rain":0.0,"pressure":949.5,"uv_index":8.75,"wind_gusts":39.2,"aqi":39,"pm10":10.9,"pm2_5":8.9,"no2":5.7,"co":185.0,"o3":44.0,"so2":2.6,"mosquito_risk":7,"arthritis_risk":5,"migraine_risk":7,"frizz_risk":1,"updated_at":"2026-05-24T22:35:56.868753+05:30"},{"city":"Goa","state":"Goa","latitude":15.2993,"longitude":74.124,"temp":27.4,"humidity":90,"rain":0.0,"pressure":1000.2,"uv_index":5.75,"wind_gusts":28.8,"aqi":47,"pm10":21.4,"pm2_5":16.4,"no2":5.9,"co":294.0,"o3":43.0,"so2":1.8,"mosquito_risk":7,"arthritis_risk":5,"migraine_risk":0,"frizz_risk":1,"updated_at":"2026-05-24T22:35:56.868760+05:30"},{"city":"Jodhpur","state":"Rajasthan","latitude":26.2389,"longitude":73.0243,"temp":35.4,"humidity":26,"rain":0.0,"pressure":980.5,"uv_index":8.45,"wind_gusts":54.7,"aqi":213,"pm10":318.5,"pm2_5":69.4,"no2":3.2,"co":137.0,"o3":69.0,"so2":1.9,"mosquito_risk":0,"arthritis_risk":5,"migraine_risk":10,"frizz_risk":0,"updated_at":"2026-05-24T22:35:56.868767+05:30"},{"city":"Udaipur","state":"Rajasthan","latitude":24.5854,"longitude":73.7125,"temp":31.8,"humidity":39,"rain":0.0,"pressure":946.1,"uv_index":8.8,"wind_gusts":54.0,"aqi":69,"pm10":14.9,"pm2_5":10.0,"no2":2.3,"co":147.0,"o3":63.0,"so2":1.8,"mosquito_risk":0,"arthritis_risk":5,"migraine_risk":7,"frizz_risk":0,"updated_at":"2026-05-24T22:35:56.868775+05:30"},{"city":"Kota","state":"Rajasthan","latitude":25.2138,"longitude":75.8648,"temp":36.5,"humidity":23,"rain":0.0,"pressure":977.1,"uv_index":8.4,"wind_gusts":42.8,"aqi":90,"pm10":50.8,"pm2_5":27.8,"no2":6.0,"co":198.0,"o3":69.0,"so2":4.6,"mosquito_risk":0,"arthritis_risk":5,"migraine_risk":10,"frizz_risk":0,"updated_at":"2026-05-24T22:35:56.868782+05:30"},{"city":"Bikaner","state":"Rajasthan","latitude":28.0229,"longitude":73.3119,"temp":37.3,"humidity":18,"rain":0.0,"pressure":977.0,"uv_index":8.45,"wind_gusts":59.8,"aqi":163,"pm10":416.3,"pm2_5":139.7,"no2":1.1,"co":128.0,"o3":92.0,"so2":2.1,"mosquito_risk":0,"arthritis_risk":5,"migraine_risk":10,"frizz_risk":0,"updated_at":"2026-05-24T22:35:56.868789+05:30"},{"city":"Ajmer","state":"Rajasthan","latitude":26.4499,"longitude":74.6399,"temp":32.9,"humidity":30,"rain":0.0,"pressure":953.2,"uv_index":8.4,"wind_gusts":62.6,"aqi":99,"pm10":72.2,"pm2_5":27.4,"no2":2.9,"co":144.0,"o3":78.0,"so2":2.5,"mosquito_risk":0,"arthritis_risk":5,"migraine_risk":7,"frizz_risk":0,"updated_at":"2026-05-24T22:35:56.868795+05:30"},{"city":"Gwalior","state":"Madhya Pradesh","latitude":26.2183,"longitude":78.1828,"temp":36.0,"humidity":21,"rain":0.0,"pressure":979.9,"uv_index":8.25,"wind_gusts":46.1,"aqi":99,"pm10":60.8,"pm2_5":28.1,"no2":4.0,"co":152.0,"o3":76.0,"so2":3.0,"mosquito_risk":0,"arthritis_risk":5,"migraine_risk":10,"frizz_risk":0,"updated_at":"2026-05-24T22:35:56.868802+05:30"},{"city":"Indore","state":"Madhya Pradesh","latitude":22.7196,"longitude":75.8577,"temp":33.8,"humidity":32,"rain":0.0,"pressure":948.3,"uv_index":8.7,"wind_gusts":44.6,"aqi":68,"pm10":40.3,"pm2_5":23.9,"no2":4.5,"co":266.0,"o3":93.0,"so2":6.2,"mosquito_risk":0,"arthritis_risk":5,"migraine_risk":7,"frizz_risk":0,"updated_at":"2026-05-24T22:35:56.868808+05:30"},{"city":"Bhopal","state":"Madhya Pradesh","latitude":23.2599,"longitude":77.4126,"temp":35.1,"humidity":22,"rain":0.0,"pressure":952.5,"uv_index":8.7,"wind_gusts":45.7,"aqi":81,"pm10":74.3,"pm2_5":35.0,"no2":8.2,"co":235.0,"o3":65.0,"so2":4.6,"mosquito_risk":0,"arthritis_risk":5,"migraine_risk":10,"frizz_risk":0,"updated_at":"2026-05-24T22:35:56.868814+05:30"},{"city":"Jabalpur","state":"Madhya Pradesh","latitude":23.1815,"longitude":79.9864,"temp":34.0,"humidity":22,"rain":0.0,"pressure":959.5,"uv_index":8.85,"wind_gusts":38.9,"aqi":88,"pm10":72.9,"pm2_5":32.4,"no2":9.8,"co":188.0,"o3":77.0,"so2":4.0,"mosquito_risk":0,"arthritis_risk":5,"migraine_risk":7,"frizz_risk":0,"updated_at":"2026-05-24T22:35:56.868820+05:30"},{"city":"Ujjain","state":"Madhya Pradesh","latitude":23.1765,"longitude":75.7885,"temp":34.0,"humidity":34,"rain":0.0,"pressure":953.7,"uv_index":8.6,"wind_gusts":45.4,"aqi":66,"pm10":38.8,"pm2_5":22.8,"no2":3.2,"co":216.0,"o3":91.0,"so2":5.3,"mosquito_risk":0,"arthritis_risk":5,"migraine_risk":7,"frizz_risk":0,"updated_at":"2026-05-24T22:35:56.868827+05:30"},{"city":"Visakhapatnam","state":"Andhra Pradesh","latitude":17.6868,"longitude":83.2185,"temp":31.3,"humidity":81,"rain":0.0,"pressure":1001.1,"uv_index":8.9,"wind_gusts":32.8,"aqi":122,"pm10":44.8,"pm2_5":37.0,"no2":30.9,"co":425.0,"o3":98.0,"so2":44.1,"mosquito_risk":3,"arthritis_risk":5,"migraine_risk":4,"frizz_risk":1,"updated_at":"2026-05-24T22:35:56.868834+05:30"},{"city":"Vijayawada","state":"Andhra Pradesh","latitude":16.5062,"longitude":80.648,"temp":34.8,"humidity":39,"rain":0.0,"pressure":999.2,"uv_index":9.1,"wind_gusts":49.3,"aqi":89,"pm10":46.4,"pm2_5":40.6,"no2":16.0,"co":325.0,"o3":68.0,"so2":7.3,"mosquito_risk":0,"arthritis_risk":5,"migraine_risk":7,"frizz_risk":1,"updated_at":"2026-05-24T22:35:56.868841+05:30"},{"city":"Guntur","state":"Andhra Pradesh","latitude":16.3067,"longitude":80.4365,"temp":34.0,"humidity":43,"rain":0.0,"pressure":1000.6,"uv_index":9.15,"wind_gusts":49.0,"aqi":82,"pm10":35.4,"pm2_5":31.0,"no2":13.6,"co":264.0,"o3":72.0,"so2":6.3,"mosquito_risk":0,"arthritis_risk":5,"migraine_risk":4,"frizz_risk":1,"updated_at":"2026-05-24T22:35:56.868847+05:30"},{"city":"Nellore","state":"Andhra Pradesh","latitude":14.4426,"longitude":79.9865,"temp":32.8,"humidity":50,"rain":0.0,"pressure":1004.1,"uv_index":9.05,"wind_gusts":45.0,"aqi":94,"pm10":29.5,"pm2_5":25.7,"no2":6.5,"co":251.0,"o3":97.0,"so2":6.1,"mosquito_risk":0,"arthritis_risk":5,"migraine_risk":4,"frizz_risk":1,"updated_at":"2026-05-24T22:35:56.868855+05:30"},{"city":"Kurnool","state":"Andhra Pradesh","latitude":15.8281,"longitude":78.0373,"temp":27.2,"humidity":79,"rain":0.1,"pressure":977.1,"uv_index":9.0,"wind_gusts":47.2,"aqi":61,"pm10":23.7,"pm2_5":21.1,"no2":10.1,"co":173.0,"o3":77.0,"so2":5.7,"mosquito_risk":10,"arthritis_risk":5,"migraine_risk":7,"frizz_risk":1,"updated_at":"2026-05-24T22:35:56.868863+05:30"},{"city":"Kakinada","state":"Andhra Pradesh","latitude":16.9891,"longitude":82.2475,"temp":32.3,"humidity":74,"rain":0.0,"pressure":1003.9,"uv_index":8.8,"wind_gusts":36.4,"aqi":111,"pm10":31.8,"pm2_5":24.5,"no2":2.8,"co":639.0,"o3":126.0,"so2":2.8,"mosquito_risk":3,"arthritis_risk":5,"migraine_risk":4,"frizz_risk":1,"updated_at":"2026-05-24T22:35:56.868871+05:30"},{"city":"Tirupati","state":"Andhra Pradesh","latitude":13.6288,"longitude":79.4192,"temp":29.4,"humidity":64,"rain":0.0,"pressure":990.8,"uv_index":9.1,"wind_gusts":42.5,"aqi":90,"pm10":28.8,"pm2_5":26.8,"no2":10.9,"co":316.0,"o3":82.0,"so2":4.4,"mosquito_risk":7,"arthritis_risk":5,"migraine_risk":7,"frizz_risk":1,"updated_at":"2026-05-24T22:35:56.868877+05:30"},{"city":"Warangal","state":"Telangana","latitude":17.9689,"longitude":79.5941,"temp":34.3,"humidity":29,"rain":0.0,"pressure":976.5,"uv_index":9.0,"wind_gusts":49.3,"aqi":89,"pm10":50.3,"pm2_5":35.0,"no2":12.8,"co":295.0,"o3":75.0,"so2":5.7,"mosquito_risk":0,"arthritis_risk":5,"migraine_risk":7,"frizz_risk":0,"updated_at":"2026-05-24T22:35:56.868883+05:30"},{"city":"Nizamabad","state":"Telangana","latitude":18.6725,"longitude":78.0941,"temp":34.1,"humidity":29,"rain":0.0,"pressure":963.5,"uv_index":9.1,"wind_gusts":45.4,"aqi":74,"pm10":56.9,"pm2_5":36.8,"no2":22.0,"co":309.0,"o3":51.0,"so2":6.0,"mosquito_risk":0,"arthritis_risk":5,"migraine_risk":7,"frizz_risk":0,"updated_at":"2026-05-24T22:35:56.868890+05:30"},{"city":"Mysore","state":"Karnataka","latitude":12.2958,"longitude":76.6396,"temp":22.6,"humidity":96,"rain":0.0,"pressure":931.2,"uv_index":9.0,"wind_gusts":37.8,"aqi":40,"pm10":17.4,"pm2_5":15.9,"no2":18.7,"co":257.0,"o3":39.0,"so2":3.7,"mosquito_risk":3,"arthritis_risk":5,"migraine_risk":7,"frizz_risk":1,"updated_at":"2026-05-24T22:35:56.868897+05:30"},{"city":"Mangalore","state":"Karnataka","latitude":12.9141,"longitude":74.856,"temp":26.6,"humidity":91,"rain":0.0,"pressure":1009.7,"uv_index":7.7,"wind_gusts":36.7,"aqi":52,"pm10":19.8,"pm2_5":16.0,"no2":11.7,"co":522.0,"o3":37.0,"so2":4.9,"mosquito_risk":7,"arthritis_risk":0,"migraine_risk":4,"frizz_risk":1,"updated_at":"2026-05-24T22:35:56.868904+05:30"},{"city":"Hubli-Dharwad","state":"Karnataka","latitude":15.3647,"longitude":75.124,"temp":23.9,"humidity":92,"rain":0.0,"pressure":942.7,"uv_index":8.95,"wind_gusts":35.6,"aqi":32,"pm10":9.5,"pm2_5":8.2,"no2":6.9,"co":167.0,"o3":44.0,"so2":1.9,"mosquito_risk":3,"arthritis_risk":5,"migraine_risk":7,"frizz_risk":1,"updated_at":"2026-05-24T22:35:56.868910+05:30"},{"city":"Belgaum","state":"Karnataka","latitude":15.8497,"longitude":74.4977,"temp":23.7,"humidity":90,"rain":0.0,"pressure":927.5,"uv_index":9.1,"wind_gusts":39.6,"aqi":31,"pm10":13.1,"pm2_5":10.9,"no2":6.7,"co":159.0,"o3":41.0,"so2":1.7,"mosquito_risk":3,"arthritis_risk":5,"migraine_risk":7,"frizz_risk":1,"updated_at":"2026-05-24T22:36:00.137747+05:30"},{"city":"Coimbatore","state":"Tamil Nadu","latitude":11.0168,"longitude":76.9558,"temp":24.6,"humidity":89,"rain":0.0,"pressure":964.6,"uv_index":8.5,"wind_gusts":49.7,"aqi":31,"pm10":10.0,"pm2_5":8.9,"no2":9.1,"co":193.0,"o3":40.0,"so2":3.3,"mosquito_risk":3,"arthritis_risk":5,"migraine_risk":7,"frizz_risk":1,"updated_at":"2026-05-24T22:36:00.137781+05:30"},{"city":"Madurai","state":"Tamil Nadu","latitude":9.9252,"longitude":78.1198,"temp":29.9,"humidity":62,"rain":0.0,"pressure":994.6,"uv_index":8.85,"wind_gusts":63.7,"aqi":56,"pm10":26.2,"pm2_5":22.6,"no2":25.3,"co":348.0,"o3":40.0,"so2":6.7,"mosquito_risk":7,"arthritis_risk":5,"migraine_risk":7,"frizz_risk":1,"updated_at":"2026-05-24T22:36:00.137793+05:30"},{"city":"Trichy","state":"Tamil Nadu","latitude":10.7905,"longitude":78.7047,"temp":26.8,"humidity":84,"rain":0.0,"pressure":1000.9,"uv_index":8.3,"wind_gusts":52.6,"aqi":48,"pm10":16.4,"pm2_5":14.9,"no2":13.6,"co":219.0,"o3":55.0,"so2":4.6,"mosquito_risk":7,"arthritis_risk":5,"migraine_risk":4,"frizz_risk":1,"updated_at":"2026-05-24T22:36:00.137802+05:30"},{"city":"Salem","state":"Tamil Nadu","latitude":11.6643,"longitude":78.146,"temp":25.7,"humidity":85,"rain":0.0,"pressure":979.5,"uv_index":8.9,"wind_gusts":33.5,"aqi":64,"pm10":30.7,"pm2_5":26.2,"no2":23.4,"co":234.0,"o3":52.0,"so2":10.0,"mosquito_risk":7,"arthritis_risk":5,"migraine_risk":7,"frizz_risk":1,"updated_at":"2026-05-24T22:36:00.137809+05:30"},{"city":"Tirunelveli","state":"Tamil Nadu","latitude":8.7139,"longitude":77.7567,"temp":29.4,"humidity":64,"rain":0.0,"pressure":1005.3,"uv_index":8.8,"wind_gusts":39.2,"aqi":31,"pm10":8.1,"pm2_5":7.2,"no2":5.5,"co":166.0,"o3":52.0,"so2":2.1,"mosquito_risk":7,"arthritis_risk":5,"migraine_risk":4,"frizz_risk":1,"updated_at":"2026-05-24T22:36:00.137817+05:30"},{"city":"Vellore","state":"Tamil Nadu","latitude":12.9165,"longitude":79.1325,"temp":28.2,"humidity":69,"rain":0.0,"pressure":985.0,"uv_index":9.1,"wind_gusts":47.2,"aqi":63,"pm10":23.7,"pm2_5":22.4,"no2":9.0,"co":231.0,"o3":79.0,"so2":3.7,"mosquito_risk":7,"arthritis_risk":5,"migraine_risk":7,"frizz_risk":1,"updated_at":"2026-05-24T22:36:00.137824+05:30"},{"city":"Erode","state":"Tamil Nadu","latitude":11.341,"longitude":77.7172,"temp":26.0,"humidity":93,"rain":0.1,"pressure":991.5,"uv_index":8.95,"wind_gusts":52.6,"aqi":48,"pm10":17.3,"pm2_5":15.2,"no2":16.9,"co":329.0,"o3":43.0,"so2":4.3,"mosquito_risk":10,"arthritis_risk":5,"migraine_risk":7,"frizz_risk":1,"updated_at":"2026-05-24T22:36:00.137832+05:30"},{"city":"Kochi","state":"Kerala","latitude":9.9312,"longitude":76.2673,"temp":25.3,"humidity":98,"rain":0.0,"pressure":1012.2,"uv_index":8.5,"wind_gusts":39.2,"aqi":53,"pm10":28.9,"pm2_5":27.1,"no2":21.2,"co":282.0,"o3":24.0,"so2":6.2,"mosquito_risk":7,"arthritis_risk":0,"migraine_risk":4,"frizz_risk":1,"updated_at":"2026-05-24T22:36:00.137839+05:30"},{"city":"Thiruvananthapuram","state":"Kerala","latitude":8.5241,"longitude":76.9366,"temp":24.6,"humidity":97,"rain":0.0,"pressure":1011.6,"uv_index":8.4,"wind_gusts":46.4,"aqi":30,"pm10":10.7,"pm2_5":6.5,"no2":2.9,"co":221.0,"o3":53.0,"so2":1.3,"mosquito_risk":3,"arthritis_risk":0,"migraine_risk":4,"frizz_risk":1,"updated_at":"2026-05-24T22:36:00.137846+05:30"},{"city":"Kozhikode","state":"Kerala","latitude":11.2588,"longitude":75.7804,"temp":25.4,"humidity":99,"rain":0.0,"pressure":1011.4,"uv_index":8.05,"wind_gusts":42.1,"aqi":30,"pm10":11.8,"pm2_5":7.7,"no2":2.4,"co":509.0,"o3":58.0,"so2":1.4,"mosquito_risk":7,"arthritis_risk":0,"migraine_risk":4,"frizz_risk":1,"updated_at":"2026-05-24T22:36:00.137853+05:30"},{"city":"Thrissur","state":"Kerala","latitude":10.5276,"longitude":76.2144,"temp":25.0,"humidity":99,"rain":0.0,"pressure":1010.6,"uv_index":8.15,"wind_gusts":36.4,"aqi":55,"pm10":40.7,"pm2_5":38.8,"no2":22.5,"co":505.0,"o3":20.0,"so2":6.3,"mosquito_risk":7,"arthritis_risk":0,"migraine_risk":4,"frizz_risk":1,"updated_at":"2026-05-24T22:36:00.137860+05:30"},{"city":"Kannur","state":"Kerala","latitude":11.8745,"longitude":75.3704,"temp":26.0,"humidity":97,"rain":0.0,"pressure":1010.5,"uv_index":6.6,"wind_gusts":40.7,"aqi":45,"pm10":19.6,"pm2_5":16.2,"no2":15.0,"co":522.0,"o3":30.0,"so2":3.5,"mosquito_risk":7,"arthritis_risk":0,"migraine_risk":4,"frizz_risk":1,"updated_at":"2026-05-24T22:36:00.137867+05:30"},{"city":"Patna","state":"Bihar","latitude":25.5941,"longitude":85.1376,"temp":30.8,"humidity":72,"rain":0.0,"pressure":996.7,"uv_index":8.8,"wind_gusts":30.2,"aqi":160,"pm10":82.4,"pm2_5":62.6,"no2":15.3,"co":472.0,"o3":117.0,"so2":18.7,"mosquito_risk":3,"arthritis_risk":5,"migraine_risk":7,"frizz_risk":1,"updated_at":"2026-05-24T22:36:00.137873+05:30"},{"city":"Gaya","state":"Bihar","latitude":24.7914,"longitude":85.0002,"temp":31.3,"humidity":49,"rain":0.0,"pressure":989.9,"uv_index":8.85,"wind_gusts":31.7,"aqi":159,"pm10":281.3,"pm2_5":107.3,"no2":47.4,"co":584.0,"o3":48.0,"so2":20.4,"mosquito_risk":0,"arthritis_risk":5,"migraine_risk":7,"frizz_risk":1,"updated_at":"2026-05-24T22:36:00.137880+05:30"},{"city":"Muzaffarpur","state":"Bihar","latitude":26.1209,"longitude":85.3647,"temp":29.2,"humidity":74,"rain":0.0,"pressure":996.9,"uv_index":8.8,"wind_gusts":29.9,"aqi":157,"pm10":83.6,"pm2_5":65.7,"no2":16.6,"co":488.0,"o3":109.0,"so2":18.2,"mosquito_risk":7,"arthritis_risk":5,"migraine_risk":7,"frizz_risk":1,"updated_at":"2026-05-24T22:36:00.137887+05:30"},{"city":"Bhagalpur","state":"Bihar","latitude":25.2425,"longitude":87.0117,"temp":30.5,"humidity":79,"rain":0.0,"pressure":997.9,"uv_index":8.8,"wind_gusts":24.1,"aqi":149,"pm10":43.1,"pm2_5":40.9,"no2":12.0,"co":414.0,"o3":97.0,"so2":9.8,"mosquito_risk":3,"arthritis_risk":5,"migraine_risk":7,"frizz_risk":1,"updated_at":"2026-05-24T22:36:00.137893+05:30"},{"city":"Ranchi","state":"Jharkhand","latitude":23.3441,"longitude":85.3096,"temp":27.1,"humidity":54,"rain":0.0,"pressure":935.4,"uv_index":9.25,"wind_gusts":22.7,"aqi":136,"pm10":181.6,"pm2_5":70.5,"no2":25.0,"co":294.0,"o3":70.0,"so2":8.9,"mosquito_risk":4,"arthritis_risk":5,"migraine_risk":7,"frizz_risk":1,"updated_at":"2026-05-24T22:36:00.137900+05:30"},{"city":"Jamshedpur","state":"Jharkhand","latitude":22.8046,"longitude":86.2029,"temp":29.5,"humidity":76,"rain":0.0,"pressure":988.0,"uv_index":9.1,"wind_gusts":38.5,"aqi":134,"pm10":62.2,"pm2_5":44.8,"no2":16.0,"co":702.0,"o3":103.0,"so2":25.4,"mosquito_risk":7,"arthritis_risk":5,"migraine_risk":7,"frizz_risk":1,"updated_at":"2026-05-24T22:36:00.137907+05:30"},{"city":"Dhanbad","state":"Jharkhand","latitude":23.7957,"longitude":86.4304,"temp":30.1,"humidity":67,"rain":0.0,"pressure":977.2,"uv_index":9.0,"wind_gusts":30.2,"aqi":157,"pm10":77.8,"pm2_5":64.3,"no2":42.6,"co":779.0,"o3":79.0,"so2":103.3,"mosquito_risk":3,"arthritis_risk":5,"migraine_risk":7,"frizz_risk":1,"updated_at":"2026-05-24T22:36:00.137914+05:30"},{"city":"Bokaro","state":"Jharkhand","latitude":23.6693,"longitude":86.1511,"temp":30.4,"humidity":57,"rain":0.0,"pressure":981.1,"uv_index":9.05,"wind_gusts":26.6,"aqi":160,"pm10":242.1,"pm2_5":97.6,"no2":50.8,"co":1092.0,"o3":49.0,"so2":73.9,"mosquito_risk":0,"arthritis_risk":5,"migraine_risk":7,"frizz_risk":1,"updated_at":"2026-05-24T22:36:00.137922+05:30"},{"city":"Bhubaneswar","state":"Odisha","latitude":20.2961,"longitude":85.8245,"temp":29.8,"humidity":88,"rain":0.0,"pressure":1000.6,"uv_index":9.1,"wind_gusts":41.8,"aqi":82,"pm10":32.8,"pm2_5":27.1,"no2":5.0,"co":251.0,"o3":86.0,"so2":4.1,"mosquito_risk":7,"arthritis_risk":5,"migraine_risk":4,"frizz_risk":1,"updated_at":"2026-05-24T22:36:00.137928+05:30"},{"city":"Cuttack","state":"Odisha","latitude":20.4625,"longitude":85.8828,"temp":29.8,"humidity":87,"rain":0.0,"pressure":1002.4,"uv_index":9.2,"wind_gusts":39.2,"aqi":82,"pm10":32.8,"pm2_5":27.1,"no2":5.0,"co":261.0,"o3":86.0,"so2":4.1,"mosquito_risk":7,"arthritis_risk":5,"migraine_risk":4,"frizz_risk":1,"updated_at":"2026-05-24T22:36:00.137935+05:30"},{"city":"Rourkela","state":"Odisha","latitude":22.2604,"longitude":84.8536,"temp":31.9,"humidity":53,"rain":0.0,"pressure":982.1,"uv_index":8.95,"wind_gusts":42.5,"aqi":150,"pm10":167.6,"pm2_5":78.5,"no2":31.1,"co":438.0,"o3":66.0,"so2":20.9,"mosquito_risk":0,"arthritis_risk":5,"migraine_risk":7,"frizz_risk":1,"updated_at":"2026-05-24T22:36:00.137943+05:30"},{"city":"Raipur","state":"Chhattisgarh","latitude":21.2514,"longitude":81.6296,"temp":35.7,"humidity":30,"rain":0.0,"pressure":972.0,"uv_index":8.95,"wind_gusts":37.4,"aqi":126,"pm10":81.3,"pm2_5":57.3,"no2":47.9,"co":500.0,"o3":33.0,"so2":47.2,"mosquito_risk":0,"arthritis_risk":5,"migraine_risk":10,"frizz_risk":0,"updated_at":"2026-05-24T22:36:00.137950+05:30"},{"city":"Bhilai","state":"Chhattisgarh","latitude":21.1938,"longitude":81.3509,"temp":33.0,"humidity":41,"rain":0.0,"pressure":972.2,"uv_index":8.95,"wind_gusts":29.5,"aqi":111,"pm10":67.3,"pm2_5":44.1,"no2":30.3,"co":455.0,"o3":59.0,"so2":35.1,"mosquito_risk":0,"arthritis_risk":5,"migraine_risk":7,"frizz_risk":1,"updated_at":"2026-05-24T22:36:00.137957+05:30"},{"city":"Guwahati","state":"Assam","latitude":26.1158,"longitude":91.7086,"temp":23.9,"humidity":97,"rain":0.0,"pressure":1000.4,"uv_index":8.75,"wind_gusts":27.7,"aqi":55,"pm10":25.9,"pm2_5":22.8,"no2":10.7,"co":335.0,"o3":61.0,"so2":3.5,"mosquito_risk":3,"arthritis_risk":5,"migraine_risk":4,"frizz_risk":1,"updated_at":"2026-05-24T22:36:00.137964+05:30"},{"city":"Agartala","state":"Tripura","latitude":23.8315,"longitude":91.2868,"temp":26.8,"humidity":92,"rain":0.0,"pressure":1005.1,"uv_index":7.15,"wind_gusts":37.8,"aqi":66,"pm10":28.6,"pm2_5":20.7,"no2":9.3,"co":191.0,"o3":56.0,"so2":2.4,"mosquito_risk":7,"arthritis_risk":5,"migraine_risk":4,"frizz_risk":1,"updated_at":"2026-05-24T22:36:00.137971+05:30"},{"city":"Shillong","state":"Meghalaya","latitude":25.5788,"longitude":91.8933,"temp":20.1,"humidity":92,"rain":0.0,"pressure":856.6,"uv_index":9.15,"wind_gusts":49.0,"aqi":46,"pm10":6.7,"pm2_5":4.9,"no2":4.5,"co":191.0,"o3":92.0,"so2":2.8,"mosquito_risk":3,"arthritis_risk":5,"migraine_risk":7,"frizz_risk":1,"updated_at":"2026-05-24T22:36:00.137977+05:30"},{"city":"Imphal","state":"Manipur","latitude":24.817,"longitude":93.9368,"temp":22.2,"humidity":94,"rain":0.0,"pressure":923.5,"uv_index":9.05,"wind_gusts":36.7,"aqi":73,"pm10":29.3,"pm2_5":20.5,"no2":11.7,"co":344.0,"o3":47.0,"so2":3.3,"mosquito_risk":3,"arthritis_risk":5,"migraine_risk":7,"frizz_risk":1,"updated_at":"2026-05-24T22:36:00.137983+05:30"},{"city":"Aizawl","state":"Mizoram","latitude":23.7271,"longitude":92.7176,"temp":19.6,"humidity":95,"rain":0.0,"pressure":892.3,"uv_index":8.65,"wind_gusts":38.9,"aqi":56,"pm10":12.9,"pm2_5":8.1,"no2":3.4,"co":170.0,"o3":60.0,"so2":1.1,"mosquito_risk":3,"arthritis_risk":10,"migraine_risk":7,"frizz_risk":1,"updated_at":"2026-05-24T22:36:00.137990+05:30"},{"city":"Kohima","state":"Nagaland","latitude":25.6701,"longitude":94.1077,"temp":16.6,"humidity":87,"rain":0.0,"pressure":853.2,"uv_index":9.3,"wind_gusts":34.2,"aqi":58,"pm10":34.9,"pm2_5":19.9,"no2":10.2,"co":289.0,"o3":35.0,"so2":1.6,"mosquito_risk":3,"arthritis_risk":10,"migraine_risk":7,"frizz_risk":0,"updated_at":"2026-05-24T22:36:00.137996+05:30"},{"city":"Gangtok","state":"Sikkim","latitude":27.3314,"longitude":88.6138,"temp":15.8,"humidity":88,"rain":0.5,"pressure":837.0,"uv_index":8.8,"wind_gusts":38.2,"aqi":85,"pm10":52.7,"pm2_5":28.2,"no2":11.0,"co":407.0,"o3":101.0,"so2":3.1,"mosquito_risk":6,"arthritis_risk":10,"migraine_risk":7,"frizz_risk":0,"updated_at":"2026-05-24T22:36:00.138003+05:30"},{"city":"Siliguri","state":"West Bengal","latitude":26.7271,"longitude":88.3953,"temp":25.3,"humidity":80,"rain":0.0,"pressure":990.7,"uv_index":8.7,"wind_gusts":24.1,"aqi":105,"pm10":65.0,"pm2_5":38.2,"no2":9.7,"co":442.0,"o3":115.0,"so2":5.8,"mosquito_risk":7,"arthritis_risk":5,"migraine_risk":7,"frizz_risk":1,"updated_at":"2026-05-24T22:36:03.413756+05:30"},{"city":"Durgapur","state":"West Bengal","latitude":23.5204,"longitude":87.3119,"temp":29.0,"humidity":91,"rain":0.0,"pressure":992.3,"uv_index":8.9,"wind_gusts":32.8,"aqi":151,"pm10":45.4,"pm2_5":41.7,"no2":18.2,"co":361.0,"o3":80.0,"so2":29.0,"mosquito_risk":7,"arthritis_risk":5,"migraine_risk":7,"frizz_risk":1,"updated_at":"2026-05-24T22:36:03.413792+05:30"},{"city":"Asansol","state":"West Bengal","latitude":23.6739,"longitude":86.9524,"temp":29.1,"humidity":87,"rain":0.0,"pressure":990.7,"uv_index":8.9,"wind_gusts":32.8,"aqi":150,"pm10":44.5,"pm2_5":40.2,"no2":18.1,"co":505.0,"o3":94.0,"so2":31.8,"mosquito_risk":7,"arthritis_risk":5,"migraine_risk":7,"frizz_risk":1,"updated_at":"2026-05-24T22:36:03.413804+05:30"},{"city":"Pondicherry","state":"Puducherry","latitude":11.9139,"longitude":79.8145,"temp":28.7,"humidity":70,"rain":0.0,"pressure":1008.8,"uv_index":8.75,"wind_gusts":36.7,"aqi":103,"pm10":24.9,"pm2_5":22.0,"no2":11.4,"co":317.0,"o3":99.0,"so2":9.5,"mosquito_risk":7,"arthritis_risk":0,"migraine_risk":4,"frizz_risk":1,"updated_at":"2026-05-24T22:36:03.413813+05:30"},{"city":"Port Blair","state":"Andaman and Nicobar Islands","latitude":11.6234,"longitude":92.7265,"temp":25.5,"humidity":97,"rain":0.1,"pressure":1009.4,"uv_index":8.9,"wind_gusts":36.7,"aqi":28,"pm10":9.3,"pm2_5":5.2,"no2":0.2,"co":108.0,"o3":59.0,"so2":0.3,"mosquito_risk":10,"arthritis_risk":0,"migraine_risk":4,"frizz_risk":1,"updated_at":"2026-05-24T22:36:03.413821+05:30"},{"city":"Haridwar","state":"Uttarakhand","latitude":29.9457,"longitude":78.1642,"temp":29.5,"humidity":34,"rain":0.0,"pressure":968.4,"uv_index":7.55,"wind_gusts":64.1,"aqi":85,"pm10":66.8,"pm2_5":33.6,"no2":16.0,"co":255.0,"o3":86.0,"so2":12.1,"mosquito_risk":4,"arthritis_risk":5,"migraine_risk":7,"frizz_risk":0,"updated_at":"2026-05-24T22:36:03.413829+05:30"},{"city":"Rishikesh","state":"Uttarakhand","latitude":30.0869,"longitude":78.2676,"temp":24.2,"humidity":51,"rain":0.0,"pressure":961.1,"uv_index":7.65,"wind_gusts":52.2,"aqi":100,"pm10":59.8,"pm2_5":27.9,"no2":10.0,"co":281.0,"o3":109.0,"so2":9.1,"mosquito_risk":0,"arthritis_risk":5,"migraine_risk":7,"frizz_risk":0,"updated_at":"2026-05-24T22:36:03.413837+05:30"},{"city":"Nainital","state":"Uttarakhand","latitude":29.3919,"longitude":79.4542,"temp":17.4,"humidity":46,"rain":0.0,"pressure":803.9,"uv_index":8.5,"wind_gusts":51.5,"aqi":119,"pm10":197.4,"pm2_5":46.1,"no2":9.7,"co":213.0,"o3":105.0,"so2":6.3,"mosquito_risk":0,"arthritis_risk":5,"migraine_risk":7,"frizz_risk":0,"updated_at":"2026-05-24T22:36:03.413844+05:30"},{"city":"Mussoorie","state":"Uttarakhand","latitude":30.4599,"longitude":78.0664,"temp":18.2,"humidity":37,"rain":0.0,"pressure":801.8,"uv_index":8.05,"wind_gusts":63.0,"aqi":77,"pm10":58.6,"pm2_5":28.7,"no2":17.9,"co":206.0,"o3":94.0,"so2":9.3,"mosquito_risk":0,"arthritis_risk":5,"migraine_risk":7,"frizz_risk":0,"updated_at":"2026-05-24T22:36:03.413852+05:30"},{"city":"Dharamshala","state":"Himachal Pradesh","latitude":32.219,"longitude":76.3234,"temp":23.4,"humidity":32,"rain":0.0,"pressure":867.6,"uv_index":8.4,"wind_gusts":43.9,"aqi":45,"pm10":18.9,"pm2_5":11.8,"no2":14.0,"co":185.0,"o3":34.0,"so2":0.7,"mosquito_risk":0,"arthritis_risk":5,"migraine_risk":7,"frizz_risk":0,"updated_at":"2026-05-24T22:36:03.413860+05:30"},{"city":"Dalhousie","state":"Himachal Pradesh","latitude":32.5387,"longitude":75.971,"temp":17.0,"humidity":43,"rain":0.0,"pressure":803.3,"uv_index":8.65,"wind_gusts":36.0,"aqi":66,"pm10":47.7,"pm2_5":27.3,"no2":32.3,"co":348.0,"o3":37.0,"so2":2.7,"mosquito_risk":0,"arthritis_risk":5,"migraine_risk":7,"frizz_risk":0,"updated_at":"2026-05-24T22:36:03.413867+05:30"},{"city":"Patiala","state":"Punjab","latitude":30.3398,"longitude":76.3869,"temp":32.3,"humidity":29,"rain":0.0,"pressure":973.0,"uv_index":7.65,"wind_gusts":50.8,"aqi":377,"pm10":331.6,"pm2_5":60.1,"no2":13.1,"co":299.0,"o3":82.0,"so2":9.6,"mosquito_risk":0,"arthritis_risk":5,"migraine_risk":7,"frizz_risk":0,"updated_at":"2026-05-24T22:36:03.413875+05:30"},{"city":"Bhatinda","state":"Punjab","latitude":30.211,"longitude":74.9455,"temp":33.0,"humidity":30,"rain":0.0,"pressure":978.9,"uv_index":8.3,"wind_gusts":28.1,"aqi":115,"pm10":105.5,"pm2_5":61.9,"no2":30.1,"co":363.0,"o3":50.0,"so2":10.4,"mosquito_risk":0,"arthritis_risk":5,"migraine_risk":7,"frizz_risk":0,"updated_at":"2026-05-24T22:36:03.413882+05:30"},{"city":"Rohtak","state":"Haryana","latitude":28.8955,"longitude":76.6066,"temp":32.0,"humidity":34,"rain":0.0,"pressure":976.6,"uv_index":7.75,"wind_gusts":38.9,"aqi":703,"pm10":423.8,"pm2_5":105.0,"no2":36.7,"co":581.0,"o3":39.0,"so2":7.7,"mosquito_risk":0,"arthritis_risk":5,"migraine_risk":7,"frizz_risk":0,"updated_at":"2026-05-24T22:36:03.413889+05:30"},{"city":"Panipat","state":"Haryana","latitude":29.3909,"longitude":76.9635,"temp":32.5,"humidity":34,"rain":0.0,"pressure":975.1,"uv_index":7.6,"wind_gusts":44.6,"aqi":1457,"pm10":702.2,"pm2_5":159.3,"no2":45.5,"co":569.0,"o3":34.0,"so2":12.6,"mosquito_risk":0,"arthritis_risk":5,"migraine_risk":7,"frizz_risk":0,"updated_at":"2026-05-24T22:36:03.413896+05:30"},{"city":"Mathura","state":"Uttar Pradesh","latitude":27.4924,"longitude":77.6737,"temp":34.8,"humidity":24,"rain":0.0,"pressure":982.0,"uv_index":8.0,"wind_gusts":45.7,"aqi":598,"pm10":681.7,"pm2_5":104.8,"no2":19.9,"co":251.0,"o3":59.0,"so2":5.7,"mosquito_risk":0,"arthritis_risk":5,"migraine_risk":7,"frizz_risk":0,"updated_at":"2026-05-24T22:36:03.413903+05:30"},{"city":"Vrindavan","state":"Uttar Pradesh","latitude":27.5823,"longitude":77.7027,"temp":34.2,"humidity":27,"rain":0.0,"pressure":982.4,"uv_index":8.0,"wind_gusts":45.0,"aqi":598,"pm10":681.7,"pm2_5":104.8,"no2":19.9,"co":290.0,"o3":59.0,"so2":5.7,"mosquito_risk":0,"arthritis_risk":5,"migraine_risk":7,"frizz_risk":0,"updated_at":"2026-05-24T22:36:03.413909+05:30"},{"city":"Ayodhya","state":"Uttar Pradesh","latitude":26.7922,"longitude":82.1998,"temp":31.4,"humidity":50,"rain":0.0,"pressure":990.8,"uv_index":8.35,"wind_gusts":33.1,"aqi":157,"pm10":197.0,"pm2_5":77.8,"no2":32.1,"co":626.0,"o3":64.0,"so2":13.8,"mosquito_risk":0,"arthritis_risk":5,"migraine_risk":7,"frizz_risk":1,"updated_at":"2026-05-24T22:36:03.413916+05:30"},{"city":"Ratlam","state":"Madhya Pradesh","latitude":23.3315,"longitude":75.0367,"temp":32.8,"humidity":35,"rain":0.0,"pressure":954.6,"uv_index":8.55,"wind_gusts":49.7,"aqi":62,"pm10":34.2,"pm2_5":21.5,"no2":3.1,"co":167.0,"o3":88.0,"so2":5.1,"mosquito_risk":0,"arthritis_risk":5,"migraine_risk":7,"frizz_risk":0,"updated_at":"2026-05-24T22:36:03.413923+05:30"},{"city":"Sagar","state":"Madhya Pradesh","latitude":23.8388,"longitude":78.7378,"temp":33.5,"humidity":22,"rain":0.0,"pressure":948.8,"uv_index":8.75,"wind_gusts":45.7,"aqi":88,"pm10":69.6,"pm2_5":33.2,"no2":11.1,"co":202.0,"o3":65.0,"so2":3.9,"mosquito_risk":0,"arthritis_risk":5,"migraine_risk":7,"frizz_risk":0,"updated_at":"2026-05-24T22:36:03.413929+05:30"},{"city":"Satna","state":"Madhya Pradesh","latitude":24.6005,"longitude":80.8322,"temp":33.3,"humidity":30,"rain":0.0,"pressure":968.6,"uv_index":8.8,"wind_gusts":47.2,"aqi":104,"pm10":50.5,"pm2_5":26.9,"no2":13.3,"co":253.0,"o3":69.0,"so2":3.7,"mosquito_risk":0,"arthritis_risk":5,"migraine_risk":7,"frizz_risk":0,"updated_at":"2026-05-24T22:36:03.413936+05:30"},{"city":"Akola","state":"Maharashtra","latitude":20.7002,"longitude":77.0082,"temp":35.5,"humidity":32,"rain":0.0,"pressure":974.1,"uv_index":8.85,"wind_gusts":51.5,"aqi":60,"pm10":30.5,"pm2_5":19.8,"no2":8.2,"co":166.0,"o3":81.0,"so2":6.6,"mosquito_risk":0,"arthritis_risk":5,"migraine_risk":10,"frizz_risk":1,"updated_at":"2026-05-24T22:36:03.413945+05:30"},{"city":"Amravati","state":"Maharashtra","latitude":20.9374,"longitude":77.7796,"temp":35.7,"humidity":24,"rain":0.0,"pressure":966.0,"uv_index":8.85,"wind_gusts":47.5,"aqi":62,"pm10":30.7,"pm2_5":19.7,"no2":9.4,"co":167.0,"o3":77.0,"so2":6.3,"mosquito_risk":0,"arthritis_risk":5,"migraine_risk":10,"frizz_risk":0,"updated_at":"2026-05-24T22:36:03.413953+05:30"},{"city":"Latur","state":"Maharashtra","latitude":18.4088,"longitude":76.5604,"temp":29.7,"humidity":46,"rain":0.0,"pressure":939.9,"uv_index":9.05,"wind_gusts":38.9,"aqi":59,"pm10":29.7,"pm2_5":20.7,"no2":10.0,"co":214.0,"o3":77.0,"so2":3.4,"mosquito_risk":4,"arthritis_risk":5,"migraine_risk":7,"frizz_risk":1,"updated_at":"2026-05-24T22:36:03.413961+05:30"},{"city":"Nanded","state":"Maharashtra","latitude":19.1383,"longitude":77.3091,"temp":33.7,"humidity":32,"rain":0.0,"pressure":967.5,"uv_index":9.0,"wind_gusts":38.9,"aqi":58,"pm10":35.0,"pm2_5":23.5,"no2":14.1,"co":289.0,"o3":65.0,"so2":3.8,"mosquito_risk":0,"arthritis_risk":5,"migraine_risk":7,"frizz_risk":0,"updated_at":"2026-05-24T22:36:03.413968+05:30"},{"city":"Gulbarga","state":"Karnataka","latitude":17.3297,"longitude":76.8343,"temp":30.3,"humidity":49,"rain":0.0,"pressure":959.1,"uv_index":8.2,"wind_gusts":45.4,"aqi":61,"pm10":21.6,"pm2_5":17.1,"no2":7.2,"co":192.0,"o3":72.0,"so2":2.9,"mosquito_risk":0,"arthritis_risk":5,"migraine_risk":7,"frizz_risk":1,"updated_at":"2026-05-24T22:36:03.413976+05:30"},{"city":"Bidar","state":"Karnataka","latitude":17.9104,"longitude":77.5199,"temp":29.0,"humidity":48,"rain":0.0,"pressure":935.2,"uv_index":9.1,"wind_gusts":46.4,"aqi":68,"pm10":31.9,"pm2_5":24.5,"no2":21.6,"co":236.0,"o3":56.0,"so2":5.8,"mosquito_risk":4,"arthritis_risk":5,"migraine_risk":7,"frizz_risk":1,"updated_at":"2026-05-24T22:36:03.413982+05:30"},{"city":"Hospet","state":"Karnataka","latitude":15.2689,"longitude":76.3909,"temp":27.2,"humidity":70,"rain":0.0,"pressure":957.5,"uv_index":8.95,"wind_gusts":40.0,"aqi":39,"pm10":14.3,"pm2_5":12.4,"no2":8.6,"co":214.0,"o3":56.0,"so2":2.2,"mosquito_risk":7,"arthritis_risk":5,"migraine_risk":7,"frizz_risk":1,"updated_at":"2026-05-24T22:36:03.413989+05:30"},{"city":"Tirupur","state":"Tamil Nadu","latitude":11.1085,"longitude":77.3411,"temp":25.5,"humidity":90,"rain":0.1,"pressure":977.9,"uv_index":8.9,"wind_gusts":52.2,"aqi":49,"pm10":17.9,"pm2_5":15.7,"no2":17.1,"co":177.0,"o3":40.0,"so2":5.1,"mosquito_risk":10,"arthritis_risk":5,"migraine_risk":7,"frizz_risk":1,"updated_at":"2026-05-24T22:36:03.413995+05:30"},{"city":"Alappuzha","state":"Kerala","latitude":9.4981,"longitude":76.3388,"temp":25.4,"humidity":99,"rain":0.0,"pressure":1012.4,"uv_index":8.45,"wind_gusts":37.4,"aqi":43,"pm10":18.6,"pm2_5":15.5,"no2":10.5,"co":195.0,"o3":45.0,"so2":3.2,"mosquito_risk":7,"arthritis_risk":0,"migraine_risk":4,"frizz_risk":1,"updated_at":"2026-05-24T22:36:03.414004+05:30"},{"city":"Munnar","state":"Kerala","latitude":10.0889,"longitude":77.0595,"temp":17.1,"humidity":97,"rain":0.0,"pressure":858.5,"uv_index":8.65,"wind_gusts":31.3,"aqi":25,"pm10":9.3,"pm2_5":8.8,"no2":8.4,"co":164.0,"o3":32.0,"so2":1.4,"mosquito_risk":3,"arthritis_risk":10,"migraine_risk":7,"frizz_risk":1,"updated_at":"2026-05-24T22:36:03.414014+05:30"},{"city":"Silchar","state":"Assam","latitude":24.8333,"longitude":92.7789,"temp":24.0,"humidity":99,"rain":0.3,"pressure":1005.8,"uv_index":8.95,"wind_gusts":31.0,"aqi":61,"pm10":30.2,"pm2_5":19.5,"no2":6.7,"co":263.0,"o3":67.0,"so2":3.5,"mosquito_risk":6,"arthritis_risk":5,"migraine_risk":4,"frizz_risk":1,"updated_at":"2026-05-24T22:36:03.414020+05:30"},{"city":"Dibrugarh","state":"Assam","latitude":27.4728,"longitude":94.912,"temp":23.4,"humidity":93,"rain":0.2,"pressure":994.7,"uv_index":8.45,"wind_gusts":37.1,"aqi":61,"pm10":21.2,"pm2_5":13.4,"no2":10.2,"co":230.0,"o3":61.0,"so2":1.6,"mosquito_risk":6,"arthritis_risk":5,"migraine_risk":7,"frizz_risk":1,"updated_at":"2026-05-24T22:36:03.414027+05:30"}]