[{"city":"Delhi","state":"Delhi","latitude":28.6139,"longitude":77.209,"temp":26.4,"humidity":37,"rain":0.0,"pressure":983.9,"uv_index":6.9,"wind_gusts":29.2,"aqi":197,"pm10":217.0,"pm2_5":49.0,"mosquito_risk":4,"arthritis_risk":5,"migraine_risk":7,"frizz_risk":0,"updated_at":"2026-04-06T20:22:20.349017+05:30"},{"city":"Mumbai","state":"Maharashtra","latitude":19.076,"longitude":72.8777,"temp":27.8,"humidity":71,"rain":0.0,"pressure":1010.7,"uv_index":7.95,"wind_gusts":24.1,"aqi":106,"pm10":29.3,"pm2_5":15.3,"mosquito_risk":7,"arthritis_risk":0,"migraine_risk":4,"frizz_risk":1,"updated_at":"2026-04-06T20:22:20.349061+05:30"},{"city":"Bangalore","state":"Karnataka","latitude":12.9716,"longitude":77.5946,"temp":28.7,"humidity":39,"rain":0.0,"pressure":912.5,"uv_index":9.65,"wind_gusts":33.1,"aqi":105,"pm10":30.6,"pm2_5":28.4,"mosquito_risk":4,"arthritis_risk":5,"migraine_risk":7,"frizz_risk":0,"updated_at":"2026-04-06T20:22:20.349077+05:30"},{"city":"Hyderabad","state":"Telangana","latitude":17.385,"longitude":78.4867,"temp":31.9,"humidity":30,"rain":0.0,"pressure":953.2,"uv_index":9.2,"wind_gusts":31.3,"aqi":109,"pm10":23.2,"pm2_5":19.1,"mosquito_risk":0,"arthritis_risk":5,"migraine_risk":7,"frizz_risk":0,"updated_at":"2026-04-06T20:22:20.349087+05:30"},{"city":"Chennai","state":"Tamil Nadu","latitude":13.0827,"longitude":80.2707,"temp":28.6,"humidity":85,"rain":0.0,"pressure":1007.7,"uv_index":8.7,"wind_gusts":29.2,"aqi":109,"pm10":23.1,"pm2_5":18.0,"mosquito_risk":7,"arthritis_risk":5,"migraine_risk":4,"frizz_risk":1,"updated_at":"2026-04-06T20:22:20.349097+05:30"},{"city":"Kolkata","state":"West Bengal","latitude":22.5726,"longitude":88.3639,"temp":26.8,"humidity":82,"rain":0.0,"pressure":1007.6,"uv_index":8.7,"wind_gusts":28.1,"aqi":178,"pm10":62.4,"pm2_5":57.6,"mosquito_risk":7,"arthritis_risk":5,"migraine_risk":4,"frizz_risk":1,"updated_at":"2026-04-06T20:22:20.349106+05:30"},{"city":"Pune","state":"Maharashtra","latitude":18.5204,"longitude":73.8567,"temp":24.3,"humidity":72,"rain":0.0,"pressure":950.1,"uv_index":8.55,"wind_gusts":34.6,"aqi":154,"pm10":28.5,"pm2_5":24.1,"mosquito_risk":3,"arthritis_risk":5,"migraine_risk":7,"frizz_risk":1,"updated_at":"2026-04-06T20:22:20.349117+05:30"},{"city":"Ahmedabad","state":"Gujarat","latitude":23.0225,"longitude":72.5714,"temp":31.2,"humidity":32,"rain":0.0,"pressure":1001.9,"uv_index":7.95,"wind_gusts":30.2,"aqi":96,"pm10":23.5,"pm2_5":13.1,"mosquito_risk":0,"arthritis_risk":5,"migraine_risk":4,"frizz_risk":0,"updated_at":"2026-04-06T20:22:20.349124+05:30"},{"city":"Jaipur","state":"Rajasthan","latitude":26.9124,"longitude":75.7873,"temp":24.3,"humidity":49,"rain":0.0,"pressure":960.3,"uv_index":7.55,"wind_gusts":33.1,"aqi":112,"pm10":124.3,"pm2_5":29.1,"mosquito_risk":0,"arthritis_risk":5,"migraine_risk":7,"frizz_risk":0,"updated_at":"2026-04-06T20:22:20.349133+05:30"},{"city":"Lucknow","state":"Uttar Pradesh","latitude":26.8467,"longitude":80.9462,"temp":27.1,"humidity":37,"rain":0.0,"pressure":994.7,"uv_index":7.45,"wind_gusts":35.3,"aqi":118,"pm10":146.2,"pm2_5":36.0,"mosquito_risk":4,"arthritis_risk":5,"migraine_risk":7,"frizz_risk":0,"updated_at":"2026-04-06T20:22:20.349140+05:30"},{"city":"Kanpur","state":"Uttar Pradesh","latitude":26.4499,"longitude":80.3319,"temp":25.6,"humidity":51,"rain":0.0,"pressure":993.1,"uv_index":7.45,"wind_gusts":29.5,"aqi":126,"pm10":264.5,"pm2_5":47.6,"mosquito_risk":4,"arthritis_risk":5,"migraine_risk":7,"frizz_risk":0,"updated_at":"2026-04-06T20:22:20.349147+05:30"},{"city":"Chandigarh","state":"Chandigarh","latitude":30.7333,"longitude":76.7794,"temp":25.9,"humidity":40,"rain":0.0,"pressure":968.8,"uv_index":6.9,"wind_gusts":16.6,"aqi":113,"pm10":27.0,"pm2_5":19.2,"mosquito_risk":4,"arthritis_risk":5,"migraine_risk":7,"frizz_risk":0,"updated_at":"2026-04-06T20:22:20.349155+05:30"},{"city":"Srinagar","state":"Jammu and Kashmir","latitude":34.0837,"longitude":74.7973,"temp":11.8,"humidity":79,"rain":0.0,"pressure":838.2,"uv_index":7.9,"wind_gusts":16.6,"aqi":94,"pm10":23.2,"pm2_5":19.8,"mosquito_risk":3,"arthritis_risk":5,"migraine_risk":7,"frizz_risk":0,"updated_at":"2026-04-06T20:22:20.349164+05:30"},{"city":"Jammu","state":"Jammu and Kashmir","latitude":32.7266,"longitude":74.857,"temp":25.4,"humidity":46,"rain":0.0,"pressure":972.8,"uv_index":7.55,"wind_gusts":19.8,"aqi":99,"pm10":39.0,"pm2_5":29.2,"mosquito_risk":4,"arthritis_risk":5,"migraine_risk":7,"frizz_risk":0,"updated_at":"2026-04-06T20:22:20.349171+05:30"},{"city":"Amritsar","state":"Punjab","latitude":31.634,"longitude":74.8723,"temp":24.0,"humidity":48,"rain":0.0,"pressure":980.6,"uv_index":7.5,"wind_gusts":11.2,"aqi":122,"pm10":41.8,"pm2_5":36.1,"mosquito_risk":0,"arthritis_risk":5,"migraine_risk":7,"frizz_risk":0,"updated_at":"2026-04-06T20:22:20.349178+05:30"},{"city":"Ludhiana","state":"Punjab","latitude":30.901,"longitude":75.8573,"temp":25.9,"humidity":35,"rain":0.0,"pressure":978.8,"uv_index":7.1,"wind_gusts":16.6,"aqi":104,"pm10":44.2,"pm2_5":35.3,"mosquito_risk":4,"arthritis_risk":5,"migraine_risk":7,"frizz_risk":0,"updated_at":"2026-04-06T20:22:20.349185+05:30"},{"city":"Jalandhar","state":"Punjab","latitude":31.326,"longitude":75.5762,"temp":25.6,"humidity":42,"rain":0.0,"pressure":979.7,"uv_index":7.25,"wind_gusts":13.0,"aqi":101,"pm10":45.8,"pm2_5":32.9,"mosquito_risk":4,"arthritis_risk":5,"migraine_risk":7,"frizz_risk":0,"updated_at":"2026-04-06T20:22:20.349193+05:30"},{"city":"Dehradun","state":"Uttarakhand","latitude":30.6284,"longitude":78.0322,"temp":12.8,"humidity":70,"rain":0.0,"pressure":829.2,"uv_index":6.65,"wind_gusts":25.6,"aqi":108,"pm10":20.1,"pm2_5":11.1,"mosquito_risk":3,"arthritis_risk":5,"migraine_risk":7,"frizz_risk":0,"updated_at":"2026-04-06T20:22:20.349200+05:30"},{"city":"Shimla","state":"Himachal Pradesh","latitude":31.1048,"longitude":77.1734,"temp":11.9,"humidity":68,"rain":0.0,"pressure":783.1,"uv_index":6.25,"wind_gusts":27.7,"aqi":99,"pm10":20.3,"pm2_5":17.1,"mosquito_risk":3,"arthritis_risk":5,"migraine_risk":7,"frizz_risk":0,"updated_at":"2026-04-06T20:22:20.349206+05:30"},{"city":"Manali","state":"Himachal Pradesh","latitude":32.2396,"longitude":77.1887,"temp":12.0,"humidity":89,"rain":0.0,"pressure":817.6,"uv_index":9.45,"wind_gusts":28.1,"aqi":135,"pm10":13.4,"pm2_5":9.3,"mosquito_risk":3,"arthritis_risk":10,"migraine_risk":7,"frizz_risk":0,"updated_at":"2026-04-06T20:22:20.349214+05:30"},{"city":"Gurgaon","state":"Haryana","latitude":28.4595,"longitude":77.0266,"temp":25.1,"humidity":45,"rain":0.0,"pressure":982.3,"uv_index":7.0,"wind_gusts":25.9,"aqi":629,"pm10":388.4,"pm2_5":67.3,"mosquito_risk":4,"arthritis_risk":5,"migraine_risk":7,"frizz_risk":0,"updated_at":"2026-04-06T20:22:20.349221+05:30"},{"city":"Noida","state":"Uttar Pradesh","latitude":28.5355,"longitude":77.391,"temp":26.7,"humidity":36,"rain":0.0,"pressure":985.4,"uv_index":6.95,"wind_gusts":29.9,"aqi":629,"pm10":388.4,"pm2_5":67.3,"mosquito_risk":4,"arthritis_risk":5,"migraine_risk":7,"frizz_risk":0,"updated_at":"2026-04-06T20:22:20.349228+05:30"},{"city":"Ghaziabad","state":"Uttar Pradesh","latitude":28.6692,"longitude":77.4538,"temp":27.3,"humidity":38,"rain":0.0,"pressure":983.6,"uv_index":6.9,"wind_gusts":26.3,"aqi":141,"pm10":239.3,"pm2_5":54.5,"mosquito_risk":4,"arthritis_risk":5,"migraine_risk":7,"frizz_risk":0,"updated_at":"2026-04-06T20:22:20.349234+05:30"},{"city":"Faridabad","state":"Haryana","latitude":28.4089,"longitude":77.3178,"temp":25.5,"humidity":41,"rain":0.0,"pressure":984.8,"uv_index":6.95,"wind_gusts":27.4,"aqi":629,"pm10":388.4,"pm2_5":67.3,"mosquito_risk":4,"arthritis_risk":5,"migraine_risk":7,"frizz_risk":0,"updated_at":"2026-04-06T20:22:20.349241+05:30"},{"city":"Meerut","state":"Uttar Pradesh","latitude":28.9845,"longitude":77.7064,"temp":24.3,"humidity":48,"rain":0.0,"pressure":982.2,"uv_index":6.8,"wind_gusts":25.2,"aqi":141,"pm10":239.3,"pm2_5":54.5,"mosquito_risk":0,"arthritis_risk":5,"migraine_risk":7,"frizz_risk":0,"updated_at":"2026-04-06T20:22:20.349248+05:30"},{"city":"Agra","state":"Uttar Pradesh","latitude":27.1767,"longitude":78.0081,"temp":25.6,"humidity":52,"rain":0.0,"pressure":989.1,"uv_index":7.3,"wind_gusts":36.4,"aqi":274,"pm10":733.9,"pm2_5":86.4,"mosquito_risk":4,"arthritis_risk":5,"migraine_risk":7,"frizz_risk":0,"updated_at":"2026-04-06T20:22:20.349254+05:30"},{"city":"Varanasi","state":"Uttar Pradesh","latitude":25.3176,"longitude":82.9739,"temp":26.1,"humidity":44,"rain":0.0,"pressure":998.6,"uv_index":7.6,"wind_gusts":29.9,"aqi":115,"pm10":47.7,"pm2_5":27.8,"mosquito_risk":4,"arthritis_risk":5,"migraine_risk":7,"frizz_risk":0,"updated_at":"2026-04-06T20:22:20.349263+05:30"},{"city":"Prayagraj","state":"Uttar Pradesh","latitude":25.4358,"longitude":81.8463,"temp":27.2,"humidity":44,"rain":0.0,"pressure":997.3,"uv_index":7.75,"wind_gusts":28.1,"aqi":136,"pm10":62.9,"pm2_5":28.6,"mosquito_risk":4,"arthritis_risk":5,"migraine_risk":7,"frizz_risk":0,"updated_at":"2026-04-06T20:22:20.349270+05:30"},{"city":"Gorakhpur","state":"Uttar Pradesh","latitude":26.7606,"longitude":83.3732,"temp":26.9,"humidity":37,"rain":0.0,"pressure":997.8,"uv_index":7.8,"wind_gusts":27.4,"aqi":119,"pm10":39.5,"pm2_5":22.0,"mosquito_risk":4,"arthritis_risk":5,"migraine_risk":7,"frizz_risk":0,"updated_at":"2026-04-06T20:22:20.349276+05:30"},{"city":"Bareilly","state":"Uttar Pradesh","latitude":28.367,"longitude":79.4304,"temp":24.5,"humidity":49,"rain":0.0,"pressure":987.9,"uv_index":7.2,"wind_gusts":32.4,"aqi":125,"pm10":55.9,"pm2_5":25.0,"mosquito_risk":0,"arthritis_risk":5,"migraine_risk":7,"frizz_risk":0,"updated_at":"2026-04-06T20:22:20.349283+05:30"},{"city":"Aligarh","state":"Uttar Pradesh","latitude":27.8974,"longitude":78.088,"temp":24.5,"humidity":47,"rain":0.0,"pressure":986.7,"uv_index":7.1,"wind_gusts":24.1,"aqi":319,"pm10":491.7,"pm2_5":73.3,"mosquito_risk":0,"arthritis_risk":5,"migraine_risk":7,"frizz_risk":0,"updated_at":"2026-04-06T20:22:20.349292+05:30"},{"city":"Moradabad","state":"Uttar Pradesh","latitude":28.8386,"longitude":78.7733,"temp":23.7,"humidity":52,"rain":0.0,"pressure":984.6,"uv_index":7.0,"wind_gusts":30.6,"aqi":125,"pm10":64.5,"pm2_5":36.4,"mosquito_risk":0,"arthritis_risk":5,"migraine_risk":7,"frizz_risk":0,"updated_at":"2026-04-06T20:22:20.349298+05:30"},{"city":"Saharanpur","state":"Uttar Pradesh","latitude":29.9637,"longitude":77.546,"temp":25.8,"humidity":42,"rain":0.0,"pressure":976.1,"uv_index":6.6,"wind_gusts":23.4,"aqi":113,"pm10":98.7,"pm2_5":35.4,"mosquito_risk":4,"arthritis_risk":5,"migraine_risk":7,"frizz_risk":0,"updated_at":"2026-04-06T20:22:20.349304+05:30"},{"city":"Jhansi","state":"Uttar Pradesh","latitude":25.4484,"longitude":78.5685,"temp":23.9,"humidity":59,"rain":0.0,"pressure":979.4,"uv_index":7.85,"wind_gusts":21.6,"aqi":120,"pm10":56.8,"pm2_5":20.6,"mosquito_risk":0,"arthritis_risk":5,"migraine_risk":7,"frizz_risk":0,"updated_at":"2026-04-06T20:22:23.630966+05:30"},{"city":"Surat","state":"Gujarat","latitude":21.1702,"longitude":72.8311,"temp":26.7,"humidity":77,"rain":0.0,"pressure":1008.4,"uv_index":7.7,"wind_gusts":31.7,"aqi":74,"pm10":32.9,"pm2_5":21.1,"mosquito_risk":7,"arthritis_risk":0,"migraine_risk":4,"frizz_risk":1,"updated_at":"2026-04-06T20:22:23.630995+05:30"},{"city":"Vadodara","state":"Gujarat","latitude":22.3072,"longitude":73.1812,"temp":28.4,"humidity":54,"rain":0.0,"pressure":1004.9,"uv_index":7.95,"wind_gusts":34.9,"aqi":121,"pm10":30.2,"pm2_5":20.9,"mosquito_risk":4,"arthritis_risk":5,"migraine_risk":4,"frizz_risk":1,"updated_at":"2026-04-06T20:22:23.631005+05:30"},{"city":"Rajkot","state":"Gujarat","latitude":22.3039,"longitude":70.8022,"temp":28.3,"humidity":50,"rain":0.0,"pressure":995.6,"uv_index":7.65,"wind_gusts":40.0,"aqi":106,"pm10":37.4,"pm2_5":17.3,"mosquito_risk":4,"arthritis_risk":5,"migraine_risk":7,"frizz_risk":1,"updated_at":"2026-04-06T20:22:23.631012+05:30"},{"city":"Thane","state":"Maharashtra","latitude":19.2183,"longitude":72.9781,"temp":26.9,"humidity":72,"rain":0.0,"pressure":1010.1,"uv_index":7.95,"wind_gusts":37.4,"aqi":106,"pm10":29.3,"pm2_5":15.3,"mosquito_risk":7,"arthritis_risk":0,"migraine_risk":4,"frizz_risk":1,"updated_at":"2026-04-06T20:22:23.631020+05:30"},{"city":"Nagpur","state":"Maharashtra","latitude":21.1458,"longitude":79.0882,"temp":27.9,"humidity":41,"rain":0.0,"pressure":972.5,"uv_index":8.65,"wind_gusts":21.2,"aqi":126,"pm10":18.9,"pm2_5":15.1,"mosquito_risk":4,"arthritis_risk":5,"migraine_risk":7,"frizz_risk":0,"updated_at":"2026-04-06T20:22:23.631028+05:30"},{"city":"Nashik","state":"Maharashtra","latitude":19.9975,"longitude":73.7898,"temp":23.4,"humidity":65,"rain":0.0,"pressure":947.0,"uv_index":8.2,"wind_gusts":33.8,"aqi":96,"pm10":20.8,"pm2_5":11.1,"mosquito_risk":3,"arthritis_risk":5,"migraine_risk":7,"frizz_risk":1,"updated_at":"2026-04-06T20:22:23.631035+05:30"},{"city":"Aurangabad","state":"Maharashtra","latitude":19.8762,"longitude":75.3433,"temp":28.4,"humidity":40,"rain":0.0,"pressure":944.7,"uv_index":8.9,"wind_gusts":28.4,"aqi":126,"pm10":22.0,"pm2_5":15.0,"mosquito_risk":4,"arthritis_risk":5,"migraine_risk":7,"frizz_risk":0,"updated_at":"2026-04-06T20:22:23.631042+05:30"},{"city":"Solapur","state":"Maharashtra","latitude":17.6599,"longitude":75.9064,"temp":30.8,"humidity":27,"rain":0.0,"pressure":957.0,"uv_index":9.0,"wind_gusts":33.1,"aqi":78,"pm10":16.6,"pm2_5":11.4,"mosquito_risk":0,"arthritis_risk":5,"migraine_risk":7,"frizz_risk":0,"updated_at":"2026-04-06T20:22:23.631050+05:30"},{"city":"Kolhapur","state":"Maharashtra","latitude":16.705,"longitude":74.2433,"temp":22.2,"humidity":73,"rain":0.0,"pressure":949.4,"uv_index":9.0,"wind_gusts":40.7,"aqi":64,"pm10":15.9,"pm2_5":13.2,"mosquito_risk":3,"arthritis_risk":5,"migraine_risk":7,"frizz_risk":1,"updated_at":"2026-04-06T20:22:23.631057+05:30"},{"city":"Goa","state":"Goa","latitude":15.2993,"longitude":74.124,"temp":27.6,"humidity":67,"rain":0.0,"pressure":1000.4,"uv_index":9.0,"wind_gusts":38.9,"aqi":65,"pm10":22.2,"pm2_5":12.6,"mosquito_risk":7,"arthritis_risk":5,"migraine_risk":4,"frizz_risk":1,"updated_at":"2026-04-06T20:22:23.631064+05:30"},{"city":"Jodhpur","state":"Rajasthan","latitude":26.2389,"longitude":73.0243,"temp":27.9,"humidity":31,"rain":0.0,"pressure":981.9,"uv_index":7.8,"wind_gusts":38.5,"aqi":105,"pm10":181.6,"pm2_5":25.9,"mosquito_risk":4,"arthritis_risk":5,"migraine_risk":7,"frizz_risk":0,"updated_at":"2026-04-06T20:22:23.631071+05:30"},{"city":"Udaipur","state":"Rajasthan","latitude":24.5854,"longitude":73.7125,"temp":25.1,"humidity":37,"rain":0.0,"pressure":946.5,"uv_index":8.4,"wind_gusts":37.1,"aqi":97,"pm10":12.8,"pm2_5":6.0,"mosquito_risk":4,"arthritis_risk":5,"migraine_risk":7,"frizz_risk":0,"updated_at":"2026-04-06T20:22:23.631077+05:30"},{"city":"Kota","state":"Rajasthan","latitude":25.2138,"longitude":75.8648,"temp":29.2,"humidity":34,"rain":0.0,"pressure":978.4,"uv_index":7.85,"wind_gusts":28.8,"aqi":113,"pm10":77.5,"pm2_5":27.9,"mosquito_risk":4,"arthritis_risk":5,"migraine_risk":7,"frizz_risk":0,"updated_at":"2026-04-06T20:22:23.631084+05:30"},{"city":"Bikaner","state":"Rajasthan","latitude":28.0229,"longitude":73.3119,"temp":27.6,"humidity":33,"rain":0.0,"pressure":980.6,"uv_index":7.65,"wind_gusts":28.1,"aqi":90,"pm10":57.3,"pm2_5":16.1,"mosquito_risk":4,"arthritis_risk":5,"migraine_risk":7,"frizz_risk":0,"updated_at":"2026-04-06T20:22:23.631091+05:30"},{"city":"Ajmer","state":"Rajasthan","latitude":26.4499,"longitude":74.6399,"temp":26.3,"humidity":39,"rain":0.0,"pressure":954.3,"uv_index":7.8,"wind_gusts":34.2,"aqi":90,"pm10":35.5,"pm2_5":13.6,"mosquito_risk":4,"arthritis_risk":5,"migraine_risk":7,"frizz_risk":0,"updated_at":"2026-04-06T20:22:23.631097+05:30"},{"city":"Gwalior","state":"Madhya Pradesh","latitude":26.2183,"longitude":78.1828,"temp":23.5,"humidity":67,"rain":0.0,"pressure":984.7,"uv_index":7.6,"wind_gusts":27.0,"aqi":100,"pm10":67.3,"pm2_5":20.4,"mosquito_risk":3,"arthritis_risk":5,"migraine_risk":7,"frizz_risk":1,"updated_at":"2026-04-06T20:22:23.631104+05:30"},{"city":"Indore","state":"Madhya Pradesh","latitude":22.7196,"longitude":75.8577,"temp":26.5,"humidity":34,"rain":0.0,"pressure":948.2,"uv_index":8.3,"wind_gusts":26.6,"aqi":122,"pm10":21.2,"pm2_5":17.9,"mosquito_risk":4,"arthritis_risk":5,"migraine_risk":7,"frizz_risk":0,"updated_at":"2026-04-06T20:22:23.631110+05:30"},{"city":"Bhopal","state":"Madhya Pradesh","latitude":23.2599,"longitude":77.4126,"temp":27.2,"humidity":29,"rain":0.0,"pressure":953.3,"uv_index":8.3,"wind_gusts":28.8,"aqi":107,"pm10":25.9,"pm2_5":13.7,"mosquito_risk":4,"arthritis_risk":5,"migraine_risk":7,"frizz_risk":0,"updated_at":"2026-04-06T20:22:23.631116+05:30"},{"city":"Jabalpur","state":"Madhya Pradesh","latitude":23.1815,"longitude":79.9864,"temp":29.1,"humidity":31,"rain":0.0,"pressure":961.8,"uv_index":8.25,"wind_gusts":19.8,"aqi":107,"pm10":29.6,"pm2_5":18.5,"mosquito_risk":4,"arthritis_risk":5,"migraine_risk":7,"frizz_risk":0,"updated_at":"2026-04-06T20:22:23.631122+05:30"},{"city":"Ujjain","state":"Madhya Pradesh","latitude":23.1765,"longitude":75.7885,"temp":26.3,"humidity":33,"rain":0.0,"pressure":954.0,"uv_index":8.2,"wind_gusts":26.6,"aqi":107,"pm10":25.8,"pm2_5":20.3,"mosquito_risk":4,"arthritis_risk":5,"migraine_risk":7,"frizz_risk":0,"updated_at":"2026-04-06T20:22:23.631129+05:30"},{"city":"Visakhapatnam","state":"Andhra Pradesh","latitude":17.6868,"longitude":83.2185,"temp":27.7,"humidity":83,"rain":0.0,"pressure":1005.2,"uv_index":9.1,"wind_gusts":34.9,"aqi":105,"pm10":32.5,"pm2_5":27.9,"mosquito_risk":7,"arthritis_risk":5,"migraine_risk":4,"frizz_risk":1,"updated_at":"2026-04-06T20:22:23.631136+05:30"},{"city":"Vijayawada","state":"Andhra Pradesh","latitude":16.5062,"longitude":80.648,"temp":29.9,"humidity":67,"rain":0.0,"pressure":1002.6,"uv_index":9.15,"wind_gusts":31.0,"aqi":77,"pm10":24.2,"pm2_5":21.9,"mosquito_risk":7,"arthritis_risk":5,"migraine_risk":4,"frizz_risk":1,"updated_at":"2026-04-06T20:22:23.631142+05:30"},{"city":"Guntur","state":"Andhra Pradesh","latitude":16.3067,"longitude":80.4365,"temp":28.8,"humidity":79,"rain":0.0,"pressure":1003.9,"uv_index":9.2,"wind_gusts":31.7,"aqi":93,"pm10":34.6,"pm2_5":30.9,"mosquito_risk":7,"arthritis_risk":5,"migraine_risk":4,"frizz_risk":1,"updated_at":"2026-04-06T20:22:23.631149+05:30"},{"city":"Nellore","state":"Andhra Pradesh","latitude":14.4426,"longitude":79.9865,"temp":28.4,"humidity":86,"rain":0.0,"pressure":1006.1,"uv_index":8.65,"wind_gusts":27.7,"aqi":130,"pm10":26.3,"pm2_5":22.2,"mosquito_risk":7,"arthritis_risk":5,"migraine_risk":4,"frizz_risk":1,"updated_at":"2026-04-06T20:22:23.631156+05:30"},{"city":"Kurnool","state":"Andhra Pradesh","latitude":15.8281,"longitude":78.0373,"temp":33.6,"humidity":29,"rain":0.0,"pressure":976.2,"uv_index":9.2,"wind_gusts":36.7,"aqi":127,"pm10":19.0,"pm2_5":15.3,"mosquito_risk":0,"arthritis_risk":5,"migraine_risk":7,"frizz_risk":0,"updated_at":"2026-04-06T20:22:23.631163+05:30"},{"city":"Kakinada","state":"Andhra Pradesh","latitude":16.9891,"longitude":82.2475,"temp":28.8,"humidity":77,"rain":0.0,"pressure":1008.5,"uv_index":8.8,"wind_gusts":26.3,"aqi":60,"pm10":18.9,"pm2_5":14.2,"mosquito_risk":7,"arthritis_risk":0,"migraine_risk":4,"frizz_risk":1,"updated_at":"2026-04-06T20:22:23.631169+05:30"},{"city":"Tirupati","state":"Andhra Pradesh","latitude":13.6288,"longitude":79.4192,"temp":27.9,"humidity":81,"rain":0.0,"pressure":992.4,"uv_index":8.15,"wind_gusts":19.4,"aqi":148,"pm10":47.7,"pm2_5":44.1,"mosquito_risk":7,"arthritis_risk":5,"migraine_risk":7,"frizz_risk":1,"updated_at":"2026-04-06T20:22:23.631176+05:30"},{"city":"Warangal","state":"Telangana","latitude":17.9689,"longitude":79.5941,"temp":29.7,"humidity":70,"rain":0.0,"pressure":978.5,"uv_index":9.0,"wind_gusts":36.7,"aqi":128,"pm10":55.2,"pm2_5":44.9,"mosquito_risk":7,"arthritis_risk":5,"migraine_risk":7,"frizz_risk":1,"updated_at":"2026-04-06T20:22:23.631182+05:30"},{"city":"Nizamabad","state":"Telangana","latitude":18.6725,"longitude":78.0941,"temp":30.2,"humidity":42,"rain":0.0,"pressure":964.3,"uv_index":8.95,"wind_gusts":27.7,"aqi":88,"pm10":29.1,"pm2_5":22.1,"mosquito_risk":0,"arthritis_risk":5,"migraine_risk":7,"frizz_risk":0,"updated_at":"2026-04-06T20:22:23.631189+05:30"},{"city":"Mysore","state":"Karnataka","latitude":12.2958,"longitude":76.6396,"temp":26.8,"humidity":65,"rain":0.0,"pressure":929.7,"uv_index":9.55,"wind_gusts":38.5,"aqi":95,"pm10":21.5,"pm2_5":18.7,"mosquito_risk":7,"arthritis_risk":5,"migraine_risk":7,"frizz_risk":1,"updated_at":"2026-04-06T20:22:23.631196+05:30"},{"city":"Mangalore","state":"Karnataka","latitude":12.9141,"longitude":74.856,"temp":29.2,"humidity":73,"rain":0.0,"pressure":1008.8,"uv_index":9.2,"wind_gusts":37.4,"aqi":60,"pm10":27.3,"pm2_5":14.5,"mosquito_risk":7,"arthritis_risk":0,"migraine_risk":4,"frizz_risk":1,"updated_at":"2026-04-06T20:22:23.631202+05:30"},{"city":"Hubli-Dharwad","state":"Karnataka","latitude":15.3647,"longitude":75.124,"temp":25.0,"humidity":65,"rain":0.0,"pressure":942.3,"uv_index":9.2,"wind_gusts":36.0,"aqi":72,"pm10":16.5,"pm2_5":10.2,"mosquito_risk":7,"arthritis_risk":5,"migraine_risk":7,"frizz_risk":1,"updated_at":"2026-04-06T20:22:23.631208+05:30"},{"city":"Belgaum","state":"Karnataka","latitude":15.8497,"longitude":74.4977,"temp":22.0,"humidity":73,"rain":0.0,"pressure":927.1,"uv_index":9.25,"wind_gusts":36.4,"aqi":58,"pm10":16.1,"pm2_5":11.0,"mosquito_risk":3,"arthritis_risk":5,"migraine_risk":7,"frizz_risk":1,"updated_at":"2026-04-06T20:22:26.916458+05:30"},{"city":"Coimbatore","state":"Tamil Nadu","latitude":11.0168,"longitude":76.9558,"temp":26.6,"humidity":68,"rain":0.0,"pressure":963.2,"uv_index":9.4,"wind_gusts":51.1,"aqi":72,"pm10":23.5,"pm2_5":20.2,"mosquito_risk":7,"arthritis_risk":5,"migraine_risk":7,"frizz_risk":1,"updated_at":"2026-04-06T20:22:26.916494+05:30"},{"city":"Madurai","state":"Tamil Nadu","latitude":9.9252,"longitude":78.1198,"temp":28.7,"humidity":79,"rain":0.0,"pressure":994.3,"uv_index":3.35,"wind_gusts":24.5,"aqi":118,"pm10":28.1,"pm2_5":25.3,"mosquito_risk":7,"arthritis_risk":5,"migraine_risk":3,"frizz_risk":1,"updated_at":"2026-04-06T20:22:26.916507+05:30"},{"city":"Trichy","state":"Tamil Nadu","latitude":10.7905,"longitude":78.7047,"temp":28.9,"humidity":77,"rain":0.0,"pressure":1000.7,"uv_index":8.55,"wind_gusts":23.0,"aqi":129,"pm10":34.0,"pm2_5":31.3,"mosquito_risk":7,"arthritis_risk":5,"migraine_risk":4,"frizz_risk":1,"updated_at":"2026-04-06T20:22:26.916517+05:30"},{"city":"Salem","state":"Tamil Nadu","latitude":11.6643,"longitude":78.146,"temp":30.1,"humidity":65,"rain":0.0,"pressure":978.1,"uv_index":9.35,"wind_gusts":32.8,"aqi":151,"pm10":21.4,"pm2_5":18.2,"mosquito_risk":3,"arthritis_risk":5,"migraine_risk":7,"frizz_risk":1,"updated_at":"2026-04-06T20:22:26.916526+05:30"},{"city":"Tirunelveli","state":"Tamil Nadu","latitude":8.7139,"longitude":77.7567,"temp":29.4,"humidity":70,"rain":0.0,"pressure":1004.7,"uv_index":9.2,"wind_gusts":25.6,"aqi":61,"pm10":21.0,"pm2_5":18.3,"mosquito_risk":7,"arthritis_risk":5,"migraine_risk":4,"frizz_risk":1,"updated_at":"2026-04-06T20:22:26.916534+05:30"},{"city":"Vellore","state":"Tamil Nadu","latitude":12.9165,"longitude":79.1325,"temp":28.3,"humidity":75,"rain":0.0,"pressure":985.2,"uv_index":9.35,"wind_gusts":31.7,"aqi":174,"pm10":50.8,"pm2_5":47.5,"mosquito_risk":7,"arthritis_risk":5,"migraine_risk":7,"frizz_risk":1,"updated_at":"2026-04-06T20:22:26.916543+05:30"},{"city":"Erode","state":"Tamil Nadu","latitude":11.341,"longitude":77.7172,"temp":32.5,"humidity":51,"rain":0.0,"pressure":989.6,"uv_index":9.45,"wind_gusts":29.9,"aqi":115,"pm10":25.2,"pm2_5":22.2,"mosquito_risk":0,"arthritis_risk":5,"migraine_risk":7,"frizz_risk":1,"updated_at":"2026-04-06T20:22:26.916552+05:30"},{"city":"Kochi","state":"Kerala","latitude":9.9312,"longitude":76.2673,"temp":29.9,"humidity":73,"rain":0.0,"pressure":1010.7,"uv_index":8.6,"wind_gusts":36.7,"aqi":69,"pm10":35.2,"pm2_5":23.7,"mosquito_risk":7,"arthritis_risk":0,"migraine_risk":4,"frizz_risk":1,"updated_at":"2026-04-06T20:22:26.916560+05:30"},{"city":"Thiruvananthapuram","state":"Kerala","latitude":8.5241,"longitude":76.9366,"temp":29.5,"humidity":78,"rain":0.0,"pressure":1009.9,"uv_index":8.4,"wind_gusts":39.2,"aqi":57,"pm10":31.9,"pm2_5":18.0,"mosquito_risk":7,"arthritis_risk":0,"migraine_risk":4,"frizz_risk":1,"updated_at":"2026-04-06T20:22:26.916568+05:30"},{"city":"Kozhikode","state":"Kerala","latitude":11.2588,"longitude":75.7804,"temp":29.4,"humidity":74,"rain":0.0,"pressure":1009.8,"uv_index":9.2,"wind_gusts":38.5,"aqi":61,"pm10":32.9,"pm2_5":16.6,"mosquito_risk":7,"arthritis_risk":0,"migraine_risk":4,"frizz_risk":1,"updated_at":"2026-04-06T20:22:26.916577+05:30"},{"city":"Thrissur","state":"Kerala","latitude":10.5276,"longitude":76.2144,"temp":28.6,"humidity":76,"rain":0.0,"pressure":1009.0,"uv_index":9.2,"wind_gusts":41.0,"aqi":71,"pm10":27.8,"pm2_5":17.6,"mosquito_risk":7,"arthritis_risk":0,"migraine_risk":4,"frizz_risk":1,"updated_at":"2026-04-06T20:22:26.916585+05:30"},{"city":"Kannur","state":"Kerala","latitude":11.8745,"longitude":75.3704,"temp":28.8,"humidity":71,"rain":0.0,"pressure":1009.0,"uv_index":9.2,"wind_gusts":43.9,"aqi":57,"pm10":25.2,"pm2_5":14.5,"mosquito_risk":7,"arthritis_risk":0,"migraine_risk":4,"frizz_risk":1,"updated_at":"2026-04-06T20:22:26.916594+05:30"},{"city":"Patna","state":"Bihar","latitude":25.5941,"longitude":85.1376,"temp":28.1,"humidity":49,"rain":0.0,"pressure":1001.1,"uv_index":7.05,"wind_gusts":29.2,"aqi":96,"pm10":38.1,"pm2_5":28.2,"mosquito_risk":4,"arthritis_risk":5,"migraine_risk":4,"frizz_risk":1,"updated_at":"2026-04-06T20:22:26.916601+05:30"},{"city":"Gaya","state":"Bihar","latitude":24.7914,"longitude":85.0002,"temp":27.1,"humidity":57,"rain":0.0,"pressure":995.2,"uv_index":5.7,"wind_gusts":28.8,"aqi":100,"pm10":31.8,"pm2_5":23.0,"mosquito_risk":4,"arthritis_risk":5,"migraine_risk":3,"frizz_risk":1,"updated_at":"2026-04-06T20:22:26.916609+05:30"},{"city":"Muzaffarpur","state":"Bihar","latitude":26.1209,"longitude":85.3647,"temp":26.4,"humidity":50,"rain":0.0,"pressure":1001.3,"uv_index":7.65,"wind_gusts":28.1,"aqi":98,"pm10":36.3,"pm2_5":26.1,"mosquito_risk":4,"arthritis_risk":5,"migraine_risk":4,"frizz_risk":0,"updated_at":"2026-04-06T20:22:26.916616+05:30"},{"city":"Bhagalpur","state":"Bihar","latitude":25.2425,"longitude":87.0117,"temp":27.0,"humidity":63,"rain":0.0,"pressure":1002.6,"uv_index":7.15,"wind_gusts":27.0,"aqi":110,"pm10":26.1,"pm2_5":22.4,"mosquito_risk":7,"arthritis_risk":5,"migraine_risk":4,"frizz_risk":1,"updated_at":"2026-04-06T20:22:26.916624+05:30"},{"city":"Ranchi","state":"Jharkhand","latitude":23.3441,"longitude":85.3096,"temp":22.2,"humidity":78,"rain":0.0,"pressure":939.5,"uv_index":8.5,"wind_gusts":27.0,"aqi":80,"pm10":34.2,"pm2_5":24.0,"mosquito_risk":3,"arthritis_risk":5,"migraine_risk":7,"frizz_risk":1,"updated_at":"2026-04-06T20:22:26.916632+05:30"},{"city":"Jamshedpur","state":"Jharkhand","latitude":22.8046,"longitude":86.2029,"temp":25.2,"humidity":84,"rain":0.0,"pressure":993.5,"uv_index":8.65,"wind_gusts":24.8,"aqi":144,"pm10":45.6,"pm2_5":39.2,"mosquito_risk":7,"arthritis_risk":5,"migraine_risk":7,"frizz_risk":1,"updated_at":"2026-04-06T20:22:26.916639+05:30"},{"city":"Dhanbad","state":"Jharkhand","latitude":23.7957,"longitude":86.4304,"temp":26.6,"humidity":67,"rain":0.0,"pressure":981.6,"uv_index":7.85,"wind_gusts":20.5,"aqi":116,"pm10":63.3,"pm2_5":51.0,"mosquito_risk":7,"arthritis_risk":5,"migraine_risk":7,"frizz_risk":1,"updated_at":"2026-04-06T20:22:26.916647+05:30"},{"city":"Bokaro","state":"Jharkhand","latitude":23.6693,"longitude":86.1511,"temp":24.8,"humidity":75,"rain":0.0,"pressure":985.9,"uv_index":7.9,"wind_gusts":21.2,"aqi":99,"pm10":61.5,"pm2_5":46.1,"mosquito_risk":3,"arthritis_risk":5,"migraine_risk":7,"frizz_risk":1,"updated_at":"2026-04-06T20:22:26.916655+05:30"},{"city":"Bhubaneswar","state":"Odisha","latitude":20.2961,"longitude":85.8245,"temp":25.3,"humidity":89,"rain":0.0,"pressure":1005.2,"uv_index":8.95,"wind_gusts":23.8,"aqi":76,"pm10":30.4,"pm2_5":27.7,"mosquito_risk":7,"arthritis_risk":5,"migraine_risk":4,"frizz_risk":1,"updated_at":"2026-04-06T20:22:26.916663+05:30"},{"city":"Cuttack","state":"Odisha","latitude":20.4625,"longitude":85.8828,"temp":24.8,"humidity":88,"rain":0.0,"pressure":1007.2,"uv_index":8.95,"wind_gusts":31.7,"aqi":76,"pm10":30.4,"pm2_5":27.7,"mosquito_risk":3,"arthritis_risk":5,"migraine_risk":4,"frizz_risk":1,"updated_at":"2026-04-06T20:22:26.916671+05:30"},{"city":"Rourkela","state":"Odisha","latitude":22.2604,"longitude":84.8536,"temp":24.1,"humidity":80,"rain":0.0,"pressure":987.8,"uv_index":8.35,"wind_gusts":36.4,"aqi":154,"pm10":42.1,"pm2_5":35.2,"mosquito_risk":3,"arthritis_risk":5,"migraine_risk":7,"frizz_risk":1,"updated_at":"2026-04-06T20:22:26.916679+05:30"},{"city":"Raipur","state":"Chhattisgarh","latitude":21.2514,"longitude":81.6296,"temp":28.8,"humidity":60,"rain":0.0,"pressure":974.8,"uv_index":8.8,"wind_gusts":26.6,"aqi":162,"pm10":51.0,"pm2_5":41.4,"mosquito_risk":4,"arthritis_risk":5,"migraine_risk":7,"frizz_risk":1,"updated_at":"2026-04-06T20:22:26.916686+05:30"},{"city":"Bhilai","state":"Chhattisgarh","latitude":21.1938,"longitude":81.3509,"temp":28.9,"humidity":58,"rain":0.0,"pressure":975.0,"uv_index":8.7,"wind_gusts":25.6,"aqi":143,"pm10":25.4,"pm2_5":22.0,"mosquito_risk":4,"arthritis_risk":5,"migraine_risk":7,"frizz_risk":1,"updated_at":"2026-04-06T20:22:26.916694+05:30"},{"city":"Guwahati","state":"Assam","latitude":26.1158,"longitude":91.7086,"temp":26.8,"humidity":70,"rain":0.0,"pressure":1002.3,"uv_index":8.25,"wind_gusts":34.9,"aqi":89,"pm10":42.7,"pm2_5":39.0,"mosquito_risk":7,"arthritis_risk":5,"migraine_risk":4,"frizz_risk":1,"updated_at":"2026-04-06T20:22:26.916701+05:30"},{"city":"Agartala","state":"Tripura","latitude":23.8315,"longitude":91.2868,"temp":27.5,"humidity":75,"rain":0.0,"pressure":1007.1,"uv_index":8.5,"wind_gusts":19.4,"aqi":205,"pm10":96.2,"pm2_5":90.3,"mosquito_risk":7,"arthritis_risk":5,"migraine_risk":4,"frizz_risk":1,"updated_at":"2026-04-06T20:22:26.916708+05:30"},{"city":"Shillong","state":"Meghalaya","latitude":25.5788,"longitude":91.8933,"temp":14.8,"humidity":83,"rain":0.0,"pressure":857.1,"uv_index":7.85,"wind_gusts":71.6,"aqi":114,"pm10":43.9,"pm2_5":40.7,"mosquito_risk":3,"arthritis_risk":10,"migraine_risk":7,"frizz_risk":0,"updated_at":"2026-04-06T20:22:26.916716+05:30"},{"city":"Imphal","state":"Manipur","latitude":24.817,"longitude":93.9368,"temp":19.2,"humidity":71,"rain":0.0,"pressure":924.7,"uv_index":8.85,"wind_gusts":53.3,"aqi":126,"pm10":41.8,"pm2_5":36.9,"mosquito_risk":3,"arthritis_risk":5,"migraine_risk":7,"frizz_risk":0,"updated_at":"2026-04-06T20:22:26.916724+05:30"},{"city":"Aizawl","state":"Mizoram","latitude":23.7271,"longitude":92.7176,"temp":20.7,"humidity":72,"rain":0.0,"pressure":894.1,"uv_index":8.75,"wind_gusts":35.3,"aqi":135,"pm10":55.9,"pm2_5":48.7,"mosquito_risk":3,"arthritis_risk":5,"migraine_risk":7,"frizz_risk":0,"updated_at":"2026-04-06T20:22:26.916732+05:30"},{"city":"Kohima","state":"Nagaland","latitude":25.6701,"longitude":94.1077,"temp":17.4,"humidity":62,"rain":0.0,"pressure":856.4,"uv_index":8.75,"wind_gusts":81.4,"aqi":90,"pm10":39.2,"pm2_5":32.4,"mosquito_risk":3,"arthritis_risk":5,"migraine_risk":7,"frizz_risk":0,"updated_at":"2026-04-06T20:22:26.916739+05:30"},{"city":"Gangtok","state":"Sikkim","latitude":27.3314,"longitude":88.6138,"temp":13.5,"humidity":72,"rain":0.0,"pressure":837.5,"uv_index":8.5,"wind_gusts":21.6,"aqi":94,"pm10":26.0,"pm2_5":22.0,"mosquito_risk":3,"arthritis_risk":5,"migraine_risk":7,"frizz_risk":0,"updated_at":"2026-04-06T20:22:26.916747+05:30"},{"city":"Siliguri","state":"West Bengal","latitude":26.7271,"longitude":88.3953,"temp":22.7,"humidity":69,"rain":0.0,"pressure":995.8,"uv_index":8.05,"wind_gusts":19.8,"aqi":100,"pm10":35.6,"pm2_5":30.0,"mosquito_risk":3,"arthritis_risk":5,"migraine_risk":7,"frizz_risk":1,"updated_at":"2026-04-06T20:22:30.199717+05:30"},{"city":"Durgapur","state":"West Bengal","latitude":23.5204,"longitude":87.3119,"temp":27.2,"humidity":74,"rain":0.0,"pressure":996.9,"uv_index":8.45,"wind_gusts":23.8,"aqi":145,"pm10":46.9,"pm2_5":39.3,"mosquito_risk":7,"arthritis_risk":5,"migraine_risk":7,"frizz_risk":1,"updated_at":"2026-04-06T20:22:30.199754+05:30"},{"city":"Asansol","state":"West Bengal","latitude":23.6739,"longitude":86.9524,"temp":27.5,"humidity":71,"rain":0.0,"pressure":995.3,"uv_index":7.6,"wind_gusts":23.4,"aqi":126,"pm10":53.7,"pm2_5":43.7,"mosquito_risk":7,"arthritis_risk":5,"migraine_risk":7,"frizz_risk":1,"updated_at":"2026-04-06T20:22:30.199766+05:30"},{"city":"Pondicherry","state":"Puducherry","latitude":11.9139,"longitude":79.8145,"temp":28.3,"humidity":85,"rain":0.0,"pressure":1008.8,"uv_index":8.4,"wind_gusts":25.6,"aqi":104,"pm10":23.5,"pm2_5":18.0,"mosquito_risk":7,"arthritis_risk":0,"migraine_risk":4,"frizz_risk":1,"updated_at":"2026-04-06T20:22:30.199776+05:30"},{"city":"Port Blair","state":"Andaman and Nicobar Islands","latitude":11.6234,"longitude":92.7265,"temp":29.2,"humidity":70,"rain":0.0,"pressure":1009.6,"uv_index":9.2,"wind_gusts":19.4,"aqi":29,"pm10":9.9,"pm2_5":6.3,"mosquito_risk":7,"arthritis_risk":0,"migraine_risk":4,"frizz_risk":1,"updated_at":"2026-04-06T20:22:30.199785+05:30"},{"city":"Haridwar","state":"Uttarakhand","latitude":29.9457,"longitude":78.1642,"temp":22.9,"humidity":56,"rain":0.0,"pressure":974.7,"uv_index":6.75,"wind_gusts":25.9,"aqi":107,"pm10":28.3,"pm2_5":18.5,"mosquito_risk":0,"arthritis_risk":5,"migraine_risk":7,"frizz_risk":0,"updated_at":"2026-04-06T20:22:30.199794+05:30"},{"city":"Rishikesh","state":"Uttarakhand","latitude":30.0869,"longitude":78.2676,"temp":21.4,"humidity":54,"rain":0.0,"pressure":967.8,"uv_index":6.8,"wind_gusts":26.3,"aqi":109,"pm10":21.1,"pm2_5":12.7,"mosquito_risk":0,"arthritis_risk":5,"migraine_risk":7,"frizz_risk":0,"updated_at":"2026-04-06T20:22:30.199803+05:30"},{"city":"Nainital","state":"Uttarakhand","latitude":29.3919,"longitude":79.4542,"temp":16.2,"humidity":59,"rain":0.0,"pressure":805.9,"uv_index":5.85,"wind_gusts":38.5,"aqi":117,"pm10":31.7,"pm2_5":17.3,"mosquito_risk":0,"arthritis_risk":5,"migraine_risk":3,"frizz_risk":0,"updated_at":"2026-04-06T20:22:30.199812+05:30"},{"city":"Mussoorie","state":"Uttarakhand","latitude":30.4599,"longitude":78.0664,"temp":14.1,"humidity":60,"rain":0.0,"pressure":801.9,"uv_index":6.45,"wind_gusts":29.2,"aqi":109,"pm10":23.6,"pm2_5":15.7,"mosquito_risk":0,"arthritis_risk":5,"migraine_risk":7,"frizz_risk":0,"updated_at":"2026-04-06T20:22:30.199821+05:30"},{"city":"Dharamshala","state":"Himachal Pradesh","latitude":32.219,"longitude":76.3234,"temp":17.4,"humidity":62,"rain":0.0,"pressure":868.2,"uv_index":7.45,"wind_gusts":22.3,"aqi":99,"pm10":13.9,"pm2_5":10.8,"mosquito_risk":3,"arthritis_risk":5,"migraine_risk":7,"frizz_risk":0,"updated_at":"2026-04-06T20:22:30.199829+05:30"},{"city":"Dalhousie","state":"Himachal Pradesh","latitude":32.5387,"longitude":75.971,"temp":14.8,"humidity":64,"rain":0.0,"pressure":802.2,"uv_index":6.95,"wind_gusts":19.8,"aqi":101,"pm10":27.7,"pm2_5":22.5,"mosquito_risk":3,"arthritis_risk":5,"migraine_risk":7,"frizz_risk":0,"updated_at":"2026-04-06T20:22:30.199839+05:30"},{"city":"Patiala","state":"Punjab","latitude":30.3398,"longitude":76.3869,"temp":25.5,"humidity":35,"rain":0.0,"pressure":978.4,"uv_index":6.8,"wind_gusts":21.6,"aqi":109,"pm10":231.0,"pm2_5":42.5,"mosquito_risk":4,"arthritis_risk":5,"migraine_risk":7,"frizz_risk":0,"updated_at":"2026-04-06T20:22:30.199850+05:30"},{"city":"Bhatinda","state":"Punjab","latitude":30.211,"longitude":74.9455,"temp":24.9,"humidity":46,"rain":0.0,"pressure":984.0,"uv_index":7.45,"wind_gusts":20.9,"aqi":115,"pm10":25.3,"pm2_5":19.1,"mosquito_risk":0,"arthritis_risk":5,"migraine_risk":7,"frizz_risk":0,"updated_at":"2026-04-06T20:22:30.199856+05:30"},{"city":"Rohtak","state":"Haryana","latitude":28.8955,"longitude":76.6066,"temp":24.3,"humidity":45,"rain":0.0,"pressure":982.4,"uv_index":6.95,"wind_gusts":25.6,"aqi":349,"pm10":248.7,"pm2_5":54.5,"mosquito_risk":0,"arthritis_risk":5,"migraine_risk":7,"frizz_risk":0,"updated_at":"2026-04-06T20:22:30.199863+05:30"},{"city":"Panipat","state":"Haryana","latitude":29.3909,"longitude":76.9635,"temp":24.0,"humidity":42,"rain":0.0,"pressure":980.9,"uv_index":6.75,"wind_gusts":26.6,"aqi":463,"pm10":397.7,"pm2_5":63.6,"mosquito_risk":0,"arthritis_risk":5,"migraine_risk":7,"frizz_risk":0,"updated_at":"2026-04-06T20:22:30.199870+05:30"},{"city":"Mathura","state":"Uttar Pradesh","latitude":27.4924,"longitude":77.6737,"temp":24.6,"humidity":51,"rain":0.0,"pressure":988.0,"uv_index":7.25,"wind_gusts":27.7,"aqi":405,"pm10":324.1,"pm2_5":61.2,"mosquito_risk":0,"arthritis_risk":5,"migraine_risk":7,"frizz_risk":0,"updated_at":"2026-04-06T20:22:30.199876+05:30"},{"city":"Vrindavan","state":"Uttar Pradesh","latitude":27.5823,"longitude":77.7027,"temp":24.2,"humidity":53,"rain":0.0,"pressure":988.4,"uv_index":7.2,"wind_gusts":31.0,"aqi":405,"pm10":324.1,"pm2_5":61.2,"mosquito_risk":0,"arthritis_risk":5,"migraine_risk":7,"frizz_risk":0,"updated_at":"2026-04-06T20:22:30.199883+05:30"},{"city":"Ayodhya","state":"Uttar Pradesh","latitude":26.7922,"longitude":82.1998,"temp":26.8,"humidity":39,"rain":0.0,"pressure":996.0,"uv_index":7.6,"wind_gusts":30.2,"aqi":122,"pm10":52.0,"pm2_5":23.0,"mosquito_risk":4,"arthritis_risk":5,"migraine_risk":7,"frizz_risk":0,"updated_at":"2026-04-06T20:22:30.199891+05:30"},{"city":"Ratlam","state":"Madhya Pradesh","latitude":23.3315,"longitude":75.0367,"temp":26.0,"humidity":42,"rain":0.0,"pressure":955.0,"uv_index":8.15,"wind_gusts":33.8,"aqi":101,"pm10":16.1,"pm2_5":10.7,"mosquito_risk":4,"arthritis_risk":5,"migraine_risk":7,"frizz_risk":0,"updated_at":"2026-04-06T20:22:30.199897+05:30"},{"city":"Sagar","state":"Madhya Pradesh","latitude":23.8388,"longitude":78.7378,"temp":25.9,"humidity":46,"rain":0.0,"pressure":950.6,"uv_index":8.3,"wind_gusts":21.6,"aqi":99,"pm10":17.6,"pm2_5":8.7,"mosquito_risk":4,"arthritis_risk":5,"migraine_risk":7,"frizz_risk":0,"updated_at":"2026-04-06T20:22:30.199904+05:30"},{"city":"Satna","state":"Madhya Pradesh","latitude":24.6005,"longitude":80.8322,"temp":27.2,"humidity":34,"rain":0.0,"pressure":972.5,"uv_index":8.0,"wind_gusts":25.2,"aqi":108,"pm10":63.6,"pm2_5":19.8,"mosquito_risk":4,"arthritis_risk":5,"migraine_risk":7,"frizz_risk":0,"updated_at":"2026-04-06T20:22:30.199911+05:30"},{"city":"Akola","state":"Maharashtra","latitude":20.7002,"longitude":77.0082,"temp":30.1,"humidity":28,"rain":0.0,"pressure":975.0,"uv_index":8.65,"wind_gusts":28.1,"aqi":126,"pm10":20.1,"pm2_5":16.1,"mosquito_risk":0,"arthritis_risk":5,"migraine_risk":7,"frizz_risk":0,"updated_at":"2026-04-06T20:22:30.199918+05:30"},{"city":"Amravati","state":"Maharashtra","latitude":20.9374,"longitude":77.7796,"temp":29.5,"humidity":33,"rain":0.0,"pressure":966.9,"uv_index":8.7,"wind_gusts":27.4,"aqi":133,"pm10":17.8,"pm2_5":14.5,"mosquito_risk":4,"arthritis_risk":5,"migraine_risk":7,"frizz_risk":0,"updated_at":"2026-04-06T20:22:30.199927+05:30"},{"city":"Latur","state":"Maharashtra","latitude":18.4088,"longitude":76.5604,"temp":27.3,"humidity":35,"rain":0.0,"pressure":939.8,"uv_index":9.0,"wind_gusts":28.8,"aqi":71,"pm10":23.1,"pm2_5":17.9,"mosquito_risk":4,"arthritis_risk":5,"migraine_risk":7,"frizz_risk":0,"updated_at":"2026-04-06T20:22:30.199933+05:30"},{"city":"Nanded","state":"Maharashtra","latitude":19.1383,"longitude":77.3091,"temp":29.0,"humidity":36,"rain":0.0,"pressure":968.3,"uv_index":8.9,"wind_gusts":23.4,"aqi":101,"pm10":19.0,"pm2_5":15.3,"mosquito_risk":4,"arthritis_risk":5,"migraine_risk":7,"frizz_risk":0,"updated_at":"2026-04-06T20:22:30.199940+05:30"},{"city":"Gulbarga","state":"Karnataka","latitude":17.3297,"longitude":76.8343,"temp":31.8,"humidity":20,"rain":0.0,"pressure":958.7,"uv_index":9.05,"wind_gusts":32.0,"aqi":69,"pm10":22.9,"pm2_5":13.6,"mosquito_risk":0,"arthritis_risk":5,"migraine_risk":7,"frizz_risk":0,"updated_at":"2026-04-06T20:22:30.199946+05:30"},{"city":"Bidar","state":"Karnataka","latitude":17.9104,"longitude":77.5199,"temp":30.3,"humidity":23,"rain":0.0,"pressure":935.5,"uv_index":9.05,"wind_gusts":28.1,"aqi":79,"pm10":28.8,"pm2_5":20.0,"mosquito_risk":0,"arthritis_risk":5,"migraine_risk":7,"frizz_risk":0,"updated_at":"2026-04-06T20:22:30.199953+05:30"},{"city":"Hospet","state":"Karnataka","latitude":15.2689,"longitude":76.3909,"temp":32.0,"humidity":29,"rain":0.0,"pressure":956.3,"uv_index":9.25,"wind_gusts":31.0,"aqi":96,"pm10":11.0,"pm2_5":8.6,"mosquito_risk":0,"arthritis_risk":5,"migraine_risk":7,"frizz_risk":0,"updated_at":"2026-04-06T20:22:30.199959+05:30"},{"city":"Tirupur","state":"Tamil Nadu","latitude":11.1085,"longitude":77.3411,"temp":29.2,"humidity":61,"rain":0.0,"pressure":976.0,"uv_index":9.15,"wind_gusts":45.4,"aqi":96,"pm10":25.2,"pm2_5":22.1,"mosquito_risk":7,"arthritis_risk":5,"migraine_risk":7,"frizz_risk":1,"updated_at":"2026-04-06T20:22:30.199966+05:30"},{"city":"Alappuzha","state":"Kerala","latitude":9.4981,"longitude":76.3388,"temp":29.8,"humidity":75,"rain":0.0,"pressure":1010.8,"uv_index":9.2,"wind_gusts":33.8,"aqi":68,"pm10":38.6,"pm2_5":24.3,"mosquito_risk":7,"arthritis_risk":0,"migraine_risk":4,"frizz_risk":1,"updated_at":"2026-04-06T20:22:30.199973+05:30"},{"city":"Munnar","state":"Kerala","latitude":10.0889,"longitude":77.0595,"temp":21.2,"humidity":99,"rain":0.0,"pressure":858.8,"uv_index":8.45,"wind_gusts":33.5,"aqi":62,"pm10":23.9,"pm2_5":19.7,"mosquito_risk":3,"arthritis_risk":5,"migraine_risk":7,"frizz_risk":1,"updated_at":"2026-04-06T20:22:30.199981+05:30"},{"city":"Silchar","state":"Assam","latitude":24.8333,"longitude":92.7789,"temp":26.3,"humidity":78,"rain":0.0,"pressure":1006.4,"uv_index":8.5,"wind_gusts":19.1,"aqi":154,"pm10":81.3,"pm2_5":73.1,"mosquito_risk":7,"arthritis_risk":5,"migraine_risk":4,"frizz_risk":1,"updated_at":"2026-04-06T20:22:30.199987+05:30"},{"city":"Dibrugarh","state":"Assam","latitude":27.4728,"longitude":94.912,"temp":23.5,"humidity":82,"rain":0.0,"pressure":996.7,"uv_index":8.3,"wind_gusts":38.2,"aqi":96,"pm10":29.9,"pm2_5":27.4,"mosquito_risk":3,"arthritis_risk":5,"migraine_risk":7,"frizz_risk":1,"updated_at":"2026-04-06T20:22:30.199993+05:30"}]