[{"city":"Delhi","state":"Delhi","latitude":28.6139,"longitude":77.209,"temp":33.8,"humidity":49,"rain":0.0,"pressure":979.4,"uv_index":7.7,"wind_gusts":36.4,"aqi":248,"pm10":596.0,"pm2_5":130.9,"no2":19.9,"co":431.0,"o3":100.0,"so2":15.3,"mosquito_risk":0,"arthritis_risk":5,"migraine_risk":7,"frizz_risk":1,"updated_at":"2026-07-16T09:39:45.968147+05:30"},{"city":"Mumbai","state":"Maharashtra","latitude":19.076,"longitude":72.8777,"temp":27.4,"humidity":79,"rain":0.1,"pressure":1008.8,"uv_index":7.45,"wind_gusts":35.6,"aqi":68,"pm10":35.7,"pm2_5":17.5,"no2":10.3,"co":245.0,"o3":52.0,"so2":12.7,"mosquito_risk":10,"arthritis_risk":0,"migraine_risk":4,"frizz_risk":1,"updated_at":"2026-07-16T09:39:45.968193+05:30"},{"city":"Bangalore","state":"Karnataka","latitude":12.9716,"longitude":77.5946,"temp":25.0,"humidity":57,"rain":0.0,"pressure":913.7,"uv_index":8.7,"wind_gusts":42.8,"aqi":56,"pm10":39.3,"pm2_5":19.7,"no2":10.1,"co":351.0,"o3":58.0,"so2":6.1,"mosquito_risk":4,"arthritis_risk":5,"migraine_risk":7,"frizz_risk":0,"updated_at":"2026-07-16T09:39:45.968208+05:30"},{"city":"Hyderabad","state":"Telangana","latitude":17.385,"longitude":78.4867,"temp":29.1,"humidity":58,"rain":0.0,"pressure":953.5,"uv_index":6.55,"wind_gusts":47.5,"aqi":66,"pm10":21.0,"pm2_5":12.0,"no2":4.7,"co":272.0,"o3":64.0,"so2":4.5,"mosquito_risk":4,"arthritis_risk":5,"migraine_risk":7,"frizz_risk":1,"updated_at":"2026-07-16T09:39:45.968217+05:30"},{"city":"Chennai","state":"Tamil Nadu","latitude":13.0827,"longitude":80.2707,"temp":33.2,"humidity":42,"rain":0.0,"pressure":1007.3,"uv_index":8.2,"wind_gusts":42.5,"aqi":79,"pm10":29.6,"pm2_5":21.5,"no2":14.6,"co":311.0,"o3":82.0,"so2":12.2,"mosquito_risk":0,"arthritis_risk":5,"migraine_risk":4,"frizz_risk":1,"updated_at":"2026-07-16T09:39:45.968226+05:30"},{"city":"Kolkata","state":"West Bengal","latitude":22.5726,"longitude":88.3639,"temp":30.1,"humidity":79,"rain":0.0,"pressure":999.4,"uv_index":7.2,"wind_gusts":34.6,"aqi":65,"pm10":20.1,"pm2_5":15.3,"no2":4.4,"co":313.0,"o3":106.0,"so2":8.3,"mosquito_risk":3,"arthritis_risk":5,"migraine_risk":7,"frizz_risk":1,"updated_at":"2026-07-16T09:39:45.968234+05:30"},{"city":"Pune","state":"Maharashtra","latitude":18.5204,"longitude":73.8567,"temp":26.4,"humidity":70,"rain":0.0,"pressure":948.5,"uv_index":8.1,"wind_gusts":38.9,"aqi":51,"pm10":11.4,"pm2_5":5.9,"no2":4.6,"co":159.0,"o3":51.0,"so2":5.3,"mosquito_risk":7,"arthritis_risk":5,"migraine_risk":7,"frizz_risk":1,"updated_at":"2026-07-16T09:39:45.968241+05:30"},{"city":"Ahmedabad","state":"Gujarat","latitude":23.0225,"longitude":72.5714,"temp":30.2,"humidity":69,"rain":0.0,"pressure":1001.2,"uv_index":7.0,"wind_gusts":38.5,"aqi":79,"pm10":49.4,"pm2_5":23.5,"no2":5.3,"co":173.0,"o3":50.0,"so2":6.2,"mosquito_risk":3,"arthritis_risk":5,"migraine_risk":4,"frizz_risk":1,"updated_at":"2026-07-16T09:39:45.968248+05:30"},{"city":"Jaipur","state":"Rajasthan","latitude":26.9124,"longitude":75.7873,"temp":32.1,"humidity":51,"rain":0.0,"pressure":958.1,"uv_index":8.2,"wind_gusts":38.9,"aqi":180,"pm10":607.2,"pm2_5":99.0,"no2":4.8,"co":181.0,"o3":75.0,"so2":4.6,"mosquito_risk":0,"arthritis_risk":5,"migraine_risk":7,"frizz_risk":1,"updated_at":"2026-07-16T09:39:45.968255+05:30"},{"city":"Lucknow","state":"Uttar Pradesh","latitude":26.8467,"longitude":80.9462,"temp":33.1,"humidity":61,"rain":0.0,"pressure":989.5,"uv_index":7.55,"wind_gusts":23.8,"aqi":164,"pm10":255.2,"pm2_5":93.8,"no2":9.7,"co":379.0,"o3":114.0,"so2":11.8,"mosquito_risk":3,"arthritis_risk":5,"migraine_risk":7,"frizz_risk":1,"updated_at":"2026-07-16T09:39:45.968265+05:30"},{"city":"Kanpur","state":"Uttar Pradesh","latitude":26.4499,"longitude":80.3319,"temp":33.3,"humidity":56,"rain":0.0,"pressure":988.2,"uv_index":7.6,"wind_gusts":32.0,"aqi":160,"pm10":244.9,"pm2_5":82.7,"no2":9.0,"co":220.0,"o3":105.0,"so2":9.8,"mosquito_risk":0,"arthritis_risk":5,"migraine_risk":7,"frizz_risk":1,"updated_at":"2026-07-16T09:39:45.968272+05:30"},{"city":"Chandigarh","state":"Chandigarh","latitude":30.7333,"longitude":76.7794,"temp":31.6,"humidity":66,"rain":0.0,"pressure":965.3,"uv_index":7.7,"wind_gusts":29.9,"aqi":159,"pm10":99.0,"pm2_5":58.7,"no2":7.9,"co":774.0,"o3":180.0,"so2":18.6,"mosquito_risk":3,"arthritis_risk":5,"migraine_risk":7,"frizz_risk":1,"updated_at":"2026-07-16T09:39:45.968279+05:30"},{"city":"Srinagar","state":"Jammu and Kashmir","latitude":34.0837,"longitude":74.7973,"temp":24.6,"humidity":60,"rain":0.0,"pressure":841.8,"uv_index":9.0,"wind_gusts":15.8,"aqi":92,"pm10":32.2,"pm2_5":21.9,"no2":5.3,"co":497.0,"o3":154.0,"so2":6.7,"mosquito_risk":0,"arthritis_risk":5,"migraine_risk":7,"frizz_risk":1,"updated_at":"2026-07-16T09:39:45.968286+05:30"},{"city":"Jammu","state":"Jammu and Kashmir","latitude":32.7266,"longitude":74.857,"temp":31.5,"humidity":62,"rain":0.0,"pressure":968.7,"uv_index":8.55,"wind_gusts":21.2,"aqi":153,"pm10":52.9,"pm2_5":40.2,"no2":7.5,"co":409.0,"o3":176.0,"so2":7.1,"mosquito_risk":3,"arthritis_risk":5,"migraine_risk":7,"frizz_risk":1,"updated_at":"2026-07-16T09:39:45.968293+05:30"},{"city":"Amritsar","state":"Punjab","latitude":31.634,"longitude":74.8723,"temp":31.9,"humidity":65,"rain":0.0,"pressure":976.7,"uv_index":7.65,"wind_gusts":21.2,"aqi":175,"pm10":98.3,"pm2_5":68.9,"no2":9.6,"co":699.0,"o3":165.0,"so2":11.7,"mosquito_risk":3,"arthritis_risk":5,"migraine_risk":7,"frizz_risk":1,"updated_at":"2026-07-16T09:39:45.968299+05:30"},{"city":"Ludhiana","state":"Punjab","latitude":30.901,"longitude":75.8573,"temp":32.9,"humidity":59,"rain":0.0,"pressure":974.8,"uv_index":7.95,"wind_gusts":29.9,"aqi":178,"pm10":193.2,"pm2_5":92.9,"no2":17.4,"co":778.0,"o3":125.0,"so2":10.5,"mosquito_risk":0,"arthritis_risk":5,"migraine_risk":7,"frizz_risk":1,"updated_at":"2026-07-16T09:39:45.968305+05:30"},{"city":"Jalandhar","state":"Punjab","latitude":31.326,"longitude":75.5762,"temp":32.3,"humidity":63,"rain":0.0,"pressure":975.8,"uv_index":8.2,"wind_gusts":26.3,"aqi":187,"pm10":167.6,"pm2_5":98.3,"no2":27.0,"co":755.0,"o3":137.0,"so2":9.2,"mosquito_risk":3,"arthritis_risk":5,"migraine_risk":7,"frizz_risk":1,"updated_at":"2026-07-16T09:39:45.968312+05:30"},{"city":"Dehradun","state":"Uttarakhand","latitude":30.6284,"longitude":78.0322,"temp":23.4,"humidity":71,"rain":0.0,"pressure":830.9,"uv_index":7.05,"wind_gusts":29.9,"aqi":78,"pm10":24.3,"pm2_5":15.0,"no2":1.9,"co":302.0,"o3":119.0,"so2":1.4,"mosquito_risk":3,"arthritis_risk":5,"migraine_risk":7,"frizz_risk":1,"updated_at":"2026-07-16T09:39:45.968318+05:30"},{"city":"Shimla","state":"Himachal Pradesh","latitude":31.1048,"longitude":77.1734,"temp":21.7,"humidity":57,"rain":0.0,"pressure":786.2,"uv_index":8.25,"wind_gusts":39.2,"aqi":103,"pm10":46.6,"pm2_5":25.9,"no2":1.3,"co":248.0,"o3":150.0,"so2":3.9,"mosquito_risk":0,"arthritis_risk":5,"migraine_risk":7,"frizz_risk":0,"updated_at":"2026-07-16T09:39:45.968325+05:30"},{"city":"Manali","state":"Himachal Pradesh","latitude":32.2396,"longitude":77.1887,"temp":25.1,"humidity":52,"rain":0.0,"pressure":820.1,"uv_index":9.5,"wind_gusts":33.5,"aqi":47,"pm10":4.3,"pm2_5":2.4,"no2":4.7,"co":177.0,"o3":101.0,"so2":0.4,"mosquito_risk":4,"arthritis_risk":5,"migraine_risk":7,"frizz_risk":0,"updated_at":"2026-07-16T09:39:45.968337+05:30"},{"city":"Gurgaon","state":"Haryana","latitude":28.4595,"longitude":77.0266,"temp":33.5,"humidity":50,"rain":0.0,"pressure":978.0,"uv_index":7.75,"wind_gusts":35.3,"aqi":271,"pm10":802.8,"pm2_5":150.9,"no2":16.9,"co":282.0,"o3":84.0,"so2":12.4,"mosquito_risk":0,"arthritis_risk":5,"migraine_risk":7,"frizz_risk":1,"updated_at":"2026-07-16T09:39:45.968344+05:30"},{"city":"Noida","state":"Uttar Pradesh","latitude":28.5355,"longitude":77.391,"temp":33.6,"humidity":52,"rain":0.0,"pressure":980.7,"uv_index":7.7,"wind_gusts":27.4,"aqi":271,"pm10":802.8,"pm2_5":150.9,"no2":16.9,"co":461.0,"o3":84.0,"so2":12.4,"mosquito_risk":0,"arthritis_risk":5,"migraine_risk":7,"frizz_risk":1,"updated_at":"2026-07-16T09:39:45.968350+05:30"},{"city":"Ghaziabad","state":"Uttar Pradesh","latitude":28.6692,"longitude":77.4538,"temp":33.6,"humidity":51,"rain":0.0,"pressure":978.9,"uv_index":7.65,"wind_gusts":32.4,"aqi":191,"pm10":379.0,"pm2_5":112.0,"no2":18.9,"co":373.0,"o3":124.0,"so2":21.2,"mosquito_risk":0,"arthritis_risk":5,"migraine_risk":7,"frizz_risk":1,"updated_at":"2026-07-16T09:39:45.968360+05:30"},{"city":"Faridabad","state":"Haryana","latitude":28.4089,"longitude":77.3178,"temp":33.7,"humidity":49,"rain":0.0,"pressure":980.1,"uv_index":7.7,"wind_gusts":36.7,"aqi":271,"pm10":802.8,"pm2_5":150.9,"no2":16.9,"co":320.0,"o3":84.0,"so2":12.4,"mosquito_risk":0,"arthritis_risk":5,"migraine_risk":7,"frizz_risk":1,"updated_at":"2026-07-16T09:39:45.968370+05:30"},{"city":"Meerut","state":"Uttar Pradesh","latitude":28.9845,"longitude":77.7064,"temp":32.6,"humidity":65,"rain":0.0,"pressure":977.6,"uv_index":7.6,"wind_gusts":36.0,"aqi":191,"pm10":379.0,"pm2_5":112.0,"no2":18.9,"co":611.0,"o3":124.0,"so2":21.2,"mosquito_risk":3,"arthritis_risk":5,"migraine_risk":7,"frizz_risk":1,"updated_at":"2026-07-16T09:39:45.968377+05:30"},{"city":"Agra","state":"Uttar Pradesh","latitude":27.1767,"longitude":78.0081,"temp":33.3,"humidity":56,"rain":0.0,"pressure":984.5,"uv_index":6.15,"wind_gusts":33.8,"aqi":153,"pm10":110.4,"pm2_5":48.9,"no2":10.1,"co":237.0,"o3":100.0,"so2":7.2,"mosquito_risk":0,"arthritis_risk":5,"migraine_risk":7,"frizz_risk":1,"updated_at":"2026-07-16T09:39:45.968383+05:30"},{"city":"Varanasi","state":"Uttar Pradesh","latitude":25.3176,"longitude":82.9739,"temp":32.7,"humidity":70,"rain":0.0,"pressure":993.5,"uv_index":6.7,"wind_gusts":26.6,"aqi":184,"pm10":147.6,"pm2_5":73.1,"no2":11.4,"co":477.0,"o3":117.0,"so2":14.4,"mosquito_risk":3,"arthritis_risk":5,"migraine_risk":7,"frizz_risk":1,"updated_at":"2026-07-16T09:39:45.968390+05:30"},{"city":"Prayagraj","state":"Uttar Pradesh","latitude":25.4358,"longitude":81.8463,"temp":33.1,"humidity":61,"rain":0.0,"pressure":992.0,"uv_index":6.45,"wind_gusts":28.8,"aqi":171,"pm10":143.0,"pm2_5":64.3,"no2":9.0,"co":260.0,"o3":110.0,"so2":10.0,"mosquito_risk":3,"arthritis_risk":5,"migraine_risk":7,"frizz_risk":1,"updated_at":"2026-07-16T09:39:45.968397+05:30"},{"city":"Gorakhpur","state":"Uttar Pradesh","latitude":26.7606,"longitude":83.3732,"temp":30.0,"humidity":80,"rain":0.0,"pressure":993.8,"uv_index":7.05,"wind_gusts":24.1,"aqi":157,"pm10":38.8,"pm2_5":30.7,"no2":6.2,"co":449.0,"o3":124.0,"so2":7.5,"mosquito_risk":7,"arthritis_risk":5,"migraine_risk":7,"frizz_risk":1,"updated_at":"2026-07-16T09:39:45.968403+05:30"},{"city":"Bareilly","state":"Uttar Pradesh","latitude":28.367,"longitude":79.4304,"temp":31.9,"humidity":76,"rain":0.0,"pressure":983.0,"uv_index":7.75,"wind_gusts":30.6,"aqi":178,"pm10":177.0,"pm2_5":87.1,"no2":6.8,"co":481.0,"o3":155.0,"so2":19.9,"mosquito_risk":3,"arthritis_risk":5,"migraine_risk":7,"frizz_risk":1,"updated_at":"2026-07-16T09:39:45.968412+05:30"},{"city":"Aligarh","state":"Uttar Pradesh","latitude":27.8974,"longitude":78.088,"temp":32.8,"humidity":59,"rain":0.0,"pressure":982.0,"uv_index":7.6,"wind_gusts":30.6,"aqi":171,"pm10":139.7,"pm2_5":58.6,"no2":11.4,"co":253.0,"o3":93.0,"so2":8.4,"mosquito_risk":0,"arthritis_risk":5,"migraine_risk":7,"frizz_risk":1,"updated_at":"2026-07-16T09:39:45.968418+05:30"},{"city":"Moradabad","state":"Uttar Pradesh","latitude":28.8386,"longitude":78.7733,"temp":32.3,"humidity":74,"rain":0.0,"pressure":979.8,"uv_index":7.8,"wind_gusts":35.6,"aqi":190,"pm10":311.1,"pm2_5":121.5,"no2":11.7,"co":518.0,"o3":153.0,"so2":25.5,"mosquito_risk":3,"arthritis_risk":5,"migraine_risk":7,"frizz_risk":1,"updated_at":"2026-07-16T09:39:45.968425+05:30"},{"city":"Saharanpur","state":"Uttar Pradesh","latitude":29.9637,"longitude":77.546,"temp":31.6,"humidity":76,"rain":0.0,"pressure":972.0,"uv_index":7.4,"wind_gusts":32.8,"aqi":172,"pm10":79.4,"pm2_5":53.3,"no2":5.9,"co":732.0,"o3":171.0,"so2":14.7,"mosquito_risk":3,"arthritis_risk":5,"migraine_risk":7,"frizz_risk":1,"updated_at":"2026-07-16T09:39:45.968431+05:30"},{"city":"Jhansi","state":"Uttar Pradesh","latitude":25.4484,"longitude":78.5685,"temp":32.0,"humidity":60,"rain":0.0,"pressure":975.6,"uv_index":6.05,"wind_gusts":34.6,"aqi":118,"pm10":39.5,"pm2_5":22.6,"no2":4.0,"co":164.0,"o3":85.0,"so2":6.1,"mosquito_risk":0,"arthritis_risk":5,"migraine_risk":7,"frizz_risk":1,"updated_at":"2026-07-16T09:39:49.341831+05:30"},{"city":"Surat","state":"Gujarat","latitude":21.1702,"longitude":72.8311,"temp":27.4,"humidity":83,"rain":0.0,"pressure":1006.6,"uv_index":7.35,"wind_gusts":42.8,"aqi":75,"pm10":41.9,"pm2_5":25.4,"no2":20.6,"co":288.0,"o3":34.0,"so2":53.2,"mosquito_risk":7,"arthritis_risk":5,"migraine_risk":4,"frizz_risk":1,"updated_at":"2026-07-16T09:39:49.341861+05:30"},{"city":"Vadodara","state":"Gujarat","latitude":22.3072,"longitude":73.1812,"temp":26.8,"humidity":86,"rain":0.2,"pressure":1004.2,"uv_index":5.45,"wind_gusts":44.6,"aqi":69,"pm10":39.2,"pm2_5":19.8,"no2":7.6,"co":198.0,"o3":47.0,"so2":11.2,"mosquito_risk":10,"arthritis_risk":5,"migraine_risk":0,"frizz_risk":1,"updated_at":"2026-07-16T09:39:49.341872+05:30"},{"city":"Rajkot","state":"Gujarat","latitude":22.3039,"longitude":70.8022,"temp":29.5,"humidity":71,"rain":0.0,"pressure":992.9,"uv_index":6.75,"wind_gusts":34.6,"aqi":69,"pm10":25.1,"pm2_5":11.3,"no2":2.8,"co":117.0,"o3":50.0,"so2":3.5,"mosquito_risk":7,"arthritis_risk":5,"migraine_risk":7,"frizz_risk":1,"updated_at":"2026-07-16T09:39:49.341880+05:30"},{"city":"Thane","state":"Maharashtra","latitude":19.2183,"longitude":72.9781,"temp":27.8,"humidity":80,"rain":0.1,"pressure":1008.0,"uv_index":6.25,"wind_gusts":35.6,"aqi":68,"pm10":35.7,"pm2_5":17.5,"no2":10.3,"co":213.0,"o3":52.0,"so2":12.7,"mosquito_risk":10,"arthritis_risk":0,"migraine_risk":4,"frizz_risk":1,"updated_at":"2026-07-16T09:39:49.341888+05:30"},{"city":"Nagpur","state":"Maharashtra","latitude":21.1458,"longitude":79.0882,"temp":30.8,"humidity":59,"rain":0.0,"pressure":971.9,"uv_index":8.85,"wind_gusts":41.0,"aqi":93,"pm10":26.5,"pm2_5":16.6,"no2":7.7,"co":181.0,"o3":78.0,"so2":17.1,"mosquito_risk":0,"arthritis_risk":5,"migraine_risk":7,"frizz_risk":1,"updated_at":"2026-07-16T09:39:49.341896+05:30"},{"city":"Nashik","state":"Maharashtra","latitude":19.9975,"longitude":73.7898,"temp":25.5,"humidity":78,"rain":0.0,"pressure":945.6,"uv_index":8.1,"wind_gusts":41.4,"aqi":54,"pm10":15.5,"pm2_5":8.4,"no2":5.2,"co":144.0,"o3":51.0,"so2":7.9,"mosquito_risk":7,"arthritis_risk":5,"migraine_risk":7,"frizz_risk":1,"updated_at":"2026-07-16T09:39:49.341903+05:30"},{"city":"Aurangabad","state":"Maharashtra","latitude":19.8762,"longitude":75.3433,"temp":26.7,"humidity":69,"rain":0.0,"pressure":944.6,"uv_index":8.9,"wind_gusts":43.6,"aqi":56,"pm10":12.3,"pm2_5":7.3,"no2":3.8,"co":139.0,"o3":54.0,"so2":9.1,"mosquito_risk":7,"arthritis_risk":5,"migraine_risk":7,"frizz_risk":1,"updated_at":"2026-07-16T09:39:49.341910+05:30"},{"city":"Solapur","state":"Maharashtra","latitude":17.6599,"longitude":75.9064,"temp":28.4,"humidity":59,"rain":0.0,"pressure":958.4,"uv_index":8.7,"wind_gusts":51.5,"aqi":57,"pm10":16.4,"pm2_5":8.8,"no2":2.2,"co":125.0,"o3":58.0,"so2":2.4,"mosquito_risk":4,"arthritis_risk":5,"migraine_risk":7,"frizz_risk":1,"updated_at":"2026-07-16T09:39:49.341917+05:30"},{"city":"Kolhapur","state":"Maharashtra","latitude":16.705,"longitude":74.2433,"temp":25.3,"humidity":77,"rain":0.0,"pressure":948.9,"uv_index":7.4,"wind_gusts":42.1,"aqi":52,"pm10":12.2,"pm2_5":6.4,"no2":3.4,"co":146.0,"o3":48.0,"so2":2.1,"mosquito_risk":7,"arthritis_risk":5,"migraine_risk":7,"frizz_risk":1,"updated_at":"2026-07-16T09:39:49.341924+05:30"},{"city":"Goa","state":"Goa","latitude":15.2993,"longitude":74.124,"temp":27.7,"humidity":82,"rain":0.0,"pressure":999.7,"uv_index":7.75,"wind_gusts":32.0,"aqi":74,"pm10":35.7,"pm2_5":15.9,"no2":2.2,"co":165.0,"o3":53.0,"so2":1.7,"mosquito_risk":7,"arthritis_risk":5,"migraine_risk":7,"frizz_risk":1,"updated_at":"2026-07-16T09:39:49.341931+05:30"},{"city":"Jodhpur","state":"Rajasthan","latitude":26.2389,"longitude":73.0243,"temp":31.5,"humidity":55,"rain":0.0,"pressure":981.4,"uv_index":8.4,"wind_gusts":36.0,"aqi":110,"pm10":246.8,"pm2_5":63.6,"no2":2.2,"co":120.0,"o3":57.0,"so2":3.7,"mosquito_risk":0,"arthritis_risk":5,"migraine_risk":7,"frizz_risk":1,"updated_at":"2026-07-16T09:39:49.341938+05:30"},{"city":"Udaipur","state":"Rajasthan","latitude":24.5854,"longitude":73.7125,"temp":27.5,"humidity":68,"rain":0.0,"pressure":945.8,"uv_index":8.25,"wind_gusts":31.3,"aqi":72,"pm10":56.1,"pm2_5":26.5,"no2":3.1,"co":113.0,"o3":61.0,"so2":5.0,"mosquito_risk":7,"arthritis_risk":5,"migraine_risk":7,"frizz_risk":1,"updated_at":"2026-07-16T09:39:49.341944+05:30"},{"city":"Kota","state":"Rajasthan","latitude":25.2138,"longitude":75.8648,"temp":32.0,"humidity":56,"rain":0.0,"pressure":977.2,"uv_index":8.3,"wind_gusts":33.5,"aqi":91,"pm10":53.2,"pm2_5":28.3,"no2":5.3,"co":173.0,"o3":75.0,"so2":10.7,"mosquito_risk":0,"arthritis_risk":5,"migraine_risk":7,"frizz_risk":1,"updated_at":"2026-07-16T09:39:49.341951+05:30"},{"city":"Bikaner","state":"Rajasthan","latitude":28.0229,"longitude":73.3119,"temp":33.9,"humidity":46,"rain":0.0,"pressure":979.1,"uv_index":8.45,"wind_gusts":36.4,"aqi":135,"pm10":219.3,"pm2_5":71.0,"no2":1.5,"co":121.0,"o3":60.0,"so2":3.7,"mosquito_risk":0,"arthritis_risk":5,"migraine_risk":7,"frizz_risk":1,"updated_at":"2026-07-16T09:39:49.341958+05:30"},{"city":"Ajmer","state":"Rajasthan","latitude":26.4499,"longitude":74.6399,"temp":29.1,"humidity":64,"rain":0.0,"pressure":953.4,"uv_index":8.35,"wind_gusts":42.5,"aqi":86,"pm10":78.9,"pm2_5":32.9,"no2":3.3,"co":139.0,"o3":68.0,"so2":3.9,"mosquito_risk":7,"arthritis_risk":5,"migraine_risk":7,"frizz_risk":1,"updated_at":"2026-07-16T09:39:49.341965+05:30"},{"city":"Gwalior","state":"Madhya Pradesh","latitude":26.2183,"longitude":78.1828,"temp":32.0,"humidity":61,"rain":0.0,"pressure":980.4,"uv_index":8.15,"wind_gusts":37.4,"aqi":134,"pm10":97.3,"pm2_5":41.0,"no2":6.9,"co":188.0,"o3":76.0,"so2":4.2,"mosquito_risk":3,"arthritis_risk":5,"migraine_risk":7,"frizz_risk":1,"updated_at":"2026-07-16T09:39:49.341972+05:30"},{"city":"Indore","state":"Madhya Pradesh","latitude":22.7196,"longitude":75.8577,"temp":27.8,"humidity":66,"rain":0.0,"pressure":947.9,"uv_index":7.7,"wind_gusts":38.5,"aqi":68,"pm10":32.6,"pm2_5":17.9,"no2":5.1,"co":209.0,"o3":59.0,"so2":8.3,"mosquito_risk":7,"arthritis_risk":5,"migraine_risk":7,"frizz_risk":1,"updated_at":"2026-07-16T09:39:49.341979+05:30"},{"city":"Bhopal","state":"Madhya Pradesh","latitude":23.2599,"longitude":77.4126,"temp":28.7,"humidity":69,"rain":0.0,"pressure":952.9,"uv_index":8.6,"wind_gusts":36.4,"aqi":90,"pm10":41.2,"pm2_5":21.7,"no2":3.2,"co":204.0,"o3":81.0,"so2":7.9,"mosquito_risk":7,"arthritis_risk":5,"migraine_risk":7,"frizz_risk":1,"updated_at":"2026-07-16T09:39:49.341986+05:30"},{"city":"Jabalpur","state":"Madhya Pradesh","latitude":23.1815,"longitude":79.9864,"temp":30.2,"humidity":65,"rain":0.0,"pressure":959.7,"uv_index":8.7,"wind_gusts":37.4,"aqi":117,"pm10":60.8,"pm2_5":31.7,"no2":4.4,"co":246.0,"o3":85.0,"so2":5.4,"mosquito_risk":3,"arthritis_risk":5,"migraine_risk":7,"frizz_risk":1,"updated_at":"2026-07-16T09:39:49.341993+05:30"},{"city":"Ujjain","state":"Madhya Pradesh","latitude":23.1765,"longitude":75.7885,"temp":27.8,"humidity":70,"rain":0.0,"pressure":953.4,"uv_index":8.4,"wind_gusts":36.4,"aqi":68,"pm10":35.0,"pm2_5":19.3,"no2":4.1,"co":166.0,"o3":57.0,"so2":9.2,"mosquito_risk":7,"arthritis_risk":5,"migraine_risk":7,"frizz_risk":1,"updated_at":"2026-07-16T09:39:49.342000+05:30"},{"city":"Visakhapatnam","state":"Andhra Pradesh","latitude":17.6868,"longitude":83.2185,"temp":31.2,"humidity":58,"rain":0.0,"pressure":1000.4,"uv_index":3.35,"wind_gusts":30.2,"aqi":104,"pm10":47.3,"pm2_5":35.4,"no2":26.9,"co":439.0,"o3":62.0,"so2":51.5,"mosquito_risk":0,"arthritis_risk":5,"migraine_risk":0,"frizz_risk":1,"updated_at":"2026-07-16T09:39:49.342007+05:30"},{"city":"Vijayawada","state":"Andhra Pradesh","latitude":16.5062,"longitude":80.648,"temp":32.0,"humidity":54,"rain":0.0,"pressure":1001.8,"uv_index":4.1,"wind_gusts":37.8,"aqi":76,"pm10":27.9,"pm2_5":17.7,"no2":4.3,"co":156.0,"o3":84.0,"so2":5.8,"mosquito_risk":0,"arthritis_risk":5,"migraine_risk":0,"frizz_risk":1,"updated_at":"2026-07-16T09:39:49.342014+05:30"},{"city":"Guntur","state":"Andhra Pradesh","latitude":16.3067,"longitude":80.4365,"temp":32.8,"humidity":50,"rain":0.0,"pressure":1003.0,"uv_index":5.3,"wind_gusts":43.9,"aqi":73,"pm10":26.4,"pm2_5":16.5,"no2":3.6,"co":157.0,"o3":82.0,"so2":5.2,"mosquito_risk":0,"arthritis_risk":5,"migraine_risk":0,"frizz_risk":1,"updated_at":"2026-07-16T09:39:49.342021+05:30"},{"city":"Nellore","state":"Andhra Pradesh","latitude":14.4426,"longitude":79.9865,"temp":33.6,"humidity":45,"rain":0.0,"pressure":1005.5,"uv_index":8.0,"wind_gusts":41.0,"aqi":65,"pm10":28.4,"pm2_5":17.3,"no2":4.4,"co":126.0,"o3":75.0,"so2":7.0,"mosquito_risk":0,"arthritis_risk":5,"migraine_risk":4,"frizz_risk":1,"updated_at":"2026-07-16T09:39:49.342028+05:30"},{"city":"Kurnool","state":"Andhra Pradesh","latitude":15.8281,"longitude":78.0373,"temp":31.2,"humidity":51,"rain":0.0,"pressure":978.0,"uv_index":7.9,"wind_gusts":56.5,"aqi":69,"pm10":19.3,"pm2_5":10.6,"no2":3.7,"co":125.0,"o3":59.0,"so2":6.4,"mosquito_risk":0,"arthritis_risk":5,"migraine_risk":7,"frizz_risk":1,"updated_at":"2026-07-16T09:39:49.342036+05:30"},{"city":"Kakinada","state":"Andhra Pradesh","latitude":16.9891,"longitude":82.2475,"temp":31.1,"humidity":60,"rain":0.0,"pressure":1005.1,"uv_index":2.0,"wind_gusts":44.6,"aqi":83,"pm10":32.8,"pm2_5":21.7,"no2":6.6,"co":243.0,"o3":90.0,"so2":6.5,"mosquito_risk":0,"arthritis_risk":5,"migraine_risk":0,"frizz_risk":1,"updated_at":"2026-07-16T09:39:49.342044+05:30"},{"city":"Tirupati","state":"Andhra Pradesh","latitude":13.6288,"longitude":79.4192,"temp":32.8,"humidity":39,"rain":0.0,"pressure":991.4,"uv_index":7.65,"wind_gusts":31.3,"aqi":74,"pm10":37.6,"pm2_5":18.3,"no2":2.1,"co":126.0,"o3":77.0,"so2":1.7,"mosquito_risk":0,"arthritis_risk":5,"migraine_risk":7,"frizz_risk":1,"updated_at":"2026-07-16T09:39:49.342050+05:30"},{"city":"Warangal","state":"Telangana","latitude":17.9689,"longitude":79.5941,"temp":29.9,"humidity":62,"rain":0.0,"pressure":978.3,"uv_index":1.95,"wind_gusts":37.4,"aqi":69,"pm10":27.8,"pm2_5":16.8,"no2":3.8,"co":173.0,"o3":75.0,"so2":5.3,"mosquito_risk":7,"arthritis_risk":5,"migraine_risk":3,"frizz_risk":1,"updated_at":"2026-07-16T09:39:49.342057+05:30"},{"city":"Nizamabad","state":"Telangana","latitude":18.6725,"longitude":78.0941,"temp":28.6,"humidity":67,"rain":0.0,"pressure":965.1,"uv_index":8.6,"wind_gusts":39.2,"aqi":65,"pm10":29.9,"pm2_5":15.2,"no2":3.2,"co":143.0,"o3":65.0,"so2":5.5,"mosquito_risk":7,"arthritis_risk":5,"migraine_risk":7,"frizz_risk":1,"updated_at":"2026-07-16T09:39:49.342063+05:30"},{"city":"Mysore","state":"Karnataka","latitude":12.2958,"longitude":76.6396,"temp":25.6,"humidity":65,"rain":0.0,"pressure":930.9,"uv_index":8.45,"wind_gusts":46.8,"aqi":57,"pm10":35.2,"pm2_5":16.4,"no2":5.3,"co":142.0,"o3":57.0,"so2":2.5,"mosquito_risk":7,"arthritis_risk":5,"migraine_risk":7,"frizz_risk":1,"updated_at":"2026-07-16T09:39:49.342070+05:30"},{"city":"Mangalore","state":"Karnataka","latitude":12.9141,"longitude":74.856,"temp":27.5,"humidity":80,"rain":0.0,"pressure":1009.8,"uv_index":7.75,"wind_gusts":37.8,"aqi":74,"pm10":32.2,"pm2_5":15.9,"no2":5.4,"co":153.0,"o3":51.0,"so2":4.2,"mosquito_risk":7,"arthritis_risk":0,"migraine_risk":4,"frizz_risk":1,"updated_at":"2026-07-16T09:39:49.342077+05:30"},{"city":"Hubli-Dharwad","state":"Karnataka","latitude":15.3647,"longitude":75.124,"temp":26.2,"humidity":68,"rain":0.0,"pressure":942.4,"uv_index":7.75,"wind_gusts":46.8,"aqi":54,"pm10":21.5,"pm2_5":9.3,"no2":2.5,"co":121.0,"o3":51.0,"so2":1.3,"mosquito_risk":7,"arthritis_risk":5,"migraine_risk":7,"frizz_risk":1,"updated_at":"2026-07-16T09:39:49.342084+05:30"},{"city":"Belgaum","state":"Karnataka","latitude":15.8497,"longitude":74.4977,"temp":24.4,"humidity":75,"rain":0.0,"pressure":927.0,"uv_index":7.85,"wind_gusts":43.9,"aqi":52,"pm10":16.4,"pm2_5":7.6,"no2":2.8,"co":120.0,"o3":49.0,"so2":1.9,"mosquito_risk":3,"arthritis_risk":5,"migraine_risk":7,"frizz_risk":1,"updated_at":"2026-07-16T09:39:52.723726+05:30"},{"city":"Coimbatore","state":"Tamil Nadu","latitude":11.0168,"longitude":76.9558,"temp":28.3,"humidity":65,"rain":0.0,"pressure":964.1,"uv_index":8.25,"wind_gusts":49.7,"aqi":59,"pm10":37.0,"pm2_5":17.1,"no2":2.9,"co":184.0,"o3":70.0,"so2":3.2,"mosquito_risk":7,"arthritis_risk":5,"migraine_risk":7,"frizz_risk":1,"updated_at":"2026-07-16T09:39:52.723757+05:30"},{"city":"Madurai","state":"Tamil Nadu","latitude":9.9252,"longitude":78.1198,"temp":32.0,"humidity":48,"rain":0.0,"pressure":994.5,"uv_index":7.9,"wind_gusts":49.0,"aqi":87,"pm10":40.0,"pm2_5":27.1,"no2":13.4,"co":165.0,"o3":82.0,"so2":7.6,"mosquito_risk":0,"arthritis_risk":5,"migraine_risk":7,"frizz_risk":1,"updated_at":"2026-07-16T09:39:52.723769+05:30"},{"city":"Trichy","state":"Tamil Nadu","latitude":10.7905,"longitude":78.7047,"temp":32.3,"humidity":49,"rain":0.0,"pressure":1000.9,"uv_index":7.65,"wind_gusts":45.7,"aqi":69,"pm10":31.2,"pm2_5":18.0,"no2":4.1,"co":153.0,"o3":66.0,"so2":4.4,"mosquito_risk":0,"arthritis_risk":5,"migraine_risk":4,"frizz_risk":1,"updated_at":"2026-07-16T09:39:52.723778+05:30"},{"city":"Salem","state":"Tamil Nadu","latitude":11.6643,"longitude":78.146,"temp":27.5,"humidity":71,"rain":0.0,"pressure":979.5,"uv_index":7.7,"wind_gusts":17.6,"aqi":77,"pm10":39.1,"pm2_5":25.8,"no2":10.4,"co":177.0,"o3":82.0,"so2":13.1,"mosquito_risk":7,"arthritis_risk":5,"migraine_risk":7,"frizz_risk":1,"updated_at":"2026-07-16T09:39:52.723787+05:30"},{"city":"Tirunelveli","state":"Tamil Nadu","latitude":8.7139,"longitude":77.7567,"temp":33.3,"humidity":43,"rain":0.0,"pressure":1004.9,"uv_index":7.9,"wind_gusts":43.9,"aqi":60,"pm10":34.0,"pm2_5":17.0,"no2":2.9,"co":138.0,"o3":65.0,"so2":2.1,"mosquito_risk":0,"arthritis_risk":5,"migraine_risk":4,"frizz_risk":1,"updated_at":"2026-07-16T09:39:52.723795+05:30"},{"city":"Vellore","state":"Tamil Nadu","latitude":12.9165,"longitude":79.1325,"temp":31.8,"humidity":45,"rain":0.0,"pressure":985.2,"uv_index":7.9,"wind_gusts":42.8,"aqi":71,"pm10":40.5,"pm2_5":21.0,"no2":4.8,"co":173.0,"o3":82.0,"so2":4.6,"mosquito_risk":0,"arthritis_risk":5,"migraine_risk":7,"frizz_risk":1,"updated_at":"2026-07-16T09:39:52.723803+05:30"},{"city":"Erode","state":"Tamil Nadu","latitude":11.341,"longitude":77.7172,"temp":30.9,"humidity":48,"rain":0.0,"pressure":991.2,"uv_index":7.5,"wind_gusts":41.8,"aqi":67,"pm10":34.9,"pm2_5":19.6,"no2":7.1,"co":187.0,"o3":68.0,"so2":3.5,"mosquito_risk":0,"arthritis_risk":5,"migraine_risk":7,"frizz_risk":1,"updated_at":"2026-07-16T09:39:52.723811+05:30"},{"city":"Kochi","state":"Kerala","latitude":9.9312,"longitude":76.2673,"temp":27.4,"humidity":80,"rain":0.1,"pressure":1012.2,"uv_index":8.15,"wind_gusts":33.5,"aqi":78,"pm10":39.2,"pm2_5":21.5,"no2":8.3,"co":153.0,"o3":59.0,"so2":5.3,"mosquito_risk":10,"arthritis_risk":0,"migraine_risk":4,"frizz_risk":1,"updated_at":"2026-07-16T09:39:52.723819+05:30"},{"city":"Thiruvananthapuram","state":"Kerala","latitude":8.5241,"longitude":76.9366,"temp":28.2,"humidity":77,"rain":0.0,"pressure":1011.2,"uv_index":7.45,"wind_gusts":42.8,"aqi":64,"pm10":33.4,"pm2_5":17.3,"no2":5.0,"co":219.0,"o3":57.0,"so2":2.7,"mosquito_risk":7,"arthritis_risk":0,"migraine_risk":4,"frizz_risk":1,"updated_at":"2026-07-16T09:39:52.723826+05:30"},{"city":"Kozhikode","state":"Kerala","latitude":11.2588,"longitude":75.7804,"temp":27.0,"humidity":85,"rain":0.0,"pressure":1011.3,"uv_index":7.7,"wind_gusts":33.8,"aqi":66,"pm10":36.3,"pm2_5":15.8,"no2":1.8,"co":156.0,"o3":59.0,"so2":2.3,"mosquito_risk":7,"arthritis_risk":0,"migraine_risk":4,"frizz_risk":1,"updated_at":"2026-07-16T09:39:52.723834+05:30"},{"city":"Thrissur","state":"Kerala","latitude":10.5276,"longitude":76.2144,"temp":27.9,"humidity":76,"rain":0.0,"pressure":1010.4,"uv_index":8.05,"wind_gusts":34.6,"aqi":73,"pm10":33.2,"pm2_5":16.9,"no2":3.0,"co":166.0,"o3":63.0,"so2":3.2,"mosquito_risk":7,"arthritis_risk":0,"migraine_risk":4,"frizz_risk":1,"updated_at":"2026-07-16T09:39:52.723842+05:30"},{"city":"Kannur","state":"Kerala","latitude":11.8745,"longitude":75.3704,"temp":27.6,"humidity":81,"rain":0.0,"pressure":1010.4,"uv_index":7.6,"wind_gusts":33.5,"aqi":70,"pm10":37.7,"pm2_5":17.9,"no2":5.1,"co":151.0,"o3":57.0,"so2":3.6,"mosquito_risk":7,"arthritis_risk":0,"migraine_risk":4,"frizz_risk":1,"updated_at":"2026-07-16T09:39:52.723850+05:30"},{"city":"Patna","state":"Bihar","latitude":25.5941,"longitude":85.1376,"temp":30.9,"humidity":77,"rain":0.0,"pressure":996.7,"uv_index":6.15,"wind_gusts":28.8,"aqi":156,"pm10":21.0,"pm2_5":20.7,"no2":7.7,"co":366.0,"o3":114.0,"so2":14.3,"mosquito_risk":3,"arthritis_risk":5,"migraine_risk":7,"frizz_risk":1,"updated_at":"2026-07-16T09:39:52.723858+05:30"},{"city":"Gaya","state":"Bihar","latitude":24.7914,"longitude":85.0002,"temp":30.9,"humidity":74,"rain":0.0,"pressure":990.0,"uv_index":8.15,"wind_gusts":23.4,"aqi":155,"pm10":29.5,"pm2_5":23.2,"no2":4.8,"co":275.0,"o3":108.0,"so2":7.7,"mosquito_risk":3,"arthritis_risk":5,"migraine_risk":7,"frizz_risk":1,"updated_at":"2026-07-16T09:39:52.723865+05:30"},{"city":"Muzaffarpur","state":"Bihar","latitude":26.1209,"longitude":85.3647,"temp":30.4,"humidity":80,"rain":0.0,"pressure":996.9,"uv_index":7.2,"wind_gusts":29.5,"aqi":151,"pm10":21.1,"pm2_5":20.8,"no2":7.2,"co":333.0,"o3":110.0,"so2":12.7,"mosquito_risk":3,"arthritis_risk":5,"migraine_risk":7,"frizz_risk":1,"updated_at":"2026-07-16T09:39:52.723872+05:30"},{"city":"Bhagalpur","state":"Bihar","latitude":25.2425,"longitude":87.0117,"temp":31.7,"humidity":70,"rain":0.0,"pressure":997.0,"uv_index":8.7,"wind_gusts":30.2,"aqi":104,"pm10":27.2,"pm2_5":20.0,"no2":7.6,"co":254.0,"o3":92.0,"so2":13.3,"mosquito_risk":3,"arthritis_risk":5,"migraine_risk":7,"frizz_risk":1,"updated_at":"2026-07-16T09:39:52.723880+05:30"},{"city":"Ranchi","state":"Jharkhand","latitude":23.3441,"longitude":85.3096,"temp":28.1,"humidity":74,"rain":0.0,"pressure":934.3,"uv_index":8.6,"wind_gusts":34.9,"aqi":115,"pm10":18.0,"pm2_5":15.5,"no2":6.2,"co":240.0,"o3":106.0,"so2":17.4,"mosquito_risk":7,"arthritis_risk":5,"migraine_risk":7,"frizz_risk":1,"updated_at":"2026-07-16T09:39:52.723887+05:30"},{"city":"Jamshedpur","state":"Jharkhand","latitude":22.8046,"longitude":86.2029,"temp":30.1,"humidity":73,"rain":0.0,"pressure":986.0,"uv_index":7.6,"wind_gusts":31.7,"aqi":91,"pm10":20.5,"pm2_5":16.5,"no2":8.6,"co":751.0,"o3":95.0,"so2":23.0,"mosquito_risk":3,"arthritis_risk":5,"migraine_risk":7,"frizz_risk":1,"updated_at":"2026-07-16T09:39:52.723895+05:30"},{"city":"Dhanbad","state":"Jharkhand","latitude":23.7957,"longitude":86.4304,"temp":30.1,"humidity":72,"rain":0.0,"pressure":975.6,"uv_index":8.25,"wind_gusts":33.8,"aqi":124,"pm10":29.9,"pm2_5":25.0,"no2":15.0,"co":208.0,"o3":87.0,"so2":42.1,"mosquito_risk":3,"arthritis_risk":5,"migraine_risk":7,"frizz_risk":1,"updated_at":"2026-07-16T09:39:52.723902+05:30"},{"city":"Bokaro","state":"Jharkhand","latitude":23.6693,"longitude":86.1511,"temp":29.9,"humidity":74,"rain":0.0,"pressure":979.4,"uv_index":8.6,"wind_gusts":30.6,"aqi":136,"pm10":27.4,"pm2_5":23.7,"no2":14.8,"co":228.0,"o3":90.0,"so2":47.3,"mosquito_risk":7,"arthritis_risk":5,"migraine_risk":7,"frizz_risk":1,"updated_at":"2026-07-16T09:39:52.723909+05:30"},{"city":"Bhubaneswar","state":"Odisha","latitude":20.2961,"longitude":85.8245,"temp":25.8,"humidity":95,"rain":0.6,"pressure":996.7,"uv_index":8.35,"wind_gusts":52.9,"aqi":102,"pm10":15.2,"pm2_5":14.6,"no2":11.5,"co":277.0,"o3":62.0,"so2":9.4,"mosquito_risk":10,"arthritis_risk":5,"migraine_risk":7,"frizz_risk":1,"updated_at":"2026-07-16T09:39:52.723916+05:30"},{"city":"Cuttack","state":"Odisha","latitude":20.4625,"longitude":85.8828,"temp":26.2,"humidity":95,"rain":0.4,"pressure":998.8,"uv_index":8.6,"wind_gusts":41.0,"aqi":102,"pm10":15.2,"pm2_5":14.6,"no2":11.5,"co":229.0,"o3":62.0,"so2":9.4,"mosquito_risk":10,"arthritis_risk":5,"migraine_risk":7,"frizz_risk":1,"updated_at":"2026-07-16T09:39:52.723924+05:30"},{"city":"Rourkela","state":"Odisha","latitude":22.2604,"longitude":84.8536,"temp":28.2,"humidity":86,"rain":0.0,"pressure":980.9,"uv_index":8.1,"wind_gusts":33.8,"aqi":130,"pm10":33.5,"pm2_5":20.0,"no2":3.5,"co":282.0,"o3":107.0,"so2":6.3,"mosquito_risk":7,"arthritis_risk":5,"migraine_risk":7,"frizz_risk":1,"updated_at":"2026-07-16T09:39:52.723931+05:30"},{"city":"Raipur","state":"Chhattisgarh","latitude":21.2514,"longitude":81.6296,"temp":27.5,"humidity":81,"rain":0.1,"pressure":972.6,"uv_index":6.75,"wind_gusts":36.0,"aqi":152,"pm10":74.5,"pm2_5":49.1,"no2":32.5,"co":455.0,"o3":36.0,"so2":55.5,"mosquito_risk":10,"arthritis_risk":5,"migraine_risk":7,"frizz_risk":1,"updated_at":"2026-07-16T09:39:52.723939+05:30"},{"city":"Bhilai","state":"Chhattisgarh","latitude":21.1938,"longitude":81.3509,"temp":28.5,"humidity":72,"rain":0.0,"pressure":973.0,"uv_index":4.7,"wind_gusts":38.2,"aqi":136,"pm10":70.5,"pm2_5":46.1,"no2":25.2,"co":870.0,"o3":52.0,"so2":50.5,"mosquito_risk":7,"arthritis_risk":5,"migraine_risk":3,"frizz_risk":1,"updated_at":"2026-07-16T09:39:52.723946+05:30"},{"city":"Guwahati","state":"Assam","latitude":26.1158,"longitude":91.7086,"temp":29.2,"humidity":84,"rain":0.1,"pressure":998.6,"uv_index":5.85,"wind_gusts":22.7,"aqi":55,"pm10":15.4,"pm2_5":12.4,"no2":2.3,"co":251.0,"o3":102.0,"so2":2.9,"mosquito_risk":10,"arthritis_risk":5,"migraine_risk":3,"frizz_risk":1,"updated_at":"2026-07-16T09:39:52.723953+05:30"},{"city":"Agartala","state":"Tripura","latitude":23.8315,"longitude":91.2868,"temp":31.1,"humidity":71,"rain":0.0,"pressure":1002.8,"uv_index":8.1,"wind_gusts":45.7,"aqi":65,"pm10":13.5,"pm2_5":8.8,"no2":2.2,"co":146.0,"o3":96.0,"so2":1.6,"mosquito_risk":3,"arthritis_risk":5,"migraine_risk":4,"frizz_risk":1,"updated_at":"2026-07-16T09:39:52.723960+05:30"},{"city":"Shillong","state":"Meghalaya","latitude":25.5788,"longitude":91.8933,"temp":23.6,"humidity":74,"rain":0.0,"pressure":857.2,"uv_index":8.2,"wind_gusts":31.7,"aqi":35,"pm10":14.5,"pm2_5":7.8,"no2":1.3,"co":134.0,"o3":93.0,"so2":1.8,"mosquito_risk":3,"arthritis_risk":5,"migraine_risk":7,"frizz_risk":1,"updated_at":"2026-07-16T09:39:52.723967+05:30"},{"city":"Imphal","state":"Manipur","latitude":24.817,"longitude":93.9368,"temp":27.1,"humidity":75,"rain":0.0,"pressure":922.0,"uv_index":7.2,"wind_gusts":30.2,"aqi":57,"pm10":10.7,"pm2_5":9.4,"no2":3.1,"co":208.0,"o3":88.0,"so2":2.5,"mosquito_risk":7,"arthritis_risk":5,"migraine_risk":7,"frizz_risk":1,"updated_at":"2026-07-16T09:39:52.723974+05:30"},{"city":"Aizawl","state":"Mizoram","latitude":23.7271,"longitude":92.7176,"temp":25.1,"humidity":72,"rain":0.0,"pressure":891.7,"uv_index":8.0,"wind_gusts":40.0,"aqi":57,"pm10":24.9,"pm2_5":12.1,"no2":0.6,"co":154.0,"o3":91.0,"so2":1.1,"mosquito_risk":7,"arthritis_risk":5,"migraine_risk":7,"frizz_risk":1,"updated_at":"2026-07-16T09:39:52.723981+05:30"},{"city":"Kohima","state":"Nagaland","latitude":25.6701,"longitude":94.1077,"temp":21.7,"humidity":96,"rain":0.2,"pressure":855.1,"uv_index":8.45,"wind_gusts":20.5,"aqi":45,"pm10":6.7,"pm2_5":5.4,"no2":1.0,"co":173.0,"o3":81.0,"so2":0.8,"mosquito_risk":6,"arthritis_risk":5,"migraine_risk":7,"frizz_risk":1,"updated_at":"2026-07-16T09:39:52.723989+05:30"},{"city":"Gangtok","state":"Sikkim","latitude":27.3314,"longitude":88.6138,"temp":21.7,"humidity":87,"rain":0.0,"pressure":838.1,"uv_index":7.75,"wind_gusts":34.9,"aqi":46,"pm10":4.6,"pm2_5":4.1,"no2":1.9,"co":210.0,"o3":100.0,"so2":1.4,"mosquito_risk":3,"arthritis_risk":5,"migraine_risk":7,"frizz_risk":1,"updated_at":"2026-07-16T09:39:52.723996+05:30"},{"city":"Siliguri","state":"West Bengal","latitude":26.7271,"longitude":88.3953,"temp":26.8,"humidity":96,"rain":0.1,"pressure":990.8,"uv_index":7.6,"wind_gusts":23.8,"aqi":71,"pm10":12.1,"pm2_5":9.4,"no2":4.4,"co":407.0,"o3":95.0,"so2":3.4,"mosquito_risk":10,"arthritis_risk":5,"migraine_risk":7,"frizz_risk":1,"updated_at":"2026-07-16T09:39:56.124138+05:30"},{"city":"Durgapur","state":"West Bengal","latitude":23.5204,"longitude":87.3119,"temp":30.2,"humidity":76,"rain":0.0,"pressure":990.1,"uv_index":8.5,"wind_gusts":38.5,"aqi":90,"pm10":31.5,"pm2_5":23.6,"no2":10.9,"co":234.0,"o3":95.0,"so2":24.9,"mosquito_risk":3,"arthritis_risk":5,"migraine_risk":7,"frizz_risk":1,"updated_at":"2026-07-16T09:39:56.124169+05:30"},{"city":"Asansol","state":"West Bengal","latitude":23.6739,"longitude":86.9524,"temp":30.1,"humidity":76,"rain":0.0,"pressure":989.1,"uv_index":8.45,"wind_gusts":34.6,"aqi":93,"pm10":27.8,"pm2_5":22.2,"no2":11.0,"co":212.0,"o3":93.0,"so2":23.4,"mosquito_risk":3,"arthritis_risk":5,"migraine_risk":7,"frizz_risk":1,"updated_at":"2026-07-16T09:39:56.124180+05:30"},{"city":"Pondicherry","state":"Puducherry","latitude":11.9139,"longitude":79.8145,"temp":32.3,"humidity":50,"rain":0.0,"pressure":1008.9,"uv_index":7.8,"wind_gusts":43.9,"aqi":75,"pm10":28.4,"pm2_5":21.0,"no2":10.5,"co":228.0,"o3":71.0,"so2":9.5,"mosquito_risk":0,"arthritis_risk":0,"migraine_risk":4,"frizz_risk":1,"updated_at":"2026-07-16T09:39:56.124189+05:30"},{"city":"Port Blair","state":"Andaman and Nicobar Islands","latitude":11.6234,"longitude":92.7265,"temp":30.3,"humidity":72,"rain":0.0,"pressure":1009.3,"uv_index":8.35,"wind_gusts":49.3,"aqi":53,"pm10":17.7,"pm2_5":9.2,"no2":0.3,"co":92.0,"o3":47.0,"so2":0.4,"mosquito_risk":3,"arthritis_risk":0,"migraine_risk":4,"frizz_risk":1,"updated_at":"2026-07-16T09:39:56.124196+05:30"},{"city":"Haridwar","state":"Uttarakhand","latitude":29.9457,"longitude":78.1642,"temp":31.7,"humidity":71,"rain":0.0,"pressure":970.4,"uv_index":7.5,"wind_gusts":27.7,"aqi":143,"pm10":60.3,"pm2_5":38.6,"no2":3.0,"co":417.0,"o3":152.0,"so2":8.2,"mosquito_risk":3,"arthritis_risk":5,"migraine_risk":7,"frizz_risk":1,"updated_at":"2026-07-16T09:39:56.124204+05:30"},{"city":"Rishikesh","state":"Uttarakhand","latitude":30.0869,"longitude":78.2676,"temp":31.1,"humidity":68,"rain":0.0,"pressure":963.4,"uv_index":7.6,"wind_gusts":24.1,"aqi":98,"pm10":40.2,"pm2_5":27.1,"no2":1.8,"co":353.0,"o3":140.0,"so2":5.0,"mosquito_risk":3,"arthritis_risk":5,"migraine_risk":7,"frizz_risk":1,"updated_at":"2026-07-16T09:39:56.124212+05:30"},{"city":"Nainital","state":"Uttarakhand","latitude":29.3919,"longitude":79.4542,"temp":22.7,"humidity":67,"rain":0.0,"pressure":806.9,"uv_index":6.65,"wind_gusts":29.2,"aqi":153,"pm10":64.0,"pm2_5":39.3,"no2":2.2,"co":288.0,"o3":162.0,"so2":8.5,"mosquito_risk":3,"arthritis_risk":5,"migraine_risk":7,"frizz_risk":1,"updated_at":"2026-07-16T09:39:56.124220+05:30"},{"city":"Mussoorie","state":"Uttarakhand","latitude":30.4599,"longitude":78.0664,"temp":22.0,"humidity":71,"rain":0.0,"pressure":804.0,"uv_index":6.3,"wind_gusts":42.5,"aqi":96,"pm10":48.2,"pm2_5":35.2,"no2":3.9,"co":311.0,"o3":146.0,"so2":7.9,"mosquito_risk":3,"arthritis_risk":5,"migraine_risk":7,"frizz_risk":1,"updated_at":"2026-07-16T09:39:56.124231+05:30"},{"city":"Dharamshala","state":"Himachal Pradesh","latitude":32.219,"longitude":76.3234,"temp":25.4,"humidity":57,"rain":0.0,"pressure":868.4,"uv_index":8.4,"wind_gusts":31.3,"aqi":73,"pm10":25.6,"pm2_5":15.7,"no2":0.8,"co":247.0,"o3":129.0,"so2":1.9,"mosquito_risk":4,"arthritis_risk":5,"migraine_risk":7,"frizz_risk":1,"updated_at":"2026-07-16T09:39:56.124240+05:30"},{"city":"Dalhousie","state":"Himachal Pradesh","latitude":32.5387,"longitude":75.971,"temp":22.7,"humidity":64,"rain":0.0,"pressure":805.7,"uv_index":7.75,"wind_gusts":29.9,"aqi":122,"pm10":55.5,"pm2_5":35.7,"no2":2.0,"co":277.0,"o3":168.0,"so2":4.4,"mosquito_risk":3,"arthritis_risk":5,"migraine_risk":7,"frizz_risk":0,"updated_at":"2026-07-16T09:39:56.124249+05:30"},{"city":"Patiala","state":"Punjab","latitude":30.3398,"longitude":76.3869,"temp":32.6,"humidity":64,"rain":0.0,"pressure":974.4,"uv_index":7.5,"wind_gusts":29.9,"aqi":186,"pm10":214.7,"pm2_5":99.0,"no2":14.9,"co":598.0,"o3":124.0,"so2":10.3,"mosquito_risk":3,"arthritis_risk":5,"migraine_risk":7,"frizz_risk":1,"updated_at":"2026-07-16T09:39:56.124257+05:30"},{"city":"Bhatinda","state":"Punjab","latitude":30.211,"longitude":74.9455,"temp":35.3,"humidity":50,"rain":0.0,"pressure":979.7,"uv_index":7.4,"wind_gusts":28.4,"aqi":179,"pm10":238.0,"pm2_5":93.8,"no2":8.7,"co":358.0,"o3":131.0,"so2":14.1,"mosquito_risk":0,"arthritis_risk":5,"migraine_risk":10,"frizz_risk":1,"updated_at":"2026-07-16T09:39:56.124265+05:30"},{"city":"Rohtak","state":"Haryana","latitude":28.8955,"longitude":76.6066,"temp":33.0,"humidity":56,"rain":0.0,"pressure":978.1,"uv_index":6.0,"wind_gusts":29.9,"aqi":545,"pm10":1527.4,"pm2_5":211.4,"no2":10.8,"co":218.0,"o3":84.0,"so2":4.3,"mosquito_risk":0,"arthritis_risk":5,"migraine_risk":3,"frizz_risk":1,"updated_at":"2026-07-16T09:39:56.124273+05:30"},{"city":"Panipat","state":"Haryana","latitude":29.3909,"longitude":76.9635,"temp":32.9,"humidity":68,"rain":0.0,"pressure":976.5,"uv_index":6.85,"wind_gusts":32.8,"aqi":1035,"pm10":1721.1,"pm2_5":232.8,"no2":12.8,"co":489.0,"o3":107.0,"so2":11.7,"mosquito_risk":3,"arthritis_risk":5,"migraine_risk":7,"frizz_risk":1,"updated_at":"2026-07-16T09:39:56.124281+05:30"},{"city":"Mathura","state":"Uttar Pradesh","latitude":27.4924,"longitude":77.6737,"temp":33.3,"humidity":56,"rain":0.0,"pressure":983.4,"uv_index":6.4,"wind_gusts":29.5,"aqi":381,"pm10":517.8,"pm2_5":84.1,"no2":12.0,"co":239.0,"o3":78.0,"so2":5.2,"mosquito_risk":0,"arthritis_risk":5,"migraine_risk":7,"frizz_risk":1,"updated_at":"2026-07-16T09:39:56.124288+05:30"},{"city":"Vrindavan","state":"Uttar Pradesh","latitude":27.5823,"longitude":77.7027,"temp":33.3,"humidity":56,"rain":0.0,"pressure":983.9,"uv_index":7.2,"wind_gusts":29.2,"aqi":381,"pm10":517.8,"pm2_5":84.1,"no2":12.0,"co":214.0,"o3":78.0,"so2":5.2,"mosquito_risk":0,"arthritis_risk":5,"migraine_risk":7,"frizz_risk":1,"updated_at":"2026-07-16T09:39:56.124296+05:30"},{"city":"Ayodhya","state":"Uttar Pradesh","latitude":26.7922,"longitude":82.1998,"temp":30.6,"humidity":80,"rain":0.0,"pressure":991.8,"uv_index":7.65,"wind_gusts":22.7,"aqi":181,"pm10":128.5,"pm2_5":71.7,"no2":6.6,"co":432.0,"o3":129.0,"so2":9.1,"mosquito_risk":3,"arthritis_risk":5,"migraine_risk":7,"frizz_risk":1,"updated_at":"2026-07-16T09:39:56.124304+05:30"},{"city":"Ratlam","state":"Madhya Pradesh","latitude":23.3315,"longitude":75.0367,"temp":27.7,"humidity":72,"rain":0.0,"pressure":954.3,"uv_index":6.8,"wind_gusts":33.1,"aqi":66,"pm10":36.0,"pm2_5":19.6,"no2":3.7,"co":130.0,"o3":58.0,"so2":8.7,"mosquito_risk":7,"arthritis_risk":5,"migraine_risk":7,"frizz_risk":1,"updated_at":"2026-07-16T09:39:56.124311+05:30"},{"city":"Sagar","state":"Madhya Pradesh","latitude":23.8388,"longitude":78.7378,"temp":29.6,"humidity":65,"rain":0.0,"pressure":948.9,"uv_index":8.15,"wind_gusts":37.8,"aqi":99,"pm10":40.2,"pm2_5":22.4,"no2":2.7,"co":202.0,"o3":95.0,"so2":5.8,"mosquito_risk":7,"arthritis_risk":5,"migraine_risk":7,"frizz_risk":1,"updated_at":"2026-07-16T09:39:56.124319+05:30"},{"city":"Satna","state":"Madhya Pradesh","latitude":24.6005,"longitude":80.8322,"temp":32.0,"humidity":57,"rain":0.0,"pressure":968.5,"uv_index":8.0,"wind_gusts":45.7,"aqi":132,"pm10":119.2,"pm2_5":48.5,"no2":3.9,"co":171.0,"o3":92.0,"so2":6.7,"mosquito_risk":0,"arthritis_risk":5,"migraine_risk":7,"frizz_risk":1,"updated_at":"2026-07-16T09:39:56.124327+05:30"},{"city":"Akola","state":"Maharashtra","latitude":20.7002,"longitude":77.0082,"temp":30.2,"humidity":62,"rain":0.0,"pressure":975.0,"uv_index":8.75,"wind_gusts":44.6,"aqi":66,"pm10":27.7,"pm2_5":14.1,"no2":4.4,"co":135.0,"o3":56.0,"so2":8.5,"mosquito_risk":3,"arthritis_risk":5,"migraine_risk":7,"frizz_risk":1,"updated_at":"2026-07-16T09:39:56.124335+05:30"},{"city":"Amravati","state":"Maharashtra","latitude":20.9374,"longitude":77.7796,"temp":29.9,"humidity":61,"rain":0.0,"pressure":966.8,"uv_index":8.75,"wind_gusts":42.8,"aqi":68,"pm10":31.1,"pm2_5":15.1,"no2":4.3,"co":127.0,"o3":54.0,"so2":8.6,"mosquito_risk":7,"arthritis_risk":5,"migraine_risk":7,"frizz_risk":1,"updated_at":"2026-07-16T09:39:56.124344+05:30"},{"city":"Latur","state":"Maharashtra","latitude":18.4088,"longitude":76.5604,"temp":27.9,"humidity":62,"rain":0.0,"pressure":940.5,"uv_index":4.35,"wind_gusts":39.2,"aqi":54,"pm10":17.3,"pm2_5":8.8,"no2":2.3,"co":121.0,"o3":54.0,"so2":2.7,"mosquito_risk":7,"arthritis_risk":5,"migraine_risk":3,"frizz_risk":1,"updated_at":"2026-07-16T09:39:56.124351+05:30"},{"city":"Nanded","state":"Maharashtra","latitude":19.1383,"longitude":77.3091,"temp":29.3,"humidity":62,"rain":0.0,"pressure":969.0,"uv_index":8.4,"wind_gusts":36.7,"aqi":64,"pm10":25.3,"pm2_5":13.8,"no2":3.2,"co":141.0,"o3":65.0,"so2":4.9,"mosquito_risk":7,"arthritis_risk":5,"migraine_risk":7,"frizz_risk":1,"updated_at":"2026-07-16T09:39:56.124358+05:30"},{"city":"Gulbarga","state":"Karnataka","latitude":17.3297,"longitude":76.8343,"temp":28.1,"humidity":62,"rain":0.0,"pressure":959.8,"uv_index":8.3,"wind_gusts":44.6,"aqi":58,"pm10":20.8,"pm2_5":9.8,"no2":2.7,"co":124.0,"o3":58.0,"so2":2.8,"mosquito_risk":7,"arthritis_risk":5,"migraine_risk":7,"frizz_risk":1,"updated_at":"2026-07-16T09:39:56.124365+05:30"},{"city":"Bidar","state":"Karnataka","latitude":17.9104,"longitude":77.5199,"temp":27.6,"humidity":67,"rain":0.0,"pressure":936.1,"uv_index":8.2,"wind_gusts":39.6,"aqi":60,"pm10":23.3,"pm2_5":12.0,"no2":3.7,"co":145.0,"o3":60.0,"so2":3.1,"mosquito_risk":7,"arthritis_risk":5,"migraine_risk":7,"frizz_risk":1,"updated_at":"2026-07-16T09:39:56.124373+05:30"},{"city":"Hospet","state":"Karnataka","latitude":15.2689,"longitude":76.3909,"temp":27.4,"humidity":63,"rain":0.0,"pressure":957.5,"uv_index":8.85,"wind_gusts":58.0,"aqi":56,"pm10":20.5,"pm2_5":9.3,"no2":2.7,"co":119.0,"o3":52.0,"so2":2.1,"mosquito_risk":7,"arthritis_risk":5,"migraine_risk":7,"frizz_risk":1,"updated_at":"2026-07-16T09:39:56.124380+05:30"},{"city":"Tirupur","state":"Tamil Nadu","latitude":11.1085,"longitude":77.3411,"temp":29.4,"humidity":57,"rain":0.0,"pressure":977.6,"uv_index":8.2,"wind_gusts":55.8,"aqi":69,"pm10":36.0,"pm2_5":19.7,"no2":6.7,"co":165.0,"o3":73.0,"so2":4.0,"mosquito_risk":4,"arthritis_risk":5,"migraine_risk":7,"frizz_risk":1,"updated_at":"2026-07-16T09:39:56.124388+05:30"},{"city":"Alappuzha","state":"Kerala","latitude":9.4981,"longitude":76.3388,"temp":27.8,"humidity":78,"rain":0.0,"pressure":1012.2,"uv_index":8.05,"wind_gusts":34.9,"aqi":71,"pm10":40.3,"pm2_5":21.7,"no2":8.7,"co":98.0,"o3":62.0,"so2":5.5,"mosquito_risk":7,"arthritis_risk":0,"migraine_risk":4,"frizz_risk":1,"updated_at":"2026-07-16T09:39:56.124395+05:30"},{"city":"Munnar","state":"Kerala","latitude":10.0889,"longitude":77.0595,"temp":20.7,"humidity":69,"rain":0.0,"pressure":859.9,"uv_index":8.65,"wind_gusts":33.1,"aqi":58,"pm10":35.4,"pm2_5":15.7,"no2":1.8,"co":109.0,"o3":64.0,"so2":1.6,"mosquito_risk":3,"arthritis_risk":5,"migraine_risk":7,"frizz_risk":0,"updated_at":"2026-07-16T09:39:56.124403+05:30"},{"city":"Silchar","state":"Assam","latitude":24.8333,"longitude":92.7789,"temp":31.1,"humidity":72,"rain":0.0,"pressure":1002.4,"uv_index":6.9,"wind_gusts":28.1,"aqi":60,"pm10":23.8,"pm2_5":13.4,"no2":2.3,"co":166.0,"o3":82.0,"so2":3.1,"mosquito_risk":3,"arthritis_risk":5,"migraine_risk":4,"frizz_risk":1,"updated_at":"2026-07-16T09:39:56.124410+05:30"},{"city":"Dibrugarh","state":"Assam","latitude":27.4728,"longitude":94.912,"temp":27.3,"humidity":92,"rain":0.1,"pressure":992.8,"uv_index":6.85,"wind_gusts":28.4,"aqi":47,"pm10":4.7,"pm2_5":4.6,"no2":1.6,"co":223.0,"o3":87.0,"so2":1.1,"mosquito_risk":10,"arthritis_risk":5,"migraine_risk":7,"frizz_risk":1,"updated_at":"2026-07-16T09:39:56.124418+05:30"}]