[{"city":"Delhi","state":"Delhi","latitude":28.6139,"longitude":77.209,"temp":28.9,"humidity":81,"rain":0.0,"pressure":975.8,"uv_index":7.65,"wind_gusts":19.1,"aqi":113,"pm10":66.1,"pm2_5":58.3,"no2":42.4,"co":701.0,"o3":41.0,"so2":26.0,"mosquito_risk":7,"arthritis_risk":5,"migraine_risk":7,"frizz_risk":1,"updated_at":"2026-07-04T03:36:34.887953+05:30"},{"city":"Mumbai","state":"Maharashtra","latitude":19.076,"longitude":72.8777,"temp":26.1,"humidity":94,"rain":0.9,"pressure":1002.7,"uv_index":0.35,"wind_gusts":55.4,"aqi":41,"pm10":19.8,"pm2_5":9.2,"no2":2.7,"co":106.0,"o3":57.0,"so2":2.4,"mosquito_risk":10,"arthritis_risk":5,"migraine_risk":0,"frizz_risk":1,"updated_at":"2026-07-04T03:36:34.887995+05:30"},{"city":"Bangalore","state":"Karnataka","latitude":12.9716,"longitude":77.5946,"temp":21.1,"humidity":93,"rain":0.0,"pressure":909.2,"uv_index":5.0,"wind_gusts":69.8,"aqi":18,"pm10":1.5,"pm2_5":1.3,"no2":3.9,"co":114.0,"o3":44.0,"so2":2.2,"mosquito_risk":3,"arthritis_risk":5,"migraine_risk":3,"frizz_risk":1,"updated_at":"2026-07-04T03:36:34.888009+05:30"},{"city":"Hyderabad","state":"Telangana","latitude":17.385,"longitude":78.4867,"temp":23.6,"humidity":90,"rain":0.1,"pressure":947.1,"uv_index":1.0,"wind_gusts":58.0,"aqi":20,"pm10":2.5,"pm2_5":2.3,"no2":5.6,"co":122.0,"o3":38.0,"so2":3.1,"mosquito_risk":6,"arthritis_risk":5,"migraine_risk":3,"frizz_risk":1,"updated_at":"2026-07-04T03:36:34.888019+05:30"},{"city":"Chennai","state":"Tamil Nadu","latitude":13.0827,"longitude":80.2707,"temp":28.5,"humidity":67,"rain":0.0,"pressure":1003.6,"uv_index":5.0,"wind_gusts":47.9,"aqi":51,"pm10":5.7,"pm2_5":4.9,"no2":13.2,"co":182.0,"o3":33.0,"so2":7.7,"mosquito_risk":7,"arthritis_risk":5,"migraine_risk":0,"frizz_risk":1,"updated_at":"2026-07-04T03:36:34.888027+05:30"},{"city":"Kolkata","state":"West Bengal","latitude":22.5726,"longitude":88.3639,"temp":27.6,"humidity":88,"rain":0.0,"pressure":995.8,"uv_index":7.5,"wind_gusts":48.2,"aqi":56,"pm10":14.8,"pm2_5":14.0,"no2":12.0,"co":197.0,"o3":39.0,"so2":8.9,"mosquito_risk":7,"arthritis_risk":5,"migraine_risk":7,"frizz_risk":1,"updated_at":"2026-07-04T03:36:34.888034+05:30"},{"city":"Pune","state":"Maharashtra","latitude":18.5204,"longitude":73.8567,"temp":23.0,"humidity":94,"rain":0.1,"pressure":942.2,"uv_index":0.6,"wind_gusts":49.7,"aqi":21,"pm10":1.7,"pm2_5":1.3,"no2":3.3,"co":100.0,"o3":48.0,"so2":2.5,"mosquito_risk":6,"arthritis_risk":5,"migraine_risk":3,"frizz_risk":1,"updated_at":"2026-07-04T03:36:34.888041+05:30"},{"city":"Ahmedabad","state":"Gujarat","latitude":23.0225,"longitude":72.5714,"temp":27.6,"humidity":87,"rain":0.1,"pressure":994.6,"uv_index":2.25,"wind_gusts":32.0,"aqi":66,"pm10":20.3,"pm2_5":11.2,"no2":7.8,"co":148.0,"o3":38.0,"so2":4.3,"mosquito_risk":10,"arthritis_risk":5,"migraine_risk":3,"frizz_risk":1,"updated_at":"2026-07-04T03:36:34.888052+05:30"},{"city":"Jaipur","state":"Rajasthan","latitude":26.9124,"longitude":75.7873,"temp":26.2,"humidity":98,"rain":0.0,"pressure":952.2,"uv_index":7.95,"wind_gusts":19.4,"aqi":102,"pm10":85.0,"pm2_5":36.9,"no2":17.6,"co":208.0,"o3":44.0,"so2":6.0,"mosquito_risk":7,"arthritis_risk":5,"migraine_risk":7,"frizz_risk":1,"updated_at":"2026-07-04T03:36:34.888058+05:30"},{"city":"Lucknow","state":"Uttar Pradesh","latitude":26.8467,"longitude":80.9462,"temp":28.5,"humidity":88,"rain":0.1,"pressure":985.7,"uv_index":8.2,"wind_gusts":22.7,"aqi":74,"pm10":24.0,"pm2_5":23.9,"no2":11.5,"co":429.0,"o3":84.0,"so2":5.8,"mosquito_risk":10,"arthritis_risk":5,"migraine_risk":7,"frizz_risk":1,"updated_at":"2026-07-04T03:36:34.888067+05:30"},{"city":"Kanpur","state":"Uttar Pradesh","latitude":26.4499,"longitude":80.3319,"temp":28.2,"humidity":89,"rain":0.0,"pressure":983.9,"uv_index":8.2,"wind_gusts":25.2,"aqi":71,"pm10":21.5,"pm2_5":21.2,"no2":8.1,"co":412.0,"o3":93.0,"so2":3.4,"mosquito_risk":7,"arthritis_risk":5,"migraine_risk":7,"frizz_risk":1,"updated_at":"2026-07-04T03:36:34.888073+05:30"},{"city":"Chandigarh","state":"Chandigarh","latitude":30.7333,"longitude":76.7794,"temp":28.0,"humidity":84,"rain":0.0,"pressure":962.6,"uv_index":7.75,"wind_gusts":25.2,"aqi":104,"pm10":68.2,"pm2_5":67.8,"no2":43.8,"co":555.0,"o3":20.0,"so2":5.8,"mosquito_risk":7,"arthritis_risk":5,"migraine_risk":7,"frizz_risk":1,"updated_at":"2026-07-04T03:36:34.888080+05:30"},{"city":"Srinagar","state":"Jammu and Kashmir","latitude":34.0837,"longitude":74.7973,"temp":17.9,"humidity":99,"rain":0.0,"pressure":837.4,"uv_index":9.05,"wind_gusts":20.5,"aqi":62,"pm10":29.3,"pm2_5":27.2,"no2":25.2,"co":612.0,"o3":12.0,"so2":1.4,"mosquito_risk":3,"arthritis_risk":10,"migraine_risk":7,"frizz_risk":1,"updated_at":"2026-07-04T03:36:34.888086+05:30"},{"city":"Jammu","state":"Jammu and Kashmir","latitude":32.7266,"longitude":74.857,"temp":28.7,"humidity":76,"rain":0.0,"pressure":966.8,"uv_index":8.6,"wind_gusts":25.2,"aqi":96,"pm10":64.0,"pm2_5":61.7,"no2":67.7,"co":462.0,"o3":0.0,"so2":6.3,"mosquito_risk":7,"arthritis_risk":5,"migraine_risk":7,"frizz_risk":1,"updated_at":"2026-07-04T03:36:34.888093+05:30"},{"city":"Amritsar","state":"Punjab","latitude":31.634,"longitude":74.8723,"temp":29.1,"humidity":75,"rain":0.0,"pressure":974.3,"uv_index":8.4,"wind_gusts":42.1,"aqi":100,"pm10":48.0,"pm2_5":45.9,"no2":31.9,"co":602.0,"o3":39.0,"so2":4.2,"mosquito_risk":7,"arthritis_risk":5,"migraine_risk":7,"frizz_risk":1,"updated_at":"2026-07-04T03:36:34.888099+05:30"},{"city":"Ludhiana","state":"Punjab","latitude":30.901,"longitude":75.8573,"temp":28.8,"humidity":89,"rain":0.0,"pressure":972.1,"uv_index":7.95,"wind_gusts":21.6,"aqi":113,"pm10":98.7,"pm2_5":96.6,"no2":58.4,"co":894.0,"o3":18.0,"so2":13.6,"mosquito_risk":7,"arthritis_risk":5,"migraine_risk":7,"frizz_risk":1,"updated_at":"2026-07-04T03:36:34.888105+05:30"},{"city":"Jalandhar","state":"Punjab","latitude":31.326,"longitude":75.5762,"temp":28.5,"humidity":84,"rain":0.0,"pressure":973.1,"uv_index":8.2,"wind_gusts":20.5,"aqi":106,"pm10":105.0,"pm2_5":103.1,"no2":78.7,"co":860.0,"o3":0.0,"so2":9.5,"mosquito_risk":7,"arthritis_risk":5,"migraine_risk":7,"frizz_risk":1,"updated_at":"2026-07-04T03:36:34.888111+05:30"},{"city":"Dehradun","state":"Uttarakhand","latitude":30.6284,"longitude":78.0322,"temp":17.9,"humidity":98,"rain":0.0,"pressure":826.5,"uv_index":6.65,"wind_gusts":25.6,"aqi":47,"pm10":13.4,"pm2_5":13.3,"no2":13.1,"co":274.0,"o3":35.0,"so2":0.0,"mosquito_risk":3,"arthritis_risk":10,"migraine_risk":7,"frizz_risk":1,"updated_at":"2026-07-04T03:36:34.888117+05:30"},{"city":"Shimla","state":"Himachal Pradesh","latitude":31.1048,"longitude":77.1734,"temp":14.5,"humidity":99,"rain":0.0,"pressure":780.3,"uv_index":6.85,"wind_gusts":29.5,"aqi":47,"pm10":20.1,"pm2_5":19.7,"no2":15.6,"co":340.0,"o3":54.0,"so2":0.0,"mosquito_risk":3,"arthritis_risk":10,"migraine_risk":7,"frizz_risk":0,"updated_at":"2026-07-04T03:36:34.888123+05:30"},{"city":"Manali","state":"Himachal Pradesh","latitude":32.2396,"longitude":77.1887,"temp":18.9,"humidity":78,"rain":0.3,"pressure":816.5,"uv_index":9.4,"wind_gusts":33.5,"aqi":46,"pm10":3.9,"pm2_5":3.8,"no2":17.7,"co":175.0,"o3":105.0,"so2":0.0,"mosquito_risk":6,"arthritis_risk":5,"migraine_risk":7,"frizz_risk":0,"updated_at":"2026-07-04T03:36:34.888135+05:30"},{"city":"Gurgaon","state":"Haryana","latitude":28.4595,"longitude":77.0266,"temp":28.9,"humidity":82,"rain":0.0,"pressure":974.1,"uv_index":6.6,"wind_gusts":22.3,"aqi":124,"pm10":67.5,"pm2_5":58.6,"no2":43.0,"co":643.0,"o3":42.0,"so2":21.4,"mosquito_risk":7,"arthritis_risk":5,"migraine_risk":7,"frizz_risk":1,"updated_at":"2026-07-04T03:36:34.888141+05:30"},{"city":"Noida","state":"Uttar Pradesh","latitude":28.5355,"longitude":77.391,"temp":27.6,"humidity":94,"rain":0.1,"pressure":977.1,"uv_index":7.7,"wind_gusts":19.8,"aqi":124,"pm10":67.5,"pm2_5":58.6,"no2":43.0,"co":638.0,"o3":42.0,"so2":21.4,"mosquito_risk":10,"arthritis_risk":5,"migraine_risk":7,"frizz_risk":1,"updated_at":"2026-07-04T03:36:34.888148+05:30"},{"city":"Ghaziabad","state":"Uttar Pradesh","latitude":28.6692,"longitude":77.4538,"temp":27.4,"humidity":93,"rain":0.1,"pressure":975.6,"uv_index":7.7,"wind_gusts":20.9,"aqi":102,"pm10":70.3,"pm2_5":69.4,"no2":35.5,"co":562.0,"o3":43.0,"so2":10.9,"mosquito_risk":10,"arthritis_risk":5,"migraine_risk":7,"frizz_risk":1,"updated_at":"2026-07-04T03:36:34.888154+05:30"},{"city":"Faridabad","state":"Haryana","latitude":28.4089,"longitude":77.3178,"temp":28.2,"humidity":85,"rain":0.0,"pressure":976.4,"uv_index":7.15,"wind_gusts":22.7,"aqi":124,"pm10":67.5,"pm2_5":58.6,"no2":43.0,"co":538.0,"o3":42.0,"so2":21.4,"mosquito_risk":7,"arthritis_risk":5,"migraine_risk":7,"frizz_risk":1,"updated_at":"2026-07-04T03:36:34.888162+05:30"},{"city":"Meerut","state":"Uttar Pradesh","latitude":28.9845,"longitude":77.7064,"temp":27.6,"humidity":89,"rain":0.0,"pressure":974.7,"uv_index":7.65,"wind_gusts":33.1,"aqi":102,"pm10":70.3,"pm2_5":69.4,"no2":35.5,"co":739.0,"o3":43.0,"so2":10.9,"mosquito_risk":7,"arthritis_risk":5,"migraine_risk":7,"frizz_risk":1,"updated_at":"2026-07-04T03:36:34.888168+05:30"},{"city":"Agra","state":"Uttar Pradesh","latitude":27.1767,"longitude":78.0081,"temp":29.1,"humidity":84,"rain":0.0,"pressure":980.4,"uv_index":6.85,"wind_gusts":33.8,"aqi":99,"pm10":51.8,"pm2_5":40.5,"no2":37.5,"co":472.0,"o3":31.0,"so2":10.8,"mosquito_risk":7,"arthritis_risk":5,"migraine_risk":7,"frizz_risk":1,"updated_at":"2026-07-04T03:36:34.888174+05:30"},{"city":"Varanasi","state":"Uttar Pradesh","latitude":25.3176,"longitude":82.9739,"temp":29.4,"humidity":78,"rain":0.0,"pressure":988.8,"uv_index":8.65,"wind_gusts":33.5,"aqi":97,"pm10":43.7,"pm2_5":43.4,"no2":24.0,"co":786.0,"o3":43.0,"so2":10.9,"mosquito_risk":7,"arthritis_risk":5,"migraine_risk":7,"frizz_risk":1,"updated_at":"2026-07-04T03:36:34.888181+05:30"},{"city":"Prayagraj","state":"Uttar Pradesh","latitude":25.4358,"longitude":81.8463,"temp":28.8,"humidity":86,"rain":0.0,"pressure":987.5,"uv_index":8.55,"wind_gusts":32.4,"aqi":86,"pm10":33.2,"pm2_5":32.9,"no2":19.6,"co":342.0,"o3":59.0,"so2":7.4,"mosquito_risk":7,"arthritis_risk":5,"migraine_risk":7,"frizz_risk":1,"updated_at":"2026-07-04T03:36:34.888187+05:30"},{"city":"Gorakhpur","state":"Uttar Pradesh","latitude":26.7606,"longitude":83.3732,"temp":29.5,"humidity":80,"rain":0.0,"pressure":989.3,"uv_index":7.7,"wind_gusts":31.3,"aqi":83,"pm10":37.3,"pm2_5":37.0,"no2":17.8,"co":405.0,"o3":63.0,"so2":6.7,"mosquito_risk":7,"arthritis_risk":5,"migraine_risk":7,"frizz_risk":1,"updated_at":"2026-07-04T03:36:34.888194+05:30"},{"city":"Bareilly","state":"Uttar Pradesh","latitude":28.367,"longitude":79.4304,"temp":27.9,"humidity":95,"rain":0.1,"pressure":979.6,"uv_index":8.0,"wind_gusts":23.4,"aqi":97,"pm10":40.9,"pm2_5":40.9,"no2":25.9,"co":496.0,"o3":45.0,"so2":5.4,"mosquito_risk":10,"arthritis_risk":5,"migraine_risk":7,"frizz_risk":1,"updated_at":"2026-07-04T03:36:34.888202+05:30"},{"city":"Aligarh","state":"Uttar Pradesh","latitude":27.8974,"longitude":78.088,"temp":29.1,"humidity":84,"rain":0.0,"pressure":978.4,"uv_index":7.8,"wind_gusts":23.4,"aqi":101,"pm10":64.5,"pm2_5":64.0,"no2":39.4,"co":607.0,"o3":29.0,"so2":11.0,"mosquito_risk":7,"arthritis_risk":5,"migraine_risk":7,"frizz_risk":1,"updated_at":"2026-07-04T03:36:34.888208+05:30"},{"city":"Moradabad","state":"Uttar Pradesh","latitude":28.8386,"longitude":78.7733,"temp":28.9,"humidity":88,"rain":0.0,"pressure":976.5,"uv_index":7.35,"wind_gusts":22.0,"aqi":116,"pm10":81.5,"pm2_5":81.0,"no2":48.7,"co":917.0,"o3":28.0,"so2":16.1,"mosquito_risk":7,"arthritis_risk":5,"migraine_risk":7,"frizz_risk":1,"updated_at":"2026-07-04T03:36:34.888214+05:30"},{"city":"Saharanpur","state":"Uttar Pradesh","latitude":29.9637,"longitude":77.546,"temp":27.1,"humidity":89,"rain":0.0,"pressure":969.2,"uv_index":7.0,"wind_gusts":29.9,"aqi":129,"pm10":112.0,"pm2_5":111.3,"no2":60.7,"co":575.0,"o3":0.0,"so2":10.4,"mosquito_risk":7,"arthritis_risk":5,"migraine_risk":7,"frizz_risk":1,"updated_at":"2026-07-04T03:36:34.888220+05:30"},{"city":"Jhansi","state":"Uttar Pradesh","latitude":25.4484,"longitude":78.5685,"temp":27.2,"humidity":96,"rain":0.1,"pressure":970.2,"uv_index":8.4,"wind_gusts":32.8,"aqi":63,"pm10":17.1,"pm2_5":15.5,"no2":9.9,"co":245.0,"o3":74.0,"so2":3.3,"mosquito_risk":10,"arthritis_risk":5,"migraine_risk":7,"frizz_risk":1,"updated_at":"2026-07-04T03:36:38.424435+05:30"},{"city":"Surat","state":"Gujarat","latitude":21.1702,"longitude":72.8311,"temp":27.2,"humidity":89,"rain":0.0,"pressure":999.8,"uv_index":0.7,"wind_gusts":28.4,"aqi":66,"pm10":16.0,"pm2_5":12.4,"no2":20.0,"co":337.0,"o3":29.0,"so2":31.3,"mosquito_risk":7,"arthritis_risk":5,"migraine_risk":3,"frizz_risk":1,"updated_at":"2026-07-04T03:36:38.424466+05:30"},{"city":"Vadodara","state":"Gujarat","latitude":22.3072,"longitude":73.1812,"temp":27.3,"humidity":89,"rain":0.1,"pressure":997.0,"uv_index":1.15,"wind_gusts":31.3,"aqi":61,"pm10":13.9,"pm2_5":9.7,"no2":10.6,"co":145.0,"o3":38.0,"so2":3.6,"mosquito_risk":10,"arthritis_risk":5,"migraine_risk":3,"frizz_risk":1,"updated_at":"2026-07-04T03:36:38.424480+05:30"},{"city":"Rajkot","state":"Gujarat","latitude":22.3039,"longitude":70.8022,"temp":27.1,"humidity":87,"rain":0.0,"pressure":987.2,"uv_index":5.1,"wind_gusts":43.2,"aqi":54,"pm10":20.1,"pm2_5":9.9,"no2":6.1,"co":99.0,"o3":41.0,"so2":6.0,"mosquito_risk":7,"arthritis_risk":5,"migraine_risk":3,"frizz_risk":1,"updated_at":"2026-07-04T03:36:38.424489+05:30"},{"city":"Thane","state":"Maharashtra","latitude":19.2183,"longitude":72.9781,"temp":25.6,"humidity":97,"rain":0.7,"pressure":1001.9,"uv_index":0.3,"wind_gusts":38.9,"aqi":41,"pm10":19.8,"pm2_5":9.2,"no2":2.7,"co":114.0,"o3":57.0,"so2":2.4,"mosquito_risk":10,"arthritis_risk":5,"migraine_risk":0,"frizz_risk":1,"updated_at":"2026-07-04T03:36:38.424497+05:30"},{"city":"Nagpur","state":"Maharashtra","latitude":21.1458,"longitude":79.0882,"temp":24.9,"humidity":93,"rain":0.0,"pressure":964.3,"uv_index":7.85,"wind_gusts":33.8,"aqi":33,"pm10":4.6,"pm2_5":4.3,"no2":8.3,"co":214.0,"o3":72.0,"so2":6.0,"mosquito_risk":3,"arthritis_risk":5,"migraine_risk":7,"frizz_risk":1,"updated_at":"2026-07-04T03:36:38.424504+05:30"},{"city":"Nashik","state":"Maharashtra","latitude":19.9975,"longitude":73.7898,"temp":22.3,"humidity":97,"rain":0.2,"pressure":939.0,"uv_index":0.35,"wind_gusts":37.8,"aqi":21,"pm10":1.5,"pm2_5":1.2,"no2":3.1,"co":107.0,"o3":52.0,"so2":1.2,"mosquito_risk":6,"arthritis_risk":5,"migraine_risk":3,"frizz_risk":1,"updated_at":"2026-07-04T03:36:38.424512+05:30"},{"city":"Aurangabad","state":"Maharashtra","latitude":19.8762,"longitude":75.3433,"temp":22.4,"humidity":96,"rain":0.2,"pressure":937.7,"uv_index":0.45,"wind_gusts":41.4,"aqi":22,"pm10":1.9,"pm2_5":1.6,"no2":4.9,"co":113.0,"o3":52.0,"so2":3.4,"mosquito_risk":6,"arthritis_risk":5,"migraine_risk":3,"frizz_risk":1,"updated_at":"2026-07-04T03:36:38.424519+05:30"},{"city":"Solapur","state":"Maharashtra","latitude":17.6599,"longitude":75.9064,"temp":23.2,"humidity":94,"rain":0.2,"pressure":952.3,"uv_index":2.8,"wind_gusts":52.6,"aqi":19,"pm10":1.8,"pm2_5":1.7,"no2":4.0,"co":114.0,"o3":41.0,"so2":1.5,"mosquito_risk":6,"arthritis_risk":5,"migraine_risk":3,"frizz_risk":1,"updated_at":"2026-07-04T03:36:38.424526+05:30"},{"city":"Kolhapur","state":"Maharashtra","latitude":16.705,"longitude":74.2433,"temp":21.9,"humidity":96,"rain":0.1,"pressure":943.6,"uv_index":1.35,"wind_gusts":55.8,"aqi":21,"pm10":1.8,"pm2_5":1.4,"no2":2.3,"co":96.0,"o3":48.0,"so2":1.1,"mosquito_risk":6,"arthritis_risk":5,"migraine_risk":3,"frizz_risk":1,"updated_at":"2026-07-04T03:36:38.424533+05:30"},{"city":"Goa","state":"Goa","latitude":15.2993,"longitude":74.124,"temp":23.3,"humidity":99,"rain":0.1,"pressure":996.6,"uv_index":5.45,"wind_gusts":34.6,"aqi":52,"pm10":25.6,"pm2_5":13.2,"no2":2.5,"co":268.0,"o3":48.0,"so2":0.9,"mosquito_risk":6,"arthritis_risk":5,"migraine_risk":3,"frizz_risk":1,"updated_at":"2026-07-04T03:36:38.424540+05:30"},{"city":"Jodhpur","state":"Rajasthan","latitude":26.2389,"longitude":73.0243,"temp":27.5,"humidity":81,"rain":0.0,"pressure":974.9,"uv_index":7.25,"wind_gusts":32.0,"aqi":136,"pm10":140.2,"pm2_5":51.2,"no2":8.4,"co":136.0,"o3":48.0,"so2":2.6,"mosquito_risk":7,"arthritis_risk":5,"migraine_risk":7,"frizz_risk":1,"updated_at":"2026-07-04T03:36:38.424547+05:30"},{"city":"Udaipur","state":"Rajasthan","latitude":24.5854,"longitude":73.7125,"temp":24.5,"humidity":96,"rain":0.3,"pressure":939.5,"uv_index":3.7,"wind_gusts":33.5,"aqi":73,"pm10":29.8,"pm2_5":15.7,"no2":6.5,"co":115.0,"o3":54.0,"so2":3.4,"mosquito_risk":6,"arthritis_risk":5,"migraine_risk":3,"frizz_risk":1,"updated_at":"2026-07-04T03:36:38.424555+05:30"},{"city":"Kota","state":"Rajasthan","latitude":25.2138,"longitude":75.8648,"temp":26.1,"humidity":87,"rain":0.0,"pressure":971.2,"uv_index":7.45,"wind_gusts":27.4,"aqi":86,"pm10":46.6,"pm2_5":22.5,"no2":8.1,"co":186.0,"o3":64.0,"so2":2.0,"mosquito_risk":7,"arthritis_risk":5,"migraine_risk":7,"frizz_risk":1,"updated_at":"2026-07-04T03:36:38.424562+05:30"},{"city":"Bikaner","state":"Rajasthan","latitude":28.0229,"longitude":73.3119,"temp":33.2,"humidity":53,"rain":0.0,"pressure":973.3,"uv_index":8.45,"wind_gusts":29.9,"aqi":114,"pm10":66.1,"pm2_5":39.1,"no2":6.5,"co":144.0,"o3":74.0,"so2":6.4,"mosquito_risk":0,"arthritis_risk":5,"migraine_risk":7,"frizz_risk":1,"updated_at":"2026-07-04T03:36:38.424570+05:30"},{"city":"Ajmer","state":"Rajasthan","latitude":26.4499,"longitude":74.6399,"temp":24.3,"humidity":96,"rain":0.1,"pressure":948.0,"uv_index":8.2,"wind_gusts":32.8,"aqi":105,"pm10":156.5,"pm2_5":55.9,"no2":7.5,"co":141.0,"o3":59.0,"so2":4.3,"mosquito_risk":6,"arthritis_risk":5,"migraine_risk":7,"frizz_risk":1,"updated_at":"2026-07-04T03:36:38.424577+05:30"},{"city":"Gwalior","state":"Madhya Pradesh","latitude":26.2183,"longitude":78.1828,"temp":28.1,"humidity":89,"rain":0.0,"pressure":975.3,"uv_index":7.5,"wind_gusts":37.1,"aqi":74,"pm10":17.8,"pm2_5":15.3,"no2":10.1,"co":250.0,"o3":68.0,"so2":3.3,"mosquito_risk":7,"arthritis_risk":5,"migraine_risk":7,"frizz_risk":1,"updated_at":"2026-07-04T03:36:38.424584+05:30"},{"city":"Indore","state":"Madhya Pradesh","latitude":22.7196,"longitude":75.8577,"temp":24.1,"humidity":95,"rain":0.1,"pressure":940.6,"uv_index":6.55,"wind_gusts":35.3,"aqi":53,"pm10":16.6,"pm2_5":12.3,"no2":7.7,"co":213.0,"o3":54.0,"so2":5.5,"mosquito_risk":6,"arthritis_risk":5,"migraine_risk":7,"frizz_risk":1,"updated_at":"2026-07-04T03:36:38.424592+05:30"},{"city":"Bhopal","state":"Madhya Pradesh","latitude":23.2599,"longitude":77.4126,"temp":24.1,"humidity":97,"rain":0.1,"pressure":945.6,"uv_index":8.6,"wind_gusts":34.9,"aqi":62,"pm10":23.1,"pm2_5":17.8,"no2":7.9,"co":224.0,"o3":67.0,"so2":3.3,"mosquito_risk":6,"arthritis_risk":5,"migraine_risk":7,"frizz_risk":1,"updated_at":"2026-07-04T03:36:38.424599+05:30"},{"city":"Jabalpur","state":"Madhya Pradesh","latitude":23.1815,"longitude":79.9864,"temp":24.8,"humidity":99,"rain":0.0,"pressure":952.8,"uv_index":8.25,"wind_gusts":27.4,"aqi":46,"pm10":8.9,"pm2_5":8.8,"no2":6.6,"co":254.0,"o3":79.0,"so2":2.8,"mosquito_risk":3,"arthritis_risk":5,"migraine_risk":7,"frizz_risk":1,"updated_at":"2026-07-04T03:36:38.424605+05:30"},{"city":"Ujjain","state":"Madhya Pradesh","latitude":23.1765,"longitude":75.7885,"temp":24.2,"humidity":95,"rain":0.1,"pressure":946.2,"uv_index":7.85,"wind_gusts":31.0,"aqi":56,"pm10":10.0,"pm2_5":7.9,"no2":7.4,"co":221.0,"o3":55.0,"so2":7.3,"mosquito_risk":6,"arthritis_risk":5,"migraine_risk":7,"frizz_risk":1,"updated_at":"2026-07-04T03:36:38.424613+05:30"},{"city":"Visakhapatnam","state":"Andhra Pradesh","latitude":17.6868,"longitude":83.2185,"temp":25.1,"humidity":95,"rain":0.2,"pressure":994.1,"uv_index":6.35,"wind_gusts":56.9,"aqi":47,"pm10":11.2,"pm2_5":9.6,"no2":15.2,"co":235.0,"o3":38.0,"so2":21.6,"mosquito_risk":10,"arthritis_risk":5,"migraine_risk":7,"frizz_risk":1,"updated_at":"2026-07-04T03:36:38.424621+05:30"},{"city":"Vijayawada","state":"Andhra Pradesh","latitude":16.5062,"longitude":80.648,"temp":26.0,"humidity":92,"rain":0.2,"pressure":996.0,"uv_index":1.45,"wind_gusts":51.5,"aqi":37,"pm10":7.1,"pm2_5":5.6,"no2":8.2,"co":137.0,"o3":40.0,"so2":5.5,"mosquito_risk":10,"arthritis_risk":5,"migraine_risk":3,"frizz_risk":1,"updated_at":"2026-07-04T03:36:38.424628+05:30"},{"city":"Guntur","state":"Andhra Pradesh","latitude":16.3067,"longitude":80.4365,"temp":25.8,"humidity":91,"rain":0.1,"pressure":997.5,"uv_index":2.05,"wind_gusts":49.0,"aqi":33,"pm10":6.2,"pm2_5":4.7,"no2":7.6,"co":131.0,"o3":39.0,"so2":5.5,"mosquito_risk":10,"arthritis_risk":5,"migraine_risk":3,"frizz_risk":1,"updated_at":"2026-07-04T03:36:38.424636+05:30"},{"city":"Nellore","state":"Andhra Pradesh","latitude":14.4426,"longitude":79.9865,"temp":29.6,"humidity":61,"rain":0.0,"pressure":1001.0,"uv_index":1.35,"wind_gusts":49.3,"aqi":37,"pm10":4.1,"pm2_5":2.7,"no2":5.1,"co":104.0,"o3":42.0,"so2":3.3,"mosquito_risk":7,"arthritis_risk":5,"migraine_risk":0,"frizz_risk":1,"updated_at":"2026-07-04T03:36:38.424643+05:30"},{"city":"Kurnool","state":"Andhra Pradesh","latitude":15.8281,"longitude":78.0373,"temp":26.2,"humidity":74,"rain":0.0,"pressure":972.7,"uv_index":1.2,"wind_gusts":71.6,"aqi":21,"pm10":4.9,"pm2_5":3.5,"no2":5.7,"co":110.0,"o3":37.0,"so2":1.7,"mosquito_risk":7,"arthritis_risk":5,"migraine_risk":3,"frizz_risk":1,"updated_at":"2026-07-04T03:36:38.424652+05:30"},{"city":"Kakinada","state":"Andhra Pradesh","latitude":16.9891,"longitude":82.2475,"temp":26.2,"humidity":85,"rain":0.1,"pressure":999.6,"uv_index":1.6,"wind_gusts":65.2,"aqi":42,"pm10":13.8,"pm2_5":9.7,"no2":7.0,"co":169.0,"o3":57.0,"so2":5.6,"mosquito_risk":10,"arthritis_risk":5,"migraine_risk":3,"frizz_risk":1,"updated_at":"2026-07-04T03:36:38.424659+05:30"},{"city":"Tirupati","state":"Andhra Pradesh","latitude":13.6288,"longitude":79.4192,"temp":28.2,"humidity":64,"rain":0.0,"pressure":987.3,"uv_index":3.25,"wind_gusts":52.6,"aqi":35,"pm10":2.7,"pm2_5":2.2,"no2":4.9,"co":106.0,"o3":40.0,"so2":1.6,"mosquito_risk":7,"arthritis_risk":5,"migraine_risk":3,"frizz_risk":1,"updated_at":"2026-07-04T03:36:38.424666+05:30"},{"city":"Warangal","state":"Telangana","latitude":17.9689,"longitude":79.5941,"temp":24.6,"humidity":91,"rain":0.4,"pressure":971.6,"uv_index":3.6,"wind_gusts":58.0,"aqi":22,"pm10":3.7,"pm2_5":3.4,"no2":6.2,"co":134.0,"o3":37.0,"so2":2.2,"mosquito_risk":6,"arthritis_risk":5,"migraine_risk":3,"frizz_risk":1,"updated_at":"2026-07-04T03:36:38.424673+05:30"},{"city":"Nizamabad","state":"Telangana","latitude":18.6725,"longitude":78.0941,"temp":23.7,"humidity":94,"rain":0.3,"pressure":958.1,"uv_index":0.95,"wind_gusts":49.7,"aqi":20,"pm10":3.1,"pm2_5":2.7,"no2":7.2,"co":129.0,"o3":39.0,"so2":4.7,"mosquito_risk":6,"arthritis_risk":5,"migraine_risk":3,"frizz_risk":1,"updated_at":"2026-07-04T03:36:38.424680+05:30"},{"city":"Mysore","state":"Karnataka","latitude":12.2958,"longitude":76.6396,"temp":21.5,"humidity":95,"rain":0.1,"pressure":926.8,"uv_index":6.1,"wind_gusts":68.8,"aqi":20,"pm10":1.1,"pm2_5":1.0,"no2":2.7,"co":99.0,"o3":45.0,"so2":1.1,"mosquito_risk":6,"arthritis_risk":5,"migraine_risk":7,"frizz_risk":1,"updated_at":"2026-07-04T03:36:38.424687+05:30"},{"city":"Mangalore","state":"Karnataka","latitude":12.9141,"longitude":74.856,"temp":25.3,"humidity":94,"rain":0.1,"pressure":1007.0,"uv_index":7.9,"wind_gusts":59.0,"aqi":37,"pm10":14.7,"pm2_5":7.6,"no2":1.2,"co":85.0,"o3":49.0,"so2":0.7,"mosquito_risk":10,"arthritis_risk":5,"migraine_risk":4,"frizz_risk":1,"updated_at":"2026-07-04T03:36:38.424694+05:30"},{"city":"Hubli-Dharwad","state":"Karnataka","latitude":15.3647,"longitude":75.124,"temp":21.6,"humidity":95,"rain":0.0,"pressure":937.9,"uv_index":1.65,"wind_gusts":58.7,"aqi":20,"pm10":1.5,"pm2_5":1.0,"no2":1.9,"co":95.0,"o3":46.0,"so2":0.9,"mosquito_risk":3,"arthritis_risk":5,"migraine_risk":3,"frizz_risk":1,"updated_at":"2026-07-04T03:36:38.424701+05:30"},{"city":"Belgaum","state":"Karnataka","latitude":15.8497,"longitude":74.4977,"temp":20.3,"humidity":98,"rain":0.0,"pressure":922.3,"uv_index":1.35,"wind_gusts":55.8,"aqi":21,"pm10":2.0,"pm2_5":1.5,"no2":2.3,"co":89.0,"o3":46.0,"so2":1.1,"mosquito_risk":3,"arthritis_risk":5,"migraine_risk":3,"frizz_risk":1,"updated_at":"2026-07-04T03:36:41.830140+05:30"},{"city":"Coimbatore","state":"Tamil Nadu","latitude":11.0168,"longitude":76.9558,"temp":22.5,"humidity":98,"rain":0.0,"pressure":960.4,"uv_index":7.4,"wind_gusts":53.6,"aqi":19,"pm10":1.8,"pm2_5":1.5,"no2":3.4,"co":111.0,"o3":42.0,"so2":1.7,"mosquito_risk":3,"arthritis_risk":5,"migraine_risk":7,"frizz_risk":1,"updated_at":"2026-07-04T03:36:41.830175+05:30"},{"city":"Madurai","state":"Tamil Nadu","latitude":9.9252,"longitude":78.1198,"temp":27.2,"humidity":67,"rain":0.0,"pressure":992.2,"uv_index":7.75,"wind_gusts":58.7,"aqi":26,"pm10":6.9,"pm2_5":6.0,"no2":10.1,"co":126.0,"o3":30.0,"so2":4.0,"mosquito_risk":7,"arthritis_risk":5,"migraine_risk":7,"frizz_risk":1,"updated_at":"2026-07-04T03:36:41.830189+05:30"},{"city":"Trichy","state":"Tamil Nadu","latitude":10.7905,"longitude":78.7047,"temp":27.2,"humidity":70,"rain":0.0,"pressure":998.5,"uv_index":8.5,"wind_gusts":73.1,"aqi":20,"pm10":4.3,"pm2_5":3.0,"no2":5.8,"co":99.0,"o3":39.0,"so2":2.5,"mosquito_risk":7,"arthritis_risk":5,"migraine_risk":7,"frizz_risk":1,"updated_at":"2026-07-04T03:36:41.830199+05:30"},{"city":"Salem","state":"Tamil Nadu","latitude":11.6643,"longitude":78.146,"temp":24.0,"humidity":96,"rain":0.1,"pressure":976.2,"uv_index":8.55,"wind_gusts":36.0,"aqi":39,"pm10":12.1,"pm2_5":10.8,"no2":18.2,"co":229.0,"o3":22.0,"so2":6.2,"mosquito_risk":6,"arthritis_risk":5,"migraine_risk":7,"frizz_risk":1,"updated_at":"2026-07-04T03:36:41.830209+05:30"},{"city":"Tirunelveli","state":"Tamil Nadu","latitude":8.7139,"longitude":77.7567,"temp":27.8,"humidity":69,"rain":0.0,"pressure":1003.3,"uv_index":6.5,"wind_gusts":52.9,"aqi":22,"pm10":3.5,"pm2_5":2.6,"no2":4.6,"co":123.0,"o3":35.0,"so2":1.6,"mosquito_risk":7,"arthritis_risk":5,"migraine_risk":4,"frizz_risk":1,"updated_at":"2026-07-04T03:36:41.830218+05:30"},{"city":"Vellore","state":"Tamil Nadu","latitude":12.9165,"longitude":79.1325,"temp":26.5,"humidity":72,"rain":0.0,"pressure":981.5,"uv_index":2.2,"wind_gusts":52.6,"aqi":27,"pm10":3.2,"pm2_5":2.6,"no2":5.8,"co":121.0,"o3":40.0,"so2":2.5,"mosquito_risk":7,"arthritis_risk":5,"migraine_risk":3,"frizz_risk":1,"updated_at":"2026-07-04T03:36:41.830228+05:30"},{"city":"Erode","state":"Tamil Nadu","latitude":11.341,"longitude":77.7172,"temp":24.5,"humidity":86,"rain":0.0,"pressure":988.0,"uv_index":8.65,"wind_gusts":51.8,"aqi":27,"pm10":6.8,"pm2_5":5.7,"no2":10.0,"co":125.0,"o3":35.0,"so2":2.9,"mosquito_risk":3,"arthritis_risk":5,"migraine_risk":7,"frizz_risk":1,"updated_at":"2026-07-04T03:36:41.830237+05:30"},{"city":"Kochi","state":"Kerala","latitude":9.9312,"longitude":76.2673,"temp":24.9,"humidity":94,"rain":0.1,"pressure":1010.2,"uv_index":5.9,"wind_gusts":43.2,"aqi":38,"pm10":12.6,"pm2_5":7.5,"no2":6.8,"co":87.0,"o3":32.0,"so2":2.3,"mosquito_risk":6,"arthritis_risk":0,"migraine_risk":0,"frizz_risk":1,"updated_at":"2026-07-04T03:36:41.830246+05:30"},{"city":"Thiruvananthapuram","state":"Kerala","latitude":8.5241,"longitude":76.9366,"temp":24.1,"humidity":96,"rain":0.2,"pressure":1009.6,"uv_index":3.95,"wind_gusts":47.9,"aqi":32,"pm10":13.8,"pm2_5":6.6,"no2":1.7,"co":85.0,"o3":49.0,"so2":0.6,"mosquito_risk":6,"arthritis_risk":0,"migraine_risk":0,"frizz_risk":1,"updated_at":"2026-07-04T03:36:41.830254+05:30"},{"city":"Kozhikode","state":"Kerala","latitude":11.2588,"longitude":75.7804,"temp":24.8,"humidity":96,"rain":0.2,"pressure":1008.9,"uv_index":7.5,"wind_gusts":36.7,"aqi":33,"pm10":20.1,"pm2_5":9.0,"no2":0.7,"co":86.0,"o3":55.0,"so2":0.4,"mosquito_risk":6,"arthritis_risk":0,"migraine_risk":4,"frizz_risk":1,"updated_at":"2026-07-04T03:36:41.830263+05:30"},{"city":"Thrissur","state":"Kerala","latitude":10.5276,"longitude":76.2144,"temp":24.4,"humidity":98,"rain":0.1,"pressure":1008.4,"uv_index":8.3,"wind_gusts":38.5,"aqi":34,"pm10":12.1,"pm2_5":7.7,"no2":4.7,"co":94.0,"o3":38.0,"so2":1.6,"mosquito_risk":6,"arthritis_risk":0,"migraine_risk":4,"frizz_risk":1,"updated_at":"2026-07-04T03:36:41.830273+05:30"},{"city":"Kannur","state":"Kerala","latitude":11.8745,"longitude":75.3704,"temp":25.1,"humidity":95,"rain":0.0,"pressure":1008.0,"uv_index":6.55,"wind_gusts":41.0,"aqi":33,"pm10":17.3,"pm2_5":9.1,"no2":2.0,"co":92.0,"o3":46.0,"so2":0.7,"mosquito_risk":7,"arthritis_risk":0,"migraine_risk":4,"frizz_risk":1,"updated_at":"2026-07-04T03:36:41.830282+05:30"},{"city":"Patna","state":"Bihar","latitude":25.5941,"longitude":85.1376,"temp":29.3,"humidity":81,"rain":0.0,"pressure":992.1,"uv_index":8.5,"wind_gusts":34.2,"aqi":78,"pm10":20.2,"pm2_5":19.8,"no2":15.7,"co":295.0,"o3":62.0,"so2":12.4,"mosquito_risk":7,"arthritis_risk":5,"migraine_risk":7,"frizz_risk":1,"updated_at":"2026-07-04T03:36:41.830290+05:30"},{"city":"Gaya","state":"Bihar","latitude":24.7914,"longitude":85.0002,"temp":28.5,"humidity":80,"rain":0.0,"pressure":985.3,"uv_index":8.55,"wind_gusts":36.0,"aqi":69,"pm10":21.0,"pm2_5":20.9,"no2":16.0,"co":297.0,"o3":53.0,"so2":17.2,"mosquito_risk":7,"arthritis_risk":5,"migraine_risk":7,"frizz_risk":1,"updated_at":"2026-07-04T03:36:41.830300+05:30"},{"city":"Muzaffarpur","state":"Bihar","latitude":26.1209,"longitude":85.3647,"temp":29.2,"humidity":81,"rain":0.0,"pressure":992.4,"uv_index":7.5,"wind_gusts":32.8,"aqi":79,"pm10":24.9,"pm2_5":24.6,"no2":16.6,"co":358.0,"o3":58.0,"so2":12.4,"mosquito_risk":7,"arthritis_risk":5,"migraine_risk":7,"frizz_risk":1,"updated_at":"2026-07-04T03:36:41.830309+05:30"},{"city":"Bhagalpur","state":"Bihar","latitude":25.2425,"longitude":87.0117,"temp":27.5,"humidity":92,"rain":0.0,"pressure":993.5,"uv_index":8.5,"wind_gusts":37.4,"aqi":67,"pm10":18.7,"pm2_5":18.3,"no2":15.4,"co":277.0,"o3":57.0,"so2":9.5,"mosquito_risk":7,"arthritis_risk":5,"migraine_risk":7,"frizz_risk":1,"updated_at":"2026-07-04T03:36:41.830318+05:30"},{"city":"Ranchi","state":"Jharkhand","latitude":23.3441,"longitude":85.3096,"temp":23.1,"humidity":98,"rain":0.0,"pressure":929.0,"uv_index":6.75,"wind_gusts":48.2,"aqi":64,"pm10":16.0,"pm2_5":15.8,"no2":14.8,"co":317.0,"o3":50.0,"so2":18.6,"mosquito_risk":3,"arthritis_risk":5,"migraine_risk":7,"frizz_risk":1,"updated_at":"2026-07-04T03:36:41.830327+05:30"},{"city":"Jamshedpur","state":"Jharkhand","latitude":22.8046,"longitude":86.2029,"temp":25.2,"humidity":98,"rain":0.0,"pressure":981.4,"uv_index":6.05,"wind_gusts":46.8,"aqi":58,"pm10":18.3,"pm2_5":17.3,"no2":19.2,"co":365.0,"o3":32.0,"so2":19.4,"mosquito_risk":7,"arthritis_risk":5,"migraine_risk":7,"frizz_risk":1,"updated_at":"2026-07-04T03:36:41.830336+05:30"},{"city":"Dhanbad","state":"Jharkhand","latitude":23.7957,"longitude":86.4304,"temp":25.6,"humidity":96,"rain":0.0,"pressure":971.2,"uv_index":7.45,"wind_gusts":52.9,"aqi":99,"pm10":38.9,"pm2_5":37.5,"no2":40.4,"co":269.0,"o3":23.0,"so2":98.9,"mosquito_risk":7,"arthritis_risk":5,"migraine_risk":7,"frizz_risk":1,"updated_at":"2026-07-04T03:36:41.830368+05:30"},{"city":"Bokaro","state":"Jharkhand","latitude":23.6693,"longitude":86.1511,"temp":25.5,"humidity":98,"rain":0.0,"pressure":975.1,"uv_index":7.55,"wind_gusts":48.6,"aqi":113,"pm10":44.4,"pm2_5":43.5,"no2":46.7,"co":436.0,"o3":19.0,"so2":113.6,"mosquito_risk":7,"arthritis_risk":5,"migraine_risk":7,"frizz_risk":1,"updated_at":"2026-07-04T03:36:41.830379+05:30"},{"city":"Bhubaneswar","state":"Odisha","latitude":20.2961,"longitude":85.8245,"temp":25.7,"humidity":96,"rain":0.3,"pressure":990.5,"uv_index":5.45,"wind_gusts":33.1,"aqi":66,"pm10":19.2,"pm2_5":19.2,"no2":13.6,"co":259.0,"o3":67.0,"so2":12.7,"mosquito_risk":10,"arthritis_risk":5,"migraine_risk":3,"frizz_risk":1,"updated_at":"2026-07-04T03:36:41.830389+05:30"},{"city":"Cuttack","state":"Odisha","latitude":20.4625,"longitude":85.8828,"temp":26.1,"humidity":96,"rain":0.1,"pressure":992.4,"uv_index":3.35,"wind_gusts":29.2,"aqi":66,"pm10":19.2,"pm2_5":19.2,"no2":13.6,"co":219.0,"o3":67.0,"so2":12.7,"mosquito_risk":10,"arthritis_risk":5,"migraine_risk":3,"frizz_risk":1,"updated_at":"2026-07-04T03:36:41.830398+05:30"},{"city":"Rourkela","state":"Odisha","latitude":22.2604,"longitude":84.8536,"temp":25.0,"humidity":97,"rain":0.0,"pressure":975.0,"uv_index":7.35,"wind_gusts":50.4,"aqi":73,"pm10":26.7,"pm2_5":26.5,"no2":19.4,"co":267.0,"o3":47.0,"so2":26.6,"mosquito_risk":7,"arthritis_risk":5,"migraine_risk":7,"frizz_risk":1,"updated_at":"2026-07-04T03:36:41.830407+05:30"},{"city":"Raipur","state":"Chhattisgarh","latitude":21.2514,"longitude":81.6296,"temp":25.0,"humidity":94,"rain":0.0,"pressure":965.4,"uv_index":7.25,"wind_gusts":31.7,"aqi":69,"pm10":19.5,"pm2_5":19.2,"no2":35.2,"co":410.0,"o3":39.0,"so2":56.2,"mosquito_risk":7,"arthritis_risk":5,"migraine_risk":7,"frizz_risk":1,"updated_at":"2026-07-04T03:36:41.830414+05:30"},{"city":"Bhilai","state":"Chhattisgarh","latitude":21.1938,"longitude":81.3509,"temp":24.8,"humidity":96,"rain":0.0,"pressure":965.8,"uv_index":8.25,"wind_gusts":37.8,"aqi":60,"pm10":14.5,"pm2_5":14.1,"no2":27.6,"co":736.0,"o3":50.0,"so2":44.7,"mosquito_risk":3,"arthritis_risk":5,"migraine_risk":7,"frizz_risk":1,"updated_at":"2026-07-04T03:36:41.830421+05:30"},{"city":"Guwahati","state":"Assam","latitude":26.1158,"longitude":91.7086,"temp":27.6,"humidity":96,"rain":0.0,"pressure":994.4,"uv_index":8.7,"wind_gusts":29.9,"aqi":38,"pm10":4.0,"pm2_5":3.9,"no2":5.1,"co":235.0,"o3":53.0,"so2":0.8,"mosquito_risk":7,"arthritis_risk":5,"migraine_risk":7,"frizz_risk":1,"updated_at":"2026-07-04T03:36:41.830428+05:30"},{"city":"Agartala","state":"Tripura","latitude":23.8315,"longitude":91.2868,"temp":25.9,"humidity":99,"rain":0.2,"pressure":999.7,"uv_index":8.25,"wind_gusts":38.5,"aqi":49,"pm10":16.3,"pm2_5":16.0,"no2":14.2,"co":184.0,"o3":21.0,"so2":2.3,"mosquito_risk":10,"arthritis_risk":5,"migraine_risk":7,"frizz_risk":1,"updated_at":"2026-07-04T03:36:41.830435+05:30"},{"city":"Shillong","state":"Meghalaya","latitude":25.5788,"longitude":91.8933,"temp":19.3,"humidity":95,"rain":0.0,"pressure":852.4,"uv_index":8.6,"wind_gusts":31.3,"aqi":31,"pm10":1.2,"pm2_5":1.2,"no2":3.7,"co":226.0,"o3":58.0,"so2":0.8,"mosquito_risk":3,"arthritis_risk":10,"migraine_risk":7,"frizz_risk":1,"updated_at":"2026-07-04T03:36:41.830442+05:30"},{"city":"Imphal","state":"Manipur","latitude":24.817,"longitude":93.9368,"temp":22.1,"humidity":98,"rain":0.3,"pressure":918.7,"uv_index":7.55,"wind_gusts":29.5,"aqi":37,"pm10":8.0,"pm2_5":7.9,"no2":8.0,"co":237.0,"o3":29.0,"so2":1.6,"mosquito_risk":6,"arthritis_risk":5,"migraine_risk":7,"frizz_risk":1,"updated_at":"2026-07-04T03:36:41.830449+05:30"},{"city":"Aizawl","state":"Mizoram","latitude":23.7271,"longitude":92.7176,"temp":20.8,"humidity":99,"rain":0.0,"pressure":886.4,"uv_index":8.1,"wind_gusts":23.8,"aqi":20,"pm10":2.1,"pm2_5":2.1,"no2":6.0,"co":153.0,"o3":15.0,"so2":0.4,"mosquito_risk":3,"arthritis_risk":5,"migraine_risk":7,"frizz_risk":1,"updated_at":"2026-07-04T03:36:41.830456+05:30"},{"city":"Kohima","state":"Nagaland","latitude":25.6701,"longitude":94.1077,"temp":19.2,"humidity":89,"rain":0.0,"pressure":850.6,"uv_index":9.0,"wind_gusts":29.5,"aqi":24,"pm10":5.5,"pm2_5":5.5,"no2":9.2,"co":173.0,"o3":20.0,"so2":0.7,"mosquito_risk":3,"arthritis_risk":10,"migraine_risk":7,"frizz_risk":1,"updated_at":"2026-07-04T03:36:41.830464+05:30"},{"city":"Gangtok","state":"Sikkim","latitude":27.3314,"longitude":88.6138,"temp":19.1,"humidity":92,"rain":0.0,"pressure":833.8,"uv_index":9.15,"wind_gusts":31.7,"aqi":40,"pm10":9.6,"pm2_5":9.4,"no2":7.0,"co":320.0,"o3":84.0,"so2":1.6,"mosquito_risk":3,"arthritis_risk":10,"migraine_risk":7,"frizz_risk":1,"updated_at":"2026-07-04T03:36:41.830471+05:30"},{"city":"Siliguri","state":"West Bengal","latitude":26.7271,"longitude":88.3953,"temp":26.9,"humidity":96,"rain":0.0,"pressure":986.4,"uv_index":8.7,"wind_gusts":29.9,"aqi":79,"pm10":33.1,"pm2_5":32.4,"no2":15.6,"co":263.0,"o3":70.0,"so2":5.5,"mosquito_risk":7,"arthritis_risk":5,"migraine_risk":7,"frizz_risk":1,"updated_at":"2026-07-04T03:36:45.353524+05:30"},{"city":"Durgapur","state":"West Bengal","latitude":23.5204,"longitude":87.3119,"temp":27.2,"humidity":91,"rain":0.0,"pressure":985.9,"uv_index":5.25,"wind_gusts":51.1,"aqi":85,"pm10":34.0,"pm2_5":32.9,"no2":31.2,"co":419.0,"o3":22.0,"so2":29.8,"mosquito_risk":7,"arthritis_risk":5,"migraine_risk":3,"frizz_risk":1,"updated_at":"2026-07-04T03:36:45.353556+05:30"},{"city":"Asansol","state":"West Bengal","latitude":23.6739,"longitude":86.9524,"temp":26.8,"humidity":95,"rain":0.0,"pressure":984.7,"uv_index":6.8,"wind_gusts":48.2,"aqi":83,"pm10":29.1,"pm2_5":27.8,"no2":34.2,"co":401.0,"o3":24.0,"so2":38.2,"mosquito_risk":7,"arthritis_risk":5,"migraine_risk":7,"frizz_risk":1,"updated_at":"2026-07-04T03:36:45.353567+05:30"},{"city":"Pondicherry","state":"Puducherry","latitude":11.9139,"longitude":79.8145,"temp":27.3,"humidity":77,"rain":0.0,"pressure":1005.9,"uv_index":7.1,"wind_gusts":41.4,"aqi":51,"pm10":10.1,"pm2_5":8.5,"no2":12.1,"co":234.0,"o3":41.0,"so2":7.8,"mosquito_risk":7,"arthritis_risk":5,"migraine_risk":4,"frizz_risk":1,"updated_at":"2026-07-04T03:36:45.353576+05:30"},{"city":"Port Blair","state":"Andaman and Nicobar Islands","latitude":11.6234,"longitude":92.7265,"temp":25.1,"humidity":97,"rain":0.4,"pressure":1005.7,"uv_index":6.8,"wind_gusts":53.6,"aqi":41,"pm10":16.0,"pm2_5":8.5,"no2":0.2,"co":95.0,"o3":59.0,"so2":0.5,"mosquito_risk":10,"arthritis_risk":5,"migraine_risk":4,"frizz_risk":1,"updated_at":"2026-07-04T03:36:45.353584+05:30"},{"city":"Haridwar","state":"Uttarakhand","latitude":29.9457,"longitude":78.1642,"temp":26.8,"humidity":96,"rain":0.0,"pressure":967.6,"uv_index":7.5,"wind_gusts":20.2,"aqi":96,"pm10":60.3,"pm2_5":60.1,"no2":41.4,"co":402.0,"o3":8.0,"so2":6.1,"mosquito_risk":7,"arthritis_risk":5,"migraine_risk":7,"frizz_risk":1,"updated_at":"2026-07-04T03:36:45.353592+05:30"},{"city":"Rishikesh","state":"Uttarakhand","latitude":30.0869,"longitude":78.2676,"temp":26.1,"humidity":95,"rain":0.0,"pressure":960.5,"uv_index":6.85,"wind_gusts":20.9,"aqi":70,"pm10":27.1,"pm2_5":26.7,"no2":21.9,"co":389.0,"o3":47.0,"so2":4.3,"mosquito_risk":7,"arthritis_risk":5,"migraine_risk":7,"frizz_risk":1,"updated_at":"2026-07-04T03:36:45.353601+05:30"},{"city":"Nainital","state":"Uttarakhand","latitude":29.3919,"longitude":79.4542,"temp":15.9,"humidity":100,"rain":0.0,"pressure":801.9,"uv_index":6.95,"wind_gusts":26.6,"aqi":70,"pm10":20.3,"pm2_5":20.2,"no2":19.6,"co":313.0,"o3":35.0,"so2":1.8,"mosquito_risk":3,"arthritis_risk":10,"migraine_risk":7,"frizz_risk":0,"updated_at":"2026-07-04T03:36:45.353608+05:30"},{"city":"Mussoorie","state":"Uttarakhand","latitude":30.4599,"longitude":78.0664,"temp":16.7,"humidity":99,"rain":0.0,"pressure":799.5,"uv_index":6.1,"wind_gusts":32.0,"aqi":68,"pm10":29.5,"pm2_5":29.4,"no2":27.4,"co":299.0,"o3":17.0,"so2":2.8,"mosquito_risk":3,"arthritis_risk":10,"migraine_risk":7,"frizz_risk":1,"updated_at":"2026-07-04T03:36:45.353616+05:30"},{"city":"Dharamshala","state":"Himachal Pradesh","latitude":32.219,"longitude":76.3234,"temp":22.1,"humidity":89,"rain":0.0,"pressure":865.4,"uv_index":8.45,"wind_gusts":31.7,"aqi":29,"pm10":8.8,"pm2_5":8.6,"no2":17.0,"co":329.0,"o3":40.0,"so2":0.1,"mosquito_risk":3,"arthritis_risk":5,"migraine_risk":7,"frizz_risk":1,"updated_at":"2026-07-04T03:36:45.353623+05:30"},{"city":"Dalhousie","state":"Himachal Pradesh","latitude":32.5387,"longitude":75.971,"temp":16.2,"humidity":97,"rain":0.1,"pressure":801.1,"uv_index":8.5,"wind_gusts":29.5,"aqi":55,"pm10":25.6,"pm2_5":24.9,"no2":36.4,"co":345.0,"o3":12.0,"so2":1.0,"mosquito_risk":6,"arthritis_risk":10,"migraine_risk":7,"frizz_risk":0,"updated_at":"2026-07-04T03:36:45.353631+05:30"},{"city":"Patiala","state":"Punjab","latitude":30.3398,"longitude":76.3869,"temp":28.8,"humidity":86,"rain":0.0,"pressure":971.5,"uv_index":7.55,"wind_gusts":23.0,"aqi":102,"pm10":77.3,"pm2_5":74.3,"no2":37.0,"co":585.0,"o3":32.0,"so2":8.7,"mosquito_risk":7,"arthritis_risk":5,"migraine_risk":7,"frizz_risk":1,"updated_at":"2026-07-04T03:36:45.353639+05:30"},{"city":"Bhatinda","state":"Punjab","latitude":30.211,"longitude":74.9455,"temp":30.2,"humidity":75,"rain":0.0,"pressure":976.6,"uv_index":8.25,"wind_gusts":31.3,"aqi":117,"pm10":45.8,"pm2_5":39.9,"no2":25.5,"co":500.0,"o3":59.0,"so2":7.0,"mosquito_risk":3,"arthritis_risk":5,"migraine_risk":7,"frizz_risk":1,"updated_at":"2026-07-04T03:36:45.353646+05:30"},{"city":"Rohtak","state":"Haryana","latitude":28.8955,"longitude":76.6066,"temp":29.6,"humidity":80,"rain":0.0,"pressure":974.7,"uv_index":6.8,"wind_gusts":17.3,"aqi":138,"pm10":89.2,"pm2_5":68.5,"no2":48.5,"co":755.0,"o3":31.0,"so2":28.3,"mosquito_risk":7,"arthritis_risk":5,"migraine_risk":7,"frizz_risk":1,"updated_at":"2026-07-04T03:36:45.353653+05:30"},{"city":"Panipat","state":"Haryana","latitude":29.3909,"longitude":76.9635,"temp":28.6,"humidity":84,"rain":0.0,"pressure":973.7,"uv_index":6.85,"wind_gusts":20.2,"aqi":149,"pm10":218.4,"pm2_5":77.1,"no2":30.9,"co":740.0,"o3":42.0,"so2":12.2,"mosquito_risk":7,"arthritis_risk":5,"migraine_risk":7,"frizz_risk":1,"updated_at":"2026-07-04T03:36:45.353661+05:30"},{"city":"Mathura","state":"Uttar Pradesh","latitude":27.4924,"longitude":77.6737,"temp":29.0,"humidity":81,"rain":0.0,"pressure":979.1,"uv_index":7.15,"wind_gusts":24.8,"aqi":106,"pm10":56.6,"pm2_5":51.6,"no2":38.1,"co":594.0,"o3":35.0,"so2":9.2,"mosquito_risk":7,"arthritis_risk":5,"migraine_risk":7,"frizz_risk":1,"updated_at":"2026-07-04T03:36:45.353668+05:30"},{"city":"Vrindavan","state":"Uttar Pradesh","latitude":27.5823,"longitude":77.7027,"temp":29.2,"humidity":79,"rain":0.0,"pressure":979.6,"uv_index":7.1,"wind_gusts":24.8,"aqi":106,"pm10":56.6,"pm2_5":51.6,"no2":38.1,"co":529.0,"o3":35.0,"so2":9.2,"mosquito_risk":7,"arthritis_risk":5,"migraine_risk":7,"frizz_risk":1,"updated_at":"2026-07-04T03:36:45.353675+05:30"},{"city":"Ayodhya","state":"Uttar Pradesh","latitude":26.7922,"longitude":82.1998,"temp":29.6,"humidity":79,"rain":0.0,"pressure":987.4,"uv_index":7.9,"wind_gusts":27.7,"aqi":84,"pm10":23.8,"pm2_5":23.6,"no2":14.0,"co":455.0,"o3":81.0,"so2":5.1,"mosquito_risk":7,"arthritis_risk":5,"migraine_risk":7,"frizz_risk":1,"updated_at":"2026-07-04T03:36:45.353682+05:30"},{"city":"Ratlam","state":"Madhya Pradesh","latitude":23.3315,"longitude":75.0367,"temp":23.9,"humidity":99,"rain":0.1,"pressure":947.6,"uv_index":5.2,"wind_gusts":30.6,"aqi":57,"pm10":7.5,"pm2_5":5.8,"no2":7.9,"co":180.0,"o3":53.0,"so2":7.3,"mosquito_risk":6,"arthritis_risk":5,"migraine_risk":3,"frizz_risk":1,"updated_at":"2026-07-04T03:36:45.353689+05:30"},{"city":"Sagar","state":"Madhya Pradesh","latitude":23.8388,"longitude":78.7378,"temp":23.7,"humidity":99,"rain":0.0,"pressure":942.1,"uv_index":8.0,"wind_gusts":27.7,"aqi":46,"pm10":8.7,"pm2_5":8.6,"no2":7.2,"co":225.0,"o3":76.0,"so2":1.9,"mosquito_risk":3,"arthritis_risk":5,"migraine_risk":7,"frizz_risk":1,"updated_at":"2026-07-04T03:36:45.353696+05:30"},{"city":"Satna","state":"Madhya Pradesh","latitude":24.6005,"longitude":80.8322,"temp":25.8,"humidity":99,"rain":0.0,"pressure":963.0,"uv_index":6.95,"wind_gusts":42.8,"aqi":59,"pm10":18.4,"pm2_5":18.3,"no2":7.5,"co":284.0,"o3":87.0,"so2":3.8,"mosquito_risk":7,"arthritis_risk":5,"migraine_risk":7,"frizz_risk":1,"updated_at":"2026-07-04T03:36:45.353704+05:30"},{"city":"Akola","state":"Maharashtra","latitude":20.7002,"longitude":77.0082,"temp":24.5,"humidity":95,"rain":0.4,"pressure":967.9,"uv_index":1.25,"wind_gusts":43.2,"aqi":30,"pm10":2.8,"pm2_5":2.4,"no2":7.3,"co":140.0,"o3":50.0,"so2":5.2,"mosquito_risk":6,"arthritis_risk":5,"migraine_risk":3,"frizz_risk":1,"updated_at":"2026-07-04T03:36:45.353711+05:30"},{"city":"Amravati","state":"Maharashtra","latitude":20.9374,"longitude":77.7796,"temp":23.9,"humidity":99,"rain":0.5,"pressure":959.0,"uv_index":7.65,"wind_gusts":43.9,"aqi":31,"pm10":2.9,"pm2_5":2.6,"no2":8.6,"co":148.0,"o3":49.0,"so2":6.4,"mosquito_risk":6,"arthritis_risk":5,"migraine_risk":7,"frizz_risk":1,"updated_at":"2026-07-04T03:36:45.353720+05:30"},{"city":"Latur","state":"Maharashtra","latitude":18.4088,"longitude":76.5604,"temp":23.1,"humidity":92,"rain":0.0,"pressure":934.0,"uv_index":0.9,"wind_gusts":55.1,"aqi":20,"pm10":1.9,"pm2_5":1.8,"no2":4.6,"co":113.0,"o3":42.0,"so2":2.4,"mosquito_risk":3,"arthritis_risk":5,"migraine_risk":3,"frizz_risk":1,"updated_at":"2026-07-04T03:36:45.353727+05:30"},{"city":"Nanded","state":"Maharashtra","latitude":19.1383,"longitude":77.3091,"temp":24.1,"humidity":94,"rain":0.3,"pressure":962.1,"uv_index":0.4,"wind_gusts":44.3,"aqi":21,"pm10":2.4,"pm2_5":2.2,"no2":6.5,"co":127.0,"o3":42.0,"so2":4.1,"mosquito_risk":6,"arthritis_risk":5,"migraine_risk":3,"frizz_risk":1,"updated_at":"2026-07-04T03:36:45.353735+05:30"},{"city":"Gulbarga","state":"Karnataka","latitude":17.3297,"longitude":76.8343,"temp":23.1,"humidity":93,"rain":0.2,"pressure":953.8,"uv_index":1.1,"wind_gusts":62.6,"aqi":19,"pm10":2.4,"pm2_5":2.0,"no2":4.4,"co":112.0,"o3":41.0,"so2":2.2,"mosquito_risk":6,"arthritis_risk":5,"migraine_risk":3,"frizz_risk":1,"updated_at":"2026-07-04T03:36:45.353742+05:30"},{"city":"Bidar","state":"Karnataka","latitude":17.9104,"longitude":77.5199,"temp":22.5,"humidity":96,"rain":0.2,"pressure":929.6,"uv_index":0.65,"wind_gusts":55.8,"aqi":19,"pm10":2.1,"pm2_5":2.0,"no2":4.9,"co":119.0,"o3":39.0,"so2":1.8,"mosquito_risk":6,"arthritis_risk":5,"migraine_risk":3,"frizz_risk":1,"updated_at":"2026-07-04T03:36:45.353748+05:30"},{"city":"Hospet","state":"Karnataka","latitude":15.2689,"longitude":76.3909,"temp":23.3,"humidity":87,"rain":0.0,"pressure":952.8,"uv_index":2.15,"wind_gusts":75.6,"aqi":20,"pm10":1.8,"pm2_5":1.5,"no2":3.8,"co":98.0,"o3":42.0,"so2":1.3,"mosquito_risk":3,"arthritis_risk":5,"migraine_risk":3,"frizz_risk":1,"updated_at":"2026-07-04T03:36:45.353755+05:30"},{"city":"Tirupur","state":"Tamil Nadu","latitude":11.1085,"longitude":77.3411,"temp":23.5,"humidity":93,"rain":0.0,"pressure":973.8,"uv_index":8.7,"wind_gusts":61.6,"aqi":30,"pm10":7.7,"pm2_5":6.8,"no2":12.2,"co":114.0,"o3":30.0,"so2":3.5,"mosquito_risk":3,"arthritis_risk":5,"migraine_risk":7,"frizz_risk":1,"updated_at":"2026-07-04T03:36:45.353762+05:30"},{"city":"Alappuzha","state":"Kerala","latitude":9.4981,"longitude":76.3388,"temp":25.0,"humidity":95,"rain":0.2,"pressure":1010.2,"uv_index":5.6,"wind_gusts":41.0,"aqi":41,"pm10":18.6,"pm2_5":8.9,"no2":2.8,"co":84.0,"o3":45.0,"so2":1.2,"mosquito_risk":10,"arthritis_risk":0,"migraine_risk":0,"frizz_risk":1,"updated_at":"2026-07-04T03:36:45.353769+05:30"},{"city":"Munnar","state":"Kerala","latitude":10.0889,"longitude":77.0595,"temp":16.6,"humidity":100,"rain":0.6,"pressure":856.2,"uv_index":6.25,"wind_gusts":59.4,"aqi":14,"pm10":1.3,"pm2_5":1.2,"no2":4.6,"co":85.0,"o3":32.0,"so2":1.5,"mosquito_risk":6,"arthritis_risk":10,"migraine_risk":7,"frizz_risk":1,"updated_at":"2026-07-04T03:36:45.353776+05:30"},{"city":"Silchar","state":"Assam","latitude":24.8333,"longitude":92.7789,"temp":26.5,"humidity":97,"rain":0.0,"pressure":998.4,"uv_index":8.5,"wind_gusts":43.9,"aqi":56,"pm10":21.1,"pm2_5":20.8,"no2":11.1,"co":207.0,"o3":37.0,"so2":5.0,"mosquito_risk":7,"arthritis_risk":5,"migraine_risk":7,"frizz_risk":1,"updated_at":"2026-07-04T03:36:45.353783+05:30"},{"city":"Dibrugarh","state":"Assam","latitude":27.4728,"longitude":94.912,"temp":27.7,"humidity":82,"rain":0.0,"pressure":988.8,"uv_index":8.9,"wind_gusts":24.8,"aqi":56,"pm10":16.8,"pm2_5":16.1,"no2":13.7,"co":263.0,"o3":32.0,"so2":1.1,"mosquito_risk":7,"arthritis_risk":5,"migraine_risk":7,"frizz_risk":1,"updated_at":"2026-07-04T03:36:45.353807+05:30"}]