[{"city":"Delhi","state":"Delhi","latitude":28.6139,"longitude":77.209,"temp":31.0,"humidity":77,"rain":0.0,"pressure":975.3,"uv_index":7.75,"wind_gusts":20.2,"aqi":136,"pm10":73.1,"pm2_5":70.1,"no2":65.6,"co":1349.0,"o3":58.0,"so2":45.6,"mosquito_risk":3,"arthritis_risk":5,"migraine_risk":7,"frizz_risk":1,"updated_at":"2026-07-07T00:27:11.607446+05:30"},{"city":"Mumbai","state":"Maharashtra","latitude":19.076,"longitude":72.8777,"temp":26.4,"humidity":95,"rain":1.5,"pressure":1000.3,"uv_index":0.65,"wind_gusts":71.6,"aqi":43,"pm10":33.1,"pm2_5":15.1,"no2":3.9,"co":143.0,"o3":57.0,"so2":2.9,"mosquito_risk":10,"arthritis_risk":5,"migraine_risk":0,"frizz_risk":1,"updated_at":"2026-07-07T00:27:11.607494+05:30"},{"city":"Bangalore","state":"Karnataka","latitude":12.9716,"longitude":77.5946,"temp":21.5,"humidity":86,"rain":0.0,"pressure":910.3,"uv_index":5.9,"wind_gusts":73.8,"aqi":26,"pm10":5.0,"pm2_5":3.6,"no2":7.8,"co":228.0,"o3":46.0,"so2":3.2,"mosquito_risk":3,"arthritis_risk":5,"migraine_risk":3,"frizz_risk":1,"updated_at":"2026-07-07T00:27:11.607510+05:30"},{"city":"Hyderabad","state":"Telangana","latitude":17.385,"longitude":78.4867,"temp":25.6,"humidity":74,"rain":0.0,"pressure":947.8,"uv_index":7.4,"wind_gusts":58.3,"aqi":27,"pm10":5.5,"pm2_5":3.9,"no2":6.3,"co":170.0,"o3":47.0,"so2":4.0,"mosquito_risk":7,"arthritis_risk":5,"migraine_risk":7,"frizz_risk":1,"updated_at":"2026-07-07T00:27:11.607520+05:30"},{"city":"Chennai","state":"Tamil Nadu","latitude":13.0827,"longitude":80.2707,"temp":33.1,"humidity":44,"rain":0.0,"pressure":1004.6,"uv_index":8.3,"wind_gusts":61.6,"aqi":59,"pm10":14.8,"pm2_5":10.5,"no2":12.8,"co":160.0,"o3":51.0,"so2":7.9,"mosquito_risk":0,"arthritis_risk":5,"migraine_risk":4,"frizz_risk":1,"updated_at":"2026-07-07T00:27:11.607528+05:30"},{"city":"Kolkata","state":"West Bengal","latitude":22.5726,"longitude":88.3639,"temp":28.0,"humidity":89,"rain":0.0,"pressure":999.3,"uv_index":2.25,"wind_gusts":40.7,"aqi":56,"pm10":22.4,"pm2_5":18.3,"no2":6.6,"co":235.0,"o3":77.0,"so2":7.1,"mosquito_risk":7,"arthritis_risk":5,"migraine_risk":3,"frizz_risk":1,"updated_at":"2026-07-07T00:27:11.607536+05:30"},{"city":"Pune","state":"Maharashtra","latitude":18.5204,"longitude":73.8567,"temp":23.6,"humidity":93,"rain":0.4,"pressure":939.6,"uv_index":1.05,"wind_gusts":61.9,"aqi":22,"pm10":1.5,"pm2_5":1.5,"no2":5.0,"co":134.0,"o3":49.0,"so2":3.0,"mosquito_risk":6,"arthritis_risk":5,"migraine_risk":3,"frizz_risk":1,"updated_at":"2026-07-07T00:27:11.607543+05:30"},{"city":"Ahmedabad","state":"Gujarat","latitude":23.0225,"longitude":72.5714,"temp":27.7,"humidity":96,"rain":0.0,"pressure":992.6,"uv_index":8.1,"wind_gusts":29.5,"aqi":97,"pm10":38.1,"pm2_5":25.4,"no2":18.0,"co":416.0,"o3":56.0,"so2":4.4,"mosquito_risk":7,"arthritis_risk":5,"migraine_risk":7,"frizz_risk":1,"updated_at":"2026-07-07T00:27:11.607550+05:30"},{"city":"Jaipur","state":"Rajasthan","latitude":26.9124,"longitude":75.7873,"temp":29.1,"humidity":78,"rain":0.0,"pressure":952.1,"uv_index":7.4,"wind_gusts":26.3,"aqi":75,"pm10":41.4,"pm2_5":30.5,"no2":35.1,"co":379.0,"o3":48.0,"so2":12.2,"mosquito_risk":7,"arthritis_risk":5,"migraine_risk":7,"frizz_risk":1,"updated_at":"2026-07-07T00:27:11.607557+05:30"},{"city":"Lucknow","state":"Uttar Pradesh","latitude":26.8467,"longitude":80.9462,"temp":30.5,"humidity":74,"rain":0.0,"pressure":985.4,"uv_index":6.6,"wind_gusts":37.1,"aqi":79,"pm10":30.5,"pm2_5":29.7,"no2":23.2,"co":325.0,"o3":56.0,"so2":9.7,"mosquito_risk":3,"arthritis_risk":5,"migraine_risk":7,"frizz_risk":1,"updated_at":"2026-07-07T00:27:11.607568+05:30"},{"city":"Kanpur","state":"Uttar Pradesh","latitude":26.4499,"longitude":80.3319,"temp":28.4,"humidity":86,"rain":0.0,"pressure":983.6,"uv_index":8.1,"wind_gusts":38.9,"aqi":70,"pm10":23.0,"pm2_5":22.8,"no2":19.3,"co":259.0,"o3":64.0,"so2":7.0,"mosquito_risk":7,"arthritis_risk":5,"migraine_risk":7,"frizz_risk":1,"updated_at":"2026-07-07T00:27:11.607576+05:30"},{"city":"Chandigarh","state":"Chandigarh","latitude":30.7333,"longitude":76.7794,"temp":28.6,"humidity":80,"rain":0.0,"pressure":961.8,"uv_index":6.0,"wind_gusts":29.9,"aqi":93,"pm10":90.8,"pm2_5":89.4,"no2":90.3,"co":942.0,"o3":21.0,"so2":19.0,"mosquito_risk":7,"arthritis_risk":5,"migraine_risk":3,"frizz_risk":1,"updated_at":"2026-07-07T00:27:11.607582+05:30"},{"city":"Srinagar","state":"Jammu and Kashmir","latitude":34.0837,"longitude":74.7973,"temp":22.0,"humidity":80,"rain":0.0,"pressure":836.8,"uv_index":9.1,"wind_gusts":20.2,"aqi":95,"pm10":39.9,"pm2_5":36.4,"no2":34.0,"co":1065.0,"o3":40.0,"so2":3.7,"mosquito_risk":3,"arthritis_risk":5,"migraine_risk":7,"frizz_risk":1,"updated_at":"2026-07-07T00:27:11.607595+05:30"},{"city":"Jammu","state":"Jammu and Kashmir","latitude":32.7266,"longitude":74.857,"temp":29.4,"humidity":78,"rain":0.0,"pressure":965.3,"uv_index":7.8,"wind_gusts":29.5,"aqi":102,"pm10":59.6,"pm2_5":58.7,"no2":60.0,"co":475.0,"o3":57.0,"so2":11.6,"mosquito_risk":7,"arthritis_risk":5,"migraine_risk":7,"frizz_risk":1,"updated_at":"2026-07-07T00:27:11.607602+05:30"},{"city":"Amritsar","state":"Punjab","latitude":31.634,"longitude":74.8723,"temp":29.5,"humidity":86,"rain":0.0,"pressure":972.6,"uv_index":8.1,"wind_gusts":32.4,"aqi":129,"pm10":55.1,"pm2_5":52.0,"no2":36.8,"co":539.0,"o3":58.0,"so2":7.5,"mosquito_risk":7,"arthritis_risk":5,"migraine_risk":7,"frizz_risk":1,"updated_at":"2026-07-07T00:27:11.607609+05:30"},{"city":"Ludhiana","state":"Punjab","latitude":30.901,"longitude":75.8573,"temp":29.7,"humidity":91,"rain":0.0,"pressure":971.0,"uv_index":7.85,"wind_gusts":41.8,"aqi":120,"pm10":120.6,"pm2_5":116.9,"no2":97.7,"co":880.0,"o3":9.0,"so2":22.0,"mosquito_risk":7,"arthritis_risk":5,"migraine_risk":7,"frizz_risk":1,"updated_at":"2026-07-07T00:27:11.607615+05:30"},{"city":"Jalandhar","state":"Punjab","latitude":31.326,"longitude":75.5762,"temp":29.2,"humidity":91,"rain":0.0,"pressure":972.0,"uv_index":7.7,"wind_gusts":38.2,"aqi":137,"pm10":121.5,"pm2_5":117.3,"no2":99.9,"co":730.0,"o3":1.0,"so2":18.9,"mosquito_risk":7,"arthritis_risk":5,"migraine_risk":7,"frizz_risk":1,"updated_at":"2026-07-07T00:27:11.607624+05:30"},{"city":"Dehradun","state":"Uttarakhand","latitude":30.6284,"longitude":78.0322,"temp":18.5,"humidity":97,"rain":0.0,"pressure":827.0,"uv_index":6.95,"wind_gusts":28.1,"aqi":48,"pm10":18.3,"pm2_5":18.1,"no2":34.1,"co":255.0,"o3":48.0,"so2":2.5,"mosquito_risk":3,"arthritis_risk":10,"migraine_risk":7,"frizz_risk":1,"updated_at":"2026-07-07T00:27:11.607630+05:30"},{"city":"Shimla","state":"Himachal Pradesh","latitude":31.1048,"longitude":77.1734,"temp":15.7,"humidity":97,"rain":0.0,"pressure":780.8,"uv_index":6.95,"wind_gusts":22.0,"aqi":63,"pm10":16.0,"pm2_5":15.6,"no2":17.8,"co":475.0,"o3":80.0,"so2":1.0,"mosquito_risk":3,"arthritis_risk":10,"migraine_risk":7,"frizz_risk":0,"updated_at":"2026-07-07T00:27:11.607637+05:30"},{"city":"Manali","state":"Himachal Pradesh","latitude":32.2396,"longitude":77.1887,"temp":20.4,"humidity":94,"rain":0.0,"pressure":817.5,"uv_index":7.6,"wind_gusts":31.0,"aqi":49,"pm10":16.5,"pm2_5":16.4,"no2":34.4,"co":326.0,"o3":72.0,"so2":0.1,"mosquito_risk":3,"arthritis_risk":5,"migraine_risk":7,"frizz_risk":1,"updated_at":"2026-07-07T00:27:11.607645+05:30"},{"city":"Gurgaon","state":"Haryana","latitude":28.4595,"longitude":77.0266,"temp":30.6,"humidity":77,"rain":0.0,"pressure":973.8,"uv_index":7.8,"wind_gusts":25.9,"aqi":110,"pm10":82.4,"pm2_5":67.1,"no2":75.6,"co":1466.0,"o3":38.0,"so2":31.6,"mosquito_risk":3,"arthritis_risk":5,"migraine_risk":7,"frizz_risk":1,"updated_at":"2026-07-07T00:27:11.607651+05:30"},{"city":"Noida","state":"Uttar Pradesh","latitude":28.5355,"longitude":77.391,"temp":30.4,"humidity":79,"rain":0.0,"pressure":976.8,"uv_index":7.75,"wind_gusts":21.2,"aqi":110,"pm10":82.4,"pm2_5":67.1,"no2":75.6,"co":868.0,"o3":38.0,"so2":31.6,"mosquito_risk":3,"arthritis_risk":5,"migraine_risk":7,"frizz_risk":1,"updated_at":"2026-07-07T00:27:11.607657+05:30"},{"city":"Ghaziabad","state":"Uttar Pradesh","latitude":28.6692,"longitude":77.4538,"temp":30.3,"humidity":79,"rain":0.0,"pressure":975.1,"uv_index":7.75,"wind_gusts":22.0,"aqi":94,"pm10":61.5,"pm2_5":60.1,"no2":41.4,"co":473.0,"o3":52.0,"so2":13.1,"mosquito_risk":3,"arthritis_risk":5,"migraine_risk":7,"frizz_risk":1,"updated_at":"2026-07-07T00:27:11.607663+05:30"},{"city":"Faridabad","state":"Haryana","latitude":28.4089,"longitude":77.3178,"temp":31.4,"humidity":72,"rain":0.0,"pressure":976.1,"uv_index":7.8,"wind_gusts":25.9,"aqi":110,"pm10":82.4,"pm2_5":67.1,"no2":75.6,"co":562.0,"o3":38.0,"so2":31.6,"mosquito_risk":3,"arthritis_risk":5,"migraine_risk":7,"frizz_risk":1,"updated_at":"2026-07-07T00:27:11.607669+05:30"},{"city":"Meerut","state":"Uttar Pradesh","latitude":28.9845,"longitude":77.7064,"temp":30.1,"humidity":83,"rain":0.0,"pressure":974.1,"uv_index":7.6,"wind_gusts":19.8,"aqi":94,"pm10":61.5,"pm2_5":60.1,"no2":41.4,"co":729.0,"o3":52.0,"so2":13.1,"mosquito_risk":3,"arthritis_risk":5,"migraine_risk":7,"frizz_risk":1,"updated_at":"2026-07-07T00:27:11.607675+05:30"},{"city":"Agra","state":"Uttar Pradesh","latitude":27.1767,"longitude":78.0081,"temp":30.7,"humidity":77,"rain":0.0,"pressure":979.6,"uv_index":8.05,"wind_gusts":27.4,"aqi":76,"pm10":32.1,"pm2_5":27.8,"no2":29.1,"co":398.0,"o3":50.0,"so2":10.3,"mosquito_risk":3,"arthritis_risk":5,"migraine_risk":7,"frizz_risk":1,"updated_at":"2026-07-07T00:27:11.607681+05:30"},{"city":"Varanasi","state":"Uttar Pradesh","latitude":25.3176,"longitude":82.9739,"temp":26.6,"humidity":96,"rain":0.1,"pressure":988.5,"uv_index":6.75,"wind_gusts":58.0,"aqi":56,"pm10":16.5,"pm2_5":16.5,"no2":12.1,"co":313.0,"o3":80.0,"so2":6.7,"mosquito_risk":10,"arthritis_risk":5,"migraine_risk":7,"frizz_risk":1,"updated_at":"2026-07-07T00:27:11.607688+05:30"},{"city":"Prayagraj","state":"Uttar Pradesh","latitude":25.4358,"longitude":81.8463,"temp":27.2,"humidity":92,"rain":0.1,"pressure":987.3,"uv_index":6.7,"wind_gusts":50.4,"aqi":58,"pm10":15.7,"pm2_5":15.6,"no2":12.0,"co":303.0,"o3":80.0,"so2":5.3,"mosquito_risk":10,"arthritis_risk":5,"migraine_risk":7,"frizz_risk":1,"updated_at":"2026-07-07T00:27:11.607694+05:30"},{"city":"Gorakhpur","state":"Uttar Pradesh","latitude":26.7606,"longitude":83.3732,"temp":29.8,"humidity":77,"rain":0.0,"pressure":989.6,"uv_index":5.8,"wind_gusts":52.6,"aqi":58,"pm10":14.9,"pm2_5":14.3,"no2":8.7,"co":372.0,"o3":84.0,"so2":4.9,"mosquito_risk":7,"arthritis_risk":5,"migraine_risk":3,"frizz_risk":1,"updated_at":"2026-07-07T00:27:11.607701+05:30"},{"city":"Bareilly","state":"Uttar Pradesh","latitude":28.367,"longitude":79.4304,"temp":30.2,"humidity":85,"rain":0.0,"pressure":979.5,"uv_index":5.65,"wind_gusts":17.6,"aqi":81,"pm10":52.3,"pm2_5":51.2,"no2":34.1,"co":536.0,"o3":58.0,"so2":17.4,"mosquito_risk":3,"arthritis_risk":5,"migraine_risk":3,"frizz_risk":1,"updated_at":"2026-07-07T00:27:11.607709+05:30"},{"city":"Aligarh","state":"Uttar Pradesh","latitude":27.8974,"longitude":78.088,"temp":30.7,"humidity":79,"rain":0.0,"pressure":977.8,"uv_index":7.35,"wind_gusts":25.9,"aqi":91,"pm10":46.6,"pm2_5":42.0,"no2":32.5,"co":462.0,"o3":47.0,"so2":11.3,"mosquito_risk":3,"arthritis_risk":5,"migraine_risk":7,"frizz_risk":1,"updated_at":"2026-07-07T00:27:11.607715+05:30"},{"city":"Moradabad","state":"Uttar Pradesh","latitude":28.8386,"longitude":78.7733,"temp":30.2,"humidity":85,"rain":0.0,"pressure":976.4,"uv_index":7.85,"wind_gusts":31.0,"aqi":100,"pm10":116.9,"pm2_5":114.8,"no2":77.8,"co":702.0,"o3":27.0,"so2":27.7,"mosquito_risk":3,"arthritis_risk":5,"migraine_risk":7,"frizz_risk":1,"updated_at":"2026-07-07T00:27:11.607721+05:30"},{"city":"Saharanpur","state":"Uttar Pradesh","latitude":29.9637,"longitude":77.546,"temp":29.4,"humidity":82,"rain":0.0,"pressure":968.8,"uv_index":7.4,"wind_gusts":21.6,"aqi":93,"pm10":99.4,"pm2_5":99.0,"no2":73.3,"co":1141.0,"o3":27.0,"so2":26.7,"mosquito_risk":7,"arthritis_risk":5,"migraine_risk":7,"frizz_risk":1,"updated_at":"2026-07-07T00:27:11.607727+05:30"},{"city":"Jhansi","state":"Uttar Pradesh","latitude":25.4484,"longitude":78.5685,"temp":26.4,"humidity":95,"rain":0.2,"pressure":970.5,"uv_index":8.4,"wind_gusts":31.7,"aqi":51,"pm10":14.3,"pm2_5":13.6,"no2":17.0,"co":253.0,"o3":55.0,"so2":5.0,"mosquito_risk":10,"arthritis_risk":5,"migraine_risk":7,"frizz_risk":1,"updated_at":"2026-07-07T00:27:14.975549+05:30"},{"city":"Surat","state":"Gujarat","latitude":21.1702,"longitude":72.8311,"temp":25.9,"humidity":99,"rain":0.3,"pressure":997.7,"uv_index":4.7,"wind_gusts":31.0,"aqi":94,"pm10":27.7,"pm2_5":20.7,"no2":23.9,"co":436.0,"o3":38.0,"so2":37.7,"mosquito_risk":10,"arthritis_risk":5,"migraine_risk":3,"frizz_risk":1,"updated_at":"2026-07-07T00:27:14.975583+05:30"},{"city":"Vadodara","state":"Gujarat","latitude":22.3072,"longitude":73.1812,"temp":26.4,"humidity":96,"rain":0.0,"pressure":994.8,"uv_index":7.9,"wind_gusts":33.5,"aqi":85,"pm10":34.1,"pm2_5":26.6,"no2":15.4,"co":342.0,"o3":78.0,"so2":6.5,"mosquito_risk":7,"arthritis_risk":5,"migraine_risk":7,"frizz_risk":1,"updated_at":"2026-07-07T00:27:14.975594+05:30"},{"city":"Rajkot","state":"Gujarat","latitude":22.3039,"longitude":70.8022,"temp":27.6,"humidity":92,"rain":0.1,"pressure":985.9,"uv_index":6.6,"wind_gusts":40.0,"aqi":94,"pm10":49.4,"pm2_5":25.5,"no2":7.9,"co":122.0,"o3":44.0,"so2":7.3,"mosquito_risk":10,"arthritis_risk":5,"migraine_risk":7,"frizz_risk":1,"updated_at":"2026-07-07T00:27:14.975603+05:30"},{"city":"Thane","state":"Maharashtra","latitude":19.2183,"longitude":72.9781,"temp":26.0,"humidity":97,"rain":1.6,"pressure":999.3,"uv_index":1.0,"wind_gusts":55.1,"aqi":43,"pm10":33.1,"pm2_5":15.1,"no2":3.9,"co":142.0,"o3":57.0,"so2":2.9,"mosquito_risk":10,"arthritis_risk":5,"migraine_risk":3,"frizz_risk":1,"updated_at":"2026-07-07T00:27:14.975611+05:30"},{"city":"Nagpur","state":"Maharashtra","latitude":21.1458,"longitude":79.0882,"temp":26.4,"humidity":83,"rain":0.0,"pressure":964.8,"uv_index":6.85,"wind_gusts":39.6,"aqi":38,"pm10":6.2,"pm2_5":5.8,"no2":12.0,"co":224.0,"o3":34.0,"so2":10.1,"mosquito_risk":7,"arthritis_risk":5,"migraine_risk":7,"frizz_risk":1,"updated_at":"2026-07-07T00:27:14.975620+05:30"},{"city":"Nashik","state":"Maharashtra","latitude":19.9975,"longitude":73.7898,"temp":23.3,"humidity":98,"rain":0.0,"pressure":936.5,"uv_index":5.8,"wind_gusts":38.2,"aqi":29,"pm10":6.5,"pm2_5":4.5,"no2":3.2,"co":182.0,"o3":56.0,"so2":0.7,"mosquito_risk":3,"arthritis_risk":5,"migraine_risk":3,"frizz_risk":1,"updated_at":"2026-07-07T00:27:14.975628+05:30"},{"city":"Aurangabad","state":"Maharashtra","latitude":19.8762,"longitude":75.3433,"temp":23.4,"humidity":96,"rain":0.0,"pressure":935.2,"uv_index":3.1,"wind_gusts":47.5,"aqi":21,"pm10":6.7,"pm2_5":6.7,"no2":8.8,"co":183.0,"o3":71.0,"so2":5.9,"mosquito_risk":3,"arthritis_risk":5,"migraine_risk":3,"frizz_risk":1,"updated_at":"2026-07-07T00:27:14.975636+05:30"},{"city":"Solapur","state":"Maharashtra","latitude":17.6599,"longitude":75.9064,"temp":25.2,"humidity":81,"rain":0.0,"pressure":951.4,"uv_index":4.65,"wind_gusts":71.6,"aqi":27,"pm10":2.5,"pm2_5":2.2,"no2":3.9,"co":118.0,"o3":47.0,"so2":2.0,"mosquito_risk":7,"arthritis_risk":5,"migraine_risk":3,"frizz_risk":1,"updated_at":"2026-07-07T00:27:14.975644+05:30"},{"city":"Kolhapur","state":"Maharashtra","latitude":16.705,"longitude":74.2433,"temp":22.8,"humidity":95,"rain":0.0,"pressure":943.0,"uv_index":2.45,"wind_gusts":61.2,"aqi":23,"pm10":4.3,"pm2_5":3.1,"no2":3.4,"co":118.0,"o3":50.0,"so2":1.5,"mosquito_risk":3,"arthritis_risk":5,"migraine_risk":3,"frizz_risk":1,"updated_at":"2026-07-07T00:27:14.975652+05:30"},{"city":"Goa","state":"Goa","latitude":15.2993,"longitude":74.124,"temp":23.8,"humidity":97,"rain":0.4,"pressure":996.0,"uv_index":5.35,"wind_gusts":40.7,"aqi":55,"pm10":39.6,"pm2_5":17.9,"no2":1.8,"co":187.0,"o3":52.0,"so2":0.7,"mosquito_risk":6,"arthritis_risk":5,"migraine_risk":3,"frizz_risk":1,"updated_at":"2026-07-07T00:27:14.975660+05:30"},{"city":"Jodhpur","state":"Rajasthan","latitude":26.2389,"longitude":73.0243,"temp":31.4,"humidity":73,"rain":0.0,"pressure":973.9,"uv_index":8.2,"wind_gusts":18.0,"aqi":107,"pm10":124.3,"pm2_5":50.1,"no2":16.5,"co":321.0,"o3":54.0,"so2":4.8,"mosquito_risk":3,"arthritis_risk":5,"migraine_risk":7,"frizz_risk":1,"updated_at":"2026-07-07T00:27:14.975668+05:30"},{"city":"Udaipur","state":"Rajasthan","latitude":24.5854,"longitude":73.7125,"temp":26.4,"humidity":93,"rain":0.0,"pressure":937.9,"uv_index":7.1,"wind_gusts":35.3,"aqi":55,"pm10":30.7,"pm2_5":22.8,"no2":16.9,"co":502.0,"o3":34.0,"so2":3.9,"mosquito_risk":7,"arthritis_risk":5,"migraine_risk":7,"frizz_risk":1,"updated_at":"2026-07-07T00:27:14.975675+05:30"},{"city":"Kota","state":"Rajasthan","latitude":25.2138,"longitude":75.8648,"temp":28.0,"humidity":94,"rain":0.0,"pressure":970.0,"uv_index":7.5,"wind_gusts":21.2,"aqi":90,"pm10":21.8,"pm2_5":21.5,"no2":15.6,"co":412.0,"o3":75.0,"so2":8.6,"mosquito_risk":7,"arthritis_risk":5,"migraine_risk":7,"frizz_risk":1,"updated_at":"2026-07-07T00:27:14.975684+05:30"},{"city":"Bikaner","state":"Rajasthan","latitude":28.0229,"longitude":73.3119,"temp":34.6,"humidity":50,"rain":0.0,"pressure":972.7,"uv_index":8.45,"wind_gusts":23.0,"aqi":98,"pm10":75.2,"pm2_5":38.8,"no2":4.8,"co":194.0,"o3":73.0,"so2":2.9,"mosquito_risk":0,"arthritis_risk":5,"migraine_risk":7,"frizz_risk":1,"updated_at":"2026-07-07T00:27:14.975692+05:30"},{"city":"Ajmer","state":"Rajasthan","latitude":26.4499,"longitude":74.6399,"temp":28.9,"humidity":84,"rain":0.0,"pressure":946.8,"uv_index":7.2,"wind_gusts":20.5,"aqi":55,"pm10":32.4,"pm2_5":30.2,"no2":33.2,"co":779.0,"o3":44.0,"so2":6.7,"mosquito_risk":7,"arthritis_risk":5,"migraine_risk":7,"frizz_risk":1,"updated_at":"2026-07-07T00:27:14.975700+05:30"},{"city":"Gwalior","state":"Madhya Pradesh","latitude":26.2183,"longitude":78.1828,"temp":27.7,"humidity":87,"rain":0.0,"pressure":975.4,"uv_index":8.15,"wind_gusts":32.4,"aqi":54,"pm10":17.7,"pm2_5":15.1,"no2":17.3,"co":213.0,"o3":54.0,"so2":4.9,"mosquito_risk":7,"arthritis_risk":5,"migraine_risk":7,"frizz_risk":1,"updated_at":"2026-07-07T00:27:14.975707+05:30"},{"city":"Indore","state":"Madhya Pradesh","latitude":22.7196,"longitude":75.8577,"temp":24.3,"humidity":95,"rain":0.0,"pressure":938.5,"uv_index":8.35,"wind_gusts":31.7,"aqi":136,"pm10":39.2,"pm2_5":38.5,"no2":20.2,"co":958.0,"o3":54.0,"so2":5.4,"mosquito_risk":3,"arthritis_risk":5,"migraine_risk":7,"frizz_risk":1,"updated_at":"2026-07-07T00:27:14.975715+05:30"},{"city":"Bhopal","state":"Madhya Pradesh","latitude":23.2599,"longitude":77.4126,"temp":24.5,"humidity":98,"rain":0.1,"pressure":944.1,"uv_index":8.3,"wind_gusts":17.6,"aqi":75,"pm10":18.3,"pm2_5":18.1,"no2":13.7,"co":291.0,"o3":58.0,"so2":2.9,"mosquito_risk":6,"arthritis_risk":5,"migraine_risk":7,"frizz_risk":1,"updated_at":"2026-07-07T00:27:14.975722+05:30"},{"city":"Jabalpur","state":"Madhya Pradesh","latitude":23.1815,"longitude":79.9864,"temp":24.4,"humidity":98,"rain":0.1,"pressure":952.5,"uv_index":8.15,"wind_gusts":31.3,"aqi":51,"pm10":11.6,"pm2_5":11.5,"no2":8.6,"co":246.0,"o3":69.0,"so2":2.3,"mosquito_risk":6,"arthritis_risk":5,"migraine_risk":7,"frizz_risk":1,"updated_at":"2026-07-07T00:27:14.975729+05:30"},{"city":"Ujjain","state":"Madhya Pradesh","latitude":23.1765,"longitude":75.7885,"temp":24.8,"humidity":98,"rain":0.0,"pressure":944.2,"uv_index":7.65,"wind_gusts":27.7,"aqi":143,"pm10":35.9,"pm2_5":35.0,"no2":12.1,"co":572.0,"o3":70.0,"so2":3.0,"mosquito_risk":3,"arthritis_risk":5,"migraine_risk":7,"frizz_risk":1,"updated_at":"2026-07-07T00:27:14.975737+05:30"},{"city":"Visakhapatnam","state":"Andhra Pradesh","latitude":17.6868,"longitude":83.2185,"temp":28.1,"humidity":80,"rain":0.0,"pressure":998.0,"uv_index":7.9,"wind_gusts":59.0,"aqi":56,"pm10":30.9,"pm2_5":22.0,"no2":12.3,"co":221.0,"o3":81.0,"so2":22.3,"mosquito_risk":7,"arthritis_risk":5,"migraine_risk":7,"frizz_risk":1,"updated_at":"2026-07-07T00:27:14.975745+05:30"},{"city":"Vijayawada","state":"Andhra Pradesh","latitude":16.5062,"longitude":80.648,"temp":31.6,"humidity":53,"rain":0.0,"pressure":997.4,"uv_index":6.65,"wind_gusts":58.3,"aqi":52,"pm10":25.7,"pm2_5":21.0,"no2":9.9,"co":145.0,"o3":75.0,"so2":5.3,"mosquito_risk":0,"arthritis_risk":5,"migraine_risk":7,"frizz_risk":1,"updated_at":"2026-07-07T00:27:14.975752+05:30"},{"city":"Guntur","state":"Andhra Pradesh","latitude":16.3067,"longitude":80.4365,"temp":31.9,"humidity":50,"rain":0.0,"pressure":998.9,"uv_index":6.45,"wind_gusts":61.6,"aqi":50,"pm10":24.0,"pm2_5":20.7,"no2":15.5,"co":138.0,"o3":48.0,"so2":5.2,"mosquito_risk":0,"arthritis_risk":5,"migraine_risk":7,"frizz_risk":1,"updated_at":"2026-07-07T00:27:14.975759+05:30"},{"city":"Nellore","state":"Andhra Pradesh","latitude":14.4426,"longitude":79.9865,"temp":31.9,"humidity":49,"rain":0.0,"pressure":1002.2,"uv_index":7.95,"wind_gusts":64.1,"aqi":34,"pm10":7.5,"pm2_5":4.3,"no2":3.9,"co":120.0,"o3":52.0,"so2":2.7,"mosquito_risk":0,"arthritis_risk":5,"migraine_risk":4,"frizz_risk":1,"updated_at":"2026-07-07T00:27:14.975767+05:30"},{"city":"Kurnool","state":"Andhra Pradesh","latitude":15.8281,"longitude":78.0373,"temp":26.9,"humidity":71,"rain":0.0,"pressure":973.6,"uv_index":4.65,"wind_gusts":67.7,"aqi":26,"pm10":4.4,"pm2_5":3.2,"no2":6.2,"co":116.0,"o3":44.0,"so2":4.3,"mosquito_risk":7,"arthritis_risk":5,"migraine_risk":3,"frizz_risk":1,"updated_at":"2026-07-07T00:27:14.975777+05:30"},{"city":"Kakinada","state":"Andhra Pradesh","latitude":16.9891,"longitude":82.2475,"temp":29.0,"humidity":76,"rain":0.0,"pressure":1001.9,"uv_index":6.9,"wind_gusts":65.9,"aqi":58,"pm10":33.5,"pm2_5":22.6,"no2":2.9,"co":192.0,"o3":104.0,"so2":3.8,"mosquito_risk":7,"arthritis_risk":5,"migraine_risk":4,"frizz_risk":1,"updated_at":"2026-07-07T00:27:14.975784+05:30"},{"city":"Tirupati","state":"Andhra Pradesh","latitude":13.6288,"longitude":79.4192,"temp":29.9,"humidity":51,"rain":0.0,"pressure":988.4,"uv_index":8.95,"wind_gusts":58.3,"aqi":35,"pm10":8.8,"pm2_5":5.8,"no2":5.8,"co":118.0,"o3":49.0,"so2":2.0,"mosquito_risk":4,"arthritis_risk":5,"migraine_risk":7,"frizz_risk":1,"updated_at":"2026-07-07T00:27:14.975792+05:30"},{"city":"Warangal","state":"Telangana","latitude":17.9689,"longitude":79.5941,"temp":28.4,"humidity":65,"rain":0.0,"pressure":972.7,"uv_index":5.05,"wind_gusts":55.1,"aqi":30,"pm10":10.0,"pm2_5":7.9,"no2":8.1,"co":164.0,"o3":51.0,"so2":4.8,"mosquito_risk":7,"arthritis_risk":5,"migraine_risk":3,"frizz_risk":1,"updated_at":"2026-07-07T00:27:14.975799+05:30"},{"city":"Nizamabad","state":"Telangana","latitude":18.6725,"longitude":78.0941,"temp":26.6,"humidity":73,"rain":0.0,"pressure":957.9,"uv_index":5.5,"wind_gusts":61.2,"aqi":30,"pm10":8.7,"pm2_5":6.1,"no2":4.9,"co":129.0,"o3":49.0,"so2":2.0,"mosquito_risk":7,"arthritis_risk":5,"migraine_risk":3,"frizz_risk":1,"updated_at":"2026-07-07T00:27:14.975806+05:30"},{"city":"Mysore","state":"Karnataka","latitude":12.2958,"longitude":76.6396,"temp":21.5,"humidity":89,"rain":0.0,"pressure":927.8,"uv_index":7.4,"wind_gusts":69.8,"aqi":26,"pm10":2.9,"pm2_5":2.2,"no2":4.5,"co":119.0,"o3":50.0,"so2":1.6,"mosquito_risk":3,"arthritis_risk":5,"migraine_risk":7,"frizz_risk":1,"updated_at":"2026-07-07T00:27:14.975813+05:30"},{"city":"Mangalore","state":"Karnataka","latitude":12.9141,"longitude":74.856,"temp":25.8,"humidity":88,"rain":0.1,"pressure":1007.1,"uv_index":7.9,"wind_gusts":57.6,"aqi":55,"pm10":39.0,"pm2_5":18.1,"no2":3.0,"co":167.0,"o3":53.0,"so2":1.3,"mosquito_risk":10,"arthritis_risk":5,"migraine_risk":4,"frizz_risk":1,"updated_at":"2026-07-07T00:27:14.975821+05:30"},{"city":"Hubli-Dharwad","state":"Karnataka","latitude":15.3647,"longitude":75.124,"temp":21.6,"humidity":97,"rain":0.0,"pressure":937.7,"uv_index":6.45,"wind_gusts":67.3,"aqi":24,"pm10":7.4,"pm2_5":4.2,"no2":2.9,"co":113.0,"o3":49.0,"so2":0.9,"mosquito_risk":3,"arthritis_risk":5,"migraine_risk":7,"frizz_risk":1,"updated_at":"2026-07-07T00:27:14.975828+05:30"},{"city":"Belgaum","state":"Karnataka","latitude":15.8497,"longitude":74.4977,"temp":21.5,"humidity":97,"rain":0.2,"pressure":921.8,"uv_index":2.1,"wind_gusts":65.9,"aqi":24,"pm10":4.1,"pm2_5":2.4,"no2":2.8,"co":102.0,"o3":51.0,"so2":1.2,"mosquito_risk":6,"arthritis_risk":5,"migraine_risk":3,"frizz_risk":1,"updated_at":"2026-07-07T00:27:18.349993+05:30"},{"city":"Coimbatore","state":"Tamil Nadu","latitude":11.0168,"longitude":76.9558,"temp":23.6,"humidity":85,"rain":0.0,"pressure":961.5,"uv_index":8.8,"wind_gusts":64.4,"aqi":25,"pm10":6.4,"pm2_5":4.5,"no2":5.2,"co":138.0,"o3":45.0,"so2":2.2,"mosquito_risk":3,"arthritis_risk":5,"migraine_risk":7,"frizz_risk":1,"updated_at":"2026-07-07T00:27:18.350028+05:30"},{"city":"Madurai","state":"Tamil Nadu","latitude":9.9252,"longitude":78.1198,"temp":28.8,"humidity":60,"rain":0.0,"pressure":992.7,"uv_index":8.7,"wind_gusts":68.8,"aqi":59,"pm10":26.5,"pm2_5":16.6,"no2":9.5,"co":117.0,"o3":45.0,"so2":3.7,"mosquito_risk":4,"arthritis_risk":5,"migraine_risk":7,"frizz_risk":1,"updated_at":"2026-07-07T00:27:18.350061+05:30"},{"city":"Trichy","state":"Tamil Nadu","latitude":10.7905,"longitude":78.7047,"temp":29.8,"humidity":55,"rain":0.0,"pressure":999.2,"uv_index":8.55,"wind_gusts":73.1,"aqi":47,"pm10":15.1,"pm2_5":9.1,"no2":3.9,"co":124.0,"o3":51.0,"so2":2.0,"mosquito_risk":4,"arthritis_risk":5,"migraine_risk":7,"frizz_risk":1,"updated_at":"2026-07-07T00:27:18.350072+05:30"},{"city":"Salem","state":"Tamil Nadu","latitude":11.6643,"longitude":78.146,"temp":25.5,"humidity":77,"rain":0.0,"pressure":976.8,"uv_index":8.8,"wind_gusts":40.7,"aqi":51,"pm10":20.1,"pm2_5":15.5,"no2":15.2,"co":276.0,"o3":35.0,"so2":5.6,"mosquito_risk":7,"arthritis_risk":5,"migraine_risk":7,"frizz_risk":1,"updated_at":"2026-07-07T00:27:18.350082+05:30"},{"city":"Tirunelveli","state":"Tamil Nadu","latitude":8.7139,"longitude":77.7567,"temp":28.7,"humidity":61,"rain":0.0,"pressure":1003.9,"uv_index":8.65,"wind_gusts":69.1,"aqi":50,"pm10":19.0,"pm2_5":12.3,"no2":6.4,"co":141.0,"o3":41.0,"so2":1.9,"mosquito_risk":7,"arthritis_risk":5,"migraine_risk":4,"frizz_risk":1,"updated_at":"2026-07-07T00:27:18.350091+05:30"},{"city":"Vellore","state":"Tamil Nadu","latitude":12.9165,"longitude":79.1325,"temp":28.9,"humidity":57,"rain":0.0,"pressure":982.4,"uv_index":8.5,"wind_gusts":60.1,"aqi":35,"pm10":11.1,"pm2_5":6.9,"no2":6.0,"co":124.0,"o3":48.0,"so2":2.6,"mosquito_risk":4,"arthritis_risk":5,"migraine_risk":7,"frizz_risk":1,"updated_at":"2026-07-07T00:27:18.350099+05:30"},{"city":"Erode","state":"Tamil Nadu","latitude":11.341,"longitude":77.7172,"temp":26.5,"humidity":72,"rain":0.0,"pressure":988.5,"uv_index":8.8,"wind_gusts":63.0,"aqi":47,"pm10":13.8,"pm2_5":10.6,"no2":11.3,"co":157.0,"o3":39.0,"so2":3.2,"mosquito_risk":7,"arthritis_risk":5,"migraine_risk":7,"frizz_risk":1,"updated_at":"2026-07-07T00:27:18.350107+05:30"},{"city":"Kochi","state":"Kerala","latitude":9.9312,"longitude":76.2673,"temp":25.7,"humidity":94,"rain":0.0,"pressure":1010.7,"uv_index":8.35,"wind_gusts":39.2,"aqi":59,"pm10":25.0,"pm2_5":17.4,"no2":16.7,"co":114.0,"o3":21.0,"so2":4.9,"mosquito_risk":7,"arthritis_risk":0,"migraine_risk":4,"frizz_risk":1,"updated_at":"2026-07-07T00:27:18.350116+05:30"},{"city":"Thiruvananthapuram","state":"Kerala","latitude":8.5241,"longitude":76.9366,"temp":26.2,"humidity":89,"rain":0.0,"pressure":1010.2,"uv_index":8.4,"wind_gusts":46.4,"aqi":55,"pm10":28.3,"pm2_5":15.1,"no2":2.5,"co":99.0,"o3":54.0,"so2":0.9,"mosquito_risk":7,"arthritis_risk":0,"migraine_risk":4,"frizz_risk":1,"updated_at":"2026-07-07T00:27:18.350124+05:30"},{"city":"Kozhikode","state":"Kerala","latitude":11.2588,"longitude":75.7804,"temp":23.7,"humidity":98,"rain":0.2,"pressure":1009.8,"uv_index":8.25,"wind_gusts":33.8,"aqi":58,"pm10":34.2,"pm2_5":16.6,"no2":1.1,"co":253.0,"o3":59.0,"so2":0.9,"mosquito_risk":6,"arthritis_risk":0,"migraine_risk":4,"frizz_risk":1,"updated_at":"2026-07-07T00:27:18.350132+05:30"},{"city":"Thrissur","state":"Kerala","latitude":10.5276,"longitude":76.2144,"temp":23.5,"humidity":100,"rain":0.3,"pressure":1009.3,"uv_index":8.5,"wind_gusts":49.0,"aqi":57,"pm10":29.0,"pm2_5":21.3,"no2":13.7,"co":248.0,"o3":25.0,"so2":4.3,"mosquito_risk":6,"arthritis_risk":0,"migraine_risk":4,"frizz_risk":1,"updated_at":"2026-07-07T00:27:18.350141+05:30"},{"city":"Kannur","state":"Kerala","latitude":11.8745,"longitude":75.3704,"temp":23.5,"humidity":98,"rain":0.4,"pressure":1008.5,"uv_index":7.95,"wind_gusts":47.5,"aqi":55,"pm10":37.4,"pm2_5":19.5,"no2":6.9,"co":255.0,"o3":47.0,"so2":1.7,"mosquito_risk":6,"arthritis_risk":0,"migraine_risk":4,"frizz_risk":1,"updated_at":"2026-07-07T00:27:18.350149+05:30"},{"city":"Patna","state":"Bihar","latitude":25.5941,"longitude":85.1376,"temp":27.6,"humidity":88,"rain":0.1,"pressure":992.1,"uv_index":4.2,"wind_gusts":63.7,"aqi":49,"pm10":13.2,"pm2_5":13.1,"no2":12.4,"co":246.0,"o3":76.0,"so2":13.1,"mosquito_risk":10,"arthritis_risk":5,"migraine_risk":3,"frizz_risk":1,"updated_at":"2026-07-07T00:27:18.350157+05:30"},{"city":"Gaya","state":"Bihar","latitude":24.7914,"longitude":85.0002,"temp":25.6,"humidity":96,"rain":0.1,"pressure":984.8,"uv_index":6.3,"wind_gusts":55.1,"aqi":48,"pm10":15.2,"pm2_5":15.1,"no2":17.3,"co":299.0,"o3":57.0,"so2":17.5,"mosquito_risk":10,"arthritis_risk":5,"migraine_risk":7,"frizz_risk":1,"updated_at":"2026-07-07T00:27:18.350166+05:30"},{"city":"Muzaffarpur","state":"Bihar","latitude":26.1209,"longitude":85.3647,"temp":28.4,"humidity":82,"rain":0.0,"pressure":992.9,"uv_index":5.95,"wind_gusts":60.5,"aqi":48,"pm10":13.2,"pm2_5":13.2,"no2":10.0,"co":278.0,"o3":78.0,"so2":8.2,"mosquito_risk":7,"arthritis_risk":5,"migraine_risk":3,"frizz_risk":1,"updated_at":"2026-07-07T00:27:18.350174+05:30"},{"city":"Bhagalpur","state":"Bihar","latitude":25.2425,"longitude":87.0117,"temp":27.5,"humidity":88,"rain":0.0,"pressure":994.0,"uv_index":6.65,"wind_gusts":60.1,"aqi":43,"pm10":14.0,"pm2_5":13.6,"no2":11.9,"co":248.0,"o3":73.0,"so2":9.9,"mosquito_risk":7,"arthritis_risk":5,"migraine_risk":7,"frizz_risk":1,"updated_at":"2026-07-07T00:27:18.350182+05:30"},{"city":"Ranchi","state":"Jharkhand","latitude":23.3441,"longitude":85.3096,"temp":23.1,"humidity":98,"rain":0.1,"pressure":928.8,"uv_index":8.3,"wind_gusts":37.4,"aqi":37,"pm10":5.6,"pm2_5":5.6,"no2":12.2,"co":219.0,"o3":50.0,"so2":9.9,"mosquito_risk":6,"arthritis_risk":5,"migraine_risk":7,"frizz_risk":1,"updated_at":"2026-07-07T00:27:18.350190+05:30"},{"city":"Jamshedpur","state":"Jharkhand","latitude":22.8046,"longitude":86.2029,"temp":25.3,"humidity":94,"rain":0.1,"pressure":983.0,"uv_index":1.6,"wind_gusts":27.4,"aqi":48,"pm10":8.2,"pm2_5":8.1,"no2":13.3,"co":197.0,"o3":49.0,"so2":17.5,"mosquito_risk":10,"arthritis_risk":5,"migraine_risk":3,"frizz_risk":1,"updated_at":"2026-07-07T00:27:18.350197+05:30"},{"city":"Dhanbad","state":"Jharkhand","latitude":23.7957,"longitude":86.4304,"temp":25.6,"humidity":98,"rain":0.0,"pressure":971.8,"uv_index":4.75,"wind_gusts":51.5,"aqi":64,"pm10":16.4,"pm2_5":16.2,"no2":32.1,"co":553.0,"o3":38.0,"so2":65.9,"mosquito_risk":7,"arthritis_risk":5,"migraine_risk":3,"frizz_risk":1,"updated_at":"2026-07-07T00:27:18.350205+05:30"},{"city":"Bokaro","state":"Jharkhand","latitude":23.6693,"longitude":86.1511,"temp":25.7,"humidity":96,"rain":0.0,"pressure":975.4,"uv_index":5.6,"wind_gusts":42.8,"aqi":64,"pm10":12.9,"pm2_5":12.7,"no2":21.1,"co":983.0,"o3":54.0,"so2":41.4,"mosquito_risk":7,"arthritis_risk":5,"migraine_risk":3,"frizz_risk":1,"updated_at":"2026-07-07T00:27:18.350213+05:30"},{"city":"Bhubaneswar","state":"Odisha","latitude":20.2961,"longitude":85.8245,"temp":27.9,"humidity":85,"rain":0.0,"pressure":996.2,"uv_index":3.4,"wind_gusts":55.1,"aqi":49,"pm10":18.9,"pm2_5":15.4,"no2":6.8,"co":171.0,"o3":80.0,"so2":7.6,"mosquito_risk":7,"arthritis_risk":5,"migraine_risk":3,"frizz_risk":1,"updated_at":"2026-07-07T00:27:18.350221+05:30"},{"city":"Cuttack","state":"Odisha","latitude":20.4625,"longitude":85.8828,"temp":28.1,"humidity":83,"rain":0.0,"pressure":997.8,"uv_index":3.4,"wind_gusts":54.0,"aqi":49,"pm10":18.9,"pm2_5":15.4,"no2":6.8,"co":191.0,"o3":80.0,"so2":7.6,"mosquito_risk":7,"arthritis_risk":5,"migraine_risk":3,"frizz_risk":1,"updated_at":"2026-07-07T00:27:18.350228+05:30"},{"city":"Rourkela","state":"Odisha","latitude":22.2604,"longitude":84.8536,"temp":25.0,"humidity":95,"rain":0.1,"pressure":977.0,"uv_index":1.75,"wind_gusts":32.4,"aqi":53,"pm10":8.4,"pm2_5":8.4,"no2":9.1,"co":189.0,"o3":49.0,"so2":7.2,"mosquito_risk":10,"arthritis_risk":5,"migraine_risk":3,"frizz_risk":1,"updated_at":"2026-07-07T00:27:18.350236+05:30"},{"city":"Raipur","state":"Chhattisgarh","latitude":21.2514,"longitude":81.6296,"temp":25.2,"humidity":93,"rain":0.1,"pressure":966.7,"uv_index":1.2,"wind_gusts":49.0,"aqi":53,"pm10":11.3,"pm2_5":10.2,"no2":17.5,"co":214.0,"o3":43.0,"so2":28.5,"mosquito_risk":10,"arthritis_risk":5,"migraine_risk":3,"frizz_risk":1,"updated_at":"2026-07-07T00:27:18.350244+05:30"},{"city":"Bhilai","state":"Chhattisgarh","latitude":21.1938,"longitude":81.3509,"temp":25.3,"humidity":90,"rain":0.0,"pressure":967.1,"uv_index":2.4,"wind_gusts":44.6,"aqi":51,"pm10":10.8,"pm2_5":9.6,"no2":16.1,"co":358.0,"o3":43.0,"so2":25.9,"mosquito_risk":7,"arthritis_risk":5,"migraine_risk":3,"frizz_risk":1,"updated_at":"2026-07-07T00:27:18.350252+05:30"},{"city":"Guwahati","state":"Assam","latitude":26.1158,"longitude":91.7086,"temp":25.8,"humidity":98,"rain":0.4,"pressure":998.0,"uv_index":7.35,"wind_gusts":29.2,"aqi":33,"pm10":7.0,"pm2_5":6.8,"no2":6.6,"co":193.0,"o3":53.0,"so2":1.4,"mosquito_risk":10,"arthritis_risk":5,"migraine_risk":7,"frizz_risk":1,"updated_at":"2026-07-07T00:27:18.350259+05:30"},{"city":"Agartala","state":"Tripura","latitude":23.8315,"longitude":91.2868,"temp":25.2,"humidity":98,"rain":0.1,"pressure":1002.7,"uv_index":3.15,"wind_gusts":41.8,"aqi":27,"pm10":8.5,"pm2_5":7.3,"no2":8.2,"co":137.0,"o3":46.0,"so2":2.5,"mosquito_risk":10,"arthritis_risk":5,"migraine_risk":0,"frizz_risk":1,"updated_at":"2026-07-07T00:27:18.350267+05:30"},{"city":"Shillong","state":"Meghalaya","latitude":25.5788,"longitude":91.8933,"temp":20.4,"humidity":95,"rain":0.0,"pressure":855.3,"uv_index":7.4,"wind_gusts":47.2,"aqi":27,"pm10":1.5,"pm2_5":1.5,"no2":5.6,"co":190.0,"o3":49.0,"so2":1.7,"mosquito_risk":3,"arthritis_risk":5,"migraine_risk":7,"frizz_risk":1,"updated_at":"2026-07-07T00:27:18.350274+05:30"},{"city":"Imphal","state":"Manipur","latitude":24.817,"longitude":93.9368,"temp":23.1,"humidity":97,"rain":0.0,"pressure":920.9,"uv_index":8.45,"wind_gusts":26.6,"aqi":23,"pm10":7.0,"pm2_5":6.8,"no2":8.3,"co":563.0,"o3":38.0,"so2":2.1,"mosquito_risk":3,"arthritis_risk":5,"migraine_risk":7,"frizz_risk":1,"updated_at":"2026-07-07T00:27:18.350282+05:30"},{"city":"Aizawl","state":"Mizoram","latitude":23.7271,"longitude":92.7176,"temp":19.7,"humidity":96,"rain":0.1,"pressure":890.2,"uv_index":3.6,"wind_gusts":39.2,"aqi":26,"pm10":1.1,"pm2_5":1.0,"no2":2.2,"co":110.0,"o3":49.0,"so2":0.9,"mosquito_risk":6,"arthritis_risk":10,"migraine_risk":3,"frizz_risk":1,"updated_at":"2026-07-07T00:27:18.350289+05:30"},{"city":"Kohima","state":"Nagaland","latitude":25.6701,"longitude":94.1077,"temp":21.0,"humidity":95,"rain":0.0,"pressure":853.4,"uv_index":9.2,"wind_gusts":20.9,"aqi":22,"pm10":4.3,"pm2_5":4.2,"no2":5.7,"co":302.0,"o3":44.0,"so2":1.1,"mosquito_risk":3,"arthritis_risk":5,"migraine_risk":7,"frizz_risk":1,"updated_at":"2026-07-07T00:27:18.350297+05:30"},{"city":"Gangtok","state":"Sikkim","latitude":27.3314,"longitude":88.6138,"temp":18.5,"humidity":98,"rain":0.7,"pressure":835.8,"uv_index":6.9,"wind_gusts":32.4,"aqi":35,"pm10":3.6,"pm2_5":3.5,"no2":5.0,"co":235.0,"o3":71.0,"so2":0.7,"mosquito_risk":6,"arthritis_risk":10,"migraine_risk":7,"frizz_risk":1,"updated_at":"2026-07-07T00:27:18.350305+05:30"},{"city":"Siliguri","state":"West Bengal","latitude":26.7271,"longitude":88.3953,"temp":25.2,"humidity":95,"rain":0.0,"pressure":989.2,"uv_index":7.75,"wind_gusts":49.0,"aqi":38,"pm10":10.0,"pm2_5":9.7,"no2":8.1,"co":220.0,"o3":72.0,"so2":2.5,"mosquito_risk":7,"arthritis_risk":5,"migraine_risk":7,"frizz_risk":1,"updated_at":"2026-07-07T00:27:21.769593+05:30"},{"city":"Durgapur","state":"West Bengal","latitude":23.5204,"longitude":87.3119,"temp":27.5,"humidity":85,"rain":0.0,"pressure":987.5,"uv_index":5.95,"wind_gusts":51.8,"aqi":60,"pm10":17.9,"pm2_5":17.6,"no2":20.6,"co":371.0,"o3":48.0,"so2":25.9,"mosquito_risk":7,"arthritis_risk":5,"migraine_risk":3,"frizz_risk":1,"updated_at":"2026-07-07T00:27:21.769627+05:30"},{"city":"Asansol","state":"West Bengal","latitude":23.6739,"longitude":86.9524,"temp":26.7,"humidity":93,"rain":0.0,"pressure":985.7,"uv_index":7.0,"wind_gusts":53.3,"aqi":55,"pm10":12.3,"pm2_5":12.2,"no2":25.9,"co":374.0,"o3":40.0,"so2":37.0,"mosquito_risk":7,"arthritis_risk":5,"migraine_risk":7,"frizz_risk":1,"updated_at":"2026-07-07T00:27:21.769639+05:30"},{"city":"Pondicherry","state":"Puducherry","latitude":11.9139,"longitude":79.8145,"temp":30.6,"humidity":53,"rain":0.0,"pressure":1006.4,"uv_index":8.65,"wind_gusts":52.6,"aqi":60,"pm10":21.0,"pm2_5":15.6,"no2":14.6,"co":260.0,"o3":51.0,"so2":9.3,"mosquito_risk":0,"arthritis_risk":5,"migraine_risk":4,"frizz_risk":1,"updated_at":"2026-07-07T00:27:21.769648+05:30"},{"city":"Port Blair","state":"Andaman and Nicobar Islands","latitude":11.6234,"longitude":92.7265,"temp":27.2,"humidity":81,"rain":0.0,"pressure":1008.4,"uv_index":8.6,"wind_gusts":38.2,"aqi":46,"pm10":24.3,"pm2_5":14.1,"no2":0.2,"co":91.0,"o3":56.0,"so2":0.5,"mosquito_risk":7,"arthritis_risk":0,"migraine_risk":4,"frizz_risk":1,"updated_at":"2026-07-07T00:27:21.769657+05:30"},{"city":"Haridwar","state":"Uttarakhand","latitude":29.9457,"longitude":78.1642,"temp":28.9,"humidity":91,"rain":0.0,"pressure":967.2,"uv_index":7.55,"wind_gusts":17.6,"aqi":75,"pm10":63.1,"pm2_5":62.6,"no2":43.5,"co":468.0,"o3":44.0,"so2":13.5,"mosquito_risk":7,"arthritis_risk":5,"migraine_risk":7,"frizz_risk":1,"updated_at":"2026-07-07T00:27:21.769666+05:30"},{"city":"Rishikesh","state":"Uttarakhand","latitude":30.0869,"longitude":78.2676,"temp":27.7,"humidity":88,"rain":0.0,"pressure":960.2,"uv_index":7.6,"wind_gusts":23.4,"aqi":59,"pm10":24.2,"pm2_5":23.8,"no2":10.8,"co":466.0,"o3":87.0,"so2":4.2,"mosquito_risk":7,"arthritis_risk":5,"migraine_risk":7,"frizz_risk":1,"updated_at":"2026-07-07T00:27:21.769674+05:30"},{"city":"Nainital","state":"Uttarakhand","latitude":29.3919,"longitude":79.4542,"temp":17.0,"humidity":100,"rain":0.0,"pressure":802.3,"uv_index":6.45,"wind_gusts":25.9,"aqi":55,"pm10":26.9,"pm2_5":26.7,"no2":21.2,"co":382.0,"o3":55.0,"so2":5.5,"mosquito_risk":3,"arthritis_risk":10,"migraine_risk":7,"frizz_risk":1,"updated_at":"2026-07-07T00:27:21.769683+05:30"},{"city":"Mussoorie","state":"Uttarakhand","latitude":30.4599,"longitude":78.0664,"temp":17.0,"humidity":99,"rain":0.0,"pressure":800.1,"uv_index":6.85,"wind_gusts":27.4,"aqi":57,"pm10":30.3,"pm2_5":30.0,"no2":38.2,"co":436.0,"o3":39.0,"so2":8.4,"mosquito_risk":3,"arthritis_risk":10,"migraine_risk":7,"frizz_risk":1,"updated_at":"2026-07-07T00:27:21.769691+05:30"},{"city":"Dharamshala","state":"Himachal Pradesh","latitude":32.219,"longitude":76.3234,"temp":22.8,"humidity":83,"rain":0.0,"pressure":865.1,"uv_index":7.1,"wind_gusts":33.1,"aqi":45,"pm10":7.8,"pm2_5":7.6,"no2":8.7,"co":483.0,"o3":79.0,"so2":0.6,"mosquito_risk":3,"arthritis_risk":5,"migraine_risk":7,"frizz_risk":1,"updated_at":"2026-07-07T00:27:21.769699+05:30"},{"city":"Dalhousie","state":"Himachal Pradesh","latitude":32.5387,"longitude":75.971,"temp":16.9,"humidity":95,"rain":0.0,"pressure":801.0,"uv_index":7.1,"wind_gusts":23.4,"aqi":87,"pm10":29.7,"pm2_5":29.2,"no2":26.0,"co":714.0,"o3":83.0,"so2":3.8,"mosquito_risk":3,"arthritis_risk":10,"migraine_risk":7,"frizz_risk":1,"updated_at":"2026-07-07T00:27:21.769707+05:30"},{"city":"Patiala","state":"Punjab","latitude":30.3398,"longitude":76.3869,"temp":29.8,"humidity":85,"rain":0.0,"pressure":970.6,"uv_index":7.5,"wind_gusts":34.9,"aqi":95,"pm10":112.2,"pm2_5":109.0,"no2":88.4,"co":710.0,"o3":14.0,"so2":17.8,"mosquito_risk":7,"arthritis_risk":5,"migraine_risk":7,"frizz_risk":1,"updated_at":"2026-07-07T00:27:21.769714+05:30"},{"city":"Bhatinda","state":"Punjab","latitude":30.211,"longitude":74.9455,"temp":31.5,"humidity":76,"rain":0.0,"pressure":975.3,"uv_index":7.95,"wind_gusts":33.8,"aqi":126,"pm10":62.9,"pm2_5":49.1,"no2":31.1,"co":527.0,"o3":61.0,"so2":13.0,"mosquito_risk":3,"arthritis_risk":5,"migraine_risk":7,"frizz_risk":1,"updated_at":"2026-07-07T00:27:21.769721+05:30"},{"city":"Rohtak","state":"Haryana","latitude":28.8955,"longitude":76.6066,"temp":30.7,"humidity":74,"rain":0.0,"pressure":973.9,"uv_index":7.7,"wind_gusts":20.9,"aqi":126,"pm10":73.1,"pm2_5":71.2,"no2":58.5,"co":822.0,"o3":69.0,"so2":36.7,"mosquito_risk":3,"arthritis_risk":5,"migraine_risk":7,"frizz_risk":1,"updated_at":"2026-07-07T00:27:21.769729+05:30"},{"city":"Panipat","state":"Haryana","latitude":29.3909,"longitude":76.9635,"temp":29.8,"humidity":79,"rain":0.0,"pressure":972.8,"uv_index":6.75,"wind_gusts":27.7,"aqi":123,"pm10":75.2,"pm2_5":74.7,"no2":42.6,"co":741.0,"o3":61.0,"so2":21.5,"mosquito_risk":7,"arthritis_risk":5,"migraine_risk":7,"frizz_risk":1,"updated_at":"2026-07-07T00:27:21.769736+05:30"},{"city":"Mathura","state":"Uttar Pradesh","latitude":27.4924,"longitude":77.6737,"temp":30.7,"humidity":79,"rain":0.0,"pressure":978.8,"uv_index":7.75,"wind_gusts":24.8,"aqi":83,"pm10":154.1,"pm2_5":46.9,"no2":44.2,"co":412.0,"o3":36.0,"so2":8.6,"mosquito_risk":3,"arthritis_risk":5,"migraine_risk":7,"frizz_risk":1,"updated_at":"2026-07-07T00:27:21.769743+05:30"},{"city":"Vrindavan","state":"Uttar Pradesh","latitude":27.5823,"longitude":77.7027,"temp":30.9,"humidity":77,"rain":0.0,"pressure":979.3,"uv_index":7.8,"wind_gusts":25.2,"aqi":83,"pm10":154.1,"pm2_5":46.9,"no2":44.2,"co":444.0,"o3":36.0,"so2":8.6,"mosquito_risk":3,"arthritis_risk":5,"migraine_risk":7,"frizz_risk":1,"updated_at":"2026-07-07T00:27:21.769750+05:30"},{"city":"Ayodhya","state":"Uttar Pradesh","latitude":26.7922,"longitude":82.1998,"temp":30.1,"humidity":76,"rain":0.0,"pressure":987.4,"uv_index":6.25,"wind_gusts":42.5,"aqi":73,"pm10":15.3,"pm2_5":14.7,"no2":10.0,"co":313.0,"o3":82.0,"so2":5.1,"mosquito_risk":3,"arthritis_risk":5,"migraine_risk":7,"frizz_risk":1,"updated_at":"2026-07-07T00:27:21.769757+05:30"},{"city":"Ratlam","state":"Madhya Pradesh","latitude":23.3315,"longitude":75.0367,"temp":25.1,"humidity":96,"rain":0.0,"pressure":945.2,"uv_index":8.35,"wind_gusts":28.4,"aqi":120,"pm10":38.8,"pm2_5":38.0,"no2":12.0,"co":397.0,"o3":63.0,"so2":3.7,"mosquito_risk":7,"arthritis_risk":5,"migraine_risk":7,"frizz_risk":1,"updated_at":"2026-07-07T00:27:21.769764+05:30"},{"city":"Sagar","state":"Madhya Pradesh","latitude":23.8388,"longitude":78.7378,"temp":24.4,"humidity":97,"rain":0.0,"pressure":941.4,"uv_index":8.0,"wind_gusts":31.3,"aqi":49,"pm10":7.3,"pm2_5":7.2,"no2":6.5,"co":256.0,"o3":84.0,"so2":1.9,"mosquito_risk":3,"arthritis_risk":5,"migraine_risk":7,"frizz_risk":1,"updated_at":"2026-07-07T00:27:21.769772+05:30"},{"city":"Satna","state":"Madhya Pradesh","latitude":24.6005,"longitude":80.8322,"temp":25.6,"humidity":94,"rain":0.1,"pressure":962.2,"uv_index":5.2,"wind_gusts":38.9,"aqi":57,"pm10":12.1,"pm2_5":12.0,"no2":8.1,"co":234.0,"o3":84.0,"so2":3.5,"mosquito_risk":10,"arthritis_risk":5,"migraine_risk":3,"frizz_risk":1,"updated_at":"2026-07-07T00:27:21.769779+05:30"},{"city":"Akola","state":"Maharashtra","latitude":20.7002,"longitude":77.0082,"temp":27.3,"humidity":77,"rain":0.0,"pressure":965.7,"uv_index":5.4,"wind_gusts":41.8,"aqi":26,"pm10":5.2,"pm2_5":4.9,"no2":8.7,"co":179.0,"o3":34.0,"so2":3.8,"mosquito_risk":7,"arthritis_risk":5,"migraine_risk":3,"frizz_risk":1,"updated_at":"2026-07-07T00:27:21.769787+05:30"},{"city":"Amravati","state":"Maharashtra","latitude":20.9374,"longitude":77.7796,"temp":26.7,"humidity":80,"rain":0.0,"pressure":958.4,"uv_index":7.6,"wind_gusts":43.9,"aqi":25,"pm10":5.0,"pm2_5":4.5,"no2":8.2,"co":190.0,"o3":35.0,"so2":3.4,"mosquito_risk":7,"arthritis_risk":5,"migraine_risk":7,"frizz_risk":1,"updated_at":"2026-07-07T00:27:21.769795+05:30"},{"city":"Latur","state":"Maharashtra","latitude":18.4088,"longitude":76.5604,"temp":24.5,"humidity":82,"rain":0.0,"pressure":933.0,"uv_index":4.1,"wind_gusts":58.0,"aqi":26,"pm10":2.9,"pm2_5":2.6,"no2":3.3,"co":124.0,"o3":47.0,"so2":1.6,"mosquito_risk":3,"arthritis_risk":5,"migraine_risk":3,"frizz_risk":1,"updated_at":"2026-07-07T00:27:21.769804+05:30"},{"city":"Nanded","state":"Maharashtra","latitude":19.1383,"longitude":77.3091,"temp":26.7,"humidity":74,"rain":0.0,"pressure":960.9,"uv_index":6.3,"wind_gusts":46.4,"aqi":27,"pm10":5.2,"pm2_5":4.1,"no2":5.2,"co":130.0,"o3":45.0,"so2":4.1,"mosquito_risk":7,"arthritis_risk":5,"migraine_risk":7,"frizz_risk":1,"updated_at":"2026-07-07T00:27:21.769811+05:30"},{"city":"Gulbarga","state":"Karnataka","latitude":17.3297,"longitude":76.8343,"temp":25.5,"humidity":76,"rain":0.0,"pressure":953.6,"uv_index":5.4,"wind_gusts":67.3,"aqi":29,"pm10":3.3,"pm2_5":2.6,"no2":5.6,"co":123.0,"o3":44.0,"so2":2.5,"mosquito_risk":7,"arthritis_risk":5,"migraine_risk":3,"frizz_risk":1,"updated_at":"2026-07-07T00:27:21.769819+05:30"},{"city":"Bidar","state":"Karnataka","latitude":17.9104,"longitude":77.5199,"temp":24.4,"humidity":79,"rain":0.0,"pressure":929.5,"uv_index":6.7,"wind_gusts":59.4,"aqi":30,"pm10":6.7,"pm2_5":4.6,"no2":5.1,"co":121.0,"o3":47.0,"so2":2.3,"mosquito_risk":3,"arthritis_risk":5,"migraine_risk":7,"frizz_risk":1,"updated_at":"2026-07-07T00:27:21.769826+05:30"},{"city":"Hospet","state":"Karnataka","latitude":15.2689,"longitude":76.3909,"temp":23.7,"humidity":86,"rain":0.0,"pressure":952.9,"uv_index":7.45,"wind_gusts":74.9,"aqi":25,"pm10":4.3,"pm2_5":2.6,"no2":3.8,"co":122.0,"o3":47.0,"so2":1.5,"mosquito_risk":3,"arthritis_risk":5,"migraine_risk":7,"frizz_risk":1,"updated_at":"2026-07-07T00:27:21.769834+05:30"},{"city":"Tirupur","state":"Tamil Nadu","latitude":11.1085,"longitude":77.3411,"temp":24.6,"humidity":82,"rain":0.0,"pressure":974.6,"uv_index":8.85,"wind_gusts":74.2,"aqi":49,"pm10":15.1,"pm2_5":12.0,"no2":13.8,"co":137.0,"o3":35.0,"so2":4.1,"mosquito_risk":3,"arthritis_risk":5,"migraine_risk":7,"frizz_risk":1,"updated_at":"2026-07-07T00:27:21.769841+05:30"},{"city":"Alappuzha","state":"Kerala","latitude":9.4981,"longitude":76.3388,"temp":27.9,"humidity":81,"rain":0.1,"pressure":1010.5,"uv_index":8.4,"wind_gusts":37.4,"aqi":62,"pm10":35.0,"pm2_5":19.0,"no2":6.9,"co":87.0,"o3":46.0,"so2":2.4,"mosquito_risk":10,"arthritis_risk":0,"migraine_risk":4,"frizz_risk":1,"updated_at":"2026-07-07T00:27:21.769849+05:30"},{"city":"Munnar","state":"Kerala","latitude":10.0889,"longitude":77.0595,"temp":16.2,"humidity":99,"rain":0.1,"pressure":857.1,"uv_index":6.3,"wind_gusts":61.2,"aqi":35,"pm10":5.0,"pm2_5":3.8,"no2":5.5,"co":95.0,"o3":40.0,"so2":2.1,"mosquito_risk":6,"arthritis_risk":10,"migraine_risk":7,"frizz_risk":1,"updated_at":"2026-07-07T00:27:21.769856+05:30"},{"city":"Silchar","state":"Assam","latitude":24.8333,"longitude":92.7789,"temp":26.6,"humidity":95,"rain":0.0,"pressure":1002.3,"uv_index":4.6,"wind_gusts":47.5,"aqi":42,"pm10":10.9,"pm2_5":9.5,"no2":6.2,"co":238.0,"o3":55.0,"so2":4.3,"mosquito_risk":7,"arthritis_risk":5,"migraine_risk":0,"frizz_risk":1,"updated_at":"2026-07-07T00:27:21.769864+05:30"},{"city":"Dibrugarh","state":"Assam","latitude":27.4728,"longitude":94.912,"temp":25.7,"humidity":99,"rain":0.2,"pressure":991.2,"uv_index":8.2,"wind_gusts":25.2,"aqi":46,"pm10":8.6,"pm2_5":8.5,"no2":6.4,"co":186.0,"o3":66.0,"so2":1.2,"mosquito_risk":10,"arthritis_risk":5,"migraine_risk":7,"frizz_risk":1,"updated_at":"2026-07-07T00:27:21.769871+05:30"}]