[{"city":"Delhi","state":"Delhi","latitude":28.6139,"longitude":77.209,"temp":18.6,"humidity":67,"rain":0.0,"pressure":985.4,"uv_index":5.75,"wind_gusts":36.4,"aqi":158,"pm10":304.5,"pm2_5":84.8,"mosquito_risk":3,"arthritis_risk":5,"migraine_risk":3,"frizz_risk":0,"updated_at":"2026-03-02T00:55:34.838619+05:30"},{"city":"Mumbai","state":"Maharashtra","latitude":19.076,"longitude":72.8777,"temp":26.0,"humidity":78,"rain":0.0,"pressure":1010.3,"uv_index":7.35,"wind_gusts":25.9,"aqi":80,"pm10":48.5,"pm2_5":28.1,"mosquito_risk":7,"arthritis_risk":0,"migraine_risk":4,"frizz_risk":1,"updated_at":"2026-03-02T00:55:34.838663+05:30"},{"city":"Bangalore","state":"Karnataka","latitude":12.9716,"longitude":77.5946,"temp":21.8,"humidity":69,"rain":0.0,"pressure":911.6,"uv_index":9.05,"wind_gusts":26.3,"aqi":151,"pm10":42.7,"pm2_5":42.0,"mosquito_risk":3,"arthritis_risk":5,"migraine_risk":7,"frizz_risk":0,"updated_at":"2026-03-02T00:55:34.838679+05:30"},{"city":"Hyderabad","state":"Telangana","latitude":17.385,"longitude":78.4867,"temp":24.2,"humidity":73,"rain":0.0,"pressure":953.6,"uv_index":8.3,"wind_gusts":27.4,"aqi":136,"pm10":72.9,"pm2_5":72.4,"mosquito_risk":3,"arthritis_risk":5,"migraine_risk":7,"frizz_risk":1,"updated_at":"2026-03-02T00:55:34.838689+05:30"},{"city":"Chennai","state":"Tamil Nadu","latitude":13.0827,"longitude":80.2707,"temp":24.8,"humidity":82,"rain":0.0,"pressure":1008.5,"uv_index":8.8,"wind_gusts":29.5,"aqi":130,"pm10":45.5,"pm2_5":41.6,"mosquito_risk":3,"arthritis_risk":0,"migraine_risk":4,"frizz_risk":1,"updated_at":"2026-03-02T00:55:34.838698+05:30"},{"city":"Kolkata","state":"West Bengal","latitude":22.5726,"longitude":88.3639,"temp":24.0,"humidity":94,"rain":0.0,"pressure":1006.7,"uv_index":7.65,"wind_gusts":16.2,"aqi":104,"pm10":43.5,"pm2_5":41.3,"mosquito_risk":3,"arthritis_risk":5,"migraine_risk":4,"frizz_risk":1,"updated_at":"2026-03-02T00:55:34.838707+05:30"},{"city":"Pune","state":"Maharashtra","latitude":18.5204,"longitude":73.8567,"temp":20.8,"humidity":84,"rain":0.0,"pressure":949.0,"uv_index":7.85,"wind_gusts":25.6,"aqi":123,"pm10":44.7,"pm2_5":37.6,"mosquito_risk":3,"arthritis_risk":5,"migraine_risk":7,"frizz_risk":1,"updated_at":"2026-03-02T00:55:34.838719+05:30"},{"city":"Ahmedabad","state":"Gujarat","latitude":23.0225,"longitude":72.5714,"temp":23.6,"humidity":59,"rain":0.0,"pressure":1004.2,"uv_index":7.1,"wind_gusts":15.5,"aqi":93,"pm10":73.1,"pm2_5":59.0,"mosquito_risk":0,"arthritis_risk":5,"migraine_risk":4,"frizz_risk":0,"updated_at":"2026-03-02T00:55:34.838727+05:30"},{"city":"Jaipur","state":"Rajasthan","latitude":26.9124,"longitude":75.7873,"temp":21.4,"humidity":34,"rain":0.0,"pressure":961.7,"uv_index":6.55,"wind_gusts":30.2,"aqi":91,"pm10":79.6,"pm2_5":48.2,"mosquito_risk":0,"arthritis_risk":5,"migraine_risk":7,"frizz_risk":0,"updated_at":"2026-03-02T00:55:34.838735+05:30"},{"city":"Lucknow","state":"Uttar Pradesh","latitude":26.8467,"longitude":80.9462,"temp":18.0,"humidity":57,"rain":0.0,"pressure":995.4,"uv_index":6.25,"wind_gusts":38.5,"aqi":121,"pm10":178.3,"pm2_5":50.6,"mosquito_risk":0,"arthritis_risk":5,"migraine_risk":7,"frizz_risk":0,"updated_at":"2026-03-02T00:55:34.838743+05:30"},{"city":"Kanpur","state":"Uttar Pradesh","latitude":26.4499,"longitude":80.3319,"temp":15.8,"humidity":66,"rain":0.0,"pressure":993.9,"uv_index":6.25,"wind_gusts":32.8,"aqi":150,"pm10":255.2,"pm2_5":54.8,"mosquito_risk":3,"arthritis_risk":5,"migraine_risk":7,"frizz_risk":0,"updated_at":"2026-03-02T00:55:34.838750+05:30"},{"city":"Chandigarh","state":"Chandigarh","latitude":30.7333,"longitude":76.7794,"temp":16.6,"humidity":53,"rain":0.0,"pressure":970.6,"uv_index":5.6,"wind_gusts":37.8,"aqi":85,"pm10":35.2,"pm2_5":32.1,"mosquito_risk":0,"arthritis_risk":5,"migraine_risk":3,"frizz_risk":0,"updated_at":"2026-03-02T00:55:34.838758+05:30"},{"city":"Srinagar","state":"Jammu and Kashmir","latitude":34.0837,"longitude":74.7973,"temp":5.5,"humidity":75,"rain":0.0,"pressure":839.0,"uv_index":6.55,"wind_gusts":17.6,"aqi":145,"pm10":97.6,"pm2_5":83.8,"mosquito_risk":3,"arthritis_risk":5,"migraine_risk":7,"frizz_risk":0,"updated_at":"2026-03-02T00:55:34.838764+05:30"},{"city":"Jammu","state":"Jammu and Kashmir","latitude":32.7266,"longitude":74.857,"temp":15.6,"humidity":74,"rain":0.0,"pressure":974.9,"uv_index":6.25,"wind_gusts":29.2,"aqi":102,"pm10":48.5,"pm2_5":45.3,"mosquito_risk":3,"arthritis_risk":5,"migraine_risk":7,"frizz_risk":0,"updated_at":"2026-03-02T00:55:34.838771+05:30"},{"city":"Amritsar","state":"Punjab","latitude":31.634,"longitude":74.8723,"temp":17.9,"humidity":64,"rain":0.0,"pressure":983.2,"uv_index":6.2,"wind_gusts":28.8,"aqi":130,"pm10":83.6,"pm2_5":61.2,"mosquito_risk":3,"arthritis_risk":5,"migraine_risk":7,"frizz_risk":0,"updated_at":"2026-03-02T00:55:34.838778+05:30"},{"city":"Ludhiana","state":"Punjab","latitude":30.901,"longitude":75.8573,"temp":17.9,"humidity":63,"rain":0.0,"pressure":981.3,"uv_index":5.85,"wind_gusts":32.0,"aqi":155,"pm10":99.4,"pm2_5":87.8,"mosquito_risk":3,"arthritis_risk":5,"migraine_risk":3,"frizz_risk":0,"updated_at":"2026-03-02T00:55:34.838784+05:30"},{"city":"Jalandhar","state":"Punjab","latitude":31.326,"longitude":75.5762,"temp":18.0,"humidity":64,"rain":0.0,"pressure":982.5,"uv_index":6.0,"wind_gusts":31.3,"aqi":157,"pm10":115.3,"pm2_5":97.1,"mosquito_risk":3,"arthritis_risk":5,"migraine_risk":3,"frizz_risk":0,"updated_at":"2026-03-02T00:55:34.838792+05:30"},{"city":"Dehradun","state":"Uttarakhand","latitude":30.6284,"longitude":78.0322,"temp":10.2,"humidity":55,"rain":0.0,"pressure":827.9,"uv_index":5.7,"wind_gusts":28.1,"aqi":62,"pm10":30.9,"pm2_5":25.4,"mosquito_risk":0,"arthritis_risk":5,"migraine_risk":3,"frizz_risk":0,"updated_at":"2026-03-02T00:55:34.838799+05:30"},{"city":"Shimla","state":"Himachal Pradesh","latitude":31.1048,"longitude":77.1734,"temp":7.1,"humidity":56,"rain":0.0,"pressure":781.2,"uv_index":5.85,"wind_gusts":56.5,"aqi":68,"pm10":33.4,"pm2_5":25.7,"mosquito_risk":0,"arthritis_risk":5,"migraine_risk":3,"frizz_risk":1,"updated_at":"2026-03-02T00:55:34.838805+05:30"},{"city":"Manali","state":"Himachal Pradesh","latitude":32.2396,"longitude":77.1887,"temp":10.5,"humidity":24,"rain":0.0,"pressure":817.4,"uv_index":7.45,"wind_gusts":34.9,"aqi":50,"pm10":24.0,"pm2_5":18.0,"mosquito_risk":0,"arthritis_risk":5,"migraine_risk":7,"frizz_risk":1,"updated_at":"2026-03-02T00:55:34.838812+05:30"},{"city":"Gurgaon","state":"Haryana","latitude":28.4595,"longitude":77.0266,"temp":16.7,"humidity":74,"rain":0.0,"pressure":983.7,"uv_index":5.85,"wind_gusts":33.5,"aqi":539,"pm10":530.9,"pm2_5":103.6,"mosquito_risk":3,"arthritis_risk":5,"migraine_risk":3,"frizz_risk":0,"updated_at":"2026-03-02T00:55:34.838819+05:30"},{"city":"Noida","state":"Uttar Pradesh","latitude":28.5355,"longitude":77.391,"temp":18.8,"humidity":66,"rain":0.0,"pressure":986.9,"uv_index":5.75,"wind_gusts":36.0,"aqi":539,"pm10":530.9,"pm2_5":103.6,"mosquito_risk":3,"arthritis_risk":5,"migraine_risk":3,"frizz_risk":0,"updated_at":"2026-03-02T00:55:34.838825+05:30"},{"city":"Ghaziabad","state":"Uttar Pradesh","latitude":28.6692,"longitude":77.4538,"temp":17.9,"humidity":69,"rain":0.0,"pressure":985.0,"uv_index":5.75,"wind_gusts":34.9,"aqi":154,"pm10":285.9,"pm2_5":81.3,"mosquito_risk":3,"arthritis_risk":5,"migraine_risk":3,"frizz_risk":0,"updated_at":"2026-03-02T00:55:34.838831+05:30"},{"city":"Faridabad","state":"Haryana","latitude":28.4089,"longitude":77.3178,"temp":18.9,"humidity":61,"rain":0.0,"pressure":986.1,"uv_index":5.8,"wind_gusts":32.0,"aqi":539,"pm10":530.9,"pm2_5":103.6,"mosquito_risk":3,"arthritis_risk":5,"migraine_risk":3,"frizz_risk":0,"updated_at":"2026-03-02T00:55:34.838838+05:30"},{"city":"Meerut","state":"Uttar Pradesh","latitude":28.9845,"longitude":77.7064,"temp":15.7,"humidity":75,"rain":0.0,"pressure":983.4,"uv_index":5.6,"wind_gusts":38.9,"aqi":154,"pm10":285.9,"pm2_5":81.3,"mosquito_risk":3,"arthritis_risk":5,"migraine_risk":3,"frizz_risk":0,"updated_at":"2026-03-02T00:55:34.838844+05:30"},{"city":"Agra","state":"Uttar Pradesh","latitude":27.1767,"longitude":78.0081,"temp":18.5,"humidity":53,"rain":0.0,"pressure":990.1,"uv_index":6.1,"wind_gusts":28.8,"aqi":243,"pm10":345.5,"pm2_5":71.9,"mosquito_risk":0,"arthritis_risk":5,"migraine_risk":7,"frizz_risk":0,"updated_at":"2026-03-02T00:55:34.838850+05:30"},{"city":"Varanasi","state":"Uttar Pradesh","latitude":25.3176,"longitude":82.9739,"temp":16.2,"humidity":70,"rain":0.0,"pressure":999.8,"uv_index":6.9,"wind_gusts":32.4,"aqi":130,"pm10":75.0,"pm2_5":36.8,"mosquito_risk":3,"arthritis_risk":5,"migraine_risk":7,"frizz_risk":0,"updated_at":"2026-03-02T00:55:34.838859+05:30"},{"city":"Prayagraj","state":"Uttar Pradesh","latitude":25.4358,"longitude":81.8463,"temp":16.8,"humidity":68,"rain":0.0,"pressure":998.5,"uv_index":6.75,"wind_gusts":29.5,"aqi":132,"pm10":95.2,"pm2_5":41.9,"mosquito_risk":3,"arthritis_risk":5,"migraine_risk":7,"frizz_risk":0,"updated_at":"2026-03-02T00:55:34.838866+05:30"},{"city":"Gorakhpur","state":"Uttar Pradesh","latitude":26.7606,"longitude":83.3732,"temp":16.5,"humidity":61,"rain":0.0,"pressure":998.5,"uv_index":6.6,"wind_gusts":28.1,"aqi":106,"pm10":67.5,"pm2_5":34.2,"mosquito_risk":3,"arthritis_risk":5,"migraine_risk":7,"frizz_risk":0,"updated_at":"2026-03-02T00:55:34.838873+05:30"},{"city":"Bareilly","state":"Uttar Pradesh","latitude":28.367,"longitude":79.4304,"temp":15.9,"humidity":70,"rain":0.0,"pressure":988.4,"uv_index":5.9,"wind_gusts":34.6,"aqi":120,"pm10":128.5,"pm2_5":46.7,"mosquito_risk":3,"arthritis_risk":5,"migraine_risk":3,"frizz_risk":0,"updated_at":"2026-03-02T00:55:34.838879+05:30"},{"city":"Aligarh","state":"Uttar Pradesh","latitude":27.8974,"longitude":78.088,"temp":16.9,"humidity":68,"rain":0.0,"pressure":987.7,"uv_index":5.85,"wind_gusts":33.8,"aqi":300,"pm10":421.0,"pm2_5":95.7,"mosquito_risk":3,"arthritis_risk":5,"migraine_risk":3,"frizz_risk":0,"updated_at":"2026-03-02T00:55:34.838885+05:30"},{"city":"Moradabad","state":"Uttar Pradesh","latitude":28.8386,"longitude":78.7733,"temp":15.2,"humidity":69,"rain":0.0,"pressure":985.4,"uv_index":5.75,"wind_gusts":36.4,"aqi":128,"pm10":171.4,"pm2_5":60.1,"mosquito_risk":3,"arthritis_risk":5,"migraine_risk":3,"frizz_risk":0,"updated_at":"2026-03-02T00:55:34.838892+05:30"},{"city":"Saharanpur","state":"Uttar Pradesh","latitude":29.9637,"longitude":77.546,"temp":15.6,"humidity":64,"rain":0.0,"pressure":977.2,"uv_index":5.4,"wind_gusts":51.1,"aqi":134,"pm10":75.4,"pm2_5":46.7,"mosquito_risk":3,"arthritis_risk":5,"migraine_risk":3,"frizz_risk":0,"updated_at":"2026-03-02T00:55:34.838901+05:30"},{"city":"Jhansi","state":"Uttar Pradesh","latitude":25.4484,"longitude":78.5685,"temp":19.1,"humidity":57,"rain":0.0,"pressure":980.2,"uv_index":6.7,"wind_gusts":23.0,"aqi":75,"pm10":64.5,"pm2_5":33.3,"mosquito_risk":0,"arthritis_risk":5,"migraine_risk":7,"frizz_risk":0,"updated_at":"2026-03-02T00:55:38.092111+05:30"},{"city":"Surat","state":"Gujarat","latitude":21.1702,"longitude":72.8311,"temp":23.5,"humidity":87,"rain":0.0,"pressure":1008.5,"uv_index":7.0,"wind_gusts":22.3,"aqi":120,"pm10":61.5,"pm2_5":51.9,"mosquito_risk":3,"arthritis_risk":0,"migraine_risk":4,"frizz_risk":1,"updated_at":"2026-03-02T00:55:38.092143+05:30"},{"city":"Vadodara","state":"Gujarat","latitude":22.3072,"longitude":73.1812,"temp":24.7,"humidity":61,"rain":0.0,"pressure":1006.1,"uv_index":7.15,"wind_gusts":13.3,"aqi":112,"pm10":78.9,"pm2_5":69.2,"mosquito_risk":3,"arthritis_risk":5,"migraine_risk":4,"frizz_risk":1,"updated_at":"2026-03-02T00:55:38.092153+05:30"},{"city":"Rajkot","state":"Gujarat","latitude":22.3039,"longitude":70.8022,"temp":21.8,"humidity":75,"rain":0.0,"pressure":996.6,"uv_index":6.95,"wind_gusts":23.4,"aqi":72,"pm10":42.1,"pm2_5":24.9,"mosquito_risk":3,"arthritis_risk":5,"migraine_risk":7,"frizz_risk":1,"updated_at":"2026-03-02T00:55:38.092160+05:30"},{"city":"Thane","state":"Maharashtra","latitude":19.2183,"longitude":72.9781,"temp":23.3,"humidity":87,"rain":0.0,"pressure":1009.8,"uv_index":7.3,"wind_gusts":36.7,"aqi":80,"pm10":48.5,"pm2_5":28.1,"mosquito_risk":3,"arthritis_risk":0,"migraine_risk":4,"frizz_risk":1,"updated_at":"2026-03-02T00:55:38.092168+05:30"},{"city":"Nagpur","state":"Maharashtra","latitude":21.1458,"longitude":79.0882,"temp":22.2,"humidity":56,"rain":0.0,"pressure":974.2,"uv_index":7.7,"wind_gusts":25.2,"aqi":84,"pm10":23.6,"pm2_5":22.7,"mosquito_risk":0,"arthritis_risk":5,"migraine_risk":7,"frizz_risk":0,"updated_at":"2026-03-02T00:55:38.092175+05:30"},{"city":"Nashik","state":"Maharashtra","latitude":19.9975,"longitude":73.7898,"temp":20.4,"humidity":81,"rain":0.0,"pressure":946.5,"uv_index":7.5,"wind_gusts":29.9,"aqi":84,"pm10":44.6,"pm2_5":38.9,"mosquito_risk":3,"arthritis_risk":5,"migraine_risk":7,"frizz_risk":1,"updated_at":"2026-03-02T00:55:38.092183+05:30"},{"city":"Aurangabad","state":"Maharashtra","latitude":19.8762,"longitude":75.3433,"temp":23.2,"humidity":59,"rain":0.0,"pressure":944.6,"uv_index":8.05,"wind_gusts":20.9,"aqi":78,"pm10":36.9,"pm2_5":35.4,"mosquito_risk":0,"arthritis_risk":5,"migraine_risk":7,"frizz_risk":0,"updated_at":"2026-03-02T00:55:38.092189+05:30"},{"city":"Solapur","state":"Maharashtra","latitude":17.6599,"longitude":75.9064,"temp":24.2,"humidity":61,"rain":0.0,"pressure":956.6,"uv_index":8.25,"wind_gusts":17.3,"aqi":86,"pm10":43.8,"pm2_5":43.4,"mosquito_risk":3,"arthritis_risk":5,"migraine_risk":7,"frizz_risk":1,"updated_at":"2026-03-02T00:55:38.092197+05:30"},{"city":"Kolhapur","state":"Maharashtra","latitude":16.705,"longitude":74.2433,"temp":17.9,"humidity":89,"rain":0.0,"pressure":948.2,"uv_index":8.35,"wind_gusts":41.4,"aqi":80,"pm10":31.5,"pm2_5":29.3,"mosquito_risk":3,"arthritis_risk":10,"migraine_risk":7,"frizz_risk":1,"updated_at":"2026-03-02T00:55:38.092206+05:30"},{"city":"Goa","state":"Goa","latitude":15.2993,"longitude":74.124,"temp":24.3,"humidity":83,"rain":0.0,"pressure":999.2,"uv_index":8.4,"wind_gusts":31.7,"aqi":63,"pm10":29.9,"pm2_5":25.0,"mosquito_risk":3,"arthritis_risk":5,"migraine_risk":7,"frizz_risk":1,"updated_at":"2026-03-02T00:55:38.092213+05:30"},{"city":"Jodhpur","state":"Rajasthan","latitude":26.2389,"longitude":73.0243,"temp":24.6,"humidity":43,"rain":0.0,"pressure":985.0,"uv_index":6.8,"wind_gusts":17.6,"aqi":67,"pm10":41.8,"pm2_5":26.3,"mosquito_risk":0,"arthritis_risk":5,"migraine_risk":7,"frizz_risk":0,"updated_at":"2026-03-02T00:55:38.092220+05:30"},{"city":"Udaipur","state":"Rajasthan","latitude":24.5854,"longitude":73.7125,"temp":19.0,"humidity":58,"rain":0.0,"pressure":948.0,"uv_index":7.4,"wind_gusts":16.9,"aqi":58,"pm10":33.1,"pm2_5":23.0,"mosquito_risk":0,"arthritis_risk":5,"migraine_risk":7,"frizz_risk":0,"updated_at":"2026-03-02T00:55:38.092227+05:30"},{"city":"Kota","state":"Rajasthan","latitude":25.2138,"longitude":75.8648,"temp":21.0,"humidity":71,"rain":0.0,"pressure":980.7,"uv_index":6.85,"wind_gusts":18.7,"aqi":85,"pm10":56.2,"pm2_5":38.3,"mosquito_risk":3,"arthritis_risk":5,"migraine_risk":7,"frizz_risk":0,"updated_at":"2026-03-02T00:55:38.092234+05:30"},{"city":"Bikaner","state":"Rajasthan","latitude":28.0229,"longitude":73.3119,"temp":23.3,"humidity":42,"rain":0.0,"pressure":984.0,"uv_index":6.5,"wind_gusts":23.0,"aqi":67,"pm10":38.8,"pm2_5":22.0,"mosquito_risk":0,"arthritis_risk":5,"migraine_risk":7,"frizz_risk":0,"updated_at":"2026-03-02T00:55:38.092241+05:30"},{"city":"Ajmer","state":"Rajasthan","latitude":26.4499,"longitude":74.6399,"temp":21.7,"humidity":38,"rain":0.0,"pressure":956.0,"uv_index":6.75,"wind_gusts":25.2,"aqi":82,"pm10":59.1,"pm2_5":41.2,"mosquito_risk":0,"arthritis_risk":5,"migraine_risk":7,"frizz_risk":0,"updated_at":"2026-03-02T00:55:38.092248+05:30"},{"city":"Gwalior","state":"Madhya Pradesh","latitude":26.2183,"longitude":78.1828,"temp":21.9,"humidity":46,"rain":0.0,"pressure":985.7,"uv_index":6.45,"wind_gusts":29.2,"aqi":97,"pm10":133.2,"pm2_5":40.4,"mosquito_risk":0,"arthritis_risk":5,"migraine_risk":7,"frizz_risk":0,"updated_at":"2026-03-02T00:55:38.092255+05:30"},{"city":"Indore","state":"Madhya Pradesh","latitude":22.7196,"longitude":75.8577,"temp":20.5,"humidity":65,"rain":0.0,"pressure":949.4,"uv_index":7.4,"wind_gusts":15.1,"aqi":83,"pm10":44.8,"pm2_5":38.8,"mosquito_risk":3,"arthritis_risk":5,"migraine_risk":7,"frizz_risk":0,"updated_at":"2026-03-02T00:55:38.092262+05:30"},{"city":"Bhopal","state":"Madhya Pradesh","latitude":23.2599,"longitude":77.4126,"temp":21.7,"humidity":49,"rain":0.0,"pressure":955.2,"uv_index":7.25,"wind_gusts":18.0,"aqi":65,"pm10":26.8,"pm2_5":23.9,"mosquito_risk":0,"arthritis_risk":5,"migraine_risk":7,"frizz_risk":0,"updated_at":"2026-03-02T00:55:38.092270+05:30"},{"city":"Jabalpur","state":"Madhya Pradesh","latitude":23.1815,"longitude":79.9864,"temp":21.0,"humidity":61,"rain":0.0,"pressure":963.0,"uv_index":7.35,"wind_gusts":19.4,"aqi":72,"pm10":32.5,"pm2_5":27.0,"mosquito_risk":3,"arthritis_risk":5,"migraine_risk":7,"frizz_risk":0,"updated_at":"2026-03-02T00:55:38.092277+05:30"},{"city":"Ujjain","state":"Madhya Pradesh","latitude":23.1765,"longitude":75.7885,"temp":20.3,"humidity":70,"rain":0.0,"pressure":955.2,"uv_index":7.3,"wind_gusts":12.2,"aqi":90,"pm10":65.7,"pm2_5":60.3,"mosquito_risk":3,"arthritis_risk":5,"migraine_risk":7,"frizz_risk":0,"updated_at":"2026-03-02T00:55:38.092285+05:30"},{"city":"Visakhapatnam","state":"Andhra Pradesh","latitude":17.6868,"longitude":83.2185,"temp":25.1,"humidity":82,"rain":0.0,"pressure":1004.7,"uv_index":8.3,"wind_gusts":37.1,"aqi":150,"pm10":48.0,"pm2_5":44.8,"mosquito_risk":7,"arthritis_risk":5,"migraine_risk":4,"frizz_risk":1,"updated_at":"2026-03-02T00:55:38.092292+05:30"},{"city":"Vijayawada","state":"Andhra Pradesh","latitude":16.5062,"longitude":80.648,"temp":23.8,"humidity":90,"rain":0.0,"pressure":1003.8,"uv_index":8.4,"wind_gusts":20.5,"aqi":138,"pm10":42.0,"pm2_5":40.0,"mosquito_risk":3,"arthritis_risk":5,"migraine_risk":4,"frizz_risk":1,"updated_at":"2026-03-02T00:55:38.092299+05:30"},{"city":"Guntur","state":"Andhra Pradesh","latitude":16.3067,"longitude":80.4365,"temp":24.1,"humidity":88,"rain":0.0,"pressure":1005.0,"uv_index":8.4,"wind_gusts":28.1,"aqi":133,"pm10":38.8,"pm2_5":37.1,"mosquito_risk":3,"arthritis_risk":5,"migraine_risk":4,"frizz_risk":1,"updated_at":"2026-03-02T00:55:38.092305+05:30"},{"city":"Nellore","state":"Andhra Pradesh","latitude":14.4426,"longitude":79.9865,"temp":24.2,"humidity":84,"rain":0.0,"pressure":1006.7,"uv_index":8.65,"wind_gusts":27.4,"aqi":129,"pm10":39.9,"pm2_5":38.0,"mosquito_risk":3,"arthritis_risk":5,"migraine_risk":4,"frizz_risk":1,"updated_at":"2026-03-02T00:55:38.092313+05:30"},{"city":"Kurnool","state":"Andhra Pradesh","latitude":15.8281,"longitude":78.0373,"temp":26.5,"humidity":53,"rain":0.0,"pressure":977.0,"uv_index":8.45,"wind_gusts":22.3,"aqi":116,"pm10":44.2,"pm2_5":43.8,"mosquito_risk":4,"arthritis_risk":5,"migraine_risk":7,"frizz_risk":1,"updated_at":"2026-03-02T00:55:38.092320+05:30"},{"city":"Kakinada","state":"Andhra Pradesh","latitude":16.9891,"longitude":82.2475,"temp":22.9,"humidity":90,"rain":0.0,"pressure":1008.8,"uv_index":8.35,"wind_gusts":30.2,"aqi":146,"pm10":49.4,"pm2_5":45.2,"mosquito_risk":3,"arthritis_risk":0,"migraine_risk":4,"frizz_risk":1,"updated_at":"2026-03-02T00:55:38.092327+05:30"},{"city":"Tirupati","state":"Andhra Pradesh","latitude":13.6288,"longitude":79.4192,"temp":22.8,"humidity":76,"rain":0.0,"pressure":993.0,"uv_index":8.75,"wind_gusts":23.8,"aqi":147,"pm10":50.8,"pm2_5":49.2,"mosquito_risk":3,"arthritis_risk":5,"migraine_risk":7,"frizz_risk":1,"updated_at":"2026-03-02T00:55:38.092334+05:30"},{"city":"Warangal","state":"Telangana","latitude":17.9689,"longitude":79.5941,"temp":24.8,"humidity":76,"rain":0.0,"pressure":979.0,"uv_index":8.15,"wind_gusts":18.7,"aqi":145,"pm10":53.3,"pm2_5":53.0,"mosquito_risk":3,"arthritis_risk":5,"migraine_risk":7,"frizz_risk":1,"updated_at":"2026-03-02T00:55:38.092340+05:30"},{"city":"Nizamabad","state":"Telangana","latitude":18.6725,"longitude":78.0941,"temp":22.6,"humidity":66,"rain":0.0,"pressure":964.8,"uv_index":8.05,"wind_gusts":27.7,"aqi":113,"pm10":51.2,"pm2_5":50.9,"mosquito_risk":3,"arthritis_risk":5,"migraine_risk":7,"frizz_risk":0,"updated_at":"2026-03-02T00:55:38.092346+05:30"},{"city":"Mysore","state":"Karnataka","latitude":12.2958,"longitude":76.6396,"temp":22.0,"humidity":86,"rain":0.0,"pressure":928.3,"uv_index":9.1,"wind_gusts":26.3,"aqi":134,"pm10":48.8,"pm2_5":48.0,"mosquito_risk":3,"arthritis_risk":5,"migraine_risk":7,"frizz_risk":1,"updated_at":"2026-03-02T00:55:38.092352+05:30"},{"city":"Mangalore","state":"Karnataka","latitude":12.9141,"longitude":74.856,"temp":28.4,"humidity":72,"rain":0.0,"pressure":1007.6,"uv_index":8.65,"wind_gusts":28.1,"aqi":51,"pm10":20.3,"pm2_5":15.9,"mosquito_risk":7,"arthritis_risk":5,"migraine_risk":4,"frizz_risk":1,"updated_at":"2026-03-02T00:55:38.092360+05:30"},{"city":"Hubli-Dharwad","state":"Karnataka","latitude":15.3647,"longitude":75.124,"temp":20.3,"humidity":83,"rain":0.0,"pressure":940.5,"uv_index":8.6,"wind_gusts":25.2,"aqi":69,"pm10":12.5,"pm2_5":11.3,"mosquito_risk":3,"arthritis_risk":5,"migraine_risk":7,"frizz_risk":1,"updated_at":"2026-03-02T00:55:38.092366+05:30"},{"city":"Belgaum","state":"Karnataka","latitude":15.8497,"longitude":74.4977,"temp":18.5,"humidity":91,"rain":0.0,"pressure":925.2,"uv_index":8.65,"wind_gusts":37.1,"aqi":66,"pm10":27.2,"pm2_5":25.6,"mosquito_risk":3,"arthritis_risk":10,"migraine_risk":7,"frizz_risk":1,"updated_at":"2026-03-02T00:55:41.345639+05:30"},{"city":"Coimbatore","state":"Tamil Nadu","latitude":11.0168,"longitude":76.9558,"temp":23.1,"humidity":91,"rain":0.0,"pressure":962.9,"uv_index":9.1,"wind_gusts":27.7,"aqi":146,"pm10":60.1,"pm2_5":59.3,"mosquito_risk":3,"arthritis_risk":5,"migraine_risk":7,"frizz_risk":1,"updated_at":"2026-03-02T00:55:41.345669+05:30"},{"city":"Madurai","state":"Tamil Nadu","latitude":9.9252,"longitude":78.1198,"temp":24.2,"humidity":76,"rain":0.0,"pressure":994.7,"uv_index":9.05,"wind_gusts":28.4,"aqi":138,"pm10":48.9,"pm2_5":47.5,"mosquito_risk":3,"arthritis_risk":5,"migraine_risk":7,"frizz_risk":1,"updated_at":"2026-03-02T00:55:41.345678+05:30"},{"city":"Trichy","state":"Tamil Nadu","latitude":10.7905,"longitude":78.7047,"temp":23.9,"humidity":89,"rain":0.0,"pressure":1001.2,"uv_index":8.95,"wind_gusts":29.2,"aqi":140,"pm10":47.4,"pm2_5":45.2,"mosquito_risk":3,"arthritis_risk":5,"migraine_risk":4,"frizz_risk":1,"updated_at":"2026-03-02T00:55:41.345687+05:30"},{"city":"Salem","state":"Tamil Nadu","latitude":11.6643,"longitude":78.146,"temp":25.8,"humidity":70,"rain":0.0,"pressure":978.2,"uv_index":9.0,"wind_gusts":29.2,"aqi":143,"pm10":46.8,"pm2_5":45.4,"mosquito_risk":7,"arthritis_risk":5,"migraine_risk":7,"frizz_risk":1,"updated_at":"2026-03-02T00:55:41.345695+05:30"},{"city":"Tirunelveli","state":"Tamil Nadu","latitude":8.7139,"longitude":77.7567,"temp":23.8,"humidity":86,"rain":0.0,"pressure":1004.7,"uv_index":9.05,"wind_gusts":42.1,"aqi":129,"pm10":62.2,"pm2_5":60.5,"mosquito_risk":3,"arthritis_risk":5,"migraine_risk":4,"frizz_risk":1,"updated_at":"2026-03-02T00:55:41.345703+05:30"},{"city":"Vellore","state":"Tamil Nadu","latitude":12.9165,"longitude":79.1325,"temp":22.8,"humidity":80,"rain":0.0,"pressure":985.7,"uv_index":8.85,"wind_gusts":29.9,"aqi":152,"pm10":61.5,"pm2_5":59.6,"mosquito_risk":3,"arthritis_risk":5,"migraine_risk":7,"frizz_risk":1,"updated_at":"2026-03-02T00:55:41.345710+05:30"},{"city":"Erode","state":"Tamil Nadu","latitude":11.341,"longitude":77.7172,"temp":25.5,"humidity":76,"rain":0.0,"pressure":990.5,"uv_index":9.0,"wind_gusts":27.4,"aqi":132,"pm10":36.4,"pm2_5":35.3,"mosquito_risk":7,"arthritis_risk":5,"migraine_risk":7,"frizz_risk":1,"updated_at":"2026-03-02T00:55:41.345717+05:30"},{"city":"Kochi","state":"Kerala","latitude":9.9312,"longitude":76.2673,"temp":27.4,"humidity":80,"rain":0.0,"pressure":1009.8,"uv_index":8.75,"wind_gusts":33.5,"aqi":104,"pm10":45.4,"pm2_5":44.8,"mosquito_risk":7,"arthritis_risk":0,"migraine_risk":4,"frizz_risk":1,"updated_at":"2026-03-02T00:55:41.345724+05:30"},{"city":"Thiruvananthapuram","state":"Kerala","latitude":8.5241,"longitude":76.9366,"temp":27.4,"humidity":79,"rain":0.0,"pressure":1009.1,"uv_index":8.95,"wind_gusts":30.2,"aqi":107,"pm10":23.5,"pm2_5":20.8,"mosquito_risk":7,"arthritis_risk":0,"migraine_risk":4,"frizz_risk":1,"updated_at":"2026-03-02T00:55:41.345731+05:30"},{"city":"Kozhikode","state":"Kerala","latitude":11.2588,"longitude":75.7804,"temp":28.3,"humidity":75,"rain":0.0,"pressure":1008.6,"uv_index":8.8,"wind_gusts":30.6,"aqi":56,"pm10":19.0,"pm2_5":14.3,"mosquito_risk":7,"arthritis_risk":0,"migraine_risk":4,"frizz_risk":1,"updated_at":"2026-03-02T00:55:41.345738+05:30"},{"city":"Thrissur","state":"Kerala","latitude":10.5276,"longitude":76.2144,"temp":26.3,"humidity":88,"rain":0.0,"pressure":1007.9,"uv_index":8.9,"wind_gusts":36.7,"aqi":102,"pm10":49.9,"pm2_5":47.4,"mosquito_risk":7,"arthritis_risk":5,"migraine_risk":4,"frizz_risk":1,"updated_at":"2026-03-02T00:55:41.345745+05:30"},{"city":"Kannur","state":"Kerala","latitude":11.8745,"longitude":75.3704,"temp":27.1,"humidity":78,"rain":0.0,"pressure":1007.9,"uv_index":8.75,"wind_gusts":32.8,"aqi":51,"pm10":17.9,"pm2_5":14.5,"mosquito_risk":7,"arthritis_risk":5,"migraine_risk":4,"frizz_risk":1,"updated_at":"2026-03-02T00:55:41.345752+05:30"},{"city":"Patna","state":"Bihar","latitude":25.5941,"longitude":85.1376,"temp":20.4,"humidity":68,"rain":0.0,"pressure":1002.0,"uv_index":7.05,"wind_gusts":27.7,"aqi":139,"pm10":72.4,"pm2_5":54.6,"mosquito_risk":3,"arthritis_risk":5,"migraine_risk":4,"frizz_risk":0,"updated_at":"2026-03-02T00:55:41.345759+05:30"},{"city":"Gaya","state":"Bihar","latitude":24.7914,"longitude":85.0002,"temp":22.0,"humidity":59,"rain":0.0,"pressure":995.5,"uv_index":7.15,"wind_gusts":25.6,"aqi":122,"pm10":90.6,"pm2_5":64.3,"mosquito_risk":0,"arthritis_risk":5,"migraine_risk":7,"frizz_risk":0,"updated_at":"2026-03-02T00:55:41.345765+05:30"},{"city":"Muzaffarpur","state":"Bihar","latitude":26.1209,"longitude":85.3647,"temp":18.2,"humidity":58,"rain":0.0,"pressure":1001.6,"uv_index":7.0,"wind_gusts":26.3,"aqi":130,"pm10":64.0,"pm2_5":47.7,"mosquito_risk":0,"arthritis_risk":5,"migraine_risk":4,"frizz_risk":0,"updated_at":"2026-03-02T00:55:41.345771+05:30"},{"city":"Bhagalpur","state":"Bihar","latitude":25.2425,"longitude":87.0117,"temp":21.5,"humidity":63,"rain":0.0,"pressure":1002.1,"uv_index":7.1,"wind_gusts":22.7,"aqi":123,"pm10":101.0,"pm2_5":61.0,"mosquito_risk":3,"arthritis_risk":5,"migraine_risk":4,"frizz_risk":0,"updated_at":"2026-03-02T00:55:41.345778+05:30"},{"city":"Ranchi","state":"Jharkhand","latitude":23.3441,"longitude":85.3096,"temp":20.2,"humidity":54,"rain":0.0,"pressure":938.5,"uv_index":7.8,"wind_gusts":49.7,"aqi":100,"pm10":40.0,"pm2_5":34.5,"mosquito_risk":0,"arthritis_risk":5,"migraine_risk":7,"frizz_risk":0,"updated_at":"2026-03-02T00:55:41.345785+05:30"},{"city":"Jamshedpur","state":"Jharkhand","latitude":22.8046,"longitude":86.2029,"temp":23.5,"humidity":70,"rain":0.0,"pressure":991.1,"uv_index":7.75,"wind_gusts":34.2,"aqi":155,"pm10":87.3,"pm2_5":84.1,"mosquito_risk":3,"arthritis_risk":5,"migraine_risk":7,"frizz_risk":1,"updated_at":"2026-03-02T00:55:41.345792+05:30"},{"city":"Dhanbad","state":"Jharkhand","latitude":23.7957,"longitude":86.4304,"temp":24.5,"humidity":39,"rain":0.0,"pressure":980.7,"uv_index":7.6,"wind_gusts":37.1,"aqi":154,"pm10":82.9,"pm2_5":61.9,"mosquito_risk":0,"arthritis_risk":5,"migraine_risk":7,"frizz_risk":0,"updated_at":"2026-03-02T00:55:41.345799+05:30"},{"city":"Bokaro","state":"Jharkhand","latitude":23.6693,"longitude":86.1511,"temp":22.9,"humidity":46,"rain":0.0,"pressure":985.1,"uv_index":7.6,"wind_gusts":39.6,"aqi":155,"pm10":84.5,"pm2_5":68.7,"mosquito_risk":0,"arthritis_risk":5,"migraine_risk":7,"frizz_risk":0,"updated_at":"2026-03-02T00:55:41.345806+05:30"},{"city":"Bhubaneswar","state":"Odisha","latitude":20.2961,"longitude":85.8245,"temp":24.3,"humidity":88,"rain":0.0,"pressure":1003.0,"uv_index":8.05,"wind_gusts":29.2,"aqi":119,"pm10":47.4,"pm2_5":45.8,"mosquito_risk":3,"arthritis_risk":5,"migraine_risk":4,"frizz_risk":1,"updated_at":"2026-03-02T00:55:41.345812+05:30"},{"city":"Cuttack","state":"Odisha","latitude":20.4625,"longitude":85.8828,"temp":23.9,"humidity":93,"rain":0.0,"pressure":1004.9,"uv_index":8.1,"wind_gusts":20.9,"aqi":119,"pm10":47.4,"pm2_5":45.8,"mosquito_risk":3,"arthritis_risk":5,"migraine_risk":4,"frizz_risk":1,"updated_at":"2026-03-02T00:55:41.345819+05:30"},{"city":"Rourkela","state":"Odisha","latitude":22.2604,"longitude":84.8536,"temp":24.4,"humidity":70,"rain":0.0,"pressure":985.1,"uv_index":7.65,"wind_gusts":18.0,"aqi":154,"pm10":74.5,"pm2_5":73.6,"mosquito_risk":3,"arthritis_risk":5,"migraine_risk":7,"frizz_risk":1,"updated_at":"2026-03-02T00:55:41.345826+05:30"},{"city":"Raipur","state":"Chhattisgarh","latitude":21.2514,"longitude":81.6296,"temp":24.1,"humidity":54,"rain":0.0,"pressure":975.0,"uv_index":7.75,"wind_gusts":28.4,"aqi":152,"pm10":40.6,"pm2_5":40.4,"mosquito_risk":0,"arthritis_risk":5,"migraine_risk":7,"frizz_risk":0,"updated_at":"2026-03-02T00:55:41.345832+05:30"},{"city":"Bhilai","state":"Chhattisgarh","latitude":21.1938,"longitude":81.3509,"temp":23.5,"humidity":59,"rain":0.0,"pressure":975.2,"uv_index":7.8,"wind_gusts":26.3,"aqi":145,"pm10":27.6,"pm2_5":27.4,"mosquito_risk":0,"arthritis_risk":5,"migraine_risk":7,"frizz_risk":0,"updated_at":"2026-03-02T00:55:41.345838+05:30"},{"city":"Guwahati","state":"Assam","latitude":26.1158,"longitude":91.7086,"temp":20.6,"humidity":84,"rain":0.0,"pressure":1003.5,"uv_index":7.0,"wind_gusts":29.5,"aqi":158,"pm10":72.2,"pm2_5":62.4,"mosquito_risk":3,"arthritis_risk":5,"migraine_risk":4,"frizz_risk":1,"updated_at":"2026-03-02T00:55:41.345845+05:30"},{"city":"Agartala","state":"Tripura","latitude":23.8315,"longitude":91.2868,"temp":21.6,"humidity":92,"rain":0.0,"pressure":1006.8,"uv_index":7.4,"wind_gusts":20.9,"aqi":108,"pm10":29.7,"pm2_5":27.3,"mosquito_risk":3,"arthritis_risk":5,"migraine_risk":4,"frizz_risk":1,"updated_at":"2026-03-02T00:55:41.345851+05:30"},{"city":"Shillong","state":"Meghalaya","latitude":25.5788,"longitude":91.8933,"temp":10.8,"humidity":83,"rain":0.0,"pressure":854.1,"uv_index":7.35,"wind_gusts":58.0,"aqi":130,"pm10":52.7,"pm2_5":41.4,"mosquito_risk":3,"arthritis_risk":10,"migraine_risk":7,"frizz_risk":0,"updated_at":"2026-03-02T00:55:41.345857+05:30"},{"city":"Imphal","state":"Manipur","latitude":24.817,"longitude":93.9368,"temp":13.8,"humidity":80,"rain":0.0,"pressure":922.6,"uv_index":7.65,"wind_gusts":72.0,"aqi":153,"pm10":92.7,"pm2_5":77.8,"mosquito_risk":3,"arthritis_risk":5,"migraine_risk":7,"frizz_risk":0,"updated_at":"2026-03-02T00:55:41.345864+05:30"},{"city":"Aizawl","state":"Mizoram","latitude":23.7271,"longitude":92.7176,"temp":15.8,"humidity":71,"rain":0.0,"pressure":892.0,"uv_index":7.6,"wind_gusts":49.0,"aqi":130,"pm10":69.6,"pm2_5":54.6,"mosquito_risk":3,"arthritis_risk":5,"migraine_risk":7,"frizz_risk":0,"updated_at":"2026-03-02T00:55:41.345871+05:30"},{"city":"Kohima","state":"Nagaland","latitude":25.6701,"longitude":94.1077,"temp":11.3,"humidity":82,"rain":0.0,"pressure":853.2,"uv_index":7.45,"wind_gusts":81.0,"aqi":154,"pm10":84.1,"pm2_5":69.6,"mosquito_risk":3,"arthritis_risk":10,"migraine_risk":7,"frizz_risk":0,"updated_at":"2026-03-02T00:55:41.345877+05:30"},{"city":"Gangtok","state":"Sikkim","latitude":27.3314,"longitude":88.6138,"temp":9.6,"humidity":81,"rain":0.0,"pressure":834.0,"uv_index":5.25,"wind_gusts":17.3,"aqi":125,"pm10":62.6,"pm2_5":49.2,"mosquito_risk":3,"arthritis_risk":10,"migraine_risk":3,"frizz_risk":0,"updated_at":"2026-03-02T00:55:41.345884+05:30"},{"city":"Siliguri","state":"West Bengal","latitude":26.7271,"longitude":88.3953,"temp":17.0,"humidity":72,"rain":0.0,"pressure":994.9,"uv_index":7.0,"wind_gusts":20.2,"aqi":172,"pm10":125.7,"pm2_5":100.8,"mosquito_risk":3,"arthritis_risk":5,"migraine_risk":7,"frizz_risk":0,"updated_at":"2026-03-02T00:55:44.612075+05:30"},{"city":"Durgapur","state":"West Bengal","latitude":23.5204,"longitude":87.3119,"temp":25.2,"humidity":51,"rain":0.0,"pressure":995.6,"uv_index":7.55,"wind_gusts":31.3,"aqi":149,"pm10":65.2,"pm2_5":46.6,"mosquito_risk":4,"arthritis_risk":5,"migraine_risk":7,"frizz_risk":0,"updated_at":"2026-03-02T00:55:44.612109+05:30"},{"city":"Asansol","state":"West Bengal","latitude":23.6739,"longitude":86.9524,"temp":25.5,"humidity":45,"rain":0.0,"pressure":994.4,"uv_index":7.55,"wind_gusts":32.4,"aqi":130,"pm10":62.6,"pm2_5":40.7,"mosquito_risk":4,"arthritis_risk":5,"migraine_risk":7,"frizz_risk":0,"updated_at":"2026-03-02T00:55:44.612121+05:30"},{"city":"Pondicherry","state":"Puducherry","latitude":11.9139,"longitude":79.8145,"temp":22.7,"humidity":90,"rain":0.0,"pressure":1009.9,"uv_index":8.8,"wind_gusts":27.4,"aqi":127,"pm10":44.0,"pm2_5":39.9,"mosquito_risk":3,"arthritis_risk":0,"migraine_risk":4,"frizz_risk":1,"updated_at":"2026-03-02T00:55:44.612130+05:30"},{"city":"Port Blair","state":"Andaman and Nicobar Islands","latitude":11.6234,"longitude":92.7265,"temp":27.3,"humidity":72,"rain":0.0,"pressure":1006.7,"uv_index":8.8,"wind_gusts":17.6,"aqi":70,"pm10":27.5,"pm2_5":23.6,"mosquito_risk":7,"arthritis_risk":5,"migraine_risk":4,"frizz_risk":1,"updated_at":"2026-03-02T00:55:44.612140+05:30"},{"city":"Haridwar","state":"Uttarakhand","latitude":29.9457,"longitude":78.1642,"temp":14.0,"humidity":86,"rain":0.0,"pressure":975.7,"uv_index":5.55,"wind_gusts":43.6,"aqi":101,"pm10":47.3,"pm2_5":44.0,"mosquito_risk":3,"arthritis_risk":10,"migraine_risk":3,"frizz_risk":0,"updated_at":"2026-03-02T00:55:44.612149+05:30"},{"city":"Rishikesh","state":"Uttarakhand","latitude":30.0869,"longitude":78.2676,"temp":15.3,"humidity":66,"rain":0.0,"pressure":968.2,"uv_index":5.6,"wind_gusts":37.1,"aqi":85,"pm10":38.6,"pm2_5":35.4,"mosquito_risk":3,"arthritis_risk":5,"migraine_risk":3,"frizz_risk":0,"updated_at":"2026-03-02T00:55:44.612158+05:30"},{"city":"Nainital","state":"Uttarakhand","latitude":29.3919,"longitude":79.4542,"temp":13.9,"humidity":47,"rain":0.0,"pressure":804.2,"uv_index":6.4,"wind_gusts":50.8,"aqi":83,"pm10":32.7,"pm2_5":25.8,"mosquito_risk":0,"arthritis_risk":5,"migraine_risk":7,"frizz_risk":0,"updated_at":"2026-03-02T00:55:44.612166+05:30"},{"city":"Mussoorie","state":"Uttarakhand","latitude":30.4599,"longitude":78.0664,"temp":12.0,"humidity":54,"rain":0.0,"pressure":800.7,"uv_index":5.7,"wind_gusts":34.9,"aqi":85,"pm10":46.8,"pm2_5":44.1,"mosquito_risk":0,"arthritis_risk":5,"migraine_risk":3,"frizz_risk":0,"updated_at":"2026-03-02T00:55:44.612175+05:30"},{"city":"Dharamshala","state":"Himachal Pradesh","latitude":32.219,"longitude":76.3234,"temp":16.1,"humidity":47,"rain":0.0,"pressure":869.4,"uv_index":6.15,"wind_gusts":27.4,"aqi":81,"pm10":29.7,"pm2_5":21.4,"mosquito_risk":0,"arthritis_risk":5,"migraine_risk":7,"frizz_risk":0,"updated_at":"2026-03-02T00:55:44.612183+05:30"},{"city":"Dalhousie","state":"Himachal Pradesh","latitude":32.5387,"longitude":75.971,"temp":12.8,"humidity":50,"rain":0.0,"pressure":803.0,"uv_index":6.35,"wind_gusts":24.8,"aqi":93,"pm10":57.9,"pm2_5":52.6,"mosquito_risk":0,"arthritis_risk":5,"migraine_risk":7,"frizz_risk":0,"updated_at":"2026-03-02T00:55:44.612192+05:30"},{"city":"Patiala","state":"Punjab","latitude":30.3398,"longitude":76.3869,"temp":15.5,"humidity":74,"rain":0.0,"pressure":980.4,"uv_index":5.55,"wind_gusts":34.9,"aqi":155,"pm10":167.2,"pm2_5":76.1,"mosquito_risk":3,"arthritis_risk":5,"migraine_risk":3,"frizz_risk":0,"updated_at":"2026-03-02T00:55:44.612200+05:30"},{"city":"Bhatinda","state":"Punjab","latitude":30.211,"longitude":74.9455,"temp":19.8,"humidity":61,"rain":0.0,"pressure":986.0,"uv_index":6.2,"wind_gusts":27.4,"aqi":155,"pm10":119.2,"pm2_5":93.4,"mosquito_risk":3,"arthritis_risk":5,"migraine_risk":7,"frizz_risk":0,"updated_at":"2026-03-02T00:55:44.612208+05:30"},{"city":"Rohtak","state":"Haryana","latitude":28.8955,"longitude":76.6066,"temp":17.2,"humidity":74,"rain":0.0,"pressure":984.0,"uv_index":5.75,"wind_gusts":33.5,"aqi":163,"pm10":360.4,"pm2_5":86.1,"mosquito_risk":3,"arthritis_risk":5,"migraine_risk":3,"frizz_risk":0,"updated_at":"2026-03-02T00:55:44.612216+05:30"},{"city":"Panipat","state":"Haryana","latitude":29.3909,"longitude":76.9635,"temp":15.6,"humidity":77,"rain":0.0,"pressure":982.5,"uv_index":5.55,"wind_gusts":34.2,"aqi":388,"pm10":733.9,"pm2_5":121.5,"mosquito_risk":3,"arthritis_risk":5,"migraine_risk":3,"frizz_risk":0,"updated_at":"2026-03-02T00:55:44.612224+05:30"},{"city":"Mathura","state":"Uttar Pradesh","latitude":27.4924,"longitude":77.6737,"temp":18.1,"humidity":57,"rain":0.0,"pressure":988.8,"uv_index":6.0,"wind_gusts":29.5,"aqi":232,"pm10":293.4,"pm2_5":73.8,"mosquito_risk":0,"arthritis_risk":5,"migraine_risk":3,"frizz_risk":0,"updated_at":"2026-03-02T00:55:44.612232+05:30"},{"city":"Vrindavan","state":"Uttar Pradesh","latitude":27.5823,"longitude":77.7027,"temp":17.3,"humidity":63,"rain":0.0,"pressure":989.4,"uv_index":6.0,"wind_gusts":31.3,"aqi":232,"pm10":293.4,"pm2_5":73.8,"mosquito_risk":3,"arthritis_risk":5,"migraine_risk":3,"frizz_risk":0,"updated_at":"2026-03-02T00:55:44.612239+05:30"},{"city":"Ayodhya","state":"Uttar Pradesh","latitude":26.7922,"longitude":82.1998,"temp":16.9,"humidity":57,"rain":0.0,"pressure":996.9,"uv_index":6.4,"wind_gusts":36.7,"aqi":108,"pm10":118.7,"pm2_5":42.1,"mosquito_risk":0,"arthritis_risk":5,"migraine_risk":7,"frizz_risk":0,"updated_at":"2026-03-02T00:55:44.612245+05:30"},{"city":"Ratlam","state":"Madhya Pradesh","latitude":23.3315,"longitude":75.0367,"temp":22.8,"humidity":55,"rain":0.0,"pressure":956.1,"uv_index":7.25,"wind_gusts":8.3,"aqi":81,"pm10":61.2,"pm2_5":55.3,"mosquito_risk":0,"arthritis_risk":5,"migraine_risk":7,"frizz_risk":0,"updated_at":"2026-03-02T00:55:44.612252+05:30"},{"city":"Sagar","state":"Madhya Pradesh","latitude":23.8388,"longitude":78.7378,"temp":22.6,"humidity":47,"rain":0.0,"pressure":951.9,"uv_index":7.2,"wind_gusts":23.4,"aqi":59,"pm10":43.1,"pm2_5":26.4,"mosquito_risk":0,"arthritis_risk":5,"migraine_risk":7,"frizz_risk":0,"updated_at":"2026-03-02T00:55:44.612258+05:30"},{"city":"Satna","state":"Madhya Pradesh","latitude":24.6005,"longitude":80.8322,"temp":20.2,"humidity":45,"rain":0.0,"pressure":973.3,"uv_index":7.15,"wind_gusts":32.4,"aqi":88,"pm10":39.3,"pm2_5":23.6,"mosquito_risk":0,"arthritis_risk":5,"migraine_risk":7,"frizz_risk":0,"updated_at":"2026-03-02T00:55:44.612264+05:30"},{"city":"Akola","state":"Maharashtra","latitude":20.7002,"longitude":77.0082,"temp":23.9,"humidity":58,"rain":0.0,"pressure":976.1,"uv_index":7.75,"wind_gusts":23.0,"aqi":67,"pm10":31.5,"pm2_5":30.6,"mosquito_risk":0,"arthritis_risk":5,"migraine_risk":7,"frizz_risk":0,"updated_at":"2026-03-02T00:55:44.612271+05:30"},{"city":"Amravati","state":"Maharashtra","latitude":20.9374,"longitude":77.7796,"temp":22.0,"humidity":56,"rain":0.0,"pressure":968.1,"uv_index":7.7,"wind_gusts":22.3,"aqi":64,"pm10":29.4,"pm2_5":28.6,"mosquito_risk":0,"arthritis_risk":5,"migraine_risk":7,"frizz_risk":0,"updated_at":"2026-03-02T00:55:44.612278+05:30"},{"city":"Latur","state":"Maharashtra","latitude":18.4088,"longitude":76.5604,"temp":24.9,"humidity":58,"rain":0.0,"pressure":940.0,"uv_index":8.15,"wind_gusts":25.6,"aqi":80,"pm10":30.7,"pm2_5":30.3,"mosquito_risk":0,"arthritis_risk":5,"migraine_risk":7,"frizz_risk":1,"updated_at":"2026-03-02T00:55:44.612285+05:30"},{"city":"Nanded","state":"Maharashtra","latitude":19.1383,"longitude":77.3091,"temp":25.5,"humidity":59,"rain":0.0,"pressure":968.8,"uv_index":7.95,"wind_gusts":24.8,"aqi":77,"pm10":26.0,"pm2_5":25.6,"mosquito_risk":4,"arthritis_risk":5,"migraine_risk":7,"frizz_risk":1,"updated_at":"2026-03-02T00:55:44.612291+05:30"},{"city":"Gulbarga","state":"Karnataka","latitude":17.3297,"longitude":76.8343,"temp":26.7,"humidity":59,"rain":0.0,"pressure":958.7,"uv_index":8.25,"wind_gusts":17.3,"aqi":106,"pm10":43.8,"pm2_5":43.4,"mosquito_risk":4,"arthritis_risk":5,"migraine_risk":7,"frizz_risk":1,"updated_at":"2026-03-02T00:55:44.612297+05:30"},{"city":"Bidar","state":"Karnataka","latitude":17.9104,"longitude":77.5199,"temp":24.6,"humidity":63,"rain":0.0,"pressure":935.5,"uv_index":8.2,"wind_gusts":20.2,"aqi":105,"pm10":49.6,"pm2_5":49.2,"mosquito_risk":3,"arthritis_risk":5,"migraine_risk":7,"frizz_risk":1,"updated_at":"2026-03-02T00:55:44.612303+05:30"},{"city":"Hospet","state":"Karnataka","latitude":15.2689,"longitude":76.3909,"temp":26.9,"humidity":54,"rain":0.0,"pressure":955.9,"uv_index":8.6,"wind_gusts":22.3,"aqi":124,"pm10":48.8,"pm2_5":48.1,"mosquito_risk":4,"arthritis_risk":5,"migraine_risk":7,"frizz_risk":1,"updated_at":"2026-03-02T00:55:44.612309+05:30"},{"city":"Tirupur","state":"Tamil Nadu","latitude":11.1085,"longitude":77.3411,"temp":25.3,"humidity":75,"rain":0.0,"pressure":976.5,"uv_index":9.1,"wind_gusts":28.4,"aqi":151,"pm10":51.2,"pm2_5":50.3,"mosquito_risk":7,"arthritis_risk":5,"migraine_risk":7,"frizz_risk":1,"updated_at":"2026-03-02T00:55:44.612315+05:30"},{"city":"Alappuzha","state":"Kerala","latitude":9.4981,"longitude":76.3388,"temp":26.9,"humidity":83,"rain":0.0,"pressure":1010.0,"uv_index":8.9,"wind_gusts":30.2,"aqi":92,"pm10":39.9,"pm2_5":36.9,"mosquito_risk":7,"arthritis_risk":0,"migraine_risk":4,"frizz_risk":1,"updated_at":"2026-03-02T00:55:44.612321+05:30"},{"city":"Munnar","state":"Kerala","latitude":10.0889,"longitude":77.0595,"temp":18.2,"humidity":87,"rain":0.0,"pressure":856.2,"uv_index":9.4,"wind_gusts":30.6,"aqi":133,"pm10":50.8,"pm2_5":49.7,"mosquito_risk":3,"arthritis_risk":10,"migraine_risk":7,"frizz_risk":0,"updated_at":"2026-03-02T00:55:44.612328+05:30"},{"city":"Silchar","state":"Assam","latitude":24.8333,"longitude":92.7789,"temp":19.8,"humidity":81,"rain":0.0,"pressure":1005.7,"uv_index":7.35,"wind_gusts":30.6,"aqi":156,"pm10":95.7,"pm2_5":75.4,"mosquito_risk":3,"arthritis_risk":10,"migraine_risk":4,"frizz_risk":1,"updated_at":"2026-03-02T00:55:44.612335+05:30"},{"city":"Dibrugarh","state":"Assam","latitude":27.4728,"longitude":94.912,"temp":19.4,"humidity":84,"rain":0.0,"pressure":998.0,"uv_index":7.05,"wind_gusts":10.4,"aqi":157,"pm10":71.2,"pm2_5":64.5,"mosquito_risk":3,"arthritis_risk":10,"migraine_risk":7,"frizz_risk":1,"updated_at":"2026-03-02T00:55:44.612341+05:30"}]