[{"city":"Delhi","state":"Delhi","latitude":28.6139,"longitude":77.209,"temp":31.2,"humidity":28,"rain":0.0,"pressure":981.1,"uv_index":7.45,"wind_gusts":48.6,"aqi":589,"pm10":750.6,"pm2_5":132.2,"mosquito_risk":0,"arthritis_risk":5,"migraine_risk":7,"frizz_risk":0,"updated_at":"2026-04-26T01:19:27.479515+05:30"},{"city":"Mumbai","state":"Maharashtra","latitude":19.076,"longitude":72.8777,"temp":29.5,"humidity":45,"rain":0.0,"pressure":1006.9,"uv_index":7.7,"wind_gusts":38.9,"aqi":78,"pm10":48.1,"pm2_5":30.4,"mosquito_risk":4,"arthritis_risk":5,"migraine_risk":4,"frizz_risk":1,"updated_at":"2026-04-26T01:19:27.479559+05:30"},{"city":"Bangalore","state":"Karnataka","latitude":12.9716,"longitude":77.5946,"temp":26.0,"humidity":54,"rain":0.0,"pressure":911.6,"uv_index":9.5,"wind_gusts":36.7,"aqi":76,"pm10":31.5,"pm2_5":28.3,"mosquito_risk":4,"arthritis_risk":5,"migraine_risk":7,"frizz_risk":0,"updated_at":"2026-04-26T01:19:27.479576+05:30"},{"city":"Hyderabad","state":"Telangana","latitude":17.385,"longitude":78.4867,"temp":29.5,"humidity":44,"rain":0.0,"pressure":952.7,"uv_index":8.85,"wind_gusts":28.8,"aqi":123,"pm10":33.6,"pm2_5":30.3,"mosquito_risk":4,"arthritis_risk":5,"migraine_risk":7,"frizz_risk":1,"updated_at":"2026-04-26T01:19:27.479586+05:30"},{"city":"Chennai","state":"Tamil Nadu","latitude":13.0827,"longitude":80.2707,"temp":28.0,"humidity":89,"rain":0.0,"pressure":1006.1,"uv_index":9.25,"wind_gusts":52.2,"aqi":33,"pm10":13.3,"pm2_5":8.8,"mosquito_risk":7,"arthritis_risk":5,"migraine_risk":4,"frizz_risk":1,"updated_at":"2026-04-26T01:19:27.479595+05:30"},{"city":"Kolkata","state":"West Bengal","latitude":22.5726,"longitude":88.3639,"temp":27.6,"humidity":90,"rain":0.0,"pressure":1004.6,"uv_index":8.6,"wind_gusts":47.2,"aqi":75,"pm10":21.8,"pm2_5":16.8,"mosquito_risk":7,"arthritis_risk":5,"migraine_risk":4,"frizz_risk":1,"updated_at":"2026-04-26T01:19:27.479607+05:30"},{"city":"Pune","state":"Maharashtra","latitude":18.5204,"longitude":73.8567,"temp":29.5,"humidity":23,"rain":0.0,"pressure":947.2,"uv_index":8.6,"wind_gusts":37.4,"aqi":114,"pm10":37.7,"pm2_5":31.5,"mosquito_risk":4,"arthritis_risk":5,"migraine_risk":7,"frizz_risk":0,"updated_at":"2026-04-26T01:19:27.479614+05:30"},{"city":"Ahmedabad","state":"Gujarat","latitude":23.0225,"longitude":72.5714,"temp":33.0,"humidity":22,"rain":0.0,"pressure":1000.9,"uv_index":8.2,"wind_gusts":34.9,"aqi":61,"pm10":31.0,"pm2_5":16.6,"mosquito_risk":0,"arthritis_risk":5,"migraine_risk":4,"frizz_risk":0,"updated_at":"2026-04-26T01:19:27.479621+05:30"},{"city":"Jaipur","state":"Rajasthan","latitude":26.9124,"longitude":75.7873,"temp":32.3,"humidity":23,"rain":0.0,"pressure":959.2,"uv_index":8.05,"wind_gusts":42.8,"aqi":138,"pm10":169.5,"pm2_5":42.3,"mosquito_risk":0,"arthritis_risk":5,"migraine_risk":7,"frizz_risk":0,"updated_at":"2026-04-26T01:19:27.479629+05:30"},{"city":"Lucknow","state":"Uttar Pradesh","latitude":26.8467,"longitude":80.9462,"temp":31.5,"humidity":29,"rain":0.0,"pressure":990.6,"uv_index":7.9,"wind_gusts":48.6,"aqi":124,"pm10":148.5,"pm2_5":42.7,"mosquito_risk":0,"arthritis_risk":5,"migraine_risk":7,"frizz_risk":0,"updated_at":"2026-04-26T01:19:27.479637+05:30"},{"city":"Kanpur","state":"Uttar Pradesh","latitude":26.4499,"longitude":80.3319,"temp":32.3,"humidity":25,"rain":0.0,"pressure":988.8,"uv_index":7.9,"wind_gusts":47.2,"aqi":185,"pm10":379.0,"pm2_5":64.3,"mosquito_risk":0,"arthritis_risk":5,"migraine_risk":7,"frizz_risk":0,"updated_at":"2026-04-26T01:19:27.479644+05:30"},{"city":"Chandigarh","state":"Chandigarh","latitude":30.7333,"longitude":76.7794,"temp":29.5,"humidity":27,"rain":0.0,"pressure":966.7,"uv_index":7.4,"wind_gusts":46.1,"aqi":63,"pm10":39.5,"pm2_5":23.2,"mosquito_risk":4,"arthritis_risk":5,"migraine_risk":7,"frizz_risk":0,"updated_at":"2026-04-26T01:19:27.479650+05:30"},{"city":"Srinagar","state":"Jammu and Kashmir","latitude":34.0837,"longitude":74.7973,"temp":10.8,"humidity":95,"rain":0.0,"pressure":843.6,"uv_index":8.6,"wind_gusts":14.8,"aqi":78,"pm10":63.3,"pm2_5":46.7,"mosquito_risk":3,"arthritis_risk":10,"migraine_risk":7,"frizz_risk":0,"updated_at":"2026-04-26T01:19:27.479658+05:30"},{"city":"Jammu","state":"Jammu and Kashmir","latitude":32.7266,"longitude":74.857,"temp":23.7,"humidity":45,"rain":0.0,"pressure":971.2,"uv_index":8.15,"wind_gusts":36.4,"aqi":77,"pm10":39.9,"pm2_5":24.2,"mosquito_risk":0,"arthritis_risk":5,"migraine_risk":7,"frizz_risk":0,"updated_at":"2026-04-26T01:19:27.479664+05:30"},{"city":"Amritsar","state":"Punjab","latitude":31.634,"longitude":74.8723,"temp":28.4,"humidity":36,"rain":0.0,"pressure":979.2,"uv_index":8.1,"wind_gusts":33.5,"aqi":98,"pm10":129.0,"pm2_5":53.3,"mosquito_risk":4,"arthritis_risk":5,"migraine_risk":7,"frizz_risk":0,"updated_at":"2026-04-26T01:19:27.479671+05:30"},{"city":"Ludhiana","state":"Punjab","latitude":30.901,"longitude":75.8573,"temp":28.1,"humidity":37,"rain":0.0,"pressure":977.0,"uv_index":7.65,"wind_gusts":39.2,"aqi":84,"pm10":83.6,"pm2_5":36.3,"mosquito_risk":4,"arthritis_risk":5,"migraine_risk":7,"frizz_risk":0,"updated_at":"2026-04-26T01:19:27.479682+05:30"},{"city":"Jalandhar","state":"Punjab","latitude":31.326,"longitude":75.5762,"temp":26.6,"humidity":44,"rain":0.0,"pressure":977.8,"uv_index":7.85,"wind_gusts":32.4,"aqi":95,"pm10":105.5,"pm2_5":43.8,"mosquito_risk":4,"arthritis_risk":5,"migraine_risk":7,"frizz_risk":0,"updated_at":"2026-04-26T01:19:27.479688+05:30"},{"city":"Dehradun","state":"Uttarakhand","latitude":30.6284,"longitude":78.0322,"temp":13.7,"humidity":60,"rain":0.0,"pressure":827.3,"uv_index":7.8,"wind_gusts":49.3,"aqi":50,"pm10":35.6,"pm2_5":15.7,"mosquito_risk":0,"arthritis_risk":5,"migraine_risk":7,"frizz_risk":0,"updated_at":"2026-04-26T01:19:27.479695+05:30"},{"city":"Shimla","state":"Himachal Pradesh","latitude":31.1048,"longitude":77.1734,"temp":14.8,"humidity":43,"rain":0.0,"pressure":784.4,"uv_index":7.9,"wind_gusts":46.4,"aqi":58,"pm10":75.9,"pm2_5":22.1,"mosquito_risk":0,"arthritis_risk":5,"migraine_risk":7,"frizz_risk":0,"updated_at":"2026-04-26T01:19:27.479701+05:30"},{"city":"Manali","state":"Himachal Pradesh","latitude":32.2396,"longitude":77.1887,"temp":9.0,"humidity":69,"rain":0.0,"pressure":816.6,"uv_index":9.3,"wind_gusts":42.5,"aqi":52,"pm10":10.8,"pm2_5":6.0,"mosquito_risk":3,"arthritis_risk":5,"migraine_risk":7,"frizz_risk":0,"updated_at":"2026-04-26T01:19:27.479707+05:30"},{"city":"Gurgaon","state":"Haryana","latitude":28.4595,"longitude":77.0266,"temp":27.8,"humidity":34,"rain":0.0,"pressure":979.6,"uv_index":7.55,"wind_gusts":46.8,"aqi":1421,"pm10":1363.5,"pm2_5":188.6,"mosquito_risk":4,"arthritis_risk":5,"migraine_risk":7,"frizz_risk":0,"updated_at":"2026-04-26T01:19:27.479714+05:30"},{"city":"Noida","state":"Uttar Pradesh","latitude":28.5355,"longitude":77.391,"temp":30.5,"humidity":28,"rain":0.0,"pressure":982.4,"uv_index":7.45,"wind_gusts":41.4,"aqi":1421,"pm10":1363.5,"pm2_5":188.6,"mosquito_risk":0,"arthritis_risk":5,"migraine_risk":7,"frizz_risk":0,"updated_at":"2026-04-26T01:19:27.479720+05:30"},{"city":"Ghaziabad","state":"Uttar Pradesh","latitude":28.6692,"longitude":77.4538,"temp":30.2,"humidity":28,"rain":0.0,"pressure":980.6,"uv_index":7.45,"wind_gusts":47.2,"aqi":402,"pm10":717.1,"pm2_5":126.7,"mosquito_risk":0,"arthritis_risk":5,"migraine_risk":7,"frizz_risk":0,"updated_at":"2026-04-26T01:19:27.479726+05:30"},{"city":"Faridabad","state":"Haryana","latitude":28.4089,"longitude":77.3178,"temp":32.7,"humidity":23,"rain":0.0,"pressure":981.9,"uv_index":7.5,"wind_gusts":51.5,"aqi":1421,"pm10":1363.5,"pm2_5":188.6,"mosquito_risk":0,"arthritis_risk":5,"migraine_risk":7,"frizz_risk":0,"updated_at":"2026-04-26T01:19:27.479732+05:30"},{"city":"Meerut","state":"Uttar Pradesh","latitude":28.9845,"longitude":77.7064,"temp":30.1,"humidity":31,"rain":0.0,"pressure":979.1,"uv_index":7.35,"wind_gusts":40.7,"aqi":402,"pm10":717.1,"pm2_5":126.7,"mosquito_risk":0,"arthritis_risk":5,"migraine_risk":7,"frizz_risk":0,"updated_at":"2026-04-26T01:19:27.479738+05:30"},{"city":"Agra","state":"Uttar Pradesh","latitude":27.1767,"longitude":78.0081,"temp":30.6,"humidity":28,"rain":0.0,"pressure":985.5,"uv_index":7.8,"wind_gusts":47.2,"aqi":715,"pm10":1438.0,"pm2_5":207.7,"mosquito_risk":0,"arthritis_risk":5,"migraine_risk":7,"frizz_risk":0,"updated_at":"2026-04-26T01:19:27.479746+05:30"},{"city":"Varanasi","state":"Uttar Pradesh","latitude":25.3176,"longitude":82.9739,"temp":30.3,"humidity":46,"rain":0.0,"pressure":994.7,"uv_index":8.5,"wind_gusts":46.1,"aqi":138,"pm10":157.4,"pm2_5":67.1,"mosquito_risk":0,"arthritis_risk":5,"migraine_risk":7,"frizz_risk":1,"updated_at":"2026-04-26T01:19:27.479752+05:30"},{"city":"Prayagraj","state":"Uttar Pradesh","latitude":25.4358,"longitude":81.8463,"temp":29.1,"humidity":34,"rain":0.0,"pressure":992.8,"uv_index":8.4,"wind_gusts":41.0,"aqi":117,"pm10":105.5,"pm2_5":47.7,"mosquito_risk":4,"arthritis_risk":5,"migraine_risk":7,"frizz_risk":0,"updated_at":"2026-04-26T01:19:27.479759+05:30"},{"city":"Gorakhpur","state":"Uttar Pradesh","latitude":26.7606,"longitude":83.3732,"temp":27.6,"humidity":60,"rain":0.0,"pressure":995.3,"uv_index":8.35,"wind_gusts":35.6,"aqi":151,"pm10":95.9,"pm2_5":58.9,"mosquito_risk":4,"arthritis_risk":5,"migraine_risk":7,"frizz_risk":1,"updated_at":"2026-04-26T01:19:27.479765+05:30"},{"city":"Bareilly","state":"Uttar Pradesh","latitude":28.367,"longitude":79.4304,"temp":28.8,"humidity":36,"rain":0.0,"pressure":983.9,"uv_index":7.7,"wind_gusts":46.8,"aqi":99,"pm10":221.7,"pm2_5":53.2,"mosquito_risk":4,"arthritis_risk":5,"migraine_risk":7,"frizz_risk":0,"updated_at":"2026-04-26T01:19:27.479771+05:30"},{"city":"Aligarh","state":"Uttar Pradesh","latitude":27.8974,"longitude":78.088,"temp":29.9,"humidity":28,"rain":0.0,"pressure":983.3,"uv_index":7.6,"wind_gusts":51.5,"aqi":656,"pm10":1095.2,"pm2_5":174.2,"mosquito_risk":4,"arthritis_risk":5,"migraine_risk":7,"frizz_risk":0,"updated_at":"2026-04-26T01:19:27.479777+05:30"},{"city":"Moradabad","state":"Uttar Pradesh","latitude":28.8386,"longitude":78.7733,"temp":29.5,"humidity":31,"rain":0.0,"pressure":980.9,"uv_index":7.5,"wind_gusts":49.3,"aqi":153,"pm10":322.2,"pm2_5":76.4,"mosquito_risk":4,"arthritis_risk":5,"migraine_risk":7,"frizz_risk":0,"updated_at":"2026-04-26T01:19:27.479784+05:30"},{"city":"Saharanpur","state":"Uttar Pradesh","latitude":29.9637,"longitude":77.546,"temp":29.2,"humidity":28,"rain":0.0,"pressure":973.2,"uv_index":7.1,"wind_gusts":51.8,"aqi":106,"pm10":154.1,"pm2_5":42.8,"mosquito_risk":4,"arthritis_risk":5,"migraine_risk":7,"frizz_risk":0,"updated_at":"2026-04-26T01:19:27.479790+05:30"},{"city":"Jhansi","state":"Uttar Pradesh","latitude":25.4484,"longitude":78.5685,"temp":31.0,"humidity":25,"rain":0.0,"pressure":975.9,"uv_index":8.3,"wind_gusts":43.6,"aqi":75,"pm10":147.6,"pm2_5":38.4,"mosquito_risk":0,"arthritis_risk":5,"migraine_risk":7,"frizz_risk":0,"updated_at":"2026-04-26T01:19:30.705738+05:30"},{"city":"Surat","state":"Gujarat","latitude":21.1702,"longitude":72.8311,"temp":29.8,"humidity":61,"rain":0.0,"pressure":1004.7,"uv_index":7.85,"wind_gusts":32.0,"aqi":106,"pm10":34.3,"pm2_5":24.3,"mosquito_risk":7,"arthritis_risk":5,"migraine_risk":4,"frizz_risk":1,"updated_at":"2026-04-26T01:19:30.705772+05:30"},{"city":"Vadodara","state":"Gujarat","latitude":22.3072,"longitude":73.1812,"temp":31.5,"humidity":31,"rain":0.0,"pressure":1002.4,"uv_index":8.15,"wind_gusts":37.1,"aqi":83,"pm10":37.3,"pm2_5":27.9,"mosquito_risk":0,"arthritis_risk":5,"migraine_risk":4,"frizz_risk":0,"updated_at":"2026-04-26T01:19:30.705783+05:30"},{"city":"Rajkot","state":"Gujarat","latitude":22.3039,"longitude":70.8022,"temp":26.0,"humidity":69,"rain":0.0,"pressure":993.9,"uv_index":7.9,"wind_gusts":37.8,"aqi":58,"pm10":58.9,"pm2_5":17.5,"mosquito_risk":7,"arthritis_risk":5,"migraine_risk":7,"frizz_risk":1,"updated_at":"2026-04-26T01:19:30.705791+05:30"},{"city":"Thane","state":"Maharashtra","latitude":19.2183,"longitude":72.9781,"temp":28.2,"humidity":59,"rain":0.0,"pressure":1006.3,"uv_index":7.8,"wind_gusts":34.2,"aqi":78,"pm10":48.1,"pm2_5":30.4,"mosquito_risk":4,"arthritis_risk":5,"migraine_risk":4,"frizz_risk":1,"updated_at":"2026-04-26T01:19:30.705798+05:30"},{"city":"Nagpur","state":"Maharashtra","latitude":21.1458,"longitude":79.0882,"temp":33.5,"humidity":20,"rain":0.0,"pressure":971.6,"uv_index":8.9,"wind_gusts":31.7,"aqi":93,"pm10":49.7,"pm2_5":43.0,"mosquito_risk":0,"arthritis_risk":5,"migraine_risk":7,"frizz_risk":0,"updated_at":"2026-04-26T01:19:30.705806+05:30"},{"city":"Nashik","state":"Maharashtra","latitude":19.9975,"longitude":73.7898,"temp":29.0,"humidity":18,"rain":0.0,"pressure":944.9,"uv_index":8.3,"wind_gusts":34.9,"aqi":108,"pm10":48.2,"pm2_5":32.1,"mosquito_risk":4,"arthritis_risk":5,"migraine_risk":7,"frizz_risk":0,"updated_at":"2026-04-26T01:19:30.705812+05:30"},{"city":"Aurangabad","state":"Maharashtra","latitude":19.8762,"longitude":75.3433,"temp":31.0,"humidity":22,"rain":0.0,"pressure":943.5,"uv_index":9.05,"wind_gusts":30.2,"aqi":79,"pm10":52.7,"pm2_5":43.1,"mosquito_risk":0,"arthritis_risk":5,"migraine_risk":7,"frizz_risk":0,"updated_at":"2026-04-26T01:19:30.705819+05:30"},{"city":"Solapur","state":"Maharashtra","latitude":17.6599,"longitude":75.9064,"temp":30.9,"humidity":28,"rain":0.0,"pressure":955.9,"uv_index":8.85,"wind_gusts":24.8,"aqi":122,"pm10":44.9,"pm2_5":41.1,"mosquito_risk":0,"arthritis_risk":5,"migraine_risk":7,"frizz_risk":0,"updated_at":"2026-04-26T01:19:30.705825+05:30"},{"city":"Kolhapur","state":"Maharashtra","latitude":16.705,"longitude":74.2433,"temp":26.0,"humidity":80,"rain":0.0,"pressure":947.3,"uv_index":8.5,"wind_gusts":46.4,"aqi":148,"pm10":55.6,"pm2_5":52.5,"mosquito_risk":7,"arthritis_risk":5,"migraine_risk":7,"frizz_risk":1,"updated_at":"2026-04-26T01:19:30.705832+05:30"},{"city":"Goa","state":"Goa","latitude":15.2993,"longitude":74.124,"temp":28.3,"humidity":90,"rain":0.0,"pressure":996.5,"uv_index":9.0,"wind_gusts":40.3,"aqi":75,"pm10":44.2,"pm2_5":34.8,"mosquito_risk":7,"arthritis_risk":5,"migraine_risk":7,"frizz_risk":1,"updated_at":"2026-04-26T01:19:30.705839+05:30"},{"city":"Jodhpur","state":"Rajasthan","latitude":26.2389,"longitude":73.0243,"temp":32.7,"humidity":27,"rain":0.0,"pressure":981.5,"uv_index":8.3,"wind_gusts":36.4,"aqi":90,"pm10":167.6,"pm2_5":32.1,"mosquito_risk":0,"arthritis_risk":5,"migraine_risk":7,"frizz_risk":0,"updated_at":"2026-04-26T01:19:30.705846+05:30"},{"city":"Udaipur","state":"Rajasthan","latitude":24.5854,"longitude":73.7125,"temp":30.8,"humidity":22,"rain":0.0,"pressure":946.0,"uv_index":8.8,"wind_gusts":41.4,"aqi":65,"pm10":42.4,"pm2_5":18.0,"mosquito_risk":0,"arthritis_risk":5,"migraine_risk":7,"frizz_risk":0,"updated_at":"2026-04-26T01:19:30.705852+05:30"},{"city":"Kota","state":"Rajasthan","latitude":25.2138,"longitude":75.8648,"temp":30.1,"humidity":28,"rain":0.0,"pressure":976.9,"uv_index":8.3,"wind_gusts":30.6,"aqi":78,"pm10":119.2,"pm2_5":43.9,"mosquito_risk":0,"arthritis_risk":5,"migraine_risk":7,"frizz_risk":0,"updated_at":"2026-04-26T01:19:30.705859+05:30"},{"city":"Bikaner","state":"Rajasthan","latitude":28.0229,"longitude":73.3119,"temp":30.5,"humidity":41,"rain":0.0,"pressure":980.8,"uv_index":8.15,"wind_gusts":35.3,"aqi":77,"pm10":82.0,"pm2_5":26.7,"mosquito_risk":0,"arthritis_risk":5,"migraine_risk":7,"frizz_risk":0,"updated_at":"2026-04-26T01:19:30.705865+05:30"},{"city":"Ajmer","state":"Rajasthan","latitude":26.4499,"longitude":74.6399,"temp":30.5,"humidity":27,"rain":0.0,"pressure":954.1,"uv_index":8.25,"wind_gusts":44.3,"aqi":81,"pm10":93.8,"pm2_5":28.5,"mosquito_risk":0,"arthritis_risk":5,"migraine_risk":7,"frizz_risk":0,"updated_at":"2026-04-26T01:19:30.705872+05:30"},{"city":"Gwalior","state":"Madhya Pradesh","latitude":26.2183,"longitude":78.1828,"temp":33.0,"humidity":23,"rain":0.0,"pressure":980.9,"uv_index":8.05,"wind_gusts":46.1,"aqi":94,"pm10":549.5,"pm2_5":101.0,"mosquito_risk":0,"arthritis_risk":5,"migraine_risk":7,"frizz_risk":0,"updated_at":"2026-04-26T01:19:30.705878+05:30"},{"city":"Indore","state":"Madhya Pradesh","latitude":22.7196,"longitude":75.8577,"temp":31.2,"humidity":21,"rain":0.0,"pressure":947.8,"uv_index":8.6,"wind_gusts":34.9,"aqi":62,"pm10":68.2,"pm2_5":42.4,"mosquito_risk":0,"arthritis_risk":5,"migraine_risk":7,"frizz_risk":0,"updated_at":"2026-04-26T01:19:30.705883+05:30"},{"city":"Bhopal","state":"Madhya Pradesh","latitude":23.2599,"longitude":77.4126,"temp":31.1,"humidity":19,"rain":0.0,"pressure":952.3,"uv_index":8.65,"wind_gusts":32.8,"aqi":62,"pm10":39.6,"pm2_5":26.8,"mosquito_risk":0,"arthritis_risk":5,"migraine_risk":7,"frizz_risk":0,"updated_at":"2026-04-26T01:19:30.705889+05:30"},{"city":"Jabalpur","state":"Madhya Pradesh","latitude":23.1815,"longitude":79.9864,"temp":29.5,"humidity":23,"rain":0.0,"pressure":959.5,"uv_index":8.6,"wind_gusts":36.0,"aqi":56,"pm10":20.3,"pm2_5":15.1,"mosquito_risk":4,"arthritis_risk":5,"migraine_risk":7,"frizz_risk":0,"updated_at":"2026-04-26T01:19:30.705895+05:30"},{"city":"Ujjain","state":"Madhya Pradesh","latitude":23.1765,"longitude":75.7885,"temp":30.9,"humidity":23,"rain":0.0,"pressure":953.2,"uv_index":8.55,"wind_gusts":29.2,"aqi":68,"pm10":60.3,"pm2_5":39.5,"mosquito_risk":0,"arthritis_risk":5,"migraine_risk":7,"frizz_risk":0,"updated_at":"2026-04-26T01:19:30.705902+05:30"},{"city":"Visakhapatnam","state":"Andhra Pradesh","latitude":17.6868,"longitude":83.2185,"temp":26.8,"humidity":93,"rain":0.0,"pressure":1002.0,"uv_index":9.1,"wind_gusts":48.6,"aqi":57,"pm10":16.7,"pm2_5":12.6,"mosquito_risk":7,"arthritis_risk":5,"migraine_risk":4,"frizz_risk":1,"updated_at":"2026-04-26T01:19:30.705909+05:30"},{"city":"Vijayawada","state":"Andhra Pradesh","latitude":16.5062,"longitude":80.648,"temp":26.9,"humidity":94,"rain":0.0,"pressure":1001.5,"uv_index":9.2,"wind_gusts":38.9,"aqi":52,"pm10":15.5,"pm2_5":12.3,"mosquito_risk":7,"arthritis_risk":5,"migraine_risk":4,"frizz_risk":1,"updated_at":"2026-04-26T01:19:30.705915+05:30"},{"city":"Guntur","state":"Andhra Pradesh","latitude":16.3067,"longitude":80.4365,"temp":26.8,"humidity":97,"rain":0.0,"pressure":1002.9,"uv_index":9.2,"wind_gusts":41.0,"aqi":53,"pm10":15.4,"pm2_5":11.9,"mosquito_risk":7,"arthritis_risk":5,"migraine_risk":4,"frizz_risk":1,"updated_at":"2026-04-26T01:19:30.705921+05:30"},{"city":"Nellore","state":"Andhra Pradesh","latitude":14.4426,"longitude":79.9865,"temp":26.5,"humidity":91,"rain":0.0,"pressure":1004.8,"uv_index":8.85,"wind_gusts":46.4,"aqi":43,"pm10":10.8,"pm2_5":8.0,"mosquito_risk":7,"arthritis_risk":5,"migraine_risk":4,"frizz_risk":1,"updated_at":"2026-04-26T01:19:30.705928+05:30"},{"city":"Kurnool","state":"Andhra Pradesh","latitude":15.8281,"longitude":78.0373,"temp":30.6,"humidity":52,"rain":0.0,"pressure":976.3,"uv_index":9.2,"wind_gusts":30.2,"aqi":84,"pm10":29.9,"pm2_5":26.4,"mosquito_risk":0,"arthritis_risk":5,"migraine_risk":7,"frizz_risk":1,"updated_at":"2026-04-26T01:19:30.705934+05:30"},{"city":"Kakinada","state":"Andhra Pradesh","latitude":16.9891,"longitude":82.2475,"temp":27.0,"humidity":93,"rain":0.0,"pressure":1006.4,"uv_index":9.15,"wind_gusts":45.4,"aqi":40,"pm10":15.8,"pm2_5":10.3,"mosquito_risk":7,"arthritis_risk":5,"migraine_risk":4,"frizz_risk":1,"updated_at":"2026-04-26T01:19:30.705940+05:30"},{"city":"Tirupati","state":"Andhra Pradesh","latitude":13.6288,"longitude":79.4192,"temp":27.4,"humidity":70,"rain":0.0,"pressure":990.5,"uv_index":9.3,"wind_gusts":35.6,"aqi":59,"pm10":19.2,"pm2_5":16.9,"mosquito_risk":7,"arthritis_risk":5,"migraine_risk":7,"frizz_risk":1,"updated_at":"2026-04-26T01:19:30.705946+05:30"},{"city":"Warangal","state":"Telangana","latitude":17.9689,"longitude":79.5941,"temp":28.9,"humidity":55,"rain":0.0,"pressure":977.3,"uv_index":8.9,"wind_gusts":34.2,"aqi":92,"pm10":29.9,"pm2_5":27.6,"mosquito_risk":4,"arthritis_risk":5,"migraine_risk":7,"frizz_risk":1,"updated_at":"2026-04-26T01:19:30.705952+05:30"},{"city":"Nizamabad","state":"Telangana","latitude":18.6725,"longitude":78.0941,"temp":30.8,"humidity":34,"rain":0.0,"pressure":963.2,"uv_index":9.1,"wind_gusts":36.0,"aqi":122,"pm10":53.3,"pm2_5":49.2,"mosquito_risk":0,"arthritis_risk":5,"migraine_risk":7,"frizz_risk":0,"updated_at":"2026-04-26T01:19:30.705958+05:30"},{"city":"Mysore","state":"Karnataka","latitude":12.2958,"longitude":76.6396,"temp":24.5,"humidity":68,"rain":0.0,"pressure":927.6,"uv_index":9.45,"wind_gusts":38.2,"aqi":86,"pm10":28.2,"pm2_5":25.1,"mosquito_risk":3,"arthritis_risk":5,"migraine_risk":7,"frizz_risk":1,"updated_at":"2026-04-26T01:19:30.705964+05:30"},{"city":"Mangalore","state":"Karnataka","latitude":12.9141,"longitude":74.856,"temp":28.9,"humidity":86,"rain":0.0,"pressure":1005.5,"uv_index":9.1,"wind_gusts":39.2,"aqi":62,"pm10":27.0,"pm2_5":20.1,"mosquito_risk":7,"arthritis_risk":5,"migraine_risk":4,"frizz_risk":1,"updated_at":"2026-04-26T01:19:30.705970+05:30"},{"city":"Hubli-Dharwad","state":"Karnataka","latitude":15.3647,"longitude":75.124,"temp":26.8,"humidity":76,"rain":0.0,"pressure":939.7,"uv_index":9.2,"wind_gusts":53.3,"aqi":106,"pm10":21.4,"pm2_5":19.5,"mosquito_risk":7,"arthritis_risk":5,"migraine_risk":7,"frizz_risk":1,"updated_at":"2026-04-26T01:19:30.705976+05:30"},{"city":"Belgaum","state":"Karnataka","latitude":15.8497,"longitude":74.4977,"temp":24.7,"humidity":86,"rain":0.0,"pressure":924.7,"uv_index":9.2,"wind_gusts":46.1,"aqi":117,"pm10":32.8,"pm2_5":28.9,"mosquito_risk":3,"arthritis_risk":5,"migraine_risk":7,"frizz_risk":1,"updated_at":"2026-04-26T01:19:33.934082+05:30"},{"city":"Coimbatore","state":"Tamil Nadu","latitude":11.0168,"longitude":76.9558,"temp":28.0,"humidity":62,"rain":0.0,"pressure":961.2,"uv_index":9.35,"wind_gusts":39.6,"aqi":76,"pm10":36.7,"pm2_5":33.5,"mosquito_risk":7,"arthritis_risk":5,"migraine_risk":7,"frizz_risk":1,"updated_at":"2026-04-26T01:19:33.934117+05:30"},{"city":"Madurai","state":"Tamil Nadu","latitude":9.9252,"longitude":78.1198,"temp":28.5,"humidity":57,"rain":0.0,"pressure":992.6,"uv_index":9.25,"wind_gusts":43.9,"aqi":57,"pm10":13.0,"pm2_5":12.6,"mosquito_risk":4,"arthritis_risk":5,"migraine_risk":7,"frizz_risk":1,"updated_at":"2026-04-26T01:19:33.934129+05:30"},{"city":"Trichy","state":"Tamil Nadu","latitude":10.7905,"longitude":78.7047,"temp":26.7,"humidity":84,"rain":0.0,"pressure":999.1,"uv_index":9.3,"wind_gusts":29.2,"aqi":55,"pm10":14.7,"pm2_5":13.0,"mosquito_risk":7,"arthritis_risk":5,"migraine_risk":7,"frizz_risk":1,"updated_at":"2026-04-26T01:19:33.934137+05:30"},{"city":"Salem","state":"Tamil Nadu","latitude":11.6643,"longitude":78.146,"temp":28.0,"humidity":64,"rain":0.0,"pressure":976.4,"uv_index":9.3,"wind_gusts":37.8,"aqi":64,"pm10":30.4,"pm2_5":27.5,"mosquito_risk":7,"arthritis_risk":5,"migraine_risk":7,"frizz_risk":1,"updated_at":"2026-04-26T01:19:33.934145+05:30"},{"city":"Tirunelveli","state":"Tamil Nadu","latitude":8.7139,"longitude":77.7567,"temp":27.3,"humidity":76,"rain":0.0,"pressure":1002.7,"uv_index":9.2,"wind_gusts":37.1,"aqi":60,"pm10":19.3,"pm2_5":18.3,"mosquito_risk":7,"arthritis_risk":5,"migraine_risk":4,"frizz_risk":1,"updated_at":"2026-04-26T01:19:33.934153+05:30"},{"city":"Vellore","state":"Tamil Nadu","latitude":12.9165,"longitude":79.1325,"temp":26.8,"humidity":77,"rain":0.0,"pressure":983.6,"uv_index":9.35,"wind_gusts":37.1,"aqi":79,"pm10":35.4,"pm2_5":33.4,"mosquito_risk":7,"arthritis_risk":5,"migraine_risk":7,"frizz_risk":1,"updated_at":"2026-04-26T01:19:33.934160+05:30"},{"city":"Erode","state":"Tamil Nadu","latitude":11.341,"longitude":77.7172,"temp":29.0,"humidity":57,"rain":0.0,"pressure":988.5,"uv_index":9.3,"wind_gusts":39.2,"aqi":55,"pm10":19.1,"pm2_5":17.1,"mosquito_risk":4,"arthritis_risk":5,"migraine_risk":7,"frizz_risk":1,"updated_at":"2026-04-26T01:19:33.934167+05:30"},{"city":"Kochi","state":"Kerala","latitude":9.9312,"longitude":76.2673,"temp":28.1,"humidity":86,"rain":0.0,"pressure":1007.8,"uv_index":9.0,"wind_gusts":37.4,"aqi":81,"pm10":26.0,"pm2_5":24.7,"mosquito_risk":7,"arthritis_risk":5,"migraine_risk":4,"frizz_risk":1,"updated_at":"2026-04-26T01:19:33.934175+05:30"},{"city":"Thiruvananthapuram","state":"Kerala","latitude":8.5241,"longitude":76.9366,"temp":25.5,"humidity":90,"rain":0.0,"pressure":1007.2,"uv_index":9.0,"wind_gusts":32.0,"aqi":55,"pm10":16.5,"pm2_5":12.5,"mosquito_risk":7,"arthritis_risk":5,"migraine_risk":4,"frizz_risk":1,"updated_at":"2026-04-26T01:19:33.934182+05:30"},{"city":"Kozhikode","state":"Kerala","latitude":11.2588,"longitude":75.7804,"temp":27.3,"humidity":90,"rain":0.0,"pressure":1007.0,"uv_index":8.25,"wind_gusts":34.2,"aqi":59,"pm10":19.8,"pm2_5":14.3,"mosquito_risk":7,"arthritis_risk":5,"migraine_risk":4,"frizz_risk":1,"updated_at":"2026-04-26T01:19:33.934189+05:30"},{"city":"Thrissur","state":"Kerala","latitude":10.5276,"longitude":76.2144,"temp":27.4,"humidity":88,"rain":0.0,"pressure":1006.2,"uv_index":8.05,"wind_gusts":36.7,"aqi":74,"pm10":26.7,"pm2_5":25.5,"mosquito_risk":7,"arthritis_risk":5,"migraine_risk":4,"frizz_risk":1,"updated_at":"2026-04-26T01:19:33.934197+05:30"},{"city":"Kannur","state":"Kerala","latitude":11.8745,"longitude":75.3704,"temp":28.3,"humidity":76,"rain":0.0,"pressure":1006.1,"uv_index":8.95,"wind_gusts":35.3,"aqi":64,"pm10":23.9,"pm2_5":20.0,"mosquito_risk":7,"arthritis_risk":5,"migraine_risk":4,"frizz_risk":1,"updated_at":"2026-04-26T01:19:33.934204+05:30"},{"city":"Patna","state":"Bihar","latitude":25.5941,"longitude":85.1376,"temp":27.5,"humidity":70,"rain":0.0,"pressure":997.9,"uv_index":8.6,"wind_gusts":54.7,"aqi":152,"pm10":70.8,"pm2_5":58.2,"mosquito_risk":7,"arthritis_risk":5,"migraine_risk":7,"frizz_risk":1,"updated_at":"2026-04-26T01:19:33.934211+05:30"},{"city":"Gaya","state":"Bihar","latitude":24.7914,"longitude":85.0002,"temp":27.8,"humidity":64,"rain":0.0,"pressure":991.1,"uv_index":8.7,"wind_gusts":41.4,"aqi":130,"pm10":60.8,"pm2_5":50.3,"mosquito_risk":7,"arthritis_risk":5,"migraine_risk":7,"frizz_risk":1,"updated_at":"2026-04-26T01:19:33.934217+05:30"},{"city":"Muzaffarpur","state":"Bihar","latitude":26.1209,"longitude":85.3647,"temp":26.5,"humidity":72,"rain":0.0,"pressure":998.4,"uv_index":8.65,"wind_gusts":53.6,"aqi":154,"pm10":73.8,"pm2_5":61.0,"mosquito_risk":7,"arthritis_risk":5,"migraine_risk":7,"frizz_risk":1,"updated_at":"2026-04-26T01:19:33.934224+05:30"},{"city":"Bhagalpur","state":"Bihar","latitude":25.2425,"longitude":87.0117,"temp":28.2,"humidity":76,"rain":0.0,"pressure":999.2,"uv_index":8.6,"wind_gusts":47.5,"aqi":153,"pm10":56.8,"pm2_5":49.5,"mosquito_risk":7,"arthritis_risk":5,"migraine_risk":7,"frizz_risk":1,"updated_at":"2026-04-26T01:19:33.934231+05:30"},{"city":"Ranchi","state":"Jharkhand","latitude":23.3441,"longitude":85.3096,"temp":24.1,"humidity":42,"rain":0.0,"pressure":935.4,"uv_index":9.15,"wind_gusts":39.2,"aqi":105,"pm10":48.0,"pm2_5":43.0,"mosquito_risk":0,"arthritis_risk":5,"migraine_risk":7,"frizz_risk":0,"updated_at":"2026-04-26T01:19:33.934238+05:30"},{"city":"Jamshedpur","state":"Jharkhand","latitude":22.8046,"longitude":86.2029,"temp":30.4,"humidity":56,"rain":0.0,"pressure":988.9,"uv_index":8.8,"wind_gusts":45.7,"aqi":127,"pm10":44.5,"pm2_5":38.2,"mosquito_risk":0,"arthritis_risk":5,"migraine_risk":7,"frizz_risk":1,"updated_at":"2026-04-26T01:19:33.934245+05:30"},{"city":"Dhanbad","state":"Jharkhand","latitude":23.7957,"longitude":86.4304,"temp":27.8,"humidity":88,"rain":0.0,"pressure":977.7,"uv_index":8.95,"wind_gusts":33.8,"aqi":154,"pm10":57.5,"pm2_5":54.4,"mosquito_risk":7,"arthritis_risk":5,"migraine_risk":7,"frizz_risk":1,"updated_at":"2026-04-26T01:19:33.934252+05:30"},{"city":"Bokaro","state":"Jharkhand","latitude":23.6693,"longitude":86.1511,"temp":27.0,"humidity":93,"rain":0.0,"pressure":981.1,"uv_index":8.95,"wind_gusts":47.5,"aqi":154,"pm10":63.1,"pm2_5":60.1,"mosquito_risk":7,"arthritis_risk":5,"migraine_risk":7,"frizz_risk":1,"updated_at":"2026-04-26T01:19:33.934258+05:30"},{"city":"Bhubaneswar","state":"Odisha","latitude":20.2961,"longitude":85.8245,"temp":26.4,"humidity":95,"rain":0.0,"pressure":1000.9,"uv_index":8.95,"wind_gusts":49.3,"aqi":59,"pm10":12.9,"pm2_5":9.7,"mosquito_risk":7,"arthritis_risk":5,"migraine_risk":4,"frizz_risk":1,"updated_at":"2026-04-26T01:19:33.934264+05:30"},{"city":"Cuttack","state":"Odisha","latitude":20.4625,"longitude":85.8828,"temp":26.3,"humidity":95,"rain":0.0,"pressure":1002.6,"uv_index":8.95,"wind_gusts":45.4,"aqi":59,"pm10":12.9,"pm2_5":9.7,"mosquito_risk":7,"arthritis_risk":5,"migraine_risk":4,"frizz_risk":1,"updated_at":"2026-04-26T01:19:33.934271+05:30"},{"city":"Rourkela","state":"Odisha","latitude":22.2604,"longitude":84.8536,"temp":28.6,"humidity":69,"rain":0.0,"pressure":983.4,"uv_index":8.9,"wind_gusts":40.0,"aqi":157,"pm10":44.5,"pm2_5":38.4,"mosquito_risk":7,"arthritis_risk":5,"migraine_risk":7,"frizz_risk":1,"updated_at":"2026-04-26T01:19:33.934277+05:30"},{"city":"Raipur","state":"Chhattisgarh","latitude":21.2514,"longitude":81.6296,"temp":30.4,"humidity":26,"rain":0.0,"pressure":972.3,"uv_index":8.95,"wind_gusts":41.8,"aqi":109,"pm10":44.1,"pm2_5":39.3,"mosquito_risk":0,"arthritis_risk":5,"migraine_risk":7,"frizz_risk":0,"updated_at":"2026-04-26T01:19:33.934284+05:30"},{"city":"Bhilai","state":"Chhattisgarh","latitude":21.1938,"longitude":81.3509,"temp":30.6,"humidity":26,"rain":0.0,"pressure":972.6,"uv_index":8.95,"wind_gusts":43.2,"aqi":107,"pm10":44.0,"pm2_5":38.8,"mosquito_risk":0,"arthritis_risk":5,"migraine_risk":7,"frizz_risk":0,"updated_at":"2026-04-26T01:19:33.934290+05:30"},{"city":"Guwahati","state":"Assam","latitude":26.1158,"longitude":91.7086,"temp":22.3,"humidity":91,"rain":0.0,"pressure":1002.0,"uv_index":3.1,"wind_gusts":37.1,"aqi":158,"pm10":79.4,"pm2_5":62.2,"mosquito_risk":3,"arthritis_risk":5,"migraine_risk":0,"frizz_risk":1,"updated_at":"2026-04-26T01:19:33.934296+05:30"},{"city":"Agartala","state":"Tripura","latitude":23.8315,"longitude":91.2868,"temp":26.1,"humidity":89,"rain":0.0,"pressure":1005.8,"uv_index":8.8,"wind_gusts":43.2,"aqi":150,"pm10":45.3,"pm2_5":39.6,"mosquito_risk":7,"arthritis_risk":5,"migraine_risk":4,"frizz_risk":1,"updated_at":"2026-04-26T01:19:33.934302+05:30"},{"city":"Shillong","state":"Meghalaya","latitude":25.5788,"longitude":91.8933,"temp":16.0,"humidity":82,"rain":0.0,"pressure":855.5,"uv_index":3.7,"wind_gusts":44.3,"aqi":141,"pm10":70.8,"pm2_5":46.8,"mosquito_risk":3,"arthritis_risk":10,"migraine_risk":3,"frizz_risk":0,"updated_at":"2026-04-26T01:19:33.934309+05:30"},{"city":"Imphal","state":"Manipur","latitude":24.817,"longitude":93.9368,"temp":18.5,"humidity":81,"rain":0.0,"pressure":922.5,"uv_index":7.75,"wind_gusts":33.5,"aqi":154,"pm10":131.8,"pm2_5":91.0,"mosquito_risk":3,"arthritis_risk":10,"migraine_risk":7,"frizz_risk":0,"updated_at":"2026-04-26T01:19:33.934314+05:30"},{"city":"Aizawl","state":"Mizoram","latitude":23.7271,"longitude":92.7176,"temp":18.8,"humidity":79,"rain":0.0,"pressure":892.0,"uv_index":9.0,"wind_gusts":45.7,"aqi":114,"pm10":75.9,"pm2_5":39.8,"mosquito_risk":3,"arthritis_risk":5,"migraine_risk":7,"frizz_risk":0,"updated_at":"2026-04-26T01:19:33.934321+05:30"},{"city":"Kohima","state":"Nagaland","latitude":25.6701,"longitude":94.1077,"temp":14.9,"humidity":79,"rain":0.0,"pressure":853.5,"uv_index":6.9,"wind_gusts":35.6,"aqi":157,"pm10":112.2,"pm2_5":86.1,"mosquito_risk":3,"arthritis_risk":5,"migraine_risk":7,"frizz_risk":0,"updated_at":"2026-04-26T01:19:33.934327+05:30"},{"city":"Gangtok","state":"Sikkim","latitude":27.3314,"longitude":88.6138,"temp":13.9,"humidity":71,"rain":0.0,"pressure":835.7,"uv_index":8.65,"wind_gusts":42.1,"aqi":83,"pm10":29.9,"pm2_5":23.2,"mosquito_risk":3,"arthritis_risk":5,"migraine_risk":7,"frizz_risk":0,"updated_at":"2026-04-26T01:19:33.934333+05:30"},{"city":"Siliguri","state":"West Bengal","latitude":26.7271,"longitude":88.3953,"temp":21.1,"humidity":96,"rain":0.0,"pressure":993.5,"uv_index":8.4,"wind_gusts":38.9,"aqi":149,"pm10":70.3,"pm2_5":57.5,"mosquito_risk":3,"arthritis_risk":5,"migraine_risk":7,"frizz_risk":1,"updated_at":"2026-04-26T01:19:37.166171+05:30"},{"city":"Durgapur","state":"West Bengal","latitude":23.5204,"longitude":87.3119,"temp":26.9,"humidity":92,"rain":0.0,"pressure":993.4,"uv_index":8.9,"wind_gusts":36.7,"aqi":128,"pm10":37.5,"pm2_5":34.9,"mosquito_risk":7,"arthritis_risk":5,"migraine_risk":7,"frizz_risk":1,"updated_at":"2026-04-26T01:19:37.166205+05:30"},{"city":"Asansol","state":"West Bengal","latitude":23.6739,"longitude":86.9524,"temp":27.5,"humidity":90,"rain":0.0,"pressure":991.7,"uv_index":8.95,"wind_gusts":32.0,"aqi":132,"pm10":36.3,"pm2_5":34.2,"mosquito_risk":7,"arthritis_risk":5,"migraine_risk":7,"frizz_risk":1,"updated_at":"2026-04-26T01:19:37.166216+05:30"},{"city":"Pondicherry","state":"Puducherry","latitude":11.9139,"longitude":79.8145,"temp":28.3,"humidity":85,"rain":0.0,"pressure":1007.4,"uv_index":9.2,"wind_gusts":41.0,"aqi":29,"pm10":12.7,"pm2_5":7.7,"mosquito_risk":7,"arthritis_risk":5,"migraine_risk":4,"frizz_risk":1,"updated_at":"2026-04-26T01:19:37.166225+05:30"},{"city":"Port Blair","state":"Andaman and Nicobar Islands","latitude":11.6234,"longitude":92.7265,"temp":27.2,"humidity":85,"rain":0.0,"pressure":1006.6,"uv_index":9.15,"wind_gusts":35.3,"aqi":46,"pm10":24.6,"pm2_5":17.2,"mosquito_risk":7,"arthritis_risk":5,"migraine_risk":4,"frizz_risk":1,"updated_at":"2026-04-26T01:19:37.166233+05:30"},{"city":"Haridwar","state":"Uttarakhand","latitude":29.9457,"longitude":78.1642,"temp":21.8,"humidity":61,"rain":0.0,"pressure":970.7,"uv_index":7.2,"wind_gusts":41.0,"aqi":76,"pm10":58.3,"pm2_5":33.3,"mosquito_risk":3,"arthritis_risk":5,"migraine_risk":7,"frizz_risk":0,"updated_at":"2026-04-26T01:19:37.166240+05:30"},{"city":"Rishikesh","state":"Uttarakhand","latitude":30.0869,"longitude":78.2676,"temp":18.5,"humidity":71,"rain":0.0,"pressure":963.1,"uv_index":7.3,"wind_gusts":33.1,"aqi":71,"pm10":81.5,"pm2_5":33.5,"mosquito_risk":3,"arthritis_risk":5,"migraine_risk":7,"frizz_risk":0,"updated_at":"2026-04-26T01:19:37.166248+05:30"},{"city":"Nainital","state":"Uttarakhand","latitude":29.3919,"longitude":79.4542,"temp":16.8,"humidity":46,"rain":0.0,"pressure":804.6,"uv_index":8.15,"wind_gusts":53.3,"aqi":78,"pm10":81.7,"pm2_5":29.9,"mosquito_risk":0,"arthritis_risk":5,"migraine_risk":7,"frizz_risk":0,"updated_at":"2026-04-26T01:19:37.166255+05:30"},{"city":"Mussoorie","state":"Uttarakhand","latitude":30.4599,"longitude":78.0664,"temp":18.1,"humidity":37,"rain":0.0,"pressure":803.2,"uv_index":7.7,"wind_gusts":55.8,"aqi":66,"pm10":62.6,"pm2_5":32.4,"mosquito_risk":0,"arthritis_risk":5,"migraine_risk":7,"frizz_risk":0,"updated_at":"2026-04-26T01:19:37.166263+05:30"},{"city":"Dharamshala","state":"Himachal Pradesh","latitude":32.219,"longitude":76.3234,"temp":22.2,"humidity":33,"rain":0.0,"pressure":869.5,"uv_index":8.05,"wind_gusts":44.3,"aqi":50,"pm10":28.9,"pm2_5":12.1,"mosquito_risk":0,"arthritis_risk":5,"migraine_risk":7,"frizz_risk":0,"updated_at":"2026-04-26T01:19:37.166270+05:30"},{"city":"Dalhousie","state":"Himachal Pradesh","latitude":32.5387,"longitude":75.971,"temp":11.6,"humidity":61,"rain":0.0,"pressure":801.8,"uv_index":8.3,"wind_gusts":40.0,"aqi":64,"pm10":47.8,"pm2_5":28.2,"mosquito_risk":3,"arthritis_risk":5,"migraine_risk":7,"frizz_risk":0,"updated_at":"2026-04-26T01:19:37.166277+05:30"},{"city":"Patiala","state":"Punjab","latitude":30.3398,"longitude":76.3869,"temp":28.6,"humidity":33,"rain":0.0,"pressure":976.6,"uv_index":7.3,"wind_gusts":46.4,"aqi":637,"pm10":493.6,"pm2_5":75.0,"mosquito_risk":4,"arthritis_risk":5,"migraine_risk":7,"frizz_risk":0,"updated_at":"2026-04-26T01:19:37.166284+05:30"},{"city":"Bhatinda","state":"Punjab","latitude":30.211,"longitude":74.9455,"temp":29.4,"humidity":28,"rain":0.0,"pressure":982.2,"uv_index":8.0,"wind_gusts":40.7,"aqi":94,"pm10":122.5,"pm2_5":45.6,"mosquito_risk":4,"arthritis_risk":5,"migraine_risk":7,"frizz_risk":0,"updated_at":"2026-04-26T01:19:37.166291+05:30"},{"city":"Rohtak","state":"Haryana","latitude":28.8955,"longitude":76.6066,"temp":28.5,"humidity":31,"rain":0.0,"pressure":979.9,"uv_index":7.45,"wind_gusts":45.7,"aqi":879,"pm10":704.1,"pm2_5":120.6,"mosquito_risk":4,"arthritis_risk":5,"migraine_risk":7,"frizz_risk":0,"updated_at":"2026-04-26T01:19:37.166298+05:30"},{"city":"Panipat","state":"Haryana","latitude":29.3909,"longitude":76.9635,"temp":29.8,"humidity":31,"rain":0.0,"pressure":978.4,"uv_index":7.25,"wind_gusts":50.4,"aqi":1593,"pm10":1162.3,"pm2_5":161.1,"mosquito_risk":4,"arthritis_risk":5,"migraine_risk":7,"frizz_risk":0,"updated_at":"2026-04-26T01:19:37.166304+05:30"},{"city":"Mathura","state":"Uttar Pradesh","latitude":27.4924,"longitude":77.6737,"temp":30.0,"humidity":29,"rain":0.0,"pressure":984.7,"uv_index":7.75,"wind_gusts":43.2,"aqi":818,"pm10":1236.8,"pm2_5":195.1,"mosquito_risk":4,"arthritis_risk":5,"migraine_risk":7,"frizz_risk":0,"updated_at":"2026-04-26T01:19:37.166311+05:30"},{"city":"Vrindavan","state":"Uttar Pradesh","latitude":27.5823,"longitude":77.7027,"temp":29.5,"humidity":30,"rain":0.0,"pressure":985.1,"uv_index":7.7,"wind_gusts":42.8,"aqi":818,"pm10":1236.8,"pm2_5":195.1,"mosquito_risk":4,"arthritis_risk":5,"migraine_risk":7,"frizz_risk":0,"updated_at":"2026-04-26T01:19:37.166317+05:30"},{"city":"Ayodhya","state":"Uttar Pradesh","latitude":26.7922,"longitude":82.1998,"temp":27.8,"humidity":58,"rain":0.0,"pressure":993.1,"uv_index":8.1,"wind_gusts":50.0,"aqi":141,"pm10":102.4,"pm2_5":58.7,"mosquito_risk":4,"arthritis_risk":5,"migraine_risk":7,"frizz_risk":1,"updated_at":"2026-04-26T01:19:37.166323+05:30"},{"city":"Ratlam","state":"Madhya Pradesh","latitude":23.3315,"longitude":75.0367,"temp":30.0,"humidity":22,"rain":0.0,"pressure":954.0,"uv_index":8.5,"wind_gusts":33.8,"aqi":68,"pm10":33.8,"pm2_5":22.2,"mosquito_risk":4,"arthritis_risk":5,"migraine_risk":7,"frizz_risk":0,"updated_at":"2026-04-26T01:19:37.166330+05:30"},{"city":"Sagar","state":"Madhya Pradesh","latitude":23.8388,"longitude":78.7378,"temp":30.5,"humidity":22,"rain":0.0,"pressure":948.8,"uv_index":8.65,"wind_gusts":34.9,"aqi":55,"pm10":85.7,"pm2_5":26.4,"mosquito_risk":0,"arthritis_risk":5,"migraine_risk":7,"frizz_risk":0,"updated_at":"2026-04-26T01:19:37.166336+05:30"},{"city":"Satna","state":"Madhya Pradesh","latitude":24.6005,"longitude":80.8322,"temp":29.6,"humidity":28,"rain":0.0,"pressure":969.0,"uv_index":8.65,"wind_gusts":44.6,"aqi":78,"pm10":112.7,"pm2_5":31.9,"mosquito_risk":4,"arthritis_risk":5,"migraine_risk":7,"frizz_risk":0,"updated_at":"2026-04-26T01:19:37.166342+05:30"},{"city":"Akola","state":"Maharashtra","latitude":20.7002,"longitude":77.0082,"temp":30.9,"humidity":27,"rain":0.0,"pressure":973.0,"uv_index":8.85,"wind_gusts":33.1,"aqi":76,"pm10":32.4,"pm2_5":24.5,"mosquito_risk":0,"arthritis_risk":5,"migraine_risk":7,"frizz_risk":0,"updated_at":"2026-04-26T01:19:37.166349+05:30"},{"city":"Amravati","state":"Maharashtra","latitude":20.9374,"longitude":77.7796,"temp":32.6,"humidity":20,"rain":0.0,"pressure":965.8,"uv_index":8.85,"wind_gusts":37.4,"aqi":75,"pm10":34.7,"pm2_5":26.7,"mosquito_risk":0,"arthritis_risk":5,"migraine_risk":7,"frizz_risk":0,"updated_at":"2026-04-26T01:19:37.166356+05:30"},{"city":"Latur","state":"Maharashtra","latitude":18.4088,"longitude":76.5604,"temp":30.1,"humidity":30,"rain":0.0,"pressure":939.0,"uv_index":9.0,"wind_gusts":29.2,"aqi":104,"pm10":50.3,"pm2_5":44.9,"mosquito_risk":0,"arthritis_risk":5,"migraine_risk":7,"frizz_risk":0,"updated_at":"2026-04-26T01:19:37.166363+05:30"},{"city":"Nanded","state":"Maharashtra","latitude":19.1383,"longitude":77.3091,"temp":29.6,"humidity":32,"rain":0.0,"pressure":967.0,"uv_index":9.05,"wind_gusts":28.4,"aqi":99,"pm10":48.3,"pm2_5":43.1,"mosquito_risk":4,"arthritis_risk":5,"migraine_risk":7,"frizz_risk":0,"updated_at":"2026-04-26T01:19:37.166369+05:30"},{"city":"Gulbarga","state":"Karnataka","latitude":17.3297,"longitude":76.8343,"temp":30.5,"humidity":36,"rain":0.0,"pressure":957.6,"uv_index":9.0,"wind_gusts":24.5,"aqi":122,"pm10":48.3,"pm2_5":43.0,"mosquito_risk":0,"arthritis_risk":5,"migraine_risk":7,"frizz_risk":0,"updated_at":"2026-04-26T01:19:37.166374+05:30"},{"city":"Bidar","state":"Karnataka","latitude":17.9104,"longitude":77.5199,"temp":28.1,"humidity":38,"rain":0.0,"pressure":934.5,"uv_index":8.1,"wind_gusts":34.9,"aqi":124,"pm10":55.2,"pm2_5":50.2,"mosquito_risk":4,"arthritis_risk":5,"migraine_risk":7,"frizz_risk":0,"updated_at":"2026-04-26T01:19:37.166380+05:30"},{"city":"Hospet","state":"Karnataka","latitude":15.2689,"longitude":76.3909,"temp":29.9,"humidity":29,"rain":0.0,"pressure":954.8,"uv_index":9.05,"wind_gusts":33.5,"aqi":105,"pm10":39.0,"pm2_5":34.9,"mosquito_risk":4,"arthritis_risk":5,"migraine_risk":7,"frizz_risk":0,"updated_at":"2026-04-26T01:19:37.166387+05:30"},{"city":"Tirupur","state":"Tamil Nadu","latitude":11.1085,"longitude":77.3411,"temp":29.2,"humidity":53,"rain":0.0,"pressure":974.4,"uv_index":9.4,"wind_gusts":33.8,"aqi":60,"pm10":25.4,"pm2_5":22.2,"mosquito_risk":4,"arthritis_risk":5,"migraine_risk":7,"frizz_risk":1,"updated_at":"2026-04-26T01:19:37.166392+05:30"},{"city":"Alappuzha","state":"Kerala","latitude":9.4981,"longitude":76.3388,"temp":26.8,"humidity":93,"rain":0.0,"pressure":1007.9,"uv_index":8.5,"wind_gusts":36.0,"aqi":77,"pm10":23.4,"pm2_5":20.5,"mosquito_risk":7,"arthritis_risk":5,"migraine_risk":4,"frizz_risk":1,"updated_at":"2026-04-26T01:19:37.166398+05:30"},{"city":"Munnar","state":"Kerala","latitude":10.0889,"longitude":77.0595,"temp":16.2,"humidity":81,"rain":0.0,"pressure":855.0,"uv_index":9.6,"wind_gusts":28.4,"aqi":61,"pm10":29.9,"pm2_5":28.6,"mosquito_risk":3,"arthritis_risk":10,"migraine_risk":7,"frizz_risk":0,"updated_at":"2026-04-26T01:19:37.166406+05:30"},{"city":"Silchar","state":"Assam","latitude":24.8333,"longitude":92.7789,"temp":23.0,"humidity":94,"rain":0.0,"pressure":1004.2,"uv_index":8.6,"wind_gusts":32.4,"aqi":160,"pm10":99.9,"pm2_5":81.3,"mosquito_risk":3,"arthritis_risk":5,"migraine_risk":4,"frizz_risk":1,"updated_at":"2026-04-26T01:19:37.166413+05:30"},{"city":"Dibrugarh","state":"Assam","latitude":27.4728,"longitude":94.912,"temp":21.6,"humidity":92,"rain":0.0,"pressure":997.0,"uv_index":8.7,"wind_gusts":27.7,"aqi":88,"pm10":23.7,"pm2_5":17.9,"mosquito_risk":3,"arthritis_risk":5,"migraine_risk":7,"frizz_risk":1,"updated_at":"2026-04-26T01:19:37.166418+05:30"}]