[{"city":"Delhi","state":"Delhi","latitude":28.6139,"longitude":77.209,"temp":35.0,"humidity":49,"rain":0.0,"pressure":975.9,"uv_index":7.7,"wind_gusts":26.3,"aqi":175,"pm10":741.3,"pm2_5":157.4,"no2":17.6,"co":365.0,"o3":108.0,"so2":12.6,"mosquito_risk":0,"arthritis_risk":5,"migraine_risk":7,"frizz_risk":1,"updated_at":"2026-07-15T17:46:58.470601+05:30"},{"city":"Mumbai","state":"Maharashtra","latitude":19.076,"longitude":72.8777,"temp":25.6,"humidity":88,"rain":0.1,"pressure":1006.6,"uv_index":7.75,"wind_gusts":48.2,"aqi":69,"pm10":57.6,"pm2_5":22.3,"no2":11.8,"co":209.0,"o3":63.0,"so2":10.9,"mosquito_risk":10,"arthritis_risk":5,"migraine_risk":4,"frizz_risk":1,"updated_at":"2026-07-15T17:46:58.470653+05:30"},{"city":"Bangalore","state":"Karnataka","latitude":12.9716,"longitude":77.5946,"temp":29.6,"humidity":37,"rain":0.0,"pressure":911.0,"uv_index":9.15,"wind_gusts":42.1,"aqi":62,"pm10":12.3,"pm2_5":8.8,"no2":9.5,"co":318.0,"o3":85.0,"so2":2.7,"mosquito_risk":4,"arthritis_risk":5,"migraine_risk":7,"frizz_risk":0,"updated_at":"2026-07-15T17:46:58.470667+05:30"},{"city":"Hyderabad","state":"Telangana","latitude":17.385,"longitude":78.4867,"temp":29.6,"humidity":51,"rain":0.0,"pressure":950.7,"uv_index":8.95,"wind_gusts":46.1,"aqi":78,"pm10":35.9,"pm2_5":17.3,"no2":4.5,"co":301.0,"o3":88.0,"so2":2.8,"mosquito_risk":4,"arthritis_risk":5,"migraine_risk":7,"frizz_risk":1,"updated_at":"2026-07-15T17:46:58.470675+05:30"},{"city":"Chennai","state":"Tamil Nadu","latitude":13.0827,"longitude":80.2707,"temp":33.6,"humidity":57,"rain":0.0,"pressure":1003.3,"uv_index":8.75,"wind_gusts":37.8,"aqi":133,"pm10":40.5,"pm2_5":25.8,"no2":6.0,"co":278.0,"o3":150.0,"so2":5.3,"mosquito_risk":0,"arthritis_risk":5,"migraine_risk":4,"frizz_risk":1,"updated_at":"2026-07-15T17:46:58.470682+05:30"},{"city":"Kolkata","state":"West Bengal","latitude":22.5726,"longitude":88.3639,"temp":29.4,"humidity":80,"rain":0.0,"pressure":997.0,"uv_index":7.3,"wind_gusts":38.2,"aqi":116,"pm10":16.2,"pm2_5":15.4,"no2":11.3,"co":512.0,"o3":100.0,"so2":10.5,"mosquito_risk":7,"arthritis_risk":5,"migraine_risk":7,"frizz_risk":1,"updated_at":"2026-07-15T17:46:58.470689+05:30"},{"city":"Pune","state":"Maharashtra","latitude":18.5204,"longitude":73.8567,"temp":25.5,"humidity":75,"rain":0.0,"pressure":946.2,"uv_index":8.1,"wind_gusts":49.7,"aqi":55,"pm10":14.3,"pm2_5":6.8,"no2":4.5,"co":157.0,"o3":55.0,"so2":3.6,"mosquito_risk":7,"arthritis_risk":5,"migraine_risk":7,"frizz_risk":1,"updated_at":"2026-07-15T17:46:58.470694+05:30"},{"city":"Ahmedabad","state":"Gujarat","latitude":23.0225,"longitude":72.5714,"temp":29.4,"humidity":71,"rain":0.0,"pressure":997.7,"uv_index":7.0,"wind_gusts":45.4,"aqi":66,"pm10":70.8,"pm2_5":24.4,"no2":3.9,"co":169.0,"o3":79.0,"so2":3.2,"mosquito_risk":7,"arthritis_risk":5,"migraine_risk":7,"frizz_risk":1,"updated_at":"2026-07-15T17:46:58.470700+05:30"},{"city":"Jaipur","state":"Rajasthan","latitude":26.9124,"longitude":75.7873,"temp":33.3,"humidity":48,"rain":0.0,"pressure":954.7,"uv_index":7.85,"wind_gusts":38.2,"aqi":339,"pm10":350.2,"pm2_5":67.5,"no2":3.6,"co":152.0,"o3":97.0,"so2":3.3,"mosquito_risk":0,"arthritis_risk":5,"migraine_risk":7,"frizz_risk":1,"updated_at":"2026-07-15T17:46:58.470705+05:30"},{"city":"Lucknow","state":"Uttar Pradesh","latitude":26.8467,"longitude":80.9462,"temp":32.4,"humidity":68,"rain":0.0,"pressure":986.5,"uv_index":7.05,"wind_gusts":24.1,"aqi":166,"pm10":151.3,"pm2_5":63.1,"no2":5.9,"co":286.0,"o3":129.0,"so2":6.8,"mosquito_risk":3,"arthritis_risk":5,"migraine_risk":7,"frizz_risk":1,"updated_at":"2026-07-15T17:46:58.470713+05:30"},{"city":"Kanpur","state":"Uttar Pradesh","latitude":26.4499,"longitude":80.3319,"temp":33.4,"humidity":60,"rain":0.0,"pressure":984.9,"uv_index":7.6,"wind_gusts":36.7,"aqi":158,"pm10":158.3,"pm2_5":66.4,"no2":6.2,"co":186.0,"o3":117.0,"so2":5.5,"mosquito_risk":0,"arthritis_risk":5,"migraine_risk":7,"frizz_risk":1,"updated_at":"2026-07-15T17:46:58.470718+05:30"},{"city":"Chandigarh","state":"Chandigarh","latitude":30.7333,"longitude":76.7794,"temp":32.6,"humidity":62,"rain":0.0,"pressure":962.2,"uv_index":7.7,"wind_gusts":32.4,"aqi":208,"pm10":91.5,"pm2_5":62.9,"no2":6.5,"co":701.0,"o3":202.0,"so2":13.4,"mosquito_risk":3,"arthritis_risk":5,"migraine_risk":7,"frizz_risk":1,"updated_at":"2026-07-15T17:46:58.470724+05:30"},{"city":"Srinagar","state":"Jammu and Kashmir","latitude":34.0837,"longitude":74.7973,"temp":29.1,"humidity":40,"rain":0.0,"pressure":839.4,"uv_index":8.8,"wind_gusts":20.2,"aqi":133,"pm10":29.7,"pm2_5":15.2,"no2":3.1,"co":324.0,"o3":150.0,"so2":2.2,"mosquito_risk":4,"arthritis_risk":5,"migraine_risk":7,"frizz_risk":0,"updated_at":"2026-07-15T17:46:58.470729+05:30"},{"city":"Jammu","state":"Jammu and Kashmir","latitude":32.7266,"longitude":74.857,"temp":31.7,"humidity":53,"rain":0.0,"pressure":966.5,"uv_index":8.55,"wind_gusts":16.9,"aqi":167,"pm10":61.2,"pm2_5":40.2,"no2":5.4,"co":429.0,"o3":173.0,"so2":4.1,"mosquito_risk":0,"arthritis_risk":5,"migraine_risk":7,"frizz_risk":1,"updated_at":"2026-07-15T17:46:58.470733+05:30"},{"city":"Amritsar","state":"Punjab","latitude":31.634,"longitude":74.8723,"temp":32.8,"humidity":63,"rain":0.0,"pressure":974.3,"uv_index":8.35,"wind_gusts":22.0,"aqi":191,"pm10":142.0,"pm2_5":66.1,"no2":6.8,"co":485.0,"o3":168.0,"so2":8.9,"mosquito_risk":3,"arthritis_risk":5,"migraine_risk":7,"frizz_risk":1,"updated_at":"2026-07-15T17:46:58.470738+05:30"},{"city":"Ludhiana","state":"Punjab","latitude":30.901,"longitude":75.8573,"temp":33.5,"humidity":57,"rain":0.0,"pressure":972.1,"uv_index":7.9,"wind_gusts":27.0,"aqi":189,"pm10":108.3,"pm2_5":63.8,"no2":7.0,"co":366.0,"o3":141.0,"so2":5.5,"mosquito_risk":0,"arthritis_risk":5,"migraine_risk":7,"frizz_risk":1,"updated_at":"2026-07-15T17:46:58.470742+05:30"},{"city":"Jalandhar","state":"Punjab","latitude":31.326,"longitude":75.5762,"temp":33.0,"humidity":61,"rain":0.0,"pressure":973.1,"uv_index":8.15,"wind_gusts":23.4,"aqi":194,"pm10":120.1,"pm2_5":65.2,"no2":7.3,"co":445.0,"o3":149.0,"so2":5.1,"mosquito_risk":3,"arthritis_risk":5,"migraine_risk":7,"frizz_risk":1,"updated_at":"2026-07-15T17:46:58.470746+05:30"},{"city":"Dehradun","state":"Uttarakhand","latitude":30.6284,"longitude":78.0322,"temp":21.1,"humidity":94,"rain":0.1,"pressure":828.1,"uv_index":7.75,"wind_gusts":26.6,"aqi":127,"pm10":52.4,"pm2_5":34.8,"no2":2.9,"co":320.0,"o3":166.0,"so2":6.0,"mosquito_risk":6,"arthritis_risk":5,"migraine_risk":7,"frizz_risk":1,"updated_at":"2026-07-15T17:46:58.470751+05:30"},{"city":"Shimla","state":"Himachal Pradesh","latitude":31.1048,"longitude":77.1734,"temp":20.3,"humidity":70,"rain":0.0,"pressure":783.9,"uv_index":8.2,"wind_gusts":39.6,"aqi":136,"pm10":58.7,"pm2_5":38.5,"no2":2.4,"co":278.0,"o3":185.0,"so2":10.6,"mosquito_risk":3,"arthritis_risk":5,"migraine_risk":7,"frizz_risk":0,"updated_at":"2026-07-15T17:46:58.470757+05:30"},{"city":"Manali","state":"Himachal Pradesh","latitude":32.2396,"longitude":77.1887,"temp":23.1,"humidity":77,"rain":0.0,"pressure":818.2,"uv_index":9.5,"wind_gusts":31.3,"aqi":117,"pm10":17.1,"pm2_5":8.2,"no2":2.8,"co":163.0,"o3":142.0,"so2":1.2,"mosquito_risk":3,"arthritis_risk":5,"migraine_risk":7,"frizz_risk":1,"updated_at":"2026-07-15T17:46:58.470763+05:30"},{"city":"Gurgaon","state":"Haryana","latitude":28.4595,"longitude":77.0266,"temp":34.2,"humidity":54,"rain":0.0,"pressure":974.5,"uv_index":7.75,"wind_gusts":29.9,"aqi":188,"pm10":765.5,"pm2_5":160.7,"no2":18.9,"co":410.0,"o3":103.0,"so2":9.6,"mosquito_risk":0,"arthritis_risk":5,"migraine_risk":7,"frizz_risk":1,"updated_at":"2026-07-15T17:46:58.470768+05:30"},{"city":"Noida","state":"Uttar Pradesh","latitude":28.5355,"longitude":77.391,"temp":34.6,"humidity":55,"rain":0.0,"pressure":977.2,"uv_index":7.7,"wind_gusts":29.9,"aqi":188,"pm10":765.5,"pm2_5":160.7,"no2":18.9,"co":467.0,"o3":103.0,"so2":9.6,"mosquito_risk":0,"arthritis_risk":5,"migraine_risk":7,"frizz_risk":1,"updated_at":"2026-07-15T17:46:58.470772+05:30"},{"city":"Ghaziabad","state":"Uttar Pradesh","latitude":28.6692,"longitude":77.4538,"temp":34.2,"humidity":60,"rain":0.0,"pressure":975.5,"uv_index":7.65,"wind_gusts":32.0,"aqi":171,"pm10":497.3,"pm2_5":134.1,"no2":13.6,"co":251.0,"o3":130.0,"so2":15.8,"mosquito_risk":0,"arthritis_risk":5,"migraine_risk":7,"frizz_risk":1,"updated_at":"2026-07-15T17:46:58.470778+05:30"},{"city":"Faridabad","state":"Haryana","latitude":28.4089,"longitude":77.3178,"temp":35.0,"humidity":48,"rain":0.0,"pressure":976.7,"uv_index":7.7,"wind_gusts":28.4,"aqi":188,"pm10":765.5,"pm2_5":160.7,"no2":18.9,"co":266.0,"o3":103.0,"so2":9.6,"mosquito_risk":0,"arthritis_risk":5,"migraine_risk":7,"frizz_risk":1,"updated_at":"2026-07-15T17:46:58.470783+05:30"},{"city":"Meerut","state":"Uttar Pradesh","latitude":28.9845,"longitude":77.7064,"temp":33.5,"humidity":63,"rain":0.0,"pressure":974.4,"uv_index":7.6,"wind_gusts":38.2,"aqi":171,"pm10":497.3,"pm2_5":134.1,"no2":13.6,"co":233.0,"o3":130.0,"so2":15.8,"mosquito_risk":3,"arthritis_risk":5,"migraine_risk":7,"frizz_risk":1,"updated_at":"2026-07-15T17:46:58.470788+05:30"},{"city":"Agra","state":"Uttar Pradesh","latitude":27.1767,"longitude":78.0081,"temp":33.8,"humidity":54,"rain":0.0,"pressure":981.1,"uv_index":6.85,"wind_gusts":34.2,"aqi":153,"pm10":159.3,"pm2_5":57.2,"no2":5.6,"co":169.0,"o3":97.0,"so2":3.9,"mosquito_risk":0,"arthritis_risk":5,"migraine_risk":7,"frizz_risk":1,"updated_at":"2026-07-15T17:46:58.470793+05:30"},{"city":"Varanasi","state":"Uttar Pradesh","latitude":25.3176,"longitude":82.9739,"temp":33.4,"humidity":65,"rain":0.0,"pressure":990.2,"uv_index":8.55,"wind_gusts":28.1,"aqi":181,"pm10":167.2,"pm2_5":76.4,"no2":8.5,"co":385.0,"o3":123.0,"so2":8.6,"mosquito_risk":3,"arthritis_risk":5,"migraine_risk":7,"frizz_risk":1,"updated_at":"2026-07-15T17:46:58.470798+05:30"},{"city":"Prayagraj","state":"Uttar Pradesh","latitude":25.4358,"longitude":81.8463,"temp":33.5,"humidity":63,"rain":0.0,"pressure":988.9,"uv_index":8.55,"wind_gusts":26.6,"aqi":172,"pm10":109.7,"pm2_5":55.8,"no2":7.4,"co":228.0,"o3":117.0,"so2":7.5,"mosquito_risk":3,"arthritis_risk":5,"migraine_risk":7,"frizz_risk":1,"updated_at":"2026-07-15T17:46:58.470802+05:30"},{"city":"Gorakhpur","state":"Uttar Pradesh","latitude":26.7606,"longitude":83.3732,"temp":30.6,"humidity":80,"rain":0.0,"pressure":990.3,"uv_index":8.45,"wind_gusts":23.0,"aqi":160,"pm10":116.2,"pm2_5":54.7,"no2":8.2,"co":338.0,"o3":120.0,"so2":4.9,"mosquito_risk":3,"arthritis_risk":5,"migraine_risk":7,"frizz_risk":1,"updated_at":"2026-07-15T17:46:58.470807+05:30"},{"city":"Bareilly","state":"Uttar Pradesh","latitude":28.367,"longitude":79.4304,"temp":33.2,"humidity":66,"rain":0.0,"pressure":979.5,"uv_index":8.0,"wind_gusts":22.7,"aqi":163,"pm10":109.4,"pm2_5":64.3,"no2":7.0,"co":323.0,"o3":154.0,"so2":11.0,"mosquito_risk":3,"arthritis_risk":5,"migraine_risk":7,"frizz_risk":1,"updated_at":"2026-07-15T17:46:58.470813+05:30"},{"city":"Aligarh","state":"Uttar Pradesh","latitude":27.8974,"longitude":78.088,"temp":33.0,"humidity":64,"rain":0.0,"pressure":978.7,"uv_index":7.7,"wind_gusts":34.6,"aqi":159,"pm10":403.3,"pm2_5":107.6,"no2":7.2,"co":201.0,"o3":124.0,"so2":6.9,"mosquito_risk":3,"arthritis_risk":5,"migraine_risk":7,"frizz_risk":1,"updated_at":"2026-07-15T17:46:58.470818+05:30"},{"city":"Moradabad","state":"Uttar Pradesh","latitude":28.8386,"longitude":78.7733,"temp":33.3,"humidity":65,"rain":0.0,"pressure":976.4,"uv_index":7.8,"wind_gusts":28.1,"aqi":168,"pm10":137.4,"pm2_5":77.1,"no2":7.5,"co":323.0,"o3":164.0,"so2":10.9,"mosquito_risk":3,"arthritis_risk":5,"migraine_risk":7,"frizz_risk":1,"updated_at":"2026-07-15T17:46:58.470822+05:30"},{"city":"Saharanpur","state":"Uttar Pradesh","latitude":29.9637,"longitude":77.546,"temp":32.8,"humidity":67,"rain":0.0,"pressure":968.6,"uv_index":7.35,"wind_gusts":32.8,"aqi":186,"pm10":194.6,"pm2_5":82.0,"no2":8.7,"co":474.0,"o3":168.0,"so2":12.9,"mosquito_risk":3,"arthritis_risk":5,"migraine_risk":7,"frizz_risk":1,"updated_at":"2026-07-15T17:46:58.470827+05:30"},{"city":"Jhansi","state":"Uttar Pradesh","latitude":25.4484,"longitude":78.5685,"temp":32.7,"humidity":56,"rain":0.0,"pressure":972.2,"uv_index":7.5,"wind_gusts":42.5,"aqi":125,"pm10":98.7,"pm2_5":40.3,"no2":3.5,"co":160.0,"o3":86.0,"so2":3.2,"mosquito_risk":0,"arthritis_risk":5,"migraine_risk":7,"frizz_risk":1,"updated_at":"2026-07-15T17:47:01.929357+05:30"},{"city":"Surat","state":"Gujarat","latitude":21.1702,"longitude":72.8311,"temp":29.6,"humidity":74,"rain":0.0,"pressure":1003.0,"uv_index":7.7,"wind_gusts":43.2,"aqi":71,"pm10":30.0,"pm2_5":18.6,"no2":14.7,"co":175.0,"o3":38.0,"so2":35.3,"mosquito_risk":7,"arthritis_risk":5,"migraine_risk":4,"frizz_risk":1,"updated_at":"2026-07-15T17:47:01.929401+05:30"},{"city":"Vadodara","state":"Gujarat","latitude":22.3072,"longitude":73.1812,"temp":31.7,"humidity":61,"rain":0.0,"pressure":999.9,"uv_index":7.0,"wind_gusts":42.8,"aqi":66,"pm10":37.7,"pm2_5":20.9,"no2":7.8,"co":168.0,"o3":80.0,"so2":12.3,"mosquito_risk":3,"arthritis_risk":5,"migraine_risk":7,"frizz_risk":1,"updated_at":"2026-07-15T17:47:01.929409+05:30"},{"city":"Rajkot","state":"Gujarat","latitude":22.3039,"longitude":70.8022,"temp":32.9,"humidity":49,"rain":0.0,"pressure":988.9,"uv_index":4.7,"wind_gusts":45.7,"aqi":56,"pm10":42.5,"pm2_5":18.9,"no2":2.5,"co":111.0,"o3":66.0,"so2":3.2,"mosquito_risk":0,"arthritis_risk":5,"migraine_risk":3,"frizz_risk":1,"updated_at":"2026-07-15T17:47:01.929415+05:30"},{"city":"Thane","state":"Maharashtra","latitude":19.2183,"longitude":72.9781,"temp":26.3,"humidity":87,"rain":0.0,"pressure":1005.9,"uv_index":7.4,"wind_gusts":35.6,"aqi":69,"pm10":57.6,"pm2_5":22.3,"no2":11.8,"co":219.0,"o3":63.0,"so2":10.9,"mosquito_risk":7,"arthritis_risk":5,"migraine_risk":4,"frizz_risk":1,"updated_at":"2026-07-15T17:47:01.929421+05:30"},{"city":"Nagpur","state":"Maharashtra","latitude":21.1458,"longitude":79.0882,"temp":31.3,"humidity":56,"rain":0.0,"pressure":968.7,"uv_index":7.5,"wind_gusts":40.0,"aqi":94,"pm10":64.5,"pm2_5":30.4,"no2":12.5,"co":195.0,"o3":81.0,"so2":20.2,"mosquito_risk":0,"arthritis_risk":5,"migraine_risk":7,"frizz_risk":1,"updated_at":"2026-07-15T17:47:01.929426+05:30"},{"city":"Nashik","state":"Maharashtra","latitude":19.9975,"longitude":73.7898,"temp":24.1,"humidity":85,"rain":0.0,"pressure":942.9,"uv_index":7.5,"wind_gusts":46.8,"aqi":54,"pm10":23.6,"pm2_5":9.5,"no2":4.3,"co":131.0,"o3":63.0,"so2":3.6,"mosquito_risk":3,"arthritis_risk":5,"migraine_risk":7,"frizz_risk":1,"updated_at":"2026-07-15T17:47:01.929431+05:30"},{"city":"Aurangabad","state":"Maharashtra","latitude":19.8762,"longitude":75.3433,"temp":27.4,"humidity":65,"rain":0.0,"pressure":941.6,"uv_index":8.85,"wind_gusts":44.3,"aqi":58,"pm10":25.3,"pm2_5":12.5,"no2":2.4,"co":147.0,"o3":84.0,"so2":4.0,"mosquito_risk":7,"arthritis_risk":5,"migraine_risk":7,"frizz_risk":1,"updated_at":"2026-07-15T17:47:01.929436+05:30"},{"city":"Solapur","state":"Maharashtra","latitude":17.6599,"longitude":75.9064,"temp":29.0,"humidity":59,"rain":0.0,"pressure":955.1,"uv_index":8.85,"wind_gusts":52.2,"aqi":62,"pm10":24.6,"pm2_5":12.7,"no2":4.0,"co":149.0,"o3":68.0,"so2":1.7,"mosquito_risk":4,"arthritis_risk":5,"migraine_risk":7,"frizz_risk":1,"updated_at":"2026-07-15T17:47:01.929442+05:30"},{"city":"Kolhapur","state":"Maharashtra","latitude":16.705,"longitude":74.2433,"temp":24.9,"humidity":79,"rain":0.0,"pressure":946.8,"uv_index":7.7,"wind_gusts":46.1,"aqi":55,"pm10":16.1,"pm2_5":8.9,"no2":3.6,"co":139.0,"o3":58.0,"so2":1.8,"mosquito_risk":3,"arthritis_risk":5,"migraine_risk":7,"frizz_risk":1,"updated_at":"2026-07-15T17:47:01.929447+05:30"},{"city":"Goa","state":"Goa","latitude":15.2993,"longitude":74.124,"temp":28.9,"humidity":69,"rain":0.0,"pressure":997.5,"uv_index":7.25,"wind_gusts":34.6,"aqi":75,"pm10":39.6,"pm2_5":18.2,"no2":1.3,"co":130.0,"o3":56.0,"so2":1.1,"mosquito_risk":7,"arthritis_risk":5,"migraine_risk":7,"frizz_risk":1,"updated_at":"2026-07-15T17:47:01.929452+05:30"},{"city":"Jodhpur","state":"Rajasthan","latitude":26.2389,"longitude":73.0243,"temp":35.2,"humidity":38,"rain":0.0,"pressure":977.1,"uv_index":8.2,"wind_gusts":38.2,"aqi":152,"pm10":175.1,"pm2_5":31.0,"no2":1.7,"co":117.0,"o3":78.0,"so2":1.5,"mosquito_risk":0,"arthritis_risk":5,"migraine_risk":10,"frizz_risk":1,"updated_at":"2026-07-15T17:47:01.929457+05:30"},{"city":"Udaipur","state":"Rajasthan","latitude":24.5854,"longitude":73.7125,"temp":29.9,"humidity":56,"rain":0.0,"pressure":942.3,"uv_index":8.8,"wind_gusts":37.1,"aqi":71,"pm10":46.0,"pm2_5":17.1,"no2":1.5,"co":122.0,"o3":82.0,"so2":2.4,"mosquito_risk":4,"arthritis_risk":5,"migraine_risk":7,"frizz_risk":1,"updated_at":"2026-07-15T17:47:01.929462+05:30"},{"city":"Kota","state":"Rajasthan","latitude":25.2138,"longitude":75.8648,"temp":34.0,"humidity":46,"rain":0.0,"pressure":973.3,"uv_index":8.25,"wind_gusts":34.9,"aqi":94,"pm10":79.6,"pm2_5":29.2,"no2":2.8,"co":146.0,"o3":102.0,"so2":5.2,"mosquito_risk":0,"arthritis_risk":5,"migraine_risk":7,"frizz_risk":1,"updated_at":"2026-07-15T17:47:01.929467+05:30"},{"city":"Bikaner","state":"Rajasthan","latitude":28.0229,"longitude":73.3119,"temp":37.3,"humidity":33,"rain":0.0,"pressure":975.3,"uv_index":8.4,"wind_gusts":36.7,"aqi":160,"pm10":203.5,"pm2_5":51.7,"no2":0.7,"co":111.0,"o3":86.0,"so2":2.4,"mosquito_risk":0,"arthritis_risk":5,"migraine_risk":10,"frizz_risk":1,"updated_at":"2026-07-15T17:47:01.929472+05:30"},{"city":"Ajmer","state":"Rajasthan","latitude":26.4499,"longitude":74.6399,"temp":31.9,"humidity":47,"rain":0.0,"pressure":949.9,"uv_index":8.3,"wind_gusts":46.1,"aqi":97,"pm10":86.1,"pm2_5":28.9,"no2":2.0,"co":126.0,"o3":91.0,"so2":2.5,"mosquito_risk":0,"arthritis_risk":5,"migraine_risk":7,"frizz_risk":1,"updated_at":"2026-07-15T17:47:01.929477+05:30"},{"city":"Gwalior","state":"Madhya Pradesh","latitude":26.2183,"longitude":78.1828,"temp":31.7,"humidity":63,"rain":0.0,"pressure":977.2,"uv_index":8.15,"wind_gusts":39.2,"aqi":147,"pm10":143.4,"pm2_5":45.8,"no2":2.6,"co":147.0,"o3":90.0,"so2":2.1,"mosquito_risk":3,"arthritis_risk":5,"migraine_risk":7,"frizz_risk":1,"updated_at":"2026-07-15T17:47:01.929483+05:30"},{"city":"Indore","state":"Madhya Pradesh","latitude":22.7196,"longitude":75.8577,"temp":30.4,"humidity":54,"rain":0.0,"pressure":944.4,"uv_index":8.55,"wind_gusts":38.9,"aqi":68,"pm10":42.3,"pm2_5":18.6,"no2":3.4,"co":227.0,"o3":91.0,"so2":3.6,"mosquito_risk":0,"arthritis_risk":5,"migraine_risk":7,"frizz_risk":1,"updated_at":"2026-07-15T17:47:01.929488+05:30"},{"city":"Bhopal","state":"Madhya Pradesh","latitude":23.2599,"longitude":77.4126,"temp":30.3,"humidity":59,"rain":0.0,"pressure":949.3,"uv_index":5.35,"wind_gusts":43.6,"aqi":86,"pm10":76.6,"pm2_5":29.3,"no2":3.8,"co":197.0,"o3":82.0,"so2":3.0,"mosquito_risk":0,"arthritis_risk":5,"migraine_risk":3,"frizz_risk":1,"updated_at":"2026-07-15T17:47:01.929493+05:30"},{"city":"Jabalpur","state":"Madhya Pradesh","latitude":23.1815,"longitude":79.9864,"temp":30.1,"humidity":68,"rain":0.0,"pressure":956.6,"uv_index":8.65,"wind_gusts":33.1,"aqi":112,"pm10":125.3,"pm2_5":49.6,"no2":3.7,"co":174.0,"o3":92.0,"so2":4.2,"mosquito_risk":3,"arthritis_risk":5,"migraine_risk":7,"frizz_risk":1,"updated_at":"2026-07-15T17:47:01.929497+05:30"},{"city":"Ujjain","state":"Madhya Pradesh","latitude":23.1765,"longitude":75.7885,"temp":30.2,"humidity":59,"rain":0.0,"pressure":949.7,"uv_index":8.5,"wind_gusts":36.7,"aqi":69,"pm10":47.0,"pm2_5":19.2,"no2":2.1,"co":166.0,"o3":88.0,"so2":3.2,"mosquito_risk":0,"arthritis_risk":5,"migraine_risk":7,"frizz_risk":1,"updated_at":"2026-07-15T17:47:01.929503+05:30"},{"city":"Visakhapatnam","state":"Andhra Pradesh","latitude":17.6868,"longitude":83.2185,"temp":32.3,"humidity":64,"rain":0.0,"pressure":997.6,"uv_index":8.65,"wind_gusts":36.7,"aqi":129,"pm10":51.3,"pm2_5":34.3,"no2":19.3,"co":385.0,"o3":96.0,"so2":38.7,"mosquito_risk":3,"arthritis_risk":5,"migraine_risk":7,"frizz_risk":1,"updated_at":"2026-07-15T17:47:01.929507+05:30"},{"city":"Vijayawada","state":"Andhra Pradesh","latitude":16.5062,"longitude":80.648,"temp":35.0,"humidity":36,"rain":0.0,"pressure":997.8,"uv_index":8.55,"wind_gusts":48.2,"aqi":92,"pm10":32.5,"pm2_5":21.2,"no2":4.8,"co":172.0,"o3":107.0,"so2":4.6,"mosquito_risk":0,"arthritis_risk":5,"migraine_risk":7,"frizz_risk":1,"updated_at":"2026-07-15T17:47:01.929512+05:30"},{"city":"Guntur","state":"Andhra Pradesh","latitude":16.3067,"longitude":80.4365,"temp":35.5,"humidity":32,"rain":0.0,"pressure":999.0,"uv_index":8.8,"wind_gusts":49.0,"aqi":88,"pm10":38.6,"pm2_5":22.6,"no2":4.6,"co":224.0,"o3":103.0,"so2":3.9,"mosquito_risk":0,"arthritis_risk":5,"migraine_risk":10,"frizz_risk":1,"updated_at":"2026-07-15T17:47:01.929517+05:30"},{"city":"Nellore","state":"Andhra Pradesh","latitude":14.4426,"longitude":79.9865,"temp":36.1,"humidity":32,"rain":0.0,"pressure":1001.6,"uv_index":8.55,"wind_gusts":51.1,"aqi":80,"pm10":24.3,"pm2_5":14.4,"no2":4.8,"co":158.0,"o3":111.0,"so2":4.4,"mosquito_risk":0,"arthritis_risk":5,"migraine_risk":7,"frizz_risk":1,"updated_at":"2026-07-15T17:47:01.929523+05:30"},{"city":"Kurnool","state":"Andhra Pradesh","latitude":15.8281,"longitude":78.0373,"temp":35.2,"humidity":32,"rain":0.0,"pressure":973.5,"uv_index":8.9,"wind_gusts":64.4,"aqi":67,"pm10":62.2,"pm2_5":24.6,"no2":2.2,"co":123.0,"o3":101.0,"so2":6.3,"mosquito_risk":0,"arthritis_risk":5,"migraine_risk":10,"frizz_risk":1,"updated_at":"2026-07-15T17:47:01.929530+05:30"},{"city":"Kakinada","state":"Andhra Pradesh","latitude":16.9891,"longitude":82.2475,"temp":33.1,"humidity":51,"rain":0.0,"pressure":1002.2,"uv_index":6.15,"wind_gusts":52.6,"aqi":99,"pm10":35.3,"pm2_5":24.6,"no2":4.6,"co":220.0,"o3":127.0,"so2":6.3,"mosquito_risk":0,"arthritis_risk":5,"migraine_risk":4,"frizz_risk":1,"updated_at":"2026-07-15T17:47:01.929535+05:30"},{"city":"Tirupati","state":"Andhra Pradesh","latitude":13.6288,"longitude":79.4192,"temp":35.9,"humidity":30,"rain":0.0,"pressure":987.5,"uv_index":8.85,"wind_gusts":40.0,"aqi":82,"pm10":22.9,"pm2_5":15.7,"no2":11.6,"co":132.0,"o3":95.0,"so2":2.0,"mosquito_risk":0,"arthritis_risk":5,"migraine_risk":10,"frizz_risk":0,"updated_at":"2026-07-15T17:47:01.929539+05:30"},{"city":"Warangal","state":"Telangana","latitude":17.9689,"longitude":79.5941,"temp":31.5,"humidity":50,"rain":0.0,"pressure":974.9,"uv_index":8.7,"wind_gusts":45.4,"aqi":92,"pm10":44.2,"pm2_5":25.1,"no2":6.8,"co":153.0,"o3":75.0,"so2":3.6,"mosquito_risk":0,"arthritis_risk":5,"migraine_risk":7,"frizz_risk":1,"updated_at":"2026-07-15T17:47:01.929543+05:30"},{"city":"Nizamabad","state":"Telangana","latitude":18.6725,"longitude":78.0941,"temp":30.7,"humidity":52,"rain":0.0,"pressure":961.5,"uv_index":8.9,"wind_gusts":40.0,"aqi":85,"pm10":36.1,"pm2_5":17.9,"no2":2.2,"co":137.0,"o3":93.0,"so2":3.1,"mosquito_risk":0,"arthritis_risk":5,"migraine_risk":7,"frizz_risk":1,"updated_at":"2026-07-15T17:47:01.929548+05:30"},{"city":"Mysore","state":"Karnataka","latitude":12.2958,"longitude":76.6396,"temp":28.1,"humidity":54,"rain":0.0,"pressure":927.8,"uv_index":9.0,"wind_gusts":41.0,"aqi":58,"pm10":12.7,"pm2_5":8.6,"no2":3.8,"co":152.0,"o3":93.0,"so2":1.6,"mosquito_risk":4,"arthritis_risk":5,"migraine_risk":7,"frizz_risk":1,"updated_at":"2026-07-15T17:47:01.929553+05:30"},{"city":"Mangalore","state":"Karnataka","latitude":12.9141,"longitude":74.856,"temp":28.5,"humidity":74,"rain":0.0,"pressure":1007.0,"uv_index":8.75,"wind_gusts":35.6,"aqi":67,"pm10":45.6,"pm2_5":20.8,"no2":2.0,"co":113.0,"o3":58.0,"so2":1.5,"mosquito_risk":7,"arthritis_risk":5,"migraine_risk":4,"frizz_risk":1,"updated_at":"2026-07-15T17:47:01.929557+05:30"},{"city":"Hubli-Dharwad","state":"Karnataka","latitude":15.3647,"longitude":75.124,"temp":26.9,"humidity":62,"rain":0.0,"pressure":939.8,"uv_index":8.1,"wind_gusts":48.2,"aqi":54,"pm10":27.3,"pm2_5":13.7,"no2":2.4,"co":123.0,"o3":61.0,"so2":1.0,"mosquito_risk":7,"arthritis_risk":5,"migraine_risk":7,"frizz_risk":1,"updated_at":"2026-07-15T17:47:01.929562+05:30"},{"city":"Belgaum","state":"Karnataka","latitude":15.8497,"longitude":74.4977,"temp":24.2,"humidity":76,"rain":0.0,"pressure":924.8,"uv_index":8.55,"wind_gusts":47.2,"aqi":54,"pm10":17.9,"pm2_5":9.7,"no2":3.4,"co":116.0,"o3":53.0,"so2":1.6,"mosquito_risk":3,"arthritis_risk":5,"migraine_risk":7,"frizz_risk":1,"updated_at":"2026-07-15T17:47:05.236415+05:30"},{"city":"Coimbatore","state":"Tamil Nadu","latitude":11.0168,"longitude":76.9558,"temp":30.2,"humidity":53,"rain":0.0,"pressure":960.1,"uv_index":8.6,"wind_gusts":50.8,"aqi":59,"pm10":17.6,"pm2_5":11.8,"no2":2.8,"co":159.0,"o3":84.0,"so2":2.2,"mosquito_risk":0,"arthritis_risk":5,"migraine_risk":7,"frizz_risk":1,"updated_at":"2026-07-15T17:47:05.236446+05:30"},{"city":"Madurai","state":"Tamil Nadu","latitude":9.9252,"longitude":78.1198,"temp":37.5,"humidity":25,"rain":0.0,"pressure":989.7,"uv_index":7.75,"wind_gusts":36.0,"aqi":85,"pm10":59.3,"pm2_5":24.7,"no2":4.7,"co":152.0,"o3":111.0,"so2":2.8,"mosquito_risk":0,"arthritis_risk":5,"migraine_risk":10,"frizz_risk":0,"updated_at":"2026-07-15T17:47:05.236455+05:30"},{"city":"Trichy","state":"Tamil Nadu","latitude":10.7905,"longitude":78.7047,"temp":37.2,"humidity":27,"rain":0.0,"pressure":996.2,"uv_index":8.3,"wind_gusts":47.2,"aqi":71,"pm10":43.2,"pm2_5":19.7,"no2":3.7,"co":131.0,"o3":104.0,"so2":2.3,"mosquito_risk":0,"arthritis_risk":5,"migraine_risk":10,"frizz_risk":0,"updated_at":"2026-07-15T17:47:05.236462+05:30"},{"city":"Salem","state":"Tamil Nadu","latitude":11.6643,"longitude":78.146,"temp":33.4,"humidity":51,"rain":0.0,"pressure":974.4,"uv_index":8.7,"wind_gusts":24.5,"aqi":77,"pm10":42.4,"pm2_5":18.7,"no2":4.8,"co":238.0,"o3":104.0,"so2":4.8,"mosquito_risk":0,"arthritis_risk":5,"migraine_risk":7,"frizz_risk":1,"updated_at":"2026-07-15T17:47:05.236469+05:30"},{"city":"Tirunelveli","state":"Tamil Nadu","latitude":8.7139,"longitude":77.7567,"temp":34.9,"humidity":38,"rain":0.0,"pressure":999.9,"uv_index":8.0,"wind_gusts":45.4,"aqi":57,"pm10":21.7,"pm2_5":13.3,"no2":2.9,"co":137.0,"o3":83.0,"so2":1.8,"mosquito_risk":0,"arthritis_risk":5,"migraine_risk":7,"frizz_risk":1,"updated_at":"2026-07-15T17:47:05.236475+05:30"},{"city":"Vellore","state":"Tamil Nadu","latitude":12.9165,"longitude":79.1325,"temp":36.3,"humidity":25,"rain":0.0,"pressure":981.0,"uv_index":8.95,"wind_gusts":43.2,"aqi":91,"pm10":29.0,"pm2_5":17.2,"no2":7.3,"co":150.0,"o3":103.0,"so2":2.3,"mosquito_risk":0,"arthritis_risk":5,"migraine_risk":10,"frizz_risk":0,"updated_at":"2026-07-15T17:47:05.236481+05:30"},{"city":"Erode","state":"Tamil Nadu","latitude":11.341,"longitude":77.7172,"temp":34.3,"humidity":39,"rain":0.0,"pressure":986.1,"uv_index":8.45,"wind_gusts":43.9,"aqi":66,"pm10":31.2,"pm2_5":16.0,"no2":4.8,"co":170.0,"o3":103.0,"so2":2.3,"mosquito_risk":0,"arthritis_risk":5,"migraine_risk":7,"frizz_risk":1,"updated_at":"2026-07-15T17:47:05.236485+05:30"},{"city":"Kochi","state":"Kerala","latitude":9.9312,"longitude":76.2673,"temp":28.0,"humidity":81,"rain":0.0,"pressure":1008.7,"uv_index":8.4,"wind_gusts":37.8,"aqi":66,"pm10":24.3,"pm2_5":14.5,"no2":4.3,"co":118.0,"o3":61.0,"so2":2.3,"mosquito_risk":7,"arthritis_risk":0,"migraine_risk":4,"frizz_risk":1,"updated_at":"2026-07-15T17:47:05.236490+05:30"},{"city":"Thiruvananthapuram","state":"Kerala","latitude":8.5241,"longitude":76.9366,"temp":27.3,"humidity":82,"rain":0.0,"pressure":1008.0,"uv_index":8.0,"wind_gusts":48.2,"aqi":60,"pm10":27.0,"pm2_5":15.0,"no2":4.2,"co":115.0,"o3":59.0,"so2":1.1,"mosquito_risk":7,"arthritis_risk":0,"migraine_risk":4,"frizz_risk":1,"updated_at":"2026-07-15T17:47:05.236495+05:30"},{"city":"Kozhikode","state":"Kerala","latitude":11.2588,"longitude":75.7804,"temp":28.2,"humidity":79,"rain":0.0,"pressure":1007.8,"uv_index":8.2,"wind_gusts":37.4,"aqi":61,"pm10":33.3,"pm2_5":15.7,"no2":0.8,"co":110.0,"o3":60.0,"so2":1.0,"mosquito_risk":7,"arthritis_risk":5,"migraine_risk":4,"frizz_risk":1,"updated_at":"2026-07-15T17:47:05.236500+05:30"},{"city":"Thrissur","state":"Kerala","latitude":10.5276,"longitude":76.2144,"temp":28.1,"humidity":77,"rain":0.0,"pressure":1007.0,"uv_index":8.3,"wind_gusts":35.6,"aqi":63,"pm10":22.2,"pm2_5":13.4,"no2":3.0,"co":112.0,"o3":62.0,"so2":1.7,"mosquito_risk":7,"arthritis_risk":5,"migraine_risk":4,"frizz_risk":1,"updated_at":"2026-07-15T17:47:05.236506+05:30"},{"city":"Kannur","state":"Kerala","latitude":11.8745,"longitude":75.3704,"temp":28.8,"humidity":73,"rain":0.0,"pressure":1007.3,"uv_index":7.25,"wind_gusts":39.2,"aqi":64,"pm10":43.2,"pm2_5":20.1,"no2":2.0,"co":108.0,"o3":59.0,"so2":1.2,"mosquito_risk":7,"arthritis_risk":5,"migraine_risk":4,"frizz_risk":1,"updated_at":"2026-07-15T17:47:05.236511+05:30"},{"city":"Patna","state":"Bihar","latitude":25.5941,"longitude":85.1376,"temp":29.1,"humidity":92,"rain":0.1,"pressure":993.6,"uv_index":8.25,"wind_gusts":34.2,"aqi":165,"pm10":90.1,"pm2_5":53.0,"no2":11.4,"co":394.0,"o3":133.0,"so2":8.6,"mosquito_risk":10,"arthritis_risk":5,"migraine_risk":7,"frizz_risk":1,"updated_at":"2026-07-15T17:47:05.236515+05:30"},{"city":"Gaya","state":"Bihar","latitude":24.7914,"longitude":85.0002,"temp":30.1,"humidity":83,"rain":0.1,"pressure":987.0,"uv_index":8.5,"wind_gusts":26.6,"aqi":163,"pm10":108.5,"pm2_5":56.5,"no2":7.9,"co":378.0,"o3":122.0,"so2":6.9,"mosquito_risk":6,"arthritis_risk":5,"migraine_risk":7,"frizz_risk":1,"updated_at":"2026-07-15T17:47:05.236520+05:30"},{"city":"Muzaffarpur","state":"Bihar","latitude":26.1209,"longitude":85.3647,"temp":28.8,"humidity":90,"rain":0.2,"pressure":993.7,"uv_index":7.35,"wind_gusts":22.0,"aqi":162,"pm10":62.4,"pm2_5":44.8,"no2":13.4,"co":420.0,"o3":119.0,"so2":9.1,"mosquito_risk":10,"arthritis_risk":5,"migraine_risk":7,"frizz_risk":1,"updated_at":"2026-07-15T17:47:05.236525+05:30"},{"city":"Bhagalpur","state":"Bihar","latitude":25.2425,"longitude":87.0117,"temp":32.1,"humidity":70,"rain":0.0,"pressure":993.6,"uv_index":7.95,"wind_gusts":21.6,"aqi":143,"pm10":29.3,"pm2_5":27.8,"no2":11.8,"co":324.0,"o3":111.0,"so2":13.0,"mosquito_risk":3,"arthritis_risk":5,"migraine_risk":7,"frizz_risk":1,"updated_at":"2026-07-15T17:47:05.236529+05:30"},{"city":"Ranchi","state":"Jharkhand","latitude":23.3441,"longitude":85.3096,"temp":25.8,"humidity":86,"rain":0.0,"pressure":932.2,"uv_index":8.5,"wind_gusts":32.4,"aqi":159,"pm10":88.2,"pm2_5":41.4,"no2":4.8,"co":240.0,"o3":137.0,"so2":9.6,"mosquito_risk":7,"arthritis_risk":5,"migraine_risk":7,"frizz_risk":1,"updated_at":"2026-07-15T17:47:05.236534+05:30"},{"city":"Jamshedpur","state":"Jharkhand","latitude":22.8046,"longitude":86.2029,"temp":27.4,"humidity":96,"rain":0.1,"pressure":983.5,"uv_index":7.75,"wind_gusts":31.7,"aqi":167,"pm10":42.5,"pm2_5":39.5,"no2":12.5,"co":416.0,"o3":133.0,"so2":34.5,"mosquito_risk":10,"arthritis_risk":5,"migraine_risk":7,"frizz_risk":1,"updated_at":"2026-07-15T17:47:05.236539+05:30"},{"city":"Dhanbad","state":"Jharkhand","latitude":23.7957,"longitude":86.4304,"temp":31.0,"humidity":73,"rain":0.0,"pressure":972.5,"uv_index":8.6,"wind_gusts":29.9,"aqi":187,"pm10":53.2,"pm2_5":48.1,"no2":22.8,"co":257.0,"o3":129.0,"so2":65.2,"mosquito_risk":3,"arthritis_risk":5,"migraine_risk":7,"frizz_risk":1,"updated_at":"2026-07-15T17:47:05.236544+05:30"},{"city":"Bokaro","state":"Jharkhand","latitude":23.6693,"longitude":86.1511,"temp":30.1,"humidity":81,"rain":0.0,"pressure":976.5,"uv_index":8.35,"wind_gusts":28.8,"aqi":190,"pm10":85.4,"pm2_5":57.4,"no2":24.4,"co":277.0,"o3":116.0,"so2":71.4,"mosquito_risk":3,"arthritis_risk":5,"migraine_risk":7,"frizz_risk":1,"updated_at":"2026-07-15T17:47:05.236549+05:30"},{"city":"Bhubaneswar","state":"Odisha","latitude":20.2961,"longitude":85.8245,"temp":26.8,"humidity":94,"rain":0.2,"pressure":994.5,"uv_index":5.9,"wind_gusts":37.8,"aqi":142,"pm10":71.7,"pm2_5":44.9,"no2":13.8,"co":408.0,"o3":98.0,"so2":19.3,"mosquito_risk":10,"arthritis_risk":5,"migraine_risk":3,"frizz_risk":1,"updated_at":"2026-07-15T17:47:05.236553+05:30"},{"city":"Cuttack","state":"Odisha","latitude":20.4625,"longitude":85.8828,"temp":27.8,"humidity":91,"rain":0.1,"pressure":996.3,"uv_index":6.95,"wind_gusts":37.1,"aqi":142,"pm10":71.7,"pm2_5":44.9,"no2":13.8,"co":266.0,"o3":98.0,"so2":19.3,"mosquito_risk":10,"arthritis_risk":5,"migraine_risk":7,"frizz_risk":1,"updated_at":"2026-07-15T17:47:05.236558+05:30"},{"city":"Rourkela","state":"Odisha","latitude":22.2604,"longitude":84.8536,"temp":25.9,"humidity":96,"rain":0.2,"pressure":978.5,"uv_index":7.8,"wind_gusts":40.0,"aqi":159,"pm10":87.5,"pm2_5":47.0,"no2":7.9,"co":373.0,"o3":103.0,"so2":6.0,"mosquito_risk":10,"arthritis_risk":5,"migraine_risk":7,"frizz_risk":1,"updated_at":"2026-07-15T17:47:05.236562+05:30"},{"city":"Raipur","state":"Chhattisgarh","latitude":21.2514,"longitude":81.6296,"temp":30.6,"humidity":71,"rain":0.0,"pressure":969.2,"uv_index":8.0,"wind_gusts":30.2,"aqi":144,"pm10":91.7,"pm2_5":48.8,"no2":25.0,"co":172.0,"o3":81.0,"so2":50.3,"mosquito_risk":3,"arthritis_risk":5,"migraine_risk":7,"frizz_risk":1,"updated_at":"2026-07-15T17:47:05.236567+05:30"},{"city":"Bhilai","state":"Chhattisgarh","latitude":21.1938,"longitude":81.3509,"temp":30.7,"humidity":61,"rain":0.0,"pressure":969.7,"uv_index":8.35,"wind_gusts":31.0,"aqi":126,"pm10":83.1,"pm2_5":42.6,"no2":19.8,"co":456.0,"o3":87.0,"so2":39.5,"mosquito_risk":3,"arthritis_risk":5,"migraine_risk":7,"frizz_risk":1,"updated_at":"2026-07-15T17:47:05.236571+05:30"},{"city":"Guwahati","state":"Assam","latitude":26.1158,"longitude":91.7086,"temp":27.6,"humidity":95,"rain":0.0,"pressure":995.0,"uv_index":7.85,"wind_gusts":23.4,"aqi":43,"pm10":7.7,"pm2_5":7.6,"no2":5.7,"co":299.0,"o3":69.0,"so2":1.2,"mosquito_risk":7,"arthritis_risk":5,"migraine_risk":7,"frizz_risk":1,"updated_at":"2026-07-15T17:47:05.236576+05:30"},{"city":"Agartala","state":"Tripura","latitude":23.8315,"longitude":91.2868,"temp":29.8,"humidity":79,"rain":0.1,"pressure":999.3,"uv_index":8.7,"wind_gusts":31.7,"aqi":92,"pm10":15.0,"pm2_5":13.1,"no2":9.9,"co":188.0,"o3":71.0,"so2":1.5,"mosquito_risk":10,"arthritis_risk":5,"migraine_risk":7,"frizz_risk":1,"updated_at":"2026-07-15T17:47:05.236580+05:30"},{"city":"Shillong","state":"Meghalaya","latitude":25.5788,"longitude":91.8933,"temp":23.2,"humidity":78,"rain":0.0,"pressure":854.2,"uv_index":7.1,"wind_gusts":27.4,"aqi":40,"pm10":7.0,"pm2_5":6.5,"no2":7.0,"co":217.0,"o3":71.0,"so2":1.6,"mosquito_risk":3,"arthritis_risk":5,"migraine_risk":7,"frizz_risk":1,"updated_at":"2026-07-15T17:47:05.236585+05:30"},{"city":"Imphal","state":"Manipur","latitude":24.817,"longitude":93.9368,"temp":26.6,"humidity":81,"rain":0.1,"pressure":918.6,"uv_index":8.65,"wind_gusts":24.1,"aqi":56,"pm10":5.8,"pm2_5":4.8,"no2":3.6,"co":253.0,"o3":67.0,"so2":1.2,"mosquito_risk":10,"arthritis_risk":5,"migraine_risk":7,"frizz_risk":1,"updated_at":"2026-07-15T17:47:05.236589+05:30"},{"city":"Aizawl","state":"Mizoram","latitude":23.7271,"longitude":92.7176,"temp":21.8,"humidity":97,"rain":0.0,"pressure":887.8,"uv_index":9.0,"wind_gusts":30.6,"aqi":42,"pm10":4.9,"pm2_5":4.7,"no2":4.6,"co":158.0,"o3":56.0,"so2":0.5,"mosquito_risk":3,"arthritis_risk":5,"migraine_risk":7,"frizz_risk":1,"updated_at":"2026-07-15T17:47:05.236594+05:30"},{"city":"Kohima","state":"Nagaland","latitude":25.6701,"longitude":94.1077,"temp":21.5,"humidity":96,"rain":0.1,"pressure":851.8,"uv_index":7.25,"wind_gusts":26.6,"aqi":51,"pm10":6.6,"pm2_5":6.0,"no2":4.3,"co":200.0,"o3":72.0,"so2":0.8,"mosquito_risk":6,"arthritis_risk":5,"migraine_risk":7,"frizz_risk":1,"updated_at":"2026-07-15T17:47:05.236599+05:30"},{"city":"Gangtok","state":"Sikkim","latitude":27.3314,"longitude":88.6138,"temp":20.8,"humidity":93,"rain":0.0,"pressure":835.1,"uv_index":8.55,"wind_gusts":33.1,"aqi":47,"pm10":6.9,"pm2_5":6.7,"no2":5.3,"co":247.0,"o3":100.0,"so2":1.2,"mosquito_risk":3,"arthritis_risk":5,"migraine_risk":7,"frizz_risk":1,"updated_at":"2026-07-15T17:47:05.236604+05:30"},{"city":"Siliguri","state":"West Bengal","latitude":26.7271,"longitude":88.3953,"temp":27.9,"humidity":93,"rain":0.0,"pressure":986.4,"uv_index":6.95,"wind_gusts":23.4,"aqi":81,"pm10":19.7,"pm2_5":18.5,"no2":6.3,"co":639.0,"o3":118.0,"so2":2.4,"mosquito_risk":7,"arthritis_risk":5,"migraine_risk":7,"frizz_risk":1,"updated_at":"2026-07-15T17:47:08.651353+05:30"},{"city":"Durgapur","state":"West Bengal","latitude":23.5204,"longitude":87.3119,"temp":30.7,"humidity":76,"rain":0.1,"pressure":987.0,"uv_index":9.0,"wind_gusts":31.0,"aqi":153,"pm10":25.1,"pm2_5":24.0,"no2":16.7,"co":372.0,"o3":108.0,"so2":29.3,"mosquito_risk":6,"arthritis_risk":5,"migraine_risk":7,"frizz_risk":1,"updated_at":"2026-07-15T17:47:08.651387+05:30"},{"city":"Asansol","state":"West Bengal","latitude":23.6739,"longitude":86.9524,"temp":30.9,"humidity":79,"rain":0.0,"pressure":985.7,"uv_index":8.15,"wind_gusts":26.3,"aqi":155,"pm10":30.7,"pm2_5":29.7,"no2":16.7,"co":348.0,"o3":111.0,"so2":25.3,"mosquito_risk":3,"arthritis_risk":5,"migraine_risk":7,"frizz_risk":1,"updated_at":"2026-07-15T17:47:08.651396+05:30"},{"city":"Pondicherry","state":"Puducherry","latitude":11.9139,"longitude":79.8145,"temp":32.7,"humidity":66,"rain":0.0,"pressure":1004.2,"uv_index":8.15,"wind_gusts":43.9,"aqi":135,"pm10":52.4,"pm2_5":37.0,"no2":21.3,"co":267.0,"o3":160.0,"so2":8.3,"mosquito_risk":3,"arthritis_risk":5,"migraine_risk":4,"frizz_risk":1,"updated_at":"2026-07-15T17:47:08.651402+05:30"},{"city":"Port Blair","state":"Andaman and Nicobar Islands","latitude":11.6234,"longitude":92.7265,"temp":26.0,"humidity":91,"rain":0.1,"pressure":1006.3,"uv_index":8.35,"wind_gusts":55.4,"aqi":46,"pm10":31.7,"pm2_5":12.7,"no2":0.6,"co":102.0,"o3":51.0,"so2":0.4,"mosquito_risk":10,"arthritis_risk":5,"migraine_risk":4,"frizz_risk":1,"updated_at":"2026-07-15T17:47:08.651408+05:30"},{"city":"Haridwar","state":"Uttarakhand","latitude":29.9457,"longitude":78.1642,"temp":30.9,"humidity":78,"rain":0.0,"pressure":967.1,"uv_index":7.45,"wind_gusts":25.2,"aqi":177,"pm10":115.0,"pm2_5":74.3,"no2":4.6,"co":401.0,"o3":200.0,"so2":14.2,"mosquito_risk":3,"arthritis_risk":5,"migraine_risk":7,"frizz_risk":1,"updated_at":"2026-07-15T17:47:08.651415+05:30"},{"city":"Rishikesh","state":"Uttarakhand","latitude":30.0869,"longitude":78.2676,"temp":29.3,"humidity":90,"rain":0.0,"pressure":960.2,"uv_index":7.55,"wind_gusts":23.8,"aqi":159,"pm10":98.3,"pm2_5":63.6,"no2":2.5,"co":406.0,"o3":189.0,"so2":11.5,"mosquito_risk":7,"arthritis_risk":5,"migraine_risk":7,"frizz_risk":1,"updated_at":"2026-07-15T17:47:08.651421+05:30"},{"city":"Nainital","state":"Uttarakhand","latitude":29.3919,"longitude":79.4542,"temp":20.0,"humidity":96,"rain":0.0,"pressure":803.5,"uv_index":7.55,"wind_gusts":27.0,"aqi":161,"pm10":95.0,"pm2_5":53.0,"no2":3.8,"co":273.0,"o3":171.0,"so2":11.8,"mosquito_risk":3,"arthritis_risk":5,"migraine_risk":7,"frizz_risk":1,"updated_at":"2026-07-15T17:47:08.651427+05:30"},{"city":"Mussoorie","state":"Uttarakhand","latitude":30.4599,"longitude":78.0664,"temp":19.8,"humidity":93,"rain":0.0,"pressure":801.0,"uv_index":7.85,"wind_gusts":33.1,"aqi":164,"pm10":89.4,"pm2_5":63.8,"no2":3.9,"co":320.0,"o3":200.0,"so2":10.9,"mosquito_risk":3,"arthritis_risk":10,"migraine_risk":7,"frizz_risk":1,"updated_at":"2026-07-15T17:47:08.651431+05:30"},{"city":"Dharamshala","state":"Himachal Pradesh","latitude":32.219,"longitude":76.3234,"temp":24.4,"humidity":84,"rain":0.0,"pressure":866.4,"uv_index":8.4,"wind_gusts":36.0,"aqi":116,"pm10":42.3,"pm2_5":25.0,"no2":1.5,"co":314.0,"o3":150.0,"so2":2.1,"mosquito_risk":3,"arthritis_risk":5,"migraine_risk":7,"frizz_risk":1,"updated_at":"2026-07-15T17:47:08.651436+05:30"},{"city":"Dalhousie","state":"Himachal Pradesh","latitude":32.5387,"longitude":75.971,"temp":20.6,"humidity":84,"rain":0.0,"pressure":803.4,"uv_index":8.4,"wind_gusts":30.6,"aqi":154,"pm10":60.1,"pm2_5":39.3,"no2":3.4,"co":329.0,"o3":181.0,"so2":3.4,"mosquito_risk":3,"arthritis_risk":5,"migraine_risk":7,"frizz_risk":1,"updated_at":"2026-07-15T17:47:08.651441+05:30"},{"city":"Patiala","state":"Punjab","latitude":30.3398,"longitude":76.3869,"temp":33.2,"humidity":63,"rain":0.0,"pressure":971.4,"uv_index":7.6,"wind_gusts":29.2,"aqi":192,"pm10":400.5,"pm2_5":102.4,"no2":6.9,"co":346.0,"o3":136.0,"so2":6.0,"mosquito_risk":3,"arthritis_risk":5,"migraine_risk":7,"frizz_risk":1,"updated_at":"2026-07-15T17:47:08.651446+05:30"},{"city":"Bhatinda","state":"Punjab","latitude":30.211,"longitude":74.9455,"temp":36.4,"humidity":43,"rain":0.0,"pressure":976.9,"uv_index":8.2,"wind_gusts":25.9,"aqi":173,"pm10":233.3,"pm2_5":75.0,"no2":5.0,"co":198.0,"o3":118.0,"so2":7.8,"mosquito_risk":0,"arthritis_risk":5,"migraine_risk":10,"frizz_risk":1,"updated_at":"2026-07-15T17:47:08.651451+05:30"},{"city":"Rohtak","state":"Haryana","latitude":28.8955,"longitude":76.6066,"temp":34.2,"humidity":58,"rain":0.0,"pressure":974.7,"uv_index":7.65,"wind_gusts":33.1,"aqi":318,"pm10":983.5,"pm2_5":175.6,"no2":13.3,"co":288.0,"o3":101.0,"so2":4.9,"mosquito_risk":0,"arthritis_risk":5,"migraine_risk":7,"frizz_risk":1,"updated_at":"2026-07-15T17:47:08.651457+05:30"},{"city":"Panipat","state":"Haryana","latitude":29.3909,"longitude":76.9635,"temp":33.4,"humidity":63,"rain":0.0,"pressure":973.4,"uv_index":7.5,"wind_gusts":28.1,"aqi":563,"pm10":2279.9,"pm2_5":307.3,"no2":9.5,"co":248.0,"o3":102.0,"so2":9.1,"mosquito_risk":3,"arthritis_risk":5,"migraine_risk":7,"frizz_risk":1,"updated_at":"2026-07-15T17:47:08.651462+05:30"},{"city":"Mathura","state":"Uttar Pradesh","latitude":27.4924,"longitude":77.6737,"temp":33.6,"humidity":61,"rain":0.0,"pressure":980.0,"uv_index":7.65,"wind_gusts":38.2,"aqi":175,"pm10":1184.6,"pm2_5":166.7,"no2":6.9,"co":224.0,"o3":109.0,"so2":3.5,"mosquito_risk":3,"arthritis_risk":5,"migraine_risk":7,"frizz_risk":1,"updated_at":"2026-07-15T17:47:08.651466+05:30"},{"city":"Vrindavan","state":"Uttar Pradesh","latitude":27.5823,"longitude":77.7027,"temp":33.8,"humidity":58,"rain":0.0,"pressure":980.5,"uv_index":7.65,"wind_gusts":31.0,"aqi":175,"pm10":1184.6,"pm2_5":166.7,"no2":6.9,"co":209.0,"o3":109.0,"so2":3.5,"mosquito_risk":0,"arthritis_risk":5,"migraine_risk":7,"frizz_risk":1,"updated_at":"2026-07-15T17:47:08.651471+05:30"},{"city":"Ayodhya","state":"Uttar Pradesh","latitude":26.7922,"longitude":82.1998,"temp":31.7,"humidity":76,"rain":0.0,"pressure":988.3,"uv_index":7.05,"wind_gusts":25.2,"aqi":184,"pm10":140.6,"pm2_5":69.2,"no2":7.1,"co":391.0,"o3":130.0,"so2":5.7,"mosquito_risk":3,"arthritis_risk":5,"migraine_risk":7,"frizz_risk":1,"updated_at":"2026-07-15T17:47:08.651476+05:30"},{"city":"Ratlam","state":"Madhya Pradesh","latitude":23.3315,"longitude":75.0367,"temp":30.4,"humidity":55,"rain":0.0,"pressure":950.7,"uv_index":7.3,"wind_gusts":36.4,"aqi":67,"pm10":48.5,"pm2_5":19.5,"no2":1.7,"co":130.0,"o3":91.0,"so2":3.2,"mosquito_risk":0,"arthritis_risk":5,"migraine_risk":7,"frizz_risk":1,"updated_at":"2026-07-15T17:47:08.651481+05:30"},{"city":"Sagar","state":"Madhya Pradesh","latitude":23.8388,"longitude":78.7378,"temp":30.7,"humidity":57,"rain":0.0,"pressure":945.4,"uv_index":6.65,"wind_gusts":40.0,"aqi":103,"pm10":80.6,"pm2_5":36.8,"no2":3.8,"co":138.0,"o3":79.0,"so2":2.9,"mosquito_risk":0,"arthritis_risk":5,"migraine_risk":7,"frizz_risk":1,"updated_at":"2026-07-15T17:47:08.651485+05:30"},{"city":"Satna","state":"Madhya Pradesh","latitude":24.6005,"longitude":80.8322,"temp":32.4,"humidity":57,"rain":0.0,"pressure":965.3,"uv_index":8.7,"wind_gusts":31.3,"aqi":130,"pm10":92.2,"pm2_5":44.7,"no2":4.0,"co":151.0,"o3":92.0,"so2":2.6,"mosquito_risk":0,"arthritis_risk":5,"migraine_risk":7,"frizz_risk":1,"updated_at":"2026-07-15T17:47:08.651490+05:30"},{"city":"Akola","state":"Maharashtra","latitude":20.7002,"longitude":77.0082,"temp":31.7,"humidity":55,"rain":0.0,"pressure":971.1,"uv_index":7.95,"wind_gusts":42.8,"aqi":69,"pm10":43.7,"pm2_5":19.1,"no2":3.0,"co":120.0,"o3":96.0,"so2":6.4,"mosquito_risk":0,"arthritis_risk":5,"migraine_risk":7,"frizz_risk":1,"updated_at":"2026-07-15T17:47:08.651495+05:30"},{"city":"Amravati","state":"Maharashtra","latitude":20.9374,"longitude":77.7796,"temp":31.8,"humidity":54,"rain":0.0,"pressure":963.2,"uv_index":7.4,"wind_gusts":41.4,"aqi":71,"pm10":43.2,"pm2_5":19.2,"no2":3.7,"co":133.0,"o3":93.0,"so2":7.4,"mosquito_risk":0,"arthritis_risk":5,"migraine_risk":7,"frizz_risk":1,"updated_at":"2026-07-15T17:47:08.651501+05:30"},{"city":"Latur","state":"Maharashtra","latitude":18.4088,"longitude":76.5604,"temp":26.7,"humidity":70,"rain":0.2,"pressure":937.4,"uv_index":8.9,"wind_gusts":42.8,"aqi":63,"pm10":22.3,"pm2_5":10.9,"no2":2.2,"co":135.0,"o3":72.0,"so2":1.3,"mosquito_risk":10,"arthritis_risk":5,"migraine_risk":7,"frizz_risk":1,"updated_at":"2026-07-15T17:47:08.651506+05:30"},{"city":"Nanded","state":"Maharashtra","latitude":19.1383,"longitude":77.3091,"temp":26.6,"humidity":77,"rain":0.1,"pressure":965.9,"uv_index":8.85,"wind_gusts":42.1,"aqi":76,"pm10":38.4,"pm2_5":17.1,"no2":2.2,"co":141.0,"o3":87.0,"so2":2.3,"mosquito_risk":10,"arthritis_risk":5,"migraine_risk":7,"frizz_risk":1,"updated_at":"2026-07-15T17:47:08.651511+05:30"},{"city":"Gulbarga","state":"Karnataka","latitude":17.3297,"longitude":76.8343,"temp":26.2,"humidity":74,"rain":0.0,"pressure":956.9,"uv_index":8.75,"wind_gusts":62.6,"aqi":64,"pm10":36.9,"pm2_5":16.8,"no2":4.6,"co":143.0,"o3":74.0,"so2":2.1,"mosquito_risk":7,"arthritis_risk":5,"migraine_risk":7,"frizz_risk":1,"updated_at":"2026-07-15T17:47:08.651517+05:30"},{"city":"Bidar","state":"Karnataka","latitude":17.9104,"longitude":77.5199,"temp":24.5,"humidity":83,"rain":0.1,"pressure":933.3,"uv_index":9.0,"wind_gusts":44.6,"aqi":77,"pm10":32.2,"pm2_5":15.5,"no2":3.8,"co":177.0,"o3":81.0,"so2":2.5,"mosquito_risk":6,"arthritis_risk":5,"migraine_risk":7,"frizz_risk":1,"updated_at":"2026-07-15T17:47:08.651521+05:30"},{"city":"Hospet","state":"Karnataka","latitude":15.2689,"longitude":76.3909,"temp":30.8,"humidity":44,"rain":0.0,"pressure":954.0,"uv_index":8.5,"wind_gusts":43.9,"aqi":57,"pm10":18.2,"pm2_5":10.0,"no2":3.4,"co":122.0,"o3":79.0,"so2":1.5,"mosquito_risk":0,"arthritis_risk":5,"migraine_risk":7,"frizz_risk":1,"updated_at":"2026-07-15T17:47:08.651526+05:30"},{"city":"Tirupur","state":"Tamil Nadu","latitude":11.1085,"longitude":77.3411,"temp":31.3,"humidity":52,"rain":0.0,"pressure":972.8,"uv_index":8.8,"wind_gusts":52.6,"aqi":67,"pm10":29.4,"pm2_5":15.7,"no2":4.5,"co":153.0,"o3":98.0,"so2":2.8,"mosquito_risk":0,"arthritis_risk":5,"migraine_risk":7,"frizz_risk":1,"updated_at":"2026-07-15T17:47:08.651531+05:30"},{"city":"Alappuzha","state":"Kerala","latitude":9.4981,"longitude":76.3388,"temp":28.1,"humidity":81,"rain":0.0,"pressure":1008.8,"uv_index":8.25,"wind_gusts":39.2,"aqi":64,"pm10":26.4,"pm2_5":14.9,"no2":4.7,"co":93.0,"o3":61.0,"so2":2.0,"mosquito_risk":7,"arthritis_risk":0,"migraine_risk":4,"frizz_risk":1,"updated_at":"2026-07-15T17:47:08.651535+05:30"},{"city":"Munnar","state":"Kerala","latitude":10.0889,"longitude":77.0595,"temp":19.0,"humidity":91,"rain":0.0,"pressure":857.0,"uv_index":8.4,"wind_gusts":36.4,"aqi":54,"pm10":26.4,"pm2_5":13.7,"no2":2.4,"co":115.0,"o3":74.0,"so2":1.5,"mosquito_risk":3,"arthritis_risk":10,"migraine_risk":7,"frizz_risk":1,"updated_at":"2026-07-15T17:47:08.651541+05:30"},{"city":"Silchar","state":"Assam","latitude":24.8333,"longitude":92.7789,"temp":30.1,"humidity":85,"rain":0.0,"pressure":998.2,"uv_index":8.85,"wind_gusts":25.2,"aqi":67,"pm10":16.7,"pm2_5":15.8,"no2":5.0,"co":214.0,"o3":79.0,"so2":2.7,"mosquito_risk":3,"arthritis_risk":5,"migraine_risk":7,"frizz_risk":1,"updated_at":"2026-07-15T17:47:08.651546+05:30"},{"city":"Dibrugarh","state":"Assam","latitude":27.4728,"longitude":94.912,"temp":29.8,"humidity":86,"rain":0.0,"pressure":988.2,"uv_index":7.3,"wind_gusts":22.0,"aqi":56,"pm10":10.5,"pm2_5":10.4,"no2":5.4,"co":250.0,"o3":89.0,"so2":1.7,"mosquito_risk":7,"arthritis_risk":5,"migraine_risk":7,"frizz_risk":1,"updated_at":"2026-07-15T17:47:08.651551+05:30"}]