[{"city":"Delhi","state":"Delhi","latitude":28.6139,"longitude":77.209,"temp":36.2,"humidity":42,"rain":0.0,"pressure":977.2,"uv_index":7.7,"wind_gusts":24.5,"aqi":181,"pm10":746.9,"pm2_5":158.3,"no2":6.0,"co":254.0,"o3":165.0,"so2":14.4,"mosquito_risk":0,"arthritis_risk":5,"migraine_risk":10,"frizz_risk":1,"updated_at":"2026-07-15T13:47:20.306826+05:30"},{"city":"Mumbai","state":"Maharashtra","latitude":19.076,"longitude":72.8777,"temp":28.2,"humidity":77,"rain":0.0,"pressure":1007.7,"uv_index":7.6,"wind_gusts":42.5,"aqi":70,"pm10":44.7,"pm2_5":22.3,"no2":5.6,"co":187.0,"o3":88.0,"so2":10.1,"mosquito_risk":7,"arthritis_risk":5,"migraine_risk":4,"frizz_risk":1,"updated_at":"2026-07-15T13:47:20.306867+05:30"},{"city":"Bangalore","state":"Karnataka","latitude":12.9716,"longitude":77.5946,"temp":31.5,"humidity":30,"rain":0.0,"pressure":912.3,"uv_index":9.15,"wind_gusts":42.5,"aqi":64,"pm10":15.8,"pm2_5":10.7,"no2":2.7,"co":221.0,"o3":98.0,"so2":2.7,"mosquito_risk":0,"arthritis_risk":5,"migraine_risk":7,"frizz_risk":0,"updated_at":"2026-07-15T13:47:20.306882+05:30"},{"city":"Hyderabad","state":"Telangana","latitude":17.385,"longitude":78.4867,"temp":33.0,"humidity":39,"rain":0.0,"pressure":951.6,"uv_index":9.05,"wind_gusts":44.3,"aqi":76,"pm10":46.0,"pm2_5":20.7,"no2":1.8,"co":185.0,"o3":96.0,"so2":3.0,"mosquito_risk":0,"arthritis_risk":5,"migraine_risk":7,"frizz_risk":1,"updated_at":"2026-07-15T13:47:20.306892+05:30"},{"city":"Chennai","state":"Tamil Nadu","latitude":13.0827,"longitude":80.2707,"temp":37.9,"humidity":33,"rain":0.0,"pressure":1003.7,"uv_index":8.75,"wind_gusts":37.8,"aqi":89,"pm10":46.2,"pm2_5":31.7,"no2":7.1,"co":238.0,"o3":150.0,"so2":9.7,"mosquito_risk":0,"arthritis_risk":5,"migraine_risk":7,"frizz_risk":1,"updated_at":"2026-07-15T13:47:20.306900+05:30"},{"city":"Kolkata","state":"West Bengal","latitude":22.5726,"longitude":88.3639,"temp":29.8,"humidity":83,"rain":0.0,"pressure":996.9,"uv_index":7.65,"wind_gusts":34.2,"aqi":125,"pm10":13.5,"pm2_5":12.5,"no2":6.1,"co":237.0,"o3":107.0,"so2":6.5,"mosquito_risk":7,"arthritis_risk":5,"migraine_risk":7,"frizz_risk":1,"updated_at":"2026-07-15T13:47:20.306908+05:30"},{"city":"Pune","state":"Maharashtra","latitude":18.5204,"longitude":73.8567,"temp":28.1,"humidity":65,"rain":0.0,"pressure":947.2,"uv_index":8.05,"wind_gusts":46.4,"aqi":55,"pm10":14.6,"pm2_5":6.4,"no2":2.1,"co":140.0,"o3":62.0,"so2":3.2,"mosquito_risk":7,"arthritis_risk":5,"migraine_risk":7,"frizz_risk":1,"updated_at":"2026-07-15T13:47:20.306915+05:30"},{"city":"Ahmedabad","state":"Gujarat","latitude":23.0225,"longitude":72.5714,"temp":36.2,"humidity":42,"rain":0.0,"pressure":997.7,"uv_index":7.0,"wind_gusts":40.7,"aqi":66,"pm10":35.3,"pm2_5":14.5,"no2":1.8,"co":127.0,"o3":85.0,"so2":3.9,"mosquito_risk":0,"arthritis_risk":5,"migraine_risk":10,"frizz_risk":1,"updated_at":"2026-07-15T13:47:20.306921+05:30"},{"city":"Jaipur","state":"Rajasthan","latitude":26.9124,"longitude":75.7873,"temp":33.0,"humidity":49,"rain":0.0,"pressure":956.2,"uv_index":7.65,"wind_gusts":38.2,"aqi":371,"pm10":523.4,"pm2_5":93.4,"no2":2.3,"co":136.0,"o3":82.0,"so2":4.1,"mosquito_risk":0,"arthritis_risk":5,"migraine_risk":7,"frizz_risk":1,"updated_at":"2026-07-15T13:47:20.306928+05:30"},{"city":"Lucknow","state":"Uttar Pradesh","latitude":26.8467,"longitude":80.9462,"temp":34.5,"humidity":55,"rain":0.0,"pressure":987.4,"uv_index":7.05,"wind_gusts":23.0,"aqi":166,"pm10":189.5,"pm2_5":66.4,"no2":1.4,"co":195.0,"o3":148.0,"so2":7.2,"mosquito_risk":0,"arthritis_risk":5,"migraine_risk":7,"frizz_risk":1,"updated_at":"2026-07-15T13:47:20.306939+05:30"},{"city":"Kanpur","state":"Uttar Pradesh","latitude":26.4499,"longitude":80.3319,"temp":35.2,"humidity":47,"rain":0.1,"pressure":985.9,"uv_index":7.6,"wind_gusts":36.7,"aqi":155,"pm10":149.0,"pm2_5":49.8,"no2":1.5,"co":165.0,"o3":135.0,"so2":5.2,"mosquito_risk":3,"arthritis_risk":5,"migraine_risk":10,"frizz_risk":1,"updated_at":"2026-07-15T13:47:20.306946+05:30"},{"city":"Chandigarh","state":"Chandigarh","latitude":30.7333,"longitude":76.7794,"temp":34.9,"humidity":50,"rain":0.0,"pressure":963.0,"uv_index":7.7,"wind_gusts":29.9,"aqi":166,"pm10":113.9,"pm2_5":75.7,"no2":2.9,"co":424.0,"o3":230.0,"so2":16.9,"mosquito_risk":0,"arthritis_risk":5,"migraine_risk":7,"frizz_risk":1,"updated_at":"2026-07-15T13:47:20.306953+05:30"},{"city":"Srinagar","state":"Jammu and Kashmir","latitude":34.0837,"longitude":74.7973,"temp":29.4,"humidity":39,"rain":0.0,"pressure":840.4,"uv_index":8.95,"wind_gusts":24.5,"aqi":83,"pm10":34.6,"pm2_5":18.2,"no2":1.2,"co":290.0,"o3":166.0,"so2":3.2,"mosquito_risk":4,"arthritis_risk":5,"migraine_risk":7,"frizz_risk":0,"updated_at":"2026-07-15T13:47:20.306962+05:30"},{"city":"Jammu","state":"Jammu and Kashmir","latitude":32.7266,"longitude":74.857,"temp":31.3,"humidity":57,"rain":0.0,"pressure":967.2,"uv_index":8.55,"wind_gusts":16.6,"aqi":154,"pm10":78.9,"pm2_5":51.9,"no2":1.8,"co":351.0,"o3":204.0,"so2":6.8,"mosquito_risk":0,"arthritis_risk":5,"migraine_risk":7,"frizz_risk":1,"updated_at":"2026-07-15T13:47:20.306968+05:30"},{"city":"Amritsar","state":"Punjab","latitude":31.634,"longitude":74.8723,"temp":34.2,"humidity":52,"rain":0.0,"pressure":975.0,"uv_index":8.35,"wind_gusts":20.5,"aqi":191,"pm10":115.9,"pm2_5":62.4,"no2":2.5,"co":471.0,"o3":181.0,"so2":8.2,"mosquito_risk":0,"arthritis_risk":5,"migraine_risk":7,"frizz_risk":1,"updated_at":"2026-07-15T13:47:20.306974+05:30"},{"city":"Ludhiana","state":"Punjab","latitude":30.901,"longitude":75.8573,"temp":35.8,"humidity":46,"rain":0.0,"pressure":972.7,"uv_index":7.95,"wind_gusts":24.5,"aqi":192,"pm10":148.1,"pm2_5":77.5,"no2":2.1,"co":350.0,"o3":188.0,"so2":7.7,"mosquito_risk":0,"arthritis_risk":5,"migraine_risk":10,"frizz_risk":1,"updated_at":"2026-07-15T13:47:20.306980+05:30"},{"city":"Jalandhar","state":"Punjab","latitude":31.326,"longitude":75.5762,"temp":35.3,"humidity":49,"rain":0.0,"pressure":973.7,"uv_index":8.15,"wind_gusts":18.7,"aqi":200,"pm10":129.9,"pm2_5":77.1,"no2":2.2,"co":476.0,"o3":209.0,"so2":8.4,"mosquito_risk":0,"arthritis_risk":5,"migraine_risk":10,"frizz_risk":1,"updated_at":"2026-07-15T13:47:20.306986+05:30"},{"city":"Dehradun","state":"Uttarakhand","latitude":30.6284,"longitude":78.0322,"temp":23.6,"humidity":73,"rain":0.0,"pressure":829.6,"uv_index":7.5,"wind_gusts":25.2,"aqi":99,"pm10":54.4,"pm2_5":29.7,"no2":1.0,"co":294.0,"o3":153.0,"so2":3.8,"mosquito_risk":3,"arthritis_risk":5,"migraine_risk":7,"frizz_risk":1,"updated_at":"2026-07-15T13:47:20.306992+05:30"},{"city":"Shimla","state":"Himachal Pradesh","latitude":31.1048,"longitude":77.1734,"temp":23.8,"humidity":45,"rain":0.0,"pressure":785.9,"uv_index":8.2,"wind_gusts":39.2,"aqi":106,"pm10":71.0,"pm2_5":40.7,"no2":1.0,"co":209.0,"o3":162.0,"so2":8.2,"mosquito_risk":0,"arthritis_risk":5,"migraine_risk":7,"frizz_risk":0,"updated_at":"2026-07-15T13:47:20.306998+05:30"},{"city":"Manali","state":"Himachal Pradesh","latitude":32.2396,"longitude":77.1887,"temp":26.8,"humidity":60,"rain":0.1,"pressure":819.9,"uv_index":9.55,"wind_gusts":30.2,"aqi":65,"pm10":17.6,"pm2_5":8.5,"no2":0.5,"co":153.0,"o3":155.0,"so2":1.2,"mosquito_risk":7,"arthritis_risk":5,"migraine_risk":7,"frizz_risk":1,"updated_at":"2026-07-15T13:47:20.307006+05:30"},{"city":"Gurgaon","state":"Haryana","latitude":28.4595,"longitude":77.0266,"temp":35.8,"humidity":44,"rain":0.0,"pressure":975.8,"uv_index":7.75,"wind_gusts":29.9,"aqi":191,"pm10":1020.7,"pm2_5":193.2,"no2":6.1,"co":172.0,"o3":138.0,"so2":13.3,"mosquito_risk":0,"arthritis_risk":5,"migraine_risk":10,"frizz_risk":1,"updated_at":"2026-07-15T13:47:20.307012+05:30"},{"city":"Noida","state":"Uttar Pradesh","latitude":28.5355,"longitude":77.391,"temp":36.1,"humidity":45,"rain":0.0,"pressure":978.6,"uv_index":7.7,"wind_gusts":29.9,"aqi":191,"pm10":1020.7,"pm2_5":193.2,"no2":6.1,"co":263.0,"o3":138.0,"so2":13.3,"mosquito_risk":0,"arthritis_risk":5,"migraine_risk":10,"frizz_risk":1,"updated_at":"2026-07-15T13:47:20.307020+05:30"},{"city":"Ghaziabad","state":"Uttar Pradesh","latitude":28.6692,"longitude":77.4538,"temp":35.8,"humidity":47,"rain":0.0,"pressure":976.7,"uv_index":7.7,"wind_gusts":32.0,"aqi":175,"pm10":355.8,"pm2_5":115.9,"no2":7.7,"co":240.0,"o3":200.0,"so2":22.9,"mosquito_risk":0,"arthritis_risk":5,"migraine_risk":10,"frizz_risk":1,"updated_at":"2026-07-15T13:47:20.307027+05:30"},{"city":"Faridabad","state":"Haryana","latitude":28.4089,"longitude":77.3178,"temp":36.1,"humidity":43,"rain":0.0,"pressure":977.9,"uv_index":7.75,"wind_gusts":27.4,"aqi":191,"pm10":1020.7,"pm2_5":193.2,"no2":6.1,"co":212.0,"o3":138.0,"so2":13.3,"mosquito_risk":0,"arthritis_risk":5,"migraine_risk":10,"frizz_risk":1,"updated_at":"2026-07-15T13:47:20.307033+05:30"},{"city":"Meerut","state":"Uttar Pradesh","latitude":28.9845,"longitude":77.7064,"temp":34.7,"humidity":53,"rain":0.0,"pressure":975.6,"uv_index":7.55,"wind_gusts":38.2,"aqi":175,"pm10":355.8,"pm2_5":115.9,"no2":7.7,"co":236.0,"o3":200.0,"so2":22.9,"mosquito_risk":0,"arthritis_risk":5,"migraine_risk":7,"frizz_risk":1,"updated_at":"2026-07-15T13:47:20.307039+05:30"},{"city":"Agra","state":"Uttar Pradesh","latitude":27.1767,"longitude":78.0081,"temp":33.4,"humidity":57,"rain":0.0,"pressure":982.7,"uv_index":7.95,"wind_gusts":32.4,"aqi":151,"pm10":171.8,"pm2_5":56.0,"no2":2.7,"co":147.0,"o3":113.0,"so2":4.7,"mosquito_risk":0,"arthritis_risk":5,"migraine_risk":7,"frizz_risk":1,"updated_at":"2026-07-15T13:47:20.307045+05:30"},{"city":"Varanasi","state":"Uttar Pradesh","latitude":25.3176,"longitude":82.9739,"temp":33.8,"humidity":66,"rain":0.0,"pressure":991.2,"uv_index":8.55,"wind_gusts":29.2,"aqi":176,"pm10":195.1,"pm2_5":81.0,"no2":2.1,"co":215.0,"o3":166.0,"so2":9.4,"mosquito_risk":3,"arthritis_risk":5,"migraine_risk":7,"frizz_risk":1,"updated_at":"2026-07-15T13:47:20.307052+05:30"},{"city":"Prayagraj","state":"Uttar Pradesh","latitude":25.4358,"longitude":81.8463,"temp":34.6,"humidity":60,"rain":0.0,"pressure":990.0,"uv_index":8.6,"wind_gusts":30.2,"aqi":168,"pm10":168.1,"pm2_5":65.0,"no2":1.6,"co":154.0,"o3":150.0,"so2":7.7,"mosquito_risk":0,"arthritis_risk":5,"migraine_risk":7,"frizz_risk":1,"updated_at":"2026-07-15T13:47:20.307059+05:30"},{"city":"Gorakhpur","state":"Uttar Pradesh","latitude":26.7606,"longitude":83.3732,"temp":32.9,"humidity":67,"rain":0.0,"pressure":990.9,"uv_index":8.4,"wind_gusts":28.4,"aqi":161,"pm10":145.8,"pm2_5":55.4,"no2":2.5,"co":263.0,"o3":144.0,"so2":5.2,"mosquito_risk":3,"arthritis_risk":5,"migraine_risk":7,"frizz_risk":1,"updated_at":"2026-07-15T13:47:20.307065+05:30"},{"city":"Bareilly","state":"Uttar Pradesh","latitude":28.367,"longitude":79.4304,"temp":34.3,"humidity":58,"rain":0.0,"pressure":980.6,"uv_index":8.0,"wind_gusts":22.0,"aqi":169,"pm10":247.7,"pm2_5":91.5,"no2":1.5,"co":290.0,"o3":176.0,"so2":10.5,"mosquito_risk":0,"arthritis_risk":5,"migraine_risk":7,"frizz_risk":1,"updated_at":"2026-07-15T13:47:20.307074+05:30"},{"city":"Aligarh","state":"Uttar Pradesh","latitude":27.8974,"longitude":78.088,"temp":33.2,"humidity":63,"rain":0.0,"pressure":980.2,"uv_index":7.75,"wind_gusts":31.0,"aqi":161,"pm10":536.4,"pm2_5":125.3,"no2":3.1,"co":161.0,"o3":153.0,"so2":10.7,"mosquito_risk":3,"arthritis_risk":5,"migraine_risk":7,"frizz_risk":1,"updated_at":"2026-07-15T13:47:20.307080+05:30"},{"city":"Moradabad","state":"Uttar Pradesh","latitude":28.8386,"longitude":78.7733,"temp":34.4,"humidity":56,"rain":0.0,"pressure":977.5,"uv_index":7.8,"wind_gusts":27.4,"aqi":174,"pm10":301.7,"pm2_5":102.2,"no2":2.5,"co":306.0,"o3":187.0,"so2":17.7,"mosquito_risk":0,"arthritis_risk":5,"migraine_risk":7,"frizz_risk":1,"updated_at":"2026-07-15T13:47:20.307086+05:30"},{"city":"Saharanpur","state":"Uttar Pradesh","latitude":29.9637,"longitude":77.546,"temp":33.8,"humidity":55,"rain":0.0,"pressure":969.7,"uv_index":7.35,"wind_gusts":25.2,"aqi":187,"pm10":219.8,"pm2_5":100.8,"no2":2.9,"co":393.0,"o3":217.0,"so2":19.5,"mosquito_risk":0,"arthritis_risk":5,"migraine_risk":7,"frizz_risk":1,"updated_at":"2026-07-15T13:47:20.307092+05:30"},{"city":"Jhansi","state":"Uttar Pradesh","latitude":25.4484,"longitude":78.5685,"temp":34.2,"humidity":53,"rain":0.0,"pressure":973.5,"uv_index":6.45,"wind_gusts":42.5,"aqi":122,"pm10":118.3,"pm2_5":39.2,"no2":1.2,"co":126.0,"o3":100.0,"so2":4.0,"mosquito_risk":0,"arthritis_risk":5,"migraine_risk":7,"frizz_risk":1,"updated_at":"2026-07-15T13:47:23.706864+05:30"},{"city":"Surat","state":"Gujarat","latitude":21.1702,"longitude":72.8311,"temp":30.9,"humidity":68,"rain":0.0,"pressure":1003.9,"uv_index":7.75,"wind_gusts":47.2,"aqi":72,"pm10":40.9,"pm2_5":22.1,"no2":12.0,"co":190.0,"o3":47.0,"so2":39.5,"mosquito_risk":3,"arthritis_risk":5,"migraine_risk":4,"frizz_risk":1,"updated_at":"2026-07-15T13:47:23.706895+05:30"},{"city":"Vadodara","state":"Gujarat","latitude":22.3072,"longitude":73.1812,"temp":34.3,"humidity":50,"rain":0.0,"pressure":1000.5,"uv_index":7.0,"wind_gusts":42.1,"aqi":65,"pm10":52.4,"pm2_5":20.4,"no2":2.1,"co":142.0,"o3":81.0,"so2":4.2,"mosquito_risk":0,"arthritis_risk":5,"migraine_risk":4,"frizz_risk":1,"updated_at":"2026-07-15T13:47:23.706905+05:30"},{"city":"Rajkot","state":"Gujarat","latitude":22.3039,"longitude":70.8022,"temp":35.0,"humidity":47,"rain":0.0,"pressure":989.9,"uv_index":5.7,"wind_gusts":43.2,"aqi":55,"pm10":40.4,"pm2_5":17.1,"no2":1.0,"co":103.0,"o3":78.0,"so2":3.6,"mosquito_risk":0,"arthritis_risk":5,"migraine_risk":3,"frizz_risk":1,"updated_at":"2026-07-15T13:47:23.706913+05:30"},{"city":"Thane","state":"Maharashtra","latitude":19.2183,"longitude":72.9781,"temp":29.0,"humidity":74,"rain":0.0,"pressure":1006.8,"uv_index":6.9,"wind_gusts":36.4,"aqi":70,"pm10":44.7,"pm2_5":22.3,"no2":5.6,"co":183.0,"o3":88.0,"so2":10.1,"mosquito_risk":7,"arthritis_risk":5,"migraine_risk":4,"frizz_risk":1,"updated_at":"2026-07-15T13:47:23.706921+05:30"},{"city":"Nagpur","state":"Maharashtra","latitude":21.1458,"longitude":79.0882,"temp":34.3,"humidity":45,"rain":0.0,"pressure":969.8,"uv_index":7.5,"wind_gusts":40.0,"aqi":92,"pm10":55.2,"pm2_5":26.6,"no2":5.1,"co":138.0,"o3":106.0,"so2":19.1,"mosquito_risk":0,"arthritis_risk":5,"migraine_risk":7,"frizz_risk":1,"updated_at":"2026-07-15T13:47:23.706928+05:30"},{"city":"Nashik","state":"Maharashtra","latitude":19.9975,"longitude":73.7898,"temp":26.8,"humidity":72,"rain":0.2,"pressure":943.8,"uv_index":7.6,"wind_gusts":44.6,"aqi":55,"pm10":33.8,"pm2_5":13.1,"no2":1.9,"co":144.0,"o3":76.0,"so2":3.4,"mosquito_risk":10,"arthritis_risk":5,"migraine_risk":7,"frizz_risk":1,"updated_at":"2026-07-15T13:47:23.706936+05:30"},{"city":"Aurangabad","state":"Maharashtra","latitude":19.8762,"longitude":75.3433,"temp":30.6,"humidity":54,"rain":0.0,"pressure":942.4,"uv_index":8.85,"wind_gusts":44.3,"aqi":59,"pm10":36.9,"pm2_5":14.0,"no2":1.3,"co":111.0,"o3":78.0,"so2":3.8,"mosquito_risk":0,"arthritis_risk":5,"migraine_risk":7,"frizz_risk":1,"updated_at":"2026-07-15T13:47:23.706944+05:30"},{"city":"Solapur","state":"Maharashtra","latitude":17.6599,"longitude":75.9064,"temp":31.7,"humidity":50,"rain":0.2,"pressure":956.0,"uv_index":8.85,"wind_gusts":63.0,"aqi":62,"pm10":31.5,"pm2_5":12.0,"no2":1.0,"co":106.0,"o3":75.0,"so2":1.5,"mosquito_risk":3,"arthritis_risk":5,"migraine_risk":7,"frizz_risk":1,"updated_at":"2026-07-15T13:47:23.706951+05:30"},{"city":"Kolhapur","state":"Maharashtra","latitude":16.705,"longitude":74.2433,"temp":25.3,"humidity":77,"rain":0.0,"pressure":947.8,"uv_index":8.3,"wind_gusts":45.0,"aqi":56,"pm10":20.1,"pm2_5":9.6,"no2":1.6,"co":119.0,"o3":65.0,"so2":1.6,"mosquito_risk":7,"arthritis_risk":5,"migraine_risk":7,"frizz_risk":1,"updated_at":"2026-07-15T13:47:23.706958+05:30"},{"city":"Goa","state":"Goa","latitude":15.2993,"longitude":74.124,"temp":29.4,"humidity":71,"rain":0.1,"pressure":998.7,"uv_index":7.8,"wind_gusts":32.8,"aqi":77,"pm10":43.0,"pm2_5":19.4,"no2":0.5,"co":114.0,"o3":60.0,"so2":1.1,"mosquito_risk":10,"arthritis_risk":5,"migraine_risk":7,"frizz_risk":1,"updated_at":"2026-07-15T13:47:23.706970+05:30"},{"city":"Jodhpur","state":"Rajasthan","latitude":26.2389,"longitude":73.0243,"temp":35.9,"humidity":40,"rain":0.0,"pressure":978.5,"uv_index":8.35,"wind_gusts":39.2,"aqi":166,"pm10":151.8,"pm2_5":36.3,"no2":0.8,"co":108.0,"o3":78.0,"so2":1.9,"mosquito_risk":0,"arthritis_risk":5,"migraine_risk":10,"frizz_risk":1,"updated_at":"2026-07-15T13:47:23.706983+05:30"},{"city":"Udaipur","state":"Rajasthan","latitude":24.5854,"longitude":73.7125,"temp":31.1,"humidity":52,"rain":0.0,"pressure":943.5,"uv_index":8.05,"wind_gusts":37.1,"aqi":71,"pm10":41.8,"pm2_5":13.8,"no2":0.8,"co":105.0,"o3":74.0,"so2":2.4,"mosquito_risk":0,"arthritis_risk":5,"migraine_risk":7,"frizz_risk":1,"updated_at":"2026-07-15T13:47:23.706996+05:30"},{"city":"Kota","state":"Rajasthan","latitude":25.2138,"longitude":75.8648,"temp":34.2,"humidity":47,"rain":0.0,"pressure":974.9,"uv_index":8.3,"wind_gusts":34.9,"aqi":93,"pm10":134.6,"pm2_5":38.9,"no2":1.2,"co":122.0,"o3":96.0,"so2":4.9,"mosquito_risk":0,"arthritis_risk":5,"migraine_risk":7,"frizz_risk":1,"updated_at":"2026-07-15T13:47:23.707004+05:30"},{"city":"Bikaner","state":"Rajasthan","latitude":28.0229,"longitude":73.3119,"temp":38.3,"humidity":33,"rain":0.0,"pressure":976.2,"uv_index":8.4,"wind_gusts":36.7,"aqi":164,"pm10":234.2,"pm2_5":62.6,"no2":0.4,"co":103.0,"o3":74.0,"so2":2.1,"mosquito_risk":0,"arthritis_risk":5,"migraine_risk":10,"frizz_risk":1,"updated_at":"2026-07-15T13:47:23.707012+05:30"},{"city":"Ajmer","state":"Rajasthan","latitude":26.4499,"longitude":74.6399,"temp":32.2,"humidity":49,"rain":0.0,"pressure":951.3,"uv_index":8.35,"wind_gusts":46.1,"aqi":98,"pm10":154.6,"pm2_5":39.6,"no2":1.1,"co":113.0,"o3":82.0,"so2":2.6,"mosquito_risk":0,"arthritis_risk":5,"migraine_risk":7,"frizz_risk":1,"updated_at":"2026-07-15T13:47:23.707019+05:30"},{"city":"Gwalior","state":"Madhya Pradesh","latitude":26.2183,"longitude":78.1828,"temp":33.3,"humidity":56,"rain":0.0,"pressure":978.7,"uv_index":7.6,"wind_gusts":40.0,"aqi":134,"pm10":132.7,"pm2_5":41.2,"no2":1.6,"co":144.0,"o3":87.0,"so2":2.3,"mosquito_risk":0,"arthritis_risk":5,"migraine_risk":7,"frizz_risk":1,"updated_at":"2026-07-15T13:47:23.707026+05:30"},{"city":"Indore","state":"Madhya Pradesh","latitude":22.7196,"longitude":75.8577,"temp":31.7,"humidity":52,"rain":0.0,"pressure":945.7,"uv_index":8.6,"wind_gusts":38.2,"aqi":69,"pm10":36.4,"pm2_5":15.7,"no2":1.4,"co":168.0,"o3":89.0,"so2":3.6,"mosquito_risk":0,"arthritis_risk":5,"migraine_risk":7,"frizz_risk":1,"updated_at":"2026-07-15T13:47:23.707032+05:30"},{"city":"Bhopal","state":"Madhya Pradesh","latitude":23.2599,"longitude":77.4126,"temp":31.8,"humidity":57,"rain":0.0,"pressure":950.9,"uv_index":6.7,"wind_gusts":43.6,"aqi":82,"pm10":60.8,"pm2_5":23.2,"no2":1.0,"co":162.0,"o3":94.0,"so2":4.0,"mosquito_risk":0,"arthritis_risk":5,"migraine_risk":7,"frizz_risk":1,"updated_at":"2026-07-15T13:47:23.707039+05:30"},{"city":"Jabalpur","state":"Madhya Pradesh","latitude":23.1815,"longitude":79.9864,"temp":31.3,"humidity":59,"rain":0.0,"pressure":957.4,"uv_index":8.7,"wind_gusts":33.1,"aqi":105,"pm10":91.0,"pm2_5":36.8,"no2":1.2,"co":157.0,"o3":105.0,"so2":4.2,"mosquito_risk":0,"arthritis_risk":5,"migraine_risk":7,"frizz_risk":1,"updated_at":"2026-07-15T13:47:23.707046+05:30"},{"city":"Ujjain","state":"Madhya Pradesh","latitude":23.1765,"longitude":75.7885,"temp":31.1,"humidity":57,"rain":0.0,"pressure":951.2,"uv_index":8.5,"wind_gusts":36.7,"aqi":69,"pm10":37.1,"pm2_5":15.3,"no2":1.0,"co":136.0,"o3":82.0,"so2":3.4,"mosquito_risk":0,"arthritis_risk":5,"migraine_risk":7,"frizz_risk":1,"updated_at":"2026-07-15T13:47:23.707053+05:30"},{"city":"Visakhapatnam","state":"Andhra Pradesh","latitude":17.6868,"longitude":83.2185,"temp":36.6,"humidity":41,"rain":0.0,"pressure":997.1,"uv_index":8.5,"wind_gusts":36.7,"aqi":135,"pm10":85.9,"pm2_5":52.7,"no2":18.7,"co":344.0,"o3":129.0,"so2":50.5,"mosquito_risk":0,"arthritis_risk":5,"migraine_risk":10,"frizz_risk":1,"updated_at":"2026-07-15T13:47:23.707061+05:30"},{"city":"Vijayawada","state":"Andhra Pradesh","latitude":16.5062,"longitude":80.648,"temp":37.0,"humidity":35,"rain":0.0,"pressure":998.6,"uv_index":8.95,"wind_gusts":47.5,"aqi":95,"pm10":33.5,"pm2_5":23.6,"no2":1.3,"co":165.0,"o3":132.0,"so2":5.8,"mosquito_risk":0,"arthritis_risk":5,"migraine_risk":10,"frizz_risk":1,"updated_at":"2026-07-15T13:47:23.707067+05:30"},{"city":"Guntur","state":"Andhra Pradesh","latitude":16.3067,"longitude":80.4365,"temp":37.3,"humidity":32,"rain":0.0,"pressure":999.9,"uv_index":8.8,"wind_gusts":49.0,"aqi":90,"pm10":32.0,"pm2_5":21.1,"no2":1.1,"co":142.0,"o3":123.0,"so2":4.6,"mosquito_risk":0,"arthritis_risk":5,"migraine_risk":10,"frizz_risk":1,"updated_at":"2026-07-15T13:47:23.707074+05:30"},{"city":"Nellore","state":"Andhra Pradesh","latitude":14.4426,"longitude":79.9865,"temp":38.0,"humidity":31,"rain":0.0,"pressure":1002.3,"uv_index":8.8,"wind_gusts":51.1,"aqi":85,"pm10":31.5,"pm2_5":17.2,"no2":2.8,"co":120.0,"o3":106.0,"so2":5.9,"mosquito_risk":0,"arthritis_risk":5,"migraine_risk":7,"frizz_risk":1,"updated_at":"2026-07-15T13:47:23.707082+05:30"},{"city":"Kurnool","state":"Andhra Pradesh","latitude":15.8281,"longitude":78.0373,"temp":36.4,"humidity":30,"rain":0.0,"pressure":975.2,"uv_index":8.95,"wind_gusts":62.6,"aqi":64,"pm10":53.0,"pm2_5":21.7,"no2":1.4,"co":122.0,"o3":96.0,"so2":6.0,"mosquito_risk":0,"arthritis_risk":5,"migraine_risk":10,"frizz_risk":0,"updated_at":"2026-07-15T13:47:23.707090+05:30"},{"city":"Kakinada","state":"Andhra Pradesh","latitude":16.9891,"longitude":82.2475,"temp":36.3,"humidity":42,"rain":0.0,"pressure":1001.9,"uv_index":6.15,"wind_gusts":52.6,"aqi":98,"pm10":49.7,"pm2_5":33.2,"no2":2.1,"co":176.0,"o3":148.0,"so2":7.0,"mosquito_risk":0,"arthritis_risk":5,"migraine_risk":7,"frizz_risk":1,"updated_at":"2026-07-15T13:47:23.707098+05:30"},{"city":"Tirupati","state":"Andhra Pradesh","latitude":13.6288,"longitude":79.4192,"temp":37.7,"humidity":26,"rain":0.0,"pressure":988.4,"uv_index":8.9,"wind_gusts":40.0,"aqi":86,"pm10":31.8,"pm2_5":15.0,"no2":0.3,"co":111.0,"o3":92.0,"so2":1.7,"mosquito_risk":0,"arthritis_risk":5,"migraine_risk":10,"frizz_risk":0,"updated_at":"2026-07-15T13:47:23.707105+05:30"},{"city":"Warangal","state":"Telangana","latitude":17.9689,"longitude":79.5941,"temp":33.2,"humidity":42,"rain":0.0,"pressure":976.2,"uv_index":8.85,"wind_gusts":45.4,"aqi":91,"pm10":42.7,"pm2_5":22.5,"no2":1.2,"co":136.0,"o3":106.0,"so2":4.3,"mosquito_risk":0,"arthritis_risk":5,"migraine_risk":7,"frizz_risk":1,"updated_at":"2026-07-15T13:47:23.707112+05:30"},{"city":"Nizamabad","state":"Telangana","latitude":18.6725,"longitude":78.0941,"temp":31.7,"humidity":49,"rain":0.0,"pressure":963.0,"uv_index":8.85,"wind_gusts":40.0,"aqi":84,"pm10":36.4,"pm2_5":16.9,"no2":0.9,"co":119.0,"o3":90.0,"so2":3.6,"mosquito_risk":0,"arthritis_risk":5,"migraine_risk":7,"frizz_risk":1,"updated_at":"2026-07-15T13:47:23.707119+05:30"},{"city":"Mysore","state":"Karnataka","latitude":12.2958,"longitude":76.6396,"temp":31.1,"humidity":41,"rain":0.0,"pressure":928.8,"uv_index":9.05,"wind_gusts":41.0,"aqi":60,"pm10":19.8,"pm2_5":12.1,"no2":1.5,"co":133.0,"o3":92.0,"so2":1.6,"mosquito_risk":0,"arthritis_risk":5,"migraine_risk":7,"frizz_risk":1,"updated_at":"2026-07-15T13:47:23.707126+05:30"},{"city":"Mangalore","state":"Karnataka","latitude":12.9141,"longitude":74.856,"temp":29.6,"humidity":70,"rain":0.0,"pressure":1007.8,"uv_index":8.7,"wind_gusts":36.4,"aqi":68,"pm10":34.2,"pm2_5":16.7,"no2":1.1,"co":100.0,"o3":68.0,"so2":1.9,"mosquito_risk":7,"arthritis_risk":5,"migraine_risk":4,"frizz_risk":1,"updated_at":"2026-07-15T13:47:23.707133+05:30"},{"city":"Hubli-Dharwad","state":"Karnataka","latitude":15.3647,"longitude":75.124,"temp":29.3,"humidity":55,"rain":0.0,"pressure":941.0,"uv_index":7.55,"wind_gusts":49.0,"aqi":55,"pm10":21.4,"pm2_5":10.6,"no2":1.0,"co":109.0,"o3":69.0,"so2":0.9,"mosquito_risk":4,"arthritis_risk":5,"migraine_risk":7,"frizz_risk":1,"updated_at":"2026-07-15T13:47:23.707139+05:30"},{"city":"Belgaum","state":"Karnataka","latitude":15.8497,"longitude":74.4977,"temp":25.8,"humidity":71,"rain":0.0,"pressure":925.9,"uv_index":8.4,"wind_gusts":49.0,"aqi":54,"pm10":25.0,"pm2_5":11.8,"no2":1.1,"co":109.0,"o3":64.0,"so2":1.7,"mosquito_risk":7,"arthritis_risk":5,"migraine_risk":7,"frizz_risk":1,"updated_at":"2026-07-15T13:47:27.080532+05:30"},{"city":"Coimbatore","state":"Tamil Nadu","latitude":11.0168,"longitude":76.9558,"temp":33.6,"humidity":40,"rain":0.0,"pressure":961.4,"uv_index":8.25,"wind_gusts":49.7,"aqi":60,"pm10":26.7,"pm2_5":13.2,"no2":1.2,"co":141.0,"o3":85.0,"so2":1.9,"mosquito_risk":0,"arthritis_risk":5,"migraine_risk":7,"frizz_risk":1,"updated_at":"2026-07-15T13:47:27.080564+05:30"},{"city":"Madurai","state":"Tamil Nadu","latitude":9.9252,"longitude":78.1198,"temp":39.5,"humidity":23,"rain":0.0,"pressure":990.6,"uv_index":8.05,"wind_gusts":32.4,"aqi":83,"pm10":49.5,"pm2_5":23.8,"no2":1.9,"co":121.0,"o3":136.0,"so2":3.7,"mosquito_risk":0,"arthritis_risk":5,"migraine_risk":10,"frizz_risk":0,"updated_at":"2026-07-15T13:47:27.080576+05:30"},{"city":"Trichy","state":"Tamil Nadu","latitude":10.7905,"longitude":78.7047,"temp":38.7,"humidity":28,"rain":0.0,"pressure":996.9,"uv_index":8.5,"wind_gusts":47.2,"aqi":70,"pm10":35.9,"pm2_5":17.5,"no2":1.4,"co":130.0,"o3":102.0,"so2":2.1,"mosquito_risk":0,"arthritis_risk":5,"migraine_risk":10,"frizz_risk":1,"updated_at":"2026-07-15T13:47:27.080585+05:30"},{"city":"Salem","state":"Tamil Nadu","latitude":11.6643,"longitude":78.146,"temp":34.6,"humidity":42,"rain":0.0,"pressure":975.8,"uv_index":8.8,"wind_gusts":20.9,"aqi":76,"pm10":44.9,"pm2_5":20.8,"no2":2.6,"co":118.0,"o3":120.0,"so2":7.1,"mosquito_risk":0,"arthritis_risk":5,"migraine_risk":7,"frizz_risk":1,"updated_at":"2026-07-15T13:47:27.080593+05:30"},{"city":"Tirunelveli","state":"Tamil Nadu","latitude":8.7139,"longitude":77.7567,"temp":39.1,"humidity":24,"rain":0.0,"pressure":1001.0,"uv_index":7.95,"wind_gusts":44.3,"aqi":55,"pm10":15.7,"pm2_5":8.8,"no2":1.1,"co":122.0,"o3":85.0,"so2":1.4,"mosquito_risk":0,"arthritis_risk":5,"migraine_risk":7,"frizz_risk":0,"updated_at":"2026-07-15T13:47:27.080601+05:30"},{"city":"Vellore","state":"Tamil Nadu","latitude":12.9165,"longitude":79.1325,"temp":38.1,"humidity":24,"rain":0.0,"pressure":981.7,"uv_index":8.95,"wind_gusts":43.2,"aqi":94,"pm10":47.8,"pm2_5":20.5,"no2":1.2,"co":127.0,"o3":111.0,"so2":2.2,"mosquito_risk":0,"arthritis_risk":5,"migraine_risk":10,"frizz_risk":0,"updated_at":"2026-07-15T13:47:27.080608+05:30"},{"city":"Erode","state":"Tamil Nadu","latitude":11.341,"longitude":77.7172,"temp":38.6,"humidity":23,"rain":0.0,"pressure":987.0,"uv_index":8.4,"wind_gusts":45.0,"aqi":65,"pm10":38.3,"pm2_5":17.2,"no2":1.9,"co":152.0,"o3":102.0,"so2":2.1,"mosquito_risk":0,"arthritis_risk":5,"migraine_risk":10,"frizz_risk":0,"updated_at":"2026-07-15T13:47:27.080616+05:30"},{"city":"Kochi","state":"Kerala","latitude":9.9312,"longitude":76.2673,"temp":29.4,"humidity":73,"rain":0.0,"pressure":1009.7,"uv_index":8.35,"wind_gusts":38.5,"aqi":64,"pm10":24.4,"pm2_5":14.7,"no2":1.9,"co":108.0,"o3":78.0,"so2":2.6,"mosquito_risk":7,"arthritis_risk":0,"migraine_risk":4,"frizz_risk":1,"updated_at":"2026-07-15T13:47:27.080624+05:30"},{"city":"Thiruvananthapuram","state":"Kerala","latitude":8.5241,"longitude":76.9366,"temp":28.9,"humidity":75,"rain":0.0,"pressure":1008.7,"uv_index":8.05,"wind_gusts":47.5,"aqi":59,"pm10":25.6,"pm2_5":14.8,"no2":1.8,"co":100.0,"o3":75.0,"so2":1.3,"mosquito_risk":7,"arthritis_risk":0,"migraine_risk":4,"frizz_risk":1,"updated_at":"2026-07-15T13:47:27.080632+05:30"},{"city":"Kozhikode","state":"Kerala","latitude":11.2588,"longitude":75.7804,"temp":29.0,"humidity":76,"rain":0.0,"pressure":1009.0,"uv_index":8.15,"wind_gusts":38.9,"aqi":61,"pm10":28.9,"pm2_5":15.8,"no2":0.6,"co":110.0,"o3":77.0,"so2":1.8,"mosquito_risk":7,"arthritis_risk":0,"migraine_risk":4,"frizz_risk":1,"updated_at":"2026-07-15T13:47:27.080639+05:30"},{"city":"Thrissur","state":"Kerala","latitude":10.5276,"longitude":76.2144,"temp":30.2,"humidity":68,"rain":0.0,"pressure":1008.0,"uv_index":8.65,"wind_gusts":37.8,"aqi":62,"pm10":23.9,"pm2_5":14.6,"no2":1.3,"co":106.0,"o3":76.0,"so2":2.1,"mosquito_risk":3,"arthritis_risk":0,"migraine_risk":4,"frizz_risk":1,"updated_at":"2026-07-15T13:47:27.080647+05:30"},{"city":"Kannur","state":"Kerala","latitude":11.8745,"longitude":75.3704,"temp":30.4,"humidity":66,"rain":0.0,"pressure":1008.3,"uv_index":7.85,"wind_gusts":39.6,"aqi":64,"pm10":26.7,"pm2_5":14.4,"no2":0.9,"co":101.0,"o3":69.0,"so2":1.5,"mosquito_risk":3,"arthritis_risk":0,"migraine_risk":4,"frizz_risk":1,"updated_at":"2026-07-15T13:47:27.080654+05:30"},{"city":"Patna","state":"Bihar","latitude":25.5941,"longitude":85.1376,"temp":34.0,"humidity":65,"rain":0.1,"pressure":993.1,"uv_index":8.25,"wind_gusts":34.2,"aqi":159,"pm10":70.1,"pm2_5":35.2,"no2":4.6,"co":313.0,"o3":158.0,"so2":10.7,"mosquito_risk":6,"arthritis_risk":5,"migraine_risk":7,"frizz_risk":1,"updated_at":"2026-07-15T13:47:27.080662+05:30"},{"city":"Gaya","state":"Bihar","latitude":24.7914,"longitude":85.0002,"temp":33.8,"humidity":65,"rain":0.0,"pressure":986.7,"uv_index":8.45,"wind_gusts":26.6,"aqi":161,"pm10":126.2,"pm2_5":55.3,"no2":2.0,"co":317.0,"o3":147.0,"so2":6.6,"mosquito_risk":3,"arthritis_risk":5,"migraine_risk":7,"frizz_risk":1,"updated_at":"2026-07-15T13:47:27.080669+05:30"},{"city":"Muzaffarpur","state":"Bihar","latitude":26.1209,"longitude":85.3647,"temp":33.8,"humidity":65,"rain":0.0,"pressure":993.1,"uv_index":7.35,"wind_gusts":20.5,"aqi":154,"pm10":36.1,"pm2_5":22.9,"no2":4.3,"co":379.0,"o3":157.0,"so2":9.9,"mosquito_risk":3,"arthritis_risk":5,"migraine_risk":7,"frizz_risk":1,"updated_at":"2026-07-15T13:47:27.080676+05:30"},{"city":"Bhagalpur","state":"Bihar","latitude":25.2425,"longitude":87.0117,"temp":34.8,"humidity":59,"rain":0.0,"pressure":993.4,"uv_index":7.95,"wind_gusts":29.9,"aqi":92,"pm10":32.2,"pm2_5":27.5,"no2":4.7,"co":276.0,"o3":159.0,"so2":21.9,"mosquito_risk":0,"arthritis_risk":5,"migraine_risk":7,"frizz_risk":1,"updated_at":"2026-07-15T13:47:27.080683+05:30"},{"city":"Ranchi","state":"Jharkhand","latitude":23.3441,"longitude":85.3096,"temp":26.3,"humidity":82,"rain":0.2,"pressure":931.8,"uv_index":8.5,"wind_gusts":33.8,"aqi":159,"pm10":149.9,"pm2_5":61.2,"no2":1.9,"co":215.0,"o3":150.0,"so2":12.4,"mosquito_risk":10,"arthritis_risk":5,"migraine_risk":7,"frizz_risk":1,"updated_at":"2026-07-15T13:47:27.080691+05:30"},{"city":"Jamshedpur","state":"Jharkhand","latitude":22.8046,"longitude":86.2029,"temp":28.9,"humidity":85,"rain":0.1,"pressure":983.3,"uv_index":7.75,"wind_gusts":32.0,"aqi":172,"pm10":62.2,"pm2_5":49.1,"no2":19.7,"co":505.0,"o3":159.0,"so2":42.7,"mosquito_risk":10,"arthritis_risk":5,"migraine_risk":7,"frizz_risk":1,"updated_at":"2026-07-15T13:47:27.080699+05:30"},{"city":"Dhanbad","state":"Jharkhand","latitude":23.7957,"longitude":86.4304,"temp":32.2,"humidity":70,"rain":0.0,"pressure":972.6,"uv_index":8.6,"wind_gusts":29.9,"aqi":191,"pm10":69.2,"pm2_5":52.5,"no2":18.9,"co":248.0,"o3":172.0,"so2":49.1,"mosquito_risk":3,"arthritis_risk":5,"migraine_risk":7,"frizz_risk":1,"updated_at":"2026-07-15T13:47:27.080706+05:30"},{"city":"Bokaro","state":"Jharkhand","latitude":23.6693,"longitude":86.1511,"temp":31.6,"humidity":75,"rain":0.1,"pressure":976.4,"uv_index":8.35,"wind_gusts":29.2,"aqi":192,"pm10":111.1,"pm2_5":57.3,"no2":20.2,"co":256.0,"o3":149.0,"so2":54.0,"mosquito_risk":6,"arthritis_risk":5,"migraine_risk":7,"frizz_risk":1,"updated_at":"2026-07-15T13:47:27.080714+05:30"},{"city":"Bhubaneswar","state":"Odisha","latitude":20.2961,"longitude":85.8245,"temp":31.2,"humidity":73,"rain":0.0,"pressure":993.9,"uv_index":4.95,"wind_gusts":40.0,"aqi":140,"pm10":79.2,"pm2_5":44.6,"no2":9.0,"co":257.0,"o3":100.0,"so2":13.6,"mosquito_risk":3,"arthritis_risk":5,"migraine_risk":3,"frizz_risk":1,"updated_at":"2026-07-15T13:47:27.080721+05:30"},{"city":"Cuttack","state":"Odisha","latitude":20.4625,"longitude":85.8828,"temp":30.5,"humidity":75,"rain":0.1,"pressure":995.5,"uv_index":5.55,"wind_gusts":36.4,"aqi":140,"pm10":79.2,"pm2_5":44.6,"no2":9.0,"co":234.0,"o3":100.0,"so2":13.6,"mosquito_risk":6,"arthritis_risk":5,"migraine_risk":3,"frizz_risk":1,"updated_at":"2026-07-15T13:47:27.080728+05:30"},{"city":"Rourkela","state":"Odisha","latitude":22.2604,"longitude":84.8536,"temp":32.6,"humidity":66,"rain":0.2,"pressure":977.7,"uv_index":7.8,"wind_gusts":33.5,"aqi":155,"pm10":136.4,"pm2_5":58.8,"no2":2.5,"co":214.0,"o3":150.0,"so2":10.5,"mosquito_risk":6,"arthritis_risk":5,"migraine_risk":7,"frizz_risk":1,"updated_at":"2026-07-15T13:47:27.080735+05:30"},{"city":"Raipur","state":"Chhattisgarh","latitude":21.2514,"longitude":81.6296,"temp":33.6,"humidity":51,"rain":0.0,"pressure":969.9,"uv_index":8.0,"wind_gusts":32.8,"aqi":143,"pm10":103.1,"pm2_5":50.8,"no2":7.8,"co":144.0,"o3":126.0,"so2":32.0,"mosquito_risk":0,"arthritis_risk":5,"migraine_risk":7,"frizz_risk":1,"updated_at":"2026-07-15T13:47:27.080743+05:30"},{"city":"Bhilai","state":"Chhattisgarh","latitude":21.1938,"longitude":81.3509,"temp":33.0,"humidity":52,"rain":0.0,"pressure":970.4,"uv_index":8.35,"wind_gusts":32.4,"aqi":124,"pm10":99.7,"pm2_5":45.3,"no2":7.2,"co":287.0,"o3":117.0,"so2":25.9,"mosquito_risk":0,"arthritis_risk":5,"migraine_risk":7,"frizz_risk":1,"updated_at":"2026-07-15T13:47:27.080750+05:30"},{"city":"Guwahati","state":"Assam","latitude":26.1158,"longitude":91.7086,"temp":28.5,"humidity":91,"rain":0.4,"pressure":993.9,"uv_index":7.85,"wind_gusts":24.5,"aqi":47,"pm10":6.6,"pm2_5":6.4,"no2":1.9,"co":225.0,"o3":95.0,"so2":1.3,"mosquito_risk":10,"arthritis_risk":5,"migraine_risk":7,"frizz_risk":1,"updated_at":"2026-07-15T13:47:27.080758+05:30"},{"city":"Agartala","state":"Tripura","latitude":23.8315,"longitude":91.2868,"temp":27.7,"humidity":98,"rain":0.2,"pressure":998.8,"uv_index":8.4,"wind_gusts":34.6,"aqi":75,"pm10":11.9,"pm2_5":10.9,"no2":3.4,"co":150.0,"o3":147.0,"so2":1.3,"mosquito_risk":10,"arthritis_risk":5,"migraine_risk":7,"frizz_risk":1,"updated_at":"2026-07-15T13:47:27.080765+05:30"},{"city":"Shillong","state":"Meghalaya","latitude":25.5788,"longitude":91.8933,"temp":24.3,"humidity":82,"rain":0.1,"pressure":853.7,"uv_index":7.1,"wind_gusts":27.4,"aqi":39,"pm10":5.6,"pm2_5":5.0,"no2":2.6,"co":185.0,"o3":77.0,"so2":1.5,"mosquito_risk":6,"arthritis_risk":5,"migraine_risk":7,"frizz_risk":1,"updated_at":"2026-07-15T13:47:27.080773+05:30"},{"city":"Imphal","state":"Manipur","latitude":24.817,"longitude":93.9368,"temp":30.3,"humidity":65,"rain":0.1,"pressure":917.8,"uv_index":8.15,"wind_gusts":28.8,"aqi":57,"pm10":4.6,"pm2_5":3.8,"no2":0.8,"co":151.0,"o3":79.0,"so2":1.0,"mosquito_risk":6,"arthritis_risk":5,"migraine_risk":7,"frizz_risk":1,"updated_at":"2026-07-15T13:47:27.080780+05:30"},{"city":"Aizawl","state":"Mizoram","latitude":23.7271,"longitude":92.7176,"temp":24.4,"humidity":84,"rain":0.1,"pressure":886.9,"uv_index":9.0,"wind_gusts":38.5,"aqi":41,"pm10":6.6,"pm2_5":5.8,"no2":1.0,"co":131.0,"o3":75.0,"so2":0.5,"mosquito_risk":6,"arthritis_risk":5,"migraine_risk":7,"frizz_risk":1,"updated_at":"2026-07-15T13:47:27.080787+05:30"},{"city":"Kohima","state":"Nagaland","latitude":25.6701,"longitude":94.1077,"temp":25.4,"humidity":81,"rain":0.1,"pressure":851.8,"uv_index":7.25,"wind_gusts":26.6,"aqi":51,"pm10":5.3,"pm2_5":4.6,"no2":0.9,"co":156.0,"o3":83.0,"so2":0.7,"mosquito_risk":10,"arthritis_risk":5,"migraine_risk":7,"frizz_risk":1,"updated_at":"2026-07-15T13:47:27.080795+05:30"},{"city":"Gangtok","state":"Sikkim","latitude":27.3314,"longitude":88.6138,"temp":23.5,"humidity":71,"rain":0.1,"pressure":835.9,"uv_index":7.8,"wind_gusts":32.0,"aqi":49,"pm10":5.1,"pm2_5":4.7,"no2":1.2,"co":224.0,"o3":113.0,"so2":0.9,"mosquito_risk":6,"arthritis_risk":5,"migraine_risk":7,"frizz_risk":1,"updated_at":"2026-07-15T13:47:27.080802+05:30"},{"city":"Siliguri","state":"West Bengal","latitude":26.7271,"longitude":88.3953,"temp":31.8,"humidity":79,"rain":0.1,"pressure":985.6,"uv_index":6.95,"wind_gusts":22.0,"aqi":72,"pm10":15.0,"pm2_5":13.9,"no2":1.6,"co":355.0,"o3":134.0,"so2":2.1,"mosquito_risk":6,"arthritis_risk":5,"migraine_risk":7,"frizz_risk":1,"updated_at":"2026-07-15T13:47:30.463860+05:30"},{"city":"Durgapur","state":"West Bengal","latitude":23.5204,"longitude":87.3119,"temp":32.7,"humidity":66,"rain":0.2,"pressure":986.9,"uv_index":9.0,"wind_gusts":31.0,"aqi":155,"pm10":29.3,"pm2_5":27.4,"no2":8.5,"co":247.0,"o3":154.0,"so2":32.0,"mosquito_risk":6,"arthritis_risk":5,"migraine_risk":7,"frizz_risk":1,"updated_at":"2026-07-15T13:47:30.463894+05:30"},{"city":"Asansol","state":"West Bengal","latitude":23.6739,"longitude":86.9524,"temp":33.4,"humidity":67,"rain":0.0,"pressure":985.5,"uv_index":8.15,"wind_gusts":28.4,"aqi":156,"pm10":44.4,"pm2_5":38.1,"no2":8.1,"co":267.0,"o3":173.0,"so2":32.1,"mosquito_risk":3,"arthritis_risk":5,"migraine_risk":7,"frizz_risk":1,"updated_at":"2026-07-15T13:47:30.463908+05:30"},{"city":"Pondicherry","state":"Puducherry","latitude":11.9139,"longitude":79.8145,"temp":37.9,"humidity":35,"rain":0.0,"pressure":1005.2,"uv_index":7.9,"wind_gusts":51.1,"aqi":78,"pm10":44.9,"pm2_5":30.2,"no2":3.6,"co":163.0,"o3":169.0,"so2":8.9,"mosquito_risk":0,"arthritis_risk":5,"migraine_risk":7,"frizz_risk":1,"updated_at":"2026-07-15T13:47:30.463920+05:30"},{"city":"Port Blair","state":"Andaman and Nicobar Islands","latitude":11.6234,"longitude":92.7265,"temp":26.5,"humidity":94,"rain":0.3,"pressure":1005.9,"uv_index":8.4,"wind_gusts":55.8,"aqi":43,"pm10":27.5,"pm2_5":10.8,"no2":0.3,"co":91.0,"o3":49.0,"so2":0.5,"mosquito_risk":10,"arthritis_risk":5,"migraine_risk":4,"frizz_risk":1,"updated_at":"2026-07-15T13:47:30.463931+05:30"},{"city":"Haridwar","state":"Uttarakhand","latitude":29.9457,"longitude":78.1642,"temp":33.9,"humidity":57,"rain":0.1,"pressure":968.2,"uv_index":7.5,"wind_gusts":24.5,"aqi":176,"pm10":171.4,"pm2_5":78.5,"no2":1.8,"co":424.0,"o3":188.0,"so2":13.8,"mosquito_risk":3,"arthritis_risk":5,"migraine_risk":7,"frizz_risk":1,"updated_at":"2026-07-15T13:47:30.463942+05:30"},{"city":"Rishikesh","state":"Uttarakhand","latitude":30.0869,"longitude":78.2676,"temp":32.6,"humidity":63,"rain":0.0,"pressure":961.2,"uv_index":7.6,"wind_gusts":23.8,"aqi":165,"pm10":134.6,"pm2_5":62.2,"no2":1.0,"co":332.0,"o3":162.0,"so2":8.3,"mosquito_risk":3,"arthritis_risk":5,"migraine_risk":7,"frizz_risk":1,"updated_at":"2026-07-15T13:47:30.463952+05:30"},{"city":"Nainital","state":"Uttarakhand","latitude":29.3919,"longitude":79.4542,"temp":22.0,"humidity":80,"rain":0.0,"pressure":804.6,"uv_index":7.55,"wind_gusts":25.6,"aqi":170,"pm10":163.9,"pm2_5":70.5,"no2":1.4,"co":264.0,"o3":159.0,"so2":8.2,"mosquito_risk":3,"arthritis_risk":5,"migraine_risk":7,"frizz_risk":1,"updated_at":"2026-07-15T13:47:30.463962+05:30"},{"city":"Mussoorie","state":"Uttarakhand","latitude":30.4599,"longitude":78.0664,"temp":22.4,"humidity":73,"rain":0.0,"pressure":802.7,"uv_index":7.3,"wind_gusts":35.3,"aqi":157,"pm10":112.9,"pm2_5":57.3,"no2":1.4,"co":300.0,"o3":176.0,"so2":10.2,"mosquito_risk":3,"arthritis_risk":5,"migraine_risk":7,"frizz_risk":1,"updated_at":"2026-07-15T13:47:30.463972+05:30"},{"city":"Dharamshala","state":"Himachal Pradesh","latitude":32.219,"longitude":76.3234,"temp":26.6,"humidity":62,"rain":0.0,"pressure":867.5,"uv_index":8.4,"wind_gusts":34.2,"aqi":66,"pm10":46.0,"pm2_5":23.6,"no2":0.6,"co":293.0,"o3":146.0,"so2":1.7,"mosquito_risk":7,"arthritis_risk":5,"migraine_risk":7,"frizz_risk":1,"updated_at":"2026-07-15T13:47:30.463982+05:30"},{"city":"Dalhousie","state":"Himachal Pradesh","latitude":32.5387,"longitude":75.971,"temp":22.7,"humidity":69,"rain":0.1,"pressure":804.7,"uv_index":8.55,"wind_gusts":29.5,"aqi":152,"pm10":76.8,"pm2_5":43.0,"no2":1.5,"co":285.0,"o3":178.0,"so2":3.5,"mosquito_risk":6,"arthritis_risk":5,"migraine_risk":7,"frizz_risk":1,"updated_at":"2026-07-15T13:47:30.463992+05:30"},{"city":"Patiala","state":"Punjab","latitude":30.3398,"longitude":76.3869,"temp":35.3,"humidity":51,"rain":0.0,"pressure":972.2,"uv_index":7.6,"wind_gusts":25.2,"aqi":207,"pm10":256.1,"pm2_5":100.1,"no2":2.2,"co":417.0,"o3":188.0,"so2":9.6,"mosquito_risk":0,"arthritis_risk":5,"migraine_risk":10,"frizz_risk":1,"updated_at":"2026-07-15T13:47:30.464002+05:30"},{"city":"Bhatinda","state":"Punjab","latitude":30.211,"longitude":74.9455,"temp":38.4,"humidity":36,"rain":0.0,"pressure":977.6,"uv_index":8.25,"wind_gusts":28.1,"aqi":176,"pm10":321.3,"pm2_5":98.7,"no2":2.4,"co":157.0,"o3":151.0,"so2":10.8,"mosquito_risk":0,"arthritis_risk":5,"migraine_risk":10,"frizz_risk":1,"updated_at":"2026-07-15T13:47:30.464011+05:30"},{"city":"Rohtak","state":"Haryana","latitude":28.8955,"longitude":76.6066,"temp":36.0,"humidity":44,"rain":0.0,"pressure":976.0,"uv_index":7.65,"wind_gusts":33.1,"aqi":346,"pm10":1177.2,"pm2_5":200.2,"no2":1.7,"co":160.0,"o3":123.0,"so2":5.5,"mosquito_risk":0,"arthritis_risk":5,"migraine_risk":10,"frizz_risk":1,"updated_at":"2026-07-15T13:47:30.464021+05:30"},{"city":"Panipat","state":"Haryana","latitude":29.3909,"longitude":76.9635,"temp":35.0,"humidity":52,"rain":0.0,"pressure":974.4,"uv_index":7.55,"wind_gusts":25.9,"aqi":492,"pm10":1076.6,"pm2_5":189.1,"no2":3.0,"co":241.0,"o3":154.0,"so2":13.7,"mosquito_risk":0,"arthritis_risk":5,"migraine_risk":7,"frizz_risk":1,"updated_at":"2026-07-15T13:47:30.464030+05:30"},{"city":"Mathura","state":"Uttar Pradesh","latitude":27.4924,"longitude":77.6737,"temp":33.8,"humidity":56,"rain":0.0,"pressure":981.6,"uv_index":7.85,"wind_gusts":38.2,"aqi":216,"pm10":1341.1,"pm2_5":193.2,"no2":2.8,"co":163.0,"o3":105.0,"so2":4.1,"mosquito_risk":0,"arthritis_risk":5,"migraine_risk":7,"frizz_risk":1,"updated_at":"2026-07-15T13:47:30.464040+05:30"},{"city":"Vrindavan","state":"Uttar Pradesh","latitude":27.5823,"longitude":77.7027,"temp":33.7,"humidity":56,"rain":0.0,"pressure":982.0,"uv_index":7.9,"wind_gusts":31.0,"aqi":216,"pm10":1341.1,"pm2_5":193.2,"no2":2.8,"co":174.0,"o3":105.0,"so2":4.1,"mosquito_risk":0,"arthritis_risk":5,"migraine_risk":7,"frizz_risk":1,"updated_at":"2026-07-15T13:47:30.464049+05:30"},{"city":"Ayodhya","state":"Uttar Pradesh","latitude":26.7922,"longitude":82.1998,"temp":32.8,"humidity":69,"rain":0.0,"pressure":989.4,"uv_index":6.55,"wind_gusts":20.5,"aqi":182,"pm10":216.5,"pm2_5":88.0,"no2":1.9,"co":373.0,"o3":164.0,"so2":6.4,"mosquito_risk":3,"arthritis_risk":5,"migraine_risk":7,"frizz_risk":1,"updated_at":"2026-07-15T13:47:30.464059+05:30"},{"city":"Ratlam","state":"Madhya Pradesh","latitude":23.3315,"longitude":75.0367,"temp":30.4,"humidity":59,"rain":0.0,"pressure":951.9,"uv_index":7.3,"wind_gusts":37.4,"aqi":67,"pm10":39.3,"pm2_5":15.7,"no2":0.9,"co":113.0,"o3":82.0,"so2":3.4,"mosquito_risk":0,"arthritis_risk":5,"migraine_risk":7,"frizz_risk":1,"updated_at":"2026-07-15T13:47:30.464068+05:30"},{"city":"Sagar","state":"Madhya Pradesh","latitude":23.8388,"longitude":78.7378,"temp":31.1,"humidity":56,"rain":0.0,"pressure":946.7,"uv_index":7.05,"wind_gusts":40.0,"aqi":99,"pm10":83.6,"pm2_5":32.6,"no2":0.8,"co":128.0,"o3":99.0,"so2":3.9,"mosquito_risk":0,"arthritis_risk":5,"migraine_risk":7,"frizz_risk":1,"updated_at":"2026-07-15T13:47:30.464078+05:30"},{"city":"Satna","state":"Madhya Pradesh","latitude":24.6005,"longitude":80.8322,"temp":33.7,"humidity":55,"rain":0.0,"pressure":966.3,"uv_index":8.75,"wind_gusts":31.3,"aqi":125,"pm10":99.0,"pm2_5":40.6,"no2":0.9,"co":137.0,"o3":114.0,"so2":4.2,"mosquito_risk":0,"arthritis_risk":5,"migraine_risk":7,"frizz_risk":1,"updated_at":"2026-07-15T13:47:30.464087+05:30"},{"city":"Akola","state":"Maharashtra","latitude":20.7002,"longitude":77.0082,"temp":33.4,"humidity":49,"rain":0.0,"pressure":972.6,"uv_index":7.95,"wind_gusts":42.5,"aqi":68,"pm10":29.5,"pm2_5":13.1,"no2":1.4,"co":110.0,"o3":88.0,"so2":5.9,"mosquito_risk":0,"arthritis_risk":5,"migraine_risk":7,"frizz_risk":1,"updated_at":"2026-07-15T13:47:30.464097+05:30"},{"city":"Amravati","state":"Maharashtra","latitude":20.9374,"longitude":77.7796,"temp":32.9,"humidity":51,"rain":0.0,"pressure":964.7,"uv_index":7.4,"wind_gusts":41.4,"aqi":70,"pm10":29.5,"pm2_5":13.9,"no2":1.8,"co":113.0,"o3":90.0,"so2":7.0,"mosquito_risk":0,"arthritis_risk":5,"migraine_risk":7,"frizz_risk":1,"updated_at":"2026-07-15T13:47:30.464108+05:30"},{"city":"Latur","state":"Maharashtra","latitude":18.4088,"longitude":76.5604,"temp":24.3,"humidity":81,"rain":0.6,"pressure":938.7,"uv_index":8.95,"wind_gusts":41.4,"aqi":65,"pm10":38.6,"pm2_5":14.3,"no2":1.0,"co":109.0,"o3":68.0,"so2":1.6,"mosquito_risk":6,"arthritis_risk":5,"migraine_risk":7,"frizz_risk":1,"updated_at":"2026-07-15T13:47:30.464118+05:30"},{"city":"Nanded","state":"Maharashtra","latitude":19.1383,"longitude":77.3091,"temp":32.5,"humidity":48,"rain":0.0,"pressure":966.6,"uv_index":8.6,"wind_gusts":38.5,"aqi":76,"pm10":26.4,"pm2_5":12.8,"no2":0.8,"co":119.0,"o3":85.0,"so2":2.9,"mosquito_risk":0,"arthritis_risk":5,"migraine_risk":7,"frizz_risk":1,"updated_at":"2026-07-15T13:47:30.464129+05:30"},{"city":"Gulbarga","state":"Karnataka","latitude":17.3297,"longitude":76.8343,"temp":33.4,"humidity":41,"rain":0.0,"pressure":957.4,"uv_index":8.8,"wind_gusts":54.4,"aqi":62,"pm10":38.9,"pm2_5":14.2,"no2":1.0,"co":113.0,"o3":82.0,"so2":2.0,"mosquito_risk":0,"arthritis_risk":5,"migraine_risk":7,"frizz_risk":1,"updated_at":"2026-07-15T13:47:30.464139+05:30"},{"city":"Bidar","state":"Karnataka","latitude":17.9104,"longitude":77.5199,"temp":30.3,"humidity":48,"rain":0.1,"pressure":934.2,"uv_index":9.0,"wind_gusts":43.9,"aqi":75,"pm10":43.1,"pm2_5":17.5,"no2":1.0,"co":119.0,"o3":84.0,"so2":2.5,"mosquito_risk":3,"arthritis_risk":5,"migraine_risk":7,"frizz_risk":1,"updated_at":"2026-07-15T13:47:30.464148+05:30"},{"city":"Hospet","state":"Karnataka","latitude":15.2689,"longitude":76.3909,"temp":33.1,"humidity":37,"rain":0.0,"pressure":955.3,"uv_index":8.4,"wind_gusts":43.9,"aqi":57,"pm10":29.8,"pm2_5":13.6,"no2":1.1,"co":113.0,"o3":89.0,"so2":1.8,"mosquito_risk":0,"arthritis_risk":5,"migraine_risk":7,"frizz_risk":1,"updated_at":"2026-07-15T13:47:30.464158+05:30"},{"city":"Tirupur","state":"Tamil Nadu","latitude":11.1085,"longitude":77.3411,"temp":36.0,"humidity":37,"rain":0.0,"pressure":974.0,"uv_index":8.55,"wind_gusts":56.9,"aqi":67,"pm10":34.7,"pm2_5":16.2,"no2":1.9,"co":147.0,"o3":99.0,"so2":2.4,"mosquito_risk":0,"arthritis_risk":5,"migraine_risk":10,"frizz_risk":1,"updated_at":"2026-07-15T13:47:30.464167+05:30"},{"city":"Alappuzha","state":"Kerala","latitude":9.4981,"longitude":76.3388,"temp":29.4,"humidity":72,"rain":0.0,"pressure":1009.7,"uv_index":8.35,"wind_gusts":38.5,"aqi":62,"pm10":26.5,"pm2_5":15.3,"no2":2.1,"co":92.0,"o3":78.0,"so2":2.6,"mosquito_risk":7,"arthritis_risk":0,"migraine_risk":4,"frizz_risk":1,"updated_at":"2026-07-15T13:47:30.464176+05:30"},{"city":"Munnar","state":"Kerala","latitude":10.0889,"longitude":77.0595,"temp":22.4,"humidity":70,"rain":0.0,"pressure":858.6,"uv_index":8.45,"wind_gusts":36.4,"aqi":52,"pm10":19.0,"pm2_5":9.4,"no2":0.8,"co":99.0,"o3":75.0,"so2":1.2,"mosquito_risk":3,"arthritis_risk":5,"migraine_risk":7,"frizz_risk":1,"updated_at":"2026-07-15T13:47:30.464186+05:30"},{"city":"Silchar","state":"Assam","latitude":24.8333,"longitude":92.7789,"temp":35.1,"humidity":62,"rain":0.0,"pressure":995.7,"uv_index":8.85,"wind_gusts":23.0,"aqi":60,"pm10":14.5,"pm2_5":12.9,"no2":1.4,"co":190.0,"o3":125.0,"so2":3.8,"mosquito_risk":3,"arthritis_risk":5,"migraine_risk":10,"frizz_risk":1,"updated_at":"2026-07-15T13:47:30.464195+05:30"},{"city":"Dibrugarh","state":"Assam","latitude":27.4728,"longitude":94.912,"temp":33.0,"humidity":70,"rain":0.0,"pressure":986.9,"uv_index":7.65,"wind_gusts":22.0,"aqi":58,"pm10":5.4,"pm2_5":5.3,"no2":1.2,"co":174.0,"o3":100.0,"so2":0.9,"mosquito_risk":3,"arthritis_risk":5,"migraine_risk":7,"frizz_risk":1,"updated_at":"2026-07-15T13:47:30.464204+05:30"}]