[{"city":"Delhi","state":"Delhi","latitude":28.6139,"longitude":77.209,"temp":29.0,"humidity":50,"rain":0.0,"pressure":984.6,"uv_index":6.35,"wind_gusts":39.2,"aqi":204,"pm10":246.8,"pm2_5":72.6,"mosquito_risk":4,"arthritis_risk":5,"migraine_risk":7,"frizz_risk":1,"updated_at":"2026-03-30T10:57:52.455318+05:30"},{"city":"Mumbai","state":"Maharashtra","latitude":19.076,"longitude":72.8777,"temp":27.8,"humidity":81,"rain":0.0,"pressure":1009.6,"uv_index":8.0,"wind_gusts":25.9,"aqi":56,"pm10":47.3,"pm2_5":24.1,"mosquito_risk":7,"arthritis_risk":0,"migraine_risk":4,"frizz_risk":1,"updated_at":"2026-03-30T10:57:52.455357+05:30"},{"city":"Bangalore","state":"Karnataka","latitude":12.9716,"longitude":77.5946,"temp":29.0,"humidity":52,"rain":0.0,"pressure":914.2,"uv_index":9.55,"wind_gusts":29.9,"aqi":141,"pm10":49.7,"pm2_5":43.0,"mosquito_risk":4,"arthritis_risk":5,"migraine_risk":7,"frizz_risk":1,"updated_at":"2026-03-30T10:57:52.455372+05:30"},{"city":"Hyderabad","state":"Telangana","latitude":17.385,"longitude":78.4867,"temp":33.4,"humidity":44,"rain":0.0,"pressure":955.2,"uv_index":9.05,"wind_gusts":26.3,"aqi":99,"pm10":53.2,"pm2_5":46.4,"mosquito_risk":0,"arthritis_risk":5,"migraine_risk":7,"frizz_risk":1,"updated_at":"2026-03-30T10:57:52.455382+05:30"},{"city":"Chennai","state":"Tamil Nadu","latitude":13.0827,"longitude":80.2707,"temp":32.7,"humidity":57,"rain":0.0,"pressure":1009.3,"uv_index":9.3,"wind_gusts":33.1,"aqi":58,"pm10":19.6,"pm2_5":14.3,"mosquito_risk":0,"arthritis_risk":0,"migraine_risk":4,"frizz_risk":1,"updated_at":"2026-03-30T10:57:52.455391+05:30"},{"city":"Kolkata","state":"West Bengal","latitude":22.5726,"longitude":88.3639,"temp":30.4,"humidity":73,"rain":0.0,"pressure":1007.9,"uv_index":8.5,"wind_gusts":25.9,"aqi":117,"pm10":42.6,"pm2_5":34.7,"mosquito_risk":3,"arthritis_risk":5,"migraine_risk":4,"frizz_risk":1,"updated_at":"2026-03-30T10:57:52.455400+05:30"},{"city":"Pune","state":"Maharashtra","latitude":18.5204,"longitude":73.8567,"temp":32.5,"humidity":47,"rain":0.0,"pressure":950.4,"uv_index":8.6,"wind_gusts":36.4,"aqi":72,"pm10":19.6,"pm2_5":14.4,"mosquito_risk":0,"arthritis_risk":5,"migraine_risk":7,"frizz_risk":1,"updated_at":"2026-03-30T10:57:52.455411+05:30"},{"city":"Ahmedabad","state":"Gujarat","latitude":23.0225,"longitude":72.5714,"temp":32.2,"humidity":48,"rain":0.0,"pressure":1003.9,"uv_index":8.0,"wind_gusts":31.0,"aqi":56,"pm10":49.6,"pm2_5":14.7,"mosquito_risk":0,"arthritis_risk":5,"migraine_risk":4,"frizz_risk":1,"updated_at":"2026-03-30T10:57:52.455419+05:30"},{"city":"Jaipur","state":"Rajasthan","latitude":26.9124,"longitude":75.7873,"temp":30.9,"humidity":40,"rain":0.0,"pressure":962.3,"uv_index":6.8,"wind_gusts":46.1,"aqi":115,"pm10":256.1,"pm2_5":36.4,"mosquito_risk":0,"arthritis_risk":5,"migraine_risk":7,"frizz_risk":0,"updated_at":"2026-03-30T10:57:52.455426+05:30"},{"city":"Lucknow","state":"Uttar Pradesh","latitude":26.8467,"longitude":80.9462,"temp":30.7,"humidity":50,"rain":0.0,"pressure":995.6,"uv_index":7.3,"wind_gusts":18.7,"aqi":110,"pm10":78.7,"pm2_5":37.8,"mosquito_risk":0,"arthritis_risk":5,"migraine_risk":7,"frizz_risk":1,"updated_at":"2026-03-30T10:57:52.455433+05:30"},{"city":"Kanpur","state":"Uttar Pradesh","latitude":26.4499,"longitude":80.3319,"temp":31.0,"humidity":48,"rain":0.0,"pressure":993.6,"uv_index":7.3,"wind_gusts":28.8,"aqi":95,"pm10":90.3,"pm2_5":29.8,"mosquito_risk":0,"arthritis_risk":5,"migraine_risk":7,"frizz_risk":1,"updated_at":"2026-03-30T10:57:52.455440+05:30"},{"city":"Chandigarh","state":"Chandigarh","latitude":30.7333,"longitude":76.7794,"temp":27.1,"humidity":57,"rain":0.0,"pressure":970.6,"uv_index":6.1,"wind_gusts":52.9,"aqi":74,"pm10":139.7,"pm2_5":26.4,"mosquito_risk":4,"arthritis_risk":5,"migraine_risk":7,"frizz_risk":1,"updated_at":"2026-03-30T10:57:52.455448+05:30"},{"city":"Srinagar","state":"Jammu and Kashmir","latitude":34.0837,"longitude":74.7973,"temp":12.6,"humidity":77,"rain":0.0,"pressure":841.7,"uv_index":5.35,"wind_gusts":25.9,"aqi":77,"pm10":30.2,"pm2_5":19.1,"mosquito_risk":3,"arthritis_risk":5,"migraine_risk":3,"frizz_risk":0,"updated_at":"2026-03-30T10:57:52.455455+05:30"},{"city":"Jammu","state":"Jammu and Kashmir","latitude":32.7266,"longitude":74.857,"temp":22.5,"humidity":75,"rain":0.0,"pressure":975.4,"uv_index":6.2,"wind_gusts":45.7,"aqi":70,"pm10":35.5,"pm2_5":13.9,"mosquito_risk":3,"arthritis_risk":5,"migraine_risk":7,"frizz_risk":1,"updated_at":"2026-03-30T10:57:52.455462+05:30"},{"city":"Amritsar","state":"Punjab","latitude":31.634,"longitude":74.8723,"temp":28.5,"humidity":56,"rain":0.0,"pressure":981.6,"uv_index":5.15,"wind_gusts":37.1,"aqi":93,"pm10":40.6,"pm2_5":19.6,"mosquito_risk":4,"arthritis_risk":5,"migraine_risk":3,"frizz_risk":1,"updated_at":"2026-03-30T10:57:52.455470+05:30"},{"city":"Ludhiana","state":"Punjab","latitude":30.901,"longitude":75.8573,"temp":26.4,"humidity":58,"rain":0.0,"pressure":980.2,"uv_index":5.45,"wind_gusts":37.1,"aqi":133,"pm10":150.4,"pm2_5":44.7,"mosquito_risk":4,"arthritis_risk":5,"migraine_risk":3,"frizz_risk":1,"updated_at":"2026-03-30T10:57:52.455476+05:30"},{"city":"Jalandhar","state":"Punjab","latitude":31.326,"longitude":75.5762,"temp":27.2,"humidity":62,"rain":0.0,"pressure":981.2,"uv_index":5.1,"wind_gusts":51.1,"aqi":109,"pm10":97.1,"pm2_5":34.1,"mosquito_risk":7,"arthritis_risk":5,"migraine_risk":3,"frizz_risk":1,"updated_at":"2026-03-30T10:57:52.455484+05:30"},{"city":"Dehradun","state":"Uttarakhand","latitude":30.6284,"longitude":78.0322,"temp":20.6,"humidity":49,"rain":0.0,"pressure":833.7,"uv_index":6.7,"wind_gusts":30.6,"aqi":41,"pm10":39.7,"pm2_5":7.1,"mosquito_risk":0,"arthritis_risk":5,"migraine_risk":7,"frizz_risk":0,"updated_at":"2026-03-30T10:57:52.455491+05:30"},{"city":"Shimla","state":"Himachal Pradesh","latitude":31.1048,"longitude":77.1734,"temp":18.4,"humidity":58,"rain":0.0,"pressure":788.2,"uv_index":6.45,"wind_gusts":30.6,"aqi":53,"pm10":59.6,"pm2_5":9.9,"mosquito_risk":0,"arthritis_risk":5,"migraine_risk":7,"frizz_risk":0,"updated_at":"2026-03-30T10:57:52.455497+05:30"},{"city":"Manali","state":"Himachal Pradesh","latitude":32.2396,"longitude":77.1887,"temp":21.2,"humidity":32,"rain":0.0,"pressure":823.1,"uv_index":8.35,"wind_gusts":28.8,"aqi":46,"pm10":8.1,"pm2_5":3.2,"mosquito_risk":0,"arthritis_risk":5,"migraine_risk":7,"frizz_risk":0,"updated_at":"2026-03-30T10:57:52.455503+05:30"},{"city":"Gurgaon","state":"Haryana","latitude":28.4595,"longitude":77.0266,"temp":28.8,"humidity":45,"rain":0.0,"pressure":983.2,"uv_index":6.55,"wind_gusts":41.8,"aqi":833,"pm10":814.0,"pm2_5":114.8,"mosquito_risk":4,"arthritis_risk":5,"migraine_risk":7,"frizz_risk":0,"updated_at":"2026-03-30T10:57:52.455510+05:30"},{"city":"Noida","state":"Uttar Pradesh","latitude":28.5355,"longitude":77.391,"temp":29.1,"humidity":54,"rain":0.0,"pressure":986.1,"uv_index":5.95,"wind_gusts":39.2,"aqi":833,"pm10":814.0,"pm2_5":114.8,"mosquito_risk":4,"arthritis_risk":5,"migraine_risk":3,"frizz_risk":1,"updated_at":"2026-03-30T10:57:52.455517+05:30"},{"city":"Ghaziabad","state":"Uttar Pradesh","latitude":28.6692,"longitude":77.4538,"temp":28.5,"humidity":60,"rain":0.0,"pressure":984.1,"uv_index":6.0,"wind_gusts":38.5,"aqi":147,"pm10":170.0,"pm2_5":51.0,"mosquito_risk":4,"arthritis_risk":5,"migraine_risk":3,"frizz_risk":1,"updated_at":"2026-03-30T10:57:52.455544+05:30"},{"city":"Faridabad","state":"Haryana","latitude":28.4089,"longitude":77.3178,"temp":29.6,"humidity":47,"rain":0.0,"pressure":985.5,"uv_index":5.85,"wind_gusts":39.6,"aqi":833,"pm10":814.0,"pm2_5":114.8,"mosquito_risk":4,"arthritis_risk":5,"migraine_risk":3,"frizz_risk":1,"updated_at":"2026-03-30T10:57:52.455551+05:30"},{"city":"Meerut","state":"Uttar Pradesh","latitude":28.9845,"longitude":77.7064,"temp":29.8,"humidity":53,"rain":0.0,"pressure":982.9,"uv_index":6.1,"wind_gusts":38.9,"aqi":147,"pm10":170.0,"pm2_5":51.0,"mosquito_risk":4,"arthritis_risk":5,"migraine_risk":7,"frizz_risk":1,"updated_at":"2026-03-30T10:57:52.455557+05:30"},{"city":"Agra","state":"Uttar Pradesh","latitude":27.1767,"longitude":78.0081,"temp":35.8,"humidity":22,"rain":0.0,"pressure":989.2,"uv_index":6.95,"wind_gusts":41.0,"aqi":197,"pm10":756.2,"pm2_5":74.5,"mosquito_risk":0,"arthritis_risk":5,"migraine_risk":10,"frizz_risk":0,"updated_at":"2026-03-30T10:57:52.455564+05:30"},{"city":"Varanasi","state":"Uttar Pradesh","latitude":25.3176,"longitude":82.9739,"temp":33.2,"humidity":45,"rain":0.0,"pressure":998.9,"uv_index":7.95,"wind_gusts":25.6,"aqi":103,"pm10":57.9,"pm2_5":25.8,"mosquito_risk":0,"arthritis_risk":5,"migraine_risk":7,"frizz_risk":1,"updated_at":"2026-03-30T10:57:52.455574+05:30"},{"city":"Prayagraj","state":"Uttar Pradesh","latitude":25.4358,"longitude":81.8463,"temp":33.5,"humidity":41,"rain":0.0,"pressure":997.2,"uv_index":7.85,"wind_gusts":20.9,"aqi":100,"pm10":68.5,"pm2_5":34.7,"mosquito_risk":0,"arthritis_risk":5,"migraine_risk":7,"frizz_risk":1,"updated_at":"2026-03-30T10:57:52.455581+05:30"},{"city":"Gorakhpur","state":"Uttar Pradesh","latitude":26.7606,"longitude":83.3732,"temp":29.3,"humidity":58,"rain":0.0,"pressure":999.9,"uv_index":7.7,"wind_gusts":25.9,"aqi":141,"pm10":87.5,"pm2_5":66.4,"mosquito_risk":4,"arthritis_risk":5,"migraine_risk":7,"frizz_risk":1,"updated_at":"2026-03-30T10:57:52.455587+05:30"},{"city":"Bareilly","state":"Uttar Pradesh","latitude":28.367,"longitude":79.4304,"temp":30.9,"humidity":52,"rain":0.0,"pressure":988.9,"uv_index":6.3,"wind_gusts":29.2,"aqi":104,"pm10":91.3,"pm2_5":34.8,"mosquito_risk":0,"arthritis_risk":5,"migraine_risk":7,"frizz_risk":1,"updated_at":"2026-03-30T10:57:52.455594+05:30"},{"city":"Aligarh","state":"Uttar Pradesh","latitude":27.8974,"longitude":78.088,"temp":32.0,"humidity":43,"rain":0.0,"pressure":987.0,"uv_index":6.15,"wind_gusts":34.9,"aqi":282,"pm10":447.0,"pm2_5":85.7,"mosquito_risk":0,"arthritis_risk":5,"migraine_risk":7,"frizz_risk":1,"updated_at":"2026-03-30T10:57:52.455600+05:30"},{"city":"Moradabad","state":"Uttar Pradesh","latitude":28.8386,"longitude":78.7733,"temp":30.3,"humidity":56,"rain":0.0,"pressure":985.6,"uv_index":6.8,"wind_gusts":38.9,"aqi":132,"pm10":81.7,"pm2_5":38.3,"mosquito_risk":0,"arthritis_risk":5,"migraine_risk":7,"frizz_risk":1,"updated_at":"2026-03-30T10:57:52.455606+05:30"},{"city":"Saharanpur","state":"Uttar Pradesh","latitude":29.9637,"longitude":77.546,"temp":29.0,"humidity":50,"rain":0.0,"pressure":978.0,"uv_index":6.15,"wind_gusts":37.4,"aqi":81,"pm10":46.6,"pm2_5":23.9,"mosquito_risk":4,"arthritis_risk":5,"migraine_risk":7,"frizz_risk":1,"updated_at":"2026-03-30T10:57:52.455615+05:30"},{"city":"Jhansi","state":"Uttar Pradesh","latitude":25.4484,"longitude":78.5685,"temp":35.9,"humidity":21,"rain":0.0,"pressure":979.3,"uv_index":7.5,"wind_gusts":46.4,"aqi":45,"pm10":65.9,"pm2_5":13.2,"mosquito_risk":0,"arthritis_risk":5,"migraine_risk":10,"frizz_risk":0,"updated_at":"2026-03-30T10:57:55.706377+05:30"},{"city":"Surat","state":"Gujarat","latitude":21.1702,"longitude":72.8311,"temp":30.6,"humidity":67,"rain":0.0,"pressure":1008.2,"uv_index":7.8,"wind_gusts":25.2,"aqi":92,"pm10":72.4,"pm2_5":48.3,"mosquito_risk":3,"arthritis_risk":0,"migraine_risk":4,"frizz_risk":1,"updated_at":"2026-03-30T10:57:55.706404+05:30"},{"city":"Vadodara","state":"Gujarat","latitude":22.3072,"longitude":73.1812,"temp":33.0,"humidity":52,"rain":0.0,"pressure":1006.1,"uv_index":8.0,"wind_gusts":29.2,"aqi":72,"pm10":53.2,"pm2_5":21.8,"mosquito_risk":0,"arthritis_risk":5,"migraine_risk":4,"frizz_risk":1,"updated_at":"2026-03-30T10:57:55.706414+05:30"},{"city":"Rajkot","state":"Gujarat","latitude":22.3039,"longitude":70.8022,"temp":30.7,"humidity":55,"rain":0.0,"pressure":996.3,"uv_index":7.8,"wind_gusts":37.4,"aqi":61,"pm10":66.4,"pm2_5":18.1,"mosquito_risk":0,"arthritis_risk":5,"migraine_risk":7,"frizz_risk":1,"updated_at":"2026-03-30T10:57:55.706421+05:30"},{"city":"Thane","state":"Maharashtra","latitude":19.2183,"longitude":72.9781,"temp":30.7,"humidity":65,"rain":0.0,"pressure":1009.1,"uv_index":8.0,"wind_gusts":37.4,"aqi":56,"pm10":47.3,"pm2_5":24.1,"mosquito_risk":3,"arthritis_risk":0,"migraine_risk":4,"frizz_risk":1,"updated_at":"2026-03-30T10:57:55.706428+05:30"},{"city":"Nagpur","state":"Maharashtra","latitude":21.1458,"longitude":79.0882,"temp":34.9,"humidity":34,"rain":0.0,"pressure":974.4,"uv_index":8.55,"wind_gusts":34.2,"aqi":62,"pm10":17.1,"pm2_5":10.4,"mosquito_risk":0,"arthritis_risk":5,"migraine_risk":7,"frizz_risk":1,"updated_at":"2026-03-30T10:57:55.706434+05:30"},{"city":"Nashik","state":"Maharashtra","latitude":19.9975,"longitude":73.7898,"temp":30.4,"humidity":44,"rain":0.0,"pressure":947.2,"uv_index":8.25,"wind_gusts":42.5,"aqi":39,"pm10":17.8,"pm2_5":9.1,"mosquito_risk":0,"arthritis_risk":5,"migraine_risk":7,"frizz_risk":1,"updated_at":"2026-03-30T10:57:55.706440+05:30"},{"city":"Aurangabad","state":"Maharashtra","latitude":19.8762,"longitude":75.3433,"temp":32.6,"humidity":39,"rain":0.0,"pressure":946.3,"uv_index":8.75,"wind_gusts":38.9,"aqi":45,"pm10":21.2,"pm2_5":12.7,"mosquito_risk":0,"arthritis_risk":5,"migraine_risk":7,"frizz_risk":1,"updated_at":"2026-03-30T10:57:55.706446+05:30"},{"city":"Solapur","state":"Maharashtra","latitude":17.6599,"longitude":75.9064,"temp":34.1,"humidity":36,"rain":0.0,"pressure":958.8,"uv_index":8.9,"wind_gusts":25.9,"aqi":60,"pm10":18.2,"pm2_5":16.9,"mosquito_risk":0,"arthritis_risk":5,"migraine_risk":7,"frizz_risk":1,"updated_at":"2026-03-30T10:57:55.706453+05:30"},{"city":"Kolhapur","state":"Maharashtra","latitude":16.705,"longitude":74.2433,"temp":29.9,"humidity":55,"rain":0.0,"pressure":950.0,"uv_index":7.3,"wind_gusts":43.9,"aqi":63,"pm10":27.8,"pm2_5":24.0,"mosquito_risk":4,"arthritis_risk":5,"migraine_risk":7,"frizz_risk":1,"updated_at":"2026-03-30T10:57:55.706459+05:30"},{"city":"Goa","state":"Goa","latitude":15.2993,"longitude":74.124,"temp":31.3,"humidity":60,"rain":0.0,"pressure":999.8,"uv_index":8.95,"wind_gusts":31.7,"aqi":53,"pm10":17.2,"pm2_5":12.2,"mosquito_risk":0,"arthritis_risk":5,"migraine_risk":7,"frizz_risk":1,"updated_at":"2026-03-30T10:57:55.706465+05:30"},{"city":"Jodhpur","state":"Rajasthan","latitude":26.2389,"longitude":73.0243,"temp":28.3,"humidity":45,"rain":0.0,"pressure":985.5,"uv_index":7.55,"wind_gusts":48.6,"aqi":132,"pm10":149.9,"pm2_5":24.6,"mosquito_risk":4,"arthritis_risk":5,"migraine_risk":7,"frizz_risk":0,"updated_at":"2026-03-30T10:57:55.706471+05:30"},{"city":"Udaipur","state":"Rajasthan","latitude":24.5854,"longitude":73.7125,"temp":26.5,"humidity":52,"rain":0.0,"pressure":948.5,"uv_index":7.85,"wind_gusts":39.2,"aqi":42,"pm10":48.1,"pm2_5":11.0,"mosquito_risk":4,"arthritis_risk":5,"migraine_risk":7,"frizz_risk":0,"updated_at":"2026-03-30T10:57:55.706477+05:30"},{"city":"Kota","state":"Rajasthan","latitude":25.2138,"longitude":75.8648,"temp":32.8,"humidity":38,"rain":0.0,"pressure":981.1,"uv_index":6.35,"wind_gusts":29.2,"aqi":34,"pm10":33.6,"pm2_5":13.6,"mosquito_risk":0,"arthritis_risk":5,"migraine_risk":7,"frizz_risk":1,"updated_at":"2026-03-30T10:57:55.706483+05:30"},{"city":"Bikaner","state":"Rajasthan","latitude":28.0229,"longitude":73.3119,"temp":28.2,"humidity":40,"rain":0.0,"pressure":983.7,"uv_index":5.1,"wind_gusts":45.4,"aqi":120,"pm10":163.9,"pm2_5":40.7,"mosquito_risk":4,"arthritis_risk":5,"migraine_risk":3,"frizz_risk":0,"updated_at":"2026-03-30T10:57:55.706490+05:30"},{"city":"Ajmer","state":"Rajasthan","latitude":26.4499,"longitude":74.6399,"temp":27.3,"humidity":53,"rain":0.0,"pressure":957.4,"uv_index":7.45,"wind_gusts":41.4,"aqi":50,"pm10":68.5,"pm2_5":16.5,"mosquito_risk":4,"arthritis_risk":5,"migraine_risk":7,"frizz_risk":1,"updated_at":"2026-03-30T10:57:55.706496+05:30"},{"city":"Gwalior","state":"Madhya Pradesh","latitude":26.2183,"longitude":78.1828,"temp":34.6,"humidity":30,"rain":0.0,"pressure":984.8,"uv_index":6.75,"wind_gusts":40.0,"aqi":48,"pm10":46.0,"pm2_5":13.1,"mosquito_risk":0,"arthritis_risk":5,"migraine_risk":7,"frizz_risk":0,"updated_at":"2026-03-30T10:57:55.706502+05:30"},{"city":"Indore","state":"Madhya Pradesh","latitude":22.7196,"longitude":75.8577,"temp":30.6,"humidity":45,"rain":0.0,"pressure":950.3,"uv_index":8.15,"wind_gusts":44.6,"aqi":46,"pm10":30.5,"pm2_5":12.3,"mosquito_risk":0,"arthritis_risk":5,"migraine_risk":7,"frizz_risk":1,"updated_at":"2026-03-30T10:57:55.706508+05:30"},{"city":"Bhopal","state":"Madhya Pradesh","latitude":23.2599,"longitude":77.4126,"temp":33.5,"humidity":32,"rain":0.0,"pressure":956.0,"uv_index":8.2,"wind_gusts":26.6,"aqi":31,"pm10":15.7,"pm2_5":7.2,"mosquito_risk":0,"arthritis_risk":5,"migraine_risk":7,"frizz_risk":0,"updated_at":"2026-03-30T10:57:55.706514+05:30"},{"city":"Jabalpur","state":"Madhya Pradesh","latitude":23.1815,"longitude":79.9864,"temp":33.7,"humidity":39,"rain":0.0,"pressure":962.9,"uv_index":8.35,"wind_gusts":29.9,"aqi":45,"pm10":17.5,"pm2_5":9.3,"mosquito_risk":0,"arthritis_risk":5,"migraine_risk":7,"frizz_risk":1,"updated_at":"2026-03-30T10:57:55.706520+05:30"},{"city":"Ujjain","state":"Madhya Pradesh","latitude":23.1765,"longitude":75.7885,"temp":30.8,"humidity":46,"rain":0.0,"pressure":956.1,"uv_index":7.85,"wind_gusts":28.1,"aqi":46,"pm10":34.2,"pm2_5":13.2,"mosquito_risk":0,"arthritis_risk":5,"migraine_risk":7,"frizz_risk":1,"updated_at":"2026-03-30T10:57:55.706560+05:30"},{"city":"Visakhapatnam","state":"Andhra Pradesh","latitude":17.6868,"longitude":83.2185,"temp":32.4,"humidity":58,"rain":0.0,"pressure":1005.8,"uv_index":9.0,"wind_gusts":40.7,"aqi":64,"pm10":26.4,"pm2_5":20.0,"mosquito_risk":0,"arthritis_risk":5,"migraine_risk":4,"frizz_risk":1,"updated_at":"2026-03-30T10:57:55.706568+05:30"},{"city":"Vijayawada","state":"Andhra Pradesh","latitude":16.5062,"longitude":80.648,"temp":32.4,"humidity":62,"rain":0.0,"pressure":1004.5,"uv_index":9.05,"wind_gusts":32.0,"aqi":81,"pm10":26.9,"pm2_5":21.4,"mosquito_risk":3,"arthritis_risk":5,"migraine_risk":4,"frizz_risk":1,"updated_at":"2026-03-30T10:57:55.706575+05:30"},{"city":"Guntur","state":"Andhra Pradesh","latitude":16.3067,"longitude":80.4365,"temp":32.7,"humidity":61,"rain":0.0,"pressure":1005.6,"uv_index":9.05,"wind_gusts":33.8,"aqi":89,"pm10":29.1,"pm2_5":24.4,"mosquito_risk":3,"arthritis_risk":5,"migraine_risk":4,"frizz_risk":1,"updated_at":"2026-03-30T10:57:55.706581+05:30"},{"city":"Nellore","state":"Andhra Pradesh","latitude":14.4426,"longitude":79.9865,"temp":33.7,"humidity":52,"rain":0.0,"pressure":1007.4,"uv_index":9.25,"wind_gusts":31.0,"aqi":69,"pm10":27.8,"pm2_5":23.8,"mosquito_risk":0,"arthritis_risk":5,"migraine_risk":4,"frizz_risk":1,"updated_at":"2026-03-30T10:57:55.706588+05:30"},{"city":"Kurnool","state":"Andhra Pradesh","latitude":15.8281,"longitude":78.0373,"temp":33.6,"humidity":42,"rain":0.0,"pressure":978.6,"uv_index":9.1,"wind_gusts":24.5,"aqi":108,"pm10":57.9,"pm2_5":49.6,"mosquito_risk":0,"arthritis_risk":5,"migraine_risk":7,"frizz_risk":1,"updated_at":"2026-03-30T10:57:55.706595+05:30"},{"city":"Kakinada","state":"Andhra Pradesh","latitude":16.9891,"longitude":82.2475,"temp":32.7,"humidity":59,"rain":0.0,"pressure":1009.5,"uv_index":9.0,"wind_gusts":33.5,"aqi":53,"pm10":21.1,"pm2_5":13.5,"mosquito_risk":0,"arthritis_risk":0,"migraine_risk":4,"frizz_risk":1,"updated_at":"2026-03-30T10:57:55.706601+05:30"},{"city":"Tirupati","state":"Andhra Pradesh","latitude":13.6288,"longitude":79.4192,"temp":32.2,"humidity":60,"rain":0.0,"pressure":993.9,"uv_index":9.35,"wind_gusts":35.3,"aqi":98,"pm10":35.3,"pm2_5":31.4,"mosquito_risk":0,"arthritis_risk":5,"migraine_risk":7,"frizz_risk":1,"updated_at":"2026-03-30T10:57:55.706607+05:30"},{"city":"Warangal","state":"Telangana","latitude":17.9689,"longitude":79.5941,"temp":31.3,"humidity":67,"rain":0.0,"pressure":980.8,"uv_index":8.9,"wind_gusts":27.0,"aqi":109,"pm10":44.5,"pm2_5":39.2,"mosquito_risk":3,"arthritis_risk":5,"migraine_risk":7,"frizz_risk":1,"updated_at":"2026-03-30T10:57:55.706613+05:30"},{"city":"Nizamabad","state":"Telangana","latitude":18.6725,"longitude":78.0941,"temp":35.4,"humidity":32,"rain":0.0,"pressure":966.7,"uv_index":8.85,"wind_gusts":46.8,"aqi":92,"pm10":25.1,"pm2_5":22.1,"mosquito_risk":0,"arthritis_risk":5,"migraine_risk":10,"frizz_risk":1,"updated_at":"2026-03-30T10:57:55.706621+05:30"},{"city":"Mysore","state":"Karnataka","latitude":12.2958,"longitude":76.6396,"temp":26.9,"humidity":70,"rain":0.0,"pressure":930.6,"uv_index":8.4,"wind_gusts":22.7,"aqi":138,"pm10":57.6,"pm2_5":48.8,"mosquito_risk":7,"arthritis_risk":5,"migraine_risk":7,"frizz_risk":1,"updated_at":"2026-03-30T10:57:55.706629+05:30"},{"city":"Mangalore","state":"Karnataka","latitude":12.9141,"longitude":74.856,"temp":29.2,"humidity":77,"rain":0.0,"pressure":1008.3,"uv_index":5.75,"wind_gusts":23.0,"aqi":68,"pm10":26.8,"pm2_5":18.3,"mosquito_risk":7,"arthritis_risk":0,"migraine_risk":0,"frizz_risk":1,"updated_at":"2026-03-30T10:57:55.706634+05:30"},{"city":"Hubli-Dharwad","state":"Karnataka","latitude":15.3647,"longitude":75.124,"temp":31.1,"humidity":47,"rain":0.0,"pressure":943.0,"uv_index":9.15,"wind_gusts":29.2,"aqi":58,"pm10":12.3,"pm2_5":10.0,"mosquito_risk":0,"arthritis_risk":5,"migraine_risk":7,"frizz_risk":1,"updated_at":"2026-03-30T10:57:55.706641+05:30"},{"city":"Belgaum","state":"Karnataka","latitude":15.8497,"longitude":74.4977,"temp":29.9,"humidity":48,"rain":0.0,"pressure":928.1,"uv_index":9.1,"wind_gusts":33.8,"aqi":48,"pm10":14.4,"pm2_5":13.2,"mosquito_risk":4,"arthritis_risk":5,"migraine_risk":7,"frizz_risk":1,"updated_at":"2026-03-30T10:57:58.953127+05:30"},{"city":"Coimbatore","state":"Tamil Nadu","latitude":11.0168,"longitude":76.9558,"temp":32.0,"humidity":47,"rain":0.0,"pressure":964.1,"uv_index":9.45,"wind_gusts":41.0,"aqi":101,"pm10":27.3,"pm2_5":24.0,"mosquito_risk":0,"arthritis_risk":5,"migraine_risk":7,"frizz_risk":1,"updated_at":"2026-03-30T10:57:58.953152+05:30"},{"city":"Madurai","state":"Tamil Nadu","latitude":9.9252,"longitude":78.1198,"temp":33.0,"humidity":46,"rain":0.0,"pressure":995.2,"uv_index":9.4,"wind_gusts":34.2,"aqi":79,"pm10":21.4,"pm2_5":18.5,"mosquito_risk":0,"arthritis_risk":5,"migraine_risk":7,"frizz_risk":1,"updated_at":"2026-03-30T10:57:58.953162+05:30"},{"city":"Trichy","state":"Tamil Nadu","latitude":10.7905,"longitude":78.7047,"temp":32.5,"humidity":55,"rain":0.0,"pressure":1002.0,"uv_index":9.35,"wind_gusts":26.3,"aqi":73,"pm10":17.9,"pm2_5":15.5,"mosquito_risk":0,"arthritis_risk":5,"migraine_risk":4,"frizz_risk":1,"updated_at":"2026-03-30T10:57:58.953169+05:30"},{"city":"Salem","state":"Tamil Nadu","latitude":11.6643,"longitude":78.146,"temp":33.1,"humidity":48,"rain":0.0,"pressure":979.5,"uv_index":9.4,"wind_gusts":23.8,"aqi":89,"pm10":26.6,"pm2_5":22.3,"mosquito_risk":0,"arthritis_risk":5,"migraine_risk":7,"frizz_risk":1,"updated_at":"2026-03-30T10:57:58.953176+05:30"},{"city":"Tirunelveli","state":"Tamil Nadu","latitude":8.7139,"longitude":77.7567,"temp":34.0,"humidity":47,"rain":0.0,"pressure":1005.1,"uv_index":9.35,"wind_gusts":46.1,"aqi":81,"pm10":24.5,"pm2_5":22.1,"mosquito_risk":0,"arthritis_risk":5,"migraine_risk":4,"frizz_risk":1,"updated_at":"2026-03-30T10:57:58.953182+05:30"},{"city":"Vellore","state":"Tamil Nadu","latitude":12.9165,"longitude":79.1325,"temp":32.7,"humidity":50,"rain":0.0,"pressure":986.8,"uv_index":9.4,"wind_gusts":33.8,"aqi":103,"pm10":36.2,"pm2_5":32.1,"mosquito_risk":0,"arthritis_risk":5,"migraine_risk":7,"frizz_risk":1,"updated_at":"2026-03-30T10:57:58.953188+05:30"},{"city":"Erode","state":"Tamil Nadu","latitude":11.341,"longitude":77.7172,"temp":33.3,"humidity":53,"rain":0.0,"pressure":991.1,"uv_index":9.4,"wind_gusts":27.4,"aqi":80,"pm10":22.5,"pm2_5":19.2,"mosquito_risk":0,"arthritis_risk":5,"migraine_risk":7,"frizz_risk":1,"updated_at":"2026-03-30T10:57:58.953194+05:30"},{"city":"Kochi","state":"Kerala","latitude":9.9312,"longitude":76.2673,"temp":28.8,"humidity":80,"rain":0.0,"pressure":1010.2,"uv_index":9.2,"wind_gusts":28.8,"aqi":96,"pm10":36.8,"pm2_5":32.8,"mosquito_risk":7,"arthritis_risk":0,"migraine_risk":4,"frizz_risk":1,"updated_at":"2026-03-30T10:57:58.953201+05:30"},{"city":"Thiruvananthapuram","state":"Kerala","latitude":8.5241,"longitude":76.9366,"temp":28.5,"humidity":80,"rain":0.0,"pressure":1009.4,"uv_index":9.2,"wind_gusts":28.1,"aqi":72,"pm10":31.2,"pm2_5":25.1,"mosquito_risk":7,"arthritis_risk":0,"migraine_risk":4,"frizz_risk":1,"updated_at":"2026-03-30T10:57:58.953207+05:30"},{"city":"Kozhikode","state":"Kerala","latitude":11.2588,"longitude":75.7804,"temp":28.7,"humidity":81,"rain":0.0,"pressure":1009.6,"uv_index":2.7,"wind_gusts":27.0,"aqi":102,"pm10":56.5,"pm2_5":49.0,"mosquito_risk":7,"arthritis_risk":0,"migraine_risk":0,"frizz_risk":1,"updated_at":"2026-03-30T10:57:58.953214+05:30"},{"city":"Thrissur","state":"Kerala","latitude":10.5276,"longitude":76.2144,"temp":32.9,"humidity":60,"rain":0.0,"pressure":1008.5,"uv_index":9.2,"wind_gusts":28.8,"aqi":100,"pm10":41.4,"pm2_5":36.2,"mosquito_risk":0,"arthritis_risk":0,"migraine_risk":4,"frizz_risk":1,"updated_at":"2026-03-30T10:57:58.953221+05:30"},{"city":"Kannur","state":"Kerala","latitude":11.8745,"longitude":75.3704,"temp":29.6,"humidity":73,"rain":0.0,"pressure":1008.7,"uv_index":6.85,"wind_gusts":24.8,"aqi":112,"pm10":39.5,"pm2_5":32.6,"mosquito_risk":7,"arthritis_risk":0,"migraine_risk":4,"frizz_risk":1,"updated_at":"2026-03-30T10:57:58.953227+05:30"},{"city":"Patna","state":"Bihar","latitude":25.5941,"longitude":85.1376,"temp":29.5,"humidity":66,"rain":0.0,"pressure":1002.8,"uv_index":8.1,"wind_gusts":30.6,"aqi":152,"pm10":81.3,"pm2_5":71.7,"mosquito_risk":7,"arthritis_risk":5,"migraine_risk":4,"frizz_risk":1,"updated_at":"2026-03-30T10:57:58.953233+05:30"},{"city":"Gaya","state":"Bihar","latitude":24.7914,"longitude":85.0002,"temp":31.3,"humidity":62,"rain":0.0,"pressure":995.4,"uv_index":8.2,"wind_gusts":24.1,"aqi":114,"pm10":71.7,"pm2_5":51.1,"mosquito_risk":3,"arthritis_risk":5,"migraine_risk":7,"frizz_risk":1,"updated_at":"2026-03-30T10:57:58.953239+05:30"},{"city":"Muzaffarpur","state":"Bihar","latitude":26.1209,"longitude":85.3647,"temp":28.2,"humidity":64,"rain":0.0,"pressure":1003.2,"uv_index":8.05,"wind_gusts":29.2,"aqi":153,"pm10":81.7,"pm2_5":71.0,"mosquito_risk":7,"arthritis_risk":5,"migraine_risk":4,"frizz_risk":1,"updated_at":"2026-03-30T10:57:58.953245+05:30"},{"city":"Bhagalpur","state":"Bihar","latitude":25.2425,"longitude":87.0117,"temp":27.6,"humidity":74,"rain":0.0,"pressure":1004.0,"uv_index":8.1,"wind_gusts":19.4,"aqi":156,"pm10":73.3,"pm2_5":63.3,"mosquito_risk":7,"arthritis_risk":5,"migraine_risk":4,"frizz_risk":1,"updated_at":"2026-03-30T10:57:58.953250+05:30"},{"city":"Ranchi","state":"Jharkhand","latitude":23.3441,"longitude":85.3096,"temp":30.6,"humidity":57,"rain":0.0,"pressure":940.2,"uv_index":8.75,"wind_gusts":25.6,"aqi":94,"pm10":58.9,"pm2_5":45.6,"mosquito_risk":0,"arthritis_risk":5,"migraine_risk":7,"frizz_risk":1,"updated_at":"2026-03-30T10:57:58.953256+05:30"},{"city":"Jamshedpur","state":"Jharkhand","latitude":22.8046,"longitude":86.2029,"temp":31.6,"humidity":64,"rain":0.0,"pressure":992.5,"uv_index":8.6,"wind_gusts":27.7,"aqi":130,"pm10":65.4,"pm2_5":53.9,"mosquito_risk":3,"arthritis_risk":5,"migraine_risk":7,"frizz_risk":1,"updated_at":"2026-03-30T10:57:58.953262+05:30"},{"city":"Dhanbad","state":"Jharkhand","latitude":23.7957,"longitude":86.4304,"temp":31.4,"humidity":58,"rain":0.0,"pressure":981.9,"uv_index":8.5,"wind_gusts":24.1,"aqi":163,"pm10":93.4,"pm2_5":82.2,"mosquito_risk":0,"arthritis_risk":5,"migraine_risk":7,"frizz_risk":1,"updated_at":"2026-03-30T10:57:58.953268+05:30"},{"city":"Bokaro","state":"Jharkhand","latitude":23.6693,"longitude":86.1511,"temp":31.3,"humidity":61,"rain":0.0,"pressure":985.9,"uv_index":8.5,"wind_gusts":27.4,"aqi":157,"pm10":94.5,"pm2_5":82.9,"mosquito_risk":3,"arthritis_risk":5,"migraine_risk":7,"frizz_risk":1,"updated_at":"2026-03-30T10:57:58.953274+05:30"},{"city":"Bhubaneswar","state":"Odisha","latitude":20.2961,"longitude":85.8245,"temp":32.6,"humidity":61,"rain":0.0,"pressure":1004.2,"uv_index":8.8,"wind_gusts":38.9,"aqi":72,"pm10":23.5,"pm2_5":18.2,"mosquito_risk":3,"arthritis_risk":5,"migraine_risk":4,"frizz_risk":1,"updated_at":"2026-03-30T10:57:58.953280+05:30"},{"city":"Cuttack","state":"Odisha","latitude":20.4625,"longitude":85.8828,"temp":32.7,"humidity":62,"rain":0.0,"pressure":1005.9,"uv_index":8.85,"wind_gusts":34.2,"aqi":72,"pm10":23.5,"pm2_5":18.2,"mosquito_risk":3,"arthritis_risk":5,"migraine_risk":4,"frizz_risk":1,"updated_at":"2026-03-30T10:57:58.953286+05:30"},{"city":"Rourkela","state":"Odisha","latitude":22.2604,"longitude":84.8536,"temp":33.7,"humidity":54,"rain":0.0,"pressure":986.4,"uv_index":8.5,"wind_gusts":51.5,"aqi":113,"pm10":61.5,"pm2_5":52.5,"mosquito_risk":0,"arthritis_risk":5,"migraine_risk":7,"frizz_risk":1,"updated_at":"2026-03-30T10:57:58.953292+05:30"},{"city":"Raipur","state":"Chhattisgarh","latitude":21.2514,"longitude":81.6296,"temp":36.0,"humidity":28,"rain":0.0,"pressure":975.8,"uv_index":8.6,"wind_gusts":31.7,"aqi":98,"pm10":34.6,"pm2_5":27.0,"mosquito_risk":0,"arthritis_risk":5,"migraine_risk":10,"frizz_risk":0,"updated_at":"2026-03-30T10:57:58.953298+05:30"},{"city":"Bhilai","state":"Chhattisgarh","latitude":21.1938,"longitude":81.3509,"temp":35.4,"humidity":30,"rain":0.0,"pressure":976.0,"uv_index":8.65,"wind_gusts":28.4,"aqi":71,"pm10":30.7,"pm2_5":24.6,"mosquito_risk":0,"arthritis_risk":5,"migraine_risk":10,"frizz_risk":0,"updated_at":"2026-03-30T10:57:58.953304+05:30"},{"city":"Guwahati","state":"Assam","latitude":26.1158,"longitude":91.7086,"temp":23.9,"humidity":81,"rain":0.0,"pressure":1005.3,"uv_index":7.2,"wind_gusts":27.7,"aqi":94,"pm10":56.2,"pm2_5":38.0,"mosquito_risk":3,"arthritis_risk":5,"migraine_risk":4,"frizz_risk":1,"updated_at":"2026-03-30T10:57:58.953310+05:30"},{"city":"Agartala","state":"Tripura","latitude":23.8315,"longitude":91.2868,"temp":29.1,"humidity":68,"rain":0.0,"pressure":1009.0,"uv_index":7.6,"wind_gusts":30.2,"aqi":138,"pm10":23.1,"pm2_5":17.7,"mosquito_risk":7,"arthritis_risk":0,"migraine_risk":4,"frizz_risk":1,"updated_at":"2026-03-30T10:57:58.953316+05:30"},{"city":"Shillong","state":"Meghalaya","latitude":25.5788,"longitude":91.8933,"temp":17.6,"humidity":63,"rain":0.0,"pressure":858.1,"uv_index":5.7,"wind_gusts":42.1,"aqi":92,"pm10":55.2,"pm2_5":34.0,"mosquito_risk":3,"arthritis_risk":5,"migraine_risk":3,"frizz_risk":0,"updated_at":"2026-03-30T10:57:58.953323+05:30"},{"city":"Imphal","state":"Manipur","latitude":24.817,"longitude":93.9368,"temp":21.8,"humidity":72,"rain":0.0,"pressure":925.4,"uv_index":7.95,"wind_gusts":58.3,"aqi":155,"pm10":47.6,"pm2_5":35.6,"mosquito_risk":3,"arthritis_risk":5,"migraine_risk":7,"frizz_risk":1,"updated_at":"2026-03-30T10:57:58.953329+05:30"},{"city":"Aizawl","state":"Mizoram","latitude":23.7271,"longitude":92.7176,"temp":22.0,"humidity":77,"rain":0.0,"pressure":895.8,"uv_index":8.55,"wind_gusts":52.2,"aqi":151,"pm10":59.6,"pm2_5":44.5,"mosquito_risk":3,"arthritis_risk":5,"migraine_risk":7,"frizz_risk":1,"updated_at":"2026-03-30T10:57:58.953335+05:30"},{"city":"Kohima","state":"Nagaland","latitude":25.6701,"longitude":94.1077,"temp":17.4,"humidity":77,"rain":0.0,"pressure":857.2,"uv_index":7.9,"wind_gusts":77.8,"aqi":135,"pm10":51.0,"pm2_5":34.8,"mosquito_risk":3,"arthritis_risk":5,"migraine_risk":7,"frizz_risk":0,"updated_at":"2026-03-30T10:57:58.953341+05:30"},{"city":"Gangtok","state":"Sikkim","latitude":27.3314,"longitude":88.6138,"temp":17.2,"humidity":75,"rain":0.0,"pressure":839.4,"uv_index":8.15,"wind_gusts":17.6,"aqi":94,"pm10":29.0,"pm2_5":21.4,"mosquito_risk":3,"arthritis_risk":5,"migraine_risk":7,"frizz_risk":0,"updated_at":"2026-03-30T10:57:58.953347+05:30"},{"city":"Siliguri","state":"West Bengal","latitude":26.7271,"longitude":88.3953,"temp":21.6,"humidity":79,"rain":0.0,"pressure":997.5,"uv_index":7.7,"wind_gusts":14.8,"aqi":153,"pm10":58.4,"pm2_5":40.4,"mosquito_risk":3,"arthritis_risk":5,"migraine_risk":7,"frizz_risk":1,"updated_at":"2026-03-30T10:58:02.203680+05:30"},{"city":"Durgapur","state":"West Bengal","latitude":23.5204,"longitude":87.3119,"temp":30.8,"humidity":65,"rain":0.0,"pressure":997.2,"uv_index":8.5,"wind_gusts":28.4,"aqi":162,"pm10":68.9,"pm2_5":60.5,"mosquito_risk":3,"arthritis_risk":5,"migraine_risk":7,"frizz_risk":1,"updated_at":"2026-03-30T10:58:02.203720+05:30"},{"city":"Asansol","state":"West Bengal","latitude":23.6739,"longitude":86.9524,"temp":31.1,"humidity":62,"rain":0.0,"pressure":995.6,"uv_index":8.5,"wind_gusts":26.3,"aqi":159,"pm10":75.0,"pm2_5":65.4,"mosquito_risk":3,"arthritis_risk":5,"migraine_risk":7,"frizz_risk":1,"updated_at":"2026-03-30T10:58:02.203732+05:30"},{"city":"Pondicherry","state":"Puducherry","latitude":11.9139,"longitude":79.8145,"temp":31.8,"humidity":61,"rain":0.0,"pressure":1010.8,"uv_index":9.25,"wind_gusts":27.4,"aqi":54,"pm10":18.2,"pm2_5":12.8,"mosquito_risk":3,"arthritis_risk":0,"migraine_risk":4,"frizz_risk":1,"updated_at":"2026-03-30T10:58:02.203741+05:30"},{"city":"Port Blair","state":"Andaman and Nicobar Islands","latitude":11.6234,"longitude":92.7265,"temp":29.9,"humidity":66,"rain":0.0,"pressure":1007.9,"uv_index":9.2,"wind_gusts":15.1,"aqi":70,"pm10":30.2,"pm2_5":24.7,"mosquito_risk":7,"arthritis_risk":5,"migraine_risk":4,"frizz_risk":1,"updated_at":"2026-03-30T10:58:02.203750+05:30"},{"city":"Haridwar","state":"Uttarakhand","latitude":29.9457,"longitude":78.1642,"temp":30.4,"humidity":43,"rain":0.0,"pressure":976.6,"uv_index":6.15,"wind_gusts":42.1,"aqi":71,"pm10":69.8,"pm2_5":18.0,"mosquito_risk":0,"arthritis_risk":5,"migraine_risk":7,"frizz_risk":1,"updated_at":"2026-03-30T10:58:02.203759+05:30"},{"city":"Rishikesh","state":"Uttarakhand","latitude":30.0869,"longitude":78.2676,"temp":30.1,"humidity":41,"rain":0.0,"pressure":969.5,"uv_index":6.2,"wind_gusts":22.3,"aqi":63,"pm10":102.0,"pm2_5":16.5,"mosquito_risk":0,"arthritis_risk":5,"migraine_risk":7,"frizz_risk":0,"updated_at":"2026-03-30T10:58:02.203768+05:30"},{"city":"Nainital","state":"Uttarakhand","latitude":29.3919,"longitude":79.4542,"temp":23.5,"humidity":46,"rain":0.0,"pressure":810.4,"uv_index":7.45,"wind_gusts":47.9,"aqi":69,"pm10":86.4,"pm2_5":18.1,"mosquito_risk":0,"arthritis_risk":5,"migraine_risk":7,"frizz_risk":0,"updated_at":"2026-03-30T10:58:02.203777+05:30"},{"city":"Mussoorie","state":"Uttarakhand","latitude":30.4599,"longitude":78.0664,"temp":21.7,"humidity":48,"rain":0.0,"pressure":806.7,"uv_index":6.7,"wind_gusts":34.2,"aqi":63,"pm10":93.4,"pm2_5":14.8,"mosquito_risk":0,"arthritis_risk":5,"migraine_risk":7,"frizz_risk":0,"updated_at":"2026-03-30T10:58:02.203786+05:30"},{"city":"Dharamshala","state":"Himachal Pradesh","latitude":32.219,"longitude":76.3234,"temp":23.1,"humidity":52,"rain":0.0,"pressure":871.6,"uv_index":6.55,"wind_gusts":30.2,"aqi":32,"pm10":15.9,"pm2_5":3.8,"mosquito_risk":0,"arthritis_risk":5,"migraine_risk":7,"frizz_risk":0,"updated_at":"2026-03-30T10:58:02.203795+05:30"},{"city":"Dalhousie","state":"Himachal Pradesh","latitude":32.5387,"longitude":75.971,"temp":20.3,"humidity":46,"rain":0.0,"pressure":806.3,"uv_index":5.8,"wind_gusts":36.0,"aqi":64,"pm10":63.8,"pm2_5":12.8,"mosquito_risk":0,"arthritis_risk":5,"migraine_risk":3,"frizz_risk":0,"updated_at":"2026-03-30T10:58:02.203805+05:30"},{"city":"Patiala","state":"Punjab","latitude":30.3398,"longitude":76.3869,"temp":27.1,"humidity":65,"rain":0.0,"pressure":979.8,"uv_index":5.55,"wind_gusts":38.2,"aqi":173,"pm10":315.7,"pm2_5":49.7,"mosquito_risk":7,"arthritis_risk":5,"migraine_risk":3,"frizz_risk":1,"updated_at":"2026-03-30T10:58:02.203814+05:30"},{"city":"Bhatinda","state":"Punjab","latitude":30.211,"longitude":74.9455,"temp":27.4,"humidity":60,"rain":0.0,"pressure":984.7,"uv_index":3.95,"wind_gusts":45.4,"aqi":290,"pm10":375.3,"pm2_5":92.9,"mosquito_risk":4,"arthritis_risk":5,"migraine_risk":3,"frizz_risk":1,"updated_at":"2026-03-30T10:58:02.203822+05:30"},{"city":"Rohtak","state":"Haryana","latitude":28.8955,"longitude":76.6066,"temp":27.1,"humidity":55,"rain":0.0,"pressure":983.3,"uv_index":6.65,"wind_gusts":41.8,"aqi":368,"pm10":341.8,"pm2_5":69.8,"mosquito_risk":4,"arthritis_risk":5,"migraine_risk":7,"frizz_risk":1,"updated_at":"2026-03-30T10:58:02.203830+05:30"},{"city":"Panipat","state":"Haryana","latitude":29.3909,"longitude":76.9635,"temp":28.1,"humidity":59,"rain":0.0,"pressure":981.8,"uv_index":6.6,"wind_gusts":38.9,"aqi":530,"pm10":484.3,"pm2_5":89.6,"mosquito_risk":4,"arthritis_risk":5,"migraine_risk":7,"frizz_risk":1,"updated_at":"2026-03-30T10:58:02.203838+05:30"},{"city":"Mathura","state":"Uttar Pradesh","latitude":27.4924,"longitude":77.6737,"temp":32.9,"humidity":35,"rain":0.0,"pressure":988.3,"uv_index":6.8,"wind_gusts":40.7,"aqi":187,"pm10":480.6,"pm2_5":55.2,"mosquito_risk":0,"arthritis_risk":5,"migraine_risk":7,"frizz_risk":0,"updated_at":"2026-03-30T10:58:02.203846+05:30"},{"city":"Vrindavan","state":"Uttar Pradesh","latitude":27.5823,"longitude":77.7027,"temp":32.0,"humidity":39,"rain":0.0,"pressure":988.8,"uv_index":6.4,"wind_gusts":36.0,"aqi":187,"pm10":480.6,"pm2_5":55.2,"mosquito_risk":0,"arthritis_risk":5,"migraine_risk":7,"frizz_risk":1,"updated_at":"2026-03-30T10:58:02.203854+05:30"},{"city":"Ayodhya","state":"Uttar Pradesh","latitude":26.7922,"longitude":82.1998,"temp":29.9,"humidity":59,"rain":0.0,"pressure":997.7,"uv_index":7.45,"wind_gusts":25.2,"aqi":144,"pm10":84.3,"pm2_5":59.6,"mosquito_risk":4,"arthritis_risk":5,"migraine_risk":7,"frizz_risk":1,"updated_at":"2026-03-30T10:58:02.203862+05:30"},{"city":"Ratlam","state":"Madhya Pradesh","latitude":23.3315,"longitude":75.0367,"temp":29.6,"humidity":53,"rain":0.0,"pressure":956.8,"uv_index":8.1,"wind_gusts":29.9,"aqi":44,"pm10":32.6,"pm2_5":12.2,"mosquito_risk":4,"arthritis_risk":5,"migraine_risk":7,"frizz_risk":1,"updated_at":"2026-03-30T10:58:02.203869+05:30"},{"city":"Sagar","state":"Madhya Pradesh","latitude":23.8388,"longitude":78.7378,"temp":33.6,"humidity":29,"rain":0.0,"pressure":952.2,"uv_index":8.1,"wind_gusts":35.6,"aqi":31,"pm10":54.2,"pm2_5":8.6,"mosquito_risk":0,"arthritis_risk":5,"migraine_risk":7,"frizz_risk":0,"updated_at":"2026-03-30T10:58:02.203877+05:30"},{"city":"Satna","state":"Madhya Pradesh","latitude":24.6005,"longitude":80.8322,"temp":35.9,"humidity":28,"rain":0.0,"pressure":972.6,"uv_index":8.2,"wind_gusts":44.3,"aqi":62,"pm10":49.2,"pm2_5":20.7,"mosquito_risk":0,"arthritis_risk":5,"migraine_risk":10,"frizz_risk":0,"updated_at":"2026-03-30T10:58:02.203885+05:30"},{"city":"Akola","state":"Maharashtra","latitude":20.7002,"longitude":77.0082,"temp":35.1,"humidity":36,"rain":0.0,"pressure":976.6,"uv_index":8.55,"wind_gusts":31.7,"aqi":46,"pm10":19.6,"pm2_5":10.2,"mosquito_risk":0,"arthritis_risk":5,"migraine_risk":10,"frizz_risk":1,"updated_at":"2026-03-30T10:58:02.203894+05:30"},{"city":"Amravati","state":"Maharashtra","latitude":20.9374,"longitude":77.7796,"temp":35.3,"humidity":30,"rain":0.0,"pressure":969.0,"uv_index":8.5,"wind_gusts":24.8,"aqi":47,"pm10":15.8,"pm2_5":8.7,"mosquito_risk":0,"arthritis_risk":5,"migraine_risk":10,"frizz_risk":0,"updated_at":"2026-03-30T10:58:02.203903+05:30"},{"city":"Latur","state":"Maharashtra","latitude":18.4088,"longitude":76.5604,"temp":33.0,"humidity":36,"rain":0.0,"pressure":941.9,"uv_index":8.85,"wind_gusts":44.6,"aqi":52,"pm10":12.9,"pm2_5":10.1,"mosquito_risk":0,"arthritis_risk":5,"migraine_risk":7,"frizz_risk":0,"updated_at":"2026-03-30T10:58:02.203911+05:30"},{"city":"Nanded","state":"Maharashtra","latitude":19.1383,"longitude":77.3091,"temp":35.0,"humidity":35,"rain":0.0,"pressure":970.7,"uv_index":8.7,"wind_gusts":47.9,"aqi":53,"pm10":14.0,"pm2_5":11.0,"mosquito_risk":0,"arthritis_risk":5,"migraine_risk":7,"frizz_risk":1,"updated_at":"2026-03-30T10:58:02.203918+05:30"},{"city":"Gulbarga","state":"Karnataka","latitude":17.3297,"longitude":76.8343,"temp":34.1,"humidity":34,"rain":0.0,"pressure":960.2,"uv_index":8.9,"wind_gusts":36.0,"aqi":67,"pm10":21.8,"pm2_5":19.6,"mosquito_risk":0,"arthritis_risk":5,"migraine_risk":7,"frizz_risk":0,"updated_at":"2026-03-30T10:58:02.203925+05:30"},{"city":"Bidar","state":"Karnataka","latitude":17.9104,"longitude":77.5199,"temp":32.1,"humidity":44,"rain":0.0,"pressure":937.6,"uv_index":8.1,"wind_gusts":37.1,"aqi":76,"pm10":40.4,"pm2_5":36.4,"mosquito_risk":0,"arthritis_risk":5,"migraine_risk":7,"frizz_risk":1,"updated_at":"2026-03-30T10:58:02.203932+05:30"},{"city":"Hospet","state":"Karnataka","latitude":15.2689,"longitude":76.3909,"temp":30.4,"humidity":55,"rain":0.0,"pressure":957.8,"uv_index":5.75,"wind_gusts":26.3,"aqi":79,"pm10":45.2,"pm2_5":38.9,"mosquito_risk":0,"arthritis_risk":5,"migraine_risk":3,"frizz_risk":1,"updated_at":"2026-03-30T10:58:02.203939+05:30"},{"city":"Tirupur","state":"Tamil Nadu","latitude":11.1085,"longitude":77.3411,"temp":32.1,"humidity":53,"rain":0.0,"pressure":977.5,"uv_index":9.5,"wind_gusts":25.9,"aqi":102,"pm10":22.6,"pm2_5":19.7,"mosquito_risk":0,"arthritis_risk":5,"migraine_risk":7,"frizz_risk":1,"updated_at":"2026-03-30T10:58:02.203946+05:30"},{"city":"Alappuzha","state":"Kerala","latitude":9.4981,"longitude":76.3388,"temp":29.0,"humidity":80,"rain":0.0,"pressure":1010.3,"uv_index":9.2,"wind_gusts":26.6,"aqi":92,"pm10":39.0,"pm2_5":34.2,"mosquito_risk":7,"arthritis_risk":0,"migraine_risk":4,"frizz_risk":1,"updated_at":"2026-03-30T10:58:02.203953+05:30"},{"city":"Munnar","state":"Kerala","latitude":10.0889,"longitude":77.0595,"temp":28.7,"humidity":43,"rain":0.0,"pressure":860.8,"uv_index":8.4,"wind_gusts":22.3,"aqi":94,"pm10":17.7,"pm2_5":15.1,"mosquito_risk":4,"arthritis_risk":5,"migraine_risk":7,"frizz_risk":0,"updated_at":"2026-03-30T10:58:02.203961+05:30"},{"city":"Silchar","state":"Assam","latitude":24.8333,"longitude":92.7789,"temp":27.9,"humidity":66,"rain":0.0,"pressure":1007.9,"uv_index":8.3,"wind_gusts":27.0,"aqi":156,"pm10":67.1,"pm2_5":51.5,"mosquito_risk":7,"arthritis_risk":5,"migraine_risk":4,"frizz_risk":1,"updated_at":"2026-03-30T10:58:02.203969+05:30"},{"city":"Dibrugarh","state":"Assam","latitude":27.4728,"longitude":94.912,"temp":23.3,"humidity":77,"rain":0.0,"pressure":999.5,"uv_index":7.85,"wind_gusts":10.1,"aqi":96,"pm10":43.2,"pm2_5":30.5,"mosquito_risk":3,"arthritis_risk":5,"migraine_risk":7,"frizz_risk":1,"updated_at":"2026-03-30T10:58:02.203976+05:30"}]