[{"city":"Delhi","state":"Delhi","latitude":28.6139,"longitude":77.209,"temp":26.4,"humidity":63,"rain":0.0,"pressure":988.0,"uv_index":5.5,"wind_gusts":25.6,"aqi":173,"pm10":506.6,"pm2_5":117.8,"mosquito_risk":7,"arthritis_risk":5,"migraine_risk":3,"frizz_risk":1,"updated_at":"2026-03-09T23:18:48.610260+05:30"},{"city":"Mumbai","state":"Maharashtra","latitude":19.076,"longitude":72.8777,"temp":29.9,"humidity":60,"rain":0.0,"pressure":1009.3,"uv_index":7.55,"wind_gusts":24.5,"aqi":206,"pm10":29.6,"pm2_5":28.9,"mosquito_risk":4,"arthritis_risk":0,"migraine_risk":4,"frizz_risk":1,"updated_at":"2026-03-09T23:18:48.610304+05:30"},{"city":"Bangalore","state":"Karnataka","latitude":12.9716,"longitude":77.5946,"temp":22.4,"humidity":72,"rain":0.0,"pressure":914.5,"uv_index":9.2,"wind_gusts":38.2,"aqi":101,"pm10":39.8,"pm2_5":35.9,"mosquito_risk":3,"arthritis_risk":5,"migraine_risk":7,"frizz_risk":1,"updated_at":"2026-03-09T23:18:48.610319+05:30"},{"city":"Hyderabad","state":"Telangana","latitude":17.385,"longitude":78.4867,"temp":24.1,"humidity":77,"rain":0.0,"pressure":957.1,"uv_index":8.55,"wind_gusts":31.3,"aqi":123,"pm10":48.4,"pm2_5":43.5,"mosquito_risk":3,"arthritis_risk":5,"migraine_risk":7,"frizz_risk":1,"updated_at":"2026-03-09T23:18:48.610329+05:30"},{"city":"Chennai","state":"Tamil Nadu","latitude":13.0827,"longitude":80.2707,"temp":26.0,"humidity":74,"rain":0.0,"pressure":1012.4,"uv_index":8.95,"wind_gusts":34.6,"aqi":89,"pm10":36.3,"pm2_5":26.6,"mosquito_risk":7,"arthritis_risk":0,"migraine_risk":4,"frizz_risk":1,"updated_at":"2026-03-09T23:18:48.610342+05:30"},{"city":"Kolkata","state":"West Bengal","latitude":22.5726,"longitude":88.3639,"temp":24.4,"humidity":93,"rain":0.0,"pressure":1012.4,"uv_index":7.9,"wind_gusts":16.6,"aqi":131,"pm10":73.8,"pm2_5":67.8,"mosquito_risk":3,"arthritis_risk":0,"migraine_risk":4,"frizz_risk":1,"updated_at":"2026-03-09T23:18:48.610351+05:30"},{"city":"Pune","state":"Maharashtra","latitude":18.5204,"longitude":73.8567,"temp":23.8,"humidity":44,"rain":0.0,"pressure":950.6,"uv_index":8.1,"wind_gusts":31.0,"aqi":101,"pm10":20.3,"pm2_5":18.2,"mosquito_risk":0,"arthritis_risk":5,"migraine_risk":7,"frizz_risk":0,"updated_at":"2026-03-09T23:18:48.610361+05:30"},{"city":"Ahmedabad","state":"Gujarat","latitude":23.0225,"longitude":72.5714,"temp":26.9,"humidity":38,"rain":0.0,"pressure":1006.1,"uv_index":7.35,"wind_gusts":21.6,"aqi":79,"pm10":18.3,"pm2_5":16.8,"mosquito_risk":4,"arthritis_risk":5,"migraine_risk":4,"frizz_risk":0,"updated_at":"2026-03-09T23:18:48.610368+05:30"},{"city":"Jaipur","state":"Rajasthan","latitude":26.9124,"longitude":75.7873,"temp":27.2,"humidity":20,"rain":0.0,"pressure":964.5,"uv_index":6.75,"wind_gusts":27.7,"aqi":77,"pm10":83.1,"pm2_5":32.0,"mosquito_risk":4,"arthritis_risk":5,"migraine_risk":7,"frizz_risk":0,"updated_at":"2026-03-09T23:18:48.610393+05:30"},{"city":"Lucknow","state":"Uttar Pradesh","latitude":26.8467,"longitude":80.9462,"temp":25.0,"humidity":81,"rain":0.0,"pressure":999.4,"uv_index":6.55,"wind_gusts":22.0,"aqi":175,"pm10":166.2,"pm2_5":101.5,"mosquito_risk":7,"arthritis_risk":5,"migraine_risk":7,"frizz_risk":1,"updated_at":"2026-03-09T23:18:48.610401+05:30"},{"city":"Kanpur","state":"Uttar Pradesh","latitude":26.4499,"longitude":80.3319,"temp":26.1,"humidity":63,"rain":0.0,"pressure":997.0,"uv_index":6.55,"wind_gusts":18.0,"aqi":163,"pm10":212.8,"pm2_5":84.8,"mosquito_risk":7,"arthritis_risk":5,"migraine_risk":7,"frizz_risk":1,"updated_at":"2026-03-09T23:18:48.610408+05:30"},{"city":"Chandigarh","state":"Chandigarh","latitude":30.7333,"longitude":76.7794,"temp":23.6,"humidity":70,"rain":0.0,"pressure":973.7,"uv_index":5.95,"wind_gusts":24.1,"aqi":104,"pm10":68.2,"pm2_5":59.1,"mosquito_risk":3,"arthritis_risk":5,"migraine_risk":3,"frizz_risk":1,"updated_at":"2026-03-09T23:18:48.610416+05:30"},{"city":"Srinagar","state":"Jammu and Kashmir","latitude":34.0837,"longitude":74.7973,"temp":10.7,"humidity":79,"rain":0.0,"pressure":845.3,"uv_index":6.5,"wind_gusts":25.2,"aqi":143,"pm10":106.9,"pm2_5":72.2,"mosquito_risk":3,"arthritis_risk":5,"migraine_risk":7,"frizz_risk":0,"updated_at":"2026-03-09T23:18:48.610424+05:30"},{"city":"Jammu","state":"Jammu and Kashmir","latitude":32.7266,"longitude":74.857,"temp":21.3,"humidity":80,"rain":0.0,"pressure":977.5,"uv_index":6.55,"wind_gusts":18.0,"aqi":93,"pm10":54.0,"pm2_5":45.5,"mosquito_risk":3,"arthritis_risk":5,"migraine_risk":7,"frizz_risk":1,"updated_at":"2026-03-09T23:18:48.610431+05:30"},{"city":"Amritsar","state":"Punjab","latitude":31.634,"longitude":74.8723,"temp":24.0,"humidity":76,"rain":0.0,"pressure":985.5,"uv_index":6.5,"wind_gusts":13.3,"aqi":163,"pm10":150.4,"pm2_5":128.5,"mosquito_risk":3,"arthritis_risk":5,"migraine_risk":7,"frizz_risk":1,"updated_at":"2026-03-09T23:18:48.610437+05:30"},{"city":"Ludhiana","state":"Punjab","latitude":30.901,"longitude":75.8573,"temp":23.7,"humidity":72,"rain":0.0,"pressure":983.7,"uv_index":6.15,"wind_gusts":18.7,"aqi":157,"pm10":180.7,"pm2_5":123.4,"mosquito_risk":3,"arthritis_risk":5,"migraine_risk":7,"frizz_risk":1,"updated_at":"2026-03-09T23:18:48.610444+05:30"},{"city":"Jalandhar","state":"Punjab","latitude":31.326,"longitude":75.5762,"temp":22.9,"humidity":83,"rain":0.0,"pressure":985.0,"uv_index":6.35,"wind_gusts":16.2,"aqi":159,"pm10":143.9,"pm2_5":109.9,"mosquito_risk":3,"arthritis_risk":5,"migraine_risk":7,"frizz_risk":1,"updated_at":"2026-03-09T23:18:48.610453+05:30"},{"city":"Dehradun","state":"Uttarakhand","latitude":30.6284,"longitude":78.0322,"temp":14.8,"humidity":95,"rain":0.0,"pressure":834.4,"uv_index":6.3,"wind_gusts":28.4,"aqi":94,"pm10":49.5,"pm2_5":35.6,"mosquito_risk":3,"arthritis_risk":10,"migraine_risk":7,"frizz_risk":0,"updated_at":"2026-03-09T23:18:48.610461+05:30"},{"city":"Shimla","state":"Himachal Pradesh","latitude":31.1048,"longitude":77.1734,"temp":14.0,"humidity":68,"rain":0.0,"pressure":788.7,"uv_index":6.35,"wind_gusts":48.2,"aqi":69,"pm10":47.3,"pm2_5":31.7,"mosquito_risk":3,"arthritis_risk":5,"migraine_risk":7,"frizz_risk":0,"updated_at":"2026-03-09T23:18:48.610467+05:30"},{"city":"Manali","state":"Himachal Pradesh","latitude":32.2396,"longitude":77.1887,"temp":18.4,"humidity":28,"rain":0.0,"pressure":826.3,"uv_index":8.05,"wind_gusts":35.6,"aqi":64,"pm10":29.3,"pm2_5":15.1,"mosquito_risk":0,"arthritis_risk":5,"migraine_risk":7,"frizz_risk":1,"updated_at":"2026-03-09T23:18:48.610474+05:30"},{"city":"Gurgaon","state":"Haryana","latitude":28.4595,"longitude":77.0266,"temp":21.9,"humidity":80,"rain":0.0,"pressure":986.1,"uv_index":5.85,"wind_gusts":24.5,"aqi":495,"pm10":409.8,"pm2_5":109.9,"mosquito_risk":3,"arthritis_risk":5,"migraine_risk":3,"frizz_risk":1,"updated_at":"2026-03-09T23:18:48.610481+05:30"},{"city":"Noida","state":"Uttar Pradesh","latitude":28.5355,"longitude":77.391,"temp":25.6,"humidity":65,"rain":0.0,"pressure":989.6,"uv_index":5.45,"wind_gusts":24.8,"aqi":495,"pm10":409.8,"pm2_5":109.9,"mosquito_risk":7,"arthritis_risk":5,"migraine_risk":3,"frizz_risk":1,"updated_at":"2026-03-09T23:18:48.610488+05:30"},{"city":"Ghaziabad","state":"Uttar Pradesh","latitude":28.6692,"longitude":77.4538,"temp":24.5,"humidity":74,"rain":0.0,"pressure":987.9,"uv_index":5.3,"wind_gusts":24.1,"aqi":162,"pm10":403.3,"pm2_5":111.1,"mosquito_risk":3,"arthritis_risk":5,"migraine_risk":3,"frizz_risk":1,"updated_at":"2026-03-09T23:18:48.610494+05:30"},{"city":"Faridabad","state":"Haryana","latitude":28.4089,"longitude":77.3178,"temp":23.4,"humidity":68,"rain":0.0,"pressure":988.6,"uv_index":5.85,"wind_gusts":23.0,"aqi":495,"pm10":409.8,"pm2_5":109.9,"mosquito_risk":3,"arthritis_risk":5,"migraine_risk":3,"frizz_risk":1,"updated_at":"2026-03-09T23:18:48.610501+05:30"},{"city":"Meerut","state":"Uttar Pradesh","latitude":28.9845,"longitude":77.7064,"temp":22.8,"humidity":83,"rain":0.0,"pressure":986.7,"uv_index":5.7,"wind_gusts":25.2,"aqi":162,"pm10":403.3,"pm2_5":111.1,"mosquito_risk":3,"arthritis_risk":5,"migraine_risk":3,"frizz_risk":1,"updated_at":"2026-03-09T23:18:48.610508+05:30"},{"city":"Agra","state":"Uttar Pradesh","latitude":27.1767,"longitude":78.0081,"temp":24.9,"humidity":69,"rain":0.0,"pressure":992.8,"uv_index":6.4,"wind_gusts":19.8,"aqi":184,"pm10":235.6,"pm2_5":102.2,"mosquito_risk":3,"arthritis_risk":5,"migraine_risk":7,"frizz_risk":1,"updated_at":"2026-03-09T23:18:48.610515+05:30"},{"city":"Varanasi","state":"Uttar Pradesh","latitude":25.3176,"longitude":82.9739,"temp":23.3,"humidity":89,"rain":0.0,"pressure":1003.7,"uv_index":7.2,"wind_gusts":14.8,"aqi":186,"pm10":146.7,"pm2_5":140.6,"mosquito_risk":3,"arthritis_risk":5,"migraine_risk":4,"frizz_risk":1,"updated_at":"2026-03-09T23:18:48.610524+05:30"},{"city":"Prayagraj","state":"Uttar Pradesh","latitude":25.4358,"longitude":81.8463,"temp":24.2,"humidity":77,"rain":0.0,"pressure":1001.7,"uv_index":7.05,"wind_gusts":15.1,"aqi":189,"pm10":133.2,"pm2_5":123.9,"mosquito_risk":3,"arthritis_risk":5,"migraine_risk":4,"frizz_risk":1,"updated_at":"2026-03-09T23:18:48.610531+05:30"},{"city":"Gorakhpur","state":"Uttar Pradesh","latitude":26.7606,"longitude":83.3732,"temp":22.2,"humidity":90,"rain":0.0,"pressure":1004.0,"uv_index":6.9,"wind_gusts":27.0,"aqi":205,"pm10":143.0,"pm2_5":134.1,"mosquito_risk":3,"arthritis_risk":5,"migraine_risk":4,"frizz_risk":1,"updated_at":"2026-03-09T23:18:48.610537+05:30"},{"city":"Bareilly","state":"Uttar Pradesh","latitude":28.367,"longitude":79.4304,"temp":22.5,"humidity":85,"rain":0.0,"pressure":992.2,"uv_index":6.2,"wind_gusts":16.6,"aqi":169,"pm10":123.4,"pm2_5":92.9,"mosquito_risk":3,"arthritis_risk":5,"migraine_risk":7,"frizz_risk":1,"updated_at":"2026-03-09T23:18:48.610544+05:30"},{"city":"Aligarh","state":"Uttar Pradesh","latitude":27.8974,"longitude":78.088,"temp":22.6,"humidity":77,"rain":0.0,"pressure":990.4,"uv_index":6.15,"wind_gusts":23.8,"aqi":185,"pm10":249.6,"pm2_5":130.4,"mosquito_risk":3,"arthritis_risk":5,"migraine_risk":7,"frizz_risk":1,"updated_at":"2026-03-09T23:18:48.610550+05:30"},{"city":"Moradabad","state":"Uttar Pradesh","latitude":28.8386,"longitude":78.7733,"temp":22.8,"humidity":82,"rain":0.0,"pressure":989.0,"uv_index":6.05,"wind_gusts":18.0,"aqi":175,"pm10":143.4,"pm2_5":110.4,"mosquito_risk":3,"arthritis_risk":5,"migraine_risk":7,"frizz_risk":1,"updated_at":"2026-03-09T23:18:48.610557+05:30"},{"city":"Saharanpur","state":"Uttar Pradesh","latitude":29.9637,"longitude":77.546,"temp":21.6,"humidity":85,"rain":0.0,"pressure":980.9,"uv_index":5.65,"wind_gusts":23.8,"aqi":160,"pm10":232.4,"pm2_5":109.2,"mosquito_risk":3,"arthritis_risk":5,"migraine_risk":3,"frizz_risk":1,"updated_at":"2026-03-09T23:18:48.610563+05:30"},{"city":"Jhansi","state":"Uttar Pradesh","latitude":25.4484,"longitude":78.5685,"temp":24.2,"humidity":55,"rain":0.0,"pressure":982.5,"uv_index":7.0,"wind_gusts":25.6,"aqi":71,"pm10":55.4,"pm2_5":27.6,"mosquito_risk":0,"arthritis_risk":5,"migraine_risk":7,"frizz_risk":0,"updated_at":"2026-03-09T23:18:51.968011+05:30"},{"city":"Surat","state":"Gujarat","latitude":21.1702,"longitude":72.8311,"temp":28.8,"humidity":41,"rain":0.0,"pressure":1008.8,"uv_index":7.25,"wind_gusts":23.8,"aqi":99,"pm10":34.3,"pm2_5":33.6,"mosquito_risk":4,"arthritis_risk":0,"migraine_risk":4,"frizz_risk":0,"updated_at":"2026-03-09T23:18:51.968042+05:30"},{"city":"Vadodara","state":"Gujarat","latitude":22.3072,"longitude":73.1812,"temp":28.3,"humidity":39,"rain":0.0,"pressure":1007.3,"uv_index":7.4,"wind_gusts":17.3,"aqi":96,"pm10":31.9,"pm2_5":30.7,"mosquito_risk":4,"arthritis_risk":5,"migraine_risk":4,"frizz_risk":0,"updated_at":"2026-03-09T23:18:51.968052+05:30"},{"city":"Rajkot","state":"Gujarat","latitude":22.3039,"longitude":70.8022,"temp":25.6,"humidity":49,"rain":0.0,"pressure":998.3,"uv_index":7.2,"wind_gusts":23.0,"aqi":97,"pm10":25.6,"pm2_5":23.2,"mosquito_risk":4,"arthritis_risk":5,"migraine_risk":7,"frizz_risk":0,"updated_at":"2026-03-09T23:18:51.968060+05:30"},{"city":"Thane","state":"Maharashtra","latitude":19.2183,"longitude":72.9781,"temp":29.5,"humidity":46,"rain":0.0,"pressure":1008.8,"uv_index":7.55,"wind_gusts":37.1,"aqi":206,"pm10":29.6,"pm2_5":28.9,"mosquito_risk":4,"arthritis_risk":0,"migraine_risk":4,"frizz_risk":1,"updated_at":"2026-03-09T23:18:51.968068+05:30"},{"city":"Nagpur","state":"Maharashtra","latitude":21.1458,"longitude":79.0882,"temp":25.9,"humidity":34,"rain":0.0,"pressure":976.6,"uv_index":7.95,"wind_gusts":26.6,"aqi":85,"pm10":72.6,"pm2_5":59.5,"mosquito_risk":4,"arthritis_risk":5,"migraine_risk":7,"frizz_risk":0,"updated_at":"2026-03-09T23:18:51.968075+05:30"},{"city":"Nashik","state":"Maharashtra","latitude":19.9975,"longitude":73.7898,"temp":27.0,"humidity":30,"rain":0.0,"pressure":948.5,"uv_index":7.75,"wind_gusts":31.0,"aqi":106,"pm10":15.3,"pm2_5":14.1,"mosquito_risk":4,"arthritis_risk":5,"migraine_risk":7,"frizz_risk":0,"updated_at":"2026-03-09T23:18:51.968083+05:30"},{"city":"Aurangabad","state":"Maharashtra","latitude":19.8762,"longitude":75.3433,"temp":24.7,"humidity":45,"rain":0.0,"pressure":946.9,"uv_index":8.25,"wind_gusts":34.2,"aqi":95,"pm10":36.6,"pm2_5":33.3,"mosquito_risk":0,"arthritis_risk":5,"migraine_risk":7,"frizz_risk":0,"updated_at":"2026-03-09T23:18:51.968091+05:30"},{"city":"Solapur","state":"Maharashtra","latitude":17.6599,"longitude":75.9064,"temp":24.5,"humidity":52,"rain":0.0,"pressure":959.4,"uv_index":8.45,"wind_gusts":25.9,"aqi":132,"pm10":29.9,"pm2_5":26.8,"mosquito_risk":0,"arthritis_risk":5,"migraine_risk":7,"frizz_risk":0,"updated_at":"2026-03-09T23:18:51.968099+05:30"},{"city":"Kolhapur","state":"Maharashtra","latitude":16.705,"longitude":74.2433,"temp":24.6,"humidity":39,"rain":0.0,"pressure":949.8,"uv_index":8.6,"wind_gusts":38.5,"aqi":132,"pm10":62.6,"pm2_5":60.3,"mosquito_risk":0,"arthritis_risk":5,"migraine_risk":7,"frizz_risk":0,"updated_at":"2026-03-09T23:18:51.968106+05:30"},{"city":"Goa","state":"Goa","latitude":15.2993,"longitude":74.124,"temp":27.3,"humidity":89,"rain":0.0,"pressure":999.7,"uv_index":8.65,"wind_gusts":36.0,"aqi":136,"pm10":54.9,"pm2_5":50.1,"mosquito_risk":7,"arthritis_risk":5,"migraine_risk":7,"frizz_risk":1,"updated_at":"2026-03-09T23:18:51.968114+05:30"},{"city":"Jodhpur","state":"Rajasthan","latitude":26.2389,"longitude":73.0243,"temp":27.3,"humidity":25,"rain":0.0,"pressure":987.8,"uv_index":7.1,"wind_gusts":23.4,"aqi":70,"pm10":78.9,"pm2_5":26.0,"mosquito_risk":4,"arthritis_risk":5,"migraine_risk":7,"frizz_risk":0,"updated_at":"2026-03-09T23:18:51.968121+05:30"},{"city":"Udaipur","state":"Rajasthan","latitude":24.5854,"longitude":73.7125,"temp":22.1,"humidity":32,"rain":0.0,"pressure":951.4,"uv_index":7.7,"wind_gusts":17.3,"aqi":74,"pm10":15.0,"pm2_5":12.4,"mosquito_risk":0,"arthritis_risk":5,"migraine_risk":7,"frizz_risk":0,"updated_at":"2026-03-09T23:18:51.968129+05:30"},{"city":"Kota","state":"Rajasthan","latitude":25.2138,"longitude":75.8648,"temp":26.0,"humidity":38,"rain":0.0,"pressure":983.2,"uv_index":7.1,"wind_gusts":17.3,"aqi":70,"pm10":35.7,"pm2_5":30.2,"mosquito_risk":4,"arthritis_risk":5,"migraine_risk":7,"frizz_risk":0,"updated_at":"2026-03-09T23:18:51.968136+05:30"},{"city":"Bikaner","state":"Rajasthan","latitude":28.0229,"longitude":73.3119,"temp":26.4,"humidity":29,"rain":0.0,"pressure":986.6,"uv_index":6.7,"wind_gusts":22.7,"aqi":59,"pm10":22.4,"pm2_5":11.7,"mosquito_risk":4,"arthritis_risk":5,"migraine_risk":7,"frizz_risk":0,"updated_at":"2026-03-09T23:18:51.968142+05:30"},{"city":"Ajmer","state":"Rajasthan","latitude":26.4499,"longitude":74.6399,"temp":25.6,"humidity":29,"rain":0.0,"pressure":959.4,"uv_index":7.05,"wind_gusts":22.7,"aqi":63,"pm10":41.8,"pm2_5":18.1,"mosquito_risk":4,"arthritis_risk":5,"migraine_risk":7,"frizz_risk":0,"updated_at":"2026-03-09T23:18:51.968149+05:30"},{"city":"Gwalior","state":"Madhya Pradesh","latitude":26.2183,"longitude":78.1828,"temp":25.5,"humidity":59,"rain":0.0,"pressure":988.0,"uv_index":6.7,"wind_gusts":21.2,"aqi":76,"pm10":126.7,"pm2_5":42.0,"mosquito_risk":4,"arthritis_risk":5,"migraine_risk":7,"frizz_risk":1,"updated_at":"2026-03-09T23:18:51.968156+05:30"},{"city":"Indore","state":"Madhya Pradesh","latitude":22.7196,"longitude":75.8577,"temp":22.1,"humidity":48,"rain":0.0,"pressure":951.5,"uv_index":7.65,"wind_gusts":26.6,"aqi":76,"pm10":41.0,"pm2_5":32.1,"mosquito_risk":0,"arthritis_risk":5,"migraine_risk":7,"frizz_risk":0,"updated_at":"2026-03-09T23:18:51.968163+05:30"},{"city":"Bhopal","state":"Madhya Pradesh","latitude":23.2599,"longitude":77.4126,"temp":24.3,"humidity":45,"rain":0.0,"pressure":957.7,"uv_index":7.5,"wind_gusts":20.5,"aqi":78,"pm10":51.9,"pm2_5":29.6,"mosquito_risk":0,"arthritis_risk":5,"migraine_risk":7,"frizz_risk":0,"updated_at":"2026-03-09T23:18:51.968170+05:30"},{"city":"Jabalpur","state":"Madhya Pradesh","latitude":23.1815,"longitude":79.9864,"temp":24.8,"humidity":46,"rain":0.0,"pressure":965.2,"uv_index":7.65,"wind_gusts":21.6,"aqi":94,"pm10":56.0,"pm2_5":34.1,"mosquito_risk":0,"arthritis_risk":5,"migraine_risk":7,"frizz_risk":0,"updated_at":"2026-03-09T23:18:51.968177+05:30"},{"city":"Ujjain","state":"Madhya Pradesh","latitude":23.1765,"longitude":75.7885,"temp":24.0,"humidity":51,"rain":0.0,"pressure":957.8,"uv_index":7.55,"wind_gusts":18.4,"aqi":92,"pm10":54.0,"pm2_5":49.0,"mosquito_risk":0,"arthritis_risk":5,"migraine_risk":7,"frizz_risk":0,"updated_at":"2026-03-09T23:18:51.968184+05:30"},{"city":"Visakhapatnam","state":"Andhra Pradesh","latitude":17.6868,"longitude":83.2185,"temp":24.8,"humidity":87,"rain":0.0,"pressure":1009.4,"uv_index":8.2,"wind_gusts":33.5,"aqi":104,"pm10":58.6,"pm2_5":47.3,"mosquito_risk":3,"arthritis_risk":0,"migraine_risk":4,"frizz_risk":1,"updated_at":"2026-03-09T23:18:51.968192+05:30"},{"city":"Vijayawada","state":"Andhra Pradesh","latitude":16.5062,"longitude":80.648,"temp":25.1,"humidity":83,"rain":0.0,"pressure":1008.0,"uv_index":8.6,"wind_gusts":25.6,"aqi":99,"pm10":53.0,"pm2_5":46.0,"mosquito_risk":7,"arthritis_risk":0,"migraine_risk":4,"frizz_risk":1,"updated_at":"2026-03-09T23:18:51.968198+05:30"},{"city":"Guntur","state":"Andhra Pradesh","latitude":16.3067,"longitude":80.4365,"temp":24.7,"humidity":85,"rain":0.0,"pressure":1009.2,"uv_index":8.65,"wind_gusts":27.7,"aqi":94,"pm10":49.9,"pm2_5":43.7,"mosquito_risk":3,"arthritis_risk":0,"migraine_risk":4,"frizz_risk":1,"updated_at":"2026-03-09T23:18:51.968206+05:30"},{"city":"Nellore","state":"Andhra Pradesh","latitude":14.4426,"longitude":79.9865,"temp":24.5,"humidity":84,"rain":0.0,"pressure":1011.1,"uv_index":8.8,"wind_gusts":34.2,"aqi":82,"pm10":40.9,"pm2_5":30.3,"mosquito_risk":3,"arthritis_risk":0,"migraine_risk":4,"frizz_risk":1,"updated_at":"2026-03-09T23:18:51.968213+05:30"},{"city":"Kurnool","state":"Andhra Pradesh","latitude":15.8281,"longitude":78.0373,"temp":27.4,"humidity":64,"rain":0.0,"pressure":980.8,"uv_index":8.65,"wind_gusts":34.6,"aqi":125,"pm10":38.5,"pm2_5":34.3,"mosquito_risk":7,"arthritis_risk":5,"migraine_risk":7,"frizz_risk":1,"updated_at":"2026-03-09T23:18:51.968220+05:30"},{"city":"Kakinada","state":"Andhra Pradesh","latitude":16.9891,"longitude":82.2475,"temp":23.2,"humidity":89,"rain":0.0,"pressure":1013.1,"uv_index":8.55,"wind_gusts":30.2,"aqi":95,"pm10":55.2,"pm2_5":40.4,"mosquito_risk":3,"arthritis_risk":0,"migraine_risk":4,"frizz_risk":1,"updated_at":"2026-03-09T23:18:51.968228+05:30"},{"city":"Tirupati","state":"Andhra Pradesh","latitude":13.6288,"longitude":79.4192,"temp":22.9,"humidity":81,"rain":0.0,"pressure":996.8,"uv_index":8.95,"wind_gusts":36.7,"aqi":98,"pm10":57.6,"pm2_5":47.6,"mosquito_risk":3,"arthritis_risk":5,"migraine_risk":7,"frizz_risk":1,"updated_at":"2026-03-09T23:18:51.968234+05:30"},{"city":"Warangal","state":"Telangana","latitude":17.9689,"longitude":79.5941,"temp":25.6,"humidity":82,"rain":0.0,"pressure":982.8,"uv_index":8.4,"wind_gusts":28.1,"aqi":112,"pm10":54.5,"pm2_5":50.3,"mosquito_risk":7,"arthritis_risk":5,"migraine_risk":7,"frizz_risk":1,"updated_at":"2026-03-09T23:18:51.968241+05:30"},{"city":"Nizamabad","state":"Telangana","latitude":18.6725,"longitude":78.0941,"temp":25.4,"humidity":55,"rain":0.0,"pressure":968.1,"uv_index":8.3,"wind_gusts":31.3,"aqi":123,"pm10":57.9,"pm2_5":51.8,"mosquito_risk":4,"arthritis_risk":5,"migraine_risk":7,"frizz_risk":0,"updated_at":"2026-03-09T23:18:51.968248+05:30"},{"city":"Mysore","state":"Karnataka","latitude":12.2958,"longitude":76.6396,"temp":23.7,"humidity":61,"rain":0.0,"pressure":930.7,"uv_index":9.25,"wind_gusts":38.2,"aqi":124,"pm10":39.2,"pm2_5":35.0,"mosquito_risk":3,"arthritis_risk":5,"migraine_risk":7,"frizz_risk":0,"updated_at":"2026-03-09T23:18:51.968255+05:30"},{"city":"Mangalore","state":"Karnataka","latitude":12.9141,"longitude":74.856,"temp":28.5,"humidity":82,"rain":0.0,"pressure":1008.9,"uv_index":8.85,"wind_gusts":26.3,"aqi":121,"pm10":37.8,"pm2_5":32.5,"mosquito_risk":7,"arthritis_risk":0,"migraine_risk":4,"frizz_risk":1,"updated_at":"2026-03-09T23:18:51.968262+05:30"},{"city":"Hubli-Dharwad","state":"Karnataka","latitude":15.3647,"longitude":75.124,"temp":27.0,"humidity":35,"rain":0.0,"pressure":943.0,"uv_index":8.8,"wind_gusts":37.1,"aqi":135,"pm10":36.8,"pm2_5":32.0,"mosquito_risk":4,"arthritis_risk":5,"migraine_risk":7,"frizz_risk":0,"updated_at":"2026-03-09T23:18:51.968269+05:30"},{"city":"Belgaum","state":"Karnataka","latitude":15.8497,"longitude":74.4977,"temp":25.0,"humidity":46,"rain":0.0,"pressure":927.5,"uv_index":8.85,"wind_gusts":44.6,"aqi":129,"pm10":37.1,"pm2_5":33.4,"mosquito_risk":4,"arthritis_risk":5,"migraine_risk":7,"frizz_risk":0,"updated_at":"2026-03-09T23:18:55.325821+05:30"},{"city":"Coimbatore","state":"Tamil Nadu","latitude":11.0168,"longitude":76.9558,"temp":25.3,"humidity":64,"rain":0.0,"pressure":965.3,"uv_index":9.25,"wind_gusts":49.0,"aqi":111,"pm10":47.8,"pm2_5":42.3,"mosquito_risk":7,"arthritis_risk":5,"migraine_risk":7,"frizz_risk":1,"updated_at":"2026-03-09T23:18:55.325853+05:30"},{"city":"Madurai","state":"Tamil Nadu","latitude":9.9252,"longitude":78.1198,"temp":24.8,"humidity":78,"rain":0.0,"pressure":997.1,"uv_index":9.2,"wind_gusts":38.2,"aqi":96,"pm10":49.0,"pm2_5":42.0,"mosquito_risk":3,"arthritis_risk":5,"migraine_risk":7,"frizz_risk":1,"updated_at":"2026-03-09T23:18:55.325864+05:30"},{"city":"Trichy","state":"Tamil Nadu","latitude":10.7905,"longitude":78.7047,"temp":24.0,"humidity":84,"rain":0.0,"pressure":1004.2,"uv_index":9.1,"wind_gusts":35.6,"aqi":90,"pm10":48.3,"pm2_5":41.8,"mosquito_risk":3,"arthritis_risk":5,"migraine_risk":4,"frizz_risk":1,"updated_at":"2026-03-09T23:18:55.325872+05:30"},{"city":"Salem","state":"Tamil Nadu","latitude":11.6643,"longitude":78.146,"temp":24.6,"humidity":72,"rain":0.0,"pressure":981.2,"uv_index":9.15,"wind_gusts":34.9,"aqi":113,"pm10":56.3,"pm2_5":48.7,"mosquito_risk":3,"arthritis_risk":5,"migraine_risk":7,"frizz_risk":1,"updated_at":"2026-03-09T23:18:55.325880+05:30"},{"city":"Tirunelveli","state":"Tamil Nadu","latitude":8.7139,"longitude":77.7567,"temp":26.4,"humidity":68,"rain":0.0,"pressure":1007.0,"uv_index":9.15,"wind_gusts":37.8,"aqi":97,"pm10":48.4,"pm2_5":38.2,"mosquito_risk":7,"arthritis_risk":5,"migraine_risk":4,"frizz_risk":1,"updated_at":"2026-03-09T23:18:55.325888+05:30"},{"city":"Vellore","state":"Tamil Nadu","latitude":12.9165,"longitude":79.1325,"temp":23.3,"humidity":76,"rain":0.0,"pressure":989.6,"uv_index":9.0,"wind_gusts":41.8,"aqi":109,"pm10":63.8,"pm2_5":54.2,"mosquito_risk":3,"arthritis_risk":5,"migraine_risk":7,"frizz_risk":1,"updated_at":"2026-03-09T23:18:55.325895+05:30"},{"city":"Erode","state":"Tamil Nadu","latitude":11.341,"longitude":77.7172,"temp":26.5,"humidity":69,"rain":0.0,"pressure":993.0,"uv_index":9.15,"wind_gusts":31.3,"aqi":119,"pm10":49.4,"pm2_5":44.1,"mosquito_risk":7,"arthritis_risk":5,"migraine_risk":7,"frizz_risk":1,"updated_at":"2026-03-09T23:18:55.325903+05:30"},{"city":"Kochi","state":"Kerala","latitude":9.9312,"longitude":76.2673,"temp":26.8,"humidity":85,"rain":0.0,"pressure":1011.5,"uv_index":8.9,"wind_gusts":28.8,"aqi":135,"pm10":46.2,"pm2_5":44.0,"mosquito_risk":7,"arthritis_risk":0,"migraine_risk":4,"frizz_risk":1,"updated_at":"2026-03-09T23:18:55.325910+05:30"},{"city":"Thiruvananthapuram","state":"Kerala","latitude":8.5241,"longitude":76.9366,"temp":27.8,"humidity":77,"rain":0.0,"pressure":1010.2,"uv_index":9.05,"wind_gusts":27.4,"aqi":110,"pm10":35.4,"pm2_5":23.7,"mosquito_risk":7,"arthritis_risk":0,"migraine_risk":4,"frizz_risk":1,"updated_at":"2026-03-09T23:18:55.325917+05:30"},{"city":"Kozhikode","state":"Kerala","latitude":11.2588,"longitude":75.7804,"temp":27.5,"humidity":85,"rain":0.0,"pressure":1010.4,"uv_index":8.55,"wind_gusts":24.5,"aqi":102,"pm10":31.7,"pm2_5":28.2,"mosquito_risk":7,"arthritis_risk":0,"migraine_risk":4,"frizz_risk":1,"updated_at":"2026-03-09T23:18:55.325924+05:30"},{"city":"Thrissur","state":"Kerala","latitude":10.5276,"longitude":76.2144,"temp":26.1,"humidity":90,"rain":0.0,"pressure":1009.8,"uv_index":9.0,"wind_gusts":40.0,"aqi":126,"pm10":44.9,"pm2_5":43.3,"mosquito_risk":7,"arthritis_risk":0,"migraine_risk":4,"frizz_risk":1,"updated_at":"2026-03-09T23:18:55.325933+05:30"},{"city":"Kannur","state":"Kerala","latitude":11.8745,"longitude":75.3704,"temp":28.3,"humidity":82,"rain":0.0,"pressure":1009.2,"uv_index":8.9,"wind_gusts":27.0,"aqi":120,"pm10":33.3,"pm2_5":30.9,"mosquito_risk":7,"arthritis_risk":0,"migraine_risk":4,"frizz_risk":1,"updated_at":"2026-03-09T23:18:55.325940+05:30"},{"city":"Patna","state":"Bihar","latitude":25.5941,"longitude":85.1376,"temp":24.4,"humidity":83,"rain":0.0,"pressure":1007.1,"uv_index":7.4,"wind_gusts":29.5,"aqi":183,"pm10":124.3,"pm2_5":118.0,"mosquito_risk":3,"arthritis_risk":5,"migraine_risk":4,"frizz_risk":1,"updated_at":"2026-03-09T23:18:55.325947+05:30"},{"city":"Gaya","state":"Bihar","latitude":24.7914,"longitude":85.0002,"temp":22.9,"humidity":93,"rain":0.0,"pressure":1000.2,"uv_index":7.5,"wind_gusts":25.9,"aqi":182,"pm10":111.1,"pm2_5":105.5,"mosquito_risk":3,"arthritis_risk":5,"migraine_risk":4,"frizz_risk":1,"updated_at":"2026-03-09T23:18:55.325954+05:30"},{"city":"Muzaffarpur","state":"Bihar","latitude":26.1209,"longitude":85.3647,"temp":23.1,"humidity":91,"rain":0.0,"pressure":1007.2,"uv_index":7.3,"wind_gusts":34.2,"aqi":185,"pm10":125.3,"pm2_5":118.0,"mosquito_risk":3,"arthritis_risk":5,"migraine_risk":4,"frizz_risk":1,"updated_at":"2026-03-09T23:18:55.325961+05:30"},{"city":"Bhagalpur","state":"Bihar","latitude":25.2425,"longitude":87.0117,"temp":24.0,"humidity":91,"rain":0.0,"pressure":1007.8,"uv_index":3.9,"wind_gusts":25.9,"aqi":172,"pm10":120.6,"pm2_5":110.8,"mosquito_risk":3,"arthritis_risk":5,"migraine_risk":0,"frizz_risk":1,"updated_at":"2026-03-09T23:18:55.325968+05:30"},{"city":"Ranchi","state":"Jharkhand","latitude":23.3441,"longitude":85.3096,"temp":21.5,"humidity":91,"rain":0.0,"pressure":942.7,"uv_index":8.15,"wind_gusts":25.6,"aqi":168,"pm10":94.1,"pm2_5":86.4,"mosquito_risk":3,"arthritis_risk":5,"migraine_risk":7,"frizz_risk":1,"updated_at":"2026-03-09T23:18:55.325974+05:30"},{"city":"Jamshedpur","state":"Jharkhand","latitude":22.8046,"longitude":86.2029,"temp":23.1,"humidity":85,"rain":0.0,"pressure":997.3,"uv_index":8.0,"wind_gusts":31.3,"aqi":158,"pm10":45.3,"pm2_5":41.4,"mosquito_risk":3,"arthritis_risk":5,"migraine_risk":7,"frizz_risk":1,"updated_at":"2026-03-09T23:18:55.325981+05:30"},{"city":"Dhanbad","state":"Jharkhand","latitude":23.7957,"longitude":86.4304,"temp":22.9,"humidity":85,"rain":0.0,"pressure":986.3,"uv_index":7.75,"wind_gusts":28.8,"aqi":173,"pm10":102.0,"pm2_5":91.3,"mosquito_risk":3,"arthritis_risk":5,"migraine_risk":7,"frizz_risk":1,"updated_at":"2026-03-09T23:18:55.325987+05:30"},{"city":"Bokaro","state":"Jharkhand","latitude":23.6693,"longitude":86.1511,"temp":22.6,"humidity":90,"rain":0.0,"pressure":990.4,"uv_index":7.8,"wind_gusts":25.6,"aqi":179,"pm10":98.5,"pm2_5":88.5,"mosquito_risk":3,"arthritis_risk":5,"migraine_risk":7,"frizz_risk":1,"updated_at":"2026-03-09T23:18:55.325994+05:30"},{"city":"Bhubaneswar","state":"Odisha","latitude":20.2961,"longitude":85.8245,"temp":25.2,"humidity":85,"rain":0.0,"pressure":1008.6,"uv_index":8.3,"wind_gusts":32.8,"aqi":91,"pm10":38.3,"pm2_5":33.9,"mosquito_risk":7,"arthritis_risk":0,"migraine_risk":4,"frizz_risk":1,"updated_at":"2026-03-09T23:18:55.326001+05:30"},{"city":"Cuttack","state":"Odisha","latitude":20.4625,"longitude":85.8828,"temp":25.6,"humidity":83,"rain":0.0,"pressure":1010.5,"uv_index":8.35,"wind_gusts":30.6,"aqi":91,"pm10":38.3,"pm2_5":33.9,"mosquito_risk":7,"arthritis_risk":0,"migraine_risk":4,"frizz_risk":1,"updated_at":"2026-03-09T23:18:55.326007+05:30"},{"city":"Rourkela","state":"Odisha","latitude":22.2604,"longitude":84.8536,"temp":26.6,"humidity":73,"rain":0.0,"pressure":990.0,"uv_index":7.9,"wind_gusts":26.6,"aqi":165,"pm10":84.1,"pm2_5":74.3,"mosquito_risk":7,"arthritis_risk":5,"migraine_risk":7,"frizz_risk":1,"updated_at":"2026-03-09T23:18:55.326014+05:30"},{"city":"Raipur","state":"Chhattisgarh","latitude":21.2514,"longitude":81.6296,"temp":27.9,"humidity":35,"rain":0.0,"pressure":978.1,"uv_index":8.0,"wind_gusts":24.8,"aqi":163,"pm10":128.1,"pm2_5":105.9,"mosquito_risk":4,"arthritis_risk":5,"migraine_risk":7,"frizz_risk":0,"updated_at":"2026-03-09T23:18:55.326020+05:30"},{"city":"Bhilai","state":"Chhattisgarh","latitude":21.1938,"longitude":81.3509,"temp":26.5,"humidity":40,"rain":0.0,"pressure":978.4,"uv_index":8.05,"wind_gusts":24.5,"aqi":156,"pm10":112.2,"pm2_5":92.2,"mosquito_risk":4,"arthritis_risk":5,"migraine_risk":7,"frizz_risk":0,"updated_at":"2026-03-09T23:18:55.326027+05:30"},{"city":"Guwahati","state":"Assam","latitude":26.1158,"longitude":91.7086,"temp":23.8,"humidity":81,"rain":0.0,"pressure":1008.8,"uv_index":7.3,"wind_gusts":11.5,"aqi":154,"pm10":70.5,"pm2_5":65.7,"mosquito_risk":3,"arthritis_risk":0,"migraine_risk":4,"frizz_risk":1,"updated_at":"2026-03-09T23:18:55.326033+05:30"},{"city":"Agartala","state":"Tripura","latitude":23.8315,"longitude":91.2868,"temp":23.4,"humidity":79,"rain":0.0,"pressure":1012.9,"uv_index":7.7,"wind_gusts":12.2,"aqi":162,"pm10":114.6,"pm2_5":103.1,"mosquito_risk":3,"arthritis_risk":0,"migraine_risk":4,"frizz_risk":1,"updated_at":"2026-03-09T23:18:55.326040+05:30"},{"city":"Shillong","state":"Meghalaya","latitude":25.5788,"longitude":91.8933,"temp":11.1,"humidity":97,"rain":0.0,"pressure":860.2,"uv_index":6.45,"wind_gusts":22.0,"aqi":154,"pm10":77.5,"pm2_5":71.0,"mosquito_risk":3,"arthritis_risk":10,"migraine_risk":7,"frizz_risk":0,"updated_at":"2026-03-09T23:18:55.326047+05:30"},{"city":"Imphal","state":"Manipur","latitude":24.817,"longitude":93.9368,"temp":16.4,"humidity":94,"rain":0.0,"pressure":929.0,"uv_index":7.95,"wind_gusts":31.0,"aqi":161,"pm10":111.8,"pm2_5":107.1,"mosquito_risk":3,"arthritis_risk":10,"migraine_risk":7,"frizz_risk":0,"updated_at":"2026-03-09T23:18:55.326054+05:30"},{"city":"Aizawl","state":"Mizoram","latitude":23.7271,"longitude":92.7176,"temp":16.6,"humidity":84,"rain":0.0,"pressure":897.4,"uv_index":7.85,"wind_gusts":26.3,"aqi":165,"pm10":96.9,"pm2_5":88.0,"mosquito_risk":3,"arthritis_risk":10,"migraine_risk":7,"frizz_risk":0,"updated_at":"2026-03-09T23:18:55.326061+05:30"},{"city":"Kohima","state":"Nagaland","latitude":25.6701,"longitude":94.1077,"temp":14.7,"humidity":78,"rain":0.0,"pressure":859.7,"uv_index":7.0,"wind_gusts":53.3,"aqi":154,"pm10":76.1,"pm2_5":72.4,"mosquito_risk":3,"arthritis_risk":5,"migraine_risk":7,"frizz_risk":0,"updated_at":"2026-03-09T23:18:55.326067+05:30"},{"city":"Gangtok","state":"Sikkim","latitude":27.3314,"longitude":88.6138,"temp":13.6,"humidity":73,"rain":0.0,"pressure":842.3,"uv_index":4.8,"wind_gusts":16.9,"aqi":158,"pm10":94.8,"pm2_5":78.2,"mosquito_risk":3,"arthritis_risk":5,"migraine_risk":3,"frizz_risk":0,"updated_at":"2026-03-09T23:18:55.326074+05:30"},{"city":"Siliguri","state":"West Bengal","latitude":26.7271,"longitude":88.3953,"temp":21.5,"humidity":57,"rain":0.0,"pressure":1001.3,"uv_index":7.35,"wind_gusts":18.4,"aqi":164,"pm10":112.2,"pm2_5":89.4,"mosquito_risk":0,"arthritis_risk":5,"migraine_risk":4,"frizz_risk":0,"updated_at":"2026-03-09T23:18:58.681013+05:30"},{"city":"Durgapur","state":"West Bengal","latitude":23.5204,"longitude":87.3119,"temp":23.6,"humidity":89,"rain":0.0,"pressure":1002.2,"uv_index":7.8,"wind_gusts":25.2,"aqi":163,"pm10":84.5,"pm2_5":76.1,"mosquito_risk":3,"arthritis_risk":5,"migraine_risk":4,"frizz_risk":1,"updated_at":"2026-03-09T23:18:58.681043+05:30"},{"city":"Asansol","state":"West Bengal","latitude":23.6739,"longitude":86.9524,"temp":23.2,"humidity":88,"rain":0.0,"pressure":1000.7,"uv_index":7.55,"wind_gusts":25.6,"aqi":165,"pm10":92.4,"pm2_5":82.2,"mosquito_risk":3,"arthritis_risk":5,"migraine_risk":4,"frizz_risk":1,"updated_at":"2026-03-09T23:18:58.681053+05:30"},{"city":"Pondicherry","state":"Puducherry","latitude":11.9139,"longitude":79.8145,"temp":24.4,"humidity":85,"rain":0.0,"pressure":1013.4,"uv_index":8.95,"wind_gusts":33.1,"aqi":84,"pm10":34.3,"pm2_5":24.5,"mosquito_risk":3,"arthritis_risk":0,"migraine_risk":4,"frizz_risk":1,"updated_at":"2026-03-09T23:18:58.681061+05:30"},{"city":"Port Blair","state":"Andaman and Nicobar Islands","latitude":11.6234,"longitude":92.7265,"temp":27.6,"humidity":81,"rain":0.0,"pressure":1010.1,"uv_index":8.9,"wind_gusts":23.8,"aqi":86,"pm10":30.9,"pm2_5":26.5,"mosquito_risk":7,"arthritis_risk":0,"migraine_risk":4,"frizz_risk":1,"updated_at":"2026-03-09T23:18:58.681069+05:30"},{"city":"Haridwar","state":"Uttarakhand","latitude":29.9457,"longitude":78.1642,"temp":22.4,"humidity":91,"rain":0.0,"pressure":979.8,"uv_index":5.8,"wind_gusts":24.5,"aqi":156,"pm10":84.5,"pm2_5":68.7,"mosquito_risk":3,"arthritis_risk":5,"migraine_risk":3,"frizz_risk":1,"updated_at":"2026-03-09T23:18:58.681077+05:30"},{"city":"Rishikesh","state":"Uttarakhand","latitude":30.0869,"longitude":78.2676,"temp":21.6,"humidity":88,"rain":0.0,"pressure":972.7,"uv_index":5.85,"wind_gusts":24.8,"aqi":152,"pm10":80.3,"pm2_5":57.9,"mosquito_risk":3,"arthritis_risk":5,"migraine_risk":3,"frizz_risk":1,"updated_at":"2026-03-09T23:18:58.681085+05:30"},{"city":"Nainital","state":"Uttarakhand","latitude":29.3919,"longitude":79.4542,"temp":17.7,"humidity":83,"rain":0.0,"pressure":810.6,"uv_index":6.65,"wind_gusts":54.0,"aqi":160,"pm10":122.5,"pm2_5":86.8,"mosquito_risk":3,"arthritis_risk":10,"migraine_risk":7,"frizz_risk":0,"updated_at":"2026-03-09T23:18:58.681093+05:30"},{"city":"Mussoorie","state":"Uttarakhand","latitude":30.4599,"longitude":78.0664,"temp":16.1,"humidity":80,"rain":0.0,"pressure":806.9,"uv_index":6.2,"wind_gusts":40.7,"aqi":150,"pm10":91.0,"pm2_5":66.1,"mosquito_risk":3,"arthritis_risk":5,"migraine_risk":7,"frizz_risk":0,"updated_at":"2026-03-09T23:18:58.681100+05:30"},{"city":"Dharamshala","state":"Himachal Pradesh","latitude":32.219,"longitude":76.3234,"temp":21.7,"humidity":46,"rain":0.0,"pressure":874.4,"uv_index":6.4,"wind_gusts":23.0,"aqi":54,"pm10":37.6,"pm2_5":21.5,"mosquito_risk":0,"arthritis_risk":5,"migraine_risk":7,"frizz_risk":0,"updated_at":"2026-03-09T23:18:58.681107+05:30"},{"city":"Dalhousie","state":"Himachal Pradesh","latitude":32.5387,"longitude":75.971,"temp":18.1,"humidity":51,"rain":0.0,"pressure":808.4,"uv_index":6.65,"wind_gusts":22.0,"aqi":79,"pm10":57.6,"pm2_5":44.4,"mosquito_risk":0,"arthritis_risk":5,"migraine_risk":7,"frizz_risk":0,"updated_at":"2026-03-09T23:18:58.681115+05:30"},{"city":"Patiala","state":"Punjab","latitude":30.3398,"longitude":76.3869,"temp":22.7,"humidity":75,"rain":0.0,"pressure":983.2,"uv_index":5.25,"wind_gusts":20.9,"aqi":167,"pm10":220.3,"pm2_5":109.9,"mosquito_risk":3,"arthritis_risk":5,"migraine_risk":3,"frizz_risk":1,"updated_at":"2026-03-09T23:18:58.681122+05:30"},{"city":"Bhatinda","state":"Punjab","latitude":30.211,"longitude":74.9455,"temp":23.8,"humidity":65,"rain":0.0,"pressure":988.3,"uv_index":6.35,"wind_gusts":20.5,"aqi":155,"pm10":113.9,"pm2_5":88.9,"mosquito_risk":3,"arthritis_risk":5,"migraine_risk":7,"frizz_risk":1,"updated_at":"2026-03-09T23:18:58.681129+05:30"},{"city":"Rohtak","state":"Haryana","latitude":28.8955,"longitude":76.6066,"temp":21.9,"humidity":77,"rain":0.0,"pressure":986.6,"uv_index":6.05,"wind_gusts":25.9,"aqi":185,"pm10":543.9,"pm2_5":124.8,"mosquito_risk":3,"arthritis_risk":5,"migraine_risk":7,"frizz_risk":1,"updated_at":"2026-03-09T23:18:58.681136+05:30"},{"city":"Panipat","state":"Haryana","latitude":29.3909,"longitude":76.9635,"temp":21.9,"humidity":84,"rain":0.0,"pressure":985.5,"uv_index":5.75,"wind_gusts":25.6,"aqi":548,"pm10":605.4,"pm2_5":130.4,"mosquito_risk":3,"arthritis_risk":5,"migraine_risk":3,"frizz_risk":1,"updated_at":"2026-03-09T23:18:58.681143+05:30"},{"city":"Mathura","state":"Uttar Pradesh","latitude":27.4924,"longitude":77.6737,"temp":22.2,"humidity":71,"rain":0.0,"pressure":991.9,"uv_index":6.3,"wind_gusts":23.8,"aqi":165,"pm10":231.0,"pm2_5":100.6,"mosquito_risk":3,"arthritis_risk":5,"migraine_risk":7,"frizz_risk":1,"updated_at":"2026-03-09T23:18:58.681149+05:30"},{"city":"Vrindavan","state":"Uttar Pradesh","latitude":27.5823,"longitude":77.7027,"temp":22.8,"humidity":71,"rain":0.0,"pressure":992.2,"uv_index":6.25,"wind_gusts":25.2,"aqi":165,"pm10":231.0,"pm2_5":100.6,"mosquito_risk":3,"arthritis_risk":5,"migraine_risk":7,"frizz_risk":1,"updated_at":"2026-03-09T23:18:58.681156+05:30"},{"city":"Ayodhya","state":"Uttar Pradesh","latitude":26.7922,"longitude":82.1998,"temp":23.5,"humidity":89,"rain":0.0,"pressure":1001.9,"uv_index":6.7,"wind_gusts":18.7,"aqi":198,"pm10":156.5,"pm2_5":148.5,"mosquito_risk":3,"arthritis_risk":5,"migraine_risk":4,"frizz_risk":1,"updated_at":"2026-03-09T23:18:58.681163+05:30"},{"city":"Ratlam","state":"Madhya Pradesh","latitude":23.3315,"longitude":75.0367,"temp":21.4,"humidity":67,"rain":0.0,"pressure":958.0,"uv_index":7.5,"wind_gusts":12.2,"aqi":78,"pm10":33.2,"pm2_5":32.0,"mosquito_risk":3,"arthritis_risk":5,"migraine_risk":7,"frizz_risk":0,"updated_at":"2026-03-09T23:18:58.681169+05:30"},{"city":"Sagar","state":"Madhya Pradesh","latitude":23.8388,"longitude":78.7378,"temp":25.4,"humidity":38,"rain":0.0,"pressure":954.2,"uv_index":7.5,"wind_gusts":17.3,"aqi":71,"pm10":29.3,"pm2_5":15.0,"mosquito_risk":4,"arthritis_risk":5,"migraine_risk":7,"frizz_risk":0,"updated_at":"2026-03-09T23:18:58.681176+05:30"},{"city":"Satna","state":"Madhya Pradesh","latitude":24.6005,"longitude":80.8322,"temp":24.2,"humidity":65,"rain":0.0,"pressure":976.3,"uv_index":7.45,"wind_gusts":18.7,"aqi":129,"pm10":85.9,"pm2_5":31.9,"mosquito_risk":3,"arthritis_risk":5,"migraine_risk":7,"frizz_risk":1,"updated_at":"2026-03-09T23:18:58.681182+05:30"},{"city":"Akola","state":"Maharashtra","latitude":20.7002,"longitude":77.0082,"temp":27.7,"humidity":49,"rain":0.0,"pressure":978.0,"uv_index":7.95,"wind_gusts":16.9,"aqi":85,"pm10":33.3,"pm2_5":28.8,"mosquito_risk":4,"arthritis_risk":5,"migraine_risk":7,"frizz_risk":0,"updated_at":"2026-03-09T23:18:58.681190+05:30"},{"city":"Amravati","state":"Maharashtra","latitude":20.9374,"longitude":77.7796,"temp":25.6,"humidity":46,"rain":0.0,"pressure":970.5,"uv_index":7.9,"wind_gusts":24.8,"aqi":72,"pm10":39.5,"pm2_5":33.4,"mosquito_risk":4,"arthritis_risk":5,"migraine_risk":7,"frizz_risk":0,"updated_at":"2026-03-09T23:18:58.681197+05:30"},{"city":"Latur","state":"Maharashtra","latitude":18.4088,"longitude":76.5604,"temp":23.7,"humidity":47,"rain":0.0,"pressure":942.8,"uv_index":8.4,"wind_gusts":29.5,"aqi":116,"pm10":43.4,"pm2_5":35.4,"mosquito_risk":0,"arthritis_risk":5,"migraine_risk":7,"frizz_risk":0,"updated_at":"2026-03-09T23:18:58.681204+05:30"},{"city":"Nanded","state":"Maharashtra","latitude":19.1383,"longitude":77.3091,"temp":27.1,"humidity":43,"rain":0.0,"pressure":971.8,"uv_index":8.15,"wind_gusts":29.5,"aqi":92,"pm10":56.0,"pm2_5":46.0,"mosquito_risk":4,"arthritis_risk":5,"migraine_risk":7,"frizz_risk":0,"updated_at":"2026-03-09T23:18:58.681211+05:30"},{"city":"Gulbarga","state":"Karnataka","latitude":17.3297,"longitude":76.8343,"temp":27.6,"humidity":41,"rain":0.0,"pressure":962.2,"uv_index":8.5,"wind_gusts":34.6,"aqi":140,"pm10":37.1,"pm2_5":33.8,"mosquito_risk":4,"arthritis_risk":5,"migraine_risk":7,"frizz_risk":0,"updated_at":"2026-03-09T23:18:58.681216+05:30"},{"city":"Bidar","state":"Karnataka","latitude":17.9104,"longitude":77.5199,"temp":24.8,"humidity":56,"rain":0.0,"pressure":938.8,"uv_index":8.45,"wind_gusts":33.5,"aqi":115,"pm10":45.2,"pm2_5":40.4,"mosquito_risk":0,"arthritis_risk":5,"migraine_risk":7,"frizz_risk":0,"updated_at":"2026-03-09T23:18:58.681223+05:30"},{"city":"Hospet","state":"Karnataka","latitude":15.2689,"longitude":76.3909,"temp":28.1,"humidity":47,"rain":0.0,"pressure":958.8,"uv_index":8.75,"wind_gusts":35.3,"aqi":128,"pm10":47.6,"pm2_5":41.6,"mosquito_risk":4,"arthritis_risk":5,"migraine_risk":7,"frizz_risk":0,"updated_at":"2026-03-09T23:18:58.681229+05:30"},{"city":"Tirupur","state":"Tamil Nadu","latitude":11.1085,"longitude":77.3411,"temp":26.2,"humidity":63,"rain":0.0,"pressure":979.1,"uv_index":9.25,"wind_gusts":39.2,"aqi":122,"pm10":49.7,"pm2_5":44.9,"mosquito_risk":7,"arthritis_risk":5,"migraine_risk":7,"frizz_risk":1,"updated_at":"2026-03-09T23:18:58.681235+05:30"},{"city":"Alappuzha","state":"Kerala","latitude":9.4981,"longitude":76.3388,"temp":26.9,"humidity":85,"rain":0.0,"pressure":1011.5,"uv_index":8.95,"wind_gusts":25.9,"aqi":126,"pm10":47.0,"pm2_5":44.4,"mosquito_risk":7,"arthritis_risk":0,"migraine_risk":4,"frizz_risk":1,"updated_at":"2026-03-09T23:18:58.681242+05:30"},{"city":"Munnar","state":"Kerala","latitude":10.0889,"longitude":77.0595,"temp":20.4,"humidity":78,"rain":0.0,"pressure":858.3,"uv_index":9.55,"wind_gusts":24.8,"aqi":98,"pm10":47.8,"pm2_5":40.6,"mosquito_risk":3,"arthritis_risk":5,"migraine_risk":7,"frizz_risk":1,"updated_at":"2026-03-09T23:18:58.681249+05:30"},{"city":"Silchar","state":"Assam","latitude":24.8333,"longitude":92.7789,"temp":23.0,"humidity":92,"rain":0.0,"pressure":1012.0,"uv_index":7.65,"wind_gusts":14.0,"aqi":171,"pm10":134.1,"pm2_5":123.4,"mosquito_risk":3,"arthritis_risk":0,"migraine_risk":4,"frizz_risk":1,"updated_at":"2026-03-09T23:18:58.681255+05:30"},{"city":"Dibrugarh","state":"Assam","latitude":27.4728,"longitude":94.912,"temp":23.7,"humidity":88,"rain":0.0,"pressure":1002.9,"uv_index":7.4,"wind_gusts":15.8,"aqi":162,"pm10":88.7,"pm2_5":81.3,"mosquito_risk":3,"arthritis_risk":5,"migraine_risk":4,"frizz_risk":1,"updated_at":"2026-03-09T23:18:58.681262+05:30"}]