[{"city":"Delhi","state":"Delhi","latitude":28.6139,"longitude":77.209,"temp":31.8,"humidity":25,"rain":0.0,"pressure":984.1,"uv_index":6.9,"wind_gusts":28.1,"aqi":189,"pm10":166.7,"pm2_5":27.1,"mosquito_risk":0,"arthritis_risk":5,"migraine_risk":7,"frizz_risk":0,"updated_at":"2026-04-06T13:18:41.981883+05:30"},{"city":"Mumbai","state":"Maharashtra","latitude":19.076,"longitude":72.8777,"temp":28.4,"humidity":61,"rain":0.0,"pressure":1010.8,"uv_index":7.95,"wind_gusts":21.6,"aqi":67,"pm10":41.2,"pm2_5":25.3,"mosquito_risk":7,"arthritis_risk":0,"migraine_risk":4,"frizz_risk":1,"updated_at":"2026-04-06T13:18:41.981949+05:30"},{"city":"Bangalore","state":"Karnataka","latitude":12.9716,"longitude":77.5946,"temp":34.0,"humidity":28,"rain":0.0,"pressure":913.4,"uv_index":9.65,"wind_gusts":33.1,"aqi":82,"pm10":20.1,"pm2_5":16.9,"mosquito_risk":0,"arthritis_risk":5,"migraine_risk":7,"frizz_risk":0,"updated_at":"2026-04-06T13:18:41.981966+05:30"},{"city":"Hyderabad","state":"Telangana","latitude":17.385,"longitude":78.4867,"temp":36.1,"humidity":24,"rain":0.0,"pressure":954.0,"uv_index":9.15,"wind_gusts":31.3,"aqi":129,"pm10":39.8,"pm2_5":31.3,"mosquito_risk":0,"arthritis_risk":5,"migraine_risk":10,"frizz_risk":0,"updated_at":"2026-04-06T13:18:41.981977+05:30"},{"city":"Chennai","state":"Tamil Nadu","latitude":13.0827,"longitude":80.2707,"temp":33.9,"humidity":57,"rain":0.0,"pressure":1007.2,"uv_index":8.7,"wind_gusts":30.6,"aqi":64,"pm10":34.3,"pm2_5":28.5,"mosquito_risk":0,"arthritis_risk":5,"migraine_risk":4,"frizz_risk":1,"updated_at":"2026-04-06T13:18:41.981986+05:30"},{"city":"Kolkata","state":"West Bengal","latitude":22.5726,"longitude":88.3639,"temp":31.2,"humidity":64,"rain":0.0,"pressure":1005.9,"uv_index":8.65,"wind_gusts":20.5,"aqi":143,"pm10":59.6,"pm2_5":48.9,"mosquito_risk":3,"arthritis_risk":5,"migraine_risk":4,"frizz_risk":1,"updated_at":"2026-04-06T13:18:41.981998+05:30"},{"city":"Pune","state":"Maharashtra","latitude":18.5204,"longitude":73.8567,"temp":31.4,"humidity":35,"rain":0.0,"pressure":950.4,"uv_index":8.55,"wind_gusts":33.8,"aqi":63,"pm10":20.1,"pm2_5":14.0,"mosquito_risk":0,"arthritis_risk":5,"migraine_risk":7,"frizz_risk":0,"updated_at":"2026-04-06T13:18:41.982009+05:30"},{"city":"Ahmedabad","state":"Gujarat","latitude":23.0225,"longitude":72.5714,"temp":35.1,"humidity":26,"rain":0.0,"pressure":1003.5,"uv_index":7.95,"wind_gusts":30.6,"aqi":64,"pm10":30.6,"pm2_5":12.0,"mosquito_risk":0,"arthritis_risk":5,"migraine_risk":7,"frizz_risk":0,"updated_at":"2026-04-06T13:18:41.982017+05:30"},{"city":"Jaipur","state":"Rajasthan","latitude":26.9124,"longitude":75.7873,"temp":31.2,"humidity":25,"rain":0.0,"pressure":961.2,"uv_index":7.55,"wind_gusts":30.2,"aqi":109,"pm10":167.2,"pm2_5":24.4,"mosquito_risk":0,"arthritis_risk":5,"migraine_risk":7,"frizz_risk":0,"updated_at":"2026-04-06T13:18:41.982025+05:30"},{"city":"Lucknow","state":"Uttar Pradesh","latitude":26.8467,"longitude":80.9462,"temp":33.2,"humidity":23,"rain":0.0,"pressure":993.9,"uv_index":7.45,"wind_gusts":34.6,"aqi":94,"pm10":120.6,"pm2_5":25.9,"mosquito_risk":0,"arthritis_risk":5,"migraine_risk":7,"frizz_risk":0,"updated_at":"2026-04-06T13:18:41.982033+05:30"},{"city":"Kanpur","state":"Uttar Pradesh","latitude":26.4499,"longitude":80.3319,"temp":32.0,"humidity":31,"rain":0.0,"pressure":992.8,"uv_index":7.45,"wind_gusts":33.1,"aqi":118,"pm10":330.6,"pm2_5":43.0,"mosquito_risk":0,"arthritis_risk":5,"migraine_risk":7,"frizz_risk":0,"updated_at":"2026-04-06T13:18:41.982040+05:30"},{"city":"Chandigarh","state":"Chandigarh","latitude":30.7333,"longitude":76.7794,"temp":30.9,"humidity":28,"rain":0.0,"pressure":969.6,"uv_index":6.9,"wind_gusts":17.3,"aqi":70,"pm10":33.5,"pm2_5":15.7,"mosquito_risk":0,"arthritis_risk":5,"migraine_risk":7,"frizz_risk":0,"updated_at":"2026-04-06T13:18:41.982048+05:30"},{"city":"Srinagar","state":"Jammu and Kashmir","latitude":34.0837,"longitude":74.7973,"temp":16.6,"humidity":54,"rain":0.0,"pressure":841.2,"uv_index":7.9,"wind_gusts":20.9,"aqi":93,"pm10":25.3,"pm2_5":14.8,"mosquito_risk":0,"arthritis_risk":5,"migraine_risk":7,"frizz_risk":0,"updated_at":"2026-04-06T13:18:41.982056+05:30"},{"city":"Jammu","state":"Jammu and Kashmir","latitude":32.7266,"longitude":74.857,"temp":29.4,"humidity":33,"rain":0.0,"pressure":973.4,"uv_index":7.55,"wind_gusts":27.0,"aqi":82,"pm10":29.9,"pm2_5":12.4,"mosquito_risk":4,"arthritis_risk":5,"migraine_risk":7,"frizz_risk":0,"updated_at":"2026-04-06T13:18:41.982063+05:30"},{"city":"Amritsar","state":"Punjab","latitude":31.634,"longitude":74.8723,"temp":29.9,"humidity":30,"rain":0.0,"pressure":981.3,"uv_index":7.5,"wind_gusts":13.3,"aqi":114,"pm10":24.1,"pm2_5":15.7,"mosquito_risk":4,"arthritis_risk":5,"migraine_risk":7,"frizz_risk":0,"updated_at":"2026-04-06T13:18:41.982070+05:30"},{"city":"Ludhiana","state":"Punjab","latitude":30.901,"longitude":75.8573,"temp":30.9,"humidity":27,"rain":0.0,"pressure":979.4,"uv_index":7.1,"wind_gusts":26.3,"aqi":105,"pm10":31.7,"pm2_5":15.1,"mosquito_risk":0,"arthritis_risk":5,"migraine_risk":7,"frizz_risk":0,"updated_at":"2026-04-06T13:18:41.982078+05:30"},{"city":"Jalandhar","state":"Punjab","latitude":31.326,"longitude":75.5762,"temp":30.0,"humidity":29,"rain":0.0,"pressure":980.7,"uv_index":7.25,"wind_gusts":18.0,"aqi":89,"pm10":34.9,"pm2_5":14.5,"mosquito_risk":4,"arthritis_risk":5,"migraine_risk":7,"frizz_risk":0,"updated_at":"2026-04-06T13:18:41.982087+05:30"},{"city":"Dehradun","state":"Uttarakhand","latitude":30.6284,"longitude":78.0322,"temp":18.2,"humidity":50,"rain":0.0,"pressure":830.8,"uv_index":6.65,"wind_gusts":27.0,"aqi":43,"pm10":15.1,"pm2_5":6.6,"mosquito_risk":0,"arthritis_risk":5,"migraine_risk":7,"frizz_risk":0,"updated_at":"2026-04-06T13:18:41.982094+05:30"},{"city":"Shimla","state":"Himachal Pradesh","latitude":31.1048,"longitude":77.1734,"temp":15.9,"humidity":57,"rain":0.0,"pressure":785.3,"uv_index":6.25,"wind_gusts":31.0,"aqi":49,"pm10":21.7,"pm2_5":9.1,"mosquito_risk":0,"arthritis_risk":5,"migraine_risk":7,"frizz_risk":0,"updated_at":"2026-04-06T13:18:41.982101+05:30"},{"city":"Manali","state":"Himachal Pradesh","latitude":32.2396,"longitude":77.1887,"temp":17.5,"humidity":60,"rain":0.0,"pressure":818.9,"uv_index":9.6,"wind_gusts":28.8,"aqi":52,"pm10":12.8,"pm2_5":6.9,"mosquito_risk":0,"arthritis_risk":5,"migraine_risk":7,"frizz_risk":0,"updated_at":"2026-04-06T13:18:41.982108+05:30"},{"city":"Gurgaon","state":"Haryana","latitude":28.4595,"longitude":77.0266,"temp":32.3,"humidity":24,"rain":0.0,"pressure":982.5,"uv_index":7.0,"wind_gusts":28.8,"aqi":614,"pm10":760.0,"pm2_5":79.9,"mosquito_risk":0,"arthritis_risk":5,"migraine_risk":7,"frizz_risk":0,"updated_at":"2026-04-06T13:18:41.982115+05:30"},{"city":"Noida","state":"Uttar Pradesh","latitude":28.5355,"longitude":77.391,"temp":32.2,"humidity":24,"rain":0.0,"pressure":985.6,"uv_index":6.95,"wind_gusts":28.4,"aqi":614,"pm10":760.0,"pm2_5":79.9,"mosquito_risk":0,"arthritis_risk":5,"migraine_risk":7,"frizz_risk":0,"updated_at":"2026-04-06T13:18:41.982121+05:30"},{"city":"Ghaziabad","state":"Uttar Pradesh","latitude":28.6692,"longitude":77.4538,"temp":31.3,"humidity":29,"rain":0.0,"pressure":983.8,"uv_index":6.9,"wind_gusts":22.7,"aqi":132,"pm10":131.3,"pm2_5":25.3,"mosquito_risk":0,"arthritis_risk":5,"migraine_risk":7,"frizz_risk":0,"updated_at":"2026-04-06T13:18:41.982128+05:30"},{"city":"Faridabad","state":"Haryana","latitude":28.4089,"longitude":77.3178,"temp":32.5,"humidity":23,"rain":0.0,"pressure":984.8,"uv_index":6.95,"wind_gusts":25.2,"aqi":614,"pm10":760.0,"pm2_5":79.9,"mosquito_risk":0,"arthritis_risk":5,"migraine_risk":7,"frizz_risk":0,"updated_at":"2026-04-06T13:18:41.982134+05:30"},{"city":"Meerut","state":"Uttar Pradesh","latitude":28.9845,"longitude":77.7064,"temp":30.9,"humidity":28,"rain":0.0,"pressure":982.8,"uv_index":6.8,"wind_gusts":26.3,"aqi":132,"pm10":131.3,"pm2_5":25.3,"mosquito_risk":0,"arthritis_risk":5,"migraine_risk":7,"frizz_risk":0,"updated_at":"2026-04-06T13:18:41.982140+05:30"},{"city":"Agra","state":"Uttar Pradesh","latitude":27.1767,"longitude":78.0081,"temp":32.6,"humidity":26,"rain":0.0,"pressure":989.4,"uv_index":7.3,"wind_gusts":24.8,"aqi":301,"pm10":556.9,"pm2_5":56.8,"mosquito_risk":0,"arthritis_risk":5,"migraine_risk":7,"frizz_risk":0,"updated_at":"2026-04-06T13:18:41.982147+05:30"},{"city":"Varanasi","state":"Uttar Pradesh","latitude":25.3176,"longitude":82.9739,"temp":33.2,"humidity":32,"rain":0.0,"pressure":997.8,"uv_index":7.7,"wind_gusts":30.2,"aqi":85,"pm10":73.3,"pm2_5":22.9,"mosquito_risk":0,"arthritis_risk":5,"migraine_risk":7,"frizz_risk":0,"updated_at":"2026-04-06T13:18:41.982157+05:30"},{"city":"Prayagraj","state":"Uttar Pradesh","latitude":25.4358,"longitude":81.8463,"temp":32.8,"humidity":31,"rain":0.0,"pressure":996.7,"uv_index":7.6,"wind_gusts":30.2,"aqi":72,"pm10":67.1,"pm2_5":20.8,"mosquito_risk":0,"arthritis_risk":5,"migraine_risk":7,"frizz_risk":0,"updated_at":"2026-04-06T13:18:41.982164+05:30"},{"city":"Gorakhpur","state":"Uttar Pradesh","latitude":26.7606,"longitude":83.3732,"temp":33.9,"humidity":26,"rain":0.0,"pressure":996.6,"uv_index":7.8,"wind_gusts":30.2,"aqi":68,"pm10":20.7,"pm2_5":10.7,"mosquito_risk":0,"arthritis_risk":5,"migraine_risk":7,"frizz_risk":0,"updated_at":"2026-04-06T13:18:41.982176+05:30"},{"city":"Bareilly","state":"Uttar Pradesh","latitude":28.367,"longitude":79.4304,"temp":32.0,"humidity":26,"rain":0.0,"pressure":987.7,"uv_index":7.15,"wind_gusts":31.3,"aqi":84,"pm10":112.2,"pm2_5":25.8,"mosquito_risk":0,"arthritis_risk":5,"migraine_risk":7,"frizz_risk":0,"updated_at":"2026-04-06T13:18:41.982183+05:30"},{"city":"Aligarh","state":"Uttar Pradesh","latitude":27.8974,"longitude":78.088,"temp":32.3,"humidity":23,"rain":0.0,"pressure":986.8,"uv_index":7.1,"wind_gusts":27.0,"aqi":249,"pm10":385.6,"pm2_5":45.6,"mosquito_risk":0,"arthritis_risk":5,"migraine_risk":7,"frizz_risk":0,"updated_at":"2026-04-06T13:18:41.982189+05:30"},{"city":"Moradabad","state":"Uttar Pradesh","latitude":28.8386,"longitude":78.7733,"temp":31.1,"humidity":28,"rain":0.0,"pressure":984.7,"uv_index":7.0,"wind_gusts":28.4,"aqi":108,"pm10":82.7,"pm2_5":21.5,"mosquito_risk":0,"arthritis_risk":5,"migraine_risk":7,"frizz_risk":0,"updated_at":"2026-04-06T13:18:41.982195+05:30"},{"city":"Saharanpur","state":"Uttar Pradesh","latitude":29.9637,"longitude":77.546,"temp":31.2,"humidity":26,"rain":0.0,"pressure":976.5,"uv_index":6.6,"wind_gusts":25.2,"aqi":101,"pm10":61.7,"pm2_5":18.9,"mosquito_risk":0,"arthritis_risk":5,"migraine_risk":7,"frizz_risk":0,"updated_at":"2026-04-06T13:18:41.982201+05:30"},{"city":"Jhansi","state":"Uttar Pradesh","latitude":25.4484,"longitude":78.5685,"temp":31.8,"humidity":32,"rain":0.0,"pressure":979.5,"uv_index":7.85,"wind_gusts":31.0,"aqi":70,"pm10":102.4,"pm2_5":21.7,"mosquito_risk":0,"arthritis_risk":5,"migraine_risk":7,"frizz_risk":0,"updated_at":"2026-04-06T13:18:45.276764+05:30"},{"city":"Surat","state":"Gujarat","latitude":21.1702,"longitude":72.8311,"temp":30.2,"humidity":52,"rain":0.0,"pressure":1009.3,"uv_index":7.7,"wind_gusts":32.0,"aqi":79,"pm10":43.5,"pm2_5":29.2,"mosquito_risk":0,"arthritis_risk":0,"migraine_risk":4,"frizz_risk":1,"updated_at":"2026-04-06T13:18:45.276797+05:30"},{"city":"Vadodara","state":"Gujarat","latitude":22.3072,"longitude":73.1812,"temp":34.1,"humidity":33,"rain":0.0,"pressure":1005.9,"uv_index":7.95,"wind_gusts":36.4,"aqi":74,"pm10":23.4,"pm2_5":13.9,"mosquito_risk":0,"arthritis_risk":5,"migraine_risk":4,"frizz_risk":0,"updated_at":"2026-04-06T13:18:45.276807+05:30"},{"city":"Rajkot","state":"Gujarat","latitude":22.3039,"longitude":70.8022,"temp":33.7,"humidity":34,"rain":0.0,"pressure":996.1,"uv_index":7.7,"wind_gusts":40.0,"aqi":45,"pm10":33.4,"pm2_5":12.7,"mosquito_risk":0,"arthritis_risk":5,"migraine_risk":7,"frizz_risk":0,"updated_at":"2026-04-06T13:18:45.276815+05:30"},{"city":"Thane","state":"Maharashtra","latitude":19.2183,"longitude":72.9781,"temp":30.9,"humidity":49,"rain":0.0,"pressure":1010.3,"uv_index":7.95,"wind_gusts":35.3,"aqi":67,"pm10":41.2,"pm2_5":25.3,"mosquito_risk":0,"arthritis_risk":0,"migraine_risk":4,"frizz_risk":1,"updated_at":"2026-04-06T13:18:45.276823+05:30"},{"city":"Nagpur","state":"Maharashtra","latitude":21.1458,"longitude":79.0882,"temp":33.0,"humidity":30,"rain":0.0,"pressure":973.6,"uv_index":8.7,"wind_gusts":21.2,"aqi":64,"pm10":23.7,"pm2_5":15.3,"mosquito_risk":0,"arthritis_risk":5,"migraine_risk":7,"frizz_risk":0,"updated_at":"2026-04-06T13:18:45.276830+05:30"},{"city":"Nashik","state":"Maharashtra","latitude":19.9975,"longitude":73.7898,"temp":29.7,"humidity":43,"rain":0.0,"pressure":947.5,"uv_index":8.2,"wind_gusts":33.5,"aqi":54,"pm10":26.0,"pm2_5":11.8,"mosquito_risk":4,"arthritis_risk":5,"migraine_risk":7,"frizz_risk":0,"updated_at":"2026-04-06T13:18:45.276837+05:30"},{"city":"Aurangabad","state":"Maharashtra","latitude":19.8762,"longitude":75.3433,"temp":32.3,"humidity":29,"rain":0.0,"pressure":945.7,"uv_index":8.9,"wind_gusts":29.9,"aqi":50,"pm10":22.8,"pm2_5":14.5,"mosquito_risk":0,"arthritis_risk":5,"migraine_risk":7,"frizz_risk":0,"updated_at":"2026-04-06T13:18:45.276843+05:30"},{"city":"Solapur","state":"Maharashtra","latitude":17.6599,"longitude":75.9064,"temp":34.8,"humidity":19,"rain":0.0,"pressure":958.7,"uv_index":9.0,"wind_gusts":33.1,"aqi":52,"pm10":29.8,"pm2_5":11.9,"mosquito_risk":0,"arthritis_risk":5,"migraine_risk":7,"frizz_risk":0,"updated_at":"2026-04-06T13:18:45.276851+05:30"},{"city":"Kolhapur","state":"Maharashtra","latitude":16.705,"longitude":74.2433,"temp":30.2,"humidity":45,"rain":0.0,"pressure":950.2,"uv_index":9.0,"wind_gusts":40.7,"aqi":68,"pm10":32.1,"pm2_5":13.6,"mosquito_risk":0,"arthritis_risk":5,"migraine_risk":7,"frizz_risk":1,"updated_at":"2026-04-06T13:18:45.276858+05:30"},{"city":"Goa","state":"Goa","latitude":15.2993,"longitude":74.124,"temp":31.8,"humidity":55,"rain":0.0,"pressure":1000.4,"uv_index":9.0,"wind_gusts":38.2,"aqi":69,"pm10":37.8,"pm2_5":15.7,"mosquito_risk":0,"arthritis_risk":5,"migraine_risk":4,"frizz_risk":1,"updated_at":"2026-04-06T13:18:45.276866+05:30"},{"city":"Jodhpur","state":"Rajasthan","latitude":26.2389,"longitude":73.0243,"temp":32.9,"humidity":25,"rain":0.0,"pressure":984.0,"uv_index":7.85,"wind_gusts":38.5,"aqi":75,"pm10":97.8,"pm2_5":17.5,"mosquito_risk":0,"arthritis_risk":5,"migraine_risk":7,"frizz_risk":0,"updated_at":"2026-04-06T13:18:45.276873+05:30"},{"city":"Udaipur","state":"Rajasthan","latitude":24.5854,"longitude":73.7125,"temp":30.7,"humidity":23,"rain":0.0,"pressure":948.0,"uv_index":8.4,"wind_gusts":36.4,"aqi":44,"pm10":26.8,"pm2_5":8.1,"mosquito_risk":0,"arthritis_risk":5,"migraine_risk":7,"frizz_risk":0,"updated_at":"2026-04-06T13:18:45.276880+05:30"},{"city":"Kota","state":"Rajasthan","latitude":25.2138,"longitude":75.8648,"temp":34.2,"humidity":17,"rain":0.0,"pressure":979.5,"uv_index":7.85,"wind_gusts":28.4,"aqi":69,"pm10":64.0,"pm2_5":16.5,"mosquito_risk":0,"arthritis_risk":5,"migraine_risk":7,"frizz_risk":0,"updated_at":"2026-04-06T13:18:45.276886+05:30"},{"city":"Bikaner","state":"Rajasthan","latitude":28.0229,"longitude":73.3119,"temp":31.6,"humidity":26,"rain":0.0,"pressure":982.9,"uv_index":7.65,"wind_gusts":26.6,"aqi":38,"pm10":62.9,"pm2_5":14.3,"mosquito_risk":0,"arthritis_risk":5,"migraine_risk":7,"frizz_risk":0,"updated_at":"2026-04-06T13:18:45.276892+05:30"},{"city":"Ajmer","state":"Rajasthan","latitude":26.4499,"longitude":74.6399,"temp":30.7,"humidity":25,"rain":0.0,"pressure":956.0,"uv_index":7.8,"wind_gusts":30.6,"aqi":53,"pm10":98.5,"pm2_5":17.8,"mosquito_risk":0,"arthritis_risk":5,"migraine_risk":7,"frizz_risk":0,"updated_at":"2026-04-06T13:18:45.276898+05:30"},{"city":"Gwalior","state":"Madhya Pradesh","latitude":26.2183,"longitude":78.1828,"temp":31.5,"humidity":36,"rain":0.0,"pressure":984.7,"uv_index":7.6,"wind_gusts":18.4,"aqi":84,"pm10":108.3,"pm2_5":20.1,"mosquito_risk":0,"arthritis_risk":5,"migraine_risk":7,"frizz_risk":0,"updated_at":"2026-04-06T13:18:45.276905+05:30"},{"city":"Indore","state":"Madhya Pradesh","latitude":22.7196,"longitude":75.8577,"temp":32.4,"humidity":22,"rain":0.0,"pressure":949.5,"uv_index":8.35,"wind_gusts":28.1,"aqi":56,"pm10":43.0,"pm2_5":13.7,"mosquito_risk":0,"arthritis_risk":5,"migraine_risk":7,"frizz_risk":0,"updated_at":"2026-04-06T13:18:45.276911+05:30"},{"city":"Bhopal","state":"Madhya Pradesh","latitude":23.2599,"longitude":77.4126,"temp":33.3,"humidity":19,"rain":0.0,"pressure":954.6,"uv_index":8.3,"wind_gusts":31.0,"aqi":48,"pm10":31.1,"pm2_5":9.8,"mosquito_risk":0,"arthritis_risk":5,"migraine_risk":7,"frizz_risk":0,"updated_at":"2026-04-06T13:18:45.276941+05:30"},{"city":"Jabalpur","state":"Madhya Pradesh","latitude":23.1815,"longitude":79.9864,"temp":32.2,"humidity":30,"rain":0.0,"pressure":962.1,"uv_index":8.2,"wind_gusts":24.8,"aqi":57,"pm10":20.1,"pm2_5":9.2,"mosquito_risk":0,"arthritis_risk":5,"migraine_risk":7,"frizz_risk":0,"updated_at":"2026-04-06T13:18:45.276948+05:30"},{"city":"Ujjain","state":"Madhya Pradesh","latitude":23.1765,"longitude":75.7885,"temp":32.6,"humidity":23,"rain":0.0,"pressure":955.2,"uv_index":8.2,"wind_gusts":28.1,"aqi":46,"pm10":30.7,"pm2_5":10.0,"mosquito_risk":0,"arthritis_risk":5,"migraine_risk":7,"frizz_risk":0,"updated_at":"2026-04-06T13:18:45.276955+05:30"},{"city":"Visakhapatnam","state":"Andhra Pradesh","latitude":17.6868,"longitude":83.2185,"temp":33.5,"humidity":55,"rain":0.0,"pressure":1003.9,"uv_index":9.1,"wind_gusts":38.5,"aqi":115,"pm10":32.2,"pm2_5":25.7,"mosquito_risk":0,"arthritis_risk":5,"migraine_risk":4,"frizz_risk":1,"updated_at":"2026-04-06T13:18:45.276962+05:30"},{"city":"Vijayawada","state":"Andhra Pradesh","latitude":16.5062,"longitude":80.648,"temp":34.8,"humidity":51,"rain":0.0,"pressure":1002.5,"uv_index":9.0,"wind_gusts":32.4,"aqi":81,"pm10":28.0,"pm2_5":21.4,"mosquito_risk":0,"arthritis_risk":5,"migraine_risk":4,"frizz_risk":1,"updated_at":"2026-04-06T13:18:45.276968+05:30"},{"city":"Guntur","state":"Andhra Pradesh","latitude":16.3067,"longitude":80.4365,"temp":35.2,"humidity":47,"rain":0.0,"pressure":1003.7,"uv_index":9.2,"wind_gusts":31.7,"aqi":88,"pm10":28.3,"pm2_5":21.9,"mosquito_risk":0,"arthritis_risk":5,"migraine_risk":7,"frizz_risk":1,"updated_at":"2026-04-06T13:18:45.276975+05:30"},{"city":"Nellore","state":"Andhra Pradesh","latitude":14.4426,"longitude":79.9865,"temp":36.6,"humidity":42,"rain":0.0,"pressure":1005.3,"uv_index":8.65,"wind_gusts":31.3,"aqi":63,"pm10":35.5,"pm2_5":31.1,"mosquito_risk":0,"arthritis_risk":5,"migraine_risk":7,"frizz_risk":1,"updated_at":"2026-04-06T13:18:45.276982+05:30"},{"city":"Kurnool","state":"Andhra Pradesh","latitude":15.8281,"longitude":78.0373,"temp":38.1,"humidity":24,"rain":0.0,"pressure":977.0,"uv_index":9.2,"wind_gusts":36.7,"aqi":107,"pm10":18.0,"pm2_5":14.4,"mosquito_risk":0,"arthritis_risk":5,"migraine_risk":10,"frizz_risk":0,"updated_at":"2026-04-06T13:18:45.276990+05:30"},{"city":"Kakinada","state":"Andhra Pradesh","latitude":16.9891,"longitude":82.2475,"temp":34.8,"humidity":50,"rain":0.0,"pressure":1007.5,"uv_index":8.45,"wind_gusts":31.0,"aqi":61,"pm10":20.3,"pm2_5":13.9,"mosquito_risk":0,"arthritis_risk":5,"migraine_risk":4,"frizz_risk":1,"updated_at":"2026-04-06T13:18:45.276997+05:30"},{"city":"Tirupati","state":"Andhra Pradesh","latitude":13.6288,"longitude":79.4192,"temp":34.7,"humidity":52,"rain":0.0,"pressure":991.3,"uv_index":8.15,"wind_gusts":22.7,"aqi":84,"pm10":45.1,"pm2_5":38.4,"mosquito_risk":0,"arthritis_risk":5,"migraine_risk":7,"frizz_risk":1,"updated_at":"2026-04-06T13:18:45.277003+05:30"},{"city":"Warangal","state":"Telangana","latitude":17.9689,"longitude":79.5941,"temp":34.9,"humidity":41,"rain":0.0,"pressure":978.9,"uv_index":9.05,"wind_gusts":29.5,"aqi":152,"pm10":54.8,"pm2_5":40.7,"mosquito_risk":0,"arthritis_risk":5,"migraine_risk":7,"frizz_risk":1,"updated_at":"2026-04-06T13:18:45.277010+05:30"},{"city":"Nizamabad","state":"Telangana","latitude":18.6725,"longitude":78.0941,"temp":34.4,"humidity":30,"rain":0.0,"pressure":965.8,"uv_index":8.95,"wind_gusts":27.7,"aqi":86,"pm10":27.7,"pm2_5":16.7,"mosquito_risk":0,"arthritis_risk":5,"migraine_risk":7,"frizz_risk":0,"updated_at":"2026-04-06T13:18:45.277016+05:30"},{"city":"Mysore","state":"Karnataka","latitude":12.2958,"longitude":76.6396,"temp":33.7,"humidity":31,"rain":0.0,"pressure":930.1,"uv_index":9.55,"wind_gusts":40.3,"aqi":73,"pm10":17.0,"pm2_5":14.4,"mosquito_risk":0,"arthritis_risk":5,"migraine_risk":7,"frizz_risk":0,"updated_at":"2026-04-06T13:18:45.277022+05:30"},{"city":"Mangalore","state":"Karnataka","latitude":12.9141,"longitude":74.856,"temp":28.9,"humidity":73,"rain":0.0,"pressure":1008.5,"uv_index":9.2,"wind_gusts":38.5,"aqi":60,"pm10":34.3,"pm2_5":16.4,"mosquito_risk":7,"arthritis_risk":0,"migraine_risk":4,"frizz_risk":1,"updated_at":"2026-04-06T13:18:45.277029+05:30"},{"city":"Hubli-Dharwad","state":"Karnataka","latitude":15.3647,"longitude":75.124,"temp":33.5,"humidity":28,"rain":0.0,"pressure":942.9,"uv_index":9.2,"wind_gusts":35.6,"aqi":53,"pm10":11.8,"pm2_5":6.3,"mosquito_risk":0,"arthritis_risk":5,"migraine_risk":7,"frizz_risk":0,"updated_at":"2026-04-06T13:18:45.277036+05:30"},{"city":"Belgaum","state":"Karnataka","latitude":15.8497,"longitude":74.4977,"temp":30.2,"humidity":42,"rain":0.0,"pressure":928.1,"uv_index":9.25,"wind_gusts":37.4,"aqi":59,"pm10":30.3,"pm2_5":11.5,"mosquito_risk":0,"arthritis_risk":5,"migraine_risk":7,"frizz_risk":0,"updated_at":"2026-04-06T13:18:48.575299+05:30"},{"city":"Coimbatore","state":"Tamil Nadu","latitude":11.0168,"longitude":76.9558,"temp":34.3,"humidity":42,"rain":0.0,"pressure":963.0,"uv_index":9.5,"wind_gusts":53.3,"aqi":76,"pm10":21.7,"pm2_5":17.5,"mosquito_risk":0,"arthritis_risk":5,"migraine_risk":7,"frizz_risk":1,"updated_at":"2026-04-06T13:18:48.575330+05:30"},{"city":"Madurai","state":"Tamil Nadu","latitude":9.9252,"longitude":78.1198,"temp":36.1,"humidity":42,"rain":0.0,"pressure":992.8,"uv_index":3.3,"wind_gusts":26.6,"aqi":100,"pm10":37.4,"pm2_5":32.4,"mosquito_risk":0,"arthritis_risk":5,"migraine_risk":6,"frizz_risk":1,"updated_at":"2026-04-06T13:18:48.575341+05:30"},{"city":"Trichy","state":"Tamil Nadu","latitude":10.7905,"longitude":78.7047,"temp":35.9,"humidity":47,"rain":0.0,"pressure":999.4,"uv_index":8.8,"wind_gusts":25.9,"aqi":91,"pm10":27.9,"pm2_5":23.1,"mosquito_risk":0,"arthritis_risk":5,"migraine_risk":10,"frizz_risk":1,"updated_at":"2026-04-06T13:18:48.575349+05:30"},{"city":"Salem","state":"Tamil Nadu","latitude":11.6643,"longitude":78.146,"temp":36.9,"humidity":38,"rain":0.0,"pressure":977.3,"uv_index":9.25,"wind_gusts":34.2,"aqi":79,"pm10":29.2,"pm2_5":25.1,"mosquito_risk":0,"arthritis_risk":5,"migraine_risk":10,"frizz_risk":1,"updated_at":"2026-04-06T13:18:48.575356+05:30"},{"city":"Tirunelveli","state":"Tamil Nadu","latitude":8.7139,"longitude":77.7567,"temp":37.7,"humidity":36,"rain":0.0,"pressure":1002.9,"uv_index":8.8,"wind_gusts":24.5,"aqi":58,"pm10":23.2,"pm2_5":19.0,"mosquito_risk":0,"arthritis_risk":5,"migraine_risk":7,"frizz_risk":1,"updated_at":"2026-04-06T13:18:48.575364+05:30"},{"city":"Vellore","state":"Tamil Nadu","latitude":12.9165,"longitude":79.1325,"temp":36.0,"humidity":43,"rain":0.0,"pressure":984.4,"uv_index":9.4,"wind_gusts":29.9,"aqi":99,"pm10":48.0,"pm2_5":40.9,"mosquito_risk":0,"arthritis_risk":5,"migraine_risk":10,"frizz_risk":1,"updated_at":"2026-04-06T13:18:48.575371+05:30"},{"city":"Erode","state":"Tamil Nadu","latitude":11.341,"longitude":77.7172,"temp":37.2,"humidity":41,"rain":0.0,"pressure":988.6,"uv_index":9.4,"wind_gusts":36.7,"aqi":77,"pm10":25.1,"pm2_5":21.1,"mosquito_risk":0,"arthritis_risk":5,"migraine_risk":10,"frizz_risk":1,"updated_at":"2026-04-06T13:18:48.575378+05:30"},{"city":"Kochi","state":"Kerala","latitude":9.9312,"longitude":76.2673,"temp":29.9,"humidity":71,"rain":0.0,"pressure":1009.8,"uv_index":9.2,"wind_gusts":37.1,"aqi":69,"pm10":28.8,"pm2_5":17.3,"mosquito_risk":7,"arthritis_risk":0,"migraine_risk":4,"frizz_risk":1,"updated_at":"2026-04-06T13:18:48.575384+05:30"},{"city":"Thiruvananthapuram","state":"Kerala","latitude":8.5241,"longitude":76.9366,"temp":29.0,"humidity":81,"rain":0.0,"pressure":1008.9,"uv_index":5.8,"wind_gusts":37.4,"aqi":56,"pm10":25.8,"pm2_5":17.4,"mosquito_risk":7,"arthritis_risk":0,"migraine_risk":0,"frizz_risk":1,"updated_at":"2026-04-06T13:18:48.575391+05:30"},{"city":"Kozhikode","state":"Kerala","latitude":11.2588,"longitude":75.7804,"temp":30.8,"humidity":69,"rain":0.0,"pressure":1009.1,"uv_index":9.15,"wind_gusts":38.2,"aqi":59,"pm10":39.8,"pm2_5":18.4,"mosquito_risk":3,"arthritis_risk":0,"migraine_risk":4,"frizz_risk":1,"updated_at":"2026-04-06T13:18:48.575397+05:30"},{"city":"Thrissur","state":"Kerala","latitude":10.5276,"longitude":76.2144,"temp":33.7,"humidity":57,"rain":0.0,"pressure":1008.1,"uv_index":9.2,"wind_gusts":40.7,"aqi":72,"pm10":26.7,"pm2_5":16.3,"mosquito_risk":0,"arthritis_risk":0,"migraine_risk":4,"frizz_risk":1,"updated_at":"2026-04-06T13:18:48.575405+05:30"},{"city":"Kannur","state":"Kerala","latitude":11.8745,"longitude":75.3704,"temp":32.0,"humidity":60,"rain":0.0,"pressure":1008.5,"uv_index":9.2,"wind_gusts":45.7,"aqi":56,"pm10":32.6,"pm2_5":16.9,"mosquito_risk":0,"arthritis_risk":0,"migraine_risk":4,"frizz_risk":1,"updated_at":"2026-04-06T13:18:48.575411+05:30"},{"city":"Patna","state":"Bihar","latitude":25.5941,"longitude":85.1376,"temp":33.0,"humidity":32,"rain":0.0,"pressure":999.9,"uv_index":6.6,"wind_gusts":30.2,"aqi":66,"pm10":29.7,"pm2_5":15.3,"mosquito_risk":0,"arthritis_risk":5,"migraine_risk":7,"frizz_risk":0,"updated_at":"2026-04-06T13:18:48.575418+05:30"},{"city":"Gaya","state":"Bihar","latitude":24.7914,"longitude":85.0002,"temp":30.9,"humidity":46,"rain":0.0,"pressure":993.8,"uv_index":6.15,"wind_gusts":30.2,"aqi":66,"pm10":18.2,"pm2_5":12.1,"mosquito_risk":0,"arthritis_risk":5,"migraine_risk":7,"frizz_risk":1,"updated_at":"2026-04-06T13:18:48.575424+05:30"},{"city":"Muzaffarpur","state":"Bihar","latitude":26.1209,"longitude":85.3647,"temp":34.1,"humidity":30,"rain":0.0,"pressure":999.5,"uv_index":7.45,"wind_gusts":26.3,"aqi":69,"pm10":34.7,"pm2_5":16.2,"mosquito_risk":0,"arthritis_risk":5,"migraine_risk":7,"frizz_risk":0,"updated_at":"2026-04-06T13:18:48.575430+05:30"},{"city":"Bhagalpur","state":"Bihar","latitude":25.2425,"longitude":87.0117,"temp":31.1,"humidity":40,"rain":0.0,"pressure":1001.1,"uv_index":7.65,"wind_gusts":38.9,"aqi":57,"pm10":31.4,"pm2_5":20.1,"mosquito_risk":0,"arthritis_risk":5,"migraine_risk":4,"frizz_risk":0,"updated_at":"2026-04-06T13:18:48.575437+05:30"},{"city":"Ranchi","state":"Jharkhand","latitude":23.3441,"longitude":85.3096,"temp":26.0,"humidity":65,"rain":0.0,"pressure":938.7,"uv_index":7.8,"wind_gusts":32.4,"aqi":95,"pm10":33.4,"pm2_5":20.3,"mosquito_risk":7,"arthritis_risk":5,"migraine_risk":7,"frizz_risk":1,"updated_at":"2026-04-06T13:18:48.575443+05:30"},{"city":"Jamshedpur","state":"Jharkhand","latitude":22.8046,"longitude":86.2029,"temp":31.2,"humidity":58,"rain":0.0,"pressure":990.7,"uv_index":8.65,"wind_gusts":24.1,"aqi":128,"pm10":44.0,"pm2_5":34.1,"mosquito_risk":0,"arthritis_risk":5,"migraine_risk":7,"frizz_risk":1,"updated_at":"2026-04-06T13:18:48.575449+05:30"},{"city":"Dhanbad","state":"Jharkhand","latitude":23.7957,"longitude":86.4304,"temp":31.2,"humidity":41,"rain":0.0,"pressure":979.6,"uv_index":7.85,"wind_gusts":24.8,"aqi":124,"pm10":49.7,"pm2_5":33.1,"mosquito_risk":0,"arthritis_risk":5,"migraine_risk":7,"frizz_risk":1,"updated_at":"2026-04-06T13:18:48.575456+05:30"},{"city":"Bokaro","state":"Jharkhand","latitude":23.6693,"longitude":86.1511,"temp":30.1,"humidity":50,"rain":0.0,"pressure":983.8,"uv_index":7.65,"wind_gusts":38.5,"aqi":108,"pm10":42.0,"pm2_5":26.7,"mosquito_risk":0,"arthritis_risk":5,"migraine_risk":7,"frizz_risk":1,"updated_at":"2026-04-06T13:18:48.575462+05:30"},{"city":"Bhubaneswar","state":"Odisha","latitude":20.2961,"longitude":85.8245,"temp":33.4,"humidity":56,"rain":0.0,"pressure":1002.4,"uv_index":8.95,"wind_gusts":26.6,"aqi":76,"pm10":28.2,"pm2_5":25.1,"mosquito_risk":0,"arthritis_risk":5,"migraine_risk":4,"frizz_risk":1,"updated_at":"2026-04-06T13:18:48.575469+05:30"},{"city":"Cuttack","state":"Odisha","latitude":20.4625,"longitude":85.8828,"temp":33.8,"humidity":54,"rain":0.0,"pressure":1004.1,"uv_index":8.95,"wind_gusts":31.7,"aqi":76,"pm10":28.2,"pm2_5":25.1,"mosquito_risk":0,"arthritis_risk":5,"migraine_risk":4,"frizz_risk":1,"updated_at":"2026-04-06T13:18:48.575475+05:30"},{"city":"Rourkela","state":"Odisha","latitude":22.2604,"longitude":84.8536,"temp":31.3,"humidity":59,"rain":0.0,"pressure":985.4,"uv_index":8.4,"wind_gusts":35.6,"aqi":139,"pm10":47.6,"pm2_5":35.7,"mosquito_risk":0,"arthritis_risk":5,"migraine_risk":7,"frizz_risk":1,"updated_at":"2026-04-06T13:18:48.575481+05:30"},{"city":"Raipur","state":"Chhattisgarh","latitude":21.2514,"longitude":81.6296,"temp":33.4,"humidity":41,"rain":0.0,"pressure":974.9,"uv_index":8.8,"wind_gusts":26.6,"aqi":126,"pm10":54.6,"pm2_5":38.2,"mosquito_risk":0,"arthritis_risk":5,"migraine_risk":7,"frizz_risk":1,"updated_at":"2026-04-06T13:18:48.575487+05:30"},{"city":"Bhilai","state":"Chhattisgarh","latitude":21.1938,"longitude":81.3509,"temp":33.4,"humidity":42,"rain":0.0,"pressure":975.2,"uv_index":8.75,"wind_gusts":25.6,"aqi":138,"pm10":46.0,"pm2_5":30.7,"mosquito_risk":0,"arthritis_risk":5,"migraine_risk":7,"frizz_risk":1,"updated_at":"2026-04-06T13:18:48.575493+05:30"},{"city":"Guwahati","state":"Assam","latitude":26.1158,"longitude":91.7086,"temp":31.3,"humidity":61,"rain":0.0,"pressure":999.6,"uv_index":8.25,"wind_gusts":41.4,"aqi":84,"pm10":25.4,"pm2_5":19.8,"mosquito_risk":3,"arthritis_risk":5,"migraine_risk":7,"frizz_risk":1,"updated_at":"2026-04-06T13:18:48.575499+05:30"},{"city":"Agartala","state":"Tripura","latitude":23.8315,"longitude":91.2868,"temp":33.0,"humidity":51,"rain":0.0,"pressure":1005.6,"uv_index":8.5,"wind_gusts":20.2,"aqi":151,"pm10":75.0,"pm2_5":66.8,"mosquito_risk":0,"arthritis_risk":5,"migraine_risk":4,"frizz_risk":1,"updated_at":"2026-04-06T13:18:48.575506+05:30"},{"city":"Shillong","state":"Meghalaya","latitude":25.5788,"longitude":91.8933,"temp":18.4,"humidity":70,"rain":0.0,"pressure":856.9,"uv_index":7.85,"wind_gusts":70.2,"aqi":81,"pm10":23.1,"pm2_5":17.2,"mosquito_risk":3,"arthritis_risk":5,"migraine_risk":7,"frizz_risk":0,"updated_at":"2026-04-06T13:18:48.575512+05:30"},{"city":"Imphal","state":"Manipur","latitude":24.817,"longitude":93.9368,"temp":24.9,"humidity":51,"rain":0.0,"pressure":923.8,"uv_index":8.85,"wind_gusts":50.4,"aqi":138,"pm10":24.7,"pm2_5":17.2,"mosquito_risk":0,"arthritis_risk":5,"migraine_risk":7,"frizz_risk":0,"updated_at":"2026-04-06T13:18:48.575519+05:30"},{"city":"Aizawl","state":"Mizoram","latitude":23.7271,"longitude":92.7176,"temp":27.9,"humidity":40,"rain":0.0,"pressure":894.6,"uv_index":8.75,"wind_gusts":31.0,"aqi":138,"pm10":38.0,"pm2_5":30.2,"mosquito_risk":4,"arthritis_risk":5,"migraine_risk":7,"frizz_risk":0,"updated_at":"2026-04-06T13:18:48.575525+05:30"},{"city":"Kohima","state":"Nagaland","latitude":25.6701,"longitude":94.1077,"temp":23.0,"humidity":41,"rain":0.0,"pressure":856.2,"uv_index":8.75,"wind_gusts":79.9,"aqi":94,"pm10":19.3,"pm2_5":12.7,"mosquito_risk":0,"arthritis_risk":5,"migraine_risk":7,"frizz_risk":0,"updated_at":"2026-04-06T13:18:48.575531+05:30"},{"city":"Gangtok","state":"Sikkim","latitude":27.3314,"longitude":88.6138,"temp":20.7,"humidity":55,"rain":0.0,"pressure":838.4,"uv_index":8.5,"wind_gusts":19.8,"aqi":71,"pm10":14.9,"pm2_5":11.1,"mosquito_risk":0,"arthritis_risk":5,"migraine_risk":7,"frizz_risk":0,"updated_at":"2026-04-06T13:18:48.575537+05:30"},{"city":"Siliguri","state":"West Bengal","latitude":26.7271,"longitude":88.3953,"temp":26.6,"humidity":60,"rain":0.0,"pressure":993.3,"uv_index":8.05,"wind_gusts":21.2,"aqi":89,"pm10":22.4,"pm2_5":16.9,"mosquito_risk":4,"arthritis_risk":5,"migraine_risk":7,"frizz_risk":1,"updated_at":"2026-04-06T13:18:51.876239+05:30"},{"city":"Durgapur","state":"West Bengal","latitude":23.5204,"longitude":87.3119,"temp":30.0,"humidity":54,"rain":0.0,"pressure":994.9,"uv_index":8.45,"wind_gusts":24.8,"aqi":132,"pm10":60.5,"pm2_5":44.7,"mosquito_risk":4,"arthritis_risk":5,"migraine_risk":7,"frizz_risk":1,"updated_at":"2026-04-06T13:18:51.876272+05:30"},{"city":"Asansol","state":"West Bengal","latitude":23.6739,"longitude":86.9524,"temp":30.0,"humidity":50,"rain":0.0,"pressure":993.4,"uv_index":7.6,"wind_gusts":23.4,"aqi":120,"pm10":55.5,"pm2_5":39.0,"mosquito_risk":4,"arthritis_risk":5,"migraine_risk":7,"frizz_risk":1,"updated_at":"2026-04-06T13:18:51.876285+05:30"},{"city":"Pondicherry","state":"Puducherry","latitude":11.9139,"longitude":79.8145,"temp":34.2,"humidity":59,"rain":0.0,"pressure":1008.0,"uv_index":8.75,"wind_gusts":25.9,"aqi":71,"pm10":36.4,"pm2_5":32.0,"mosquito_risk":0,"arthritis_risk":0,"migraine_risk":4,"frizz_risk":1,"updated_at":"2026-04-06T13:18:51.876293+05:30"},{"city":"Port Blair","state":"Andaman and Nicobar Islands","latitude":11.6234,"longitude":92.7265,"temp":29.6,"humidity":64,"rain":0.0,"pressure":1007.3,"uv_index":9.2,"wind_gusts":19.4,"aqi":27,"pm10":11.4,"pm2_5":7.3,"mosquito_risk":7,"arthritis_risk":5,"migraine_risk":4,"frizz_risk":1,"updated_at":"2026-04-06T13:18:51.876300+05:30"},{"city":"Haridwar","state":"Uttarakhand","latitude":29.9457,"longitude":78.1642,"temp":30.7,"humidity":29,"rain":0.0,"pressure":975.1,"uv_index":6.7,"wind_gusts":25.9,"aqi":68,"pm10":55.2,"pm2_5":14.4,"mosquito_risk":0,"arthritis_risk":5,"migraine_risk":7,"frizz_risk":0,"updated_at":"2026-04-06T13:18:51.876308+05:30"},{"city":"Rishikesh","state":"Uttarakhand","latitude":30.0869,"longitude":78.2676,"temp":29.6,"humidity":32,"rain":0.0,"pressure":967.8,"uv_index":6.8,"wind_gusts":28.4,"aqi":53,"pm10":34.8,"pm2_5":10.5,"mosquito_risk":4,"arthritis_risk":5,"migraine_risk":7,"frizz_risk":0,"updated_at":"2026-04-06T13:18:51.876315+05:30"},{"city":"Nainital","state":"Uttarakhand","latitude":29.3919,"longitude":79.4542,"temp":21.7,"humidity":40,"rain":0.0,"pressure":807.8,"uv_index":5.85,"wind_gusts":38.2,"aqi":57,"pm10":51.7,"pm2_5":13.9,"mosquito_risk":0,"arthritis_risk":5,"migraine_risk":3,"frizz_risk":0,"updated_at":"2026-04-06T13:18:51.876322+05:30"},{"city":"Mussoorie","state":"Uttarakhand","latitude":30.4599,"longitude":78.0664,"temp":19.6,"humidity":43,"rain":0.0,"pressure":804.0,"uv_index":6.45,"wind_gusts":29.5,"aqi":61,"pm10":30.2,"pm2_5":10.4,"mosquito_risk":0,"arthritis_risk":5,"migraine_risk":7,"frizz_risk":0,"updated_at":"2026-04-06T13:18:51.876329+05:30"},{"city":"Dharamshala","state":"Himachal Pradesh","latitude":32.219,"longitude":76.3234,"temp":18.9,"humidity":71,"rain":0.0,"pressure":869.6,"uv_index":7.45,"wind_gusts":24.8,"aqi":77,"pm10":14.8,"pm2_5":7.3,"mosquito_risk":3,"arthritis_risk":5,"migraine_risk":7,"frizz_risk":0,"updated_at":"2026-04-06T13:18:51.876336+05:30"},{"city":"Dalhousie","state":"Himachal Pradesh","latitude":32.5387,"longitude":75.971,"temp":18.6,"humidity":51,"rain":0.0,"pressure":804.7,"uv_index":6.95,"wind_gusts":20.5,"aqi":62,"pm10":18.5,"pm2_5":8.7,"mosquito_risk":0,"arthritis_risk":5,"migraine_risk":7,"frizz_risk":0,"updated_at":"2026-04-06T13:18:51.876344+05:30"},{"city":"Patiala","state":"Punjab","latitude":30.3398,"longitude":76.3869,"temp":31.3,"humidity":25,"rain":0.0,"pressure":978.9,"uv_index":6.75,"wind_gusts":23.4,"aqi":114,"pm10":202.1,"pm2_5":31.3,"mosquito_risk":0,"arthritis_risk":5,"migraine_risk":7,"frizz_risk":0,"updated_at":"2026-04-06T13:18:51.876351+05:30"},{"city":"Bhatinda","state":"Punjab","latitude":30.211,"longitude":74.9455,"temp":31.0,"humidity":28,"rain":0.0,"pressure":984.4,"uv_index":7.45,"wind_gusts":23.0,"aqi":105,"pm10":26.3,"pm2_5":14.0,"mosquito_risk":0,"arthritis_risk":5,"migraine_risk":7,"frizz_risk":0,"updated_at":"2026-04-06T13:18:51.876358+05:30"},{"city":"Rohtak","state":"Haryana","latitude":28.8955,"longitude":76.6066,"temp":32.0,"humidity":24,"rain":0.0,"pressure":982.8,"uv_index":6.95,"wind_gusts":23.4,"aqi":351,"pm10":227.7,"pm2_5":31.0,"mosquito_risk":0,"arthritis_risk":5,"migraine_risk":7,"frizz_risk":0,"updated_at":"2026-04-06T13:18:51.876365+05:30"},{"city":"Panipat","state":"Haryana","latitude":29.3909,"longitude":76.9635,"temp":31.6,"humidity":24,"rain":0.0,"pressure":981.3,"uv_index":6.75,"wind_gusts":26.6,"aqi":447,"pm10":465.7,"pm2_5":48.4,"mosquito_risk":0,"arthritis_risk":5,"migraine_risk":7,"frizz_risk":0,"updated_at":"2026-04-06T13:18:51.876371+05:30"},{"city":"Mathura","state":"Uttar Pradesh","latitude":27.4924,"longitude":77.6737,"temp":32.4,"humidity":24,"rain":0.0,"pressure":988.3,"uv_index":7.2,"wind_gusts":29.2,"aqi":425,"pm10":438.7,"pm2_5":51.3,"mosquito_risk":0,"arthritis_risk":5,"migraine_risk":7,"frizz_risk":0,"updated_at":"2026-04-06T13:18:51.876377+05:30"},{"city":"Vrindavan","state":"Uttar Pradesh","latitude":27.5823,"longitude":77.7027,"temp":32.2,"humidity":25,"rain":0.0,"pressure":988.4,"uv_index":7.2,"wind_gusts":28.4,"aqi":425,"pm10":438.7,"pm2_5":51.3,"mosquito_risk":0,"arthritis_risk":5,"migraine_risk":7,"frizz_risk":0,"updated_at":"2026-04-06T13:18:51.876383+05:30"},{"city":"Ayodhya","state":"Uttar Pradesh","latitude":26.7922,"longitude":82.1998,"temp":33.6,"humidity":25,"rain":0.0,"pressure":995.3,"uv_index":7.6,"wind_gusts":29.5,"aqi":78,"pm10":63.8,"pm2_5":19.7,"mosquito_risk":0,"arthritis_risk":5,"migraine_risk":7,"frizz_risk":0,"updated_at":"2026-04-06T13:18:51.876388+05:30"},{"city":"Ratlam","state":"Madhya Pradesh","latitude":23.3315,"longitude":75.0367,"temp":32.3,"humidity":25,"rain":0.0,"pressure":956.3,"uv_index":8.2,"wind_gusts":33.1,"aqi":50,"pm10":14.0,"pm2_5":5.7,"mosquito_risk":0,"arthritis_risk":5,"migraine_risk":7,"frizz_risk":0,"updated_at":"2026-04-06T13:18:51.876395+05:30"},{"city":"Sagar","state":"Madhya Pradesh","latitude":23.8388,"longitude":78.7378,"temp":30.4,"humidity":34,"rain":0.0,"pressure":951.3,"uv_index":8.3,"wind_gusts":19.1,"aqi":49,"pm10":31.0,"pm2_5":8.6,"mosquito_risk":0,"arthritis_risk":5,"migraine_risk":7,"frizz_risk":0,"updated_at":"2026-04-06T13:18:51.876401+05:30"},{"city":"Satna","state":"Madhya Pradesh","latitude":24.6005,"longitude":80.8322,"temp":31.7,"humidity":28,"rain":0.0,"pressure":972.4,"uv_index":8.2,"wind_gusts":28.4,"aqi":58,"pm10":60.3,"pm2_5":14.3,"mosquito_risk":0,"arthritis_risk":5,"migraine_risk":7,"frizz_risk":0,"updated_at":"2026-04-06T13:18:51.876407+05:30"},{"city":"Akola","state":"Maharashtra","latitude":20.7002,"longitude":77.0082,"temp":35.6,"humidity":22,"rain":0.0,"pressure":975.9,"uv_index":8.65,"wind_gusts":28.1,"aqi":57,"pm10":15.4,"pm2_5":11.5,"mosquito_risk":0,"arthritis_risk":5,"migraine_risk":10,"frizz_risk":0,"updated_at":"2026-04-06T13:18:51.876414+05:30"},{"city":"Amravati","state":"Maharashtra","latitude":20.9374,"longitude":77.7796,"temp":35.4,"humidity":20,"rain":0.0,"pressure":967.9,"uv_index":8.7,"wind_gusts":28.4,"aqi":56,"pm10":16.1,"pm2_5":12.1,"mosquito_risk":0,"arthritis_risk":5,"migraine_risk":10,"frizz_risk":0,"updated_at":"2026-04-06T13:18:51.876421+05:30"},{"city":"Latur","state":"Maharashtra","latitude":18.4088,"longitude":76.5604,"temp":32.5,"humidity":28,"rain":0.0,"pressure":941.4,"uv_index":9.0,"wind_gusts":28.8,"aqi":63,"pm10":25.4,"pm2_5":10.2,"mosquito_risk":0,"arthritis_risk":5,"migraine_risk":7,"frizz_risk":0,"updated_at":"2026-04-06T13:18:51.876428+05:30"},{"city":"Nanded","state":"Maharashtra","latitude":19.1383,"longitude":77.3091,"temp":34.9,"humidity":26,"rain":0.0,"pressure":969.8,"uv_index":8.85,"wind_gusts":23.4,"aqi":63,"pm10":23.9,"pm2_5":13.4,"mosquito_risk":0,"arthritis_risk":5,"migraine_risk":7,"frizz_risk":0,"updated_at":"2026-04-06T13:18:51.876435+05:30"},{"city":"Gulbarga","state":"Karnataka","latitude":17.3297,"longitude":76.8343,"temp":36.0,"humidity":22,"rain":0.0,"pressure":959.8,"uv_index":9.0,"wind_gusts":32.0,"aqi":55,"pm10":22.5,"pm2_5":9.2,"mosquito_risk":0,"arthritis_risk":5,"migraine_risk":10,"frizz_risk":0,"updated_at":"2026-04-06T13:18:51.876441+05:30"},{"city":"Bidar","state":"Karnataka","latitude":17.9104,"longitude":77.5199,"temp":34.1,"humidity":26,"rain":0.0,"pressure":936.9,"uv_index":9.05,"wind_gusts":28.1,"aqi":77,"pm10":27.9,"pm2_5":16.2,"mosquito_risk":0,"arthritis_risk":5,"migraine_risk":7,"frizz_risk":0,"updated_at":"2026-04-06T13:18:51.876447+05:30"},{"city":"Hospet","state":"Karnataka","latitude":15.2689,"longitude":76.3909,"temp":35.2,"humidity":22,"rain":0.0,"pressure":957.1,"uv_index":9.25,"wind_gusts":31.3,"aqi":55,"pm10":13.0,"pm2_5":9.0,"mosquito_risk":0,"arthritis_risk":5,"migraine_risk":10,"frizz_risk":0,"updated_at":"2026-04-06T13:18:51.876452+05:30"},{"city":"Tirupur","state":"Tamil Nadu","latitude":11.1085,"longitude":77.3411,"temp":36.3,"humidity":38,"rain":0.0,"pressure":975.6,"uv_index":9.2,"wind_gusts":45.4,"aqi":80,"pm10":24.7,"pm2_5":20.3,"mosquito_risk":0,"arthritis_risk":5,"migraine_risk":10,"frizz_risk":1,"updated_at":"2026-04-06T13:18:51.876458+05:30"},{"city":"Alappuzha","state":"Kerala","latitude":9.4981,"longitude":76.3388,"temp":29.6,"humidity":75,"rain":0.0,"pressure":1010.0,"uv_index":6.35,"wind_gusts":33.1,"aqi":65,"pm10":32.6,"pm2_5":20.0,"mosquito_risk":7,"arthritis_risk":0,"migraine_risk":4,"frizz_risk":1,"updated_at":"2026-04-06T13:18:51.876465+05:30"},{"city":"Munnar","state":"Kerala","latitude":10.0889,"longitude":77.0595,"temp":25.4,"humidity":76,"rain":0.0,"pressure":859.4,"uv_index":6.45,"wind_gusts":36.0,"aqi":65,"pm10":20.7,"pm2_5":16.5,"mosquito_risk":7,"arthritis_risk":5,"migraine_risk":7,"frizz_risk":1,"updated_at":"2026-04-06T13:18:51.876471+05:30"},{"city":"Silchar","state":"Assam","latitude":24.8333,"longitude":92.7789,"temp":30.7,"humidity":61,"rain":0.0,"pressure":1005.0,"uv_index":8.5,"wind_gusts":22.3,"aqi":153,"pm10":49.4,"pm2_5":38.9,"mosquito_risk":3,"arthritis_risk":5,"migraine_risk":4,"frizz_risk":1,"updated_at":"2026-04-06T13:18:51.876478+05:30"},{"city":"Dibrugarh","state":"Assam","latitude":27.4728,"longitude":94.912,"temp":26.7,"humidity":71,"rain":0.0,"pressure":994.3,"uv_index":8.3,"wind_gusts":38.2,"aqi":103,"pm10":33.5,"pm2_5":26.1,"mosquito_risk":7,"arthritis_risk":5,"migraine_risk":7,"frizz_risk":1,"updated_at":"2026-04-06T13:18:51.876484+05:30"}]