[{"city":"Delhi","state":"Delhi","latitude":28.6139,"longitude":77.209,"temp":17.7,"humidity":71,"rain":0.0,"pressure":986.4,"uv_index":5.85,"wind_gusts":36.4,"aqi":216,"pm10":291.5,"pm2_5":76.6,"mosquito_risk":3,"arthritis_risk":5,"migraine_risk":3,"frizz_risk":0,"updated_at":"2026-03-03T02:11:13.711264+05:30"},{"city":"Mumbai","state":"Maharashtra","latitude":19.076,"longitude":72.8777,"temp":26.5,"humidity":80,"rain":0.0,"pressure":1010.6,"uv_index":7.35,"wind_gusts":27.0,"aqi":89,"pm10":40.3,"pm2_5":33.6,"mosquito_risk":7,"arthritis_risk":0,"migraine_risk":4,"frizz_risk":1,"updated_at":"2026-03-03T02:11:13.711307+05:30"},{"city":"Bangalore","state":"Karnataka","latitude":12.9716,"longitude":77.5946,"temp":21.1,"humidity":67,"rain":0.0,"pressure":911.8,"uv_index":9.1,"wind_gusts":39.6,"aqi":130,"pm10":46.7,"pm2_5":45.8,"mosquito_risk":3,"arthritis_risk":5,"migraine_risk":7,"frizz_risk":0,"updated_at":"2026-03-03T02:11:13.711322+05:30"},{"city":"Hyderabad","state":"Telangana","latitude":17.385,"longitude":78.4867,"temp":23.7,"humidity":68,"rain":0.0,"pressure":954.2,"uv_index":8.35,"wind_gusts":25.2,"aqi":140,"pm10":65.4,"pm2_5":64.5,"mosquito_risk":3,"arthritis_risk":5,"migraine_risk":7,"frizz_risk":1,"updated_at":"2026-03-03T02:11:13.711331+05:30"},{"city":"Chennai","state":"Tamil Nadu","latitude":13.0827,"longitude":80.2707,"temp":23.9,"humidity":86,"rain":0.0,"pressure":1008.7,"uv_index":8.8,"wind_gusts":29.2,"aqi":122,"pm10":49.4,"pm2_5":45.4,"mosquito_risk":3,"arthritis_risk":0,"migraine_risk":4,"frizz_risk":1,"updated_at":"2026-03-03T02:11:13.711341+05:30"},{"city":"Kolkata","state":"West Bengal","latitude":22.5726,"longitude":88.3639,"temp":22.0,"humidity":71,"rain":0.0,"pressure":1008.2,"uv_index":7.7,"wind_gusts":17.3,"aqi":160,"pm10":128.5,"pm2_5":118.0,"mosquito_risk":3,"arthritis_risk":0,"migraine_risk":4,"frizz_risk":1,"updated_at":"2026-03-03T02:11:13.711349+05:30"},{"city":"Pune","state":"Maharashtra","latitude":18.5204,"longitude":73.8567,"temp":22.3,"humidity":72,"rain":0.0,"pressure":949.8,"uv_index":7.9,"wind_gusts":31.0,"aqi":95,"pm10":46.8,"pm2_5":43.9,"mosquito_risk":3,"arthritis_risk":5,"migraine_risk":7,"frizz_risk":1,"updated_at":"2026-03-03T02:11:13.711361+05:30"},{"city":"Ahmedabad","state":"Gujarat","latitude":23.0225,"longitude":72.5714,"temp":24.1,"humidity":61,"rain":0.0,"pressure":1005.7,"uv_index":7.15,"wind_gusts":19.4,"aqi":101,"pm10":63.8,"pm2_5":52.9,"mosquito_risk":3,"arthritis_risk":5,"migraine_risk":4,"frizz_risk":1,"updated_at":"2026-03-03T02:11:13.711369+05:30"},{"city":"Jaipur","state":"Rajasthan","latitude":26.9124,"longitude":75.7873,"temp":21.6,"humidity":45,"rain":0.0,"pressure":963.4,"uv_index":6.6,"wind_gusts":32.4,"aqi":101,"pm10":110.1,"pm2_5":42.3,"mosquito_risk":0,"arthritis_risk":5,"migraine_risk":7,"frizz_risk":0,"updated_at":"2026-03-03T02:11:13.711377+05:30"},{"city":"Lucknow","state":"Uttar Pradesh","latitude":26.8467,"longitude":80.9462,"temp":18.5,"humidity":73,"rain":0.0,"pressure":996.4,"uv_index":6.3,"wind_gusts":35.3,"aqi":153,"pm10":294.3,"pm2_5":76.1,"mosquito_risk":3,"arthritis_risk":5,"migraine_risk":7,"frizz_risk":0,"updated_at":"2026-03-03T02:11:13.711385+05:30"},{"city":"Kanpur","state":"Uttar Pradesh","latitude":26.4499,"longitude":80.3319,"temp":17.8,"humidity":81,"rain":0.0,"pressure":995.0,"uv_index":6.3,"wind_gusts":28.4,"aqi":162,"pm10":383.7,"pm2_5":77.1,"mosquito_risk":3,"arthritis_risk":10,"migraine_risk":7,"frizz_risk":0,"updated_at":"2026-03-03T02:11:13.711393+05:30"},{"city":"Chandigarh","state":"Chandigarh","latitude":30.7333,"longitude":76.7794,"temp":17.0,"humidity":65,"rain":0.0,"pressure":971.4,"uv_index":5.7,"wind_gusts":34.9,"aqi":80,"pm10":28.4,"pm2_5":25.6,"mosquito_risk":3,"arthritis_risk":5,"migraine_risk":3,"frizz_risk":0,"updated_at":"2026-03-03T02:11:13.711401+05:30"},{"city":"Srinagar","state":"Jammu and Kashmir","latitude":34.0837,"longitude":74.7973,"temp":3.5,"humidity":65,"rain":0.0,"pressure":839.7,"uv_index":6.6,"wind_gusts":17.3,"aqi":146,"pm10":85.2,"pm2_5":73.3,"mosquito_risk":3,"arthritis_risk":5,"migraine_risk":7,"frizz_risk":1,"updated_at":"2026-03-03T02:11:13.711408+05:30"},{"city":"Jammu","state":"Jammu and Kashmir","latitude":32.7266,"longitude":74.857,"temp":18.2,"humidity":57,"rain":0.0,"pressure":975.7,"uv_index":6.3,"wind_gusts":24.8,"aqi":99,"pm10":51.8,"pm2_5":49.6,"mosquito_risk":0,"arthritis_risk":5,"migraine_risk":7,"frizz_risk":0,"updated_at":"2026-03-03T02:11:13.711415+05:30"},{"city":"Amritsar","state":"Punjab","latitude":31.634,"longitude":74.8723,"temp":15.7,"humidity":75,"rain":0.0,"pressure":984.2,"uv_index":6.25,"wind_gusts":26.3,"aqi":130,"pm10":36.6,"pm2_5":29.9,"mosquito_risk":3,"arthritis_risk":5,"migraine_risk":7,"frizz_risk":0,"updated_at":"2026-03-03T02:11:13.711423+05:30"},{"city":"Ludhiana","state":"Punjab","latitude":30.901,"longitude":75.8573,"temp":17.6,"humidity":65,"rain":0.0,"pressure":982.1,"uv_index":5.9,"wind_gusts":29.2,"aqi":154,"pm10":69.4,"pm2_5":55.8,"mosquito_risk":3,"arthritis_risk":5,"migraine_risk":3,"frizz_risk":0,"updated_at":"2026-03-03T02:11:13.711429+05:30"},{"city":"Jalandhar","state":"Punjab","latitude":31.326,"longitude":75.5762,"temp":18.4,"humidity":63,"rain":0.0,"pressure":983.3,"uv_index":6.1,"wind_gusts":25.6,"aqi":154,"pm10":78.9,"pm2_5":58.0,"mosquito_risk":3,"arthritis_risk":5,"migraine_risk":7,"frizz_risk":0,"updated_at":"2026-03-03T02:11:13.711438+05:30"},{"city":"Dehradun","state":"Uttarakhand","latitude":30.6284,"longitude":78.0322,"temp":11.0,"humidity":60,"rain":0.0,"pressure":828.6,"uv_index":6.05,"wind_gusts":31.3,"aqi":59,"pm10":23.3,"pm2_5":20.5,"mosquito_risk":0,"arthritis_risk":5,"migraine_risk":7,"frizz_risk":0,"updated_at":"2026-03-03T02:11:13.711445+05:30"},{"city":"Shimla","state":"Himachal Pradesh","latitude":31.1048,"longitude":77.1734,"temp":7.7,"humidity":62,"rain":0.0,"pressure":782.0,"uv_index":6.1,"wind_gusts":45.0,"aqi":73,"pm10":37.5,"pm2_5":29.6,"mosquito_risk":3,"arthritis_risk":5,"migraine_risk":7,"frizz_risk":0,"updated_at":"2026-03-03T02:11:13.711452+05:30"},{"city":"Manali","state":"Himachal Pradesh","latitude":32.2396,"longitude":77.1887,"temp":14.1,"humidity":12,"rain":0.0,"pressure":819.1,"uv_index":7.45,"wind_gusts":39.2,"aqi":55,"pm10":18.4,"pm2_5":15.3,"mosquito_risk":0,"arthritis_risk":5,"migraine_risk":7,"frizz_risk":1,"updated_at":"2026-03-03T02:11:13.711459+05:30"},{"city":"Gurgaon","state":"Haryana","latitude":28.4595,"longitude":77.0266,"temp":15.2,"humidity":80,"rain":0.0,"pressure":984.7,"uv_index":5.95,"wind_gusts":33.8,"aqi":919,"pm10":951.8,"pm2_5":139.2,"mosquito_risk":3,"arthritis_risk":5,"migraine_risk":3,"frizz_risk":0,"updated_at":"2026-03-03T02:11:13.711465+05:30"},{"city":"Noida","state":"Uttar Pradesh","latitude":28.5355,"longitude":77.391,"temp":17.9,"humidity":70,"rain":0.0,"pressure":987.9,"uv_index":5.85,"wind_gusts":35.6,"aqi":919,"pm10":951.8,"pm2_5":139.2,"mosquito_risk":3,"arthritis_risk":5,"migraine_risk":3,"frizz_risk":0,"updated_at":"2026-03-03T02:11:13.711472+05:30"},{"city":"Ghaziabad","state":"Uttar Pradesh","latitude":28.6692,"longitude":77.4538,"temp":17.6,"humidity":71,"rain":0.0,"pressure":985.9,"uv_index":5.8,"wind_gusts":34.9,"aqi":184,"pm10":266.4,"pm2_5":72.9,"mosquito_risk":3,"arthritis_risk":5,"migraine_risk":3,"frizz_risk":0,"updated_at":"2026-03-03T02:11:13.711479+05:30"},{"city":"Faridabad","state":"Haryana","latitude":28.4089,"longitude":77.3178,"temp":17.6,"humidity":66,"rain":0.0,"pressure":987.2,"uv_index":5.85,"wind_gusts":32.4,"aqi":919,"pm10":951.8,"pm2_5":139.2,"mosquito_risk":3,"arthritis_risk":5,"migraine_risk":3,"frizz_risk":0,"updated_at":"2026-03-03T02:11:13.711487+05:30"},{"city":"Meerut","state":"Uttar Pradesh","latitude":28.9845,"longitude":77.7064,"temp":15.8,"humidity":75,"rain":0.0,"pressure":984.3,"uv_index":5.7,"wind_gusts":40.7,"aqi":184,"pm10":266.4,"pm2_5":72.9,"mosquito_risk":3,"arthritis_risk":5,"migraine_risk":3,"frizz_risk":0,"updated_at":"2026-03-03T02:11:13.711496+05:30"},{"city":"Agra","state":"Uttar Pradesh","latitude":27.1767,"longitude":78.0081,"temp":18.0,"humidity":73,"rain":0.0,"pressure":991.3,"uv_index":6.15,"wind_gusts":31.7,"aqi":378,"pm10":599.8,"pm2_5":105.5,"mosquito_risk":3,"arthritis_risk":5,"migraine_risk":7,"frizz_risk":0,"updated_at":"2026-03-03T02:11:13.711502+05:30"},{"city":"Varanasi","state":"Uttar Pradesh","latitude":25.3176,"longitude":82.9739,"temp":17.5,"humidity":74,"rain":0.0,"pressure":1000.8,"uv_index":6.95,"wind_gusts":24.8,"aqi":92,"pm10":45.8,"pm2_5":30.5,"mosquito_risk":3,"arthritis_risk":5,"migraine_risk":4,"frizz_risk":0,"updated_at":"2026-03-03T02:11:13.711511+05:30"},{"city":"Prayagraj","state":"Uttar Pradesh","latitude":25.4358,"longitude":81.8463,"temp":19.0,"humidity":65,"rain":0.0,"pressure":999.1,"uv_index":6.8,"wind_gusts":24.1,"aqi":101,"pm10":81.5,"pm2_5":38.5,"mosquito_risk":3,"arthritis_risk":5,"migraine_risk":7,"frizz_risk":0,"updated_at":"2026-03-03T02:11:13.711518+05:30"},{"city":"Gorakhpur","state":"Uttar Pradesh","latitude":26.7606,"longitude":83.3732,"temp":16.1,"humidity":66,"rain":0.0,"pressure":999.4,"uv_index":6.7,"wind_gusts":21.6,"aqi":127,"pm10":101.7,"pm2_5":52.4,"mosquito_risk":3,"arthritis_risk":5,"migraine_risk":7,"frizz_risk":0,"updated_at":"2026-03-03T02:11:13.711540+05:30"},{"city":"Bareilly","state":"Uttar Pradesh","latitude":28.367,"longitude":79.4304,"temp":16.0,"humidity":73,"rain":0.0,"pressure":989.3,"uv_index":6.0,"wind_gusts":30.6,"aqi":136,"pm10":173.2,"pm2_5":61.5,"mosquito_risk":3,"arthritis_risk":5,"migraine_risk":3,"frizz_risk":0,"updated_at":"2026-03-03T02:11:13.711548+05:30"},{"city":"Aligarh","state":"Uttar Pradesh","latitude":27.8974,"longitude":78.088,"temp":16.5,"humidity":75,"rain":0.0,"pressure":988.8,"uv_index":5.9,"wind_gusts":35.6,"aqi":552,"pm10":596.0,"pm2_5":112.9,"mosquito_risk":3,"arthritis_risk":5,"migraine_risk":3,"frizz_risk":0,"updated_at":"2026-03-03T02:11:13.711555+05:30"},{"city":"Moradabad","state":"Uttar Pradesh","latitude":28.8386,"longitude":78.7733,"temp":15.8,"humidity":72,"rain":0.0,"pressure":986.1,"uv_index":5.85,"wind_gusts":30.2,"aqi":142,"pm10":162.5,"pm2_5":65.9,"mosquito_risk":3,"arthritis_risk":5,"migraine_risk":3,"frizz_risk":0,"updated_at":"2026-03-03T02:11:13.711561+05:30"},{"city":"Saharanpur","state":"Uttar Pradesh","latitude":29.9637,"longitude":77.546,"temp":15.8,"humidity":73,"rain":0.0,"pressure":977.9,"uv_index":5.45,"wind_gusts":45.7,"aqi":111,"pm10":72.4,"pm2_5":48.4,"mosquito_risk":3,"arthritis_risk":5,"migraine_risk":3,"frizz_risk":0,"updated_at":"2026-03-03T02:11:13.711567+05:30"},{"city":"Jhansi","state":"Uttar Pradesh","latitude":25.4484,"longitude":78.5685,"temp":18.1,"humidity":70,"rain":0.0,"pressure":981.4,"uv_index":6.75,"wind_gusts":26.6,"aqi":75,"pm10":34.7,"pm2_5":26.0,"mosquito_risk":3,"arthritis_risk":5,"migraine_risk":7,"frizz_risk":0,"updated_at":"2026-03-03T02:11:16.923600+05:30"},{"city":"Surat","state":"Gujarat","latitude":21.1702,"longitude":72.8311,"temp":23.7,"humidity":77,"rain":0.0,"pressure":1009.6,"uv_index":7.05,"wind_gusts":23.4,"aqi":154,"pm10":78.5,"pm2_5":71.9,"mosquito_risk":3,"arthritis_risk":0,"migraine_risk":4,"frizz_risk":1,"updated_at":"2026-03-03T02:11:16.923635+05:30"},{"city":"Vadodara","state":"Gujarat","latitude":22.3072,"longitude":73.1812,"temp":23.1,"humidity":55,"rain":0.0,"pressure":1007.4,"uv_index":7.15,"wind_gusts":13.7,"aqi":151,"pm10":97.6,"pm2_5":89.6,"mosquito_risk":0,"arthritis_risk":5,"migraine_risk":4,"frizz_risk":0,"updated_at":"2026-03-03T02:11:16.923649+05:30"},{"city":"Rajkot","state":"Gujarat","latitude":22.3039,"longitude":70.8022,"temp":22.1,"humidity":77,"rain":0.0,"pressure":998.0,"uv_index":7.0,"wind_gusts":19.8,"aqi":67,"pm10":36.9,"pm2_5":24.6,"mosquito_risk":3,"arthritis_risk":5,"migraine_risk":7,"frizz_risk":1,"updated_at":"2026-03-03T02:11:16.923658+05:30"},{"city":"Thane","state":"Maharashtra","latitude":19.2183,"longitude":72.9781,"temp":24.2,"humidity":88,"rain":0.0,"pressure":1010.1,"uv_index":7.35,"wind_gusts":37.4,"aqi":89,"pm10":40.3,"pm2_5":33.6,"mosquito_risk":3,"arthritis_risk":0,"migraine_risk":4,"frizz_risk":1,"updated_at":"2026-03-03T02:11:16.923667+05:30"},{"city":"Nagpur","state":"Maharashtra","latitude":21.1458,"longitude":79.0882,"temp":22.5,"humidity":64,"rain":0.0,"pressure":975.3,"uv_index":7.75,"wind_gusts":19.8,"aqi":71,"pm10":25.0,"pm2_5":21.4,"mosquito_risk":3,"arthritis_risk":5,"migraine_risk":7,"frizz_risk":0,"updated_at":"2026-03-03T02:11:16.923675+05:30"},{"city":"Nashik","state":"Maharashtra","latitude":19.9975,"longitude":73.7898,"temp":23.2,"humidity":61,"rain":0.0,"pressure":947.7,"uv_index":7.55,"wind_gusts":29.5,"aqi":90,"pm10":43.0,"pm2_5":39.0,"mosquito_risk":3,"arthritis_risk":5,"migraine_risk":7,"frizz_risk":0,"updated_at":"2026-03-03T02:11:16.923684+05:30"},{"city":"Aurangabad","state":"Maharashtra","latitude":19.8762,"longitude":75.3433,"temp":23.8,"humidity":56,"rain":0.0,"pressure":945.8,"uv_index":8.05,"wind_gusts":25.2,"aqi":79,"pm10":39.8,"pm2_5":38.5,"mosquito_risk":0,"arthritis_risk":5,"migraine_risk":7,"frizz_risk":0,"updated_at":"2026-03-03T02:11:16.923692+05:30"},{"city":"Solapur","state":"Maharashtra","latitude":17.6599,"longitude":75.9064,"temp":24.7,"humidity":69,"rain":0.0,"pressure":957.8,"uv_index":8.3,"wind_gusts":20.9,"aqi":126,"pm10":33.5,"pm2_5":33.2,"mosquito_risk":3,"arthritis_risk":5,"migraine_risk":7,"frizz_risk":1,"updated_at":"2026-03-03T02:11:16.923701+05:30"},{"city":"Kolhapur","state":"Maharashtra","latitude":16.705,"longitude":74.2433,"temp":19.4,"humidity":94,"rain":0.0,"pressure":948.5,"uv_index":8.4,"wind_gusts":35.6,"aqi":111,"pm10":38.5,"pm2_5":36.3,"mosquito_risk":3,"arthritis_risk":10,"migraine_risk":7,"frizz_risk":1,"updated_at":"2026-03-03T02:11:16.923709+05:30"},{"city":"Goa","state":"Goa","latitude":15.2993,"longitude":74.124,"temp":26.1,"humidity":80,"rain":0.0,"pressure":999.1,"uv_index":8.45,"wind_gusts":34.2,"aqi":74,"pm10":37.4,"pm2_5":27.8,"mosquito_risk":7,"arthritis_risk":5,"migraine_risk":7,"frizz_risk":1,"updated_at":"2026-03-03T02:11:16.923718+05:30"},{"city":"Jodhpur","state":"Rajasthan","latitude":26.2389,"longitude":73.0243,"temp":21.3,"humidity":53,"rain":0.0,"pressure":986.8,"uv_index":6.85,"wind_gusts":15.8,"aqi":88,"pm10":68.5,"pm2_5":33.2,"mosquito_risk":0,"arthritis_risk":5,"migraine_risk":7,"frizz_risk":0,"updated_at":"2026-03-03T02:11:16.923726+05:30"},{"city":"Udaipur","state":"Rajasthan","latitude":24.5854,"longitude":73.7125,"temp":19.8,"humidity":57,"rain":0.0,"pressure":950.0,"uv_index":7.45,"wind_gusts":12.6,"aqi":73,"pm10":35.7,"pm2_5":26.4,"mosquito_risk":0,"arthritis_risk":5,"migraine_risk":7,"frizz_risk":0,"updated_at":"2026-03-03T02:11:16.923734+05:30"},{"city":"Kota","state":"Rajasthan","latitude":25.2138,"longitude":75.8648,"temp":19.4,"humidity":72,"rain":0.0,"pressure":982.1,"uv_index":6.85,"wind_gusts":19.1,"aqi":91,"pm10":47.5,"pm2_5":34.2,"mosquito_risk":3,"arthritis_risk":5,"migraine_risk":7,"frizz_risk":0,"updated_at":"2026-03-03T02:11:16.923742+05:30"},{"city":"Bikaner","state":"Rajasthan","latitude":28.0229,"longitude":73.3119,"temp":23.0,"humidity":54,"rain":0.0,"pressure":986.0,"uv_index":6.55,"wind_gusts":20.5,"aqi":72,"pm10":40.0,"pm2_5":23.3,"mosquito_risk":0,"arthritis_risk":5,"migraine_risk":7,"frizz_risk":0,"updated_at":"2026-03-03T02:11:16.923750+05:30"},{"city":"Ajmer","state":"Rajasthan","latitude":26.4499,"longitude":74.6399,"temp":21.6,"humidity":45,"rain":0.0,"pressure":957.9,"uv_index":6.8,"wind_gusts":27.0,"aqi":80,"pm10":68.2,"pm2_5":26.7,"mosquito_risk":0,"arthritis_risk":5,"migraine_risk":7,"frizz_risk":0,"updated_at":"2026-03-03T02:11:16.923758+05:30"},{"city":"Gwalior","state":"Madhya Pradesh","latitude":26.2183,"longitude":78.1828,"temp":20.8,"humidity":63,"rain":0.0,"pressure":986.9,"uv_index":6.45,"wind_gusts":28.4,"aqi":97,"pm10":217.0,"pm2_5":56.2,"mosquito_risk":3,"arthritis_risk":5,"migraine_risk":7,"frizz_risk":0,"updated_at":"2026-03-03T02:11:16.923766+05:30"},{"city":"Indore","state":"Madhya Pradesh","latitude":22.7196,"longitude":75.8577,"temp":19.2,"humidity":67,"rain":0.0,"pressure":950.6,"uv_index":7.45,"wind_gusts":14.8,"aqi":90,"pm10":43.5,"pm2_5":33.6,"mosquito_risk":3,"arthritis_risk":5,"migraine_risk":7,"frizz_risk":0,"updated_at":"2026-03-03T02:11:16.923773+05:30"},{"city":"Bhopal","state":"Madhya Pradesh","latitude":23.2599,"longitude":77.4126,"temp":22.2,"humidity":51,"rain":0.0,"pressure":956.6,"uv_index":7.3,"wind_gusts":23.0,"aqi":79,"pm10":43.9,"pm2_5":34.3,"mosquito_risk":0,"arthritis_risk":5,"migraine_risk":7,"frizz_risk":0,"updated_at":"2026-03-03T02:11:16.923781+05:30"},{"city":"Jabalpur","state":"Madhya Pradesh","latitude":23.1815,"longitude":79.9864,"temp":20.9,"humidity":46,"rain":0.0,"pressure":964.2,"uv_index":7.4,"wind_gusts":20.5,"aqi":73,"pm10":37.1,"pm2_5":25.4,"mosquito_risk":0,"arthritis_risk":5,"migraine_risk":7,"frizz_risk":0,"updated_at":"2026-03-03T02:11:16.923789+05:30"},{"city":"Ujjain","state":"Madhya Pradesh","latitude":23.1765,"longitude":75.7885,"temp":21.8,"humidity":56,"rain":0.0,"pressure":956.7,"uv_index":7.3,"wind_gusts":13.7,"aqi":110,"pm10":52.6,"pm2_5":44.0,"mosquito_risk":0,"arthritis_risk":5,"migraine_risk":7,"frizz_risk":0,"updated_at":"2026-03-03T02:11:16.923797+05:30"},{"city":"Visakhapatnam","state":"Andhra Pradesh","latitude":17.6868,"longitude":83.2185,"temp":24.7,"humidity":79,"rain":0.0,"pressure":1004.8,"uv_index":8.35,"wind_gusts":33.8,"aqi":137,"pm10":43.8,"pm2_5":41.6,"mosquito_risk":3,"arthritis_risk":5,"migraine_risk":4,"frizz_risk":1,"updated_at":"2026-03-03T02:11:16.923805+05:30"},{"city":"Vijayawada","state":"Andhra Pradesh","latitude":16.5062,"longitude":80.648,"temp":23.9,"humidity":84,"rain":0.0,"pressure":1004.0,"uv_index":8.4,"wind_gusts":26.3,"aqi":140,"pm10":44.7,"pm2_5":42.7,"mosquito_risk":3,"arthritis_risk":5,"migraine_risk":4,"frizz_risk":1,"updated_at":"2026-03-03T02:11:16.923813+05:30"},{"city":"Guntur","state":"Andhra Pradesh","latitude":16.3067,"longitude":80.4365,"temp":23.2,"humidity":86,"rain":0.0,"pressure":1005.3,"uv_index":8.45,"wind_gusts":28.8,"aqi":134,"pm10":41.4,"pm2_5":39.8,"mosquito_risk":3,"arthritis_risk":5,"migraine_risk":4,"frizz_risk":1,"updated_at":"2026-03-03T02:11:16.923821+05:30"},{"city":"Nellore","state":"Andhra Pradesh","latitude":14.4426,"longitude":79.9865,"temp":23.2,"humidity":84,"rain":0.0,"pressure":1006.8,"uv_index":8.65,"wind_gusts":29.2,"aqi":120,"pm10":39.9,"pm2_5":38.0,"mosquito_risk":3,"arthritis_risk":5,"migraine_risk":4,"frizz_risk":1,"updated_at":"2026-03-03T02:11:16.923829+05:30"},{"city":"Kurnool","state":"Andhra Pradesh","latitude":15.8281,"longitude":78.0373,"temp":26.5,"humidity":51,"rain":0.0,"pressure":977.6,"uv_index":8.45,"wind_gusts":29.5,"aqi":125,"pm10":42.5,"pm2_5":41.9,"mosquito_risk":4,"arthritis_risk":5,"migraine_risk":7,"frizz_risk":0,"updated_at":"2026-03-03T02:11:16.923838+05:30"},{"city":"Kakinada","state":"Andhra Pradesh","latitude":16.9891,"longitude":82.2475,"temp":22.2,"humidity":91,"rain":0.0,"pressure":1008.8,"uv_index":8.4,"wind_gusts":36.7,"aqi":128,"pm10":44.9,"pm2_5":41.1,"mosquito_risk":3,"arthritis_risk":0,"migraine_risk":4,"frizz_risk":1,"updated_at":"2026-03-03T02:11:16.923846+05:30"},{"city":"Tirupati","state":"Andhra Pradesh","latitude":13.6288,"longitude":79.4192,"temp":22.5,"humidity":66,"rain":0.0,"pressure":993.1,"uv_index":8.8,"wind_gusts":37.8,"aqi":144,"pm10":73.3,"pm2_5":71.5,"mosquito_risk":3,"arthritis_risk":5,"migraine_risk":7,"frizz_risk":0,"updated_at":"2026-03-03T02:11:16.923853+05:30"},{"city":"Warangal","state":"Telangana","latitude":17.9689,"longitude":79.5941,"temp":25.6,"humidity":60,"rain":0.0,"pressure":979.7,"uv_index":8.2,"wind_gusts":19.1,"aqi":128,"pm10":39.9,"pm2_5":39.3,"mosquito_risk":4,"arthritis_risk":5,"migraine_risk":7,"frizz_risk":1,"updated_at":"2026-03-03T02:11:16.923859+05:30"},{"city":"Nizamabad","state":"Telangana","latitude":18.6725,"longitude":78.0941,"temp":21.7,"humidity":70,"rain":0.0,"pressure":965.8,"uv_index":8.1,"wind_gusts":28.1,"aqi":102,"pm10":43.1,"pm2_5":41.8,"mosquito_risk":3,"arthritis_risk":5,"migraine_risk":7,"frizz_risk":0,"updated_at":"2026-03-03T02:11:16.923865+05:30"},{"city":"Mysore","state":"Karnataka","latitude":12.2958,"longitude":76.6396,"temp":21.7,"humidity":89,"rain":0.0,"pressure":928.5,"uv_index":9.15,"wind_gusts":34.2,"aqi":143,"pm10":54.1,"pm2_5":53.4,"mosquito_risk":3,"arthritis_risk":5,"migraine_risk":7,"frizz_risk":1,"updated_at":"2026-03-03T02:11:16.923871+05:30"},{"city":"Mangalore","state":"Karnataka","latitude":12.9141,"longitude":74.856,"temp":28.1,"humidity":79,"rain":0.0,"pressure":1007.4,"uv_index":8.75,"wind_gusts":28.1,"aqi":58,"pm10":24.4,"pm2_5":17.1,"mosquito_risk":7,"arthritis_risk":5,"migraine_risk":4,"frizz_risk":1,"updated_at":"2026-03-03T02:11:16.923878+05:30"},{"city":"Hubli-Dharwad","state":"Karnataka","latitude":15.3647,"longitude":75.124,"temp":21.6,"humidity":86,"rain":0.0,"pressure":941.1,"uv_index":8.6,"wind_gusts":25.6,"aqi":83,"pm10":21.9,"pm2_5":19.4,"mosquito_risk":3,"arthritis_risk":5,"migraine_risk":7,"frizz_risk":1,"updated_at":"2026-03-03T02:11:16.923884+05:30"},{"city":"Belgaum","state":"Karnataka","latitude":15.8497,"longitude":74.4977,"temp":20.8,"humidity":87,"rain":0.0,"pressure":925.9,"uv_index":8.65,"wind_gusts":33.8,"aqi":82,"pm10":26.7,"pm2_5":22.4,"mosquito_risk":3,"arthritis_risk":5,"migraine_risk":7,"frizz_risk":1,"updated_at":"2026-03-03T02:11:20.136700+05:30"},{"city":"Coimbatore","state":"Tamil Nadu","latitude":11.0168,"longitude":76.9558,"temp":23.0,"humidity":86,"rain":0.0,"pressure":962.5,"uv_index":9.15,"wind_gusts":45.4,"aqi":142,"pm10":56.5,"pm2_5":55.3,"mosquito_risk":3,"arthritis_risk":5,"migraine_risk":7,"frizz_risk":1,"updated_at":"2026-03-03T02:11:20.136733+05:30"},{"city":"Madurai","state":"Tamil Nadu","latitude":9.9252,"longitude":78.1198,"temp":23.9,"humidity":82,"rain":0.0,"pressure":994.3,"uv_index":9.1,"wind_gusts":32.4,"aqi":121,"pm10":56.0,"pm2_5":54.8,"mosquito_risk":3,"arthritis_risk":5,"migraine_risk":7,"frizz_risk":1,"updated_at":"2026-03-03T02:11:20.136745+05:30"},{"city":"Trichy","state":"Tamil Nadu","latitude":10.7905,"longitude":78.7047,"temp":21.9,"humidity":90,"rain":0.0,"pressure":1001.2,"uv_index":9.0,"wind_gusts":31.0,"aqi":138,"pm10":45.4,"pm2_5":43.2,"mosquito_risk":3,"arthritis_risk":5,"migraine_risk":4,"frizz_risk":1,"updated_at":"2026-03-03T02:11:20.136755+05:30"},{"city":"Salem","state":"Tamil Nadu","latitude":11.6643,"longitude":78.146,"temp":23.4,"humidity":72,"rain":0.0,"pressure":978.3,"uv_index":9.0,"wind_gusts":40.3,"aqi":141,"pm10":62.6,"pm2_5":61.5,"mosquito_risk":3,"arthritis_risk":5,"migraine_risk":7,"frizz_risk":1,"updated_at":"2026-03-03T02:11:20.136764+05:30"},{"city":"Tirunelveli","state":"Tamil Nadu","latitude":8.7139,"longitude":77.7567,"temp":23.3,"humidity":90,"rain":0.0,"pressure":1004.3,"uv_index":9.1,"wind_gusts":41.0,"aqi":130,"pm10":57.7,"pm2_5":56.1,"mosquito_risk":3,"arthritis_risk":5,"migraine_risk":4,"frizz_risk":1,"updated_at":"2026-03-03T02:11:20.136772+05:30"},{"city":"Vellore","state":"Tamil Nadu","latitude":12.9165,"longitude":79.1325,"temp":21.4,"humidity":81,"rain":0.0,"pressure":986.1,"uv_index":8.9,"wind_gusts":38.2,"aqi":150,"pm10":75.9,"pm2_5":74.0,"mosquito_risk":3,"arthritis_risk":5,"migraine_risk":7,"frizz_risk":1,"updated_at":"2026-03-03T02:11:20.136780+05:30"},{"city":"Erode","state":"Tamil Nadu","latitude":11.341,"longitude":77.7172,"temp":25.0,"humidity":74,"rain":0.0,"pressure":990.3,"uv_index":9.05,"wind_gusts":24.8,"aqi":124,"pm10":45.9,"pm2_5":44.7,"mosquito_risk":7,"arthritis_risk":5,"migraine_risk":7,"frizz_risk":1,"updated_at":"2026-03-03T02:11:20.136789+05:30"},{"city":"Kochi","state":"Kerala","latitude":9.9312,"longitude":76.2673,"temp":27.4,"humidity":81,"rain":0.0,"pressure":1009.2,"uv_index":9.0,"wind_gusts":32.8,"aqi":100,"pm10":48.3,"pm2_5":47.7,"mosquito_risk":7,"arthritis_risk":0,"migraine_risk":4,"frizz_risk":1,"updated_at":"2026-03-03T02:11:20.136797+05:30"},{"city":"Thiruvananthapuram","state":"Kerala","latitude":8.5241,"longitude":76.9366,"temp":27.5,"humidity":81,"rain":0.0,"pressure":1008.2,"uv_index":8.95,"wind_gusts":28.1,"aqi":95,"pm10":29.7,"pm2_5":27.6,"mosquito_risk":7,"arthritis_risk":0,"migraine_risk":4,"frizz_risk":1,"updated_at":"2026-03-03T02:11:20.136805+05:30"},{"city":"Kozhikode","state":"Kerala","latitude":11.2588,"longitude":75.7804,"temp":28.1,"humidity":78,"rain":0.0,"pressure":1008.4,"uv_index":8.8,"wind_gusts":34.6,"aqi":59,"pm10":23.2,"pm2_5":18.6,"mosquito_risk":7,"arthritis_risk":0,"migraine_risk":4,"frizz_risk":1,"updated_at":"2026-03-03T02:11:20.136813+05:30"},{"city":"Thrissur","state":"Kerala","latitude":10.5276,"longitude":76.2144,"temp":25.7,"humidity":91,"rain":0.0,"pressure":1007.5,"uv_index":8.95,"wind_gusts":37.1,"aqi":95,"pm10":49.5,"pm2_5":48.3,"mosquito_risk":7,"arthritis_risk":5,"migraine_risk":4,"frizz_risk":1,"updated_at":"2026-03-03T02:11:20.136822+05:30"},{"city":"Kannur","state":"Kerala","latitude":11.8745,"longitude":75.3704,"temp":26.9,"humidity":81,"rain":0.0,"pressure":1007.6,"uv_index":8.85,"wind_gusts":38.9,"aqi":59,"pm10":18.5,"pm2_5":15.0,"mosquito_risk":7,"arthritis_risk":5,"migraine_risk":4,"frizz_risk":1,"updated_at":"2026-03-03T02:11:20.136831+05:30"},{"city":"Patna","state":"Bihar","latitude":25.5941,"longitude":85.1376,"temp":18.3,"humidity":62,"rain":0.0,"pressure":1003.2,"uv_index":7.15,"wind_gusts":18.0,"aqi":119,"pm10":66.1,"pm2_5":52.7,"mosquito_risk":3,"arthritis_risk":5,"migraine_risk":4,"frizz_risk":0,"updated_at":"2026-03-03T02:11:20.136839+05:30"},{"city":"Gaya","state":"Bihar","latitude":24.7914,"longitude":85.0002,"temp":18.5,"humidity":50,"rain":0.0,"pressure":996.7,"uv_index":7.25,"wind_gusts":21.2,"aqi":104,"pm10":50.6,"pm2_5":34.1,"mosquito_risk":0,"arthritis_risk":5,"migraine_risk":7,"frizz_risk":0,"updated_at":"2026-03-03T02:11:20.136847+05:30"},{"city":"Muzaffarpur","state":"Bihar","latitude":26.1209,"longitude":85.3647,"temp":17.0,"humidity":65,"rain":0.0,"pressure":1002.9,"uv_index":7.1,"wind_gusts":14.8,"aqi":122,"pm10":79.4,"pm2_5":65.4,"mosquito_risk":3,"arthritis_risk":5,"migraine_risk":4,"frizz_risk":0,"updated_at":"2026-03-03T02:11:20.136855+05:30"},{"city":"Bhagalpur","state":"Bihar","latitude":25.2425,"longitude":87.0117,"temp":18.0,"humidity":64,"rain":0.0,"pressure":1003.6,"uv_index":7.15,"wind_gusts":11.5,"aqi":131,"pm10":68.9,"pm2_5":39.8,"mosquito_risk":3,"arthritis_risk":5,"migraine_risk":4,"frizz_risk":0,"updated_at":"2026-03-03T02:11:20.136862+05:30"},{"city":"Ranchi","state":"Jharkhand","latitude":23.3441,"longitude":85.3096,"temp":17.7,"humidity":37,"rain":0.0,"pressure":939.6,"uv_index":7.9,"wind_gusts":43.6,"aqi":77,"pm10":44.4,"pm2_5":22.9,"mosquito_risk":0,"arthritis_risk":5,"migraine_risk":7,"frizz_risk":0,"updated_at":"2026-03-03T02:11:20.136870+05:30"},{"city":"Jamshedpur","state":"Jharkhand","latitude":22.8046,"longitude":86.2029,"temp":19.6,"humidity":59,"rain":0.0,"pressure":993.4,"uv_index":7.75,"wind_gusts":16.2,"aqi":111,"pm10":72.4,"pm2_5":45.4,"mosquito_risk":0,"arthritis_risk":5,"migraine_risk":7,"frizz_risk":0,"updated_at":"2026-03-03T02:11:20.136879+05:30"},{"city":"Dhanbad","state":"Jharkhand","latitude":23.7957,"longitude":86.4304,"temp":19.9,"humidity":43,"rain":0.0,"pressure":982.4,"uv_index":7.65,"wind_gusts":27.7,"aqi":116,"pm10":63.6,"pm2_5":43.0,"mosquito_risk":0,"arthritis_risk":5,"migraine_risk":7,"frizz_risk":0,"updated_at":"2026-03-03T02:11:20.136886+05:30"},{"city":"Bokaro","state":"Jharkhand","latitude":23.6693,"longitude":86.1511,"temp":17.5,"humidity":55,"rain":0.0,"pressure":986.7,"uv_index":7.65,"wind_gusts":32.8,"aqi":118,"pm10":65.0,"pm2_5":46.8,"mosquito_risk":0,"arthritis_risk":5,"migraine_risk":7,"frizz_risk":0,"updated_at":"2026-03-03T02:11:20.136893+05:30"},{"city":"Bhubaneswar","state":"Odisha","latitude":20.2961,"longitude":85.8245,"temp":23.7,"humidity":92,"rain":0.0,"pressure":1003.6,"uv_index":8.1,"wind_gusts":26.6,"aqi":151,"pm10":77.1,"pm2_5":73.3,"mosquito_risk":3,"arthritis_risk":5,"migraine_risk":4,"frizz_risk":1,"updated_at":"2026-03-03T02:11:20.136900+05:30"},{"city":"Cuttack","state":"Odisha","latitude":20.4625,"longitude":85.8828,"temp":23.5,"humidity":91,"rain":0.0,"pressure":1005.7,"uv_index":8.1,"wind_gusts":23.0,"aqi":151,"pm10":77.1,"pm2_5":73.3,"mosquito_risk":3,"arthritis_risk":5,"migraine_risk":4,"frizz_risk":1,"updated_at":"2026-03-03T02:11:20.136906+05:30"},{"city":"Rourkela","state":"Odisha","latitude":22.2604,"longitude":84.8536,"temp":20.5,"humidity":53,"rain":0.0,"pressure":987.4,"uv_index":7.7,"wind_gusts":23.4,"aqi":89,"pm10":48.3,"pm2_5":32.8,"mosquito_risk":0,"arthritis_risk":5,"migraine_risk":7,"frizz_risk":0,"updated_at":"2026-03-03T02:11:20.136912+05:30"},{"city":"Raipur","state":"Chhattisgarh","latitude":21.2514,"longitude":81.6296,"temp":22.5,"humidity":54,"rain":0.0,"pressure":976.5,"uv_index":7.8,"wind_gusts":16.6,"aqi":102,"pm10":85.2,"pm2_5":75.7,"mosquito_risk":0,"arthritis_risk":5,"migraine_risk":7,"frizz_risk":0,"updated_at":"2026-03-03T02:11:20.136917+05:30"},{"city":"Bhilai","state":"Chhattisgarh","latitude":21.1938,"longitude":81.3509,"temp":21.4,"humidity":58,"rain":0.0,"pressure":976.8,"uv_index":7.8,"wind_gusts":14.4,"aqi":101,"pm10":77.1,"pm2_5":68.9,"mosquito_risk":0,"arthritis_risk":5,"migraine_risk":7,"frizz_risk":0,"updated_at":"2026-03-03T02:11:20.136924+05:30"},{"city":"Guwahati","state":"Assam","latitude":26.1158,"longitude":91.7086,"temp":20.5,"humidity":87,"rain":0.0,"pressure":1004.3,"uv_index":7.1,"wind_gusts":21.6,"aqi":151,"pm10":71.2,"pm2_5":60.1,"mosquito_risk":3,"arthritis_risk":5,"migraine_risk":4,"frizz_risk":1,"updated_at":"2026-03-03T02:11:20.136930+05:30"},{"city":"Agartala","state":"Tripura","latitude":23.8315,"longitude":91.2868,"temp":20.6,"humidity":93,"rain":0.0,"pressure":1007.9,"uv_index":7.45,"wind_gusts":19.4,"aqi":156,"pm10":101.5,"pm2_5":95.9,"mosquito_risk":3,"arthritis_risk":5,"migraine_risk":4,"frizz_risk":1,"updated_at":"2026-03-03T02:11:20.136936+05:30"},{"city":"Shillong","state":"Meghalaya","latitude":25.5788,"longitude":91.8933,"temp":7.7,"humidity":84,"rain":0.0,"pressure":853.6,"uv_index":7.45,"wind_gusts":24.1,"aqi":112,"pm10":55.5,"pm2_5":45.3,"mosquito_risk":3,"arthritis_risk":10,"migraine_risk":7,"frizz_risk":0,"updated_at":"2026-03-03T02:11:20.136942+05:30"},{"city":"Imphal","state":"Manipur","latitude":24.817,"longitude":93.9368,"temp":14.1,"humidity":74,"rain":0.0,"pressure":923.2,"uv_index":7.5,"wind_gusts":29.5,"aqi":154,"pm10":116.2,"pm2_5":99.0,"mosquito_risk":3,"arthritis_risk":5,"migraine_risk":7,"frizz_risk":0,"updated_at":"2026-03-03T02:11:20.136949+05:30"},{"city":"Aizawl","state":"Mizoram","latitude":23.7271,"longitude":92.7176,"temp":14.7,"humidity":90,"rain":0.0,"pressure":892.5,"uv_index":7.65,"wind_gusts":33.5,"aqi":153,"pm10":94.3,"pm2_5":88.5,"mosquito_risk":3,"arthritis_risk":10,"migraine_risk":7,"frizz_risk":0,"updated_at":"2026-03-03T02:11:20.136956+05:30"},{"city":"Kohima","state":"Nagaland","latitude":25.6701,"longitude":94.1077,"temp":11.2,"humidity":81,"rain":0.0,"pressure":853.8,"uv_index":7.15,"wind_gusts":45.4,"aqi":146,"pm10":79.4,"pm2_5":71.0,"mosquito_risk":3,"arthritis_risk":10,"migraine_risk":7,"frizz_risk":0,"updated_at":"2026-03-03T02:11:20.136962+05:30"},{"city":"Gangtok","state":"Sikkim","latitude":27.3314,"longitude":88.6138,"temp":10.6,"humidity":82,"rain":0.0,"pressure":835.6,"uv_index":7.4,"wind_gusts":19.8,"aqi":126,"pm10":78.7,"pm2_5":60.1,"mosquito_risk":3,"arthritis_risk":10,"migraine_risk":7,"frizz_risk":0,"updated_at":"2026-03-03T02:11:20.136968+05:30"},{"city":"Siliguri","state":"West Bengal","latitude":26.7271,"longitude":88.3953,"temp":18.0,"humidity":69,"rain":0.0,"pressure":996.1,"uv_index":7.1,"wind_gusts":19.8,"aqi":167,"pm10":130.4,"pm2_5":102.7,"mosquito_risk":3,"arthritis_risk":5,"migraine_risk":7,"frizz_risk":0,"updated_at":"2026-03-03T02:11:23.354007+05:30"},{"city":"Durgapur","state":"West Bengal","latitude":23.5204,"longitude":87.3119,"temp":21.2,"humidity":37,"rain":0.0,"pressure":997.6,"uv_index":7.65,"wind_gusts":29.9,"aqi":105,"pm10":49.9,"pm2_5":26.5,"mosquito_risk":0,"arthritis_risk":5,"migraine_risk":7,"frizz_risk":0,"updated_at":"2026-03-03T02:11:23.354036+05:30"},{"city":"Asansol","state":"West Bengal","latitude":23.6739,"longitude":86.9524,"temp":21.7,"humidity":38,"rain":0.0,"pressure":996.3,"uv_index":7.65,"wind_gusts":23.4,"aqi":94,"pm10":46.4,"pm2_5":26.9,"mosquito_risk":0,"arthritis_risk":5,"migraine_risk":7,"frizz_risk":0,"updated_at":"2026-03-03T02:11:23.354046+05:30"},{"city":"Pondicherry","state":"Puducherry","latitude":11.9139,"longitude":79.8145,"temp":20.6,"humidity":99,"rain":0.0,"pressure":1010.0,"uv_index":8.85,"wind_gusts":28.4,"aqi":116,"pm10":40.0,"pm2_5":36.0,"mosquito_risk":3,"arthritis_risk":0,"migraine_risk":4,"frizz_risk":1,"updated_at":"2026-03-03T02:11:23.354054+05:30"},{"city":"Port Blair","state":"Andaman and Nicobar Islands","latitude":11.6234,"longitude":92.7265,"temp":27.1,"humidity":75,"rain":0.0,"pressure":1007.3,"uv_index":8.8,"wind_gusts":16.2,"aqi":81,"pm10":32.8,"pm2_5":25.3,"mosquito_risk":7,"arthritis_risk":5,"migraine_risk":4,"frizz_risk":1,"updated_at":"2026-03-03T02:11:23.354062+05:30"},{"city":"Haridwar","state":"Uttarakhand","latitude":29.9457,"longitude":78.1642,"temp":14.7,"humidity":85,"rain":0.0,"pressure":976.2,"uv_index":5.55,"wind_gusts":24.8,"aqi":97,"pm10":54.7,"pm2_5":51.7,"mosquito_risk":3,"arthritis_risk":10,"migraine_risk":3,"frizz_risk":0,"updated_at":"2026-03-03T02:11:23.354070+05:30"},{"city":"Rishikesh","state":"Uttarakhand","latitude":30.0869,"longitude":78.2676,"temp":15.8,"humidity":72,"rain":0.0,"pressure":968.8,"uv_index":5.65,"wind_gusts":23.8,"aqi":77,"pm10":34.0,"pm2_5":32.5,"mosquito_risk":3,"arthritis_risk":5,"migraine_risk":3,"frizz_risk":0,"updated_at":"2026-03-03T02:11:23.354077+05:30"},{"city":"Nainital","state":"Uttarakhand","latitude":29.3919,"longitude":79.4542,"temp":14.4,"humidity":60,"rain":0.0,"pressure":804.9,"uv_index":6.45,"wind_gusts":56.9,"aqi":78,"pm10":36.8,"pm2_5":30.3,"mosquito_risk":0,"arthritis_risk":5,"migraine_risk":7,"frizz_risk":0,"updated_at":"2026-03-03T02:11:23.354085+05:30"},{"city":"Mussoorie","state":"Uttarakhand","latitude":30.4599,"longitude":78.0664,"temp":12.9,"humidity":65,"rain":0.0,"pressure":801.5,"uv_index":5.95,"wind_gusts":37.1,"aqi":81,"pm10":36.0,"pm2_5":34.8,"mosquito_risk":3,"arthritis_risk":5,"migraine_risk":3,"frizz_risk":0,"updated_at":"2026-03-03T02:11:23.354092+05:30"},{"city":"Dharamshala","state":"Himachal Pradesh","latitude":32.219,"longitude":76.3234,"temp":17.4,"humidity":36,"rain":0.0,"pressure":870.1,"uv_index":6.2,"wind_gusts":23.4,"aqi":66,"pm10":12.8,"pm2_5":9.6,"mosquito_risk":0,"arthritis_risk":5,"migraine_risk":7,"frizz_risk":0,"updated_at":"2026-03-03T02:11:23.354098+05:30"},{"city":"Dalhousie","state":"Himachal Pradesh","latitude":32.5387,"longitude":75.971,"temp":14.0,"humidity":31,"rain":0.0,"pressure":803.9,"uv_index":6.4,"wind_gusts":22.0,"aqi":96,"pm10":40.7,"pm2_5":37.7,"mosquito_risk":0,"arthritis_risk":5,"migraine_risk":7,"frizz_risk":1,"updated_at":"2026-03-03T02:11:23.354106+05:30"},{"city":"Patiala","state":"Punjab","latitude":30.3398,"longitude":76.3869,"temp":15.9,"humidity":74,"rain":0.0,"pressure":981.3,"uv_index":5.6,"wind_gusts":35.3,"aqi":157,"pm10":276.6,"pm2_5":67.3,"mosquito_risk":3,"arthritis_risk":5,"migraine_risk":3,"frizz_risk":0,"updated_at":"2026-03-03T02:11:23.354113+05:30"},{"city":"Bhatinda","state":"Punjab","latitude":30.211,"longitude":74.9455,"temp":16.9,"humidity":73,"rain":0.0,"pressure":987.4,"uv_index":6.3,"wind_gusts":27.4,"aqi":155,"pm10":76.8,"pm2_5":62.4,"mosquito_risk":3,"arthritis_risk":5,"migraine_risk":7,"frizz_risk":0,"updated_at":"2026-03-03T02:11:23.354120+05:30"},{"city":"Rohtak","state":"Haryana","latitude":28.8955,"longitude":76.6066,"temp":16.3,"humidity":74,"rain":0.0,"pressure":985.2,"uv_index":5.85,"wind_gusts":34.2,"aqi":288,"pm10":395.8,"pm2_5":81.7,"mosquito_risk":3,"arthritis_risk":5,"migraine_risk":3,"frizz_risk":0,"updated_at":"2026-03-03T02:11:23.354126+05:30"},{"city":"Panipat","state":"Haryana","latitude":29.3909,"longitude":76.9635,"temp":15.3,"humidity":76,"rain":0.0,"pressure":983.6,"uv_index":5.65,"wind_gusts":37.1,"aqi":754,"pm10":918.3,"pm2_5":133.2,"mosquito_risk":3,"arthritis_risk":5,"migraine_risk":3,"frizz_risk":0,"updated_at":"2026-03-03T02:11:23.354132+05:30"},{"city":"Mathura","state":"Uttar Pradesh","latitude":27.4924,"longitude":77.6737,"temp":19.1,"humidity":67,"rain":0.0,"pressure":990.4,"uv_index":6.1,"wind_gusts":29.9,"aqi":432,"pm10":566.2,"pm2_5":105.9,"mosquito_risk":3,"arthritis_risk":5,"migraine_risk":7,"frizz_risk":0,"updated_at":"2026-03-03T02:11:23.354139+05:30"},{"city":"Vrindavan","state":"Uttar Pradesh","latitude":27.5823,"longitude":77.7027,"temp":17.2,"humidity":75,"rain":0.0,"pressure":990.8,"uv_index":6.05,"wind_gusts":33.1,"aqi":432,"pm10":566.2,"pm2_5":105.9,"mosquito_risk":3,"arthritis_risk":5,"migraine_risk":7,"frizz_risk":0,"updated_at":"2026-03-03T02:11:23.354146+05:30"},{"city":"Ayodhya","state":"Uttar Pradesh","latitude":26.7922,"longitude":82.1998,"temp":17.0,"humidity":66,"rain":0.0,"pressure":997.8,"uv_index":6.45,"wind_gusts":27.4,"aqi":134,"pm10":210.5,"pm2_5":67.5,"mosquito_risk":3,"arthritis_risk":5,"migraine_risk":7,"frizz_risk":0,"updated_at":"2026-03-03T02:11:23.354151+05:30"},{"city":"Ratlam","state":"Madhya Pradesh","latitude":23.3315,"longitude":75.0367,"temp":19.2,"humidity":82,"rain":0.0,"pressure":957.1,"uv_index":7.3,"wind_gusts":11.2,"aqi":102,"pm10":56.6,"pm2_5":50.4,"mosquito_risk":3,"arthritis_risk":10,"migraine_risk":7,"frizz_risk":1,"updated_at":"2026-03-03T02:11:23.354158+05:30"},{"city":"Sagar","state":"Madhya Pradesh","latitude":23.8388,"longitude":78.7378,"temp":21.8,"humidity":48,"rain":0.0,"pressure":953.1,"uv_index":7.25,"wind_gusts":29.2,"aqi":67,"pm10":34.2,"pm2_5":23.6,"mosquito_risk":0,"arthritis_risk":5,"migraine_risk":7,"frizz_risk":0,"updated_at":"2026-03-03T02:11:23.354164+05:30"},{"city":"Satna","state":"Madhya Pradesh","latitude":24.6005,"longitude":80.8322,"temp":20.7,"humidity":42,"rain":0.0,"pressure":974.3,"uv_index":7.2,"wind_gusts":35.3,"aqi":64,"pm10":34.3,"pm2_5":20.6,"mosquito_risk":0,"arthritis_risk":5,"migraine_risk":7,"frizz_risk":0,"updated_at":"2026-03-03T02:11:23.354171+05:30"},{"city":"Akola","state":"Maharashtra","latitude":20.7002,"longitude":77.0082,"temp":23.7,"humidity":60,"rain":0.0,"pressure":977.2,"uv_index":7.8,"wind_gusts":22.0,"aqi":76,"pm10":33.6,"pm2_5":31.5,"mosquito_risk":0,"arthritis_risk":5,"migraine_risk":7,"frizz_risk":0,"updated_at":"2026-03-03T02:11:23.354178+05:30"},{"city":"Amravati","state":"Maharashtra","latitude":20.9374,"longitude":77.7796,"temp":22.8,"humidity":54,"rain":0.0,"pressure":969.2,"uv_index":7.75,"wind_gusts":18.0,"aqi":77,"pm10":37.0,"pm2_5":34.1,"mosquito_risk":0,"arthritis_risk":5,"migraine_risk":7,"frizz_risk":0,"updated_at":"2026-03-03T02:11:23.354185+05:30"},{"city":"Latur","state":"Maharashtra","latitude":18.4088,"longitude":76.5604,"temp":23.7,"humidity":53,"rain":0.0,"pressure":940.6,"uv_index":8.2,"wind_gusts":33.8,"aqi":90,"pm10":38.8,"pm2_5":38.2,"mosquito_risk":0,"arthritis_risk":5,"migraine_risk":7,"frizz_risk":0,"updated_at":"2026-03-03T02:11:23.354191+05:30"},{"city":"Nanded","state":"Maharashtra","latitude":19.1383,"longitude":77.3091,"temp":25.3,"humidity":58,"rain":0.0,"pressure":970.1,"uv_index":8.0,"wind_gusts":21.6,"aqi":91,"pm10":58.2,"pm2_5":56.9,"mosquito_risk":4,"arthritis_risk":5,"migraine_risk":7,"frizz_risk":1,"updated_at":"2026-03-03T02:11:23.354197+05:30"},{"city":"Gulbarga","state":"Karnataka","latitude":17.3297,"longitude":76.8343,"temp":25.6,"humidity":54,"rain":0.0,"pressure":959.6,"uv_index":8.3,"wind_gusts":23.4,"aqi":140,"pm10":43.7,"pm2_5":43.4,"mosquito_risk":4,"arthritis_risk":5,"migraine_risk":7,"frizz_risk":0,"updated_at":"2026-03-03T02:11:23.354203+05:30"},{"city":"Bidar","state":"Karnataka","latitude":17.9104,"longitude":77.5199,"temp":23.4,"humidity":66,"rain":0.0,"pressure":936.4,"uv_index":8.25,"wind_gusts":24.5,"aqi":135,"pm10":34.7,"pm2_5":34.0,"mosquito_risk":3,"arthritis_risk":5,"migraine_risk":7,"frizz_risk":1,"updated_at":"2026-03-03T02:11:23.354209+05:30"},{"city":"Hospet","state":"Karnataka","latitude":15.2689,"longitude":76.3909,"temp":27.8,"humidity":52,"rain":0.0,"pressure":956.3,"uv_index":8.6,"wind_gusts":28.8,"aqi":119,"pm10":51.1,"pm2_5":50.5,"mosquito_risk":4,"arthritis_risk":5,"migraine_risk":7,"frizz_risk":1,"updated_at":"2026-03-03T02:11:23.354215+05:30"},{"city":"Tirupur","state":"Tamil Nadu","latitude":11.1085,"longitude":77.3411,"temp":25.3,"humidity":73,"rain":0.0,"pressure":976.3,"uv_index":9.15,"wind_gusts":33.5,"aqi":146,"pm10":54.2,"pm2_5":53.2,"mosquito_risk":7,"arthritis_risk":5,"migraine_risk":7,"frizz_risk":1,"updated_at":"2026-03-03T02:11:23.354221+05:30"},{"city":"Alappuzha","state":"Kerala","latitude":9.4981,"longitude":76.3388,"temp":27.1,"humidity":83,"rain":0.0,"pressure":1009.3,"uv_index":8.95,"wind_gusts":28.8,"aqi":96,"pm10":41.3,"pm2_5":40.0,"mosquito_risk":7,"arthritis_risk":0,"migraine_risk":4,"frizz_risk":1,"updated_at":"2026-03-03T02:11:23.354227+05:30"},{"city":"Munnar","state":"Kerala","latitude":10.0889,"longitude":77.0595,"temp":18.3,"humidity":80,"rain":0.0,"pressure":855.6,"uv_index":9.45,"wind_gusts":20.5,"aqi":121,"pm10":49.6,"pm2_5":48.5,"mosquito_risk":3,"arthritis_risk":5,"migraine_risk":7,"frizz_risk":0,"updated_at":"2026-03-03T02:11:23.354234+05:30"},{"city":"Silchar","state":"Assam","latitude":24.8333,"longitude":92.7789,"temp":19.9,"humidity":86,"rain":0.0,"pressure":1007.4,"uv_index":7.4,"wind_gusts":15.5,"aqi":156,"pm10":99.7,"pm2_5":80.8,"mosquito_risk":3,"arthritis_risk":10,"migraine_risk":4,"frizz_risk":1,"updated_at":"2026-03-03T02:11:23.354240+05:30"},{"city":"Dibrugarh","state":"Assam","latitude":27.4728,"longitude":94.912,"temp":19.6,"humidity":85,"rain":0.0,"pressure":999.2,"uv_index":7.1,"wind_gusts":8.3,"aqi":153,"pm10":62.9,"pm2_5":55.4,"mosquito_risk":3,"arthritis_risk":10,"migraine_risk":7,"frizz_risk":1,"updated_at":"2026-03-03T02:11:23.354246+05:30"}]