[{"city":"Delhi","state":"Delhi","latitude":28.6139,"longitude":77.209,"temp":32.8,"humidity":45,"rain":0.0,"pressure":978.1,"uv_index":7.65,"wind_gusts":51.5,"aqi":190,"pm10":568.1,"pm2_5":94.3,"no2":6.7,"co":476.0,"o3":230.0,"so2":23.4,"mosquito_risk":0,"arthritis_risk":5,"migraine_risk":7,"frizz_risk":1,"updated_at":"2026-05-12T16:04:21.791596+05:30"},{"city":"Mumbai","state":"Maharashtra","latitude":19.076,"longitude":72.8777,"temp":33.5,"humidity":57,"rain":0.0,"pressure":1002.0,"uv_index":7.9,"wind_gusts":46.1,"aqi":88,"pm10":44.8,"pm2_5":21.1,"no2":6.4,"co":250.0,"o3":125.0,"so2":10.4,"mosquito_risk":0,"arthritis_risk":5,"migraine_risk":4,"frizz_risk":1,"updated_at":"2026-05-12T16:04:21.791645+05:30"},{"city":"Bangalore","state":"Karnataka","latitude":12.9716,"longitude":77.5946,"temp":33.6,"humidity":27,"rain":0.0,"pressure":907.7,"uv_index":8.75,"wind_gusts":42.5,"aqi":91,"pm10":27.1,"pm2_5":13.8,"no2":6.0,"co":295.0,"o3":155.0,"so2":3.7,"mosquito_risk":0,"arthritis_risk":5,"migraine_risk":7,"frizz_risk":0,"updated_at":"2026-05-12T16:04:21.791663+05:30"},{"city":"Hyderabad","state":"Telangana","latitude":17.385,"longitude":78.4867,"temp":36.5,"humidity":26,"rain":0.0,"pressure":948.5,"uv_index":8.7,"wind_gusts":38.5,"aqi":82,"pm10":45.3,"pm2_5":20.1,"no2":2.3,"co":274.0,"o3":167.0,"so2":5.2,"mosquito_risk":0,"arthritis_risk":5,"migraine_risk":10,"frizz_risk":0,"updated_at":"2026-05-12T16:04:21.791675+05:30"},{"city":"Chennai","state":"Tamil Nadu","latitude":13.0827,"longitude":80.2707,"temp":32.2,"humidity":61,"rain":0.0,"pressure":1001.7,"uv_index":9.2,"wind_gusts":41.4,"aqi":24,"pm10":7.7,"pm2_5":4.9,"no2":1.9,"co":132.0,"o3":49.0,"so2":3.5,"mosquito_risk":3,"arthritis_risk":5,"migraine_risk":4,"frizz_risk":1,"updated_at":"2026-05-12T16:04:21.791684+05:30"},{"city":"Kolkata","state":"West Bengal","latitude":22.5726,"longitude":88.3639,"temp":30.4,"humidity":66,"rain":0.0,"pressure":1002.2,"uv_index":8.95,"wind_gusts":32.0,"aqi":83,"pm10":32.5,"pm2_5":24.0,"no2":3.9,"co":287.0,"o3":121.0,"so2":9.2,"mosquito_risk":3,"arthritis_risk":5,"migraine_risk":4,"frizz_risk":1,"updated_at":"2026-05-12T16:04:21.791700+05:30"},{"city":"Pune","state":"Maharashtra","latitude":18.5204,"longitude":73.8567,"temp":39.2,"humidity":18,"rain":0.0,"pressure":941.8,"uv_index":8.5,"wind_gusts":54.4,"aqi":99,"pm10":34.7,"pm2_5":18.6,"no2":1.7,"co":249.0,"o3":171.0,"so2":8.1,"mosquito_risk":0,"arthritis_risk":5,"migraine_risk":10,"frizz_risk":0,"updated_at":"2026-05-12T16:04:21.791708+05:30"},{"city":"Ahmedabad","state":"Gujarat","latitude":23.0225,"longitude":72.5714,"temp":44.1,"humidity":13,"rain":0.0,"pressure":994.6,"uv_index":8.15,"wind_gusts":30.2,"aqi":62,"pm10":32.9,"pm2_5":14.1,"no2":0.9,"co":187.0,"o3":147.0,"so2":3.1,"mosquito_risk":0,"arthritis_risk":5,"migraine_risk":10,"frizz_risk":0,"updated_at":"2026-05-12T16:04:21.791718+05:30"},{"city":"Jaipur","state":"Rajasthan","latitude":26.9124,"longitude":75.7873,"temp":41.5,"humidity":13,"rain":0.0,"pressure":954.2,"uv_index":8.2,"wind_gusts":55.4,"aqi":131,"pm10":277.5,"pm2_5":36.4,"no2":0.5,"co":167.0,"o3":129.0,"so2":1.7,"mosquito_risk":0,"arthritis_risk":5,"migraine_risk":10,"frizz_risk":0,"updated_at":"2026-05-12T16:04:21.791726+05:30"},{"city":"Lucknow","state":"Uttar Pradesh","latitude":26.8467,"longitude":80.9462,"temp":36.6,"humidity":32,"rain":0.0,"pressure":988.0,"uv_index":8.15,"wind_gusts":34.9,"aqi":177,"pm10":76.8,"pm2_5":45.4,"no2":2.1,"co":360.0,"o3":201.0,"so2":11.1,"mosquito_risk":0,"arthritis_risk":5,"migraine_risk":10,"frizz_risk":1,"updated_at":"2026-05-12T16:04:21.791734+05:30"},{"city":"Kanpur","state":"Uttar Pradesh","latitude":26.4499,"longitude":80.3319,"temp":37.7,"humidity":27,"rain":0.0,"pressure":986.1,"uv_index":8.15,"wind_gusts":40.3,"aqi":175,"pm10":130.4,"pm2_5":44.9,"no2":1.9,"co":328.0,"o3":205.0,"so2":10.0,"mosquito_risk":0,"arthritis_risk":5,"migraine_risk":10,"frizz_risk":0,"updated_at":"2026-05-12T16:04:21.791742+05:30"},{"city":"Chandigarh","state":"Chandigarh","latitude":30.7333,"longitude":76.7794,"temp":32.7,"humidity":39,"rain":0.0,"pressure":965.2,"uv_index":7.65,"wind_gusts":43.2,"aqi":186,"pm10":113.6,"pm2_5":43.2,"no2":2.5,"co":339.0,"o3":194.0,"so2":14.1,"mosquito_risk":0,"arthritis_risk":5,"migraine_risk":7,"frizz_risk":1,"updated_at":"2026-05-12T16:04:21.791750+05:30"},{"city":"Srinagar","state":"Jammu and Kashmir","latitude":34.0837,"longitude":74.7973,"temp":17.9,"humidity":70,"rain":0.0,"pressure":841.3,"uv_index":8.75,"wind_gusts":25.6,"aqi":89,"pm10":31.8,"pm2_5":17.1,"no2":2.1,"co":283.0,"o3":127.0,"so2":1.5,"mosquito_risk":3,"arthritis_risk":5,"migraine_risk":7,"frizz_risk":0,"updated_at":"2026-05-12T16:04:21.791758+05:30"},{"city":"Jammu","state":"Jammu and Kashmir","latitude":32.7266,"longitude":74.857,"temp":32.2,"humidity":36,"rain":0.0,"pressure":969.7,"uv_index":8.45,"wind_gusts":50.8,"aqi":110,"pm10":59.6,"pm2_5":25.3,"no2":2.0,"co":231.0,"o3":143.0,"so2":2.2,"mosquito_risk":0,"arthritis_risk":5,"migraine_risk":7,"frizz_risk":0,"updated_at":"2026-05-12T16:04:21.791766+05:30"},{"city":"Amritsar","state":"Punjab","latitude":31.634,"longitude":74.8723,"temp":35.5,"humidity":30,"rain":0.0,"pressure":976.5,"uv_index":8.35,"wind_gusts":43.2,"aqi":158,"pm10":99.4,"pm2_5":49.4,"no2":1.6,"co":302.0,"o3":175.0,"so2":7.5,"mosquito_risk":0,"arthritis_risk":5,"migraine_risk":10,"frizz_risk":0,"updated_at":"2026-05-12T16:04:21.791773+05:30"},{"city":"Ludhiana","state":"Punjab","latitude":30.901,"longitude":75.8573,"temp":35.7,"humidity":28,"rain":0.0,"pressure":974.3,"uv_index":7.95,"wind_gusts":32.8,"aqi":162,"pm10":122.0,"pm2_5":55.9,"no2":2.9,"co":284.0,"o3":188.0,"so2":18.7,"mosquito_risk":0,"arthritis_risk":5,"migraine_risk":10,"frizz_risk":0,"updated_at":"2026-05-12T16:04:21.791780+05:30"},{"city":"Jalandhar","state":"Punjab","latitude":31.326,"longitude":75.5762,"temp":33.4,"humidity":38,"rain":0.0,"pressure":975.7,"uv_index":8.1,"wind_gusts":33.8,"aqi":163,"pm10":112.9,"pm2_5":55.9,"no2":1.8,"co":300.0,"o3":195.0,"so2":16.5,"mosquito_risk":0,"arthritis_risk":5,"migraine_risk":7,"frizz_risk":1,"updated_at":"2026-05-12T16:04:21.791787+05:30"},{"city":"Dehradun","state":"Uttarakhand","latitude":30.6284,"longitude":78.0322,"temp":20.3,"humidity":68,"rain":0.0,"pressure":829.4,"uv_index":8.1,"wind_gusts":34.6,"aqi":131,"pm10":50.8,"pm2_5":24.3,"no2":1.3,"co":275.0,"o3":142.0,"so2":1.6,"mosquito_risk":3,"arthritis_risk":5,"migraine_risk":7,"frizz_risk":0,"updated_at":"2026-05-12T16:04:21.791797+05:30"},{"city":"Shimla","state":"Himachal Pradesh","latitude":31.1048,"longitude":77.1734,"temp":19.3,"humidity":46,"rain":0.0,"pressure":784.7,"uv_index":8.2,"wind_gusts":46.4,"aqi":136,"pm10":61.7,"pm2_5":23.6,"no2":1.1,"co":224.0,"o3":153.0,"so2":5.4,"mosquito_risk":0,"arthritis_risk":5,"migraine_risk":7,"frizz_risk":0,"updated_at":"2026-05-12T16:04:21.791804+05:30"},{"city":"Manali","state":"Himachal Pradesh","latitude":32.2396,"longitude":77.1887,"temp":15.7,"humidity":72,"rain":0.0,"pressure":817.5,"uv_index":9.25,"wind_gusts":38.5,"aqi":109,"pm10":18.7,"pm2_5":8.0,"no2":0.6,"co":174.0,"o3":147.0,"so2":0.5,"mosquito_risk":3,"arthritis_risk":5,"migraine_risk":7,"frizz_risk":0,"updated_at":"2026-05-12T16:04:21.791811+05:30"},{"city":"Gurgaon","state":"Haryana","latitude":28.4595,"longitude":77.0266,"temp":37.4,"humidity":28,"rain":0.0,"pressure":976.1,"uv_index":7.8,"wind_gusts":53.3,"aqi":657,"pm10":901.5,"pm2_5":110.4,"no2":4.5,"co":402.0,"o3":186.0,"so2":13.0,"mosquito_risk":0,"arthritis_risk":5,"migraine_risk":10,"frizz_risk":0,"updated_at":"2026-05-12T16:04:21.791819+05:30"},{"city":"Noida","state":"Uttar Pradesh","latitude":28.5355,"longitude":77.391,"temp":33.8,"humidity":42,"rain":0.0,"pressure":979.5,"uv_index":7.7,"wind_gusts":49.7,"aqi":657,"pm10":901.5,"pm2_5":110.4,"no2":4.5,"co":409.0,"o3":186.0,"so2":13.0,"mosquito_risk":0,"arthritis_risk":5,"migraine_risk":7,"frizz_risk":1,"updated_at":"2026-05-12T16:04:21.791828+05:30"},{"city":"Ghaziabad","state":"Uttar Pradesh","latitude":28.6692,"longitude":77.4538,"temp":33.8,"humidity":41,"rain":0.0,"pressure":978.3,"uv_index":7.65,"wind_gusts":40.7,"aqi":162,"pm10":421.9,"pm2_5":74.5,"no2":3.8,"co":313.0,"o3":202.0,"so2":10.2,"mosquito_risk":0,"arthritis_risk":5,"migraine_risk":7,"frizz_risk":1,"updated_at":"2026-05-12T16:04:21.791835+05:30"},{"city":"Faridabad","state":"Haryana","latitude":28.4089,"longitude":77.3178,"temp":34.2,"humidity":39,"rain":0.0,"pressure":978.6,"uv_index":7.7,"wind_gusts":59.8,"aqi":657,"pm10":901.5,"pm2_5":110.4,"no2":4.5,"co":377.0,"o3":186.0,"so2":13.0,"mosquito_risk":0,"arthritis_risk":5,"migraine_risk":7,"frizz_risk":1,"updated_at":"2026-05-12T16:04:21.791842+05:30"},{"city":"Meerut","state":"Uttar Pradesh","latitude":28.9845,"longitude":77.7064,"temp":32.0,"humidity":48,"rain":0.0,"pressure":977.5,"uv_index":7.6,"wind_gusts":37.1,"aqi":162,"pm10":421.9,"pm2_5":74.5,"no2":3.8,"co":341.0,"o3":202.0,"so2":10.2,"mosquito_risk":0,"arthritis_risk":5,"migraine_risk":7,"frizz_risk":1,"updated_at":"2026-05-12T16:04:21.791848+05:30"},{"city":"Agra","state":"Uttar Pradesh","latitude":27.1767,"longitude":78.0081,"temp":35.8,"humidity":37,"rain":0.0,"pressure":981.8,"uv_index":7.85,"wind_gusts":66.2,"aqi":376,"pm10":315.7,"pm2_5":55.8,"no2":2.0,"co":314.0,"o3":177.0,"so2":8.6,"mosquito_risk":0,"arthritis_risk":5,"migraine_risk":10,"frizz_risk":1,"updated_at":"2026-05-12T16:04:21.791855+05:30"},{"city":"Varanasi","state":"Uttar Pradesh","latitude":25.3176,"longitude":82.9739,"temp":37.8,"humidity":29,"rain":0.0,"pressure":991.4,"uv_index":8.7,"wind_gusts":33.8,"aqi":175,"pm10":73.3,"pm2_5":46.4,"no2":2.1,"co":327.0,"o3":200.0,"so2":14.1,"mosquito_risk":0,"arthritis_risk":5,"migraine_risk":10,"frizz_risk":1,"updated_at":"2026-05-12T16:04:21.791862+05:30"},{"city":"Prayagraj","state":"Uttar Pradesh","latitude":25.4358,"longitude":81.8463,"temp":38.8,"humidity":25,"rain":0.0,"pressure":990.1,"uv_index":8.55,"wind_gusts":36.0,"aqi":180,"pm10":64.5,"pm2_5":42.8,"no2":1.9,"co":325.0,"o3":200.0,"so2":12.1,"mosquito_risk":0,"arthritis_risk":5,"migraine_risk":10,"frizz_risk":0,"updated_at":"2026-05-12T16:04:21.791871+05:30"},{"city":"Gorakhpur","state":"Uttar Pradesh","latitude":26.7606,"longitude":83.3732,"temp":33.8,"humidity":46,"rain":0.1,"pressure":992.4,"uv_index":8.5,"wind_gusts":43.9,"aqi":159,"pm10":79.4,"pm2_5":62.2,"no2":1.7,"co":354.0,"o3":186.0,"so2":8.7,"mosquito_risk":3,"arthritis_risk":5,"migraine_risk":7,"frizz_risk":1,"updated_at":"2026-05-12T16:04:21.791878+05:30"},{"city":"Bareilly","state":"Uttar Pradesh","latitude":28.367,"longitude":79.4304,"temp":34.0,"humidity":43,"rain":0.0,"pressure":982.1,"uv_index":7.95,"wind_gusts":32.8,"aqi":171,"pm10":194.6,"pm2_5":50.1,"no2":1.6,"co":346.0,"o3":216.0,"so2":13.4,"mosquito_risk":0,"arthritis_risk":5,"migraine_risk":7,"frizz_risk":1,"updated_at":"2026-05-12T16:04:21.791885+05:30"},{"city":"Aligarh","state":"Uttar Pradesh","latitude":27.8974,"longitude":78.088,"temp":35.5,"humidity":34,"rain":0.0,"pressure":980.2,"uv_index":7.85,"wind_gusts":57.2,"aqi":240,"pm10":409.8,"pm2_5":68.5,"no2":2.7,"co":327.0,"o3":189.0,"so2":13.0,"mosquito_risk":0,"arthritis_risk":5,"migraine_risk":10,"frizz_risk":1,"updated_at":"2026-05-12T16:04:21.791891+05:30"},{"city":"Moradabad","state":"Uttar Pradesh","latitude":28.8386,"longitude":78.7733,"temp":33.8,"humidity":45,"rain":0.0,"pressure":979.5,"uv_index":7.8,"wind_gusts":28.8,"aqi":169,"pm10":107.6,"pm2_5":43.7,"no2":3.0,"co":329.0,"o3":215.0,"so2":18.1,"mosquito_risk":0,"arthritis_risk":5,"migraine_risk":7,"frizz_risk":1,"updated_at":"2026-05-12T16:04:21.791898+05:30"},{"city":"Saharanpur","state":"Uttar Pradesh","latitude":29.9637,"longitude":77.546,"temp":32.0,"humidity":51,"rain":0.0,"pressure":972.2,"uv_index":7.4,"wind_gusts":34.6,"aqi":166,"pm10":161.6,"pm2_5":52.4,"no2":3.8,"co":334.0,"o3":186.0,"so2":12.0,"mosquito_risk":0,"arthritis_risk":5,"migraine_risk":7,"frizz_risk":1,"updated_at":"2026-05-12T16:04:21.791903+05:30"},{"city":"Jhansi","state":"Uttar Pradesh","latitude":25.4484,"longitude":78.5685,"temp":41.0,"humidity":19,"rain":0.0,"pressure":972.1,"uv_index":8.45,"wind_gusts":30.2,"aqi":156,"pm10":125.3,"pm2_5":40.3,"no2":1.6,"co":257.0,"o3":187.0,"so2":20.3,"mosquito_risk":0,"arthritis_risk":5,"migraine_risk":10,"frizz_risk":0,"updated_at":"2026-05-12T16:04:25.024409+05:30"},{"city":"Surat","state":"Gujarat","latitude":21.1702,"longitude":72.8311,"temp":42.2,"humidity":13,"rain":0.0,"pressure":999.4,"uv_index":7.75,"wind_gusts":33.8,"aqi":100,"pm10":66.1,"pm2_5":44.8,"no2":39.3,"co":187.0,"o3":98.0,"so2":87.9,"mosquito_risk":0,"arthritis_risk":5,"migraine_risk":10,"frizz_risk":0,"updated_at":"2026-05-12T16:04:25.024445+05:30"},{"city":"Vadodara","state":"Gujarat","latitude":22.3072,"longitude":73.1812,"temp":43.8,"humidity":14,"rain":0.0,"pressure":996.5,"uv_index":8.1,"wind_gusts":29.9,"aqi":101,"pm10":33.5,"pm2_5":18.9,"no2":1.5,"co":218.0,"o3":180.0,"so2":10.7,"mosquito_risk":0,"arthritis_risk":5,"migraine_risk":10,"frizz_risk":0,"updated_at":"2026-05-12T16:04:25.024456+05:30"},{"city":"Rajkot","state":"Gujarat","latitude":22.3039,"longitude":70.8022,"temp":42.9,"humidity":16,"rain":0.0,"pressure":987.3,"uv_index":7.75,"wind_gusts":51.8,"aqi":53,"pm10":51.1,"pm2_5":17.2,"no2":0.9,"co":152.0,"o3":144.0,"so2":6.0,"mosquito_risk":0,"arthritis_risk":5,"migraine_risk":10,"frizz_risk":0,"updated_at":"2026-05-12T16:04:25.024465+05:30"},{"city":"Thane","state":"Maharashtra","latitude":19.2183,"longitude":72.9781,"temp":36.8,"humidity":42,"rain":0.0,"pressure":1000.9,"uv_index":7.9,"wind_gusts":40.3,"aqi":88,"pm10":44.8,"pm2_5":21.1,"no2":6.4,"co":212.0,"o3":125.0,"so2":10.4,"mosquito_risk":0,"arthritis_risk":5,"migraine_risk":7,"frizz_risk":1,"updated_at":"2026-05-12T16:04:25.024473+05:30"},{"city":"Nagpur","state":"Maharashtra","latitude":21.1458,"longitude":79.0882,"temp":42.1,"humidity":15,"rain":0.0,"pressure":966.8,"uv_index":8.95,"wind_gusts":38.2,"aqi":174,"pm10":83.8,"pm2_5":36.2,"no2":5.9,"co":217.0,"o3":215.0,"so2":28.1,"mosquito_risk":0,"arthritis_risk":5,"migraine_risk":10,"frizz_risk":0,"updated_at":"2026-05-12T16:04:25.024481+05:30"},{"city":"Nashik","state":"Maharashtra","latitude":19.9975,"longitude":73.7898,"temp":40.0,"humidity":16,"rain":0.0,"pressure":940.0,"uv_index":8.2,"wind_gusts":46.4,"aqi":91,"pm10":30.7,"pm2_5":17.5,"no2":1.4,"co":204.0,"o3":159.0,"so2":8.1,"mosquito_risk":0,"arthritis_risk":5,"migraine_risk":10,"frizz_risk":0,"updated_at":"2026-05-12T16:04:25.024489+05:30"},{"city":"Aurangabad","state":"Maharashtra","latitude":19.8762,"longitude":75.3433,"temp":41.1,"humidity":13,"rain":0.0,"pressure":938.4,"uv_index":9.05,"wind_gusts":37.1,"aqi":130,"pm10":57.2,"pm2_5":19.2,"no2":0.8,"co":216.0,"o3":161.0,"so2":7.5,"mosquito_risk":0,"arthritis_risk":5,"migraine_risk":10,"frizz_risk":0,"updated_at":"2026-05-12T16:04:25.024496+05:30"},{"city":"Solapur","state":"Maharashtra","latitude":17.6599,"longitude":75.9064,"temp":41.0,"humidity":17,"rain":0.0,"pressure":950.6,"uv_index":8.45,"wind_gusts":37.4,"aqi":114,"pm10":45.9,"pm2_5":21.4,"no2":1.1,"co":224.0,"o3":169.0,"so2":5.0,"mosquito_risk":0,"arthritis_risk":5,"migraine_risk":10,"frizz_risk":0,"updated_at":"2026-05-12T16:04:25.024504+05:30"},{"city":"Kolhapur","state":"Maharashtra","latitude":16.705,"longitude":74.2433,"temp":37.7,"humidity":26,"rain":0.0,"pressure":941.6,"uv_index":8.35,"wind_gusts":57.6,"aqi":72,"pm10":39.3,"pm2_5":19.4,"no2":3.5,"co":207.0,"o3":146.0,"so2":5.7,"mosquito_risk":0,"arthritis_risk":5,"migraine_risk":10,"frizz_risk":0,"updated_at":"2026-05-12T16:04:25.024511+05:30"},{"city":"Goa","state":"Goa","latitude":15.2993,"longitude":74.124,"temp":35.8,"humidity":53,"rain":0.0,"pressure":991.5,"uv_index":8.9,"wind_gusts":34.2,"aqi":80,"pm10":51.2,"pm2_5":18.0,"no2":0.8,"co":136.0,"o3":85.0,"so2":1.1,"mosquito_risk":0,"arthritis_risk":5,"migraine_risk":10,"frizz_risk":1,"updated_at":"2026-05-12T16:04:25.024518+05:30"},{"city":"Jodhpur","state":"Rajasthan","latitude":26.2389,"longitude":73.0243,"temp":43.1,"humidity":11,"rain":0.0,"pressure":976.3,"uv_index":8.35,"wind_gusts":49.0,"aqi":107,"pm10":174.6,"pm2_5":23.3,"no2":0.7,"co":154.0,"o3":150.0,"so2":2.0,"mosquito_risk":0,"arthritis_risk":5,"migraine_risk":10,"frizz_risk":0,"updated_at":"2026-05-12T16:04:25.024525+05:30"},{"city":"Udaipur","state":"Rajasthan","latitude":24.5854,"longitude":73.7125,"temp":39.7,"humidity":14,"rain":0.0,"pressure":942.3,"uv_index":8.85,"wind_gusts":31.0,"aqi":89,"pm10":25.8,"pm2_5":8.6,"no2":0.4,"co":160.0,"o3":137.0,"so2":2.8,"mosquito_risk":0,"arthritis_risk":5,"migraine_risk":10,"frizz_risk":0,"updated_at":"2026-05-12T16:04:25.024532+05:30"},{"city":"Kota","state":"Rajasthan","latitude":25.2138,"longitude":75.8648,"temp":42.8,"humidity":13,"rain":0.0,"pressure":972.5,"uv_index":8.4,"wind_gusts":39.6,"aqi":123,"pm10":88.5,"pm2_5":17.2,"no2":0.7,"co":146.0,"o3":140.0,"so2":3.6,"mosquito_risk":0,"arthritis_risk":5,"migraine_risk":10,"frizz_risk":0,"updated_at":"2026-05-12T16:04:25.024540+05:30"},{"city":"Bikaner","state":"Rajasthan","latitude":28.0229,"longitude":73.3119,"temp":43.3,"humidity":14,"rain":0.0,"pressure":974.7,"uv_index":8.35,"wind_gusts":40.3,"aqi":74,"pm10":73.6,"pm2_5":18.6,"no2":0.2,"co":214.0,"o3":119.0,"so2":4.4,"mosquito_risk":0,"arthritis_risk":5,"migraine_risk":10,"frizz_risk":0,"updated_at":"2026-05-12T16:04:25.024547+05:30"},{"city":"Ajmer","state":"Rajasthan","latitude":26.4499,"longitude":74.6399,"temp":40.3,"humidity":12,"rain":0.0,"pressure":949.7,"uv_index":8.35,"wind_gusts":54.7,"aqi":67,"pm10":39.9,"pm2_5":12.7,"no2":0.5,"co":157.0,"o3":135.0,"so2":1.9,"mosquito_risk":0,"arthritis_risk":5,"migraine_risk":10,"frizz_risk":0,"updated_at":"2026-05-12T16:04:25.024554+05:30"},{"city":"Gwalior","state":"Madhya Pradesh","latitude":26.2183,"longitude":78.1828,"temp":36.3,"humidity":32,"rain":0.0,"pressure":977.8,"uv_index":7.7,"wind_gusts":46.1,"aqi":142,"pm10":123.9,"pm2_5":38.3,"no2":0.7,"co":258.0,"o3":173.0,"so2":9.4,"mosquito_risk":0,"arthritis_risk":5,"migraine_risk":10,"frizz_risk":1,"updated_at":"2026-05-12T16:04:25.024560+05:30"},{"city":"Indore","state":"Madhya Pradesh","latitude":22.7196,"longitude":75.8577,"temp":41.2,"humidity":11,"rain":0.0,"pressure":943.0,"uv_index":8.7,"wind_gusts":36.0,"aqi":117,"pm10":93.1,"pm2_5":22.6,"no2":1.2,"co":218.0,"o3":146.0,"so2":4.5,"mosquito_risk":0,"arthritis_risk":5,"migraine_risk":10,"frizz_risk":0,"updated_at":"2026-05-12T16:04:25.024567+05:30"},{"city":"Bhopal","state":"Madhya Pradesh","latitude":23.2599,"longitude":77.4126,"temp":41.2,"humidity":14,"rain":0.0,"pressure":948.6,"uv_index":8.7,"wind_gusts":33.5,"aqi":139,"pm10":116.6,"pm2_5":29.2,"no2":0.5,"co":222.0,"o3":154.0,"so2":5.6,"mosquito_risk":0,"arthritis_risk":5,"migraine_risk":10,"frizz_risk":0,"updated_at":"2026-05-12T16:04:25.024574+05:30"},{"city":"Jabalpur","state":"Madhya Pradesh","latitude":23.1815,"longitude":79.9864,"temp":40.1,"humidity":16,"rain":0.0,"pressure":956.2,"uv_index":8.85,"wind_gusts":41.8,"aqi":152,"pm10":88.5,"pm2_5":27.2,"no2":0.9,"co":206.0,"o3":155.0,"so2":5.7,"mosquito_risk":0,"arthritis_risk":5,"migraine_risk":10,"frizz_risk":0,"updated_at":"2026-05-12T16:04:25.024580+05:30"},{"city":"Ujjain","state":"Madhya Pradesh","latitude":23.1765,"longitude":75.7885,"temp":41.8,"humidity":11,"rain":0.0,"pressure":948.4,"uv_index":8.6,"wind_gusts":27.4,"aqi":103,"pm10":86.8,"pm2_5":20.8,"no2":0.9,"co":185.0,"o3":144.0,"so2":5.3,"mosquito_risk":0,"arthritis_risk":5,"migraine_risk":10,"frizz_risk":0,"updated_at":"2026-05-12T16:04:25.024588+05:30"},{"city":"Visakhapatnam","state":"Andhra Pradesh","latitude":17.6868,"longitude":83.2185,"temp":32.0,"humidity":57,"rain":0.0,"pressure":998.7,"uv_index":9.05,"wind_gusts":39.2,"aqi":62,"pm10":17.0,"pm2_5":12.2,"no2":13.3,"co":615.0,"o3":67.0,"so2":14.7,"mosquito_risk":0,"arthritis_risk":5,"migraine_risk":7,"frizz_risk":1,"updated_at":"2026-05-12T16:04:25.024595+05:30"},{"city":"Vijayawada","state":"Andhra Pradesh","latitude":16.5062,"longitude":80.648,"temp":35.7,"humidity":43,"rain":0.0,"pressure":996.6,"uv_index":9.15,"wind_gusts":37.4,"aqi":56,"pm10":28.6,"pm2_5":17.2,"no2":2.3,"co":171.0,"o3":119.0,"so2":4.9,"mosquito_risk":0,"arthritis_risk":5,"migraine_risk":10,"frizz_risk":1,"updated_at":"2026-05-12T16:04:25.024601+05:30"},{"city":"Guntur","state":"Andhra Pradesh","latitude":16.3067,"longitude":80.4365,"temp":36.7,"humidity":38,"rain":0.0,"pressure":997.6,"uv_index":9.2,"wind_gusts":33.8,"aqi":57,"pm10":35.7,"pm2_5":21.8,"no2":2.2,"co":200.0,"o3":138.0,"so2":4.8,"mosquito_risk":0,"arthritis_risk":5,"migraine_risk":10,"frizz_risk":1,"updated_at":"2026-05-12T16:04:25.024608+05:30"},{"city":"Nellore","state":"Andhra Pradesh","latitude":14.4426,"longitude":79.9865,"temp":33.2,"humidity":55,"rain":0.0,"pressure":1000.3,"uv_index":8.8,"wind_gusts":37.8,"aqi":32,"pm10":15.3,"pm2_5":7.9,"no2":1.2,"co":119.0,"o3":75.0,"so2":1.9,"mosquito_risk":0,"arthritis_risk":5,"migraine_risk":4,"frizz_risk":1,"updated_at":"2026-05-12T16:04:25.024615+05:30"},{"city":"Kurnool","state":"Andhra Pradesh","latitude":15.8281,"longitude":78.0373,"temp":39.2,"humidity":21,"rain":0.0,"pressure":970.6,"uv_index":9.1,"wind_gusts":42.5,"aqi":53,"pm10":41.1,"pm2_5":17.2,"no2":0.7,"co":185.0,"o3":145.0,"so2":2.8,"mosquito_risk":0,"arthritis_risk":5,"migraine_risk":10,"frizz_risk":0,"updated_at":"2026-05-12T16:04:25.024623+05:30"},{"city":"Kakinada","state":"Andhra Pradesh","latitude":16.9891,"longitude":82.2475,"temp":31.9,"humidity":60,"rain":0.0,"pressure":1002.2,"uv_index":9.1,"wind_gusts":41.8,"aqi":32,"pm10":10.3,"pm2_5":5.8,"no2":0.7,"co":128.0,"o3":63.0,"so2":0.6,"mosquito_risk":0,"arthritis_risk":5,"migraine_risk":4,"frizz_risk":1,"updated_at":"2026-05-12T16:04:25.024630+05:30"},{"city":"Tirupati","state":"Andhra Pradesh","latitude":13.6288,"longitude":79.4192,"temp":35.8,"humidity":33,"rain":0.0,"pressure":985.1,"uv_index":9.25,"wind_gusts":41.4,"aqi":54,"pm10":21.1,"pm2_5":9.9,"no2":1.2,"co":146.0,"o3":104.0,"so2":1.3,"mosquito_risk":0,"arthritis_risk":5,"migraine_risk":10,"frizz_risk":1,"updated_at":"2026-05-12T16:04:25.024636+05:30"},{"city":"Warangal","state":"Telangana","latitude":17.9689,"longitude":79.5941,"temp":37.6,"humidity":34,"rain":0.0,"pressure":973.1,"uv_index":8.5,"wind_gusts":41.0,"aqi":63,"pm10":44.9,"pm2_5":22.6,"no2":1.7,"co":202.0,"o3":163.0,"so2":6.3,"mosquito_risk":0,"arthritis_risk":5,"migraine_risk":10,"frizz_risk":1,"updated_at":"2026-05-12T16:04:25.024642+05:30"},{"city":"Nizamabad","state":"Telangana","latitude":18.6725,"longitude":78.0941,"temp":38.2,"humidity":24,"rain":0.0,"pressure":959.3,"uv_index":9.15,"wind_gusts":29.9,"aqi":106,"pm10":48.7,"pm2_5":21.4,"no2":0.6,"co":223.0,"o3":160.0,"so2":4.0,"mosquito_risk":0,"arthritis_risk":5,"migraine_risk":10,"frizz_risk":0,"updated_at":"2026-05-12T16:04:25.024648+05:30"},{"city":"Mysore","state":"Karnataka","latitude":12.2958,"longitude":76.6396,"temp":33.0,"humidity":31,"rain":0.0,"pressure":923.9,"uv_index":8.8,"wind_gusts":36.0,"aqi":108,"pm10":31.2,"pm2_5":17.3,"no2":1.6,"co":223.0,"o3":167.0,"so2":4.2,"mosquito_risk":0,"arthritis_risk":5,"migraine_risk":7,"frizz_risk":0,"updated_at":"2026-05-12T16:04:25.024654+05:30"},{"city":"Mangalore","state":"Karnataka","latitude":12.9141,"longitude":74.856,"temp":31.5,"humidity":73,"rain":0.0,"pressure":1000.7,"uv_index":8.8,"wind_gusts":37.4,"aqi":91,"pm10":47.5,"pm2_5":22.1,"no2":1.3,"co":153.0,"o3":103.0,"so2":1.5,"mosquito_risk":3,"arthritis_risk":5,"migraine_risk":4,"frizz_risk":1,"updated_at":"2026-05-12T16:04:25.024661+05:30"},{"city":"Hubli-Dharwad","state":"Karnataka","latitude":15.3647,"longitude":75.124,"temp":37.3,"humidity":24,"rain":0.1,"pressure":935.7,"uv_index":9.1,"wind_gusts":43.9,"aqi":78,"pm10":42.3,"pm2_5":21.1,"no2":1.2,"co":203.0,"o3":166.0,"so2":4.6,"mosquito_risk":3,"arthritis_risk":5,"migraine_risk":10,"frizz_risk":0,"updated_at":"2026-05-12T16:04:25.024668+05:30"},{"city":"Belgaum","state":"Karnataka","latitude":15.8497,"longitude":74.4977,"temp":36.4,"humidity":22,"rain":0.0,"pressure":921.4,"uv_index":8.45,"wind_gusts":41.0,"aqi":69,"pm10":43.3,"pm2_5":21.5,"no2":2.1,"co":198.0,"o3":157.0,"so2":6.3,"mosquito_risk":0,"arthritis_risk":5,"migraine_risk":10,"frizz_risk":0,"updated_at":"2026-05-12T16:04:28.255527+05:30"},{"city":"Coimbatore","state":"Tamil Nadu","latitude":11.0168,"longitude":76.9558,"temp":34.6,"humidity":37,"rain":0.0,"pressure":956.1,"uv_index":9.05,"wind_gusts":30.6,"aqi":123,"pm10":31.5,"pm2_5":17.1,"no2":1.8,"co":277.0,"o3":166.0,"so2":3.2,"mosquito_risk":0,"arthritis_risk":5,"migraine_risk":7,"frizz_risk":1,"updated_at":"2026-05-12T16:04:28.255564+05:30"},{"city":"Madurai","state":"Tamil Nadu","latitude":9.9252,"longitude":78.1198,"temp":36.8,"humidity":32,"rain":0.0,"pressure":986.3,"uv_index":8.95,"wind_gusts":31.3,"aqi":99,"pm10":31.8,"pm2_5":20.3,"no2":2.3,"co":251.0,"o3":166.0,"so2":5.7,"mosquito_risk":0,"arthritis_risk":5,"migraine_risk":10,"frizz_risk":1,"updated_at":"2026-05-12T16:04:28.255575+05:30"},{"city":"Trichy","state":"Tamil Nadu","latitude":10.7905,"longitude":78.7047,"temp":34.6,"humidity":45,"rain":0.0,"pressure":993.4,"uv_index":9.1,"wind_gusts":32.0,"aqi":71,"pm10":26.4,"pm2_5":16.4,"no2":2.8,"co":167.0,"o3":148.0,"so2":8.5,"mosquito_risk":0,"arthritis_risk":5,"migraine_risk":7,"frizz_risk":1,"updated_at":"2026-05-12T16:04:28.255584+05:30"},{"city":"Salem","state":"Tamil Nadu","latitude":11.6643,"longitude":78.146,"temp":36.6,"humidity":31,"rain":0.0,"pressure":970.8,"uv_index":8.45,"wind_gusts":31.7,"aqi":127,"pm10":33.5,"pm2_5":18.9,"no2":2.5,"co":238.0,"o3":179.0,"so2":9.6,"mosquito_risk":0,"arthritis_risk":5,"migraine_risk":10,"frizz_risk":1,"updated_at":"2026-05-12T16:04:28.255593+05:30"},{"city":"Tirunelveli","state":"Tamil Nadu","latitude":8.7139,"longitude":77.7567,"temp":33.4,"humidity":53,"rain":0.0,"pressure":997.0,"uv_index":9.0,"wind_gusts":40.0,"aqi":95,"pm10":30.7,"pm2_5":21.4,"no2":2.2,"co":227.0,"o3":163.0,"so2":5.2,"mosquito_risk":0,"arthritis_risk":5,"migraine_risk":7,"frizz_risk":1,"updated_at":"2026-05-12T16:04:28.255601+05:30"},{"city":"Vellore","state":"Tamil Nadu","latitude":12.9165,"longitude":79.1325,"temp":35.8,"humidity":33,"rain":0.0,"pressure":978.4,"uv_index":9.0,"wind_gusts":35.3,"aqi":70,"pm10":26.3,"pm2_5":13.5,"no2":1.5,"co":161.0,"o3":128.0,"so2":3.3,"mosquito_risk":0,"arthritis_risk":5,"migraine_risk":10,"frizz_risk":1,"updated_at":"2026-05-12T16:04:28.255608+05:30"},{"city":"Erode","state":"Tamil Nadu","latitude":11.341,"longitude":77.7172,"temp":35.7,"humidity":37,"rain":0.0,"pressure":982.4,"uv_index":9.15,"wind_gusts":28.1,"aqi":146,"pm10":36.1,"pm2_5":22.6,"no2":2.8,"co":290.0,"o3":193.0,"so2":6.9,"mosquito_risk":0,"arthritis_risk":5,"migraine_risk":10,"frizz_risk":1,"updated_at":"2026-05-12T16:04:28.255615+05:30"},{"city":"Kochi","state":"Kerala","latitude":9.9312,"longitude":76.2673,"temp":29.7,"humidity":78,"rain":0.0,"pressure":1002.8,"uv_index":8.15,"wind_gusts":34.6,"aqi":89,"pm10":24.4,"pm2_5":17.9,"no2":3.1,"co":179.0,"o3":128.0,"so2":2.0,"mosquito_risk":7,"arthritis_risk":5,"migraine_risk":4,"frizz_risk":1,"updated_at":"2026-05-12T16:04:28.255623+05:30"},{"city":"Thiruvananthapuram","state":"Kerala","latitude":8.5241,"longitude":76.9366,"temp":28.0,"humidity":82,"rain":0.1,"pressure":1003.0,"uv_index":8.8,"wind_gusts":40.0,"aqi":86,"pm10":24.7,"pm2_5":16.9,"no2":2.2,"co":190.0,"o3":139.0,"so2":1.9,"mosquito_risk":10,"arthritis_risk":5,"migraine_risk":4,"frizz_risk":1,"updated_at":"2026-05-12T16:04:28.255631+05:30"},{"city":"Kozhikode","state":"Kerala","latitude":11.2588,"longitude":75.7804,"temp":31.2,"humidity":79,"rain":0.0,"pressure":1001.7,"uv_index":8.5,"wind_gusts":37.8,"aqi":66,"pm10":32.6,"pm2_5":18.6,"no2":0.7,"co":176.0,"o3":121.0,"so2":1.5,"mosquito_risk":3,"arthritis_risk":5,"migraine_risk":4,"frizz_risk":1,"updated_at":"2026-05-12T16:04:28.255638+05:30"},{"city":"Thrissur","state":"Kerala","latitude":10.5276,"longitude":76.2144,"temp":31.8,"humidity":71,"rain":0.0,"pressure":1000.6,"uv_index":8.25,"wind_gusts":33.5,"aqi":88,"pm10":29.0,"pm2_5":20.1,"no2":1.9,"co":194.0,"o3":132.0,"so2":2.3,"mosquito_risk":3,"arthritis_risk":5,"migraine_risk":4,"frizz_risk":1,"updated_at":"2026-05-12T16:04:28.255646+05:30"},{"city":"Kannur","state":"Kerala","latitude":11.8745,"longitude":75.3704,"temp":31.8,"humidity":74,"rain":0.0,"pressure":1000.6,"uv_index":8.95,"wind_gusts":48.6,"aqi":75,"pm10":38.3,"pm2_5":20.9,"no2":2.7,"co":166.0,"o3":119.0,"so2":1.6,"mosquito_risk":3,"arthritis_risk":5,"migraine_risk":4,"frizz_risk":1,"updated_at":"2026-05-12T16:04:28.255653+05:30"},{"city":"Patna","state":"Bihar","latitude":25.5941,"longitude":85.1376,"temp":31.4,"humidity":62,"rain":0.1,"pressure":995.6,"uv_index":8.6,"wind_gusts":35.3,"aqi":163,"pm10":76.8,"pm2_5":59.4,"no2":4.3,"co":312.0,"o3":204.0,"so2":13.2,"mosquito_risk":6,"arthritis_risk":5,"migraine_risk":7,"frizz_risk":1,"updated_at":"2026-05-12T16:04:28.255660+05:30"},{"city":"Gaya","state":"Bihar","latitude":24.7914,"longitude":85.0002,"temp":33.5,"humidity":49,"rain":0.0,"pressure":988.0,"uv_index":8.7,"wind_gusts":51.8,"aqi":168,"pm10":107.8,"pm2_5":68.2,"no2":3.0,"co":271.0,"o3":214.0,"so2":13.5,"mosquito_risk":0,"arthritis_risk":5,"migraine_risk":7,"frizz_risk":1,"updated_at":"2026-05-12T16:04:28.255666+05:30"},{"city":"Muzaffarpur","state":"Bihar","latitude":26.1209,"longitude":85.3647,"temp":30.8,"humidity":64,"rain":0.0,"pressure":996.0,"uv_index":8.75,"wind_gusts":43.6,"aqi":158,"pm10":66.4,"pm2_5":55.1,"no2":4.6,"co":308.0,"o3":196.0,"so2":12.3,"mosquito_risk":3,"arthritis_risk":5,"migraine_risk":7,"frizz_risk":1,"updated_at":"2026-05-12T16:04:28.255673+05:30"},{"city":"Bhagalpur","state":"Bihar","latitude":25.2425,"longitude":87.0117,"temp":32.2,"humidity":54,"rain":0.0,"pressure":996.9,"uv_index":8.6,"wind_gusts":33.8,"aqi":140,"pm10":59.4,"pm2_5":50.9,"no2":5.6,"co":232.0,"o3":186.0,"so2":7.0,"mosquito_risk":0,"arthritis_risk":5,"migraine_risk":7,"frizz_risk":1,"updated_at":"2026-05-12T16:04:28.255680+05:30"},{"city":"Ranchi","state":"Jharkhand","latitude":23.3441,"longitude":85.3096,"temp":25.0,"humidity":77,"rain":0.1,"pressure":934.3,"uv_index":9.1,"wind_gusts":36.4,"aqi":153,"pm10":70.8,"pm2_5":51.8,"no2":2.4,"co":247.0,"o3":176.0,"so2":13.9,"mosquito_risk":10,"arthritis_risk":5,"migraine_risk":7,"frizz_risk":1,"updated_at":"2026-05-12T16:04:28.255687+05:30"},{"city":"Jamshedpur","state":"Jharkhand","latitude":22.8046,"longitude":86.2029,"temp":34.7,"humidity":39,"rain":0.0,"pressure":986.2,"uv_index":9.1,"wind_gusts":41.8,"aqi":102,"pm10":61.5,"pm2_5":44.8,"no2":3.6,"co":229.0,"o3":180.0,"so2":17.7,"mosquito_risk":0,"arthritis_risk":5,"migraine_risk":7,"frizz_risk":1,"updated_at":"2026-05-12T16:04:28.255694+05:30"},{"city":"Dhanbad","state":"Jharkhand","latitude":23.7957,"longitude":86.4304,"temp":28.5,"humidity":67,"rain":0.1,"pressure":976.0,"uv_index":8.95,"wind_gusts":33.1,"aqi":125,"pm10":85.2,"pm2_5":66.4,"no2":17.6,"co":242.0,"o3":168.0,"so2":44.9,"mosquito_risk":10,"arthritis_risk":5,"migraine_risk":7,"frizz_risk":1,"updated_at":"2026-05-12T16:04:28.255701+05:30"},{"city":"Bokaro","state":"Jharkhand","latitude":23.6693,"longitude":86.1511,"temp":30.1,"humidity":62,"rain":0.0,"pressure":980.0,"uv_index":8.9,"wind_gusts":32.0,"aqi":140,"pm10":85.7,"pm2_5":70.1,"no2":16.3,"co":967.0,"o3":192.0,"so2":48.3,"mosquito_risk":3,"arthritis_risk":5,"migraine_risk":7,"frizz_risk":1,"updated_at":"2026-05-12T16:04:28.255709+05:30"},{"city":"Bhubaneswar","state":"Odisha","latitude":20.2961,"longitude":85.8245,"temp":32.0,"humidity":56,"rain":0.0,"pressure":998.1,"uv_index":9.15,"wind_gusts":34.2,"aqi":68,"pm10":21.8,"pm2_5":14.0,"no2":2.2,"co":184.0,"o3":93.0,"so2":3.1,"mosquito_risk":0,"arthritis_risk":5,"migraine_risk":7,"frizz_risk":1,"updated_at":"2026-05-12T16:04:28.255716+05:30"},{"city":"Cuttack","state":"Odisha","latitude":20.4625,"longitude":85.8828,"temp":33.0,"humidity":54,"rain":0.0,"pressure":999.6,"uv_index":9.2,"wind_gusts":33.8,"aqi":68,"pm10":21.8,"pm2_5":14.0,"no2":2.2,"co":181.0,"o3":93.0,"so2":3.1,"mosquito_risk":0,"arthritis_risk":5,"migraine_risk":7,"frizz_risk":1,"updated_at":"2026-05-12T16:04:28.255722+05:30"},{"city":"Rourkela","state":"Odisha","latitude":22.2604,"longitude":84.8536,"temp":36.5,"humidity":36,"rain":0.0,"pressure":979.8,"uv_index":9.0,"wind_gusts":40.3,"aqi":113,"pm10":65.9,"pm2_5":42.6,"no2":2.3,"co":213.0,"o3":183.0,"so2":27.1,"mosquito_risk":0,"arthritis_risk":5,"migraine_risk":10,"frizz_risk":1,"updated_at":"2026-05-12T16:04:28.255728+05:30"},{"city":"Raipur","state":"Chhattisgarh","latitude":21.2514,"longitude":81.6296,"temp":40.0,"humidity":20,"rain":0.0,"pressure":968.4,"uv_index":9.05,"wind_gusts":32.0,"aqi":200,"pm10":69.8,"pm2_5":29.8,"no2":6.2,"co":208.0,"o3":235.0,"so2":6.5,"mosquito_risk":0,"arthritis_risk":5,"migraine_risk":10,"frizz_risk":0,"updated_at":"2026-05-12T16:04:28.255735+05:30"},{"city":"Bhilai","state":"Chhattisgarh","latitude":21.1938,"longitude":81.3509,"temp":39.6,"humidity":20,"rain":0.0,"pressure":969.0,"uv_index":9.05,"wind_gusts":33.1,"aqi":158,"pm10":79.4,"pm2_5":28.4,"no2":7.1,"co":284.0,"o3":205.0,"so2":6.6,"mosquito_risk":0,"arthritis_risk":5,"migraine_risk":10,"frizz_risk":0,"updated_at":"2026-05-12T16:04:28.255741+05:30"},{"city":"Guwahati","state":"Assam","latitude":26.1158,"longitude":91.7086,"temp":27.1,"humidity":72,"rain":0.0,"pressure":998.6,"uv_index":8.65,"wind_gusts":29.2,"aqi":97,"pm10":29.0,"pm2_5":22.3,"no2":2.3,"co":313.0,"o3":142.0,"so2":1.3,"mosquito_risk":7,"arthritis_risk":5,"migraine_risk":7,"frizz_risk":1,"updated_at":"2026-05-12T16:04:28.255748+05:30"},{"city":"Agartala","state":"Tripura","latitude":23.8315,"longitude":91.2868,"temp":30.5,"humidity":59,"rain":0.0,"pressure":1002.4,"uv_index":8.85,"wind_gusts":19.8,"aqi":114,"pm10":34.0,"pm2_5":28.1,"no2":6.0,"co":294.0,"o3":186.0,"so2":1.5,"mosquito_risk":0,"arthritis_risk":5,"migraine_risk":4,"frizz_risk":1,"updated_at":"2026-05-12T16:04:28.255754+05:30"},{"city":"Shillong","state":"Meghalaya","latitude":25.5788,"longitude":91.8933,"temp":20.2,"humidity":73,"rain":0.0,"pressure":855.2,"uv_index":5.2,"wind_gusts":22.3,"aqi":111,"pm10":26.8,"pm2_5":21.1,"no2":1.7,"co":329.0,"o3":151.0,"so2":1.9,"mosquito_risk":3,"arthritis_risk":5,"migraine_risk":3,"frizz_risk":0,"updated_at":"2026-05-12T16:04:28.255761+05:30"},{"city":"Imphal","state":"Manipur","latitude":24.817,"longitude":93.9368,"temp":26.7,"humidity":55,"rain":0.0,"pressure":919.9,"uv_index":9.2,"wind_gusts":24.8,"aqi":92,"pm10":28.7,"pm2_5":20.1,"no2":2.8,"co":315.0,"o3":136.0,"so2":1.5,"mosquito_risk":4,"arthritis_risk":5,"migraine_risk":7,"frizz_risk":1,"updated_at":"2026-05-12T16:04:28.255768+05:30"},{"city":"Aizawl","state":"Mizoram","latitude":23.7271,"longitude":92.7176,"temp":24.4,"humidity":56,"rain":0.0,"pressure":890.3,"uv_index":9.05,"wind_gusts":24.5,"aqi":69,"pm10":27.3,"pm2_5":21.3,"no2":2.1,"co":251.0,"o3":120.0,"so2":0.8,"mosquito_risk":0,"arthritis_risk":5,"migraine_risk":7,"frizz_risk":0,"updated_at":"2026-05-12T16:04:28.255775+05:30"},{"city":"Kohima","state":"Nagaland","latitude":25.6701,"longitude":94.1077,"temp":21.5,"humidity":69,"rain":0.0,"pressure":853.2,"uv_index":8.3,"wind_gusts":29.9,"aqi":87,"pm10":23.3,"pm2_5":17.0,"no2":1.7,"co":291.0,"o3":132.0,"so2":0.9,"mosquito_risk":3,"arthritis_risk":5,"migraine_risk":7,"frizz_risk":0,"updated_at":"2026-05-12T16:04:28.255781+05:30"},{"city":"Gangtok","state":"Sikkim","latitude":27.3314,"longitude":88.6138,"temp":17.3,"humidity":88,"rain":0.1,"pressure":835.4,"uv_index":9.05,"wind_gusts":39.6,"aqi":95,"pm10":40.3,"pm2_5":29.9,"no2":2.3,"co":275.0,"o3":133.0,"so2":1.6,"mosquito_risk":6,"arthritis_risk":10,"migraine_risk":7,"frizz_risk":0,"updated_at":"2026-05-12T16:04:28.255789+05:30"},{"city":"Siliguri","state":"West Bengal","latitude":26.7271,"longitude":88.3953,"temp":26.7,"humidity":71,"rain":0.0,"pressure":990.2,"uv_index":8.5,"wind_gusts":24.5,"aqi":119,"pm10":45.8,"pm2_5":33.4,"no2":2.7,"co":447.0,"o3":144.0,"so2":1.8,"mosquito_risk":7,"arthritis_risk":5,"migraine_risk":7,"frizz_risk":1,"updated_at":"2026-05-12T16:04:31.544302+05:30"},{"city":"Durgapur","state":"West Bengal","latitude":23.5204,"longitude":87.3119,"temp":30.6,"humidity":67,"rain":0.0,"pressure":991.0,"uv_index":9.0,"wind_gusts":28.8,"aqi":105,"pm10":76.6,"pm2_5":58.0,"no2":13.6,"co":222.0,"o3":135.0,"so2":25.6,"mosquito_risk":3,"arthritis_risk":5,"migraine_risk":7,"frizz_risk":1,"updated_at":"2026-05-12T16:04:31.544339+05:30"},{"city":"Asansol","state":"West Bengal","latitude":23.6739,"longitude":86.9524,"temp":30.6,"humidity":62,"rain":0.0,"pressure":989.5,"uv_index":8.9,"wind_gusts":30.6,"aqi":98,"pm10":66.8,"pm2_5":49.9,"no2":12.1,"co":494.0,"o3":136.0,"so2":23.4,"mosquito_risk":3,"arthritis_risk":5,"migraine_risk":7,"frizz_risk":1,"updated_at":"2026-05-12T16:04:31.544351+05:30"},{"city":"Pondicherry","state":"Puducherry","latitude":11.9139,"longitude":79.8145,"temp":30.1,"humidity":75,"rain":0.0,"pressure":1002.6,"uv_index":9.1,"wind_gusts":36.4,"aqi":34,"pm10":11.5,"pm2_5":8.4,"no2":1.6,"co":124.0,"o3":78.0,"so2":2.7,"mosquito_risk":3,"arthritis_risk":5,"migraine_risk":4,"frizz_risk":1,"updated_at":"2026-05-12T16:04:31.544361+05:30"},{"city":"Port Blair","state":"Andaman and Nicobar Islands","latitude":11.6234,"longitude":92.7265,"temp":26.5,"humidity":90,"rain":0.1,"pressure":1003.5,"uv_index":2.15,"wind_gusts":27.4,"aqi":24,"pm10":4.1,"pm2_5":2.8,"no2":0.7,"co":115.0,"o3":48.0,"so2":0.1,"mosquito_risk":10,"arthritis_risk":5,"migraine_risk":0,"frizz_risk":1,"updated_at":"2026-05-12T16:04:31.544369+05:30"},{"city":"Haridwar","state":"Uttarakhand","latitude":29.9457,"longitude":78.1642,"temp":32.1,"humidity":47,"rain":0.0,"pressure":970.4,"uv_index":7.45,"wind_gusts":23.0,"aqi":164,"pm10":152.7,"pm2_5":50.3,"no2":2.3,"co":295.0,"o3":182.0,"so2":11.6,"mosquito_risk":0,"arthritis_risk":5,"migraine_risk":7,"frizz_risk":1,"updated_at":"2026-05-12T16:04:31.544377+05:30"},{"city":"Rishikesh","state":"Uttarakhand","latitude":30.0869,"longitude":78.2676,"temp":30.9,"humidity":49,"rain":0.0,"pressure":963.2,"uv_index":7.55,"wind_gusts":25.2,"aqi":163,"pm10":129.9,"pm2_5":45.8,"no2":0.8,"co":300.0,"o3":185.0,"so2":11.1,"mosquito_risk":0,"arthritis_risk":5,"migraine_risk":7,"frizz_risk":1,"updated_at":"2026-05-12T16:04:31.544385+05:30"},{"city":"Nainital","state":"Uttarakhand","latitude":29.3919,"longitude":79.4542,"temp":20.5,"humidity":61,"rain":0.0,"pressure":805.2,"uv_index":8.25,"wind_gusts":41.0,"aqi":149,"pm10":106.6,"pm2_5":43.2,"no2":1.0,"co":284.0,"o3":187.0,"so2":7.1,"mosquito_risk":3,"arthritis_risk":5,"migraine_risk":7,"frizz_risk":0,"updated_at":"2026-05-12T16:04:31.544392+05:30"},{"city":"Mussoorie","state":"Uttarakhand","latitude":30.4599,"longitude":78.0664,"temp":18.9,"humidity":67,"rain":0.0,"pressure":802.2,"uv_index":7.95,"wind_gusts":45.4,"aqi":162,"pm10":96.4,"pm2_5":39.6,"no2":1.4,"co":274.0,"o3":173.0,"so2":9.1,"mosquito_risk":3,"arthritis_risk":5,"migraine_risk":7,"frizz_risk":0,"updated_at":"2026-05-12T16:04:31.544400+05:30"},{"city":"Dharamshala","state":"Himachal Pradesh","latitude":32.219,"longitude":76.3234,"temp":24.5,"humidity":42,"rain":0.0,"pressure":867.8,"uv_index":8.35,"wind_gusts":42.8,"aqi":93,"pm10":45.4,"pm2_5":18.0,"no2":0.3,"co":249.0,"o3":147.0,"so2":1.9,"mosquito_risk":0,"arthritis_risk":5,"migraine_risk":7,"frizz_risk":0,"updated_at":"2026-05-12T16:04:31.544407+05:30"},{"city":"Dalhousie","state":"Himachal Pradesh","latitude":32.5387,"longitude":75.971,"temp":17.5,"humidity":67,"rain":0.0,"pressure":804.4,"uv_index":8.6,"wind_gusts":37.8,"aqi":126,"pm10":70.8,"pm2_5":29.2,"no2":0.9,"co":281.0,"o3":158.0,"so2":2.9,"mosquito_risk":3,"arthritis_risk":5,"migraine_risk":7,"frizz_risk":0,"updated_at":"2026-05-12T16:04:31.544415+05:30"},{"city":"Patiala","state":"Punjab","latitude":30.3398,"longitude":76.3869,"temp":34.0,"humidity":38,"rain":0.0,"pressure":974.0,"uv_index":7.55,"wind_gusts":39.2,"aqi":324,"pm10":501.1,"pm2_5":79.6,"no2":2.5,"co":329.0,"o3":189.0,"so2":15.3,"mosquito_risk":0,"arthritis_risk":5,"migraine_risk":7,"frizz_risk":1,"updated_at":"2026-05-12T16:04:31.544422+05:30"},{"city":"Bhatinda","state":"Punjab","latitude":30.211,"longitude":74.9455,"temp":38.8,"humidity":23,"rain":0.0,"pressure":977.8,"uv_index":8.2,"wind_gusts":37.4,"aqi":175,"pm10":197.0,"pm2_5":58.2,"no2":3.2,"co":359.0,"o3":176.0,"so2":14.9,"mosquito_risk":0,"arthritis_risk":5,"migraine_risk":10,"frizz_risk":0,"updated_at":"2026-05-12T16:04:31.544429+05:30"},{"city":"Rohtak","state":"Haryana","latitude":28.8955,"longitude":76.6066,"temp":35.3,"humidity":35,"rain":0.0,"pressure":977.2,"uv_index":7.7,"wind_gusts":54.0,"aqi":336,"pm10":545.8,"pm2_5":85.7,"no2":2.8,"co":371.0,"o3":200.0,"so2":12.2,"mosquito_risk":0,"arthritis_risk":5,"migraine_risk":10,"frizz_risk":1,"updated_at":"2026-05-12T16:04:31.544436+05:30"},{"city":"Panipat","state":"Haryana","latitude":29.3909,"longitude":76.9635,"temp":32.8,"humidity":46,"rain":0.0,"pressure":976.6,"uv_index":7.55,"wind_gusts":38.9,"aqi":595,"pm10":800.9,"pm2_5":110.8,"no2":4.3,"co":340.0,"o3":231.0,"so2":22.6,"mosquito_risk":0,"arthritis_risk":5,"migraine_risk":7,"frizz_risk":1,"updated_at":"2026-05-12T16:04:31.544443+05:30"},{"city":"Mathura","state":"Uttar Pradesh","latitude":27.4924,"longitude":77.6737,"temp":36.3,"humidity":35,"rain":0.0,"pressure":980.9,"uv_index":7.95,"wind_gusts":70.9,"aqi":400,"pm10":407.9,"pm2_5":62.4,"no2":2.2,"co":321.0,"o3":176.0,"so2":7.2,"mosquito_risk":0,"arthritis_risk":5,"migraine_risk":10,"frizz_risk":1,"updated_at":"2026-05-12T16:04:31.544450+05:30"},{"city":"Vrindavan","state":"Uttar Pradesh","latitude":27.5823,"longitude":77.7027,"temp":36.4,"humidity":34,"rain":0.0,"pressure":981.3,"uv_index":7.95,"wind_gusts":70.9,"aqi":400,"pm10":407.9,"pm2_5":62.4,"no2":2.2,"co":329.0,"o3":176.0,"so2":7.2,"mosquito_risk":0,"arthritis_risk":5,"migraine_risk":10,"frizz_risk":1,"updated_at":"2026-05-12T16:04:31.544458+05:30"},{"city":"Ayodhya","state":"Uttar Pradesh","latitude":26.7922,"longitude":82.1998,"temp":34.3,"humidity":44,"rain":0.0,"pressure":990.4,"uv_index":8.3,"wind_gusts":36.4,"aqi":163,"pm10":57.4,"pm2_5":42.6,"no2":1.4,"co":352.0,"o3":189.0,"so2":9.4,"mosquito_risk":0,"arthritis_risk":5,"migraine_risk":7,"frizz_risk":1,"updated_at":"2026-05-12T16:04:31.544465+05:30"},{"city":"Ratlam","state":"Madhya Pradesh","latitude":23.3315,"longitude":75.0367,"temp":41.2,"humidity":12,"rain":0.0,"pressure":949.4,"uv_index":8.55,"wind_gusts":41.0,"aqi":94,"pm10":59.8,"pm2_5":15.7,"no2":0.6,"co":163.0,"o3":142.0,"so2":4.5,"mosquito_risk":0,"arthritis_risk":5,"migraine_risk":10,"frizz_risk":0,"updated_at":"2026-05-12T16:04:31.544472+05:30"},{"city":"Sagar","state":"Madhya Pradesh","latitude":23.8388,"longitude":78.7378,"temp":40.0,"humidity":16,"rain":0.0,"pressure":945.7,"uv_index":8.75,"wind_gusts":32.8,"aqi":143,"pm10":104.1,"pm2_5":26.1,"no2":0.2,"co":212.0,"o3":148.0,"so2":4.4,"mosquito_risk":0,"arthritis_risk":5,"migraine_risk":10,"frizz_risk":0,"updated_at":"2026-05-12T16:04:31.544479+05:30"},{"city":"Satna","state":"Madhya Pradesh","latitude":24.6005,"longitude":80.8322,"temp":39.8,"humidity":19,"rain":0.0,"pressure":965.9,"uv_index":8.75,"wind_gusts":47.9,"aqi":154,"pm10":78.5,"pm2_5":28.2,"no2":0.8,"co":266.0,"o3":157.0,"so2":4.7,"mosquito_risk":0,"arthritis_risk":5,"migraine_risk":10,"frizz_risk":0,"updated_at":"2026-05-12T16:04:31.544486+05:30"},{"city":"Akola","state":"Maharashtra","latitude":20.7002,"longitude":77.0082,"temp":42.0,"humidity":16,"rain":0.0,"pressure":968.7,"uv_index":8.9,"wind_gusts":34.6,"aqi":139,"pm10":93.1,"pm2_5":28.6,"no2":1.7,"co":219.0,"o3":176.0,"so2":10.3,"mosquito_risk":0,"arthritis_risk":5,"migraine_risk":10,"frizz_risk":0,"updated_at":"2026-05-12T16:04:31.544495+05:30"},{"city":"Amravati","state":"Maharashtra","latitude":20.9374,"longitude":77.7796,"temp":41.1,"humidity":15,"rain":0.0,"pressure":961.4,"uv_index":8.9,"wind_gusts":44.3,"aqi":137,"pm10":90.8,"pm2_5":27.9,"no2":1.7,"co":211.0,"o3":174.0,"so2":4.8,"mosquito_risk":0,"arthritis_risk":5,"migraine_risk":10,"frizz_risk":0,"updated_at":"2026-05-12T16:04:31.544502+05:30"},{"city":"Latur","state":"Maharashtra","latitude":18.4088,"longitude":76.5604,"temp":40.3,"humidity":15,"rain":0.0,"pressure":934.3,"uv_index":9.05,"wind_gusts":38.9,"aqi":112,"pm10":49.6,"pm2_5":21.0,"no2":1.2,"co":204.0,"o3":161.0,"so2":8.5,"mosquito_risk":0,"arthritis_risk":5,"migraine_risk":10,"frizz_risk":0,"updated_at":"2026-05-12T16:04:31.544510+05:30"},{"city":"Nanded","state":"Maharashtra","latitude":19.1383,"longitude":77.3091,"temp":41.5,"humidity":17,"rain":0.0,"pressure":962.2,"uv_index":9.05,"wind_gusts":34.6,"aqi":119,"pm10":57.6,"pm2_5":20.4,"no2":1.0,"co":219.0,"o3":157.0,"so2":5.0,"mosquito_risk":0,"arthritis_risk":5,"migraine_risk":10,"frizz_risk":0,"updated_at":"2026-05-12T16:04:31.544517+05:30"},{"city":"Gulbarga","state":"Karnataka","latitude":17.3297,"longitude":76.8343,"temp":40.7,"humidity":16,"rain":0.0,"pressure":952.4,"uv_index":8.7,"wind_gusts":43.6,"aqi":111,"pm10":46.2,"pm2_5":20.8,"no2":1.6,"co":211.0,"o3":172.0,"so2":6.2,"mosquito_risk":0,"arthritis_risk":5,"migraine_risk":10,"frizz_risk":0,"updated_at":"2026-05-12T16:04:31.544524+05:30"},{"city":"Bidar","state":"Karnataka","latitude":17.9104,"longitude":77.5199,"temp":37.4,"humidity":22,"rain":0.0,"pressure":930.9,"uv_index":9.15,"wind_gusts":39.2,"aqi":101,"pm10":45.9,"pm2_5":19.9,"no2":1.1,"co":210.0,"o3":160.0,"so2":4.5,"mosquito_risk":0,"arthritis_risk":5,"migraine_risk":10,"frizz_risk":0,"updated_at":"2026-05-12T16:04:31.544531+05:30"},{"city":"Hospet","state":"Karnataka","latitude":15.2689,"longitude":76.3909,"temp":36.3,"humidity":33,"rain":0.0,"pressure":950.2,"uv_index":9.2,"wind_gusts":28.4,"aqi":92,"pm10":45.8,"pm2_5":23.5,"no2":2.3,"co":220.0,"o3":185.0,"so2":6.8,"mosquito_risk":0,"arthritis_risk":5,"migraine_risk":10,"frizz_risk":1,"updated_at":"2026-05-12T16:04:31.544538+05:30"},{"city":"Tirupur","state":"Tamil Nadu","latitude":11.1085,"longitude":77.3411,"temp":36.0,"humidity":34,"rain":0.0,"pressure":969.1,"uv_index":9.25,"wind_gusts":29.9,"aqi":151,"pm10":33.3,"pm2_5":19.0,"no2":2.9,"co":260.0,"o3":182.0,"so2":4.0,"mosquito_risk":0,"arthritis_risk":5,"migraine_risk":10,"frizz_risk":1,"updated_at":"2026-05-12T16:04:31.544544+05:30"},{"city":"Alappuzha","state":"Kerala","latitude":9.4981,"longitude":76.3388,"temp":29.3,"humidity":79,"rain":0.1,"pressure":1003.3,"uv_index":8.75,"wind_gusts":36.4,"aqi":75,"pm10":26.3,"pm2_5":17.9,"no2":2.8,"co":155.0,"o3":131.0,"so2":2.6,"mosquito_risk":10,"arthritis_risk":5,"migraine_risk":4,"frizz_risk":1,"updated_at":"2026-05-12T16:04:31.544551+05:30"},{"city":"Munnar","state":"Kerala","latitude":10.0889,"longitude":77.0595,"temp":22.6,"humidity":62,"rain":0.0,"pressure":853.9,"uv_index":9.1,"wind_gusts":22.3,"aqi":86,"pm10":36.1,"pm2_5":19.4,"no2":1.5,"co":192.0,"o3":145.0,"so2":2.8,"mosquito_risk":3,"arthritis_risk":5,"migraine_risk":7,"frizz_risk":0,"updated_at":"2026-05-12T16:04:31.544558+05:30"},{"city":"Silchar","state":"Assam","latitude":24.8333,"longitude":92.7789,"temp":30.3,"humidity":61,"rain":0.0,"pressure":1001.0,"uv_index":8.85,"wind_gusts":25.6,"aqi":115,"pm10":32.6,"pm2_5":26.4,"no2":2.6,"co":365.0,"o3":145.0,"so2":4.0,"mosquito_risk":3,"arthritis_risk":5,"migraine_risk":4,"frizz_risk":1,"updated_at":"2026-05-12T16:04:31.544565+05:30"},{"city":"Dibrugarh","state":"Assam","latitude":27.4728,"longitude":94.912,"temp":29.4,"humidity":56,"rain":0.0,"pressure":991.3,"uv_index":8.8,"wind_gusts":18.4,"aqi":91,"pm10":17.8,"pm2_5":12.9,"no2":2.8,"co":242.0,"o3":123.0,"so2":1.1,"mosquito_risk":4,"arthritis_risk":5,"migraine_risk":7,"frizz_risk":1,"updated_at":"2026-05-12T16:04:31.544571+05:30"}]