[{"city":"Delhi","state":"Delhi","latitude":28.6139,"longitude":77.209,"temp":28.1,"humidity":91,"rain":0.1,"pressure":979.1,"uv_index":6.25,"wind_gusts":21.6,"aqi":206,"pm10":184.9,"pm2_5":68.0,"no2":32.7,"co":693.0,"o3":52.0,"so2":26.5,"mosquito_risk":10,"arthritis_risk":5,"migraine_risk":7,"frizz_risk":1,"updated_at":"2026-07-20T09:26:21.170107+05:30"},{"city":"Mumbai","state":"Maharashtra","latitude":19.076,"longitude":72.8777,"temp":26.6,"humidity":88,"rain":0.1,"pressure":1007.1,"uv_index":7.4,"wind_gusts":47.5,"aqi":56,"pm10":32.5,"pm2_5":14.1,"no2":8.8,"co":345.0,"o3":45.0,"so2":7.3,"mosquito_risk":10,"arthritis_risk":5,"migraine_risk":4,"frizz_risk":1,"updated_at":"2026-07-20T09:26:21.170150+05:30"},{"city":"Bangalore","state":"Karnataka","latitude":12.9716,"longitude":77.5946,"temp":23.9,"humidity":71,"rain":0.0,"pressure":913.3,"uv_index":9.1,"wind_gusts":54.0,"aqi":48,"pm10":9.2,"pm2_5":5.3,"no2":8.2,"co":339.0,"o3":34.0,"so2":4.2,"mosquito_risk":3,"arthritis_risk":5,"migraine_risk":7,"frizz_risk":1,"updated_at":"2026-07-20T09:26:21.170162+05:30"},{"city":"Hyderabad","state":"Telangana","latitude":17.385,"longitude":78.4867,"temp":26.6,"humidity":73,"rain":0.1,"pressure":952.8,"uv_index":7.95,"wind_gusts":50.8,"aqi":41,"pm10":6.7,"pm2_5":5.0,"no2":6.1,"co":264.0,"o3":36.0,"so2":4.6,"mosquito_risk":10,"arthritis_risk":5,"migraine_risk":7,"frizz_risk":1,"updated_at":"2026-07-20T09:26:21.170170+05:30"},{"city":"Chennai","state":"Tamil Nadu","latitude":13.0827,"longitude":80.2707,"temp":29.6,"humidity":75,"rain":0.0,"pressure":1007.6,"uv_index":3.8,"wind_gusts":43.9,"aqi":76,"pm10":40.9,"pm2_5":28.2,"no2":19.8,"co":469.0,"o3":52.0,"so2":15.0,"mosquito_risk":7,"arthritis_risk":5,"migraine_risk":0,"frizz_risk":1,"updated_at":"2026-07-20T09:26:21.170177+05:30"},{"city":"Kolkata","state":"West Bengal","latitude":22.5726,"longitude":88.3639,"temp":28.8,"humidity":85,"rain":0.0,"pressure":1003.8,"uv_index":4.55,"wind_gusts":28.4,"aqi":72,"pm10":35.2,"pm2_5":24.6,"no2":4.7,"co":309.0,"o3":112.0,"so2":9.5,"mosquito_risk":7,"arthritis_risk":5,"migraine_risk":0,"frizz_risk":1,"updated_at":"2026-07-20T09:26:21.170184+05:30"},{"city":"Pune","state":"Maharashtra","latitude":18.5204,"longitude":73.8567,"temp":24.6,"humidity":82,"rain":0.0,"pressure":946.7,"uv_index":5.2,"wind_gusts":51.1,"aqi":21,"pm10":5.2,"pm2_5":3.1,"no2":6.4,"co":165.0,"o3":39.0,"so2":5.6,"mosquito_risk":3,"arthritis_risk":5,"migraine_risk":3,"frizz_risk":1,"updated_at":"2026-07-20T09:26:21.170190+05:30"},{"city":"Ahmedabad","state":"Gujarat","latitude":23.0225,"longitude":72.5714,"temp":29.7,"humidity":73,"rain":0.1,"pressure":998.3,"uv_index":6.85,"wind_gusts":35.6,"aqi":63,"pm10":23.8,"pm2_5":12.0,"no2":6.6,"co":175.0,"o3":39.0,"so2":6.2,"mosquito_risk":10,"arthritis_risk":5,"migraine_risk":7,"frizz_risk":1,"updated_at":"2026-07-20T09:26:21.170196+05:30"},{"city":"Jaipur","state":"Rajasthan","latitude":26.9124,"longitude":75.7873,"temp":31.9,"humidity":53,"rain":0.0,"pressure":956.2,"uv_index":5.35,"wind_gusts":28.8,"aqi":131,"pm10":199.3,"pm2_5":42.1,"no2":10.6,"co":239.0,"o3":53.0,"so2":7.3,"mosquito_risk":0,"arthritis_risk":5,"migraine_risk":3,"frizz_risk":1,"updated_at":"2026-07-20T09:26:21.170202+05:30"},{"city":"Lucknow","state":"Uttar Pradesh","latitude":26.8467,"longitude":80.9462,"temp":28.4,"humidity":84,"rain":0.0,"pressure":990.3,"uv_index":7.85,"wind_gusts":28.4,"aqi":134,"pm10":27.8,"pm2_5":19.4,"no2":7.8,"co":377.0,"o3":102.0,"so2":7.1,"mosquito_risk":7,"arthritis_risk":5,"migraine_risk":7,"frizz_risk":1,"updated_at":"2026-07-20T09:26:21.170207+05:30"},{"city":"Kanpur","state":"Uttar Pradesh","latitude":26.4499,"longitude":80.3319,"temp":25.9,"humidity":98,"rain":0.2,"pressure":988.9,"uv_index":7.35,"wind_gusts":23.4,"aqi":115,"pm10":20.8,"pm2_5":12.7,"no2":8.6,"co":201.0,"o3":80.0,"so2":4.7,"mosquito_risk":10,"arthritis_risk":5,"migraine_risk":7,"frizz_risk":1,"updated_at":"2026-07-20T09:26:21.170213+05:30"},{"city":"Chandigarh","state":"Chandigarh","latitude":30.7333,"longitude":76.7794,"temp":25.7,"humidity":97,"rain":1.0,"pressure":964.7,"uv_index":1.5,"wind_gusts":27.7,"aqi":162,"pm10":227.2,"pm2_5":72.2,"no2":10.8,"co":493.0,"o3":105.0,"so2":18.4,"mosquito_risk":10,"arthritis_risk":5,"migraine_risk":3,"frizz_risk":1,"updated_at":"2026-07-20T09:26:21.170218+05:30"},{"city":"Srinagar","state":"Jammu and Kashmir","latitude":34.0837,"longitude":74.7973,"temp":23.1,"humidity":83,"rain":0.0,"pressure":839.5,"uv_index":9.05,"wind_gusts":18.7,"aqi":73,"pm10":20.8,"pm2_5":16.5,"no2":6.5,"co":372.0,"o3":104.0,"so2":5.7,"mosquito_risk":3,"arthritis_risk":5,"migraine_risk":7,"frizz_risk":1,"updated_at":"2026-07-20T09:26:21.170223+05:30"},{"city":"Jammu","state":"Jammu and Kashmir","latitude":32.7266,"longitude":74.857,"temp":28.2,"humidity":84,"rain":0.1,"pressure":967.8,"uv_index":7.2,"wind_gusts":25.9,"aqi":131,"pm10":76.1,"pm2_5":35.5,"no2":10.5,"co":260.0,"o3":92.0,"so2":3.8,"mosquito_risk":10,"arthritis_risk":5,"migraine_risk":7,"frizz_risk":1,"updated_at":"2026-07-20T09:26:21.170235+05:30"},{"city":"Amritsar","state":"Punjab","latitude":31.634,"longitude":74.8723,"temp":29.3,"humidity":82,"rain":0.0,"pressure":975.6,"uv_index":7.55,"wind_gusts":33.5,"aqi":177,"pm10":407.9,"pm2_5":138.3,"no2":13.5,"co":392.0,"o3":80.0,"so2":13.5,"mosquito_risk":7,"arthritis_risk":5,"migraine_risk":7,"frizz_risk":1,"updated_at":"2026-07-20T09:26:21.170241+05:30"},{"city":"Ludhiana","state":"Punjab","latitude":30.901,"longitude":75.8573,"temp":28.6,"humidity":84,"rain":0.0,"pressure":974.0,"uv_index":7.05,"wind_gusts":31.0,"aqi":192,"pm10":237.0,"pm2_5":81.5,"no2":12.9,"co":375.0,"o3":85.0,"so2":15.7,"mosquito_risk":7,"arthritis_risk":5,"migraine_risk":7,"frizz_risk":1,"updated_at":"2026-07-20T09:26:21.170246+05:30"},{"city":"Jalandhar","state":"Punjab","latitude":31.326,"longitude":75.5762,"temp":26.9,"humidity":92,"rain":0.1,"pressure":975.1,"uv_index":2.8,"wind_gusts":31.7,"aqi":183,"pm10":298.0,"pm2_5":105.2,"no2":14.9,"co":330.0,"o3":82.0,"so2":16.4,"mosquito_risk":10,"arthritis_risk":5,"migraine_risk":3,"frizz_risk":1,"updated_at":"2026-07-20T09:26:21.170250+05:30"},{"city":"Dehradun","state":"Uttarakhand","latitude":30.6284,"longitude":78.0322,"temp":19.2,"humidity":96,"rain":0.6,"pressure":828.4,"uv_index":0.8,"wind_gusts":17.3,"aqi":55,"pm10":35.0,"pm2_5":14.4,"no2":3.9,"co":227.0,"o3":95.0,"so2":3.0,"mosquito_risk":6,"arthritis_risk":10,"migraine_risk":3,"frizz_risk":1,"updated_at":"2026-07-20T09:26:21.170256+05:30"},{"city":"Shimla","state":"Himachal Pradesh","latitude":31.1048,"longitude":77.1734,"temp":16.9,"humidity":99,"rain":0.0,"pressure":783.1,"uv_index":4.4,"wind_gusts":21.6,"aqi":84,"pm10":101.5,"pm2_5":35.9,"no2":5.6,"co":220.0,"o3":102.0,"so2":4.9,"mosquito_risk":3,"arthritis_risk":10,"migraine_risk":3,"frizz_risk":1,"updated_at":"2026-07-20T09:26:21.170261+05:30"},{"city":"Manali","state":"Himachal Pradesh","latitude":32.2396,"longitude":77.1887,"temp":21.7,"humidity":94,"rain":0.1,"pressure":817.7,"uv_index":8.6,"wind_gusts":27.4,"aqi":36,"pm10":5.5,"pm2_5":5.0,"no2":12.4,"co":185.0,"o3":52.0,"so2":0.4,"mosquito_risk":6,"arthritis_risk":5,"migraine_risk":7,"frizz_risk":1,"updated_at":"2026-07-20T09:26:21.170268+05:30"},{"city":"Gurgaon","state":"Haryana","latitude":28.4595,"longitude":77.0266,"temp":27.9,"humidity":93,"rain":0.2,"pressure":977.6,"uv_index":5.4,"wind_gusts":25.6,"aqi":392,"pm10":192.3,"pm2_5":65.7,"no2":25.4,"co":494.0,"o3":50.0,"so2":13.3,"mosquito_risk":10,"arthritis_risk":5,"migraine_risk":3,"frizz_risk":1,"updated_at":"2026-07-20T09:26:21.170275+05:30"},{"city":"Noida","state":"Uttar Pradesh","latitude":28.5355,"longitude":77.391,"temp":27.7,"humidity":94,"rain":0.0,"pressure":980.6,"uv_index":5.25,"wind_gusts":24.8,"aqi":392,"pm10":192.3,"pm2_5":65.7,"no2":25.4,"co":472.0,"o3":50.0,"so2":13.3,"mosquito_risk":7,"arthritis_risk":5,"migraine_risk":3,"frizz_risk":1,"updated_at":"2026-07-20T09:26:21.170280+05:30"},{"city":"Ghaziabad","state":"Uttar Pradesh","latitude":28.6692,"longitude":77.4538,"temp":27.8,"humidity":92,"rain":0.2,"pressure":978.8,"uv_index":5.45,"wind_gusts":29.2,"aqi":168,"pm10":78.0,"pm2_5":31.8,"no2":14.1,"co":318.0,"o3":63.0,"so2":8.6,"mosquito_risk":10,"arthritis_risk":5,"migraine_risk":3,"frizz_risk":1,"updated_at":"2026-07-20T09:26:21.170285+05:30"},{"city":"Faridabad","state":"Haryana","latitude":28.4089,"longitude":77.3178,"temp":27.5,"humidity":93,"rain":0.1,"pressure":979.9,"uv_index":4.35,"wind_gusts":31.3,"aqi":392,"pm10":192.3,"pm2_5":65.7,"no2":25.4,"co":479.0,"o3":50.0,"so2":13.3,"mosquito_risk":10,"arthritis_risk":5,"migraine_risk":3,"frizz_risk":1,"updated_at":"2026-07-20T09:26:21.170290+05:30"},{"city":"Meerut","state":"Uttar Pradesh","latitude":28.9845,"longitude":77.7064,"temp":27.1,"humidity":92,"rain":0.1,"pressure":977.9,"uv_index":5.75,"wind_gusts":27.0,"aqi":168,"pm10":78.0,"pm2_5":31.8,"no2":14.1,"co":370.0,"o3":63.0,"so2":8.6,"mosquito_risk":10,"arthritis_risk":5,"migraine_risk":3,"frizz_risk":1,"updated_at":"2026-07-20T09:26:21.170295+05:30"},{"city":"Agra","state":"Uttar Pradesh","latitude":27.1767,"longitude":78.0081,"temp":28.0,"humidity":91,"rain":0.1,"pressure":984.5,"uv_index":2.5,"wind_gusts":25.2,"aqi":92,"pm10":25.1,"pm2_5":19.8,"no2":15.9,"co":214.0,"o3":50.0,"so2":9.0,"mosquito_risk":10,"arthritis_risk":5,"migraine_risk":3,"frizz_risk":1,"updated_at":"2026-07-20T09:26:21.170300+05:30"},{"city":"Varanasi","state":"Uttar Pradesh","latitude":25.3176,"longitude":82.9739,"temp":27.4,"humidity":89,"rain":0.1,"pressure":994.5,"uv_index":8.0,"wind_gusts":18.4,"aqi":116,"pm10":40.0,"pm2_5":37.5,"no2":14.2,"co":371.0,"o3":98.0,"so2":20.6,"mosquito_risk":10,"arthritis_risk":5,"migraine_risk":7,"frizz_risk":1,"updated_at":"2026-07-20T09:26:21.170306+05:30"},{"city":"Prayagraj","state":"Uttar Pradesh","latitude":25.4358,"longitude":81.8463,"temp":29.9,"humidity":80,"rain":0.0,"pressure":992.9,"uv_index":7.3,"wind_gusts":24.8,"aqi":122,"pm10":35.7,"pm2_5":31.3,"no2":10.5,"co":262.0,"o3":111.0,"so2":14.6,"mosquito_risk":7,"arthritis_risk":5,"migraine_risk":7,"frizz_risk":1,"updated_at":"2026-07-20T09:26:21.170310+05:30"},{"city":"Gorakhpur","state":"Uttar Pradesh","latitude":26.7606,"longitude":83.3732,"temp":26.5,"humidity":95,"rain":0.2,"pressure":994.8,"uv_index":8.4,"wind_gusts":24.8,"aqi":70,"pm10":9.9,"pm2_5":9.9,"no2":8.7,"co":323.0,"o3":94.0,"so2":8.8,"mosquito_risk":10,"arthritis_risk":5,"migraine_risk":7,"frizz_risk":1,"updated_at":"2026-07-20T09:26:21.170315+05:30"},{"city":"Bareilly","state":"Uttar Pradesh","latitude":28.367,"longitude":79.4304,"temp":26.1,"humidity":95,"rain":0.4,"pressure":983.6,"uv_index":5.6,"wind_gusts":23.8,"aqi":107,"pm10":21.6,"pm2_5":19.3,"no2":12.7,"co":295.0,"o3":81.0,"so2":3.7,"mosquito_risk":10,"arthritis_risk":5,"migraine_risk":3,"frizz_risk":1,"updated_at":"2026-07-20T09:26:21.170322+05:30"},{"city":"Aligarh","state":"Uttar Pradesh","latitude":27.8974,"longitude":78.088,"temp":27.9,"humidity":86,"rain":0.1,"pressure":982.0,"uv_index":3.6,"wind_gusts":23.4,"aqi":152,"pm10":66.6,"pm2_5":30.4,"no2":13.9,"co":250.0,"o3":59.0,"so2":7.0,"mosquito_risk":10,"arthritis_risk":5,"migraine_risk":3,"frizz_risk":1,"updated_at":"2026-07-20T09:26:21.170327+05:30"},{"city":"Moradabad","state":"Uttar Pradesh","latitude":28.8386,"longitude":78.7733,"temp":25.9,"humidity":96,"rain":0.1,"pressure":980.5,"uv_index":5.25,"wind_gusts":25.9,"aqi":133,"pm10":28.5,"pm2_5":16.9,"no2":10.1,"co":280.0,"o3":89.0,"so2":7.0,"mosquito_risk":10,"arthritis_risk":5,"migraine_risk":3,"frizz_risk":1,"updated_at":"2026-07-20T09:26:21.170332+05:30"},{"city":"Saharanpur","state":"Uttar Pradesh","latitude":29.9637,"longitude":77.546,"temp":26.3,"humidity":93,"rain":0.3,"pressure":972.0,"uv_index":4.9,"wind_gusts":24.5,"aqi":156,"pm10":46.3,"pm2_5":19.1,"no2":6.9,"co":281.0,"o3":79.0,"so2":8.6,"mosquito_risk":10,"arthritis_risk":5,"migraine_risk":3,"frizz_risk":1,"updated_at":"2026-07-20T09:26:21.170337+05:30"},{"city":"Jhansi","state":"Uttar Pradesh","latitude":25.4484,"longitude":78.5685,"temp":29.1,"humidity":77,"rain":0.0,"pressure":974.7,"uv_index":3.3,"wind_gusts":25.9,"aqi":84,"pm10":20.3,"pm2_5":15.6,"no2":11.0,"co":226.0,"o3":52.0,"so2":6.0,"mosquito_risk":7,"arthritis_risk":5,"migraine_risk":3,"frizz_risk":1,"updated_at":"2026-07-20T09:26:24.526375+05:30"},{"city":"Surat","state":"Gujarat","latitude":21.1702,"longitude":72.8311,"temp":27.1,"humidity":92,"rain":0.2,"pressure":1003.8,"uv_index":6.55,"wind_gusts":49.3,"aqi":65,"pm10":27.0,"pm2_5":20.2,"no2":23.3,"co":518.0,"o3":23.0,"so2":52.3,"mosquito_risk":10,"arthritis_risk":5,"migraine_risk":4,"frizz_risk":1,"updated_at":"2026-07-20T09:26:24.526407+05:30"},{"city":"Vadodara","state":"Gujarat","latitude":22.3072,"longitude":73.1812,"temp":29.0,"humidity":77,"rain":0.1,"pressure":1001.0,"uv_index":7.05,"wind_gusts":40.0,"aqi":63,"pm10":20.3,"pm2_5":10.9,"no2":9.2,"co":180.0,"o3":35.0,"so2":8.9,"mosquito_risk":10,"arthritis_risk":5,"migraine_risk":4,"frizz_risk":1,"updated_at":"2026-07-20T09:26:24.526416+05:30"},{"city":"Rajkot","state":"Gujarat","latitude":22.3039,"longitude":70.8022,"temp":28.2,"humidity":79,"rain":0.0,"pressure":990.0,"uv_index":6.6,"wind_gusts":53.3,"aqi":59,"pm10":24.6,"pm2_5":10.4,"no2":3.6,"co":112.0,"o3":45.0,"so2":4.0,"mosquito_risk":7,"arthritis_risk":5,"migraine_risk":7,"frizz_risk":1,"updated_at":"2026-07-20T09:26:24.526423+05:30"},{"city":"Thane","state":"Maharashtra","latitude":19.2183,"longitude":72.9781,"temp":26.2,"humidity":93,"rain":0.1,"pressure":1006.5,"uv_index":7.5,"wind_gusts":36.4,"aqi":56,"pm10":32.5,"pm2_5":14.1,"no2":8.8,"co":248.0,"o3":45.0,"so2":7.3,"mosquito_risk":10,"arthritis_risk":5,"migraine_risk":4,"frizz_risk":1,"updated_at":"2026-07-20T09:26:24.526431+05:30"},{"city":"Nagpur","state":"Maharashtra","latitude":21.1458,"longitude":79.0882,"temp":28.6,"humidity":77,"rain":0.0,"pressure":971.0,"uv_index":7.6,"wind_gusts":30.2,"aqi":67,"pm10":15.2,"pm2_5":12.5,"no2":12.8,"co":215.0,"o3":42.0,"so2":12.8,"mosquito_risk":7,"arthritis_risk":5,"migraine_risk":7,"frizz_risk":1,"updated_at":"2026-07-20T09:26:24.526437+05:30"},{"city":"Nashik","state":"Maharashtra","latitude":19.9975,"longitude":73.7898,"temp":23.9,"humidity":89,"rain":0.0,"pressure":943.3,"uv_index":7.35,"wind_gusts":51.5,"aqi":22,"pm10":4.2,"pm2_5":2.4,"no2":5.3,"co":139.0,"o3":40.0,"so2":4.9,"mosquito_risk":3,"arthritis_risk":5,"migraine_risk":7,"frizz_risk":1,"updated_at":"2026-07-20T09:26:24.526443+05:30"},{"city":"Aurangabad","state":"Maharashtra","latitude":19.8762,"longitude":75.3433,"temp":25.8,"humidity":79,"rain":0.1,"pressure":942.5,"uv_index":6.9,"wind_gusts":53.3,"aqi":32,"pm10":5.5,"pm2_5":3.5,"no2":4.7,"co":143.0,"o3":41.0,"so2":7.5,"mosquito_risk":10,"arthritis_risk":5,"migraine_risk":7,"frizz_risk":1,"updated_at":"2026-07-20T09:26:24.526449+05:30"},{"city":"Solapur","state":"Maharashtra","latitude":17.6599,"longitude":75.9064,"temp":27.2,"humidity":69,"rain":0.0,"pressure":956.8,"uv_index":7.3,"wind_gusts":47.5,"aqi":35,"pm10":2.9,"pm2_5":2.8,"no2":4.0,"co":122.0,"o3":41.0,"so2":2.9,"mosquito_risk":7,"arthritis_risk":5,"migraine_risk":7,"frizz_risk":1,"updated_at":"2026-07-20T09:26:24.526455+05:30"},{"city":"Kolhapur","state":"Maharashtra","latitude":16.705,"longitude":74.2433,"temp":23.9,"humidity":85,"rain":0.0,"pressure":947.8,"uv_index":8.75,"wind_gusts":47.9,"aqi":27,"pm10":5.3,"pm2_5":4.0,"no2":4.8,"co":142.0,"o3":38.0,"so2":2.3,"mosquito_risk":3,"arthritis_risk":5,"migraine_risk":7,"frizz_risk":1,"updated_at":"2026-07-20T09:26:24.526460+05:30"},{"city":"Goa","state":"Goa","latitude":15.2993,"longitude":74.124,"temp":25.3,"humidity":96,"rain":0.3,"pressure":999.7,"uv_index":5.1,"wind_gusts":34.6,"aqi":59,"pm10":21.0,"pm2_5":10.2,"no2":1.8,"co":171.0,"o3":48.0,"so2":0.9,"mosquito_risk":10,"arthritis_risk":5,"migraine_risk":3,"frizz_risk":1,"updated_at":"2026-07-20T09:26:24.526466+05:30"},{"city":"Jodhpur","state":"Rajasthan","latitude":26.2389,"longitude":73.0243,"temp":31.6,"humidity":58,"rain":0.0,"pressure":978.5,"uv_index":7.05,"wind_gusts":37.1,"aqi":85,"pm10":208.6,"pm2_5":49.1,"no2":3.2,"co":124.0,"o3":51.0,"so2":3.4,"mosquito_risk":0,"arthritis_risk":5,"migraine_risk":7,"frizz_risk":1,"updated_at":"2026-07-20T09:26:24.526472+05:30"},{"city":"Udaipur","state":"Rajasthan","latitude":24.5854,"longitude":73.7125,"temp":26.8,"humidity":72,"rain":0.0,"pressure":943.2,"uv_index":6.75,"wind_gusts":32.8,"aqi":65,"pm10":28.7,"pm2_5":15.7,"no2":5.9,"co":120.0,"o3":47.0,"so2":7.4,"mosquito_risk":7,"arthritis_risk":5,"migraine_risk":7,"frizz_risk":1,"updated_at":"2026-07-20T09:26:24.526478+05:30"},{"city":"Kota","state":"Rajasthan","latitude":25.2138,"longitude":75.8648,"temp":29.7,"humidity":68,"rain":0.0,"pressure":975.4,"uv_index":1.05,"wind_gusts":29.2,"aqi":76,"pm10":24.3,"pm2_5":17.5,"no2":9.3,"co":185.0,"o3":59.0,"so2":9.9,"mosquito_risk":7,"arthritis_risk":5,"migraine_risk":3,"frizz_risk":1,"updated_at":"2026-07-20T09:26:24.526483+05:30"},{"city":"Bikaner","state":"Rajasthan","latitude":28.0229,"longitude":73.3119,"temp":33.6,"humidity":48,"rain":0.0,"pressure":976.8,"uv_index":7.85,"wind_gusts":36.7,"aqi":107,"pm10":118.0,"pm2_5":36.1,"no2":1.7,"co":125.0,"o3":59.0,"so2":3.0,"mosquito_risk":0,"arthritis_risk":5,"migraine_risk":7,"frizz_risk":1,"updated_at":"2026-07-20T09:26:24.526489+05:30"},{"city":"Ajmer","state":"Rajasthan","latitude":26.4499,"longitude":74.6399,"temp":28.1,"humidity":70,"rain":0.0,"pressure":951.0,"uv_index":7.85,"wind_gusts":34.9,"aqi":69,"pm10":27.8,"pm2_5":17.2,"no2":6.2,"co":157.0,"o3":64.0,"so2":7.4,"mosquito_risk":7,"arthritis_risk":5,"migraine_risk":7,"frizz_risk":1,"updated_at":"2026-07-20T09:26:24.526494+05:30"},{"city":"Gwalior","state":"Madhya Pradesh","latitude":26.2183,"longitude":78.1828,"temp":29.0,"humidity":78,"rain":0.1,"pressure":979.9,"uv_index":1.25,"wind_gusts":29.5,"aqi":77,"pm10":18.7,"pm2_5":14.4,"no2":10.6,"co":180.0,"o3":57.0,"so2":8.5,"mosquito_risk":10,"arthritis_risk":5,"migraine_risk":3,"frizz_risk":1,"updated_at":"2026-07-20T09:26:24.526500+05:30"},{"city":"Indore","state":"Madhya Pradesh","latitude":22.7196,"longitude":75.8577,"temp":27.3,"humidity":72,"rain":0.0,"pressure":945.4,"uv_index":3.95,"wind_gusts":33.1,"aqi":60,"pm10":14.7,"pm2_5":10.3,"no2":8.3,"co":243.0,"o3":35.0,"so2":8.8,"mosquito_risk":7,"arthritis_risk":5,"migraine_risk":3,"frizz_risk":1,"updated_at":"2026-07-20T09:26:24.526505+05:30"},{"city":"Bhopal","state":"Madhya Pradesh","latitude":23.2599,"longitude":77.4126,"temp":26.7,"humidity":83,"rain":0.0,"pressure":951.0,"uv_index":5.5,"wind_gusts":29.9,"aqi":70,"pm10":20.4,"pm2_5":14.6,"no2":6.2,"co":272.0,"o3":64.0,"so2":5.8,"mosquito_risk":7,"arthritis_risk":5,"migraine_risk":3,"frizz_risk":1,"updated_at":"2026-07-20T09:26:24.526511+05:30"},{"city":"Jabalpur","state":"Madhya Pradesh","latitude":23.1815,"longitude":79.9864,"temp":27.4,"humidity":85,"rain":0.0,"pressure":958.9,"uv_index":4.8,"wind_gusts":27.0,"aqi":85,"pm10":24.6,"pm2_5":16.9,"no2":5.4,"co":226.0,"o3":74.0,"so2":3.3,"mosquito_risk":7,"arthritis_risk":5,"migraine_risk":3,"frizz_risk":1,"updated_at":"2026-07-20T09:26:24.526516+05:30"},{"city":"Ujjain","state":"Madhya Pradesh","latitude":23.1765,"longitude":75.7885,"temp":27.0,"humidity":77,"rain":0.0,"pressure":951.0,"uv_index":6.3,"wind_gusts":29.5,"aqi":62,"pm10":15.8,"pm2_5":10.5,"no2":6.2,"co":179.0,"o3":39.0,"so2":8.9,"mosquito_risk":7,"arthritis_risk":5,"migraine_risk":7,"frizz_risk":1,"updated_at":"2026-07-20T09:26:24.526522+05:30"},{"city":"Visakhapatnam","state":"Andhra Pradesh","latitude":17.6868,"longitude":83.2185,"temp":29.4,"humidity":76,"rain":0.0,"pressure":1001.0,"uv_index":8.15,"wind_gusts":38.9,"aqi":77,"pm10":28.3,"pm2_5":22.7,"no2":20.1,"co":364.0,"o3":55.0,"so2":42.9,"mosquito_risk":7,"arthritis_risk":5,"migraine_risk":4,"frizz_risk":1,"updated_at":"2026-07-20T09:26:24.526528+05:30"},{"city":"Vijayawada","state":"Andhra Pradesh","latitude":16.5062,"longitude":80.648,"temp":28.8,"humidity":77,"rain":0.1,"pressure":1001.9,"uv_index":6.35,"wind_gusts":42.1,"aqi":58,"pm10":9.9,"pm2_5":7.6,"no2":5.0,"co":164.0,"o3":50.0,"so2":6.4,"mosquito_risk":10,"arthritis_risk":5,"migraine_risk":4,"frizz_risk":1,"updated_at":"2026-07-20T09:26:24.526533+05:30"},{"city":"Guntur","state":"Andhra Pradesh","latitude":16.3067,"longitude":80.4365,"temp":29.9,"humidity":66,"rain":0.0,"pressure":1003.1,"uv_index":5.6,"wind_gusts":40.0,"aqi":54,"pm10":8.4,"pm2_5":6.3,"no2":5.1,"co":166.0,"o3":46.0,"so2":6.8,"mosquito_risk":7,"arthritis_risk":5,"migraine_risk":0,"frizz_risk":1,"updated_at":"2026-07-20T09:26:24.526538+05:30"},{"city":"Nellore","state":"Andhra Pradesh","latitude":14.4426,"longitude":79.9865,"temp":29.7,"humidity":63,"rain":0.0,"pressure":1006.0,"uv_index":8.1,"wind_gusts":36.7,"aqi":62,"pm10":12.8,"pm2_5":8.0,"no2":5.3,"co":123.0,"o3":39.0,"so2":4.6,"mosquito_risk":7,"arthritis_risk":5,"migraine_risk":4,"frizz_risk":1,"updated_at":"2026-07-20T09:26:24.526544+05:30"},{"city":"Kurnool","state":"Andhra Pradesh","latitude":15.8281,"longitude":78.0373,"temp":28.1,"humidity":67,"rain":0.0,"pressure":977.4,"uv_index":8.5,"wind_gusts":49.0,"aqi":42,"pm10":4.0,"pm2_5":2.9,"no2":3.8,"co":120.0,"o3":39.0,"so2":2.3,"mosquito_risk":7,"arthritis_risk":5,"migraine_risk":7,"frizz_risk":1,"updated_at":"2026-07-20T09:26:24.526550+05:30"},{"city":"Kakinada","state":"Andhra Pradesh","latitude":16.9891,"longitude":82.2475,"temp":30.7,"humidity":66,"rain":0.0,"pressure":1005.5,"uv_index":6.85,"wind_gusts":49.3,"aqi":65,"pm10":22.8,"pm2_5":15.2,"no2":5.4,"co":209.0,"o3":67.0,"so2":6.2,"mosquito_risk":3,"arthritis_risk":5,"migraine_risk":4,"frizz_risk":1,"updated_at":"2026-07-20T09:26:24.526556+05:30"},{"city":"Tirupati","state":"Andhra Pradesh","latitude":13.6288,"longitude":79.4192,"temp":29.3,"humidity":63,"rain":0.0,"pressure":991.6,"uv_index":3.9,"wind_gusts":31.0,"aqi":62,"pm10":15.4,"pm2_5":10.1,"no2":6.3,"co":124.0,"o3":45.0,"so2":2.4,"mosquito_risk":7,"arthritis_risk":5,"migraine_risk":3,"frizz_risk":1,"updated_at":"2026-07-20T09:26:24.526561+05:30"},{"city":"Warangal","state":"Telangana","latitude":17.9689,"longitude":79.5941,"temp":28.5,"humidity":72,"rain":0.0,"pressure":977.8,"uv_index":7.3,"wind_gusts":45.7,"aqi":56,"pm10":7.9,"pm2_5":6.2,"no2":4.0,"co":155.0,"o3":44.0,"so2":2.9,"mosquito_risk":7,"arthritis_risk":5,"migraine_risk":7,"frizz_risk":1,"updated_at":"2026-07-20T09:26:24.526565+05:30"},{"city":"Nizamabad","state":"Telangana","latitude":18.6725,"longitude":78.0941,"temp":26.5,"humidity":79,"rain":0.0,"pressure":964.2,"uv_index":5.35,"wind_gusts":46.1,"aqi":51,"pm10":8.6,"pm2_5":5.0,"no2":4.8,"co":142.0,"o3":39.0,"so2":5.5,"mosquito_risk":7,"arthritis_risk":5,"migraine_risk":3,"frizz_risk":1,"updated_at":"2026-07-20T09:26:24.526570+05:30"},{"city":"Mysore","state":"Karnataka","latitude":12.2958,"longitude":76.6396,"temp":24.9,"humidity":71,"rain":0.0,"pressure":930.6,"uv_index":8.0,"wind_gusts":49.7,"aqi":32,"pm10":2.5,"pm2_5":2.0,"no2":4.5,"co":130.0,"o3":38.0,"so2":2.1,"mosquito_risk":3,"arthritis_risk":5,"migraine_risk":7,"frizz_risk":1,"updated_at":"2026-07-20T09:26:24.526575+05:30"},{"city":"Mangalore","state":"Karnataka","latitude":12.9141,"longitude":74.856,"temp":25.7,"humidity":89,"rain":0.0,"pressure":1010.2,"uv_index":8.5,"wind_gusts":37.4,"aqi":55,"pm10":20.0,"pm2_5":10.7,"no2":5.8,"co":199.0,"o3":39.0,"so2":3.0,"mosquito_risk":7,"arthritis_risk":0,"migraine_risk":4,"frizz_risk":1,"updated_at":"2026-07-20T09:26:24.526580+05:30"},{"city":"Hubli-Dharwad","state":"Karnataka","latitude":15.3647,"longitude":75.124,"temp":24.3,"humidity":80,"rain":0.0,"pressure":941.7,"uv_index":7.35,"wind_gusts":56.2,"aqi":24,"pm10":2.9,"pm2_5":2.0,"no2":4.2,"co":116.0,"o3":38.0,"so2":1.1,"mosquito_risk":3,"arthritis_risk":5,"migraine_risk":7,"frizz_risk":1,"updated_at":"2026-07-20T09:26:24.526585+05:30"},{"city":"Belgaum","state":"Karnataka","latitude":15.8497,"longitude":74.4977,"temp":22.3,"humidity":90,"rain":0.0,"pressure":926.0,"uv_index":8.75,"wind_gusts":49.3,"aqi":23,"pm10":3.3,"pm2_5":2.5,"no2":4.8,"co":117.0,"o3":34.0,"so2":1.9,"mosquito_risk":3,"arthritis_risk":5,"migraine_risk":7,"frizz_risk":1,"updated_at":"2026-07-20T09:26:27.890966+05:30"},{"city":"Coimbatore","state":"Tamil Nadu","latitude":11.0168,"longitude":76.9558,"temp":26.7,"humidity":73,"rain":0.0,"pressure":963.9,"uv_index":8.7,"wind_gusts":53.3,"aqi":38,"pm10":8.0,"pm2_5":5.2,"no2":4.0,"co":167.0,"o3":43.0,"so2":2.9,"mosquito_risk":7,"arthritis_risk":5,"migraine_risk":7,"frizz_risk":1,"updated_at":"2026-07-20T09:26:27.890999+05:30"},{"city":"Madurai","state":"Tamil Nadu","latitude":9.9252,"longitude":78.1198,"temp":31.8,"humidity":50,"rain":0.0,"pressure":994.4,"uv_index":8.15,"wind_gusts":34.9,"aqi":65,"pm10":14.3,"pm2_5":10.3,"no2":8.3,"co":160.0,"o3":46.0,"so2":5.4,"mosquito_risk":0,"arthritis_risk":5,"migraine_risk":7,"frizz_risk":1,"updated_at":"2026-07-20T09:26:27.891009+05:30"},{"city":"Trichy","state":"Tamil Nadu","latitude":10.7905,"longitude":78.7047,"temp":31.0,"humidity":57,"rain":0.0,"pressure":1001.0,"uv_index":6.05,"wind_gusts":52.6,"aqi":53,"pm10":7.7,"pm2_5":5.3,"no2":3.9,"co":138.0,"o3":44.0,"so2":3.2,"mosquito_risk":0,"arthritis_risk":5,"migraine_risk":4,"frizz_risk":1,"updated_at":"2026-07-20T09:26:27.891016+05:30"},{"city":"Salem","state":"Tamil Nadu","latitude":11.6643,"longitude":78.146,"temp":28.0,"humidity":71,"rain":0.0,"pressure":979.3,"uv_index":8.1,"wind_gusts":33.8,"aqi":58,"pm10":16.1,"pm2_5":12.1,"no2":10.3,"co":216.0,"o3":44.0,"so2":12.3,"mosquito_risk":7,"arthritis_risk":5,"migraine_risk":7,"frizz_risk":1,"updated_at":"2026-07-20T09:26:27.891023+05:30"},{"city":"Tirunelveli","state":"Tamil Nadu","latitude":8.7139,"longitude":77.7567,"temp":32.5,"humidity":50,"rain":0.0,"pressure":1005.3,"uv_index":7.55,"wind_gusts":44.6,"aqi":35,"pm10":4.6,"pm2_5":3.4,"no2":3.2,"co":128.0,"o3":46.0,"so2":2.0,"mosquito_risk":0,"arthritis_risk":5,"migraine_risk":4,"frizz_risk":1,"updated_at":"2026-07-20T09:26:27.891029+05:30"},{"city":"Vellore","state":"Tamil Nadu","latitude":12.9165,"longitude":79.1325,"temp":29.9,"humidity":57,"rain":0.0,"pressure":985.0,"uv_index":8.8,"wind_gusts":38.9,"aqi":72,"pm10":8.1,"pm2_5":5.9,"no2":4.5,"co":142.0,"o3":49.0,"so2":3.8,"mosquito_risk":4,"arthritis_risk":5,"migraine_risk":7,"frizz_risk":1,"updated_at":"2026-07-20T09:26:27.891035+05:30"},{"city":"Erode","state":"Tamil Nadu","latitude":11.341,"longitude":77.7172,"temp":30.2,"humidity":58,"rain":0.0,"pressure":991.2,"uv_index":7.85,"wind_gusts":42.1,"aqi":52,"pm10":9.1,"pm2_5":6.9,"no2":6.9,"co":180.0,"o3":40.0,"so2":4.0,"mosquito_risk":0,"arthritis_risk":5,"migraine_risk":7,"frizz_risk":1,"updated_at":"2026-07-20T09:26:27.891041+05:30"},{"city":"Kochi","state":"Kerala","latitude":9.9312,"longitude":76.2673,"temp":26.9,"humidity":83,"rain":0.0,"pressure":1012.3,"uv_index":8.0,"wind_gusts":34.2,"aqi":52,"pm10":13.1,"pm2_5":8.3,"no2":7.5,"co":179.0,"o3":38.0,"so2":3.6,"mosquito_risk":7,"arthritis_risk":0,"migraine_risk":4,"frizz_risk":1,"updated_at":"2026-07-20T09:26:27.891047+05:30"},{"city":"Thiruvananthapuram","state":"Kerala","latitude":8.5241,"longitude":76.9366,"temp":27.0,"humidity":81,"rain":0.0,"pressure":1011.5,"uv_index":7.6,"wind_gusts":42.8,"aqi":46,"pm10":12.1,"pm2_5":6.8,"no2":3.5,"co":156.0,"o3":46.0,"so2":1.7,"mosquito_risk":7,"arthritis_risk":0,"migraine_risk":4,"frizz_risk":1,"updated_at":"2026-07-20T09:26:27.891053+05:30"},{"city":"Kozhikode","state":"Kerala","latitude":11.2588,"longitude":75.7804,"temp":25.5,"humidity":89,"rain":0.0,"pressure":1011.9,"uv_index":8.05,"wind_gusts":32.4,"aqi":33,"pm10":13.3,"pm2_5":5.7,"no2":1.2,"co":148.0,"o3":52.0,"so2":1.0,"mosquito_risk":7,"arthritis_risk":0,"migraine_risk":4,"frizz_risk":1,"updated_at":"2026-07-20T09:26:27.891059+05:30"},{"city":"Thrissur","state":"Kerala","latitude":10.5276,"longitude":76.2144,"temp":26.0,"humidity":89,"rain":0.0,"pressure":1011.0,"uv_index":8.55,"wind_gusts":35.3,"aqi":51,"pm10":11.8,"pm2_5":7.9,"no2":5.4,"co":192.0,"o3":39.0,"so2":2.4,"mosquito_risk":7,"arthritis_risk":0,"migraine_risk":4,"frizz_risk":1,"updated_at":"2026-07-20T09:26:27.891065+05:30"},{"city":"Kannur","state":"Kerala","latitude":11.8745,"longitude":75.3704,"temp":24.8,"humidity":92,"rain":0.1,"pressure":1011.1,"uv_index":8.55,"wind_gusts":32.8,"aqi":44,"pm10":13.4,"pm2_5":6.3,"no2":4.5,"co":167.0,"o3":44.0,"so2":1.8,"mosquito_risk":6,"arthritis_risk":0,"migraine_risk":4,"frizz_risk":1,"updated_at":"2026-07-20T09:26:27.891071+05:30"},{"city":"Patna","state":"Bihar","latitude":25.5941,"longitude":85.1376,"temp":27.5,"humidity":92,"rain":0.1,"pressure":997.8,"uv_index":8.45,"wind_gusts":25.9,"aqi":84,"pm10":36.6,"pm2_5":36.1,"no2":16.2,"co":498.0,"o3":69.0,"so2":19.5,"mosquito_risk":10,"arthritis_risk":5,"migraine_risk":7,"frizz_risk":1,"updated_at":"2026-07-20T09:26:27.891076+05:30"},{"city":"Gaya","state":"Bihar","latitude":24.7914,"longitude":85.0002,"temp":27.8,"humidity":90,"rain":0.1,"pressure":990.9,"uv_index":7.5,"wind_gusts":23.0,"aqi":79,"pm10":27.8,"pm2_5":26.7,"no2":11.5,"co":318.0,"o3":75.0,"so2":13.4,"mosquito_risk":10,"arthritis_risk":5,"migraine_risk":7,"frizz_risk":1,"updated_at":"2026-07-20T09:26:27.891081+05:30"},{"city":"Muzaffarpur","state":"Bihar","latitude":26.1209,"longitude":85.3647,"temp":26.5,"humidity":95,"rain":0.4,"pressure":998.2,"uv_index":7.95,"wind_gusts":31.7,"aqi":72,"pm10":23.8,"pm2_5":23.6,"no2":14.8,"co":400.0,"o3":74.0,"so2":14.0,"mosquito_risk":10,"arthritis_risk":5,"migraine_risk":7,"frizz_risk":1,"updated_at":"2026-07-20T09:26:27.891087+05:30"},{"city":"Bhagalpur","state":"Bihar","latitude":25.2425,"longitude":87.0117,"temp":26.5,"humidity":95,"rain":0.3,"pressure":999.4,"uv_index":2.15,"wind_gusts":28.4,"aqi":81,"pm10":16.5,"pm2_5":15.4,"no2":11.6,"co":299.0,"o3":65.0,"so2":11.1,"mosquito_risk":10,"arthritis_risk":5,"migraine_risk":3,"frizz_risk":1,"updated_at":"2026-07-20T09:26:27.891093+05:30"},{"city":"Ranchi","state":"Jharkhand","latitude":23.3441,"longitude":85.3096,"temp":26.1,"humidity":86,"rain":0.0,"pressure":935.4,"uv_index":6.5,"wind_gusts":31.3,"aqi":66,"pm10":15.8,"pm2_5":11.8,"no2":4.5,"co":248.0,"o3":104.0,"so2":9.6,"mosquito_risk":7,"arthritis_risk":5,"migraine_risk":7,"frizz_risk":1,"updated_at":"2026-07-20T09:26:27.891098+05:30"},{"city":"Jamshedpur","state":"Jharkhand","latitude":22.8046,"longitude":86.2029,"temp":28.8,"humidity":83,"rain":0.0,"pressure":988.2,"uv_index":7.1,"wind_gusts":31.0,"aqi":85,"pm10":31.5,"pm2_5":28.2,"no2":10.5,"co":381.0,"o3":108.0,"so2":31.8,"mosquito_risk":7,"arthritis_risk":5,"migraine_risk":7,"frizz_risk":1,"updated_at":"2026-07-20T09:26:27.891103+05:30"},{"city":"Dhanbad","state":"Jharkhand","latitude":23.7957,"longitude":86.4304,"temp":28.2,"humidity":83,"rain":0.0,"pressure":977.5,"uv_index":3.65,"wind_gusts":32.0,"aqi":134,"pm10":48.4,"pm2_5":46.0,"no2":38.8,"co":1129.0,"o3":60.0,"so2":89.4,"mosquito_risk":7,"arthritis_risk":5,"migraine_risk":3,"frizz_risk":1,"updated_at":"2026-07-20T09:26:27.891108+05:30"},{"city":"Bokaro","state":"Jharkhand","latitude":23.6693,"longitude":86.1511,"temp":28.1,"humidity":85,"rain":0.0,"pressure":981.2,"uv_index":4.8,"wind_gusts":35.3,"aqi":131,"pm10":45.3,"pm2_5":43.2,"no2":33.2,"co":3103.0,"o3":72.0,"so2":77.7,"mosquito_risk":7,"arthritis_risk":5,"migraine_risk":3,"frizz_risk":1,"updated_at":"2026-07-20T09:26:27.891113+05:30"},{"city":"Bhubaneswar","state":"Odisha","latitude":20.2961,"longitude":85.8245,"temp":30.1,"humidity":80,"rain":0.0,"pressure":999.3,"uv_index":8.55,"wind_gusts":27.4,"aqi":87,"pm10":30.4,"pm2_5":23.7,"no2":6.8,"co":273.0,"o3":103.0,"so2":10.4,"mosquito_risk":3,"arthritis_risk":5,"migraine_risk":7,"frizz_risk":1,"updated_at":"2026-07-20T09:26:27.891118+05:30"},{"city":"Cuttack","state":"Odisha","latitude":20.4625,"longitude":85.8828,"temp":29.7,"humidity":85,"rain":0.0,"pressure":1001.1,"uv_index":8.7,"wind_gusts":30.6,"aqi":87,"pm10":30.4,"pm2_5":23.7,"no2":6.8,"co":288.0,"o3":103.0,"so2":10.4,"mosquito_risk":7,"arthritis_risk":5,"migraine_risk":4,"frizz_risk":1,"updated_at":"2026-07-20T09:26:27.891123+05:30"},{"city":"Rourkela","state":"Odisha","latitude":22.2604,"longitude":84.8536,"temp":28.5,"humidity":81,"rain":0.0,"pressure":982.1,"uv_index":8.2,"wind_gusts":29.2,"aqi":79,"pm10":28.2,"pm2_5":19.9,"no2":7.4,"co":298.0,"o3":101.0,"so2":15.5,"mosquito_risk":7,"arthritis_risk":5,"migraine_risk":7,"frizz_risk":1,"updated_at":"2026-07-20T09:26:27.891128+05:30"},{"city":"Raipur","state":"Chhattisgarh","latitude":21.2514,"longitude":81.6296,"temp":27.9,"humidity":82,"rain":0.0,"pressure":972.1,"uv_index":7.35,"wind_gusts":31.7,"aqi":92,"pm10":20.2,"pm2_5":19.0,"no2":28.0,"co":342.0,"o3":40.0,"so2":50.8,"mosquito_risk":7,"arthritis_risk":5,"migraine_risk":7,"frizz_risk":1,"updated_at":"2026-07-20T09:26:27.891133+05:30"},{"city":"Bhilai","state":"Chhattisgarh","latitude":21.1938,"longitude":81.3509,"temp":27.9,"humidity":79,"rain":0.0,"pressure":972.5,"uv_index":7.35,"wind_gusts":32.4,"aqi":86,"pm10":20.4,"pm2_5":18.6,"no2":22.8,"co":782.0,"o3":41.0,"so2":41.7,"mosquito_risk":7,"arthritis_risk":5,"migraine_risk":7,"frizz_risk":1,"updated_at":"2026-07-20T09:26:27.891138+05:30"},{"city":"Guwahati","state":"Assam","latitude":26.1158,"longitude":91.7086,"temp":26.1,"humidity":96,"rain":0.0,"pressure":1001.4,"uv_index":3.05,"wind_gusts":20.2,"aqi":52,"pm10":5.6,"pm2_5":5.4,"no2":3.8,"co":192.0,"o3":70.0,"so2":2.0,"mosquito_risk":7,"arthritis_risk":5,"migraine_risk":0,"frizz_risk":1,"updated_at":"2026-07-20T09:26:27.891142+05:30"},{"city":"Agartala","state":"Tripura","latitude":23.8315,"longitude":91.2868,"temp":25.9,"humidity":95,"rain":0.1,"pressure":1005.9,"uv_index":7.6,"wind_gusts":30.2,"aqi":49,"pm10":10.9,"pm2_5":9.4,"no2":6.7,"co":152.0,"o3":49.0,"so2":2.5,"mosquito_risk":10,"arthritis_risk":5,"migraine_risk":4,"frizz_risk":1,"updated_at":"2026-07-20T09:26:27.891147+05:30"},{"city":"Shillong","state":"Meghalaya","latitude":25.5788,"longitude":91.8933,"temp":19.3,"humidity":97,"rain":0.9,"pressure":857.7,"uv_index":2.25,"wind_gusts":24.1,"aqi":19,"pm10":1.9,"pm2_5":1.8,"no2":5.4,"co":200.0,"o3":48.0,"so2":1.8,"mosquito_risk":6,"arthritis_risk":10,"migraine_risk":3,"frizz_risk":1,"updated_at":"2026-07-20T09:26:27.891151+05:30"},{"city":"Imphal","state":"Manipur","latitude":24.817,"longitude":93.9368,"temp":25.9,"humidity":75,"rain":0.0,"pressure":923.9,"uv_index":1.35,"wind_gusts":27.4,"aqi":44,"pm10":5.6,"pm2_5":5.6,"no2":6.7,"co":241.0,"o3":43.0,"so2":1.1,"mosquito_risk":7,"arthritis_risk":5,"migraine_risk":3,"frizz_risk":1,"updated_at":"2026-07-20T09:26:27.891156+05:30"},{"city":"Aizawl","state":"Mizoram","latitude":23.7271,"longitude":92.7176,"temp":20.1,"humidity":95,"rain":0.4,"pressure":892.6,"uv_index":0.95,"wind_gusts":19.1,"aqi":47,"pm10":7.7,"pm2_5":5.7,"no2":3.9,"co":143.0,"o3":43.0,"so2":0.6,"mosquito_risk":6,"arthritis_risk":5,"migraine_risk":3,"frizz_risk":1,"updated_at":"2026-07-20T09:26:27.891161+05:30"},{"city":"Kohima","state":"Nagaland","latitude":25.6701,"longitude":94.1077,"temp":22.6,"humidity":82,"rain":0.0,"pressure":856.7,"uv_index":5.45,"wind_gusts":23.0,"aqi":17,"pm10":2.2,"pm2_5":2.2,"no2":2.7,"co":196.0,"o3":57.0,"so2":0.7,"mosquito_risk":3,"arthritis_risk":5,"migraine_risk":3,"frizz_risk":1,"updated_at":"2026-07-20T09:26:27.891166+05:30"},{"city":"Gangtok","state":"Sikkim","latitude":27.3314,"longitude":88.6138,"temp":19.1,"humidity":100,"rain":0.1,"pressure":838.5,"uv_index":3.65,"wind_gusts":32.8,"aqi":38,"pm10":2.7,"pm2_5":2.6,"no2":5.1,"co":266.0,"o3":82.0,"so2":0.6,"mosquito_risk":6,"arthritis_risk":10,"migraine_risk":3,"frizz_risk":1,"updated_at":"2026-07-20T09:26:27.891171+05:30"},{"city":"Siliguri","state":"West Bengal","latitude":26.7271,"longitude":88.3953,"temp":25.0,"humidity":98,"rain":0.9,"pressure":992.7,"uv_index":2.4,"wind_gusts":27.0,"aqi":50,"pm10":6.4,"pm2_5":6.3,"no2":10.3,"co":444.0,"o3":72.0,"so2":2.0,"mosquito_risk":10,"arthritis_risk":5,"migraine_risk":3,"frizz_risk":1,"updated_at":"2026-07-20T09:26:31.241890+05:30"},{"city":"Durgapur","state":"West Bengal","latitude":23.5204,"longitude":87.3119,"temp":26.7,"humidity":92,"rain":0.2,"pressure":992.9,"uv_index":8.55,"wind_gusts":28.8,"aqi":105,"pm10":41.2,"pm2_5":36.1,"no2":27.1,"co":289.0,"o3":67.0,"so2":49.5,"mosquito_risk":10,"arthritis_risk":5,"migraine_risk":7,"frizz_risk":1,"updated_at":"2026-07-20T09:26:31.241925+05:30"},{"city":"Asansol","state":"West Bengal","latitude":23.6739,"longitude":86.9524,"temp":28.1,"humidity":86,"rain":0.0,"pressure":991.4,"uv_index":7.5,"wind_gusts":30.2,"aqi":99,"pm10":36.9,"pm2_5":33.6,"no2":29.4,"co":557.0,"o3":64.0,"so2":57.5,"mosquito_risk":7,"arthritis_risk":5,"migraine_risk":7,"frizz_risk":1,"updated_at":"2026-07-20T09:26:31.241935+05:30"},{"city":"Pondicherry","state":"Puducherry","latitude":11.9139,"longitude":79.8145,"temp":30.9,"humidity":61,"rain":0.0,"pressure":1008.9,"uv_index":7.8,"wind_gusts":40.0,"aqi":68,"pm10":19.3,"pm2_5":13.6,"no2":10.1,"co":291.0,"o3":52.0,"so2":7.1,"mosquito_risk":3,"arthritis_risk":0,"migraine_risk":4,"frizz_risk":1,"updated_at":"2026-07-20T09:26:31.241943+05:30"},{"city":"Port Blair","state":"Andaman and Nicobar Islands","latitude":11.6234,"longitude":92.7265,"temp":29.5,"humidity":73,"rain":0.0,"pressure":1008.6,"uv_index":6.3,"wind_gusts":43.2,"aqi":52,"pm10":12.6,"pm2_5":7.0,"no2":0.3,"co":88.0,"o3":48.0,"so2":0.4,"mosquito_risk":7,"arthritis_risk":0,"migraine_risk":4,"frizz_risk":1,"updated_at":"2026-07-20T09:26:31.241950+05:30"},{"city":"Haridwar","state":"Uttarakhand","latitude":29.9457,"longitude":78.1642,"temp":26.3,"humidity":96,"rain":0.2,"pressure":970.5,"uv_index":1.2,"wind_gusts":28.8,"aqi":146,"pm10":50.6,"pm2_5":16.8,"no2":5.3,"co":242.0,"o3":82.0,"so2":9.6,"mosquito_risk":10,"arthritis_risk":5,"migraine_risk":3,"frizz_risk":1,"updated_at":"2026-07-20T09:26:31.241958+05:30"},{"city":"Rishikesh","state":"Uttarakhand","latitude":30.0869,"longitude":78.2676,"temp":25.9,"humidity":97,"rain":0.1,"pressure":963.0,"uv_index":1.75,"wind_gusts":23.0,"aqi":102,"pm10":14.1,"pm2_5":5.4,"no2":3.3,"co":237.0,"o3":98.0,"so2":8.3,"mosquito_risk":10,"arthritis_risk":5,"migraine_risk":3,"frizz_risk":1,"updated_at":"2026-07-20T09:26:31.241965+05:30"},{"city":"Nainital","state":"Uttarakhand","latitude":29.3919,"longitude":79.4542,"temp":17.4,"humidity":100,"rain":0.4,"pressure":804.5,"uv_index":1.5,"wind_gusts":37.1,"aqi":55,"pm10":9.7,"pm2_5":8.9,"no2":6.4,"co":271.0,"o3":91.0,"so2":1.1,"mosquito_risk":6,"arthritis_risk":10,"migraine_risk":3,"frizz_risk":1,"updated_at":"2026-07-20T09:26:31.241971+05:30"},{"city":"Mussoorie","state":"Uttarakhand","latitude":30.4599,"longitude":78.0664,"temp":17.8,"humidity":98,"rain":0.1,"pressure":801.3,"uv_index":0.65,"wind_gusts":23.8,"aqi":92,"pm10":21.8,"pm2_5":11.0,"no2":7.7,"co":258.0,"o3":96.0,"so2":9.4,"mosquito_risk":6,"arthritis_risk":10,"migraine_risk":3,"frizz_risk":1,"updated_at":"2026-07-20T09:26:31.241978+05:30"},{"city":"Dharamshala","state":"Himachal Pradesh","latitude":32.219,"longitude":76.3234,"temp":21.3,"humidity":100,"rain":0.2,"pressure":866.2,"uv_index":3.2,"wind_gusts":25.6,"aqi":44,"pm10":13.1,"pm2_5":6.8,"no2":5.3,"co":250.0,"o3":78.0,"so2":1.2,"mosquito_risk":6,"arthritis_risk":5,"migraine_risk":3,"frizz_risk":1,"updated_at":"2026-07-20T09:26:31.241984+05:30"},{"city":"Dalhousie","state":"Himachal Pradesh","latitude":32.5387,"longitude":75.971,"temp":18.7,"humidity":100,"rain":0.2,"pressure":802.6,"uv_index":6.55,"wind_gusts":21.2,"aqi":92,"pm10":51.1,"pm2_5":22.5,"no2":8.7,"co":329.0,"o3":98.0,"so2":2.2,"mosquito_risk":6,"arthritis_risk":10,"migraine_risk":7,"frizz_risk":1,"updated_at":"2026-07-20T09:26:31.241991+05:30"},{"city":"Patiala","state":"Punjab","latitude":30.3398,"longitude":76.3869,"temp":27.4,"humidity":91,"rain":0.1,"pressure":973.6,"uv_index":6.6,"wind_gusts":29.5,"aqi":207,"pm10":80.6,"pm2_5":44.9,"no2":11.8,"co":303.0,"o3":80.0,"so2":13.7,"mosquito_risk":10,"arthritis_risk":5,"migraine_risk":7,"frizz_risk":1,"updated_at":"2026-07-20T09:26:31.241998+05:30"},{"city":"Bhatinda","state":"Punjab","latitude":30.211,"longitude":74.9455,"temp":33.6,"humidity":62,"rain":0.0,"pressure":978.1,"uv_index":4.7,"wind_gusts":33.8,"aqi":341,"pm10":683.6,"pm2_5":204.9,"no2":14.2,"co":175.0,"o3":77.0,"so2":7.3,"mosquito_risk":3,"arthritis_risk":5,"migraine_risk":3,"frizz_risk":1,"updated_at":"2026-07-20T09:26:31.242004+05:30"},{"city":"Rohtak","state":"Haryana","latitude":28.8955,"longitude":76.6066,"temp":29.1,"humidity":86,"rain":0.0,"pressure":977.7,"uv_index":4.5,"wind_gusts":25.9,"aqi":577,"pm10":137.4,"pm2_5":58.7,"no2":20.0,"co":357.0,"o3":61.0,"so2":10.3,"mosquito_risk":7,"arthritis_risk":5,"migraine_risk":3,"frizz_risk":1,"updated_at":"2026-07-20T09:26:31.242010+05:30"},{"city":"Panipat","state":"Haryana","latitude":29.3909,"longitude":76.9635,"temp":27.5,"humidity":94,"rain":0.1,"pressure":976.2,"uv_index":4.3,"wind_gusts":35.6,"aqi":602,"pm10":140.6,"pm2_5":62.6,"no2":16.4,"co":392.0,"o3":68.0,"so2":12.2,"mosquito_risk":10,"arthritis_risk":5,"migraine_risk":3,"frizz_risk":1,"updated_at":"2026-07-20T09:26:31.242016+05:30"},{"city":"Mathura","state":"Uttar Pradesh","latitude":27.4924,"longitude":77.6737,"temp":28.0,"humidity":90,"rain":0.1,"pressure":983.2,"uv_index":2.0,"wind_gusts":25.9,"aqi":160,"pm10":29.7,"pm2_5":20.7,"no2":16.3,"co":217.0,"o3":47.0,"so2":5.2,"mosquito_risk":10,"arthritis_risk":5,"migraine_risk":3,"frizz_risk":1,"updated_at":"2026-07-20T09:26:31.242022+05:30"},{"city":"Vrindavan","state":"Uttar Pradesh","latitude":27.5823,"longitude":77.7027,"temp":27.9,"humidity":91,"rain":0.1,"pressure":983.5,"uv_index":1.45,"wind_gusts":25.6,"aqi":160,"pm10":29.7,"pm2_5":20.7,"no2":16.3,"co":228.0,"o3":47.0,"so2":5.2,"mosquito_risk":10,"arthritis_risk":5,"migraine_risk":3,"frizz_risk":1,"updated_at":"2026-07-20T09:26:31.242029+05:30"},{"city":"Ayodhya","state":"Uttar Pradesh","latitude":26.7922,"longitude":82.1998,"temp":27.3,"humidity":88,"rain":0.1,"pressure":992.8,"uv_index":7.6,"wind_gusts":27.4,"aqi":83,"pm10":14.1,"pm2_5":14.0,"no2":9.2,"co":394.0,"o3":84.0,"so2":8.0,"mosquito_risk":10,"arthritis_risk":5,"migraine_risk":7,"frizz_risk":1,"updated_at":"2026-07-20T09:26:31.242035+05:30"},{"city":"Ratlam","state":"Madhya Pradesh","latitude":23.3315,"longitude":75.0367,"temp":26.9,"humidity":79,"rain":0.1,"pressure":951.8,"uv_index":5.55,"wind_gusts":31.3,"aqi":62,"pm10":16.9,"pm2_5":10.5,"no2":6.0,"co":155.0,"o3":40.0,"so2":9.2,"mosquito_risk":10,"arthritis_risk":5,"migraine_risk":3,"frizz_risk":1,"updated_at":"2026-07-20T09:26:31.242041+05:30"},{"city":"Sagar","state":"Madhya Pradesh","latitude":23.8388,"longitude":78.7378,"temp":27.5,"humidity":78,"rain":0.0,"pressure":947.5,"uv_index":6.7,"wind_gusts":30.2,"aqi":77,"pm10":18.2,"pm2_5":13.4,"no2":4.7,"co":192.0,"o3":69.0,"so2":3.0,"mosquito_risk":7,"arthritis_risk":5,"migraine_risk":7,"frizz_risk":1,"updated_at":"2026-07-20T09:26:31.242047+05:30"},{"city":"Satna","state":"Madhya Pradesh","latitude":24.6005,"longitude":80.8322,"temp":28.6,"humidity":82,"rain":0.0,"pressure":968.5,"uv_index":6.95,"wind_gusts":28.4,"aqi":96,"pm10":42.5,"pm2_5":20.7,"no2":3.9,"co":180.0,"o3":85.0,"so2":4.0,"mosquito_risk":7,"arthritis_risk":5,"migraine_risk":7,"frizz_risk":1,"updated_at":"2026-07-20T09:26:31.242054+05:30"},{"city":"Akola","state":"Maharashtra","latitude":20.7002,"longitude":77.0082,"temp":29.3,"humidity":68,"rain":0.0,"pressure":973.5,"uv_index":7.95,"wind_gusts":47.9,"aqi":50,"pm10":9.2,"pm2_5":5.7,"no2":7.7,"co":131.0,"o3":33.0,"so2":9.8,"mosquito_risk":7,"arthritis_risk":5,"migraine_risk":7,"frizz_risk":1,"updated_at":"2026-07-20T09:26:31.242060+05:30"},{"city":"Amravati","state":"Maharashtra","latitude":20.9374,"longitude":77.7796,"temp":27.5,"humidity":77,"rain":0.0,"pressure":965.6,"uv_index":4.7,"wind_gusts":39.2,"aqi":51,"pm10":9.4,"pm2_5":6.0,"no2":8.2,"co":142.0,"o3":33.0,"so2":10.8,"mosquito_risk":7,"arthritis_risk":5,"migraine_risk":3,"frizz_risk":1,"updated_at":"2026-07-20T09:26:31.242066+05:30"},{"city":"Latur","state":"Maharashtra","latitude":18.4088,"longitude":76.5604,"temp":25.9,"humidity":75,"rain":0.0,"pressure":939.1,"uv_index":1.6,"wind_gusts":42.5,"aqi":33,"pm10":5.4,"pm2_5":4.1,"no2":4.2,"co":140.0,"o3":36.0,"so2":2.7,"mosquito_risk":7,"arthritis_risk":5,"migraine_risk":3,"frizz_risk":1,"updated_at":"2026-07-20T09:26:31.242072+05:30"},{"city":"Nanded","state":"Maharashtra","latitude":19.1383,"longitude":77.3091,"temp":26.9,"humidity":78,"rain":0.0,"pressure":967.8,"uv_index":4.95,"wind_gusts":40.7,"aqi":50,"pm10":7.7,"pm2_5":4.8,"no2":3.8,"co":142.0,"o3":43.0,"so2":3.2,"mosquito_risk":7,"arthritis_risk":5,"migraine_risk":3,"frizz_risk":1,"updated_at":"2026-07-20T09:26:31.242078+05:30"},{"city":"Gulbarga","state":"Karnataka","latitude":17.3297,"longitude":76.8343,"temp":26.6,"humidity":71,"rain":0.0,"pressure":958.6,"uv_index":7.15,"wind_gusts":55.4,"aqi":33,"pm10":3.5,"pm2_5":3.4,"no2":7.9,"co":132.0,"o3":29.0,"so2":4.0,"mosquito_risk":7,"arthritis_risk":5,"migraine_risk":7,"frizz_risk":1,"updated_at":"2026-07-20T09:26:31.242083+05:30"},{"city":"Bidar","state":"Karnataka","latitude":17.9104,"longitude":77.5199,"temp":24.4,"humidity":90,"rain":0.0,"pressure":934.9,"uv_index":7.6,"wind_gusts":49.7,"aqi":46,"pm10":6.7,"pm2_5":4.7,"no2":6.1,"co":133.0,"o3":33.0,"so2":2.1,"mosquito_risk":3,"arthritis_risk":5,"migraine_risk":7,"frizz_risk":1,"updated_at":"2026-07-20T09:26:31.242088+05:30"},{"city":"Hospet","state":"Karnataka","latitude":15.2689,"longitude":76.3909,"temp":26.3,"humidity":72,"rain":0.0,"pressure":956.8,"uv_index":7.9,"wind_gusts":56.5,"aqi":33,"pm10":3.4,"pm2_5":2.5,"no2":4.1,"co":110.0,"o3":38.0,"so2":1.8,"mosquito_risk":7,"arthritis_risk":5,"migraine_risk":7,"frizz_risk":1,"updated_at":"2026-07-20T09:26:31.242093+05:30"},{"city":"Tirupur","state":"Tamil Nadu","latitude":11.1085,"longitude":77.3411,"temp":28.2,"humidity":65,"rain":0.0,"pressure":977.3,"uv_index":8.4,"wind_gusts":53.3,"aqi":54,"pm10":11.6,"pm2_5":8.8,"no2":7.5,"co":155.0,"o3":40.0,"so2":4.9,"mosquito_risk":7,"arthritis_risk":5,"migraine_risk":7,"frizz_risk":1,"updated_at":"2026-07-20T09:26:31.242099+05:30"},{"city":"Alappuzha","state":"Kerala","latitude":9.4981,"longitude":76.3388,"temp":26.7,"humidity":86,"rain":0.0,"pressure":1012.4,"uv_index":8.55,"wind_gusts":34.9,"aqi":51,"pm10":13.9,"pm2_5":8.0,"no2":5.4,"co":97.0,"o3":46.0,"so2":2.8,"mosquito_risk":7,"arthritis_risk":0,"migraine_risk":4,"frizz_risk":1,"updated_at":"2026-07-20T09:26:31.242104+05:30"},{"city":"Munnar","state":"Kerala","latitude":10.0889,"longitude":77.0595,"temp":19.1,"humidity":86,"rain":0.1,"pressure":859.4,"uv_index":8.6,"wind_gusts":38.9,"aqi":26,"pm10":3.4,"pm2_5":2.6,"no2":3.2,"co":100.0,"o3":41.0,"so2":1.7,"mosquito_risk":6,"arthritis_risk":10,"migraine_risk":7,"frizz_risk":1,"updated_at":"2026-07-20T09:26:31.242110+05:30"},{"city":"Silchar","state":"Assam","latitude":24.8333,"longitude":92.7789,"temp":25.6,"humidity":88,"rain":0.2,"pressure":1005.8,"uv_index":0.85,"wind_gusts":19.4,"aqi":62,"pm10":15.2,"pm2_5":12.8,"no2":6.2,"co":213.0,"o3":47.0,"so2":3.2,"mosquito_risk":10,"arthritis_risk":5,"migraine_risk":0,"frizz_risk":1,"updated_at":"2026-07-20T09:26:31.242116+05:30"},{"city":"Dibrugarh","state":"Assam","latitude":27.4728,"longitude":94.912,"temp":30.4,"humidity":65,"rain":0.0,"pressure":995.0,"uv_index":8.45,"wind_gusts":26.3,"aqi":77,"pm10":13.5,"pm2_5":12.4,"no2":2.1,"co":147.0,"o3":104.0,"so2":1.9,"mosquito_risk":3,"arthritis_risk":5,"migraine_risk":7,"frizz_risk":1,"updated_at":"2026-07-20T09:26:31.242122+05:30"}]