[{"city":"Delhi","state":"Delhi","latitude":28.6139,"longitude":77.209,"temp":42.9,"humidity":15,"rain":0.0,"pressure":974.8,"uv_index":7.75,"wind_gusts":35.6,"aqi":289,"pm10":400.5,"pm2_5":63.1,"no2":5.8,"co":204.0,"o3":141.0,"so2":7.4,"mosquito_risk":0,"arthritis_risk":5,"migraine_risk":10,"frizz_risk":0,"updated_at":"2026-05-20T16:23:21.712320+05:30"},{"city":"Mumbai","state":"Maharashtra","latitude":19.076,"longitude":72.8777,"temp":31.8,"humidity":62,"rain":0.0,"pressure":1005.4,"uv_index":7.5,"wind_gusts":39.6,"aqi":68,"pm10":23.7,"pm2_5":15.5,"no2":5.7,"co":163.0,"o3":100.0,"so2":6.3,"mosquito_risk":3,"arthritis_risk":5,"migraine_risk":4,"frizz_risk":1,"updated_at":"2026-05-20T16:23:21.712363+05:30"},{"city":"Bangalore","state":"Karnataka","latitude":12.9716,"longitude":77.5946,"temp":25.4,"humidity":79,"rain":0.1,"pressure":908.8,"uv_index":6.15,"wind_gusts":38.5,"aqi":38,"pm10":7.9,"pm2_5":6.5,"no2":5.9,"co":325.0,"o3":86.0,"so2":2.7,"mosquito_risk":10,"arthritis_risk":5,"migraine_risk":7,"frizz_risk":1,"updated_at":"2026-05-20T16:23:21.712378+05:30"},{"city":"Hyderabad","state":"Telangana","latitude":17.385,"longitude":78.4867,"temp":39.8,"humidity":19,"rain":0.0,"pressure":948.2,"uv_index":9.2,"wind_gusts":34.6,"aqi":95,"pm10":53.3,"pm2_5":31.5,"no2":2.4,"co":267.0,"o3":158.0,"so2":5.9,"mosquito_risk":0,"arthritis_risk":5,"migraine_risk":10,"frizz_risk":0,"updated_at":"2026-05-20T16:23:21.712387+05:30"},{"city":"Chennai","state":"Tamil Nadu","latitude":13.0827,"longitude":80.2707,"temp":39.8,"humidity":32,"rain":0.0,"pressure":999.0,"uv_index":9.1,"wind_gusts":35.6,"aqi":92,"pm10":28.2,"pm2_5":22.3,"no2":3.2,"co":270.0,"o3":171.0,"so2":5.3,"mosquito_risk":0,"arthritis_risk":5,"migraine_risk":10,"frizz_risk":1,"updated_at":"2026-05-20T16:23:21.712396+05:30"},{"city":"Kolkata","state":"West Bengal","latitude":22.5726,"longitude":88.3639,"temp":36.5,"humidity":55,"rain":0.0,"pressure":996.1,"uv_index":8.95,"wind_gusts":25.6,"aqi":93,"pm10":79.2,"pm2_5":44.0,"no2":6.4,"co":404.0,"o3":153.0,"so2":14.2,"mosquito_risk":0,"arthritis_risk":5,"migraine_risk":10,"frizz_risk":1,"updated_at":"2026-05-20T16:23:21.712404+05:30"},{"city":"Pune","state":"Maharashtra","latitude":18.5204,"longitude":73.8567,"temp":32.8,"humidity":42,"rain":0.1,"pressure":945.5,"uv_index":8.45,"wind_gusts":38.2,"aqi":73,"pm10":38.3,"pm2_5":21.6,"no2":2.7,"co":175.0,"o3":126.0,"so2":5.7,"mosquito_risk":3,"arthritis_risk":5,"migraine_risk":7,"frizz_risk":1,"updated_at":"2026-05-20T16:23:21.712411+05:30"},{"city":"Ahmedabad","state":"Gujarat","latitude":23.0225,"longitude":72.5714,"temp":42.2,"humidity":18,"rain":0.0,"pressure":995.5,"uv_index":8.15,"wind_gusts":36.4,"aqi":62,"pm10":83.8,"pm2_5":22.4,"no2":1.1,"co":147.0,"o3":90.0,"so2":1.8,"mosquito_risk":0,"arthritis_risk":5,"migraine_risk":10,"frizz_risk":0,"updated_at":"2026-05-20T16:23:21.712418+05:30"},{"city":"Jaipur","state":"Rajasthan","latitude":26.9124,"longitude":75.7873,"temp":40.0,"humidity":14,"rain":0.0,"pressure":954.0,"uv_index":8.3,"wind_gusts":40.3,"aqi":110,"pm10":162.1,"pm2_5":28.9,"no2":0.9,"co":160.0,"o3":116.0,"so2":2.2,"mosquito_risk":0,"arthritis_risk":5,"migraine_risk":10,"frizz_risk":0,"updated_at":"2026-05-20T16:23:21.712429+05:30"},{"city":"Lucknow","state":"Uttar Pradesh","latitude":26.8467,"longitude":80.9462,"temp":42.7,"humidity":18,"rain":0.0,"pressure":984.6,"uv_index":8.25,"wind_gusts":41.4,"aqi":157,"pm10":173.2,"pm2_5":46.3,"no2":2.7,"co":225.0,"o3":157.0,"so2":8.3,"mosquito_risk":0,"arthritis_risk":5,"migraine_risk":10,"frizz_risk":0,"updated_at":"2026-05-20T16:23:21.712436+05:30"},{"city":"Kanpur","state":"Uttar Pradesh","latitude":26.4499,"longitude":80.3319,"temp":43.2,"humidity":15,"rain":0.0,"pressure":983.3,"uv_index":8.25,"wind_gusts":42.1,"aqi":160,"pm10":430.3,"pm2_5":65.7,"no2":1.8,"co":158.0,"o3":149.0,"so2":7.1,"mosquito_risk":0,"arthritis_risk":5,"migraine_risk":10,"frizz_risk":0,"updated_at":"2026-05-20T16:23:21.712443+05:30"},{"city":"Chandigarh","state":"Chandigarh","latitude":30.7333,"longitude":76.7794,"temp":41.3,"humidity":11,"rain":0.0,"pressure":961.1,"uv_index":7.8,"wind_gusts":26.3,"aqi":114,"pm10":74.7,"pm2_5":26.4,"no2":1.1,"co":266.0,"o3":148.0,"so2":7.0,"mosquito_risk":0,"arthritis_risk":5,"migraine_risk":10,"frizz_risk":0,"updated_at":"2026-05-20T16:23:21.712450+05:30"},{"city":"Srinagar","state":"Jammu and Kashmir","latitude":34.0837,"longitude":74.7973,"temp":24.1,"humidity":39,"rain":0.0,"pressure":844.1,"uv_index":9.05,"wind_gusts":27.0,"aqi":88,"pm10":50.8,"pm2_5":17.4,"no2":1.9,"co":236.0,"o3":128.0,"so2":3.1,"mosquito_risk":0,"arthritis_risk":5,"migraine_risk":7,"frizz_risk":0,"updated_at":"2026-05-20T16:23:21.712460+05:30"},{"city":"Jammu","state":"Jammu and Kashmir","latitude":32.7266,"longitude":74.857,"temp":41.9,"humidity":12,"rain":0.0,"pressure":964.7,"uv_index":8.6,"wind_gusts":41.8,"aqi":88,"pm10":73.6,"pm2_5":22.6,"no2":0.3,"co":157.0,"o3":150.0,"so2":3.6,"mosquito_risk":0,"arthritis_risk":5,"migraine_risk":10,"frizz_risk":0,"updated_at":"2026-05-20T16:23:21.712467+05:30"},{"city":"Amritsar","state":"Punjab","latitude":31.634,"longitude":74.8723,"temp":42.3,"humidity":14,"rain":0.0,"pressure":972.0,"uv_index":8.5,"wind_gusts":36.0,"aqi":124,"pm10":65.2,"pm2_5":23.5,"no2":1.8,"co":253.0,"o3":150.0,"so2":5.1,"mosquito_risk":0,"arthritis_risk":5,"migraine_risk":10,"frizz_risk":0,"updated_at":"2026-05-20T16:23:21.712473+05:30"},{"city":"Ludhiana","state":"Punjab","latitude":30.901,"longitude":75.8573,"temp":42.6,"humidity":11,"rain":0.0,"pressure":970.0,"uv_index":8.05,"wind_gusts":27.7,"aqi":157,"pm10":163.9,"pm2_5":41.0,"no2":1.0,"co":212.0,"o3":137.0,"so2":6.5,"mosquito_risk":0,"arthritis_risk":5,"migraine_risk":10,"frizz_risk":0,"updated_at":"2026-05-20T16:23:21.712479+05:30"},{"city":"Jalandhar","state":"Punjab","latitude":31.326,"longitude":75.5762,"temp":42.5,"humidity":11,"rain":0.0,"pressure":971.1,"uv_index":8.25,"wind_gusts":27.4,"aqi":142,"pm10":109.7,"pm2_5":30.4,"no2":1.9,"co":214.0,"o3":134.0,"so2":4.9,"mosquito_risk":0,"arthritis_risk":5,"migraine_risk":10,"frizz_risk":0,"updated_at":"2026-05-20T16:23:21.712486+05:30"},{"city":"Dehradun","state":"Uttarakhand","latitude":30.6284,"longitude":78.0322,"temp":28.0,"humidity":20,"rain":0.0,"pressure":830.5,"uv_index":8.25,"wind_gusts":46.4,"aqi":101,"pm10":44.4,"pm2_5":16.4,"no2":0.3,"co":244.0,"o3":151.0,"so2":4.9,"mosquito_risk":4,"arthritis_risk":5,"migraine_risk":7,"frizz_risk":0,"updated_at":"2026-05-20T16:23:21.712494+05:30"},{"city":"Shimla","state":"Himachal Pradesh","latitude":31.1048,"longitude":77.1734,"temp":26.2,"humidity":17,"rain":0.0,"pressure":786.2,"uv_index":8.3,"wind_gusts":41.4,"aqi":116,"pm10":33.4,"pm2_5":14.6,"no2":0.9,"co":194.0,"o3":163.0,"so2":8.7,"mosquito_risk":4,"arthritis_risk":5,"migraine_risk":7,"frizz_risk":1,"updated_at":"2026-05-20T16:23:21.712503+05:30"},{"city":"Manali","state":"Himachal Pradesh","latitude":32.2396,"longitude":77.1887,"temp":23.8,"humidity":45,"rain":0.0,"pressure":818.6,"uv_index":10.0,"wind_gusts":38.9,"aqi":95,"pm10":31.2,"pm2_5":15.1,"no2":5.2,"co":156.0,"o3":156.0,"so2":0.7,"mosquito_risk":0,"arthritis_risk":5,"migraine_risk":7,"frizz_risk":0,"updated_at":"2026-05-20T16:23:21.712509+05:30"},{"city":"Gurgaon","state":"Haryana","latitude":28.4595,"longitude":77.0266,"temp":42.6,"humidity":14,"rain":0.0,"pressure":973.3,"uv_index":7.85,"wind_gusts":34.2,"aqi":823,"pm10":828.9,"pm2_5":103.1,"no2":3.7,"co":205.0,"o3":135.0,"so2":5.1,"mosquito_risk":0,"arthritis_risk":5,"migraine_risk":10,"frizz_risk":0,"updated_at":"2026-05-20T16:23:21.712516+05:30"},{"city":"Noida","state":"Uttar Pradesh","latitude":28.5355,"longitude":77.391,"temp":42.0,"humidity":18,"rain":0.0,"pressure":976.1,"uv_index":7.8,"wind_gusts":33.1,"aqi":823,"pm10":828.9,"pm2_5":103.1,"no2":3.7,"co":274.0,"o3":135.0,"so2":5.1,"mosquito_risk":0,"arthritis_risk":5,"migraine_risk":10,"frizz_risk":0,"updated_at":"2026-05-20T16:23:21.712522+05:30"},{"city":"Ghaziabad","state":"Uttar Pradesh","latitude":28.6692,"longitude":77.4538,"temp":42.8,"humidity":14,"rain":0.0,"pressure":974.3,"uv_index":7.75,"wind_gusts":31.0,"aqi":218,"pm10":337.1,"pm2_5":62.9,"no2":3.9,"co":164.0,"o3":167.0,"so2":12.0,"mosquito_risk":0,"arthritis_risk":5,"migraine_risk":10,"frizz_risk":0,"updated_at":"2026-05-20T16:23:21.712529+05:30"},{"city":"Faridabad","state":"Haryana","latitude":28.4089,"longitude":77.3178,"temp":42.8,"humidity":15,"rain":0.0,"pressure":975.5,"uv_index":7.8,"wind_gusts":35.6,"aqi":823,"pm10":828.9,"pm2_5":103.1,"no2":3.7,"co":194.0,"o3":135.0,"so2":5.1,"mosquito_risk":0,"arthritis_risk":5,"migraine_risk":10,"frizz_risk":0,"updated_at":"2026-05-20T16:23:21.712535+05:30"},{"city":"Meerut","state":"Uttar Pradesh","latitude":28.9845,"longitude":77.7064,"temp":41.6,"humidity":17,"rain":0.0,"pressure":973.6,"uv_index":7.7,"wind_gusts":28.4,"aqi":218,"pm10":337.1,"pm2_5":62.9,"no2":3.9,"co":175.0,"o3":167.0,"so2":12.0,"mosquito_risk":0,"arthritis_risk":5,"migraine_risk":10,"frizz_risk":0,"updated_at":"2026-05-20T16:23:21.712541+05:30"},{"city":"Agra","state":"Uttar Pradesh","latitude":27.1767,"longitude":78.0081,"temp":42.9,"humidity":14,"rain":0.0,"pressure":979.8,"uv_index":8.1,"wind_gusts":37.8,"aqi":404,"pm10":427.5,"pm2_5":51.2,"no2":3.7,"co":144.0,"o3":127.0,"so2":3.1,"mosquito_risk":0,"arthritis_risk":5,"migraine_risk":10,"frizz_risk":0,"updated_at":"2026-05-20T16:23:21.712548+05:30"},{"city":"Varanasi","state":"Uttar Pradesh","latitude":25.3176,"longitude":82.9739,"temp":41.4,"humidity":25,"rain":0.0,"pressure":988.8,"uv_index":8.75,"wind_gusts":39.2,"aqi":165,"pm10":147.6,"pm2_5":46.8,"no2":2.4,"co":208.0,"o3":182.0,"so2":11.9,"mosquito_risk":0,"arthritis_risk":5,"migraine_risk":10,"frizz_risk":1,"updated_at":"2026-05-20T16:23:21.712555+05:30"},{"city":"Prayagraj","state":"Uttar Pradesh","latitude":25.4358,"longitude":81.8463,"temp":43.2,"humidity":18,"rain":0.0,"pressure":986.9,"uv_index":8.6,"wind_gusts":38.2,"aqi":166,"pm10":149.9,"pm2_5":42.6,"no2":1.7,"co":178.0,"o3":169.0,"so2":10.5,"mosquito_risk":0,"arthritis_risk":5,"migraine_risk":10,"frizz_risk":0,"updated_at":"2026-05-20T16:23:21.712561+05:30"},{"city":"Gorakhpur","state":"Uttar Pradesh","latitude":26.7606,"longitude":83.3732,"temp":36.5,"humidity":48,"rain":0.0,"pressure":989.0,"uv_index":8.65,"wind_gusts":29.9,"aqi":156,"pm10":156.0,"pm2_5":63.8,"no2":2.3,"co":422.0,"o3":186.0,"so2":12.4,"mosquito_risk":0,"arthritis_risk":5,"migraine_risk":10,"frizz_risk":1,"updated_at":"2026-05-20T16:23:21.712570+05:30"},{"city":"Bareilly","state":"Uttar Pradesh","latitude":28.367,"longitude":79.4304,"temp":39.0,"humidity":33,"rain":0.0,"pressure":978.6,"uv_index":8.05,"wind_gusts":29.9,"aqi":157,"pm10":105.5,"pm2_5":38.8,"no2":1.9,"co":199.0,"o3":175.0,"so2":9.9,"mosquito_risk":0,"arthritis_risk":5,"migraine_risk":10,"frizz_risk":1,"updated_at":"2026-05-20T16:23:21.712576+05:30"},{"city":"Aligarh","state":"Uttar Pradesh","latitude":27.8974,"longitude":78.088,"temp":42.1,"humidity":17,"rain":0.0,"pressure":977.4,"uv_index":7.9,"wind_gusts":28.4,"aqi":460,"pm10":547.6,"pm2_5":78.0,"no2":2.4,"co":158.0,"o3":156.0,"so2":7.9,"mosquito_risk":0,"arthritis_risk":5,"migraine_risk":10,"frizz_risk":0,"updated_at":"2026-05-20T16:23:21.712582+05:30"},{"city":"Moradabad","state":"Uttar Pradesh","latitude":28.8386,"longitude":78.7733,"temp":39.5,"humidity":28,"rain":0.0,"pressure":975.8,"uv_index":7.9,"wind_gusts":32.0,"aqi":201,"pm10":159.7,"pm2_5":54.9,"no2":3.9,"co":224.0,"o3":205.0,"so2":14.0,"mosquito_risk":0,"arthritis_risk":5,"migraine_risk":10,"frizz_risk":1,"updated_at":"2026-05-20T16:23:21.712588+05:30"},{"city":"Saharanpur","state":"Uttar Pradesh","latitude":29.9637,"longitude":77.546,"temp":40.2,"humidity":18,"rain":0.0,"pressure":968.0,"uv_index":7.45,"wind_gusts":23.0,"aqi":154,"pm10":176.0,"pm2_5":47.4,"no2":4.3,"co":195.0,"o3":145.0,"so2":10.3,"mosquito_risk":0,"arthritis_risk":5,"migraine_risk":10,"frizz_risk":0,"updated_at":"2026-05-20T16:23:21.712595+05:30"},{"city":"Jhansi","state":"Uttar Pradesh","latitude":25.4484,"longitude":78.5685,"temp":42.9,"humidity":14,"rain":0.0,"pressure":970.9,"uv_index":8.5,"wind_gusts":40.7,"aqi":57,"pm10":25.5,"pm2_5":11.5,"no2":1.2,"co":138.0,"o3":119.0,"so2":3.7,"mosquito_risk":0,"arthritis_risk":5,"migraine_risk":10,"frizz_risk":0,"updated_at":"2026-05-20T16:23:24.990774+05:30"},{"city":"Surat","state":"Gujarat","latitude":21.1702,"longitude":72.8311,"temp":34.0,"humidity":51,"rain":0.0,"pressure":1002.4,"uv_index":7.65,"wind_gusts":47.5,"aqi":73,"pm10":51.7,"pm2_5":24.2,"no2":15.6,"co":269.0,"o3":62.0,"so2":43.6,"mosquito_risk":0,"arthritis_risk":5,"migraine_risk":4,"frizz_risk":1,"updated_at":"2026-05-20T16:23:24.990815+05:30"},{"city":"Vadodara","state":"Gujarat","latitude":22.3072,"longitude":73.1812,"temp":40.9,"humidity":20,"rain":0.0,"pressure":998.2,"uv_index":8.1,"wind_gusts":49.3,"aqi":64,"pm10":73.6,"pm2_5":25.4,"no2":1.5,"co":162.0,"o3":120.0,"so2":4.7,"mosquito_risk":0,"arthritis_risk":5,"migraine_risk":10,"frizz_risk":0,"updated_at":"2026-05-20T16:23:24.990833+05:30"},{"city":"Rajkot","state":"Gujarat","latitude":22.3039,"longitude":70.8022,"temp":40.3,"humidity":19,"rain":0.0,"pressure":988.8,"uv_index":7.75,"wind_gusts":42.1,"aqi":59,"pm10":87.3,"pm2_5":26.0,"no2":0.9,"co":125.0,"o3":104.0,"so2":4.0,"mosquito_risk":0,"arthritis_risk":5,"migraine_risk":10,"frizz_risk":0,"updated_at":"2026-05-20T16:23:24.990849+05:30"},{"city":"Thane","state":"Maharashtra","latitude":19.2183,"longitude":72.9781,"temp":34.1,"humidity":50,"rain":0.0,"pressure":1004.4,"uv_index":7.7,"wind_gusts":37.1,"aqi":68,"pm10":23.7,"pm2_5":15.5,"no2":5.7,"co":147.0,"o3":100.0,"so2":6.3,"mosquito_risk":0,"arthritis_risk":5,"migraine_risk":4,"frizz_risk":1,"updated_at":"2026-05-20T16:23:24.990863+05:30"},{"city":"Nagpur","state":"Maharashtra","latitude":21.1458,"longitude":79.0882,"temp":43.4,"humidity":12,"rain":0.0,"pressure":965.6,"uv_index":8.9,"wind_gusts":40.0,"aqi":104,"pm10":38.4,"pm2_5":16.7,"no2":5.1,"co":169.0,"o3":161.0,"so2":16.6,"mosquito_risk":0,"arthritis_risk":5,"migraine_risk":10,"frizz_risk":0,"updated_at":"2026-05-20T16:23:24.990878+05:30"},{"city":"Nashik","state":"Maharashtra","latitude":19.9975,"longitude":73.7898,"temp":32.3,"humidity":47,"rain":0.2,"pressure":943.1,"uv_index":8.2,"wind_gusts":41.4,"aqi":64,"pm10":24.4,"pm2_5":14.1,"no2":1.1,"co":129.0,"o3":99.0,"so2":1.4,"mosquito_risk":3,"arthritis_risk":5,"migraine_risk":7,"frizz_risk":1,"updated_at":"2026-05-20T16:23:24.990893+05:30"},{"city":"Aurangabad","state":"Maharashtra","latitude":19.8762,"longitude":75.3433,"temp":39.7,"humidity":18,"rain":0.0,"pressure":940.0,"uv_index":9.05,"wind_gusts":48.2,"aqi":68,"pm10":38.3,"pm2_5":20.0,"no2":1.1,"co":152.0,"o3":129.0,"so2":2.8,"mosquito_risk":0,"arthritis_risk":5,"migraine_risk":10,"frizz_risk":0,"updated_at":"2026-05-20T16:23:24.990909+05:30"},{"city":"Solapur","state":"Maharashtra","latitude":17.6599,"longitude":75.9064,"temp":38.8,"humidity":26,"rain":0.0,"pressure":952.5,"uv_index":5.45,"wind_gusts":39.2,"aqi":84,"pm10":53.0,"pm2_5":29.3,"no2":1.4,"co":156.0,"o3":155.0,"so2":6.4,"mosquito_risk":0,"arthritis_risk":5,"migraine_risk":6,"frizz_risk":0,"updated_at":"2026-05-20T16:23:24.990924+05:30"},{"city":"Kolhapur","state":"Maharashtra","latitude":16.705,"longitude":74.2433,"temp":31.6,"humidity":49,"rain":0.0,"pressure":945.0,"uv_index":3.35,"wind_gusts":37.8,"aqi":75,"pm10":46.9,"pm2_5":24.4,"no2":2.2,"co":151.0,"o3":111.0,"so2":2.7,"mosquito_risk":0,"arthritis_risk":5,"migraine_risk":3,"frizz_risk":1,"updated_at":"2026-05-20T16:23:24.990938+05:30"},{"city":"Goa","state":"Goa","latitude":15.2993,"longitude":74.124,"temp":31.4,"humidity":67,"rain":0.1,"pressure":994.5,"uv_index":7.3,"wind_gusts":26.3,"aqi":49,"pm10":5.6,"pm2_5":4.2,"no2":0.9,"co":121.0,"o3":80.0,"so2":0.6,"mosquito_risk":6,"arthritis_risk":5,"migraine_risk":7,"frizz_risk":1,"updated_at":"2026-05-20T16:23:24.990953+05:30"},{"city":"Jodhpur","state":"Rajasthan","latitude":26.2389,"longitude":73.0243,"temp":40.0,"humidity":24,"rain":0.0,"pressure":976.1,"uv_index":8.45,"wind_gusts":45.0,"aqi":129,"pm10":314.8,"pm2_5":50.8,"no2":0.5,"co":128.0,"o3":104.0,"so2":2.7,"mosquito_risk":0,"arthritis_risk":5,"migraine_risk":10,"frizz_risk":0,"updated_at":"2026-05-20T16:23:24.990968+05:30"},{"city":"Udaipur","state":"Rajasthan","latitude":24.5854,"longitude":73.7125,"temp":37.4,"humidity":19,"rain":0.0,"pressure":942.3,"uv_index":8.85,"wind_gusts":50.4,"aqi":60,"pm10":72.2,"pm2_5":20.2,"no2":0.5,"co":126.0,"o3":96.0,"so2":1.7,"mosquito_risk":0,"arthritis_risk":5,"migraine_risk":10,"frizz_risk":0,"updated_at":"2026-05-20T16:23:24.990982+05:30"},{"city":"Kota","state":"Rajasthan","latitude":25.2138,"longitude":75.8648,"temp":42.5,"humidity":12,"rain":0.0,"pressure":972.3,"uv_index":8.45,"wind_gusts":37.1,"aqi":53,"pm10":43.2,"pm2_5":17.5,"no2":0.8,"co":134.0,"o3":124.0,"so2":3.7,"mosquito_risk":0,"arthritis_risk":5,"migraine_risk":10,"frizz_risk":0,"updated_at":"2026-05-20T16:23:24.990995+05:30"},{"city":"Bikaner","state":"Rajasthan","latitude":28.0229,"longitude":73.3119,"temp":42.3,"humidity":14,"rain":0.0,"pressure":973.9,"uv_index":8.4,"wind_gusts":34.6,"aqi":95,"pm10":81.5,"pm2_5":26.2,"no2":0.4,"co":131.0,"o3":109.0,"so2":2.5,"mosquito_risk":0,"arthritis_risk":5,"migraine_risk":10,"frizz_risk":0,"updated_at":"2026-05-20T16:23:24.991007+05:30"},{"city":"Ajmer","state":"Rajasthan","latitude":26.4499,"longitude":74.6399,"temp":37.5,"humidity":21,"rain":0.0,"pressure":949.5,"uv_index":8.4,"wind_gusts":44.3,"aqi":54,"pm10":50.5,"pm2_5":17.9,"no2":0.6,"co":137.0,"o3":107.0,"so2":1.9,"mosquito_risk":0,"arthritis_risk":5,"migraine_risk":10,"frizz_risk":0,"updated_at":"2026-05-20T16:23:24.991047+05:30"},{"city":"Gwalior","state":"Madhya Pradesh","latitude":26.2183,"longitude":78.1828,"temp":42.5,"humidity":14,"rain":0.0,"pressure":975.9,"uv_index":8.3,"wind_gusts":44.6,"aqi":76,"pm10":39.8,"pm2_5":15.9,"no2":0.8,"co":156.0,"o3":120.0,"so2":2.2,"mosquito_risk":0,"arthritis_risk":5,"migraine_risk":10,"frizz_risk":0,"updated_at":"2026-05-20T16:23:24.991066+05:30"},{"city":"Indore","state":"Madhya Pradesh","latitude":22.7196,"longitude":75.8577,"temp":39.5,"humidity":18,"rain":0.0,"pressure":944.0,"uv_index":8.2,"wind_gusts":43.6,"aqi":60,"pm10":49.5,"pm2_5":22.5,"no2":1.2,"co":164.0,"o3":126.0,"so2":4.0,"mosquito_risk":0,"arthritis_risk":5,"migraine_risk":10,"frizz_risk":0,"updated_at":"2026-05-20T16:23:24.991080+05:30"},{"city":"Bhopal","state":"Madhya Pradesh","latitude":23.2599,"longitude":77.4126,"temp":41.2,"humidity":14,"rain":0.0,"pressure":948.4,"uv_index":8.7,"wind_gusts":46.1,"aqi":69,"pm10":32.8,"pm2_5":16.5,"no2":1.2,"co":169.0,"o3":126.0,"so2":3.2,"mosquito_risk":0,"arthritis_risk":5,"migraine_risk":10,"frizz_risk":0,"updated_at":"2026-05-20T16:23:24.991094+05:30"},{"city":"Jabalpur","state":"Madhya Pradesh","latitude":23.1815,"longitude":79.9864,"temp":43.0,"humidity":12,"rain":0.0,"pressure":954.6,"uv_index":8.85,"wind_gusts":29.2,"aqi":108,"pm10":61.0,"pm2_5":21.1,"no2":1.2,"co":157.0,"o3":139.0,"so2":4.9,"mosquito_risk":0,"arthritis_risk":5,"migraine_risk":10,"frizz_risk":0,"updated_at":"2026-05-20T16:23:24.991107+05:30"},{"city":"Ujjain","state":"Madhya Pradesh","latitude":23.1765,"longitude":75.7885,"temp":39.5,"humidity":18,"rain":0.0,"pressure":949.4,"uv_index":8.3,"wind_gusts":45.0,"aqi":58,"pm10":49.9,"pm2_5":20.8,"no2":0.7,"co":135.0,"o3":117.0,"so2":3.1,"mosquito_risk":0,"arthritis_risk":5,"migraine_risk":10,"frizz_risk":0,"updated_at":"2026-05-20T16:23:24.991123+05:30"},{"city":"Visakhapatnam","state":"Andhra Pradesh","latitude":17.6868,"longitude":83.2185,"temp":41.0,"humidity":29,"rain":0.0,"pressure":994.8,"uv_index":8.65,"wind_gusts":35.6,"aqi":150,"pm10":49.4,"pm2_5":44.1,"no2":18.5,"co":493.0,"o3":187.0,"so2":49.8,"mosquito_risk":0,"arthritis_risk":5,"migraine_risk":10,"frizz_risk":1,"updated_at":"2026-05-20T16:23:24.991137+05:30"},{"city":"Vijayawada","state":"Andhra Pradesh","latitude":16.5062,"longitude":80.648,"temp":42.3,"humidity":24,"rain":0.0,"pressure":994.1,"uv_index":8.65,"wind_gusts":39.6,"aqi":119,"pm10":56.5,"pm2_5":39.3,"no2":2.5,"co":213.0,"o3":161.0,"so2":6.2,"mosquito_risk":0,"arthritis_risk":5,"migraine_risk":10,"frizz_risk":1,"updated_at":"2026-05-20T16:23:24.991152+05:30"},{"city":"Guntur","state":"Andhra Pradesh","latitude":16.3067,"longitude":80.4365,"temp":42.5,"humidity":21,"rain":0.0,"pressure":995.3,"uv_index":8.35,"wind_gusts":41.4,"aqi":104,"pm10":55.9,"pm2_5":35.7,"no2":1.3,"co":205.0,"o3":154.0,"so2":5.2,"mosquito_risk":0,"arthritis_risk":5,"migraine_risk":10,"frizz_risk":0,"updated_at":"2026-05-20T16:23:24.991166+05:30"},{"city":"Nellore","state":"Andhra Pradesh","latitude":14.4426,"longitude":79.9865,"temp":42.5,"humidity":23,"rain":0.0,"pressure":997.2,"uv_index":8.85,"wind_gusts":46.4,"aqi":75,"pm10":39.6,"pm2_5":28.7,"no2":3.3,"co":200.0,"o3":158.0,"so2":5.5,"mosquito_risk":0,"arthritis_risk":5,"migraine_risk":10,"frizz_risk":1,"updated_at":"2026-05-20T16:23:24.991182+05:30"},{"city":"Kurnool","state":"Andhra Pradesh","latitude":15.8281,"longitude":78.0373,"temp":39.9,"humidity":26,"rain":0.0,"pressure":970.8,"uv_index":8.25,"wind_gusts":38.9,"aqi":77,"pm10":53.1,"pm2_5":33.5,"no2":1.3,"co":182.0,"o3":163.0,"so2":8.2,"mosquito_risk":0,"arthritis_risk":5,"migraine_risk":10,"frizz_risk":1,"updated_at":"2026-05-20T16:23:24.991198+05:30"},{"city":"Kakinada","state":"Andhra Pradesh","latitude":16.9891,"longitude":82.2475,"temp":39.8,"humidity":36,"rain":0.1,"pressure":998.9,"uv_index":8.6,"wind_gusts":39.2,"aqi":109,"pm10":28.8,"pm2_5":21.9,"no2":2.4,"co":251.0,"o3":131.0,"so2":3.0,"mosquito_risk":3,"arthritis_risk":5,"migraine_risk":10,"frizz_risk":1,"updated_at":"2026-05-20T16:23:24.991213+05:30"},{"city":"Tirupati","state":"Andhra Pradesh","latitude":13.6288,"longitude":79.4192,"temp":39.7,"humidity":29,"rain":0.0,"pressure":983.8,"uv_index":9.05,"wind_gusts":34.6,"aqi":64,"pm10":21.6,"pm2_5":16.7,"no2":3.4,"co":196.0,"o3":122.0,"so2":2.6,"mosquito_risk":0,"arthritis_risk":5,"migraine_risk":10,"frizz_risk":1,"updated_at":"2026-05-20T16:23:24.991227+05:30"},{"city":"Warangal","state":"Telangana","latitude":17.9689,"longitude":79.5941,"temp":40.5,"humidity":21,"rain":0.0,"pressure":972.0,"uv_index":8.75,"wind_gusts":29.9,"aqi":116,"pm10":57.5,"pm2_5":35.0,"no2":2.2,"co":211.0,"o3":157.0,"so2":6.1,"mosquito_risk":0,"arthritis_risk":5,"migraine_risk":10,"frizz_risk":0,"updated_at":"2026-05-20T16:23:24.991241+05:30"},{"city":"Nizamabad","state":"Telangana","latitude":18.6725,"longitude":78.0941,"temp":41.5,"humidity":16,"rain":0.0,"pressure":958.8,"uv_index":8.9,"wind_gusts":32.0,"aqi":101,"pm10":42.7,"pm2_5":23.5,"no2":0.7,"co":183.0,"o3":151.0,"so2":5.6,"mosquito_risk":0,"arthritis_risk":5,"migraine_risk":10,"frizz_risk":0,"updated_at":"2026-05-20T16:23:24.991255+05:30"},{"city":"Mysore","state":"Karnataka","latitude":12.2958,"longitude":76.6396,"temp":25.5,"humidity":82,"rain":0.4,"pressure":926.0,"uv_index":3.9,"wind_gusts":43.9,"aqi":34,"pm10":5.5,"pm2_5":4.5,"no2":3.3,"co":167.0,"o3":94.0,"so2":1.3,"mosquito_risk":10,"arthritis_risk":5,"migraine_risk":3,"frizz_risk":1,"updated_at":"2026-05-20T16:23:24.991270+05:30"},{"city":"Mangalore","state":"Karnataka","latitude":12.9141,"longitude":74.856,"temp":29.2,"humidity":77,"rain":0.0,"pressure":1003.8,"uv_index":4.5,"wind_gusts":29.2,"aqi":37,"pm10":8.6,"pm2_5":5.8,"no2":0.9,"co":142.0,"o3":71.0,"so2":0.9,"mosquito_risk":7,"arthritis_risk":5,"migraine_risk":0,"frizz_risk":1,"updated_at":"2026-05-20T16:23:24.991283+05:30"},{"city":"Hubli-Dharwad","state":"Karnataka","latitude":15.3647,"longitude":75.124,"temp":31.0,"humidity":58,"rain":0.0,"pressure":937.7,"uv_index":8.8,"wind_gusts":39.6,"aqi":36,"pm10":6.2,"pm2_5":4.9,"no2":2.4,"co":159.0,"o3":89.0,"so2":0.7,"mosquito_risk":0,"arthritis_risk":5,"migraine_risk":7,"frizz_risk":1,"updated_at":"2026-05-20T16:23:24.991297+05:30"},{"city":"Belgaum","state":"Karnataka","latitude":15.8497,"longitude":74.4977,"temp":30.0,"humidity":55,"rain":0.0,"pressure":923.3,"uv_index":8.95,"wind_gusts":34.9,"aqi":66,"pm10":36.7,"pm2_5":19.6,"no2":2.2,"co":144.0,"o3":106.0,"so2":2.8,"mosquito_risk":4,"arthritis_risk":5,"migraine_risk":7,"frizz_risk":1,"updated_at":"2026-05-20T16:23:28.270804+05:30"},{"city":"Coimbatore","state":"Tamil Nadu","latitude":11.0168,"longitude":76.9558,"temp":30.6,"humidity":61,"rain":0.0,"pressure":958.3,"uv_index":7.5,"wind_gusts":53.6,"aqi":35,"pm10":5.5,"pm2_5":4.7,"no2":2.4,"co":171.0,"o3":82.0,"so2":1.6,"mosquito_risk":3,"arthritis_risk":5,"migraine_risk":7,"frizz_risk":1,"updated_at":"2026-05-20T16:23:28.270834+05:30"},{"city":"Madurai","state":"Tamil Nadu","latitude":9.9252,"longitude":78.1198,"temp":33.7,"humidity":53,"rain":0.0,"pressure":988.7,"uv_index":8.65,"wind_gusts":53.3,"aqi":74,"pm10":5.6,"pm2_5":4.5,"no2":2.3,"co":184.0,"o3":96.0,"so2":1.4,"mosquito_risk":0,"arthritis_risk":5,"migraine_risk":7,"frizz_risk":1,"updated_at":"2026-05-20T16:23:28.270844+05:30"},{"city":"Trichy","state":"Tamil Nadu","latitude":10.7905,"longitude":78.7047,"temp":34.5,"humidity":51,"rain":0.0,"pressure":994.6,"uv_index":8.25,"wind_gusts":40.7,"aqi":38,"pm10":6.0,"pm2_5":5.0,"no2":2.4,"co":168.0,"o3":102.0,"so2":1.9,"mosquito_risk":0,"arthritis_risk":5,"migraine_risk":7,"frizz_risk":1,"updated_at":"2026-05-20T16:23:28.270853+05:30"},{"city":"Salem","state":"Tamil Nadu","latitude":11.6643,"longitude":78.146,"temp":30.3,"humidity":71,"rain":0.1,"pressure":973.4,"uv_index":6.8,"wind_gusts":37.4,"aqi":51,"pm10":8.9,"pm2_5":7.8,"no2":3.6,"co":192.0,"o3":120.0,"so2":6.9,"mosquito_risk":6,"arthritis_risk":5,"migraine_risk":7,"frizz_risk":1,"updated_at":"2026-05-20T16:23:28.270861+05:30"},{"city":"Tirunelveli","state":"Tamil Nadu","latitude":8.7139,"longitude":77.7567,"temp":35.3,"humidity":46,"rain":0.0,"pressure":998.9,"uv_index":8.75,"wind_gusts":39.2,"aqi":31,"pm10":5.5,"pm2_5":4.3,"no2":1.6,"co":136.0,"o3":72.0,"so2":0.8,"mosquito_risk":0,"arthritis_risk":5,"migraine_risk":10,"frizz_risk":1,"updated_at":"2026-05-20T16:23:28.270869+05:30"},{"city":"Vellore","state":"Tamil Nadu","latitude":12.9165,"longitude":79.1325,"temp":35.2,"humidity":42,"rain":0.1,"pressure":978.5,"uv_index":8.85,"wind_gusts":47.9,"aqi":53,"pm10":14.5,"pm2_5":12.0,"no2":2.0,"co":250.0,"o3":118.0,"so2":2.2,"mosquito_risk":3,"arthritis_risk":5,"migraine_risk":10,"frizz_risk":1,"updated_at":"2026-05-20T16:23:28.270877+05:30"},{"city":"Erode","state":"Tamil Nadu","latitude":11.341,"longitude":77.7172,"temp":33.7,"humidity":52,"rain":0.1,"pressure":984.8,"uv_index":7.0,"wind_gusts":36.0,"aqi":41,"pm10":6.7,"pm2_5":5.8,"no2":3.1,"co":193.0,"o3":101.0,"so2":1.6,"mosquito_risk":3,"arthritis_risk":5,"migraine_risk":7,"frizz_risk":1,"updated_at":"2026-05-20T16:23:28.270885+05:30"},{"city":"Kochi","state":"Kerala","latitude":9.9312,"longitude":76.2673,"temp":29.6,"humidity":76,"rain":0.0,"pressure":1006.1,"uv_index":7.7,"wind_gusts":31.3,"aqi":51,"pm10":11.3,"pm2_5":8.4,"no2":2.1,"co":138.0,"o3":81.0,"so2":2.4,"mosquito_risk":7,"arthritis_risk":5,"migraine_risk":4,"frizz_risk":1,"updated_at":"2026-05-20T16:23:28.270892+05:30"},{"city":"Thiruvananthapuram","state":"Kerala","latitude":8.5241,"longitude":76.9366,"temp":29.0,"humidity":79,"rain":0.0,"pressure":1005.6,"uv_index":8.15,"wind_gusts":41.8,"aqi":28,"pm10":10.2,"pm2_5":6.1,"no2":1.0,"co":146.0,"o3":63.0,"so2":0.5,"mosquito_risk":7,"arthritis_risk":5,"migraine_risk":4,"frizz_risk":1,"updated_at":"2026-05-20T16:23:28.270900+05:30"},{"city":"Kozhikode","state":"Kerala","latitude":11.2588,"longitude":75.7804,"temp":29.6,"humidity":77,"rain":0.1,"pressure":1005.2,"uv_index":6.35,"wind_gusts":32.8,"aqi":32,"pm10":8.0,"pm2_5":5.1,"no2":0.4,"co":153.0,"o3":66.0,"so2":0.3,"mosquito_risk":10,"arthritis_risk":5,"migraine_risk":4,"frizz_risk":1,"updated_at":"2026-05-20T16:23:28.270907+05:30"},{"city":"Thrissur","state":"Kerala","latitude":10.5276,"longitude":76.2144,"temp":29.0,"humidity":81,"rain":0.0,"pressure":1004.5,"uv_index":7.45,"wind_gusts":36.0,"aqi":43,"pm10":10.4,"pm2_5":8.1,"no2":1.6,"co":139.0,"o3":83.0,"so2":1.9,"mosquito_risk":7,"arthritis_risk":5,"migraine_risk":4,"frizz_risk":1,"updated_at":"2026-05-20T16:23:28.270915+05:30"},{"city":"Kannur","state":"Kerala","latitude":11.8745,"longitude":75.3704,"temp":29.8,"humidity":74,"rain":0.1,"pressure":1004.5,"uv_index":8.1,"wind_gusts":28.8,"aqi":34,"pm10":8.2,"pm2_5":5.5,"no2":0.8,"co":136.0,"o3":68.0,"so2":0.6,"mosquito_risk":10,"arthritis_risk":5,"migraine_risk":4,"frizz_risk":1,"updated_at":"2026-05-20T16:23:28.270923+05:30"},{"city":"Patna","state":"Bihar","latitude":25.5941,"longitude":85.1376,"temp":36.0,"humidity":51,"rain":0.0,"pressure":992.3,"uv_index":8.85,"wind_gusts":24.5,"aqi":155,"pm10":115.9,"pm2_5":66.8,"no2":4.8,"co":404.0,"o3":184.0,"so2":14.0,"mosquito_risk":0,"arthritis_risk":5,"migraine_risk":10,"frizz_risk":1,"updated_at":"2026-05-20T16:23:28.270930+05:30"},{"city":"Gaya","state":"Bihar","latitude":24.7914,"longitude":85.0002,"temp":38.0,"humidity":40,"rain":0.0,"pressure":985.5,"uv_index":8.9,"wind_gusts":31.0,"aqi":156,"pm10":159.7,"pm2_5":62.4,"no2":2.4,"co":307.0,"o3":173.0,"so2":11.5,"mosquito_risk":0,"arthritis_risk":5,"migraine_risk":10,"frizz_risk":1,"updated_at":"2026-05-20T16:23:28.270937+05:30"},{"city":"Muzaffarpur","state":"Bihar","latitude":26.1209,"longitude":85.3647,"temp":31.5,"humidity":70,"rain":0.0,"pressure":992.6,"uv_index":8.85,"wind_gusts":27.0,"aqi":153,"pm10":96.2,"pm2_5":65.0,"no2":5.1,"co":392.0,"o3":181.0,"so2":14.4,"mosquito_risk":3,"arthritis_risk":5,"migraine_risk":7,"frizz_risk":1,"updated_at":"2026-05-20T16:23:28.270944+05:30"},{"city":"Bhagalpur","state":"Bihar","latitude":25.2425,"longitude":87.0117,"temp":33.0,"humidity":66,"rain":0.2,"pressure":993.1,"uv_index":8.7,"wind_gusts":31.7,"aqi":153,"pm10":79.4,"pm2_5":57.7,"no2":5.8,"co":359.0,"o3":205.0,"so2":25.2,"mosquito_risk":6,"arthritis_risk":5,"migraine_risk":7,"frizz_risk":1,"updated_at":"2026-05-20T16:23:28.270951+05:30"},{"city":"Ranchi","state":"Jharkhand","latitude":23.3441,"longitude":85.3096,"temp":34.8,"humidity":31,"rain":0.0,"pressure":931.9,"uv_index":9.3,"wind_gusts":44.6,"aqi":141,"pm10":160.7,"pm2_5":39.2,"no2":1.7,"co":218.0,"o3":147.0,"so2":6.6,"mosquito_risk":0,"arthritis_risk":5,"migraine_risk":7,"frizz_risk":0,"updated_at":"2026-05-20T16:23:28.270958+05:30"},{"city":"Jamshedpur","state":"Jharkhand","latitude":22.8046,"longitude":86.2029,"temp":39.5,"humidity":27,"rain":0.0,"pressure":981.5,"uv_index":9.1,"wind_gusts":34.6,"aqi":170,"pm10":148.1,"pm2_5":59.4,"no2":7.4,"co":217.0,"o3":208.0,"so2":30.8,"mosquito_risk":0,"arthritis_risk":5,"migraine_risk":10,"frizz_risk":1,"updated_at":"2026-05-20T16:23:28.270965+05:30"},{"city":"Dhanbad","state":"Jharkhand","latitude":23.7957,"longitude":86.4304,"temp":38.8,"humidity":30,"rain":0.0,"pressure":971.5,"uv_index":9.1,"wind_gusts":38.2,"aqi":166,"pm10":158.3,"pm2_5":67.3,"no2":11.0,"co":253.0,"o3":211.0,"so2":42.8,"mosquito_risk":0,"arthritis_risk":5,"migraine_risk":10,"frizz_risk":1,"updated_at":"2026-05-20T16:23:28.270973+05:30"},{"city":"Bokaro","state":"Jharkhand","latitude":23.6693,"longitude":86.1511,"temp":38.2,"humidity":33,"rain":0.0,"pressure":975.3,"uv_index":9.1,"wind_gusts":41.0,"aqi":167,"pm10":177.0,"pm2_5":57.3,"no2":9.3,"co":250.0,"o3":176.0,"so2":37.1,"mosquito_risk":0,"arthritis_risk":5,"migraine_risk":10,"frizz_risk":1,"updated_at":"2026-05-20T16:23:28.270980+05:30"},{"city":"Bhubaneswar","state":"Odisha","latitude":20.2961,"longitude":85.8245,"temp":38.2,"humidity":44,"rain":0.1,"pressure":992.9,"uv_index":9.15,"wind_gusts":37.8,"aqi":133,"pm10":87.3,"pm2_5":49.2,"no2":6.5,"co":317.0,"o3":194.0,"so2":16.6,"mosquito_risk":3,"arthritis_risk":5,"migraine_risk":10,"frizz_risk":1,"updated_at":"2026-05-20T16:23:28.270987+05:30"},{"city":"Cuttack","state":"Odisha","latitude":20.4625,"longitude":85.8828,"temp":38.8,"humidity":40,"rain":0.0,"pressure":994.2,"uv_index":9.2,"wind_gusts":30.2,"aqi":133,"pm10":87.3,"pm2_5":49.2,"no2":6.5,"co":259.0,"o3":194.0,"so2":16.6,"mosquito_risk":0,"arthritis_risk":5,"migraine_risk":10,"frizz_risk":1,"updated_at":"2026-05-20T16:23:28.270993+05:30"},{"city":"Rourkela","state":"Odisha","latitude":22.2604,"longitude":84.8536,"temp":40.2,"humidity":25,"rain":0.0,"pressure":976.1,"uv_index":9.0,"wind_gusts":35.6,"aqi":155,"pm10":176.0,"pm2_5":34.6,"no2":3.3,"co":294.0,"o3":137.0,"so2":4.0,"mosquito_risk":0,"arthritis_risk":5,"migraine_risk":10,"frizz_risk":1,"updated_at":"2026-05-20T16:23:28.271000+05:30"},{"city":"Raipur","state":"Chhattisgarh","latitude":21.2514,"longitude":81.6296,"temp":42.1,"humidity":18,"rain":0.0,"pressure":967.5,"uv_index":9.0,"wind_gusts":33.1,"aqi":143,"pm10":72.4,"pm2_5":45.2,"no2":9.1,"co":162.0,"o3":176.0,"so2":31.2,"mosquito_risk":0,"arthritis_risk":5,"migraine_risk":10,"frizz_risk":0,"updated_at":"2026-05-20T16:23:28.271007+05:30"},{"city":"Bhilai","state":"Chhattisgarh","latitude":21.1938,"longitude":81.3509,"temp":41.5,"humidity":19,"rain":0.0,"pressure":967.8,"uv_index":8.9,"wind_gusts":34.9,"aqi":135,"pm10":69.2,"pm2_5":39.1,"no2":10.2,"co":258.0,"o3":160.0,"so2":29.7,"mosquito_risk":0,"arthritis_risk":5,"migraine_risk":10,"frizz_risk":0,"updated_at":"2026-05-20T16:23:28.271014+05:30"},{"city":"Guwahati","state":"Assam","latitude":26.1158,"longitude":91.7086,"temp":30.1,"humidity":76,"rain":0.0,"pressure":993.4,"uv_index":8.2,"wind_gusts":21.6,"aqi":138,"pm10":51.0,"pm2_5":34.1,"no2":2.6,"co":324.0,"o3":125.0,"so2":4.1,"mosquito_risk":3,"arthritis_risk":5,"migraine_risk":7,"frizz_risk":1,"updated_at":"2026-05-20T16:23:28.271021+05:30"},{"city":"Agartala","state":"Tripura","latitude":23.8315,"longitude":91.2868,"temp":32.1,"humidity":74,"rain":0.0,"pressure":997.4,"uv_index":8.85,"wind_gusts":28.4,"aqi":85,"pm10":37.3,"pm2_5":25.8,"no2":6.6,"co":226.0,"o3":130.0,"so2":3.0,"mosquito_risk":3,"arthritis_risk":5,"migraine_risk":7,"frizz_risk":1,"updated_at":"2026-05-20T16:23:28.271028+05:30"},{"city":"Shillong","state":"Meghalaya","latitude":25.5788,"longitude":91.8933,"temp":24.4,"humidity":68,"rain":0.0,"pressure":853.4,"uv_index":8.5,"wind_gusts":22.7,"aqi":91,"pm10":31.0,"pm2_5":18.6,"no2":2.2,"co":254.0,"o3":119.0,"so2":2.9,"mosquito_risk":3,"arthritis_risk":5,"migraine_risk":7,"frizz_risk":1,"updated_at":"2026-05-20T16:23:28.271035+05:30"},{"city":"Imphal","state":"Manipur","latitude":24.817,"longitude":93.9368,"temp":29.7,"humidity":59,"rain":0.0,"pressure":916.6,"uv_index":9.25,"wind_gusts":30.2,"aqi":112,"pm10":44.8,"pm2_5":23.5,"no2":1.5,"co":229.0,"o3":107.0,"so2":3.6,"mosquito_risk":4,"arthritis_risk":5,"migraine_risk":7,"frizz_risk":1,"updated_at":"2026-05-20T16:23:28.271042+05:30"},{"city":"Aizawl","state":"Mizoram","latitude":23.7271,"longitude":92.7176,"temp":27.3,"humidity":60,"rain":0.0,"pressure":887.3,"uv_index":9.1,"wind_gusts":21.6,"aqi":83,"pm10":59.6,"pm2_5":31.1,"no2":1.9,"co":202.0,"o3":109.0,"so2":3.5,"mosquito_risk":4,"arthritis_risk":5,"migraine_risk":7,"frizz_risk":1,"updated_at":"2026-05-20T16:23:28.271048+05:30"},{"city":"Kohima","state":"Nagaland","latitude":25.6701,"longitude":94.1077,"temp":22.8,"humidity":91,"rain":0.0,"pressure":851.0,"uv_index":8.65,"wind_gusts":29.9,"aqi":110,"pm10":46.2,"pm2_5":24.4,"no2":1.9,"co":230.0,"o3":111.0,"so2":2.7,"mosquito_risk":3,"arthritis_risk":5,"migraine_risk":7,"frizz_risk":1,"updated_at":"2026-05-20T16:23:28.271056+05:30"},{"city":"Gangtok","state":"Sikkim","latitude":27.3314,"longitude":88.6138,"temp":21.7,"humidity":84,"rain":0.1,"pressure":835.0,"uv_index":9.2,"wind_gusts":37.4,"aqi":83,"pm10":43.9,"pm2_5":25.4,"no2":2.6,"co":328.0,"o3":131.0,"so2":3.0,"mosquito_risk":6,"arthritis_risk":5,"migraine_risk":7,"frizz_risk":1,"updated_at":"2026-05-20T16:23:28.271063+05:30"},{"city":"Siliguri","state":"West Bengal","latitude":26.7271,"longitude":88.3953,"temp":30.7,"humidity":71,"rain":0.0,"pressure":985.5,"uv_index":8.7,"wind_gusts":23.4,"aqi":128,"pm10":68.0,"pm2_5":39.8,"no2":4.7,"co":502.0,"o3":143.0,"so2":5.1,"mosquito_risk":3,"arthritis_risk":5,"migraine_risk":7,"frizz_risk":1,"updated_at":"2026-05-20T16:23:31.546970+05:30"},{"city":"Durgapur","state":"West Bengal","latitude":23.5204,"longitude":87.3119,"temp":37.2,"humidity":44,"rain":0.0,"pressure":985.9,"uv_index":9.0,"wind_gusts":24.8,"aqi":158,"pm10":146.7,"pm2_5":92.9,"no2":16.6,"co":568.0,"o3":232.0,"so2":64.1,"mosquito_risk":0,"arthritis_risk":5,"migraine_risk":10,"frizz_risk":1,"updated_at":"2026-05-20T16:23:31.547002+05:30"},{"city":"Asansol","state":"West Bengal","latitude":23.6739,"longitude":86.9524,"temp":37.2,"humidity":42,"rain":0.0,"pressure":984.6,"uv_index":9.05,"wind_gusts":24.1,"aqi":157,"pm10":148.1,"pm2_5":87.1,"no2":15.5,"co":418.0,"o3":227.0,"so2":54.8,"mosquito_risk":0,"arthritis_risk":5,"migraine_risk":10,"frizz_risk":1,"updated_at":"2026-05-20T16:23:31.547012+05:30"},{"city":"Pondicherry","state":"Puducherry","latitude":11.9139,"longitude":79.8145,"temp":35.2,"humidity":53,"rain":0.0,"pressure":1001.8,"uv_index":5.3,"wind_gusts":29.2,"aqi":82,"pm10":29.0,"pm2_5":25.4,"no2":8.7,"co":266.0,"o3":170.0,"so2":11.0,"mosquito_risk":0,"arthritis_risk":5,"migraine_risk":3,"frizz_risk":1,"updated_at":"2026-05-20T16:23:31.547021+05:30"},{"city":"Port Blair","state":"Andaman and Nicobar Islands","latitude":11.6234,"longitude":92.7265,"temp":29.1,"humidity":80,"rain":0.0,"pressure":1001.8,"uv_index":8.75,"wind_gusts":46.8,"aqi":26,"pm10":10.6,"pm2_5":6.4,"no2":0.5,"co":144.0,"o3":45.0,"so2":0.5,"mosquito_risk":7,"arthritis_risk":5,"migraine_risk":4,"frizz_risk":1,"updated_at":"2026-05-20T16:23:31.547030+05:30"},{"city":"Haridwar","state":"Uttarakhand","latitude":29.9457,"longitude":78.1642,"temp":39.0,"humidity":25,"rain":0.0,"pressure":966.5,"uv_index":7.6,"wind_gusts":28.8,"aqi":140,"pm10":58.2,"pm2_5":25.1,"no2":1.3,"co":288.0,"o3":146.0,"so2":6.7,"mosquito_risk":0,"arthritis_risk":5,"migraine_risk":10,"frizz_risk":0,"updated_at":"2026-05-20T16:23:31.547038+05:30"},{"city":"Rishikesh","state":"Uttarakhand","latitude":30.0869,"longitude":78.2676,"temp":38.5,"humidity":21,"rain":0.0,"pressure":959.5,"uv_index":7.7,"wind_gusts":24.1,"aqi":105,"pm10":24.9,"pm2_5":12.5,"no2":0.4,"co":261.0,"o3":140.0,"so2":3.9,"mosquito_risk":0,"arthritis_risk":5,"migraine_risk":10,"frizz_risk":0,"updated_at":"2026-05-20T16:23:31.547046+05:30"},{"city":"Nainital","state":"Uttarakhand","latitude":29.3919,"longitude":79.4542,"temp":26.6,"humidity":21,"rain":0.0,"pressure":806.3,"uv_index":8.55,"wind_gusts":59.0,"aqi":128,"pm10":46.9,"pm2_5":19.2,"no2":1.1,"co":250.0,"o3":159.0,"so2":6.4,"mosquito_risk":4,"arthritis_risk":5,"migraine_risk":7,"frizz_risk":0,"updated_at":"2026-05-20T16:23:31.547054+05:30"},{"city":"Mussoorie","state":"Uttarakhand","latitude":30.4599,"longitude":78.0664,"temp":25.9,"humidity":20,"rain":0.0,"pressure":803.9,"uv_index":8.1,"wind_gusts":54.0,"aqi":120,"pm10":33.3,"pm2_5":19.0,"no2":1.0,"co":248.0,"o3":151.0,"so2":5.7,"mosquito_risk":4,"arthritis_risk":5,"migraine_risk":7,"frizz_risk":0,"updated_at":"2026-05-20T16:23:31.547062+05:30"},{"city":"Dharamshala","state":"Himachal Pradesh","latitude":32.219,"longitude":76.3234,"temp":30.2,"humidity":23,"rain":0.0,"pressure":867.2,"uv_index":8.5,"wind_gusts":46.4,"aqi":87,"pm10":56.5,"pm2_5":16.1,"no2":0.2,"co":175.0,"o3":150.0,"so2":4.3,"mosquito_risk":0,"arthritis_risk":5,"migraine_risk":7,"frizz_risk":0,"updated_at":"2026-05-20T16:23:31.547070+05:30"},{"city":"Dalhousie","state":"Himachal Pradesh","latitude":32.5387,"longitude":75.971,"temp":25.7,"humidity":34,"rain":0.0,"pressure":805.2,"uv_index":8.75,"wind_gusts":42.8,"aqi":103,"pm10":75.7,"pm2_5":21.9,"no2":0.5,"co":175.0,"o3":164.0,"so2":5.2,"mosquito_risk":4,"arthritis_risk":5,"migraine_risk":7,"frizz_risk":0,"updated_at":"2026-05-20T16:23:31.547079+05:30"},{"city":"Patiala","state":"Punjab","latitude":30.3398,"longitude":76.3869,"temp":43.0,"humidity":12,"rain":0.0,"pressure":969.5,"uv_index":7.7,"wind_gusts":23.0,"aqi":526,"pm10":624.0,"pm2_5":88.9,"no2":1.3,"co":214.0,"o3":124.0,"so2":5.6,"mosquito_risk":0,"arthritis_risk":5,"migraine_risk":10,"frizz_risk":0,"updated_at":"2026-05-20T16:23:31.547087+05:30"},{"city":"Bhatinda","state":"Punjab","latitude":30.211,"longitude":74.9455,"temp":42.8,"humidity":16,"rain":0.0,"pressure":974.9,"uv_index":8.35,"wind_gusts":30.2,"aqi":104,"pm10":88.9,"pm2_5":28.1,"no2":1.4,"co":156.0,"o3":117.0,"so2":5.6,"mosquito_risk":0,"arthritis_risk":5,"migraine_risk":10,"frizz_risk":0,"updated_at":"2026-05-20T16:23:31.547094+05:30"},{"city":"Rohtak","state":"Haryana","latitude":28.8955,"longitude":76.6066,"temp":42.0,"humidity":16,"rain":0.0,"pressure":973.6,"uv_index":7.8,"wind_gusts":27.7,"aqi":414,"pm10":467.5,"pm2_5":64.0,"no2":2.3,"co":174.0,"o3":124.0,"so2":2.3,"mosquito_risk":0,"arthritis_risk":5,"migraine_risk":10,"frizz_risk":0,"updated_at":"2026-05-20T16:23:31.547101+05:30"},{"city":"Panipat","state":"Haryana","latitude":29.3909,"longitude":76.9635,"temp":42.9,"humidity":13,"rain":0.0,"pressure":971.9,"uv_index":7.65,"wind_gusts":31.3,"aqi":972,"pm10":879.2,"pm2_5":105.2,"no2":3.5,"co":153.0,"o3":126.0,"so2":7.0,"mosquito_risk":0,"arthritis_risk":5,"migraine_risk":10,"frizz_risk":0,"updated_at":"2026-05-20T16:23:31.547109+05:30"},{"city":"Mathura","state":"Uttar Pradesh","latitude":27.4924,"longitude":77.6737,"temp":43.2,"humidity":14,"rain":0.0,"pressure":978.5,"uv_index":8.05,"wind_gusts":39.6,"aqi":367,"pm10":399.5,"pm2_5":49.1,"no2":2.8,"co":144.0,"o3":124.0,"so2":2.4,"mosquito_risk":0,"arthritis_risk":5,"migraine_risk":10,"frizz_risk":0,"updated_at":"2026-05-20T16:23:31.547115+05:30"},{"city":"Vrindavan","state":"Uttar Pradesh","latitude":27.5823,"longitude":77.7027,"temp":42.6,"humidity":16,"rain":0.0,"pressure":978.9,"uv_index":8.0,"wind_gusts":29.9,"aqi":367,"pm10":399.5,"pm2_5":49.1,"no2":2.8,"co":145.0,"o3":124.0,"so2":2.4,"mosquito_risk":0,"arthritis_risk":5,"migraine_risk":10,"frizz_risk":0,"updated_at":"2026-05-20T16:23:31.547122+05:30"},{"city":"Ayodhya","state":"Uttar Pradesh","latitude":26.7922,"longitude":82.1998,"temp":39.6,"humidity":35,"rain":0.0,"pressure":986.3,"uv_index":8.4,"wind_gusts":21.6,"aqi":160,"pm10":169.5,"pm2_5":53.6,"no2":1.8,"co":308.0,"o3":178.0,"so2":11.3,"mosquito_risk":0,"arthritis_risk":5,"migraine_risk":10,"frizz_risk":1,"updated_at":"2026-05-20T16:23:31.547129+05:30"},{"city":"Ratlam","state":"Madhya Pradesh","latitude":23.3315,"longitude":75.0367,"temp":38.3,"humidity":21,"rain":0.0,"pressure":950.7,"uv_index":8.5,"wind_gusts":47.5,"aqi":58,"pm10":54.4,"pm2_5":20.7,"no2":0.4,"co":127.0,"o3":111.0,"so2":2.6,"mosquito_risk":0,"arthritis_risk":5,"migraine_risk":10,"frizz_risk":0,"updated_at":"2026-05-20T16:23:31.547137+05:30"},{"city":"Sagar","state":"Madhya Pradesh","latitude":23.8388,"longitude":78.7378,"temp":41.8,"humidity":13,"rain":0.0,"pressure":944.8,"uv_index":8.75,"wind_gusts":38.2,"aqi":71,"pm10":27.8,"pm2_5":11.2,"no2":0.5,"co":149.0,"o3":133.0,"so2":4.0,"mosquito_risk":0,"arthritis_risk":5,"migraine_risk":10,"frizz_risk":0,"updated_at":"2026-05-20T16:23:31.547143+05:30"},{"city":"Satna","state":"Madhya Pradesh","latitude":24.6005,"longitude":80.8322,"temp":42.5,"humidity":14,"rain":0.0,"pressure":964.0,"uv_index":8.8,"wind_gusts":38.9,"aqi":127,"pm10":137.4,"pm2_5":33.5,"no2":0.8,"co":156.0,"o3":139.0,"so2":5.0,"mosquito_risk":0,"arthritis_risk":5,"migraine_risk":10,"frizz_risk":0,"updated_at":"2026-05-20T16:23:31.547150+05:30"},{"city":"Akola","state":"Maharashtra","latitude":20.7002,"longitude":77.0082,"temp":42.5,"humidity":15,"rain":0.0,"pressure":969.1,"uv_index":8.9,"wind_gusts":40.3,"aqi":87,"pm10":44.9,"pm2_5":22.1,"no2":1.4,"co":153.0,"o3":137.0,"so2":6.3,"mosquito_risk":0,"arthritis_risk":5,"migraine_risk":10,"frizz_risk":0,"updated_at":"2026-05-20T16:23:31.547157+05:30"},{"city":"Amravati","state":"Maharashtra","latitude":20.9374,"longitude":77.7796,"temp":42.5,"humidity":13,"rain":0.0,"pressure":960.7,"uv_index":8.9,"wind_gusts":41.0,"aqi":92,"pm10":39.6,"pm2_5":19.9,"no2":1.8,"co":173.0,"o3":140.0,"so2":7.3,"mosquito_risk":0,"arthritis_risk":5,"migraine_risk":10,"frizz_risk":0,"updated_at":"2026-05-20T16:23:31.547165+05:30"},{"city":"Latur","state":"Maharashtra","latitude":18.4088,"longitude":76.5604,"temp":39.5,"humidity":20,"rain":0.0,"pressure":935.7,"uv_index":6.5,"wind_gusts":32.8,"aqi":93,"pm10":56.0,"pm2_5":29.5,"no2":0.8,"co":155.0,"o3":152.0,"so2":6.1,"mosquito_risk":0,"arthritis_risk":5,"migraine_risk":10,"frizz_risk":0,"updated_at":"2026-05-20T16:23:31.547172+05:30"},{"city":"Nanded","state":"Maharashtra","latitude":19.1383,"longitude":77.3091,"temp":42.5,"humidity":16,"rain":0.0,"pressure":962.5,"uv_index":8.8,"wind_gusts":35.3,"aqi":112,"pm10":43.3,"pm2_5":22.2,"no2":0.9,"co":166.0,"o3":147.0,"so2":5.2,"mosquito_risk":0,"arthritis_risk":5,"migraine_risk":10,"frizz_risk":0,"updated_at":"2026-05-20T16:23:31.547179+05:30"},{"city":"Gulbarga","state":"Karnataka","latitude":17.3297,"longitude":76.8343,"temp":39.0,"humidity":27,"rain":0.0,"pressure":953.7,"uv_index":8.85,"wind_gusts":37.1,"aqi":90,"pm10":57.4,"pm2_5":32.4,"no2":1.8,"co":187.0,"o3":157.0,"so2":5.9,"mosquito_risk":0,"arthritis_risk":5,"migraine_risk":10,"frizz_risk":1,"updated_at":"2026-05-20T16:23:31.547185+05:30"},{"city":"Bidar","state":"Karnataka","latitude":17.9104,"longitude":77.5199,"temp":38.4,"humidity":22,"rain":0.0,"pressure":931.5,"uv_index":8.7,"wind_gusts":39.2,"aqi":100,"pm10":41.7,"pm2_5":24.2,"no2":0.8,"co":177.0,"o3":166.0,"so2":6.7,"mosquito_risk":0,"arthritis_risk":5,"migraine_risk":10,"frizz_risk":0,"updated_at":"2026-05-20T16:23:31.547192+05:30"},{"city":"Hospet","state":"Karnataka","latitude":15.2689,"longitude":76.3909,"temp":32.0,"humidity":57,"rain":0.0,"pressure":952.0,"uv_index":8.2,"wind_gusts":42.5,"aqi":37,"pm10":15.1,"pm2_5":11.1,"no2":2.0,"co":172.0,"o3":109.0,"so2":2.2,"mosquito_risk":0,"arthritis_risk":5,"migraine_risk":7,"frizz_risk":1,"updated_at":"2026-05-20T16:23:31.547199+05:30"},{"city":"Tirupur","state":"Tamil Nadu","latitude":11.1085,"longitude":77.3411,"temp":33.2,"humidity":51,"rain":0.0,"pressure":971.4,"uv_index":7.3,"wind_gusts":49.3,"aqi":46,"pm10":6.3,"pm2_5":5.4,"no2":2.9,"co":168.0,"o3":97.0,"so2":2.0,"mosquito_risk":0,"arthritis_risk":5,"migraine_risk":7,"frizz_risk":1,"updated_at":"2026-05-20T16:23:31.547205+05:30"},{"city":"Alappuzha","state":"Kerala","latitude":9.4981,"longitude":76.3388,"temp":29.9,"humidity":75,"rain":0.0,"pressure":1006.2,"uv_index":7.75,"wind_gusts":33.1,"aqi":35,"pm10":9.8,"pm2_5":6.8,"no2":2.0,"co":116.0,"o3":72.0,"so2":1.2,"mosquito_risk":7,"arthritis_risk":5,"migraine_risk":4,"frizz_risk":1,"updated_at":"2026-05-20T16:23:31.547212+05:30"},{"city":"Munnar","state":"Kerala","latitude":10.0889,"longitude":77.0595,"temp":19.6,"humidity":93,"rain":0.1,"pressure":855.6,"uv_index":8.2,"wind_gusts":43.6,"aqi":31,"pm10":4.9,"pm2_5":4.0,"no2":1.4,"co":128.0,"o3":74.0,"so2":0.9,"mosquito_risk":6,"arthritis_risk":10,"migraine_risk":7,"frizz_risk":1,"updated_at":"2026-05-20T16:23:31.547220+05:30"},{"city":"Silchar","state":"Assam","latitude":24.8333,"longitude":92.7789,"temp":32.8,"humidity":65,"rain":0.0,"pressure":996.2,"uv_index":8.9,"wind_gusts":27.0,"aqi":153,"pm10":51.9,"pm2_5":27.9,"no2":2.1,"co":265.0,"o3":121.0,"so2":5.3,"mosquito_risk":3,"arthritis_risk":5,"migraine_risk":7,"frizz_risk":1,"updated_at":"2026-05-20T16:23:31.547228+05:30"},{"city":"Dibrugarh","state":"Assam","latitude":27.4728,"longitude":94.912,"temp":31.8,"humidity":62,"rain":0.0,"pressure":986.8,"uv_index":8.9,"wind_gusts":16.9,"aqi":108,"pm10":32.9,"pm2_5":19.2,"no2":4.1,"co":319.0,"o3":124.0,"so2":3.1,"mosquito_risk":3,"arthritis_risk":5,"migraine_risk":7,"frizz_risk":1,"updated_at":"2026-05-20T16:23:31.547235+05:30"}]