[{"city":"Delhi","state":"Delhi","latitude":28.6139,"longitude":77.209,"temp":34.3,"humidity":59,"rain":0.0,"pressure":971.1,"uv_index":7.65,"wind_gusts":26.6,"aqi":355,"pm10":925.7,"pm2_5":168.6,"no2":15.1,"co":373.0,"o3":122.0,"so2":11.4,"mosquito_risk":0,"arthritis_risk":5,"migraine_risk":7,"frizz_risk":1,"updated_at":"2026-07-11T17:24:29.853195+05:30"},{"city":"Mumbai","state":"Maharashtra","latitude":19.076,"longitude":72.8777,"temp":28.1,"humidity":83,"rain":0.0,"pressure":1005.7,"uv_index":6.15,"wind_gusts":54.0,"aqi":56,"pm10":31.3,"pm2_5":14.6,"no2":5.7,"co":159.0,"o3":55.0,"so2":4.2,"mosquito_risk":7,"arthritis_risk":5,"migraine_risk":4,"frizz_risk":1,"updated_at":"2026-07-11T17:24:29.853242+05:30"},{"city":"Bangalore","state":"Karnataka","latitude":12.9716,"longitude":77.5946,"temp":30.6,"humidity":40,"rain":0.0,"pressure":910.4,"uv_index":7.2,"wind_gusts":45.0,"aqi":45,"pm10":39.8,"pm2_5":14.5,"no2":6.1,"co":323.0,"o3":73.0,"so2":2.2,"mosquito_risk":0,"arthritis_risk":5,"migraine_risk":7,"frizz_risk":0,"updated_at":"2026-07-11T17:24:29.853258+05:30"},{"city":"Hyderabad","state":"Telangana","latitude":17.385,"longitude":78.4867,"temp":32.3,"humidity":42,"rain":0.0,"pressure":949.3,"uv_index":8.35,"wind_gusts":48.2,"aqi":65,"pm10":51.5,"pm2_5":18.4,"no2":4.7,"co":202.0,"o3":83.0,"so2":2.6,"mosquito_risk":0,"arthritis_risk":5,"migraine_risk":7,"frizz_risk":1,"updated_at":"2026-07-11T17:24:29.853268+05:30"},{"city":"Chennai","state":"Tamil Nadu","latitude":13.0827,"longitude":80.2707,"temp":32.8,"humidity":65,"rain":0.1,"pressure":1002.6,"uv_index":8.15,"wind_gusts":33.1,"aqi":69,"pm10":49.4,"pm2_5":25.4,"no2":5.0,"co":290.0,"o3":128.0,"so2":4.9,"mosquito_risk":6,"arthritis_risk":5,"migraine_risk":4,"frizz_risk":1,"updated_at":"2026-07-11T17:24:29.853276+05:30"},{"city":"Kolkata","state":"West Bengal","latitude":22.5726,"longitude":88.3639,"temp":28.1,"humidity":90,"rain":0.6,"pressure":996.1,"uv_index":2.35,"wind_gusts":34.9,"aqi":106,"pm10":65.2,"pm2_5":40.2,"no2":6.9,"co":535.0,"o3":132.0,"so2":12.5,"mosquito_risk":10,"arthritis_risk":5,"migraine_risk":3,"frizz_risk":1,"updated_at":"2026-07-11T17:24:29.853285+05:30"},{"city":"Pune","state":"Maharashtra","latitude":18.5204,"longitude":73.8567,"temp":26.5,"humidity":75,"rain":0.0,"pressure":945.5,"uv_index":7.65,"wind_gusts":57.6,"aqi":36,"pm10":24.2,"pm2_5":10.5,"no2":2.7,"co":135.0,"o3":59.0,"so2":3.3,"mosquito_risk":7,"arthritis_risk":5,"migraine_risk":7,"frizz_risk":1,"updated_at":"2026-07-11T17:24:29.853292+05:30"},{"city":"Ahmedabad","state":"Gujarat","latitude":23.0225,"longitude":72.5714,"temp":35.7,"humidity":45,"rain":0.0,"pressure":993.7,"uv_index":6.1,"wind_gusts":49.7,"aqi":67,"pm10":55.3,"pm2_5":23.2,"no2":2.6,"co":142.0,"o3":87.0,"so2":3.1,"mosquito_risk":0,"arthritis_risk":5,"migraine_risk":10,"frizz_risk":1,"updated_at":"2026-07-11T17:24:29.853299+05:30"},{"city":"Jaipur","state":"Rajasthan","latitude":26.9124,"longitude":75.7873,"temp":32.7,"humidity":55,"rain":0.0,"pressure":949.9,"uv_index":7.7,"wind_gusts":41.0,"aqi":452,"pm10":473.1,"pm2_5":78.5,"no2":1.9,"co":147.0,"o3":98.0,"so2":3.0,"mosquito_risk":0,"arthritis_risk":5,"migraine_risk":7,"frizz_risk":1,"updated_at":"2026-07-11T17:24:29.853306+05:30"},{"city":"Lucknow","state":"Uttar Pradesh","latitude":26.8467,"longitude":80.9462,"temp":32.9,"humidity":67,"rain":0.0,"pressure":981.8,"uv_index":6.1,"wind_gusts":51.8,"aqi":152,"pm10":227.7,"pm2_5":72.4,"no2":4.0,"co":199.0,"o3":105.0,"so2":4.2,"mosquito_risk":3,"arthritis_risk":5,"migraine_risk":7,"frizz_risk":1,"updated_at":"2026-07-11T17:24:29.853330+05:30"},{"city":"Kanpur","state":"Uttar Pradesh","latitude":26.4499,"longitude":80.3319,"temp":33.0,"humidity":67,"rain":0.1,"pressure":980.6,"uv_index":8.05,"wind_gusts":51.5,"aqi":134,"pm10":154.6,"pm2_5":51.8,"no2":4.0,"co":203.0,"o3":106.0,"so2":4.3,"mosquito_risk":6,"arthritis_risk":5,"migraine_risk":7,"frizz_risk":1,"updated_at":"2026-07-11T17:24:29.853339+05:30"},{"city":"Chandigarh","state":"Chandigarh","latitude":30.7333,"longitude":76.7794,"temp":32.0,"humidity":64,"rain":0.0,"pressure":957.4,"uv_index":7.7,"wind_gusts":23.4,"aqi":178,"pm10":140.6,"pm2_5":56.5,"no2":1.5,"co":399.0,"o3":176.0,"so2":11.1,"mosquito_risk":3,"arthritis_risk":5,"migraine_risk":7,"frizz_risk":1,"updated_at":"2026-07-11T17:24:29.853345+05:30"},{"city":"Srinagar","state":"Jammu and Kashmir","latitude":34.0837,"longitude":74.7973,"temp":26.0,"humidity":67,"rain":0.0,"pressure":834.6,"uv_index":9.0,"wind_gusts":28.8,"aqi":125,"pm10":13.9,"pm2_5":12.3,"no2":5.8,"co":381.0,"o3":151.0,"so2":2.3,"mosquito_risk":7,"arthritis_risk":5,"migraine_risk":7,"frizz_risk":1,"updated_at":"2026-07-11T17:24:29.853352+05:30"},{"city":"Jammu","state":"Jammu and Kashmir","latitude":32.7266,"longitude":74.857,"temp":32.6,"humidity":59,"rain":0.0,"pressure":961.3,"uv_index":8.55,"wind_gusts":28.8,"aqi":151,"pm10":47.1,"pm2_5":28.6,"no2":2.0,"co":402.0,"o3":174.0,"so2":3.1,"mosquito_risk":0,"arthritis_risk":5,"migraine_risk":7,"frizz_risk":1,"updated_at":"2026-07-11T17:24:29.853358+05:30"},{"city":"Amritsar","state":"Punjab","latitude":31.634,"longitude":74.8723,"temp":32.3,"humidity":69,"rain":0.0,"pressure":968.7,"uv_index":8.4,"wind_gusts":33.5,"aqi":157,"pm10":278.5,"pm2_5":89.6,"no2":2.3,"co":255.0,"o3":152.0,"so2":5.8,"mosquito_risk":3,"arthritis_risk":5,"migraine_risk":7,"frizz_risk":1,"updated_at":"2026-07-11T17:24:29.853364+05:30"},{"city":"Ludhiana","state":"Punjab","latitude":30.901,"longitude":75.8573,"temp":33.4,"humidity":63,"rain":0.0,"pressure":966.7,"uv_index":7.9,"wind_gusts":47.9,"aqi":155,"pm10":422.8,"pm2_5":111.5,"no2":1.1,"co":405.0,"o3":145.0,"so2":5.3,"mosquito_risk":3,"arthritis_risk":5,"migraine_risk":7,"frizz_risk":1,"updated_at":"2026-07-11T17:24:29.853371+05:30"},{"city":"Jalandhar","state":"Punjab","latitude":31.326,"longitude":75.5762,"temp":31.7,"humidity":69,"rain":0.0,"pressure":968.0,"uv_index":8.15,"wind_gusts":40.7,"aqi":161,"pm10":317.6,"pm2_5":96.9,"no2":0.7,"co":337.0,"o3":158.0,"so2":5.2,"mosquito_risk":3,"arthritis_risk":5,"migraine_risk":7,"frizz_risk":1,"updated_at":"2026-07-11T17:24:29.853379+05:30"},{"city":"Dehradun","state":"Uttarakhand","latitude":30.6284,"longitude":78.0322,"temp":21.1,"humidity":92,"rain":0.2,"pressure":823.6,"uv_index":7.85,"wind_gusts":27.0,"aqi":85,"pm10":22.4,"pm2_5":20.5,"no2":3.4,"co":258.0,"o3":145.0,"so2":2.6,"mosquito_risk":6,"arthritis_risk":5,"migraine_risk":7,"frizz_risk":1,"updated_at":"2026-07-11T17:24:29.853387+05:30"},{"city":"Shimla","state":"Himachal Pradesh","latitude":31.1048,"longitude":77.1734,"temp":17.8,"humidity":96,"rain":0.1,"pressure":778.5,"uv_index":3.75,"wind_gusts":31.7,"aqi":159,"pm10":45.2,"pm2_5":35.9,"no2":3.4,"co":364.0,"o3":170.0,"so2":10.1,"mosquito_risk":6,"arthritis_risk":10,"migraine_risk":3,"frizz_risk":1,"updated_at":"2026-07-11T17:24:29.853394+05:30"},{"city":"Manali","state":"Himachal Pradesh","latitude":32.2396,"longitude":77.1887,"temp":22.6,"humidity":87,"rain":0.1,"pressure":813.5,"uv_index":7.7,"wind_gusts":25.6,"aqi":76,"pm10":9.1,"pm2_5":8.6,"no2":6.5,"co":216.0,"o3":154.0,"so2":0.9,"mosquito_risk":6,"arthritis_risk":5,"migraine_risk":7,"frizz_risk":1,"updated_at":"2026-07-11T17:24:29.853402+05:30"},{"city":"Gurgaon","state":"Haryana","latitude":28.4595,"longitude":77.0266,"temp":34.6,"humidity":55,"rain":0.0,"pressure":969.6,"uv_index":7.7,"wind_gusts":30.2,"aqi":439,"pm10":651.9,"pm2_5":126.7,"no2":13.5,"co":326.0,"o3":116.0,"so2":7.8,"mosquito_risk":0,"arthritis_risk":5,"migraine_risk":7,"frizz_risk":1,"updated_at":"2026-07-11T17:24:29.853410+05:30"},{"city":"Noida","state":"Uttar Pradesh","latitude":28.5355,"longitude":77.391,"temp":34.7,"humidity":57,"rain":0.0,"pressure":972.5,"uv_index":7.65,"wind_gusts":27.0,"aqi":439,"pm10":651.9,"pm2_5":126.7,"no2":13.5,"co":355.0,"o3":116.0,"so2":7.8,"mosquito_risk":0,"arthritis_risk":5,"migraine_risk":7,"frizz_risk":1,"updated_at":"2026-07-11T17:24:29.853417+05:30"},{"city":"Ghaziabad","state":"Uttar Pradesh","latitude":28.6692,"longitude":77.4538,"temp":34.2,"humidity":60,"rain":0.0,"pressure":970.8,"uv_index":7.05,"wind_gusts":27.4,"aqi":163,"pm10":881.0,"pm2_5":177.4,"no2":7.9,"co":294.0,"o3":155.0,"so2":15.4,"mosquito_risk":0,"arthritis_risk":5,"migraine_risk":7,"frizz_risk":1,"updated_at":"2026-07-11T17:24:29.853423+05:30"},{"city":"Faridabad","state":"Haryana","latitude":28.4089,"longitude":77.3178,"temp":34.2,"humidity":59,"rain":0.0,"pressure":971.8,"uv_index":7.65,"wind_gusts":25.9,"aqi":439,"pm10":651.9,"pm2_5":126.7,"no2":13.5,"co":302.0,"o3":116.0,"so2":7.8,"mosquito_risk":0,"arthritis_risk":5,"migraine_risk":7,"frizz_risk":1,"updated_at":"2026-07-11T17:24:29.853429+05:30"},{"city":"Meerut","state":"Uttar Pradesh","latitude":28.9845,"longitude":77.7064,"temp":33.3,"humidity":65,"rain":0.0,"pressure":969.7,"uv_index":7.6,"wind_gusts":28.4,"aqi":163,"pm10":881.0,"pm2_5":177.4,"no2":7.9,"co":252.0,"o3":155.0,"so2":15.4,"mosquito_risk":3,"arthritis_risk":5,"migraine_risk":7,"frizz_risk":1,"updated_at":"2026-07-11T17:24:29.853435+05:30"},{"city":"Agra","state":"Uttar Pradesh","latitude":27.1767,"longitude":78.0081,"temp":34.1,"humidity":56,"rain":0.0,"pressure":976.4,"uv_index":8.0,"wind_gusts":39.6,"aqi":160,"pm10":232.4,"pm2_5":53.1,"no2":3.8,"co":152.0,"o3":109.0,"so2":3.0,"mosquito_risk":0,"arthritis_risk":5,"migraine_risk":7,"frizz_risk":1,"updated_at":"2026-07-11T17:24:29.853442+05:30"},{"city":"Varanasi","state":"Uttar Pradesh","latitude":25.3176,"longitude":82.9739,"temp":32.5,"humidity":67,"rain":0.0,"pressure":986.5,"uv_index":6.3,"wind_gusts":46.4,"aqi":113,"pm10":75.2,"pm2_5":37.5,"no2":4.7,"co":248.0,"o3":112.0,"so2":6.1,"mosquito_risk":3,"arthritis_risk":5,"migraine_risk":7,"frizz_risk":1,"updated_at":"2026-07-11T17:24:29.853449+05:30"},{"city":"Prayagraj","state":"Uttar Pradesh","latitude":25.4358,"longitude":81.8463,"temp":33.2,"humidity":62,"rain":0.0,"pressure":985.2,"uv_index":8.25,"wind_gusts":44.3,"aqi":117,"pm10":88.2,"pm2_5":41.8,"no2":4.4,"co":171.0,"o3":109.0,"so2":6.2,"mosquito_risk":3,"arthritis_risk":5,"migraine_risk":7,"frizz_risk":1,"updated_at":"2026-07-11T17:24:29.853455+05:30"},{"city":"Gorakhpur","state":"Uttar Pradesh","latitude":26.7606,"longitude":83.3732,"temp":30.1,"humidity":82,"rain":0.0,"pressure":985.8,"uv_index":6.05,"wind_gusts":39.2,"aqi":96,"pm10":122.9,"pm2_5":56.3,"no2":6.7,"co":368.0,"o3":133.0,"so2":9.2,"mosquito_risk":3,"arthritis_risk":5,"migraine_risk":7,"frizz_risk":1,"updated_at":"2026-07-11T17:24:29.853462+05:30"},{"city":"Bareilly","state":"Uttar Pradesh","latitude":28.367,"longitude":79.4304,"temp":32.5,"humidity":70,"rain":0.0,"pressure":975.0,"uv_index":8.0,"wind_gusts":36.0,"aqi":135,"pm10":250.5,"pm2_5":90.6,"no2":3.5,"co":265.0,"o3":150.0,"so2":9.4,"mosquito_risk":3,"arthritis_risk":5,"migraine_risk":7,"frizz_risk":1,"updated_at":"2026-07-11T17:24:29.853470+05:30"},{"city":"Aligarh","state":"Uttar Pradesh","latitude":27.8974,"longitude":78.088,"temp":33.9,"humidity":61,"rain":0.0,"pressure":973.9,"uv_index":7.8,"wind_gusts":33.1,"aqi":216,"pm10":802.8,"pm2_5":146.7,"no2":5.0,"co":165.0,"o3":109.0,"so2":5.2,"mosquito_risk":3,"arthritis_risk":5,"migraine_risk":7,"frizz_risk":1,"updated_at":"2026-07-11T17:24:29.853476+05:30"},{"city":"Moradabad","state":"Uttar Pradesh","latitude":28.8386,"longitude":78.7733,"temp":32.7,"humidity":69,"rain":0.0,"pressure":971.7,"uv_index":7.8,"wind_gusts":33.5,"aqi":138,"pm10":308.3,"pm2_5":105.5,"no2":4.8,"co":272.0,"o3":178.0,"so2":13.8,"mosquito_risk":3,"arthritis_risk":5,"migraine_risk":7,"frizz_risk":1,"updated_at":"2026-07-11T17:24:29.853482+05:30"},{"city":"Saharanpur","state":"Uttar Pradesh","latitude":29.9637,"longitude":77.546,"temp":32.3,"humidity":68,"rain":0.0,"pressure":964.1,"uv_index":7.35,"wind_gusts":24.1,"aqi":141,"pm10":252.4,"pm2_5":79.4,"no2":4.2,"co":265.0,"o3":162.0,"so2":16.0,"mosquito_risk":3,"arthritis_risk":5,"migraine_risk":7,"frizz_risk":1,"updated_at":"2026-07-11T17:24:29.853488+05:30"},{"city":"Jhansi","state":"Uttar Pradesh","latitude":25.4484,"longitude":78.5685,"temp":33.5,"humidity":54,"rain":0.0,"pressure":968.1,"uv_index":8.4,"wind_gusts":46.8,"aqi":97,"pm10":81.7,"pm2_5":35.7,"no2":2.0,"co":132.0,"o3":111.0,"so2":7.2,"mosquito_risk":0,"arthritis_risk":5,"migraine_risk":7,"frizz_risk":1,"updated_at":"2026-07-11T17:24:33.100225+05:30"},{"city":"Surat","state":"Gujarat","latitude":21.1702,"longitude":72.8311,"temp":30.0,"humidity":77,"rain":0.0,"pressure":1001.7,"uv_index":5.1,"wind_gusts":64.1,"aqi":61,"pm10":34.1,"pm2_5":18.4,"no2":7.9,"co":191.0,"o3":47.0,"so2":19.2,"mosquito_risk":7,"arthritis_risk":5,"migraine_risk":0,"frizz_risk":1,"updated_at":"2026-07-11T17:24:33.100257+05:30"},{"city":"Vadodara","state":"Gujarat","latitude":22.3072,"longitude":73.1812,"temp":32.1,"humidity":69,"rain":0.0,"pressure":997.2,"uv_index":7.75,"wind_gusts":54.0,"aqi":61,"pm10":42.6,"pm2_5":19.0,"no2":3.4,"co":138.0,"o3":78.0,"so2":3.7,"mosquito_risk":3,"arthritis_risk":5,"migraine_risk":7,"frizz_risk":1,"updated_at":"2026-07-11T17:24:33.100268+05:30"},{"city":"Rajkot","state":"Gujarat","latitude":22.3039,"longitude":70.8022,"temp":33.1,"humidity":53,"rain":0.0,"pressure":987.4,"uv_index":7.1,"wind_gusts":60.5,"aqi":60,"pm10":56.3,"pm2_5":22.8,"no2":1.4,"co":99.0,"o3":73.0,"so2":3.2,"mosquito_risk":0,"arthritis_risk":5,"migraine_risk":7,"frizz_risk":1,"updated_at":"2026-07-11T17:24:33.100276+05:30"},{"city":"Thane","state":"Maharashtra","latitude":19.2183,"longitude":72.9781,"temp":29.2,"humidity":78,"rain":0.0,"pressure":1005.0,"uv_index":6.2,"wind_gusts":46.1,"aqi":56,"pm10":31.3,"pm2_5":14.6,"no2":5.7,"co":149.0,"o3":55.0,"so2":4.2,"mosquito_risk":7,"arthritis_risk":5,"migraine_risk":4,"frizz_risk":1,"updated_at":"2026-07-11T17:24:33.100284+05:30"},{"city":"Nagpur","state":"Maharashtra","latitude":21.1458,"longitude":79.0882,"temp":31.2,"humidity":58,"rain":0.0,"pressure":966.9,"uv_index":6.8,"wind_gusts":49.3,"aqi":87,"pm10":62.9,"pm2_5":27.1,"no2":6.3,"co":149.0,"o3":83.0,"so2":10.8,"mosquito_risk":0,"arthritis_risk":5,"migraine_risk":7,"frizz_risk":1,"updated_at":"2026-07-11T17:24:33.100291+05:30"},{"city":"Nashik","state":"Maharashtra","latitude":19.9975,"longitude":73.7898,"temp":27.1,"humidity":70,"rain":0.0,"pressure":941.9,"uv_index":7.45,"wind_gusts":62.6,"aqi":37,"pm10":27.1,"pm2_5":12.0,"no2":1.5,"co":109.0,"o3":55.0,"so2":1.1,"mosquito_risk":7,"arthritis_risk":5,"migraine_risk":7,"frizz_risk":1,"updated_at":"2026-07-11T17:24:33.100299+05:30"},{"city":"Aurangabad","state":"Maharashtra","latitude":19.8762,"longitude":75.3433,"temp":29.6,"humidity":58,"rain":0.0,"pressure":940.0,"uv_index":8.9,"wind_gusts":54.0,"aqi":53,"pm10":34.0,"pm2_5":13.3,"no2":1.7,"co":114.0,"o3":82.0,"so2":4.1,"mosquito_risk":4,"arthritis_risk":5,"migraine_risk":7,"frizz_risk":1,"updated_at":"2026-07-11T17:24:33.100306+05:30"},{"city":"Solapur","state":"Maharashtra","latitude":17.6599,"longitude":75.9064,"temp":31.5,"humidity":51,"rain":0.0,"pressure":953.8,"uv_index":7.85,"wind_gusts":47.5,"aqi":48,"pm10":47.8,"pm2_5":15.1,"no2":1.4,"co":116.0,"o3":73.0,"so2":1.5,"mosquito_risk":0,"arthritis_risk":5,"migraine_risk":7,"frizz_risk":1,"updated_at":"2026-07-11T17:24:33.100314+05:30"},{"city":"Kolhapur","state":"Maharashtra","latitude":16.705,"longitude":74.2433,"temp":25.9,"humidity":77,"rain":0.0,"pressure":946.3,"uv_index":7.2,"wind_gusts":51.5,"aqi":39,"pm10":28.4,"pm2_5":11.6,"no2":2.6,"co":123.0,"o3":57.0,"so2":1.8,"mosquito_risk":7,"arthritis_risk":5,"migraine_risk":7,"frizz_risk":1,"updated_at":"2026-07-11T17:24:33.100322+05:30"},{"city":"Goa","state":"Goa","latitude":15.2993,"longitude":74.124,"temp":28.9,"humidity":77,"rain":0.0,"pressure":997.2,"uv_index":8.0,"wind_gusts":36.7,"aqi":56,"pm10":21.7,"pm2_5":10.2,"no2":1.3,"co":108.0,"o3":53.0,"so2":1.2,"mosquito_risk":7,"arthritis_risk":5,"migraine_risk":7,"frizz_risk":1,"updated_at":"2026-07-11T17:24:33.100329+05:30"},{"city":"Jodhpur","state":"Rajasthan","latitude":26.2389,"longitude":73.0243,"temp":35.9,"humidity":43,"rain":0.0,"pressure":972.2,"uv_index":8.4,"wind_gusts":53.6,"aqi":197,"pm10":446.1,"pm2_5":80.1,"no2":1.1,"co":111.0,"o3":82.0,"so2":1.8,"mosquito_risk":0,"arthritis_risk":5,"migraine_risk":10,"frizz_risk":1,"updated_at":"2026-07-11T17:24:33.100337+05:30"},{"city":"Udaipur","state":"Rajasthan","latitude":24.5854,"longitude":73.7125,"temp":30.9,"humidity":55,"rain":0.0,"pressure":938.5,"uv_index":8.6,"wind_gusts":54.4,"aqi":73,"pm10":55.5,"pm2_5":22.4,"no2":1.1,"co":119.0,"o3":83.0,"so2":2.4,"mosquito_risk":0,"arthritis_risk":5,"migraine_risk":7,"frizz_risk":1,"updated_at":"2026-07-11T17:24:33.100345+05:30"},{"city":"Kota","state":"Rajasthan","latitude":25.2138,"longitude":75.8648,"temp":34.1,"humidity":51,"rain":0.0,"pressure":969.0,"uv_index":8.3,"wind_gusts":42.5,"aqi":90,"pm10":54.6,"pm2_5":24.2,"no2":1.9,"co":138.0,"o3":99.0,"so2":4.7,"mosquito_risk":0,"arthritis_risk":5,"migraine_risk":7,"frizz_risk":1,"updated_at":"2026-07-11T17:24:33.100352+05:30"},{"city":"Bikaner","state":"Rajasthan","latitude":28.0229,"longitude":73.3119,"temp":37.7,"humidity":39,"rain":0.0,"pressure":969.4,"uv_index":8.45,"wind_gusts":42.5,"aqi":156,"pm10":184.4,"pm2_5":52.4,"no2":0.6,"co":110.0,"o3":90.0,"so2":3.1,"mosquito_risk":0,"arthritis_risk":5,"migraine_risk":10,"frizz_risk":1,"updated_at":"2026-07-11T17:24:33.100359+05:30"},{"city":"Ajmer","state":"Rajasthan","latitude":26.4499,"longitude":74.6399,"temp":32.1,"humidity":55,"rain":0.0,"pressure":945.1,"uv_index":8.25,"wind_gusts":52.2,"aqi":84,"pm10":53.4,"pm2_5":23.6,"no2":1.3,"co":118.0,"o3":89.0,"so2":2.4,"mosquito_risk":0,"arthritis_risk":5,"migraine_risk":7,"frizz_risk":1,"updated_at":"2026-07-11T17:24:33.100367+05:30"},{"city":"Gwalior","state":"Madhya Pradesh","latitude":26.2183,"longitude":78.1828,"temp":32.8,"humidity":59,"rain":0.0,"pressure":972.7,"uv_index":8.15,"wind_gusts":45.7,"aqi":91,"pm10":74.7,"pm2_5":33.2,"no2":1.2,"co":131.0,"o3":102.0,"so2":3.1,"mosquito_risk":0,"arthritis_risk":5,"migraine_risk":7,"frizz_risk":1,"updated_at":"2026-07-11T17:24:33.100375+05:30"},{"city":"Indore","state":"Madhya Pradesh","latitude":22.7196,"longitude":75.8577,"temp":29.4,"humidity":64,"rain":0.0,"pressure":941.4,"uv_index":8.45,"wind_gusts":56.2,"aqi":73,"pm10":51.3,"pm2_5":22.2,"no2":2.8,"co":181.0,"o3":86.0,"so2":3.9,"mosquito_risk":7,"arthritis_risk":5,"migraine_risk":7,"frizz_risk":1,"updated_at":"2026-07-11T17:24:33.100382+05:30"},{"city":"Bhopal","state":"Madhya Pradesh","latitude":23.2599,"longitude":77.4126,"temp":30.2,"humidity":61,"rain":0.0,"pressure":946.4,"uv_index":8.55,"wind_gusts":50.0,"aqi":82,"pm10":60.3,"pm2_5":26.7,"no2":2.3,"co":200.0,"o3":82.0,"so2":3.4,"mosquito_risk":3,"arthritis_risk":5,"migraine_risk":7,"frizz_risk":1,"updated_at":"2026-07-11T17:24:33.100390+05:30"},{"city":"Jabalpur","state":"Madhya Pradesh","latitude":23.1815,"longitude":79.9864,"temp":29.8,"humidity":63,"rain":0.0,"pressure":954.3,"uv_index":5.9,"wind_gusts":42.8,"aqi":86,"pm10":59.8,"pm2_5":25.4,"no2":1.7,"co":164.0,"o3":95.0,"so2":3.7,"mosquito_risk":7,"arthritis_risk":5,"migraine_risk":3,"frizz_risk":1,"updated_at":"2026-07-11T17:24:33.100398+05:30"},{"city":"Ujjain","state":"Madhya Pradesh","latitude":23.1765,"longitude":75.7885,"temp":30.1,"humidity":62,"rain":0.0,"pressure":946.7,"uv_index":7.35,"wind_gusts":54.0,"aqi":73,"pm10":50.5,"pm2_5":21.8,"no2":1.8,"co":152.0,"o3":83.0,"so2":3.2,"mosquito_risk":3,"arthritis_risk":5,"migraine_risk":7,"frizz_risk":1,"updated_at":"2026-07-11T17:24:33.100405+05:30"},{"city":"Visakhapatnam","state":"Andhra Pradesh","latitude":17.6868,"longitude":83.2185,"temp":33.5,"humidity":63,"rain":0.0,"pressure":995.7,"uv_index":7.7,"wind_gusts":37.8,"aqi":94,"pm10":65.7,"pm2_5":34.9,"no2":10.8,"co":262.0,"o3":135.0,"so2":26.9,"mosquito_risk":3,"arthritis_risk":5,"migraine_risk":7,"frizz_risk":1,"updated_at":"2026-07-11T17:24:33.100412+05:30"},{"city":"Vijayawada","state":"Andhra Pradesh","latitude":16.5062,"longitude":80.648,"temp":35.3,"humidity":45,"rain":0.0,"pressure":997.0,"uv_index":5.95,"wind_gusts":42.1,"aqi":90,"pm10":39.7,"pm2_5":18.7,"no2":3.9,"co":132.0,"o3":83.0,"so2":3.8,"mosquito_risk":0,"arthritis_risk":5,"migraine_risk":6,"frizz_risk":1,"updated_at":"2026-07-11T17:24:33.100419+05:30"},{"city":"Guntur","state":"Andhra Pradesh","latitude":16.3067,"longitude":80.4365,"temp":36.3,"humidity":38,"rain":0.0,"pressure":998.2,"uv_index":5.5,"wind_gusts":45.7,"aqi":86,"pm10":39.6,"pm2_5":17.2,"no2":3.7,"co":129.0,"o3":79.0,"so2":3.1,"mosquito_risk":0,"arthritis_risk":5,"migraine_risk":6,"frizz_risk":1,"updated_at":"2026-07-11T17:24:33.100427+05:30"},{"city":"Nellore","state":"Andhra Pradesh","latitude":14.4426,"longitude":79.9865,"temp":36.6,"humidity":38,"rain":0.0,"pressure":1000.6,"uv_index":7.85,"wind_gusts":40.0,"aqi":65,"pm10":58.8,"pm2_5":25.4,"no2":4.7,"co":122.0,"o3":109.0,"so2":5.2,"mosquito_risk":0,"arthritis_risk":5,"migraine_risk":7,"frizz_risk":1,"updated_at":"2026-07-11T17:24:33.100435+05:30"},{"city":"Kurnool","state":"Andhra Pradesh","latitude":15.8281,"longitude":78.0373,"temp":34.4,"humidity":37,"rain":0.0,"pressure":972.8,"uv_index":7.7,"wind_gusts":48.6,"aqi":60,"pm10":55.5,"pm2_5":19.3,"no2":3.1,"co":125.0,"o3":82.0,"so2":4.6,"mosquito_risk":0,"arthritis_risk":5,"migraine_risk":7,"frizz_risk":1,"updated_at":"2026-07-11T17:24:33.100443+05:30"},{"city":"Kakinada","state":"Andhra Pradesh","latitude":16.9891,"longitude":82.2475,"temp":34.0,"humidity":54,"rain":0.0,"pressure":1000.7,"uv_index":7.9,"wind_gusts":46.8,"aqi":81,"pm10":49.7,"pm2_5":26.3,"no2":3.7,"co":167.0,"o3":125.0,"so2":4.4,"mosquito_risk":0,"arthritis_risk":5,"migraine_risk":4,"frizz_risk":1,"updated_at":"2026-07-11T17:24:33.100451+05:30"},{"city":"Tirupati","state":"Andhra Pradesh","latitude":13.6288,"longitude":79.4192,"temp":36.7,"humidity":33,"rain":0.0,"pressure":986.4,"uv_index":8.1,"wind_gusts":38.2,"aqi":62,"pm10":55.1,"pm2_5":19.4,"no2":3.5,"co":111.0,"o3":81.0,"so2":1.2,"mosquito_risk":0,"arthritis_risk":5,"migraine_risk":10,"frizz_risk":1,"updated_at":"2026-07-11T17:24:33.100458+05:30"},{"city":"Warangal","state":"Telangana","latitude":17.9689,"longitude":79.5941,"temp":31.6,"humidity":57,"rain":0.0,"pressure":973.8,"uv_index":5.6,"wind_gusts":42.8,"aqi":78,"pm10":50.4,"pm2_5":20.7,"no2":2.8,"co":142.0,"o3":83.0,"so2":2.9,"mosquito_risk":0,"arthritis_risk":5,"migraine_risk":3,"frizz_risk":1,"updated_at":"2026-07-11T17:24:33.100465+05:30"},{"city":"Nizamabad","state":"Telangana","latitude":18.6725,"longitude":78.0941,"temp":30.3,"humidity":58,"rain":0.0,"pressure":960.2,"uv_index":8.7,"wind_gusts":46.8,"aqi":73,"pm10":62.2,"pm2_5":22.6,"no2":2.4,"co":137.0,"o3":85.0,"so2":3.7,"mosquito_risk":0,"arthritis_risk":5,"migraine_risk":7,"frizz_risk":1,"updated_at":"2026-07-11T17:24:33.100472+05:30"},{"city":"Mysore","state":"Karnataka","latitude":12.2958,"longitude":76.6396,"temp":28.0,"humidity":61,"rain":0.0,"pressure":927.4,"uv_index":6.0,"wind_gusts":44.3,"aqi":32,"pm10":21.2,"pm2_5":8.7,"no2":3.0,"co":128.0,"o3":74.0,"so2":1.5,"mosquito_risk":7,"arthritis_risk":5,"migraine_risk":3,"frizz_risk":1,"updated_at":"2026-07-11T17:24:33.100480+05:30"},{"city":"Mangalore","state":"Karnataka","latitude":12.9141,"longitude":74.856,"temp":27.6,"humidity":83,"rain":0.1,"pressure":1006.7,"uv_index":8.15,"wind_gusts":44.3,"aqi":53,"pm10":19.8,"pm2_5":9.6,"no2":1.2,"co":92.0,"o3":55.0,"so2":1.3,"mosquito_risk":10,"arthritis_risk":5,"migraine_risk":4,"frizz_risk":1,"updated_at":"2026-07-11T17:24:33.100487+05:30"},{"city":"Hubli-Dharwad","state":"Karnataka","latitude":15.3647,"longitude":75.124,"temp":27.3,"humidity":68,"rain":0.0,"pressure":939.6,"uv_index":7.25,"wind_gusts":49.3,"aqi":35,"pm10":20.2,"pm2_5":8.1,"no2":2.1,"co":111.0,"o3":57.0,"so2":1.2,"mosquito_risk":7,"arthritis_risk":5,"migraine_risk":7,"frizz_risk":1,"updated_at":"2026-07-11T17:24:33.100494+05:30"},{"city":"Belgaum","state":"Karnataka","latitude":15.8497,"longitude":74.4977,"temp":25.5,"humidity":72,"rain":0.0,"pressure":924.5,"uv_index":8.35,"wind_gusts":50.4,"aqi":33,"pm10":25.2,"pm2_5":9.7,"no2":1.9,"co":102.0,"o3":50.0,"so2":1.2,"mosquito_risk":7,"arthritis_risk":5,"migraine_risk":7,"frizz_risk":1,"updated_at":"2026-07-11T17:24:36.370586+05:30"},{"city":"Coimbatore","state":"Tamil Nadu","latitude":11.0168,"longitude":76.9558,"temp":28.4,"humidity":70,"rain":0.0,"pressure":960.0,"uv_index":8.25,"wind_gusts":48.2,"aqi":33,"pm10":15.6,"pm2_5":7.8,"no2":2.5,"co":148.0,"o3":69.0,"so2":2.0,"mosquito_risk":7,"arthritis_risk":5,"migraine_risk":7,"frizz_risk":1,"updated_at":"2026-07-11T17:24:36.370619+05:30"},{"city":"Madurai","state":"Tamil Nadu","latitude":9.9252,"longitude":78.1198,"temp":34.5,"humidity":45,"rain":0.0,"pressure":990.1,"uv_index":8.15,"wind_gusts":25.6,"aqi":55,"pm10":18.3,"pm2_5":8.2,"no2":2.4,"co":157.0,"o3":80.0,"so2":1.6,"mosquito_risk":0,"arthritis_risk":5,"migraine_risk":7,"frizz_risk":1,"updated_at":"2026-07-11T17:24:36.370630+05:30"},{"city":"Trichy","state":"Tamil Nadu","latitude":10.7905,"longitude":78.7047,"temp":36.1,"humidity":40,"rain":0.0,"pressure":996.2,"uv_index":8.05,"wind_gusts":46.4,"aqi":47,"pm10":26.7,"pm2_5":11.2,"no2":1.9,"co":123.0,"o3":86.0,"so2":1.8,"mosquito_risk":0,"arthritis_risk":5,"migraine_risk":10,"frizz_risk":1,"updated_at":"2026-07-11T17:24:36.370639+05:30"},{"city":"Salem","state":"Tamil Nadu","latitude":11.6643,"longitude":78.146,"temp":32.4,"humidity":55,"rain":0.0,"pressure":974.6,"uv_index":7.8,"wind_gusts":29.9,"aqi":59,"pm10":37.3,"pm2_5":14.7,"no2":2.9,"co":186.0,"o3":97.0,"so2":4.3,"mosquito_risk":0,"arthritis_risk":5,"migraine_risk":7,"frizz_risk":1,"updated_at":"2026-07-11T17:24:36.370648+05:30"},{"city":"Tirunelveli","state":"Tamil Nadu","latitude":8.7139,"longitude":77.7567,"temp":34.4,"humidity":46,"rain":0.0,"pressure":1000.6,"uv_index":8.6,"wind_gusts":48.2,"aqi":30,"pm10":9.0,"pm2_5":5.0,"no2":2.3,"co":111.0,"o3":66.0,"so2":1.3,"mosquito_risk":0,"arthritis_risk":5,"migraine_risk":4,"frizz_risk":1,"updated_at":"2026-07-11T17:24:36.370656+05:30"},{"city":"Vellore","state":"Tamil Nadu","latitude":12.9165,"longitude":79.1325,"temp":36.7,"humidity":32,"rain":0.0,"pressure":980.3,"uv_index":8.75,"wind_gusts":40.7,"aqi":55,"pm10":60.5,"pm2_5":21.2,"no2":4.3,"co":147.0,"o3":92.0,"so2":2.0,"mosquito_risk":0,"arthritis_risk":5,"migraine_risk":10,"frizz_risk":1,"updated_at":"2026-07-11T17:24:36.370664+05:30"},{"city":"Erode","state":"Tamil Nadu","latitude":11.341,"longitude":77.7172,"temp":33.6,"humidity":46,"rain":0.0,"pressure":986.1,"uv_index":7.85,"wind_gusts":36.0,"aqi":50,"pm10":31.1,"pm2_5":12.1,"no2":3.4,"co":157.0,"o3":89.0,"so2":1.9,"mosquito_risk":0,"arthritis_risk":5,"migraine_risk":7,"frizz_risk":1,"updated_at":"2026-07-11T17:24:36.370671+05:30"},{"city":"Kochi","state":"Kerala","latitude":9.9312,"longitude":76.2673,"temp":28.0,"humidity":82,"rain":0.0,"pressure":1008.5,"uv_index":7.75,"wind_gusts":34.6,"aqi":51,"pm10":19.0,"pm2_5":9.2,"no2":3.1,"co":117.0,"o3":56.0,"so2":2.0,"mosquito_risk":7,"arthritis_risk":0,"migraine_risk":4,"frizz_risk":1,"updated_at":"2026-07-11T17:24:36.370679+05:30"},{"city":"Thiruvananthapuram","state":"Kerala","latitude":8.5241,"longitude":76.9366,"temp":27.6,"humidity":84,"rain":0.0,"pressure":1007.6,"uv_index":8.0,"wind_gusts":47.9,"aqi":37,"pm10":13.5,"pm2_5":7.8,"no2":2.7,"co":100.0,"o3":65.0,"so2":1.1,"mosquito_risk":7,"arthritis_risk":5,"migraine_risk":4,"frizz_risk":1,"updated_at":"2026-07-11T17:24:36.370686+05:30"},{"city":"Kozhikode","state":"Kerala","latitude":11.2588,"longitude":75.7804,"temp":27.8,"humidity":85,"rain":0.1,"pressure":1007.8,"uv_index":7.4,"wind_gusts":39.6,"aqi":41,"pm10":20.4,"pm2_5":8.9,"no2":0.6,"co":99.0,"o3":57.0,"so2":0.9,"mosquito_risk":10,"arthritis_risk":5,"migraine_risk":4,"frizz_risk":1,"updated_at":"2026-07-11T17:24:36.370693+05:30"},{"city":"Thrissur","state":"Kerala","latitude":10.5276,"longitude":76.2144,"temp":28.2,"humidity":80,"rain":0.0,"pressure":1006.8,"uv_index":7.1,"wind_gusts":38.5,"aqi":54,"pm10":20.5,"pm2_5":9.3,"no2":2.4,"co":104.0,"o3":55.0,"so2":1.5,"mosquito_risk":7,"arthritis_risk":5,"migraine_risk":4,"frizz_risk":1,"updated_at":"2026-07-11T17:24:36.370701+05:30"},{"city":"Kannur","state":"Kerala","latitude":11.8745,"longitude":75.3704,"temp":28.6,"humidity":78,"rain":0.0,"pressure":1006.9,"uv_index":8.05,"wind_gusts":45.4,"aqi":50,"pm10":21.2,"pm2_5":9.7,"no2":1.0,"co":92.0,"o3":56.0,"so2":1.1,"mosquito_risk":7,"arthritis_risk":5,"migraine_risk":4,"frizz_risk":1,"updated_at":"2026-07-11T17:24:36.370708+05:30"},{"city":"Patna","state":"Bihar","latitude":25.5941,"longitude":85.1376,"temp":30.0,"humidity":82,"rain":0.0,"pressure":989.4,"uv_index":4.8,"wind_gusts":34.2,"aqi":100,"pm10":80.6,"pm2_5":48.7,"no2":10.8,"co":300.0,"o3":107.0,"so2":7.5,"mosquito_risk":7,"arthritis_risk":5,"migraine_risk":3,"frizz_risk":1,"updated_at":"2026-07-11T17:24:36.370715+05:30"},{"city":"Gaya","state":"Bihar","latitude":24.7914,"longitude":85.0002,"temp":30.9,"humidity":76,"rain":0.0,"pressure":983.6,"uv_index":7.5,"wind_gusts":41.4,"aqi":96,"pm10":43.0,"pm2_5":30.3,"no2":12.1,"co":208.0,"o3":78.0,"so2":14.1,"mosquito_risk":3,"arthritis_risk":5,"migraine_risk":7,"frizz_risk":1,"updated_at":"2026-07-11T17:24:36.370723+05:30"},{"city":"Muzaffarpur","state":"Bihar","latitude":26.1209,"longitude":85.3647,"temp":30.1,"humidity":86,"rain":0.1,"pressure":988.9,"uv_index":4.95,"wind_gusts":36.4,"aqi":103,"pm10":68.7,"pm2_5":41.2,"no2":11.5,"co":278.0,"o3":105.0,"so2":6.7,"mosquito_risk":6,"arthritis_risk":5,"migraine_risk":3,"frizz_risk":1,"updated_at":"2026-07-11T17:24:36.370731+05:30"},{"city":"Bhagalpur","state":"Bihar","latitude":25.2425,"longitude":87.0117,"temp":29.9,"humidity":83,"rain":0.0,"pressure":989.8,"uv_index":7.65,"wind_gusts":24.8,"aqi":82,"pm10":23.5,"pm2_5":17.3,"no2":7.7,"co":243.0,"o3":101.0,"so2":8.0,"mosquito_risk":7,"arthritis_risk":5,"migraine_risk":7,"frizz_risk":1,"updated_at":"2026-07-11T17:24:36.370738+05:30"},{"city":"Ranchi","state":"Jharkhand","latitude":23.3441,"longitude":85.3096,"temp":25.6,"humidity":93,"rain":0.1,"pressure":929.8,"uv_index":7.0,"wind_gusts":40.7,"aqi":93,"pm10":30.9,"pm2_5":21.3,"no2":7.8,"co":201.0,"o3":74.0,"so2":3.3,"mosquito_risk":10,"arthritis_risk":5,"migraine_risk":7,"frizz_risk":1,"updated_at":"2026-07-11T17:24:36.370745+05:30"},{"city":"Jamshedpur","state":"Jharkhand","latitude":22.8046,"longitude":86.2029,"temp":29.4,"humidity":85,"rain":0.1,"pressure":981.7,"uv_index":8.5,"wind_gusts":35.6,"aqi":110,"pm10":48.4,"pm2_5":33.9,"no2":8.7,"co":287.0,"o3":104.0,"so2":13.7,"mosquito_risk":10,"arthritis_risk":5,"migraine_risk":7,"frizz_risk":1,"updated_at":"2026-07-11T17:24:36.370752+05:30"},{"city":"Dhanbad","state":"Jharkhand","latitude":23.7957,"longitude":86.4304,"temp":26.7,"humidity":94,"rain":0.4,"pressure":970.5,"uv_index":8.65,"wind_gusts":40.7,"aqi":128,"pm10":30.6,"pm2_5":27.7,"no2":31.9,"co":215.0,"o3":50.0,"so2":65.2,"mosquito_risk":10,"arthritis_risk":5,"migraine_risk":7,"frizz_risk":1,"updated_at":"2026-07-11T17:24:36.370759+05:30"},{"city":"Bokaro","state":"Jharkhand","latitude":23.6693,"longitude":86.1511,"temp":27.1,"humidity":93,"rain":0.5,"pressure":974.5,"uv_index":6.9,"wind_gusts":33.5,"aqi":121,"pm10":28.5,"pm2_5":25.1,"no2":23.2,"co":204.0,"o3":58.0,"so2":50.9,"mosquito_risk":10,"arthritis_risk":5,"migraine_risk":7,"frizz_risk":1,"updated_at":"2026-07-11T17:24:36.370766+05:30"},{"city":"Bhubaneswar","state":"Odisha","latitude":20.2961,"longitude":85.8245,"temp":28.8,"humidity":92,"rain":0.0,"pressure":994.3,"uv_index":8.45,"wind_gusts":37.1,"aqi":83,"pm10":71.2,"pm2_5":38.2,"no2":6.4,"co":343.0,"o3":115.0,"so2":8.5,"mosquito_risk":7,"arthritis_risk":5,"migraine_risk":7,"frizz_risk":1,"updated_at":"2026-07-11T17:24:36.370773+05:30"},{"city":"Cuttack","state":"Odisha","latitude":20.4625,"longitude":85.8828,"temp":30.2,"humidity":77,"rain":0.0,"pressure":995.9,"uv_index":8.55,"wind_gusts":35.6,"aqi":83,"pm10":71.2,"pm2_5":38.2,"no2":6.4,"co":292.0,"o3":115.0,"so2":8.5,"mosquito_risk":3,"arthritis_risk":5,"migraine_risk":7,"frizz_risk":1,"updated_at":"2026-07-11T17:24:36.370779+05:30"},{"city":"Rourkela","state":"Odisha","latitude":22.2604,"longitude":84.8536,"temp":30.6,"humidity":71,"rain":0.0,"pressure":976.5,"uv_index":8.2,"wind_gusts":37.4,"aqi":132,"pm10":66.6,"pm2_5":38.5,"no2":5.6,"co":307.0,"o3":115.0,"so2":11.2,"mosquito_risk":3,"arthritis_risk":5,"migraine_risk":7,"frizz_risk":1,"updated_at":"2026-07-11T17:24:36.370786+05:30"},{"city":"Raipur","state":"Chhattisgarh","latitude":21.2514,"longitude":81.6296,"temp":31.1,"humidity":59,"rain":0.0,"pressure":967.5,"uv_index":7.6,"wind_gusts":41.4,"aqi":119,"pm10":61.9,"pm2_5":33.2,"no2":13.8,"co":140.0,"o3":98.0,"so2":30.4,"mosquito_risk":0,"arthritis_risk":5,"migraine_risk":7,"frizz_risk":1,"updated_at":"2026-07-11T17:24:36.370793+05:30"},{"city":"Bhilai","state":"Chhattisgarh","latitude":21.1938,"longitude":81.3509,"temp":31.2,"humidity":58,"rain":0.0,"pressure":968.0,"uv_index":7.4,"wind_gusts":43.6,"aqi":112,"pm10":65.0,"pm2_5":32.9,"no2":11.9,"co":351.0,"o3":101.0,"so2":25.9,"mosquito_risk":0,"arthritis_risk":5,"migraine_risk":7,"frizz_risk":1,"updated_at":"2026-07-11T17:24:36.370800+05:30"},{"city":"Guwahati","state":"Assam","latitude":26.1158,"longitude":91.7086,"temp":27.7,"humidity":97,"rain":0.1,"pressure":989.7,"uv_index":8.55,"wind_gusts":31.0,"aqi":44,"pm10":11.0,"pm2_5":10.9,"no2":4.6,"co":282.0,"o3":95.0,"so2":1.8,"mosquito_risk":10,"arthritis_risk":5,"migraine_risk":7,"frizz_risk":1,"updated_at":"2026-07-11T17:24:36.370806+05:30"},{"city":"Agartala","state":"Tripura","latitude":23.8315,"longitude":91.2868,"temp":27.6,"humidity":95,"rain":0.1,"pressure":996.3,"uv_index":6.75,"wind_gusts":33.8,"aqi":81,"pm10":44.6,"pm2_5":37.4,"no2":12.0,"co":252.0,"o3":109.0,"so2":6.7,"mosquito_risk":10,"arthritis_risk":5,"migraine_risk":7,"frizz_risk":1,"updated_at":"2026-07-11T17:24:36.370813+05:30"},{"city":"Shillong","state":"Meghalaya","latitude":25.5788,"longitude":91.8933,"temp":23.2,"humidity":82,"rain":0.0,"pressure":849.9,"uv_index":3.95,"wind_gusts":27.4,"aqi":41,"pm10":3.2,"pm2_5":3.2,"no2":7.2,"co":261.0,"o3":86.0,"so2":3.0,"mosquito_risk":3,"arthritis_risk":5,"migraine_risk":3,"frizz_risk":1,"updated_at":"2026-07-11T17:24:36.370819+05:30"},{"city":"Imphal","state":"Manipur","latitude":24.817,"longitude":93.9368,"temp":27.0,"humidity":78,"rain":0.0,"pressure":914.5,"uv_index":8.55,"wind_gusts":29.9,"aqi":43,"pm10":4.2,"pm2_5":4.0,"no2":4.6,"co":224.0,"o3":79.0,"so2":1.4,"mosquito_risk":7,"arthritis_risk":5,"migraine_risk":7,"frizz_risk":1,"updated_at":"2026-07-11T17:24:36.370825+05:30"},{"city":"Aizawl","state":"Mizoram","latitude":23.7271,"longitude":92.7176,"temp":22.1,"humidity":87,"rain":0.0,"pressure":885.0,"uv_index":8.25,"wind_gusts":43.2,"aqi":42,"pm10":5.7,"pm2_5":4.0,"no2":2.9,"co":171.0,"o3":88.0,"so2":2.5,"mosquito_risk":3,"arthritis_risk":5,"migraine_risk":7,"frizz_risk":1,"updated_at":"2026-07-11T17:24:36.370832+05:30"},{"city":"Kohima","state":"Nagaland","latitude":25.6701,"longitude":94.1077,"temp":22.6,"humidity":97,"rain":0.1,"pressure":848.0,"uv_index":6.6,"wind_gusts":20.9,"aqi":42,"pm10":4.2,"pm2_5":4.0,"no2":3.8,"co":175.0,"o3":71.0,"so2":1.3,"mosquito_risk":6,"arthritis_risk":5,"migraine_risk":7,"frizz_risk":1,"updated_at":"2026-07-11T17:24:36.370839+05:30"},{"city":"Gangtok","state":"Sikkim","latitude":27.3314,"longitude":88.6138,"temp":21.3,"humidity":100,"rain":0.0,"pressure":830.5,"uv_index":8.5,"wind_gusts":31.7,"aqi":49,"pm10":4.1,"pm2_5":4.0,"no2":3.5,"co":258.0,"o3":106.0,"so2":1.0,"mosquito_risk":3,"arthritis_risk":5,"migraine_risk":7,"frizz_risk":1,"updated_at":"2026-07-11T17:24:36.370846+05:30"},{"city":"Siliguri","state":"West Bengal","latitude":26.7271,"longitude":88.3953,"temp":28.3,"humidity":89,"rain":0.1,"pressure":981.1,"uv_index":5.0,"wind_gusts":25.6,"aqi":93,"pm10":16.6,"pm2_5":16.5,"no2":6.6,"co":520.0,"o3":114.0,"so2":2.3,"mosquito_risk":10,"arthritis_risk":5,"migraine_risk":3,"frizz_risk":1,"updated_at":"2026-07-11T17:24:39.613543+05:30"},{"city":"Durgapur","state":"West Bengal","latitude":23.5204,"longitude":87.3119,"temp":29.7,"humidity":82,"rain":0.0,"pressure":985.0,"uv_index":6.3,"wind_gusts":40.7,"aqi":133,"pm10":47.4,"pm2_5":39.9,"no2":33.5,"co":352.0,"o3":73.0,"so2":56.6,"mosquito_risk":7,"arthritis_risk":5,"migraine_risk":7,"frizz_risk":1,"updated_at":"2026-07-11T17:24:39.613576+05:30"},{"city":"Asansol","state":"West Bengal","latitude":23.6739,"longitude":86.9524,"temp":29.9,"humidity":79,"rain":0.0,"pressure":983.7,"uv_index":7.05,"wind_gusts":42.5,"aqi":116,"pm10":34.9,"pm2_5":30.3,"no2":32.4,"co":244.0,"o3":58.0,"so2":49.5,"mosquito_risk":7,"arthritis_risk":5,"migraine_risk":7,"frizz_risk":1,"updated_at":"2026-07-11T17:24:39.613588+05:30"},{"city":"Pondicherry","state":"Puducherry","latitude":11.9139,"longitude":79.8145,"temp":31.4,"humidity":72,"rain":0.0,"pressure":1004.2,"uv_index":8.15,"wind_gusts":41.4,"aqi":67,"pm10":55.1,"pm2_5":29.0,"no2":10.1,"co":208.0,"o3":133.0,"so2":8.8,"mosquito_risk":3,"arthritis_risk":5,"migraine_risk":4,"frizz_risk":1,"updated_at":"2026-07-11T17:24:39.613597+05:30"},{"city":"Port Blair","state":"Andaman and Nicobar Islands","latitude":11.6234,"longitude":92.7265,"temp":28.5,"humidity":79,"rain":0.0,"pressure":1004.7,"uv_index":8.8,"wind_gusts":57.2,"aqi":35,"pm10":16.2,"pm2_5":8.1,"no2":0.4,"co":101.0,"o3":42.0,"so2":0.4,"mosquito_risk":7,"arthritis_risk":5,"migraine_risk":4,"frizz_risk":1,"updated_at":"2026-07-11T17:24:39.613605+05:30"},{"city":"Haridwar","state":"Uttarakhand","latitude":29.9457,"longitude":78.1642,"temp":31.4,"humidity":75,"rain":0.0,"pressure":962.5,"uv_index":7.5,"wind_gusts":22.3,"aqi":132,"pm10":108.5,"pm2_5":49.2,"no2":1.6,"co":364.0,"o3":175.0,"so2":12.4,"mosquito_risk":3,"arthritis_risk":5,"migraine_risk":7,"frizz_risk":1,"updated_at":"2026-07-11T17:24:39.613612+05:30"},{"city":"Rishikesh","state":"Uttarakhand","latitude":30.0869,"longitude":78.2676,"temp":30.0,"humidity":79,"rain":0.0,"pressure":955.6,"uv_index":7.6,"wind_gusts":22.7,"aqi":106,"pm10":37.8,"pm2_5":29.4,"no2":1.8,"co":316.0,"o3":156.0,"so2":7.1,"mosquito_risk":7,"arthritis_risk":5,"migraine_risk":7,"frizz_risk":1,"updated_at":"2026-07-11T17:24:39.613621+05:30"},{"city":"Nainital","state":"Uttarakhand","latitude":29.3919,"longitude":79.4542,"temp":20.7,"humidity":87,"rain":0.0,"pressure":799.7,"uv_index":3.1,"wind_gusts":23.8,"aqi":104,"pm10":50.9,"pm2_5":28.1,"no2":2.8,"co":242.0,"o3":143.0,"so2":7.9,"mosquito_risk":3,"arthritis_risk":5,"migraine_risk":3,"frizz_risk":1,"updated_at":"2026-07-11T17:24:39.613629+05:30"},{"city":"Mussoorie","state":"Uttarakhand","latitude":30.4599,"longitude":78.0664,"temp":20.5,"humidity":86,"rain":0.1,"pressure":797.0,"uv_index":7.75,"wind_gusts":32.4,"aqi":122,"pm10":43.9,"pm2_5":33.3,"no2":2.3,"co":273.0,"o3":170.0,"so2":7.2,"mosquito_risk":6,"arthritis_risk":5,"migraine_risk":7,"frizz_risk":1,"updated_at":"2026-07-11T17:24:39.613636+05:30"},{"city":"Dharamshala","state":"Himachal Pradesh","latitude":32.219,"longitude":76.3234,"temp":23.6,"humidity":87,"rain":0.0,"pressure":861.5,"uv_index":8.4,"wind_gusts":27.4,"aqi":122,"pm10":17.1,"pm2_5":13.0,"no2":0.6,"co":333.0,"o3":157.0,"so2":1.8,"mosquito_risk":3,"arthritis_risk":5,"migraine_risk":7,"frizz_risk":1,"updated_at":"2026-07-11T17:24:39.613643+05:30"},{"city":"Dalhousie","state":"Himachal Pradesh","latitude":32.5387,"longitude":75.971,"temp":20.3,"humidity":91,"rain":0.0,"pressure":799.0,"uv_index":8.65,"wind_gusts":18.0,"aqi":163,"pm10":44.9,"pm2_5":30.0,"no2":2.3,"co":379.0,"o3":178.0,"so2":3.7,"mosquito_risk":3,"arthritis_risk":5,"migraine_risk":7,"frizz_risk":1,"updated_at":"2026-07-11T17:24:39.613651+05:30"},{"city":"Patiala","state":"Punjab","latitude":30.3398,"longitude":76.3869,"temp":33.2,"humidity":64,"rain":0.0,"pressure":966.4,"uv_index":7.5,"wind_gusts":24.5,"aqi":151,"pm10":583.0,"pm2_5":132.7,"no2":0.9,"co":223.0,"o3":143.0,"so2":6.1,"mosquito_risk":3,"arthritis_risk":5,"migraine_risk":7,"frizz_risk":1,"updated_at":"2026-07-11T17:24:39.613658+05:30"},{"city":"Bhatinda","state":"Punjab","latitude":30.211,"longitude":74.9455,"temp":36.7,"humidity":47,"rain":0.0,"pressure":971.0,"uv_index":8.1,"wind_gusts":27.0,"aqi":178,"pm10":300.8,"pm2_5":106.6,"no2":3.1,"co":126.0,"o3":141.0,"so2":11.3,"mosquito_risk":0,"arthritis_risk":5,"migraine_risk":10,"frizz_risk":1,"updated_at":"2026-07-11T17:24:39.613664+05:30"},{"city":"Rohtak","state":"Haryana","latitude":28.8955,"longitude":76.6066,"temp":34.8,"humidity":57,"rain":0.0,"pressure":969.6,"uv_index":7.6,"wind_gusts":32.0,"aqi":693,"pm10":1017.0,"pm2_5":158.8,"no2":6.0,"co":221.0,"o3":110.0,"so2":3.0,"mosquito_risk":0,"arthritis_risk":5,"migraine_risk":7,"frizz_risk":1,"updated_at":"2026-07-11T17:24:39.613671+05:30"},{"city":"Panipat","state":"Haryana","latitude":29.3909,"longitude":76.9635,"temp":34.1,"humidity":62,"rain":0.0,"pressure":968.4,"uv_index":7.1,"wind_gusts":19.8,"aqi":764,"pm10":1855.2,"pm2_5":249.6,"no2":5.7,"co":211.0,"o3":115.0,"so2":9.8,"mosquito_risk":3,"arthritis_risk":5,"migraine_risk":7,"frizz_risk":1,"updated_at":"2026-07-11T17:24:39.613679+05:30"},{"city":"Mathura","state":"Uttar Pradesh","latitude":27.4924,"longitude":77.6737,"temp":34.0,"humidity":57,"rain":0.0,"pressure":975.3,"uv_index":7.6,"wind_gusts":32.4,"aqi":405,"pm10":767.4,"pm2_5":110.1,"no2":4.8,"co":173.0,"o3":110.0,"so2":2.8,"mosquito_risk":0,"arthritis_risk":5,"migraine_risk":7,"frizz_risk":1,"updated_at":"2026-07-11T17:24:39.613686+05:30"},{"city":"Vrindavan","state":"Uttar Pradesh","latitude":27.5823,"longitude":77.7027,"temp":34.4,"humidity":56,"rain":0.0,"pressure":975.6,"uv_index":7.75,"wind_gusts":30.6,"aqi":405,"pm10":767.4,"pm2_5":110.1,"no2":4.8,"co":168.0,"o3":110.0,"so2":2.8,"mosquito_risk":0,"arthritis_risk":5,"migraine_risk":7,"frizz_risk":1,"updated_at":"2026-07-11T17:24:39.613693+05:30"},{"city":"Ayodhya","state":"Uttar Pradesh","latitude":26.7922,"longitude":82.1998,"temp":29.4,"humidity":87,"rain":0.0,"pressure":983.8,"uv_index":6.95,"wind_gusts":40.7,"aqi":136,"pm10":190.0,"pm2_5":82.2,"no2":6.0,"co":290.0,"o3":110.0,"so2":5.4,"mosquito_risk":7,"arthritis_risk":5,"migraine_risk":7,"frizz_risk":1,"updated_at":"2026-07-11T17:24:39.613700+05:30"},{"city":"Ratlam","state":"Madhya Pradesh","latitude":23.3315,"longitude":75.0367,"temp":30.1,"humidity":62,"rain":0.0,"pressure":947.6,"uv_index":5.5,"wind_gusts":55.8,"aqi":70,"pm10":49.8,"pm2_5":21.4,"no2":1.4,"co":118.0,"o3":84.0,"so2":3.4,"mosquito_risk":3,"arthritis_risk":5,"migraine_risk":3,"frizz_risk":1,"updated_at":"2026-07-11T17:24:39.613707+05:30"},{"city":"Sagar","state":"Madhya Pradesh","latitude":23.8388,"longitude":78.7378,"temp":29.7,"humidity":58,"rain":0.0,"pressure":942.7,"uv_index":7.7,"wind_gusts":52.6,"aqi":88,"pm10":72.2,"pm2_5":28.4,"no2":1.2,"co":138.0,"o3":92.0,"so2":2.7,"mosquito_risk":4,"arthritis_risk":5,"migraine_risk":7,"frizz_risk":1,"updated_at":"2026-07-11T17:24:39.613715+05:30"},{"city":"Satna","state":"Madhya Pradesh","latitude":24.6005,"longitude":80.8322,"temp":31.8,"humidity":60,"rain":0.0,"pressure":962.4,"uv_index":8.15,"wind_gusts":45.0,"aqi":99,"pm10":67.3,"pm2_5":31.0,"no2":1.5,"co":145.0,"o3":105.0,"so2":3.8,"mosquito_risk":0,"arthritis_risk":5,"migraine_risk":7,"frizz_risk":1,"updated_at":"2026-07-11T17:24:39.613722+05:30"},{"city":"Akola","state":"Maharashtra","latitude":20.7002,"longitude":77.0082,"temp":32.8,"humidity":50,"rain":0.0,"pressure":969.0,"uv_index":8.7,"wind_gusts":50.8,"aqi":69,"pm10":62.2,"pm2_5":21.4,"no2":2.3,"co":115.0,"o3":84.0,"so2":5.1,"mosquito_risk":0,"arthritis_risk":5,"migraine_risk":7,"frizz_risk":1,"updated_at":"2026-07-11T17:24:39.613730+05:30"},{"city":"Amravati","state":"Maharashtra","latitude":20.9374,"longitude":77.7796,"temp":31.6,"humidity":55,"rain":0.0,"pressure":961.3,"uv_index":8.65,"wind_gusts":50.4,"aqi":71,"pm10":68.2,"pm2_5":23.2,"no2":2.6,"co":118.0,"o3":87.0,"so2":5.9,"mosquito_risk":0,"arthritis_risk":5,"migraine_risk":7,"frizz_risk":1,"updated_at":"2026-07-11T17:24:39.613738+05:30"},{"city":"Latur","state":"Maharashtra","latitude":18.4088,"longitude":76.5604,"temp":30.5,"humidity":51,"rain":0.0,"pressure":936.2,"uv_index":8.5,"wind_gusts":46.4,"aqi":54,"pm10":53.9,"pm2_5":17.7,"no2":1.6,"co":120.0,"o3":77.0,"so2":2.0,"mosquito_risk":0,"arthritis_risk":5,"migraine_risk":7,"frizz_risk":1,"updated_at":"2026-07-11T17:24:39.613745+05:30"},{"city":"Nanded","state":"Maharashtra","latitude":19.1383,"longitude":77.3091,"temp":31.6,"humidity":53,"rain":0.0,"pressure":963.7,"uv_index":8.1,"wind_gusts":49.0,"aqi":64,"pm10":67.3,"pm2_5":22.3,"no2":2.7,"co":147.0,"o3":80.0,"so2":2.5,"mosquito_risk":0,"arthritis_risk":5,"migraine_risk":7,"frizz_risk":1,"updated_at":"2026-07-11T17:24:39.613752+05:30"},{"city":"Gulbarga","state":"Karnataka","latitude":17.3297,"longitude":76.8343,"temp":32.1,"humidity":46,"rain":0.0,"pressure":954.9,"uv_index":7.65,"wind_gusts":50.0,"aqi":54,"pm10":54.5,"pm2_5":16.8,"no2":2.7,"co":126.0,"o3":79.0,"so2":1.9,"mosquito_risk":0,"arthritis_risk":5,"migraine_risk":7,"frizz_risk":1,"updated_at":"2026-07-11T17:24:39.613759+05:30"},{"city":"Bidar","state":"Karnataka","latitude":17.9104,"longitude":77.5199,"temp":30.0,"humidity":54,"rain":0.0,"pressure":931.9,"uv_index":6.4,"wind_gusts":47.9,"aqi":61,"pm10":62.2,"pm2_5":20.1,"no2":3.6,"co":133.0,"o3":78.0,"so2":1.8,"mosquito_risk":4,"arthritis_risk":5,"migraine_risk":7,"frizz_risk":1,"updated_at":"2026-07-11T17:24:39.613766+05:30"},{"city":"Hospet","state":"Karnataka","latitude":15.2689,"longitude":76.3909,"temp":31.7,"humidity":46,"rain":0.0,"pressure":953.3,"uv_index":8.3,"wind_gusts":49.0,"aqi":42,"pm10":38.8,"pm2_5":14.4,"no2":2.7,"co":115.0,"o3":69.0,"so2":1.9,"mosquito_risk":0,"arthritis_risk":5,"migraine_risk":7,"frizz_risk":1,"updated_at":"2026-07-11T17:24:39.613773+05:30"},{"city":"Tirupur","state":"Tamil Nadu","latitude":11.1085,"longitude":77.3411,"temp":30.5,"humidity":61,"rain":0.0,"pressure":973.0,"uv_index":8.1,"wind_gusts":52.9,"aqi":52,"pm10":31.8,"pm2_5":12.3,"no2":3.0,"co":138.0,"o3":83.0,"so2":2.3,"mosquito_risk":3,"arthritis_risk":5,"migraine_risk":7,"frizz_risk":1,"updated_at":"2026-07-11T17:24:39.613779+05:30"},{"city":"Alappuzha","state":"Kerala","latitude":9.4981,"longitude":76.3388,"temp":28.1,"humidity":81,"rain":0.0,"pressure":1008.5,"uv_index":8.2,"wind_gusts":40.0,"aqi":45,"pm10":17.7,"pm2_5":9.6,"no2":3.9,"co":87.0,"o3":60.0,"so2":2.2,"mosquito_risk":7,"arthritis_risk":0,"migraine_risk":4,"frizz_risk":1,"updated_at":"2026-07-11T17:24:39.613786+05:30"},{"city":"Munnar","state":"Kerala","latitude":10.0889,"longitude":77.0595,"temp":18.6,"humidity":95,"rain":0.2,"pressure":856.8,"uv_index":8.2,"wind_gusts":37.8,"aqi":24,"pm10":6.2,"pm2_5":3.8,"no2":2.9,"co":101.0,"o3":52.0,"so2":1.0,"mosquito_risk":6,"arthritis_risk":10,"migraine_risk":7,"frizz_risk":1,"updated_at":"2026-07-11T17:24:39.613794+05:30"},{"city":"Silchar","state":"Assam","latitude":24.8333,"longitude":92.7789,"temp":27.5,"humidity":93,"rain":0.4,"pressure":995.0,"uv_index":7.95,"wind_gusts":29.9,"aqi":42,"pm10":7.7,"pm2_5":7.3,"no2":4.1,"co":252.0,"o3":83.0,"so2":2.9,"mosquito_risk":10,"arthritis_risk":5,"migraine_risk":7,"frizz_risk":1,"updated_at":"2026-07-11T17:24:39.613801+05:30"},{"city":"Dibrugarh","state":"Assam","latitude":27.4728,"longitude":94.912,"temp":29.0,"humidity":93,"rain":0.1,"pressure":983.7,"uv_index":6.55,"wind_gusts":28.4,"aqi":50,"pm10":8.2,"pm2_5":8.0,"no2":5.6,"co":194.0,"o3":85.0,"so2":1.7,"mosquito_risk":10,"arthritis_risk":5,"migraine_risk":7,"frizz_risk":1,"updated_at":"2026-07-11T17:24:39.613808+05:30"}]