[{"city":"Delhi","state":"Delhi","latitude":28.6139,"longitude":77.209,"temp":34.8,"humidity":35,"rain":0.2,"pressure":979.6,"uv_index":7.25,"wind_gusts":25.9,"aqi":151,"pm10":163.0,"pm2_5":49.7,"no2":6.7,"co":399.0,"o3":181.0,"so2":17.0,"mosquito_risk":3,"arthritis_risk":5,"migraine_risk":7,"frizz_risk":1,"updated_at":"2026-06-02T16:11:22.905883+05:30"},{"city":"Mumbai","state":"Maharashtra","latitude":19.076,"longitude":72.8777,"temp":32.2,"humidity":63,"rain":0.0,"pressure":1005.7,"uv_index":7.7,"wind_gusts":44.3,"aqi":67,"pm10":37.1,"pm2_5":19.4,"no2":5.3,"co":170.0,"o3":96.0,"so2":6.5,"mosquito_risk":3,"arthritis_risk":5,"migraine_risk":4,"frizz_risk":1,"updated_at":"2026-06-02T16:11:22.905941+05:30"},{"city":"Bangalore","state":"Karnataka","latitude":12.9716,"longitude":77.5946,"temp":31.0,"humidity":40,"rain":0.3,"pressure":910.0,"uv_index":9.2,"wind_gusts":34.2,"aqi":96,"pm10":23.2,"pm2_5":15.9,"no2":12.9,"co":544.0,"o3":152.0,"so2":5.4,"mosquito_risk":3,"arthritis_risk":5,"migraine_risk":7,"frizz_risk":0,"updated_at":"2026-06-02T16:11:22.905958+05:30"},{"city":"Hyderabad","state":"Telangana","latitude":17.385,"longitude":78.4867,"temp":35.8,"humidity":32,"rain":0.1,"pressure":950.1,"uv_index":9.1,"wind_gusts":28.1,"aqi":111,"pm10":68.9,"pm2_5":31.7,"no2":0.9,"co":287.0,"o3":146.0,"so2":3.6,"mosquito_risk":3,"arthritis_risk":5,"migraine_risk":10,"frizz_risk":1,"updated_at":"2026-06-02T16:11:22.905970+05:30"},{"city":"Chennai","state":"Tamil Nadu","latitude":13.0827,"longitude":80.2707,"temp":33.6,"humidity":66,"rain":0.1,"pressure":1003.3,"uv_index":8.95,"wind_gusts":41.0,"aqi":71,"pm10":27.5,"pm2_5":21.0,"no2":3.7,"co":263.0,"o3":148.0,"so2":7.7,"mosquito_risk":6,"arthritis_risk":5,"migraine_risk":4,"frizz_risk":1,"updated_at":"2026-06-02T16:11:22.905981+05:30"},{"city":"Kolkata","state":"West Bengal","latitude":22.5726,"longitude":88.3639,"temp":33.5,"humidity":60,"rain":0.0,"pressure":1000.9,"uv_index":8.6,"wind_gusts":37.4,"aqi":118,"pm10":48.7,"pm2_5":37.0,"no2":6.0,"co":436.0,"o3":136.0,"so2":8.2,"mosquito_risk":0,"arthritis_risk":5,"migraine_risk":4,"frizz_risk":1,"updated_at":"2026-06-02T16:11:22.905990+05:30"},{"city":"Pune","state":"Maharashtra","latitude":18.5204,"longitude":73.8567,"temp":32.5,"humidity":41,"rain":0.1,"pressure":945.8,"uv_index":8.3,"wind_gusts":48.6,"aqi":51,"pm10":46.8,"pm2_5":19.3,"no2":2.2,"co":151.0,"o3":114.0,"so2":4.2,"mosquito_risk":3,"arthritis_risk":5,"migraine_risk":7,"frizz_risk":1,"updated_at":"2026-06-02T16:11:22.905999+05:30"},{"city":"Ahmedabad","state":"Gujarat","latitude":23.0225,"longitude":72.5714,"temp":37.5,"humidity":36,"rain":0.0,"pressure":997.3,"uv_index":8.05,"wind_gusts":33.5,"aqi":87,"pm10":65.2,"pm2_5":27.6,"no2":0.8,"co":155.0,"o3":102.0,"so2":3.7,"mosquito_risk":0,"arthritis_risk":5,"migraine_risk":10,"frizz_risk":1,"updated_at":"2026-06-02T16:11:22.906007+05:30"},{"city":"Jaipur","state":"Rajasthan","latitude":26.9124,"longitude":75.7873,"temp":34.9,"humidity":34,"rain":0.0,"pressure":956.4,"uv_index":8.2,"wind_gusts":30.6,"aqi":97,"pm10":194.2,"pm2_5":50.8,"no2":0.3,"co":252.0,"o3":134.0,"so2":5.3,"mosquito_risk":0,"arthritis_risk":5,"migraine_risk":7,"frizz_risk":1,"updated_at":"2026-06-02T16:11:22.906021+05:30"},{"city":"Lucknow","state":"Uttar Pradesh","latitude":26.8467,"longitude":80.9462,"temp":36.0,"humidity":40,"rain":0.0,"pressure":989.4,"uv_index":8.15,"wind_gusts":23.0,"aqi":151,"pm10":85.7,"pm2_5":47.4,"no2":1.8,"co":227.0,"o3":176.0,"so2":6.8,"mosquito_risk":0,"arthritis_risk":5,"migraine_risk":10,"frizz_risk":1,"updated_at":"2026-06-02T16:11:22.906030+05:30"},{"city":"Kanpur","state":"Uttar Pradesh","latitude":26.4499,"longitude":80.3319,"temp":35.5,"humidity":39,"rain":0.0,"pressure":987.8,"uv_index":7.6,"wind_gusts":39.2,"aqi":143,"pm10":100.8,"pm2_5":46.7,"no2":0.8,"co":240.0,"o3":171.0,"so2":6.8,"mosquito_risk":0,"arthritis_risk":5,"migraine_risk":10,"frizz_risk":1,"updated_at":"2026-06-02T16:11:22.906037+05:30"},{"city":"Chandigarh","state":"Chandigarh","latitude":30.7333,"longitude":76.7794,"temp":34.0,"humidity":37,"rain":0.0,"pressure":966.5,"uv_index":7.85,"wind_gusts":24.5,"aqi":161,"pm10":36.4,"pm2_5":26.5,"no2":1.8,"co":391.0,"o3":198.0,"so2":12.5,"mosquito_risk":0,"arthritis_risk":5,"migraine_risk":7,"frizz_risk":1,"updated_at":"2026-06-02T16:11:22.906046+05:30"},{"city":"Srinagar","state":"Jammu and Kashmir","latitude":34.0837,"longitude":74.7973,"temp":27.4,"humidity":33,"rain":0.0,"pressure":843.2,"uv_index":9.1,"wind_gusts":33.5,"aqi":116,"pm10":41.9,"pm2_5":19.6,"no2":1.4,"co":294.0,"o3":154.0,"so2":2.3,"mosquito_risk":4,"arthritis_risk":5,"migraine_risk":7,"frizz_risk":0,"updated_at":"2026-06-02T16:11:22.906054+05:30"},{"city":"Jammu","state":"Jammu and Kashmir","latitude":32.7266,"longitude":74.857,"temp":34.4,"humidity":37,"rain":0.0,"pressure":971.0,"uv_index":8.65,"wind_gusts":31.0,"aqi":137,"pm10":95.0,"pm2_5":39.0,"no2":1.1,"co":294.0,"o3":160.0,"so2":3.2,"mosquito_risk":0,"arthritis_risk":5,"migraine_risk":7,"frizz_risk":1,"updated_at":"2026-06-02T16:11:22.906062+05:30"},{"city":"Amritsar","state":"Punjab","latitude":31.634,"longitude":74.8723,"temp":35.7,"humidity":32,"rain":0.0,"pressure":978.4,"uv_index":8.45,"wind_gusts":31.3,"aqi":140,"pm10":106.2,"pm2_5":32.0,"no2":0.2,"co":278.0,"o3":162.0,"so2":5.7,"mosquito_risk":0,"arthritis_risk":5,"migraine_risk":10,"frizz_risk":1,"updated_at":"2026-06-02T16:11:22.906069+05:30"},{"city":"Ludhiana","state":"Punjab","latitude":30.901,"longitude":75.8573,"temp":36.3,"humidity":30,"rain":0.0,"pressure":975.9,"uv_index":8.05,"wind_gusts":27.7,"aqi":139,"pm10":61.5,"pm2_5":26.2,"no2":1.0,"co":253.0,"o3":176.0,"so2":7.5,"mosquito_risk":0,"arthritis_risk":5,"migraine_risk":10,"frizz_risk":1,"updated_at":"2026-06-02T16:11:22.906076+05:30"},{"city":"Jalandhar","state":"Punjab","latitude":31.326,"longitude":75.5762,"temp":36.4,"humidity":29,"rain":0.0,"pressure":977.1,"uv_index":8.25,"wind_gusts":24.1,"aqi":143,"pm10":54.9,"pm2_5":26.7,"no2":0.9,"co":279.0,"o3":173.0,"so2":7.0,"mosquito_risk":0,"arthritis_risk":5,"migraine_risk":10,"frizz_risk":0,"updated_at":"2026-06-02T16:11:22.906083+05:30"},{"city":"Dehradun","state":"Uttarakhand","latitude":30.6284,"longitude":78.0322,"temp":21.3,"humidity":61,"rain":0.0,"pressure":831.6,"uv_index":8.25,"wind_gusts":28.8,"aqi":97,"pm10":27.3,"pm2_5":15.4,"no2":2.4,"co":261.0,"o3":142.0,"so2":2.0,"mosquito_risk":3,"arthritis_risk":5,"migraine_risk":7,"frizz_risk":0,"updated_at":"2026-06-02T16:11:22.906093+05:30"},{"city":"Shimla","state":"Himachal Pradesh","latitude":31.1048,"longitude":77.1734,"temp":20.0,"humidity":52,"rain":0.1,"pressure":786.3,"uv_index":8.35,"wind_gusts":28.4,"aqi":109,"pm10":23.9,"pm2_5":16.2,"no2":0.4,"co":288.0,"o3":163.0,"so2":6.9,"mosquito_risk":3,"arthritis_risk":5,"migraine_risk":7,"frizz_risk":0,"updated_at":"2026-06-02T16:11:22.906111+05:30"},{"city":"Manali","state":"Himachal Pradesh","latitude":32.2396,"longitude":77.1887,"temp":22.1,"humidity":56,"rain":0.0,"pressure":820.3,"uv_index":9.75,"wind_gusts":38.2,"aqi":76,"pm10":25.0,"pm2_5":11.9,"no2":9.8,"co":140.0,"o3":137.0,"so2":0.2,"mosquito_risk":0,"arthritis_risk":5,"migraine_risk":7,"frizz_risk":0,"updated_at":"2026-06-02T16:11:22.906119+05:30"},{"city":"Gurgaon","state":"Haryana","latitude":28.4595,"longitude":77.0266,"temp":34.3,"humidity":36,"rain":0.0,"pressure":978.2,"uv_index":7.25,"wind_gusts":29.9,"aqi":270,"pm10":484.3,"pm2_5":78.2,"no2":4.4,"co":394.0,"o3":155.0,"so2":8.9,"mosquito_risk":0,"arthritis_risk":5,"migraine_risk":7,"frizz_risk":1,"updated_at":"2026-06-02T16:11:22.906126+05:30"},{"city":"Noida","state":"Uttar Pradesh","latitude":28.5355,"longitude":77.391,"temp":35.1,"humidity":38,"rain":0.0,"pressure":981.1,"uv_index":7.8,"wind_gusts":26.6,"aqi":270,"pm10":484.3,"pm2_5":78.2,"no2":4.4,"co":334.0,"o3":155.0,"so2":8.9,"mosquito_risk":0,"arthritis_risk":5,"migraine_risk":10,"frizz_risk":1,"updated_at":"2026-06-02T16:11:22.906133+05:30"},{"city":"Ghaziabad","state":"Uttar Pradesh","latitude":28.6692,"longitude":77.4538,"temp":34.6,"humidity":39,"rain":0.0,"pressure":979.5,"uv_index":7.75,"wind_gusts":27.4,"aqi":132,"pm10":129.9,"pm2_5":39.1,"no2":2.7,"co":249.0,"o3":147.0,"so2":6.9,"mosquito_risk":0,"arthritis_risk":5,"migraine_risk":7,"frizz_risk":1,"updated_at":"2026-06-02T16:11:22.906140+05:30"},{"city":"Faridabad","state":"Haryana","latitude":28.4089,"longitude":77.3178,"temp":34.7,"humidity":37,"rain":0.0,"pressure":980.4,"uv_index":7.8,"wind_gusts":34.2,"aqi":270,"pm10":484.3,"pm2_5":78.2,"no2":4.4,"co":345.0,"o3":155.0,"so2":8.9,"mosquito_risk":0,"arthritis_risk":5,"migraine_risk":7,"frizz_risk":1,"updated_at":"2026-06-02T16:11:22.906148+05:30"},{"city":"Meerut","state":"Uttar Pradesh","latitude":28.9845,"longitude":77.7064,"temp":33.8,"humidity":42,"rain":0.0,"pressure":978.4,"uv_index":7.15,"wind_gusts":29.2,"aqi":132,"pm10":129.9,"pm2_5":39.1,"no2":2.7,"co":253.0,"o3":147.0,"so2":6.9,"mosquito_risk":0,"arthritis_risk":5,"migraine_risk":7,"frizz_risk":1,"updated_at":"2026-06-02T16:11:22.906155+05:30"},{"city":"Agra","state":"Uttar Pradesh","latitude":27.1767,"longitude":78.0081,"temp":34.6,"humidity":41,"rain":0.0,"pressure":983.9,"uv_index":8.1,"wind_gusts":28.8,"aqi":182,"pm10":179.7,"pm2_5":46.0,"no2":1.7,"co":249.0,"o3":148.0,"so2":4.1,"mosquito_risk":0,"arthritis_risk":5,"migraine_risk":7,"frizz_risk":1,"updated_at":"2026-06-02T16:11:22.906162+05:30"},{"city":"Varanasi","state":"Uttar Pradesh","latitude":25.3176,"longitude":82.9739,"temp":36.9,"humidity":35,"rain":0.0,"pressure":992.9,"uv_index":8.75,"wind_gusts":23.4,"aqi":152,"pm10":68.2,"pm2_5":40.4,"no2":2.2,"co":362.0,"o3":163.0,"so2":7.9,"mosquito_risk":0,"arthritis_risk":5,"migraine_risk":10,"frizz_risk":1,"updated_at":"2026-06-02T16:11:22.906169+05:30"},{"city":"Prayagraj","state":"Uttar Pradesh","latitude":25.4358,"longitude":81.8463,"temp":37.1,"humidity":34,"rain":0.0,"pressure":991.5,"uv_index":8.7,"wind_gusts":26.6,"aqi":144,"pm10":81.5,"pm2_5":44.9,"no2":1.5,"co":226.0,"o3":172.0,"so2":6.7,"mosquito_risk":0,"arthritis_risk":5,"migraine_risk":10,"frizz_risk":1,"updated_at":"2026-06-02T16:11:22.906177+05:30"},{"city":"Gorakhpur","state":"Uttar Pradesh","latitude":26.7606,"longitude":83.3732,"temp":35.1,"humidity":42,"rain":0.0,"pressure":992.9,"uv_index":8.5,"wind_gusts":25.9,"aqi":156,"pm10":75.9,"pm2_5":45.5,"no2":1.3,"co":265.0,"o3":169.0,"so2":4.8,"mosquito_risk":0,"arthritis_risk":5,"migraine_risk":10,"frizz_risk":1,"updated_at":"2026-06-02T16:11:22.906186+05:30"},{"city":"Bareilly","state":"Uttar Pradesh","latitude":28.367,"longitude":79.4304,"temp":31.9,"humidity":52,"rain":0.1,"pressure":983.8,"uv_index":8.05,"wind_gusts":20.9,"aqi":133,"pm10":115.7,"pm2_5":48.1,"no2":1.2,"co":252.0,"o3":168.0,"so2":10.0,"mosquito_risk":3,"arthritis_risk":5,"migraine_risk":7,"frizz_risk":1,"updated_at":"2026-06-02T16:11:22.906193+05:30"},{"city":"Aligarh","state":"Uttar Pradesh","latitude":27.8974,"longitude":78.088,"temp":34.3,"humidity":42,"rain":0.0,"pressure":982.0,"uv_index":7.95,"wind_gusts":24.5,"aqi":150,"pm10":148.5,"pm2_5":47.7,"no2":2.1,"co":263.0,"o3":139.0,"so2":6.1,"mosquito_risk":0,"arthritis_risk":5,"migraine_risk":7,"frizz_risk":1,"updated_at":"2026-06-02T16:11:22.906200+05:30"},{"city":"Moradabad","state":"Uttar Pradesh","latitude":28.8386,"longitude":78.7733,"temp":32.0,"humidity":48,"rain":0.1,"pressure":980.8,"uv_index":7.9,"wind_gusts":29.9,"aqi":141,"pm10":124.3,"pm2_5":49.0,"no2":1.8,"co":239.0,"o3":171.0,"so2":12.5,"mosquito_risk":3,"arthritis_risk":5,"migraine_risk":7,"frizz_risk":1,"updated_at":"2026-06-02T16:11:22.906206+05:30"},{"city":"Saharanpur","state":"Uttar Pradesh","latitude":29.9637,"longitude":77.546,"temp":33.0,"humidity":43,"rain":0.0,"pressure":973.3,"uv_index":7.55,"wind_gusts":27.7,"aqi":138,"pm10":82.2,"pm2_5":31.1,"no2":0.7,"co":292.0,"o3":150.0,"so2":4.6,"mosquito_risk":0,"arthritis_risk":5,"migraine_risk":7,"frizz_risk":1,"updated_at":"2026-06-02T16:11:22.906213+05:30"},{"city":"Jhansi","state":"Uttar Pradesh","latitude":25.4484,"longitude":78.5685,"temp":34.8,"humidity":40,"rain":0.0,"pressure":974.4,"uv_index":8.25,"wind_gusts":30.6,"aqi":80,"pm10":66.6,"pm2_5":24.6,"no2":0.9,"co":150.0,"o3":132.0,"so2":7.7,"mosquito_risk":0,"arthritis_risk":5,"migraine_risk":7,"frizz_risk":1,"updated_at":"2026-06-02T16:11:26.177363+05:30"},{"city":"Surat","state":"Gujarat","latitude":21.1702,"longitude":72.8311,"temp":33.7,"humidity":54,"rain":0.0,"pressure":1003.0,"uv_index":7.6,"wind_gusts":38.5,"aqi":71,"pm10":46.2,"pm2_5":23.9,"no2":12.7,"co":304.0,"o3":49.0,"so2":42.9,"mosquito_risk":0,"arthritis_risk":5,"migraine_risk":4,"frizz_risk":1,"updated_at":"2026-06-02T16:11:26.177398+05:30"},{"city":"Vadodara","state":"Gujarat","latitude":22.3072,"longitude":73.1812,"temp":36.5,"humidity":39,"rain":0.0,"pressure":999.6,"uv_index":8.0,"wind_gusts":35.3,"aqi":76,"pm10":75.4,"pm2_5":34.2,"no2":1.6,"co":147.0,"o3":114.0,"so2":5.1,"mosquito_risk":0,"arthritis_risk":5,"migraine_risk":10,"frizz_risk":1,"updated_at":"2026-06-02T16:11:26.177409+05:30"},{"city":"Rajkot","state":"Gujarat","latitude":22.3039,"longitude":70.8022,"temp":37.5,"humidity":37,"rain":0.0,"pressure":989.9,"uv_index":7.55,"wind_gusts":51.8,"aqi":76,"pm10":68.0,"pm2_5":27.9,"no2":1.0,"co":117.0,"o3":103.0,"so2":4.4,"mosquito_risk":0,"arthritis_risk":5,"migraine_risk":10,"frizz_risk":1,"updated_at":"2026-06-02T16:11:26.177418+05:30"},{"city":"Thane","state":"Maharashtra","latitude":19.2183,"longitude":72.9781,"temp":33.6,"humidity":54,"rain":0.0,"pressure":1004.8,"uv_index":7.7,"wind_gusts":41.8,"aqi":67,"pm10":37.1,"pm2_5":19.4,"no2":5.3,"co":152.0,"o3":96.0,"so2":6.5,"mosquito_risk":0,"arthritis_risk":5,"migraine_risk":4,"frizz_risk":1,"updated_at":"2026-06-02T16:11:26.177427+05:30"},{"city":"Nagpur","state":"Maharashtra","latitude":21.1458,"longitude":79.0882,"temp":38.0,"humidity":28,"rain":0.0,"pressure":968.8,"uv_index":8.85,"wind_gusts":40.3,"aqi":85,"pm10":52.6,"pm2_5":24.3,"no2":4.1,"co":167.0,"o3":146.0,"so2":17.6,"mosquito_risk":0,"arthritis_risk":5,"migraine_risk":10,"frizz_risk":1,"updated_at":"2026-06-02T16:11:26.177435+05:30"},{"city":"Nashik","state":"Maharashtra","latitude":19.9975,"longitude":73.7898,"temp":28.2,"humidity":69,"rain":0.2,"pressure":943.4,"uv_index":8.0,"wind_gusts":58.3,"aqi":60,"pm10":53.6,"pm2_5":22.4,"no2":1.4,"co":130.0,"o3":107.0,"so2":3.7,"mosquito_risk":10,"arthritis_risk":5,"migraine_risk":7,"frizz_risk":1,"updated_at":"2026-06-02T16:11:26.177443+05:30"},{"city":"Aurangabad","state":"Maharashtra","latitude":19.8762,"longitude":75.3433,"temp":35.8,"humidity":26,"rain":0.0,"pressure":940.8,"uv_index":8.95,"wind_gusts":41.8,"aqi":62,"pm10":75.7,"pm2_5":23.7,"no2":1.0,"co":133.0,"o3":117.0,"so2":2.7,"mosquito_risk":0,"arthritis_risk":5,"migraine_risk":10,"frizz_risk":0,"updated_at":"2026-06-02T16:11:26.177450+05:30"},{"city":"Solapur","state":"Maharashtra","latitude":17.6599,"longitude":75.9064,"temp":36.8,"humidity":30,"rain":0.0,"pressure":953.7,"uv_index":8.95,"wind_gusts":62.6,"aqi":82,"pm10":43.7,"pm2_5":20.7,"no2":1.2,"co":141.0,"o3":146.0,"so2":5.2,"mosquito_risk":0,"arthritis_risk":5,"migraine_risk":10,"frizz_risk":1,"updated_at":"2026-06-02T16:11:26.177458+05:30"},{"city":"Kolhapur","state":"Maharashtra","latitude":16.705,"longitude":74.2433,"temp":29.3,"humidity":61,"rain":0.1,"pressure":946.1,"uv_index":8.75,"wind_gusts":56.5,"aqi":41,"pm10":32.2,"pm2_5":13.8,"no2":2.1,"co":144.0,"o3":106.0,"so2":1.7,"mosquito_risk":10,"arthritis_risk":5,"migraine_risk":7,"frizz_risk":1,"updated_at":"2026-06-02T16:11:26.177466+05:30"},{"city":"Goa","state":"Goa","latitude":15.2993,"longitude":74.124,"temp":31.6,"humidity":63,"rain":0.0,"pressure":995.7,"uv_index":8.4,"wind_gusts":25.2,"aqi":52,"pm10":17.3,"pm2_5":9.5,"no2":0.7,"co":120.0,"o3":65.0,"so2":1.0,"mosquito_risk":3,"arthritis_risk":5,"migraine_risk":7,"frizz_risk":1,"updated_at":"2026-06-02T16:11:26.177473+05:30"},{"city":"Jodhpur","state":"Rajasthan","latitude":26.2389,"longitude":73.0243,"temp":38.8,"humidity":29,"rain":0.0,"pressure":978.3,"uv_index":8.4,"wind_gusts":30.2,"aqi":99,"pm10":169.0,"pm2_5":46.0,"no2":0.4,"co":137.0,"o3":115.0,"so2":3.4,"mosquito_risk":0,"arthritis_risk":5,"migraine_risk":10,"frizz_risk":1,"updated_at":"2026-06-02T16:11:26.177480+05:30"},{"city":"Udaipur","state":"Rajasthan","latitude":24.5854,"longitude":73.7125,"temp":33.5,"humidity":42,"rain":0.0,"pressure":943.6,"uv_index":8.8,"wind_gusts":23.8,"aqi":83,"pm10":76.4,"pm2_5":26.9,"no2":0.6,"co":145.0,"o3":104.0,"so2":3.4,"mosquito_risk":0,"arthritis_risk":5,"migraine_risk":7,"frizz_risk":1,"updated_at":"2026-06-02T16:11:26.177487+05:30"},{"city":"Kota","state":"Rajasthan","latitude":25.2138,"longitude":75.8648,"temp":36.0,"humidity":34,"rain":0.0,"pressure":974.7,"uv_index":8.4,"wind_gusts":20.9,"aqi":83,"pm10":108.0,"pm2_5":36.2,"no2":0.5,"co":140.0,"o3":114.0,"so2":3.8,"mosquito_risk":0,"arthritis_risk":5,"migraine_risk":10,"frizz_risk":1,"updated_at":"2026-06-02T16:11:26.177494+05:30"},{"city":"Bikaner","state":"Rajasthan","latitude":28.0229,"longitude":73.3119,"temp":38.7,"humidity":27,"rain":0.0,"pressure":977.3,"uv_index":8.45,"wind_gusts":31.0,"aqi":134,"pm10":317.6,"pm2_5":67.1,"no2":0.3,"co":229.0,"o3":143.0,"so2":5.5,"mosquito_risk":0,"arthritis_risk":5,"migraine_risk":10,"frizz_risk":1,"updated_at":"2026-06-02T16:11:26.177501+05:30"},{"city":"Ajmer","state":"Rajasthan","latitude":26.4499,"longitude":74.6399,"temp":34.2,"humidity":36,"rain":0.0,"pressure":951.1,"uv_index":8.3,"wind_gusts":25.2,"aqi":85,"pm10":137.8,"pm2_5":43.3,"no2":0.3,"co":184.0,"o3":124.0,"so2":5.4,"mosquito_risk":0,"arthritis_risk":5,"migraine_risk":7,"frizz_risk":1,"updated_at":"2026-06-02T16:11:26.177508+05:30"},{"city":"Gwalior","state":"Madhya Pradesh","latitude":26.2183,"longitude":78.1828,"temp":34.4,"humidity":43,"rain":0.0,"pressure":979.4,"uv_index":8.25,"wind_gusts":32.0,"aqi":90,"pm10":82.4,"pm2_5":27.8,"no2":0.2,"co":166.0,"o3":115.0,"so2":1.7,"mosquito_risk":0,"arthritis_risk":5,"migraine_risk":7,"frizz_risk":1,"updated_at":"2026-06-02T16:11:26.177516+05:30"},{"city":"Indore","state":"Madhya Pradesh","latitude":22.7196,"longitude":75.8577,"temp":35.5,"humidity":29,"rain":0.0,"pressure":944.8,"uv_index":8.6,"wind_gusts":35.6,"aqi":90,"pm10":67.1,"pm2_5":29.5,"no2":1.2,"co":276.0,"o3":113.0,"so2":3.9,"mosquito_risk":0,"arthritis_risk":5,"migraine_risk":10,"frizz_risk":0,"updated_at":"2026-06-02T16:11:26.177524+05:30"},{"city":"Bhopal","state":"Madhya Pradesh","latitude":23.2599,"longitude":77.4126,"temp":34.0,"humidity":41,"rain":0.0,"pressure":950.2,"uv_index":8.65,"wind_gusts":37.4,"aqi":78,"pm10":55.2,"pm2_5":25.4,"no2":0.5,"co":166.0,"o3":124.0,"so2":3.8,"mosquito_risk":0,"arthritis_risk":5,"migraine_risk":7,"frizz_risk":1,"updated_at":"2026-06-02T16:11:26.177531+05:30"},{"city":"Jabalpur","state":"Madhya Pradesh","latitude":23.1815,"longitude":79.9864,"temp":35.8,"humidity":32,"rain":0.0,"pressure":957.7,"uv_index":8.85,"wind_gusts":24.8,"aqi":90,"pm10":60.8,"pm2_5":24.9,"no2":0.4,"co":160.0,"o3":123.0,"so2":2.6,"mosquito_risk":0,"arthritis_risk":5,"migraine_risk":10,"frizz_risk":1,"updated_at":"2026-06-02T16:11:26.177538+05:30"},{"city":"Ujjain","state":"Madhya Pradesh","latitude":23.1765,"longitude":75.7885,"temp":34.6,"humidity":34,"rain":0.0,"pressure":950.3,"uv_index":8.55,"wind_gusts":35.3,"aqi":87,"pm10":63.8,"pm2_5":27.8,"no2":0.7,"co":171.0,"o3":105.0,"so2":3.9,"mosquito_risk":0,"arthritis_risk":5,"migraine_risk":7,"frizz_risk":1,"updated_at":"2026-06-02T16:11:26.177546+05:30"},{"city":"Visakhapatnam","state":"Andhra Pradesh","latitude":17.6868,"longitude":83.2185,"temp":33.3,"humidity":67,"rain":0.1,"pressure":999.2,"uv_index":9.0,"wind_gusts":44.3,"aqi":112,"pm10":44.1,"pm2_5":31.8,"no2":11.2,"co":355.0,"o3":146.0,"so2":36.6,"mosquito_risk":6,"arthritis_risk":5,"migraine_risk":7,"frizz_risk":1,"updated_at":"2026-06-02T16:11:26.177554+05:30"},{"city":"Vijayawada","state":"Andhra Pradesh","latitude":16.5062,"longitude":80.648,"temp":38.5,"humidity":32,"rain":0.0,"pressure":997.3,"uv_index":9.0,"wind_gusts":32.0,"aqi":116,"pm10":48.1,"pm2_5":28.5,"no2":2.5,"co":190.0,"o3":154.0,"so2":6.5,"mosquito_risk":0,"arthritis_risk":5,"migraine_risk":10,"frizz_risk":1,"updated_at":"2026-06-02T16:11:26.177561+05:30"},{"city":"Guntur","state":"Andhra Pradesh","latitude":16.3067,"longitude":80.4365,"temp":38.6,"humidity":32,"rain":0.0,"pressure":998.5,"uv_index":9.0,"wind_gusts":32.8,"aqi":109,"pm10":53.8,"pm2_5":30.9,"no2":0.8,"co":176.0,"o3":152.0,"so2":5.6,"mosquito_risk":0,"arthritis_risk":5,"migraine_risk":10,"frizz_risk":1,"updated_at":"2026-06-02T16:11:26.177568+05:30"},{"city":"Nellore","state":"Andhra Pradesh","latitude":14.4426,"longitude":79.9865,"temp":37.8,"humidity":36,"rain":0.0,"pressure":1001.1,"uv_index":8.8,"wind_gusts":33.8,"aqi":102,"pm10":41.2,"pm2_5":27.8,"no2":3.2,"co":186.0,"o3":173.0,"so2":6.1,"mosquito_risk":0,"arthritis_risk":5,"migraine_risk":7,"frizz_risk":1,"updated_at":"2026-06-02T16:11:26.177577+05:30"},{"city":"Kurnool","state":"Andhra Pradesh","latitude":15.8281,"longitude":78.0373,"temp":37.2,"humidity":34,"rain":0.0,"pressure":972.8,"uv_index":9.0,"wind_gusts":69.5,"aqi":86,"pm10":48.2,"pm2_5":24.8,"no2":0.6,"co":166.0,"o3":164.0,"so2":7.7,"mosquito_risk":0,"arthritis_risk":5,"migraine_risk":10,"frizz_risk":1,"updated_at":"2026-06-02T16:11:26.177585+05:30"},{"city":"Kakinada","state":"Andhra Pradesh","latitude":16.9891,"longitude":82.2475,"temp":34.8,"humidity":56,"rain":0.0,"pressure":1002.7,"uv_index":9.0,"wind_gusts":35.3,"aqi":101,"pm10":28.7,"pm2_5":20.8,"no2":1.6,"co":260.0,"o3":130.0,"so2":4.3,"mosquito_risk":0,"arthritis_risk":5,"migraine_risk":4,"frizz_risk":1,"updated_at":"2026-06-02T16:11:26.177593+05:30"},{"city":"Tirupati","state":"Andhra Pradesh","latitude":13.6288,"longitude":79.4192,"temp":36.2,"humidity":37,"rain":0.0,"pressure":987.1,"uv_index":9.0,"wind_gusts":25.2,"aqi":96,"pm10":23.8,"pm2_5":14.3,"no2":3.2,"co":164.0,"o3":140.0,"so2":2.6,"mosquito_risk":0,"arthritis_risk":5,"migraine_risk":10,"frizz_risk":1,"updated_at":"2026-06-02T16:11:26.177599+05:30"},{"city":"Warangal","state":"Telangana","latitude":17.9689,"longitude":79.5941,"temp":37.2,"humidity":32,"rain":0.0,"pressure":974.5,"uv_index":9.0,"wind_gusts":32.0,"aqi":127,"pm10":70.5,"pm2_5":35.0,"no2":0.4,"co":178.0,"o3":145.0,"so2":4.0,"mosquito_risk":0,"arthritis_risk":5,"migraine_risk":10,"frizz_risk":1,"updated_at":"2026-06-02T16:11:26.177606+05:30"},{"city":"Nizamabad","state":"Telangana","latitude":18.6725,"longitude":78.0941,"temp":36.7,"humidity":30,"rain":0.0,"pressure":961.1,"uv_index":8.95,"wind_gusts":30.2,"aqi":105,"pm10":66.4,"pm2_5":27.9,"no2":0.4,"co":158.0,"o3":126.0,"so2":3.3,"mosquito_risk":0,"arthritis_risk":5,"migraine_risk":10,"frizz_risk":0,"updated_at":"2026-06-02T16:11:26.177613+05:30"},{"city":"Mysore","state":"Karnataka","latitude":12.2958,"longitude":76.6396,"temp":26.6,"humidity":73,"rain":0.1,"pressure":926.8,"uv_index":8.95,"wind_gusts":44.3,"aqi":76,"pm10":15.1,"pm2_5":10.5,"no2":4.0,"co":207.0,"o3":139.0,"so2":2.2,"mosquito_risk":10,"arthritis_risk":5,"migraine_risk":7,"frizz_risk":1,"updated_at":"2026-06-02T16:11:26.177620+05:30"},{"city":"Mangalore","state":"Karnataka","latitude":12.9141,"longitude":74.856,"temp":27.3,"humidity":84,"rain":0.1,"pressure":1005.6,"uv_index":1.85,"wind_gusts":32.8,"aqi":50,"pm10":7.4,"pm2_5":4.9,"no2":1.5,"co":122.0,"o3":81.0,"so2":1.9,"mosquito_risk":10,"arthritis_risk":5,"migraine_risk":0,"frizz_risk":1,"updated_at":"2026-06-02T16:11:26.177628+05:30"},{"city":"Hubli-Dharwad","state":"Karnataka","latitude":15.3647,"longitude":75.124,"temp":29.9,"humidity":59,"rain":0.0,"pressure":938.9,"uv_index":8.6,"wind_gusts":44.3,"aqi":36,"pm10":23.9,"pm2_5":10.6,"no2":2.3,"co":150.0,"o3":99.0,"so2":1.2,"mosquito_risk":4,"arthritis_risk":5,"migraine_risk":7,"frizz_risk":1,"updated_at":"2026-06-02T16:11:26.177635+05:30"},{"city":"Belgaum","state":"Karnataka","latitude":15.8497,"longitude":74.4977,"temp":27.6,"humidity":65,"rain":0.0,"pressure":923.9,"uv_index":8.95,"wind_gusts":45.4,"aqi":42,"pm10":25.8,"pm2_5":11.8,"no2":1.6,"co":130.0,"o3":93.0,"so2":1.7,"mosquito_risk":7,"arthritis_risk":5,"migraine_risk":7,"frizz_risk":1,"updated_at":"2026-06-02T16:11:29.458855+05:30"},{"city":"Coimbatore","state":"Tamil Nadu","latitude":11.0168,"longitude":76.9558,"temp":28.9,"humidity":69,"rain":0.0,"pressure":959.9,"uv_index":9.0,"wind_gusts":48.6,"aqi":50,"pm10":9.9,"pm2_5":7.9,"no2":4.3,"co":197.0,"o3":96.0,"so2":2.4,"mosquito_risk":7,"arthritis_risk":5,"migraine_risk":7,"frizz_risk":1,"updated_at":"2026-06-02T16:11:29.458891+05:30"},{"city":"Madurai","state":"Tamil Nadu","latitude":9.9252,"longitude":78.1198,"temp":26.7,"humidity":92,"rain":0.3,"pressure":991.1,"uv_index":8.85,"wind_gusts":64.1,"aqi":74,"pm10":10.7,"pm2_5":7.0,"no2":2.0,"co":161.0,"o3":109.0,"so2":2.2,"mosquito_risk":10,"arthritis_risk":5,"migraine_risk":7,"frizz_risk":1,"updated_at":"2026-06-02T16:11:29.458902+05:30"},{"city":"Trichy","state":"Tamil Nadu","latitude":10.7905,"longitude":78.7047,"temp":33.5,"humidity":54,"rain":0.0,"pressure":996.7,"uv_index":8.85,"wind_gusts":38.9,"aqi":66,"pm10":24.7,"pm2_5":13.7,"no2":2.6,"co":182.0,"o3":122.0,"so2":3.1,"mosquito_risk":0,"arthritis_risk":5,"migraine_risk":7,"frizz_risk":1,"updated_at":"2026-06-02T16:11:29.458912+05:30"},{"city":"Salem","state":"Tamil Nadu","latitude":11.6643,"longitude":78.146,"temp":33.9,"humidity":49,"rain":0.2,"pressure":974.0,"uv_index":8.95,"wind_gusts":41.0,"aqi":119,"pm10":30.0,"pm2_5":19.4,"no2":3.5,"co":195.0,"o3":159.0,"so2":8.7,"mosquito_risk":3,"arthritis_risk":5,"migraine_risk":7,"frizz_risk":1,"updated_at":"2026-06-02T16:11:29.458920+05:30"},{"city":"Tirunelveli","state":"Tamil Nadu","latitude":8.7139,"longitude":77.7567,"temp":34.5,"humidity":47,"rain":0.1,"pressure":1000.3,"uv_index":8.75,"wind_gusts":37.4,"aqi":31,"pm10":4.4,"pm2_5":3.4,"no2":1.4,"co":120.0,"o3":74.0,"so2":0.6,"mosquito_risk":3,"arthritis_risk":5,"migraine_risk":4,"frizz_risk":1,"updated_at":"2026-06-02T16:11:29.458927+05:30"},{"city":"Vellore","state":"Tamil Nadu","latitude":12.9165,"longitude":79.1325,"temp":33.6,"humidity":51,"rain":0.2,"pressure":980.8,"uv_index":9.0,"wind_gusts":29.9,"aqi":120,"pm10":27.1,"pm2_5":19.4,"no2":3.4,"co":228.0,"o3":161.0,"so2":4.7,"mosquito_risk":3,"arthritis_risk":5,"migraine_risk":7,"frizz_risk":1,"updated_at":"2026-06-02T16:11:29.458935+05:30"},{"city":"Erode","state":"Tamil Nadu","latitude":11.341,"longitude":77.7172,"temp":32.6,"humidity":54,"rain":0.1,"pressure":986.0,"uv_index":8.9,"wind_gusts":41.0,"aqi":79,"pm10":25.0,"pm2_5":12.8,"no2":3.5,"co":217.0,"o3":135.0,"so2":2.1,"mosquito_risk":3,"arthritis_risk":5,"migraine_risk":7,"frizz_risk":1,"updated_at":"2026-06-02T16:11:29.458942+05:30"},{"city":"Kochi","state":"Kerala","latitude":9.9312,"longitude":76.2673,"temp":27.8,"humidity":81,"rain":0.1,"pressure":1007.6,"uv_index":8.55,"wind_gusts":34.6,"aqi":46,"pm10":8.0,"pm2_5":6.3,"no2":4.3,"co":158.0,"o3":67.0,"so2":2.2,"mosquito_risk":10,"arthritis_risk":5,"migraine_risk":4,"frizz_risk":1,"updated_at":"2026-06-02T16:11:29.458950+05:30"},{"city":"Thiruvananthapuram","state":"Kerala","latitude":8.5241,"longitude":76.9366,"temp":27.7,"humidity":80,"rain":0.0,"pressure":1007.3,"uv_index":8.25,"wind_gusts":36.0,"aqi":26,"pm10":8.0,"pm2_5":4.9,"no2":1.1,"co":109.0,"o3":70.0,"so2":0.5,"mosquito_risk":7,"arthritis_risk":5,"migraine_risk":4,"frizz_risk":1,"updated_at":"2026-06-02T16:11:29.458957+05:30"},{"city":"Kozhikode","state":"Kerala","latitude":11.2588,"longitude":75.7804,"temp":25.9,"humidity":94,"rain":0.0,"pressure":1007.1,"uv_index":7.9,"wind_gusts":27.0,"aqi":38,"pm10":5.6,"pm2_5":3.7,"no2":0.8,"co":137.0,"o3":78.0,"so2":0.5,"mosquito_risk":7,"arthritis_risk":5,"migraine_risk":4,"frizz_risk":1,"updated_at":"2026-06-02T16:11:29.458964+05:30"},{"city":"Thrissur","state":"Kerala","latitude":10.5276,"longitude":76.2144,"temp":26.8,"humidity":90,"rain":0.2,"pressure":1006.0,"uv_index":8.65,"wind_gusts":34.9,"aqi":49,"pm10":7.5,"pm2_5":6.3,"no2":4.1,"co":172.0,"o3":68.0,"so2":2.0,"mosquito_risk":10,"arthritis_risk":5,"migraine_risk":4,"frizz_risk":1,"updated_at":"2026-06-02T16:11:29.458972+05:30"},{"city":"Kannur","state":"Kerala","latitude":11.8745,"longitude":75.3704,"temp":26.2,"humidity":94,"rain":0.2,"pressure":1006.5,"uv_index":2.9,"wind_gusts":25.9,"aqi":39,"pm10":4.6,"pm2_5":3.1,"no2":1.2,"co":139.0,"o3":72.0,"so2":0.9,"mosquito_risk":10,"arthritis_risk":5,"migraine_risk":0,"frizz_risk":1,"updated_at":"2026-06-02T16:11:29.458980+05:30"},{"city":"Patna","state":"Bihar","latitude":25.5941,"longitude":85.1376,"temp":35.8,"humidity":45,"rain":0.0,"pressure":995.2,"uv_index":8.85,"wind_gusts":19.1,"aqi":202,"pm10":71.7,"pm2_5":55.5,"no2":4.2,"co":315.0,"o3":200.0,"so2":10.9,"mosquito_risk":0,"arthritis_risk":5,"migraine_risk":10,"frizz_risk":1,"updated_at":"2026-06-02T16:11:29.458987+05:30"},{"city":"Gaya","state":"Bihar","latitude":24.7914,"longitude":85.0002,"temp":36.7,"humidity":38,"rain":0.0,"pressure":988.8,"uv_index":8.9,"wind_gusts":21.6,"aqi":187,"pm10":58.4,"pm2_5":44.2,"no2":2.3,"co":308.0,"o3":180.0,"so2":9.2,"mosquito_risk":0,"arthritis_risk":5,"migraine_risk":10,"frizz_risk":1,"updated_at":"2026-06-02T16:11:29.458994+05:30"},{"city":"Muzaffarpur","state":"Bihar","latitude":26.1209,"longitude":85.3647,"temp":34.8,"humidity":50,"rain":0.0,"pressure":995.3,"uv_index":8.85,"wind_gusts":20.9,"aqi":202,"pm10":75.4,"pm2_5":57.3,"no2":5.3,"co":355.0,"o3":196.0,"so2":11.2,"mosquito_risk":0,"arthritis_risk":5,"migraine_risk":7,"frizz_risk":1,"updated_at":"2026-06-02T16:11:29.459002+05:30"},{"city":"Bhagalpur","state":"Bihar","latitude":25.2425,"longitude":87.0117,"temp":35.8,"humidity":47,"rain":0.0,"pressure":995.5,"uv_index":8.85,"wind_gusts":18.0,"aqi":185,"pm10":54.4,"pm2_5":46.0,"no2":3.9,"co":333.0,"o3":198.0,"so2":15.6,"mosquito_risk":0,"arthritis_risk":5,"migraine_risk":10,"frizz_risk":1,"updated_at":"2026-06-02T16:11:29.459008+05:30"},{"city":"Ranchi","state":"Jharkhand","latitude":23.3441,"longitude":85.3096,"temp":32.7,"humidity":41,"rain":0.0,"pressure":934.9,"uv_index":8.95,"wind_gusts":21.2,"aqi":184,"pm10":70.8,"pm2_5":53.9,"no2":3.5,"co":278.0,"o3":184.0,"so2":19.1,"mosquito_risk":0,"arthritis_risk":5,"migraine_risk":7,"frizz_risk":1,"updated_at":"2026-06-02T16:11:29.459016+05:30"},{"city":"Jamshedpur","state":"Jharkhand","latitude":22.8046,"longitude":86.2029,"temp":34.8,"humidity":48,"rain":0.1,"pressure":986.0,"uv_index":9.05,"wind_gusts":22.0,"aqi":182,"pm10":70.8,"pm2_5":55.8,"no2":5.3,"co":302.0,"o3":207.0,"so2":19.0,"mosquito_risk":3,"arthritis_risk":5,"migraine_risk":7,"frizz_risk":1,"updated_at":"2026-06-02T16:11:29.459023+05:30"},{"city":"Dhanbad","state":"Jharkhand","latitude":23.7957,"longitude":86.4304,"temp":36.2,"humidity":36,"rain":0.0,"pressure":975.2,"uv_index":9.05,"wind_gusts":22.0,"aqi":173,"pm10":90.6,"pm2_5":77.3,"no2":16.2,"co":304.0,"o3":238.0,"so2":71.3,"mosquito_risk":0,"arthritis_risk":5,"migraine_risk":10,"frizz_risk":1,"updated_at":"2026-06-02T16:11:29.459030+05:30"},{"city":"Bokaro","state":"Jharkhand","latitude":23.6693,"longitude":86.1511,"temp":35.5,"humidity":38,"rain":0.0,"pressure":978.9,"uv_index":8.6,"wind_gusts":22.3,"aqi":177,"pm10":85.0,"pm2_5":69.4,"no2":14.6,"co":292.0,"o3":206.0,"so2":58.6,"mosquito_risk":0,"arthritis_risk":5,"migraine_risk":10,"frizz_risk":1,"updated_at":"2026-06-02T16:11:29.459037+05:30"},{"city":"Bhubaneswar","state":"Odisha","latitude":20.2961,"longitude":85.8245,"temp":31.0,"humidity":81,"rain":0.1,"pressure":998.5,"uv_index":9.0,"wind_gusts":37.8,"aqi":143,"pm10":34.0,"pm2_5":26.9,"no2":3.2,"co":327.0,"o3":155.0,"so2":9.7,"mosquito_risk":6,"arthritis_risk":5,"migraine_risk":7,"frizz_risk":1,"updated_at":"2026-06-02T16:11:29.459044+05:30"},{"city":"Cuttack","state":"Odisha","latitude":20.4625,"longitude":85.8828,"temp":29.8,"humidity":84,"rain":0.1,"pressure":1000.4,"uv_index":9.05,"wind_gusts":37.8,"aqi":143,"pm10":34.0,"pm2_5":26.9,"no2":3.2,"co":340.0,"o3":155.0,"so2":9.7,"mosquito_risk":10,"arthritis_risk":5,"migraine_risk":4,"frizz_risk":1,"updated_at":"2026-06-02T16:11:29.459052+05:30"},{"city":"Rourkela","state":"Odisha","latitude":22.2604,"longitude":84.8536,"temp":35.3,"humidity":42,"rain":0.0,"pressure":980.5,"uv_index":5.3,"wind_gusts":36.4,"aqi":180,"pm10":65.0,"pm2_5":49.2,"no2":2.4,"co":271.0,"o3":211.0,"so2":16.3,"mosquito_risk":0,"arthritis_risk":5,"migraine_risk":6,"frizz_risk":1,"updated_at":"2026-06-02T16:11:29.459059+05:30"},{"city":"Raipur","state":"Chhattisgarh","latitude":21.2514,"longitude":81.6296,"temp":38.0,"humidity":29,"rain":0.0,"pressure":970.0,"uv_index":8.95,"wind_gusts":31.7,"aqi":153,"pm10":85.9,"pm2_5":51.3,"no2":7.4,"co":393.0,"o3":196.0,"so2":40.5,"mosquito_risk":0,"arthritis_risk":5,"migraine_risk":10,"frizz_risk":1,"updated_at":"2026-06-02T16:11:29.459065+05:30"},{"city":"Bhilai","state":"Chhattisgarh","latitude":21.1938,"longitude":81.3509,"temp":37.5,"humidity":29,"rain":0.0,"pressure":970.3,"uv_index":8.95,"wind_gusts":24.8,"aqi":153,"pm10":78.0,"pm2_5":42.6,"no2":8.0,"co":551.0,"o3":164.0,"so2":34.6,"mosquito_risk":0,"arthritis_risk":5,"migraine_risk":10,"frizz_risk":1,"updated_at":"2026-06-02T16:11:29.459072+05:30"},{"city":"Guwahati","state":"Assam","latitude":26.1158,"longitude":91.7086,"temp":32.6,"humidity":62,"rain":0.0,"pressure":995.1,"uv_index":8.7,"wind_gusts":35.3,"aqi":127,"pm10":65.2,"pm2_5":54.6,"no2":2.4,"co":348.0,"o3":146.0,"so2":7.1,"mosquito_risk":3,"arthritis_risk":5,"migraine_risk":7,"frizz_risk":1,"updated_at":"2026-06-02T16:11:29.459079+05:30"},{"city":"Agartala","state":"Tripura","latitude":23.8315,"longitude":91.2868,"temp":33.0,"humidity":62,"rain":0.0,"pressure":1000.6,"uv_index":8.75,"wind_gusts":22.3,"aqi":122,"pm10":64.7,"pm2_5":47.3,"no2":7.1,"co":245.0,"o3":189.0,"so2":8.1,"mosquito_risk":3,"arthritis_risk":5,"migraine_risk":4,"frizz_risk":1,"updated_at":"2026-06-02T16:11:29.459086+05:30"},{"city":"Shillong","state":"Meghalaya","latitude":25.5788,"longitude":91.8933,"temp":24.4,"humidity":65,"rain":0.0,"pressure":855.6,"uv_index":7.85,"wind_gusts":24.1,"aqi":116,"pm10":40.4,"pm2_5":32.4,"no2":2.5,"co":293.0,"o3":136.0,"so2":4.0,"mosquito_risk":3,"arthritis_risk":5,"migraine_risk":7,"frizz_risk":1,"updated_at":"2026-06-02T16:11:29.459093+05:30"},{"city":"Imphal","state":"Manipur","latitude":24.817,"longitude":93.9368,"temp":27.9,"humidity":68,"rain":0.0,"pressure":919.1,"uv_index":8.8,"wind_gusts":28.4,"aqi":69,"pm10":20.1,"pm2_5":15.3,"no2":2.0,"co":285.0,"o3":121.0,"so2":2.4,"mosquito_risk":7,"arthritis_risk":5,"migraine_risk":7,"frizz_risk":1,"updated_at":"2026-06-02T16:11:29.459100+05:30"},{"city":"Aizawl","state":"Mizoram","latitude":23.7271,"longitude":92.7176,"temp":25.6,"humidity":69,"rain":0.1,"pressure":889.7,"uv_index":8.3,"wind_gusts":19.4,"aqi":63,"pm10":50.5,"pm2_5":31.5,"no2":2.4,"co":203.0,"o3":103.0,"so2":3.1,"mosquito_risk":10,"arthritis_risk":5,"migraine_risk":7,"frizz_risk":1,"updated_at":"2026-06-02T16:11:29.459107+05:30"},{"city":"Kohima","state":"Nagaland","latitude":25.6701,"longitude":94.1077,"temp":24.0,"humidity":77,"rain":0.0,"pressure":853.3,"uv_index":8.55,"wind_gusts":32.8,"aqi":85,"pm10":28.9,"pm2_5":21.5,"no2":2.0,"co":277.0,"o3":121.0,"so2":2.1,"mosquito_risk":3,"arthritis_risk":5,"migraine_risk":7,"frizz_risk":1,"updated_at":"2026-06-02T16:11:29.459114+05:30"},{"city":"Gangtok","state":"Sikkim","latitude":27.3314,"longitude":88.6138,"temp":22.4,"humidity":70,"rain":0.1,"pressure":836.4,"uv_index":9.1,"wind_gusts":40.3,"aqi":100,"pm10":28.6,"pm2_5":23.7,"no2":2.1,"co":305.0,"o3":151.0,"so2":2.9,"mosquito_risk":6,"arthritis_risk":5,"migraine_risk":7,"frizz_risk":1,"updated_at":"2026-06-02T16:11:29.459121+05:30"},{"city":"Siliguri","state":"West Bengal","latitude":26.7271,"longitude":88.3953,"temp":33.5,"humidity":53,"rain":0.0,"pressure":987.1,"uv_index":8.75,"wind_gusts":34.6,"aqi":153,"pm10":61.7,"pm2_5":50.1,"no2":2.9,"co":459.0,"o3":176.0,"so2":7.4,"mosquito_risk":0,"arthritis_risk":5,"migraine_risk":7,"frizz_risk":1,"updated_at":"2026-06-02T16:11:32.733158+05:30"},{"city":"Durgapur","state":"West Bengal","latitude":23.5204,"longitude":87.3119,"temp":32.9,"humidity":65,"rain":0.1,"pressure":990.1,"uv_index":8.95,"wind_gusts":22.7,"aqi":157,"pm10":68.7,"pm2_5":62.9,"no2":19.9,"co":625.0,"o3":201.0,"so2":64.5,"mosquito_risk":6,"arthritis_risk":5,"migraine_risk":7,"frizz_risk":1,"updated_at":"2026-06-02T16:11:32.733193+05:30"},{"city":"Asansol","state":"West Bengal","latitude":23.6739,"longitude":86.9524,"temp":34.4,"humidity":56,"rain":0.0,"pressure":988.6,"uv_index":9.0,"wind_gusts":21.6,"aqi":157,"pm10":69.4,"pm2_5":62.4,"no2":19.6,"co":512.0,"o3":202.0,"so2":61.6,"mosquito_risk":0,"arthritis_risk":5,"migraine_risk":7,"frizz_risk":1,"updated_at":"2026-06-02T16:11:32.733205+05:30"},{"city":"Pondicherry","state":"Puducherry","latitude":11.9139,"longitude":79.8145,"temp":32.0,"humidity":69,"rain":0.0,"pressure":1004.8,"uv_index":8.85,"wind_gusts":41.8,"aqi":61,"pm10":29.6,"pm2_5":22.7,"no2":6.7,"co":210.0,"o3":136.0,"so2":6.7,"mosquito_risk":3,"arthritis_risk":5,"migraine_risk":4,"frizz_risk":1,"updated_at":"2026-06-02T16:11:32.733213+05:30"},{"city":"Port Blair","state":"Andaman and Nicobar Islands","latitude":11.6234,"longitude":92.7265,"temp":25.8,"humidity":95,"rain":0.2,"pressure":1005.0,"uv_index":1.7,"wind_gusts":37.1,"aqi":30,"pm10":14.0,"pm2_5":7.8,"no2":0.5,"co":132.0,"o3":65.0,"so2":0.5,"mosquito_risk":10,"arthritis_risk":5,"migraine_risk":0,"frizz_risk":1,"updated_at":"2026-06-02T16:11:32.733222+05:30"},{"city":"Haridwar","state":"Uttarakhand","latitude":29.9457,"longitude":78.1642,"temp":33.7,"humidity":42,"rain":0.0,"pressure":971.5,"uv_index":7.6,"wind_gusts":24.8,"aqi":129,"pm10":82.0,"pm2_5":32.5,"no2":0.5,"co":238.0,"o3":151.0,"so2":5.4,"mosquito_risk":0,"arthritis_risk":5,"migraine_risk":7,"frizz_risk":1,"updated_at":"2026-06-02T16:11:32.733229+05:30"},{"city":"Rishikesh","state":"Uttarakhand","latitude":30.0869,"longitude":78.2676,"temp":32.3,"humidity":43,"rain":0.1,"pressure":964.5,"uv_index":7.65,"wind_gusts":24.1,"aqi":123,"pm10":65.7,"pm2_5":29.1,"no2":0.8,"co":235.0,"o3":152.0,"so2":5.4,"mosquito_risk":3,"arthritis_risk":5,"migraine_risk":7,"frizz_risk":1,"updated_at":"2026-06-02T16:11:32.733238+05:30"},{"city":"Nainital","state":"Uttarakhand","latitude":29.3919,"longitude":79.4542,"temp":18.3,"humidity":77,"rain":0.0,"pressure":805.8,"uv_index":7.25,"wind_gusts":37.8,"aqi":94,"pm10":71.9,"pm2_5":27.9,"no2":0.6,"co":223.0,"o3":143.0,"so2":3.3,"mosquito_risk":3,"arthritis_risk":5,"migraine_risk":7,"frizz_risk":0,"updated_at":"2026-06-02T16:11:32.733246+05:30"},{"city":"Mussoorie","state":"Uttarakhand","latitude":30.4599,"longitude":78.0664,"temp":19.6,"humidity":64,"rain":0.1,"pressure":804.0,"uv_index":8.15,"wind_gusts":32.0,"aqi":131,"pm10":45.2,"pm2_5":23.9,"no2":1.1,"co":253.0,"o3":162.0,"so2":4.9,"mosquito_risk":6,"arthritis_risk":5,"migraine_risk":7,"frizz_risk":0,"updated_at":"2026-06-02T16:11:32.733254+05:30"},{"city":"Dharamshala","state":"Himachal Pradesh","latitude":32.219,"longitude":76.3234,"temp":24.8,"humidity":54,"rain":0.0,"pressure":869.8,"uv_index":8.55,"wind_gusts":42.1,"aqi":73,"pm10":16.8,"pm2_5":8.7,"no2":0.5,"co":210.0,"o3":136.0,"so2":0.4,"mosquito_risk":0,"arthritis_risk":5,"migraine_risk":7,"frizz_risk":0,"updated_at":"2026-06-02T16:11:32.733262+05:30"},{"city":"Dalhousie","state":"Himachal Pradesh","latitude":32.5387,"longitude":75.971,"temp":18.2,"humidity":82,"rain":0.1,"pressure":806.1,"uv_index":8.8,"wind_gusts":32.0,"aqi":108,"pm10":42.3,"pm2_5":19.1,"no2":1.4,"co":223.0,"o3":152.0,"so2":1.3,"mosquito_risk":6,"arthritis_risk":10,"migraine_risk":7,"frizz_risk":0,"updated_at":"2026-06-02T16:11:32.733271+05:30"},{"city":"Patiala","state":"Punjab","latitude":30.3398,"longitude":76.3869,"temp":35.0,"humidity":34,"rain":0.0,"pressure":975.4,"uv_index":7.7,"wind_gusts":26.3,"aqi":256,"pm10":202.1,"pm2_5":39.9,"no2":0.9,"co":287.0,"o3":171.0,"so2":6.8,"mosquito_risk":0,"arthritis_risk":5,"migraine_risk":7,"frizz_risk":1,"updated_at":"2026-06-02T16:11:32.733279+05:30"},{"city":"Bhatinda","state":"Punjab","latitude":30.211,"longitude":74.9455,"temp":37.0,"humidity":28,"rain":0.0,"pressure":980.4,"uv_index":8.3,"wind_gusts":31.3,"aqi":455,"pm10":361.4,"pm2_5":68.2,"no2":1.6,"co":214.0,"o3":176.0,"so2":12.8,"mosquito_risk":0,"arthritis_risk":5,"migraine_risk":10,"frizz_risk":0,"updated_at":"2026-06-02T16:11:32.733286+05:30"},{"city":"Rohtak","state":"Haryana","latitude":28.8955,"longitude":76.6066,"temp":35.2,"humidity":33,"rain":0.0,"pressure":978.4,"uv_index":7.8,"wind_gusts":28.8,"aqi":164,"pm10":165.3,"pm2_5":51.6,"no2":2.1,"co":269.0,"o3":209.0,"so2":14.0,"mosquito_risk":0,"arthritis_risk":5,"migraine_risk":10,"frizz_risk":1,"updated_at":"2026-06-02T16:11:32.733294+05:30"},{"city":"Panipat","state":"Haryana","latitude":29.3909,"longitude":76.9635,"temp":34.0,"humidity":41,"rain":0.0,"pressure":977.6,"uv_index":7.65,"wind_gusts":28.8,"aqi":534,"pm10":160.2,"pm2_5":45.8,"no2":2.8,"co":235.0,"o3":183.0,"so2":14.0,"mosquito_risk":0,"arthritis_risk":5,"migraine_risk":7,"frizz_risk":1,"updated_at":"2026-06-02T16:11:32.733301+05:30"},{"city":"Mathura","state":"Uttar Pradesh","latitude":27.4924,"longitude":77.6737,"temp":34.2,"humidity":43,"rain":0.0,"pressure":983.2,"uv_index":8.05,"wind_gusts":24.1,"aqi":159,"pm10":165.3,"pm2_5":41.4,"no2":0.8,"co":276.0,"o3":143.0,"so2":2.0,"mosquito_risk":0,"arthritis_risk":5,"migraine_risk":7,"frizz_risk":1,"updated_at":"2026-06-02T16:11:32.733308+05:30"},{"city":"Vrindavan","state":"Uttar Pradesh","latitude":27.5823,"longitude":77.7027,"temp":34.3,"humidity":42,"rain":0.0,"pressure":983.6,"uv_index":8.05,"wind_gusts":36.0,"aqi":159,"pm10":165.3,"pm2_5":41.4,"no2":0.8,"co":291.0,"o3":143.0,"so2":2.0,"mosquito_risk":0,"arthritis_risk":5,"migraine_risk":7,"frizz_risk":1,"updated_at":"2026-06-02T16:11:32.733314+05:30"},{"city":"Ayodhya","state":"Uttar Pradesh","latitude":26.7922,"longitude":82.1998,"temp":34.4,"humidity":45,"rain":0.0,"pressure":991.3,"uv_index":8.35,"wind_gusts":17.6,"aqi":158,"pm10":76.8,"pm2_5":43.8,"no2":2.1,"co":256.0,"o3":156.0,"so2":4.5,"mosquito_risk":0,"arthritis_risk":5,"migraine_risk":7,"frizz_risk":1,"updated_at":"2026-06-02T16:11:32.733322+05:30"},{"city":"Ratlam","state":"Madhya Pradesh","latitude":23.3315,"longitude":75.0367,"temp":35.0,"humidity":29,"rain":0.0,"pressure":951.6,"uv_index":8.5,"wind_gusts":34.9,"aqi":83,"pm10":59.3,"pm2_5":26.7,"no2":0.5,"co":130.0,"o3":104.0,"so2":4.1,"mosquito_risk":0,"arthritis_risk":5,"migraine_risk":7,"frizz_risk":0,"updated_at":"2026-06-02T16:11:32.733330+05:30"},{"city":"Sagar","state":"Madhya Pradesh","latitude":23.8388,"longitude":78.7378,"temp":34.7,"humidity":33,"rain":0.0,"pressure":946.9,"uv_index":8.7,"wind_gusts":24.8,"aqi":69,"pm10":54.1,"pm2_5":23.5,"no2":0.4,"co":149.0,"o3":118.0,"so2":1.9,"mosquito_risk":0,"arthritis_risk":5,"migraine_risk":7,"frizz_risk":1,"updated_at":"2026-06-02T16:11:32.733337+05:30"},{"city":"Satna","state":"Madhya Pradesh","latitude":24.6005,"longitude":80.8322,"temp":36.0,"humidity":33,"rain":0.0,"pressure":967.5,"uv_index":8.8,"wind_gusts":22.3,"aqi":118,"pm10":66.6,"pm2_5":33.8,"no2":1.2,"co":171.0,"o3":141.0,"so2":7.5,"mosquito_risk":0,"arthritis_risk":5,"migraine_risk":10,"frizz_risk":1,"updated_at":"2026-06-02T16:11:32.733344+05:30"},{"city":"Akola","state":"Maharashtra","latitude":20.7002,"longitude":77.0082,"temp":36.9,"humidity":33,"rain":0.0,"pressure":970.6,"uv_index":8.8,"wind_gusts":33.5,"aqi":76,"pm10":65.7,"pm2_5":24.4,"no2":1.2,"co":134.0,"o3":122.0,"so2":5.5,"mosquito_risk":0,"arthritis_risk":5,"migraine_risk":10,"frizz_risk":1,"updated_at":"2026-06-02T16:11:32.733352+05:30"},{"city":"Amravati","state":"Maharashtra","latitude":20.9374,"longitude":77.7796,"temp":37.7,"humidity":26,"rain":0.0,"pressure":963.4,"uv_index":8.8,"wind_gusts":36.4,"aqi":77,"pm10":70.5,"pm2_5":26.0,"no2":1.3,"co":152.0,"o3":130.0,"so2":7.3,"mosquito_risk":0,"arthritis_risk":5,"migraine_risk":10,"frizz_risk":0,"updated_at":"2026-06-02T16:11:32.733361+05:30"},{"city":"Latur","state":"Maharashtra","latitude":18.4088,"longitude":76.5604,"temp":35.5,"humidity":31,"rain":0.0,"pressure":937.1,"uv_index":8.95,"wind_gusts":37.4,"aqi":79,"pm10":47.8,"pm2_5":20.0,"no2":0.6,"co":143.0,"o3":127.0,"so2":3.2,"mosquito_risk":0,"arthritis_risk":5,"migraine_risk":10,"frizz_risk":0,"updated_at":"2026-06-02T16:11:32.733368+05:30"},{"city":"Nanded","state":"Maharashtra","latitude":19.1383,"longitude":77.3091,"temp":37.8,"humidity":28,"rain":0.0,"pressure":964.6,"uv_index":8.9,"wind_gusts":27.7,"aqi":89,"pm10":42.6,"pm2_5":17.2,"no2":0.7,"co":148.0,"o3":124.0,"so2":2.4,"mosquito_risk":0,"arthritis_risk":5,"migraine_risk":10,"frizz_risk":1,"updated_at":"2026-06-02T16:11:32.733375+05:30"},{"city":"Gulbarga","state":"Karnataka","latitude":17.3297,"longitude":76.8343,"temp":37.9,"humidity":29,"rain":0.0,"pressure":954.9,"uv_index":8.95,"wind_gusts":47.2,"aqi":84,"pm10":57.6,"pm2_5":25.3,"no2":1.1,"co":157.0,"o3":149.0,"so2":4.6,"mosquito_risk":0,"arthritis_risk":5,"migraine_risk":10,"frizz_risk":1,"updated_at":"2026-06-02T16:11:32.733382+05:30"},{"city":"Bidar","state":"Karnataka","latitude":17.9104,"longitude":77.5199,"temp":35.0,"humidity":30,"rain":0.0,"pressure":932.9,"uv_index":8.95,"wind_gusts":28.8,"aqi":95,"pm10":61.7,"pm2_5":25.7,"no2":0.9,"co":170.0,"o3":134.0,"so2":3.2,"mosquito_risk":0,"arthritis_risk":5,"migraine_risk":7,"frizz_risk":0,"updated_at":"2026-06-02T16:11:32.733389+05:30"},{"city":"Hospet","state":"Karnataka","latitude":15.2689,"longitude":76.3909,"temp":34.3,"humidity":39,"rain":0.0,"pressure":952.7,"uv_index":8.95,"wind_gusts":50.4,"aqi":52,"pm10":31.2,"pm2_5":14.1,"no2":1.8,"co":161.0,"o3":124.0,"so2":3.7,"mosquito_risk":0,"arthritis_risk":5,"migraine_risk":7,"frizz_risk":1,"updated_at":"2026-06-02T16:11:32.733395+05:30"},{"city":"Tirupur","state":"Tamil Nadu","latitude":11.1085,"longitude":77.3411,"temp":31.7,"humidity":57,"rain":0.0,"pressure":972.8,"uv_index":9.0,"wind_gusts":50.0,"aqi":79,"pm10":19.3,"pm2_5":11.7,"no2":4.1,"co":189.0,"o3":132.0,"so2":3.3,"mosquito_risk":0,"arthritis_risk":5,"migraine_risk":7,"frizz_risk":1,"updated_at":"2026-06-02T16:11:32.733402+05:30"},{"city":"Alappuzha","state":"Kerala","latitude":9.4981,"longitude":76.3388,"temp":27.5,"humidity":85,"rain":0.0,"pressure":1007.8,"uv_index":8.55,"wind_gusts":34.6,"aqi":41,"pm10":7.5,"pm2_5":5.5,"no2":3.3,"co":111.0,"o3":64.0,"so2":1.3,"mosquito_risk":7,"arthritis_risk":5,"migraine_risk":4,"frizz_risk":1,"updated_at":"2026-06-02T16:11:32.733409+05:30"},{"city":"Munnar","state":"Kerala","latitude":10.0889,"longitude":77.0595,"temp":18.5,"humidity":100,"rain":0.1,"pressure":856.0,"uv_index":9.15,"wind_gusts":27.7,"aqi":53,"pm10":7.6,"pm2_5":5.3,"no2":2.7,"co":136.0,"o3":75.0,"so2":1.0,"mosquito_risk":6,"arthritis_risk":10,"migraine_risk":7,"frizz_risk":1,"updated_at":"2026-06-02T16:11:32.733416+05:30"},{"city":"Silchar","state":"Assam","latitude":24.8333,"longitude":92.7789,"temp":32.0,"humidity":69,"rain":0.0,"pressure":999.3,"uv_index":8.7,"wind_gusts":23.8,"aqi":99,"pm10":47.5,"pm2_5":32.8,"no2":1.7,"co":281.0,"o3":144.0,"so2":6.1,"mosquito_risk":3,"arthritis_risk":5,"migraine_risk":7,"frizz_risk":1,"updated_at":"2026-06-02T16:11:32.733423+05:30"},{"city":"Dibrugarh","state":"Assam","latitude":27.4728,"longitude":94.912,"temp":28.3,"humidity":91,"rain":0.0,"pressure":989.6,"uv_index":8.9,"wind_gusts":24.8,"aqi":67,"pm10":13.2,"pm2_5":12.0,"no2":2.7,"co":235.0,"o3":112.0,"so2":1.2,"mosquito_risk":7,"arthritis_risk":5,"migraine_risk":7,"frizz_risk":1,"updated_at":"2026-06-02T16:11:32.733430+05:30"}]