[{"city":"Delhi","state":"Delhi","latitude":28.6139,"longitude":77.209,"temp":38.1,"humidity":22,"rain":0.0,"pressure":980.6,"uv_index":7.6,"wind_gusts":40.0,"aqi":179,"pm10":369.7,"pm2_5":72.6,"no2":6.5,"co":425.0,"o3":234.0,"so2":22.5,"mosquito_risk":0,"arthritis_risk":5,"migraine_risk":10,"frizz_risk":0,"updated_at":"2026-05-10T15:48:49.661671+05:30"},{"city":"Mumbai","state":"Maharashtra","latitude":19.076,"longitude":72.8777,"temp":36.5,"humidity":37,"rain":0.0,"pressure":1002.6,"uv_index":7.9,"wind_gusts":47.2,"aqi":149,"pm10":49.1,"pm2_5":27.6,"no2":9.9,"co":275.0,"o3":160.0,"so2":10.0,"mosquito_risk":0,"arthritis_risk":5,"migraine_risk":7,"frizz_risk":1,"updated_at":"2026-05-10T15:48:49.661730+05:30"},{"city":"Bangalore","state":"Karnataka","latitude":12.9716,"longitude":77.5946,"temp":33.4,"humidity":26,"rain":0.0,"pressure":909.0,"uv_index":9.45,"wind_gusts":42.1,"aqi":61,"pm10":20.7,"pm2_5":11.3,"no2":5.1,"co":267.0,"o3":132.0,"so2":3.0,"mosquito_risk":0,"arthritis_risk":5,"migraine_risk":7,"frizz_risk":0,"updated_at":"2026-05-10T15:48:49.661749+05:30"},{"city":"Hyderabad","state":"Telangana","latitude":17.385,"longitude":78.4867,"temp":36.6,"humidity":24,"rain":0.0,"pressure":950.0,"uv_index":9.25,"wind_gusts":36.0,"aqi":62,"pm10":47.1,"pm2_5":21.0,"no2":2.3,"co":263.0,"o3":160.0,"so2":5.4,"mosquito_risk":0,"arthritis_risk":5,"migraine_risk":10,"frizz_risk":0,"updated_at":"2026-05-10T15:48:49.661764+05:30"},{"city":"Chennai","state":"Tamil Nadu","latitude":13.0827,"longitude":80.2707,"temp":31.1,"humidity":65,"rain":0.0,"pressure":1003.6,"uv_index":9.1,"wind_gusts":41.8,"aqi":25,"pm10":5.7,"pm2_5":3.8,"no2":2.2,"co":150.0,"o3":53.0,"so2":3.9,"mosquito_risk":3,"arthritis_risk":5,"migraine_risk":4,"frizz_risk":1,"updated_at":"2026-05-10T15:48:49.661774+05:30"},{"city":"Kolkata","state":"West Bengal","latitude":22.5726,"longitude":88.3639,"temp":29.1,"humidity":68,"rain":0.0,"pressure":1005.0,"uv_index":8.9,"wind_gusts":19.1,"aqi":155,"pm10":34.6,"pm2_5":27.1,"no2":6.2,"co":457.0,"o3":134.0,"so2":10.8,"mosquito_risk":7,"arthritis_risk":5,"migraine_risk":4,"frizz_risk":1,"updated_at":"2026-05-10T15:48:49.661783+05:30"},{"city":"Pune","state":"Maharashtra","latitude":18.5204,"longitude":73.8567,"temp":40.2,"humidity":11,"rain":0.0,"pressure":943.6,"uv_index":8.5,"wind_gusts":38.5,"aqi":106,"pm10":24.2,"pm2_5":11.0,"no2":1.2,"co":183.0,"o3":155.0,"so2":4.4,"mosquito_risk":0,"arthritis_risk":5,"migraine_risk":10,"frizz_risk":0,"updated_at":"2026-05-10T15:48:49.661791+05:30"},{"city":"Ahmedabad","state":"Gujarat","latitude":23.0225,"longitude":72.5714,"temp":43.5,"humidity":12,"rain":0.0,"pressure":996.8,"uv_index":8.1,"wind_gusts":38.9,"aqi":58,"pm10":51.3,"pm2_5":14.7,"no2":0.9,"co":192.0,"o3":142.0,"so2":3.1,"mosquito_risk":0,"arthritis_risk":5,"migraine_risk":10,"frizz_risk":0,"updated_at":"2026-05-10T15:48:49.661802+05:30"},{"city":"Jaipur","state":"Rajasthan","latitude":26.9124,"longitude":75.7873,"temp":38.4,"humidity":23,"rain":0.0,"pressure":957.6,"uv_index":8.15,"wind_gusts":28.4,"aqi":174,"pm10":293.4,"pm2_5":55.6,"no2":0.8,"co":293.0,"o3":177.0,"so2":7.3,"mosquito_risk":0,"arthritis_risk":5,"migraine_risk":10,"frizz_risk":0,"updated_at":"2026-05-10T15:48:49.661810+05:30"},{"city":"Lucknow","state":"Uttar Pradesh","latitude":26.8467,"longitude":80.9462,"temp":35.4,"humidity":30,"rain":0.0,"pressure":991.3,"uv_index":8.05,"wind_gusts":35.3,"aqi":152,"pm10":65.4,"pm2_5":32.7,"no2":1.7,"co":303.0,"o3":180.0,"so2":7.5,"mosquito_risk":0,"arthritis_risk":5,"migraine_risk":10,"frizz_risk":0,"updated_at":"2026-05-10T15:48:49.661818+05:30"},{"city":"Kanpur","state":"Uttar Pradesh","latitude":26.4499,"longitude":80.3319,"temp":36.3,"humidity":27,"rain":0.0,"pressure":989.1,"uv_index":8.1,"wind_gusts":33.8,"aqi":166,"pm10":172.3,"pm2_5":43.3,"no2":1.7,"co":314.0,"o3":196.0,"so2":9.5,"mosquito_risk":0,"arthritis_risk":5,"migraine_risk":10,"frizz_risk":0,"updated_at":"2026-05-10T15:48:49.661825+05:30"},{"city":"Chandigarh","state":"Chandigarh","latitude":30.7333,"longitude":76.7794,"temp":33.4,"humidity":36,"rain":0.0,"pressure":968.3,"uv_index":7.7,"wind_gusts":39.2,"aqi":185,"pm10":180.2,"pm2_5":54.4,"no2":1.6,"co":345.0,"o3":218.0,"so2":14.0,"mosquito_risk":0,"arthritis_risk":5,"migraine_risk":7,"frizz_risk":1,"updated_at":"2026-05-10T15:48:49.661833+05:30"},{"city":"Srinagar","state":"Jammu and Kashmir","latitude":34.0837,"longitude":74.7973,"temp":25.8,"humidity":38,"rain":0.0,"pressure":842.6,"uv_index":8.45,"wind_gusts":18.0,"aqi":117,"pm10":59.8,"pm2_5":20.9,"no2":1.4,"co":412.0,"o3":159.0,"so2":3.4,"mosquito_risk":4,"arthritis_risk":5,"migraine_risk":7,"frizz_risk":0,"updated_at":"2026-05-10T15:48:49.661841+05:30"},{"city":"Jammu","state":"Jammu and Kashmir","latitude":32.7266,"longitude":74.857,"temp":34.7,"humidity":33,"rain":0.0,"pressure":971.7,"uv_index":8.1,"wind_gusts":33.8,"aqi":158,"pm10":223.5,"pm2_5":61.9,"no2":1.3,"co":330.0,"o3":187.0,"so2":10.3,"mosquito_risk":0,"arthritis_risk":5,"migraine_risk":7,"frizz_risk":0,"updated_at":"2026-05-10T15:48:49.661849+05:30"},{"city":"Amritsar","state":"Punjab","latitude":31.634,"longitude":74.8723,"temp":37.3,"humidity":29,"rain":0.0,"pressure":979.1,"uv_index":8.35,"wind_gusts":29.9,"aqi":160,"pm10":278.5,"pm2_5":76.8,"no2":1.5,"co":366.0,"o3":199.0,"so2":15.3,"mosquito_risk":0,"arthritis_risk":5,"migraine_risk":10,"frizz_risk":1,"updated_at":"2026-05-10T15:48:49.661856+05:30"},{"city":"Ludhiana","state":"Punjab","latitude":30.901,"longitude":75.8573,"temp":38.2,"humidity":22,"rain":0.0,"pressure":976.8,"uv_index":7.95,"wind_gusts":34.9,"aqi":176,"pm10":705.9,"pm2_5":106.9,"no2":1.9,"co":343.0,"o3":204.0,"so2":14.1,"mosquito_risk":0,"arthritis_risk":5,"migraine_risk":10,"frizz_risk":0,"updated_at":"2026-05-10T15:48:49.661863+05:30"},{"city":"Jalandhar","state":"Punjab","latitude":31.326,"longitude":75.5762,"temp":36.2,"humidity":30,"rain":0.0,"pressure":978.3,"uv_index":8.15,"wind_gusts":33.5,"aqi":159,"pm10":463.8,"pm2_5":87.1,"no2":1.9,"co":355.0,"o3":191.0,"so2":13.2,"mosquito_risk":0,"arthritis_risk":5,"migraine_risk":10,"frizz_risk":0,"updated_at":"2026-05-10T15:48:49.661870+05:30"},{"city":"Dehradun","state":"Uttarakhand","latitude":30.6284,"longitude":78.0322,"temp":20.9,"humidity":61,"rain":0.0,"pressure":832.3,"uv_index":8.1,"wind_gusts":26.6,"aqi":147,"pm10":101.3,"pm2_5":41.8,"no2":0.9,"co":268.0,"o3":174.0,"so2":5.8,"mosquito_risk":3,"arthritis_risk":5,"migraine_risk":7,"frizz_risk":0,"updated_at":"2026-05-10T15:48:49.661881+05:30"},{"city":"Shimla","state":"Himachal Pradesh","latitude":31.1048,"longitude":77.1734,"temp":19.3,"humidity":58,"rain":0.0,"pressure":787.2,"uv_index":8.15,"wind_gusts":42.5,"aqi":174,"pm10":130.9,"pm2_5":56.2,"no2":1.2,"co":260.0,"o3":205.0,"so2":16.7,"mosquito_risk":0,"arthritis_risk":5,"migraine_risk":7,"frizz_risk":0,"updated_at":"2026-05-10T15:48:49.661888+05:30"},{"city":"Manali","state":"Himachal Pradesh","latitude":32.2396,"longitude":77.1887,"temp":19.9,"humidity":66,"rain":0.0,"pressure":819.6,"uv_index":9.8,"wind_gusts":44.6,"aqi":127,"pm10":38.6,"pm2_5":13.8,"no2":1.5,"co":251.0,"o3":191.0,"so2":1.3,"mosquito_risk":3,"arthritis_risk":5,"migraine_risk":7,"frizz_risk":0,"updated_at":"2026-05-10T15:48:49.661895+05:30"},{"city":"Gurgaon","state":"Haryana","latitude":28.4595,"longitude":77.0266,"temp":36.9,"humidity":27,"rain":0.0,"pressure":979.2,"uv_index":7.7,"wind_gusts":31.0,"aqi":753,"pm10":905.2,"pm2_5":111.8,"no2":4.5,"co":333.0,"o3":213.0,"so2":15.7,"mosquito_risk":0,"arthritis_risk":5,"migraine_risk":10,"frizz_risk":0,"updated_at":"2026-05-10T15:48:49.661902+05:30"},{"city":"Noida","state":"Uttar Pradesh","latitude":28.5355,"longitude":77.391,"temp":35.8,"humidity":32,"rain":0.0,"pressure":982.6,"uv_index":7.65,"wind_gusts":29.2,"aqi":753,"pm10":905.2,"pm2_5":111.8,"no2":4.5,"co":360.0,"o3":213.0,"so2":15.7,"mosquito_risk":0,"arthritis_risk":5,"migraine_risk":10,"frizz_risk":1,"updated_at":"2026-05-10T15:48:49.661909+05:30"},{"city":"Ghaziabad","state":"Uttar Pradesh","latitude":28.6692,"longitude":77.4538,"temp":35.5,"humidity":32,"rain":0.0,"pressure":981.0,"uv_index":7.6,"wind_gusts":32.4,"aqi":149,"pm10":204.0,"pm2_5":48.9,"no2":3.2,"co":310.0,"o3":191.0,"so2":7.7,"mosquito_risk":0,"arthritis_risk":5,"migraine_risk":10,"frizz_risk":1,"updated_at":"2026-05-10T15:48:49.661916+05:30"},{"city":"Faridabad","state":"Haryana","latitude":28.4089,"longitude":77.3178,"temp":35.8,"humidity":29,"rain":0.0,"pressure":981.7,"uv_index":7.65,"wind_gusts":30.2,"aqi":753,"pm10":905.2,"pm2_5":111.8,"no2":4.5,"co":338.0,"o3":213.0,"so2":15.7,"mosquito_risk":0,"arthritis_risk":5,"migraine_risk":10,"frizz_risk":0,"updated_at":"2026-05-10T15:48:49.661923+05:30"},{"city":"Meerut","state":"Uttar Pradesh","latitude":28.9845,"longitude":77.7064,"temp":33.8,"humidity":38,"rain":0.0,"pressure":980.4,"uv_index":7.55,"wind_gusts":31.0,"aqi":149,"pm10":204.0,"pm2_5":48.9,"no2":3.2,"co":312.0,"o3":191.0,"so2":7.7,"mosquito_risk":0,"arthritis_risk":5,"migraine_risk":7,"frizz_risk":1,"updated_at":"2026-05-10T15:48:49.661930+05:30"},{"city":"Agra","state":"Uttar Pradesh","latitude":27.1767,"longitude":78.0081,"temp":36.7,"humidity":29,"rain":0.0,"pressure":985.3,"uv_index":7.95,"wind_gusts":26.3,"aqi":602,"pm10":380.0,"pm2_5":59.3,"no2":1.6,"co":308.0,"o3":188.0,"so2":9.0,"mosquito_risk":0,"arthritis_risk":5,"migraine_risk":10,"frizz_risk":0,"updated_at":"2026-05-10T15:48:49.661936+05:30"},{"city":"Varanasi","state":"Uttar Pradesh","latitude":25.3176,"longitude":82.9739,"temp":35.7,"humidity":28,"rain":0.0,"pressure":994.7,"uv_index":8.6,"wind_gusts":32.8,"aqi":183,"pm10":60.1,"pm2_5":35.5,"no2":2.6,"co":284.0,"o3":212.0,"so2":13.1,"mosquito_risk":0,"arthritis_risk":5,"migraine_risk":10,"frizz_risk":0,"updated_at":"2026-05-10T15:48:49.661944+05:30"},{"city":"Prayagraj","state":"Uttar Pradesh","latitude":25.4358,"longitude":81.8463,"temp":36.7,"humidity":26,"rain":0.0,"pressure":992.6,"uv_index":8.45,"wind_gusts":32.8,"aqi":183,"pm10":65.2,"pm2_5":36.6,"no2":2.4,"co":331.0,"o3":204.0,"so2":11.4,"mosquito_risk":0,"arthritis_risk":5,"migraine_risk":10,"frizz_risk":0,"updated_at":"2026-05-10T15:48:49.661954+05:30"},{"city":"Gorakhpur","state":"Uttar Pradesh","latitude":26.7606,"longitude":83.3732,"temp":32.7,"humidity":41,"rain":0.0,"pressure":995.5,"uv_index":8.4,"wind_gusts":33.8,"aqi":142,"pm10":45.8,"pm2_5":30.4,"no2":1.6,"co":333.0,"o3":180.0,"so2":5.5,"mosquito_risk":0,"arthritis_risk":5,"migraine_risk":7,"frizz_risk":1,"updated_at":"2026-05-10T15:48:49.661961+05:30"},{"city":"Bareilly","state":"Uttar Pradesh","latitude":28.367,"longitude":79.4304,"temp":32.9,"humidity":37,"rain":0.0,"pressure":985.5,"uv_index":7.9,"wind_gusts":29.5,"aqi":148,"pm10":136.0,"pm2_5":37.1,"no2":1.8,"co":278.0,"o3":182.0,"so2":7.3,"mosquito_risk":0,"arthritis_risk":5,"migraine_risk":7,"frizz_risk":1,"updated_at":"2026-05-10T15:48:49.661971+05:30"},{"city":"Aligarh","state":"Uttar Pradesh","latitude":27.8974,"longitude":78.088,"temp":35.3,"humidity":32,"rain":0.0,"pressure":983.5,"uv_index":7.75,"wind_gusts":28.4,"aqi":290,"pm10":404.2,"pm2_5":61.5,"no2":1.9,"co":297.0,"o3":189.0,"so2":10.5,"mosquito_risk":0,"arthritis_risk":5,"migraine_risk":10,"frizz_risk":1,"updated_at":"2026-05-10T15:48:49.661978+05:30"},{"city":"Moradabad","state":"Uttar Pradesh","latitude":28.8386,"longitude":78.7733,"temp":33.4,"humidity":38,"rain":0.0,"pressure":982.7,"uv_index":7.75,"wind_gusts":31.7,"aqi":168,"pm10":72.6,"pm2_5":38.2,"no2":2.8,"co":306.0,"o3":202.0,"so2":15.1,"mosquito_risk":0,"arthritis_risk":5,"migraine_risk":7,"frizz_risk":1,"updated_at":"2026-05-10T15:48:49.661985+05:30"},{"city":"Saharanpur","state":"Uttar Pradesh","latitude":29.9637,"longitude":77.546,"temp":32.2,"humidity":42,"rain":0.0,"pressure":975.3,"uv_index":7.35,"wind_gusts":31.7,"aqi":151,"pm10":144.8,"pm2_5":49.7,"no2":2.0,"co":318.0,"o3":186.0,"so2":10.2,"mosquito_risk":0,"arthritis_risk":5,"migraine_risk":7,"frizz_risk":1,"updated_at":"2026-05-10T15:48:49.661992+05:30"},{"city":"Jhansi","state":"Uttar Pradesh","latitude":25.4484,"longitude":78.5685,"temp":37.1,"humidity":26,"rain":0.0,"pressure":975.0,"uv_index":8.4,"wind_gusts":25.9,"aqi":161,"pm10":156.5,"pm2_5":41.4,"no2":1.3,"co":281.0,"o3":190.0,"so2":16.7,"mosquito_risk":0,"arthritis_risk":5,"migraine_risk":10,"frizz_risk":0,"updated_at":"2026-05-10T15:48:53.017259+05:30"},{"city":"Surat","state":"Gujarat","latitude":21.1702,"longitude":72.8311,"temp":42.5,"humidity":16,"rain":0.0,"pressure":1001.3,"uv_index":7.7,"wind_gusts":34.2,"aqi":98,"pm10":57.5,"pm2_5":36.0,"no2":36.4,"co":166.0,"o3":121.0,"so2":86.2,"mosquito_risk":0,"arthritis_risk":5,"migraine_risk":7,"frizz_risk":0,"updated_at":"2026-05-10T15:48:53.017287+05:30"},{"city":"Vadodara","state":"Gujarat","latitude":22.3072,"longitude":73.1812,"temp":43.5,"humidity":13,"rain":0.0,"pressure":998.6,"uv_index":8.1,"wind_gusts":31.7,"aqi":86,"pm10":46.9,"pm2_5":17.3,"no2":1.9,"co":188.0,"o3":170.0,"so2":8.3,"mosquito_risk":0,"arthritis_risk":5,"migraine_risk":10,"frizz_risk":0,"updated_at":"2026-05-10T15:48:53.017296+05:30"},{"city":"Rajkot","state":"Gujarat","latitude":22.3039,"longitude":70.8022,"temp":41.3,"humidity":14,"rain":0.0,"pressure":990.4,"uv_index":7.7,"wind_gusts":39.2,"aqi":53,"pm10":43.2,"pm2_5":14.0,"no2":1.0,"co":141.0,"o3":133.0,"so2":4.3,"mosquito_risk":0,"arthritis_risk":5,"migraine_risk":10,"frizz_risk":0,"updated_at":"2026-05-10T15:48:53.017303+05:30"},{"city":"Thane","state":"Maharashtra","latitude":19.2183,"longitude":72.9781,"temp":41.0,"humidity":23,"rain":0.0,"pressure":1001.4,"uv_index":7.9,"wind_gusts":45.4,"aqi":149,"pm10":49.1,"pm2_5":27.6,"no2":9.9,"co":204.0,"o3":160.0,"so2":10.0,"mosquito_risk":0,"arthritis_risk":5,"migraine_risk":7,"frizz_risk":0,"updated_at":"2026-05-10T15:48:53.017309+05:30"},{"city":"Nagpur","state":"Maharashtra","latitude":21.1458,"longitude":79.0882,"temp":40.2,"humidity":14,"rain":0.0,"pressure":968.7,"uv_index":8.9,"wind_gusts":32.8,"aqi":157,"pm10":54.0,"pm2_5":22.9,"no2":5.1,"co":218.0,"o3":190.0,"so2":17.8,"mosquito_risk":0,"arthritis_risk":5,"migraine_risk":10,"frizz_risk":0,"updated_at":"2026-05-10T15:48:53.017316+05:30"},{"city":"Nashik","state":"Maharashtra","latitude":19.9975,"longitude":73.7898,"temp":38.4,"humidity":15,"rain":0.0,"pressure":941.9,"uv_index":8.2,"wind_gusts":43.9,"aqi":99,"pm10":30.6,"pm2_5":13.4,"no2":1.3,"co":163.0,"o3":157.0,"so2":7.0,"mosquito_risk":0,"arthritis_risk":5,"migraine_risk":10,"frizz_risk":0,"updated_at":"2026-05-10T15:48:53.017323+05:30"},{"city":"Aurangabad","state":"Maharashtra","latitude":19.8762,"longitude":75.3433,"temp":39.0,"humidity":13,"rain":0.0,"pressure":940.8,"uv_index":9.05,"wind_gusts":43.9,"aqi":105,"pm10":35.7,"pm2_5":12.2,"no2":0.9,"co":175.0,"o3":149.0,"so2":5.0,"mosquito_risk":0,"arthritis_risk":5,"migraine_risk":10,"frizz_risk":0,"updated_at":"2026-05-10T15:48:53.017329+05:30"},{"city":"Solapur","state":"Maharashtra","latitude":17.6599,"longitude":75.9064,"temp":40.4,"humidity":15,"rain":0.0,"pressure":952.4,"uv_index":9.1,"wind_gusts":36.4,"aqi":98,"pm10":39.7,"pm2_5":21.2,"no2":0.9,"co":191.0,"o3":169.0,"so2":6.0,"mosquito_risk":0,"arthritis_risk":5,"migraine_risk":10,"frizz_risk":0,"updated_at":"2026-05-10T15:48:53.017336+05:30"},{"city":"Kolhapur","state":"Maharashtra","latitude":16.705,"longitude":74.2433,"temp":39.2,"humidity":17,"rain":0.0,"pressure":943.7,"uv_index":8.95,"wind_gusts":40.7,"aqi":127,"pm10":47.7,"pm2_5":27.8,"no2":2.4,"co":225.0,"o3":168.0,"so2":5.9,"mosquito_risk":0,"arthritis_risk":5,"migraine_risk":10,"frizz_risk":0,"updated_at":"2026-05-10T15:48:53.017342+05:30"},{"city":"Goa","state":"Goa","latitude":15.2993,"longitude":74.124,"temp":36.2,"humidity":46,"rain":0.0,"pressure":992.6,"uv_index":7.25,"wind_gusts":46.8,"aqi":81,"pm10":40.4,"pm2_5":22.7,"no2":1.2,"co":212.0,"o3":132.0,"so2":2.7,"mosquito_risk":0,"arthritis_risk":5,"migraine_risk":10,"frizz_risk":1,"updated_at":"2026-05-10T15:48:53.017349+05:30"},{"city":"Jodhpur","state":"Rajasthan","latitude":26.2389,"longitude":73.0243,"temp":43.3,"humidity":11,"rain":0.0,"pressure":978.5,"uv_index":8.4,"wind_gusts":32.8,"aqi":90,"pm10":91.0,"pm2_5":17.6,"no2":0.0,"co":156.0,"o3":134.0,"so2":1.8,"mosquito_risk":0,"arthritis_risk":5,"migraine_risk":10,"frizz_risk":0,"updated_at":"2026-05-10T15:48:53.017355+05:30"},{"city":"Udaipur","state":"Rajasthan","latitude":24.5854,"longitude":73.7125,"temp":39.8,"humidity":13,"rain":0.0,"pressure":943.8,"uv_index":8.8,"wind_gusts":38.5,"aqi":65,"pm10":74.0,"pm2_5":12.3,"no2":0.4,"co":148.0,"o3":135.0,"so2":2.5,"mosquito_risk":0,"arthritis_risk":5,"migraine_risk":10,"frizz_risk":0,"updated_at":"2026-05-10T15:48:53.017362+05:30"},{"city":"Kota","state":"Rajasthan","latitude":25.2138,"longitude":75.8648,"temp":40.6,"humidity":17,"rain":0.0,"pressure":975.0,"uv_index":8.35,"wind_gusts":33.5,"aqi":138,"pm10":136.0,"pm2_5":39.0,"no2":0.7,"co":249.0,"o3":179.0,"so2":11.4,"mosquito_risk":0,"arthritis_risk":5,"migraine_risk":10,"frizz_risk":0,"updated_at":"2026-05-10T15:48:53.017369+05:30"},{"city":"Bikaner","state":"Rajasthan","latitude":28.0229,"longitude":73.3119,"temp":42.7,"humidity":14,"rain":0.0,"pressure":977.8,"uv_index":8.3,"wind_gusts":32.0,"aqi":113,"pm10":75.4,"pm2_5":20.1,"no2":0.3,"co":231.0,"o3":149.0,"so2":8.1,"mosquito_risk":0,"arthritis_risk":5,"migraine_risk":10,"frizz_risk":0,"updated_at":"2026-05-10T15:48:53.017375+05:30"},{"city":"Ajmer","state":"Rajasthan","latitude":26.4499,"longitude":74.6399,"temp":40.3,"humidity":16,"rain":0.0,"pressure":952.0,"uv_index":8.3,"wind_gusts":33.1,"aqi":123,"pm10":108.3,"pm2_5":29.6,"no2":0.3,"co":252.0,"o3":167.0,"so2":7.5,"mosquito_risk":0,"arthritis_risk":5,"migraine_risk":10,"frizz_risk":0,"updated_at":"2026-05-10T15:48:53.017382+05:30"},{"city":"Gwalior","state":"Madhya Pradesh","latitude":26.2183,"longitude":78.1828,"temp":36.8,"humidity":26,"rain":0.0,"pressure":980.5,"uv_index":8.15,"wind_gusts":26.3,"aqi":143,"pm10":121.1,"pm2_5":36.4,"no2":0.7,"co":286.0,"o3":178.0,"so2":7.3,"mosquito_risk":0,"arthritis_risk":5,"migraine_risk":10,"frizz_risk":0,"updated_at":"2026-05-10T15:48:53.017388+05:30"},{"city":"Indore","state":"Madhya Pradesh","latitude":22.7196,"longitude":75.8577,"temp":40.3,"humidity":11,"rain":0.0,"pressure":944.7,"uv_index":8.65,"wind_gusts":46.1,"aqi":103,"pm10":59.3,"pm2_5":19.4,"no2":0.8,"co":227.0,"o3":157.0,"so2":4.6,"mosquito_risk":0,"arthritis_risk":5,"migraine_risk":10,"frizz_risk":0,"updated_at":"2026-05-10T15:48:53.017394+05:30"},{"city":"Bhopal","state":"Madhya Pradesh","latitude":23.2599,"longitude":77.4126,"temp":39.3,"humidity":11,"rain":0.0,"pressure":950.2,"uv_index":8.65,"wind_gusts":46.4,"aqi":114,"pm10":91.5,"pm2_5":27.2,"no2":0.5,"co":241.0,"o3":161.0,"so2":4.9,"mosquito_risk":0,"arthritis_risk":5,"migraine_risk":10,"frizz_risk":0,"updated_at":"2026-05-10T15:48:53.017400+05:30"},{"city":"Jabalpur","state":"Madhya Pradesh","latitude":23.1815,"longitude":79.9864,"temp":39.0,"humidity":16,"rain":0.0,"pressure":957.2,"uv_index":8.8,"wind_gusts":32.8,"aqi":154,"pm10":84.1,"pm2_5":25.7,"no2":1.3,"co":247.0,"o3":175.0,"so2":4.7,"mosquito_risk":0,"arthritis_risk":5,"migraine_risk":10,"frizz_risk":0,"updated_at":"2026-05-10T15:48:53.017406+05:30"},{"city":"Ujjain","state":"Madhya Pradesh","latitude":23.1765,"longitude":75.7885,"temp":40.4,"humidity":12,"rain":0.0,"pressure":950.3,"uv_index":8.6,"wind_gusts":46.4,"aqi":90,"pm10":49.6,"pm2_5":16.5,"no2":0.4,"co":212.0,"o3":152.0,"so2":5.4,"mosquito_risk":0,"arthritis_risk":5,"migraine_risk":10,"frizz_risk":0,"updated_at":"2026-05-10T15:48:53.017412+05:30"},{"city":"Visakhapatnam","state":"Andhra Pradesh","latitude":17.6868,"longitude":83.2185,"temp":31.5,"humidity":61,"rain":0.0,"pressure":1000.9,"uv_index":9.1,"wind_gusts":35.6,"aqi":72,"pm10":14.6,"pm2_5":11.4,"no2":14.8,"co":455.0,"o3":43.0,"so2":15.0,"mosquito_risk":3,"arthritis_risk":5,"migraine_risk":4,"frizz_risk":1,"updated_at":"2026-05-10T15:48:53.017419+05:30"},{"city":"Vijayawada","state":"Andhra Pradesh","latitude":16.5062,"longitude":80.648,"temp":37.2,"humidity":33,"rain":0.0,"pressure":998.2,"uv_index":9.05,"wind_gusts":41.0,"aqi":51,"pm10":18.3,"pm2_5":10.3,"no2":2.0,"co":168.0,"o3":97.0,"so2":5.3,"mosquito_risk":0,"arthritis_risk":5,"migraine_risk":10,"frizz_risk":1,"updated_at":"2026-05-10T15:48:53.017425+05:30"},{"city":"Guntur","state":"Andhra Pradesh","latitude":16.3067,"longitude":80.4365,"temp":37.2,"humidity":35,"rain":0.0,"pressure":999.2,"uv_index":8.85,"wind_gusts":41.0,"aqi":50,"pm10":27.0,"pm2_5":14.8,"no2":1.7,"co":181.0,"o3":119.0,"so2":5.1,"mosquito_risk":0,"arthritis_risk":5,"migraine_risk":10,"frizz_risk":1,"updated_at":"2026-05-10T15:48:53.017431+05:30"},{"city":"Nellore","state":"Andhra Pradesh","latitude":14.4426,"longitude":79.9865,"temp":33.0,"humidity":55,"rain":0.0,"pressure":1002.3,"uv_index":8.95,"wind_gusts":40.0,"aqi":29,"pm10":7.5,"pm2_5":4.8,"no2":1.2,"co":134.0,"o3":61.0,"so2":1.5,"mosquito_risk":0,"arthritis_risk":5,"migraine_risk":4,"frizz_risk":1,"updated_at":"2026-05-10T15:48:53.017438+05:30"},{"city":"Kurnool","state":"Andhra Pradesh","latitude":15.8281,"longitude":78.0373,"temp":39.1,"humidity":20,"rain":0.0,"pressure":972.3,"uv_index":9.0,"wind_gusts":40.0,"aqi":45,"pm10":34.1,"pm2_5":15.0,"no2":0.8,"co":172.0,"o3":134.0,"so2":2.3,"mosquito_risk":0,"arthritis_risk":5,"migraine_risk":10,"frizz_risk":0,"updated_at":"2026-05-10T15:48:53.017445+05:30"},{"city":"Kakinada","state":"Andhra Pradesh","latitude":16.9891,"longitude":82.2475,"temp":31.5,"humidity":62,"rain":0.0,"pressure":1004.4,"uv_index":9.05,"wind_gusts":38.5,"aqi":31,"pm10":8.2,"pm2_5":5.3,"no2":0.6,"co":147.0,"o3":59.0,"so2":0.5,"mosquito_risk":3,"arthritis_risk":5,"migraine_risk":4,"frizz_risk":1,"updated_at":"2026-05-10T15:48:53.017451+05:30"},{"city":"Tirupati","state":"Andhra Pradesh","latitude":13.6288,"longitude":79.4192,"temp":33.9,"humidity":44,"rain":0.0,"pressure":987.2,"uv_index":9.15,"wind_gusts":45.7,"aqi":58,"pm10":7.1,"pm2_5":4.4,"no2":1.0,"co":143.0,"o3":68.0,"so2":0.5,"mosquito_risk":0,"arthritis_risk":5,"migraine_risk":7,"frizz_risk":1,"updated_at":"2026-05-10T15:48:53.017457+05:30"},{"city":"Warangal","state":"Telangana","latitude":17.9689,"longitude":79.5941,"temp":38.0,"humidity":27,"rain":0.0,"pressure":974.8,"uv_index":9.15,"wind_gusts":42.8,"aqi":66,"pm10":43.1,"pm2_5":21.5,"no2":1.7,"co":207.0,"o3":149.0,"so2":5.6,"mosquito_risk":0,"arthritis_risk":5,"migraine_risk":10,"frizz_risk":0,"updated_at":"2026-05-10T15:48:53.017463+05:30"},{"city":"Nizamabad","state":"Telangana","latitude":18.6725,"longitude":78.0941,"temp":37.8,"humidity":22,"rain":0.0,"pressure":961.2,"uv_index":9.1,"wind_gusts":29.9,"aqi":91,"pm10":43.2,"pm2_5":20.8,"no2":0.6,"co":194.0,"o3":163.0,"so2":6.3,"mosquito_risk":0,"arthritis_risk":5,"migraine_risk":10,"frizz_risk":0,"updated_at":"2026-05-10T15:48:53.017469+05:30"},{"city":"Mysore","state":"Karnataka","latitude":12.2958,"longitude":76.6396,"temp":33.0,"humidity":32,"rain":0.0,"pressure":925.3,"uv_index":9.3,"wind_gusts":36.4,"aqi":54,"pm10":23.8,"pm2_5":13.9,"no2":2.6,"co":190.0,"o3":150.0,"so2":3.8,"mosquito_risk":0,"arthritis_risk":5,"migraine_risk":7,"frizz_risk":0,"updated_at":"2026-05-10T15:48:53.017475+05:30"},{"city":"Mangalore","state":"Karnataka","latitude":12.9141,"longitude":74.856,"temp":31.0,"humidity":77,"rain":0.0,"pressure":1001.5,"uv_index":9.0,"wind_gusts":39.6,"aqi":72,"pm10":24.4,"pm2_5":16.9,"no2":1.5,"co":170.0,"o3":126.0,"so2":2.2,"mosquito_risk":3,"arthritis_risk":5,"migraine_risk":4,"frizz_risk":1,"updated_at":"2026-05-10T15:48:53.017481+05:30"},{"city":"Hubli-Dharwad","state":"Karnataka","latitude":15.3647,"longitude":75.124,"temp":36.8,"humidity":22,"rain":0.0,"pressure":937.7,"uv_index":7.95,"wind_gusts":38.9,"aqi":86,"pm10":40.6,"pm2_5":17.9,"no2":1.3,"co":188.0,"o3":160.0,"so2":3.5,"mosquito_risk":0,"arthritis_risk":5,"migraine_risk":10,"frizz_risk":0,"updated_at":"2026-05-10T15:48:53.017487+05:30"},{"city":"Belgaum","state":"Karnataka","latitude":15.8497,"longitude":74.4977,"temp":37.0,"humidity":18,"rain":0.0,"pressure":922.8,"uv_index":8.25,"wind_gusts":37.1,"aqi":133,"pm10":47.6,"pm2_5":24.6,"no2":1.3,"co":196.0,"o3":178.0,"so2":4.7,"mosquito_risk":0,"arthritis_risk":5,"migraine_risk":10,"frizz_risk":0,"updated_at":"2026-05-10T15:48:56.371902+05:30"},{"city":"Coimbatore","state":"Tamil Nadu","latitude":11.0168,"longitude":76.9558,"temp":31.4,"humidity":56,"rain":0.0,"pressure":957.8,"uv_index":8.65,"wind_gusts":30.6,"aqi":56,"pm10":14.9,"pm2_5":9.9,"no2":1.4,"co":189.0,"o3":130.0,"so2":3.0,"mosquito_risk":0,"arthritis_risk":5,"migraine_risk":7,"frizz_risk":1,"updated_at":"2026-05-10T15:48:56.371932+05:30"},{"city":"Madurai","state":"Tamil Nadu","latitude":9.9252,"longitude":78.1198,"temp":32.3,"humidity":53,"rain":0.0,"pressure":988.7,"uv_index":5.2,"wind_gusts":31.7,"aqi":58,"pm10":13.4,"pm2_5":13.1,"no2":6.2,"co":251.0,"o3":98.0,"so2":4.6,"mosquito_risk":0,"arthritis_risk":5,"migraine_risk":3,"frizz_risk":1,"updated_at":"2026-05-10T15:48:56.371942+05:30"},{"city":"Trichy","state":"Tamil Nadu","latitude":10.7905,"longitude":78.7047,"temp":30.2,"humidity":67,"rain":0.0,"pressure":995.4,"uv_index":2.8,"wind_gusts":36.4,"aqi":51,"pm10":18.3,"pm2_5":18.0,"no2":5.8,"co":171.0,"o3":92.0,"so2":11.8,"mosquito_risk":3,"arthritis_risk":5,"migraine_risk":3,"frizz_risk":1,"updated_at":"2026-05-10T15:48:56.371950+05:30"},{"city":"Salem","state":"Tamil Nadu","latitude":11.6643,"longitude":78.146,"temp":34.0,"humidity":45,"rain":0.0,"pressure":972.8,"uv_index":9.05,"wind_gusts":41.0,"aqi":56,"pm10":13.4,"pm2_5":11.6,"no2":2.9,"co":174.0,"o3":119.0,"so2":7.7,"mosquito_risk":0,"arthritis_risk":5,"migraine_risk":7,"frizz_risk":1,"updated_at":"2026-05-10T15:48:56.371958+05:30"},{"city":"Tirunelveli","state":"Tamil Nadu","latitude":8.7139,"longitude":77.7567,"temp":27.6,"humidity":82,"rain":0.1,"pressure":999.6,"uv_index":4.3,"wind_gusts":29.5,"aqi":56,"pm10":9.2,"pm2_5":9.0,"no2":3.6,"co":175.0,"o3":89.0,"so2":5.8,"mosquito_risk":10,"arthritis_risk":5,"migraine_risk":3,"frizz_risk":1,"updated_at":"2026-05-10T15:48:56.371966+05:30"},{"city":"Vellore","state":"Tamil Nadu","latitude":12.9165,"longitude":79.1325,"temp":34.0,"humidity":45,"rain":0.0,"pressure":980.4,"uv_index":9.25,"wind_gusts":41.4,"aqi":71,"pm10":9.8,"pm2_5":8.4,"no2":2.2,"co":157.0,"o3":106.0,"so2":5.2,"mosquito_risk":0,"arthritis_risk":5,"migraine_risk":7,"frizz_risk":1,"updated_at":"2026-05-10T15:48:56.371974+05:30"},{"city":"Erode","state":"Tamil Nadu","latitude":11.341,"longitude":77.7172,"temp":33.0,"humidity":53,"rain":0.0,"pressure":984.5,"uv_index":7.2,"wind_gusts":37.8,"aqi":64,"pm10":13.8,"pm2_5":12.1,"no2":2.3,"co":193.0,"o3":125.0,"so2":4.7,"mosquito_risk":0,"arthritis_risk":5,"migraine_risk":7,"frizz_risk":1,"updated_at":"2026-05-10T15:48:56.371981+05:30"},{"city":"Kochi","state":"Kerala","latitude":9.9312,"longitude":76.2673,"temp":28.9,"humidity":83,"rain":0.0,"pressure":1004.1,"uv_index":8.8,"wind_gusts":32.4,"aqi":104,"pm10":20.6,"pm2_5":20.0,"no2":6.1,"co":309.0,"o3":151.0,"so2":4.2,"mosquito_risk":7,"arthritis_risk":5,"migraine_risk":4,"frizz_risk":1,"updated_at":"2026-05-10T15:48:56.371988+05:30"},{"city":"Thiruvananthapuram","state":"Kerala","latitude":8.5241,"longitude":76.9366,"temp":27.8,"humidity":83,"rain":0.1,"pressure":1004.1,"uv_index":5.4,"wind_gusts":21.2,"aqi":101,"pm10":11.6,"pm2_5":9.1,"no2":2.4,"co":249.0,"o3":140.0,"so2":1.4,"mosquito_risk":10,"arthritis_risk":5,"migraine_risk":0,"frizz_risk":1,"updated_at":"2026-05-10T15:48:56.371995+05:30"},{"city":"Kozhikode","state":"Kerala","latitude":11.2588,"longitude":75.7804,"temp":30.7,"humidity":75,"rain":0.0,"pressure":1002.9,"uv_index":8.85,"wind_gusts":35.6,"aqi":104,"pm10":15.9,"pm2_5":14.0,"no2":1.1,"co":202.0,"o3":154.0,"so2":2.3,"mosquito_risk":3,"arthritis_risk":5,"migraine_risk":4,"frizz_risk":1,"updated_at":"2026-05-10T15:48:56.372002+05:30"},{"city":"Thrissur","state":"Kerala","latitude":10.5276,"longitude":76.2144,"temp":30.2,"humidity":74,"rain":0.0,"pressure":1002.2,"uv_index":9.0,"wind_gusts":32.8,"aqi":75,"pm10":13.6,"pm2_5":12.5,"no2":2.6,"co":272.0,"o3":118.0,"so2":3.7,"mosquito_risk":3,"arthritis_risk":5,"migraine_risk":4,"frizz_risk":1,"updated_at":"2026-05-10T15:48:56.372010+05:30"},{"city":"Kannur","state":"Kerala","latitude":11.8745,"longitude":75.3704,"temp":31.4,"humidity":70,"rain":0.0,"pressure":1002.3,"uv_index":7.5,"wind_gusts":39.6,"aqi":77,"pm10":20.5,"pm2_5":14.8,"no2":1.6,"co":190.0,"o3":141.0,"so2":1.9,"mosquito_risk":3,"arthritis_risk":5,"migraine_risk":4,"frizz_risk":1,"updated_at":"2026-05-10T15:48:56.372017+05:30"},{"city":"Patna","state":"Bihar","latitude":25.5941,"longitude":85.1376,"temp":31.1,"humidity":47,"rain":0.0,"pressure":998.8,"uv_index":8.65,"wind_gusts":28.8,"aqi":189,"pm10":66.4,"pm2_5":50.8,"no2":3.5,"co":346.0,"o3":224.0,"so2":20.2,"mosquito_risk":0,"arthritis_risk":5,"migraine_risk":7,"frizz_risk":1,"updated_at":"2026-05-10T15:48:56.372024+05:30"},{"city":"Gaya","state":"Bihar","latitude":24.7914,"longitude":85.0002,"temp":33.7,"humidity":34,"rain":0.0,"pressure":991.7,"uv_index":8.7,"wind_gusts":26.3,"aqi":178,"pm10":61.7,"pm2_5":32.5,"no2":2.4,"co":267.0,"o3":208.0,"so2":11.5,"mosquito_risk":0,"arthritis_risk":5,"migraine_risk":7,"frizz_risk":0,"updated_at":"2026-05-10T15:48:56.372031+05:30"},{"city":"Muzaffarpur","state":"Bihar","latitude":26.1209,"longitude":85.3647,"temp":30.7,"humidity":53,"rain":0.0,"pressure":999.1,"uv_index":8.55,"wind_gusts":34.2,"aqi":167,"pm10":60.8,"pm2_5":46.3,"no2":4.0,"co":345.0,"o3":204.0,"so2":14.3,"mosquito_risk":0,"arthritis_risk":5,"migraine_risk":7,"frizz_risk":1,"updated_at":"2026-05-10T15:48:56.372037+05:30"},{"city":"Bhagalpur","state":"Bihar","latitude":25.2425,"longitude":87.0117,"temp":31.2,"humidity":47,"rain":0.0,"pressure":999.8,"uv_index":8.6,"wind_gusts":24.5,"aqi":195,"pm10":59.1,"pm2_5":47.7,"no2":6.5,"co":334.0,"o3":222.0,"so2":12.8,"mosquito_risk":0,"arthritis_risk":5,"migraine_risk":7,"frizz_risk":1,"updated_at":"2026-05-10T15:48:56.372043+05:30"},{"city":"Ranchi","state":"Jharkhand","latitude":23.3441,"longitude":85.3096,"temp":28.1,"humidity":45,"rain":0.0,"pressure":937.1,"uv_index":9.15,"wind_gusts":38.2,"aqi":135,"pm10":49.4,"pm2_5":30.2,"no2":1.8,"co":252.0,"o3":178.0,"so2":13.9,"mosquito_risk":4,"arthritis_risk":5,"migraine_risk":7,"frizz_risk":0,"updated_at":"2026-05-10T15:48:56.372049+05:30"},{"city":"Jamshedpur","state":"Jharkhand","latitude":22.8046,"longitude":86.2029,"temp":29.9,"humidity":52,"rain":0.0,"pressure":990.3,"uv_index":8.95,"wind_gusts":43.9,"aqi":153,"pm10":47.7,"pm2_5":37.4,"no2":7.0,"co":350.0,"o3":201.0,"so2":25.0,"mosquito_risk":4,"arthritis_risk":5,"migraine_risk":7,"frizz_risk":1,"updated_at":"2026-05-10T15:48:56.372056+05:30"},{"city":"Dhanbad","state":"Jharkhand","latitude":23.7957,"longitude":86.4304,"temp":25.0,"humidity":77,"rain":0.0,"pressure":979.6,"uv_index":8.9,"wind_gusts":36.0,"aqi":155,"pm10":74.5,"pm2_5":60.3,"no2":26.4,"co":370.0,"o3":211.0,"so2":64.8,"mosquito_risk":7,"arthritis_risk":5,"migraine_risk":7,"frizz_risk":1,"updated_at":"2026-05-10T15:48:56.372062+05:30"},{"city":"Bokaro","state":"Jharkhand","latitude":23.6693,"longitude":86.1511,"temp":27.5,"humidity":63,"rain":0.0,"pressure":983.3,"uv_index":8.9,"wind_gusts":45.7,"aqi":154,"pm10":69.4,"pm2_5":52.0,"no2":24.1,"co":1068.0,"o3":216.0,"so2":64.1,"mosquito_risk":7,"arthritis_risk":5,"migraine_risk":7,"frizz_risk":1,"updated_at":"2026-05-10T15:48:56.372069+05:30"},{"city":"Bhubaneswar","state":"Odisha","latitude":20.2961,"longitude":85.8245,"temp":29.7,"humidity":66,"rain":0.0,"pressure":1001.0,"uv_index":9.05,"wind_gusts":34.9,"aqi":51,"pm10":16.3,"pm2_5":9.2,"no2":2.2,"co":168.0,"o3":97.0,"so2":2.8,"mosquito_risk":7,"arthritis_risk":5,"migraine_risk":4,"frizz_risk":1,"updated_at":"2026-05-10T15:48:56.372075+05:30"},{"city":"Cuttack","state":"Odisha","latitude":20.4625,"longitude":85.8828,"temp":28.9,"humidity":69,"rain":0.0,"pressure":1003.0,"uv_index":9.1,"wind_gusts":37.4,"aqi":51,"pm10":16.3,"pm2_5":9.2,"no2":2.2,"co":180.0,"o3":97.0,"so2":2.8,"mosquito_risk":7,"arthritis_risk":5,"migraine_risk":4,"frizz_risk":1,"updated_at":"2026-05-10T15:48:56.372082+05:30"},{"city":"Rourkela","state":"Odisha","latitude":22.2604,"longitude":84.8536,"temp":32.0,"humidity":46,"rain":0.0,"pressure":983.2,"uv_index":8.9,"wind_gusts":55.8,"aqi":129,"pm10":58.1,"pm2_5":29.5,"no2":2.1,"co":352.0,"o3":177.0,"so2":22.2,"mosquito_risk":0,"arthritis_risk":5,"migraine_risk":7,"frizz_risk":1,"updated_at":"2026-05-10T15:48:56.372088+05:30"},{"city":"Raipur","state":"Chhattisgarh","latitude":21.2514,"longitude":81.6296,"temp":38.3,"humidity":22,"rain":0.0,"pressure":970.9,"uv_index":8.9,"wind_gusts":29.5,"aqi":177,"pm10":67.5,"pm2_5":34.6,"no2":6.7,"co":266.0,"o3":231.0,"so2":7.0,"mosquito_risk":0,"arthritis_risk":5,"migraine_risk":10,"frizz_risk":0,"updated_at":"2026-05-10T15:48:56.372095+05:30"},{"city":"Bhilai","state":"Chhattisgarh","latitude":21.1938,"longitude":81.3509,"temp":37.7,"humidity":24,"rain":0.0,"pressure":971.3,"uv_index":8.95,"wind_gusts":30.2,"aqi":122,"pm10":60.1,"pm2_5":30.3,"no2":6.5,"co":414.0,"o3":193.0,"so2":6.0,"mosquito_risk":0,"arthritis_risk":5,"migraine_risk":10,"frizz_risk":0,"updated_at":"2026-05-10T15:48:56.372101+05:30"},{"city":"Guwahati","state":"Assam","latitude":26.1158,"longitude":91.7086,"temp":26.5,"humidity":72,"rain":0.1,"pressure":1001.2,"uv_index":8.65,"wind_gusts":27.7,"aqi":101,"pm10":39.6,"pm2_5":27.5,"no2":2.8,"co":283.0,"o3":134.0,"so2":2.5,"mosquito_risk":10,"arthritis_risk":5,"migraine_risk":4,"frizz_risk":1,"updated_at":"2026-05-10T15:48:56.372108+05:30"},{"city":"Agartala","state":"Tripura","latitude":23.8315,"longitude":91.2868,"temp":25.0,"humidity":92,"rain":0.0,"pressure":1005.9,"uv_index":8.25,"wind_gusts":33.1,"aqi":191,"pm10":44.5,"pm2_5":34.3,"no2":7.1,"co":362.0,"o3":214.0,"so2":4.7,"mosquito_risk":7,"arthritis_risk":5,"migraine_risk":4,"frizz_risk":1,"updated_at":"2026-05-10T15:48:56.372114+05:30"},{"city":"Shillong","state":"Meghalaya","latitude":25.5788,"longitude":91.8933,"temp":19.3,"humidity":74,"rain":0.0,"pressure":857.4,"uv_index":8.45,"wind_gusts":29.2,"aqi":129,"pm10":36.3,"pm2_5":24.0,"no2":2.2,"co":272.0,"o3":153.0,"so2":3.6,"mosquito_risk":3,"arthritis_risk":5,"migraine_risk":7,"frizz_risk":0,"updated_at":"2026-05-10T15:48:56.372121+05:30"},{"city":"Imphal","state":"Manipur","latitude":24.817,"longitude":93.9368,"temp":25.0,"humidity":63,"rain":0.0,"pressure":923.2,"uv_index":7.85,"wind_gusts":29.5,"aqi":99,"pm10":27.2,"pm2_5":17.1,"no2":4.1,"co":292.0,"o3":100.0,"so2":2.0,"mosquito_risk":7,"arthritis_risk":5,"migraine_risk":7,"frizz_risk":1,"updated_at":"2026-05-10T15:48:56.372127+05:30"},{"city":"Aizawl","state":"Mizoram","latitude":23.7271,"longitude":92.7176,"temp":22.9,"humidity":63,"rain":0.0,"pressure":892.6,"uv_index":6.35,"wind_gusts":24.5,"aqi":119,"pm10":49.8,"pm2_5":33.6,"no2":2.4,"co":284.0,"o3":132.0,"so2":4.0,"mosquito_risk":3,"arthritis_risk":5,"migraine_risk":7,"frizz_risk":0,"updated_at":"2026-05-10T15:48:56.372134+05:30"},{"city":"Kohima","state":"Nagaland","latitude":25.6701,"longitude":94.1077,"temp":21.0,"humidity":79,"rain":0.1,"pressure":855.8,"uv_index":7.95,"wind_gusts":28.4,"aqi":82,"pm10":34.3,"pm2_5":21.7,"no2":2.6,"co":235.0,"o3":114.0,"so2":1.3,"mosquito_risk":6,"arthritis_risk":5,"migraine_risk":7,"frizz_risk":1,"updated_at":"2026-05-10T15:48:56.372141+05:30"},{"city":"Gangtok","state":"Sikkim","latitude":27.3314,"longitude":88.6138,"temp":15.2,"humidity":82,"rain":0.1,"pressure":837.5,"uv_index":7.1,"wind_gusts":30.2,"aqi":85,"pm10":19.8,"pm2_5":12.0,"no2":1.6,"co":230.0,"o3":130.0,"so2":1.0,"mosquito_risk":6,"arthritis_risk":10,"migraine_risk":7,"frizz_risk":0,"updated_at":"2026-05-10T15:48:56.372147+05:30"},{"city":"Siliguri","state":"West Bengal","latitude":26.7271,"longitude":88.3953,"temp":30.0,"humidity":48,"rain":0.0,"pressure":991.6,"uv_index":8.0,"wind_gusts":26.6,"aqi":111,"pm10":35.9,"pm2_5":19.0,"no2":3.4,"co":536.0,"o3":147.0,"so2":2.3,"mosquito_risk":4,"arthritis_risk":5,"migraine_risk":7,"frizz_risk":1,"updated_at":"2026-05-10T15:48:59.720952+05:30"},{"city":"Durgapur","state":"West Bengal","latitude":23.5204,"longitude":87.3119,"temp":22.6,"humidity":92,"rain":0.1,"pressure":995.4,"uv_index":8.85,"wind_gusts":43.2,"aqi":154,"pm10":75.4,"pm2_5":63.1,"no2":23.1,"co":277.0,"o3":200.0,"so2":57.4,"mosquito_risk":6,"arthritis_risk":5,"migraine_risk":7,"frizz_risk":1,"updated_at":"2026-05-10T15:48:59.720982+05:30"},{"city":"Asansol","state":"West Bengal","latitude":23.6739,"longitude":86.9524,"temp":22.5,"humidity":88,"rain":0.0,"pressure":993.7,"uv_index":8.9,"wind_gusts":51.5,"aqi":152,"pm10":70.3,"pm2_5":57.0,"no2":23.0,"co":541.0,"o3":201.0,"so2":56.3,"mosquito_risk":3,"arthritis_risk":5,"migraine_risk":7,"frizz_risk":1,"updated_at":"2026-05-10T15:48:59.720992+05:30"},{"city":"Pondicherry","state":"Puducherry","latitude":11.9139,"longitude":79.8145,"temp":28.7,"humidity":80,"rain":0.0,"pressure":1004.5,"uv_index":8.55,"wind_gusts":43.6,"aqi":29,"pm10":4.5,"pm2_5":3.1,"no2":1.2,"co":155.0,"o3":59.0,"so2":0.3,"mosquito_risk":7,"arthritis_risk":5,"migraine_risk":4,"frizz_risk":1,"updated_at":"2026-05-10T15:48:59.721000+05:30"},{"city":"Port Blair","state":"Andaman and Nicobar Islands","latitude":11.6234,"longitude":92.7265,"temp":29.6,"humidity":73,"rain":0.0,"pressure":1003.8,"uv_index":8.05,"wind_gusts":27.0,"aqi":27,"pm10":2.4,"pm2_5":1.6,"no2":0.5,"co":149.0,"o3":57.0,"so2":0.1,"mosquito_risk":7,"arthritis_risk":5,"migraine_risk":4,"frizz_risk":1,"updated_at":"2026-05-10T15:48:59.721008+05:30"},{"city":"Haridwar","state":"Uttarakhand","latitude":29.9457,"longitude":78.1642,"temp":32.4,"humidity":40,"rain":0.0,"pressure":973.6,"uv_index":7.5,"wind_gusts":26.3,"aqi":159,"pm10":115.0,"pm2_5":47.1,"no2":1.0,"co":305.0,"o3":185.0,"so2":6.8,"mosquito_risk":0,"arthritis_risk":5,"migraine_risk":7,"frizz_risk":1,"updated_at":"2026-05-10T15:48:59.721015+05:30"},{"city":"Rishikesh","state":"Uttarakhand","latitude":30.0869,"longitude":78.2676,"temp":30.8,"humidity":44,"rain":0.0,"pressure":966.5,"uv_index":7.55,"wind_gusts":20.9,"aqi":162,"pm10":90.6,"pm2_5":41.6,"no2":1.0,"co":281.0,"o3":189.0,"so2":6.9,"mosquito_risk":0,"arthritis_risk":5,"migraine_risk":7,"frizz_risk":1,"updated_at":"2026-05-10T15:48:59.721023+05:30"},{"city":"Nainital","state":"Uttarakhand","latitude":29.3919,"longitude":79.4542,"temp":18.1,"humidity":70,"rain":0.0,"pressure":807.0,"uv_index":7.65,"wind_gusts":27.4,"aqi":136,"pm10":49.0,"pm2_5":28.6,"no2":0.9,"co":266.0,"o3":175.0,"so2":4.4,"mosquito_risk":3,"arthritis_risk":5,"migraine_risk":7,"frizz_risk":0,"updated_at":"2026-05-10T15:48:59.721030+05:30"},{"city":"Mussoorie","state":"Uttarakhand","latitude":30.4599,"longitude":78.0664,"temp":19.8,"humidity":64,"rain":0.0,"pressure":805.2,"uv_index":7.95,"wind_gusts":38.5,"aqi":160,"pm10":91.7,"pm2_5":40.7,"no2":1.2,"co":274.0,"o3":180.0,"so2":4.8,"mosquito_risk":3,"arthritis_risk":5,"migraine_risk":7,"frizz_risk":0,"updated_at":"2026-05-10T15:48:59.721037+05:30"},{"city":"Dharamshala","state":"Himachal Pradesh","latitude":32.219,"longitude":76.3234,"temp":23.8,"humidity":63,"rain":0.0,"pressure":870.8,"uv_index":7.75,"wind_gusts":35.6,"aqi":144,"pm10":108.3,"pm2_5":42.1,"no2":0.5,"co":307.0,"o3":171.0,"so2":7.2,"mosquito_risk":3,"arthritis_risk":5,"migraine_risk":7,"frizz_risk":1,"updated_at":"2026-05-10T15:48:59.721043+05:30"},{"city":"Dalhousie","state":"Himachal Pradesh","latitude":32.5387,"longitude":75.971,"temp":20.3,"humidity":63,"rain":0.1,"pressure":807.4,"uv_index":8.1,"wind_gusts":37.1,"aqi":162,"pm10":173.7,"pm2_5":50.3,"no2":0.9,"co":281.0,"o3":183.0,"so2":10.1,"mosquito_risk":6,"arthritis_risk":5,"migraine_risk":7,"frizz_risk":0,"updated_at":"2026-05-10T15:48:59.721051+05:30"},{"city":"Patiala","state":"Punjab","latitude":30.3398,"longitude":76.3869,"temp":34.5,"humidity":35,"rain":0.0,"pressure":977.2,"uv_index":7.6,"wind_gusts":34.9,"aqi":397,"pm10":814.0,"pm2_5":111.8,"no2":1.9,"co":325.0,"o3":214.0,"so2":17.1,"mosquito_risk":0,"arthritis_risk":5,"migraine_risk":7,"frizz_risk":1,"updated_at":"2026-05-10T15:48:59.721059+05:30"},{"city":"Bhatinda","state":"Punjab","latitude":30.211,"longitude":74.9455,"temp":38.8,"humidity":25,"rain":0.0,"pressure":981.1,"uv_index":8.25,"wind_gusts":30.2,"aqi":354,"pm10":366.0,"pm2_5":81.3,"no2":2.2,"co":322.0,"o3":215.0,"so2":18.8,"mosquito_risk":0,"arthritis_risk":5,"migraine_risk":10,"frizz_risk":0,"updated_at":"2026-05-10T15:48:59.721066+05:30"},{"city":"Rohtak","state":"Haryana","latitude":28.8955,"longitude":76.6066,"temp":37.2,"humidity":24,"rain":0.0,"pressure":979.7,"uv_index":7.65,"wind_gusts":30.6,"aqi":408,"pm10":570.0,"pm2_5":92.9,"no2":2.7,"co":329.0,"o3":235.0,"so2":17.2,"mosquito_risk":0,"arthritis_risk":5,"migraine_risk":10,"frizz_risk":0,"updated_at":"2026-05-10T15:48:59.721073+05:30"},{"city":"Panipat","state":"Haryana","latitude":29.3909,"longitude":76.9635,"temp":34.8,"humidity":33,"rain":0.0,"pressure":979.3,"uv_index":7.5,"wind_gusts":32.4,"aqi":703,"pm10":631.4,"pm2_5":95.2,"no2":3.6,"co":305.0,"o3":234.0,"so2":21.3,"mosquito_risk":0,"arthritis_risk":5,"migraine_risk":7,"frizz_risk":1,"updated_at":"2026-05-10T15:48:59.721079+05:30"},{"city":"Mathura","state":"Uttar Pradesh","latitude":27.4924,"longitude":77.6737,"temp":36.5,"humidity":30,"rain":0.0,"pressure":984.4,"uv_index":7.9,"wind_gusts":24.8,"aqi":527,"pm10":457.3,"pm2_5":64.5,"no2":1.5,"co":308.0,"o3":184.0,"so2":6.7,"mosquito_risk":0,"arthritis_risk":5,"migraine_risk":10,"frizz_risk":0,"updated_at":"2026-05-10T15:48:59.721086+05:30"},{"city":"Vrindavan","state":"Uttar Pradesh","latitude":27.5823,"longitude":77.7027,"temp":36.2,"humidity":31,"rain":0.0,"pressure":984.9,"uv_index":7.9,"wind_gusts":25.6,"aqi":527,"pm10":457.3,"pm2_5":64.5,"no2":1.5,"co":307.0,"o3":184.0,"so2":6.7,"mosquito_risk":0,"arthritis_risk":5,"migraine_risk":10,"frizz_risk":1,"updated_at":"2026-05-10T15:48:59.721093+05:30"},{"city":"Ayodhya","state":"Uttar Pradesh","latitude":26.7922,"longitude":82.1998,"temp":34.0,"humidity":36,"rain":0.0,"pressure":993.2,"uv_index":8.2,"wind_gusts":37.1,"aqi":142,"pm10":52.7,"pm2_5":26.6,"no2":2.2,"co":293.0,"o3":166.0,"so2":5.1,"mosquito_risk":0,"arthritis_risk":5,"migraine_risk":7,"frizz_risk":1,"updated_at":"2026-05-10T15:48:59.721099+05:30"},{"city":"Ratlam","state":"Madhya Pradesh","latitude":23.3315,"longitude":75.0367,"temp":40.4,"humidity":12,"rain":0.0,"pressure":951.2,"uv_index":8.5,"wind_gusts":42.1,"aqi":84,"pm10":39.2,"pm2_5":13.4,"no2":0.5,"co":175.0,"o3":151.0,"so2":5.7,"mosquito_risk":0,"arthritis_risk":5,"migraine_risk":10,"frizz_risk":0,"updated_at":"2026-05-10T15:48:59.721106+05:30"},{"city":"Sagar","state":"Madhya Pradesh","latitude":23.8388,"longitude":78.7378,"temp":37.0,"humidity":22,"rain":0.0,"pressure":947.2,"uv_index":8.65,"wind_gusts":36.0,"aqi":137,"pm10":141.1,"pm2_5":35.9,"no2":0.5,"co":228.0,"o3":168.0,"so2":5.3,"mosquito_risk":0,"arthritis_risk":5,"migraine_risk":10,"frizz_risk":0,"updated_at":"2026-05-10T15:48:59.721113+05:30"},{"city":"Satna","state":"Madhya Pradesh","latitude":24.6005,"longitude":80.8322,"temp":37.3,"humidity":21,"rain":0.0,"pressure":967.7,"uv_index":8.65,"wind_gusts":28.1,"aqi":170,"pm10":63.3,"pm2_5":30.6,"no2":1.2,"co":286.0,"o3":206.0,"so2":9.9,"mosquito_risk":0,"arthritis_risk":5,"migraine_risk":10,"frizz_risk":0,"updated_at":"2026-05-10T15:48:59.721119+05:30"},{"city":"Akola","state":"Maharashtra","latitude":20.7002,"longitude":77.0082,"temp":41.6,"humidity":12,"rain":0.0,"pressure":970.0,"uv_index":8.85,"wind_gusts":36.0,"aqi":119,"pm10":45.1,"pm2_5":15.5,"no2":1.1,"co":180.0,"o3":163.0,"so2":7.0,"mosquito_risk":0,"arthritis_risk":5,"migraine_risk":10,"frizz_risk":0,"updated_at":"2026-05-10T15:48:59.721126+05:30"},{"city":"Amravati","state":"Maharashtra","latitude":20.9374,"longitude":77.7796,"temp":41.8,"humidity":11,"rain":0.0,"pressure":962.4,"uv_index":8.85,"wind_gusts":46.4,"aqi":125,"pm10":47.0,"pm2_5":16.2,"no2":1.5,"co":206.0,"o3":168.0,"so2":4.0,"mosquito_risk":0,"arthritis_risk":5,"migraine_risk":10,"frizz_risk":0,"updated_at":"2026-05-10T15:48:59.721133+05:30"},{"city":"Latur","state":"Maharashtra","latitude":18.4088,"longitude":76.5604,"temp":39.2,"humidity":14,"rain":0.0,"pressure":936.2,"uv_index":9.1,"wind_gusts":41.0,"aqi":103,"pm10":34.7,"pm2_5":17.3,"no2":0.6,"co":183.0,"o3":165.0,"so2":10.4,"mosquito_risk":0,"arthritis_risk":5,"migraine_risk":10,"frizz_risk":0,"updated_at":"2026-05-10T15:48:59.721140+05:30"},{"city":"Nanded","state":"Maharashtra","latitude":19.1383,"longitude":77.3091,"temp":40.0,"humidity":15,"rain":0.0,"pressure":964.2,"uv_index":9.0,"wind_gusts":36.7,"aqi":127,"pm10":38.5,"pm2_5":18.1,"no2":1.4,"co":191.0,"o3":173.0,"so2":6.7,"mosquito_risk":0,"arthritis_risk":5,"migraine_risk":10,"frizz_risk":0,"updated_at":"2026-05-10T15:48:59.721147+05:30"},{"city":"Gulbarga","state":"Karnataka","latitude":17.3297,"longitude":76.8343,"temp":39.3,"humidity":19,"rain":0.0,"pressure":954.7,"uv_index":9.1,"wind_gusts":35.3,"aqi":74,"pm10":44.2,"pm2_5":20.7,"no2":1.5,"co":199.0,"o3":166.0,"so2":5.7,"mosquito_risk":0,"arthritis_risk":5,"migraine_risk":10,"frizz_risk":0,"updated_at":"2026-05-10T15:48:59.721153+05:30"},{"city":"Bidar","state":"Karnataka","latitude":17.9104,"longitude":77.5199,"temp":36.3,"humidity":21,"rain":0.0,"pressure":933.1,"uv_index":9.1,"wind_gusts":31.7,"aqi":77,"pm10":44.0,"pm2_5":19.7,"no2":1.0,"co":209.0,"o3":158.0,"so2":4.8,"mosquito_risk":0,"arthritis_risk":5,"migraine_risk":10,"frizz_risk":0,"updated_at":"2026-05-10T15:48:59.721160+05:30"},{"city":"Hospet","state":"Karnataka","latitude":15.2689,"longitude":76.3909,"temp":36.2,"humidity":27,"rain":0.0,"pressure":952.0,"uv_index":8.8,"wind_gusts":34.2,"aqi":57,"pm10":37.1,"pm2_5":17.2,"no2":2.6,"co":188.0,"o3":161.0,"so2":7.0,"mosquito_risk":0,"arthritis_risk":5,"migraine_risk":10,"frizz_risk":0,"updated_at":"2026-05-10T15:48:59.721166+05:30"},{"city":"Tirupur","state":"Tamil Nadu","latitude":11.1085,"longitude":77.3411,"temp":33.4,"humidity":48,"rain":0.0,"pressure":971.0,"uv_index":7.1,"wind_gusts":30.2,"aqi":68,"pm10":15.2,"pm2_5":12.3,"no2":2.2,"co":185.0,"o3":134.0,"so2":4.8,"mosquito_risk":0,"arthritis_risk":5,"migraine_risk":7,"frizz_risk":1,"updated_at":"2026-05-10T15:48:59.721173+05:30"},{"city":"Alappuzha","state":"Kerala","latitude":9.4981,"longitude":76.3388,"temp":28.5,"humidity":84,"rain":0.1,"pressure":1004.3,"uv_index":8.2,"wind_gusts":25.9,"aqi":128,"pm10":17.9,"pm2_5":17.1,"no2":4.8,"co":196.0,"o3":161.0,"so2":5.0,"mosquito_risk":10,"arthritis_risk":5,"migraine_risk":4,"frizz_risk":1,"updated_at":"2026-05-10T15:48:59.721179+05:30"},{"city":"Munnar","state":"Kerala","latitude":10.0889,"longitude":77.0595,"temp":20.7,"humidity":87,"rain":0.0,"pressure":854.3,"uv_index":8.2,"wind_gusts":24.8,"aqi":39,"pm10":8.8,"pm2_5":8.6,"no2":2.5,"co":163.0,"o3":89.0,"so2":2.1,"mosquito_risk":3,"arthritis_risk":5,"migraine_risk":7,"frizz_risk":1,"updated_at":"2026-05-10T15:48:59.721186+05:30"},{"city":"Silchar","state":"Assam","latitude":24.8333,"longitude":92.7789,"temp":30.5,"humidity":61,"rain":0.0,"pressure":1003.4,"uv_index":8.55,"wind_gusts":27.4,"aqi":140,"pm10":52.3,"pm2_5":34.9,"no2":3.1,"co":402.0,"o3":152.0,"so2":7.4,"mosquito_risk":3,"arthritis_risk":5,"migraine_risk":4,"frizz_risk":1,"updated_at":"2026-05-10T15:48:59.721192+05:30"},{"city":"Dibrugarh","state":"Assam","latitude":27.4728,"longitude":94.912,"temp":30.8,"humidity":63,"rain":0.0,"pressure":993.4,"uv_index":8.8,"wind_gusts":42.5,"aqi":120,"pm10":38.9,"pm2_5":26.0,"no2":4.2,"co":327.0,"o3":140.0,"so2":2.0,"mosquito_risk":3,"arthritis_risk":5,"migraine_risk":7,"frizz_risk":1,"updated_at":"2026-05-10T15:48:59.721199+05:30"}]