[{"city":"Delhi","state":"Delhi","latitude":28.6139,"longitude":77.209,"temp":21.8,"humidity":70,"rain":0.0,"pressure":980.6,"uv_index":6.05,"wind_gusts":25.9,"aqi":133,"pm10":128.5,"pm2_5":63.6,"mosquito_risk":3,"arthritis_risk":5,"migraine_risk":7,"frizz_risk":1,"updated_at":"2026-03-29T05:05:06.088781+05:30"},{"city":"Mumbai","state":"Maharashtra","latitude":19.076,"longitude":72.8777,"temp":27.7,"humidity":79,"rain":0.0,"pressure":1007.8,"uv_index":8.0,"wind_gusts":24.8,"aqi":66,"pm10":22.2,"pm2_5":13.0,"mosquito_risk":7,"arthritis_risk":5,"migraine_risk":4,"frizz_risk":1,"updated_at":"2026-03-29T05:05:06.088823+05:30"},{"city":"Bangalore","state":"Karnataka","latitude":12.9716,"longitude":77.5946,"temp":21.4,"humidity":88,"rain":0.0,"pressure":910.9,"uv_index":9.5,"wind_gusts":28.1,"aqi":123,"pm10":53.3,"pm2_5":48.5,"mosquito_risk":3,"arthritis_risk":5,"migraine_risk":7,"frizz_risk":1,"updated_at":"2026-03-29T05:05:06.088838+05:30"},{"city":"Hyderabad","state":"Telangana","latitude":17.385,"longitude":78.4867,"temp":25.6,"humidity":56,"rain":0.0,"pressure":951.1,"uv_index":9.05,"wind_gusts":28.4,"aqi":116,"pm10":40.9,"pm2_5":35.3,"mosquito_risk":4,"arthritis_risk":5,"migraine_risk":7,"frizz_risk":1,"updated_at":"2026-03-29T05:05:06.088848+05:30"},{"city":"Chennai","state":"Tamil Nadu","latitude":13.0827,"longitude":80.2707,"temp":26.2,"humidity":88,"rain":0.0,"pressure":1006.8,"uv_index":9.3,"wind_gusts":35.6,"aqi":63,"pm10":19.5,"pm2_5":14.3,"mosquito_risk":7,"arthritis_risk":5,"migraine_risk":4,"frizz_risk":1,"updated_at":"2026-03-29T05:05:06.088857+05:30"},{"city":"Kolkata","state":"West Bengal","latitude":22.5726,"longitude":88.3639,"temp":22.8,"humidity":93,"rain":0.0,"pressure":1006.5,"uv_index":8.45,"wind_gusts":26.3,"aqi":139,"pm10":41.4,"pm2_5":35.5,"mosquito_risk":3,"arthritis_risk":5,"migraine_risk":4,"frizz_risk":1,"updated_at":"2026-03-29T05:05:06.088865+05:30"},{"city":"Pune","state":"Maharashtra","latitude":18.5204,"longitude":73.8567,"temp":20.3,"humidity":58,"rain":0.0,"pressure":946.7,"uv_index":8.55,"wind_gusts":34.9,"aqi":67,"pm10":56.2,"pm2_5":26.0,"mosquito_risk":0,"arthritis_risk":5,"migraine_risk":7,"frizz_risk":0,"updated_at":"2026-03-29T05:05:06.088877+05:30"},{"city":"Ahmedabad","state":"Gujarat","latitude":23.0225,"longitude":72.5714,"temp":24.9,"humidity":83,"rain":0.0,"pressure":1000.9,"uv_index":7.85,"wind_gusts":25.6,"aqi":32,"pm10":20.2,"pm2_5":6.8,"mosquito_risk":3,"arthritis_risk":5,"migraine_risk":4,"frizz_risk":1,"updated_at":"2026-03-29T05:05:06.088884+05:30"},{"city":"Jaipur","state":"Rajasthan","latitude":26.9124,"longitude":75.7873,"temp":24.7,"humidity":54,"rain":0.0,"pressure":956.8,"uv_index":7.15,"wind_gusts":34.9,"aqi":75,"pm10":95.5,"pm2_5":24.0,"mosquito_risk":0,"arthritis_risk":5,"migraine_risk":7,"frizz_risk":0,"updated_at":"2026-03-29T05:05:06.088892+05:30"},{"city":"Lucknow","state":"Uttar Pradesh","latitude":26.8467,"longitude":80.9462,"temp":22.3,"humidity":70,"rain":0.0,"pressure":991.7,"uv_index":7.25,"wind_gusts":20.2,"aqi":119,"pm10":195.6,"pm2_5":56.1,"mosquito_risk":3,"arthritis_risk":5,"migraine_risk":7,"frizz_risk":1,"updated_at":"2026-03-29T05:05:06.088900+05:30"},{"city":"Kanpur","state":"Uttar Pradesh","latitude":26.4499,"longitude":80.3319,"temp":21.5,"humidity":76,"rain":0.0,"pressure":989.6,"uv_index":7.1,"wind_gusts":16.9,"aqi":154,"pm10":162.5,"pm2_5":45.6,"mosquito_risk":3,"arthritis_risk":5,"migraine_risk":7,"frizz_risk":1,"updated_at":"2026-03-29T05:05:06.088907+05:30"},{"city":"Chandigarh","state":"Chandigarh","latitude":30.7333,"longitude":76.7794,"temp":21.3,"humidity":77,"rain":0.0,"pressure":965.8,"uv_index":6.6,"wind_gusts":23.8,"aqi":81,"pm10":32.5,"pm2_5":31.7,"mosquito_risk":3,"arthritis_risk":5,"migraine_risk":7,"frizz_risk":1,"updated_at":"2026-03-29T05:05:06.088914+05:30"},{"city":"Srinagar","state":"Jammu and Kashmir","latitude":34.0837,"longitude":74.7973,"temp":10.9,"humidity":92,"rain":0.2,"pressure":838.4,"uv_index":7.4,"wind_gusts":22.3,"aqi":92,"pm10":46.4,"pm2_5":34.7,"mosquito_risk":6,"arthritis_risk":10,"migraine_risk":7,"frizz_risk":0,"updated_at":"2026-03-29T05:05:06.088922+05:30"},{"city":"Jammu","state":"Jammu and Kashmir","latitude":32.7266,"longitude":74.857,"temp":20.0,"humidity":94,"rain":0.5,"pressure":971.5,"uv_index":7.35,"wind_gusts":17.6,"aqi":80,"pm10":36.9,"pm2_5":33.4,"mosquito_risk":6,"arthritis_risk":5,"migraine_risk":7,"frizz_risk":1,"updated_at":"2026-03-29T05:05:06.088929+05:30"},{"city":"Amritsar","state":"Punjab","latitude":31.634,"longitude":74.8723,"temp":20.2,"humidity":92,"rain":0.3,"pressure":979.7,"uv_index":7.3,"wind_gusts":35.3,"aqi":100,"pm10":41.6,"pm2_5":29.9,"mosquito_risk":6,"arthritis_risk":5,"migraine_risk":7,"frizz_risk":1,"updated_at":"2026-03-29T05:05:06.088936+05:30"},{"city":"Ludhiana","state":"Punjab","latitude":30.901,"longitude":75.8573,"temp":21.9,"humidity":75,"rain":0.0,"pressure":976.9,"uv_index":6.95,"wind_gusts":30.6,"aqi":102,"pm10":53.7,"pm2_5":42.1,"mosquito_risk":3,"arthritis_risk":5,"migraine_risk":7,"frizz_risk":1,"updated_at":"2026-03-29T05:05:06.088942+05:30"},{"city":"Jalandhar","state":"Punjab","latitude":31.326,"longitude":75.5762,"temp":21.3,"humidity":79,"rain":0.0,"pressure":978.0,"uv_index":7.15,"wind_gusts":32.8,"aqi":105,"pm10":45.6,"pm2_5":38.8,"mosquito_risk":3,"arthritis_risk":5,"migraine_risk":7,"frizz_risk":1,"updated_at":"2026-03-29T05:05:06.088950+05:30"},{"city":"Dehradun","state":"Uttarakhand","latitude":30.6284,"longitude":78.0322,"temp":13.9,"humidity":83,"rain":0.0,"pressure":827.2,"uv_index":4.8,"wind_gusts":19.1,"aqi":64,"pm10":27.1,"pm2_5":19.0,"mosquito_risk":3,"arthritis_risk":10,"migraine_risk":3,"frizz_risk":0,"updated_at":"2026-03-29T05:05:06.088957+05:30"},{"city":"Shimla","state":"Himachal Pradesh","latitude":31.1048,"longitude":77.1734,"temp":12.9,"humidity":75,"rain":0.0,"pressure":781.2,"uv_index":6.8,"wind_gusts":26.3,"aqi":71,"pm10":39.0,"pm2_5":31.1,"mosquito_risk":3,"arthritis_risk":5,"migraine_risk":7,"frizz_risk":0,"updated_at":"2026-03-29T05:05:06.088963+05:30"},{"city":"Manali","state":"Himachal Pradesh","latitude":32.2396,"longitude":77.1887,"temp":14.1,"humidity":82,"rain":0.1,"pressure":817.0,"uv_index":8.45,"wind_gusts":25.6,"aqi":44,"pm10":38.2,"pm2_5":18.6,"mosquito_risk":6,"arthritis_risk":10,"migraine_risk":7,"frizz_risk":0,"updated_at":"2026-03-29T05:05:06.088971+05:30"},{"city":"Gurgaon","state":"Haryana","latitude":28.4595,"longitude":77.0266,"temp":21.6,"humidity":69,"rain":0.0,"pressure":978.9,"uv_index":6.1,"wind_gusts":25.6,"aqi":231,"pm10":289.6,"pm2_5":76.4,"mosquito_risk":3,"arthritis_risk":5,"migraine_risk":7,"frizz_risk":0,"updated_at":"2026-03-29T05:05:06.088977+05:30"},{"city":"Noida","state":"Uttar Pradesh","latitude":28.5355,"longitude":77.391,"temp":21.4,"humidity":72,"rain":0.0,"pressure":982.1,"uv_index":6.05,"wind_gusts":24.1,"aqi":231,"pm10":289.6,"pm2_5":76.4,"mosquito_risk":3,"arthritis_risk":5,"migraine_risk":7,"frizz_risk":1,"updated_at":"2026-03-29T05:05:06.088983+05:30"},{"city":"Ghaziabad","state":"Uttar Pradesh","latitude":28.6692,"longitude":77.4538,"temp":20.1,"humidity":79,"rain":0.0,"pressure":980.2,"uv_index":6.4,"wind_gusts":22.0,"aqi":139,"pm10":113.9,"pm2_5":74.3,"mosquito_risk":3,"arthritis_risk":5,"migraine_risk":7,"frizz_risk":1,"updated_at":"2026-03-29T05:05:06.088991+05:30"},{"city":"Faridabad","state":"Haryana","latitude":28.4089,"longitude":77.3178,"temp":21.3,"humidity":67,"rain":0.0,"pressure":981.4,"uv_index":6.15,"wind_gusts":21.6,"aqi":231,"pm10":289.6,"pm2_5":76.4,"mosquito_risk":3,"arthritis_risk":5,"migraine_risk":7,"frizz_risk":0,"updated_at":"2026-03-29T05:05:06.088998+05:30"},{"city":"Meerut","state":"Uttar Pradesh","latitude":28.9845,"longitude":77.7064,"temp":19.5,"humidity":83,"rain":0.0,"pressure":978.9,"uv_index":5.75,"wind_gusts":23.8,"aqi":139,"pm10":113.9,"pm2_5":74.3,"mosquito_risk":3,"arthritis_risk":10,"migraine_risk":3,"frizz_risk":1,"updated_at":"2026-03-29T05:05:06.089004+05:30"},{"city":"Agra","state":"Uttar Pradesh","latitude":27.1767,"longitude":78.0081,"temp":20.7,"humidity":75,"rain":0.0,"pressure":985.5,"uv_index":6.95,"wind_gusts":30.6,"aqi":350,"pm10":282.2,"pm2_5":53.7,"mosquito_risk":3,"arthritis_risk":5,"migraine_risk":7,"frizz_risk":1,"updated_at":"2026-03-29T05:05:06.089010+05:30"},{"city":"Varanasi","state":"Uttar Pradesh","latitude":25.3176,"longitude":82.9739,"temp":22.0,"humidity":69,"rain":0.0,"pressure":995.8,"uv_index":7.95,"wind_gusts":23.8,"aqi":88,"pm10":53.4,"pm2_5":29.4,"mosquito_risk":3,"arthritis_risk":5,"migraine_risk":7,"frizz_risk":1,"updated_at":"2026-03-29T05:05:06.089021+05:30"},{"city":"Prayagraj","state":"Uttar Pradesh","latitude":25.4358,"longitude":81.8463,"temp":23.1,"humidity":65,"rain":0.0,"pressure":994.2,"uv_index":7.8,"wind_gusts":20.9,"aqi":98,"pm10":77.1,"pm2_5":49.8,"mosquito_risk":3,"arthritis_risk":5,"migraine_risk":7,"frizz_risk":1,"updated_at":"2026-03-29T05:05:06.089027+05:30"},{"city":"Gorakhpur","state":"Uttar Pradesh","latitude":26.7606,"longitude":83.3732,"temp":19.9,"humidity":93,"rain":0.0,"pressure":996.3,"uv_index":7.3,"wind_gusts":25.6,"aqi":105,"pm10":73.3,"pm2_5":58.2,"mosquito_risk":3,"arthritis_risk":10,"migraine_risk":7,"frizz_risk":1,"updated_at":"2026-03-29T05:05:06.089034+05:30"},{"city":"Bareilly","state":"Uttar Pradesh","latitude":28.367,"longitude":79.4304,"temp":19.0,"humidity":89,"rain":0.0,"pressure":984.6,"uv_index":7.0,"wind_gusts":18.4,"aqi":93,"pm10":41.8,"pm2_5":38.3,"mosquito_risk":3,"arthritis_risk":10,"migraine_risk":7,"frizz_risk":1,"updated_at":"2026-03-29T05:05:06.089041+05:30"},{"city":"Aligarh","state":"Uttar Pradesh","latitude":27.8974,"longitude":78.088,"temp":19.6,"humidity":79,"rain":0.0,"pressure":983.1,"uv_index":6.8,"wind_gusts":20.2,"aqi":181,"pm10":214.7,"pm2_5":58.3,"mosquito_risk":3,"arthritis_risk":5,"migraine_risk":7,"frizz_risk":0,"updated_at":"2026-03-29T05:05:06.089048+05:30"},{"city":"Moradabad","state":"Uttar Pradesh","latitude":28.8386,"longitude":78.7733,"temp":20.0,"humidity":84,"rain":0.0,"pressure":981.4,"uv_index":6.55,"wind_gusts":22.7,"aqi":127,"pm10":69.2,"pm2_5":62.9,"mosquito_risk":3,"arthritis_risk":5,"migraine_risk":7,"frizz_risk":1,"updated_at":"2026-03-29T05:05:06.089054+05:30"},{"city":"Saharanpur","state":"Uttar Pradesh","latitude":29.9637,"longitude":77.546,"temp":20.0,"humidity":84,"rain":0.0,"pressure":973.0,"uv_index":5.7,"wind_gusts":22.3,"aqi":110,"pm10":47.0,"pm2_5":42.8,"mosquito_risk":3,"arthritis_risk":5,"migraine_risk":3,"frizz_risk":1,"updated_at":"2026-03-29T05:05:06.089060+05:30"},{"city":"Jhansi","state":"Uttar Pradesh","latitude":25.4484,"longitude":78.5685,"temp":24.5,"humidity":57,"rain":0.0,"pressure":975.3,"uv_index":7.75,"wind_gusts":25.6,"aqi":79,"pm10":119.2,"pm2_5":29.1,"mosquito_risk":0,"arthritis_risk":5,"migraine_risk":7,"frizz_risk":0,"updated_at":"2026-03-29T05:05:09.417610+05:30"},{"city":"Surat","state":"Gujarat","latitude":21.1702,"longitude":72.8311,"temp":26.9,"humidity":87,"rain":0.0,"pressure":1005.7,"uv_index":7.75,"wind_gusts":25.9,"aqi":76,"pm10":21.1,"pm2_5":19.0,"mosquito_risk":7,"arthritis_risk":5,"migraine_risk":4,"frizz_risk":1,"updated_at":"2026-03-29T05:05:09.417646+05:30"},{"city":"Vadodara","state":"Gujarat","latitude":22.3072,"longitude":73.1812,"temp":26.1,"humidity":68,"rain":0.0,"pressure":1003.3,"uv_index":7.95,"wind_gusts":25.2,"aqi":53,"pm10":26.8,"pm2_5":10.9,"mosquito_risk":7,"arthritis_risk":5,"migraine_risk":4,"frizz_risk":1,"updated_at":"2026-03-29T05:05:09.417659+05:30"},{"city":"Rajkot","state":"Gujarat","latitude":22.3039,"longitude":70.8022,"temp":24.8,"humidity":84,"rain":0.0,"pressure":993.3,"uv_index":7.75,"wind_gusts":33.1,"aqi":35,"pm10":15.8,"pm2_5":6.8,"mosquito_risk":3,"arthritis_risk":5,"migraine_risk":7,"frizz_risk":1,"updated_at":"2026-03-29T05:05:09.417669+05:30"},{"city":"Thane","state":"Maharashtra","latitude":19.2183,"longitude":72.9781,"temp":26.5,"humidity":84,"rain":0.0,"pressure":1007.3,"uv_index":8.0,"wind_gusts":37.4,"aqi":66,"pm10":22.2,"pm2_5":13.0,"mosquito_risk":7,"arthritis_risk":5,"migraine_risk":4,"frizz_risk":1,"updated_at":"2026-03-29T05:05:09.417679+05:30"},{"city":"Nagpur","state":"Maharashtra","latitude":21.1458,"longitude":79.0882,"temp":24.0,"humidity":51,"rain":0.0,"pressure":970.7,"uv_index":8.55,"wind_gusts":27.0,"aqi":58,"pm10":32.8,"pm2_5":29.7,"mosquito_risk":0,"arthritis_risk":5,"migraine_risk":7,"frizz_risk":0,"updated_at":"2026-03-29T05:05:09.417688+05:30"},{"city":"Nashik","state":"Maharashtra","latitude":19.9975,"longitude":73.7898,"temp":20.5,"humidity":84,"rain":0.0,"pressure":944.3,"uv_index":8.25,"wind_gusts":31.0,"aqi":54,"pm10":47.0,"pm2_5":15.2,"mosquito_risk":3,"arthritis_risk":5,"migraine_risk":7,"frizz_risk":1,"updated_at":"2026-03-29T05:05:09.417697+05:30"},{"city":"Aurangabad","state":"Maharashtra","latitude":19.8762,"longitude":75.3433,"temp":22.6,"humidity":51,"rain":0.0,"pressure":942.5,"uv_index":8.75,"wind_gusts":29.5,"aqi":43,"pm10":29.2,"pm2_5":12.5,"mosquito_risk":0,"arthritis_risk":5,"migraine_risk":7,"frizz_risk":0,"updated_at":"2026-03-29T05:05:09.417706+05:30"},{"city":"Solapur","state":"Maharashtra","latitude":17.6599,"longitude":75.9064,"temp":23.8,"humidity":47,"rain":0.0,"pressure":955.9,"uv_index":8.9,"wind_gusts":23.0,"aqi":66,"pm10":15.9,"pm2_5":13.4,"mosquito_risk":0,"arthritis_risk":5,"migraine_risk":7,"frizz_risk":0,"updated_at":"2026-03-29T05:05:09.417714+05:30"},{"city":"Kolhapur","state":"Maharashtra","latitude":16.705,"longitude":74.2433,"temp":18.3,"humidity":79,"rain":0.0,"pressure":946.1,"uv_index":9.0,"wind_gusts":33.8,"aqi":92,"pm10":26.7,"pm2_5":23.9,"mosquito_risk":3,"arthritis_risk":5,"migraine_risk":7,"frizz_risk":0,"updated_at":"2026-03-29T05:05:09.417723+05:30"},{"city":"Goa","state":"Goa","latitude":15.2993,"longitude":74.124,"temp":26.5,"humidity":81,"rain":0.0,"pressure":996.8,"uv_index":8.95,"wind_gusts":35.3,"aqi":95,"pm10":43.9,"pm2_5":40.6,"mosquito_risk":7,"arthritis_risk":5,"migraine_risk":7,"frizz_risk":1,"updated_at":"2026-03-29T05:05:09.417730+05:30"},{"city":"Jodhpur","state":"Rajasthan","latitude":26.2389,"longitude":73.0243,"temp":25.7,"humidity":60,"rain":0.0,"pressure":979.5,"uv_index":7.8,"wind_gusts":41.4,"aqi":96,"pm10":177.4,"pm2_5":26.9,"mosquito_risk":4,"arthritis_risk":5,"migraine_risk":7,"frizz_risk":1,"updated_at":"2026-03-29T05:05:09.417737+05:30"},{"city":"Udaipur","state":"Rajasthan","latitude":24.5854,"longitude":73.7125,"temp":22.9,"humidity":70,"rain":0.0,"pressure":944.1,"uv_index":8.4,"wind_gusts":32.8,"aqi":27,"pm10":16.8,"pm2_5":6.7,"mosquito_risk":3,"arthritis_risk":5,"migraine_risk":7,"frizz_risk":1,"updated_at":"2026-03-29T05:05:09.417744+05:30"},{"city":"Kota","state":"Rajasthan","latitude":25.2138,"longitude":75.8648,"temp":25.5,"humidity":53,"rain":0.0,"pressure":975.9,"uv_index":7.45,"wind_gusts":34.2,"aqi":56,"pm10":7.7,"pm2_5":5.3,"mosquito_risk":4,"arthritis_risk":5,"migraine_risk":7,"frizz_risk":0,"updated_at":"2026-03-29T05:05:09.417751+05:30"},{"city":"Bikaner","state":"Rajasthan","latitude":28.0229,"longitude":73.3119,"temp":27.6,"humidity":49,"rain":0.0,"pressure":977.0,"uv_index":7.55,"wind_gusts":32.4,"aqi":49,"pm10":220.7,"pm2_5":53.8,"mosquito_risk":4,"arthritis_risk":5,"migraine_risk":7,"frizz_risk":0,"updated_at":"2026-03-29T05:05:09.417758+05:30"},{"city":"Ajmer","state":"Rajasthan","latitude":26.4499,"longitude":74.6399,"temp":24.0,"humidity":65,"rain":0.0,"pressure":951.2,"uv_index":7.75,"wind_gusts":41.8,"aqi":33,"pm10":5.9,"pm2_5":3.1,"mosquito_risk":3,"arthritis_risk":5,"migraine_risk":7,"frizz_risk":1,"updated_at":"2026-03-29T05:05:09.417785+05:30"},{"city":"Gwalior","state":"Madhya Pradesh","latitude":26.2183,"longitude":78.1828,"temp":23.2,"humidity":64,"rain":0.0,"pressure":980.6,"uv_index":7.45,"wind_gusts":27.7,"aqi":116,"pm10":162.1,"pm2_5":34.5,"mosquito_risk":3,"arthritis_risk":5,"migraine_risk":7,"frizz_risk":0,"updated_at":"2026-03-29T05:05:09.417793+05:30"},{"city":"Indore","state":"Madhya Pradesh","latitude":22.7196,"longitude":75.8577,"temp":22.7,"humidity":66,"rain":0.0,"pressure":945.9,"uv_index":8.25,"wind_gusts":32.4,"aqi":38,"pm10":16.9,"pm2_5":12.0,"mosquito_risk":3,"arthritis_risk":5,"migraine_risk":7,"frizz_risk":0,"updated_at":"2026-03-29T05:05:09.417800+05:30"},{"city":"Bhopal","state":"Madhya Pradesh","latitude":23.2599,"longitude":77.4126,"temp":22.6,"humidity":63,"rain":0.0,"pressure":951.3,"uv_index":8.2,"wind_gusts":35.3,"aqi":33,"pm10":8.9,"pm2_5":6.4,"mosquito_risk":3,"arthritis_risk":5,"migraine_risk":7,"frizz_risk":0,"updated_at":"2026-03-29T05:05:09.417807+05:30"},{"city":"Jabalpur","state":"Madhya Pradesh","latitude":23.1815,"longitude":79.9864,"temp":23.5,"humidity":65,"rain":0.0,"pressure":958.8,"uv_index":8.3,"wind_gusts":33.5,"aqi":58,"pm10":30.7,"pm2_5":26.3,"mosquito_risk":3,"arthritis_risk":5,"migraine_risk":7,"frizz_risk":1,"updated_at":"2026-03-29T05:05:09.417814+05:30"},{"city":"Ujjain","state":"Madhya Pradesh","latitude":23.1765,"longitude":75.7885,"temp":22.6,"humidity":70,"rain":0.0,"pressure":951.6,"uv_index":8.15,"wind_gusts":32.8,"aqi":38,"pm10":16.9,"pm2_5":12.2,"mosquito_risk":3,"arthritis_risk":5,"migraine_risk":7,"frizz_risk":1,"updated_at":"2026-03-29T05:05:09.417821+05:30"},{"city":"Visakhapatnam","state":"Andhra Pradesh","latitude":17.6868,"longitude":83.2185,"temp":26.6,"humidity":86,"rain":0.0,"pressure":1002.3,"uv_index":9.0,"wind_gusts":40.0,"aqi":83,"pm10":28.2,"pm2_5":21.0,"mosquito_risk":7,"arthritis_risk":5,"migraine_risk":4,"frizz_risk":1,"updated_at":"2026-03-29T05:05:09.417829+05:30"},{"city":"Vijayawada","state":"Andhra Pradesh","latitude":16.5062,"longitude":80.648,"temp":26.4,"humidity":90,"rain":0.0,"pressure":1001.1,"uv_index":9.05,"wind_gusts":29.9,"aqi":81,"pm10":20.0,"pm2_5":15.2,"mosquito_risk":7,"arthritis_risk":5,"migraine_risk":4,"frizz_risk":1,"updated_at":"2026-03-29T05:05:09.417835+05:30"},{"city":"Guntur","state":"Andhra Pradesh","latitude":16.3067,"longitude":80.4365,"temp":26.3,"humidity":90,"rain":0.0,"pressure":1002.3,"uv_index":9.05,"wind_gusts":28.4,"aqi":84,"pm10":19.6,"pm2_5":14.9,"mosquito_risk":7,"arthritis_risk":5,"migraine_risk":4,"frizz_risk":1,"updated_at":"2026-03-29T05:05:09.417842+05:30"},{"city":"Nellore","state":"Andhra Pradesh","latitude":14.4426,"longitude":79.9865,"temp":25.6,"humidity":86,"rain":0.0,"pressure":1004.4,"uv_index":8.9,"wind_gusts":33.5,"aqi":73,"pm10":21.0,"pm2_5":17.9,"mosquito_risk":7,"arthritis_risk":5,"migraine_risk":4,"frizz_risk":1,"updated_at":"2026-03-29T05:05:09.417850+05:30"},{"city":"Kurnool","state":"Andhra Pradesh","latitude":15.8281,"longitude":78.0373,"temp":27.6,"humidity":59,"rain":0.0,"pressure":976.1,"uv_index":9.1,"wind_gusts":26.6,"aqi":123,"pm10":48.8,"pm2_5":42.6,"mosquito_risk":4,"arthritis_risk":5,"migraine_risk":7,"frizz_risk":1,"updated_at":"2026-03-29T05:05:09.417858+05:30"},{"city":"Kakinada","state":"Andhra Pradesh","latitude":16.9891,"longitude":82.2475,"temp":25.5,"humidity":93,"rain":0.0,"pressure":1006.4,"uv_index":9.0,"wind_gusts":28.8,"aqi":67,"pm10":25.6,"pm2_5":16.2,"mosquito_risk":7,"arthritis_risk":5,"migraine_risk":4,"frizz_risk":1,"updated_at":"2026-03-29T05:05:09.417864+05:30"},{"city":"Tirupati","state":"Andhra Pradesh","latitude":13.6288,"longitude":79.4192,"temp":23.8,"humidity":88,"rain":0.0,"pressure":991.4,"uv_index":9.1,"wind_gusts":32.0,"aqi":97,"pm10":34.2,"pm2_5":31.9,"mosquito_risk":3,"arthritis_risk":5,"migraine_risk":7,"frizz_risk":1,"updated_at":"2026-03-29T05:05:09.417871+05:30"},{"city":"Warangal","state":"Telangana","latitude":17.9689,"longitude":79.5941,"temp":26.0,"humidity":73,"rain":0.0,"pressure":976.1,"uv_index":8.9,"wind_gusts":28.4,"aqi":112,"pm10":39.0,"pm2_5":35.4,"mosquito_risk":7,"arthritis_risk":5,"migraine_risk":7,"frizz_risk":1,"updated_at":"2026-03-29T05:05:09.417877+05:30"},{"city":"Nizamabad","state":"Telangana","latitude":18.6725,"longitude":78.0941,"temp":25.8,"humidity":50,"rain":0.0,"pressure":963.4,"uv_index":8.85,"wind_gusts":28.4,"aqi":78,"pm10":25.9,"pm2_5":24.8,"mosquito_risk":4,"arthritis_risk":5,"migraine_risk":7,"frizz_risk":0,"updated_at":"2026-03-29T05:05:09.417884+05:30"},{"city":"Mysore","state":"Karnataka","latitude":12.2958,"longitude":76.6396,"temp":22.0,"humidity":88,"rain":0.0,"pressure":927.9,"uv_index":9.45,"wind_gusts":29.5,"aqi":110,"pm10":43.1,"pm2_5":39.9,"mosquito_risk":3,"arthritis_risk":5,"migraine_risk":7,"frizz_risk":1,"updated_at":"2026-03-29T05:05:09.417891+05:30"},{"city":"Mangalore","state":"Karnataka","latitude":12.9141,"longitude":74.856,"temp":27.6,"humidity":85,"rain":0.0,"pressure":1006.2,"uv_index":9.15,"wind_gusts":31.7,"aqi":101,"pm10":41.4,"pm2_5":37.6,"mosquito_risk":7,"arthritis_risk":5,"migraine_risk":4,"frizz_risk":1,"updated_at":"2026-03-29T05:05:09.417897+05:30"},{"city":"Hubli-Dharwad","state":"Karnataka","latitude":15.3647,"longitude":75.124,"temp":22.1,"humidity":92,"rain":0.0,"pressure":939.2,"uv_index":9.15,"wind_gusts":31.0,"aqi":103,"pm10":46.9,"pm2_5":43.4,"mosquito_risk":3,"arthritis_risk":5,"migraine_risk":7,"frizz_risk":1,"updated_at":"2026-03-29T05:05:09.417904+05:30"},{"city":"Belgaum","state":"Karnataka","latitude":15.8497,"longitude":74.4977,"temp":20.4,"humidity":78,"rain":0.0,"pressure":923.7,"uv_index":9.2,"wind_gusts":35.3,"aqi":100,"pm10":29.1,"pm2_5":28.1,"mosquito_risk":3,"arthritis_risk":5,"migraine_risk":7,"frizz_risk":1,"updated_at":"2026-03-29T05:05:12.746910+05:30"},{"city":"Coimbatore","state":"Tamil Nadu","latitude":11.0168,"longitude":76.9558,"temp":23.3,"humidity":89,"rain":0.0,"pressure":960.7,"uv_index":9.45,"wind_gusts":41.0,"aqi":90,"pm10":36.6,"pm2_5":33.4,"mosquito_risk":3,"arthritis_risk":5,"migraine_risk":7,"frizz_risk":1,"updated_at":"2026-03-29T05:05:12.746947+05:30"},{"city":"Madurai","state":"Tamil Nadu","latitude":9.9252,"longitude":78.1198,"temp":25.2,"humidity":83,"rain":0.0,"pressure":991.5,"uv_index":9.4,"wind_gusts":30.6,"aqi":80,"pm10":38.9,"pm2_5":37.0,"mosquito_risk":7,"arthritis_risk":5,"migraine_risk":7,"frizz_risk":1,"updated_at":"2026-03-29T05:05:12.746961+05:30"},{"city":"Trichy","state":"Tamil Nadu","latitude":10.7905,"longitude":78.7047,"temp":24.9,"humidity":88,"rain":0.0,"pressure":999.0,"uv_index":9.15,"wind_gusts":28.4,"aqi":65,"pm10":33.6,"pm2_5":30.7,"mosquito_risk":3,"arthritis_risk":5,"migraine_risk":7,"frizz_risk":1,"updated_at":"2026-03-29T05:05:12.746971+05:30"},{"city":"Salem","state":"Tamil Nadu","latitude":11.6643,"longitude":78.146,"temp":25.5,"humidity":79,"rain":0.0,"pressure":976.6,"uv_index":9.4,"wind_gusts":34.2,"aqi":94,"pm10":17.1,"pm2_5":15.5,"mosquito_risk":7,"arthritis_risk":5,"migraine_risk":7,"frizz_risk":1,"updated_at":"2026-03-29T05:05:12.746980+05:30"},{"city":"Tirunelveli","state":"Tamil Nadu","latitude":8.7139,"longitude":77.7567,"temp":26.3,"humidity":72,"rain":0.0,"pressure":1001.3,"uv_index":9.35,"wind_gusts":47.5,"aqi":74,"pm10":20.5,"pm2_5":19.3,"mosquito_risk":7,"arthritis_risk":5,"migraine_risk":4,"frizz_risk":1,"updated_at":"2026-03-29T05:05:12.746988+05:30"},{"city":"Vellore","state":"Tamil Nadu","latitude":12.9165,"longitude":79.1325,"temp":24.5,"humidity":91,"rain":0.0,"pressure":984.2,"uv_index":9.35,"wind_gusts":33.5,"aqi":126,"pm10":54.7,"pm2_5":52.4,"mosquito_risk":3,"arthritis_risk":5,"migraine_risk":7,"frizz_risk":1,"updated_at":"2026-03-29T05:05:12.746995+05:30"},{"city":"Erode","state":"Tamil Nadu","latitude":11.341,"longitude":77.7172,"temp":26.6,"humidity":81,"rain":0.0,"pressure":988.1,"uv_index":8.85,"wind_gusts":33.5,"aqi":97,"pm10":43.5,"pm2_5":41.0,"mosquito_risk":7,"arthritis_risk":5,"migraine_risk":7,"frizz_risk":1,"updated_at":"2026-03-29T05:05:12.747003+05:30"},{"city":"Kochi","state":"Kerala","latitude":9.9312,"longitude":76.2673,"temp":28.0,"humidity":82,"rain":0.0,"pressure":1007.2,"uv_index":9.15,"wind_gusts":29.2,"aqi":93,"pm10":32.4,"pm2_5":30.3,"mosquito_risk":7,"arthritis_risk":5,"migraine_risk":4,"frizz_risk":1,"updated_at":"2026-03-29T05:05:12.747010+05:30"},{"city":"Thiruvananthapuram","state":"Kerala","latitude":8.5241,"longitude":76.9366,"temp":27.9,"humidity":84,"rain":0.0,"pressure":1006.1,"uv_index":9.05,"wind_gusts":38.2,"aqi":73,"pm10":28.4,"pm2_5":24.7,"mosquito_risk":7,"arthritis_risk":5,"migraine_risk":4,"frizz_risk":1,"updated_at":"2026-03-29T05:05:12.747018+05:30"},{"city":"Kozhikode","state":"Kerala","latitude":11.2588,"longitude":75.7804,"temp":27.0,"humidity":87,"rain":0.0,"pressure":1006.9,"uv_index":9.15,"wind_gusts":30.6,"aqi":80,"pm10":28.1,"pm2_5":24.4,"mosquito_risk":7,"arthritis_risk":5,"migraine_risk":4,"frizz_risk":1,"updated_at":"2026-03-29T05:05:12.747025+05:30"},{"city":"Thrissur","state":"Kerala","latitude":10.5276,"longitude":76.2144,"temp":25.7,"humidity":94,"rain":0.0,"pressure":1005.8,"uv_index":9.15,"wind_gusts":34.9,"aqi":89,"pm10":35.3,"pm2_5":32.4,"mosquito_risk":7,"arthritis_risk":5,"migraine_risk":4,"frizz_risk":1,"updated_at":"2026-03-29T05:05:12.747034+05:30"},{"city":"Kannur","state":"Kerala","latitude":11.8745,"longitude":75.3704,"temp":26.6,"humidity":84,"rain":0.0,"pressure":1006.6,"uv_index":9.15,"wind_gusts":35.6,"aqi":89,"pm10":32.1,"pm2_5":29.7,"mosquito_risk":7,"arthritis_risk":5,"migraine_risk":4,"frizz_risk":1,"updated_at":"2026-03-29T05:05:12.747041+05:30"},{"city":"Patna","state":"Bihar","latitude":25.5941,"longitude":85.1376,"temp":21.5,"humidity":90,"rain":0.0,"pressure":999.7,"uv_index":8.1,"wind_gusts":23.8,"aqi":98,"pm10":60.3,"pm2_5":47.6,"mosquito_risk":3,"arthritis_risk":5,"migraine_risk":7,"frizz_risk":1,"updated_at":"2026-03-29T05:05:12.747048+05:30"},{"city":"Gaya","state":"Bihar","latitude":24.7914,"longitude":85.0002,"temp":20.7,"humidity":87,"rain":0.0,"pressure":992.5,"uv_index":8.15,"wind_gusts":19.1,"aqi":85,"pm10":42.4,"pm2_5":38.5,"mosquito_risk":3,"arthritis_risk":5,"migraine_risk":7,"frizz_risk":1,"updated_at":"2026-03-29T05:05:12.747056+05:30"},{"city":"Muzaffarpur","state":"Bihar","latitude":26.1209,"longitude":85.3647,"temp":20.0,"humidity":93,"rain":0.0,"pressure":1000.3,"uv_index":8.05,"wind_gusts":27.7,"aqi":112,"pm10":60.1,"pm2_5":49.6,"mosquito_risk":3,"arthritis_risk":5,"migraine_risk":4,"frizz_risk":1,"updated_at":"2026-03-29T05:05:12.747062+05:30"},{"city":"Bhagalpur","state":"Bihar","latitude":25.2425,"longitude":87.0117,"temp":20.6,"humidity":95,"rain":0.0,"pressure":1001.3,"uv_index":8.1,"wind_gusts":20.5,"aqi":102,"pm10":65.2,"pm2_5":47.6,"mosquito_risk":3,"arthritis_risk":5,"migraine_risk":4,"frizz_risk":1,"updated_at":"2026-03-29T05:05:12.747069+05:30"},{"city":"Ranchi","state":"Jharkhand","latitude":23.3441,"longitude":85.3096,"temp":20.1,"humidity":90,"rain":0.0,"pressure":936.2,"uv_index":8.75,"wind_gusts":31.3,"aqi":101,"pm10":68.9,"pm2_5":63.8,"mosquito_risk":3,"arthritis_risk":5,"migraine_risk":7,"frizz_risk":1,"updated_at":"2026-03-29T05:05:12.747076+05:30"},{"city":"Jamshedpur","state":"Jharkhand","latitude":22.8046,"longitude":86.2029,"temp":24.0,"humidity":85,"rain":0.0,"pressure":990.5,"uv_index":8.55,"wind_gusts":27.4,"aqi":134,"pm10":59.0,"pm2_5":52.5,"mosquito_risk":3,"arthritis_risk":5,"migraine_risk":7,"frizz_risk":1,"updated_at":"2026-03-29T05:05:12.747083+05:30"},{"city":"Dhanbad","state":"Jharkhand","latitude":23.7957,"longitude":86.4304,"temp":22.4,"humidity":84,"rain":0.0,"pressure":979.4,"uv_index":8.5,"wind_gusts":22.7,"aqi":150,"pm10":89.9,"pm2_5":82.4,"mosquito_risk":3,"arthritis_risk":5,"migraine_risk":7,"frizz_risk":1,"updated_at":"2026-03-29T05:05:12.747090+05:30"},{"city":"Bokaro","state":"Jharkhand","latitude":23.6693,"longitude":86.1511,"temp":21.8,"humidity":91,"rain":0.0,"pressure":983.5,"uv_index":8.5,"wind_gusts":24.8,"aqi":150,"pm10":100.6,"pm2_5":91.7,"mosquito_risk":3,"arthritis_risk":5,"migraine_risk":7,"frizz_risk":1,"updated_at":"2026-03-29T05:05:12.747098+05:30"},{"city":"Bhubaneswar","state":"Odisha","latitude":20.2961,"longitude":85.8245,"temp":26.7,"humidity":87,"rain":0.0,"pressure":1000.9,"uv_index":8.8,"wind_gusts":32.0,"aqi":101,"pm10":25.1,"pm2_5":18.7,"mosquito_risk":7,"arthritis_risk":5,"migraine_risk":4,"frizz_risk":1,"updated_at":"2026-03-29T05:05:12.747105+05:30"},{"city":"Cuttack","state":"Odisha","latitude":20.4625,"longitude":85.8828,"temp":26.4,"humidity":89,"rain":0.0,"pressure":1002.7,"uv_index":8.85,"wind_gusts":35.3,"aqi":101,"pm10":25.1,"pm2_5":18.7,"mosquito_risk":7,"arthritis_risk":5,"migraine_risk":4,"frizz_risk":1,"updated_at":"2026-03-29T05:05:12.747112+05:30"},{"city":"Rourkela","state":"Odisha","latitude":22.2604,"longitude":84.8536,"temp":25.0,"humidity":78,"rain":0.0,"pressure":983.7,"uv_index":8.5,"wind_gusts":21.2,"aqi":105,"pm10":43.3,"pm2_5":41.4,"mosquito_risk":7,"arthritis_risk":5,"migraine_risk":7,"frizz_risk":1,"updated_at":"2026-03-29T05:05:12.747119+05:30"},{"city":"Raipur","state":"Chhattisgarh","latitude":21.2514,"longitude":81.6296,"temp":27.4,"humidity":47,"rain":0.0,"pressure":972.2,"uv_index":8.6,"wind_gusts":26.3,"aqi":94,"pm10":50.2,"pm2_5":46.7,"mosquito_risk":4,"arthritis_risk":5,"migraine_risk":7,"frizz_risk":0,"updated_at":"2026-03-29T05:05:12.747125+05:30"},{"city":"Bhilai","state":"Chhattisgarh","latitude":21.1938,"longitude":81.3509,"temp":26.2,"humidity":52,"rain":0.0,"pressure":972.4,"uv_index":8.6,"wind_gusts":26.6,"aqi":75,"pm10":38.6,"pm2_5":35.7,"mosquito_risk":4,"arthritis_risk":5,"migraine_risk":7,"frizz_risk":0,"updated_at":"2026-03-29T05:05:12.747132+05:30"},{"city":"Guwahati","state":"Assam","latitude":26.1158,"longitude":91.7086,"temp":20.2,"humidity":95,"rain":0.0,"pressure":1002.9,"uv_index":7.1,"wind_gusts":28.1,"aqi":114,"pm10":48.9,"pm2_5":41.2,"mosquito_risk":3,"arthritis_risk":5,"migraine_risk":4,"frizz_risk":1,"updated_at":"2026-03-29T05:05:12.747139+05:30"},{"city":"Agartala","state":"Tripura","latitude":23.8315,"longitude":91.2868,"temp":20.1,"humidity":97,"rain":0.0,"pressure":1006.9,"uv_index":8.2,"wind_gusts":36.4,"aqi":122,"pm10":45.4,"pm2_5":40.9,"mosquito_risk":3,"arthritis_risk":5,"migraine_risk":4,"frizz_risk":1,"updated_at":"2026-03-29T05:05:12.747147+05:30"},{"city":"Shillong","state":"Meghalaya","latitude":25.5788,"longitude":91.8933,"temp":10.8,"humidity":91,"rain":0.0,"pressure":853.3,"uv_index":4.1,"wind_gusts":39.2,"aqi":71,"pm10":32.7,"pm2_5":17.2,"mosquito_risk":3,"arthritis_risk":10,"migraine_risk":3,"frizz_risk":0,"updated_at":"2026-03-29T05:05:12.747154+05:30"},{"city":"Imphal","state":"Manipur","latitude":24.817,"longitude":93.9368,"temp":14.5,"humidity":94,"rain":0.0,"pressure":922.4,"uv_index":7.3,"wind_gusts":65.9,"aqi":133,"pm10":57.3,"pm2_5":46.8,"mosquito_risk":3,"arthritis_risk":10,"migraine_risk":7,"frizz_risk":0,"updated_at":"2026-03-29T05:05:12.747161+05:30"},{"city":"Aizawl","state":"Mizoram","latitude":23.7271,"longitude":92.7176,"temp":13.7,"humidity":93,"rain":0.0,"pressure":891.1,"uv_index":7.9,"wind_gusts":52.2,"aqi":121,"pm10":59.4,"pm2_5":51.7,"mosquito_risk":3,"arthritis_risk":10,"migraine_risk":7,"frizz_risk":0,"updated_at":"2026-03-29T05:05:12.747168+05:30"},{"city":"Kohima","state":"Nagaland","latitude":25.6701,"longitude":94.1077,"temp":11.9,"humidity":92,"rain":0.0,"pressure":852.3,"uv_index":6.6,"wind_gusts":81.0,"aqi":106,"pm10":46.9,"pm2_5":35.6,"mosquito_risk":3,"arthritis_risk":10,"migraine_risk":7,"frizz_risk":0,"updated_at":"2026-03-29T05:05:12.747175+05:30"},{"city":"Gangtok","state":"Sikkim","latitude":27.3314,"longitude":88.6138,"temp":9.7,"humidity":78,"rain":0.0,"pressure":832.7,"uv_index":8.15,"wind_gusts":20.5,"aqi":66,"pm10":15.0,"pm2_5":13.3,"mosquito_risk":3,"arthritis_risk":5,"migraine_risk":7,"frizz_risk":0,"updated_at":"2026-03-29T05:05:12.747182+05:30"},{"city":"Siliguri","state":"West Bengal","latitude":26.7271,"longitude":88.3953,"temp":16.9,"humidity":81,"rain":0.0,"pressure":994.5,"uv_index":6.35,"wind_gusts":11.9,"aqi":134,"pm10":62.9,"pm2_5":54.4,"mosquito_risk":3,"arthritis_risk":10,"migraine_risk":7,"frizz_risk":0,"updated_at":"2026-03-29T05:05:16.076965+05:30"},{"city":"Durgapur","state":"West Bengal","latitude":23.5204,"longitude":87.3119,"temp":22.6,"humidity":90,"rain":0.0,"pressure":995.0,"uv_index":8.45,"wind_gusts":21.6,"aqi":131,"pm10":66.8,"pm2_5":61.7,"mosquito_risk":3,"arthritis_risk":5,"migraine_risk":7,"frizz_risk":1,"updated_at":"2026-03-29T05:05:16.077000+05:30"},{"city":"Asansol","state":"West Bengal","latitude":23.6739,"longitude":86.9524,"temp":23.0,"humidity":89,"rain":0.0,"pressure":993.5,"uv_index":8.45,"wind_gusts":20.9,"aqi":131,"pm10":68.5,"pm2_5":62.4,"mosquito_risk":3,"arthritis_risk":5,"migraine_risk":7,"frizz_risk":1,"updated_at":"2026-03-29T05:05:16.077012+05:30"},{"city":"Pondicherry","state":"Puducherry","latitude":11.9139,"longitude":79.8145,"temp":25.5,"humidity":94,"rain":0.0,"pressure":1007.9,"uv_index":9.15,"wind_gusts":34.2,"aqi":58,"pm10":17.3,"pm2_5":12.4,"mosquito_risk":7,"arthritis_risk":5,"migraine_risk":4,"frizz_risk":1,"updated_at":"2026-03-29T05:05:16.077022+05:30"},{"city":"Port Blair","state":"Andaman and Nicobar Islands","latitude":11.6234,"longitude":92.7265,"temp":28.1,"humidity":74,"rain":0.0,"pressure":1006.6,"uv_index":9.15,"wind_gusts":16.6,"aqi":66,"pm10":21.9,"pm2_5":17.4,"mosquito_risk":7,"arthritis_risk":5,"migraine_risk":4,"frizz_risk":1,"updated_at":"2026-03-29T05:05:16.077031+05:30"},{"city":"Haridwar","state":"Uttarakhand","latitude":29.9457,"longitude":78.1642,"temp":21.5,"humidity":76,"rain":0.0,"pressure":972.2,"uv_index":4.2,"wind_gusts":27.7,"aqi":86,"pm10":36.6,"pm2_5":34.3,"mosquito_risk":3,"arthritis_risk":5,"migraine_risk":3,"frizz_risk":1,"updated_at":"2026-03-29T05:05:16.077039+05:30"},{"city":"Rishikesh","state":"Uttarakhand","latitude":30.0869,"longitude":78.2676,"temp":20.9,"humidity":74,"rain":0.0,"pressure":965.1,"uv_index":4.15,"wind_gusts":25.6,"aqi":71,"pm10":31.9,"pm2_5":29.3,"mosquito_risk":3,"arthritis_risk":5,"migraine_risk":3,"frizz_risk":0,"updated_at":"2026-03-29T05:05:16.077048+05:30"},{"city":"Nainital","state":"Uttarakhand","latitude":29.3919,"longitude":79.4542,"temp":16.3,"humidity":67,"rain":0.0,"pressure":803.2,"uv_index":7.25,"wind_gusts":41.0,"aqi":75,"pm10":29.3,"pm2_5":26.3,"mosquito_risk":3,"arthritis_risk":5,"migraine_risk":7,"frizz_risk":0,"updated_at":"2026-03-29T05:05:16.077057+05:30"},{"city":"Mussoorie","state":"Uttarakhand","latitude":30.4599,"longitude":78.0664,"temp":15.5,"humidity":71,"rain":0.0,"pressure":800.1,"uv_index":4.7,"wind_gusts":22.3,"aqi":83,"pm10":34.7,"pm2_5":31.7,"mosquito_risk":3,"arthritis_risk":5,"migraine_risk":3,"frizz_risk":0,"updated_at":"2026-03-29T05:05:16.077066+05:30"},{"city":"Dharamshala","state":"Himachal Pradesh","latitude":32.219,"longitude":76.3234,"temp":17.9,"humidity":61,"rain":0.0,"pressure":866.2,"uv_index":7.05,"wind_gusts":29.2,"aqi":50,"pm10":26.8,"pm2_5":13.0,"mosquito_risk":3,"arthritis_risk":5,"migraine_risk":7,"frizz_risk":0,"updated_at":"2026-03-29T05:05:16.077074+05:30"},{"city":"Dalhousie","state":"Himachal Pradesh","latitude":32.5387,"longitude":75.971,"temp":14.6,"humidity":76,"rain":0.1,"pressure":800.4,"uv_index":7.1,"wind_gusts":24.1,"aqi":72,"pm10":35.7,"pm2_5":29.9,"mosquito_risk":6,"arthritis_risk":5,"migraine_risk":7,"frizz_risk":0,"updated_at":"2026-03-29T05:05:16.077084+05:30"},{"city":"Patiala","state":"Punjab","latitude":30.3398,"longitude":76.3869,"temp":20.6,"humidity":83,"rain":0.0,"pressure":975.8,"uv_index":6.6,"wind_gusts":25.6,"aqi":104,"pm10":297.1,"pm2_5":51.8,"mosquito_risk":3,"arthritis_risk":5,"migraine_risk":7,"frizz_risk":1,"updated_at":"2026-03-29T05:05:16.077092+05:30"},{"city":"Bhatinda","state":"Punjab","latitude":30.211,"longitude":74.9455,"temp":21.9,"humidity":72,"rain":0.0,"pressure":981.0,"uv_index":6.65,"wind_gusts":36.0,"aqi":76,"pm10":144.4,"pm2_5":39.8,"mosquito_risk":3,"arthritis_risk":5,"migraine_risk":7,"frizz_risk":1,"updated_at":"2026-03-29T05:05:16.077100+05:30"},{"city":"Rohtak","state":"Haryana","latitude":28.8955,"longitude":76.6066,"temp":20.2,"humidity":77,"rain":0.0,"pressure":979.2,"uv_index":6.8,"wind_gusts":28.8,"aqi":133,"pm10":259.8,"pm2_5":75.4,"mosquito_risk":3,"arthritis_risk":5,"migraine_risk":7,"frizz_risk":1,"updated_at":"2026-03-29T05:05:16.077108+05:30"},{"city":"Panipat","state":"Haryana","latitude":29.3909,"longitude":76.9635,"temp":19.9,"humidity":78,"rain":0.0,"pressure":977.8,"uv_index":6.55,"wind_gusts":27.4,"aqi":172,"pm10":267.3,"pm2_5":63.8,"mosquito_risk":3,"arthritis_risk":5,"migraine_risk":7,"frizz_risk":0,"updated_at":"2026-03-29T05:05:16.077117+05:30"},{"city":"Mathura","state":"Uttar Pradesh","latitude":27.4924,"longitude":77.6737,"temp":20.7,"humidity":76,"rain":0.0,"pressure":984.5,"uv_index":6.95,"wind_gusts":20.5,"aqi":198,"pm10":253.3,"pm2_5":55.5,"mosquito_risk":3,"arthritis_risk":5,"migraine_risk":7,"frizz_risk":1,"updated_at":"2026-03-29T05:05:16.077124+05:30"},{"city":"Vrindavan","state":"Uttar Pradesh","latitude":27.5823,"longitude":77.7027,"temp":20.3,"humidity":78,"rain":0.0,"pressure":985.0,"uv_index":6.85,"wind_gusts":23.0,"aqi":198,"pm10":253.3,"pm2_5":55.5,"mosquito_risk":3,"arthritis_risk":5,"migraine_risk":7,"frizz_risk":1,"updated_at":"2026-03-29T05:05:16.077132+05:30"},{"city":"Ayodhya","state":"Uttar Pradesh","latitude":26.7922,"longitude":82.1998,"temp":19.4,"humidity":88,"rain":0.0,"pressure":994.0,"uv_index":7.45,"wind_gusts":22.7,"aqi":115,"pm10":101.0,"pm2_5":68.0,"mosquito_risk":3,"arthritis_risk":10,"migraine_risk":7,"frizz_risk":1,"updated_at":"2026-03-29T05:05:16.077139+05:30"},{"city":"Ratlam","state":"Madhya Pradesh","latitude":23.3315,"longitude":75.0367,"temp":22.7,"humidity":75,"rain":0.0,"pressure":952.6,"uv_index":8.1,"wind_gusts":32.4,"aqi":33,"pm10":18.6,"pm2_5":12.4,"mosquito_risk":3,"arthritis_risk":5,"migraine_risk":7,"frizz_risk":1,"updated_at":"2026-03-29T05:05:16.077147+05:30"},{"city":"Sagar","state":"Madhya Pradesh","latitude":23.8388,"longitude":78.7378,"temp":24.9,"humidity":56,"rain":0.0,"pressure":947.8,"uv_index":8.2,"wind_gusts":32.4,"aqi":52,"pm10":20.8,"pm2_5":11.0,"mosquito_risk":0,"arthritis_risk":5,"migraine_risk":7,"frizz_risk":0,"updated_at":"2026-03-29T05:05:16.077154+05:30"},{"city":"Satna","state":"Madhya Pradesh","latitude":24.6005,"longitude":80.8322,"temp":23.1,"humidity":62,"rain":0.0,"pressure":969.0,"uv_index":8.15,"wind_gusts":37.4,"aqi":68,"pm10":71.7,"pm2_5":24.5,"mosquito_risk":3,"arthritis_risk":5,"migraine_risk":7,"frizz_risk":0,"updated_at":"2026-03-29T05:05:16.077162+05:30"},{"city":"Akola","state":"Maharashtra","latitude":20.7002,"longitude":77.0082,"temp":23.5,"humidity":68,"rain":0.0,"pressure":973.4,"uv_index":8.55,"wind_gusts":27.7,"aqi":40,"pm10":13.4,"pm2_5":12.5,"mosquito_risk":3,"arthritis_risk":5,"migraine_risk":7,"frizz_risk":1,"updated_at":"2026-03-29T05:05:16.077171+05:30"},{"city":"Amravati","state":"Maharashtra","latitude":20.9374,"longitude":77.7796,"temp":23.0,"humidity":66,"rain":0.0,"pressure":965.1,"uv_index":8.5,"wind_gusts":27.0,"aqi":39,"pm10":10.8,"pm2_5":10.1,"mosquito_risk":3,"arthritis_risk":5,"migraine_risk":7,"frizz_risk":1,"updated_at":"2026-03-29T05:05:16.077179+05:30"},{"city":"Latur","state":"Maharashtra","latitude":18.4088,"longitude":76.5604,"temp":23.3,"humidity":50,"rain":0.0,"pressure":938.2,"uv_index":8.85,"wind_gusts":29.9,"aqi":60,"pm10":14.3,"pm2_5":9.2,"mosquito_risk":0,"arthritis_risk":5,"migraine_risk":7,"frizz_risk":0,"updated_at":"2026-03-29T05:05:16.077187+05:30"},{"city":"Nanded","state":"Maharashtra","latitude":19.1383,"longitude":77.3091,"temp":23.7,"humidity":61,"rain":0.0,"pressure":967.1,"uv_index":8.7,"wind_gusts":19.4,"aqi":56,"pm10":17.6,"pm2_5":16.4,"mosquito_risk":3,"arthritis_risk":5,"migraine_risk":7,"frizz_risk":0,"updated_at":"2026-03-29T05:05:16.077195+05:30"},{"city":"Gulbarga","state":"Karnataka","latitude":17.3297,"longitude":76.8343,"temp":25.6,"humidity":49,"rain":0.0,"pressure":957.2,"uv_index":8.9,"wind_gusts":32.0,"aqi":79,"pm10":13.6,"pm2_5":12.9,"mosquito_risk":4,"arthritis_risk":5,"migraine_risk":7,"frizz_risk":0,"updated_at":"2026-03-29T05:05:16.077203+05:30"},{"city":"Bidar","state":"Karnataka","latitude":17.9104,"longitude":77.5199,"temp":25.1,"humidity":49,"rain":0.0,"pressure":933.8,"uv_index":8.9,"wind_gusts":30.2,"aqi":82,"pm10":36.7,"pm2_5":33.2,"mosquito_risk":4,"arthritis_risk":5,"migraine_risk":7,"frizz_risk":0,"updated_at":"2026-03-29T05:05:16.077211+05:30"},{"city":"Hospet","state":"Karnataka","latitude":15.2689,"longitude":76.3909,"temp":25.4,"humidity":83,"rain":0.0,"pressure":955.1,"uv_index":9.15,"wind_gusts":17.6,"aqi":110,"pm10":37.5,"pm2_5":34.6,"mosquito_risk":7,"arthritis_risk":5,"migraine_risk":7,"frizz_risk":1,"updated_at":"2026-03-29T05:05:16.077219+05:30"},{"city":"Tirupur","state":"Tamil Nadu","latitude":11.1085,"longitude":77.3411,"temp":25.6,"humidity":81,"rain":0.0,"pressure":974.3,"uv_index":9.4,"wind_gusts":41.8,"aqi":102,"pm10":46.4,"pm2_5":43.8,"mosquito_risk":7,"arthritis_risk":5,"migraine_risk":7,"frizz_risk":1,"updated_at":"2026-03-29T05:05:16.077227+05:30"},{"city":"Alappuzha","state":"Kerala","latitude":9.4981,"longitude":76.3388,"temp":27.9,"humidity":82,"rain":0.0,"pressure":1007.2,"uv_index":9.15,"wind_gusts":25.9,"aqi":88,"pm10":32.1,"pm2_5":28.7,"mosquito_risk":7,"arthritis_risk":5,"migraine_risk":4,"frizz_risk":1,"updated_at":"2026-03-29T05:05:16.077235+05:30"},{"city":"Munnar","state":"Kerala","latitude":10.0889,"longitude":77.0595,"temp":18.1,"humidity":90,"rain":0.0,"pressure":854.2,"uv_index":8.85,"wind_gusts":34.2,"aqi":82,"pm10":28.5,"pm2_5":26.8,"mosquito_risk":3,"arthritis_risk":10,"migraine_risk":7,"frizz_risk":1,"updated_at":"2026-03-29T05:05:16.077244+05:30"},{"city":"Silchar","state":"Assam","latitude":24.8333,"longitude":92.7789,"temp":19.4,"humidity":91,"rain":0.0,"pressure":1006.3,"uv_index":8.0,"wind_gusts":32.4,"aqi":150,"pm10":61.0,"pm2_5":52.3,"mosquito_risk":3,"arthritis_risk":10,"migraine_risk":4,"frizz_risk":1,"updated_at":"2026-03-29T05:05:16.077250+05:30"},{"city":"Dibrugarh","state":"Assam","latitude":27.4728,"longitude":94.912,"temp":19.4,"humidity":88,"rain":0.0,"pressure":997.3,"uv_index":6.55,"wind_gusts":14.0,"aqi":93,"pm10":28.5,"pm2_5":23.3,"mosquito_risk":3,"arthritis_risk":10,"migraine_risk":7,"frizz_risk":1,"updated_at":"2026-03-29T05:05:16.077257+05:30"}]