[{"city":"Delhi","state":"Delhi","latitude":28.6139,"longitude":77.209,"temp":21.6,"humidity":61,"rain":0.0,"pressure":987.3,"uv_index":5.75,"wind_gusts":37.4,"aqi":232,"pm10":610.9,"pm2_5":111.5,"mosquito_risk":3,"arthritis_risk":5,"migraine_risk":3,"frizz_risk":0,"updated_at":"2026-03-02T21:15:31.693866+05:30"},{"city":"Mumbai","state":"Maharashtra","latitude":19.076,"longitude":72.8777,"temp":26.7,"humidity":78,"rain":0.0,"pressure":1011.3,"uv_index":7.3,"wind_gusts":25.6,"aqi":104,"pm10":36.7,"pm2_5":26.3,"mosquito_risk":7,"arthritis_risk":0,"migraine_risk":4,"frizz_risk":1,"updated_at":"2026-03-02T21:15:31.693905+05:30"},{"city":"Bangalore","state":"Karnataka","latitude":12.9716,"longitude":77.5946,"temp":25.3,"humidity":46,"rain":0.0,"pressure":913.4,"uv_index":9.05,"wind_gusts":28.8,"aqi":132,"pm10":46.9,"pm2_5":46.4,"mosquito_risk":4,"arthritis_risk":5,"migraine_risk":7,"frizz_risk":0,"updated_at":"2026-03-02T21:15:31.693920+05:30"},{"city":"Hyderabad","state":"Telangana","latitude":17.385,"longitude":78.4867,"temp":26.2,"humidity":58,"rain":0.0,"pressure":955.8,"uv_index":8.3,"wind_gusts":14.8,"aqi":149,"pm10":51.0,"pm2_5":50.5,"mosquito_risk":4,"arthritis_risk":5,"migraine_risk":7,"frizz_risk":1,"updated_at":"2026-03-02T21:15:31.693930+05:30"},{"city":"Chennai","state":"Tamil Nadu","latitude":13.0827,"longitude":80.2707,"temp":25.8,"humidity":77,"rain":0.0,"pressure":1010.4,"uv_index":8.8,"wind_gusts":30.2,"aqi":127,"pm10":41.8,"pm2_5":38.0,"mosquito_risk":7,"arthritis_risk":0,"migraine_risk":4,"frizz_risk":1,"updated_at":"2026-03-02T21:15:31.693939+05:30"},{"city":"Kolkata","state":"West Bengal","latitude":22.5726,"longitude":88.3639,"temp":27.4,"humidity":56,"rain":0.0,"pressure":1008.6,"uv_index":7.65,"wind_gusts":16.6,"aqi":152,"pm10":133.2,"pm2_5":118.5,"mosquito_risk":4,"arthritis_risk":0,"migraine_risk":4,"frizz_risk":1,"updated_at":"2026-03-02T21:15:31.693947+05:30"},{"city":"Pune","state":"Maharashtra","latitude":18.5204,"longitude":73.8567,"temp":26.3,"humidity":63,"rain":0.0,"pressure":951.1,"uv_index":7.85,"wind_gusts":26.3,"aqi":145,"pm10":33.1,"pm2_5":32.0,"mosquito_risk":7,"arthritis_risk":5,"migraine_risk":7,"frizz_risk":1,"updated_at":"2026-03-02T21:15:31.693959+05:30"},{"city":"Ahmedabad","state":"Gujarat","latitude":23.0225,"longitude":72.5714,"temp":27.8,"humidity":44,"rain":0.0,"pressure":1005.5,"uv_index":7.1,"wind_gusts":15.5,"aqi":120,"pm10":49.1,"pm2_5":39.1,"mosquito_risk":4,"arthritis_risk":5,"migraine_risk":4,"frizz_risk":0,"updated_at":"2026-03-02T21:15:31.693967+05:30"},{"city":"Jaipur","state":"Rajasthan","latitude":26.9124,"longitude":75.7873,"temp":25.5,"humidity":32,"rain":0.0,"pressure":964.0,"uv_index":6.5,"wind_gusts":30.2,"aqi":99,"pm10":82.7,"pm2_5":36.8,"mosquito_risk":4,"arthritis_risk":5,"migraine_risk":7,"frizz_risk":0,"updated_at":"2026-03-02T21:15:31.693975+05:30"},{"city":"Lucknow","state":"Uttar Pradesh","latitude":26.8467,"longitude":80.9462,"temp":22.8,"humidity":54,"rain":0.0,"pressure":997.3,"uv_index":6.25,"wind_gusts":37.4,"aqi":149,"pm10":226.3,"pm2_5":66.4,"mosquito_risk":0,"arthritis_risk":5,"migraine_risk":7,"frizz_risk":0,"updated_at":"2026-03-02T21:15:31.693983+05:30"},{"city":"Kanpur","state":"Uttar Pradesh","latitude":26.4499,"longitude":80.3319,"temp":21.1,"humidity":72,"rain":0.0,"pressure":995.7,"uv_index":6.25,"wind_gusts":32.0,"aqi":152,"pm10":285.0,"pm2_5":63.6,"mosquito_risk":3,"arthritis_risk":5,"migraine_risk":7,"frizz_risk":0,"updated_at":"2026-03-02T21:15:31.693990+05:30"},{"city":"Chandigarh","state":"Chandigarh","latitude":30.7333,"longitude":76.7794,"temp":19.1,"humidity":61,"rain":0.0,"pressure":972.5,"uv_index":5.65,"wind_gusts":38.9,"aqi":106,"pm10":30.9,"pm2_5":28.2,"mosquito_risk":3,"arthritis_risk":5,"migraine_risk":3,"frizz_risk":0,"updated_at":"2026-03-02T21:15:31.693997+05:30"},{"city":"Srinagar","state":"Jammu and Kashmir","latitude":34.0837,"longitude":74.7973,"temp":7.4,"humidity":59,"rain":0.0,"pressure":840.9,"uv_index":6.55,"wind_gusts":18.4,"aqi":145,"pm10":86.4,"pm2_5":75.4,"mosquito_risk":0,"arthritis_risk":5,"migraine_risk":7,"frizz_risk":1,"updated_at":"2026-03-02T21:15:31.694005+05:30"},{"city":"Jammu","state":"Jammu and Kashmir","latitude":32.7266,"longitude":74.857,"temp":21.9,"humidity":56,"rain":0.0,"pressure":976.2,"uv_index":6.25,"wind_gusts":26.3,"aqi":102,"pm10":43.3,"pm2_5":37.3,"mosquito_risk":0,"arthritis_risk":5,"migraine_risk":7,"frizz_risk":0,"updated_at":"2026-03-02T21:15:31.694012+05:30"},{"city":"Amritsar","state":"Punjab","latitude":31.634,"longitude":74.8723,"temp":19.2,"humidity":64,"rain":0.0,"pressure":985.0,"uv_index":6.1,"wind_gusts":25.2,"aqi":141,"pm10":34.9,"pm2_5":28.9,"mosquito_risk":3,"arthritis_risk":5,"migraine_risk":7,"frizz_risk":0,"updated_at":"2026-03-02T21:15:31.694019+05:30"},{"city":"Ludhiana","state":"Punjab","latitude":30.901,"longitude":75.8573,"temp":21.2,"humidity":56,"rain":0.0,"pressure":983.1,"uv_index":5.85,"wind_gusts":32.4,"aqi":158,"pm10":61.9,"pm2_5":49.2,"mosquito_risk":0,"arthritis_risk":5,"migraine_risk":3,"frizz_risk":0,"updated_at":"2026-03-02T21:15:31.694025+05:30"},{"city":"Jalandhar","state":"Punjab","latitude":31.326,"longitude":75.5762,"temp":21.8,"humidity":55,"rain":0.0,"pressure":984.2,"uv_index":6.0,"wind_gusts":30.2,"aqi":159,"pm10":59.5,"pm2_5":44.2,"mosquito_risk":0,"arthritis_risk":5,"migraine_risk":3,"frizz_risk":0,"updated_at":"2026-03-02T21:15:31.694034+05:30"},{"city":"Dehradun","state":"Uttarakhand","latitude":30.6284,"longitude":78.0322,"temp":12.0,"humidity":71,"rain":0.0,"pressure":830.0,"uv_index":6.0,"wind_gusts":27.0,"aqi":93,"pm10":26.6,"pm2_5":21.7,"mosquito_risk":3,"arthritis_risk":5,"migraine_risk":3,"frizz_risk":0,"updated_at":"2026-03-02T21:15:31.694041+05:30"},{"city":"Shimla","state":"Himachal Pradesh","latitude":31.1048,"longitude":77.1734,"temp":9.4,"humidity":56,"rain":0.0,"pressure":784.0,"uv_index":6.0,"wind_gusts":56.5,"aqi":94,"pm10":29.3,"pm2_5":22.5,"mosquito_risk":0,"arthritis_risk":5,"migraine_risk":3,"frizz_risk":0,"updated_at":"2026-03-02T21:15:31.694049+05:30"},{"city":"Manali","state":"Himachal Pradesh","latitude":32.2396,"longitude":77.1887,"temp":13.7,"humidity":67,"rain":0.0,"pressure":820.2,"uv_index":7.7,"wind_gusts":36.7,"aqi":108,"pm10":19.3,"pm2_5":15.1,"mosquito_risk":3,"arthritis_risk":5,"migraine_risk":7,"frizz_risk":0,"updated_at":"2026-03-02T21:15:31.694056+05:30"},{"city":"Gurgaon","state":"Haryana","latitude":28.4595,"longitude":77.0266,"temp":19.0,"humidity":72,"rain":0.0,"pressure":985.6,"uv_index":5.85,"wind_gusts":35.3,"aqi":879,"pm10":1169.7,"pm2_5":163.0,"mosquito_risk":3,"arthritis_risk":5,"migraine_risk":3,"frizz_risk":0,"updated_at":"2026-03-02T21:15:31.694063+05:30"},{"city":"Noida","state":"Uttar Pradesh","latitude":28.5355,"longitude":77.391,"temp":21.8,"humidity":61,"rain":0.0,"pressure":988.8,"uv_index":5.75,"wind_gusts":37.1,"aqi":879,"pm10":1169.7,"pm2_5":163.0,"mosquito_risk":3,"arthritis_risk":5,"migraine_risk":3,"frizz_risk":0,"updated_at":"2026-03-02T21:15:31.694070+05:30"},{"city":"Ghaziabad","state":"Uttar Pradesh","latitude":28.6692,"longitude":77.4538,"temp":21.5,"humidity":61,"rain":0.0,"pressure":986.8,"uv_index":5.75,"wind_gusts":36.0,"aqi":187,"pm10":555.1,"pm2_5":101.0,"mosquito_risk":3,"arthritis_risk":5,"migraine_risk":3,"frizz_risk":0,"updated_at":"2026-03-02T21:15:31.694077+05:30"},{"city":"Faridabad","state":"Haryana","latitude":28.4089,"longitude":77.3178,"temp":21.4,"humidity":58,"rain":0.0,"pressure":988.0,"uv_index":5.8,"wind_gusts":33.1,"aqi":879,"pm10":1169.7,"pm2_5":163.0,"mosquito_risk":0,"arthritis_risk":5,"migraine_risk":3,"frizz_risk":0,"updated_at":"2026-03-02T21:15:31.694084+05:30"},{"city":"Meerut","state":"Uttar Pradesh","latitude":28.9845,"longitude":77.7064,"temp":19.2,"humidity":65,"rain":0.0,"pressure":985.2,"uv_index":5.6,"wind_gusts":38.9,"aqi":187,"pm10":555.1,"pm2_5":101.0,"mosquito_risk":3,"arthritis_risk":5,"migraine_risk":3,"frizz_risk":0,"updated_at":"2026-03-02T21:15:31.694090+05:30"},{"city":"Agra","state":"Uttar Pradesh","latitude":27.1767,"longitude":78.0081,"temp":22.0,"humidity":63,"rain":0.0,"pressure":991.9,"uv_index":6.1,"wind_gusts":35.3,"aqi":356,"pm10":609.1,"pm2_5":99.7,"mosquito_risk":3,"arthritis_risk":5,"migraine_risk":7,"frizz_risk":0,"updated_at":"2026-03-02T21:15:31.694097+05:30"},{"city":"Varanasi","state":"Uttar Pradesh","latitude":25.3176,"longitude":82.9739,"temp":21.1,"humidity":60,"rain":0.0,"pressure":1001.4,"uv_index":6.9,"wind_gusts":31.7,"aqi":96,"pm10":52.7,"pm2_5":35.4,"mosquito_risk":0,"arthritis_risk":5,"migraine_risk":4,"frizz_risk":0,"updated_at":"2026-03-02T21:15:31.694106+05:30"},{"city":"Prayagraj","state":"Uttar Pradesh","latitude":25.4358,"longitude":81.8463,"temp":23.7,"humidity":51,"rain":0.0,"pressure":1000.1,"uv_index":6.75,"wind_gusts":29.9,"aqi":100,"pm10":62.4,"pm2_5":38.0,"mosquito_risk":0,"arthritis_risk":5,"migraine_risk":4,"frizz_risk":0,"updated_at":"2026-03-02T21:15:31.694115+05:30"},{"city":"Gorakhpur","state":"Uttar Pradesh","latitude":26.7606,"longitude":83.3732,"temp":19.7,"humidity":55,"rain":0.0,"pressure":1000.4,"uv_index":6.6,"wind_gusts":25.2,"aqi":126,"pm10":55.3,"pm2_5":46.9,"mosquito_risk":0,"arthritis_risk":5,"migraine_risk":4,"frizz_risk":0,"updated_at":"2026-03-02T21:15:31.694121+05:30"},{"city":"Bareilly","state":"Uttar Pradesh","latitude":28.367,"longitude":79.4304,"temp":19.2,"humidity":65,"rain":0.0,"pressure":990.2,"uv_index":5.9,"wind_gusts":31.3,"aqi":132,"pm10":114.1,"pm2_5":42.7,"mosquito_risk":3,"arthritis_risk":5,"migraine_risk":3,"frizz_risk":0,"updated_at":"2026-03-02T21:15:31.694128+05:30"},{"city":"Aligarh","state":"Uttar Pradesh","latitude":27.8974,"longitude":78.088,"temp":20.1,"humidity":68,"rain":0.0,"pressure":989.6,"uv_index":5.85,"wind_gusts":34.2,"aqi":527,"pm10":886.6,"pm2_5":145.3,"mosquito_risk":3,"arthritis_risk":5,"migraine_risk":3,"frizz_risk":0,"updated_at":"2026-03-02T21:15:31.694134+05:30"},{"city":"Moradabad","state":"Uttar Pradesh","latitude":28.8386,"longitude":78.7733,"temp":18.9,"humidity":61,"rain":0.0,"pressure":987.1,"uv_index":5.75,"wind_gusts":35.6,"aqi":141,"pm10":147.6,"pm2_5":46.9,"mosquito_risk":3,"arthritis_risk":5,"migraine_risk":3,"frizz_risk":0,"updated_at":"2026-03-02T21:15:31.694140+05:30"},{"city":"Saharanpur","state":"Uttar Pradesh","latitude":29.9637,"longitude":77.546,"temp":18.8,"humidity":62,"rain":0.0,"pressure":978.8,"uv_index":5.4,"wind_gusts":52.9,"aqi":114,"pm10":79.4,"pm2_5":36.6,"mosquito_risk":3,"arthritis_risk":5,"migraine_risk":3,"frizz_risk":0,"updated_at":"2026-03-02T21:15:31.694146+05:30"},{"city":"Jhansi","state":"Uttar Pradesh","latitude":25.4484,"longitude":78.5685,"temp":23.2,"humidity":55,"rain":0.0,"pressure":982.0,"uv_index":6.7,"wind_gusts":29.2,"aqi":76,"pm10":46.2,"pm2_5":28.2,"mosquito_risk":0,"arthritis_risk":5,"migraine_risk":7,"frizz_risk":0,"updated_at":"2026-03-02T21:15:35.044425+05:30"},{"city":"Surat","state":"Gujarat","latitude":21.1702,"longitude":72.8311,"temp":25.2,"humidity":72,"rain":0.0,"pressure":1009.8,"uv_index":7.0,"wind_gusts":23.0,"aqi":151,"pm10":94.3,"pm2_5":86.6,"mosquito_risk":7,"arthritis_risk":0,"migraine_risk":4,"frizz_risk":1,"updated_at":"2026-03-02T21:15:35.044458+05:30"},{"city":"Vadodara","state":"Gujarat","latitude":22.3072,"longitude":73.1812,"temp":27.6,"humidity":43,"rain":0.0,"pressure":1007.6,"uv_index":7.1,"wind_gusts":13.0,"aqi":150,"pm10":63.3,"pm2_5":56.3,"mosquito_risk":4,"arthritis_risk":5,"migraine_risk":4,"frizz_risk":0,"updated_at":"2026-03-02T21:15:35.044467+05:30"},{"city":"Rajkot","state":"Gujarat","latitude":22.3039,"longitude":70.8022,"temp":27.4,"humidity":45,"rain":0.0,"pressure":997.9,"uv_index":6.9,"wind_gusts":21.2,"aqi":82,"pm10":32.9,"pm2_5":22.8,"mosquito_risk":4,"arthritis_risk":5,"migraine_risk":7,"frizz_risk":0,"updated_at":"2026-03-02T21:15:35.044475+05:30"},{"city":"Thane","state":"Maharashtra","latitude":19.2183,"longitude":72.9781,"temp":25.4,"humidity":79,"rain":0.0,"pressure":1010.7,"uv_index":7.3,"wind_gusts":35.6,"aqi":104,"pm10":36.7,"pm2_5":26.3,"mosquito_risk":7,"arthritis_risk":0,"migraine_risk":4,"frizz_risk":1,"updated_at":"2026-03-02T21:15:35.044483+05:30"},{"city":"Nagpur","state":"Maharashtra","latitude":21.1458,"longitude":79.0882,"temp":26.4,"humidity":51,"rain":0.0,"pressure":976.4,"uv_index":7.7,"wind_gusts":20.9,"aqi":93,"pm10":41.0,"pm2_5":38.0,"mosquito_risk":4,"arthritis_risk":5,"migraine_risk":7,"frizz_risk":0,"updated_at":"2026-03-02T21:15:35.044491+05:30"},{"city":"Nashik","state":"Maharashtra","latitude":19.9975,"longitude":73.7898,"temp":25.4,"humidity":56,"rain":0.0,"pressure":948.7,"uv_index":7.5,"wind_gusts":28.1,"aqi":120,"pm10":27.1,"pm2_5":24.3,"mosquito_risk":4,"arthritis_risk":5,"migraine_risk":7,"frizz_risk":0,"updated_at":"2026-03-02T21:15:35.044498+05:30"},{"city":"Aurangabad","state":"Maharashtra","latitude":19.8762,"longitude":75.3433,"temp":27.6,"humidity":45,"rain":0.0,"pressure":947.0,"uv_index":8.0,"wind_gusts":21.2,"aqi":133,"pm10":30.6,"pm2_5":29.9,"mosquito_risk":4,"arthritis_risk":5,"migraine_risk":7,"frizz_risk":0,"updated_at":"2026-03-02T21:15:35.044505+05:30"},{"city":"Solapur","state":"Maharashtra","latitude":17.6599,"longitude":75.9064,"temp":27.9,"humidity":56,"rain":0.0,"pressure":959.1,"uv_index":8.25,"wind_gusts":14.0,"aqi":169,"pm10":61.0,"pm2_5":60.5,"mosquito_risk":4,"arthritis_risk":5,"migraine_risk":7,"frizz_risk":1,"updated_at":"2026-03-02T21:15:35.044513+05:30"},{"city":"Kolhapur","state":"Maharashtra","latitude":16.705,"longitude":74.2433,"temp":23.8,"humidity":66,"rain":0.0,"pressure":950.2,"uv_index":8.35,"wind_gusts":37.4,"aqi":133,"pm10":55.6,"pm2_5":55.1,"mosquito_risk":3,"arthritis_risk":5,"migraine_risk":7,"frizz_risk":1,"updated_at":"2026-03-02T21:15:35.044520+05:30"},{"city":"Goa","state":"Goa","latitude":15.2993,"longitude":74.124,"temp":27.1,"humidity":76,"rain":0.0,"pressure":1000.5,"uv_index":8.4,"wind_gusts":29.9,"aqi":72,"pm10":34.5,"pm2_5":23.7,"mosquito_risk":7,"arthritis_risk":5,"migraine_risk":4,"frizz_risk":1,"updated_at":"2026-03-02T21:15:35.044527+05:30"},{"city":"Jodhpur","state":"Rajasthan","latitude":26.2389,"longitude":73.0243,"temp":26.9,"humidity":45,"rain":0.0,"pressure":987.3,"uv_index":6.75,"wind_gusts":12.6,"aqi":88,"pm10":79.6,"pm2_5":32.8,"mosquito_risk":4,"arthritis_risk":5,"migraine_risk":7,"frizz_risk":0,"updated_at":"2026-03-02T21:15:35.044534+05:30"},{"city":"Udaipur","state":"Rajasthan","latitude":24.5854,"longitude":73.7125,"temp":25.8,"humidity":47,"rain":0.0,"pressure":950.9,"uv_index":7.4,"wind_gusts":15.5,"aqi":100,"pm10":36.3,"pm2_5":26.8,"mosquito_risk":4,"arthritis_risk":5,"migraine_risk":7,"frizz_risk":0,"updated_at":"2026-03-02T21:15:35.044541+05:30"},{"city":"Kota","state":"Rajasthan","latitude":25.2138,"longitude":75.8648,"temp":26.8,"humidity":44,"rain":0.0,"pressure":982.7,"uv_index":6.8,"wind_gusts":17.6,"aqi":89,"pm10":50.6,"pm2_5":33.9,"mosquito_risk":4,"arthritis_risk":5,"migraine_risk":7,"frizz_risk":0,"updated_at":"2026-03-02T21:15:35.044548+05:30"},{"city":"Bikaner","state":"Rajasthan","latitude":28.0229,"longitude":73.3119,"temp":26.1,"humidity":44,"rain":0.0,"pressure":986.6,"uv_index":6.5,"wind_gusts":20.2,"aqi":71,"pm10":47.0,"pm2_5":25.3,"mosquito_risk":4,"arthritis_risk":5,"migraine_risk":7,"frizz_risk":0,"updated_at":"2026-03-02T21:15:35.044555+05:30"},{"city":"Ajmer","state":"Rajasthan","latitude":26.4499,"longitude":74.6399,"temp":23.1,"humidity":45,"rain":0.0,"pressure":958.4,"uv_index":6.75,"wind_gusts":22.0,"aqi":83,"pm10":62.4,"pm2_5":28.2,"mosquito_risk":0,"arthritis_risk":5,"migraine_risk":7,"frizz_risk":0,"updated_at":"2026-03-02T21:15:35.044562+05:30"},{"city":"Gwalior","state":"Madhya Pradesh","latitude":26.2183,"longitude":78.1828,"temp":23.9,"humidity":61,"rain":0.0,"pressure":987.3,"uv_index":6.4,"wind_gusts":31.0,"aqi":93,"pm10":99.0,"pm2_5":39.2,"mosquito_risk":3,"arthritis_risk":5,"migraine_risk":7,"frizz_risk":0,"updated_at":"2026-03-02T21:15:35.044569+05:30"},{"city":"Indore","state":"Madhya Pradesh","latitude":22.7196,"longitude":75.8577,"temp":23.0,"humidity":53,"rain":0.0,"pressure":951.1,"uv_index":7.4,"wind_gusts":14.4,"aqi":92,"pm10":37.5,"pm2_5":31.5,"mosquito_risk":0,"arthritis_risk":5,"migraine_risk":7,"frizz_risk":0,"updated_at":"2026-03-02T21:15:35.044575+05:30"},{"city":"Bhopal","state":"Madhya Pradesh","latitude":23.2599,"longitude":77.4126,"temp":25.0,"humidity":48,"rain":0.0,"pressure":957.4,"uv_index":7.25,"wind_gusts":20.5,"aqi":91,"pm10":31.1,"pm2_5":23.2,"mosquito_risk":4,"arthritis_risk":5,"migraine_risk":7,"frizz_risk":0,"updated_at":"2026-03-02T21:15:35.044582+05:30"},{"city":"Jabalpur","state":"Madhya Pradesh","latitude":23.1815,"longitude":79.9864,"temp":25.0,"humidity":39,"rain":0.0,"pressure":965.3,"uv_index":7.35,"wind_gusts":20.9,"aqi":72,"pm10":36.1,"pm2_5":25.1,"mosquito_risk":4,"arthritis_risk":5,"migraine_risk":7,"frizz_risk":0,"updated_at":"2026-03-02T21:15:35.044589+05:30"},{"city":"Ujjain","state":"Madhya Pradesh","latitude":23.1765,"longitude":75.7885,"temp":25.0,"humidity":50,"rain":0.0,"pressure":957.2,"uv_index":7.25,"wind_gusts":11.5,"aqi":116,"pm10":40.0,"pm2_5":33.9,"mosquito_risk":4,"arthritis_risk":5,"migraine_risk":7,"frizz_risk":0,"updated_at":"2026-03-02T21:15:35.044595+05:30"},{"city":"Visakhapatnam","state":"Andhra Pradesh","latitude":17.6868,"longitude":83.2185,"temp":26.3,"humidity":73,"rain":0.0,"pressure":1006.8,"uv_index":8.35,"wind_gusts":37.8,"aqi":146,"pm10":42.0,"pm2_5":38.5,"mosquito_risk":7,"arthritis_risk":5,"migraine_risk":4,"frizz_risk":1,"updated_at":"2026-03-02T21:15:35.044602+05:30"},{"city":"Vijayawada","state":"Andhra Pradesh","latitude":16.5062,"longitude":80.648,"temp":26.2,"humidity":66,"rain":0.0,"pressure":1005.8,"uv_index":8.4,"wind_gusts":24.1,"aqi":145,"pm10":44.0,"pm2_5":42.6,"mosquito_risk":7,"arthritis_risk":5,"migraine_risk":4,"frizz_risk":1,"updated_at":"2026-03-02T21:15:35.044609+05:30"},{"city":"Guntur","state":"Andhra Pradesh","latitude":16.3067,"longitude":80.4365,"temp":26.0,"humidity":72,"rain":0.0,"pressure":1007.0,"uv_index":8.4,"wind_gusts":30.2,"aqi":137,"pm10":45.9,"pm2_5":44.7,"mosquito_risk":7,"arthritis_risk":5,"migraine_risk":4,"frizz_risk":1,"updated_at":"2026-03-02T21:15:35.044616+05:30"},{"city":"Nellore","state":"Andhra Pradesh","latitude":14.4426,"longitude":79.9865,"temp":25.3,"humidity":79,"rain":0.0,"pressure":1009.2,"uv_index":8.65,"wind_gusts":29.5,"aqi":126,"pm10":39.5,"pm2_5":36.7,"mosquito_risk":7,"arthritis_risk":0,"migraine_risk":4,"frizz_risk":1,"updated_at":"2026-03-02T21:15:35.044623+05:30"},{"city":"Kurnool","state":"Andhra Pradesh","latitude":15.8281,"longitude":78.0373,"temp":30.3,"humidity":45,"rain":0.0,"pressure":978.8,"uv_index":8.45,"wind_gusts":26.3,"aqi":126,"pm10":48.4,"pm2_5":48.0,"mosquito_risk":0,"arthritis_risk":5,"migraine_risk":7,"frizz_risk":1,"updated_at":"2026-03-02T21:15:35.044631+05:30"},{"city":"Kakinada","state":"Andhra Pradesh","latitude":16.9891,"longitude":82.2475,"temp":25.5,"humidity":76,"rain":0.0,"pressure":1010.7,"uv_index":8.35,"wind_gusts":29.2,"aqi":137,"pm10":40.9,"pm2_5":37.5,"mosquito_risk":7,"arthritis_risk":0,"migraine_risk":4,"frizz_risk":1,"updated_at":"2026-03-02T21:15:35.044638+05:30"},{"city":"Tirupati","state":"Andhra Pradesh","latitude":13.6288,"longitude":79.4192,"temp":25.8,"humidity":57,"rain":0.0,"pressure":994.8,"uv_index":8.75,"wind_gusts":32.4,"aqi":144,"pm10":55.2,"pm2_5":53.7,"mosquito_risk":4,"arthritis_risk":5,"migraine_risk":7,"frizz_risk":1,"updated_at":"2026-03-02T21:15:35.044644+05:30"},{"city":"Warangal","state":"Telangana","latitude":17.9689,"longitude":79.5941,"temp":29.4,"humidity":48,"rain":0.0,"pressure":981.5,"uv_index":8.15,"wind_gusts":17.3,"aqi":136,"pm10":53.4,"pm2_5":52.9,"mosquito_risk":4,"arthritis_risk":5,"migraine_risk":7,"frizz_risk":1,"updated_at":"2026-03-02T21:15:35.044651+05:30"},{"city":"Nizamabad","state":"Telangana","latitude":18.6725,"longitude":78.0941,"temp":26.6,"humidity":50,"rain":0.0,"pressure":967.5,"uv_index":8.05,"wind_gusts":25.6,"aqi":119,"pm10":45.6,"pm2_5":44.7,"mosquito_risk":4,"arthritis_risk":5,"migraine_risk":7,"frizz_risk":0,"updated_at":"2026-03-02T21:15:35.044657+05:30"},{"city":"Mysore","state":"Karnataka","latitude":12.2958,"longitude":76.6396,"temp":26.2,"humidity":51,"rain":0.0,"pressure":929.4,"uv_index":9.1,"wind_gusts":25.6,"aqi":150,"pm10":63.1,"pm2_5":61.9,"mosquito_risk":4,"arthritis_risk":5,"migraine_risk":7,"frizz_risk":0,"updated_at":"2026-03-02T21:15:35.044664+05:30"},{"city":"Mangalore","state":"Karnataka","latitude":12.9141,"longitude":74.856,"temp":28.8,"humidity":76,"rain":0.0,"pressure":1008.9,"uv_index":8.65,"wind_gusts":27.4,"aqi":58,"pm10":20.0,"pm2_5":14.6,"mosquito_risk":7,"arthritis_risk":0,"migraine_risk":4,"frizz_risk":1,"updated_at":"2026-03-02T21:15:35.044671+05:30"},{"city":"Hubli-Dharwad","state":"Karnataka","latitude":15.3647,"longitude":75.124,"temp":24.5,"humidity":72,"rain":0.0,"pressure":942.6,"uv_index":8.6,"wind_gusts":27.0,"aqi":148,"pm10":48.3,"pm2_5":47.6,"mosquito_risk":3,"arthritis_risk":5,"migraine_risk":7,"frizz_risk":1,"updated_at":"2026-03-02T21:15:35.044677+05:30"},{"city":"Belgaum","state":"Karnataka","latitude":15.8497,"longitude":74.4977,"temp":22.5,"humidity":78,"rain":0.0,"pressure":927.6,"uv_index":8.65,"wind_gusts":38.2,"aqi":153,"pm10":30.9,"pm2_5":28.5,"mosquito_risk":3,"arthritis_risk":5,"migraine_risk":7,"frizz_risk":1,"updated_at":"2026-03-02T21:15:38.391786+05:30"},{"city":"Coimbatore","state":"Tamil Nadu","latitude":11.0168,"longitude":76.9558,"temp":25.7,"humidity":77,"rain":0.0,"pressure":963.4,"uv_index":9.1,"wind_gusts":29.5,"aqi":145,"pm10":56.3,"pm2_5":55.3,"mosquito_risk":7,"arthritis_risk":5,"migraine_risk":7,"frizz_risk":1,"updated_at":"2026-03-02T21:15:38.391816+05:30"},{"city":"Madurai","state":"Tamil Nadu","latitude":9.9252,"longitude":78.1198,"temp":26.9,"humidity":65,"rain":0.0,"pressure":995.3,"uv_index":9.05,"wind_gusts":32.8,"aqi":122,"pm10":42.6,"pm2_5":41.7,"mosquito_risk":7,"arthritis_risk":5,"migraine_risk":7,"frizz_risk":1,"updated_at":"2026-03-02T21:15:38.391826+05:30"},{"city":"Trichy","state":"Tamil Nadu","latitude":10.7905,"longitude":78.7047,"temp":26.3,"humidity":70,"rain":0.0,"pressure":1002.0,"uv_index":8.95,"wind_gusts":32.0,"aqi":142,"pm10":47.0,"pm2_5":45.8,"mosquito_risk":7,"arthritis_risk":5,"migraine_risk":4,"frizz_risk":1,"updated_at":"2026-03-02T21:15:38.391833+05:30"},{"city":"Salem","state":"Tamil Nadu","latitude":11.6643,"longitude":78.146,"temp":28.6,"humidity":53,"rain":0.0,"pressure":978.7,"uv_index":9.0,"wind_gusts":31.0,"aqi":142,"pm10":53.0,"pm2_5":52.2,"mosquito_risk":4,"arthritis_risk":5,"migraine_risk":7,"frizz_risk":1,"updated_at":"2026-03-02T21:15:38.391841+05:30"},{"city":"Tirunelveli","state":"Tamil Nadu","latitude":8.7139,"longitude":77.7567,"temp":26.5,"humidity":75,"rain":0.0,"pressure":1005.6,"uv_index":9.05,"wind_gusts":38.2,"aqi":134,"pm10":38.9,"pm2_5":37.8,"mosquito_risk":7,"arthritis_risk":5,"migraine_risk":4,"frizz_risk":1,"updated_at":"2026-03-02T21:15:38.391848+05:30"},{"city":"Vellore","state":"Tamil Nadu","latitude":12.9165,"longitude":79.1325,"temp":26.2,"humidity":60,"rain":0.0,"pressure":987.5,"uv_index":8.85,"wind_gusts":36.7,"aqi":147,"pm10":49.9,"pm2_5":48.4,"mosquito_risk":4,"arthritis_risk":5,"migraine_risk":7,"frizz_risk":1,"updated_at":"2026-03-02T21:15:38.391855+05:30"},{"city":"Erode","state":"Tamil Nadu","latitude":11.341,"longitude":77.7172,"temp":29.3,"humidity":50,"rain":0.0,"pressure":990.4,"uv_index":9.0,"wind_gusts":23.0,"aqi":135,"pm10":50.2,"pm2_5":49.4,"mosquito_risk":4,"arthritis_risk":5,"migraine_risk":7,"frizz_risk":1,"updated_at":"2026-03-02T21:15:38.391863+05:30"},{"city":"Kochi","state":"Kerala","latitude":9.9312,"longitude":76.2673,"temp":28.5,"humidity":79,"rain":0.0,"pressure":1010.2,"uv_index":8.9,"wind_gusts":35.6,"aqi":120,"pm10":46.1,"pm2_5":44.4,"mosquito_risk":7,"arthritis_risk":0,"migraine_risk":4,"frizz_risk":1,"updated_at":"2026-03-02T21:15:38.391870+05:30"},{"city":"Thiruvananthapuram","state":"Kerala","latitude":8.5241,"longitude":76.9366,"temp":27.7,"humidity":80,"rain":0.0,"pressure":1009.9,"uv_index":8.85,"wind_gusts":27.7,"aqi":126,"pm10":32.9,"pm2_5":29.9,"mosquito_risk":7,"arthritis_risk":0,"migraine_risk":4,"frizz_risk":1,"updated_at":"2026-03-02T21:15:38.391877+05:30"},{"city":"Kozhikode","state":"Kerala","latitude":11.2588,"longitude":75.7804,"temp":28.7,"humidity":78,"rain":0.0,"pressure":1009.3,"uv_index":8.75,"wind_gusts":31.7,"aqi":58,"pm10":21.1,"pm2_5":16.2,"mosquito_risk":7,"arthritis_risk":0,"migraine_risk":4,"frizz_risk":1,"updated_at":"2026-03-02T21:15:38.391883+05:30"},{"city":"Thrissur","state":"Kerala","latitude":10.5276,"longitude":76.2144,"temp":27.0,"humidity":85,"rain":0.0,"pressure":1008.5,"uv_index":8.85,"wind_gusts":38.5,"aqi":100,"pm10":27.1,"pm2_5":25.5,"mosquito_risk":7,"arthritis_risk":0,"migraine_risk":4,"frizz_risk":1,"updated_at":"2026-03-02T21:15:38.391890+05:30"},{"city":"Kannur","state":"Kerala","latitude":11.8745,"longitude":75.3704,"temp":28.3,"humidity":75,"rain":0.0,"pressure":1009.0,"uv_index":8.75,"wind_gusts":34.9,"aqi":63,"pm10":20.7,"pm2_5":16.6,"mosquito_risk":7,"arthritis_risk":0,"migraine_risk":4,"frizz_risk":1,"updated_at":"2026-03-02T21:15:38.391898+05:30"},{"city":"Patna","state":"Bihar","latitude":25.5941,"longitude":85.1376,"temp":22.3,"humidity":49,"rain":0.0,"pressure":1003.9,"uv_index":7.05,"wind_gusts":28.8,"aqi":125,"pm10":66.1,"pm2_5":46.3,"mosquito_risk":0,"arthritis_risk":5,"migraine_risk":4,"frizz_risk":0,"updated_at":"2026-03-02T21:15:38.391905+05:30"},{"city":"Gaya","state":"Bihar","latitude":24.7914,"longitude":85.0002,"temp":19.5,"humidity":56,"rain":0.0,"pressure":997.8,"uv_index":7.15,"wind_gusts":23.8,"aqi":119,"pm10":56.3,"pm2_5":35.3,"mosquito_risk":0,"arthritis_risk":5,"migraine_risk":7,"frizz_risk":0,"updated_at":"2026-03-02T21:15:38.391911+05:30"},{"city":"Muzaffarpur","state":"Bihar","latitude":26.1209,"longitude":85.3647,"temp":21.1,"humidity":49,"rain":0.0,"pressure":1003.7,"uv_index":7.0,"wind_gusts":27.0,"aqi":119,"pm10":64.5,"pm2_5":48.1,"mosquito_risk":0,"arthritis_risk":5,"migraine_risk":4,"frizz_risk":0,"updated_at":"2026-03-02T21:15:38.391918+05:30"},{"city":"Bhagalpur","state":"Bihar","latitude":25.2425,"longitude":87.0117,"temp":21.7,"humidity":55,"rain":0.0,"pressure":1004.7,"uv_index":7.1,"wind_gusts":19.4,"aqi":136,"pm10":111.1,"pm2_5":57.5,"mosquito_risk":0,"arthritis_risk":5,"migraine_risk":4,"frizz_risk":0,"updated_at":"2026-03-02T21:15:38.391925+05:30"},{"city":"Ranchi","state":"Jharkhand","latitude":23.3441,"longitude":85.3096,"temp":20.2,"humidity":35,"rain":0.0,"pressure":941.2,"uv_index":7.8,"wind_gusts":40.3,"aqi":94,"pm10":38.6,"pm2_5":21.7,"mosquito_risk":0,"arthritis_risk":5,"migraine_risk":7,"frizz_risk":0,"updated_at":"2026-03-02T21:15:38.391931+05:30"},{"city":"Jamshedpur","state":"Jharkhand","latitude":22.8046,"longitude":86.2029,"temp":25.2,"humidity":36,"rain":0.0,"pressure":994.1,"uv_index":7.75,"wind_gusts":18.7,"aqi":130,"pm10":51.8,"pm2_5":30.7,"mosquito_risk":4,"arthritis_risk":5,"migraine_risk":7,"frizz_risk":0,"updated_at":"2026-03-02T21:15:38.391937+05:30"},{"city":"Dhanbad","state":"Jharkhand","latitude":23.7957,"longitude":86.4304,"temp":24.7,"humidity":28,"rain":0.0,"pressure":983.5,"uv_index":7.6,"wind_gusts":33.8,"aqi":122,"pm10":63.8,"pm2_5":38.9,"mosquito_risk":0,"arthritis_risk":5,"migraine_risk":7,"frizz_risk":0,"updated_at":"2026-03-02T21:15:38.391944+05:30"},{"city":"Bokaro","state":"Jharkhand","latitude":23.6693,"longitude":86.1511,"temp":22.6,"humidity":35,"rain":0.0,"pressure":987.8,"uv_index":7.6,"wind_gusts":37.1,"aqi":126,"pm10":63.6,"pm2_5":39.3,"mosquito_risk":0,"arthritis_risk":5,"migraine_risk":7,"frizz_risk":0,"updated_at":"2026-03-02T21:15:38.391950+05:30"},{"city":"Bhubaneswar","state":"Odisha","latitude":20.2961,"longitude":85.8245,"temp":26.3,"humidity":77,"rain":0.0,"pressure":1005.2,"uv_index":8.05,"wind_gusts":25.2,"aqi":161,"pm10":70.3,"pm2_5":64.5,"mosquito_risk":7,"arthritis_risk":5,"migraine_risk":4,"frizz_risk":1,"updated_at":"2026-03-02T21:15:38.391956+05:30"},{"city":"Cuttack","state":"Odisha","latitude":20.4625,"longitude":85.8828,"temp":27.5,"humidity":65,"rain":0.0,"pressure":1007.2,"uv_index":8.1,"wind_gusts":21.2,"aqi":161,"pm10":70.3,"pm2_5":64.5,"mosquito_risk":7,"arthritis_risk":5,"migraine_risk":4,"frizz_risk":1,"updated_at":"2026-03-02T21:15:38.391963+05:30"},{"city":"Rourkela","state":"Odisha","latitude":22.2604,"longitude":84.8536,"temp":24.3,"humidity":44,"rain":0.0,"pressure":988.4,"uv_index":7.65,"wind_gusts":24.8,"aqi":109,"pm10":54.2,"pm2_5":40.5,"mosquito_risk":0,"arthritis_risk":5,"migraine_risk":7,"frizz_risk":0,"updated_at":"2026-03-02T21:15:38.391969+05:30"},{"city":"Raipur","state":"Chhattisgarh","latitude":21.2514,"longitude":81.6296,"temp":26.9,"humidity":44,"rain":0.0,"pressure":977.5,"uv_index":7.75,"wind_gusts":24.1,"aqi":94,"pm10":65.2,"pm2_5":54.8,"mosquito_risk":4,"arthritis_risk":5,"migraine_risk":7,"frizz_risk":0,"updated_at":"2026-03-02T21:15:38.391975+05:30"},{"city":"Bhilai","state":"Chhattisgarh","latitude":21.1938,"longitude":81.3509,"temp":27.5,"humidity":49,"rain":0.0,"pressure":978.0,"uv_index":7.8,"wind_gusts":22.7,"aqi":87,"pm10":59.6,"pm2_5":50.9,"mosquito_risk":4,"arthritis_risk":5,"migraine_risk":7,"frizz_risk":0,"updated_at":"2026-03-02T21:15:38.391982+05:30"},{"city":"Guwahati","state":"Assam","latitude":26.1158,"longitude":91.7086,"temp":22.8,"humidity":78,"rain":0.0,"pressure":1005.6,"uv_index":7.0,"wind_gusts":28.4,"aqi":152,"pm10":75.7,"pm2_5":61.7,"mosquito_risk":3,"arthritis_risk":5,"migraine_risk":4,"frizz_risk":1,"updated_at":"2026-03-02T21:15:38.391988+05:30"},{"city":"Agartala","state":"Tripura","latitude":23.8315,"longitude":91.2868,"temp":23.0,"humidity":86,"rain":0.0,"pressure":1009.5,"uv_index":7.3,"wind_gusts":18.0,"aqi":144,"pm10":126.7,"pm2_5":108.3,"mosquito_risk":3,"arthritis_risk":0,"migraine_risk":4,"frizz_risk":1,"updated_at":"2026-03-02T21:15:38.391995+05:30"},{"city":"Shillong","state":"Meghalaya","latitude":25.5788,"longitude":91.8933,"temp":10.1,"humidity":90,"rain":0.0,"pressure":856.2,"uv_index":7.35,"wind_gusts":66.2,"aqi":113,"pm10":58.0,"pm2_5":47.4,"mosquito_risk":3,"arthritis_risk":10,"migraine_risk":7,"frizz_risk":0,"updated_at":"2026-03-02T21:15:38.392002+05:30"},{"city":"Imphal","state":"Manipur","latitude":24.817,"longitude":93.9368,"temp":14.1,"humidity":74,"rain":0.0,"pressure":925.0,"uv_index":7.6,"wind_gusts":72.4,"aqi":151,"pm10":95.2,"pm2_5":78.2,"mosquito_risk":3,"arthritis_risk":5,"migraine_risk":7,"frizz_risk":0,"updated_at":"2026-03-02T21:15:38.392009+05:30"},{"city":"Aizawl","state":"Mizoram","latitude":23.7271,"longitude":92.7176,"temp":17.5,"humidity":79,"rain":0.0,"pressure":894.3,"uv_index":7.6,"wind_gusts":42.8,"aqi":145,"pm10":83.8,"pm2_5":78.5,"mosquito_risk":3,"arthritis_risk":5,"migraine_risk":7,"frizz_risk":0,"updated_at":"2026-03-02T21:15:38.392017+05:30"},{"city":"Kohima","state":"Nagaland","latitude":25.6701,"longitude":94.1077,"temp":12.8,"humidity":77,"rain":0.0,"pressure":856.0,"uv_index":7.45,"wind_gusts":82.8,"aqi":146,"pm10":83.8,"pm2_5":71.2,"mosquito_risk":3,"arthritis_risk":5,"migraine_risk":7,"frizz_risk":0,"updated_at":"2026-03-02T21:15:38.392023+05:30"},{"city":"Gangtok","state":"Sikkim","latitude":27.3314,"longitude":88.6138,"temp":11.7,"humidity":84,"rain":0.0,"pressure":837.7,"uv_index":5.8,"wind_gusts":19.4,"aqi":126,"pm10":81.0,"pm2_5":60.8,"mosquito_risk":3,"arthritis_risk":10,"migraine_risk":3,"frizz_risk":0,"updated_at":"2026-03-02T21:15:38.392030+05:30"},{"city":"Siliguri","state":"West Bengal","latitude":26.7271,"longitude":88.3953,"temp":19.5,"humidity":67,"rain":0.0,"pressure":997.6,"uv_index":7.0,"wind_gusts":20.5,"aqi":169,"pm10":115.3,"pm2_5":86.4,"mosquito_risk":3,"arthritis_risk":5,"migraine_risk":7,"frizz_risk":0,"updated_at":"2026-03-02T21:15:41.742842+05:30"},{"city":"Durgapur","state":"West Bengal","latitude":23.5204,"longitude":87.3119,"temp":25.0,"humidity":30,"rain":0.0,"pressure":998.4,"uv_index":7.6,"wind_gusts":26.3,"aqi":119,"pm10":54.5,"pm2_5":31.1,"mosquito_risk":4,"arthritis_risk":5,"migraine_risk":7,"frizz_risk":0,"updated_at":"2026-03-02T21:15:41.742875+05:30"},{"city":"Asansol","state":"West Bengal","latitude":23.6739,"longitude":86.9524,"temp":25.6,"humidity":29,"rain":0.0,"pressure":997.0,"uv_index":7.6,"wind_gusts":28.4,"aqi":101,"pm10":51.3,"pm2_5":28.5,"mosquito_risk":4,"arthritis_risk":5,"migraine_risk":7,"frizz_risk":0,"updated_at":"2026-03-02T21:15:41.742884+05:30"},{"city":"Pondicherry","state":"Puducherry","latitude":11.9139,"longitude":79.8145,"temp":23.9,"humidity":87,"rain":0.0,"pressure":1011.3,"uv_index":8.8,"wind_gusts":29.5,"aqi":122,"pm10":39.1,"pm2_5":34.9,"mosquito_risk":3,"arthritis_risk":0,"migraine_risk":4,"frizz_risk":1,"updated_at":"2026-03-02T21:15:41.742892+05:30"},{"city":"Port Blair","state":"Andaman and Nicobar Islands","latitude":11.6234,"longitude":92.7265,"temp":27.9,"humidity":72,"rain":0.0,"pressure":1009.2,"uv_index":8.75,"wind_gusts":16.2,"aqi":80,"pm10":33.4,"pm2_5":26.0,"mosquito_risk":7,"arthritis_risk":0,"migraine_risk":4,"frizz_risk":1,"updated_at":"2026-03-02T21:15:41.742901+05:30"},{"city":"Haridwar","state":"Uttarakhand","latitude":29.9457,"longitude":78.1642,"temp":20.1,"humidity":59,"rain":0.0,"pressure":977.5,"uv_index":5.55,"wind_gusts":41.8,"aqi":117,"pm10":43.3,"pm2_5":32.7,"mosquito_risk":0,"arthritis_risk":5,"migraine_risk":3,"frizz_risk":0,"updated_at":"2026-03-02T21:15:41.742908+05:30"},{"city":"Rishikesh","state":"Uttarakhand","latitude":30.0869,"longitude":78.2676,"temp":17.0,"humidity":70,"rain":0.0,"pressure":969.8,"uv_index":5.6,"wind_gusts":31.3,"aqi":120,"pm10":29.1,"pm2_5":26.1,"mosquito_risk":3,"arthritis_risk":5,"migraine_risk":3,"frizz_risk":0,"updated_at":"2026-03-02T21:15:41.742916+05:30"},{"city":"Nainital","state":"Uttarakhand","latitude":29.3919,"longitude":79.4542,"temp":15.0,"humidity":60,"rain":0.0,"pressure":806.4,"uv_index":6.4,"wind_gusts":45.7,"aqi":119,"pm10":32.9,"pm2_5":23.5,"mosquito_risk":0,"arthritis_risk":5,"migraine_risk":7,"frizz_risk":0,"updated_at":"2026-03-02T21:15:41.742923+05:30"},{"city":"Mussoorie","state":"Uttarakhand","latitude":30.4599,"longitude":78.0664,"temp":13.6,"humidity":58,"rain":0.0,"pressure":802.8,"uv_index":5.9,"wind_gusts":33.8,"aqi":113,"pm10":35.0,"pm2_5":32.6,"mosquito_risk":0,"arthritis_risk":5,"migraine_risk":3,"frizz_risk":0,"updated_at":"2026-03-02T21:15:41.742929+05:30"},{"city":"Dharamshala","state":"Himachal Pradesh","latitude":32.219,"longitude":76.3234,"temp":17.6,"humidity":53,"rain":0.0,"pressure":871.3,"uv_index":6.1,"wind_gusts":26.3,"aqi":111,"pm10":31.2,"pm2_5":25.0,"mosquito_risk":0,"arthritis_risk":5,"migraine_risk":7,"frizz_risk":0,"updated_at":"2026-03-02T21:15:41.742936+05:30"},{"city":"Dalhousie","state":"Himachal Pradesh","latitude":32.5387,"longitude":75.971,"temp":14.5,"humidity":46,"rain":0.0,"pressure":805.1,"uv_index":6.35,"wind_gusts":22.3,"aqi":111,"pm10":55.6,"pm2_5":48.4,"mosquito_risk":0,"arthritis_risk":5,"migraine_risk":7,"frizz_risk":0,"updated_at":"2026-03-02T21:15:41.742943+05:30"},{"city":"Patiala","state":"Punjab","latitude":30.3398,"longitude":76.3869,"temp":19.0,"humidity":63,"rain":0.0,"pressure":982.2,"uv_index":5.55,"wind_gusts":37.4,"aqi":158,"pm10":317.6,"pm2_5":70.5,"mosquito_risk":3,"arthritis_risk":5,"migraine_risk":3,"frizz_risk":0,"updated_at":"2026-03-02T21:15:41.742950+05:30"},{"city":"Bhatinda","state":"Punjab","latitude":30.211,"longitude":74.9455,"temp":20.2,"humidity":65,"rain":0.0,"pressure":988.2,"uv_index":6.2,"wind_gusts":24.8,"aqi":157,"pm10":59.6,"pm2_5":50.3,"mosquito_risk":3,"arthritis_risk":5,"migraine_risk":7,"frizz_risk":0,"updated_at":"2026-03-02T21:15:41.742956+05:30"},{"city":"Rohtak","state":"Haryana","latitude":28.8955,"longitude":76.6066,"temp":19.7,"humidity":68,"rain":0.0,"pressure":986.0,"uv_index":5.75,"wind_gusts":34.9,"aqi":306,"pm10":616.5,"pm2_5":110.6,"mosquito_risk":3,"arthritis_risk":5,"migraine_risk":3,"frizz_risk":0,"updated_at":"2026-03-02T21:15:41.742962+05:30"},{"city":"Panipat","state":"Haryana","latitude":29.3909,"longitude":76.9635,"temp":18.7,"humidity":67,"rain":0.0,"pressure":984.4,"uv_index":5.55,"wind_gusts":35.3,"aqi":723,"pm10":998.4,"pm2_5":149.0,"mosquito_risk":3,"arthritis_risk":5,"migraine_risk":3,"frizz_risk":0,"updated_at":"2026-03-02T21:15:41.742969+05:30"},{"city":"Mathura","state":"Uttar Pradesh","latitude":27.4924,"longitude":77.6737,"temp":22.3,"humidity":63,"rain":0.0,"pressure":991.1,"uv_index":6.0,"wind_gusts":29.2,"aqi":418,"pm10":737.6,"pm2_5":117.6,"mosquito_risk":3,"arthritis_risk":5,"migraine_risk":3,"frizz_risk":0,"updated_at":"2026-03-02T21:15:41.742975+05:30"},{"city":"Vrindavan","state":"Uttar Pradesh","latitude":27.5823,"longitude":77.7027,"temp":20.8,"humidity":69,"rain":0.0,"pressure":991.5,"uv_index":5.95,"wind_gusts":31.3,"aqi":418,"pm10":737.6,"pm2_5":117.6,"mosquito_risk":3,"arthritis_risk":5,"migraine_risk":3,"frizz_risk":0,"updated_at":"2026-03-02T21:15:41.742981+05:30"},{"city":"Ayodhya","state":"Uttar Pradesh","latitude":26.7922,"longitude":82.1998,"temp":20.2,"humidity":51,"rain":0.0,"pressure":999.1,"uv_index":6.4,"wind_gusts":34.6,"aqi":123,"pm10":87.3,"pm2_5":47.1,"mosquito_risk":0,"arthritis_risk":5,"migraine_risk":7,"frizz_risk":0,"updated_at":"2026-03-02T21:15:41.742987+05:30"},{"city":"Ratlam","state":"Madhya Pradesh","latitude":23.3315,"longitude":75.0367,"temp":25.8,"humidity":49,"rain":0.0,"pressure":958.0,"uv_index":7.25,"wind_gusts":7.2,"aqi":105,"pm10":36.1,"pm2_5":31.2,"mosquito_risk":4,"arthritis_risk":5,"migraine_risk":7,"frizz_risk":0,"updated_at":"2026-03-02T21:15:41.742993+05:30"},{"city":"Sagar","state":"Madhya Pradesh","latitude":23.8388,"longitude":78.7378,"temp":24.7,"humidity":39,"rain":0.0,"pressure":953.8,"uv_index":7.2,"wind_gusts":25.2,"aqi":83,"pm10":28.8,"pm2_5":18.5,"mosquito_risk":0,"arthritis_risk":5,"migraine_risk":7,"frizz_risk":0,"updated_at":"2026-03-02T21:15:41.742999+05:30"},{"city":"Satna","state":"Madhya Pradesh","latitude":24.6005,"longitude":80.8322,"temp":23.4,"humidity":40,"rain":0.0,"pressure":975.5,"uv_index":7.15,"wind_gusts":38.2,"aqi":85,"pm10":34.3,"pm2_5":20.2,"mosquito_risk":0,"arthritis_risk":5,"migraine_risk":7,"frizz_risk":0,"updated_at":"2026-03-02T21:15:41.743005+05:30"},{"city":"Akola","state":"Maharashtra","latitude":20.7002,"longitude":77.0082,"temp":27.0,"humidity":47,"rain":0.0,"pressure":978.1,"uv_index":7.75,"wind_gusts":25.9,"aqi":114,"pm10":26.7,"pm2_5":25.6,"mosquito_risk":4,"arthritis_risk":5,"migraine_risk":7,"frizz_risk":0,"updated_at":"2026-03-02T21:15:41.743011+05:30"},{"city":"Amravati","state":"Maharashtra","latitude":20.9374,"longitude":77.7796,"temp":25.3,"humidity":44,"rain":0.0,"pressure":970.0,"uv_index":7.7,"wind_gusts":24.5,"aqi":112,"pm10":30.7,"pm2_5":29.3,"mosquito_risk":4,"arthritis_risk":5,"migraine_risk":7,"frizz_risk":0,"updated_at":"2026-03-02T21:15:41.743018+05:30"},{"city":"Latur","state":"Maharashtra","latitude":18.4088,"longitude":76.5604,"temp":26.2,"humidity":55,"rain":0.0,"pressure":942.2,"uv_index":8.15,"wind_gusts":26.3,"aqi":156,"pm10":33.4,"pm2_5":33.1,"mosquito_risk":4,"arthritis_risk":5,"migraine_risk":7,"frizz_risk":1,"updated_at":"2026-03-02T21:15:41.743024+05:30"},{"city":"Nanded","state":"Maharashtra","latitude":19.1383,"longitude":77.3091,"temp":28.1,"humidity":53,"rain":0.0,"pressure":971.2,"uv_index":7.95,"wind_gusts":17.3,"aqi":121,"pm10":45.4,"pm2_5":44.5,"mosquito_risk":4,"arthritis_risk":5,"migraine_risk":7,"frizz_risk":1,"updated_at":"2026-03-02T21:15:41.743030+05:30"},{"city":"Gulbarga","state":"Karnataka","latitude":17.3297,"longitude":76.8343,"temp":28.6,"humidity":56,"rain":0.0,"pressure":960.8,"uv_index":8.25,"wind_gusts":19.4,"aqi":170,"pm10":58.1,"pm2_5":57.5,"mosquito_risk":4,"arthritis_risk":5,"migraine_risk":7,"frizz_risk":1,"updated_at":"2026-03-02T21:15:41.743036+05:30"},{"city":"Bidar","state":"Karnataka","latitude":17.9104,"longitude":77.5199,"temp":26.7,"humidity":51,"rain":0.0,"pressure":938.0,"uv_index":8.2,"wind_gusts":16.2,"aqi":151,"pm10":28.9,"pm2_5":28.5,"mosquito_risk":4,"arthritis_risk":5,"migraine_risk":7,"frizz_risk":0,"updated_at":"2026-03-02T21:15:41.743042+05:30"},{"city":"Hospet","state":"Karnataka","latitude":15.2689,"longitude":76.3909,"temp":30.4,"humidity":44,"rain":0.0,"pressure":957.4,"uv_index":8.6,"wind_gusts":21.2,"aqi":177,"pm10":50.2,"pm2_5":49.7,"mosquito_risk":0,"arthritis_risk":5,"migraine_risk":7,"frizz_risk":1,"updated_at":"2026-03-02T21:15:41.743048+05:30"},{"city":"Tirupur","state":"Tamil Nadu","latitude":11.1085,"longitude":77.3411,"temp":29.3,"humidity":45,"rain":0.0,"pressure":976.7,"uv_index":9.1,"wind_gusts":33.5,"aqi":148,"pm10":62.6,"pm2_5":61.2,"mosquito_risk":4,"arthritis_risk":5,"migraine_risk":7,"frizz_risk":1,"updated_at":"2026-03-02T21:15:41.743054+05:30"},{"city":"Alappuzha","state":"Kerala","latitude":9.4981,"longitude":76.3388,"temp":28.4,"humidity":80,"rain":0.0,"pressure":1010.4,"uv_index":8.9,"wind_gusts":32.8,"aqi":135,"pm10":33.8,"pm2_5":30.9,"mosquito_risk":7,"arthritis_risk":0,"migraine_risk":4,"frizz_risk":1,"updated_at":"2026-03-02T21:15:41.743060+05:30"},{"city":"Munnar","state":"Kerala","latitude":10.0889,"longitude":77.0595,"temp":22.0,"humidity":74,"rain":0.0,"pressure":858.3,"uv_index":9.4,"wind_gusts":22.0,"aqi":126,"pm10":47.3,"pm2_5":46.3,"mosquito_risk":3,"arthritis_risk":5,"migraine_risk":7,"frizz_risk":1,"updated_at":"2026-03-02T21:15:41.743067+05:30"},{"city":"Silchar","state":"Assam","latitude":24.8333,"longitude":92.7789,"temp":21.7,"humidity":79,"rain":0.0,"pressure":1008.1,"uv_index":7.35,"wind_gusts":18.7,"aqi":154,"pm10":111.3,"pm2_5":89.9,"mosquito_risk":3,"arthritis_risk":0,"migraine_risk":4,"frizz_risk":1,"updated_at":"2026-03-02T21:15:41.743073+05:30"},{"city":"Dibrugarh","state":"Assam","latitude":27.4728,"longitude":94.912,"temp":20.6,"humidity":91,"rain":0.0,"pressure":1000.6,"uv_index":7.05,"wind_gusts":12.6,"aqi":151,"pm10":112.7,"pm2_5":91.3,"mosquito_risk":3,"arthritis_risk":5,"migraine_risk":4,"frizz_risk":1,"updated_at":"2026-03-02T21:15:41.743079+05:30"}]