[{"city":"Delhi","state":"Delhi","latitude":28.6139,"longitude":77.209,"temp":36.7,"humidity":29,"rain":0.0,"pressure":982.0,"uv_index":7.2,"wind_gusts":20.5,"aqi":178,"pm10":297.1,"pm2_5":56.5,"mosquito_risk":0,"arthritis_risk":5,"migraine_risk":10,"frizz_risk":0,"updated_at":"2026-04-19T12:54:29.463212+05:30"},{"city":"Mumbai","state":"Maharashtra","latitude":19.076,"longitude":72.8777,"temp":30.0,"humidity":75,"rain":0.0,"pressure":1007.3,"uv_index":7.9,"wind_gusts":26.6,"aqi":85,"pm10":60.8,"pm2_5":36.0,"mosquito_risk":7,"arthritis_risk":5,"migraine_risk":4,"frizz_risk":1,"updated_at":"2026-04-19T12:54:29.463263+05:30"},{"city":"Bangalore","state":"Karnataka","latitude":12.9716,"longitude":77.5946,"temp":33.7,"humidity":38,"rain":0.0,"pressure":912.9,"uv_index":9.6,"wind_gusts":25.9,"aqi":83,"pm10":30.7,"pm2_5":22.9,"mosquito_risk":0,"arthritis_risk":5,"migraine_risk":7,"frizz_risk":1,"updated_at":"2026-04-19T12:54:29.463279+05:30"},{"city":"Hyderabad","state":"Telangana","latitude":17.385,"longitude":78.4867,"temp":37.6,"humidity":33,"rain":0.0,"pressure":953.4,"uv_index":9.25,"wind_gusts":39.2,"aqi":104,"pm10":41.8,"pm2_5":34.3,"mosquito_risk":0,"arthritis_risk":5,"migraine_risk":10,"frizz_risk":1,"updated_at":"2026-04-19T12:54:29.463290+05:30"},{"city":"Chennai","state":"Tamil Nadu","latitude":13.0827,"longitude":80.2707,"temp":35.7,"humidity":51,"rain":0.0,"pressure":1006.7,"uv_index":9.3,"wind_gusts":34.6,"aqi":37,"pm10":13.8,"pm2_5":9.2,"mosquito_risk":0,"arthritis_risk":5,"migraine_risk":7,"frizz_risk":1,"updated_at":"2026-04-19T12:54:29.463299+05:30"},{"city":"Kolkata","state":"West Bengal","latitude":22.5726,"longitude":88.3639,"temp":34.3,"humidity":66,"rain":0.0,"pressure":1003.8,"uv_index":8.9,"wind_gusts":32.4,"aqi":82,"pm10":40.3,"pm2_5":30.4,"mosquito_risk":3,"arthritis_risk":5,"migraine_risk":4,"frizz_risk":1,"updated_at":"2026-04-19T12:54:29.463312+05:30"},{"city":"Pune","state":"Maharashtra","latitude":18.5204,"longitude":73.8567,"temp":38.9,"humidity":19,"rain":0.0,"pressure":948.6,"uv_index":8.65,"wind_gusts":31.0,"aqi":95,"pm10":32.7,"pm2_5":25.7,"mosquito_risk":0,"arthritis_risk":5,"migraine_risk":10,"frizz_risk":0,"updated_at":"2026-04-19T12:54:29.463320+05:30"},{"city":"Ahmedabad","state":"Gujarat","latitude":23.0225,"longitude":72.5714,"temp":38.2,"humidity":24,"rain":0.0,"pressure":1001.8,"uv_index":8.0,"wind_gusts":25.2,"aqi":62,"pm10":36.1,"pm2_5":13.0,"mosquito_risk":0,"arthritis_risk":5,"migraine_risk":7,"frizz_risk":0,"updated_at":"2026-04-19T12:54:29.463327+05:30"},{"city":"Jaipur","state":"Rajasthan","latitude":26.9124,"longitude":75.7873,"temp":39.4,"humidity":15,"rain":0.0,"pressure":959.6,"uv_index":7.85,"wind_gusts":38.5,"aqi":150,"pm10":296.2,"pm2_5":35.9,"mosquito_risk":0,"arthritis_risk":5,"migraine_risk":10,"frizz_risk":0,"updated_at":"2026-04-19T12:54:29.463336+05:30"},{"city":"Lucknow","state":"Uttar Pradesh","latitude":26.8467,"longitude":80.9462,"temp":39.7,"humidity":23,"rain":0.0,"pressure":991.4,"uv_index":7.9,"wind_gusts":32.4,"aqi":121,"pm10":156.5,"pm2_5":37.5,"mosquito_risk":0,"arthritis_risk":5,"migraine_risk":10,"frizz_risk":0,"updated_at":"2026-04-19T12:54:29.463344+05:30"},{"city":"Kanpur","state":"Uttar Pradesh","latitude":26.4499,"longitude":80.3319,"temp":38.1,"humidity":29,"rain":0.0,"pressure":990.2,"uv_index":7.9,"wind_gusts":21.6,"aqi":184,"pm10":295.2,"pm2_5":48.3,"mosquito_risk":0,"arthritis_risk":5,"migraine_risk":10,"frizz_risk":1,"updated_at":"2026-04-19T12:54:29.463352+05:30"},{"city":"Chandigarh","state":"Chandigarh","latitude":30.7333,"longitude":76.7794,"temp":35.7,"humidity":30,"rain":0.0,"pressure":968.5,"uv_index":6.1,"wind_gusts":34.9,"aqi":70,"pm10":75.7,"pm2_5":17.6,"mosquito_risk":0,"arthritis_risk":5,"migraine_risk":10,"frizz_risk":0,"updated_at":"2026-04-19T12:54:29.463359+05:30"},{"city":"Srinagar","state":"Jammu and Kashmir","latitude":34.0837,"longitude":74.7973,"temp":17.3,"humidity":65,"rain":0.0,"pressure":845.5,"uv_index":7.25,"wind_gusts":30.2,"aqi":69,"pm10":30.9,"pm2_5":15.4,"mosquito_risk":3,"arthritis_risk":5,"migraine_risk":7,"frizz_risk":0,"updated_at":"2026-04-19T12:54:29.463367+05:30"},{"city":"Jammu","state":"Jammu and Kashmir","latitude":32.7266,"longitude":74.857,"temp":33.0,"humidity":29,"rain":0.0,"pressure":973.6,"uv_index":5.4,"wind_gusts":32.4,"aqi":63,"pm10":36.3,"pm2_5":12.9,"mosquito_risk":0,"arthritis_risk":5,"migraine_risk":3,"frizz_risk":0,"updated_at":"2026-04-19T12:54:29.463374+05:30"},{"city":"Amritsar","state":"Punjab","latitude":31.634,"longitude":74.8723,"temp":32.7,"humidity":34,"rain":0.0,"pressure":981.7,"uv_index":7.35,"wind_gusts":25.9,"aqi":65,"pm10":45.5,"pm2_5":17.8,"mosquito_risk":0,"arthritis_risk":5,"migraine_risk":7,"frizz_risk":0,"updated_at":"2026-04-19T12:54:29.463383+05:30"},{"city":"Ludhiana","state":"Punjab","latitude":30.901,"longitude":75.8573,"temp":36.1,"humidity":26,"rain":0.0,"pressure":978.5,"uv_index":7.3,"wind_gusts":37.1,"aqi":91,"pm10":65.7,"pm2_5":18.2,"mosquito_risk":0,"arthritis_risk":5,"migraine_risk":10,"frizz_risk":0,"updated_at":"2026-04-19T12:54:29.463392+05:30"},{"city":"Jalandhar","state":"Punjab","latitude":31.326,"longitude":75.5762,"temp":34.5,"humidity":26,"rain":0.0,"pressure":980.2,"uv_index":6.45,"wind_gusts":36.0,"aqi":75,"pm10":65.4,"pm2_5":18.7,"mosquito_risk":0,"arthritis_risk":5,"migraine_risk":7,"frizz_risk":0,"updated_at":"2026-04-19T12:54:29.463399+05:30"},{"city":"Dehradun","state":"Uttarakhand","latitude":30.6284,"longitude":78.0322,"temp":27.2,"humidity":28,"rain":0.0,"pressure":834.5,"uv_index":6.3,"wind_gusts":47.5,"aqi":38,"pm10":26.4,"pm2_5":7.0,"mosquito_risk":4,"arthritis_risk":5,"migraine_risk":7,"frizz_risk":0,"updated_at":"2026-04-19T12:54:29.463405+05:30"},{"city":"Shimla","state":"Himachal Pradesh","latitude":31.1048,"longitude":77.1734,"temp":25.3,"humidity":29,"rain":0.0,"pressure":790.2,"uv_index":6.75,"wind_gusts":44.6,"aqi":51,"pm10":45.1,"pm2_5":11.2,"mosquito_risk":4,"arthritis_risk":5,"migraine_risk":7,"frizz_risk":0,"updated_at":"2026-04-19T12:54:29.463412+05:30"},{"city":"Manali","state":"Himachal Pradesh","latitude":32.2396,"longitude":77.1887,"temp":20.9,"humidity":37,"rain":0.0,"pressure":824.8,"uv_index":6.95,"wind_gusts":44.3,"aqi":51,"pm10":6.4,"pm2_5":3.1,"mosquito_risk":0,"arthritis_risk":5,"migraine_risk":7,"frizz_risk":0,"updated_at":"2026-04-19T12:54:29.463419+05:30"},{"city":"Gurgaon","state":"Haryana","latitude":28.4595,"longitude":77.0266,"temp":36.3,"humidity":33,"rain":0.0,"pressure":980.7,"uv_index":7.3,"wind_gusts":18.4,"aqi":464,"pm10":433.1,"pm2_5":65.2,"mosquito_risk":0,"arthritis_risk":5,"migraine_risk":10,"frizz_risk":1,"updated_at":"2026-04-19T12:54:29.463426+05:30"},{"city":"Noida","state":"Uttar Pradesh","latitude":28.5355,"longitude":77.391,"temp":37.5,"humidity":27,"rain":0.0,"pressure":983.4,"uv_index":7.25,"wind_gusts":22.3,"aqi":464,"pm10":433.1,"pm2_5":65.2,"mosquito_risk":0,"arthritis_risk":5,"migraine_risk":10,"frizz_risk":0,"updated_at":"2026-04-19T12:54:29.463433+05:30"},{"city":"Ghaziabad","state":"Uttar Pradesh","latitude":28.6692,"longitude":77.4538,"temp":37.0,"humidity":30,"rain":0.0,"pressure":981.6,"uv_index":7.2,"wind_gusts":20.5,"aqi":158,"pm10":285.9,"pm2_5":54.8,"mosquito_risk":0,"arthritis_risk":5,"migraine_risk":10,"frizz_risk":1,"updated_at":"2026-04-19T12:54:29.463439+05:30"},{"city":"Faridabad","state":"Haryana","latitude":28.4089,"longitude":77.3178,"temp":37.8,"humidity":25,"rain":0.0,"pressure":982.7,"uv_index":7.3,"wind_gusts":24.8,"aqi":464,"pm10":433.1,"pm2_5":65.2,"mosquito_risk":0,"arthritis_risk":5,"migraine_risk":10,"frizz_risk":0,"updated_at":"2026-04-19T12:54:29.463445+05:30"},{"city":"Meerut","state":"Uttar Pradesh","latitude":28.9845,"longitude":77.7064,"temp":37.8,"humidity":27,"rain":0.0,"pressure":980.4,"uv_index":6.6,"wind_gusts":24.8,"aqi":158,"pm10":285.9,"pm2_5":54.8,"mosquito_risk":0,"arthritis_risk":5,"migraine_risk":10,"frizz_risk":0,"updated_at":"2026-04-19T12:54:29.463451+05:30"},{"city":"Agra","state":"Uttar Pradesh","latitude":27.1767,"longitude":78.0081,"temp":38.7,"humidity":28,"rain":0.0,"pressure":986.4,"uv_index":7.55,"wind_gusts":26.3,"aqi":329,"pm10":251.5,"pm2_5":54.6,"mosquito_risk":0,"arthritis_risk":5,"migraine_risk":10,"frizz_risk":1,"updated_at":"2026-04-19T12:54:29.463460+05:30"},{"city":"Varanasi","state":"Uttar Pradesh","latitude":25.3176,"longitude":82.9739,"temp":41.5,"humidity":21,"rain":0.0,"pressure":994.9,"uv_index":8.45,"wind_gusts":27.7,"aqi":105,"pm10":182.1,"pm2_5":37.0,"mosquito_risk":0,"arthritis_risk":5,"migraine_risk":10,"frizz_risk":0,"updated_at":"2026-04-19T12:54:29.463466+05:30"},{"city":"Prayagraj","state":"Uttar Pradesh","latitude":25.4358,"longitude":81.8463,"temp":41.4,"humidity":20,"rain":0.0,"pressure":993.6,"uv_index":8.35,"wind_gusts":27.7,"aqi":104,"pm10":206.3,"pm2_5":44.1,"mosquito_risk":0,"arthritis_risk":5,"migraine_risk":10,"frizz_risk":0,"updated_at":"2026-04-19T12:54:29.463474+05:30"},{"city":"Gorakhpur","state":"Uttar Pradesh","latitude":26.7606,"longitude":83.3732,"temp":36.6,"humidity":45,"rain":0.0,"pressure":995.0,"uv_index":8.3,"wind_gusts":28.8,"aqi":107,"pm10":58.0,"pm2_5":43.0,"mosquito_risk":0,"arthritis_risk":5,"migraine_risk":10,"frizz_risk":1,"updated_at":"2026-04-19T12:54:29.463481+05:30"},{"city":"Bareilly","state":"Uttar Pradesh","latitude":28.367,"longitude":79.4304,"temp":39.6,"humidity":22,"rain":0.0,"pressure":984.9,"uv_index":7.35,"wind_gusts":30.2,"aqi":85,"pm10":81.3,"pm2_5":21.4,"mosquito_risk":0,"arthritis_risk":5,"migraine_risk":10,"frizz_risk":0,"updated_at":"2026-04-19T12:54:29.463488+05:30"},{"city":"Aligarh","state":"Uttar Pradesh","latitude":27.8974,"longitude":78.088,"temp":40.7,"humidity":19,"rain":0.0,"pressure":983.9,"uv_index":7.5,"wind_gusts":32.0,"aqi":235,"pm10":368.8,"pm2_5":59.1,"mosquito_risk":0,"arthritis_risk":5,"migraine_risk":10,"frizz_risk":0,"updated_at":"2026-04-19T12:54:29.463497+05:30"},{"city":"Moradabad","state":"Uttar Pradesh","latitude":28.8386,"longitude":78.7733,"temp":38.5,"humidity":24,"rain":0.0,"pressure":982.1,"uv_index":7.4,"wind_gusts":34.2,"aqi":106,"pm10":132.7,"pm2_5":30.7,"mosquito_risk":0,"arthritis_risk":5,"migraine_risk":10,"frizz_risk":0,"updated_at":"2026-04-19T12:54:29.463504+05:30"},{"city":"Saharanpur","state":"Uttar Pradesh","latitude":29.9637,"longitude":77.546,"temp":35.9,"humidity":33,"rain":0.0,"pressure":975.0,"uv_index":6.75,"wind_gusts":35.3,"aqi":99,"pm10":126.7,"pm2_5":25.4,"mosquito_risk":0,"arthritis_risk":5,"migraine_risk":10,"frizz_risk":1,"updated_at":"2026-04-19T12:54:29.463510+05:30"},{"city":"Jhansi","state":"Uttar Pradesh","latitude":25.4484,"longitude":78.5685,"temp":41.3,"humidity":17,"rain":0.0,"pressure":976.6,"uv_index":8.25,"wind_gusts":26.3,"aqi":64,"pm10":91.5,"pm2_5":19.6,"mosquito_risk":0,"arthritis_risk":5,"migraine_risk":10,"frizz_risk":0,"updated_at":"2026-04-19T12:54:32.788640+05:30"},{"city":"Surat","state":"Gujarat","latitude":21.1702,"longitude":72.8311,"temp":34.6,"humidity":39,"rain":0.0,"pressure":1006.5,"uv_index":7.75,"wind_gusts":25.6,"aqi":98,"pm10":51.7,"pm2_5":38.5,"mosquito_risk":0,"arthritis_risk":5,"migraine_risk":4,"frizz_risk":1,"updated_at":"2026-04-19T12:54:32.788670+05:30"},{"city":"Vadodara","state":"Gujarat","latitude":22.3072,"longitude":73.1812,"temp":39.1,"humidity":24,"rain":0.0,"pressure":1003.7,"uv_index":8.15,"wind_gusts":30.2,"aqi":71,"pm10":31.5,"pm2_5":16.1,"mosquito_risk":0,"arthritis_risk":5,"migraine_risk":7,"frizz_risk":0,"updated_at":"2026-04-19T12:54:32.788680+05:30"},{"city":"Rajkot","state":"Gujarat","latitude":22.3039,"longitude":70.8022,"temp":35.2,"humidity":25,"rain":0.0,"pressure":994.8,"uv_index":7.55,"wind_gusts":28.4,"aqi":56,"pm10":29.7,"pm2_5":12.0,"mosquito_risk":0,"arthritis_risk":5,"migraine_risk":10,"frizz_risk":0,"updated_at":"2026-04-19T12:54:32.788687+05:30"},{"city":"Thane","state":"Maharashtra","latitude":19.2183,"longitude":72.9781,"temp":34.8,"humidity":46,"rain":0.0,"pressure":1007.0,"uv_index":8.05,"wind_gusts":40.0,"aqi":85,"pm10":60.8,"pm2_5":36.0,"mosquito_risk":0,"arthritis_risk":5,"migraine_risk":4,"frizz_risk":1,"updated_at":"2026-04-19T12:54:32.788694+05:30"},{"city":"Nagpur","state":"Maharashtra","latitude":21.1458,"longitude":79.0882,"temp":41.7,"humidity":12,"rain":0.0,"pressure":971.9,"uv_index":8.9,"wind_gusts":18.7,"aqi":93,"pm10":33.8,"pm2_5":31.2,"mosquito_risk":0,"arthritis_risk":5,"migraine_risk":10,"frizz_risk":0,"updated_at":"2026-04-19T12:54:32.788701+05:30"},{"city":"Nashik","state":"Maharashtra","latitude":19.9975,"longitude":73.7898,"temp":37.7,"humidity":23,"rain":0.0,"pressure":946.0,"uv_index":6.8,"wind_gusts":33.5,"aqi":74,"pm10":33.5,"pm2_5":22.0,"mosquito_risk":0,"arthritis_risk":5,"migraine_risk":10,"frizz_risk":0,"updated_at":"2026-04-19T12:54:32.788708+05:30"},{"city":"Aurangabad","state":"Maharashtra","latitude":19.8762,"longitude":75.3433,"temp":38.2,"humidity":23,"rain":0.0,"pressure":944.4,"uv_index":9.05,"wind_gusts":22.7,"aqi":64,"pm10":23.3,"pm2_5":17.2,"mosquito_risk":0,"arthritis_risk":5,"migraine_risk":10,"frizz_risk":0,"updated_at":"2026-04-19T12:54:32.788716+05:30"},{"city":"Solapur","state":"Maharashtra","latitude":17.6599,"longitude":75.9064,"temp":40.2,"humidity":23,"rain":0.0,"pressure":956.3,"uv_index":8.85,"wind_gusts":27.0,"aqi":131,"pm10":45.6,"pm2_5":38.0,"mosquito_risk":0,"arthritis_risk":5,"migraine_risk":10,"frizz_risk":0,"updated_at":"2026-04-19T12:54:32.788723+05:30"},{"city":"Kolhapur","state":"Maharashtra","latitude":16.705,"longitude":74.2433,"temp":36.2,"humidity":38,"rain":0.0,"pressure":948.2,"uv_index":9.0,"wind_gusts":45.4,"aqi":101,"pm10":43.4,"pm2_5":34.5,"mosquito_risk":0,"arthritis_risk":5,"migraine_risk":10,"frizz_risk":1,"updated_at":"2026-04-19T12:54:32.788730+05:30"},{"city":"Goa","state":"Goa","latitude":15.2993,"longitude":74.124,"temp":32.5,"humidity":62,"rain":0.0,"pressure":997.8,"uv_index":9.0,"wind_gusts":29.9,"aqi":85,"pm10":48.5,"pm2_5":24.3,"mosquito_risk":3,"arthritis_risk":5,"migraine_risk":7,"frizz_risk":1,"updated_at":"2026-04-19T12:54:32.788737+05:30"},{"city":"Jodhpur","state":"Rajasthan","latitude":26.2389,"longitude":73.0243,"temp":38.4,"humidity":18,"rain":0.0,"pressure":983.2,"uv_index":8.15,"wind_gusts":27.0,"aqi":104,"pm10":110.4,"pm2_5":26.9,"mosquito_risk":0,"arthritis_risk":5,"migraine_risk":10,"frizz_risk":0,"updated_at":"2026-04-19T12:54:32.788745+05:30"},{"city":"Udaipur","state":"Rajasthan","latitude":24.5854,"longitude":73.7125,"temp":37.5,"humidity":16,"rain":0.0,"pressure":947.5,"uv_index":8.65,"wind_gusts":36.7,"aqi":40,"pm10":19.0,"pm2_5":7.6,"mosquito_risk":0,"arthritis_risk":5,"migraine_risk":10,"frizz_risk":0,"updated_at":"2026-04-19T12:54:32.788751+05:30"},{"city":"Kota","state":"Rajasthan","latitude":25.2138,"longitude":75.8648,"temp":41.6,"humidity":13,"rain":0.0,"pressure":977.7,"uv_index":8.2,"wind_gusts":36.4,"aqi":70,"pm10":43.4,"pm2_5":11.8,"mosquito_risk":0,"arthritis_risk":5,"migraine_risk":10,"frizz_risk":0,"updated_at":"2026-04-19T12:54:32.788757+05:30"},{"city":"Bikaner","state":"Rajasthan","latitude":28.0229,"longitude":73.3119,"temp":37.5,"humidity":24,"rain":0.0,"pressure":981.5,"uv_index":7.9,"wind_gusts":23.0,"aqi":80,"pm10":37.1,"pm2_5":11.6,"mosquito_risk":0,"arthritis_risk":5,"migraine_risk":10,"frizz_risk":0,"updated_at":"2026-04-19T12:54:32.788763+05:30"},{"city":"Ajmer","state":"Rajasthan","latitude":26.4499,"longitude":74.6399,"temp":36.6,"humidity":19,"rain":0.0,"pressure":955.5,"uv_index":7.6,"wind_gusts":28.4,"aqi":64,"pm10":41.7,"pm2_5":12.9,"mosquito_risk":0,"arthritis_risk":5,"migraine_risk":10,"frizz_risk":0,"updated_at":"2026-04-19T12:54:32.788770+05:30"},{"city":"Gwalior","state":"Madhya Pradesh","latitude":26.2183,"longitude":78.1828,"temp":41.0,"humidity":17,"rain":0.0,"pressure":981.9,"uv_index":7.45,"wind_gusts":31.3,"aqi":88,"pm10":210.5,"pm2_5":36.7,"mosquito_risk":0,"arthritis_risk":5,"migraine_risk":10,"frizz_risk":0,"updated_at":"2026-04-19T12:54:32.788776+05:30"},{"city":"Indore","state":"Madhya Pradesh","latitude":22.7196,"longitude":75.8577,"temp":38.9,"humidity":17,"rain":0.0,"pressure":948.6,"uv_index":8.6,"wind_gusts":29.5,"aqi":52,"pm10":17.9,"pm2_5":10.0,"mosquito_risk":0,"arthritis_risk":5,"migraine_risk":10,"frizz_risk":0,"updated_at":"2026-04-19T12:54:32.788782+05:30"},{"city":"Bhopal","state":"Madhya Pradesh","latitude":23.2599,"longitude":77.4126,"temp":40.4,"humidity":15,"rain":0.0,"pressure":953.8,"uv_index":8.6,"wind_gusts":30.2,"aqi":56,"pm10":41.4,"pm2_5":18.3,"mosquito_risk":0,"arthritis_risk":5,"migraine_risk":10,"frizz_risk":0,"updated_at":"2026-04-19T12:54:32.788788+05:30"},{"city":"Jabalpur","state":"Madhya Pradesh","latitude":23.1815,"longitude":79.9864,"temp":38.7,"humidity":24,"rain":0.0,"pressure":960.8,"uv_index":8.75,"wind_gusts":23.8,"aqi":68,"pm10":24.4,"pm2_5":13.9,"mosquito_risk":0,"arthritis_risk":5,"migraine_risk":10,"frizz_risk":0,"updated_at":"2026-04-19T12:54:32.788794+05:30"},{"city":"Ujjain","state":"Madhya Pradesh","latitude":23.1765,"longitude":75.7885,"temp":39.2,"humidity":17,"rain":0.0,"pressure":954.1,"uv_index":8.5,"wind_gusts":33.8,"aqi":50,"pm10":12.8,"pm2_5":6.3,"mosquito_risk":0,"arthritis_risk":5,"migraine_risk":10,"frizz_risk":0,"updated_at":"2026-04-19T12:54:32.788802+05:30"},{"city":"Visakhapatnam","state":"Andhra Pradesh","latitude":17.6868,"longitude":83.2185,"temp":34.5,"humidity":54,"rain":0.0,"pressure":1002.7,"uv_index":9.15,"wind_gusts":38.5,"aqi":65,"pm10":28.6,"pm2_5":20.4,"mosquito_risk":0,"arthritis_risk":5,"migraine_risk":4,"frizz_risk":1,"updated_at":"2026-04-19T12:54:32.788809+05:30"},{"city":"Vijayawada","state":"Andhra Pradesh","latitude":16.5062,"longitude":80.648,"temp":36.4,"humidity":47,"rain":0.0,"pressure":1001.7,"uv_index":9.25,"wind_gusts":31.3,"aqi":57,"pm10":22.2,"pm2_5":14.0,"mosquito_risk":0,"arthritis_risk":5,"migraine_risk":7,"frizz_risk":1,"updated_at":"2026-04-19T12:54:32.788815+05:30"},{"city":"Guntur","state":"Andhra Pradesh","latitude":16.3067,"longitude":80.4365,"temp":36.7,"humidity":45,"rain":0.0,"pressure":1002.9,"uv_index":9.25,"wind_gusts":33.8,"aqi":62,"pm10":23.3,"pm2_5":16.2,"mosquito_risk":0,"arthritis_risk":5,"migraine_risk":7,"frizz_risk":1,"updated_at":"2026-04-19T12:54:32.788821+05:30"},{"city":"Nellore","state":"Andhra Pradesh","latitude":14.4426,"longitude":79.9865,"temp":38.5,"humidity":37,"rain":0.0,"pressure":1004.2,"uv_index":9.25,"wind_gusts":33.5,"aqi":51,"pm10":19.7,"pm2_5":13.9,"mosquito_risk":0,"arthritis_risk":5,"migraine_risk":7,"frizz_risk":1,"updated_at":"2026-04-19T12:54:32.788828+05:30"},{"city":"Kurnool","state":"Andhra Pradesh","latitude":15.8281,"longitude":78.0373,"temp":41.5,"humidity":21,"rain":0.0,"pressure":975.2,"uv_index":9.2,"wind_gusts":38.2,"aqi":87,"pm10":41.8,"pm2_5":35.0,"mosquito_risk":0,"arthritis_risk":5,"migraine_risk":10,"frizz_risk":0,"updated_at":"2026-04-19T12:54:32.788835+05:30"},{"city":"Kakinada","state":"Andhra Pradesh","latitude":16.9891,"longitude":82.2475,"temp":37.1,"humidity":47,"rain":0.0,"pressure":1006.4,"uv_index":9.2,"wind_gusts":29.9,"aqi":52,"pm10":20.3,"pm2_5":11.7,"mosquito_risk":0,"arthritis_risk":5,"migraine_risk":7,"frizz_risk":1,"updated_at":"2026-04-19T12:54:32.788842+05:30"},{"city":"Tirupati","state":"Andhra Pradesh","latitude":13.6288,"longitude":79.4192,"temp":36.3,"humidity":44,"rain":0.0,"pressure":991.3,"uv_index":9.35,"wind_gusts":33.1,"aqi":65,"pm10":20.3,"pm2_5":15.5,"mosquito_risk":0,"arthritis_risk":5,"migraine_risk":10,"frizz_risk":1,"updated_at":"2026-04-19T12:54:32.788848+05:30"},{"city":"Warangal","state":"Telangana","latitude":17.9689,"longitude":79.5941,"temp":37.6,"humidity":39,"rain":0.0,"pressure":977.8,"uv_index":9.15,"wind_gusts":32.8,"aqi":87,"pm10":36.4,"pm2_5":29.8,"mosquito_risk":0,"arthritis_risk":5,"migraine_risk":10,"frizz_risk":1,"updated_at":"2026-04-19T12:54:32.788854+05:30"},{"city":"Nizamabad","state":"Telangana","latitude":18.6725,"longitude":78.0941,"temp":41.0,"humidity":19,"rain":0.0,"pressure":964.0,"uv_index":9.0,"wind_gusts":39.2,"aqi":113,"pm10":28.3,"pm2_5":24.1,"mosquito_risk":0,"arthritis_risk":5,"migraine_risk":10,"frizz_risk":0,"updated_at":"2026-04-19T12:54:32.788861+05:30"},{"city":"Mysore","state":"Karnataka","latitude":12.2958,"longitude":76.6396,"temp":36.0,"humidity":28,"rain":0.0,"pressure":929.3,"uv_index":9.5,"wind_gusts":43.9,"aqi":87,"pm10":31.2,"pm2_5":23.6,"mosquito_risk":0,"arthritis_risk":5,"migraine_risk":10,"frizz_risk":0,"updated_at":"2026-04-19T12:54:32.788867+05:30"},{"city":"Mangalore","state":"Karnataka","latitude":12.9141,"longitude":74.856,"temp":29.6,"humidity":86,"rain":0.0,"pressure":1006.6,"uv_index":9.1,"wind_gusts":22.7,"aqi":69,"pm10":40.3,"pm2_5":22.9,"mosquito_risk":7,"arthritis_risk":5,"migraine_risk":4,"frizz_risk":1,"updated_at":"2026-04-19T12:54:32.788873+05:30"},{"city":"Hubli-Dharwad","state":"Karnataka","latitude":15.3647,"longitude":75.124,"temp":33.7,"humidity":52,"rain":0.0,"pressure":941.5,"uv_index":9.2,"wind_gusts":31.7,"aqi":80,"pm10":41.9,"pm2_5":33.9,"mosquito_risk":0,"arthritis_risk":5,"migraine_risk":7,"frizz_risk":1,"updated_at":"2026-04-19T12:54:32.788880+05:30"},{"city":"Belgaum","state":"Karnataka","latitude":15.8497,"longitude":74.4977,"temp":31.5,"humidity":60,"rain":0.0,"pressure":926.9,"uv_index":9.25,"wind_gusts":28.8,"aqi":93,"pm10":44.5,"pm2_5":35.2,"mosquito_risk":0,"arthritis_risk":5,"migraine_risk":7,"frizz_risk":1,"updated_at":"2026-04-19T12:54:36.115031+05:30"},{"city":"Coimbatore","state":"Tamil Nadu","latitude":11.0168,"longitude":76.9558,"temp":35.7,"humidity":41,"rain":0.0,"pressure":962.0,"uv_index":9.4,"wind_gusts":53.3,"aqi":89,"pm10":31.2,"pm2_5":22.5,"mosquito_risk":0,"arthritis_risk":5,"migraine_risk":10,"frizz_risk":1,"updated_at":"2026-04-19T12:54:36.115060+05:30"},{"city":"Madurai","state":"Tamil Nadu","latitude":9.9252,"longitude":78.1198,"temp":37.2,"humidity":33,"rain":0.0,"pressure":992.5,"uv_index":9.3,"wind_gusts":41.0,"aqi":64,"pm10":16.1,"pm2_5":12.5,"mosquito_risk":0,"arthritis_risk":5,"migraine_risk":10,"frizz_risk":1,"updated_at":"2026-04-19T12:54:36.115069+05:30"},{"city":"Trichy","state":"Tamil Nadu","latitude":10.7905,"longitude":78.7047,"temp":36.3,"humidity":44,"rain":0.0,"pressure":999.1,"uv_index":9.3,"wind_gusts":23.0,"aqi":56,"pm10":14.6,"pm2_5":11.6,"mosquito_risk":0,"arthritis_risk":5,"migraine_risk":10,"frizz_risk":1,"updated_at":"2026-04-19T12:54:36.115077+05:30"},{"city":"Salem","state":"Tamil Nadu","latitude":11.6643,"longitude":78.146,"temp":36.0,"humidity":42,"rain":0.0,"pressure":977.3,"uv_index":9.35,"wind_gusts":18.0,"aqi":62,"pm10":21.1,"pm2_5":14.3,"mosquito_risk":0,"arthritis_risk":5,"migraine_risk":10,"frizz_risk":1,"updated_at":"2026-04-19T12:54:36.115105+05:30"},{"city":"Tirunelveli","state":"Tamil Nadu","latitude":8.7139,"longitude":77.7567,"temp":39.1,"humidity":29,"rain":0.0,"pressure":1002.1,"uv_index":9.25,"wind_gusts":49.0,"aqi":67,"pm10":19.9,"pm2_5":14.1,"mosquito_risk":0,"arthritis_risk":5,"migraine_risk":7,"frizz_risk":1,"updated_at":"2026-04-19T12:54:36.115115+05:30"},{"city":"Vellore","state":"Tamil Nadu","latitude":12.9165,"longitude":79.1325,"temp":35.8,"humidity":45,"rain":0.0,"pressure":984.3,"uv_index":9.4,"wind_gusts":27.7,"aqi":86,"pm10":19.2,"pm2_5":14.3,"mosquito_risk":0,"arthritis_risk":5,"migraine_risk":10,"frizz_risk":1,"updated_at":"2026-04-19T12:54:36.115122+05:30"},{"city":"Erode","state":"Tamil Nadu","latitude":11.341,"longitude":77.7172,"temp":38.3,"humidity":38,"rain":0.0,"pressure":988.3,"uv_index":9.35,"wind_gusts":27.0,"aqi":58,"pm10":23.5,"pm2_5":16.6,"mosquito_risk":0,"arthritis_risk":5,"migraine_risk":10,"frizz_risk":1,"updated_at":"2026-04-19T12:54:36.115128+05:30"},{"city":"Kochi","state":"Kerala","latitude":9.9312,"longitude":76.2673,"temp":29.7,"humidity":81,"rain":0.0,"pressure":1008.2,"uv_index":9.15,"wind_gusts":25.2,"aqi":77,"pm10":25.8,"pm2_5":20.1,"mosquito_risk":7,"arthritis_risk":0,"migraine_risk":4,"frizz_risk":1,"updated_at":"2026-04-19T12:54:36.115135+05:30"},{"city":"Thiruvananthapuram","state":"Kerala","latitude":8.5241,"longitude":76.9366,"temp":29.3,"humidity":83,"rain":0.0,"pressure":1007.5,"uv_index":9.1,"wind_gusts":29.5,"aqi":68,"pm10":25.6,"pm2_5":17.8,"mosquito_risk":7,"arthritis_risk":5,"migraine_risk":4,"frizz_risk":1,"updated_at":"2026-04-19T12:54:36.115142+05:30"},{"city":"Kozhikode","state":"Kerala","latitude":11.2588,"longitude":75.7804,"temp":31.5,"humidity":75,"rain":0.0,"pressure":1007.4,"uv_index":9.1,"wind_gusts":30.2,"aqi":63,"pm10":24.1,"pm2_5":16.8,"mosquito_risk":3,"arthritis_risk":5,"migraine_risk":4,"frizz_risk":1,"updated_at":"2026-04-19T12:54:36.115149+05:30"},{"city":"Thrissur","state":"Kerala","latitude":10.5276,"longitude":76.2144,"temp":34.4,"humidity":60,"rain":0.0,"pressure":1006.6,"uv_index":9.15,"wind_gusts":32.8,"aqi":76,"pm10":22.7,"pm2_5":16.4,"mosquito_risk":0,"arthritis_risk":5,"migraine_risk":4,"frizz_risk":1,"updated_at":"2026-04-19T12:54:36.115156+05:30"},{"city":"Kannur","state":"Kerala","latitude":11.8745,"longitude":75.3704,"temp":33.0,"humidity":65,"rain":0.0,"pressure":1006.9,"uv_index":9.1,"wind_gusts":33.1,"aqi":69,"pm10":30.5,"pm2_5":19.8,"mosquito_risk":3,"arthritis_risk":5,"migraine_risk":4,"frizz_risk":1,"updated_at":"2026-04-19T12:54:36.115162+05:30"},{"city":"Patna","state":"Bihar","latitude":25.5941,"longitude":85.1376,"temp":35.2,"humidity":51,"rain":0.0,"pressure":998.2,"uv_index":8.6,"wind_gusts":27.0,"aqi":125,"pm10":76.6,"pm2_5":48.1,"mosquito_risk":0,"arthritis_risk":5,"migraine_risk":10,"frizz_risk":1,"updated_at":"2026-04-19T12:54:36.115168+05:30"},{"city":"Gaya","state":"Bihar","latitude":24.7914,"longitude":85.0002,"temp":40.2,"humidity":23,"rain":0.0,"pressure":991.2,"uv_index":8.7,"wind_gusts":33.8,"aqi":95,"pm10":121.1,"pm2_5":30.2,"mosquito_risk":0,"arthritis_risk":5,"migraine_risk":10,"frizz_risk":0,"updated_at":"2026-04-19T12:54:36.115175+05:30"},{"city":"Muzaffarpur","state":"Bihar","latitude":26.1209,"longitude":85.3647,"temp":34.3,"humidity":52,"rain":0.0,"pressure":998.5,"uv_index":8.6,"wind_gusts":29.5,"aqi":137,"pm10":68.0,"pm2_5":51.2,"mosquito_risk":0,"arthritis_risk":5,"migraine_risk":7,"frizz_risk":1,"updated_at":"2026-04-19T12:54:36.115181+05:30"},{"city":"Bhagalpur","state":"Bihar","latitude":25.2425,"longitude":87.0117,"temp":33.2,"humidity":59,"rain":0.0,"pressure":999.3,"uv_index":8.65,"wind_gusts":27.0,"aqi":121,"pm10":53.2,"pm2_5":45.9,"mosquito_risk":0,"arthritis_risk":5,"migraine_risk":7,"frizz_risk":1,"updated_at":"2026-04-19T12:54:36.115187+05:30"},{"city":"Ranchi","state":"Jharkhand","latitude":23.3441,"longitude":85.3096,"temp":38.5,"humidity":20,"rain":0.0,"pressure":937.7,"uv_index":9.2,"wind_gusts":43.2,"aqi":74,"pm10":67.3,"pm2_5":23.9,"mosquito_risk":0,"arthritis_risk":5,"migraine_risk":10,"frizz_risk":0,"updated_at":"2026-04-19T12:54:36.115193+05:30"},{"city":"Jamshedpur","state":"Jharkhand","latitude":22.8046,"longitude":86.2029,"temp":40.2,"humidity":32,"rain":0.0,"pressure":988.2,"uv_index":9.0,"wind_gusts":36.7,"aqi":115,"pm10":74.7,"pm2_5":43.7,"mosquito_risk":0,"arthritis_risk":5,"migraine_risk":10,"frizz_risk":1,"updated_at":"2026-04-19T12:54:36.115199+05:30"},{"city":"Dhanbad","state":"Jharkhand","latitude":23.7957,"longitude":86.4304,"temp":41.4,"humidity":21,"rain":0.0,"pressure":977.2,"uv_index":8.95,"wind_gusts":39.6,"aqi":156,"pm10":105.7,"pm2_5":29.5,"mosquito_risk":0,"arthritis_risk":5,"migraine_risk":10,"frizz_risk":0,"updated_at":"2026-04-19T12:54:36.115206+05:30"},{"city":"Bokaro","state":"Jharkhand","latitude":23.6693,"longitude":86.1511,"temp":41.7,"humidity":18,"rain":0.0,"pressure":981.0,"uv_index":8.95,"wind_gusts":44.3,"aqi":140,"pm10":101.7,"pm2_5":27.1,"mosquito_risk":0,"arthritis_risk":5,"migraine_risk":10,"frizz_risk":0,"updated_at":"2026-04-19T12:54:36.115212+05:30"},{"city":"Bhubaneswar","state":"Odisha","latitude":20.2961,"longitude":85.8245,"temp":33.5,"humidity":67,"rain":0.0,"pressure":1001.5,"uv_index":9.1,"wind_gusts":34.6,"aqi":66,"pm10":33.9,"pm2_5":24.9,"mosquito_risk":3,"arthritis_risk":5,"migraine_risk":4,"frizz_risk":1,"updated_at":"2026-04-19T12:54:36.115219+05:30"},{"city":"Cuttack","state":"Odisha","latitude":20.4625,"longitude":85.8828,"temp":36.4,"humidity":55,"rain":0.0,"pressure":1002.8,"uv_index":9.15,"wind_gusts":34.2,"aqi":66,"pm10":33.9,"pm2_5":24.9,"mosquito_risk":0,"arthritis_risk":5,"migraine_risk":7,"frizz_risk":1,"updated_at":"2026-04-19T12:54:36.115225+05:30"},{"city":"Rourkela","state":"Odisha","latitude":22.2604,"longitude":84.8536,"temp":40.9,"humidity":32,"rain":0.0,"pressure":982.6,"uv_index":8.9,"wind_gusts":32.8,"aqi":138,"pm10":72.6,"pm2_5":58.1,"mosquito_risk":0,"arthritis_risk":5,"migraine_risk":10,"frizz_risk":1,"updated_at":"2026-04-19T12:54:36.115231+05:30"},{"city":"Raipur","state":"Chhattisgarh","latitude":21.2514,"longitude":81.6296,"temp":41.5,"humidity":23,"rain":0.0,"pressure":972.9,"uv_index":8.95,"wind_gusts":33.8,"aqi":148,"pm10":35.4,"pm2_5":32.1,"mosquito_risk":0,"arthritis_risk":5,"migraine_risk":10,"frizz_risk":1,"updated_at":"2026-04-19T12:54:36.115238+05:30"},{"city":"Bhilai","state":"Chhattisgarh","latitude":21.1938,"longitude":81.3509,"temp":41.2,"humidity":25,"rain":0.0,"pressure":973.3,"uv_index":9.0,"wind_gusts":31.7,"aqi":151,"pm10":32.8,"pm2_5":29.2,"mosquito_risk":0,"arthritis_risk":5,"migraine_risk":10,"frizz_risk":1,"updated_at":"2026-04-19T12:54:36.115244+05:30"},{"city":"Guwahati","state":"Assam","latitude":26.1158,"longitude":91.7086,"temp":29.9,"humidity":70,"rain":0.0,"pressure":1000.1,"uv_index":8.55,"wind_gusts":24.8,"aqi":119,"pm10":49.8,"pm2_5":36.3,"mosquito_risk":7,"arthritis_risk":5,"migraine_risk":4,"frizz_risk":1,"updated_at":"2026-04-19T12:54:36.115250+05:30"},{"city":"Agartala","state":"Tripura","latitude":23.8315,"longitude":91.2868,"temp":29.8,"humidity":75,"rain":0.0,"pressure":1005.2,"uv_index":8.75,"wind_gusts":35.6,"aqi":125,"pm10":52.4,"pm2_5":37.3,"mosquito_risk":7,"arthritis_risk":5,"migraine_risk":4,"frizz_risk":1,"updated_at":"2026-04-19T12:54:36.115256+05:30"},{"city":"Shillong","state":"Meghalaya","latitude":25.5788,"longitude":91.8933,"temp":20.7,"humidity":72,"rain":0.0,"pressure":857.5,"uv_index":8.75,"wind_gusts":54.7,"aqi":94,"pm10":20.8,"pm2_5":14.4,"mosquito_risk":3,"arthritis_risk":5,"migraine_risk":7,"frizz_risk":0,"updated_at":"2026-04-19T12:54:36.115262+05:30"},{"city":"Imphal","state":"Manipur","latitude":24.817,"longitude":93.9368,"temp":22.3,"humidity":79,"rain":0.0,"pressure":923.0,"uv_index":8.65,"wind_gusts":61.2,"aqi":151,"pm10":60.3,"pm2_5":40.5,"mosquito_risk":3,"arthritis_risk":5,"migraine_risk":7,"frizz_risk":1,"updated_at":"2026-04-19T12:54:36.115268+05:30"},{"city":"Aizawl","state":"Mizoram","latitude":23.7271,"longitude":92.7176,"temp":27.3,"humidity":55,"rain":0.0,"pressure":893.7,"uv_index":8.3,"wind_gusts":38.5,"aqi":147,"pm10":53.9,"pm2_5":37.3,"mosquito_risk":4,"arthritis_risk":5,"migraine_risk":7,"frizz_risk":1,"updated_at":"2026-04-19T12:54:36.115274+05:30"},{"city":"Kohima","state":"Nagaland","latitude":25.6701,"longitude":94.1077,"temp":19.0,"humidity":87,"rain":0.0,"pressure":855.2,"uv_index":8.85,"wind_gusts":53.6,"aqi":127,"pm10":56.8,"pm2_5":39.9,"mosquito_risk":3,"arthritis_risk":10,"migraine_risk":7,"frizz_risk":1,"updated_at":"2026-04-19T12:54:36.115280+05:30"},{"city":"Gangtok","state":"Sikkim","latitude":27.3314,"longitude":88.6138,"temp":22.2,"humidity":67,"rain":0.0,"pressure":839.1,"uv_index":8.85,"wind_gusts":21.6,"aqi":74,"pm10":21.5,"pm2_5":16.2,"mosquito_risk":3,"arthritis_risk":5,"migraine_risk":7,"frizz_risk":0,"updated_at":"2026-04-19T12:54:36.115286+05:30"},{"city":"Siliguri","state":"West Bengal","latitude":26.7271,"longitude":88.3953,"temp":26.8,"humidity":73,"rain":0.0,"pressure":993.4,"uv_index":8.4,"wind_gusts":21.2,"aqi":147,"pm10":37.8,"pm2_5":29.0,"mosquito_risk":7,"arthritis_risk":5,"migraine_risk":7,"frizz_risk":1,"updated_at":"2026-04-19T12:54:39.443087+05:30"},{"city":"Durgapur","state":"West Bengal","latitude":23.5204,"longitude":87.3119,"temp":38.4,"humidity":49,"rain":0.0,"pressure":992.3,"uv_index":8.9,"wind_gusts":40.3,"aqi":127,"pm10":103.4,"pm2_5":59.0,"mosquito_risk":0,"arthritis_risk":5,"migraine_risk":10,"frizz_risk":1,"updated_at":"2026-04-19T12:54:39.443146+05:30"},{"city":"Asansol","state":"West Bengal","latitude":23.6739,"longitude":86.9524,"temp":39.4,"humidity":41,"rain":0.0,"pressure":990.6,"uv_index":8.95,"wind_gusts":34.6,"aqi":139,"pm10":110.4,"pm2_5":36.3,"mosquito_risk":0,"arthritis_risk":5,"migraine_risk":10,"frizz_risk":1,"updated_at":"2026-04-19T12:54:39.443157+05:30"},{"city":"Pondicherry","state":"Puducherry","latitude":11.9139,"longitude":79.8145,"temp":36.0,"humidity":52,"rain":0.0,"pressure":1007.6,"uv_index":9.25,"wind_gusts":30.6,"aqi":33,"pm10":14.7,"pm2_5":11.3,"mosquito_risk":0,"arthritis_risk":5,"migraine_risk":7,"frizz_risk":1,"updated_at":"2026-04-19T12:54:39.443166+05:30"},{"city":"Port Blair","state":"Andaman and Nicobar Islands","latitude":11.6234,"longitude":92.7265,"temp":29.4,"humidity":76,"rain":0.0,"pressure":1006.5,"uv_index":9.15,"wind_gusts":13.0,"aqi":54,"pm10":16.5,"pm2_5":13.5,"mosquito_risk":7,"arthritis_risk":5,"migraine_risk":4,"frizz_risk":1,"updated_at":"2026-04-19T12:54:39.443176+05:30"},{"city":"Haridwar","state":"Uttarakhand","latitude":29.9457,"longitude":78.1642,"temp":35.5,"humidity":33,"rain":0.0,"pressure":973.6,"uv_index":6.3,"wind_gusts":27.4,"aqi":68,"pm10":109.0,"pm2_5":21.2,"mosquito_risk":0,"arthritis_risk":5,"migraine_risk":10,"frizz_risk":1,"updated_at":"2026-04-19T12:54:39.443183+05:30"},{"city":"Rishikesh","state":"Uttarakhand","latitude":30.0869,"longitude":78.2676,"temp":35.5,"humidity":30,"rain":0.0,"pressure":966.6,"uv_index":6.65,"wind_gusts":27.0,"aqi":58,"pm10":62.4,"pm2_5":13.0,"mosquito_risk":0,"arthritis_risk":5,"migraine_risk":10,"frizz_risk":0,"updated_at":"2026-04-19T12:54:39.443190+05:30"},{"city":"Nainital","state":"Uttarakhand","latitude":29.3919,"longitude":79.4542,"temp":29.9,"humidity":35,"rain":0.0,"pressure":811.1,"uv_index":7.85,"wind_gusts":60.5,"aqi":60,"pm10":30.5,"pm2_5":8.6,"mosquito_risk":4,"arthritis_risk":5,"migraine_risk":7,"frizz_risk":0,"updated_at":"2026-04-19T12:54:39.443198+05:30"},{"city":"Mussoorie","state":"Uttarakhand","latitude":30.4599,"longitude":78.0664,"temp":28.0,"humidity":29,"rain":0.0,"pressure":808.0,"uv_index":6.35,"wind_gusts":46.4,"aqi":58,"pm10":68.0,"pm2_5":14.8,"mosquito_risk":4,"arthritis_risk":5,"migraine_risk":7,"frizz_risk":0,"updated_at":"2026-04-19T12:54:39.443204+05:30"},{"city":"Dharamshala","state":"Himachal Pradesh","latitude":32.219,"longitude":76.3234,"temp":25.7,"humidity":40,"rain":0.0,"pressure":871.8,"uv_index":6.1,"wind_gusts":39.2,"aqi":44,"pm10":28.4,"pm2_5":7.2,"mosquito_risk":4,"arthritis_risk":5,"migraine_risk":7,"frizz_risk":0,"updated_at":"2026-04-19T12:54:39.443212+05:30"},{"city":"Dalhousie","state":"Himachal Pradesh","latitude":32.5387,"longitude":75.971,"temp":22.3,"humidity":37,"rain":0.0,"pressure":807.2,"uv_index":6.7,"wind_gusts":34.6,"aqi":58,"pm10":49.9,"pm2_5":11.9,"mosquito_risk":0,"arthritis_risk":5,"migraine_risk":7,"frizz_risk":0,"updated_at":"2026-04-19T12:54:39.443219+05:30"},{"city":"Patiala","state":"Punjab","latitude":30.3398,"longitude":76.3869,"temp":36.9,"humidity":29,"rain":0.0,"pressure":977.6,"uv_index":6.8,"wind_gusts":26.6,"aqi":142,"pm10":316.6,"pm2_5":39.0,"mosquito_risk":0,"arthritis_risk":5,"migraine_risk":10,"frizz_risk":0,"updated_at":"2026-04-19T12:54:39.443226+05:30"},{"city":"Bhatinda","state":"Punjab","latitude":30.211,"longitude":74.9455,"temp":38.2,"humidity":19,"rain":0.0,"pressure":983.3,"uv_index":7.85,"wind_gusts":36.0,"aqi":81,"pm10":62.9,"pm2_5":21.1,"mosquito_risk":0,"arthritis_risk":5,"migraine_risk":10,"frizz_risk":0,"updated_at":"2026-04-19T12:54:39.443233+05:30"},{"city":"Rohtak","state":"Haryana","latitude":28.8955,"longitude":76.6066,"temp":35.7,"humidity":37,"rain":0.0,"pressure":981.1,"uv_index":7.0,"wind_gusts":23.0,"aqi":225,"pm10":338.1,"pm2_5":53.6,"mosquito_risk":0,"arthritis_risk":5,"migraine_risk":10,"frizz_risk":1,"updated_at":"2026-04-19T12:54:39.443240+05:30"},{"city":"Panipat","state":"Haryana","latitude":29.3909,"longitude":76.9635,"temp":37.1,"humidity":29,"rain":0.0,"pressure":979.8,"uv_index":6.3,"wind_gusts":28.8,"aqi":412,"pm10":409.8,"pm2_5":66.1,"mosquito_risk":0,"arthritis_risk":5,"migraine_risk":10,"frizz_risk":1,"updated_at":"2026-04-19T12:54:39.443246+05:30"},{"city":"Mathura","state":"Uttar Pradesh","latitude":27.4924,"longitude":77.6737,"temp":40.3,"humidity":22,"rain":0.0,"pressure":985.1,"uv_index":7.65,"wind_gusts":37.8,"aqi":275,"pm10":264.5,"pm2_5":56.0,"mosquito_risk":0,"arthritis_risk":5,"migraine_risk":10,"frizz_risk":0,"updated_at":"2026-04-19T12:54:39.443252+05:30"},{"city":"Vrindavan","state":"Uttar Pradesh","latitude":27.5823,"longitude":77.7027,"temp":40.3,"humidity":21,"rain":0.0,"pressure":985.6,"uv_index":7.65,"wind_gusts":41.4,"aqi":275,"pm10":264.5,"pm2_5":56.0,"mosquito_risk":0,"arthritis_risk":5,"migraine_risk":10,"frizz_risk":0,"updated_at":"2026-04-19T12:54:39.443258+05:30"},{"city":"Ayodhya","state":"Uttar Pradesh","latitude":26.7922,"longitude":82.1998,"temp":39.5,"humidity":29,"rain":0.0,"pressure":992.9,"uv_index":8.05,"wind_gusts":36.0,"aqi":96,"pm10":70.1,"pm2_5":34.7,"mosquito_risk":0,"arthritis_risk":5,"migraine_risk":10,"frizz_risk":1,"updated_at":"2026-04-19T12:54:39.443264+05:30"},{"city":"Ratlam","state":"Madhya Pradesh","latitude":23.3315,"longitude":75.0367,"temp":36.4,"humidity":25,"rain":0.0,"pressure":955.0,"uv_index":8.45,"wind_gusts":26.6,"aqi":41,"pm10":15.6,"pm2_5":8.7,"mosquito_risk":0,"arthritis_risk":5,"migraine_risk":10,"frizz_risk":0,"updated_at":"2026-04-19T12:54:39.443270+05:30"},{"city":"Sagar","state":"Madhya Pradesh","latitude":23.8388,"longitude":78.7378,"temp":40.3,"humidity":17,"rain":0.0,"pressure":949.9,"uv_index":8.6,"wind_gusts":34.2,"aqi":54,"pm10":46.6,"pm2_5":12.8,"mosquito_risk":0,"arthritis_risk":5,"migraine_risk":10,"frizz_risk":0,"updated_at":"2026-04-19T12:54:39.443277+05:30"},{"city":"Satna","state":"Madhya Pradesh","latitude":24.6005,"longitude":80.8322,"temp":42.4,"humidity":15,"rain":0.0,"pressure":970.0,"uv_index":8.65,"wind_gusts":39.6,"aqi":76,"pm10":157.9,"pm2_5":26.8,"mosquito_risk":0,"arthritis_risk":5,"migraine_risk":10,"frizz_risk":0,"updated_at":"2026-04-19T12:54:39.443283+05:30"},{"city":"Akola","state":"Maharashtra","latitude":20.7002,"longitude":77.0082,"temp":42.1,"humidity":15,"rain":0.0,"pressure":973.8,"uv_index":8.85,"wind_gusts":24.1,"aqi":64,"pm10":13.6,"pm2_5":8.1,"mosquito_risk":0,"arthritis_risk":5,"migraine_risk":10,"frizz_risk":0,"updated_at":"2026-04-19T12:54:39.443290+05:30"},{"city":"Amravati","state":"Maharashtra","latitude":20.9374,"longitude":77.7796,"temp":40.5,"humidity":16,"rain":0.0,"pressure":966.4,"uv_index":8.85,"wind_gusts":16.2,"aqi":67,"pm10":14.0,"pm2_5":7.9,"mosquito_risk":0,"arthritis_risk":5,"migraine_risk":10,"frizz_risk":0,"updated_at":"2026-04-19T12:54:39.443297+05:30"},{"city":"Latur","state":"Maharashtra","latitude":18.4088,"longitude":76.5604,"temp":37.4,"humidity":23,"rain":0.0,"pressure":940.2,"uv_index":9.1,"wind_gusts":17.6,"aqi":109,"pm10":25.8,"pm2_5":20.8,"mosquito_risk":0,"arthritis_risk":5,"migraine_risk":10,"frizz_risk":0,"updated_at":"2026-04-19T12:54:39.443303+05:30"},{"city":"Nanded","state":"Maharashtra","latitude":19.1383,"longitude":77.3091,"temp":39.4,"humidity":22,"rain":0.0,"pressure":967.9,"uv_index":9.0,"wind_gusts":22.7,"aqi":89,"pm10":16.6,"pm2_5":12.7,"mosquito_risk":0,"arthritis_risk":5,"migraine_risk":10,"frizz_risk":0,"updated_at":"2026-04-19T12:54:39.443309+05:30"},{"city":"Gulbarga","state":"Karnataka","latitude":17.3297,"longitude":76.8343,"temp":39.5,"humidity":26,"rain":0.0,"pressure":958.3,"uv_index":9.1,"wind_gusts":40.3,"aqi":99,"pm10":46.0,"pm2_5":38.5,"mosquito_risk":0,"arthritis_risk":5,"migraine_risk":10,"frizz_risk":1,"updated_at":"2026-04-19T12:54:39.443315+05:30"},{"city":"Bidar","state":"Karnataka","latitude":17.9104,"longitude":77.5199,"temp":38.1,"humidity":27,"rain":0.0,"pressure":936.0,"uv_index":9.15,"wind_gusts":34.9,"aqi":105,"pm10":45.1,"pm2_5":38.1,"mosquito_risk":0,"arthritis_risk":5,"migraine_risk":10,"frizz_risk":0,"updated_at":"2026-04-19T12:54:39.443321+05:30"},{"city":"Hospet","state":"Karnataka","latitude":15.2689,"longitude":76.3909,"temp":34.8,"humidity":50,"rain":0.0,"pressure":955.7,"uv_index":9.3,"wind_gusts":25.6,"aqi":94,"pm10":39.1,"pm2_5":31.8,"mosquito_risk":0,"arthritis_risk":5,"migraine_risk":7,"frizz_risk":1,"updated_at":"2026-04-19T12:54:39.443327+05:30"},{"city":"Tirupur","state":"Tamil Nadu","latitude":11.1085,"longitude":77.3411,"temp":37.5,"humidity":34,"rain":0.0,"pressure":975.0,"uv_index":9.4,"wind_gusts":28.8,"aqi":71,"pm10":27.4,"pm2_5":19.0,"mosquito_risk":0,"arthritis_risk":5,"migraine_risk":10,"frizz_risk":1,"updated_at":"2026-04-19T12:54:39.443334+05:30"},{"city":"Alappuzha","state":"Kerala","latitude":9.4981,"longitude":76.3388,"temp":29.5,"humidity":82,"rain":0.0,"pressure":1008.4,"uv_index":9.1,"wind_gusts":23.0,"aqi":84,"pm10":27.0,"pm2_5":21.4,"mosquito_risk":7,"arthritis_risk":0,"migraine_risk":4,"frizz_risk":1,"updated_at":"2026-04-19T12:54:39.443340+05:30"},{"city":"Munnar","state":"Kerala","latitude":10.0889,"longitude":77.0595,"temp":32.4,"humidity":37,"rain":0.0,"pressure":860.3,"uv_index":9.65,"wind_gusts":37.8,"aqi":77,"pm10":25.6,"pm2_5":15.5,"mosquito_risk":0,"arthritis_risk":5,"migraine_risk":7,"frizz_risk":0,"updated_at":"2026-04-19T12:54:39.443347+05:30"},{"city":"Silchar","state":"Assam","latitude":24.8333,"longitude":92.7789,"temp":26.5,"humidity":81,"rain":0.0,"pressure":1004.9,"uv_index":8.8,"wind_gusts":33.8,"aqi":158,"pm10":73.3,"pm2_5":53.1,"mosquito_risk":7,"arthritis_risk":5,"migraine_risk":4,"frizz_risk":1,"updated_at":"2026-04-19T12:54:39.443354+05:30"},{"city":"Dibrugarh","state":"Assam","latitude":27.4728,"longitude":94.912,"temp":29.7,"humidity":66,"rain":0.0,"pressure":993.5,"uv_index":8.65,"wind_gusts":19.4,"aqi":146,"pm10":70.3,"pm2_5":46.4,"mosquito_risk":7,"arthritis_risk":5,"migraine_risk":7,"frizz_risk":1,"updated_at":"2026-04-19T12:54:39.443360+05:30"}]