[{"city":"Delhi","state":"Delhi","latitude":28.6139,"longitude":77.209,"temp":24.4,"humidity":40,"rain":0.0,"pressure":980.4,"uv_index":7.3,"wind_gusts":32.0,"aqi":458,"pm10":521.5,"pm2_5":95.9,"mosquito_risk":0,"arthritis_risk":5,"migraine_risk":7,"frizz_risk":0,"updated_at":"2026-04-21T03:26:28.321264+05:30"},{"city":"Mumbai","state":"Maharashtra","latitude":19.076,"longitude":72.8777,"temp":28.2,"humidity":85,"rain":0.0,"pressure":1006.5,"uv_index":8.0,"wind_gusts":21.6,"aqi":78,"pm10":66.4,"pm2_5":25.3,"mosquito_risk":7,"arthritis_risk":5,"migraine_risk":4,"frizz_risk":1,"updated_at":"2026-04-21T03:26:28.321325+05:30"},{"city":"Bangalore","state":"Karnataka","latitude":12.9716,"longitude":77.5946,"temp":24.1,"humidity":66,"rain":0.0,"pressure":909.8,"uv_index":9.6,"wind_gusts":23.8,"aqi":79,"pm10":23.0,"pm2_5":21.5,"mosquito_risk":3,"arthritis_risk":5,"migraine_risk":7,"frizz_risk":1,"updated_at":"2026-04-21T03:26:28.321341+05:30"},{"city":"Hyderabad","state":"Telangana","latitude":17.385,"longitude":78.4867,"temp":26.6,"humidity":67,"rain":0.0,"pressure":951.6,"uv_index":9.3,"wind_gusts":32.8,"aqi":123,"pm10":37.6,"pm2_5":33.9,"mosquito_risk":7,"arthritis_risk":5,"migraine_risk":7,"frizz_risk":1,"updated_at":"2026-04-21T03:26:28.321351+05:30"},{"city":"Chennai","state":"Tamil Nadu","latitude":13.0827,"longitude":80.2707,"temp":28.1,"humidity":88,"rain":0.0,"pressure":1005.4,"uv_index":9.3,"wind_gusts":35.3,"aqi":40,"pm10":13.5,"pm2_5":9.1,"mosquito_risk":7,"arthritis_risk":5,"migraine_risk":4,"frizz_risk":1,"updated_at":"2026-04-21T03:26:28.321360+05:30"},{"city":"Kolkata","state":"West Bengal","latitude":22.5726,"longitude":88.3639,"temp":27.6,"humidity":93,"rain":0.0,"pressure":1001.7,"uv_index":8.95,"wind_gusts":31.7,"aqi":81,"pm10":20.2,"pm2_5":16.8,"mosquito_risk":7,"arthritis_risk":5,"migraine_risk":4,"frizz_risk":1,"updated_at":"2026-04-21T03:26:28.321372+05:30"},{"city":"Pune","state":"Maharashtra","latitude":18.5204,"longitude":73.8567,"temp":23.9,"humidity":76,"rain":0.0,"pressure":946.4,"uv_index":8.5,"wind_gusts":34.6,"aqi":127,"pm10":48.2,"pm2_5":43.9,"mosquito_risk":3,"arthritis_risk":5,"migraine_risk":7,"frizz_risk":1,"updated_at":"2026-04-21T03:26:28.321380+05:30"},{"city":"Ahmedabad","state":"Gujarat","latitude":23.0225,"longitude":72.5714,"temp":26.2,"humidity":47,"rain":0.0,"pressure":1001.0,"uv_index":8.2,"wind_gusts":24.5,"aqi":49,"pm10":19.0,"pm2_5":10.7,"mosquito_risk":4,"arthritis_risk":5,"migraine_risk":4,"frizz_risk":0,"updated_at":"2026-04-21T03:26:28.321388+05:30"},{"city":"Jaipur","state":"Rajasthan","latitude":26.9124,"longitude":75.7873,"temp":29.2,"humidity":27,"rain":0.0,"pressure":958.2,"uv_index":7.95,"wind_gusts":28.1,"aqi":141,"pm10":131.3,"pm2_5":28.6,"mosquito_risk":4,"arthritis_risk":5,"migraine_risk":7,"frizz_risk":0,"updated_at":"2026-04-21T03:26:28.321396+05:30"},{"city":"Lucknow","state":"Uttar Pradesh","latitude":26.8467,"longitude":80.9462,"temp":26.3,"humidity":52,"rain":0.0,"pressure":989.5,"uv_index":7.9,"wind_gusts":46.4,"aqi":118,"pm10":148.1,"pm2_5":43.7,"mosquito_risk":4,"arthritis_risk":5,"migraine_risk":7,"frizz_risk":0,"updated_at":"2026-04-21T03:26:28.321404+05:30"},{"city":"Kanpur","state":"Uttar Pradesh","latitude":26.4499,"longitude":80.3319,"temp":24.6,"humidity":57,"rain":0.0,"pressure":987.9,"uv_index":7.9,"wind_gusts":34.2,"aqi":192,"pm10":358.6,"pm2_5":64.3,"mosquito_risk":0,"arthritis_risk":5,"migraine_risk":7,"frizz_risk":0,"updated_at":"2026-04-21T03:26:28.321411+05:30"},{"city":"Chandigarh","state":"Chandigarh","latitude":30.7333,"longitude":76.7794,"temp":22.2,"humidity":46,"rain":0.0,"pressure":966.3,"uv_index":7.25,"wind_gusts":29.5,"aqi":60,"pm10":24.4,"pm2_5":17.3,"mosquito_risk":0,"arthritis_risk":5,"migraine_risk":7,"frizz_risk":0,"updated_at":"2026-04-21T03:26:28.321419+05:30"},{"city":"Srinagar","state":"Jammu and Kashmir","latitude":34.0837,"longitude":74.7973,"temp":8.5,"humidity":70,"rain":0.0,"pressure":839.2,"uv_index":8.45,"wind_gusts":14.4,"aqi":89,"pm10":59.6,"pm2_5":38.9,"mosquito_risk":3,"arthritis_risk":5,"migraine_risk":7,"frizz_risk":0,"updated_at":"2026-04-21T03:26:28.321426+05:30"},{"city":"Jammu","state":"Jammu and Kashmir","latitude":32.7266,"longitude":74.857,"temp":21.2,"humidity":57,"rain":0.0,"pressure":970.5,"uv_index":8.0,"wind_gusts":31.0,"aqi":64,"pm10":25.3,"pm2_5":19.6,"mosquito_risk":0,"arthritis_risk":5,"migraine_risk":7,"frizz_risk":0,"updated_at":"2026-04-21T03:26:28.321433+05:30"},{"city":"Amritsar","state":"Punjab","latitude":31.634,"longitude":74.8723,"temp":22.2,"humidity":60,"rain":0.0,"pressure":978.8,"uv_index":7.95,"wind_gusts":28.4,"aqi":71,"pm10":32.9,"pm2_5":20.4,"mosquito_risk":0,"arthritis_risk":5,"migraine_risk":7,"frizz_risk":0,"updated_at":"2026-04-21T03:26:28.321440+05:30"},{"city":"Ludhiana","state":"Punjab","latitude":30.901,"longitude":75.8573,"temp":23.7,"humidity":47,"rain":0.0,"pressure":976.8,"uv_index":7.55,"wind_gusts":29.5,"aqi":65,"pm10":31.8,"pm2_5":24.8,"mosquito_risk":0,"arthritis_risk":5,"migraine_risk":7,"frizz_risk":0,"updated_at":"2026-04-21T03:26:28.321449+05:30"},{"city":"Jalandhar","state":"Punjab","latitude":31.326,"longitude":75.5762,"temp":22.3,"humidity":55,"rain":0.0,"pressure":977.9,"uv_index":7.7,"wind_gusts":30.2,"aqi":72,"pm10":41.8,"pm2_5":29.5,"mosquito_risk":0,"arthritis_risk":5,"migraine_risk":7,"frizz_risk":0,"updated_at":"2026-04-21T03:26:28.321456+05:30"},{"city":"Dehradun","state":"Uttarakhand","latitude":30.6284,"longitude":78.0322,"temp":16.1,"humidity":44,"rain":0.0,"pressure":828.9,"uv_index":7.7,"wind_gusts":40.3,"aqi":44,"pm10":14.1,"pm2_5":10.0,"mosquito_risk":0,"arthritis_risk":5,"migraine_risk":7,"frizz_risk":0,"updated_at":"2026-04-21T03:26:28.321462+05:30"},{"city":"Shimla","state":"Himachal Pradesh","latitude":31.1048,"longitude":77.1734,"temp":15.7,"humidity":39,"rain":0.0,"pressure":784.1,"uv_index":7.75,"wind_gusts":45.7,"aqi":55,"pm10":39.5,"pm2_5":17.3,"mosquito_risk":0,"arthritis_risk":5,"migraine_risk":7,"frizz_risk":0,"updated_at":"2026-04-21T03:26:28.321469+05:30"},{"city":"Manali","state":"Himachal Pradesh","latitude":32.2396,"longitude":77.1887,"temp":15.7,"humidity":36,"rain":0.0,"pressure":819.6,"uv_index":9.2,"wind_gusts":32.4,"aqi":48,"pm10":28.5,"pm2_5":15.7,"mosquito_risk":0,"arthritis_risk":5,"migraine_risk":7,"frizz_risk":0,"updated_at":"2026-04-21T03:26:28.321475+05:30"},{"city":"Gurgaon","state":"Haryana","latitude":28.4595,"longitude":77.0266,"temp":21.4,"humidity":49,"rain":0.0,"pressure":978.7,"uv_index":7.4,"wind_gusts":33.1,"aqi":1203,"pm10":1121.3,"pm2_5":149.9,"mosquito_risk":0,"arthritis_risk":5,"migraine_risk":7,"frizz_risk":0,"updated_at":"2026-04-21T03:26:28.321482+05:30"},{"city":"Noida","state":"Uttar Pradesh","latitude":28.5355,"longitude":77.391,"temp":24.4,"humidity":41,"rain":0.0,"pressure":981.7,"uv_index":7.35,"wind_gusts":31.7,"aqi":1203,"pm10":1121.3,"pm2_5":149.9,"mosquito_risk":0,"arthritis_risk":5,"migraine_risk":7,"frizz_risk":0,"updated_at":"2026-04-21T03:26:28.321489+05:30"},{"city":"Ghaziabad","state":"Uttar Pradesh","latitude":28.6692,"longitude":77.4538,"temp":23.6,"humidity":44,"rain":0.0,"pressure":979.9,"uv_index":7.3,"wind_gusts":32.4,"aqi":273,"pm10":478.7,"pm2_5":91.0,"mosquito_risk":0,"arthritis_risk":5,"migraine_risk":7,"frizz_risk":0,"updated_at":"2026-04-21T03:26:28.321497+05:30"},{"city":"Faridabad","state":"Haryana","latitude":28.4089,"longitude":77.3178,"temp":24.1,"humidity":37,"rain":0.0,"pressure":980.9,"uv_index":7.35,"wind_gusts":32.0,"aqi":1203,"pm10":1121.3,"pm2_5":149.9,"mosquito_risk":0,"arthritis_risk":5,"migraine_risk":7,"frizz_risk":0,"updated_at":"2026-04-21T03:26:28.321504+05:30"},{"city":"Meerut","state":"Uttar Pradesh","latitude":28.9845,"longitude":77.7064,"temp":22.4,"humidity":46,"rain":0.0,"pressure":978.5,"uv_index":7.2,"wind_gusts":36.7,"aqi":273,"pm10":478.7,"pm2_5":91.0,"mosquito_risk":0,"arthritis_risk":5,"migraine_risk":7,"frizz_risk":0,"updated_at":"2026-04-21T03:26:28.321511+05:30"},{"city":"Agra","state":"Uttar Pradesh","latitude":27.1767,"longitude":78.0081,"temp":25.7,"humidity":47,"rain":0.0,"pressure":984.8,"uv_index":7.7,"wind_gusts":28.8,"aqi":868,"pm10":976.0,"pm2_5":138.3,"mosquito_risk":4,"arthritis_risk":5,"migraine_risk":7,"frizz_risk":0,"updated_at":"2026-04-21T03:26:28.321520+05:30"},{"city":"Varanasi","state":"Uttar Pradesh","latitude":25.3176,"longitude":82.9739,"temp":27.0,"humidity":45,"rain":0.0,"pressure":993.1,"uv_index":8.55,"wind_gusts":39.2,"aqi":87,"pm10":86.8,"pm2_5":34.5,"mosquito_risk":4,"arthritis_risk":5,"migraine_risk":7,"frizz_risk":0,"updated_at":"2026-04-21T03:26:28.321527+05:30"},{"city":"Prayagraj","state":"Uttar Pradesh","latitude":25.4358,"longitude":81.8463,"temp":28.3,"humidity":47,"rain":0.0,"pressure":991.9,"uv_index":8.4,"wind_gusts":35.3,"aqi":81,"pm10":131.8,"pm2_5":36.4,"mosquito_risk":4,"arthritis_risk":5,"migraine_risk":7,"frizz_risk":0,"updated_at":"2026-04-21T03:26:28.321533+05:30"},{"city":"Gorakhpur","state":"Uttar Pradesh","latitude":26.7606,"longitude":83.3732,"temp":26.7,"humidity":43,"rain":0.0,"pressure":992.5,"uv_index":8.35,"wind_gusts":44.6,"aqi":118,"pm10":37.8,"pm2_5":20.3,"mosquito_risk":4,"arthritis_risk":5,"migraine_risk":7,"frizz_risk":0,"updated_at":"2026-04-21T03:26:28.321540+05:30"},{"city":"Bareilly","state":"Uttar Pradesh","latitude":28.367,"longitude":79.4304,"temp":22.7,"humidity":57,"rain":0.0,"pressure":982.9,"uv_index":7.6,"wind_gusts":41.8,"aqi":77,"pm10":162.5,"pm2_5":41.4,"mosquito_risk":0,"arthritis_risk":5,"migraine_risk":7,"frizz_risk":0,"updated_at":"2026-04-21T03:26:28.321546+05:30"},{"city":"Aligarh","state":"Uttar Pradesh","latitude":27.8974,"longitude":78.088,"temp":24.1,"humidity":45,"rain":0.0,"pressure":982.7,"uv_index":7.5,"wind_gusts":33.8,"aqi":673,"pm10":914.6,"pm2_5":127.6,"mosquito_risk":0,"arthritis_risk":5,"migraine_risk":7,"frizz_risk":0,"updated_at":"2026-04-21T03:26:28.321552+05:30"},{"city":"Moradabad","state":"Uttar Pradesh","latitude":28.8386,"longitude":78.7733,"temp":22.2,"humidity":51,"rain":0.0,"pressure":980.2,"uv_index":7.4,"wind_gusts":40.0,"aqi":87,"pm10":265.4,"pm2_5":64.0,"mosquito_risk":0,"arthritis_risk":5,"migraine_risk":7,"frizz_risk":0,"updated_at":"2026-04-21T03:26:28.321559+05:30"},{"city":"Saharanpur","state":"Uttar Pradesh","latitude":29.9637,"longitude":77.546,"temp":21.8,"humidity":52,"rain":0.0,"pressure":972.8,"uv_index":7.0,"wind_gusts":31.7,"aqi":78,"pm10":54.0,"pm2_5":32.6,"mosquito_risk":0,"arthritis_risk":5,"migraine_risk":7,"frizz_risk":0,"updated_at":"2026-04-21T03:26:28.321565+05:30"},{"city":"Jhansi","state":"Uttar Pradesh","latitude":25.4484,"longitude":78.5685,"temp":27.8,"humidity":33,"rain":0.0,"pressure":974.8,"uv_index":8.25,"wind_gusts":29.2,"aqi":64,"pm10":33.1,"pm2_5":12.1,"mosquito_risk":4,"arthritis_risk":5,"migraine_risk":7,"frizz_risk":0,"updated_at":"2026-04-21T03:26:31.580963+05:30"},{"city":"Surat","state":"Gujarat","latitude":21.1702,"longitude":72.8311,"temp":27.0,"humidity":87,"rain":0.0,"pressure":1005.0,"uv_index":7.85,"wind_gusts":28.1,"aqi":89,"pm10":38.9,"pm2_5":27.2,"mosquito_risk":7,"arthritis_risk":5,"migraine_risk":4,"frizz_risk":1,"updated_at":"2026-04-21T03:26:31.580994+05:30"},{"city":"Vadodara","state":"Gujarat","latitude":22.3072,"longitude":73.1812,"temp":27.8,"humidity":70,"rain":0.0,"pressure":1002.8,"uv_index":8.15,"wind_gusts":24.1,"aqi":81,"pm10":35.0,"pm2_5":28.8,"mosquito_risk":7,"arthritis_risk":5,"migraine_risk":4,"frizz_risk":1,"updated_at":"2026-04-21T03:26:31.581004+05:30"},{"city":"Rajkot","state":"Gujarat","latitude":22.3039,"longitude":70.8022,"temp":23.6,"humidity":80,"rain":0.0,"pressure":994.0,"uv_index":7.85,"wind_gusts":29.5,"aqi":53,"pm10":59.1,"pm2_5":18.7,"mosquito_risk":3,"arthritis_risk":5,"migraine_risk":7,"frizz_risk":1,"updated_at":"2026-04-21T03:26:31.581012+05:30"},{"city":"Thane","state":"Maharashtra","latitude":19.2183,"longitude":72.9781,"temp":25.9,"humidity":93,"rain":0.0,"pressure":1006.1,"uv_index":8.0,"wind_gusts":34.2,"aqi":78,"pm10":66.4,"pm2_5":25.3,"mosquito_risk":7,"arthritis_risk":5,"migraine_risk":4,"frizz_risk":1,"updated_at":"2026-04-21T03:26:31.581020+05:30"},{"city":"Nagpur","state":"Maharashtra","latitude":21.1458,"longitude":79.0882,"temp":27.1,"humidity":66,"rain":0.0,"pressure":970.3,"uv_index":8.45,"wind_gusts":19.8,"aqi":90,"pm10":30.4,"pm2_5":29.0,"mosquito_risk":7,"arthritis_risk":5,"migraine_risk":7,"frizz_risk":1,"updated_at":"2026-04-21T03:26:31.581027+05:30"},{"city":"Nashik","state":"Maharashtra","latitude":19.9975,"longitude":73.7898,"temp":25.1,"humidity":59,"rain":0.0,"pressure":944.2,"uv_index":8.3,"wind_gusts":37.8,"aqi":72,"pm10":27.1,"pm2_5":21.7,"mosquito_risk":4,"arthritis_risk":5,"migraine_risk":7,"frizz_risk":1,"updated_at":"2026-04-21T03:26:31.581035+05:30"},{"city":"Aurangabad","state":"Maharashtra","latitude":19.8762,"longitude":75.3433,"temp":27.5,"humidity":54,"rain":0.0,"pressure":942.4,"uv_index":9.0,"wind_gusts":27.4,"aqi":88,"pm10":34.9,"pm2_5":29.7,"mosquito_risk":4,"arthritis_risk":5,"migraine_risk":7,"frizz_risk":1,"updated_at":"2026-04-21T03:26:31.581041+05:30"},{"city":"Solapur","state":"Maharashtra","latitude":17.6599,"longitude":75.9064,"temp":26.4,"humidity":68,"rain":0.0,"pressure":955.2,"uv_index":9.0,"wind_gusts":35.3,"aqi":112,"pm10":67.1,"pm2_5":55.5,"mosquito_risk":7,"arthritis_risk":5,"migraine_risk":7,"frizz_risk":1,"updated_at":"2026-04-21T03:26:31.581048+05:30"},{"city":"Kolhapur","state":"Maharashtra","latitude":16.705,"longitude":74.2433,"temp":22.5,"humidity":88,"rain":0.0,"pressure":945.5,"uv_index":9.05,"wind_gusts":29.2,"aqi":120,"pm10":44.9,"pm2_5":41.2,"mosquito_risk":3,"arthritis_risk":5,"migraine_risk":7,"frizz_risk":1,"updated_at":"2026-04-21T03:26:31.581055+05:30"},{"city":"Goa","state":"Goa","latitude":15.2993,"longitude":74.124,"temp":28.2,"humidity":85,"rain":0.0,"pressure":995.2,"uv_index":9.05,"wind_gusts":27.4,"aqi":85,"pm10":42.8,"pm2_5":29.2,"mosquito_risk":7,"arthritis_risk":5,"migraine_risk":7,"frizz_risk":1,"updated_at":"2026-04-21T03:26:31.581061+05:30"},{"city":"Jodhpur","state":"Rajasthan","latitude":26.2389,"longitude":73.0243,"temp":28.5,"humidity":38,"rain":0.0,"pressure":981.2,"uv_index":7.7,"wind_gusts":32.4,"aqi":107,"pm10":171.8,"pm2_5":27.3,"mosquito_risk":4,"arthritis_risk":5,"migraine_risk":7,"frizz_risk":0,"updated_at":"2026-04-21T03:26:31.581068+05:30"},{"city":"Udaipur","state":"Rajasthan","latitude":24.5854,"longitude":73.7125,"temp":24.6,"humidity":37,"rain":0.0,"pressure":945.7,"uv_index":8.7,"wind_gusts":38.2,"aqi":45,"pm10":31.0,"pm2_5":10.7,"mosquito_risk":0,"arthritis_risk":5,"migraine_risk":7,"frizz_risk":0,"updated_at":"2026-04-21T03:26:31.581075+05:30"},{"city":"Kota","state":"Rajasthan","latitude":25.2138,"longitude":75.8648,"temp":26.3,"humidity":34,"rain":0.0,"pressure":976.6,"uv_index":8.2,"wind_gusts":28.4,"aqi":45,"pm10":12.8,"pm2_5":9.1,"mosquito_risk":4,"arthritis_risk":5,"migraine_risk":7,"frizz_risk":0,"updated_at":"2026-04-21T03:26:31.581082+05:30"},{"city":"Bikaner","state":"Rajasthan","latitude":28.0229,"longitude":73.3119,"temp":29.6,"humidity":31,"rain":0.0,"pressure":979.7,"uv_index":7.6,"wind_gusts":19.8,"aqi":56,"pm10":38.6,"pm2_5":17.1,"mosquito_risk":4,"arthritis_risk":5,"migraine_risk":7,"frizz_risk":0,"updated_at":"2026-04-21T03:26:31.581088+05:30"},{"city":"Ajmer","state":"Rajasthan","latitude":26.4499,"longitude":74.6399,"temp":26.0,"humidity":40,"rain":0.0,"pressure":953.1,"uv_index":8.15,"wind_gusts":34.9,"aqi":66,"pm10":30.5,"pm2_5":12.0,"mosquito_risk":4,"arthritis_risk":5,"migraine_risk":7,"frizz_risk":0,"updated_at":"2026-04-21T03:26:31.581094+05:30"},{"city":"Gwalior","state":"Madhya Pradesh","latitude":26.2183,"longitude":78.1828,"temp":27.4,"humidity":40,"rain":0.0,"pressure":980.4,"uv_index":7.95,"wind_gusts":30.6,"aqi":116,"pm10":405.1,"pm2_5":56.0,"mosquito_risk":4,"arthritis_risk":5,"migraine_risk":7,"frizz_risk":0,"updated_at":"2026-04-21T03:26:31.581100+05:30"},{"city":"Indore","state":"Madhya Pradesh","latitude":22.7196,"longitude":75.8577,"temp":25.1,"humidity":53,"rain":0.0,"pressure":946.6,"uv_index":8.6,"wind_gusts":35.3,"aqi":59,"pm10":21.5,"pm2_5":16.6,"mosquito_risk":4,"arthritis_risk":5,"migraine_risk":7,"frizz_risk":0,"updated_at":"2026-04-21T03:26:31.581107+05:30"},{"city":"Bhopal","state":"Madhya Pradesh","latitude":23.2599,"longitude":77.4126,"temp":26.3,"humidity":42,"rain":0.0,"pressure":952.0,"uv_index":8.6,"wind_gusts":31.0,"aqi":59,"pm10":17.7,"pm2_5":15.7,"mosquito_risk":4,"arthritis_risk":5,"migraine_risk":7,"frizz_risk":0,"updated_at":"2026-04-21T03:26:31.581113+05:30"},{"city":"Jabalpur","state":"Madhya Pradesh","latitude":23.1815,"longitude":79.9864,"temp":26.6,"humidity":58,"rain":0.0,"pressure":958.5,"uv_index":8.8,"wind_gusts":27.7,"aqi":60,"pm10":21.5,"pm2_5":19.4,"mosquito_risk":4,"arthritis_risk":5,"migraine_risk":7,"frizz_risk":1,"updated_at":"2026-04-21T03:26:31.581120+05:30"},{"city":"Ujjain","state":"Madhya Pradesh","latitude":23.1765,"longitude":75.7885,"temp":25.7,"humidity":50,"rain":0.0,"pressure":952.4,"uv_index":8.55,"wind_gusts":36.7,"aqi":65,"pm10":21.6,"pm2_5":15.2,"mosquito_risk":4,"arthritis_risk":5,"migraine_risk":7,"frizz_risk":0,"updated_at":"2026-04-21T03:26:31.581127+05:30"},{"city":"Visakhapatnam","state":"Andhra Pradesh","latitude":17.6868,"longitude":83.2185,"temp":27.1,"humidity":88,"rain":0.0,"pressure":1001.4,"uv_index":9.2,"wind_gusts":41.0,"aqi":55,"pm10":19.6,"pm2_5":15.3,"mosquito_risk":7,"arthritis_risk":5,"migraine_risk":4,"frizz_risk":1,"updated_at":"2026-04-21T03:26:31.581133+05:30"},{"city":"Vijayawada","state":"Andhra Pradesh","latitude":16.5062,"longitude":80.648,"temp":27.3,"humidity":90,"rain":0.0,"pressure":1000.8,"uv_index":9.25,"wind_gusts":28.1,"aqi":59,"pm10":14.6,"pm2_5":11.3,"mosquito_risk":7,"arthritis_risk":5,"migraine_risk":4,"frizz_risk":1,"updated_at":"2026-04-21T03:26:31.581139+05:30"},{"city":"Guntur","state":"Andhra Pradesh","latitude":16.3067,"longitude":80.4365,"temp":27.2,"humidity":90,"rain":0.0,"pressure":1001.8,"uv_index":9.25,"wind_gusts":31.0,"aqi":61,"pm10":14.1,"pm2_5":10.9,"mosquito_risk":7,"arthritis_risk":5,"migraine_risk":4,"frizz_risk":1,"updated_at":"2026-04-21T03:26:31.581146+05:30"},{"city":"Nellore","state":"Andhra Pradesh","latitude":14.4426,"longitude":79.9865,"temp":26.9,"humidity":87,"rain":0.0,"pressure":1003.6,"uv_index":9.3,"wind_gusts":36.0,"aqi":50,"pm10":11.4,"pm2_5":8.9,"mosquito_risk":7,"arthritis_risk":5,"migraine_risk":4,"frizz_risk":1,"updated_at":"2026-04-21T03:26:31.581153+05:30"},{"city":"Kurnool","state":"Andhra Pradesh","latitude":15.8281,"longitude":78.0373,"temp":27.2,"humidity":75,"rain":0.0,"pressure":974.5,"uv_index":9.25,"wind_gusts":42.8,"aqi":100,"pm10":24.2,"pm2_5":22.6,"mosquito_risk":7,"arthritis_risk":5,"migraine_risk":7,"frizz_risk":1,"updated_at":"2026-04-21T03:26:31.581160+05:30"},{"city":"Kakinada","state":"Andhra Pradesh","latitude":16.9891,"longitude":82.2475,"temp":26.6,"humidity":91,"rain":0.0,"pressure":1005.8,"uv_index":9.2,"wind_gusts":28.1,"aqi":47,"pm10":17.6,"pm2_5":11.7,"mosquito_risk":7,"arthritis_risk":5,"migraine_risk":4,"frizz_risk":1,"updated_at":"2026-04-21T03:26:31.581166+05:30"},{"city":"Tirupati","state":"Andhra Pradesh","latitude":13.6288,"longitude":79.4192,"temp":25.1,"humidity":88,"rain":0.0,"pressure":990.4,"uv_index":9.35,"wind_gusts":31.7,"aqi":63,"pm10":14.4,"pm2_5":12.5,"mosquito_risk":7,"arthritis_risk":5,"migraine_risk":7,"frizz_risk":1,"updated_at":"2026-04-21T03:26:31.581172+05:30"},{"city":"Warangal","state":"Telangana","latitude":17.9689,"longitude":79.5941,"temp":28.3,"humidity":78,"rain":0.0,"pressure":976.5,"uv_index":8.85,"wind_gusts":26.6,"aqi":109,"pm10":29.2,"pm2_5":27.9,"mosquito_risk":7,"arthritis_risk":5,"migraine_risk":7,"frizz_risk":1,"updated_at":"2026-04-21T03:26:31.581178+05:30"},{"city":"Nizamabad","state":"Telangana","latitude":18.6725,"longitude":78.0941,"temp":27.5,"humidity":61,"rain":0.0,"pressure":962.4,"uv_index":9.1,"wind_gusts":31.0,"aqi":110,"pm10":48.8,"pm2_5":43.2,"mosquito_risk":7,"arthritis_risk":5,"migraine_risk":7,"frizz_risk":1,"updated_at":"2026-04-21T03:26:31.581184+05:30"},{"city":"Mysore","state":"Karnataka","latitude":12.2958,"longitude":76.6396,"temp":23.3,"humidity":90,"rain":0.0,"pressure":926.9,"uv_index":9.5,"wind_gusts":36.0,"aqi":87,"pm10":35.4,"pm2_5":32.8,"mosquito_risk":3,"arthritis_risk":5,"migraine_risk":7,"frizz_risk":1,"updated_at":"2026-04-21T03:26:31.581190+05:30"},{"city":"Mangalore","state":"Karnataka","latitude":12.9141,"longitude":74.856,"temp":27.3,"humidity":88,"rain":0.0,"pressure":1004.8,"uv_index":9.15,"wind_gusts":24.5,"aqi":84,"pm10":42.5,"pm2_5":32.2,"mosquito_risk":7,"arthritis_risk":5,"migraine_risk":4,"frizz_risk":1,"updated_at":"2026-04-21T03:26:31.581196+05:30"},{"city":"Hubli-Dharwad","state":"Karnataka","latitude":15.3647,"longitude":75.124,"temp":23.6,"humidity":93,"rain":0.0,"pressure":939.2,"uv_index":9.25,"wind_gusts":36.7,"aqi":106,"pm10":33.3,"pm2_5":28.5,"mosquito_risk":3,"arthritis_risk":5,"migraine_risk":7,"frizz_risk":1,"updated_at":"2026-04-21T03:26:31.581203+05:30"},{"city":"Belgaum","state":"Karnataka","latitude":15.8497,"longitude":74.4977,"temp":22.6,"humidity":91,"rain":0.0,"pressure":923.7,"uv_index":9.3,"wind_gusts":33.1,"aqi":98,"pm10":38.2,"pm2_5":30.3,"mosquito_risk":3,"arthritis_risk":5,"migraine_risk":7,"frizz_risk":1,"updated_at":"2026-04-21T03:26:34.848094+05:30"},{"city":"Coimbatore","state":"Tamil Nadu","latitude":11.0168,"longitude":76.9558,"temp":24.6,"humidity":88,"rain":0.0,"pressure":960.1,"uv_index":9.25,"wind_gusts":48.2,"aqi":96,"pm10":37.6,"pm2_5":33.2,"mosquito_risk":3,"arthritis_risk":5,"migraine_risk":7,"frizz_risk":1,"updated_at":"2026-04-21T03:26:34.848124+05:30"},{"city":"Madurai","state":"Tamil Nadu","latitude":9.9252,"longitude":78.1198,"temp":26.9,"humidity":87,"rain":0.0,"pressure":991.2,"uv_index":8.85,"wind_gusts":42.5,"aqi":64,"pm10":21.4,"pm2_5":19.4,"mosquito_risk":7,"arthritis_risk":5,"migraine_risk":7,"frizz_risk":1,"updated_at":"2026-04-21T03:26:34.848134+05:30"},{"city":"Trichy","state":"Tamil Nadu","latitude":10.7905,"longitude":78.7047,"temp":26.8,"humidity":88,"rain":0.0,"pressure":998.0,"uv_index":8.95,"wind_gusts":25.2,"aqi":61,"pm10":17.2,"pm2_5":15.9,"mosquito_risk":7,"arthritis_risk":5,"migraine_risk":7,"frizz_risk":1,"updated_at":"2026-04-21T03:26:34.848142+05:30"},{"city":"Salem","state":"Tamil Nadu","latitude":11.6643,"longitude":78.146,"temp":27.6,"humidity":73,"rain":0.0,"pressure":975.7,"uv_index":9.4,"wind_gusts":16.9,"aqi":63,"pm10":20.3,"pm2_5":19.3,"mosquito_risk":7,"arthritis_risk":5,"migraine_risk":7,"frizz_risk":1,"updated_at":"2026-04-21T03:26:34.848149+05:30"},{"city":"Tirunelveli","state":"Tamil Nadu","latitude":8.7139,"longitude":77.7567,"temp":26.1,"humidity":83,"rain":0.0,"pressure":1001.3,"uv_index":8.7,"wind_gusts":36.4,"aqi":59,"pm10":19.1,"pm2_5":16.9,"mosquito_risk":7,"arthritis_risk":5,"migraine_risk":4,"frizz_risk":1,"updated_at":"2026-04-21T03:26:34.848157+05:30"},{"city":"Vellore","state":"Tamil Nadu","latitude":12.9165,"longitude":79.1325,"temp":25.4,"humidity":81,"rain":0.0,"pressure":983.1,"uv_index":9.4,"wind_gusts":28.4,"aqi":75,"pm10":30.9,"pm2_5":29.4,"mosquito_risk":7,"arthritis_risk":5,"migraine_risk":7,"frizz_risk":1,"updated_at":"2026-04-21T03:26:34.848165+05:30"},{"city":"Erode","state":"Tamil Nadu","latitude":11.341,"longitude":77.7172,"temp":28.8,"humidity":77,"rain":0.0,"pressure":987.3,"uv_index":9.2,"wind_gusts":27.0,"aqi":64,"pm10":15.1,"pm2_5":14.4,"mosquito_risk":7,"arthritis_risk":5,"migraine_risk":7,"frizz_risk":1,"updated_at":"2026-04-21T03:26:34.848172+05:30"},{"city":"Kochi","state":"Kerala","latitude":9.9312,"longitude":76.2673,"temp":28.0,"humidity":83,"rain":0.0,"pressure":1006.8,"uv_index":8.65,"wind_gusts":30.6,"aqi":64,"pm10":28.6,"pm2_5":25.2,"mosquito_risk":7,"arthritis_risk":5,"migraine_risk":4,"frizz_risk":1,"updated_at":"2026-04-21T03:26:34.848179+05:30"},{"city":"Thiruvananthapuram","state":"Kerala","latitude":8.5241,"longitude":76.9366,"temp":28.1,"humidity":85,"rain":0.0,"pressure":1006.0,"uv_index":8.4,"wind_gusts":31.0,"aqi":57,"pm10":20.4,"pm2_5":14.8,"mosquito_risk":7,"arthritis_risk":5,"migraine_risk":4,"frizz_risk":1,"updated_at":"2026-04-21T03:26:34.848185+05:30"},{"city":"Kozhikode","state":"Kerala","latitude":11.2588,"longitude":75.7804,"temp":27.2,"humidity":86,"rain":0.0,"pressure":1006.1,"uv_index":9.05,"wind_gusts":28.8,"aqi":69,"pm10":34.9,"pm2_5":22.8,"mosquito_risk":7,"arthritis_risk":5,"migraine_risk":4,"frizz_risk":1,"updated_at":"2026-04-21T03:26:34.848192+05:30"},{"city":"Thrissur","state":"Kerala","latitude":10.5276,"longitude":76.2144,"temp":26.4,"humidity":89,"rain":0.0,"pressure":1005.3,"uv_index":9.05,"wind_gusts":36.4,"aqi":69,"pm10":36.8,"pm2_5":33.2,"mosquito_risk":7,"arthritis_risk":5,"migraine_risk":4,"frizz_risk":1,"updated_at":"2026-04-21T03:26:34.848199+05:30"},{"city":"Kannur","state":"Kerala","latitude":11.8745,"longitude":75.3704,"temp":27.2,"humidity":86,"rain":0.0,"pressure":1004.8,"uv_index":9.1,"wind_gusts":31.3,"aqi":78,"pm10":37.8,"pm2_5":32.8,"mosquito_risk":7,"arthritis_risk":5,"migraine_risk":4,"frizz_risk":1,"updated_at":"2026-04-21T03:26:34.848206+05:30"},{"city":"Patna","state":"Bihar","latitude":25.5941,"longitude":85.1376,"temp":28.3,"humidity":79,"rain":0.0,"pressure":995.1,"uv_index":8.7,"wind_gusts":32.8,"aqi":123,"pm10":87.1,"pm2_5":38.2,"mosquito_risk":7,"arthritis_risk":5,"migraine_risk":7,"frizz_risk":1,"updated_at":"2026-04-21T03:26:34.848212+05:30"},{"city":"Gaya","state":"Bihar","latitude":24.7914,"longitude":85.0002,"temp":29.2,"humidity":46,"rain":0.0,"pressure":988.9,"uv_index":8.75,"wind_gusts":32.4,"aqi":92,"pm10":50.8,"pm2_5":32.5,"mosquito_risk":4,"arthritis_risk":5,"migraine_risk":7,"frizz_risk":1,"updated_at":"2026-04-21T03:26:34.848219+05:30"},{"city":"Muzaffarpur","state":"Bihar","latitude":26.1209,"longitude":85.3647,"temp":27.4,"humidity":82,"rain":0.0,"pressure":995.1,"uv_index":8.65,"wind_gusts":29.5,"aqi":125,"pm10":92.0,"pm2_5":43.7,"mosquito_risk":7,"arthritis_risk":5,"migraine_risk":7,"frizz_risk":1,"updated_at":"2026-04-21T03:26:34.848225+05:30"},{"city":"Bhagalpur","state":"Bihar","latitude":25.2425,"longitude":87.0117,"temp":27.7,"humidity":88,"rain":0.0,"pressure":995.4,"uv_index":8.7,"wind_gusts":26.6,"aqi":151,"pm10":79.6,"pm2_5":61.9,"mosquito_risk":7,"arthritis_risk":5,"migraine_risk":7,"frizz_risk":1,"updated_at":"2026-04-21T03:26:34.848232+05:30"},{"city":"Ranchi","state":"Jharkhand","latitude":23.3441,"longitude":85.3096,"temp":25.7,"humidity":62,"rain":0.0,"pressure":934.5,"uv_index":9.25,"wind_gusts":38.5,"aqi":78,"pm10":40.4,"pm2_5":22.1,"mosquito_risk":7,"arthritis_risk":5,"migraine_risk":7,"frizz_risk":1,"updated_at":"2026-04-21T03:26:34.848239+05:30"},{"city":"Jamshedpur","state":"Jharkhand","latitude":22.8046,"longitude":86.2029,"temp":28.8,"humidity":71,"rain":0.0,"pressure":986.7,"uv_index":9.05,"wind_gusts":34.6,"aqi":119,"pm10":43.5,"pm2_5":34.9,"mosquito_risk":7,"arthritis_risk":5,"migraine_risk":7,"frizz_risk":1,"updated_at":"2026-04-21T03:26:34.848245+05:30"},{"city":"Dhanbad","state":"Jharkhand","latitude":23.7957,"longitude":86.4304,"temp":30.0,"humidity":58,"rain":0.0,"pressure":975.5,"uv_index":8.85,"wind_gusts":33.5,"aqi":142,"pm10":84.5,"pm2_5":57.3,"mosquito_risk":4,"arthritis_risk":5,"migraine_risk":7,"frizz_risk":1,"updated_at":"2026-04-21T03:26:34.848252+05:30"},{"city":"Bokaro","state":"Jharkhand","latitude":23.6693,"longitude":86.1511,"temp":29.2,"humidity":53,"rain":0.0,"pressure":979.6,"uv_index":8.9,"wind_gusts":36.4,"aqi":121,"pm10":68.9,"pm2_5":50.8,"mosquito_risk":4,"arthritis_risk":5,"migraine_risk":7,"frizz_risk":1,"updated_at":"2026-04-21T03:26:34.848258+05:30"},{"city":"Bhubaneswar","state":"Odisha","latitude":20.2961,"longitude":85.8245,"temp":26.6,"humidity":96,"rain":0.0,"pressure":999.0,"uv_index":9.15,"wind_gusts":33.1,"aqi":67,"pm10":14.6,"pm2_5":12.0,"mosquito_risk":7,"arthritis_risk":5,"migraine_risk":7,"frizz_risk":1,"updated_at":"2026-04-21T03:26:34.848264+05:30"},{"city":"Cuttack","state":"Odisha","latitude":20.4625,"longitude":85.8828,"temp":26.8,"humidity":95,"rain":0.0,"pressure":1000.8,"uv_index":9.2,"wind_gusts":33.8,"aqi":67,"pm10":14.6,"pm2_5":12.0,"mosquito_risk":7,"arthritis_risk":5,"migraine_risk":4,"frizz_risk":1,"updated_at":"2026-04-21T03:26:34.848270+05:30"},{"city":"Rourkela","state":"Odisha","latitude":22.2604,"longitude":84.8536,"temp":28.0,"humidity":70,"rain":0.0,"pressure":981.2,"uv_index":8.95,"wind_gusts":34.6,"aqi":122,"pm10":56.9,"pm2_5":46.3,"mosquito_risk":7,"arthritis_risk":5,"migraine_risk":7,"frizz_risk":1,"updated_at":"2026-04-21T03:26:34.848276+05:30"},{"city":"Raipur","state":"Chhattisgarh","latitude":21.2514,"longitude":81.6296,"temp":28.9,"humidity":49,"rain":0.0,"pressure":971.3,"uv_index":9.0,"wind_gusts":35.3,"aqi":94,"pm10":38.8,"pm2_5":36.6,"mosquito_risk":4,"arthritis_risk":5,"migraine_risk":7,"frizz_risk":1,"updated_at":"2026-04-21T03:26:34.848282+05:30"},{"city":"Bhilai","state":"Chhattisgarh","latitude":21.1938,"longitude":81.3509,"temp":27.8,"humidity":54,"rain":0.0,"pressure":971.6,"uv_index":9.0,"wind_gusts":31.3,"aqi":90,"pm10":34.9,"pm2_5":32.5,"mosquito_risk":4,"arthritis_risk":5,"migraine_risk":7,"frizz_risk":1,"updated_at":"2026-04-21T03:26:34.848307+05:30"},{"city":"Guwahati","state":"Assam","latitude":26.1158,"longitude":91.7086,"temp":23.8,"humidity":93,"rain":0.0,"pressure":998.0,"uv_index":8.45,"wind_gusts":41.0,"aqi":63,"pm10":21.0,"pm2_5":17.2,"mosquito_risk":3,"arthritis_risk":5,"migraine_risk":7,"frizz_risk":1,"updated_at":"2026-04-21T03:26:34.848315+05:30"},{"city":"Agartala","state":"Tripura","latitude":23.8315,"longitude":91.2868,"temp":27.3,"humidity":90,"rain":0.0,"pressure":1003.2,"uv_index":8.8,"wind_gusts":35.6,"aqi":84,"pm10":22.2,"pm2_5":18.3,"mosquito_risk":7,"arthritis_risk":5,"migraine_risk":4,"frizz_risk":1,"updated_at":"2026-04-21T03:26:34.848321+05:30"},{"city":"Shillong","state":"Meghalaya","latitude":25.5788,"longitude":91.8933,"temp":16.9,"humidity":92,"rain":0.0,"pressure":854.2,"uv_index":9.05,"wind_gusts":78.1,"aqi":55,"pm10":5.8,"pm2_5":5.3,"mosquito_risk":3,"arthritis_risk":10,"migraine_risk":7,"frizz_risk":0,"updated_at":"2026-04-21T03:26:34.848329+05:30"},{"city":"Imphal","state":"Manipur","latitude":24.817,"longitude":93.9368,"temp":19.1,"humidity":90,"rain":0.0,"pressure":921.4,"uv_index":9.2,"wind_gusts":82.8,"aqi":104,"pm10":50.5,"pm2_5":44.1,"mosquito_risk":3,"arthritis_risk":10,"migraine_risk":7,"frizz_risk":1,"updated_at":"2026-04-21T03:26:34.848336+05:30"},{"city":"Aizawl","state":"Mizoram","latitude":23.7271,"longitude":92.7176,"temp":21.0,"humidity":82,"rain":0.0,"pressure":891.5,"uv_index":9.05,"wind_gusts":65.9,"aqi":105,"pm10":31.5,"pm2_5":26.0,"mosquito_risk":3,"arthritis_risk":5,"migraine_risk":7,"frizz_risk":1,"updated_at":"2026-04-21T03:26:34.848342+05:30"},{"city":"Kohima","state":"Nagaland","latitude":25.6701,"longitude":94.1077,"temp":18.1,"humidity":83,"rain":0.0,"pressure":852.7,"uv_index":9.15,"wind_gusts":112.0,"aqi":73,"pm10":23.2,"pm2_5":18.9,"mosquito_risk":3,"arthritis_risk":10,"migraine_risk":7,"frizz_risk":0,"updated_at":"2026-04-21T03:26:34.848349+05:30"},{"city":"Gangtok","state":"Sikkim","latitude":27.3314,"longitude":88.6138,"temp":15.9,"humidity":76,"rain":0.0,"pressure":834.1,"uv_index":9.0,"wind_gusts":19.4,"aqi":58,"pm10":34.3,"pm2_5":24.9,"mosquito_risk":3,"arthritis_risk":5,"migraine_risk":7,"frizz_risk":0,"updated_at":"2026-04-21T03:26:34.848356+05:30"},{"city":"Siliguri","state":"West Bengal","latitude":26.7271,"longitude":88.3953,"temp":22.7,"humidity":85,"rain":0.0,"pressure":989.5,"uv_index":8.15,"wind_gusts":30.6,"aqi":95,"pm10":37.3,"pm2_5":32.1,"mosquito_risk":3,"arthritis_risk":5,"migraine_risk":7,"frizz_risk":1,"updated_at":"2026-04-21T03:26:38.113795+05:30"},{"city":"Durgapur","state":"West Bengal","latitude":23.5204,"longitude":87.3119,"temp":28.2,"humidity":88,"rain":0.0,"pressure":990.4,"uv_index":8.95,"wind_gusts":29.2,"aqi":147,"pm10":67.1,"pm2_5":57.7,"mosquito_risk":7,"arthritis_risk":5,"migraine_risk":7,"frizz_risk":1,"updated_at":"2026-04-21T03:26:38.113829+05:30"},{"city":"Asansol","state":"West Bengal","latitude":23.6739,"longitude":86.9524,"temp":28.7,"humidity":80,"rain":0.0,"pressure":988.9,"uv_index":9.0,"wind_gusts":28.4,"aqi":125,"pm10":73.6,"pm2_5":49.7,"mosquito_risk":7,"arthritis_risk":5,"migraine_risk":7,"frizz_risk":1,"updated_at":"2026-04-21T03:26:38.113839+05:30"},{"city":"Pondicherry","state":"Puducherry","latitude":11.9139,"longitude":79.8145,"temp":27.4,"humidity":94,"rain":0.0,"pressure":1006.7,"uv_index":9.2,"wind_gusts":33.1,"aqi":33,"pm10":11.6,"pm2_5":7.8,"mosquito_risk":7,"arthritis_risk":5,"migraine_risk":4,"frizz_risk":1,"updated_at":"2026-04-21T03:26:38.113847+05:30"},{"city":"Port Blair","state":"Andaman and Nicobar Islands","latitude":11.6234,"longitude":92.7265,"temp":29.4,"humidity":72,"rain":0.0,"pressure":1005.4,"uv_index":8.8,"wind_gusts":15.1,"aqi":60,"pm10":14.1,"pm2_5":11.3,"mosquito_risk":7,"arthritis_risk":5,"migraine_risk":4,"frizz_risk":1,"updated_at":"2026-04-21T03:26:38.113855+05:30"},{"city":"Haridwar","state":"Uttarakhand","latitude":29.9457,"longitude":78.1642,"temp":21.1,"humidity":58,"rain":0.0,"pressure":971.5,"uv_index":7.1,"wind_gusts":36.4,"aqi":62,"pm10":38.5,"pm2_5":28.6,"mosquito_risk":0,"arthritis_risk":5,"migraine_risk":7,"frizz_risk":0,"updated_at":"2026-04-21T03:26:38.113862+05:30"},{"city":"Rishikesh","state":"Uttarakhand","latitude":30.0869,"longitude":78.2676,"temp":21.1,"humidity":54,"rain":0.0,"pressure":964.5,"uv_index":7.2,"wind_gusts":37.1,"aqi":54,"pm10":34.5,"pm2_5":20.7,"mosquito_risk":0,"arthritis_risk":5,"migraine_risk":7,"frizz_risk":0,"updated_at":"2026-04-21T03:26:38.113870+05:30"},{"city":"Nainital","state":"Uttarakhand","latitude":29.3919,"longitude":79.4542,"temp":21.7,"humidity":28,"rain":0.0,"pressure":805.5,"uv_index":8.05,"wind_gusts":71.3,"aqi":65,"pm10":67.8,"pm2_5":21.0,"mosquito_risk":0,"arthritis_risk":5,"migraine_risk":7,"frizz_risk":0,"updated_at":"2026-04-21T03:26:38.113877+05:30"},{"city":"Mussoorie","state":"Uttarakhand","latitude":30.4599,"longitude":78.0664,"temp":18.4,"humidity":38,"rain":0.0,"pressure":801.9,"uv_index":7.6,"wind_gusts":42.1,"aqi":56,"pm10":29.5,"pm2_5":22.1,"mosquito_risk":0,"arthritis_risk":5,"migraine_risk":7,"frizz_risk":0,"updated_at":"2026-04-21T03:26:38.113884+05:30"},{"city":"Dharamshala","state":"Himachal Pradesh","latitude":32.219,"longitude":76.3234,"temp":22.3,"humidity":31,"rain":0.0,"pressure":868.3,"uv_index":7.85,"wind_gusts":33.5,"aqi":44,"pm10":20.7,"pm2_5":8.5,"mosquito_risk":0,"arthritis_risk":5,"migraine_risk":7,"frizz_risk":0,"updated_at":"2026-04-21T03:26:38.113890+05:30"},{"city":"Dalhousie","state":"Himachal Pradesh","latitude":32.5387,"longitude":75.971,"temp":18.6,"humidity":30,"rain":0.0,"pressure":803.0,"uv_index":8.1,"wind_gusts":30.2,"aqi":52,"pm10":24.0,"pm2_5":17.3,"mosquito_risk":0,"arthritis_risk":5,"migraine_risk":7,"frizz_risk":0,"updated_at":"2026-04-21T03:26:38.113898+05:30"},{"city":"Patiala","state":"Punjab","latitude":30.3398,"longitude":76.3869,"temp":22.3,"humidity":48,"rain":0.0,"pressure":976.0,"uv_index":7.2,"wind_gusts":29.2,"aqi":313,"pm10":421.0,"pm2_5":63.6,"mosquito_risk":0,"arthritis_risk":5,"migraine_risk":7,"frizz_risk":0,"updated_at":"2026-04-21T03:26:38.113905+05:30"},{"city":"Bhatinda","state":"Punjab","latitude":30.211,"longitude":74.9455,"temp":25.1,"humidity":43,"rain":0.0,"pressure":981.9,"uv_index":7.85,"wind_gusts":33.5,"aqi":71,"pm10":41.4,"pm2_5":28.2,"mosquito_risk":4,"arthritis_risk":5,"migraine_risk":7,"frizz_risk":0,"updated_at":"2026-04-21T03:26:38.113911+05:30"},{"city":"Rohtak","state":"Haryana","latitude":28.8955,"longitude":76.6066,"temp":21.0,"humidity":51,"rain":0.0,"pressure":979.2,"uv_index":7.35,"wind_gusts":36.0,"aqi":683,"pm10":666.8,"pm2_5":101.7,"mosquito_risk":0,"arthritis_risk":5,"migraine_risk":7,"frizz_risk":0,"updated_at":"2026-04-21T03:26:38.113917+05:30"},{"city":"Panipat","state":"Haryana","latitude":29.3909,"longitude":76.9635,"temp":22.2,"humidity":43,"rain":0.0,"pressure":977.9,"uv_index":7.15,"wind_gusts":33.5,"aqi":1122,"pm10":1333.7,"pm2_5":162.1,"mosquito_risk":0,"arthritis_risk":5,"migraine_risk":7,"frizz_risk":0,"updated_at":"2026-04-21T03:26:38.113923+05:30"},{"city":"Mathura","state":"Uttar Pradesh","latitude":27.4924,"longitude":77.6737,"temp":26.8,"humidity":38,"rain":0.0,"pressure":984.1,"uv_index":7.6,"wind_gusts":29.2,"aqi":934,"pm10":1065.4,"pm2_5":151.8,"mosquito_risk":4,"arthritis_risk":5,"migraine_risk":7,"frizz_risk":0,"updated_at":"2026-04-21T03:26:38.113930+05:30"},{"city":"Vrindavan","state":"Uttar Pradesh","latitude":27.5823,"longitude":77.7027,"temp":24.6,"humidity":44,"rain":0.0,"pressure":984.5,"uv_index":7.6,"wind_gusts":30.2,"aqi":934,"pm10":1065.4,"pm2_5":151.8,"mosquito_risk":0,"arthritis_risk":5,"migraine_risk":7,"frizz_risk":0,"updated_at":"2026-04-21T03:26:38.113935+05:30"},{"city":"Ayodhya","state":"Uttar Pradesh","latitude":26.7922,"longitude":82.1998,"temp":26.4,"humidity":47,"rain":0.0,"pressure":990.8,"uv_index":8.1,"wind_gusts":47.5,"aqi":105,"pm10":86.8,"pm2_5":31.2,"mosquito_risk":4,"arthritis_risk":5,"migraine_risk":7,"frizz_risk":0,"updated_at":"2026-04-21T03:26:38.113941+05:30"},{"city":"Ratlam","state":"Madhya Pradesh","latitude":23.3315,"longitude":75.0367,"temp":26.7,"humidity":52,"rain":0.0,"pressure":953.4,"uv_index":8.45,"wind_gusts":31.0,"aqi":84,"pm10":22.9,"pm2_5":14.8,"mosquito_risk":4,"arthritis_risk":5,"migraine_risk":7,"frizz_risk":0,"updated_at":"2026-04-21T03:26:38.113948+05:30"},{"city":"Sagar","state":"Madhya Pradesh","latitude":23.8388,"longitude":78.7378,"temp":27.1,"humidity":38,"rain":0.0,"pressure":948.1,"uv_index":8.65,"wind_gusts":29.9,"aqi":52,"pm10":19.0,"pm2_5":14.0,"mosquito_risk":4,"arthritis_risk":5,"migraine_risk":7,"frizz_risk":0,"updated_at":"2026-04-21T03:26:38.113954+05:30"},{"city":"Satna","state":"Madhya Pradesh","latitude":24.6005,"longitude":80.8322,"temp":27.9,"humidity":41,"rain":0.0,"pressure":968.1,"uv_index":8.65,"wind_gusts":33.5,"aqi":56,"pm10":35.3,"pm2_5":18.0,"mosquito_risk":4,"arthritis_risk":5,"migraine_risk":7,"frizz_risk":0,"updated_at":"2026-04-21T03:26:38.113960+05:30"},{"city":"Akola","state":"Maharashtra","latitude":20.7002,"longitude":77.0082,"temp":28.2,"humidity":56,"rain":0.0,"pressure":972.8,"uv_index":8.85,"wind_gusts":22.3,"aqi":80,"pm10":40.7,"pm2_5":37.4,"mosquito_risk":4,"arthritis_risk":5,"migraine_risk":7,"frizz_risk":1,"updated_at":"2026-04-21T03:26:38.113967+05:30"},{"city":"Amravati","state":"Maharashtra","latitude":20.9374,"longitude":77.7796,"temp":27.0,"humidity":67,"rain":0.0,"pressure":964.9,"uv_index":8.85,"wind_gusts":19.8,"aqi":75,"pm10":36.4,"pm2_5":33.2,"mosquito_risk":7,"arthritis_risk":5,"migraine_risk":7,"frizz_risk":1,"updated_at":"2026-04-21T03:26:38.113974+05:30"},{"city":"Latur","state":"Maharashtra","latitude":18.4088,"longitude":76.5604,"temp":24.1,"humidity":72,"rain":0.0,"pressure":937.9,"uv_index":9.1,"wind_gusts":24.8,"aqi":109,"pm10":53.9,"pm2_5":46.4,"mosquito_risk":3,"arthritis_risk":5,"migraine_risk":7,"frizz_risk":1,"updated_at":"2026-04-21T03:26:38.113980+05:30"},{"city":"Nanded","state":"Maharashtra","latitude":19.1383,"longitude":77.3091,"temp":26.1,"humidity":71,"rain":0.0,"pressure":966.3,"uv_index":9.0,"wind_gusts":19.1,"aqi":105,"pm10":44.4,"pm2_5":38.8,"mosquito_risk":7,"arthritis_risk":5,"migraine_risk":7,"frizz_risk":1,"updated_at":"2026-04-21T03:26:38.113986+05:30"},{"city":"Gulbarga","state":"Karnataka","latitude":17.3297,"longitude":76.8343,"temp":27.4,"humidity":59,"rain":0.0,"pressure":956.3,"uv_index":8.2,"wind_gusts":29.9,"aqi":117,"pm10":59.8,"pm2_5":50.9,"mosquito_risk":4,"arthritis_risk":5,"migraine_risk":7,"frizz_risk":1,"updated_at":"2026-04-21T03:26:38.113992+05:30"},{"city":"Bidar","state":"Karnataka","latitude":17.9104,"longitude":77.5199,"temp":26.8,"humidity":60,"rain":0.0,"pressure":934.0,"uv_index":8.45,"wind_gusts":31.3,"aqi":116,"pm10":58.3,"pm2_5":48.8,"mosquito_risk":4,"arthritis_risk":5,"migraine_risk":7,"frizz_risk":1,"updated_at":"2026-04-21T03:26:38.113998+05:30"},{"city":"Hospet","state":"Karnataka","latitude":15.2689,"longitude":76.3909,"temp":27.5,"humidity":81,"rain":0.0,"pressure":954.5,"uv_index":9.3,"wind_gusts":29.2,"aqi":134,"pm10":38.3,"pm2_5":36.1,"mosquito_risk":7,"arthritis_risk":5,"migraine_risk":7,"frizz_risk":1,"updated_at":"2026-04-21T03:26:38.114004+05:30"},{"city":"Tirupur","state":"Tamil Nadu","latitude":11.1085,"longitude":77.3411,"temp":27.1,"humidity":81,"rain":0.0,"pressure":973.5,"uv_index":9.2,"wind_gusts":31.7,"aqi":74,"pm10":27.4,"pm2_5":24.4,"mosquito_risk":7,"arthritis_risk":5,"migraine_risk":7,"frizz_risk":1,"updated_at":"2026-04-21T03:26:38.114010+05:30"},{"city":"Alappuzha","state":"Kerala","latitude":9.4981,"longitude":76.3388,"temp":27.7,"humidity":85,"rain":0.0,"pressure":1007.1,"uv_index":7.7,"wind_gusts":29.5,"aqi":64,"pm10":27.1,"pm2_5":21.5,"mosquito_risk":7,"arthritis_risk":5,"migraine_risk":4,"frizz_risk":1,"updated_at":"2026-04-21T03:26:38.114016+05:30"},{"city":"Munnar","state":"Kerala","latitude":10.0889,"longitude":77.0595,"temp":20.7,"humidity":91,"rain":0.0,"pressure":854.9,"uv_index":9.25,"wind_gusts":37.1,"aqi":65,"pm10":29.0,"pm2_5":27.4,"mosquito_risk":3,"arthritis_risk":5,"migraine_risk":7,"frizz_risk":1,"updated_at":"2026-04-21T03:26:38.114023+05:30"},{"city":"Silchar","state":"Assam","latitude":24.8333,"longitude":92.7789,"temp":23.3,"humidity":93,"rain":0.0,"pressure":1003.8,"uv_index":8.65,"wind_gusts":46.4,"aqi":101,"pm10":27.9,"pm2_5":23.3,"mosquito_risk":3,"arthritis_risk":5,"migraine_risk":4,"frizz_risk":1,"updated_at":"2026-04-21T03:26:38.114030+05:30"},{"city":"Dibrugarh","state":"Assam","latitude":27.4728,"longitude":94.912,"temp":23.3,"humidity":93,"rain":0.0,"pressure":992.2,"uv_index":7.0,"wind_gusts":35.6,"aqi":77,"pm10":22.4,"pm2_5":20.7,"mosquito_risk":3,"arthritis_risk":5,"migraine_risk":7,"frizz_risk":1,"updated_at":"2026-04-21T03:26:38.114036+05:30"}]