[{"city":"Delhi","state":"Delhi","latitude":28.6139,"longitude":77.209,"temp":35.1,"humidity":22,"rain":0.0,"pressure":985.8,"uv_index":6.15,"wind_gusts":25.6,"aqi":175,"pm10":326.0,"pm2_5":51.0,"mosquito_risk":0,"arthritis_risk":5,"migraine_risk":10,"frizz_risk":0,"updated_at":"2026-03-11T15:17:46.527918+05:30"},{"city":"Mumbai","state":"Maharashtra","latitude":19.076,"longitude":72.8777,"temp":27.4,"humidity":89,"rain":0.0,"pressure":1009.8,"uv_index":7.6,"wind_gusts":23.4,"aqi":186,"pm10":82.9,"pm2_5":75.4,"mosquito_risk":7,"arthritis_risk":0,"migraine_risk":4,"frizz_risk":1,"updated_at":"2026-03-11T15:17:46.527983+05:30"},{"city":"Bangalore","state":"Karnataka","latitude":12.9716,"longitude":77.5946,"temp":31.4,"humidity":27,"rain":0.0,"pressure":913.8,"uv_index":9.25,"wind_gusts":27.7,"aqi":66,"pm10":11.1,"pm2_5":9.8,"mosquito_risk":0,"arthritis_risk":5,"migraine_risk":7,"frizz_risk":0,"updated_at":"2026-03-11T15:17:46.528005+05:30"},{"city":"Hyderabad","state":"Telangana","latitude":17.385,"longitude":78.4867,"temp":35.4,"humidity":19,"rain":0.0,"pressure":955.7,"uv_index":8.6,"wind_gusts":24.8,"aqi":89,"pm10":34.7,"pm2_5":25.3,"mosquito_risk":0,"arthritis_risk":5,"migraine_risk":10,"frizz_risk":0,"updated_at":"2026-03-11T15:17:46.528021+05:30"},{"city":"Chennai","state":"Tamil Nadu","latitude":13.0827,"longitude":80.2707,"temp":31.9,"humidity":51,"rain":0.0,"pressure":1009.7,"uv_index":9.0,"wind_gusts":31.7,"aqi":67,"pm10":20.3,"pm2_5":16.5,"mosquito_risk":0,"arthritis_risk":0,"migraine_risk":4,"frizz_risk":1,"updated_at":"2026-03-11T15:17:46.528035+05:30"},{"city":"Kolkata","state":"West Bengal","latitude":22.5726,"longitude":88.3639,"temp":27.9,"humidity":73,"rain":0.0,"pressure":1008.2,"uv_index":6.85,"wind_gusts":22.0,"aqi":148,"pm10":61.5,"pm2_5":51.7,"mosquito_risk":7,"arthritis_risk":0,"migraine_risk":4,"frizz_risk":1,"updated_at":"2026-03-11T15:17:46.528048+05:30"},{"city":"Pune","state":"Maharashtra","latitude":18.5204,"longitude":73.8567,"temp":37.4,"humidity":20,"rain":0.0,"pressure":950.5,"uv_index":8.15,"wind_gusts":31.3,"aqi":122,"pm10":28.3,"pm2_5":23.1,"mosquito_risk":0,"arthritis_risk":5,"migraine_risk":10,"frizz_risk":0,"updated_at":"2026-03-11T15:17:46.528065+05:30"},{"city":"Ahmedabad","state":"Gujarat","latitude":23.0225,"longitude":72.5714,"temp":40.9,"humidity":13,"rain":0.0,"pressure":1003.8,"uv_index":7.4,"wind_gusts":25.9,"aqi":70,"pm10":17.0,"pm2_5":14.8,"mosquito_risk":0,"arthritis_risk":5,"migraine_risk":7,"frizz_risk":0,"updated_at":"2026-03-11T15:17:46.528078+05:30"},{"city":"Jaipur","state":"Rajasthan","latitude":26.9124,"longitude":75.7873,"temp":37.1,"humidity":10,"rain":0.0,"pressure":963.3,"uv_index":6.8,"wind_gusts":33.1,"aqi":99,"pm10":177.9,"pm2_5":29.9,"mosquito_risk":0,"arthritis_risk":5,"migraine_risk":10,"frizz_risk":0,"updated_at":"2026-03-11T15:17:46.528091+05:30"},{"city":"Lucknow","state":"Uttar Pradesh","latitude":26.8467,"longitude":80.9462,"temp":33.6,"humidity":35,"rain":0.0,"pressure":996.1,"uv_index":6.6,"wind_gusts":28.8,"aqi":190,"pm10":131.8,"pm2_5":49.6,"mosquito_risk":0,"arthritis_risk":5,"migraine_risk":7,"frizz_risk":0,"updated_at":"2026-03-11T15:17:46.528104+05:30"},{"city":"Kanpur","state":"Uttar Pradesh","latitude":26.4499,"longitude":80.3319,"temp":34.0,"humidity":34,"rain":0.0,"pressure":994.4,"uv_index":6.65,"wind_gusts":23.8,"aqi":176,"pm10":271.0,"pm2_5":55.5,"mosquito_risk":0,"arthritis_risk":5,"migraine_risk":7,"frizz_risk":0,"updated_at":"2026-03-11T15:17:46.528116+05:30"},{"city":"Chandigarh","state":"Chandigarh","latitude":30.7333,"longitude":76.7794,"temp":32.4,"humidity":31,"rain":0.0,"pressure":972.1,"uv_index":5.35,"wind_gusts":24.5,"aqi":152,"pm10":46.0,"pm2_5":27.9,"mosquito_risk":0,"arthritis_risk":5,"migraine_risk":3,"frizz_risk":0,"updated_at":"2026-03-11T15:17:46.528128+05:30"},{"city":"Srinagar","state":"Jammu and Kashmir","latitude":34.0837,"longitude":74.7973,"temp":10.4,"humidity":93,"rain":0.4,"pressure":846.2,"uv_index":4.1,"wind_gusts":28.1,"aqi":125,"pm10":25.4,"pm2_5":16.0,"mosquito_risk":6,"arthritis_risk":10,"migraine_risk":3,"frizz_risk":0,"updated_at":"2026-03-11T15:17:46.528140+05:30"},{"city":"Jammu","state":"Jammu and Kashmir","latitude":32.7266,"longitude":74.857,"temp":28.1,"humidity":46,"rain":0.0,"pressure":976.7,"uv_index":5.6,"wind_gusts":27.0,"aqi":112,"pm10":33.8,"pm2_5":18.3,"mosquito_risk":4,"arthritis_risk":5,"migraine_risk":3,"frizz_risk":0,"updated_at":"2026-03-11T15:17:46.528152+05:30"},{"city":"Amritsar","state":"Punjab","latitude":31.634,"longitude":74.8723,"temp":30.6,"humidity":50,"rain":0.0,"pressure":984.4,"uv_index":6.45,"wind_gusts":23.8,"aqi":158,"pm10":81.3,"pm2_5":45.4,"mosquito_risk":0,"arthritis_risk":5,"migraine_risk":7,"frizz_risk":1,"updated_at":"2026-03-11T15:17:46.528162+05:30"},{"city":"Ludhiana","state":"Punjab","latitude":30.901,"longitude":75.8573,"temp":33.4,"humidity":26,"rain":0.0,"pressure":981.9,"uv_index":6.3,"wind_gusts":14.8,"aqi":176,"pm10":78.9,"pm2_5":51.8,"mosquito_risk":0,"arthritis_risk":5,"migraine_risk":7,"frizz_risk":0,"updated_at":"2026-03-11T15:17:46.528173+05:30"},{"city":"Jalandhar","state":"Punjab","latitude":31.326,"longitude":75.5762,"temp":33.1,"humidity":31,"rain":0.0,"pressure":983.1,"uv_index":6.5,"wind_gusts":17.6,"aqi":168,"pm10":71.5,"pm2_5":38.2,"mosquito_risk":0,"arthritis_risk":5,"migraine_risk":7,"frizz_risk":0,"updated_at":"2026-03-11T15:17:46.528186+05:30"},{"city":"Dehradun","state":"Uttarakhand","latitude":30.6284,"longitude":78.0322,"temp":22.6,"humidity":59,"rain":0.0,"pressure":835.1,"uv_index":5.9,"wind_gusts":28.8,"aqi":84,"pm10":21.6,"pm2_5":14.1,"mosquito_risk":0,"arthritis_risk":5,"migraine_risk":3,"frizz_risk":0,"updated_at":"2026-03-11T15:17:46.528198+05:30"},{"city":"Shimla","state":"Himachal Pradesh","latitude":31.1048,"longitude":77.1734,"temp":20.6,"humidity":46,"rain":0.0,"pressure":790.5,"uv_index":5.85,"wind_gusts":46.8,"aqi":112,"pm10":19.1,"pm2_5":13.6,"mosquito_risk":0,"arthritis_risk":5,"migraine_risk":3,"frizz_risk":0,"updated_at":"2026-03-11T15:17:46.528209+05:30"},{"city":"Manali","state":"Himachal Pradesh","latitude":32.2396,"longitude":77.1887,"temp":18.8,"humidity":38,"rain":0.0,"pressure":826.0,"uv_index":6.7,"wind_gusts":42.5,"aqi":56,"pm10":25.8,"pm2_5":11.3,"mosquito_risk":0,"arthritis_risk":5,"migraine_risk":7,"frizz_risk":0,"updated_at":"2026-03-11T15:17:46.528219+05:30"},{"city":"Gurgaon","state":"Haryana","latitude":28.4595,"longitude":77.0266,"temp":35.5,"humidity":22,"rain":0.0,"pressure":984.2,"uv_index":6.15,"wind_gusts":24.5,"aqi":373,"pm10":1236.8,"pm2_5":122.9,"mosquito_risk":0,"arthritis_risk":5,"migraine_risk":10,"frizz_risk":0,"updated_at":"2026-03-11T15:17:46.528231+05:30"},{"city":"Noida","state":"Uttar Pradesh","latitude":28.5355,"longitude":77.391,"temp":35.6,"humidity":20,"rain":0.0,"pressure":987.4,"uv_index":6.15,"wind_gusts":25.9,"aqi":373,"pm10":1236.8,"pm2_5":122.9,"mosquito_risk":0,"arthritis_risk":5,"migraine_risk":10,"frizz_risk":0,"updated_at":"2026-03-11T15:17:46.528242+05:30"},{"city":"Ghaziabad","state":"Uttar Pradesh","latitude":28.6692,"longitude":77.4538,"temp":34.6,"humidity":23,"rain":0.0,"pressure":985.5,"uv_index":6.1,"wind_gusts":24.5,"aqi":170,"pm10":227.2,"pm2_5":49.4,"mosquito_risk":0,"arthritis_risk":5,"migraine_risk":7,"frizz_risk":0,"updated_at":"2026-03-11T15:17:46.528254+05:30"},{"city":"Faridabad","state":"Haryana","latitude":28.4089,"longitude":77.3178,"temp":35.5,"humidity":20,"rain":0.0,"pressure":986.6,"uv_index":6.15,"wind_gusts":23.0,"aqi":373,"pm10":1236.8,"pm2_5":122.9,"mosquito_risk":0,"arthritis_risk":5,"migraine_risk":10,"frizz_risk":0,"updated_at":"2026-03-11T15:17:46.528263+05:30"},{"city":"Meerut","state":"Uttar Pradesh","latitude":28.9845,"longitude":77.7064,"temp":34.3,"humidity":26,"rain":0.0,"pressure":984.2,"uv_index":5.5,"wind_gusts":29.2,"aqi":170,"pm10":227.2,"pm2_5":49.4,"mosquito_risk":0,"arthritis_risk":5,"migraine_risk":3,"frizz_risk":0,"updated_at":"2026-03-11T15:17:46.528273+05:30"},{"city":"Agra","state":"Uttar Pradesh","latitude":27.1767,"longitude":78.0081,"temp":37.7,"humidity":21,"rain":0.0,"pressure":990.2,"uv_index":6.5,"wind_gusts":18.4,"aqi":250,"pm10":588.6,"pm2_5":65.0,"mosquito_risk":0,"arthritis_risk":5,"migraine_risk":10,"frizz_risk":0,"updated_at":"2026-03-11T15:17:46.528285+05:30"},{"city":"Varanasi","state":"Uttar Pradesh","latitude":25.3176,"longitude":82.9739,"temp":32.0,"humidity":47,"rain":0.0,"pressure":1000.0,"uv_index":7.3,"wind_gusts":23.0,"aqi":192,"pm10":138.8,"pm2_5":94.1,"mosquito_risk":0,"arthritis_risk":5,"migraine_risk":4,"frizz_risk":1,"updated_at":"2026-03-11T15:17:46.528294+05:30"},{"city":"Prayagraj","state":"Uttar Pradesh","latitude":25.4358,"longitude":81.8463,"temp":32.9,"humidity":34,"rain":0.0,"pressure":998.8,"uv_index":7.15,"wind_gusts":23.8,"aqi":191,"pm10":121.5,"pm2_5":77.8,"mosquito_risk":0,"arthritis_risk":5,"migraine_risk":7,"frizz_risk":0,"updated_at":"2026-03-11T15:17:46.528301+05:30"},{"city":"Gorakhpur","state":"Uttar Pradesh","latitude":26.7606,"longitude":83.3732,"temp":30.9,"humidity":56,"rain":0.0,"pressure":999.2,"uv_index":7.0,"wind_gusts":22.0,"aqi":213,"pm10":150.9,"pm2_5":126.7,"mosquito_risk":0,"arthritis_risk":5,"migraine_risk":7,"frizz_risk":1,"updated_at":"2026-03-11T15:17:46.528306+05:30"},{"city":"Bareilly","state":"Uttar Pradesh","latitude":28.367,"longitude":79.4304,"temp":33.2,"humidity":35,"rain":0.0,"pressure":989.0,"uv_index":6.35,"wind_gusts":30.6,"aqi":205,"pm10":94.1,"pm2_5":68.0,"mosquito_risk":0,"arthritis_risk":5,"migraine_risk":7,"frizz_risk":0,"updated_at":"2026-03-11T15:17:46.528311+05:30"},{"city":"Aligarh","state":"Uttar Pradesh","latitude":27.8974,"longitude":78.088,"temp":36.2,"humidity":20,"rain":0.0,"pressure":988.1,"uv_index":6.25,"wind_gusts":25.6,"aqi":177,"pm10":499.2,"pm2_5":68.5,"mosquito_risk":0,"arthritis_risk":5,"migraine_risk":10,"frizz_risk":0,"updated_at":"2026-03-11T15:17:46.528317+05:30"},{"city":"Moradabad","state":"Uttar Pradesh","latitude":28.8386,"longitude":78.7733,"temp":33.8,"humidity":28,"rain":0.0,"pressure":986.0,"uv_index":6.15,"wind_gusts":34.6,"aqi":196,"pm10":92.4,"pm2_5":61.9,"mosquito_risk":0,"arthritis_risk":5,"migraine_risk":7,"frizz_risk":0,"updated_at":"2026-03-11T15:17:46.528323+05:30"},{"city":"Saharanpur","state":"Uttar Pradesh","latitude":29.9637,"longitude":77.546,"temp":33.0,"humidity":27,"rain":0.0,"pressure":978.6,"uv_index":5.4,"wind_gusts":36.0,"aqi":170,"pm10":57.9,"pm2_5":36.9,"mosquito_risk":0,"arthritis_risk":5,"migraine_risk":3,"frizz_risk":0,"updated_at":"2026-03-11T15:17:46.528328+05:30"},{"city":"Jhansi","state":"Uttar Pradesh","latitude":25.4484,"longitude":78.5685,"temp":37.6,"humidity":12,"rain":0.0,"pressure":980.8,"uv_index":7.1,"wind_gusts":27.7,"aqi":93,"pm10":46.3,"pm2_5":13.6,"mosquito_risk":0,"arthritis_risk":5,"migraine_risk":10,"frizz_risk":0,"updated_at":"2026-03-11T15:17:49.845408+05:30"},{"city":"Surat","state":"Gujarat","latitude":21.1702,"longitude":72.8311,"temp":39.2,"humidity":23,"rain":0.0,"pressure":1007.6,"uv_index":7.3,"wind_gusts":27.4,"aqi":112,"pm10":44.0,"pm2_5":39.0,"mosquito_risk":0,"arthritis_risk":5,"migraine_risk":7,"frizz_risk":0,"updated_at":"2026-03-11T15:17:49.845441+05:30"},{"city":"Vadodara","state":"Gujarat","latitude":22.3072,"longitude":73.1812,"temp":42.3,"humidity":12,"rain":0.0,"pressure":1005.4,"uv_index":7.45,"wind_gusts":20.2,"aqi":71,"pm10":21.6,"pm2_5":11.7,"mosquito_risk":0,"arthritis_risk":5,"migraine_risk":7,"frizz_risk":0,"updated_at":"2026-03-11T15:17:49.845452+05:30"},{"city":"Rajkot","state":"Gujarat","latitude":22.3039,"longitude":70.8022,"temp":38.9,"humidity":15,"rain":0.0,"pressure":996.9,"uv_index":7.25,"wind_gusts":32.4,"aqi":70,"pm10":18.3,"pm2_5":16.7,"mosquito_risk":0,"arthritis_risk":5,"migraine_risk":10,"frizz_risk":0,"updated_at":"2026-03-11T15:17:49.845462+05:30"},{"city":"Thane","state":"Maharashtra","latitude":19.2183,"longitude":72.9781,"temp":32.0,"humidity":61,"rain":0.0,"pressure":1009.5,"uv_index":7.6,"wind_gusts":40.7,"aqi":186,"pm10":82.9,"pm2_5":75.4,"mosquito_risk":3,"arthritis_risk":0,"migraine_risk":4,"frizz_risk":1,"updated_at":"2026-03-11T15:17:49.845472+05:30"},{"city":"Nagpur","state":"Maharashtra","latitude":21.1458,"longitude":79.0882,"temp":37.4,"humidity":18,"rain":0.0,"pressure":975.3,"uv_index":8.0,"wind_gusts":12.6,"aqi":83,"pm10":47.8,"pm2_5":23.1,"mosquito_risk":0,"arthritis_risk":5,"migraine_risk":10,"frizz_risk":0,"updated_at":"2026-03-11T15:17:49.845481+05:30"},{"city":"Nashik","state":"Maharashtra","latitude":19.9975,"longitude":73.7898,"temp":37.1,"humidity":17,"rain":0.0,"pressure":947.9,"uv_index":7.75,"wind_gusts":25.6,"aqi":93,"pm10":28.6,"pm2_5":23.4,"mosquito_risk":0,"arthritis_risk":5,"migraine_risk":10,"frizz_risk":0,"updated_at":"2026-03-11T15:17:49.845489+05:30"},{"city":"Aurangabad","state":"Maharashtra","latitude":19.8762,"longitude":75.3433,"temp":36.8,"humidity":18,"rain":0.0,"pressure":946.4,"uv_index":8.3,"wind_gusts":18.4,"aqi":114,"pm10":33.9,"pm2_5":26.6,"mosquito_risk":0,"arthritis_risk":5,"migraine_risk":10,"frizz_risk":0,"updated_at":"2026-03-11T15:17:49.845497+05:30"},{"city":"Solapur","state":"Maharashtra","latitude":17.6599,"longitude":75.9064,"temp":35.2,"humidity":26,"rain":0.0,"pressure":959.2,"uv_index":8.5,"wind_gusts":20.5,"aqi":118,"pm10":33.5,"pm2_5":26.7,"mosquito_risk":0,"arthritis_risk":5,"migraine_risk":10,"frizz_risk":0,"updated_at":"2026-03-11T15:17:49.845506+05:30"},{"city":"Kolhapur","state":"Maharashtra","latitude":16.705,"longitude":74.2433,"temp":34.7,"humidity":25,"rain":0.0,"pressure":949.8,"uv_index":8.65,"wind_gusts":32.4,"aqi":152,"pm10":36.1,"pm2_5":29.4,"mosquito_risk":0,"arthritis_risk":5,"migraine_risk":7,"frizz_risk":0,"updated_at":"2026-03-11T15:17:49.845515+05:30"},{"city":"Goa","state":"Goa","latitude":15.2993,"longitude":74.124,"temp":31.9,"humidity":58,"rain":0.0,"pressure":998.5,"uv_index":8.7,"wind_gusts":39.6,"aqi":153,"pm10":56.9,"pm2_5":48.2,"mosquito_risk":0,"arthritis_risk":5,"migraine_risk":7,"frizz_risk":1,"updated_at":"2026-03-11T15:17:49.845523+05:30"},{"city":"Jodhpur","state":"Rajasthan","latitude":26.2389,"longitude":73.0243,"temp":37.5,"humidity":14,"rain":0.0,"pressure":986.4,"uv_index":7.2,"wind_gusts":31.7,"aqi":86,"pm10":60.1,"pm2_5":17.5,"mosquito_risk":0,"arthritis_risk":5,"migraine_risk":10,"frizz_risk":0,"updated_at":"2026-03-11T15:17:49.845531+05:30"},{"city":"Udaipur","state":"Rajasthan","latitude":24.5854,"longitude":73.7125,"temp":36.5,"humidity":13,"rain":0.0,"pressure":950.6,"uv_index":7.8,"wind_gusts":26.3,"aqi":66,"pm10":15.0,"pm2_5":9.3,"mosquito_risk":0,"arthritis_risk":5,"migraine_risk":10,"frizz_risk":0,"updated_at":"2026-03-11T15:17:49.845539+05:30"},{"city":"Kota","state":"Rajasthan","latitude":25.2138,"longitude":75.8648,"temp":38.5,"humidity":13,"rain":0.0,"pressure":981.8,"uv_index":7.2,"wind_gusts":18.7,"aqi":75,"pm10":54.5,"pm2_5":15.5,"mosquito_risk":0,"arthritis_risk":5,"migraine_risk":10,"frizz_risk":0,"updated_at":"2026-03-11T15:17:49.845547+05:30"},{"city":"Bikaner","state":"Rajasthan","latitude":28.0229,"longitude":73.3119,"temp":36.6,"humidity":12,"rain":0.0,"pressure":985.0,"uv_index":6.2,"wind_gusts":27.7,"aqi":80,"pm10":11.9,"pm2_5":8.4,"mosquito_risk":0,"arthritis_risk":5,"migraine_risk":10,"frizz_risk":0,"updated_at":"2026-03-11T15:17:49.845556+05:30"},{"city":"Ajmer","state":"Rajasthan","latitude":26.4499,"longitude":74.6399,"temp":35.8,"humidity":15,"rain":0.0,"pressure":958.5,"uv_index":7.15,"wind_gusts":27.7,"aqi":83,"pm10":45.1,"pm2_5":15.9,"mosquito_risk":0,"arthritis_risk":5,"migraine_risk":10,"frizz_risk":0,"updated_at":"2026-03-11T15:17:49.845564+05:30"},{"city":"Gwalior","state":"Madhya Pradesh","latitude":26.2183,"longitude":78.1828,"temp":36.3,"humidity":14,"rain":0.0,"pressure":986.2,"uv_index":6.8,"wind_gusts":29.9,"aqi":108,"pm10":45.5,"pm2_5":14.2,"mosquito_risk":0,"arthritis_risk":5,"migraine_risk":10,"frizz_risk":0,"updated_at":"2026-03-11T15:17:49.845572+05:30"},{"city":"Indore","state":"Madhya Pradesh","latitude":22.7196,"longitude":75.8577,"temp":36.4,"humidity":13,"rain":0.0,"pressure":951.7,"uv_index":7.7,"wind_gusts":20.9,"aqi":66,"pm10":25.0,"pm2_5":12.5,"mosquito_risk":0,"arthritis_risk":5,"migraine_risk":10,"frizz_risk":0,"updated_at":"2026-03-11T15:17:49.845580+05:30"},{"city":"Bhopal","state":"Madhya Pradesh","latitude":23.2599,"longitude":77.4126,"temp":36.6,"humidity":15,"rain":0.0,"pressure":957.1,"uv_index":7.55,"wind_gusts":24.8,"aqi":69,"pm10":39.7,"pm2_5":14.8,"mosquito_risk":0,"arthritis_risk":5,"migraine_risk":10,"frizz_risk":0,"updated_at":"2026-03-11T15:17:49.845588+05:30"},{"city":"Jabalpur","state":"Madhya Pradesh","latitude":23.1815,"longitude":79.9864,"temp":35.8,"humidity":18,"rain":0.0,"pressure":964.5,"uv_index":7.7,"wind_gusts":24.5,"aqi":86,"pm10":78.0,"pm2_5":23.3,"mosquito_risk":0,"arthritis_risk":5,"migraine_risk":10,"frizz_risk":0,"updated_at":"2026-03-11T15:17:49.845597+05:30"},{"city":"Ujjain","state":"Madhya Pradesh","latitude":23.1765,"longitude":75.7885,"temp":35.8,"humidity":17,"rain":0.0,"pressure":957.4,"uv_index":7.65,"wind_gusts":14.8,"aqi":77,"pm10":22.9,"pm2_5":10.8,"mosquito_risk":0,"arthritis_risk":5,"migraine_risk":10,"frizz_risk":0,"updated_at":"2026-03-11T15:17:49.845606+05:30"},{"city":"Visakhapatnam","state":"Andhra Pradesh","latitude":17.6868,"longitude":83.2185,"temp":32.4,"humidity":38,"rain":0.0,"pressure":1005.7,"uv_index":8.6,"wind_gusts":39.2,"aqi":100,"pm10":32.5,"pm2_5":27.8,"mosquito_risk":0,"arthritis_risk":5,"migraine_risk":4,"frizz_risk":1,"updated_at":"2026-03-11T15:17:49.845614+05:30"},{"city":"Vijayawada","state":"Andhra Pradesh","latitude":16.5062,"longitude":80.648,"temp":35.1,"humidity":30,"rain":0.0,"pressure":1004.4,"uv_index":8.7,"wind_gusts":19.1,"aqi":91,"pm10":18.7,"pm2_5":15.6,"mosquito_risk":0,"arthritis_risk":5,"migraine_risk":7,"frizz_risk":0,"updated_at":"2026-03-11T15:17:49.845621+05:30"},{"city":"Guntur","state":"Andhra Pradesh","latitude":16.3067,"longitude":80.4365,"temp":35.2,"humidity":31,"rain":0.0,"pressure":1005.6,"uv_index":8.7,"wind_gusts":20.2,"aqi":78,"pm10":17.1,"pm2_5":13.4,"mosquito_risk":0,"arthritis_risk":5,"migraine_risk":7,"frizz_risk":0,"updated_at":"2026-03-11T15:17:49.845628+05:30"},{"city":"Nellore","state":"Andhra Pradesh","latitude":14.4426,"longitude":79.9865,"temp":33.9,"humidity":41,"rain":0.0,"pressure":1008.0,"uv_index":8.9,"wind_gusts":28.4,"aqi":68,"pm10":15.4,"pm2_5":13.3,"mosquito_risk":0,"arthritis_risk":0,"migraine_risk":4,"frizz_risk":1,"updated_at":"2026-03-11T15:17:49.845635+05:30"},{"city":"Kurnool","state":"Andhra Pradesh","latitude":15.8281,"longitude":78.0373,"temp":36.6,"humidity":20,"rain":0.0,"pressure":978.8,"uv_index":8.7,"wind_gusts":25.2,"aqi":64,"pm10":21.5,"pm2_5":16.2,"mosquito_risk":0,"arthritis_risk":5,"migraine_risk":10,"frizz_risk":0,"updated_at":"2026-03-11T15:17:49.845643+05:30"},{"city":"Kakinada","state":"Andhra Pradesh","latitude":16.9891,"longitude":82.2475,"temp":36.0,"humidity":32,"rain":0.0,"pressure":1008.8,"uv_index":8.65,"wind_gusts":26.3,"aqi":89,"pm10":22.4,"pm2_5":19.0,"mosquito_risk":0,"arthritis_risk":0,"migraine_risk":7,"frizz_risk":1,"updated_at":"2026-03-11T15:17:49.845650+05:30"},{"city":"Tirupati","state":"Andhra Pradesh","latitude":13.6288,"longitude":79.4192,"temp":34.1,"humidity":33,"rain":0.0,"pressure":993.3,"uv_index":9.0,"wind_gusts":32.4,"aqi":82,"pm10":14.3,"pm2_5":12.8,"mosquito_risk":0,"arthritis_risk":5,"migraine_risk":7,"frizz_risk":0,"updated_at":"2026-03-11T15:17:49.845657+05:30"},{"city":"Warangal","state":"Telangana","latitude":17.9689,"longitude":79.5941,"temp":34.7,"humidity":28,"rain":0.0,"pressure":981.1,"uv_index":8.45,"wind_gusts":23.4,"aqi":94,"pm10":30.3,"pm2_5":22.6,"mosquito_risk":0,"arthritis_risk":5,"migraine_risk":7,"frizz_risk":0,"updated_at":"2026-03-11T15:17:49.845664+05:30"},{"city":"Nizamabad","state":"Telangana","latitude":18.6725,"longitude":78.0941,"temp":35.8,"humidity":22,"rain":0.0,"pressure":967.2,"uv_index":8.35,"wind_gusts":26.6,"aqi":122,"pm10":42.5,"pm2_5":33.4,"mosquito_risk":0,"arthritis_risk":5,"migraine_risk":10,"frizz_risk":0,"updated_at":"2026-03-11T15:17:49.845670+05:30"},{"city":"Mysore","state":"Karnataka","latitude":12.2958,"longitude":76.6396,"temp":32.1,"humidity":28,"rain":0.0,"pressure":930.0,"uv_index":9.25,"wind_gusts":28.8,"aqi":64,"pm10":13.2,"pm2_5":11.1,"mosquito_risk":0,"arthritis_risk":5,"migraine_risk":7,"frizz_risk":0,"updated_at":"2026-03-11T15:17:49.845677+05:30"},{"city":"Mangalore","state":"Karnataka","latitude":12.9141,"longitude":74.856,"temp":28.7,"humidity":85,"rain":0.0,"pressure":1006.8,"uv_index":8.9,"wind_gusts":29.5,"aqi":112,"pm10":33.4,"pm2_5":29.1,"mosquito_risk":7,"arthritis_risk":5,"migraine_risk":4,"frizz_risk":1,"updated_at":"2026-03-11T15:17:49.845684+05:30"},{"city":"Hubli-Dharwad","state":"Karnataka","latitude":15.3647,"longitude":75.124,"temp":34.9,"humidity":20,"rain":0.0,"pressure":942.6,"uv_index":8.85,"wind_gusts":37.1,"aqi":95,"pm10":25.3,"pm2_5":19.4,"mosquito_risk":0,"arthritis_risk":5,"migraine_risk":7,"frizz_risk":0,"updated_at":"2026-03-11T15:17:49.845691+05:30"},{"city":"Belgaum","state":"Karnataka","latitude":15.8497,"longitude":74.4977,"temp":34.2,"humidity":21,"rain":0.0,"pressure":927.9,"uv_index":8.9,"wind_gusts":41.0,"aqi":119,"pm10":41.9,"pm2_5":33.3,"mosquito_risk":0,"arthritis_risk":5,"migraine_risk":7,"frizz_risk":0,"updated_at":"2026-03-11T15:17:53.160184+05:30"},{"city":"Coimbatore","state":"Tamil Nadu","latitude":11.0168,"longitude":76.9558,"temp":33.5,"humidity":30,"rain":0.0,"pressure":962.8,"uv_index":9.25,"wind_gusts":35.6,"aqi":72,"pm10":16.8,"pm2_5":14.5,"mosquito_risk":0,"arthritis_risk":5,"migraine_risk":7,"frizz_risk":0,"updated_at":"2026-03-11T15:17:53.160215+05:30"},{"city":"Madurai","state":"Tamil Nadu","latitude":9.9252,"longitude":78.1198,"temp":34.4,"humidity":38,"rain":0.0,"pressure":993.4,"uv_index":8.3,"wind_gusts":32.8,"aqi":67,"pm10":18.7,"pm2_5":16.2,"mosquito_risk":0,"arthritis_risk":5,"migraine_risk":7,"frizz_risk":1,"updated_at":"2026-03-11T15:17:53.160226+05:30"},{"city":"Trichy","state":"Tamil Nadu","latitude":10.7905,"longitude":78.7047,"temp":34.6,"humidity":37,"rain":0.0,"pressure":1000.6,"uv_index":9.15,"wind_gusts":29.9,"aqi":66,"pm10":20.5,"pm2_5":18.9,"mosquito_risk":0,"arthritis_risk":5,"migraine_risk":4,"frizz_risk":1,"updated_at":"2026-03-11T15:17:53.160235+05:30"},{"city":"Salem","state":"Tamil Nadu","latitude":11.6643,"longitude":78.146,"temp":33.7,"humidity":37,"rain":0.0,"pressure":978.6,"uv_index":9.15,"wind_gusts":20.2,"aqi":73,"pm10":18.0,"pm2_5":15.8,"mosquito_risk":0,"arthritis_risk":5,"migraine_risk":7,"frizz_risk":1,"updated_at":"2026-03-11T15:17:53.160244+05:30"},{"city":"Tirunelveli","state":"Tamil Nadu","latitude":8.7139,"longitude":77.7567,"temp":33.1,"humidity":51,"rain":0.0,"pressure":1003.8,"uv_index":6.2,"wind_gusts":25.9,"aqi":56,"pm10":13.5,"pm2_5":11.8,"mosquito_risk":0,"arthritis_risk":5,"migraine_risk":4,"frizz_risk":1,"updated_at":"2026-03-11T15:17:53.160253+05:30"},{"city":"Vellore","state":"Tamil Nadu","latitude":12.9165,"longitude":79.1325,"temp":33.0,"humidity":37,"rain":0.0,"pressure":986.5,"uv_index":9.1,"wind_gusts":34.6,"aqi":90,"pm10":19.9,"pm2_5":18.0,"mosquito_risk":0,"arthritis_risk":5,"migraine_risk":7,"frizz_risk":1,"updated_at":"2026-03-11T15:17:53.160262+05:30"},{"city":"Erode","state":"Tamil Nadu","latitude":11.341,"longitude":77.7172,"temp":34.9,"humidity":30,"rain":0.0,"pressure":990.0,"uv_index":9.15,"wind_gusts":18.7,"aqi":77,"pm10":19.7,"pm2_5":17.3,"mosquito_risk":0,"arthritis_risk":5,"migraine_risk":7,"frizz_risk":0,"updated_at":"2026-03-11T15:17:53.160270+05:30"},{"city":"Kochi","state":"Kerala","latitude":9.9312,"longitude":76.2673,"temp":28.6,"humidity":78,"rain":0.0,"pressure":1008.5,"uv_index":8.25,"wind_gusts":38.9,"aqi":121,"pm10":37.8,"pm2_5":32.6,"mosquito_risk":7,"arthritis_risk":0,"migraine_risk":4,"frizz_risk":1,"updated_at":"2026-03-11T15:17:53.160279+05:30"},{"city":"Thiruvananthapuram","state":"Kerala","latitude":8.5241,"longitude":76.9366,"temp":28.5,"humidity":77,"rain":0.0,"pressure":1008.2,"uv_index":7.3,"wind_gusts":25.6,"aqi":68,"pm10":17.9,"pm2_5":16.1,"mosquito_risk":7,"arthritis_risk":0,"migraine_risk":4,"frizz_risk":1,"updated_at":"2026-03-11T15:17:53.160288+05:30"},{"city":"Kozhikode","state":"Kerala","latitude":11.2588,"longitude":75.7804,"temp":29.6,"humidity":73,"rain":0.0,"pressure":1008.3,"uv_index":8.95,"wind_gusts":31.3,"aqi":124,"pm10":42.8,"pm2_5":36.6,"mosquito_risk":7,"arthritis_risk":0,"migraine_risk":4,"frizz_risk":1,"updated_at":"2026-03-11T15:17:53.160296+05:30"},{"city":"Thrissur","state":"Kerala","latitude":10.5276,"longitude":76.2144,"temp":33.3,"humidity":52,"rain":0.0,"pressure":1007.2,"uv_index":9.05,"wind_gusts":39.2,"aqi":92,"pm10":17.1,"pm2_5":15.0,"mosquito_risk":0,"arthritis_risk":5,"migraine_risk":4,"frizz_risk":1,"updated_at":"2026-03-11T15:17:53.160303+05:30"},{"city":"Kannur","state":"Kerala","latitude":11.8745,"longitude":75.3704,"temp":30.0,"humidity":74,"rain":0.0,"pressure":1007.7,"uv_index":8.95,"wind_gusts":38.9,"aqi":138,"pm10":48.5,"pm2_5":41.2,"mosquito_risk":7,"arthritis_risk":5,"migraine_risk":4,"frizz_risk":1,"updated_at":"2026-03-11T15:17:53.160309+05:30"},{"city":"Patna","state":"Bihar","latitude":25.5941,"longitude":85.1376,"temp":31.0,"humidity":55,"rain":0.0,"pressure":1002.3,"uv_index":6.85,"wind_gusts":24.8,"aqi":197,"pm10":148.5,"pm2_5":129.9,"mosquito_risk":0,"arthritis_risk":5,"migraine_risk":4,"frizz_risk":1,"updated_at":"2026-03-11T15:17:53.160316+05:30"},{"city":"Gaya","state":"Bihar","latitude":24.7914,"longitude":85.0002,"temp":30.8,"humidity":58,"rain":0.0,"pressure":995.8,"uv_index":7.5,"wind_gusts":21.6,"aqi":172,"pm10":107.3,"pm2_5":94.3,"mosquito_risk":0,"arthritis_risk":5,"migraine_risk":7,"frizz_risk":1,"updated_at":"2026-03-11T15:17:53.160322+05:30"},{"city":"Muzaffarpur","state":"Bihar","latitude":26.1209,"longitude":85.3647,"temp":29.8,"humidity":60,"rain":0.0,"pressure":1002.4,"uv_index":7.4,"wind_gusts":22.0,"aqi":213,"pm10":151.3,"pm2_5":131.3,"mosquito_risk":4,"arthritis_risk":5,"migraine_risk":4,"frizz_risk":1,"updated_at":"2026-03-11T15:17:53.160329+05:30"},{"city":"Bhagalpur","state":"Bihar","latitude":25.2425,"longitude":87.0117,"temp":29.4,"humidity":65,"rain":0.0,"pressure":1002.9,"uv_index":7.15,"wind_gusts":18.4,"aqi":173,"pm10":85.7,"pm2_5":74.5,"mosquito_risk":7,"arthritis_risk":5,"migraine_risk":4,"frizz_risk":1,"updated_at":"2026-03-11T15:17:53.160335+05:30"},{"city":"Ranchi","state":"Jharkhand","latitude":23.3441,"longitude":85.3096,"temp":30.7,"humidity":38,"rain":0.0,"pressure":939.7,"uv_index":8.15,"wind_gusts":28.1,"aqi":171,"pm10":98.3,"pm2_5":76.8,"mosquito_risk":0,"arthritis_risk":5,"migraine_risk":7,"frizz_risk":0,"updated_at":"2026-03-11T15:17:53.160342+05:30"},{"city":"Jamshedpur","state":"Jharkhand","latitude":22.8046,"longitude":86.2029,"temp":30.0,"humidity":64,"rain":0.0,"pressure":992.4,"uv_index":8.05,"wind_gusts":24.1,"aqi":159,"pm10":104.3,"pm2_5":85.9,"mosquito_risk":7,"arthritis_risk":5,"migraine_risk":7,"frizz_risk":1,"updated_at":"2026-03-11T15:17:53.160348+05:30"},{"city":"Dhanbad","state":"Jharkhand","latitude":23.7957,"longitude":86.4304,"temp":31.3,"humidity":48,"rain":0.0,"pressure":981.3,"uv_index":7.6,"wind_gusts":23.8,"aqi":190,"pm10":116.2,"pm2_5":101.0,"mosquito_risk":0,"arthritis_risk":5,"migraine_risk":7,"frizz_risk":1,"updated_at":"2026-03-11T15:17:53.160355+05:30"},{"city":"Bokaro","state":"Jharkhand","latitude":23.6693,"longitude":86.1511,"temp":30.7,"humidity":57,"rain":0.0,"pressure":985.2,"uv_index":7.75,"wind_gusts":37.8,"aqi":192,"pm10":130.4,"pm2_5":113.9,"mosquito_risk":0,"arthritis_risk":5,"migraine_risk":7,"frizz_risk":1,"updated_at":"2026-03-11T15:17:53.160362+05:30"},{"city":"Bhubaneswar","state":"Odisha","latitude":20.2961,"longitude":85.8245,"temp":32.6,"humidity":56,"rain":0.0,"pressure":1003.7,"uv_index":8.35,"wind_gusts":28.4,"aqi":119,"pm10":40.0,"pm2_5":33.1,"mosquito_risk":0,"arthritis_risk":5,"migraine_risk":4,"frizz_risk":1,"updated_at":"2026-03-11T15:17:53.160369+05:30"},{"city":"Cuttack","state":"Odisha","latitude":20.4625,"longitude":85.8828,"temp":35.2,"humidity":43,"rain":0.0,"pressure":1004.8,"uv_index":8.4,"wind_gusts":27.4,"aqi":119,"pm10":40.0,"pm2_5":33.1,"mosquito_risk":0,"arthritis_risk":5,"migraine_risk":7,"frizz_risk":1,"updated_at":"2026-03-11T15:17:53.160375+05:30"},{"city":"Rourkela","state":"Odisha","latitude":22.2604,"longitude":84.8536,"temp":34.8,"humidity":36,"rain":0.0,"pressure":986.0,"uv_index":7.95,"wind_gusts":27.4,"aqi":163,"pm10":91.0,"pm2_5":66.4,"mosquito_risk":0,"arthritis_risk":5,"migraine_risk":7,"frizz_risk":1,"updated_at":"2026-03-11T15:17:53.160382+05:30"},{"city":"Raipur","state":"Chhattisgarh","latitude":21.2514,"longitude":81.6296,"temp":37.3,"humidity":18,"rain":0.0,"pressure":976.5,"uv_index":8.05,"wind_gusts":24.1,"aqi":153,"pm10":74.5,"pm2_5":48.7,"mosquito_risk":0,"arthritis_risk":5,"migraine_risk":10,"frizz_risk":0,"updated_at":"2026-03-11T15:17:53.160389+05:30"},{"city":"Bhilai","state":"Chhattisgarh","latitude":21.1938,"longitude":81.3509,"temp":37.7,"humidity":20,"rain":0.0,"pressure":976.8,"uv_index":8.05,"wind_gusts":19.1,"aqi":150,"pm10":73.3,"pm2_5":46.4,"mosquito_risk":0,"arthritis_risk":5,"migraine_risk":10,"frizz_risk":0,"updated_at":"2026-03-11T15:17:53.160395+05:30"},{"city":"Guwahati","state":"Assam","latitude":26.1158,"longitude":91.7086,"temp":31.0,"humidity":51,"rain":0.0,"pressure":1001.3,"uv_index":7.35,"wind_gusts":23.0,"aqi":154,"pm10":67.1,"pm2_5":59.0,"mosquito_risk":0,"arthritis_risk":5,"migraine_risk":4,"frizz_risk":1,"updated_at":"2026-03-11T15:17:53.160402+05:30"},{"city":"Agartala","state":"Tripura","latitude":23.8315,"longitude":91.2868,"temp":30.7,"humidity":54,"rain":0.0,"pressure":1006.9,"uv_index":7.75,"wind_gusts":15.8,"aqi":170,"pm10":78.9,"pm2_5":68.5,"mosquito_risk":0,"arthritis_risk":5,"migraine_risk":4,"frizz_risk":1,"updated_at":"2026-03-11T15:17:53.160409+05:30"},{"city":"Shillong","state":"Meghalaya","latitude":25.5788,"longitude":91.8933,"temp":19.8,"humidity":56,"rain":0.0,"pressure":858.1,"uv_index":6.65,"wind_gusts":19.1,"aqi":135,"pm10":47.0,"pm2_5":41.4,"mosquito_risk":0,"arthritis_risk":5,"migraine_risk":7,"frizz_risk":0,"updated_at":"2026-03-11T15:17:53.160415+05:30"},{"city":"Imphal","state":"Manipur","latitude":24.817,"longitude":93.9368,"temp":23.7,"humidity":56,"rain":0.0,"pressure":924.2,"uv_index":7.95,"wind_gusts":40.3,"aqi":153,"pm10":54.1,"pm2_5":46.8,"mosquito_risk":0,"arthritis_risk":5,"migraine_risk":7,"frizz_risk":0,"updated_at":"2026-03-11T15:17:53.160422+05:30"},{"city":"Aizawl","state":"Mizoram","latitude":23.7271,"longitude":92.7176,"temp":24.3,"humidity":53,"rain":0.0,"pressure":894.4,"uv_index":7.9,"wind_gusts":27.4,"aqi":179,"pm10":98.7,"pm2_5":88.9,"mosquito_risk":0,"arthritis_risk":5,"migraine_risk":7,"frizz_risk":0,"updated_at":"2026-03-11T15:17:53.160428+05:30"},{"city":"Kohima","state":"Nagaland","latitude":25.6701,"longitude":94.1077,"temp":18.7,"humidity":74,"rain":0.0,"pressure":856.3,"uv_index":7.05,"wind_gusts":32.8,"aqi":140,"pm10":54.5,"pm2_5":48.5,"mosquito_risk":3,"arthritis_risk":5,"migraine_risk":7,"frizz_risk":0,"updated_at":"2026-03-11T15:17:53.160434+05:30"},{"city":"Gangtok","state":"Sikkim","latitude":27.3314,"longitude":88.6138,"temp":20.4,"humidity":60,"rain":0.0,"pressure":839.6,"uv_index":6.3,"wind_gusts":19.8,"aqi":133,"pm10":57.2,"pm2_5":50.3,"mosquito_risk":0,"arthritis_risk":5,"migraine_risk":7,"frizz_risk":0,"updated_at":"2026-03-11T15:17:53.160441+05:30"},{"city":"Siliguri","state":"West Bengal","latitude":26.7271,"longitude":88.3953,"temp":25.1,"humidity":73,"rain":0.0,"pressure":995.4,"uv_index":5.75,"wind_gusts":21.2,"aqi":165,"pm10":93.1,"pm2_5":81.0,"mosquito_risk":7,"arthritis_risk":5,"migraine_risk":3,"frizz_risk":1,"updated_at":"2026-03-11T15:17:56.478364+05:30"},{"city":"Durgapur","state":"West Bengal","latitude":23.5204,"longitude":87.3119,"temp":31.2,"humidity":55,"rain":0.0,"pressure":996.4,"uv_index":7.6,"wind_gusts":20.5,"aqi":163,"pm10":87.3,"pm2_5":76.1,"mosquito_risk":0,"arthritis_risk":5,"migraine_risk":7,"frizz_risk":1,"updated_at":"2026-03-11T15:17:56.478395+05:30"},{"city":"Asansol","state":"West Bengal","latitude":23.6739,"longitude":86.9524,"temp":31.1,"humidity":55,"rain":0.0,"pressure":994.9,"uv_index":7.85,"wind_gusts":20.2,"aqi":168,"pm10":95.5,"pm2_5":82.0,"mosquito_risk":0,"arthritis_risk":5,"migraine_risk":7,"frizz_risk":1,"updated_at":"2026-03-11T15:17:56.478405+05:30"},{"city":"Pondicherry","state":"Puducherry","latitude":11.9139,"longitude":79.8145,"temp":32.4,"humidity":53,"rain":0.0,"pressure":1010.2,"uv_index":9.0,"wind_gusts":31.3,"aqi":60,"pm10":20.8,"pm2_5":16.1,"mosquito_risk":0,"arthritis_risk":0,"migraine_risk":4,"frizz_risk":1,"updated_at":"2026-03-11T15:17:56.478413+05:30"},{"city":"Port Blair","state":"Andaman and Nicobar Islands","latitude":11.6234,"longitude":92.7265,"temp":28.3,"humidity":79,"rain":0.0,"pressure":1007.7,"uv_index":8.95,"wind_gusts":20.2,"aqi":62,"pm10":21.4,"pm2_5":18.7,"mosquito_risk":7,"arthritis_risk":5,"migraine_risk":4,"frizz_risk":1,"updated_at":"2026-03-11T15:17:56.478421+05:30"},{"city":"Haridwar","state":"Uttarakhand","latitude":29.9457,"longitude":78.1642,"temp":33.1,"humidity":31,"rain":0.0,"pressure":976.8,"uv_index":5.9,"wind_gusts":38.5,"aqi":158,"pm10":48.5,"pm2_5":28.6,"mosquito_risk":0,"arthritis_risk":5,"migraine_risk":3,"frizz_risk":0,"updated_at":"2026-03-11T15:17:56.478430+05:30"},{"city":"Rishikesh","state":"Uttarakhand","latitude":30.0869,"longitude":78.2676,"temp":31.8,"humidity":38,"rain":0.0,"pressure":969.7,"uv_index":5.9,"wind_gusts":36.4,"aqi":154,"pm10":47.4,"pm2_5":26.4,"mosquito_risk":0,"arthritis_risk":5,"migraine_risk":3,"frizz_risk":0,"updated_at":"2026-03-11T15:17:56.478437+05:30"},{"city":"Nainital","state":"Uttarakhand","latitude":29.3919,"longitude":79.4542,"temp":23.8,"humidity":59,"rain":0.0,"pressure":810.6,"uv_index":6.8,"wind_gusts":64.4,"aqi":173,"pm10":85.4,"pm2_5":63.1,"mosquito_risk":0,"arthritis_risk":5,"migraine_risk":7,"frizz_risk":0,"updated_at":"2026-03-11T15:17:56.478445+05:30"},{"city":"Mussoorie","state":"Uttarakhand","latitude":30.4599,"longitude":78.0664,"temp":22.8,"humidity":54,"rain":0.0,"pressure":807.9,"uv_index":5.6,"wind_gusts":38.9,"aqi":151,"pm10":44.2,"pm2_5":29.0,"mosquito_risk":0,"arthritis_risk":5,"migraine_risk":3,"frizz_risk":0,"updated_at":"2026-03-11T15:17:56.478452+05:30"},{"city":"Dharamshala","state":"Himachal Pradesh","latitude":32.219,"longitude":76.3234,"temp":24.9,"humidity":41,"rain":0.0,"pressure":874.0,"uv_index":5.5,"wind_gusts":25.9,"aqi":63,"pm10":33.3,"pm2_5":17.4,"mosquito_risk":0,"arthritis_risk":5,"migraine_risk":3,"frizz_risk":0,"updated_at":"2026-03-11T15:17:56.478459+05:30"},{"city":"Dalhousie","state":"Himachal Pradesh","latitude":32.5387,"longitude":75.971,"temp":23.4,"humidity":23,"rain":0.0,"pressure":809.5,"uv_index":4.75,"wind_gusts":23.0,"aqi":95,"pm10":14.1,"pm2_5":9.0,"mosquito_risk":0,"arthritis_risk":5,"migraine_risk":3,"frizz_risk":0,"updated_at":"2026-03-11T15:17:56.478467+05:30"},{"city":"Patiala","state":"Punjab","latitude":30.3398,"longitude":76.3869,"temp":33.3,"humidity":28,"rain":0.0,"pressure":981.4,"uv_index":5.3,"wind_gusts":19.1,"aqi":170,"pm10":99.2,"pm2_5":43.3,"mosquito_risk":0,"arthritis_risk":5,"migraine_risk":3,"frizz_risk":0,"updated_at":"2026-03-11T15:17:56.478474+05:30"},{"city":"Bhatinda","state":"Punjab","latitude":30.211,"longitude":74.9455,"temp":34.1,"humidity":25,"rain":0.0,"pressure":986.7,"uv_index":6.6,"wind_gusts":25.2,"aqi":152,"pm10":93.6,"pm2_5":39.1,"mosquito_risk":0,"arthritis_risk":5,"migraine_risk":7,"frizz_risk":0,"updated_at":"2026-03-11T15:17:56.478480+05:30"},{"city":"Rohtak","state":"Haryana","latitude":28.8955,"longitude":76.6066,"temp":35.2,"humidity":20,"rain":0.0,"pressure":984.7,"uv_index":6.1,"wind_gusts":27.4,"aqi":174,"pm10":414.4,"pm2_5":53.4,"mosquito_risk":0,"arthritis_risk":5,"migraine_risk":10,"frizz_risk":0,"updated_at":"2026-03-11T15:17:56.478487+05:30"},{"city":"Panipat","state":"Haryana","latitude":29.3909,"longitude":76.9635,"temp":34.4,"humidity":24,"rain":0.0,"pressure":983.3,"uv_index":5.35,"wind_gusts":24.8,"aqi":193,"pm10":499.2,"pm2_5":60.5,"mosquito_risk":0,"arthritis_risk":5,"migraine_risk":3,"frizz_risk":0,"updated_at":"2026-03-11T15:17:56.478494+05:30"},{"city":"Mathura","state":"Uttar Pradesh","latitude":27.4924,"longitude":77.6737,"temp":37.4,"humidity":19,"rain":0.0,"pressure":989.3,"uv_index":6.4,"wind_gusts":21.2,"aqi":198,"pm10":453.6,"pm2_5":57.9,"mosquito_risk":0,"arthritis_risk":5,"migraine_risk":10,"frizz_risk":0,"updated_at":"2026-03-11T15:17:56.478501+05:30"},{"city":"Vrindavan","state":"Uttar Pradesh","latitude":27.5823,"longitude":77.7027,"temp":37.0,"humidity":17,"rain":0.0,"pressure":989.8,"uv_index":6.4,"wind_gusts":23.0,"aqi":198,"pm10":453.6,"pm2_5":57.9,"mosquito_risk":0,"arthritis_risk":5,"migraine_risk":10,"frizz_risk":0,"updated_at":"2026-03-11T15:17:56.478507+05:30"},{"city":"Ayodhya","state":"Uttar Pradesh","latitude":26.7922,"longitude":82.1998,"temp":32.2,"humidity":45,"rain":0.0,"pressure":997.6,"uv_index":6.8,"wind_gusts":25.2,"aqi":198,"pm10":136.4,"pm2_5":94.5,"mosquito_risk":0,"arthritis_risk":5,"migraine_risk":7,"frizz_risk":1,"updated_at":"2026-03-11T15:17:56.478514+05:30"},{"city":"Ratlam","state":"Madhya Pradesh","latitude":23.3315,"longitude":75.0367,"temp":36.9,"humidity":16,"rain":0.0,"pressure":958.1,"uv_index":7.6,"wind_gusts":19.8,"aqi":70,"pm10":22.2,"pm2_5":10.9,"mosquito_risk":0,"arthritis_risk":5,"migraine_risk":10,"frizz_risk":0,"updated_at":"2026-03-11T15:17:56.478521+05:30"},{"city":"Sagar","state":"Madhya Pradesh","latitude":23.8388,"longitude":78.7378,"temp":36.1,"humidity":12,"rain":0.0,"pressure":953.7,"uv_index":7.55,"wind_gusts":24.8,"aqi":81,"pm10":59.0,"pm2_5":16.3,"mosquito_risk":0,"arthritis_risk":5,"migraine_risk":10,"frizz_risk":0,"updated_at":"2026-03-11T15:17:56.478528+05:30"},{"city":"Satna","state":"Madhya Pradesh","latitude":24.6005,"longitude":80.8322,"temp":36.1,"humidity":14,"rain":0.0,"pressure":974.2,"uv_index":7.55,"wind_gusts":34.2,"aqi":150,"pm10":65.0,"pm2_5":22.4,"mosquito_risk":0,"arthritis_risk":5,"migraine_risk":10,"frizz_risk":0,"updated_at":"2026-03-11T15:17:56.478535+05:30"},{"city":"Akola","state":"Maharashtra","latitude":20.7002,"longitude":77.0082,"temp":39.0,"humidity":16,"rain":0.0,"pressure":976.7,"uv_index":8.0,"wind_gusts":18.4,"aqi":70,"pm10":28.2,"pm2_5":16.1,"mosquito_risk":0,"arthritis_risk":5,"migraine_risk":10,"frizz_risk":0,"updated_at":"2026-03-11T15:17:56.478542+05:30"},{"city":"Amravati","state":"Maharashtra","latitude":20.9374,"longitude":77.7796,"temp":38.5,"humidity":16,"rain":0.0,"pressure":969.3,"uv_index":8.0,"wind_gusts":11.9,"aqi":73,"pm10":31.8,"pm2_5":17.0,"mosquito_risk":0,"arthritis_risk":5,"migraine_risk":10,"frizz_risk":0,"updated_at":"2026-03-11T15:17:56.478550+05:30"},{"city":"Latur","state":"Maharashtra","latitude":18.4088,"longitude":76.5604,"temp":34.5,"humidity":23,"rain":0.0,"pressure":942.4,"uv_index":8.45,"wind_gusts":24.5,"aqi":108,"pm10":25.9,"pm2_5":21.2,"mosquito_risk":0,"arthritis_risk":5,"migraine_risk":7,"frizz_risk":0,"updated_at":"2026-03-11T15:17:56.478556+05:30"},{"city":"Nanded","state":"Maharashtra","latitude":19.1383,"longitude":77.3091,"temp":37.5,"humidity":20,"rain":0.0,"pressure":970.7,"uv_index":8.25,"wind_gusts":18.0,"aqi":125,"pm10":34.5,"pm2_5":28.1,"mosquito_risk":0,"arthritis_risk":5,"migraine_risk":10,"frizz_risk":0,"updated_at":"2026-03-11T15:17:56.478563+05:30"},{"city":"Gulbarga","state":"Karnataka","latitude":17.3297,"longitude":76.8343,"temp":36.4,"humidity":21,"rain":0.0,"pressure":960.9,"uv_index":8.5,"wind_gusts":21.6,"aqi":104,"pm10":40.0,"pm2_5":31.0,"mosquito_risk":0,"arthritis_risk":5,"migraine_risk":10,"frizz_risk":0,"updated_at":"2026-03-11T15:17:56.478569+05:30"},{"city":"Bidar","state":"Karnataka","latitude":17.9104,"longitude":77.5199,"temp":35.3,"humidity":21,"rain":0.0,"pressure":938.0,"uv_index":8.5,"wind_gusts":24.8,"aqi":107,"pm10":35.7,"pm2_5":27.9,"mosquito_risk":0,"arthritis_risk":5,"migraine_risk":10,"frizz_risk":0,"updated_at":"2026-03-11T15:17:56.478576+05:30"},{"city":"Hospet","state":"Karnataka","latitude":15.2689,"longitude":76.3909,"temp":34.6,"humidity":23,"rain":0.0,"pressure":957.6,"uv_index":8.8,"wind_gusts":28.4,"aqi":78,"pm10":20.0,"pm2_5":16.4,"mosquito_risk":0,"arthritis_risk":5,"migraine_risk":7,"frizz_risk":0,"updated_at":"2026-03-11T15:17:56.478582+05:30"},{"city":"Tirupur","state":"Tamil Nadu","latitude":11.1085,"longitude":77.3411,"temp":34.6,"humidity":29,"rain":0.0,"pressure":976.3,"uv_index":9.3,"wind_gusts":29.5,"aqi":85,"pm10":21.0,"pm2_5":18.5,"mosquito_risk":0,"arthritis_risk":5,"migraine_risk":7,"frizz_risk":0,"updated_at":"2026-03-11T15:17:56.478588+05:30"},{"city":"Alappuzha","state":"Kerala","latitude":9.4981,"longitude":76.3388,"temp":28.5,"humidity":79,"rain":0.0,"pressure":1008.5,"uv_index":8.6,"wind_gusts":37.8,"aqi":120,"pm10":38.1,"pm2_5":32.0,"mosquito_risk":7,"arthritis_risk":0,"migraine_risk":4,"frizz_risk":1,"updated_at":"2026-03-11T15:17:56.478595+05:30"},{"city":"Munnar","state":"Kerala","latitude":10.0889,"longitude":77.0595,"temp":29.4,"humidity":37,"rain":0.0,"pressure":859.5,"uv_index":8.0,"wind_gusts":27.4,"aqi":63,"pm10":14.3,"pm2_5":12.3,"mosquito_risk":4,"arthritis_risk":5,"migraine_risk":7,"frizz_risk":0,"updated_at":"2026-03-11T15:17:56.478602+05:30"},{"city":"Silchar","state":"Assam","latitude":24.8333,"longitude":92.7789,"temp":30.9,"humidity":54,"rain":0.0,"pressure":1005.3,"uv_index":7.65,"wind_gusts":13.7,"aqi":169,"pm10":88.2,"pm2_5":76.6,"mosquito_risk":0,"arthritis_risk":5,"migraine_risk":4,"frizz_risk":1,"updated_at":"2026-03-11T15:17:56.478608+05:30"},{"city":"Dibrugarh","state":"Assam","latitude":27.4728,"longitude":94.912,"temp":29.0,"humidity":57,"rain":0.0,"pressure":995.9,"uv_index":7.45,"wind_gusts":21.6,"aqi":163,"pm10":73.8,"pm2_5":65.9,"mosquito_risk":4,"arthritis_risk":5,"migraine_risk":7,"frizz_risk":1,"updated_at":"2026-03-11T15:17:56.478614+05:30"}]