[{"city":"Delhi","state":"Delhi","latitude":28.6139,"longitude":77.209,"temp":38.2,"humidity":18,"rain":0.0,"pressure":976.4,"uv_index":7.75,"wind_gusts":45.0,"aqi":707,"pm10":972.3,"pm2_5":183.5,"no2":33.0,"co":347.0,"o3":58.0,"so2":16.2,"mosquito_risk":0,"arthritis_risk":5,"migraine_risk":10,"frizz_risk":0,"updated_at":"2026-05-18T21:56:26.990475+05:30"},{"city":"Mumbai","state":"Maharashtra","latitude":19.076,"longitude":72.8777,"temp":29.5,"humidity":81,"rain":0.0,"pressure":1005.2,"uv_index":7.55,"wind_gusts":44.6,"aqi":68,"pm10":41.7,"pm2_5":21.0,"no2":9.7,"co":231.0,"o3":66.0,"so2":5.9,"mosquito_risk":7,"arthritis_risk":5,"migraine_risk":4,"frizz_risk":1,"updated_at":"2026-05-18T21:56:26.990520+05:30"},{"city":"Bangalore","state":"Karnataka","latitude":12.9716,"longitude":77.5946,"temp":23.0,"humidity":94,"rain":0.0,"pressure":911.3,"uv_index":8.55,"wind_gusts":32.8,"aqi":83,"pm10":42.6,"pm2_5":37.0,"no2":43.2,"co":420.0,"o3":62.0,"so2":11.1,"mosquito_risk":3,"arthritis_risk":5,"migraine_risk":7,"frizz_risk":1,"updated_at":"2026-05-18T21:56:26.990534+05:30"},{"city":"Hyderabad","state":"Telangana","latitude":17.385,"longitude":78.4867,"temp":32.9,"humidity":37,"rain":0.0,"pressure":951.8,"uv_index":9.25,"wind_gusts":25.6,"aqi":78,"pm10":30.4,"pm2_5":26.5,"no2":18.1,"co":388.0,"o3":80.0,"so2":7.4,"mosquito_risk":0,"arthritis_risk":5,"migraine_risk":7,"frizz_risk":1,"updated_at":"2026-05-18T21:56:26.990544+05:30"},{"city":"Chennai","state":"Tamil Nadu","latitude":13.0827,"longitude":80.2707,"temp":30.2,"humidity":85,"rain":0.0,"pressure":1004.9,"uv_index":9.05,"wind_gusts":45.0,"aqi":100,"pm10":22.9,"pm2_5":16.4,"no2":6.9,"co":226.0,"o3":99.0,"so2":6.1,"mosquito_risk":3,"arthritis_risk":5,"migraine_risk":4,"frizz_risk":1,"updated_at":"2026-05-18T21:56:26.990551+05:30"},{"city":"Kolkata","state":"West Bengal","latitude":22.5726,"longitude":88.3639,"temp":29.1,"humidity":89,"rain":0.0,"pressure":1002.2,"uv_index":8.95,"wind_gusts":34.9,"aqi":71,"pm10":25.1,"pm2_5":21.3,"no2":11.5,"co":323.0,"o3":61.0,"so2":9.1,"mosquito_risk":7,"arthritis_risk":5,"migraine_risk":4,"frizz_risk":1,"updated_at":"2026-05-18T21:56:26.990559+05:30"},{"city":"Pune","state":"Maharashtra","latitude":18.5204,"longitude":73.8567,"temp":28.6,"humidity":73,"rain":0.0,"pressure":945.5,"uv_index":8.4,"wind_gusts":48.6,"aqi":136,"pm10":39.5,"pm2_5":28.5,"no2":12.4,"co":233.0,"o3":140.0,"so2":24.5,"mosquito_risk":7,"arthritis_risk":5,"migraine_risk":7,"frizz_risk":1,"updated_at":"2026-05-18T21:56:26.990566+05:30"},{"city":"Ahmedabad","state":"Gujarat","latitude":23.0225,"longitude":72.5714,"temp":37.7,"humidity":16,"rain":0.0,"pressure":997.5,"uv_index":8.05,"wind_gusts":35.6,"aqi":64,"pm10":45.2,"pm2_5":24.3,"no2":13.4,"co":249.0,"o3":67.0,"so2":4.9,"mosquito_risk":0,"arthritis_risk":5,"migraine_risk":10,"frizz_risk":0,"updated_at":"2026-05-18T21:56:26.990572+05:30"},{"city":"Jaipur","state":"Rajasthan","latitude":26.9124,"longitude":75.7873,"temp":37.5,"humidity":17,"rain":0.0,"pressure":955.8,"uv_index":8.25,"wind_gusts":43.2,"aqi":157,"pm10":206.8,"pm2_5":47.0,"no2":13.2,"co":267.0,"o3":70.0,"so2":6.7,"mosquito_risk":0,"arthritis_risk":5,"migraine_risk":10,"frizz_risk":0,"updated_at":"2026-05-18T21:56:26.990582+05:30"},{"city":"Lucknow","state":"Uttar Pradesh","latitude":26.8467,"longitude":80.9462,"temp":35.1,"humidity":32,"rain":0.0,"pressure":987.1,"uv_index":8.2,"wind_gusts":37.4,"aqi":181,"pm10":289.6,"pm2_5":88.7,"no2":25.7,"co":473.0,"o3":77.0,"so2":15.8,"mosquito_risk":0,"arthritis_risk":5,"migraine_risk":10,"frizz_risk":0,"updated_at":"2026-05-18T21:56:26.990588+05:30"},{"city":"Kanpur","state":"Uttar Pradesh","latitude":26.4499,"longitude":80.3319,"temp":36.0,"humidity":31,"rain":0.0,"pressure":985.1,"uv_index":8.25,"wind_gusts":44.3,"aqi":336,"pm10":625.8,"pm2_5":128.5,"no2":19.6,"co":428.0,"o3":82.0,"so2":13.4,"mosquito_risk":0,"arthritis_risk":5,"migraine_risk":10,"frizz_risk":0,"updated_at":"2026-05-18T21:56:26.990594+05:30"},{"city":"Chandigarh","state":"Chandigarh","latitude":30.7333,"longitude":76.7794,"temp":32.8,"humidity":34,"rain":0.0,"pressure":962.4,"uv_index":7.75,"wind_gusts":38.5,"aqi":134,"pm10":31.7,"pm2_5":26.4,"no2":20.0,"co":603.0,"o3":110.0,"so2":14.7,"mosquito_risk":0,"arthritis_risk":5,"migraine_risk":7,"frizz_risk":0,"updated_at":"2026-05-18T21:56:26.990602+05:30"},{"city":"Srinagar","state":"Jammu and Kashmir","latitude":34.0837,"longitude":74.7973,"temp":18.1,"humidity":74,"rain":0.0,"pressure":838.6,"uv_index":8.95,"wind_gusts":21.2,"aqi":70,"pm10":34.8,"pm2_5":22.8,"no2":28.0,"co":1356.0,"o3":53.0,"so2":3.2,"mosquito_risk":3,"arthritis_risk":5,"migraine_risk":7,"frizz_risk":0,"updated_at":"2026-05-18T21:56:26.990609+05:30"},{"city":"Jammu","state":"Jammu and Kashmir","latitude":32.7266,"longitude":74.857,"temp":31.9,"humidity":39,"rain":0.0,"pressure":965.9,"uv_index":8.55,"wind_gusts":29.2,"aqi":132,"pm10":40.2,"pm2_5":35.7,"no2":43.6,"co":701.0,"o3":56.0,"so2":7.0,"mosquito_risk":0,"arthritis_risk":5,"migraine_risk":7,"frizz_risk":1,"updated_at":"2026-05-18T21:56:26.990615+05:30"},{"city":"Amritsar","state":"Punjab","latitude":31.634,"longitude":74.8723,"temp":33.4,"humidity":46,"rain":0.0,"pressure":973.5,"uv_index":8.45,"wind_gusts":24.5,"aqi":125,"pm10":62.9,"pm2_5":41.1,"no2":29.3,"co":517.0,"o3":83.0,"so2":15.7,"mosquito_risk":0,"arthritis_risk":5,"migraine_risk":7,"frizz_risk":1,"updated_at":"2026-05-18T21:56:26.990621+05:30"},{"city":"Ludhiana","state":"Punjab","latitude":30.901,"longitude":75.8573,"temp":33.2,"humidity":48,"rain":0.0,"pressure":972.0,"uv_index":8.0,"wind_gusts":25.9,"aqi":95,"pm10":101.3,"pm2_5":46.0,"no2":20.9,"co":1012.0,"o3":70.0,"so2":8.7,"mosquito_risk":0,"arthritis_risk":5,"migraine_risk":7,"frizz_risk":1,"updated_at":"2026-05-18T21:56:26.990627+05:30"},{"city":"Jalandhar","state":"Punjab","latitude":31.326,"longitude":75.5762,"temp":33.9,"humidity":37,"rain":0.0,"pressure":972.8,"uv_index":8.2,"wind_gusts":25.6,"aqi":106,"pm10":95.7,"pm2_5":42.0,"no2":19.8,"co":1008.0,"o3":79.0,"so2":9.2,"mosquito_risk":0,"arthritis_risk":5,"migraine_risk":7,"frizz_risk":1,"updated_at":"2026-05-18T21:56:26.990633+05:30"},{"city":"Dehradun","state":"Uttarakhand","latitude":30.6284,"longitude":78.0322,"temp":18.1,"humidity":71,"rain":0.0,"pressure":826.1,"uv_index":8.2,"wind_gusts":38.9,"aqi":133,"pm10":18.0,"pm2_5":16.7,"no2":28.0,"co":256.0,"o3":103.0,"so2":5.3,"mosquito_risk":3,"arthritis_risk":5,"migraine_risk":7,"frizz_risk":0,"updated_at":"2026-05-18T21:56:26.990639+05:30"},{"city":"Shimla","state":"Himachal Pradesh","latitude":31.1048,"longitude":77.1734,"temp":18.3,"humidity":55,"rain":0.0,"pressure":783.3,"uv_index":8.3,"wind_gusts":45.7,"aqi":133,"pm10":19.2,"pm2_5":15.1,"no2":15.5,"co":276.0,"o3":122.0,"so2":6.2,"mosquito_risk":0,"arthritis_risk":5,"migraine_risk":7,"frizz_risk":0,"updated_at":"2026-05-18T21:56:26.990646+05:30"},{"city":"Manali","state":"Himachal Pradesh","latitude":32.2396,"longitude":77.1887,"temp":13.3,"humidity":63,"rain":0.0,"pressure":814.3,"uv_index":9.9,"wind_gusts":54.0,"aqi":48,"pm10":9.9,"pm2_5":7.3,"no2":96.5,"co":405.0,"o3":13.0,"so2":0.2,"mosquito_risk":3,"arthritis_risk":5,"migraine_risk":7,"frizz_risk":0,"updated_at":"2026-05-18T21:56:26.990652+05:30"},{"city":"Gurgaon","state":"Haryana","latitude":28.4595,"longitude":77.0266,"temp":34.5,"humidity":26,"rain":0.0,"pressure":974.8,"uv_index":7.85,"wind_gusts":43.6,"aqi":1258,"pm10":1952.1,"pm2_5":292.4,"no2":27.7,"co":534.0,"o3":60.0,"so2":13.6,"mosquito_risk":0,"arthritis_risk":5,"migraine_risk":7,"frizz_risk":0,"updated_at":"2026-05-18T21:56:26.990660+05:30"},{"city":"Noida","state":"Uttar Pradesh","latitude":28.5355,"longitude":77.391,"temp":36.0,"humidity":24,"rain":0.0,"pressure":977.4,"uv_index":7.75,"wind_gusts":34.9,"aqi":1258,"pm10":1952.1,"pm2_5":292.4,"no2":27.7,"co":390.0,"o3":60.0,"so2":13.6,"mosquito_risk":0,"arthritis_risk":5,"migraine_risk":10,"frizz_risk":0,"updated_at":"2026-05-18T21:56:26.990666+05:30"},{"city":"Ghaziabad","state":"Uttar Pradesh","latitude":28.6692,"longitude":77.4538,"temp":36.0,"humidity":24,"rain":0.0,"pressure":975.7,"uv_index":7.75,"wind_gusts":36.0,"aqi":558,"pm10":808.4,"pm2_5":165.3,"no2":35.9,"co":397.0,"o3":60.0,"so2":22.5,"mosquito_risk":0,"arthritis_risk":5,"migraine_risk":10,"frizz_risk":0,"updated_at":"2026-05-18T21:56:26.990672+05:30"},{"city":"Faridabad","state":"Haryana","latitude":28.4089,"longitude":77.3178,"temp":37.8,"humidity":19,"rain":0.0,"pressure":977.0,"uv_index":7.8,"wind_gusts":45.4,"aqi":1258,"pm10":1952.1,"pm2_5":292.4,"no2":27.7,"co":449.0,"o3":60.0,"so2":13.6,"mosquito_risk":0,"arthritis_risk":5,"migraine_risk":10,"frizz_risk":0,"updated_at":"2026-05-18T21:56:26.990684+05:30"},{"city":"Meerut","state":"Uttar Pradesh","latitude":28.9845,"longitude":77.7064,"temp":35.0,"humidity":41,"rain":0.0,"pressure":974.3,"uv_index":7.65,"wind_gusts":37.4,"aqi":558,"pm10":808.4,"pm2_5":165.3,"no2":35.9,"co":536.0,"o3":60.0,"so2":22.5,"mosquito_risk":0,"arthritis_risk":5,"migraine_risk":7,"frizz_risk":1,"updated_at":"2026-05-18T21:56:26.990690+05:30"},{"city":"Agra","state":"Uttar Pradesh","latitude":27.1767,"longitude":78.0081,"temp":35.9,"humidity":27,"rain":0.0,"pressure":981.2,"uv_index":8.1,"wind_gusts":45.0,"aqi":636,"pm10":687.3,"pm2_5":118.7,"no2":25.1,"co":257.0,"o3":53.0,"so2":11.3,"mosquito_risk":0,"arthritis_risk":5,"migraine_risk":10,"frizz_risk":0,"updated_at":"2026-05-18T21:56:26.990696+05:30"},{"city":"Varanasi","state":"Uttar Pradesh","latitude":25.3176,"longitude":82.9739,"temp":35.2,"humidity":34,"rain":0.0,"pressure":991.7,"uv_index":8.7,"wind_gusts":46.4,"aqi":107,"pm10":97.6,"pm2_5":54.6,"no2":33.6,"co":693.0,"o3":53.0,"so2":16.0,"mosquito_risk":0,"arthritis_risk":5,"migraine_risk":10,"frizz_risk":1,"updated_at":"2026-05-18T21:56:26.990702+05:30"},{"city":"Prayagraj","state":"Uttar Pradesh","latitude":25.4358,"longitude":81.8463,"temp":36.2,"humidity":26,"rain":0.0,"pressure":989.8,"uv_index":8.6,"wind_gusts":44.6,"aqi":130,"pm10":201.6,"pm2_5":78.5,"no2":23.5,"co":270.0,"o3":77.0,"so2":14.9,"mosquito_risk":0,"arthritis_risk":5,"migraine_risk":10,"frizz_risk":0,"updated_at":"2026-05-18T21:56:26.990709+05:30"},{"city":"Gorakhpur","state":"Uttar Pradesh","latitude":26.7606,"longitude":83.3732,"temp":30.6,"humidity":68,"rain":0.0,"pressure":991.6,"uv_index":8.6,"wind_gusts":27.4,"aqi":161,"pm10":242.1,"pm2_5":116.2,"no2":51.6,"co":574.0,"o3":57.0,"so2":24.0,"mosquito_risk":3,"arthritis_risk":5,"migraine_risk":7,"frizz_risk":1,"updated_at":"2026-05-18T21:56:26.990727+05:30"},{"city":"Bareilly","state":"Uttar Pradesh","latitude":28.367,"longitude":79.4304,"temp":30.8,"humidity":61,"rain":0.0,"pressure":979.5,"uv_index":8.0,"wind_gusts":33.8,"aqi":154,"pm10":64.0,"pm2_5":54.2,"no2":33.0,"co":580.0,"o3":85.0,"so2":17.1,"mosquito_risk":3,"arthritis_risk":5,"migraine_risk":7,"frizz_risk":1,"updated_at":"2026-05-18T21:56:26.990733+05:30"},{"city":"Aligarh","state":"Uttar Pradesh","latitude":27.8974,"longitude":78.088,"temp":33.5,"humidity":40,"rain":0.0,"pressure":978.5,"uv_index":7.9,"wind_gusts":40.0,"aqi":764,"pm10":953.7,"pm2_5":190.9,"no2":28.7,"co":416.0,"o3":60.0,"so2":13.1,"mosquito_risk":0,"arthritis_risk":5,"migraine_risk":7,"frizz_risk":1,"updated_at":"2026-05-18T21:56:26.990739+05:30"},{"city":"Moradabad","state":"Uttar Pradesh","latitude":28.8386,"longitude":78.7733,"temp":32.5,"humidity":54,"rain":0.0,"pressure":976.2,"uv_index":7.85,"wind_gusts":38.9,"aqi":162,"pm10":194.6,"pm2_5":97.1,"no2":58.2,"co":931.0,"o3":58.0,"so2":22.6,"mosquito_risk":0,"arthritis_risk":5,"migraine_risk":7,"frizz_risk":1,"updated_at":"2026-05-18T21:56:26.990745+05:30"},{"city":"Saharanpur","state":"Uttar Pradesh","latitude":29.9637,"longitude":77.546,"temp":33.2,"humidity":34,"rain":0.0,"pressure":968.4,"uv_index":7.4,"wind_gusts":36.0,"aqi":116,"pm10":68.2,"pm2_5":34.3,"no2":17.3,"co":370.0,"o3":93.0,"so2":12.0,"mosquito_risk":0,"arthritis_risk":5,"migraine_risk":7,"frizz_risk":0,"updated_at":"2026-05-18T21:56:26.990751+05:30"},{"city":"Jhansi","state":"Uttar Pradesh","latitude":25.4484,"longitude":78.5685,"temp":35.3,"humidity":25,"rain":0.0,"pressure":972.4,"uv_index":8.45,"wind_gusts":46.4,"aqi":70,"pm10":38.5,"pm2_5":23.0,"no2":8.7,"co":190.0,"o3":62.0,"so2":5.0,"mosquito_risk":0,"arthritis_risk":5,"migraine_risk":10,"frizz_risk":0,"updated_at":"2026-05-18T21:56:30.271811+05:30"},{"city":"Surat","state":"Gujarat","latitude":21.1702,"longitude":72.8311,"temp":30.2,"humidity":73,"rain":0.0,"pressure":1002.7,"uv_index":7.25,"wind_gusts":33.5,"aqi":91,"pm10":38.4,"pm2_5":27.4,"no2":29.1,"co":451.0,"o3":44.0,"so2":43.9,"mosquito_risk":3,"arthritis_risk":5,"migraine_risk":4,"frizz_risk":1,"updated_at":"2026-05-18T21:56:30.271842+05:30"},{"city":"Vadodara","state":"Gujarat","latitude":22.3072,"longitude":73.1812,"temp":33.5,"humidity":42,"rain":0.0,"pressure":999.9,"uv_index":7.85,"wind_gusts":37.1,"aqi":93,"pm10":42.0,"pm2_5":28.0,"no2":24.9,"co":431.0,"o3":64.0,"so2":13.8,"mosquito_risk":0,"arthritis_risk":5,"migraine_risk":7,"frizz_risk":1,"updated_at":"2026-05-18T21:56:30.271852+05:30"},{"city":"Rajkot","state":"Gujarat","latitude":22.3039,"longitude":70.8022,"temp":30.4,"humidity":41,"rain":0.0,"pressure":991.1,"uv_index":7.1,"wind_gusts":40.0,"aqi":67,"pm10":50.3,"pm2_5":21.2,"no2":7.4,"co":160.0,"o3":59.0,"so2":6.7,"mosquito_risk":0,"arthritis_risk":5,"migraine_risk":7,"frizz_risk":0,"updated_at":"2026-05-18T21:56:30.271860+05:30"},{"city":"Thane","state":"Maharashtra","latitude":19.2183,"longitude":72.9781,"temp":29.9,"humidity":75,"rain":0.0,"pressure":1004.6,"uv_index":7.6,"wind_gusts":39.6,"aqi":68,"pm10":41.7,"pm2_5":21.0,"no2":9.7,"co":218.0,"o3":66.0,"so2":5.9,"mosquito_risk":7,"arthritis_risk":5,"migraine_risk":4,"frizz_risk":1,"updated_at":"2026-05-18T21:56:30.271869+05:30"},{"city":"Nagpur","state":"Maharashtra","latitude":21.1458,"longitude":79.0882,"temp":36.1,"humidity":26,"rain":0.0,"pressure":968.9,"uv_index":8.95,"wind_gusts":36.7,"aqi":117,"pm10":31.0,"pm2_5":24.0,"no2":26.4,"co":330.0,"o3":75.0,"so2":16.0,"mosquito_risk":0,"arthritis_risk":5,"migraine_risk":10,"frizz_risk":0,"updated_at":"2026-05-18T21:56:30.271877+05:30"},{"city":"Nashik","state":"Maharashtra","latitude":19.9975,"longitude":73.7898,"temp":30.1,"humidity":44,"rain":0.0,"pressure":943.5,"uv_index":6.7,"wind_gusts":46.4,"aqi":84,"pm10":27.6,"pm2_5":18.0,"no2":8.9,"co":244.0,"o3":95.0,"so2":4.9,"mosquito_risk":0,"arthritis_risk":5,"migraine_risk":7,"frizz_risk":1,"updated_at":"2026-05-18T21:56:30.271885+05:30"},{"city":"Aurangabad","state":"Maharashtra","latitude":19.8762,"longitude":75.3433,"temp":34.8,"humidity":20,"rain":0.0,"pressure":941.0,"uv_index":9.0,"wind_gusts":38.9,"aqi":75,"pm10":24.8,"pm2_5":16.0,"no2":7.5,"co":238.0,"o3":104.0,"so2":6.0,"mosquito_risk":0,"arthritis_risk":5,"migraine_risk":7,"frizz_risk":0,"updated_at":"2026-05-18T21:56:30.271893+05:30"},{"city":"Solapur","state":"Maharashtra","latitude":17.6599,"longitude":75.9064,"temp":34.1,"humidity":40,"rain":0.0,"pressure":954.3,"uv_index":8.6,"wind_gusts":32.8,"aqi":125,"pm10":34.6,"pm2_5":30.6,"no2":9.0,"co":252.0,"o3":120.0,"so2":5.7,"mosquito_risk":0,"arthritis_risk":5,"migraine_risk":7,"frizz_risk":1,"updated_at":"2026-05-18T21:56:30.271901+05:30"},{"city":"Kolhapur","state":"Maharashtra","latitude":16.705,"longitude":74.2433,"temp":26.1,"humidity":85,"rain":0.0,"pressure":946.4,"uv_index":8.45,"wind_gusts":41.4,"aqi":88,"pm10":29.2,"pm2_5":18.3,"no2":7.0,"co":181.0,"o3":67.0,"so2":3.7,"mosquito_risk":7,"arthritis_risk":5,"migraine_risk":7,"frizz_risk":1,"updated_at":"2026-05-18T21:56:30.271909+05:30"},{"city":"Goa","state":"Goa","latitude":15.2993,"longitude":74.124,"temp":27.1,"humidity":98,"rain":0.1,"pressure":996.7,"uv_index":7.15,"wind_gusts":34.9,"aqi":66,"pm10":50.2,"pm2_5":21.4,"no2":4.9,"co":201.0,"o3":53.0,"so2":1.8,"mosquito_risk":10,"arthritis_risk":5,"migraine_risk":7,"frizz_risk":1,"updated_at":"2026-05-18T21:56:30.271916+05:30"},{"city":"Jodhpur","state":"Rajasthan","latitude":26.2389,"longitude":73.0243,"temp":35.8,"humidity":15,"rain":0.0,"pressure":978.4,"uv_index":8.35,"wind_gusts":41.0,"aqi":136,"pm10":236.1,"pm2_5":46.9,"no2":9.0,"co":180.0,"o3":76.0,"so2":3.1,"mosquito_risk":0,"arthritis_risk":5,"migraine_risk":10,"frizz_risk":0,"updated_at":"2026-05-18T21:56:30.271924+05:30"},{"city":"Udaipur","state":"Rajasthan","latitude":24.5854,"longitude":73.7125,"temp":33.2,"humidity":20,"rain":0.0,"pressure":943.6,"uv_index":8.85,"wind_gusts":45.4,"aqi":57,"pm10":32.9,"pm2_5":15.8,"no2":3.6,"co":166.0,"o3":92.0,"so2":3.0,"mosquito_risk":0,"arthritis_risk":5,"migraine_risk":7,"frizz_risk":0,"updated_at":"2026-05-18T21:56:30.271931+05:30"},{"city":"Kota","state":"Rajasthan","latitude":25.2138,"longitude":75.8648,"temp":36.8,"humidity":21,"rain":0.0,"pressure":973.6,"uv_index":8.4,"wind_gusts":36.0,"aqi":83,"pm10":68.9,"pm2_5":31.7,"no2":16.3,"co":238.0,"o3":56.0,"so2":4.8,"mosquito_risk":0,"arthritis_risk":5,"migraine_risk":10,"frizz_risk":0,"updated_at":"2026-05-18T21:56:30.271938+05:30"},{"city":"Bikaner","state":"Rajasthan","latitude":28.0229,"longitude":73.3119,"temp":36.5,"humidity":13,"rain":0.0,"pressure":976.4,"uv_index":8.4,"wind_gusts":41.0,"aqi":84,"pm10":92.4,"pm2_5":31.0,"no2":2.5,"co":160.0,"o3":91.0,"so2":2.3,"mosquito_risk":0,"arthritis_risk":5,"migraine_risk":10,"frizz_risk":0,"updated_at":"2026-05-18T21:56:30.271945+05:30"},{"city":"Ajmer","state":"Rajasthan","latitude":26.4499,"longitude":74.6399,"temp":34.2,"humidity":22,"rain":0.0,"pressure":951.1,"uv_index":8.4,"wind_gusts":42.1,"aqi":81,"pm10":46.8,"pm2_5":19.6,"no2":6.2,"co":233.0,"o3":83.0,"so2":4.6,"mosquito_risk":0,"arthritis_risk":5,"migraine_risk":7,"frizz_risk":0,"updated_at":"2026-05-18T21:56:30.271952+05:30"},{"city":"Gwalior","state":"Madhya Pradesh","latitude":26.2183,"longitude":78.1828,"temp":37.3,"humidity":20,"rain":0.0,"pressure":977.5,"uv_index":8.25,"wind_gusts":47.5,"aqi":82,"pm10":78.5,"pm2_5":30.2,"no2":12.5,"co":225.0,"o3":59.0,"so2":6.5,"mosquito_risk":0,"arthritis_risk":5,"migraine_risk":10,"frizz_risk":0,"updated_at":"2026-05-18T21:56:30.271960+05:30"},{"city":"Indore","state":"Madhya Pradesh","latitude":22.7196,"longitude":75.8577,"temp":36.5,"humidity":19,"rain":0.0,"pressure":945.0,"uv_index":8.65,"wind_gusts":52.2,"aqi":75,"pm10":69.2,"pm2_5":38.4,"no2":21.4,"co":400.0,"o3":71.0,"so2":10.1,"mosquito_risk":0,"arthritis_risk":5,"migraine_risk":10,"frizz_risk":0,"updated_at":"2026-05-18T21:56:30.271967+05:30"},{"city":"Bhopal","state":"Madhya Pradesh","latitude":23.2599,"longitude":77.4126,"temp":36.5,"humidity":18,"rain":0.0,"pressure":949.6,"uv_index":8.7,"wind_gusts":38.9,"aqi":68,"pm10":55.2,"pm2_5":25.1,"no2":8.1,"co":427.0,"o3":82.0,"so2":6.2,"mosquito_risk":0,"arthritis_risk":5,"migraine_risk":10,"frizz_risk":0,"updated_at":"2026-05-18T21:56:30.271975+05:30"},{"city":"Jabalpur","state":"Madhya Pradesh","latitude":23.1815,"longitude":79.9864,"temp":34.4,"humidity":27,"rain":0.0,"pressure":957.0,"uv_index":8.85,"wind_gusts":34.9,"aqi":86,"pm10":51.9,"pm2_5":28.1,"no2":18.8,"co":326.0,"o3":77.0,"so2":7.1,"mosquito_risk":0,"arthritis_risk":5,"migraine_risk":7,"frizz_risk":0,"updated_at":"2026-05-18T21:56:30.271982+05:30"},{"city":"Ujjain","state":"Madhya Pradesh","latitude":23.1765,"longitude":75.7885,"temp":35.5,"humidity":20,"rain":0.0,"pressure":950.0,"uv_index":8.4,"wind_gusts":37.8,"aqi":72,"pm10":41.6,"pm2_5":24.7,"no2":7.0,"co":352.0,"o3":84.0,"so2":5.1,"mosquito_risk":0,"arthritis_risk":5,"migraine_risk":10,"frizz_risk":0,"updated_at":"2026-05-18T21:56:30.271989+05:30"},{"city":"Visakhapatnam","state":"Andhra Pradesh","latitude":17.6868,"longitude":83.2185,"temp":29.9,"humidity":84,"rain":0.0,"pressure":1001.6,"uv_index":9.05,"wind_gusts":47.9,"aqi":64,"pm10":23.0,"pm2_5":17.3,"no2":16.8,"co":298.0,"o3":64.0,"so2":30.7,"mosquito_risk":7,"arthritis_risk":5,"migraine_risk":4,"frizz_risk":1,"updated_at":"2026-05-18T21:56:30.271994+05:30"},{"city":"Vijayawada","state":"Andhra Pradesh","latitude":16.5062,"longitude":80.648,"temp":31.0,"humidity":67,"rain":0.0,"pressure":1000.4,"uv_index":8.6,"wind_gusts":33.1,"aqi":91,"pm10":23.6,"pm2_5":19.0,"no2":6.5,"co":258.0,"o3":95.0,"so2":8.8,"mosquito_risk":3,"arthritis_risk":5,"migraine_risk":4,"frizz_risk":1,"updated_at":"2026-05-18T21:56:30.272000+05:30"},{"city":"Guntur","state":"Andhra Pradesh","latitude":16.3067,"longitude":80.4365,"temp":30.3,"humidity":79,"rain":0.0,"pressure":1001.6,"uv_index":9.2,"wind_gusts":36.0,"aqi":97,"pm10":25.0,"pm2_5":21.1,"no2":5.5,"co":253.0,"o3":106.0,"so2":7.5,"mosquito_risk":3,"arthritis_risk":5,"migraine_risk":4,"frizz_risk":1,"updated_at":"2026-05-18T21:56:30.272006+05:30"},{"city":"Nellore","state":"Andhra Pradesh","latitude":14.4426,"longitude":79.9865,"temp":30.8,"humidity":77,"rain":0.0,"pressure":1003.2,"uv_index":9.1,"wind_gusts":40.7,"aqi":127,"pm10":23.2,"pm2_5":19.2,"no2":5.7,"co":252.0,"o3":128.0,"so2":9.5,"mosquito_risk":3,"arthritis_risk":5,"migraine_risk":4,"frizz_risk":1,"updated_at":"2026-05-18T21:56:30.272013+05:30"},{"city":"Kurnool","state":"Andhra Pradesh","latitude":15.8281,"longitude":78.0373,"temp":33.9,"humidity":43,"rain":0.0,"pressure":974.4,"uv_index":8.8,"wind_gusts":33.5,"aqi":59,"pm10":30.4,"pm2_5":24.7,"no2":16.7,"co":317.0,"o3":60.0,"so2":3.7,"mosquito_risk":0,"arthritis_risk":5,"migraine_risk":7,"frizz_risk":1,"updated_at":"2026-05-18T21:56:30.272019+05:30"},{"city":"Kakinada","state":"Andhra Pradesh","latitude":16.9891,"longitude":82.2475,"temp":30.4,"humidity":77,"rain":0.0,"pressure":1005.3,"uv_index":9.1,"wind_gusts":38.2,"aqi":55,"pm10":20.1,"pm2_5":13.5,"no2":2.3,"co":224.0,"o3":83.0,"so2":2.3,"mosquito_risk":3,"arthritis_risk":5,"migraine_risk":4,"frizz_risk":1,"updated_at":"2026-05-18T21:56:30.272025+05:30"},{"city":"Tirupati","state":"Andhra Pradesh","latitude":13.6288,"longitude":79.4192,"temp":29.4,"humidity":72,"rain":0.0,"pressure":989.3,"uv_index":8.6,"wind_gusts":29.2,"aqi":85,"pm10":30.7,"pm2_5":28.5,"no2":20.7,"co":322.0,"o3":90.0,"so2":10.0,"mosquito_risk":7,"arthritis_risk":5,"migraine_risk":7,"frizz_risk":1,"updated_at":"2026-05-18T21:56:30.272031+05:30"},{"city":"Warangal","state":"Telangana","latitude":17.9689,"longitude":79.5941,"temp":32.2,"humidity":54,"rain":0.0,"pressure":976.3,"uv_index":9.15,"wind_gusts":36.4,"aqi":71,"pm10":43.1,"pm2_5":39.3,"no2":19.1,"co":485.0,"o3":76.0,"so2":7.8,"mosquito_risk":0,"arthritis_risk":5,"migraine_risk":7,"frizz_risk":1,"updated_at":"2026-05-18T21:56:30.272036+05:30"},{"city":"Nizamabad","state":"Telangana","latitude":18.6725,"longitude":78.0941,"temp":33.8,"humidity":38,"rain":0.0,"pressure":961.5,"uv_index":9.1,"wind_gusts":28.1,"aqi":112,"pm10":38.4,"pm2_5":33.8,"no2":11.2,"co":316.0,"o3":101.0,"so2":6.0,"mosquito_risk":0,"arthritis_risk":5,"migraine_risk":7,"frizz_risk":1,"updated_at":"2026-05-18T21:56:30.272042+05:30"},{"city":"Mysore","state":"Karnataka","latitude":12.2958,"longitude":76.6396,"temp":23.4,"humidity":87,"rain":0.0,"pressure":928.3,"uv_index":4.5,"wind_gusts":37.8,"aqi":71,"pm10":11.5,"pm2_5":10.5,"no2":11.5,"co":267.0,"o3":70.0,"so2":3.1,"mosquito_risk":3,"arthritis_risk":5,"migraine_risk":3,"frizz_risk":1,"updated_at":"2026-05-18T21:56:30.272047+05:30"},{"city":"Mangalore","state":"Karnataka","latitude":12.9141,"longitude":74.856,"temp":24.6,"humidity":98,"rain":0.1,"pressure":1006.6,"uv_index":3.45,"wind_gusts":27.0,"aqi":58,"pm10":18.1,"pm2_5":14.9,"no2":13.8,"co":350.0,"o3":54.0,"so2":4.8,"mosquito_risk":6,"arthritis_risk":5,"migraine_risk":0,"frizz_risk":1,"updated_at":"2026-05-18T21:56:30.272053+05:30"},{"city":"Hubli-Dharwad","state":"Karnataka","latitude":15.3647,"longitude":75.124,"temp":24.9,"humidity":94,"rain":0.0,"pressure":939.4,"uv_index":8.6,"wind_gusts":50.0,"aqi":58,"pm10":20.0,"pm2_5":13.7,"no2":10.7,"co":177.0,"o3":52.0,"so2":2.6,"mosquito_risk":3,"arthritis_risk":5,"migraine_risk":7,"frizz_risk":1,"updated_at":"2026-05-18T21:56:30.272059+05:30"},{"city":"Belgaum","state":"Karnataka","latitude":15.8497,"longitude":74.4977,"temp":24.6,"humidity":91,"rain":0.0,"pressure":924.6,"uv_index":7.95,"wind_gusts":49.0,"aqi":57,"pm10":27.2,"pm2_5":15.5,"no2":8.8,"co":145.0,"o3":49.0,"so2":2.5,"mosquito_risk":3,"arthritis_risk":5,"migraine_risk":7,"frizz_risk":1,"updated_at":"2026-05-18T21:56:33.545877+05:30"},{"city":"Coimbatore","state":"Tamil Nadu","latitude":11.0168,"longitude":76.9558,"temp":25.0,"humidity":85,"rain":0.0,"pressure":961.6,"uv_index":5.9,"wind_gusts":52.9,"aqi":39,"pm10":5.3,"pm2_5":4.9,"no2":7.3,"co":225.0,"o3":62.0,"so2":3.0,"mosquito_risk":7,"arthritis_risk":5,"migraine_risk":3,"frizz_risk":1,"updated_at":"2026-05-18T21:56:33.545909+05:30"},{"city":"Madurai","state":"Tamil Nadu","latitude":9.9252,"longitude":78.1198,"temp":28.8,"humidity":71,"rain":0.0,"pressure":992.6,"uv_index":8.8,"wind_gusts":37.8,"aqi":63,"pm10":18.0,"pm2_5":17.2,"no2":29.9,"co":618.0,"o3":33.0,"so2":6.6,"mosquito_risk":7,"arthritis_risk":5,"migraine_risk":7,"frizz_risk":1,"updated_at":"2026-05-18T21:56:33.545919+05:30"},{"city":"Trichy","state":"Tamil Nadu","latitude":10.7905,"longitude":78.7047,"temp":27.8,"humidity":90,"rain":0.0,"pressure":999.0,"uv_index":9.0,"wind_gusts":30.2,"aqi":60,"pm10":14.5,"pm2_5":13.9,"no2":17.4,"co":368.0,"o3":59.0,"so2":4.6,"mosquito_risk":7,"arthritis_risk":5,"migraine_risk":7,"frizz_risk":1,"updated_at":"2026-05-18T21:56:33.545928+05:30"},{"city":"Salem","state":"Tamil Nadu","latitude":11.6643,"longitude":78.146,"temp":28.3,"humidity":74,"rain":0.0,"pressure":976.9,"uv_index":8.9,"wind_gusts":35.6,"aqi":82,"pm10":11.5,"pm2_5":10.9,"no2":14.3,"co":451.0,"o3":75.0,"so2":6.3,"mosquito_risk":7,"arthritis_risk":5,"migraine_risk":7,"frizz_risk":1,"updated_at":"2026-05-18T21:56:33.545936+05:30"},{"city":"Tirunelveli","state":"Tamil Nadu","latitude":8.7139,"longitude":77.7567,"temp":29.0,"humidity":68,"rain":0.0,"pressure":1003.5,"uv_index":8.4,"wind_gusts":26.6,"aqi":34,"pm10":11.0,"pm2_5":8.7,"no2":7.9,"co":250.0,"o3":50.0,"so2":1.5,"mosquito_risk":7,"arthritis_risk":5,"migraine_risk":4,"frizz_risk":1,"updated_at":"2026-05-18T21:56:33.545944+05:30"},{"city":"Vellore","state":"Tamil Nadu","latitude":12.9165,"longitude":79.1325,"temp":28.2,"humidity":90,"rain":0.0,"pressure":983.1,"uv_index":9.15,"wind_gusts":33.8,"aqi":91,"pm10":21.3,"pm2_5":19.6,"no2":12.1,"co":279.0,"o3":91.0,"so2":7.3,"mosquito_risk":7,"arthritis_risk":5,"migraine_risk":7,"frizz_risk":1,"updated_at":"2026-05-18T21:56:33.545952+05:30"},{"city":"Erode","state":"Tamil Nadu","latitude":11.341,"longitude":77.7172,"temp":27.8,"humidity":73,"rain":0.0,"pressure":988.6,"uv_index":7.4,"wind_gusts":36.0,"aqi":48,"pm10":9.6,"pm2_5":9.2,"no2":13.9,"co":247.0,"o3":63.0,"so2":3.7,"mosquito_risk":7,"arthritis_risk":5,"migraine_risk":7,"frizz_risk":1,"updated_at":"2026-05-18T21:56:33.545959+05:30"},{"city":"Kochi","state":"Kerala","latitude":9.9312,"longitude":76.2673,"temp":26.0,"humidity":95,"rain":0.1,"pressure":1009.4,"uv_index":6.85,"wind_gusts":37.8,"aqi":38,"pm10":9.0,"pm2_5":7.7,"no2":10.2,"co":227.0,"o3":49.0,"so2":2.8,"mosquito_risk":10,"arthritis_risk":0,"migraine_risk":4,"frizz_risk":1,"updated_at":"2026-05-18T21:56:33.545966+05:30"},{"city":"Thiruvananthapuram","state":"Kerala","latitude":8.5241,"longitude":76.9366,"temp":25.4,"humidity":96,"rain":0.1,"pressure":1009.6,"uv_index":7.6,"wind_gusts":37.1,"aqi":36,"pm10":18.0,"pm2_5":10.4,"no2":1.8,"co":145.0,"o3":63.0,"so2":0.7,"mosquito_risk":10,"arthritis_risk":0,"migraine_risk":4,"frizz_risk":1,"updated_at":"2026-05-18T21:56:33.545974+05:30"},{"city":"Kozhikode","state":"Kerala","latitude":11.2588,"longitude":75.7804,"temp":25.5,"humidity":97,"rain":0.0,"pressure":1008.2,"uv_index":4.2,"wind_gusts":24.5,"aqi":36,"pm10":6.8,"pm2_5":5.6,"no2":5.2,"co":374.0,"o3":65.0,"so2":2.3,"mosquito_risk":7,"arthritis_risk":0,"migraine_risk":0,"frizz_risk":1,"updated_at":"2026-05-18T21:56:33.545982+05:30"},{"city":"Thrissur","state":"Kerala","latitude":10.5276,"longitude":76.2144,"temp":25.0,"humidity":99,"rain":0.0,"pressure":1007.8,"uv_index":5.6,"wind_gusts":30.2,"aqi":33,"pm10":9.2,"pm2_5":8.3,"no2":10.9,"co":367.0,"o3":46.0,"so2":3.4,"mosquito_risk":7,"arthritis_risk":5,"migraine_risk":0,"frizz_risk":1,"updated_at":"2026-05-18T21:56:33.545990+05:30"},{"city":"Kannur","state":"Kerala","latitude":11.8745,"longitude":75.3704,"temp":26.0,"humidity":94,"rain":0.0,"pressure":1007.3,"uv_index":3.05,"wind_gusts":32.4,"aqi":47,"pm10":8.9,"pm2_5":8.1,"no2":11.0,"co":312.0,"o3":54.0,"so2":3.0,"mosquito_risk":7,"arthritis_risk":5,"migraine_risk":0,"frizz_risk":1,"updated_at":"2026-05-18T21:56:33.545998+05:30"},{"city":"Patna","state":"Bihar","latitude":25.5941,"longitude":85.1376,"temp":30.6,"humidity":76,"rain":0.0,"pressure":995.3,"uv_index":8.8,"wind_gusts":30.6,"aqi":172,"pm10":72.4,"pm2_5":59.4,"no2":15.8,"co":571.0,"o3":126.0,"so2":18.9,"mosquito_risk":3,"arthritis_risk":5,"migraine_risk":7,"frizz_risk":1,"updated_at":"2026-05-18T21:56:33.546005+05:30"},{"city":"Gaya","state":"Bihar","latitude":24.7914,"longitude":85.0002,"temp":31.6,"humidity":55,"rain":0.0,"pressure":988.4,"uv_index":8.85,"wind_gusts":38.2,"aqi":136,"pm10":112.5,"pm2_5":66.1,"no2":17.5,"co":549.0,"o3":113.0,"so2":17.3,"mosquito_risk":0,"arthritis_risk":5,"migraine_risk":7,"frizz_risk":1,"updated_at":"2026-05-18T21:56:33.546012+05:30"},{"city":"Muzaffarpur","state":"Bihar","latitude":26.1209,"longitude":85.3647,"temp":29.8,"humidity":75,"rain":0.0,"pressure":995.7,"uv_index":8.8,"wind_gusts":32.4,"aqi":158,"pm10":78.0,"pm2_5":63.6,"no2":17.3,"co":565.0,"o3":116.0,"so2":18.0,"mosquito_risk":7,"arthritis_risk":5,"migraine_risk":7,"frizz_risk":1,"updated_at":"2026-05-18T21:56:33.546019+05:30"},{"city":"Bhagalpur","state":"Bihar","latitude":25.2425,"longitude":87.0117,"temp":28.9,"humidity":82,"rain":0.0,"pressure":997.1,"uv_index":8.8,"wind_gusts":37.4,"aqi":157,"pm10":39.8,"pm2_5":34.5,"no2":10.9,"co":453.0,"o3":105.0,"so2":9.2,"mosquito_risk":7,"arthritis_risk":5,"migraine_risk":7,"frizz_risk":1,"updated_at":"2026-05-18T21:56:33.546026+05:30"},{"city":"Ranchi","state":"Jharkhand","latitude":23.3441,"longitude":85.3096,"temp":27.6,"humidity":50,"rain":0.0,"pressure":933.9,"uv_index":9.25,"wind_gusts":42.1,"aqi":138,"pm10":55.9,"pm2_5":38.3,"no2":14.7,"co":286.0,"o3":91.0,"so2":7.7,"mosquito_risk":4,"arthritis_risk":5,"migraine_risk":7,"frizz_risk":1,"updated_at":"2026-05-18T21:56:33.546034+05:30"},{"city":"Jamshedpur","state":"Jharkhand","latitude":22.8046,"longitude":86.2029,"temp":30.3,"humidity":52,"rain":0.0,"pressure":985.9,"uv_index":9.05,"wind_gusts":37.8,"aqi":127,"pm10":76.4,"pm2_5":56.2,"no2":24.7,"co":564.0,"o3":97.0,"so2":26.1,"mosquito_risk":0,"arthritis_risk":5,"migraine_risk":7,"frizz_risk":1,"updated_at":"2026-05-18T21:56:33.546041+05:30"},{"city":"Dhanbad","state":"Jharkhand","latitude":23.7957,"longitude":86.4304,"temp":30.2,"humidity":51,"rain":0.0,"pressure":975.2,"uv_index":9.0,"wind_gusts":38.9,"aqi":159,"pm10":97.8,"pm2_5":79.6,"no2":68.2,"co":789.0,"o3":49.0,"so2":142.0,"mosquito_risk":0,"arthritis_risk":5,"migraine_risk":7,"frizz_risk":1,"updated_at":"2026-05-18T21:56:33.546048+05:30"},{"city":"Bokaro","state":"Jharkhand","latitude":23.6693,"longitude":86.1511,"temp":29.9,"humidity":56,"rain":0.0,"pressure":978.6,"uv_index":9.05,"wind_gusts":37.8,"aqi":154,"pm10":95.7,"pm2_5":65.2,"no2":46.8,"co":1160.0,"o3":62.0,"so2":90.3,"mosquito_risk":4,"arthritis_risk":5,"migraine_risk":7,"frizz_risk":1,"updated_at":"2026-05-18T21:56:33.546055+05:30"},{"city":"Bhubaneswar","state":"Odisha","latitude":20.2961,"longitude":85.8245,"temp":29.6,"humidity":84,"rain":0.0,"pressure":999.4,"uv_index":9.1,"wind_gusts":41.0,"aqi":65,"pm10":20.0,"pm2_5":16.5,"no2":6.2,"co":234.0,"o3":81.0,"so2":6.1,"mosquito_risk":7,"arthritis_risk":5,"migraine_risk":7,"frizz_risk":1,"updated_at":"2026-05-18T21:56:33.546062+05:30"},{"city":"Cuttack","state":"Odisha","latitude":20.4625,"longitude":85.8828,"temp":29.9,"humidity":83,"rain":0.0,"pressure":1001.0,"uv_index":9.15,"wind_gusts":31.0,"aqi":65,"pm10":20.0,"pm2_5":16.5,"no2":6.2,"co":268.0,"o3":81.0,"so2":6.1,"mosquito_risk":7,"arthritis_risk":5,"migraine_risk":4,"frizz_risk":1,"updated_at":"2026-05-18T21:56:33.546069+05:30"},{"city":"Rourkela","state":"Odisha","latitude":22.2604,"longitude":84.8536,"temp":30.8,"humidity":55,"rain":0.0,"pressure":980.6,"uv_index":8.95,"wind_gusts":39.2,"aqi":147,"pm10":71.0,"pm2_5":49.0,"no2":18.9,"co":520.0,"o3":124.0,"so2":14.6,"mosquito_risk":0,"arthritis_risk":5,"migraine_risk":7,"frizz_risk":1,"updated_at":"2026-05-18T21:56:33.546076+05:30"},{"city":"Raipur","state":"Chhattisgarh","latitude":21.2514,"longitude":81.6296,"temp":33.8,"humidity":34,"rain":0.0,"pressure":970.1,"uv_index":8.95,"wind_gusts":42.8,"aqi":109,"pm10":51.9,"pm2_5":48.2,"no2":41.1,"co":405.0,"o3":65.0,"so2":48.1,"mosquito_risk":0,"arthritis_risk":5,"migraine_risk":7,"frizz_risk":0,"updated_at":"2026-05-18T21:56:33.546083+05:30"},{"city":"Bhilai","state":"Chhattisgarh","latitude":21.1938,"longitude":81.3509,"temp":33.7,"humidity":33,"rain":0.0,"pressure":970.5,"uv_index":8.95,"wind_gusts":43.2,"aqi":99,"pm10":46.3,"pm2_5":42.8,"no2":40.6,"co":758.0,"o3":64.0,"so2":47.4,"mosquito_risk":0,"arthritis_risk":5,"migraine_risk":7,"frizz_risk":0,"updated_at":"2026-05-18T21:56:33.546091+05:30"},{"city":"Guwahati","state":"Assam","latitude":26.1158,"longitude":91.7086,"temp":23.4,"humidity":98,"rain":0.0,"pressure":1000.8,"uv_index":8.3,"wind_gusts":27.7,"aqi":67,"pm10":21.5,"pm2_5":19.8,"no2":11.9,"co":408.0,"o3":60.0,"so2":4.1,"mosquito_risk":3,"arthritis_risk":5,"migraine_risk":4,"frizz_risk":1,"updated_at":"2026-05-18T21:56:33.546098+05:30"},{"city":"Agartala","state":"Tripura","latitude":23.8315,"longitude":91.2868,"temp":26.9,"humidity":88,"rain":0.0,"pressure":1003.8,"uv_index":8.9,"wind_gusts":47.5,"aqi":76,"pm10":33.4,"pm2_5":26.4,"no2":13.5,"co":281.0,"o3":52.0,"so2":2.5,"mosquito_risk":7,"arthritis_risk":5,"migraine_risk":4,"frizz_risk":1,"updated_at":"2026-05-18T21:56:33.546105+05:30"},{"city":"Shillong","state":"Meghalaya","latitude":25.5788,"longitude":91.8933,"temp":17.3,"humidity":94,"rain":0.0,"pressure":855.4,"uv_index":7.8,"wind_gusts":44.3,"aqi":46,"pm10":19.4,"pm2_5":14.6,"no2":11.9,"co":572.0,"o3":61.0,"so2":3.5,"mosquito_risk":3,"arthritis_risk":10,"migraine_risk":7,"frizz_risk":1,"updated_at":"2026-05-18T21:56:33.546112+05:30"},{"city":"Imphal","state":"Manipur","latitude":24.817,"longitude":93.9368,"temp":21.1,"humidity":95,"rain":0.0,"pressure":921.9,"uv_index":9.2,"wind_gusts":36.7,"aqi":90,"pm10":48.9,"pm2_5":37.7,"no2":21.1,"co":947.0,"o3":48.0,"so2":6.1,"mosquito_risk":3,"arthritis_risk":5,"migraine_risk":7,"frizz_risk":1,"updated_at":"2026-05-18T21:56:33.546119+05:30"},{"city":"Aizawl","state":"Mizoram","latitude":23.7271,"longitude":92.7176,"temp":19.8,"humidity":93,"rain":0.0,"pressure":890.7,"uv_index":9.1,"wind_gusts":33.1,"aqi":74,"pm10":39.7,"pm2_5":26.9,"no2":9.5,"co":225.0,"o3":65.0,"so2":3.8,"mosquito_risk":3,"arthritis_risk":10,"migraine_risk":7,"frizz_risk":1,"updated_at":"2026-05-18T21:56:33.546127+05:30"},{"city":"Kohima","state":"Nagaland","latitude":25.6701,"longitude":94.1077,"temp":17.8,"humidity":91,"rain":0.0,"pressure":854.1,"uv_index":8.8,"wind_gusts":33.8,"aqi":60,"pm10":22.0,"pm2_5":13.5,"no2":10.7,"co":369.0,"o3":49.0,"so2":2.5,"mosquito_risk":3,"arthritis_risk":10,"migraine_risk":7,"frizz_risk":1,"updated_at":"2026-05-18T21:56:33.546134+05:30"},{"city":"Gangtok","state":"Sikkim","latitude":27.3314,"longitude":88.6138,"temp":16.6,"humidity":97,"rain":0.1,"pressure":836.3,"uv_index":9.05,"wind_gusts":35.6,"aqi":83,"pm10":34.0,"pm2_5":29.5,"no2":18.5,"co":713.0,"o3":89.0,"so2":3.0,"mosquito_risk":6,"arthritis_risk":10,"migraine_risk":7,"frizz_risk":0,"updated_at":"2026-05-18T21:56:33.546141+05:30"},{"city":"Siliguri","state":"West Bengal","latitude":26.7271,"longitude":88.3953,"temp":24.2,"humidity":95,"rain":0.0,"pressure":991.5,"uv_index":8.75,"wind_gusts":31.3,"aqi":115,"pm10":56.9,"pm2_5":45.8,"no2":14.9,"co":535.0,"o3":110.0,"so2":7.5,"mosquito_risk":3,"arthritis_risk":5,"migraine_risk":7,"frizz_risk":1,"updated_at":"2026-05-18T21:56:36.826388+05:30"},{"city":"Durgapur","state":"West Bengal","latitude":23.5204,"longitude":87.3119,"temp":29.9,"humidity":84,"rain":0.0,"pressure":990.3,"uv_index":8.95,"wind_gusts":37.8,"aqi":152,"pm10":95.5,"pm2_5":82.4,"no2":40.0,"co":543.0,"o3":71.0,"so2":53.7,"mosquito_risk":7,"arthritis_risk":5,"migraine_risk":7,"frizz_risk":1,"updated_at":"2026-05-18T21:56:36.826418+05:30"},{"city":"Asansol","state":"West Bengal","latitude":23.6739,"longitude":86.9524,"temp":30.0,"humidity":63,"rain":0.0,"pressure":988.7,"uv_index":8.95,"wind_gusts":33.5,"aqi":153,"pm10":83.4,"pm2_5":69.2,"no2":49.6,"co":468.0,"o3":60.0,"so2":70.3,"mosquito_risk":7,"arthritis_risk":5,"migraine_risk":7,"frizz_risk":1,"updated_at":"2026-05-18T21:56:36.826428+05:30"},{"city":"Pondicherry","state":"Puducherry","latitude":11.9139,"longitude":79.8145,"temp":29.6,"humidity":79,"rain":0.0,"pressure":1006.8,"uv_index":8.85,"wind_gusts":39.2,"aqi":109,"pm10":17.2,"pm2_5":13.0,"no2":9.5,"co":293.0,"o3":79.0,"so2":9.5,"mosquito_risk":7,"arthritis_risk":5,"migraine_risk":4,"frizz_risk":1,"updated_at":"2026-05-18T21:56:36.826437+05:30"},{"city":"Port Blair","state":"Andaman and Nicobar Islands","latitude":11.6234,"longitude":92.7265,"temp":26.4,"humidity":92,"rain":0.0,"pressure":1007.4,"uv_index":8.55,"wind_gusts":45.7,"aqi":26,"pm10":7.9,"pm2_5":4.7,"no2":0.2,"co":124.0,"o3":49.0,"so2":0.3,"mosquito_risk":7,"arthritis_risk":5,"migraine_risk":4,"frizz_risk":1,"updated_at":"2026-05-18T21:56:36.826445+05:30"},{"city":"Haridwar","state":"Uttarakhand","latitude":29.9457,"longitude":78.1642,"temp":29.5,"humidity":53,"rain":0.0,"pressure":966.5,"uv_index":7.55,"wind_gusts":27.0,"aqi":146,"pm10":77.5,"pm2_5":34.7,"no2":20.1,"co":497.0,"o3":98.0,"so2":13.4,"mosquito_risk":4,"arthritis_risk":5,"migraine_risk":7,"frizz_risk":1,"updated_at":"2026-05-18T21:56:36.826454+05:30"},{"city":"Rishikesh","state":"Uttarakhand","latitude":30.0869,"longitude":78.2676,"temp":28.3,"humidity":52,"rain":0.0,"pressure":959.5,"uv_index":7.65,"wind_gusts":28.8,"aqi":155,"pm10":36.8,"pm2_5":21.8,"no2":11.6,"co":426.0,"o3":132.0,"so2":10.0,"mosquito_risk":4,"arthritis_risk":5,"migraine_risk":7,"frizz_risk":1,"updated_at":"2026-05-18T21:56:36.826462+05:30"},{"city":"Nainital","state":"Uttarakhand","latitude":29.3919,"longitude":79.4542,"temp":17.7,"humidity":72,"rain":0.0,"pressure":802.8,"uv_index":8.5,"wind_gusts":31.3,"aqi":162,"pm10":31.8,"pm2_5":24.2,"no2":10.4,"co":372.0,"o3":136.0,"so2":8.4,"mosquito_risk":3,"arthritis_risk":5,"migraine_risk":7,"frizz_risk":0,"updated_at":"2026-05-18T21:56:36.826470+05:30"},{"city":"Mussoorie","state":"Uttarakhand","latitude":30.4599,"longitude":78.0664,"temp":17.3,"humidity":63,"rain":0.0,"pressure":799.3,"uv_index":8.05,"wind_gusts":45.4,"aqi":147,"pm10":31.5,"pm2_5":23.2,"no2":25.2,"co":366.0,"o3":106.0,"so2":11.7,"mosquito_risk":3,"arthritis_risk":5,"migraine_risk":7,"frizz_risk":0,"updated_at":"2026-05-18T21:56:36.826477+05:30"},{"city":"Dharamshala","state":"Himachal Pradesh","latitude":32.219,"longitude":76.3234,"temp":24.6,"humidity":50,"rain":0.0,"pressure":866.7,"uv_index":8.45,"wind_gusts":40.0,"aqi":84,"pm10":16.1,"pm2_5":13.5,"no2":15.9,"co":294.0,"o3":54.0,"so2":1.3,"mosquito_risk":0,"arthritis_risk":5,"migraine_risk":7,"frizz_risk":0,"updated_at":"2026-05-18T21:56:36.826484+05:30"},{"city":"Dalhousie","state":"Himachal Pradesh","latitude":32.5387,"longitude":75.971,"temp":17.4,"humidity":72,"rain":0.0,"pressure":801.9,"uv_index":8.7,"wind_gusts":41.0,"aqi":142,"pm10":23.8,"pm2_5":21.1,"no2":26.3,"co":551.0,"o3":108.0,"so2":3.6,"mosquito_risk":3,"arthritis_risk":5,"migraine_risk":7,"frizz_risk":0,"updated_at":"2026-05-18T21:56:36.826493+05:30"},{"city":"Patiala","state":"Punjab","latitude":30.3398,"longitude":76.3869,"temp":33.7,"humidity":39,"rain":0.0,"pressure":971.6,"uv_index":7.65,"wind_gusts":35.3,"aqi":490,"pm10":252.4,"pm2_5":67.3,"no2":16.3,"co":526.0,"o3":74.0,"so2":9.7,"mosquito_risk":0,"arthritis_risk":5,"migraine_risk":7,"frizz_risk":1,"updated_at":"2026-05-18T21:56:36.826500+05:30"},{"city":"Bhatinda","state":"Punjab","latitude":30.211,"longitude":74.9455,"temp":34.4,"humidity":29,"rain":0.0,"pressure":976.9,"uv_index":8.3,"wind_gusts":37.8,"aqi":86,"pm10":62.4,"pm2_5":40.5,"no2":22.5,"co":355.0,"o3":66.0,"so2":7.7,"mosquito_risk":0,"arthritis_risk":5,"migraine_risk":7,"frizz_risk":0,"updated_at":"2026-05-18T21:56:36.826507+05:30"},{"city":"Rohtak","state":"Haryana","latitude":28.8955,"longitude":76.6066,"temp":35.0,"humidity":24,"rain":0.0,"pressure":975.0,"uv_index":7.75,"wind_gusts":42.8,"aqi":878,"pm10":1151.1,"pm2_5":192.3,"no2":17.8,"co":300.0,"o3":68.0,"so2":5.8,"mosquito_risk":0,"arthritis_risk":5,"migraine_risk":7,"frizz_risk":0,"updated_at":"2026-05-18T21:56:36.826515+05:30"},{"city":"Panipat","state":"Haryana","latitude":29.3909,"longitude":76.9635,"temp":33.8,"humidity":34,"rain":0.0,"pressure":973.3,"uv_index":7.6,"wind_gusts":36.7,"aqi":1706,"pm10":1896.2,"pm2_5":300.8,"no2":17.1,"co":498.0,"o3":70.0,"so2":7.7,"mosquito_risk":0,"arthritis_risk":5,"migraine_risk":7,"frizz_risk":0,"updated_at":"2026-05-18T21:56:36.826522+05:30"},{"city":"Mathura","state":"Uttar Pradesh","latitude":27.4924,"longitude":77.6737,"temp":35.5,"humidity":24,"rain":0.0,"pressure":980.1,"uv_index":8.0,"wind_gusts":42.8,"aqi":691,"pm10":802.8,"pm2_5":123.9,"no2":17.7,"co":317.0,"o3":61.0,"so2":5.4,"mosquito_risk":0,"arthritis_risk":5,"migraine_risk":10,"frizz_risk":0,"updated_at":"2026-05-18T21:56:36.826529+05:30"},{"city":"Vrindavan","state":"Uttar Pradesh","latitude":27.5823,"longitude":77.7027,"temp":34.5,"humidity":28,"rain":0.0,"pressure":980.5,"uv_index":8.0,"wind_gusts":40.0,"aqi":691,"pm10":802.8,"pm2_5":123.9,"no2":17.7,"co":330.0,"o3":61.0,"so2":5.4,"mosquito_risk":0,"arthritis_risk":5,"migraine_risk":7,"frizz_risk":0,"updated_at":"2026-05-18T21:56:36.826536+05:30"},{"city":"Ayodhya","state":"Uttar Pradesh","latitude":26.7922,"longitude":82.1998,"temp":31.0,"humidity":58,"rain":0.0,"pressure":989.1,"uv_index":8.35,"wind_gusts":23.0,"aqi":159,"pm10":177.9,"pm2_5":82.7,"no2":31.5,"co":587.0,"o3":76.0,"so2":15.3,"mosquito_risk":0,"arthritis_risk":5,"migraine_risk":7,"frizz_risk":1,"updated_at":"2026-05-18T21:56:36.826543+05:30"},{"city":"Ratlam","state":"Madhya Pradesh","latitude":23.3315,"longitude":75.0367,"temp":34.4,"humidity":22,"rain":0.0,"pressure":951.0,"uv_index":8.55,"wind_gusts":47.2,"aqi":71,"pm10":35.6,"pm2_5":18.5,"no2":2.7,"co":187.0,"o3":98.0,"so2":4.5,"mosquito_risk":0,"arthritis_risk":5,"migraine_risk":7,"frizz_risk":0,"updated_at":"2026-05-18T21:56:36.826550+05:30"},{"city":"Sagar","state":"Madhya Pradesh","latitude":23.8388,"longitude":78.7378,"temp":34.0,"humidity":25,"rain":0.0,"pressure":946.3,"uv_index":8.75,"wind_gusts":43.6,"aqi":70,"pm10":56.2,"pm2_5":22.2,"no2":8.8,"co":183.0,"o3":70.0,"so2":2.9,"mosquito_risk":0,"arthritis_risk":5,"migraine_risk":7,"frizz_risk":0,"updated_at":"2026-05-18T21:56:36.826557+05:30"},{"city":"Satna","state":"Madhya Pradesh","latitude":24.6005,"longitude":80.8322,"temp":34.9,"humidity":25,"rain":0.0,"pressure":966.5,"uv_index":8.75,"wind_gusts":55.1,"aqi":78,"pm10":84.3,"pm2_5":30.9,"no2":10.8,"co":229.0,"o3":78.0,"so2":4.4,"mosquito_risk":0,"arthritis_risk":5,"migraine_risk":7,"frizz_risk":0,"updated_at":"2026-05-18T21:56:36.826564+05:30"},{"city":"Akola","state":"Maharashtra","latitude":20.7002,"longitude":77.0082,"temp":38.6,"humidity":18,"rain":0.0,"pressure":970.3,"uv_index":8.85,"wind_gusts":31.7,"aqi":81,"pm10":38.1,"pm2_5":25.6,"no2":23.5,"co":299.0,"o3":68.0,"so2":6.6,"mosquito_risk":0,"arthritis_risk":5,"migraine_risk":10,"frizz_risk":0,"updated_at":"2026-05-18T21:56:36.826572+05:30"},{"city":"Amravati","state":"Maharashtra","latitude":20.9374,"longitude":77.7796,"temp":37.3,"humidity":21,"rain":0.0,"pressure":963.0,"uv_index":8.9,"wind_gusts":33.5,"aqi":85,"pm10":38.3,"pm2_5":27.4,"no2":31.3,"co":354.0,"o3":59.0,"so2":8.4,"mosquito_risk":0,"arthritis_risk":5,"migraine_risk":10,"frizz_risk":0,"updated_at":"2026-05-18T21:56:36.826579+05:30"},{"city":"Latur","state":"Maharashtra","latitude":18.4088,"longitude":76.5604,"temp":33.7,"humidity":36,"rain":0.0,"pressure":937.5,"uv_index":9.05,"wind_gusts":31.7,"aqi":118,"pm10":34.8,"pm2_5":30.3,"no2":13.2,"co":255.0,"o3":103.0,"so2":7.0,"mosquito_risk":0,"arthritis_risk":5,"migraine_risk":7,"frizz_risk":1,"updated_at":"2026-05-18T21:56:36.826587+05:30"},{"city":"Nanded","state":"Maharashtra","latitude":19.1383,"longitude":77.3091,"temp":36.0,"humidity":27,"rain":0.0,"pressure":964.8,"uv_index":9.0,"wind_gusts":30.6,"aqi":103,"pm10":35.4,"pm2_5":30.5,"no2":21.0,"co":395.0,"o3":88.0,"so2":7.5,"mosquito_risk":0,"arthritis_risk":5,"migraine_risk":10,"frizz_risk":0,"updated_at":"2026-05-18T21:56:36.826594+05:30"},{"city":"Gulbarga","state":"Karnataka","latitude":17.3297,"longitude":76.8343,"temp":31.0,"humidity":56,"rain":0.0,"pressure":955.8,"uv_index":9.05,"wind_gusts":27.4,"aqi":115,"pm10":33.9,"pm2_5":30.0,"no2":20.5,"co":302.0,"o3":90.0,"so2":7.2,"mosquito_risk":0,"arthritis_risk":5,"migraine_risk":7,"frizz_risk":1,"updated_at":"2026-05-18T21:56:36.826601+05:30"},{"city":"Bidar","state":"Karnataka","latitude":17.9104,"longitude":77.5199,"temp":31.8,"humidity":42,"rain":0.0,"pressure":933.4,"uv_index":9.1,"wind_gusts":32.8,"aqi":105,"pm10":39.3,"pm2_5":34.7,"no2":20.0,"co":312.0,"o3":81.0,"so2":5.6,"mosquito_risk":0,"arthritis_risk":5,"migraine_risk":7,"frizz_risk":1,"updated_at":"2026-05-18T21:56:36.826608+05:30"},{"city":"Hospet","state":"Karnataka","latitude":15.2689,"longitude":76.3909,"temp":28.1,"humidity":75,"rain":0.0,"pressure":954.5,"uv_index":8.45,"wind_gusts":39.2,"aqi":123,"pm10":16.5,"pm2_5":14.6,"no2":10.2,"co":258.0,"o3":89.0,"so2":3.6,"mosquito_risk":7,"arthritis_risk":5,"migraine_risk":7,"frizz_risk":1,"updated_at":"2026-05-18T21:56:36.826614+05:30"},{"city":"Tirupur","state":"Tamil Nadu","latitude":11.1085,"longitude":77.3411,"temp":26.1,"humidity":81,"rain":0.0,"pressure":974.9,"uv_index":8.25,"wind_gusts":51.1,"aqi":48,"pm10":9.5,"pm2_5":8.9,"no2":12.5,"co":194.0,"o3":61.0,"so2":4.7,"mosquito_risk":7,"arthritis_risk":5,"migraine_risk":7,"frizz_risk":1,"updated_at":"2026-05-18T21:56:36.826621+05:30"},{"city":"Alappuzha","state":"Kerala","latitude":9.4981,"longitude":76.3388,"temp":25.8,"humidity":98,"rain":0.0,"pressure":1009.8,"uv_index":7.3,"wind_gusts":39.2,"aqi":34,"pm10":10.2,"pm2_5":7.8,"no2":6.4,"co":130.0,"o3":59.0,"so2":1.6,"mosquito_risk":7,"arthritis_risk":0,"migraine_risk":4,"frizz_risk":1,"updated_at":"2026-05-18T21:56:36.826628+05:30"},{"city":"Munnar","state":"Kerala","latitude":10.0889,"longitude":77.0595,"temp":17.8,"humidity":100,"rain":0.1,"pressure":857.2,"uv_index":5.25,"wind_gusts":26.6,"aqi":32,"pm10":5.9,"pm2_5":5.7,"no2":8.9,"co":140.0,"o3":44.0,"so2":1.8,"mosquito_risk":6,"arthritis_risk":10,"migraine_risk":3,"frizz_risk":1,"updated_at":"2026-05-18T21:56:36.826635+05:30"},{"city":"Silchar","state":"Assam","latitude":24.8333,"longitude":92.7789,"temp":23.7,"humidity":96,"rain":0.3,"pressure":1003.5,"uv_index":6.05,"wind_gusts":22.0,"aqi":85,"pm10":53.7,"pm2_5":38.8,"no2":16.6,"co":323.0,"o3":64.0,"so2":8.9,"mosquito_risk":6,"arthritis_risk":5,"migraine_risk":4,"frizz_risk":1,"updated_at":"2026-05-18T21:56:36.826641+05:30"},{"city":"Dibrugarh","state":"Assam","latitude":27.4728,"longitude":94.912,"temp":21.7,"humidity":95,"rain":0.0,"pressure":995.1,"uv_index":7.85,"wind_gusts":26.6,"aqi":85,"pm10":60.5,"pm2_5":51.9,"no2":31.3,"co":334.0,"o3":32.0,"so2":4.7,"mosquito_risk":3,"arthritis_risk":5,"migraine_risk":7,"frizz_risk":1,"updated_at":"2026-05-18T21:56:36.826646+05:30"}]