[{"city":"Delhi","state":"Delhi","latitude":28.6139,"longitude":77.209,"temp":23.1,"humidity":54,"rain":0.0,"pressure":984.2,"uv_index":6.85,"wind_gusts":40.7,"aqi":153,"pm10":328.8,"pm2_5":67.1,"mosquito_risk":0,"arthritis_risk":5,"migraine_risk":7,"frizz_risk":0,"updated_at":"2026-04-05T23:05:08.758709+05:30"},{"city":"Mumbai","state":"Maharashtra","latitude":19.076,"longitude":72.8777,"temp":27.8,"humidity":66,"rain":0.0,"pressure":1010.2,"uv_index":7.9,"wind_gusts":22.7,"aqi":66,"pm10":29.5,"pm2_5":15.9,"mosquito_risk":7,"arthritis_risk":0,"migraine_risk":4,"frizz_risk":1,"updated_at":"2026-04-05T23:05:08.758761+05:30"},{"city":"Bangalore","state":"Karnataka","latitude":12.9716,"longitude":77.5946,"temp":25.6,"humidity":59,"rain":0.0,"pressure":912.4,"uv_index":9.65,"wind_gusts":28.8,"aqi":105,"pm10":55.9,"pm2_5":52.7,"mosquito_risk":4,"arthritis_risk":5,"migraine_risk":7,"frizz_risk":1,"updated_at":"2026-04-05T23:05:08.758777+05:30"},{"city":"Hyderabad","state":"Telangana","latitude":17.385,"longitude":78.4867,"temp":28.5,"humidity":62,"rain":0.0,"pressure":953.5,"uv_index":9.15,"wind_gusts":26.3,"aqi":127,"pm10":71.7,"pm2_5":62.2,"mosquito_risk":7,"arthritis_risk":5,"migraine_risk":7,"frizz_risk":1,"updated_at":"2026-04-05T23:05:08.758788+05:30"},{"city":"Chennai","state":"Tamil Nadu","latitude":13.0827,"longitude":80.2707,"temp":29.1,"humidity":88,"rain":0.0,"pressure":1006.9,"uv_index":9.3,"wind_gusts":37.8,"aqi":73,"pm10":20.8,"pm2_5":15.9,"mosquito_risk":7,"arthritis_risk":5,"migraine_risk":4,"frizz_risk":1,"updated_at":"2026-04-05T23:05:08.758797+05:30"},{"city":"Kolkata","state":"West Bengal","latitude":22.5726,"longitude":88.3639,"temp":25.2,"humidity":85,"rain":0.0,"pressure":1006.3,"uv_index":8.7,"wind_gusts":29.2,"aqi":124,"pm10":97.6,"pm2_5":92.4,"mosquito_risk":7,"arthritis_risk":5,"migraine_risk":4,"frizz_risk":1,"updated_at":"2026-04-05T23:05:08.758807+05:30"},{"city":"Pune","state":"Maharashtra","latitude":18.5204,"longitude":73.8567,"temp":22.9,"humidity":80,"rain":0.0,"pressure":949.5,"uv_index":8.5,"wind_gusts":39.6,"aqi":69,"pm10":34.8,"pm2_5":23.3,"mosquito_risk":3,"arthritis_risk":5,"migraine_risk":7,"frizz_risk":1,"updated_at":"2026-04-05T23:05:08.758819+05:30"},{"city":"Ahmedabad","state":"Gujarat","latitude":23.0225,"longitude":72.5714,"temp":27.6,"humidity":33,"rain":0.0,"pressure":1002.8,"uv_index":7.9,"wind_gusts":24.5,"aqi":59,"pm10":46.3,"pm2_5":32.4,"mosquito_risk":4,"arthritis_risk":5,"migraine_risk":4,"frizz_risk":0,"updated_at":"2026-04-05T23:05:08.758827+05:30"},{"city":"Jaipur","state":"Rajasthan","latitude":26.9124,"longitude":75.7873,"temp":25.1,"humidity":33,"rain":0.0,"pressure":960.5,"uv_index":7.55,"wind_gusts":34.6,"aqi":93,"pm10":184.4,"pm2_5":32.1,"mosquito_risk":4,"arthritis_risk":5,"migraine_risk":7,"frizz_risk":0,"updated_at":"2026-04-05T23:05:08.758835+05:30"},{"city":"Lucknow","state":"Uttar Pradesh","latitude":26.8467,"longitude":80.9462,"temp":22.8,"humidity":67,"rain":0.0,"pressure":995.2,"uv_index":7.45,"wind_gusts":37.4,"aqi":94,"pm10":121.1,"pm2_5":41.7,"mosquito_risk":3,"arthritis_risk":5,"migraine_risk":7,"frizz_risk":1,"updated_at":"2026-04-05T23:05:08.758844+05:30"},{"city":"Kanpur","state":"Uttar Pradesh","latitude":26.4499,"longitude":80.3319,"temp":22.8,"humidity":70,"rain":0.0,"pressure":993.0,"uv_index":7.45,"wind_gusts":40.7,"aqi":117,"pm10":198.4,"pm2_5":47.0,"mosquito_risk":3,"arthritis_risk":5,"migraine_risk":7,"frizz_risk":1,"updated_at":"2026-04-05T23:05:08.758852+05:30"},{"city":"Chandigarh","state":"Chandigarh","latitude":30.7333,"longitude":76.7794,"temp":20.5,"humidity":68,"rain":0.0,"pressure":969.3,"uv_index":6.85,"wind_gusts":34.6,"aqi":80,"pm10":47.8,"pm2_5":37.8,"mosquito_risk":3,"arthritis_risk":5,"migraine_risk":7,"frizz_risk":0,"updated_at":"2026-04-05T23:05:08.758860+05:30"},{"city":"Srinagar","state":"Jammu and Kashmir","latitude":34.0837,"longitude":74.7973,"temp":8.2,"humidity":82,"rain":0.0,"pressure":837.6,"uv_index":7.45,"wind_gusts":18.4,"aqi":65,"pm10":76.4,"pm2_5":65.9,"mosquito_risk":3,"arthritis_risk":10,"migraine_risk":7,"frizz_risk":0,"updated_at":"2026-04-05T23:05:08.758869+05:30"},{"city":"Jammu","state":"Jammu and Kashmir","latitude":32.7266,"longitude":74.857,"temp":18.4,"humidity":71,"rain":0.0,"pressure":973.1,"uv_index":7.5,"wind_gusts":24.5,"aqi":64,"pm10":73.3,"pm2_5":47.4,"mosquito_risk":3,"arthritis_risk":5,"migraine_risk":7,"frizz_risk":0,"updated_at":"2026-04-05T23:05:08.758877+05:30"},{"city":"Amritsar","state":"Punjab","latitude":31.634,"longitude":74.8723,"temp":20.2,"humidity":64,"rain":0.0,"pressure":981.7,"uv_index":7.45,"wind_gusts":29.5,"aqi":96,"pm10":90.8,"pm2_5":68.5,"mosquito_risk":3,"arthritis_risk":5,"migraine_risk":7,"frizz_risk":0,"updated_at":"2026-04-05T23:05:08.758883+05:30"},{"city":"Ludhiana","state":"Punjab","latitude":30.901,"longitude":75.8573,"temp":21.6,"humidity":57,"rain":0.0,"pressure":979.6,"uv_index":7.05,"wind_gusts":29.5,"aqi":100,"pm10":101.3,"pm2_5":67.1,"mosquito_risk":0,"arthritis_risk":5,"migraine_risk":7,"frizz_risk":0,"updated_at":"2026-04-05T23:05:08.758891+05:30"},{"city":"Jalandhar","state":"Punjab","latitude":31.326,"longitude":75.5762,"temp":20.2,"humidity":67,"rain":0.0,"pressure":980.6,"uv_index":7.25,"wind_gusts":25.6,"aqi":86,"pm10":66.1,"pm2_5":44.2,"mosquito_risk":3,"arthritis_risk":5,"migraine_risk":7,"frizz_risk":0,"updated_at":"2026-04-05T23:05:08.758901+05:30"},{"city":"Dehradun","state":"Uttarakhand","latitude":30.6284,"longitude":78.0322,"temp":10.5,"humidity":84,"rain":0.0,"pressure":827.9,"uv_index":6.65,"wind_gusts":39.2,"aqi":65,"pm10":23.2,"pm2_5":13.9,"mosquito_risk":3,"arthritis_risk":10,"migraine_risk":7,"frizz_risk":0,"updated_at":"2026-04-05T23:05:08.758908+05:30"},{"city":"Shimla","state":"Himachal Pradesh","latitude":31.1048,"longitude":77.1734,"temp":9.2,"humidity":76,"rain":0.0,"pressure":781.2,"uv_index":5.35,"wind_gusts":29.5,"aqi":55,"pm10":21.1,"pm2_5":15.6,"mosquito_risk":3,"arthritis_risk":5,"migraine_risk":3,"frizz_risk":0,"updated_at":"2026-04-05T23:05:08.758916+05:30"},{"city":"Manali","state":"Himachal Pradesh","latitude":32.2396,"longitude":77.1887,"temp":11.7,"humidity":74,"rain":0.0,"pressure":815.9,"uv_index":9.45,"wind_gusts":29.2,"aqi":83,"pm10":25.0,"pm2_5":16.8,"mosquito_risk":3,"arthritis_risk":5,"migraine_risk":7,"frizz_risk":0,"updated_at":"2026-04-05T23:05:08.758924+05:30"},{"city":"Gurgaon","state":"Haryana","latitude":28.4595,"longitude":77.0266,"temp":21.5,"humidity":61,"rain":0.0,"pressure":982.4,"uv_index":6.5,"wind_gusts":35.6,"aqi":333,"pm10":448.0,"pm2_5":86.6,"mosquito_risk":3,"arthritis_risk":5,"migraine_risk":7,"frizz_risk":0,"updated_at":"2026-04-05T23:05:08.758931+05:30"},{"city":"Noida","state":"Uttar Pradesh","latitude":28.5355,"longitude":77.391,"temp":22.5,"humidity":57,"rain":0.0,"pressure":985.8,"uv_index":6.95,"wind_gusts":39.2,"aqi":333,"pm10":448.0,"pm2_5":86.6,"mosquito_risk":0,"arthritis_risk":5,"migraine_risk":7,"frizz_risk":0,"updated_at":"2026-04-05T23:05:08.758938+05:30"},{"city":"Ghaziabad","state":"Uttar Pradesh","latitude":28.6692,"longitude":77.4538,"temp":21.5,"humidity":62,"rain":0.0,"pressure":983.9,"uv_index":6.85,"wind_gusts":42.1,"aqi":147,"pm10":134.6,"pm2_5":40.5,"mosquito_risk":3,"arthritis_risk":5,"migraine_risk":7,"frizz_risk":0,"updated_at":"2026-04-05T23:05:08.758945+05:30"},{"city":"Faridabad","state":"Haryana","latitude":28.4089,"longitude":77.3178,"temp":22.1,"humidity":59,"rain":0.0,"pressure":985.1,"uv_index":6.1,"wind_gusts":36.4,"aqi":333,"pm10":448.0,"pm2_5":86.6,"mosquito_risk":0,"arthritis_risk":5,"migraine_risk":7,"frizz_risk":0,"updated_at":"2026-04-05T23:05:08.758952+05:30"},{"city":"Meerut","state":"Uttar Pradesh","latitude":28.9845,"longitude":77.7064,"temp":20.4,"humidity":69,"rain":0.0,"pressure":982.9,"uv_index":6.2,"wind_gusts":34.6,"aqi":147,"pm10":134.6,"pm2_5":40.5,"mosquito_risk":3,"arthritis_risk":5,"migraine_risk":7,"frizz_risk":0,"updated_at":"2026-04-05T23:05:08.758958+05:30"},{"city":"Agra","state":"Uttar Pradesh","latitude":27.1767,"longitude":78.0081,"temp":21.3,"humidity":77,"rain":0.0,"pressure":988.8,"uv_index":7.3,"wind_gusts":34.2,"aqi":294,"pm10":271.0,"pm2_5":69.8,"mosquito_risk":3,"arthritis_risk":5,"migraine_risk":7,"frizz_risk":1,"updated_at":"2026-04-05T23:05:08.758967+05:30"},{"city":"Varanasi","state":"Uttar Pradesh","latitude":25.3176,"longitude":82.9739,"temp":25.0,"humidity":65,"rain":0.0,"pressure":998.2,"uv_index":8.1,"wind_gusts":32.4,"aqi":92,"pm10":57.3,"pm2_5":41.3,"mosquito_risk":7,"arthritis_risk":5,"migraine_risk":7,"frizz_risk":1,"updated_at":"2026-04-05T23:05:08.758977+05:30"},{"city":"Prayagraj","state":"Uttar Pradesh","latitude":25.4358,"longitude":81.8463,"temp":24.8,"humidity":70,"rain":0.0,"pressure":997.1,"uv_index":7.95,"wind_gusts":30.2,"aqi":88,"pm10":48.5,"pm2_5":24.0,"mosquito_risk":3,"arthritis_risk":5,"migraine_risk":7,"frizz_risk":1,"updated_at":"2026-04-05T23:05:08.758984+05:30"},{"city":"Gorakhpur","state":"Uttar Pradesh","latitude":26.7606,"longitude":83.3732,"temp":25.0,"humidity":52,"rain":0.0,"pressure":997.1,"uv_index":7.85,"wind_gusts":45.4,"aqi":82,"pm10":37.6,"pm2_5":25.0,"mosquito_risk":4,"arthritis_risk":5,"migraine_risk":7,"frizz_risk":0,"updated_at":"2026-04-05T23:05:08.758991+05:30"},{"city":"Bareilly","state":"Uttar Pradesh","latitude":28.367,"longitude":79.4304,"temp":20.5,"humidity":78,"rain":0.0,"pressure":989.2,"uv_index":7.2,"wind_gusts":41.0,"aqi":90,"pm10":53.2,"pm2_5":37.3,"mosquito_risk":3,"arthritis_risk":5,"migraine_risk":7,"frizz_risk":1,"updated_at":"2026-04-05T23:05:08.758997+05:30"},{"city":"Aligarh","state":"Uttar Pradesh","latitude":27.8974,"longitude":78.088,"temp":19.7,"humidity":78,"rain":0.0,"pressure":986.8,"uv_index":7.1,"wind_gusts":31.0,"aqi":152,"pm10":283.1,"pm2_5":93.1,"mosquito_risk":3,"arthritis_risk":5,"migraine_risk":7,"frizz_risk":0,"updated_at":"2026-04-05T23:05:08.759007+05:30"},{"city":"Moradabad","state":"Uttar Pradesh","latitude":28.8386,"longitude":78.7733,"temp":20.1,"humidity":78,"rain":0.0,"pressure":985.0,"uv_index":7.0,"wind_gusts":29.2,"aqi":96,"pm10":47.4,"pm2_5":28.5,"mosquito_risk":3,"arthritis_risk":5,"migraine_risk":7,"frizz_risk":1,"updated_at":"2026-04-05T23:05:08.759013+05:30"},{"city":"Saharanpur","state":"Uttar Pradesh","latitude":29.9637,"longitude":77.546,"temp":20.6,"humidity":62,"rain":0.0,"pressure":976.7,"uv_index":6.6,"wind_gusts":33.8,"aqi":88,"pm10":154.1,"pm2_5":64.5,"mosquito_risk":3,"arthritis_risk":5,"migraine_risk":7,"frizz_risk":0,"updated_at":"2026-04-05T23:05:08.759020+05:30"},{"city":"Jhansi","state":"Uttar Pradesh","latitude":25.4484,"longitude":78.5685,"temp":24.0,"humidity":64,"rain":0.0,"pressure":978.9,"uv_index":7.85,"wind_gusts":31.0,"aqi":68,"pm10":27.5,"pm2_5":14.7,"mosquito_risk":3,"arthritis_risk":5,"migraine_risk":7,"frizz_risk":1,"updated_at":"2026-04-05T23:05:12.010752+05:30"},{"city":"Surat","state":"Gujarat","latitude":21.1702,"longitude":72.8311,"temp":27.1,"humidity":66,"rain":0.0,"pressure":1007.7,"uv_index":7.7,"wind_gusts":27.7,"aqi":81,"pm10":28.7,"pm2_5":20.7,"mosquito_risk":7,"arthritis_risk":5,"migraine_risk":4,"frizz_risk":1,"updated_at":"2026-04-05T23:05:12.010785+05:30"},{"city":"Vadodara","state":"Gujarat","latitude":22.3072,"longitude":73.1812,"temp":26.4,"humidity":67,"rain":0.0,"pressure":1005.1,"uv_index":7.9,"wind_gusts":19.8,"aqi":105,"pm10":59.0,"pm2_5":47.6,"mosquito_risk":7,"arthritis_risk":5,"migraine_risk":4,"frizz_risk":1,"updated_at":"2026-04-05T23:05:12.010799+05:30"},{"city":"Rajkot","state":"Gujarat","latitude":22.3039,"longitude":70.8022,"temp":24.7,"humidity":70,"rain":0.0,"pressure":995.9,"uv_index":7.65,"wind_gusts":32.4,"aqi":96,"pm10":27.2,"pm2_5":11.3,"mosquito_risk":3,"arthritis_risk":5,"migraine_risk":7,"frizz_risk":1,"updated_at":"2026-04-05T23:05:12.010808+05:30"},{"city":"Thane","state":"Maharashtra","latitude":19.2183,"longitude":72.9781,"temp":26.3,"humidity":68,"rain":0.0,"pressure":1009.6,"uv_index":7.9,"wind_gusts":34.9,"aqi":66,"pm10":29.5,"pm2_5":15.9,"mosquito_risk":7,"arthritis_risk":0,"migraine_risk":4,"frizz_risk":1,"updated_at":"2026-04-05T23:05:12.010817+05:30"},{"city":"Nagpur","state":"Maharashtra","latitude":21.1458,"longitude":79.0882,"temp":27.3,"humidity":54,"rain":0.0,"pressure":972.3,"uv_index":8.7,"wind_gusts":29.5,"aqi":81,"pm10":32.1,"pm2_5":23.1,"mosquito_risk":4,"arthritis_risk":5,"migraine_risk":7,"frizz_risk":1,"updated_at":"2026-04-05T23:05:12.010827+05:30"},{"city":"Nashik","state":"Maharashtra","latitude":19.9975,"longitude":73.7898,"temp":21.2,"humidity":77,"rain":0.0,"pressure":946.3,"uv_index":8.05,"wind_gusts":36.0,"aqi":57,"pm10":22.7,"pm2_5":13.7,"mosquito_risk":3,"arthritis_risk":5,"migraine_risk":7,"frizz_risk":1,"updated_at":"2026-04-05T23:05:12.010836+05:30"},{"city":"Aurangabad","state":"Maharashtra","latitude":19.8762,"longitude":75.3433,"temp":26.1,"humidity":50,"rain":0.0,"pressure":944.6,"uv_index":8.85,"wind_gusts":37.1,"aqi":58,"pm10":18.5,"pm2_5":12.3,"mosquito_risk":4,"arthritis_risk":5,"migraine_risk":7,"frizz_risk":0,"updated_at":"2026-04-05T23:05:12.010845+05:30"},{"city":"Solapur","state":"Maharashtra","latitude":17.6599,"longitude":75.9064,"temp":28.8,"humidity":37,"rain":0.0,"pressure":957.7,"uv_index":8.6,"wind_gusts":29.9,"aqi":66,"pm10":18.2,"pm2_5":14.2,"mosquito_risk":4,"arthritis_risk":5,"migraine_risk":7,"frizz_risk":0,"updated_at":"2026-04-05T23:05:12.010854+05:30"},{"city":"Kolhapur","state":"Maharashtra","latitude":16.705,"longitude":74.2433,"temp":19.9,"humidity":83,"rain":0.0,"pressure":949.1,"uv_index":9.05,"wind_gusts":45.0,"aqi":67,"pm10":43.0,"pm2_5":30.5,"mosquito_risk":3,"arthritis_risk":10,"migraine_risk":7,"frizz_risk":1,"updated_at":"2026-04-05T23:05:12.010863+05:30"},{"city":"Goa","state":"Goa","latitude":15.2993,"longitude":74.124,"temp":27.5,"humidity":71,"rain":0.0,"pressure":1000.0,"uv_index":9.05,"wind_gusts":38.5,"aqi":66,"pm10":57.7,"pm2_5":25.7,"mosquito_risk":7,"arthritis_risk":5,"migraine_risk":4,"frizz_risk":1,"updated_at":"2026-04-05T23:05:12.010872+05:30"},{"city":"Jodhpur","state":"Rajasthan","latitude":26.2389,"longitude":73.0243,"temp":26.3,"humidity":35,"rain":0.0,"pressure":984.0,"uv_index":7.65,"wind_gusts":26.3,"aqi":78,"pm10":41.4,"pm2_5":12.3,"mosquito_risk":4,"arthritis_risk":5,"migraine_risk":7,"frizz_risk":0,"updated_at":"2026-04-05T23:05:12.010880+05:30"},{"city":"Udaipur","state":"Rajasthan","latitude":24.5854,"longitude":73.7125,"temp":21.8,"humidity":44,"rain":0.0,"pressure":947.2,"uv_index":8.3,"wind_gusts":34.2,"aqi":88,"pm10":22.4,"pm2_5":10.0,"mosquito_risk":0,"arthritis_risk":5,"migraine_risk":7,"frizz_risk":0,"updated_at":"2026-04-05T23:05:12.010889+05:30"},{"city":"Kota","state":"Rajasthan","latitude":25.2138,"longitude":75.8648,"temp":25.2,"humidity":34,"rain":0.0,"pressure":979.4,"uv_index":7.85,"wind_gusts":31.7,"aqi":68,"pm10":104.8,"pm2_5":32.2,"mosquito_risk":4,"arthritis_risk":5,"migraine_risk":7,"frizz_risk":0,"updated_at":"2026-04-05T23:05:12.010897+05:30"},{"city":"Bikaner","state":"Rajasthan","latitude":28.0229,"longitude":73.3119,"temp":25.1,"humidity":41,"rain":0.0,"pressure":983.1,"uv_index":7.6,"wind_gusts":26.6,"aqi":67,"pm10":17.2,"pm2_5":12.0,"mosquito_risk":4,"arthritis_risk":5,"migraine_risk":7,"frizz_risk":0,"updated_at":"2026-04-05T23:05:12.010905+05:30"},{"city":"Ajmer","state":"Rajasthan","latitude":26.4499,"longitude":74.6399,"temp":22.6,"humidity":45,"rain":0.0,"pressure":955.2,"uv_index":7.75,"wind_gusts":31.0,"aqi":75,"pm10":19.7,"pm2_5":10.6,"mosquito_risk":0,"arthritis_risk":5,"migraine_risk":7,"frizz_risk":0,"updated_at":"2026-04-05T23:05:12.010913+05:30"},{"city":"Gwalior","state":"Madhya Pradesh","latitude":26.2183,"longitude":78.1828,"temp":23.4,"humidity":72,"rain":0.0,"pressure":984.1,"uv_index":7.6,"wind_gusts":50.8,"aqi":67,"pm10":125.3,"pm2_5":37.5,"mosquito_risk":3,"arthritis_risk":5,"migraine_risk":7,"frizz_risk":1,"updated_at":"2026-04-05T23:05:12.010921+05:30"},{"city":"Indore","state":"Madhya Pradesh","latitude":22.7196,"longitude":75.8577,"temp":23.3,"humidity":47,"rain":0.0,"pressure":948.3,"uv_index":8.35,"wind_gusts":31.0,"aqi":76,"pm10":30.9,"pm2_5":26.0,"mosquito_risk":0,"arthritis_risk":5,"migraine_risk":7,"frizz_risk":0,"updated_at":"2026-04-05T23:05:12.010929+05:30"},{"city":"Bhopal","state":"Madhya Pradesh","latitude":23.2599,"longitude":77.4126,"temp":24.3,"humidity":42,"rain":0.0,"pressure":953.8,"uv_index":8.3,"wind_gusts":33.8,"aqi":78,"pm10":12.5,"pm2_5":9.6,"mosquito_risk":0,"arthritis_risk":5,"migraine_risk":7,"frizz_risk":0,"updated_at":"2026-04-05T23:05:12.010936+05:30"},{"city":"Jabalpur","state":"Madhya Pradesh","latitude":23.1815,"longitude":79.9864,"temp":28.1,"humidity":40,"rain":0.0,"pressure":961.1,"uv_index":8.45,"wind_gusts":31.0,"aqi":73,"pm10":26.3,"pm2_5":19.3,"mosquito_risk":4,"arthritis_risk":5,"migraine_risk":7,"frizz_risk":0,"updated_at":"2026-04-05T23:05:12.010945+05:30"},{"city":"Ujjain","state":"Madhya Pradesh","latitude":23.1765,"longitude":75.7885,"temp":23.8,"humidity":47,"rain":0.0,"pressure":954.2,"uv_index":8.25,"wind_gusts":32.8,"aqi":69,"pm10":23.7,"pm2_5":16.4,"mosquito_risk":0,"arthritis_risk":5,"migraine_risk":7,"frizz_risk":0,"updated_at":"2026-04-05T23:05:12.010954+05:30"},{"city":"Visakhapatnam","state":"Andhra Pradesh","latitude":17.6868,"longitude":83.2185,"temp":27.7,"humidity":90,"rain":0.0,"pressure":1003.5,"uv_index":9.1,"wind_gusts":36.0,"aqi":82,"pm10":44.0,"pm2_5":38.3,"mosquito_risk":7,"arthritis_risk":5,"migraine_risk":4,"frizz_risk":1,"updated_at":"2026-04-05T23:05:12.010962+05:30"},{"city":"Vijayawada","state":"Andhra Pradesh","latitude":16.5062,"longitude":80.648,"temp":28.8,"humidity":79,"rain":0.0,"pressure":1002.2,"uv_index":8.75,"wind_gusts":24.1,"aqi":78,"pm10":28.9,"pm2_5":27.0,"mosquito_risk":7,"arthritis_risk":5,"migraine_risk":4,"frizz_risk":1,"updated_at":"2026-04-05T23:05:12.010971+05:30"},{"city":"Guntur","state":"Andhra Pradesh","latitude":16.3067,"longitude":80.4365,"temp":28.1,"humidity":88,"rain":0.0,"pressure":1003.4,"uv_index":8.9,"wind_gusts":31.7,"aqi":78,"pm10":34.3,"pm2_5":32.0,"mosquito_risk":7,"arthritis_risk":5,"migraine_risk":4,"frizz_risk":1,"updated_at":"2026-04-05T23:05:12.010979+05:30"},{"city":"Nellore","state":"Andhra Pradesh","latitude":14.4426,"longitude":79.9865,"temp":28.6,"humidity":89,"rain":0.0,"pressure":1005.4,"uv_index":9.3,"wind_gusts":32.0,"aqi":101,"pm10":24.0,"pm2_5":20.5,"mosquito_risk":7,"arthritis_risk":5,"migraine_risk":4,"frizz_risk":1,"updated_at":"2026-04-05T23:05:12.010989+05:30"},{"city":"Kurnool","state":"Andhra Pradesh","latitude":15.8281,"longitude":78.0373,"temp":32.9,"humidity":37,"rain":0.0,"pressure":976.1,"uv_index":9.2,"wind_gusts":33.8,"aqi":142,"pm10":53.2,"pm2_5":47.1,"mosquito_risk":0,"arthritis_risk":5,"migraine_risk":7,"frizz_risk":1,"updated_at":"2026-04-05T23:05:12.010998+05:30"},{"city":"Kakinada","state":"Andhra Pradesh","latitude":16.9891,"longitude":82.2475,"temp":27.5,"humidity":91,"rain":0.0,"pressure":1007.0,"uv_index":9.15,"wind_gusts":29.5,"aqi":61,"pm10":23.8,"pm2_5":18.0,"mosquito_risk":7,"arthritis_risk":5,"migraine_risk":4,"frizz_risk":1,"updated_at":"2026-04-05T23:05:12.011006+05:30"},{"city":"Tirupati","state":"Andhra Pradesh","latitude":13.6288,"longitude":79.4192,"temp":28.7,"humidity":83,"rain":0.0,"pressure":991.8,"uv_index":8.6,"wind_gusts":36.0,"aqi":101,"pm10":39.5,"pm2_5":36.9,"mosquito_risk":7,"arthritis_risk":5,"migraine_risk":7,"frizz_risk":1,"updated_at":"2026-04-05T23:05:12.011014+05:30"},{"city":"Warangal","state":"Telangana","latitude":17.9689,"longitude":79.5941,"temp":27.6,"humidity":76,"rain":0.0,"pressure":978.3,"uv_index":8.8,"wind_gusts":37.4,"aqi":151,"pm10":104.3,"pm2_5":94.1,"mosquito_risk":7,"arthritis_risk":5,"migraine_risk":7,"frizz_risk":1,"updated_at":"2026-04-05T23:05:12.011022+05:30"},{"city":"Nizamabad","state":"Telangana","latitude":18.6725,"longitude":78.0941,"temp":30.7,"humidity":48,"rain":0.0,"pressure":964.4,"uv_index":8.9,"wind_gusts":55.1,"aqi":103,"pm10":62.6,"pm2_5":47.7,"mosquito_risk":0,"arthritis_risk":5,"migraine_risk":7,"frizz_risk":1,"updated_at":"2026-04-05T23:05:12.011031+05:30"},{"city":"Mysore","state":"Karnataka","latitude":12.2958,"longitude":76.6396,"temp":24.2,"humidity":80,"rain":0.0,"pressure":929.5,"uv_index":8.65,"wind_gusts":36.4,"aqi":75,"pm10":28.1,"pm2_5":25.5,"mosquito_risk":3,"arthritis_risk":5,"migraine_risk":7,"frizz_risk":1,"updated_at":"2026-04-05T23:05:12.011039+05:30"},{"city":"Mangalore","state":"Karnataka","latitude":12.9141,"longitude":74.856,"temp":29.6,"humidity":76,"rain":0.0,"pressure":1008.6,"uv_index":9.2,"wind_gusts":34.9,"aqi":65,"pm10":35.9,"pm2_5":17.4,"mosquito_risk":7,"arthritis_risk":0,"migraine_risk":4,"frizz_risk":1,"updated_at":"2026-04-05T23:05:12.011048+05:30"},{"city":"Hubli-Dharwad","state":"Karnataka","latitude":15.3647,"longitude":75.124,"temp":23.7,"humidity":73,"rain":0.0,"pressure":942.0,"uv_index":9.25,"wind_gusts":36.4,"aqi":59,"pm10":27.6,"pm2_5":16.4,"mosquito_risk":3,"arthritis_risk":5,"migraine_risk":7,"frizz_risk":1,"updated_at":"2026-04-05T23:05:12.011055+05:30"},{"city":"Belgaum","state":"Karnataka","latitude":15.8497,"longitude":74.4977,"temp":20.9,"humidity":75,"rain":0.0,"pressure":926.8,"uv_index":9.3,"wind_gusts":38.5,"aqi":59,"pm10":41.8,"pm2_5":25.8,"mosquito_risk":3,"arthritis_risk":5,"migraine_risk":7,"frizz_risk":1,"updated_at":"2026-04-05T23:05:15.263187+05:30"},{"city":"Coimbatore","state":"Tamil Nadu","latitude":11.0168,"longitude":76.9558,"temp":26.1,"humidity":81,"rain":0.0,"pressure":962.9,"uv_index":9.5,"wind_gusts":46.8,"aqi":70,"pm10":33.4,"pm2_5":31.0,"mosquito_risk":7,"arthritis_risk":5,"migraine_risk":7,"frizz_risk":1,"updated_at":"2026-04-05T23:05:15.263219+05:30"},{"city":"Madurai","state":"Tamil Nadu","latitude":9.9252,"longitude":78.1198,"temp":27.8,"humidity":76,"rain":0.0,"pressure":993.7,"uv_index":5.45,"wind_gusts":23.8,"aqi":105,"pm10":34.3,"pm2_5":32.8,"mosquito_risk":7,"arthritis_risk":5,"migraine_risk":3,"frizz_risk":1,"updated_at":"2026-04-05T23:05:15.263228+05:30"},{"city":"Trichy","state":"Tamil Nadu","latitude":10.7905,"longitude":78.7047,"temp":27.5,"humidity":89,"rain":0.0,"pressure":1000.6,"uv_index":9.25,"wind_gusts":36.7,"aqi":110,"pm10":50.9,"pm2_5":48.2,"mosquito_risk":7,"arthritis_risk":5,"migraine_risk":4,"frizz_risk":1,"updated_at":"2026-04-05T23:05:15.263237+05:30"},{"city":"Salem","state":"Tamil Nadu","latitude":11.6643,"longitude":78.146,"temp":28.5,"humidity":65,"rain":0.0,"pressure":978.2,"uv_index":8.7,"wind_gusts":37.1,"aqi":100,"pm10":41.0,"pm2_5":38.1,"mosquito_risk":7,"arthritis_risk":5,"migraine_risk":7,"frizz_risk":1,"updated_at":"2026-04-05T23:05:15.263245+05:30"},{"city":"Tirunelveli","state":"Tamil Nadu","latitude":8.7139,"longitude":77.7567,"temp":29.0,"humidity":68,"rain":0.0,"pressure":1003.9,"uv_index":9.4,"wind_gusts":27.4,"aqi":65,"pm10":23.1,"pm2_5":21.7,"mosquito_risk":7,"arthritis_risk":5,"migraine_risk":4,"frizz_risk":1,"updated_at":"2026-04-05T23:05:15.263253+05:30"},{"city":"Vellore","state":"Tamil Nadu","latitude":12.9165,"longitude":79.1325,"temp":27.5,"humidity":70,"rain":0.0,"pressure":984.8,"uv_index":9.45,"wind_gusts":32.8,"aqi":122,"pm10":59.5,"pm2_5":55.3,"mosquito_risk":7,"arthritis_risk":5,"migraine_risk":7,"frizz_risk":1,"updated_at":"2026-04-05T23:05:15.263260+05:30"},{"city":"Erode","state":"Tamil Nadu","latitude":11.341,"longitude":77.7172,"temp":28.0,"humidity":76,"rain":0.0,"pressure":989.5,"uv_index":9.45,"wind_gusts":32.0,"aqi":84,"pm10":29.2,"pm2_5":27.7,"mosquito_risk":7,"arthritis_risk":5,"migraine_risk":7,"frizz_risk":1,"updated_at":"2026-04-05T23:05:15.263267+05:30"},{"city":"Kochi","state":"Kerala","latitude":9.9312,"longitude":76.2673,"temp":29.7,"humidity":80,"rain":0.0,"pressure":1010.1,"uv_index":8.2,"wind_gusts":31.7,"aqi":65,"pm10":36.7,"pm2_5":32.1,"mosquito_risk":7,"arthritis_risk":0,"migraine_risk":4,"frizz_risk":1,"updated_at":"2026-04-05T23:05:15.263274+05:30"},{"city":"Thiruvananthapuram","state":"Kerala","latitude":8.5241,"longitude":76.9366,"temp":29.5,"humidity":80,"rain":0.0,"pressure":1009.4,"uv_index":9.2,"wind_gusts":38.5,"aqi":52,"pm10":18.9,"pm2_5":13.0,"mosquito_risk":7,"arthritis_risk":0,"migraine_risk":4,"frizz_risk":1,"updated_at":"2026-04-05T23:05:15.263281+05:30"},{"city":"Kozhikode","state":"Kerala","latitude":11.2588,"longitude":75.7804,"temp":29.9,"humidity":76,"rain":0.0,"pressure":1009.2,"uv_index":9.15,"wind_gusts":33.8,"aqi":58,"pm10":25.8,"pm2_5":16.8,"mosquito_risk":7,"arthritis_risk":0,"migraine_risk":4,"frizz_risk":1,"updated_at":"2026-04-05T23:05:15.263288+05:30"},{"city":"Thrissur","state":"Kerala","latitude":10.5276,"longitude":76.2144,"temp":28.8,"humidity":81,"rain":0.0,"pressure":1008.3,"uv_index":8.4,"wind_gusts":36.7,"aqi":62,"pm10":37.8,"pm2_5":30.3,"mosquito_risk":7,"arthritis_risk":0,"migraine_risk":4,"frizz_risk":1,"updated_at":"2026-04-05T23:05:15.263296+05:30"},{"city":"Kannur","state":"Kerala","latitude":11.8745,"longitude":75.3704,"temp":28.9,"humidity":79,"rain":0.0,"pressure":1008.8,"uv_index":9.2,"wind_gusts":38.5,"aqi":67,"pm10":21.8,"pm2_5":13.9,"mosquito_risk":7,"arthritis_risk":0,"migraine_risk":4,"frizz_risk":1,"updated_at":"2026-04-05T23:05:15.263303+05:30"},{"city":"Patna","state":"Bihar","latitude":25.5941,"longitude":85.1376,"temp":27.7,"humidity":53,"rain":0.0,"pressure":999.5,"uv_index":8.25,"wind_gusts":45.0,"aqi":71,"pm10":41.3,"pm2_5":32.1,"mosquito_risk":4,"arthritis_risk":5,"migraine_risk":7,"frizz_risk":1,"updated_at":"2026-04-05T23:05:15.263310+05:30"},{"city":"Gaya","state":"Bihar","latitude":24.7914,"longitude":85.0002,"temp":26.8,"humidity":60,"rain":0.0,"pressure":993.5,"uv_index":8.35,"wind_gusts":41.4,"aqi":73,"pm10":45.1,"pm2_5":29.6,"mosquito_risk":4,"arthritis_risk":5,"migraine_risk":7,"frizz_risk":1,"updated_at":"2026-04-05T23:05:15.263316+05:30"},{"city":"Muzaffarpur","state":"Bihar","latitude":26.1209,"longitude":85.3647,"temp":25.5,"humidity":49,"rain":0.0,"pressure":999.4,"uv_index":8.2,"wind_gusts":33.5,"aqi":70,"pm10":34.9,"pm2_5":25.6,"mosquito_risk":4,"arthritis_risk":5,"migraine_risk":7,"frizz_risk":0,"updated_at":"2026-04-05T23:05:15.263323+05:30"},{"city":"Bhagalpur","state":"Bihar","latitude":25.2425,"longitude":87.0117,"temp":27.3,"humidity":60,"rain":0.0,"pressure":1000.0,"uv_index":8.35,"wind_gusts":30.2,"aqi":69,"pm10":23.3,"pm2_5":18.3,"mosquito_risk":4,"arthritis_risk":5,"migraine_risk":4,"frizz_risk":1,"updated_at":"2026-04-05T23:05:15.263330+05:30"},{"city":"Ranchi","state":"Jharkhand","latitude":23.3441,"longitude":85.3096,"temp":23.2,"humidity":75,"rain":0.0,"pressure":938.1,"uv_index":8.95,"wind_gusts":45.7,"aqi":69,"pm10":41.0,"pm2_5":30.5,"mosquito_risk":3,"arthritis_risk":5,"migraine_risk":7,"frizz_risk":1,"updated_at":"2026-04-05T23:05:15.263337+05:30"},{"city":"Jamshedpur","state":"Jharkhand","latitude":22.8046,"longitude":86.2029,"temp":26.5,"humidity":77,"rain":0.0,"pressure":991.0,"uv_index":8.4,"wind_gusts":18.0,"aqi":104,"pm10":53.7,"pm2_5":45.1,"mosquito_risk":7,"arthritis_risk":5,"migraine_risk":7,"frizz_risk":1,"updated_at":"2026-04-05T23:05:15.263343+05:30"},{"city":"Dhanbad","state":"Jharkhand","latitude":23.7957,"longitude":86.4304,"temp":27.3,"humidity":62,"rain":0.0,"pressure":979.6,"uv_index":8.7,"wind_gusts":37.4,"aqi":93,"pm10":51.3,"pm2_5":40.5,"mosquito_risk":7,"arthritis_risk":5,"migraine_risk":7,"frizz_risk":1,"updated_at":"2026-04-05T23:05:15.263350+05:30"},{"city":"Bokaro","state":"Jharkhand","latitude":23.6693,"longitude":86.1511,"temp":26.2,"humidity":66,"rain":0.0,"pressure":983.8,"uv_index":8.7,"wind_gusts":38.2,"aqi":93,"pm10":53.2,"pm2_5":40.4,"mosquito_risk":7,"arthritis_risk":5,"migraine_risk":7,"frizz_risk":1,"updated_at":"2026-04-05T23:05:15.263356+05:30"},{"city":"Bhubaneswar","state":"Odisha","latitude":20.2961,"longitude":85.8245,"temp":26.3,"humidity":92,"rain":0.0,"pressure":1003.7,"uv_index":8.65,"wind_gusts":26.3,"aqi":99,"pm10":26.0,"pm2_5":22.5,"mosquito_risk":7,"arthritis_risk":5,"migraine_risk":4,"frizz_risk":1,"updated_at":"2026-04-05T23:05:15.263363+05:30"},{"city":"Cuttack","state":"Odisha","latitude":20.4625,"longitude":85.8828,"temp":25.9,"humidity":93,"rain":0.0,"pressure":1005.6,"uv_index":8.7,"wind_gusts":25.2,"aqi":99,"pm10":26.0,"pm2_5":22.5,"mosquito_risk":7,"arthritis_risk":5,"migraine_risk":4,"frizz_risk":1,"updated_at":"2026-04-05T23:05:15.263370+05:30"},{"city":"Rourkela","state":"Odisha","latitude":22.2604,"longitude":84.8536,"temp":26.8,"humidity":78,"rain":0.0,"pressure":985.6,"uv_index":8.7,"wind_gusts":29.9,"aqi":109,"pm10":56.2,"pm2_5":47.6,"mosquito_risk":7,"arthritis_risk":5,"migraine_risk":7,"frizz_risk":1,"updated_at":"2026-04-05T23:05:15.263376+05:30"},{"city":"Raipur","state":"Chhattisgarh","latitude":21.2514,"longitude":81.6296,"temp":27.6,"humidity":61,"rain":0.0,"pressure":974.8,"uv_index":8.75,"wind_gusts":30.2,"aqi":149,"pm10":77.1,"pm2_5":69.2,"mosquito_risk":7,"arthritis_risk":5,"migraine_risk":7,"frizz_risk":1,"updated_at":"2026-04-05T23:05:15.263381+05:30"},{"city":"Bhilai","state":"Chhattisgarh","latitude":21.1938,"longitude":81.3509,"temp":27.6,"humidity":61,"rain":0.0,"pressure":974.9,"uv_index":8.7,"wind_gusts":32.0,"aqi":136,"pm10":53.7,"pm2_5":46.0,"mosquito_risk":7,"arthritis_risk":5,"migraine_risk":7,"frizz_risk":1,"updated_at":"2026-04-05T23:05:15.263387+05:30"},{"city":"Guwahati","state":"Assam","latitude":26.1158,"longitude":91.7086,"temp":25.3,"humidity":68,"rain":0.0,"pressure":999.2,"uv_index":7.45,"wind_gusts":44.6,"aqi":114,"pm10":26.4,"pm2_5":20.2,"mosquito_risk":7,"arthritis_risk":5,"migraine_risk":7,"frizz_risk":1,"updated_at":"2026-04-05T23:05:15.263394+05:30"},{"city":"Agartala","state":"Tripura","latitude":23.8315,"longitude":91.2868,"temp":24.8,"humidity":95,"rain":0.0,"pressure":1005.7,"uv_index":8.4,"wind_gusts":31.7,"aqi":103,"pm10":56.7,"pm2_5":52.9,"mosquito_risk":3,"arthritis_risk":5,"migraine_risk":4,"frizz_risk":1,"updated_at":"2026-04-05T23:05:15.263401+05:30"},{"city":"Shillong","state":"Meghalaya","latitude":25.5788,"longitude":91.8933,"temp":13.7,"humidity":77,"rain":0.0,"pressure":854.7,"uv_index":8.1,"wind_gusts":67.0,"aqi":98,"pm10":35.2,"pm2_5":29.3,"mosquito_risk":3,"arthritis_risk":5,"migraine_risk":7,"frizz_risk":0,"updated_at":"2026-04-05T23:05:15.263408+05:30"},{"city":"Imphal","state":"Manipur","latitude":24.817,"longitude":93.9368,"temp":18.6,"humidity":80,"rain":0.0,"pressure":922.3,"uv_index":8.85,"wind_gusts":83.9,"aqi":146,"pm10":67.5,"pm2_5":61.7,"mosquito_risk":3,"arthritis_risk":5,"migraine_risk":7,"frizz_risk":0,"updated_at":"2026-04-05T23:05:15.263414+05:30"},{"city":"Aizawl","state":"Mizoram","latitude":23.7271,"longitude":92.7176,"temp":18.0,"humidity":87,"rain":0.0,"pressure":891.4,"uv_index":8.5,"wind_gusts":51.8,"aqi":143,"pm10":55.1,"pm2_5":49.1,"mosquito_risk":3,"arthritis_risk":10,"migraine_risk":7,"frizz_risk":0,"updated_at":"2026-04-05T23:05:15.263421+05:30"},{"city":"Kohima","state":"Nagaland","latitude":25.6701,"longitude":94.1077,"temp":17.5,"humidity":60,"rain":0.0,"pressure":853.8,"uv_index":8.2,"wind_gusts":95.0,"aqi":109,"pm10":46.7,"pm2_5":39.6,"mosquito_risk":0,"arthritis_risk":5,"migraine_risk":7,"frizz_risk":0,"updated_at":"2026-04-05T23:05:15.263428+05:30"},{"city":"Gangtok","state":"Sikkim","latitude":27.3314,"longitude":88.6138,"temp":13.6,"humidity":87,"rain":0.0,"pressure":836.5,"uv_index":8.25,"wind_gusts":24.5,"aqi":89,"pm10":32.1,"pm2_5":25.6,"mosquito_risk":3,"arthritis_risk":10,"migraine_risk":7,"frizz_risk":0,"updated_at":"2026-04-05T23:05:15.263435+05:30"},{"city":"Siliguri","state":"West Bengal","latitude":26.7271,"longitude":88.3953,"temp":21.9,"humidity":53,"rain":0.0,"pressure":992.6,"uv_index":8.2,"wind_gusts":36.4,"aqi":151,"pm10":53.8,"pm2_5":46.3,"mosquito_risk":0,"arthritis_risk":5,"migraine_risk":7,"frizz_risk":0,"updated_at":"2026-04-05T23:05:18.522484+05:30"},{"city":"Durgapur","state":"West Bengal","latitude":23.5204,"longitude":87.3119,"temp":26.1,"humidity":75,"rain":0.0,"pressure":995.0,"uv_index":7.7,"wind_gusts":38.2,"aqi":106,"pm10":55.8,"pm2_5":50.1,"mosquito_risk":7,"arthritis_risk":5,"migraine_risk":7,"frizz_risk":1,"updated_at":"2026-04-05T23:05:18.522515+05:30"},{"city":"Asansol","state":"West Bengal","latitude":23.6739,"longitude":86.9524,"temp":26.3,"humidity":73,"rain":0.0,"pressure":993.4,"uv_index":8.05,"wind_gusts":36.0,"aqi":87,"pm10":46.9,"pm2_5":38.3,"mosquito_risk":7,"arthritis_risk":5,"migraine_risk":7,"frizz_risk":1,"updated_at":"2026-04-05T23:05:18.522526+05:30"},{"city":"Pondicherry","state":"Puducherry","latitude":11.9139,"longitude":79.8145,"temp":28.7,"humidity":86,"rain":0.0,"pressure":1008.4,"uv_index":9.35,"wind_gusts":27.0,"aqi":86,"pm10":19.8,"pm2_5":15.0,"mosquito_risk":7,"arthritis_risk":0,"migraine_risk":4,"frizz_risk":1,"updated_at":"2026-04-05T23:05:18.522534+05:30"},{"city":"Port Blair","state":"Andaman and Nicobar Islands","latitude":11.6234,"longitude":92.7265,"temp":29.2,"humidity":70,"rain":0.0,"pressure":1007.7,"uv_index":9.25,"wind_gusts":22.7,"aqi":31,"pm10":8.0,"pm2_5":5.5,"mosquito_risk":7,"arthritis_risk":5,"migraine_risk":4,"frizz_risk":1,"updated_at":"2026-04-05T23:05:18.522543+05:30"},{"city":"Haridwar","state":"Uttarakhand","latitude":29.9457,"longitude":78.1642,"temp":19.8,"humidity":76,"rain":0.0,"pressure":975.5,"uv_index":6.7,"wind_gusts":27.7,"aqi":66,"pm10":43.4,"pm2_5":36.0,"mosquito_risk":3,"arthritis_risk":5,"migraine_risk":7,"frizz_risk":0,"updated_at":"2026-04-05T23:05:18.522550+05:30"},{"city":"Rishikesh","state":"Uttarakhand","latitude":30.0869,"longitude":78.2676,"temp":18.6,"humidity":70,"rain":0.0,"pressure":968.1,"uv_index":6.7,"wind_gusts":28.1,"aqi":69,"pm10":24.6,"pm2_5":16.1,"mosquito_risk":3,"arthritis_risk":5,"migraine_risk":7,"frizz_risk":0,"updated_at":"2026-04-05T23:05:18.522557+05:30"},{"city":"Nainital","state":"Uttarakhand","latitude":29.3919,"longitude":79.4542,"temp":15.3,"humidity":64,"rain":0.0,"pressure":805.1,"uv_index":6.8,"wind_gusts":30.6,"aqi":69,"pm10":34.9,"pm2_5":22.9,"mosquito_risk":3,"arthritis_risk":5,"migraine_risk":7,"frizz_risk":0,"updated_at":"2026-04-05T23:05:18.522565+05:30"},{"city":"Mussoorie","state":"Uttarakhand","latitude":30.4599,"longitude":78.0664,"temp":12.0,"humidity":70,"rain":0.0,"pressure":800.5,"uv_index":6.3,"wind_gusts":45.7,"aqi":67,"pm10":36.1,"pm2_5":26.8,"mosquito_risk":3,"arthritis_risk":5,"migraine_risk":7,"frizz_risk":0,"updated_at":"2026-04-05T23:05:18.522572+05:30"},{"city":"Dharamshala","state":"Himachal Pradesh","latitude":32.219,"longitude":76.3234,"temp":16.1,"humidity":58,"rain":0.0,"pressure":867.5,"uv_index":7.3,"wind_gusts":32.8,"aqi":49,"pm10":8.8,"pm2_5":7.3,"mosquito_risk":0,"arthritis_risk":5,"migraine_risk":7,"frizz_risk":0,"updated_at":"2026-04-05T23:05:18.522579+05:30"},{"city":"Dalhousie","state":"Himachal Pradesh","latitude":32.5387,"longitude":75.971,"temp":12.4,"humidity":65,"rain":0.0,"pressure":800.9,"uv_index":7.55,"wind_gusts":25.2,"aqi":56,"pm10":42.5,"pm2_5":30.3,"mosquito_risk":3,"arthritis_risk":5,"migraine_risk":7,"frizz_risk":0,"updated_at":"2026-04-05T23:05:18.522588+05:30"},{"city":"Patiala","state":"Punjab","latitude":30.3398,"longitude":76.3869,"temp":20.9,"humidity":57,"rain":0.0,"pressure":978.9,"uv_index":6.75,"wind_gusts":33.5,"aqi":111,"pm10":81.5,"pm2_5":44.0,"mosquito_risk":0,"arthritis_risk":5,"migraine_risk":7,"frizz_risk":0,"updated_at":"2026-04-05T23:05:18.522594+05:30"},{"city":"Bhatinda","state":"Punjab","latitude":30.211,"longitude":74.9455,"temp":21.6,"humidity":59,"rain":0.0,"pressure":984.8,"uv_index":7.35,"wind_gusts":30.2,"aqi":90,"pm10":67.8,"pm2_5":48.1,"mosquito_risk":0,"arthritis_risk":5,"migraine_risk":7,"frizz_risk":0,"updated_at":"2026-04-05T23:05:18.522601+05:30"},{"city":"Rohtak","state":"Haryana","latitude":28.8955,"longitude":76.6066,"temp":21.2,"humidity":64,"rain":0.0,"pressure":983.0,"uv_index":3.9,"wind_gusts":36.7,"aqi":172,"pm10":651.9,"pm2_5":98.5,"mosquito_risk":3,"arthritis_risk":5,"migraine_risk":3,"frizz_risk":0,"updated_at":"2026-04-05T23:05:18.522608+05:30"},{"city":"Panipat","state":"Haryana","latitude":29.3909,"longitude":76.9635,"temp":21.2,"humidity":63,"rain":0.0,"pressure":981.3,"uv_index":6.75,"wind_gusts":32.0,"aqi":268,"pm10":612.8,"pm2_5":100.1,"mosquito_risk":3,"arthritis_risk":5,"migraine_risk":7,"frizz_risk":0,"updated_at":"2026-04-05T23:05:18.522615+05:30"},{"city":"Mathura","state":"Uttar Pradesh","latitude":27.4924,"longitude":77.6737,"temp":20.9,"humidity":74,"rain":0.0,"pressure":987.9,"uv_index":5.8,"wind_gusts":31.3,"aqi":180,"pm10":269.2,"pm2_5":74.0,"mosquito_risk":3,"arthritis_risk":5,"migraine_risk":3,"frizz_risk":1,"updated_at":"2026-04-05T23:05:18.522621+05:30"},{"city":"Vrindavan","state":"Uttar Pradesh","latitude":27.5823,"longitude":77.7027,"temp":20.1,"humidity":80,"rain":0.0,"pressure":988.4,"uv_index":6.05,"wind_gusts":31.0,"aqi":180,"pm10":269.2,"pm2_5":74.0,"mosquito_risk":3,"arthritis_risk":5,"migraine_risk":7,"frizz_risk":1,"updated_at":"2026-04-05T23:05:18.522628+05:30"},{"city":"Ayodhya","state":"Uttar Pradesh","latitude":26.7922,"longitude":82.1998,"temp":24.4,"humidity":57,"rain":0.0,"pressure":996.1,"uv_index":7.6,"wind_gusts":46.1,"aqi":90,"pm10":52.0,"pm2_5":27.9,"mosquito_risk":0,"arthritis_risk":5,"migraine_risk":7,"frizz_risk":0,"updated_at":"2026-04-05T23:05:18.522635+05:30"},{"city":"Ratlam","state":"Madhya Pradesh","latitude":23.3315,"longitude":75.0367,"temp":25.0,"humidity":50,"rain":0.0,"pressure":955.0,"uv_index":7.85,"wind_gusts":33.5,"aqi":81,"pm10":18.5,"pm2_5":10.7,"mosquito_risk":4,"arthritis_risk":5,"migraine_risk":7,"frizz_risk":0,"updated_at":"2026-04-05T23:05:18.522642+05:30"},{"city":"Sagar","state":"Madhya Pradesh","latitude":23.8388,"longitude":78.7378,"temp":26.6,"humidity":33,"rain":0.0,"pressure":950.1,"uv_index":7.9,"wind_gusts":33.1,"aqi":86,"pm10":20.3,"pm2_5":10.0,"mosquito_risk":4,"arthritis_risk":5,"migraine_risk":7,"frizz_risk":0,"updated_at":"2026-04-05T23:05:18.522648+05:30"},{"city":"Satna","state":"Madhya Pradesh","latitude":24.6005,"longitude":80.8322,"temp":25.9,"humidity":59,"rain":0.0,"pressure":971.5,"uv_index":8.35,"wind_gusts":30.6,"aqi":66,"pm10":26.0,"pm2_5":13.6,"mosquito_risk":4,"arthritis_risk":5,"migraine_risk":7,"frizz_risk":1,"updated_at":"2026-04-05T23:05:18.522675+05:30"},{"city":"Akola","state":"Maharashtra","latitude":20.7002,"longitude":77.0082,"temp":27.5,"humidity":46,"rain":0.0,"pressure":975.0,"uv_index":8.65,"wind_gusts":36.4,"aqi":68,"pm10":33.8,"pm2_5":21.1,"mosquito_risk":4,"arthritis_risk":5,"migraine_risk":7,"frizz_risk":0,"updated_at":"2026-04-05T23:05:18.522683+05:30"},{"city":"Amravati","state":"Maharashtra","latitude":20.9374,"longitude":77.7796,"temp":26.9,"humidity":49,"rain":0.0,"pressure":966.8,"uv_index":8.65,"wind_gusts":34.9,"aqi":66,"pm10":32.7,"pm2_5":21.0,"mosquito_risk":4,"arthritis_risk":5,"migraine_risk":7,"frizz_risk":0,"updated_at":"2026-04-05T23:05:18.522691+05:30"},{"city":"Latur","state":"Maharashtra","latitude":18.4088,"longitude":76.5604,"temp":26.4,"humidity":44,"rain":0.0,"pressure":939.8,"uv_index":9.0,"wind_gusts":30.2,"aqi":77,"pm10":36.3,"pm2_5":28.9,"mosquito_risk":4,"arthritis_risk":5,"migraine_risk":7,"frizz_risk":0,"updated_at":"2026-04-05T23:05:18.522697+05:30"},{"city":"Nanded","state":"Maharashtra","latitude":19.1383,"longitude":77.3091,"temp":28.2,"humidity":46,"rain":0.0,"pressure":968.3,"uv_index":8.85,"wind_gusts":28.4,"aqi":88,"pm10":56.1,"pm2_5":34.1,"mosquito_risk":4,"arthritis_risk":5,"migraine_risk":7,"frizz_risk":0,"updated_at":"2026-04-05T23:05:18.522704+05:30"},{"city":"Gulbarga","state":"Karnataka","latitude":17.3297,"longitude":76.8343,"temp":31.7,"humidity":34,"rain":0.0,"pressure":958.6,"uv_index":9.0,"wind_gusts":34.6,"aqi":82,"pm10":28.9,"pm2_5":23.8,"mosquito_risk":0,"arthritis_risk":5,"migraine_risk":7,"frizz_risk":0,"updated_at":"2026-04-05T23:05:18.522710+05:30"},{"city":"Bidar","state":"Karnataka","latitude":17.9104,"longitude":77.5199,"temp":29.5,"humidity":38,"rain":0.0,"pressure":935.7,"uv_index":9.0,"wind_gusts":33.5,"aqi":100,"pm10":39.5,"pm2_5":30.4,"mosquito_risk":4,"arthritis_risk":5,"migraine_risk":7,"frizz_risk":0,"updated_at":"2026-04-05T23:05:18.522717+05:30"},{"city":"Hospet","state":"Karnataka","latitude":15.2689,"longitude":76.3909,"temp":29.6,"humidity":53,"rain":0.0,"pressure":956.7,"uv_index":9.2,"wind_gusts":30.2,"aqi":74,"pm10":18.9,"pm2_5":16.1,"mosquito_risk":4,"arthritis_risk":5,"migraine_risk":7,"frizz_risk":1,"updated_at":"2026-04-05T23:05:18.522723+05:30"},{"city":"Tirupur","state":"Tamil Nadu","latitude":11.1085,"longitude":77.3411,"temp":27.8,"humidity":74,"rain":0.0,"pressure":975.9,"uv_index":9.55,"wind_gusts":35.3,"aqi":79,"pm10":31.7,"pm2_5":29.9,"mosquito_risk":7,"arthritis_risk":5,"migraine_risk":7,"frizz_risk":1,"updated_at":"2026-04-05T23:05:18.522730+05:30"},{"city":"Alappuzha","state":"Kerala","latitude":9.4981,"longitude":76.3388,"temp":29.8,"humidity":80,"rain":0.0,"pressure":1010.2,"uv_index":8.9,"wind_gusts":30.6,"aqi":62,"pm10":34.9,"pm2_5":27.0,"mosquito_risk":7,"arthritis_risk":0,"migraine_risk":4,"frizz_risk":1,"updated_at":"2026-04-05T23:05:18.522737+05:30"},{"city":"Munnar","state":"Kerala","latitude":10.0889,"longitude":77.0595,"temp":21.2,"humidity":97,"rain":0.0,"pressure":858.4,"uv_index":9.75,"wind_gusts":38.5,"aqi":59,"pm10":20.9,"pm2_5":20.1,"mosquito_risk":3,"arthritis_risk":5,"migraine_risk":7,"frizz_risk":1,"updated_at":"2026-04-05T23:05:18.522744+05:30"},{"city":"Silchar","state":"Assam","latitude":24.8333,"longitude":92.7789,"temp":23.5,"humidity":93,"rain":0.0,"pressure":1004.6,"uv_index":8.4,"wind_gusts":33.1,"aqi":156,"pm10":93.6,"pm2_5":85.7,"mosquito_risk":3,"arthritis_risk":5,"migraine_risk":4,"frizz_risk":1,"updated_at":"2026-04-05T23:05:18.522751+05:30"},{"city":"Dibrugarh","state":"Assam","latitude":27.4728,"longitude":94.912,"temp":22.6,"humidity":92,"rain":0.0,"pressure":993.2,"uv_index":7.5,"wind_gusts":51.5,"aqi":132,"pm10":51.3,"pm2_5":39.5,"mosquito_risk":3,"arthritis_risk":5,"migraine_risk":7,"frizz_risk":1,"updated_at":"2026-04-05T23:05:18.522758+05:30"}]