[{"city":"Delhi","state":"Delhi","latitude":28.6139,"longitude":77.209,"temp":30.7,"humidity":60,"rain":0.0,"pressure":977.8,"uv_index":7.55,"wind_gusts":30.2,"aqi":165,"pm10":271.9,"pm2_5":95.2,"no2":58.3,"co":597.0,"o3":65.0,"so2":27.5,"mosquito_risk":0,"arthritis_risk":5,"migraine_risk":7,"frizz_risk":1,"updated_at":"2026-06-05T21:26:04.413263+05:30"},{"city":"Mumbai","state":"Maharashtra","latitude":19.076,"longitude":72.8777,"temp":30.5,"humidity":74,"rain":0.0,"pressure":1004.9,"uv_index":7.55,"wind_gusts":40.3,"aqi":71,"pm10":40.5,"pm2_5":19.9,"no2":9.4,"co":183.0,"o3":46.0,"so2":6.5,"mosquito_risk":3,"arthritis_risk":5,"migraine_risk":4,"frizz_risk":1,"updated_at":"2026-06-05T21:26:04.413303+05:30"},{"city":"Bangalore","state":"Karnataka","latitude":12.9716,"longitude":77.5946,"temp":22.7,"humidity":82,"rain":0.0,"pressure":910.3,"uv_index":8.9,"wind_gusts":54.0,"aqi":30,"pm10":7.0,"pm2_5":6.7,"no2":20.3,"co":404.0,"o3":35.0,"so2":5.5,"mosquito_risk":3,"arthritis_risk":5,"migraine_risk":7,"frizz_risk":1,"updated_at":"2026-06-05T21:26:04.413318+05:30"},{"city":"Hyderabad","state":"Telangana","latitude":17.385,"longitude":78.4867,"temp":31.6,"humidity":49,"rain":0.0,"pressure":950.3,"uv_index":7.65,"wind_gusts":37.8,"aqi":68,"pm10":46.7,"pm2_5":35.4,"no2":29.1,"co":590.0,"o3":55.0,"so2":7.5,"mosquito_risk":0,"arthritis_risk":5,"migraine_risk":7,"frizz_risk":1,"updated_at":"2026-06-05T21:26:04.413328+05:30"},{"city":"Chennai","state":"Tamil Nadu","latitude":13.0827,"longitude":80.2707,"temp":31.2,"humidity":66,"rain":0.0,"pressure":1004.6,"uv_index":8.55,"wind_gusts":46.8,"aqi":82,"pm10":11.4,"pm2_5":9.6,"no2":17.2,"co":418.0,"o3":64.0,"so2":9.4,"mosquito_risk":3,"arthritis_risk":5,"migraine_risk":4,"frizz_risk":1,"updated_at":"2026-06-05T21:26:04.413336+05:30"},{"city":"Kolkata","state":"West Bengal","latitude":22.5726,"longitude":88.3639,"temp":29.9,"humidity":83,"rain":0.0,"pressure":1000.9,"uv_index":8.65,"wind_gusts":31.3,"aqi":132,"pm10":64.0,"pm2_5":60.5,"no2":20.3,"co":642.0,"o3":79.0,"so2":15.1,"mosquito_risk":7,"arthritis_risk":5,"migraine_risk":4,"frizz_risk":1,"updated_at":"2026-06-05T21:26:04.413344+05:30"},{"city":"Pune","state":"Maharashtra","latitude":18.5204,"longitude":73.8567,"temp":25.8,"humidity":81,"rain":0.0,"pressure":945.6,"uv_index":8.25,"wind_gusts":42.8,"aqi":44,"pm10":15.5,"pm2_5":9.6,"no2":10.0,"co":183.0,"o3":47.0,"so2":5.4,"mosquito_risk":7,"arthritis_risk":5,"migraine_risk":7,"frizz_risk":1,"updated_at":"2026-06-05T21:26:04.413351+05:30"},{"city":"Ahmedabad","state":"Gujarat","latitude":23.0225,"longitude":72.5714,"temp":33.4,"humidity":61,"rain":0.0,"pressure":996.1,"uv_index":8.1,"wind_gusts":36.0,"aqi":82,"pm10":69.8,"pm2_5":35.6,"no2":17.9,"co":188.0,"o3":56.0,"so2":6.8,"mosquito_risk":3,"arthritis_risk":5,"migraine_risk":7,"frizz_risk":1,"updated_at":"2026-06-05T21:26:04.413357+05:30"},{"city":"Jaipur","state":"Rajasthan","latitude":26.9124,"longitude":75.7873,"temp":29.1,"humidity":55,"rain":0.0,"pressure":954.9,"uv_index":8.2,"wind_gusts":34.9,"aqi":102,"pm10":136.0,"pm2_5":59.8,"no2":39.0,"co":805.0,"o3":38.0,"so2":14.2,"mosquito_risk":4,"arthritis_risk":5,"migraine_risk":7,"frizz_risk":1,"updated_at":"2026-06-05T21:26:04.413368+05:30"},{"city":"Lucknow","state":"Uttar Pradesh","latitude":26.8467,"longitude":80.9462,"temp":31.4,"humidity":57,"rain":0.0,"pressure":987.9,"uv_index":8.35,"wind_gusts":34.2,"aqi":155,"pm10":151.3,"pm2_5":73.6,"no2":18.3,"co":347.0,"o3":113.0,"so2":15.7,"mosquito_risk":0,"arthritis_risk":5,"migraine_risk":7,"frizz_risk":1,"updated_at":"2026-06-05T21:26:04.413375+05:30"},{"city":"Kanpur","state":"Uttar Pradesh","latitude":26.4499,"longitude":80.3319,"temp":30.9,"humidity":54,"rain":0.0,"pressure":986.5,"uv_index":8.35,"wind_gusts":58.0,"aqi":157,"pm10":267.3,"pm2_5":84.5,"no2":20.0,"co":452.0,"o3":89.0,"so2":12.0,"mosquito_risk":0,"arthritis_risk":5,"migraine_risk":7,"frizz_risk":1,"updated_at":"2026-06-05T21:26:04.413382+05:30"},{"city":"Chandigarh","state":"Chandigarh","latitude":30.7333,"longitude":76.7794,"temp":26.8,"humidity":74,"rain":0.0,"pressure":963.5,"uv_index":7.7,"wind_gusts":27.0,"aqi":162,"pm10":128.1,"pm2_5":66.6,"no2":45.4,"co":1735.0,"o3":105.0,"so2":17.9,"mosquito_risk":7,"arthritis_risk":5,"migraine_risk":7,"frizz_risk":1,"updated_at":"2026-06-05T21:26:04.413388+05:30"},{"city":"Srinagar","state":"Jammu and Kashmir","latitude":34.0837,"longitude":74.7973,"temp":16.0,"humidity":86,"rain":0.0,"pressure":840.3,"uv_index":9.0,"wind_gusts":32.8,"aqi":72,"pm10":28.8,"pm2_5":24.8,"no2":30.3,"co":945.0,"o3":65.0,"so2":4.7,"mosquito_risk":3,"arthritis_risk":10,"migraine_risk":7,"frizz_risk":0,"updated_at":"2026-06-05T21:26:04.413398+05:30"},{"city":"Jammu","state":"Jammu and Kashmir","latitude":32.7266,"longitude":74.857,"temp":27.0,"humidity":59,"rain":0.0,"pressure":966.7,"uv_index":8.55,"wind_gusts":29.9,"aqi":119,"pm10":66.4,"pm2_5":42.8,"no2":40.4,"co":637.0,"o3":80.0,"so2":7.0,"mosquito_risk":4,"arthritis_risk":5,"migraine_risk":7,"frizz_risk":1,"updated_at":"2026-06-05T21:26:04.413404+05:30"},{"city":"Amritsar","state":"Punjab","latitude":31.634,"longitude":74.8723,"temp":30.6,"humidity":50,"rain":0.0,"pressure":974.8,"uv_index":8.45,"wind_gusts":28.1,"aqi":140,"pm10":76.8,"pm2_5":57.5,"no2":42.2,"co":759.0,"o3":82.0,"so2":10.1,"mosquito_risk":0,"arthritis_risk":5,"migraine_risk":7,"frizz_risk":1,"updated_at":"2026-06-05T21:26:04.413410+05:30"},{"city":"Ludhiana","state":"Punjab","latitude":30.901,"longitude":75.8573,"temp":32.2,"humidity":43,"rain":0.0,"pressure":972.9,"uv_index":8.0,"wind_gusts":37.8,"aqi":148,"pm10":89.6,"pm2_5":60.5,"no2":35.9,"co":617.0,"o3":86.0,"so2":10.7,"mosquito_risk":0,"arthritis_risk":5,"migraine_risk":7,"frizz_risk":1,"updated_at":"2026-06-05T21:26:04.413417+05:30"},{"city":"Jalandhar","state":"Punjab","latitude":31.326,"longitude":75.5762,"temp":31.2,"humidity":48,"rain":0.0,"pressure":973.8,"uv_index":8.2,"wind_gusts":27.7,"aqi":150,"pm10":80.8,"pm2_5":57.6,"no2":39.8,"co":1039.0,"o3":83.0,"so2":8.8,"mosquito_risk":0,"arthritis_risk":5,"migraine_risk":7,"frizz_risk":1,"updated_at":"2026-06-05T21:26:04.413422+05:30"},{"city":"Dehradun","state":"Uttarakhand","latitude":30.6284,"longitude":78.0322,"temp":16.3,"humidity":80,"rain":0.0,"pressure":826.6,"uv_index":4.45,"wind_gusts":25.6,"aqi":112,"pm10":48.4,"pm2_5":27.5,"no2":18.8,"co":262.0,"o3":101.0,"so2":2.0,"mosquito_risk":3,"arthritis_risk":5,"migraine_risk":3,"frizz_risk":0,"updated_at":"2026-06-05T21:26:04.413429+05:30"},{"city":"Shimla","state":"Himachal Pradesh","latitude":31.1048,"longitude":77.1734,"temp":14.6,"humidity":68,"rain":0.0,"pressure":781.6,"uv_index":6.55,"wind_gusts":33.1,"aqi":147,"pm10":82.4,"pm2_5":40.4,"no2":23.3,"co":362.0,"o3":109.0,"so2":7.6,"mosquito_risk":3,"arthritis_risk":5,"migraine_risk":7,"frizz_risk":0,"updated_at":"2026-06-05T21:26:04.413437+05:30"},{"city":"Manali","state":"Himachal Pradesh","latitude":32.2396,"longitude":77.1887,"temp":15.7,"humidity":86,"rain":0.1,"pressure":816.3,"uv_index":7.45,"wind_gusts":42.5,"aqi":110,"pm10":6.3,"pm2_5":4.6,"no2":49.2,"co":198.0,"o3":88.0,"so2":0.4,"mosquito_risk":6,"arthritis_risk":10,"migraine_risk":7,"frizz_risk":0,"updated_at":"2026-06-05T21:26:04.413443+05:30"},{"city":"Gurgaon","state":"Haryana","latitude":28.4595,"longitude":77.0266,"temp":30.3,"humidity":57,"rain":0.0,"pressure":976.1,"uv_index":7.8,"wind_gusts":32.8,"aqi":653,"pm10":201.6,"pm2_5":91.0,"no2":89.5,"co":1211.0,"o3":35.0,"so2":26.7,"mosquito_risk":0,"arthritis_risk":5,"migraine_risk":7,"frizz_risk":1,"updated_at":"2026-06-05T21:26:04.413462+05:30"},{"city":"Noida","state":"Uttar Pradesh","latitude":28.5355,"longitude":77.391,"temp":28.5,"humidity":74,"rain":0.0,"pressure":979.2,"uv_index":7.35,"wind_gusts":29.9,"aqi":653,"pm10":201.6,"pm2_5":91.0,"no2":89.5,"co":942.0,"o3":35.0,"so2":26.7,"mosquito_risk":7,"arthritis_risk":5,"migraine_risk":7,"frizz_risk":1,"updated_at":"2026-06-05T21:26:04.413469+05:30"},{"city":"Ghaziabad","state":"Uttar Pradesh","latitude":28.6692,"longitude":77.4538,"temp":27.7,"humidity":79,"rain":0.0,"pressure":977.4,"uv_index":6.9,"wind_gusts":35.3,"aqi":161,"pm10":258.9,"pm2_5":103.6,"no2":43.1,"co":556.0,"o3":87.0,"so2":24.0,"mosquito_risk":7,"arthritis_risk":5,"migraine_risk":7,"frizz_risk":1,"updated_at":"2026-06-05T21:26:04.413475+05:30"},{"city":"Faridabad","state":"Haryana","latitude":28.4089,"longitude":77.3178,"temp":29.6,"humidity":66,"rain":0.0,"pressure":978.5,"uv_index":7.0,"wind_gusts":34.2,"aqi":653,"pm10":201.6,"pm2_5":91.0,"no2":89.5,"co":1088.0,"o3":35.0,"so2":26.7,"mosquito_risk":7,"arthritis_risk":5,"migraine_risk":7,"frizz_risk":1,"updated_at":"2026-06-05T21:26:04.413481+05:30"},{"city":"Meerut","state":"Uttar Pradesh","latitude":28.9845,"longitude":77.7064,"temp":27.5,"humidity":80,"rain":0.0,"pressure":976.4,"uv_index":7.3,"wind_gusts":31.7,"aqi":161,"pm10":258.9,"pm2_5":103.6,"no2":43.1,"co":625.0,"o3":87.0,"so2":24.0,"mosquito_risk":7,"arthritis_risk":5,"migraine_risk":7,"frizz_risk":1,"updated_at":"2026-06-05T21:26:04.413487+05:30"},{"city":"Agra","state":"Uttar Pradesh","latitude":27.1767,"longitude":78.0081,"temp":29.5,"humidity":63,"rain":0.0,"pressure":982.5,"uv_index":7.75,"wind_gusts":32.0,"aqi":150,"pm10":339.9,"pm2_5":97.1,"no2":48.6,"co":674.0,"o3":60.0,"so2":19.7,"mosquito_risk":7,"arthritis_risk":5,"migraine_risk":7,"frizz_risk":1,"updated_at":"2026-06-05T21:26:04.413493+05:30"},{"city":"Varanasi","state":"Uttar Pradesh","latitude":25.3176,"longitude":82.9739,"temp":34.9,"humidity":41,"rain":0.0,"pressure":991.4,"uv_index":8.8,"wind_gusts":25.9,"aqi":146,"pm10":102.2,"pm2_5":68.7,"no2":41.1,"co":895.0,"o3":80.0,"so2":19.6,"mosquito_risk":0,"arthritis_risk":5,"migraine_risk":7,"frizz_risk":1,"updated_at":"2026-06-05T21:26:04.413500+05:30"},{"city":"Prayagraj","state":"Uttar Pradesh","latitude":25.4358,"longitude":81.8463,"temp":34.2,"humidity":42,"rain":0.0,"pressure":989.9,"uv_index":8.35,"wind_gusts":36.0,"aqi":151,"pm10":75.4,"pm2_5":47.4,"no2":12.1,"co":389.0,"o3":109.0,"so2":11.0,"mosquito_risk":0,"arthritis_risk":5,"migraine_risk":7,"frizz_risk":1,"updated_at":"2026-06-05T21:26:04.413507+05:30"},{"city":"Gorakhpur","state":"Uttar Pradesh","latitude":26.7606,"longitude":83.3732,"temp":31.0,"humidity":64,"rain":0.0,"pressure":991.1,"uv_index":8.7,"wind_gusts":23.8,"aqi":160,"pm10":109.4,"pm2_5":74.5,"no2":33.2,"co":443.0,"o3":88.0,"so2":16.3,"mosquito_risk":3,"arthritis_risk":5,"migraine_risk":7,"frizz_risk":1,"updated_at":"2026-06-05T21:26:04.413515+05:30"},{"city":"Bareilly","state":"Uttar Pradesh","latitude":28.367,"longitude":79.4304,"temp":28.7,"humidity":65,"rain":0.0,"pressure":981.3,"uv_index":4.7,"wind_gusts":34.6,"aqi":133,"pm10":54.5,"pm2_5":43.1,"no2":14.9,"co":377.0,"o3":118.0,"so2":12.1,"mosquito_risk":7,"arthritis_risk":5,"migraine_risk":3,"frizz_risk":1,"updated_at":"2026-06-05T21:26:04.413522+05:30"},{"city":"Aligarh","state":"Uttar Pradesh","latitude":27.8974,"longitude":78.088,"temp":28.6,"humidity":68,"rain":0.0,"pressure":980.2,"uv_index":7.4,"wind_gusts":40.7,"aqi":299,"pm10":353.9,"pm2_5":117.3,"no2":40.9,"co":483.0,"o3":105.0,"so2":26.7,"mosquito_risk":7,"arthritis_risk":5,"migraine_risk":7,"frizz_risk":1,"updated_at":"2026-06-05T21:26:04.413528+05:30"},{"city":"Moradabad","state":"Uttar Pradesh","latitude":28.8386,"longitude":78.7733,"temp":28.5,"humidity":65,"rain":0.0,"pressure":978.4,"uv_index":5.65,"wind_gusts":34.6,"aqi":171,"pm10":100.8,"pm2_5":75.2,"no2":30.2,"co":435.0,"o3":121.0,"so2":22.1,"mosquito_risk":7,"arthritis_risk":5,"migraine_risk":3,"frizz_risk":1,"updated_at":"2026-06-05T21:26:04.413534+05:30"},{"city":"Saharanpur","state":"Uttar Pradesh","latitude":29.9637,"longitude":77.546,"temp":27.2,"humidity":69,"rain":0.0,"pressure":970.5,"uv_index":6.95,"wind_gusts":35.6,"aqi":155,"pm10":122.5,"pm2_5":62.6,"no2":19.4,"co":633.0,"o3":109.0,"so2":11.3,"mosquito_risk":7,"arthritis_risk":5,"migraine_risk":7,"frizz_risk":1,"updated_at":"2026-06-05T21:26:04.413540+05:30"},{"city":"Jhansi","state":"Uttar Pradesh","latitude":25.4484,"longitude":78.5685,"temp":30.3,"humidity":53,"rain":0.0,"pressure":973.4,"uv_index":8.5,"wind_gusts":34.6,"aqi":72,"pm10":57.2,"pm2_5":26.5,"no2":11.7,"co":182.0,"o3":67.0,"so2":5.9,"mosquito_risk":0,"arthritis_risk":5,"migraine_risk":7,"frizz_risk":1,"updated_at":"2026-06-05T21:26:07.917925+05:30"},{"city":"Surat","state":"Gujarat","latitude":21.1702,"longitude":72.8311,"temp":30.5,"humidity":79,"rain":0.0,"pressure":1001.7,"uv_index":7.55,"wind_gusts":47.5,"aqi":89,"pm10":45.1,"pm2_5":27.0,"no2":20.7,"co":253.0,"o3":34.0,"so2":34.6,"mosquito_risk":3,"arthritis_risk":5,"migraine_risk":4,"frizz_risk":1,"updated_at":"2026-06-05T21:26:07.917957+05:30"},{"city":"Vadodara","state":"Gujarat","latitude":22.3072,"longitude":73.1812,"temp":31.2,"humidity":73,"rain":0.0,"pressure":998.9,"uv_index":8.0,"wind_gusts":45.7,"aqi":82,"pm10":42.5,"pm2_5":27.4,"no2":13.9,"co":159.0,"o3":54.0,"so2":17.9,"mosquito_risk":3,"arthritis_risk":5,"migraine_risk":7,"frizz_risk":1,"updated_at":"2026-06-05T21:26:07.917967+05:30"},{"city":"Rajkot","state":"Gujarat","latitude":22.3039,"longitude":70.8022,"temp":32.7,"humidity":53,"rain":0.0,"pressure":988.9,"uv_index":7.55,"wind_gusts":44.6,"aqi":80,"pm10":56.9,"pm2_5":24.3,"no2":3.6,"co":116.0,"o3":62.0,"so2":4.2,"mosquito_risk":0,"arthritis_risk":5,"migraine_risk":7,"frizz_risk":1,"updated_at":"2026-06-05T21:26:07.917976+05:30"},{"city":"Thane","state":"Maharashtra","latitude":19.2183,"longitude":72.9781,"temp":30.8,"humidity":72,"rain":0.0,"pressure":1004.2,"uv_index":7.35,"wind_gusts":39.2,"aqi":71,"pm10":40.5,"pm2_5":19.9,"no2":9.4,"co":175.0,"o3":46.0,"so2":6.5,"mosquito_risk":3,"arthritis_risk":5,"migraine_risk":4,"frizz_risk":1,"updated_at":"2026-06-05T21:26:07.917984+05:30"},{"city":"Nagpur","state":"Maharashtra","latitude":21.1458,"longitude":79.0882,"temp":33.6,"humidity":39,"rain":0.0,"pressure":969.2,"uv_index":8.9,"wind_gusts":43.6,"aqi":90,"pm10":53.2,"pm2_5":33.8,"no2":17.4,"co":270.0,"o3":67.0,"so2":13.4,"mosquito_risk":0,"arthritis_risk":5,"migraine_risk":7,"frizz_risk":1,"updated_at":"2026-06-05T21:26:07.917991+05:30"},{"city":"Nashik","state":"Maharashtra","latitude":19.9975,"longitude":73.7898,"temp":27.1,"humidity":75,"rain":0.0,"pressure":942.5,"uv_index":8.0,"wind_gusts":46.4,"aqi":57,"pm10":31.8,"pm2_5":16.5,"no2":3.3,"co":139.0,"o3":53.0,"so2":1.2,"mosquito_risk":7,"arthritis_risk":5,"migraine_risk":7,"frizz_risk":1,"updated_at":"2026-06-05T21:26:07.917999+05:30"},{"city":"Aurangabad","state":"Maharashtra","latitude":19.8762,"longitude":75.3433,"temp":31.7,"humidity":44,"rain":0.0,"pressure":940.7,"uv_index":8.95,"wind_gusts":39.2,"aqi":70,"pm10":34.8,"pm2_5":19.2,"no2":4.0,"co":172.0,"o3":84.0,"so2":2.9,"mosquito_risk":0,"arthritis_risk":5,"migraine_risk":7,"frizz_risk":1,"updated_at":"2026-06-05T21:26:07.918007+05:30"},{"city":"Solapur","state":"Maharashtra","latitude":17.6599,"longitude":75.9064,"temp":27.7,"humidity":74,"rain":0.2,"pressure":954.4,"uv_index":8.95,"wind_gusts":43.6,"aqi":65,"pm10":37.0,"pm2_5":22.2,"no2":10.5,"co":302.0,"o3":83.0,"so2":3.9,"mosquito_risk":10,"arthritis_risk":5,"migraine_risk":7,"frizz_risk":1,"updated_at":"2026-06-05T21:26:07.918015+05:30"},{"city":"Kolhapur","state":"Maharashtra","latitude":16.705,"longitude":74.2433,"temp":24.8,"humidity":87,"rain":0.0,"pressure":945.7,"uv_index":8.3,"wind_gusts":48.6,"aqi":39,"pm10":10.0,"pm2_5":8.2,"no2":10.0,"co":163.0,"o3":48.0,"so2":2.9,"mosquito_risk":3,"arthritis_risk":5,"migraine_risk":7,"frizz_risk":1,"updated_at":"2026-06-05T21:26:07.918023+05:30"},{"city":"Goa","state":"Goa","latitude":15.2993,"longitude":74.124,"temp":27.4,"humidity":83,"rain":0.0,"pressure":996.3,"uv_index":7.15,"wind_gusts":25.2,"aqi":28,"pm10":15.1,"pm2_5":11.5,"no2":8.1,"co":357.0,"o3":47.0,"so2":1.6,"mosquito_risk":7,"arthritis_risk":5,"migraine_risk":7,"frizz_risk":1,"updated_at":"2026-06-05T21:26:07.918030+05:30"},{"city":"Jodhpur","state":"Rajasthan","latitude":26.2389,"longitude":73.0243,"temp":34.0,"humidity":44,"rain":0.0,"pressure":976.8,"uv_index":8.45,"wind_gusts":38.2,"aqi":150,"pm10":194.2,"pm2_5":49.8,"no2":9.2,"co":175.0,"o3":64.0,"so2":2.8,"mosquito_risk":0,"arthritis_risk":5,"migraine_risk":7,"frizz_risk":1,"updated_at":"2026-06-05T21:26:07.918038+05:30"},{"city":"Udaipur","state":"Rajasthan","latitude":24.5854,"longitude":73.7125,"temp":30.4,"humidity":54,"rain":0.0,"pressure":942.2,"uv_index":8.85,"wind_gusts":41.0,"aqi":80,"pm10":50.8,"pm2_5":26.6,"no2":4.3,"co":163.0,"o3":74.0,"so2":3.1,"mosquito_risk":0,"arthritis_risk":5,"migraine_risk":7,"frizz_risk":1,"updated_at":"2026-06-05T21:26:07.918045+05:30"},{"city":"Kota","state":"Rajasthan","latitude":25.2138,"longitude":75.8648,"temp":30.1,"humidity":52,"rain":0.0,"pressure":973.7,"uv_index":8.2,"wind_gusts":33.1,"aqi":91,"pm10":98.3,"pm2_5":45.9,"no2":17.3,"co":417.0,"o3":72.0,"so2":5.9,"mosquito_risk":0,"arthritis_risk":5,"migraine_risk":7,"frizz_risk":1,"updated_at":"2026-06-05T21:26:07.918052+05:30"},{"city":"Bikaner","state":"Rajasthan","latitude":28.0229,"longitude":73.3119,"temp":31.7,"humidity":57,"rain":0.0,"pressure":975.1,"uv_index":8.45,"wind_gusts":42.8,"aqi":153,"pm10":127.1,"pm2_5":46.8,"no2":5.1,"co":256.0,"o3":71.0,"so2":3.3,"mosquito_risk":0,"arthritis_risk":5,"migraine_risk":7,"frizz_risk":1,"updated_at":"2026-06-05T21:26:07.918060+05:30"},{"city":"Ajmer","state":"Rajasthan","latitude":26.4499,"longitude":74.6399,"temp":30.8,"humidity":53,"rain":0.0,"pressure":949.8,"uv_index":8.35,"wind_gusts":47.9,"aqi":88,"pm10":100.4,"pm2_5":40.0,"no2":11.8,"co":462.0,"o3":65.0,"so2":3.9,"mosquito_risk":0,"arthritis_risk":5,"migraine_risk":7,"frizz_risk":1,"updated_at":"2026-06-05T21:26:07.918067+05:30"},{"city":"Gwalior","state":"Madhya Pradesh","latitude":26.2183,"longitude":78.1828,"temp":30.1,"humidity":56,"rain":0.0,"pressure":978.3,"uv_index":8.35,"wind_gusts":41.4,"aqi":79,"pm10":80.8,"pm2_5":32.9,"no2":14.8,"co":229.0,"o3":76.0,"so2":5.7,"mosquito_risk":0,"arthritis_risk":5,"migraine_risk":7,"frizz_risk":1,"updated_at":"2026-06-05T21:26:07.918074+05:30"},{"city":"Indore","state":"Madhya Pradesh","latitude":22.7196,"longitude":75.8577,"temp":29.7,"humidity":55,"rain":0.0,"pressure":944.1,"uv_index":8.65,"wind_gusts":45.7,"aqi":92,"pm10":54.5,"pm2_5":33.1,"no2":9.8,"co":724.0,"o3":73.0,"so2":5.7,"mosquito_risk":4,"arthritis_risk":5,"migraine_risk":7,"frizz_risk":1,"updated_at":"2026-06-05T21:26:07.918081+05:30"},{"city":"Bhopal","state":"Madhya Pradesh","latitude":23.2599,"longitude":77.4126,"temp":28.6,"humidity":64,"rain":0.0,"pressure":949.5,"uv_index":8.7,"wind_gusts":45.4,"aqi":92,"pm10":52.7,"pm2_5":32.2,"no2":8.7,"co":250.0,"o3":70.0,"so2":3.7,"mosquito_risk":7,"arthritis_risk":5,"migraine_risk":7,"frizz_risk":1,"updated_at":"2026-06-05T21:26:07.918087+05:30"},{"city":"Jabalpur","state":"Madhya Pradesh","latitude":23.1815,"longitude":79.9864,"temp":28.1,"humidity":67,"rain":0.0,"pressure":956.8,"uv_index":8.9,"wind_gusts":33.5,"aqi":87,"pm10":88.2,"pm2_5":33.5,"no2":5.2,"co":213.0,"o3":80.0,"so2":2.4,"mosquito_risk":7,"arthritis_risk":5,"migraine_risk":7,"frizz_risk":1,"updated_at":"2026-06-05T21:26:07.918094+05:30"},{"city":"Ujjain","state":"Madhya Pradesh","latitude":23.1765,"longitude":75.7885,"temp":29.4,"humidity":57,"rain":0.0,"pressure":949.7,"uv_index":8.6,"wind_gusts":44.3,"aqi":89,"pm10":51.2,"pm2_5":31.8,"no2":4.6,"co":330.0,"o3":81.0,"so2":5.0,"mosquito_risk":4,"arthritis_risk":5,"migraine_risk":7,"frizz_risk":1,"updated_at":"2026-06-05T21:26:07.918102+05:30"},{"city":"Visakhapatnam","state":"Andhra Pradesh","latitude":17.6868,"longitude":83.2185,"temp":31.8,"humidity":74,"rain":0.0,"pressure":998.0,"uv_index":8.7,"wind_gusts":42.1,"aqi":122,"pm10":44.7,"pm2_5":39.6,"no2":34.8,"co":1519.0,"o3":83.0,"so2":37.7,"mosquito_risk":3,"arthritis_risk":5,"migraine_risk":7,"frizz_risk":1,"updated_at":"2026-06-05T21:26:07.918108+05:30"},{"city":"Vijayawada","state":"Andhra Pradesh","latitude":16.5062,"longitude":80.648,"temp":32.6,"humidity":57,"rain":0.0,"pressure":998.0,"uv_index":8.95,"wind_gusts":47.2,"aqi":62,"pm10":36.2,"pm2_5":33.3,"no2":22.9,"co":467.0,"o3":56.0,"so2":7.3,"mosquito_risk":0,"arthritis_risk":5,"migraine_risk":7,"frizz_risk":1,"updated_at":"2026-06-05T21:26:07.918116+05:30"},{"city":"Guntur","state":"Andhra Pradesh","latitude":16.3067,"longitude":80.4365,"temp":31.2,"humidity":63,"rain":0.0,"pressure":999.5,"uv_index":9.0,"wind_gusts":45.7,"aqi":58,"pm10":32.2,"pm2_5":28.4,"no2":20.1,"co":461.0,"o3":62.0,"so2":6.3,"mosquito_risk":3,"arthritis_risk":5,"migraine_risk":7,"frizz_risk":1,"updated_at":"2026-06-05T21:26:07.918123+05:30"},{"city":"Nellore","state":"Andhra Pradesh","latitude":14.4426,"longitude":79.9865,"temp":28.7,"humidity":79,"rain":0.0,"pressure":1003.0,"uv_index":8.55,"wind_gusts":44.6,"aqi":48,"pm10":8.7,"pm2_5":6.5,"no2":5.2,"co":173.0,"o3":66.0,"so2":1.8,"mosquito_risk":7,"arthritis_risk":5,"migraine_risk":4,"frizz_risk":1,"updated_at":"2026-06-05T21:26:07.918131+05:30"},{"city":"Kurnool","state":"Andhra Pradesh","latitude":15.8281,"longitude":78.0373,"temp":29.5,"humidity":64,"rain":0.0,"pressure":974.5,"uv_index":9.0,"wind_gusts":41.0,"aqi":48,"pm10":17.6,"pm2_5":12.4,"no2":6.8,"co":205.0,"o3":93.0,"so2":5.7,"mosquito_risk":7,"arthritis_risk":5,"migraine_risk":7,"frizz_risk":1,"updated_at":"2026-06-05T21:26:07.918138+05:30"},{"city":"Kakinada","state":"Andhra Pradesh","latitude":16.9891,"longitude":82.2475,"temp":31.9,"humidity":63,"rain":0.0,"pressure":1001.9,"uv_index":9.05,"wind_gusts":46.4,"aqi":114,"pm10":24.3,"pm2_5":20.1,"no2":5.7,"co":366.0,"o3":115.0,"so2":5.0,"mosquito_risk":3,"arthritis_risk":5,"migraine_risk":4,"frizz_risk":1,"updated_at":"2026-06-05T21:26:07.918145+05:30"},{"city":"Tirupati","state":"Andhra Pradesh","latitude":13.6288,"longitude":79.4192,"temp":29.5,"humidity":65,"rain":0.0,"pressure":988.7,"uv_index":8.5,"wind_gusts":43.9,"aqi":52,"pm10":12.6,"pm2_5":10.7,"no2":15.7,"co":503.0,"o3":39.0,"so2":2.1,"mosquito_risk":7,"arthritis_risk":5,"migraine_risk":7,"frizz_risk":1,"updated_at":"2026-06-05T21:26:07.918152+05:30"},{"city":"Warangal","state":"Telangana","latitude":17.9689,"longitude":79.5941,"temp":31.9,"humidity":57,"rain":0.0,"pressure":974.5,"uv_index":7.6,"wind_gusts":31.3,"aqi":86,"pm10":93.8,"pm2_5":65.0,"no2":31.4,"co":352.0,"o3":54.0,"so2":10.0,"mosquito_risk":0,"arthritis_risk":5,"migraine_risk":7,"frizz_risk":1,"updated_at":"2026-06-05T21:26:07.918159+05:30"},{"city":"Nizamabad","state":"Telangana","latitude":18.6725,"longitude":78.0941,"temp":30.8,"humidity":55,"rain":0.0,"pressure":960.9,"uv_index":8.7,"wind_gusts":37.1,"aqi":86,"pm10":85.2,"pm2_5":46.9,"no2":15.1,"co":337.0,"o3":80.0,"so2":6.0,"mosquito_risk":0,"arthritis_risk":5,"migraine_risk":7,"frizz_risk":1,"updated_at":"2026-06-05T21:26:07.918165+05:30"},{"city":"Mysore","state":"Karnataka","latitude":12.2958,"longitude":76.6396,"temp":22.3,"humidity":91,"rain":0.0,"pressure":927.4,"uv_index":8.3,"wind_gusts":62.6,"aqi":28,"pm10":3.2,"pm2_5":2.8,"no2":6.8,"co":172.0,"o3":42.0,"so2":1.8,"mosquito_risk":3,"arthritis_risk":5,"migraine_risk":7,"frizz_risk":1,"updated_at":"2026-06-05T21:26:07.918173+05:30"},{"city":"Mangalore","state":"Karnataka","latitude":12.9141,"longitude":74.856,"temp":25.2,"humidity":95,"rain":0.2,"pressure":1006.2,"uv_index":2.1,"wind_gusts":33.5,"aqi":26,"pm10":8.1,"pm2_5":5.9,"no2":5.6,"co":298.0,"o3":47.0,"so2":1.7,"mosquito_risk":10,"arthritis_risk":5,"migraine_risk":0,"frizz_risk":1,"updated_at":"2026-06-05T21:26:07.918180+05:30"},{"city":"Hubli-Dharwad","state":"Karnataka","latitude":15.3647,"longitude":75.124,"temp":23.8,"humidity":89,"rain":0.0,"pressure":939.0,"uv_index":8.4,"wind_gusts":42.5,"aqi":30,"pm10":3.2,"pm2_5":2.7,"no2":6.6,"co":144.0,"o3":45.0,"so2":1.0,"mosquito_risk":3,"arthritis_risk":5,"migraine_risk":7,"frizz_risk":1,"updated_at":"2026-06-05T21:26:07.918187+05:30"},{"city":"Belgaum","state":"Karnataka","latitude":15.8497,"longitude":74.4977,"temp":23.2,"humidity":91,"rain":0.0,"pressure":923.7,"uv_index":8.85,"wind_gusts":36.0,"aqi":33,"pm10":6.2,"pm2_5":5.0,"no2":7.3,"co":145.0,"o3":49.0,"so2":2.3,"mosquito_risk":3,"arthritis_risk":5,"migraine_risk":7,"frizz_risk":1,"updated_at":"2026-06-05T21:26:11.156315+05:30"},{"city":"Coimbatore","state":"Tamil Nadu","latitude":11.0168,"longitude":76.9558,"temp":24.1,"humidity":91,"rain":0.0,"pressure":960.7,"uv_index":6.45,"wind_gusts":56.5,"aqi":23,"pm10":4.1,"pm2_5":3.6,"no2":7.6,"co":215.0,"o3":34.0,"so2":2.4,"mosquito_risk":3,"arthritis_risk":5,"migraine_risk":7,"frizz_risk":1,"updated_at":"2026-06-05T21:26:11.156346+05:30"},{"city":"Madurai","state":"Tamil Nadu","latitude":9.9252,"longitude":78.1198,"temp":29.8,"humidity":55,"rain":0.0,"pressure":991.7,"uv_index":8.25,"wind_gusts":62.3,"aqi":32,"pm10":4.5,"pm2_5":3.7,"no2":7.3,"co":144.0,"o3":38.0,"so2":2.6,"mosquito_risk":4,"arthritis_risk":5,"migraine_risk":7,"frizz_risk":1,"updated_at":"2026-06-05T21:26:11.156358+05:30"},{"city":"Trichy","state":"Tamil Nadu","latitude":10.7905,"longitude":78.7047,"temp":30.5,"humidity":51,"rain":0.0,"pressure":998.2,"uv_index":8.35,"wind_gusts":62.3,"aqi":32,"pm10":7.4,"pm2_5":6.0,"no2":9.4,"co":142.0,"o3":35.0,"so2":3.1,"mosquito_risk":0,"arthritis_risk":5,"migraine_risk":7,"frizz_risk":1,"updated_at":"2026-06-05T21:26:11.156366+05:30"},{"city":"Salem","state":"Tamil Nadu","latitude":11.6643,"longitude":78.146,"temp":28.9,"humidity":58,"rain":0.0,"pressure":976.1,"uv_index":7.85,"wind_gusts":39.2,"aqi":36,"pm10":10.0,"pm2_5":9.1,"no2":16.6,"co":222.0,"o3":41.0,"so2":5.3,"mosquito_risk":4,"arthritis_risk":5,"migraine_risk":7,"frizz_risk":1,"updated_at":"2026-06-05T21:26:11.156375+05:30"},{"city":"Tirunelveli","state":"Tamil Nadu","latitude":8.7139,"longitude":77.7567,"temp":30.2,"humidity":59,"rain":0.0,"pressure":1003.0,"uv_index":8.5,"wind_gusts":42.8,"aqi":21,"pm10":5.3,"pm2_5":4.5,"no2":9.0,"co":124.0,"o3":30.0,"so2":1.6,"mosquito_risk":0,"arthritis_risk":5,"migraine_risk":4,"frizz_risk":1,"updated_at":"2026-06-05T21:26:11.156383+05:30"},{"city":"Vellore","state":"Tamil Nadu","latitude":12.9165,"longitude":79.1325,"temp":30.9,"humidity":54,"rain":0.0,"pressure":982.3,"uv_index":8.5,"wind_gusts":60.1,"aqi":37,"pm10":18.1,"pm2_5":16.8,"no2":21.4,"co":152.0,"o3":32.0,"so2":4.9,"mosquito_risk":0,"arthritis_risk":5,"migraine_risk":7,"frizz_risk":1,"updated_at":"2026-06-05T21:26:11.156391+05:30"},{"city":"Erode","state":"Tamil Nadu","latitude":11.341,"longitude":77.7172,"temp":27.4,"humidity":72,"rain":0.0,"pressure":987.7,"uv_index":8.6,"wind_gusts":54.7,"aqi":30,"pm10":5.4,"pm2_5":5.0,"no2":10.6,"co":206.0,"o3":37.0,"so2":2.9,"mosquito_risk":7,"arthritis_risk":5,"migraine_risk":7,"frizz_risk":1,"updated_at":"2026-06-05T21:26:11.156399+05:30"},{"city":"Kochi","state":"Kerala","latitude":9.9312,"longitude":76.2673,"temp":25.7,"humidity":94,"rain":0.2,"pressure":1009.7,"uv_index":3.6,"wind_gusts":25.2,"aqi":39,"pm10":20.7,"pm2_5":16.5,"no2":26.1,"co":343.0,"o3":9.0,"so2":5.1,"mosquito_risk":10,"arthritis_risk":0,"migraine_risk":0,"frizz_risk":1,"updated_at":"2026-06-05T21:26:11.156407+05:30"},{"city":"Thiruvananthapuram","state":"Kerala","latitude":8.5241,"longitude":76.9366,"temp":24.6,"humidity":97,"rain":0.3,"pressure":1009.7,"uv_index":4.7,"wind_gusts":48.2,"aqi":25,"pm10":14.0,"pm2_5":6.8,"no2":1.8,"co":127.0,"o3":46.0,"so2":0.5,"mosquito_risk":6,"arthritis_risk":0,"migraine_risk":0,"frizz_risk":1,"updated_at":"2026-06-05T21:26:11.156415+05:30"},{"city":"Kozhikode","state":"Kerala","latitude":11.2588,"longitude":75.7804,"temp":24.9,"humidity":97,"rain":0.0,"pressure":1008.1,"uv_index":8.45,"wind_gusts":27.0,"aqi":24,"pm10":15.0,"pm2_5":6.8,"no2":1.3,"co":472.0,"o3":50.0,"so2":0.6,"mosquito_risk":3,"arthritis_risk":0,"migraine_risk":4,"frizz_risk":1,"updated_at":"2026-06-05T21:26:11.156422+05:30"},{"city":"Thrissur","state":"Kerala","latitude":10.5276,"longitude":76.2144,"temp":25.0,"humidity":99,"rain":0.1,"pressure":1007.7,"uv_index":7.35,"wind_gusts":27.0,"aqi":34,"pm10":19.6,"pm2_5":15.2,"no2":17.0,"co":405.0,"o3":20.0,"so2":3.5,"mosquito_risk":10,"arthritis_risk":5,"migraine_risk":4,"frizz_risk":1,"updated_at":"2026-06-05T21:26:11.156431+05:30"},{"city":"Kannur","state":"Kerala","latitude":11.8745,"longitude":75.3704,"temp":24.8,"humidity":98,"rain":0.1,"pressure":1007.1,"uv_index":5.7,"wind_gusts":41.0,"aqi":25,"pm10":14.3,"pm2_5":9.1,"no2":10.5,"co":406.0,"o3":38.0,"so2":2.0,"mosquito_risk":6,"arthritis_risk":5,"migraine_risk":0,"frizz_risk":1,"updated_at":"2026-06-05T21:26:11.156438+05:30"},{"city":"Patna","state":"Bihar","latitude":25.5941,"longitude":85.1376,"temp":31.1,"humidity":79,"rain":0.0,"pressure":994.6,"uv_index":8.9,"wind_gusts":37.4,"aqi":171,"pm10":141.6,"pm2_5":116.4,"no2":59.6,"co":452.0,"o3":61.0,"so2":26.1,"mosquito_risk":3,"arthritis_risk":5,"migraine_risk":7,"frizz_risk":1,"updated_at":"2026-06-05T21:26:11.156445+05:30"},{"city":"Gaya","state":"Bihar","latitude":24.7914,"longitude":85.0002,"temp":30.8,"humidity":67,"rain":0.0,"pressure":988.1,"uv_index":8.95,"wind_gusts":59.0,"aqi":162,"pm10":106.9,"pm2_5":86.8,"no2":36.8,"co":704.0,"o3":78.0,"so2":18.0,"mosquito_risk":3,"arthritis_risk":5,"migraine_risk":7,"frizz_risk":1,"updated_at":"2026-06-05T21:26:11.156453+05:30"},{"city":"Muzaffarpur","state":"Bihar","latitude":26.1209,"longitude":85.3647,"temp":30.5,"humidity":76,"rain":0.0,"pressure":994.9,"uv_index":8.85,"wind_gusts":36.0,"aqi":172,"pm10":125.3,"pm2_5":108.0,"no2":36.2,"co":825.0,"o3":95.0,"so2":20.9,"mosquito_risk":3,"arthritis_risk":5,"migraine_risk":7,"frizz_risk":1,"updated_at":"2026-06-05T21:26:11.156461+05:30"},{"city":"Bhagalpur","state":"Bihar","latitude":25.2425,"longitude":87.0117,"temp":27.4,"humidity":94,"rain":0.0,"pressure":996.9,"uv_index":8.85,"wind_gusts":35.3,"aqi":204,"pm10":75.7,"pm2_5":70.3,"no2":17.5,"co":471.0,"o3":122.0,"so2":17.1,"mosquito_risk":7,"arthritis_risk":5,"migraine_risk":7,"frizz_risk":1,"updated_at":"2026-06-05T21:26:11.156469+05:30"},{"city":"Ranchi","state":"Jharkhand","latitude":23.3441,"longitude":85.3096,"temp":25.0,"humidity":84,"rain":0.0,"pressure":933.6,"uv_index":9.2,"wind_gusts":36.0,"aqi":111,"pm10":54.4,"pm2_5":44.0,"no2":11.3,"co":440.0,"o3":98.0,"so2":5.7,"mosquito_risk":7,"arthritis_risk":5,"migraine_risk":7,"frizz_risk":1,"updated_at":"2026-06-05T21:26:11.156476+05:30"},{"city":"Jamshedpur","state":"Jharkhand","latitude":22.8046,"longitude":86.2029,"temp":28.8,"humidity":84,"rain":0.0,"pressure":986.3,"uv_index":8.95,"wind_gusts":29.9,"aqi":163,"pm10":74.3,"pm2_5":61.9,"no2":20.5,"co":470.0,"o3":122.0,"so2":18.9,"mosquito_risk":7,"arthritis_risk":5,"migraine_risk":7,"frizz_risk":1,"updated_at":"2026-06-05T21:26:11.156484+05:30"},{"city":"Dhanbad","state":"Jharkhand","latitude":23.7957,"longitude":86.4304,"temp":27.5,"humidity":84,"rain":0.0,"pressure":975.5,"uv_index":9.05,"wind_gusts":50.0,"aqi":165,"pm10":101.0,"pm2_5":90.6,"no2":58.3,"co":831.0,"o3":73.0,"so2":147.6,"mosquito_risk":7,"arthritis_risk":5,"migraine_risk":7,"frizz_risk":1,"updated_at":"2026-06-05T21:26:11.156491+05:30"},{"city":"Bokaro","state":"Jharkhand","latitude":23.6693,"longitude":86.1511,"temp":27.2,"humidity":95,"rain":0.0,"pressure":979.2,"uv_index":9.1,"wind_gusts":43.9,"aqi":161,"pm10":85.7,"pm2_5":71.2,"no2":46.2,"co":413.0,"o3":86.0,"so2":114.0,"mosquito_risk":7,"arthritis_risk":5,"migraine_risk":7,"frizz_risk":1,"updated_at":"2026-06-05T21:26:11.156499+05:30"},{"city":"Bhubaneswar","state":"Odisha","latitude":20.2961,"longitude":85.8245,"temp":30.7,"humidity":84,"rain":0.0,"pressure":997.4,"uv_index":9.05,"wind_gusts":23.8,"aqi":151,"pm10":41.3,"pm2_5":37.8,"no2":11.4,"co":550.0,"o3":123.0,"so2":8.1,"mosquito_risk":3,"arthritis_risk":5,"migraine_risk":7,"frizz_risk":1,"updated_at":"2026-06-05T21:26:11.156507+05:30"},{"city":"Cuttack","state":"Odisha","latitude":20.4625,"longitude":85.8828,"temp":30.4,"humidity":84,"rain":0.0,"pressure":999.2,"uv_index":9.1,"wind_gusts":25.2,"aqi":151,"pm10":41.3,"pm2_5":37.8,"no2":11.4,"co":496.0,"o3":123.0,"so2":8.1,"mosquito_risk":3,"arthritis_risk":5,"migraine_risk":7,"frizz_risk":1,"updated_at":"2026-06-05T21:26:11.156514+05:30"},{"city":"Rourkela","state":"Odisha","latitude":22.2604,"longitude":84.8536,"temp":27.1,"humidity":95,"rain":0.1,"pressure":980.7,"uv_index":9.0,"wind_gusts":34.2,"aqi":163,"pm10":86.6,"pm2_5":68.5,"no2":24.0,"co":374.0,"o3":106.0,"so2":15.9,"mosquito_risk":10,"arthritis_risk":5,"migraine_risk":7,"frizz_risk":1,"updated_at":"2026-06-05T21:26:11.156522+05:30"},{"city":"Raipur","state":"Chhattisgarh","latitude":21.2514,"longitude":81.6296,"temp":34.3,"humidity":37,"rain":0.0,"pressure":969.7,"uv_index":9.0,"wind_gusts":34.9,"aqi":110,"pm10":58.1,"pm2_5":44.1,"no2":40.1,"co":475.0,"o3":58.0,"so2":63.3,"mosquito_risk":0,"arthritis_risk":5,"migraine_risk":7,"frizz_risk":1,"updated_at":"2026-06-05T21:26:11.156529+05:30"},{"city":"Bhilai","state":"Chhattisgarh","latitude":21.1938,"longitude":81.3509,"temp":33.4,"humidity":41,"rain":0.0,"pressure":970.2,"uv_index":9.0,"wind_gusts":34.9,"aqi":107,"pm10":65.2,"pm2_5":47.0,"no2":37.3,"co":1093.0,"o3":51.0,"so2":46.4,"mosquito_risk":0,"arthritis_risk":5,"migraine_risk":7,"frizz_risk":1,"updated_at":"2026-06-05T21:26:11.156537+05:30"},{"city":"Guwahati","state":"Assam","latitude":26.1158,"longitude":91.7086,"temp":26.6,"humidity":93,"rain":0.0,"pressure":997.6,"uv_index":8.8,"wind_gusts":28.1,"aqi":99,"pm10":45.8,"pm2_5":43.2,"no2":14.8,"co":729.0,"o3":54.0,"so2":3.7,"mosquito_risk":7,"arthritis_risk":5,"migraine_risk":7,"frizz_risk":1,"updated_at":"2026-06-05T21:26:11.156544+05:30"},{"city":"Agartala","state":"Tripura","latitude":23.8315,"longitude":91.2868,"temp":27.9,"humidity":89,"rain":0.0,"pressure":1001.8,"uv_index":8.9,"wind_gusts":36.0,"aqi":105,"pm10":85.0,"pm2_5":80.6,"no2":58.1,"co":585.0,"o3":33.0,"so2":8.5,"mosquito_risk":7,"arthritis_risk":5,"migraine_risk":4,"frizz_risk":1,"updated_at":"2026-06-05T21:26:11.156552+05:30"},{"city":"Shillong","state":"Meghalaya","latitude":25.5788,"longitude":91.8933,"temp":19.2,"humidity":97,"rain":0.0,"pressure":854.5,"uv_index":8.45,"wind_gusts":23.4,"aqi":75,"pm10":27.6,"pm2_5":26.1,"no2":12.1,"co":678.0,"o3":63.0,"so2":2.2,"mosquito_risk":3,"arthritis_risk":10,"migraine_risk":7,"frizz_risk":1,"updated_at":"2026-06-05T21:26:11.156560+05:30"},{"city":"Imphal","state":"Manipur","latitude":24.817,"longitude":93.9368,"temp":23.9,"humidity":89,"rain":0.0,"pressure":920.0,"uv_index":8.75,"wind_gusts":27.4,"aqi":124,"pm10":57.7,"pm2_5":52.7,"no2":26.2,"co":952.0,"o3":53.0,"so2":6.3,"mosquito_risk":3,"arthritis_risk":5,"migraine_risk":7,"frizz_risk":1,"updated_at":"2026-06-05T21:26:11.156568+05:30"},{"city":"Aizawl","state":"Mizoram","latitude":23.7271,"longitude":92.7176,"temp":21.3,"humidity":93,"rain":0.0,"pressure":889.4,"uv_index":9.1,"wind_gusts":22.3,"aqi":105,"pm10":38.9,"pm2_5":34.8,"no2":14.9,"co":393.0,"o3":34.0,"so2":2.4,"mosquito_risk":3,"arthritis_risk":5,"migraine_risk":7,"frizz_risk":1,"updated_at":"2026-06-05T21:26:11.156575+05:30"},{"city":"Kohima","state":"Nagaland","latitude":25.6701,"longitude":94.1077,"temp":18.6,"humidity":95,"rain":0.0,"pressure":852.4,"uv_index":8.95,"wind_gusts":23.8,"aqi":64,"pm10":22.9,"pm2_5":21.0,"no2":13.8,"co":508.0,"o3":53.0,"so2":1.8,"mosquito_risk":3,"arthritis_risk":10,"migraine_risk":7,"frizz_risk":1,"updated_at":"2026-06-05T21:26:11.156583+05:30"},{"city":"Gangtok","state":"Sikkim","latitude":27.3314,"longitude":88.6138,"temp":17.8,"humidity":97,"rain":0.7,"pressure":835.6,"uv_index":9.2,"wind_gusts":38.2,"aqi":98,"pm10":22.2,"pm2_5":20.1,"no2":12.6,"co":447.0,"o3":114.0,"so2":3.2,"mosquito_risk":6,"arthritis_risk":10,"migraine_risk":7,"frizz_risk":1,"updated_at":"2026-06-05T21:26:11.156590+05:30"},{"city":"Siliguri","state":"West Bengal","latitude":26.7271,"longitude":88.3953,"temp":24.7,"humidity":96,"rain":0.0,"pressure":989.2,"uv_index":8.8,"wind_gusts":24.5,"aqi":127,"pm10":71.2,"pm2_5":63.6,"no2":17.3,"co":806.0,"o3":112.0,"so2":7.9,"mosquito_risk":3,"arthritis_risk":5,"migraine_risk":7,"frizz_risk":1,"updated_at":"2026-06-05T21:26:14.458235+05:30"},{"city":"Durgapur","state":"West Bengal","latitude":23.5204,"longitude":87.3119,"temp":27.4,"humidity":95,"rain":0.0,"pressure":990.4,"uv_index":8.95,"wind_gusts":40.0,"aqi":205,"pm10":79.4,"pm2_5":75.9,"no2":26.4,"co":882.0,"o3":116.0,"so2":40.4,"mosquito_risk":7,"arthritis_risk":5,"migraine_risk":7,"frizz_risk":1,"updated_at":"2026-06-05T21:26:14.458270+05:30"},{"city":"Asansol","state":"West Bengal","latitude":23.6739,"longitude":86.9524,"temp":27.3,"humidity":93,"rain":0.0,"pressure":988.9,"uv_index":9.0,"wind_gusts":55.4,"aqi":202,"pm10":80.1,"pm2_5":76.1,"no2":29.5,"co":599.0,"o3":115.0,"so2":51.9,"mosquito_risk":7,"arthritis_risk":5,"migraine_risk":7,"frizz_risk":1,"updated_at":"2026-06-05T21:26:14.458283+05:30"},{"city":"Pondicherry","state":"Puducherry","latitude":11.9139,"longitude":79.8145,"temp":31.7,"humidity":64,"rain":0.0,"pressure":1005.7,"uv_index":8.4,"wind_gusts":45.0,"aqi":76,"pm10":9.1,"pm2_5":8.4,"no2":9.6,"co":407.0,"o3":77.0,"so2":3.7,"mosquito_risk":3,"arthritis_risk":5,"migraine_risk":4,"frizz_risk":1,"updated_at":"2026-06-05T21:26:14.458294+05:30"},{"city":"Port Blair","state":"Andaman and Nicobar Islands","latitude":11.6234,"longitude":92.7265,"temp":25.9,"humidity":97,"rain":0.0,"pressure":1006.3,"uv_index":1.85,"wind_gusts":47.2,"aqi":27,"pm10":8.1,"pm2_5":5.1,"no2":0.4,"co":102.0,"o3":54.0,"so2":0.4,"mosquito_risk":7,"arthritis_risk":5,"migraine_risk":0,"frizz_risk":1,"updated_at":"2026-06-05T21:26:14.458304+05:30"},{"city":"Haridwar","state":"Uttarakhand","latitude":29.9457,"longitude":78.1642,"temp":25.5,"humidity":81,"rain":0.0,"pressure":969.1,"uv_index":6.75,"wind_gusts":33.1,"aqi":164,"pm10":118.3,"pm2_5":59.1,"no2":16.5,"co":491.0,"o3":137.0,"so2":9.9,"mosquito_risk":7,"arthritis_risk":5,"migraine_risk":7,"frizz_risk":1,"updated_at":"2026-06-05T21:26:14.458314+05:30"},{"city":"Rishikesh","state":"Uttarakhand","latitude":30.0869,"longitude":78.2676,"temp":24.3,"humidity":80,"rain":0.0,"pressure":961.9,"uv_index":6.85,"wind_gusts":33.1,"aqi":150,"pm10":104.1,"pm2_5":46.9,"no2":11.7,"co":455.0,"o3":150.0,"so2":6.7,"mosquito_risk":3,"arthritis_risk":5,"migraine_risk":7,"frizz_risk":1,"updated_at":"2026-06-05T21:26:14.458324+05:30"},{"city":"Nainital","state":"Uttarakhand","latitude":29.3919,"longitude":79.4542,"temp":15.4,"humidity":93,"rain":0.0,"pressure":801.7,"uv_index":5.05,"wind_gusts":27.0,"aqi":97,"pm10":48.5,"pm2_5":34.1,"no2":14.1,"co":373.0,"o3":105.0,"so2":7.7,"mosquito_risk":3,"arthritis_risk":10,"migraine_risk":3,"frizz_risk":0,"updated_at":"2026-06-05T21:26:14.458334+05:30"},{"city":"Mussoorie","state":"Uttarakhand","latitude":30.4599,"longitude":78.0664,"temp":14.1,"humidity":86,"rain":0.0,"pressure":798.6,"uv_index":4.55,"wind_gusts":26.3,"aqi":148,"pm10":82.0,"pm2_5":42.3,"no2":26.4,"co":361.0,"o3":116.0,"so2":9.1,"mosquito_risk":3,"arthritis_risk":10,"migraine_risk":3,"frizz_risk":0,"updated_at":"2026-06-05T21:26:14.458344+05:30"},{"city":"Dharamshala","state":"Himachal Pradesh","latitude":32.219,"longitude":76.3234,"temp":20.0,"humidity":67,"rain":0.0,"pressure":865.3,"uv_index":8.45,"wind_gusts":38.2,"aqi":108,"pm10":28.2,"pm2_5":20.0,"no2":13.2,"co":285.0,"o3":87.0,"so2":1.6,"mosquito_risk":3,"arthritis_risk":5,"migraine_risk":7,"frizz_risk":0,"updated_at":"2026-06-05T21:26:14.458353+05:30"},{"city":"Dalhousie","state":"Himachal Pradesh","latitude":32.5387,"longitude":75.971,"temp":12.3,"humidity":99,"rain":0.0,"pressure":799.2,"uv_index":7.0,"wind_gusts":34.9,"aqi":131,"pm10":44.4,"pm2_5":27.8,"no2":24.4,"co":564.0,"o3":116.0,"so2":3.2,"mosquito_risk":3,"arthritis_risk":10,"migraine_risk":7,"frizz_risk":0,"updated_at":"2026-06-05T21:26:14.458363+05:30"},{"city":"Patiala","state":"Punjab","latitude":30.3398,"longitude":76.3869,"temp":29.8,"humidity":59,"rain":0.0,"pressure":972.7,"uv_index":7.7,"wind_gusts":29.2,"aqi":152,"pm10":151.3,"pm2_5":69.4,"no2":27.8,"co":569.0,"o3":88.0,"so2":11.4,"mosquito_risk":4,"arthritis_risk":5,"migraine_risk":7,"frizz_risk":1,"updated_at":"2026-06-05T21:26:14.458372+05:30"},{"city":"Bhatinda","state":"Punjab","latitude":30.211,"longitude":74.9455,"temp":32.3,"humidity":43,"rain":0.0,"pressure":977.5,"uv_index":8.3,"wind_gusts":22.7,"aqi":158,"pm10":102.2,"pm2_5":55.8,"no2":30.1,"co":350.0,"o3":92.0,"so2":12.6,"mosquito_risk":0,"arthritis_risk":5,"migraine_risk":7,"frizz_risk":1,"updated_at":"2026-06-05T21:26:14.458381+05:30"},{"city":"Rohtak","state":"Haryana","latitude":28.8955,"longitude":76.6066,"temp":29.6,"humidity":61,"rain":0.0,"pressure":976.3,"uv_index":7.7,"wind_gusts":27.0,"aqi":236,"pm10":212.8,"pm2_5":79.9,"no2":73.5,"co":864.0,"o3":25.0,"so2":15.4,"mosquito_risk":7,"arthritis_risk":5,"migraine_risk":7,"frizz_risk":1,"updated_at":"2026-06-05T21:26:14.458390+05:30"},{"city":"Panipat","state":"Haryana","latitude":29.3909,"longitude":76.9635,"temp":27.8,"humidity":76,"rain":0.0,"pressure":975.0,"uv_index":7.55,"wind_gusts":29.9,"aqi":466,"pm10":333.4,"pm2_5":105.9,"no2":51.1,"co":559.0,"o3":43.0,"so2":15.3,"mosquito_risk":7,"arthritis_risk":5,"migraine_risk":7,"frizz_risk":1,"updated_at":"2026-06-05T21:26:14.458399+05:30"},{"city":"Mathura","state":"Uttar Pradesh","latitude":27.4924,"longitude":77.6737,"temp":28.9,"humidity":67,"rain":0.0,"pressure":981.4,"uv_index":7.65,"wind_gusts":29.2,"aqi":343,"pm10":329.7,"pm2_5":90.8,"no2":66.4,"co":480.0,"o3":46.0,"so2":13.0,"mosquito_risk":7,"arthritis_risk":5,"migraine_risk":7,"frizz_risk":1,"updated_at":"2026-06-05T21:26:14.458408+05:30"},{"city":"Vrindavan","state":"Uttar Pradesh","latitude":27.5823,"longitude":77.7027,"temp":29.0,"humidity":65,"rain":0.0,"pressure":981.8,"uv_index":7.8,"wind_gusts":28.1,"aqi":343,"pm10":329.7,"pm2_5":90.8,"no2":66.4,"co":527.0,"o3":46.0,"so2":13.0,"mosquito_risk":7,"arthritis_risk":5,"migraine_risk":7,"frizz_risk":1,"updated_at":"2026-06-05T21:26:14.458417+05:30"},{"city":"Ayodhya","state":"Uttar Pradesh","latitude":26.7922,"longitude":82.1998,"temp":30.7,"humidity":65,"rain":0.0,"pressure":989.1,"uv_index":8.45,"wind_gusts":29.5,"aqi":160,"pm10":68.9,"pm2_5":47.5,"no2":11.3,"co":539.0,"o3":110.0,"so2":7.1,"mosquito_risk":3,"arthritis_risk":5,"migraine_risk":7,"frizz_risk":1,"updated_at":"2026-06-05T21:26:14.458426+05:30"},{"city":"Ratlam","state":"Madhya Pradesh","latitude":23.3315,"longitude":75.0367,"temp":29.1,"humidity":61,"rain":0.0,"pressure":950.3,"uv_index":8.45,"wind_gusts":41.0,"aqi":86,"pm10":51.9,"pm2_5":31.4,"no2":3.1,"co":222.0,"o3":87.0,"so2":5.2,"mosquito_risk":7,"arthritis_risk":5,"migraine_risk":7,"frizz_risk":1,"updated_at":"2026-06-05T21:26:14.458435+05:30"},{"city":"Sagar","state":"Madhya Pradesh","latitude":23.8388,"longitude":78.7378,"temp":28.7,"humidity":49,"rain":0.0,"pressure":946.1,"uv_index":8.65,"wind_gusts":39.6,"aqi":83,"pm10":49.5,"pm2_5":26.3,"no2":7.4,"co":161.0,"o3":71.0,"so2":2.4,"mosquito_risk":4,"arthritis_risk":5,"migraine_risk":7,"frizz_risk":1,"updated_at":"2026-06-05T21:26:14.458443+05:30"},{"city":"Satna","state":"Madhya Pradesh","latitude":24.6005,"longitude":80.8322,"temp":30.8,"humidity":55,"rain":0.1,"pressure":966.3,"uv_index":8.85,"wind_gusts":37.8,"aqi":105,"pm10":66.6,"pm2_5":35.4,"no2":5.3,"co":202.0,"o3":96.0,"so2":3.3,"mosquito_risk":3,"arthritis_risk":5,"migraine_risk":7,"frizz_risk":1,"updated_at":"2026-06-05T21:26:14.458453+05:30"},{"city":"Akola","state":"Maharashtra","latitude":20.7002,"longitude":77.0082,"temp":31.8,"humidity":51,"rain":0.0,"pressure":970.4,"uv_index":8.8,"wind_gusts":45.7,"aqi":86,"pm10":45.6,"pm2_5":24.6,"no2":9.1,"co":210.0,"o3":79.0,"so2":5.4,"mosquito_risk":0,"arthritis_risk":5,"migraine_risk":7,"frizz_risk":1,"updated_at":"2026-06-05T21:26:14.458463+05:30"},{"city":"Amravati","state":"Maharashtra","latitude":20.9374,"longitude":77.7796,"temp":31.8,"humidity":47,"rain":0.0,"pressure":963.2,"uv_index":8.85,"wind_gusts":51.1,"aqi":92,"pm10":52.2,"pm2_5":28.5,"no2":12.9,"co":238.0,"o3":65.0,"so2":5.9,"mosquito_risk":0,"arthritis_risk":5,"migraine_risk":7,"frizz_risk":1,"updated_at":"2026-06-05T21:26:14.458474+05:30"},{"city":"Latur","state":"Maharashtra","latitude":18.4088,"longitude":76.5604,"temp":30.1,"humidity":58,"rain":0.0,"pressure":936.4,"uv_index":8.95,"wind_gusts":31.7,"aqi":64,"pm10":51.9,"pm2_5":29.4,"no2":13.2,"co":481.0,"o3":64.0,"so2":3.8,"mosquito_risk":0,"arthritis_risk":5,"migraine_risk":7,"frizz_risk":1,"updated_at":"2026-06-05T21:26:14.458483+05:30"},{"city":"Nanded","state":"Maharashtra","latitude":19.1383,"longitude":77.3091,"temp":32.6,"humidity":49,"rain":0.0,"pressure":964.3,"uv_index":8.95,"wind_gusts":31.0,"aqi":87,"pm10":59.0,"pm2_5":34.8,"no2":16.5,"co":306.0,"o3":71.0,"so2":5.2,"mosquito_risk":0,"arthritis_risk":5,"migraine_risk":7,"frizz_risk":1,"updated_at":"2026-06-05T21:26:14.458492+05:30"},{"city":"Gulbarga","state":"Karnataka","latitude":17.3297,"longitude":76.8343,"temp":25.3,"humidity":86,"rain":0.2,"pressure":956.1,"uv_index":7.25,"wind_gusts":32.8,"aqi":57,"pm10":40.9,"pm2_5":25.9,"no2":22.8,"co":285.0,"o3":63.0,"so2":4.9,"mosquito_risk":10,"arthritis_risk":5,"migraine_risk":7,"frizz_risk":1,"updated_at":"2026-06-05T21:26:14.458501+05:30"},{"city":"Bidar","state":"Karnataka","latitude":17.9104,"longitude":77.5199,"temp":29.2,"humidity":62,"rain":0.0,"pressure":932.5,"uv_index":7.3,"wind_gusts":40.0,"aqi":74,"pm10":51.9,"pm2_5":35.6,"no2":16.3,"co":371.0,"o3":78.0,"so2":4.1,"mosquito_risk":7,"arthritis_risk":5,"migraine_risk":7,"frizz_risk":1,"updated_at":"2026-06-05T21:26:14.458509+05:30"},{"city":"Hospet","state":"Karnataka","latitude":15.2689,"longitude":76.3909,"temp":25.3,"humidity":81,"rain":0.0,"pressure":954.0,"uv_index":8.05,"wind_gusts":47.5,"aqi":34,"pm10":5.8,"pm2_5":5.2,"no2":11.0,"co":180.0,"o3":44.0,"so2":1.7,"mosquito_risk":7,"arthritis_risk":5,"migraine_risk":7,"frizz_risk":1,"updated_at":"2026-06-05T21:26:14.458518+05:30"},{"city":"Tirupur","state":"Tamil Nadu","latitude":11.1085,"longitude":77.3411,"temp":25.3,"humidity":83,"rain":0.0,"pressure":973.9,"uv_index":8.55,"wind_gusts":63.7,"aqi":29,"pm10":6.7,"pm2_5":6.1,"no2":11.6,"co":171.0,"o3":35.0,"so2":3.9,"mosquito_risk":7,"arthritis_risk":5,"migraine_risk":7,"frizz_risk":1,"updated_at":"2026-06-05T21:26:14.458527+05:30"},{"city":"Alappuzha","state":"Kerala","latitude":9.4981,"longitude":76.3388,"temp":26.2,"humidity":93,"rain":0.2,"pressure":1010.1,"uv_index":7.25,"wind_gusts":37.1,"aqi":32,"pm10":18.9,"pm2_5":11.1,"no2":9.4,"co":89.0,"o3":34.0,"so2":2.0,"mosquito_risk":10,"arthritis_risk":0,"migraine_risk":4,"frizz_risk":1,"updated_at":"2026-06-05T21:26:14.458536+05:30"},{"city":"Munnar","state":"Kerala","latitude":10.0889,"longitude":77.0595,"temp":16.7,"humidity":95,"rain":0.0,"pressure":856.6,"uv_index":6.4,"wind_gusts":48.2,"aqi":20,"pm10":2.2,"pm2_5":2.1,"no2":7.1,"co":99.0,"o3":32.0,"so2":2.0,"mosquito_risk":3,"arthritis_risk":10,"migraine_risk":7,"frizz_risk":0,"updated_at":"2026-06-05T21:26:14.458545+05:30"},{"city":"Silchar","state":"Assam","latitude":24.8333,"longitude":92.7789,"temp":28.5,"humidity":89,"rain":0.0,"pressure":1000.7,"uv_index":8.7,"wind_gusts":31.0,"aqi":112,"pm10":53.1,"pm2_5":45.1,"no2":12.3,"co":895.0,"o3":99.0,"so2":9.6,"mosquito_risk":7,"arthritis_risk":5,"migraine_risk":4,"frizz_risk":1,"updated_at":"2026-06-05T21:26:14.458554+05:30"},{"city":"Dibrugarh","state":"Assam","latitude":27.4728,"longitude":94.912,"temp":25.7,"humidity":86,"rain":0.0,"pressure":991.8,"uv_index":8.95,"wind_gusts":19.4,"aqi":107,"pm10":48.1,"pm2_5":45.1,"no2":24.6,"co":489.0,"o3":71.0,"so2":5.7,"mosquito_risk":7,"arthritis_risk":5,"migraine_risk":7,"frizz_risk":1,"updated_at":"2026-06-05T21:26:14.458562+05:30"}]