[{"city":"Delhi","state":"Delhi","latitude":28.6139,"longitude":77.209,"temp":39.2,"humidity":20,"rain":0.0,"pressure":976.1,"uv_index":7.7,"wind_gusts":49.0,"aqi":634,"pm10":1005.8,"pm2_5":166.2,"no2":11.4,"co":282.0,"o3":105.0,"so2":11.1,"mosquito_risk":0,"arthritis_risk":5,"migraine_risk":10,"frizz_risk":0,"updated_at":"2026-05-17T18:56:40.652822+05:30"},{"city":"Mumbai","state":"Maharashtra","latitude":19.076,"longitude":72.8777,"temp":30.7,"humidity":74,"rain":0.0,"pressure":1003.4,"uv_index":7.55,"wind_gusts":46.1,"aqi":61,"pm10":46.1,"pm2_5":20.8,"no2":8.1,"co":223.0,"o3":81.0,"so2":5.1,"mosquito_risk":3,"arthritis_risk":5,"migraine_risk":4,"frizz_risk":1,"updated_at":"2026-05-17T18:56:40.652885+05:30"},{"city":"Bangalore","state":"Karnataka","latitude":12.9716,"longitude":77.5946,"temp":30.7,"humidity":38,"rain":0.0,"pressure":908.6,"uv_index":9.45,"wind_gusts":30.2,"aqi":122,"pm10":44.1,"pm2_5":33.6,"no2":21.5,"co":298.0,"o3":108.0,"so2":7.1,"mosquito_risk":0,"arthritis_risk":5,"migraine_risk":7,"frizz_risk":0,"updated_at":"2026-05-17T18:56:40.652902+05:30"},{"city":"Hyderabad","state":"Telangana","latitude":17.385,"longitude":78.4867,"temp":33.3,"humidity":45,"rain":0.0,"pressure":949.4,"uv_index":9.3,"wind_gusts":29.9,"aqi":98,"pm10":38.0,"pm2_5":24.5,"no2":6.6,"co":279.0,"o3":127.0,"so2":6.0,"mosquito_risk":0,"arthritis_risk":5,"migraine_risk":7,"frizz_risk":1,"updated_at":"2026-05-17T18:56:40.652914+05:30"},{"city":"Chennai","state":"Tamil Nadu","latitude":13.0827,"longitude":80.2707,"temp":30.2,"humidity":79,"rain":0.0,"pressure":1002.6,"uv_index":9.15,"wind_gusts":41.8,"aqi":116,"pm10":37.6,"pm2_5":26.4,"no2":4.5,"co":205.0,"o3":135.0,"so2":9.8,"mosquito_risk":3,"arthritis_risk":5,"migraine_risk":4,"frizz_risk":1,"updated_at":"2026-05-17T18:56:40.652926+05:30"},{"city":"Kolkata","state":"West Bengal","latitude":22.5726,"longitude":88.3639,"temp":30.0,"humidity":81,"rain":0.0,"pressure":1000.6,"uv_index":8.95,"wind_gusts":35.3,"aqi":61,"pm10":30.0,"pm2_5":22.2,"no2":7.0,"co":268.0,"o3":73.0,"so2":7.1,"mosquito_risk":7,"arthritis_risk":5,"migraine_risk":4,"frizz_risk":1,"updated_at":"2026-05-17T18:56:40.652936+05:30"},{"city":"Pune","state":"Maharashtra","latitude":18.5204,"longitude":73.8567,"temp":34.9,"humidity":29,"rain":0.0,"pressure":944.1,"uv_index":8.45,"wind_gusts":39.6,"aqi":121,"pm10":28.5,"pm2_5":17.9,"no2":4.0,"co":188.0,"o3":142.0,"so2":9.9,"mosquito_risk":0,"arthritis_risk":5,"migraine_risk":7,"frizz_risk":0,"updated_at":"2026-05-17T18:56:40.652944+05:30"},{"city":"Ahmedabad","state":"Gujarat","latitude":23.0225,"longitude":72.5714,"temp":40.8,"humidity":21,"rain":0.0,"pressure":995.9,"uv_index":8.15,"wind_gusts":29.9,"aqi":61,"pm10":49.2,"pm2_5":18.0,"no2":4.1,"co":201.0,"o3":97.0,"so2":3.9,"mosquito_risk":0,"arthritis_risk":5,"migraine_risk":10,"frizz_risk":0,"updated_at":"2026-05-17T18:56:40.652953+05:30"},{"city":"Jaipur","state":"Rajasthan","latitude":26.9124,"longitude":75.7873,"temp":39.4,"humidity":15,"rain":0.0,"pressure":954.9,"uv_index":8.25,"wind_gusts":41.8,"aqi":124,"pm10":218.9,"pm2_5":41.6,"no2":4.9,"co":181.0,"o3":99.0,"so2":4.0,"mosquito_risk":0,"arthritis_risk":5,"migraine_risk":10,"frizz_risk":0,"updated_at":"2026-05-17T18:56:40.652974+05:30"},{"city":"Lucknow","state":"Uttar Pradesh","latitude":26.8467,"longitude":80.9462,"temp":37.3,"humidity":27,"rain":0.0,"pressure":985.6,"uv_index":8.2,"wind_gusts":47.5,"aqi":153,"pm10":299.9,"pm2_5":77.3,"no2":7.0,"co":283.0,"o3":119.0,"so2":9.7,"mosquito_risk":0,"arthritis_risk":5,"migraine_risk":10,"frizz_risk":0,"updated_at":"2026-05-17T18:56:40.652984+05:30"},{"city":"Kanpur","state":"Uttar Pradesh","latitude":26.4499,"longitude":80.3319,"temp":38.0,"humidity":23,"rain":0.0,"pressure":984.4,"uv_index":8.2,"wind_gusts":46.1,"aqi":207,"pm10":730.2,"pm2_5":125.7,"no2":5.2,"co":245.0,"o3":118.0,"so2":9.3,"mosquito_risk":0,"arthritis_risk":5,"migraine_risk":10,"frizz_risk":0,"updated_at":"2026-05-17T18:56:40.652992+05:30"},{"city":"Chandigarh","state":"Chandigarh","latitude":30.7333,"longitude":76.7794,"temp":34.0,"humidity":29,"rain":0.0,"pressure":962.5,"uv_index":7.7,"wind_gusts":43.2,"aqi":143,"pm10":21.0,"pm2_5":16.6,"no2":5.5,"co":365.0,"o3":142.0,"so2":7.7,"mosquito_risk":0,"arthritis_risk":5,"migraine_risk":7,"frizz_risk":0,"updated_at":"2026-05-17T18:56:40.653001+05:30"},{"city":"Srinagar","state":"Jammu and Kashmir","latitude":34.0837,"longitude":74.7973,"temp":23.0,"humidity":49,"rain":0.0,"pressure":840.8,"uv_index":8.9,"wind_gusts":18.0,"aqi":98,"pm10":15.5,"pm2_5":10.8,"no2":9.3,"co":546.0,"o3":119.0,"so2":2.9,"mosquito_risk":0,"arthritis_risk":5,"migraine_risk":7,"frizz_risk":0,"updated_at":"2026-05-17T18:56:40.653010+05:30"},{"city":"Jammu","state":"Jammu and Kashmir","latitude":32.7266,"longitude":74.857,"temp":35.0,"humidity":24,"rain":0.0,"pressure":966.3,"uv_index":8.5,"wind_gusts":40.0,"aqi":125,"pm10":23.1,"pm2_5":15.3,"no2":10.1,"co":231.0,"o3":125.0,"so2":3.9,"mosquito_risk":0,"arthritis_risk":5,"migraine_risk":7,"frizz_risk":0,"updated_at":"2026-05-17T18:56:40.653018+05:30"},{"city":"Amritsar","state":"Punjab","latitude":31.634,"longitude":74.8723,"temp":34.8,"humidity":31,"rain":0.0,"pressure":974.4,"uv_index":8.4,"wind_gusts":33.1,"aqi":132,"pm10":34.1,"pm2_5":20.6,"no2":7.0,"co":284.0,"o3":133.0,"so2":6.9,"mosquito_risk":0,"arthritis_risk":5,"migraine_risk":7,"frizz_risk":0,"updated_at":"2026-05-17T18:56:40.653026+05:30"},{"city":"Ludhiana","state":"Punjab","latitude":30.901,"longitude":75.8573,"temp":35.8,"humidity":26,"rain":0.0,"pressure":972.2,"uv_index":7.95,"wind_gusts":42.8,"aqi":117,"pm10":69.4,"pm2_5":27.0,"no2":4.6,"co":335.0,"o3":130.0,"so2":5.5,"mosquito_risk":0,"arthritis_risk":5,"migraine_risk":10,"frizz_risk":0,"updated_at":"2026-05-17T18:56:40.653034+05:30"},{"city":"Jalandhar","state":"Punjab","latitude":31.326,"longitude":75.5762,"temp":35.2,"humidity":31,"rain":0.0,"pressure":973.2,"uv_index":8.15,"wind_gusts":36.7,"aqi":127,"pm10":77.5,"pm2_5":28.5,"no2":5.4,"co":365.0,"o3":132.0,"so2":6.4,"mosquito_risk":0,"arthritis_risk":5,"migraine_risk":10,"frizz_risk":0,"updated_at":"2026-05-17T18:56:40.653042+05:30"},{"city":"Dehradun","state":"Uttarakhand","latitude":30.6284,"longitude":78.0322,"temp":20.4,"humidity":64,"rain":0.0,"pressure":827.1,"uv_index":8.15,"wind_gusts":43.9,"aqi":112,"pm10":13.2,"pm2_5":10.5,"no2":5.6,"co":223.0,"o3":144.0,"so2":4.5,"mosquito_risk":3,"arthritis_risk":5,"migraine_risk":7,"frizz_risk":0,"updated_at":"2026-05-17T18:56:40.653049+05:30"},{"city":"Shimla","state":"Himachal Pradesh","latitude":31.1048,"longitude":77.1734,"temp":19.0,"humidity":42,"rain":0.0,"pressure":783.3,"uv_index":8.25,"wind_gusts":49.0,"aqi":119,"pm10":18.8,"pm2_5":12.0,"no2":3.0,"co":193.0,"o3":143.0,"so2":3.7,"mosquito_risk":0,"arthritis_risk":5,"migraine_risk":7,"frizz_risk":0,"updated_at":"2026-05-17T18:56:40.653059+05:30"},{"city":"Manali","state":"Himachal Pradesh","latitude":32.2396,"longitude":77.1887,"temp":16.8,"humidity":62,"rain":0.0,"pressure":815.9,"uv_index":9.85,"wind_gusts":40.0,"aqi":116,"pm10":10.1,"pm2_5":7.3,"no2":12.8,"co":189.0,"o3":133.0,"so2":0.4,"mosquito_risk":3,"arthritis_risk":5,"migraine_risk":7,"frizz_risk":0,"updated_at":"2026-05-17T18:56:40.653068+05:30"},{"city":"Gurgaon","state":"Haryana","latitude":28.4595,"longitude":77.0266,"temp":37.0,"humidity":26,"rain":0.0,"pressure":974.7,"uv_index":7.8,"wind_gusts":47.2,"aqi":1024,"pm10":1847.7,"pm2_5":258.9,"no2":11.6,"co":272.0,"o3":106.0,"so2":10.6,"mosquito_risk":0,"arthritis_risk":5,"migraine_risk":10,"frizz_risk":0,"updated_at":"2026-05-17T18:56:40.653076+05:30"},{"city":"Noida","state":"Uttar Pradesh","latitude":28.5355,"longitude":77.391,"temp":36.8,"humidity":26,"rain":0.0,"pressure":977.3,"uv_index":7.75,"wind_gusts":43.2,"aqi":1024,"pm10":1847.7,"pm2_5":258.9,"no2":11.6,"co":316.0,"o3":106.0,"so2":10.6,"mosquito_risk":0,"arthritis_risk":5,"migraine_risk":10,"frizz_risk":0,"updated_at":"2026-05-17T18:56:40.653084+05:30"},{"city":"Ghaziabad","state":"Uttar Pradesh","latitude":28.6692,"longitude":77.4538,"temp":35.5,"humidity":32,"rain":0.0,"pressure":975.4,"uv_index":7.7,"wind_gusts":50.4,"aqi":463,"pm10":868.0,"pm2_5":151.3,"no2":9.7,"co":311.0,"o3":107.0,"so2":12.5,"mosquito_risk":0,"arthritis_risk":5,"migraine_risk":10,"frizz_risk":1,"updated_at":"2026-05-17T18:56:40.653091+05:30"},{"city":"Faridabad","state":"Haryana","latitude":28.4089,"longitude":77.3178,"temp":38.7,"humidity":21,"rain":0.0,"pressure":976.8,"uv_index":7.75,"wind_gusts":50.0,"aqi":1024,"pm10":1847.7,"pm2_5":258.9,"no2":11.6,"co":260.0,"o3":106.0,"so2":10.6,"mosquito_risk":0,"arthritis_risk":5,"migraine_risk":10,"frizz_risk":0,"updated_at":"2026-05-17T18:56:40.653099+05:30"},{"city":"Meerut","state":"Uttar Pradesh","latitude":28.9845,"longitude":77.7064,"temp":35.9,"humidity":31,"rain":0.0,"pressure":974.4,"uv_index":7.65,"wind_gusts":50.8,"aqi":463,"pm10":868.0,"pm2_5":151.3,"no2":9.7,"co":274.0,"o3":107.0,"so2":12.5,"mosquito_risk":0,"arthritis_risk":5,"migraine_risk":10,"frizz_risk":1,"updated_at":"2026-05-17T18:56:40.653106+05:30"},{"city":"Agra","state":"Uttar Pradesh","latitude":27.1767,"longitude":78.0081,"temp":38.0,"humidity":23,"rain":0.0,"pressure":980.9,"uv_index":8.05,"wind_gusts":38.9,"aqi":741,"pm10":547.6,"pm2_5":89.4,"no2":10.3,"co":261.0,"o3":94.0,"so2":7.5,"mosquito_risk":0,"arthritis_risk":5,"migraine_risk":10,"frizz_risk":0,"updated_at":"2026-05-17T18:56:40.653113+05:30"},{"city":"Varanasi","state":"Uttar Pradesh","latitude":25.3176,"longitude":82.9739,"temp":37.9,"humidity":23,"rain":0.0,"pressure":990.0,"uv_index":8.7,"wind_gusts":45.7,"aqi":151,"pm10":113.2,"pm2_5":43.0,"no2":10.9,"co":288.0,"o3":114.0,"so2":9.6,"mosquito_risk":0,"arthritis_risk":5,"migraine_risk":10,"frizz_risk":0,"updated_at":"2026-05-17T18:56:40.653120+05:30"},{"city":"Prayagraj","state":"Uttar Pradesh","latitude":25.4358,"longitude":81.8463,"temp":37.7,"humidity":23,"rain":0.0,"pressure":988.3,"uv_index":8.6,"wind_gusts":39.6,"aqi":149,"pm10":109.7,"pm2_5":39.8,"no2":8.1,"co":233.0,"o3":113.0,"so2":8.6,"mosquito_risk":0,"arthritis_risk":5,"migraine_risk":10,"frizz_risk":0,"updated_at":"2026-05-17T18:56:40.653128+05:30"},{"city":"Gorakhpur","state":"Uttar Pradesh","latitude":26.7606,"longitude":83.3732,"temp":32.8,"humidity":43,"rain":0.0,"pressure":989.1,"uv_index":8.6,"wind_gusts":35.6,"aqi":165,"pm10":53.0,"pm2_5":31.8,"no2":7.3,"co":312.0,"o3":127.0,"so2":8.6,"mosquito_risk":0,"arthritis_risk":5,"migraine_risk":7,"frizz_risk":1,"updated_at":"2026-05-17T18:56:40.653138+05:30"},{"city":"Bareilly","state":"Uttar Pradesh","latitude":28.367,"longitude":79.4304,"temp":33.0,"humidity":43,"rain":0.0,"pressure":979.1,"uv_index":8.0,"wind_gusts":37.1,"aqi":149,"pm10":78.0,"pm2_5":37.6,"no2":7.2,"co":341.0,"o3":134.0,"so2":10.1,"mosquito_risk":0,"arthritis_risk":5,"migraine_risk":7,"frizz_risk":1,"updated_at":"2026-05-17T18:56:40.653144+05:30"},{"city":"Aligarh","state":"Uttar Pradesh","latitude":27.8974,"longitude":78.088,"temp":36.0,"humidity":29,"rain":0.0,"pressure":978.7,"uv_index":7.85,"wind_gusts":49.7,"aqi":613,"pm10":1050.5,"pm2_5":156.9,"no2":6.9,"co":254.0,"o3":109.0,"so2":8.2,"mosquito_risk":0,"arthritis_risk":5,"migraine_risk":10,"frizz_risk":0,"updated_at":"2026-05-17T18:56:40.653151+05:30"},{"city":"Moradabad","state":"Uttar Pradesh","latitude":28.8386,"longitude":78.7733,"temp":34.5,"humidity":34,"rain":0.0,"pressure":976.1,"uv_index":7.85,"wind_gusts":45.7,"aqi":150,"pm10":258.0,"pm2_5":67.3,"no2":9.5,"co":372.0,"o3":110.0,"so2":8.4,"mosquito_risk":0,"arthritis_risk":5,"migraine_risk":7,"frizz_risk":1,"updated_at":"2026-05-17T18:56:40.653158+05:30"},{"city":"Saharanpur","state":"Uttar Pradesh","latitude":29.9637,"longitude":77.546,"temp":33.7,"humidity":31,"rain":0.0,"pressure":968.4,"uv_index":7.35,"wind_gusts":42.8,"aqi":135,"pm10":156.5,"pm2_5":40.0,"no2":6.5,"co":269.0,"o3":127.0,"so2":8.4,"mosquito_risk":0,"arthritis_risk":5,"migraine_risk":7,"frizz_risk":0,"updated_at":"2026-05-17T18:56:40.653165+05:30"},{"city":"Jhansi","state":"Uttar Pradesh","latitude":25.4484,"longitude":78.5685,"temp":37.7,"humidity":21,"rain":0.0,"pressure":971.8,"uv_index":8.45,"wind_gusts":34.6,"aqi":118,"pm10":112.9,"pm2_5":32.9,"no2":3.5,"co":226.0,"o3":105.0,"so2":5.0,"mosquito_risk":0,"arthritis_risk":5,"migraine_risk":10,"frizz_risk":0,"updated_at":"2026-05-17T18:56:43.948519+05:30"},{"city":"Surat","state":"Gujarat","latitude":21.1702,"longitude":72.8311,"temp":33.0,"humidity":63,"rain":0.0,"pressure":1001.0,"uv_index":7.75,"wind_gusts":41.4,"aqi":86,"pm10":58.9,"pm2_5":38.4,"no2":26.8,"co":373.0,"o3":103.0,"so2":58.6,"mosquito_risk":3,"arthritis_risk":5,"migraine_risk":4,"frizz_risk":1,"updated_at":"2026-05-17T18:56:43.948557+05:30"},{"city":"Vadodara","state":"Gujarat","latitude":22.3072,"longitude":73.1812,"temp":40.7,"humidity":21,"rain":0.0,"pressure":997.8,"uv_index":8.1,"wind_gusts":31.0,"aqi":91,"pm10":48.9,"pm2_5":21.4,"no2":7.1,"co":257.0,"o3":129.0,"so2":8.9,"mosquito_risk":0,"arthritis_risk":5,"migraine_risk":10,"frizz_risk":0,"updated_at":"2026-05-17T18:56:43.948568+05:30"},{"city":"Rajkot","state":"Gujarat","latitude":22.3039,"longitude":70.8022,"temp":37.8,"humidity":17,"rain":0.0,"pressure":989.6,"uv_index":7.2,"wind_gusts":38.5,"aqi":57,"pm10":52.7,"pm2_5":19.3,"no2":2.6,"co":136.0,"o3":104.0,"so2":4.6,"mosquito_risk":0,"arthritis_risk":5,"migraine_risk":10,"frizz_risk":0,"updated_at":"2026-05-17T18:56:43.948577+05:30"},{"city":"Thane","state":"Maharashtra","latitude":19.2183,"longitude":72.9781,"temp":32.2,"humidity":64,"rain":0.0,"pressure":1002.6,"uv_index":7.6,"wind_gusts":39.2,"aqi":61,"pm10":46.1,"pm2_5":20.8,"no2":8.1,"co":204.0,"o3":81.0,"so2":5.1,"mosquito_risk":3,"arthritis_risk":5,"migraine_risk":4,"frizz_risk":1,"updated_at":"2026-05-17T18:56:43.948585+05:30"},{"city":"Nagpur","state":"Maharashtra","latitude":21.1458,"longitude":79.0882,"temp":40.8,"humidity":13,"rain":0.0,"pressure":967.0,"uv_index":8.95,"wind_gusts":31.7,"aqi":134,"pm10":21.4,"pm2_5":15.8,"no2":10.5,"co":224.0,"o3":124.0,"so2":18.3,"mosquito_risk":0,"arthritis_risk":5,"migraine_risk":10,"frizz_risk":0,"updated_at":"2026-05-17T18:56:43.948593+05:30"},{"city":"Nashik","state":"Maharashtra","latitude":19.9975,"longitude":73.7898,"temp":34.0,"humidity":31,"rain":0.0,"pressure":942.0,"uv_index":8.2,"wind_gusts":42.5,"aqi":76,"pm10":28.8,"pm2_5":15.6,"no2":3.3,"co":185.0,"o3":142.0,"so2":6.6,"mosquito_risk":0,"arthritis_risk":5,"migraine_risk":7,"frizz_risk":0,"updated_at":"2026-05-17T18:56:43.948601+05:30"},{"city":"Aurangabad","state":"Maharashtra","latitude":19.8762,"longitude":75.3433,"temp":36.5,"humidity":17,"rain":0.0,"pressure":940.1,"uv_index":9.05,"wind_gusts":40.7,"aqi":93,"pm10":17.2,"pm2_5":9.2,"no2":2.5,"co":162.0,"o3":123.0,"so2":3.6,"mosquito_risk":0,"arthritis_risk":5,"migraine_risk":10,"frizz_risk":0,"updated_at":"2026-05-17T18:56:43.948608+05:30"},{"city":"Solapur","state":"Maharashtra","latitude":17.6599,"longitude":75.9064,"temp":38.0,"humidity":20,"rain":0.0,"pressure":951.6,"uv_index":9.1,"wind_gusts":33.5,"aqi":138,"pm10":20.1,"pm2_5":16.2,"no2":6.4,"co":171.0,"o3":131.0,"so2":6.5,"mosquito_risk":0,"arthritis_risk":5,"migraine_risk":10,"frizz_risk":0,"updated_at":"2026-05-17T18:56:43.948616+05:30"},{"city":"Kolhapur","state":"Maharashtra","latitude":16.705,"longitude":74.2433,"temp":30.1,"humidity":68,"rain":0.0,"pressure":943.4,"uv_index":8.8,"wind_gusts":45.0,"aqi":111,"pm10":28.1,"pm2_5":19.0,"no2":3.3,"co":171.0,"o3":120.0,"so2":5.2,"mosquito_risk":3,"arthritis_risk":5,"migraine_risk":7,"frizz_risk":1,"updated_at":"2026-05-17T18:56:43.948624+05:30"},{"city":"Goa","state":"Goa","latitude":15.2993,"longitude":74.124,"temp":29.2,"humidity":79,"rain":0.0,"pressure":993.7,"uv_index":8.9,"wind_gusts":34.9,"aqi":56,"pm10":36.3,"pm2_5":16.2,"no2":1.3,"co":147.0,"o3":64.0,"so2":1.3,"mosquito_risk":7,"arthritis_risk":5,"migraine_risk":7,"frizz_risk":1,"updated_at":"2026-05-17T18:56:43.948632+05:30"},{"city":"Jodhpur","state":"Rajasthan","latitude":26.2389,"longitude":73.0243,"temp":40.5,"humidity":17,"rain":0.0,"pressure":977.7,"uv_index":8.45,"wind_gusts":33.5,"aqi":77,"pm10":115.3,"pm2_5":25.8,"no2":2.9,"co":170.0,"o3":101.0,"so2":3.1,"mosquito_risk":0,"arthritis_risk":5,"migraine_risk":10,"frizz_risk":0,"updated_at":"2026-05-17T18:56:43.948639+05:30"},{"city":"Udaipur","state":"Rajasthan","latitude":24.5854,"longitude":73.7125,"temp":36.7,"humidity":17,"rain":0.0,"pressure":942.8,"uv_index":8.85,"wind_gusts":33.5,"aqi":59,"pm10":54.2,"pm2_5":17.6,"no2":2.4,"co":157.0,"o3":105.0,"so2":3.7,"mosquito_risk":0,"arthritis_risk":5,"migraine_risk":10,"frizz_risk":0,"updated_at":"2026-05-17T18:56:43.948647+05:30"},{"city":"Kota","state":"Rajasthan","latitude":25.2138,"longitude":75.8648,"temp":40.0,"humidity":14,"rain":0.0,"pressure":973.1,"uv_index":8.4,"wind_gusts":31.0,"aqi":112,"pm10":114.6,"pm2_5":30.6,"no2":3.9,"co":195.0,"o3":117.0,"so2":4.2,"mosquito_risk":0,"arthritis_risk":5,"migraine_risk":10,"frizz_risk":0,"updated_at":"2026-05-17T18:56:43.948655+05:30"},{"city":"Bikaner","state":"Rajasthan","latitude":28.0229,"longitude":73.3119,"temp":39.7,"humidity":18,"rain":0.0,"pressure":976.1,"uv_index":8.4,"wind_gusts":37.8,"aqi":78,"pm10":75.2,"pm2_5":20.5,"no2":0.9,"co":161.0,"o3":95.0,"so2":1.9,"mosquito_risk":0,"arthritis_risk":5,"migraine_risk":10,"frizz_risk":0,"updated_at":"2026-05-17T18:56:43.948662+05:30"},{"city":"Ajmer","state":"Rajasthan","latitude":26.4499,"longitude":74.6399,"temp":37.5,"humidity":17,"rain":0.0,"pressure":950.4,"uv_index":8.4,"wind_gusts":46.8,"aqi":82,"pm10":87.5,"pm2_5":23.9,"no2":2.8,"co":159.0,"o3":101.0,"so2":2.5,"mosquito_risk":0,"arthritis_risk":5,"migraine_risk":10,"frizz_risk":0,"updated_at":"2026-05-17T18:56:43.948670+05:30"},{"city":"Gwalior","state":"Madhya Pradesh","latitude":26.2183,"longitude":78.1828,"temp":39.0,"humidity":17,"rain":0.0,"pressure":976.8,"uv_index":8.25,"wind_gusts":40.7,"aqi":276,"pm10":81.7,"pm2_5":29.4,"no2":3.5,"co":196.0,"o3":103.0,"so2":4.4,"mosquito_risk":0,"arthritis_risk":5,"migraine_risk":10,"frizz_risk":0,"updated_at":"2026-05-17T18:56:43.948677+05:30"},{"city":"Indore","state":"Madhya Pradesh","latitude":22.7196,"longitude":75.8577,"temp":39.2,"humidity":14,"rain":0.0,"pressure":943.0,"uv_index":8.7,"wind_gusts":43.6,"aqi":82,"pm10":40.7,"pm2_5":15.9,"no2":4.9,"co":301.0,"o3":119.0,"so2":5.3,"mosquito_risk":0,"arthritis_risk":5,"migraine_risk":10,"frizz_risk":0,"updated_at":"2026-05-17T18:56:43.948684+05:30"},{"city":"Bhopal","state":"Madhya Pradesh","latitude":23.2599,"longitude":77.4126,"temp":38.3,"humidity":14,"rain":0.0,"pressure":948.6,"uv_index":8.7,"wind_gusts":38.9,"aqi":82,"pm10":21.5,"pm2_5":12.7,"no2":3.4,"co":197.0,"o3":113.0,"so2":3.6,"mosquito_risk":0,"arthritis_risk":5,"migraine_risk":10,"frizz_risk":0,"updated_at":"2026-05-17T18:56:43.948692+05:30"},{"city":"Jabalpur","state":"Madhya Pradesh","latitude":23.1815,"longitude":79.9864,"temp":37.1,"humidity":20,"rain":0.0,"pressure":955.9,"uv_index":8.9,"wind_gusts":39.2,"aqi":103,"pm10":37.3,"pm2_5":21.6,"no2":5.8,"co":196.0,"o3":117.0,"so2":4.3,"mosquito_risk":0,"arthritis_risk":5,"migraine_risk":10,"frizz_risk":0,"updated_at":"2026-05-17T18:56:43.948700+05:30"},{"city":"Ujjain","state":"Madhya Pradesh","latitude":23.1765,"longitude":75.7885,"temp":39.3,"humidity":13,"rain":0.0,"pressure":948.4,"uv_index":8.65,"wind_gusts":39.6,"aqi":83,"pm10":61.9,"pm2_5":22.2,"no2":1.8,"co":190.0,"o3":122.0,"so2":5.5,"mosquito_risk":0,"arthritis_risk":5,"migraine_risk":10,"frizz_risk":0,"updated_at":"2026-05-17T18:56:43.948708+05:30"},{"city":"Visakhapatnam","state":"Andhra Pradesh","latitude":17.6868,"longitude":83.2185,"temp":30.4,"humidity":76,"rain":0.0,"pressure":999.7,"uv_index":8.75,"wind_gusts":43.2,"aqi":59,"pm10":22.8,"pm2_5":16.8,"no2":13.8,"co":275.0,"o3":67.0,"so2":27.9,"mosquito_risk":3,"arthritis_risk":5,"migraine_risk":7,"frizz_risk":1,"updated_at":"2026-05-17T18:56:43.948715+05:30"},{"city":"Vijayawada","state":"Andhra Pradesh","latitude":16.5062,"longitude":80.648,"temp":34.5,"humidity":52,"rain":0.0,"pressure":997.6,"uv_index":9.2,"wind_gusts":32.8,"aqi":50,"pm10":20.0,"pm2_5":15.8,"no2":5.0,"co":217.0,"o3":91.0,"so2":7.4,"mosquito_risk":0,"arthritis_risk":5,"migraine_risk":7,"frizz_risk":1,"updated_at":"2026-05-17T18:56:43.948721+05:30"},{"city":"Guntur","state":"Andhra Pradesh","latitude":16.3067,"longitude":80.4365,"temp":33.1,"humidity":55,"rain":0.0,"pressure":998.9,"uv_index":9.2,"wind_gusts":33.5,"aqi":49,"pm10":19.2,"pm2_5":15.1,"no2":3.7,"co":225.0,"o3":95.0,"so2":4.1,"mosquito_risk":0,"arthritis_risk":5,"migraine_risk":7,"frizz_risk":1,"updated_at":"2026-05-17T18:56:43.948728+05:30"},{"city":"Nellore","state":"Andhra Pradesh","latitude":14.4426,"longitude":79.9865,"temp":30.9,"humidity":69,"rain":0.0,"pressure":1001.2,"uv_index":9.15,"wind_gusts":37.1,"aqi":104,"pm10":27.8,"pm2_5":20.5,"no2":1.9,"co":193.0,"o3":128.0,"so2":5.6,"mosquito_risk":3,"arthritis_risk":5,"migraine_risk":4,"frizz_risk":1,"updated_at":"2026-05-17T18:56:43.948736+05:30"},{"city":"Kurnool","state":"Andhra Pradesh","latitude":15.8281,"longitude":78.0373,"temp":36.0,"humidity":37,"rain":0.0,"pressure":971.7,"uv_index":9.15,"wind_gusts":32.4,"aqi":64,"pm10":35.2,"pm2_5":19.6,"no2":3.9,"co":191.0,"o3":101.0,"so2":3.0,"mosquito_risk":0,"arthritis_risk":5,"migraine_risk":10,"frizz_risk":1,"updated_at":"2026-05-17T18:56:43.948744+05:30"},{"city":"Kakinada","state":"Andhra Pradesh","latitude":16.9891,"longitude":82.2475,"temp":32.2,"humidity":65,"rain":0.0,"pressure":1003.0,"uv_index":8.7,"wind_gusts":36.0,"aqi":42,"pm10":20.3,"pm2_5":13.1,"no2":1.5,"co":202.0,"o3":79.0,"so2":1.4,"mosquito_risk":3,"arthritis_risk":5,"migraine_risk":4,"frizz_risk":1,"updated_at":"2026-05-17T18:56:43.948751+05:30"},{"city":"Tirupati","state":"Andhra Pradesh","latitude":13.6288,"longitude":79.4192,"temp":31.6,"humidity":57,"rain":0.0,"pressure":986.6,"uv_index":9.25,"wind_gusts":29.5,"aqi":102,"pm10":27.2,"pm2_5":24.5,"no2":5.2,"co":262.0,"o3":137.0,"so2":11.2,"mosquito_risk":0,"arthritis_risk":5,"migraine_risk":7,"frizz_risk":1,"updated_at":"2026-05-17T18:56:43.948758+05:30"},{"city":"Warangal","state":"Telangana","latitude":17.9689,"longitude":79.5941,"temp":34.0,"humidity":47,"rain":0.0,"pressure":974.5,"uv_index":8.8,"wind_gusts":31.0,"aqi":72,"pm10":35.9,"pm2_5":26.5,"no2":5.8,"co":301.0,"o3":115.0,"so2":4.8,"mosquito_risk":0,"arthritis_risk":5,"migraine_risk":7,"frizz_risk":1,"updated_at":"2026-05-17T18:56:43.948764+05:30"},{"city":"Nizamabad","state":"Telangana","latitude":18.6725,"longitude":78.0941,"temp":36.0,"humidity":29,"rain":0.0,"pressure":960.0,"uv_index":9.15,"wind_gusts":31.7,"aqi":124,"pm10":29.2,"pm2_5":23.3,"no2":5.9,"co":227.0,"o3":130.0,"so2":5.7,"mosquito_risk":0,"arthritis_risk":5,"migraine_risk":10,"frizz_risk":0,"updated_at":"2026-05-17T18:56:43.948770+05:30"},{"city":"Mysore","state":"Karnataka","latitude":12.2958,"longitude":76.6396,"temp":28.2,"humidity":60,"rain":0.0,"pressure":924.7,"uv_index":9.1,"wind_gusts":36.4,"aqi":103,"pm10":41.7,"pm2_5":27.1,"no2":11.2,"co":267.0,"o3":106.0,"so2":4.3,"mosquito_risk":4,"arthritis_risk":5,"migraine_risk":7,"frizz_risk":1,"updated_at":"2026-05-17T18:56:43.948777+05:30"},{"city":"Mangalore","state":"Karnataka","latitude":12.9141,"longitude":74.856,"temp":27.1,"humidity":93,"rain":0.0,"pressure":1002.8,"uv_index":8.75,"wind_gusts":36.7,"aqi":63,"pm10":20.3,"pm2_5":12.0,"no2":4.2,"co":210.0,"o3":57.0,"so2":1.8,"mosquito_risk":7,"arthritis_risk":5,"migraine_risk":4,"frizz_risk":1,"updated_at":"2026-05-17T18:56:43.948783+05:30"},{"city":"Hubli-Dharwad","state":"Karnataka","latitude":15.3647,"longitude":75.124,"temp":25.4,"humidity":93,"rain":0.4,"pressure":936.5,"uv_index":9.15,"wind_gusts":52.9,"aqi":96,"pm10":19.7,"pm2_5":14.1,"no2":4.0,"co":217.0,"o3":105.0,"so2":4.3,"mosquito_risk":10,"arthritis_risk":5,"migraine_risk":7,"frizz_risk":1,"updated_at":"2026-05-17T18:56:43.948790+05:30"},{"city":"Belgaum","state":"Karnataka","latitude":15.8497,"longitude":74.4977,"temp":24.6,"humidity":100,"rain":0.1,"pressure":921.5,"uv_index":9.15,"wind_gusts":44.6,"aqi":84,"pm10":27.8,"pm2_5":17.5,"no2":3.3,"co":172.0,"o3":94.0,"so2":3.8,"mosquito_risk":6,"arthritis_risk":5,"migraine_risk":7,"frizz_risk":1,"updated_at":"2026-05-17T18:56:47.237091+05:30"},{"city":"Coimbatore","state":"Tamil Nadu","latitude":11.0168,"longitude":76.9558,"temp":26.4,"humidity":81,"rain":0.0,"pressure":958.1,"uv_index":8.7,"wind_gusts":48.2,"aqi":57,"pm10":6.3,"pm2_5":5.4,"no2":6.2,"co":215.0,"o3":73.0,"so2":2.5,"mosquito_risk":7,"arthritis_risk":5,"migraine_risk":7,"frizz_risk":1,"updated_at":"2026-05-17T18:56:47.237127+05:30"},{"city":"Madurai","state":"Tamil Nadu","latitude":9.9252,"longitude":78.1198,"temp":26.9,"humidity":91,"rain":0.0,"pressure":989.0,"uv_index":8.5,"wind_gusts":32.4,"aqi":95,"pm10":26.0,"pm2_5":18.5,"no2":12.7,"co":380.0,"o3":99.0,"so2":5.0,"mosquito_risk":7,"arthritis_risk":5,"migraine_risk":7,"frizz_risk":1,"updated_at":"2026-05-17T18:56:47.237139+05:30"},{"city":"Trichy","state":"Tamil Nadu","latitude":10.7905,"longitude":78.7047,"temp":28.5,"humidity":91,"rain":0.0,"pressure":995.6,"uv_index":8.45,"wind_gusts":40.0,"aqi":83,"pm10":23.8,"pm2_5":19.9,"no2":8.6,"co":249.0,"o3":99.0,"so2":4.0,"mosquito_risk":7,"arthritis_risk":5,"migraine_risk":7,"frizz_risk":1,"updated_at":"2026-05-17T18:56:47.237148+05:30"},{"city":"Salem","state":"Tamil Nadu","latitude":11.6643,"longitude":78.146,"temp":28.3,"humidity":86,"rain":0.0,"pressure":973.0,"uv_index":8.5,"wind_gusts":43.2,"aqi":142,"pm10":35.9,"pm2_5":25.1,"no2":8.1,"co":283.0,"o3":141.0,"so2":10.1,"mosquito_risk":7,"arthritis_risk":5,"migraine_risk":7,"frizz_risk":1,"updated_at":"2026-05-17T18:56:47.237157+05:30"},{"city":"Tirunelveli","state":"Tamil Nadu","latitude":8.7139,"longitude":77.7567,"temp":31.0,"humidity":64,"rain":0.0,"pressure":999.0,"uv_index":8.95,"wind_gusts":28.8,"aqi":42,"pm10":6.1,"pm2_5":5.3,"no2":3.3,"co":255.0,"o3":79.0,"so2":0.9,"mosquito_risk":3,"arthritis_risk":5,"migraine_risk":7,"frizz_risk":1,"updated_at":"2026-05-17T18:56:47.237165+05:30"},{"city":"Vellore","state":"Tamil Nadu","latitude":12.9165,"longitude":79.1325,"temp":29.1,"humidity":74,"rain":0.0,"pressure":980.2,"uv_index":9.2,"wind_gusts":23.4,"aqi":95,"pm10":29.9,"pm2_5":24.3,"no2":5.6,"co":292.0,"o3":116.0,"so2":5.7,"mosquito_risk":7,"arthritis_risk":5,"migraine_risk":7,"frizz_risk":1,"updated_at":"2026-05-17T18:56:47.237173+05:30"},{"city":"Erode","state":"Tamil Nadu","latitude":11.341,"longitude":77.7172,"temp":30.5,"humidity":62,"rain":0.0,"pressure":984.9,"uv_index":8.55,"wind_gusts":34.6,"aqi":106,"pm10":20.7,"pm2_5":15.8,"no2":7.4,"co":350.0,"o3":112.0,"so2":2.9,"mosquito_risk":3,"arthritis_risk":5,"migraine_risk":7,"frizz_risk":1,"updated_at":"2026-05-17T18:56:47.237181+05:30"},{"city":"Kochi","state":"Kerala","latitude":9.9312,"longitude":76.2673,"temp":26.9,"humidity":91,"rain":0.5,"pressure":1005.7,"uv_index":8.7,"wind_gusts":28.4,"aqi":52,"pm10":15.4,"pm2_5":12.4,"no2":10.2,"co":217.0,"o3":54.0,"so2":3.5,"mosquito_risk":10,"arthritis_risk":5,"migraine_risk":4,"frizz_risk":1,"updated_at":"2026-05-17T18:56:47.237211+05:30"},{"city":"Thiruvananthapuram","state":"Kerala","latitude":8.5241,"longitude":76.9366,"temp":25.5,"humidity":96,"rain":0.0,"pressure":1005.4,"uv_index":8.3,"wind_gusts":33.5,"aqi":42,"pm10":11.2,"pm2_5":7.0,"no2":1.5,"co":164.0,"o3":82.0,"so2":0.5,"mosquito_risk":7,"arthritis_risk":5,"migraine_risk":4,"frizz_risk":1,"updated_at":"2026-05-17T18:56:47.237219+05:30"},{"city":"Kozhikode","state":"Kerala","latitude":11.2588,"longitude":75.7804,"temp":26.4,"humidity":97,"rain":0.0,"pressure":1004.7,"uv_index":8.65,"wind_gusts":40.7,"aqi":51,"pm10":22.5,"pm2_5":13.1,"no2":1.1,"co":282.0,"o3":81.0,"so2":0.8,"mosquito_risk":7,"arthritis_risk":5,"migraine_risk":4,"frizz_risk":1,"updated_at":"2026-05-17T18:56:47.237226+05:30"},{"city":"Thrissur","state":"Kerala","latitude":10.5276,"longitude":76.2144,"temp":25.5,"humidity":99,"rain":0.2,"pressure":1004.1,"uv_index":8.75,"wind_gusts":30.2,"aqi":54,"pm10":13.2,"pm2_5":10.8,"no2":7.4,"co":241.0,"o3":61.0,"so2":2.6,"mosquito_risk":10,"arthritis_risk":5,"migraine_risk":4,"frizz_risk":1,"updated_at":"2026-05-17T18:56:47.237234+05:30"},{"city":"Kannur","state":"Kerala","latitude":11.8745,"longitude":75.3704,"temp":27.5,"humidity":90,"rain":0.0,"pressure":1003.4,"uv_index":8.9,"wind_gusts":37.1,"aqi":59,"pm10":21.5,"pm2_5":13.6,"no2":7.3,"co":212.0,"o3":62.0,"so2":2.0,"mosquito_risk":7,"arthritis_risk":5,"migraine_risk":4,"frizz_risk":1,"updated_at":"2026-05-17T18:56:47.237242+05:30"},{"city":"Patna","state":"Bihar","latitude":25.5941,"longitude":85.1376,"temp":32.8,"humidity":54,"rain":0.0,"pressure":992.4,"uv_index":8.8,"wind_gusts":39.2,"aqi":157,"pm10":97.3,"pm2_5":47.5,"no2":19.6,"co":383.0,"o3":105.0,"so2":12.8,"mosquito_risk":0,"arthritis_risk":5,"migraine_risk":7,"frizz_risk":1,"updated_at":"2026-05-17T18:56:47.237248+05:30"},{"city":"Gaya","state":"Bihar","latitude":24.7914,"longitude":85.0002,"temp":33.5,"humidity":34,"rain":0.0,"pressure":986.3,"uv_index":8.85,"wind_gusts":40.0,"aqi":152,"pm10":99.0,"pm2_5":40.5,"no2":8.9,"co":379.0,"o3":113.0,"so2":8.3,"mosquito_risk":0,"arthritis_risk":5,"migraine_risk":7,"frizz_risk":0,"updated_at":"2026-05-17T18:56:47.237256+05:30"},{"city":"Muzaffarpur","state":"Bihar","latitude":26.1209,"longitude":85.3647,"temp":31.4,"humidity":68,"rain":0.0,"pressure":992.7,"uv_index":8.8,"wind_gusts":24.8,"aqi":172,"pm10":109.4,"pm2_5":59.8,"no2":24.6,"co":547.0,"o3":106.0,"so2":14.7,"mosquito_risk":3,"arthritis_risk":5,"migraine_risk":7,"frizz_risk":1,"updated_at":"2026-05-17T18:56:47.237263+05:30"},{"city":"Bhagalpur","state":"Bihar","latitude":25.2425,"longitude":87.0117,"temp":31.1,"humidity":68,"rain":0.0,"pressure":994.0,"uv_index":8.8,"wind_gusts":25.6,"aqi":169,"pm10":94.1,"pm2_5":53.4,"no2":7.7,"co":387.0,"o3":149.0,"so2":12.9,"mosquito_risk":3,"arthritis_risk":5,"migraine_risk":7,"frizz_risk":1,"updated_at":"2026-05-17T18:56:47.237269+05:30"},{"city":"Ranchi","state":"Jharkhand","latitude":23.3441,"longitude":85.3096,"temp":28.0,"humidity":63,"rain":0.0,"pressure":933.1,"uv_index":9.3,"wind_gusts":41.8,"aqi":126,"pm10":62.2,"pm2_5":46.0,"no2":8.5,"co":348.0,"o3":111.0,"so2":9.0,"mosquito_risk":7,"arthritis_risk":5,"migraine_risk":7,"frizz_risk":1,"updated_at":"2026-05-17T18:56:47.237277+05:30"},{"city":"Jamshedpur","state":"Jharkhand","latitude":22.8046,"longitude":86.2029,"temp":32.4,"humidity":53,"rain":0.0,"pressure":985.2,"uv_index":9.1,"wind_gusts":34.6,"aqi":160,"pm10":74.3,"pm2_5":56.1,"no2":13.1,"co":395.0,"o3":119.0,"so2":17.1,"mosquito_risk":0,"arthritis_risk":5,"migraine_risk":7,"frizz_risk":1,"updated_at":"2026-05-17T18:56:47.237283+05:30"},{"city":"Dhanbad","state":"Jharkhand","latitude":23.7957,"longitude":86.4304,"temp":32.9,"humidity":45,"rain":0.0,"pressure":973.7,"uv_index":9.05,"wind_gusts":38.9,"aqi":149,"pm10":87.5,"pm2_5":61.0,"no2":33.0,"co":265.0,"o3":90.0,"so2":86.2,"mosquito_risk":0,"arthritis_risk":5,"migraine_risk":7,"frizz_risk":1,"updated_at":"2026-05-17T18:56:47.237290+05:30"},{"city":"Bokaro","state":"Jharkhand","latitude":23.6693,"longitude":86.1511,"temp":32.0,"humidity":47,"rain":0.0,"pressure":977.5,"uv_index":9.05,"wind_gusts":48.6,"aqi":151,"pm10":81.7,"pm2_5":56.5,"no2":26.5,"co":392.0,"o3":95.0,"so2":75.7,"mosquito_risk":0,"arthritis_risk":5,"migraine_risk":7,"frizz_risk":1,"updated_at":"2026-05-17T18:56:47.237297+05:30"},{"city":"Bhubaneswar","state":"Odisha","latitude":20.2961,"longitude":85.8245,"temp":31.2,"humidity":69,"rain":0.0,"pressure":998.2,"uv_index":8.8,"wind_gusts":45.4,"aqi":62,"pm10":22.3,"pm2_5":15.9,"no2":4.6,"co":190.0,"o3":88.0,"so2":6.1,"mosquito_risk":3,"arthritis_risk":5,"migraine_risk":7,"frizz_risk":1,"updated_at":"2026-05-17T18:56:47.237304+05:30"},{"city":"Cuttack","state":"Odisha","latitude":20.4625,"longitude":85.8828,"temp":31.6,"humidity":68,"rain":0.1,"pressure":999.8,"uv_index":8.95,"wind_gusts":45.4,"aqi":62,"pm10":22.3,"pm2_5":15.9,"no2":4.6,"co":208.0,"o3":88.0,"so2":6.1,"mosquito_risk":6,"arthritis_risk":5,"migraine_risk":7,"frizz_risk":1,"updated_at":"2026-05-17T18:56:47.237311+05:30"},{"city":"Rourkela","state":"Odisha","latitude":22.2604,"longitude":84.8536,"temp":32.5,"humidity":64,"rain":0.0,"pressure":979.5,"uv_index":9.0,"wind_gusts":33.5,"aqi":168,"pm10":91.3,"pm2_5":68.7,"no2":12.6,"co":407.0,"o3":151.0,"so2":15.1,"mosquito_risk":3,"arthritis_risk":5,"migraine_risk":7,"frizz_risk":1,"updated_at":"2026-05-17T18:56:47.237318+05:30"},{"city":"Raipur","state":"Chhattisgarh","latitude":21.2514,"longitude":81.6296,"temp":35.6,"humidity":37,"rain":0.0,"pressure":969.1,"uv_index":9.0,"wind_gusts":32.4,"aqi":142,"pm10":50.3,"pm2_5":41.3,"no2":20.2,"co":274.0,"o3":117.0,"so2":32.4,"mosquito_risk":0,"arthritis_risk":5,"migraine_risk":10,"frizz_risk":1,"updated_at":"2026-05-17T18:56:47.237324+05:30"},{"city":"Bhilai","state":"Chhattisgarh","latitude":21.1938,"longitude":81.3509,"temp":35.3,"humidity":40,"rain":0.0,"pressure":969.5,"uv_index":9.0,"wind_gusts":31.7,"aqi":117,"pm10":39.8,"pm2_5":33.2,"no2":21.0,"co":416.0,"o3":105.0,"so2":30.2,"mosquito_risk":0,"arthritis_risk":5,"migraine_risk":10,"frizz_risk":1,"updated_at":"2026-05-17T18:56:47.237331+05:30"},{"city":"Guwahati","state":"Assam","latitude":26.1158,"longitude":91.7086,"temp":24.1,"humidity":94,"rain":0.0,"pressure":997.7,"uv_index":8.75,"wind_gusts":25.2,"aqi":88,"pm10":27.2,"pm2_5":21.7,"no2":4.6,"co":334.0,"o3":94.0,"so2":4.1,"mosquito_risk":3,"arthritis_risk":5,"migraine_risk":7,"frizz_risk":1,"updated_at":"2026-05-17T18:56:47.237337+05:30"},{"city":"Agartala","state":"Tripura","latitude":23.8315,"longitude":91.2868,"temp":28.8,"humidity":77,"rain":0.0,"pressure":1001.3,"uv_index":8.9,"wind_gusts":28.8,"aqi":70,"pm10":29.7,"pm2_5":24.2,"no2":15.0,"co":275.0,"o3":65.0,"so2":4.0,"mosquito_risk":7,"arthritis_risk":5,"migraine_risk":4,"frizz_risk":1,"updated_at":"2026-05-17T18:56:47.237344+05:30"},{"city":"Shillong","state":"Meghalaya","latitude":25.5788,"longitude":91.8933,"temp":17.6,"humidity":93,"rain":0.0,"pressure":853.1,"uv_index":9.15,"wind_gusts":45.4,"aqi":69,"pm10":25.1,"pm2_5":19.5,"no2":5.3,"co":311.0,"o3":93.0,"so2":4.0,"mosquito_risk":3,"arthritis_risk":10,"migraine_risk":7,"frizz_risk":1,"updated_at":"2026-05-17T18:56:47.237350+05:30"},{"city":"Imphal","state":"Manipur","latitude":24.817,"longitude":93.9368,"temp":23.4,"humidity":85,"rain":0.0,"pressure":919.4,"uv_index":9.0,"wind_gusts":31.0,"aqi":71,"pm10":39.3,"pm2_5":27.8,"no2":11.0,"co":473.0,"o3":73.0,"so2":5.5,"mosquito_risk":3,"arthritis_risk":5,"migraine_risk":7,"frizz_risk":1,"updated_at":"2026-05-17T18:56:47.237357+05:30"},{"city":"Aizawl","state":"Mizoram","latitude":23.7271,"longitude":92.7176,"temp":22.1,"humidity":79,"rain":0.0,"pressure":889.2,"uv_index":9.05,"wind_gusts":28.8,"aqi":51,"pm10":33.6,"pm2_5":21.3,"no2":3.1,"co":217.0,"o3":89.0,"so2":3.7,"mosquito_risk":3,"arthritis_risk":5,"migraine_risk":7,"frizz_risk":1,"updated_at":"2026-05-17T18:56:47.237364+05:30"},{"city":"Kohima","state":"Nagaland","latitude":25.6701,"longitude":94.1077,"temp":18.2,"humidity":96,"rain":0.0,"pressure":851.5,"uv_index":8.7,"wind_gusts":29.9,"aqi":62,"pm10":34.3,"pm2_5":20.9,"no2":7.5,"co":289.0,"o3":68.0,"so2":3.4,"mosquito_risk":3,"arthritis_risk":10,"migraine_risk":7,"frizz_risk":1,"updated_at":"2026-05-17T18:56:47.237371+05:30"},{"city":"Gangtok","state":"Sikkim","latitude":27.3314,"longitude":88.6138,"temp":16.3,"humidity":94,"rain":0.5,"pressure":833.0,"uv_index":9.1,"wind_gusts":38.2,"aqi":95,"pm10":27.0,"pm2_5":21.4,"no2":6.7,"co":376.0,"o3":113.0,"so2":2.3,"mosquito_risk":6,"arthritis_risk":10,"migraine_risk":7,"frizz_risk":0,"updated_at":"2026-05-17T18:56:47.237377+05:30"},{"city":"Siliguri","state":"West Bengal","latitude":26.7271,"longitude":88.3953,"temp":24.5,"humidity":94,"rain":0.1,"pressure":987.8,"uv_index":8.7,"wind_gusts":31.0,"aqi":110,"pm10":37.6,"pm2_5":30.3,"no2":8.4,"co":492.0,"o3":118.0,"so2":5.4,"mosquito_risk":6,"arthritis_risk":5,"migraine_risk":7,"frizz_risk":1,"updated_at":"2026-05-17T18:56:50.528479+05:30"},{"city":"Durgapur","state":"West Bengal","latitude":23.5204,"longitude":87.3119,"temp":31.2,"humidity":65,"rain":0.0,"pressure":988.9,"uv_index":8.95,"wind_gusts":35.6,"aqi":168,"pm10":86.6,"pm2_5":65.0,"no2":21.6,"co":492.0,"o3":122.0,"so2":36.1,"mosquito_risk":3,"arthritis_risk":5,"migraine_risk":7,"frizz_risk":1,"updated_at":"2026-05-17T18:56:50.528517+05:30"},{"city":"Asansol","state":"West Bengal","latitude":23.6739,"longitude":86.9524,"temp":32.2,"humidity":53,"rain":0.0,"pressure":987.0,"uv_index":9.0,"wind_gusts":38.2,"aqi":149,"pm10":78.2,"pm2_5":54.0,"no2":22.4,"co":332.0,"o3":108.0,"so2":33.3,"mosquito_risk":0,"arthritis_risk":5,"migraine_risk":7,"frizz_risk":1,"updated_at":"2026-05-17T18:56:50.528528+05:30"},{"city":"Pondicherry","state":"Puducherry","latitude":11.9139,"longitude":79.8145,"temp":29.9,"humidity":78,"rain":0.0,"pressure":1003.7,"uv_index":9.05,"wind_gusts":43.2,"aqi":118,"pm10":27.5,"pm2_5":18.5,"no2":3.1,"co":292.0,"o3":111.0,"so2":2.7,"mosquito_risk":7,"arthritis_risk":5,"migraine_risk":4,"frizz_risk":1,"updated_at":"2026-05-17T18:56:50.528538+05:30"},{"city":"Port Blair","state":"Andaman and Nicobar Islands","latitude":11.6234,"longitude":92.7265,"temp":25.5,"humidity":97,"rain":0.3,"pressure":1005.6,"uv_index":2.0,"wind_gusts":41.0,"aqi":29,"pm10":5.0,"pm2_5":3.1,"no2":0.4,"co":119.0,"o3":46.0,"so2":0.2,"mosquito_risk":10,"arthritis_risk":5,"migraine_risk":0,"frizz_risk":1,"updated_at":"2026-05-17T18:56:50.528547+05:30"},{"city":"Haridwar","state":"Uttarakhand","latitude":29.9457,"longitude":78.1642,"temp":32.0,"humidity":40,"rain":0.0,"pressure":966.6,"uv_index":7.5,"wind_gusts":34.6,"aqi":151,"pm10":63.8,"pm2_5":23.2,"no2":5.0,"co":260.0,"o3":139.0,"so2":8.1,"mosquito_risk":0,"arthritis_risk":5,"migraine_risk":7,"frizz_risk":1,"updated_at":"2026-05-17T18:56:50.528554+05:30"},{"city":"Rishikesh","state":"Uttarakhand","latitude":30.0869,"longitude":78.2676,"temp":30.9,"humidity":48,"rain":0.0,"pressure":959.6,"uv_index":7.65,"wind_gusts":32.4,"aqi":142,"pm10":36.6,"pm2_5":15.0,"no2":2.8,"co":256.0,"o3":156.0,"so2":7.2,"mosquito_risk":0,"arthritis_risk":5,"migraine_risk":7,"frizz_risk":1,"updated_at":"2026-05-17T18:56:50.528562+05:30"},{"city":"Nainital","state":"Uttarakhand","latitude":29.3919,"longitude":79.4542,"temp":18.7,"humidity":60,"rain":0.0,"pressure":802.5,"uv_index":8.5,"wind_gusts":38.9,"aqi":149,"pm10":59.8,"pm2_5":22.8,"no2":2.8,"co":232.0,"o3":153.0,"so2":6.2,"mosquito_risk":0,"arthritis_risk":5,"migraine_risk":7,"frizz_risk":0,"updated_at":"2026-05-17T18:56:50.528569+05:30"},{"city":"Mussoorie","state":"Uttarakhand","latitude":30.4599,"longitude":78.0664,"temp":19.1,"humidity":59,"rain":0.0,"pressure":800.2,"uv_index":8.05,"wind_gusts":55.1,"aqi":143,"pm10":17.9,"pm2_5":14.0,"no2":4.6,"co":267.0,"o3":148.0,"so2":6.6,"mosquito_risk":0,"arthritis_risk":5,"migraine_risk":7,"frizz_risk":0,"updated_at":"2026-05-17T18:56:50.528577+05:30"},{"city":"Dharamshala","state":"Himachal Pradesh","latitude":32.219,"longitude":76.3234,"temp":23.8,"humidity":48,"rain":0.0,"pressure":866.2,"uv_index":8.4,"wind_gusts":44.3,"aqi":104,"pm10":20.4,"pm2_5":13.9,"no2":3.8,"co":198.0,"o3":124.0,"so2":1.8,"mosquito_risk":0,"arthritis_risk":5,"migraine_risk":7,"frizz_risk":0,"updated_at":"2026-05-17T18:56:50.528584+05:30"},{"city":"Dalhousie","state":"Himachal Pradesh","latitude":32.5387,"longitude":75.971,"temp":20.0,"humidity":54,"rain":0.0,"pressure":803.6,"uv_index":8.65,"wind_gusts":38.5,"aqi":130,"pm10":22.7,"pm2_5":14.2,"no2":6.4,"co":244.0,"o3":145.0,"so2":2.9,"mosquito_risk":0,"arthritis_risk":5,"migraine_risk":7,"frizz_risk":0,"updated_at":"2026-05-17T18:56:50.528592+05:30"},{"city":"Patiala","state":"Punjab","latitude":30.3398,"longitude":76.3869,"temp":35.7,"humidity":26,"rain":0.0,"pressure":971.8,"uv_index":7.6,"wind_gusts":45.7,"aqi":576,"pm10":1102.7,"pm2_5":146.2,"no2":3.6,"co":307.0,"o3":124.0,"so2":5.6,"mosquito_risk":0,"arthritis_risk":5,"migraine_risk":10,"frizz_risk":0,"updated_at":"2026-05-17T18:56:50.528600+05:30"},{"city":"Bhatinda","state":"Punjab","latitude":30.211,"longitude":74.9455,"temp":36.0,"humidity":31,"rain":0.0,"pressure":977.6,"uv_index":8.25,"wind_gusts":38.2,"aqi":110,"pm10":66.6,"pm2_5":24.6,"no2":3.8,"co":258.0,"o3":116.0,"so2":7.4,"mosquito_risk":0,"arthritis_risk":5,"migraine_risk":10,"frizz_risk":1,"updated_at":"2026-05-17T18:56:50.528607+05:30"},{"city":"Rohtak","state":"Haryana","latitude":28.8955,"longitude":76.6066,"temp":36.5,"humidity":26,"rain":0.0,"pressure":975.1,"uv_index":7.75,"wind_gusts":46.8,"aqi":819,"pm10":1184.6,"pm2_5":171.8,"no2":7.8,"co":284.0,"o3":109.0,"so2":6.6,"mosquito_risk":0,"arthritis_risk":5,"migraine_risk":10,"frizz_risk":0,"updated_at":"2026-05-17T18:56:50.528614+05:30"},{"city":"Panipat","state":"Haryana","latitude":29.3909,"longitude":76.9635,"temp":36.1,"humidity":25,"rain":0.0,"pressure":973.5,"uv_index":7.6,"wind_gusts":50.0,"aqi":1748,"pm10":2540.6,"pm2_5":339.0,"no2":6.1,"co":244.0,"o3":111.0,"so2":8.9,"mosquito_risk":0,"arthritis_risk":5,"migraine_risk":10,"frizz_risk":0,"updated_at":"2026-05-17T18:56:50.528621+05:30"},{"city":"Mathura","state":"Uttar Pradesh","latitude":27.4924,"longitude":77.6737,"temp":37.2,"humidity":25,"rain":0.0,"pressure":980.0,"uv_index":8.0,"wind_gusts":43.6,"aqi":707,"pm10":1069.2,"pm2_5":143.4,"no2":6.1,"co":283.0,"o3":99.0,"so2":4.7,"mosquito_risk":0,"arthritis_risk":5,"migraine_risk":10,"frizz_risk":0,"updated_at":"2026-05-17T18:56:50.528628+05:30"},{"city":"Vrindavan","state":"Uttar Pradesh","latitude":27.5823,"longitude":77.7027,"temp":36.2,"humidity":29,"rain":0.0,"pressure":980.4,"uv_index":7.95,"wind_gusts":41.4,"aqi":707,"pm10":1069.2,"pm2_5":143.4,"no2":6.1,"co":265.0,"o3":99.0,"so2":4.7,"mosquito_risk":0,"arthritis_risk":5,"migraine_risk":10,"frizz_risk":0,"updated_at":"2026-05-17T18:56:50.528634+05:30"},{"city":"Ayodhya","state":"Uttar Pradesh","latitude":26.7922,"longitude":82.1998,"temp":33.3,"humidity":49,"rain":0.0,"pressure":987.0,"uv_index":8.35,"wind_gusts":39.2,"aqi":148,"pm10":84.1,"pm2_5":41.1,"no2":6.0,"co":311.0,"o3":127.0,"so2":9.1,"mosquito_risk":0,"arthritis_risk":5,"migraine_risk":7,"frizz_risk":1,"updated_at":"2026-05-17T18:56:50.528642+05:30"},{"city":"Ratlam","state":"Madhya Pradesh","latitude":23.3315,"longitude":75.0367,"temp":38.7,"humidity":14,"rain":0.0,"pressure":949.3,"uv_index":8.55,"wind_gusts":36.4,"aqi":74,"pm10":60.8,"pm2_5":21.3,"no2":1.5,"co":162.0,"o3":116.0,"so2":4.7,"mosquito_risk":0,"arthritis_risk":5,"migraine_risk":10,"frizz_risk":0,"updated_at":"2026-05-17T18:56:50.528649+05:30"},{"city":"Sagar","state":"Madhya Pradesh","latitude":23.8388,"longitude":78.7378,"temp":36.8,"humidity":19,"rain":0.0,"pressure":945.5,"uv_index":8.75,"wind_gusts":44.6,"aqi":97,"pm10":71.2,"pm2_5":24.6,"no2":2.0,"co":167.0,"o3":119.0,"so2":3.5,"mosquito_risk":0,"arthritis_risk":5,"migraine_risk":10,"frizz_risk":0,"updated_at":"2026-05-17T18:56:50.528656+05:30"},{"city":"Satna","state":"Madhya Pradesh","latitude":24.6005,"longitude":80.8322,"temp":37.0,"humidity":21,"rain":0.0,"pressure":965.5,"uv_index":8.75,"wind_gusts":47.9,"aqi":103,"pm10":101.0,"pm2_5":29.2,"no2":4.1,"co":215.0,"o3":111.0,"so2":2.9,"mosquito_risk":0,"arthritis_risk":5,"migraine_risk":10,"frizz_risk":0,"updated_at":"2026-05-17T18:56:50.528663+05:30"},{"city":"Akola","state":"Maharashtra","latitude":20.7002,"longitude":77.0082,"temp":40.1,"humidity":14,"rain":0.0,"pressure":969.1,"uv_index":8.9,"wind_gusts":33.8,"aqi":109,"pm10":17.1,"pm2_5":11.8,"no2":4.9,"co":187.0,"o3":122.0,"so2":5.3,"mosquito_risk":0,"arthritis_risk":5,"migraine_risk":10,"frizz_risk":0,"updated_at":"2026-05-17T18:56:50.528671+05:30"},{"city":"Amravati","state":"Maharashtra","latitude":20.9374,"longitude":77.7796,"temp":39.3,"humidity":16,"rain":0.0,"pressure":961.4,"uv_index":8.95,"wind_gusts":28.1,"aqi":112,"pm10":18.6,"pm2_5":13.4,"no2":8.2,"co":197.0,"o3":123.0,"so2":7.2,"mosquito_risk":0,"arthritis_risk":5,"migraine_risk":10,"frizz_risk":0,"updated_at":"2026-05-17T18:56:50.528679+05:30"},{"city":"Latur","state":"Maharashtra","latitude":18.4088,"longitude":76.5604,"temp":36.5,"humidity":21,"rain":0.0,"pressure":935.4,"uv_index":9.1,"wind_gusts":37.8,"aqi":120,"pm10":19.1,"pm2_5":13.7,"no2":4.6,"co":197.0,"o3":131.0,"so2":6.1,"mosquito_risk":0,"arthritis_risk":5,"migraine_risk":10,"frizz_risk":0,"updated_at":"2026-05-17T18:56:50.528686+05:30"},{"city":"Nanded","state":"Maharashtra","latitude":19.1383,"longitude":77.3091,"temp":38.2,"humidity":21,"rain":0.0,"pressure":963.0,"uv_index":8.95,"wind_gusts":32.8,"aqi":119,"pm10":17.7,"pm2_5":13.2,"no2":8.4,"co":264.0,"o3":125.0,"so2":5.4,"mosquito_risk":0,"arthritis_risk":5,"migraine_risk":10,"frizz_risk":0,"updated_at":"2026-05-17T18:56:50.528692+05:30"},{"city":"Gulbarga","state":"Karnataka","latitude":17.3297,"longitude":76.8343,"temp":37.2,"humidity":24,"rain":0.0,"pressure":953.5,"uv_index":9.1,"wind_gusts":42.5,"aqi":143,"pm10":36.1,"pm2_5":26.4,"no2":6.2,"co":220.0,"o3":140.0,"so2":8.0,"mosquito_risk":0,"arthritis_risk":5,"migraine_risk":10,"frizz_risk":0,"updated_at":"2026-05-17T18:56:50.528699+05:30"},{"city":"Bidar","state":"Karnataka","latitude":17.9104,"longitude":77.5199,"temp":33.5,"humidity":35,"rain":0.0,"pressure":931.5,"uv_index":9.15,"wind_gusts":33.1,"aqi":132,"pm10":34.0,"pm2_5":26.7,"no2":6.1,"co":234.0,"o3":135.0,"so2":6.8,"mosquito_risk":0,"arthritis_risk":5,"migraine_risk":7,"frizz_risk":1,"updated_at":"2026-05-17T18:56:50.528706+05:30"},{"city":"Hospet","state":"Karnataka","latitude":15.2689,"longitude":76.3909,"temp":31.4,"humidity":57,"rain":0.0,"pressure":950.8,"uv_index":9.2,"wind_gusts":62.6,"aqi":119,"pm10":42.5,"pm2_5":31.8,"no2":10.1,"co":253.0,"o3":134.0,"so2":13.8,"mosquito_risk":0,"arthritis_risk":5,"migraine_risk":7,"frizz_risk":1,"updated_at":"2026-05-17T18:56:50.528711+05:30"},{"city":"Tirupur","state":"Tamil Nadu","latitude":11.1085,"longitude":77.3411,"temp":28.0,"humidity":74,"rain":0.0,"pressure":971.1,"uv_index":8.6,"wind_gusts":52.9,"aqi":99,"pm10":16.8,"pm2_5":13.4,"no2":7.8,"co":205.0,"o3":93.0,"so2":3.3,"mosquito_risk":7,"arthritis_risk":5,"migraine_risk":7,"frizz_risk":1,"updated_at":"2026-05-17T18:56:50.528718+05:30"},{"city":"Alappuzha","state":"Kerala","latitude":9.4981,"longitude":76.3388,"temp":27.0,"humidity":90,"rain":0.1,"pressure":1005.8,"uv_index":8.5,"wind_gusts":24.5,"aqi":51,"pm10":12.8,"pm2_5":8.9,"no2":6.0,"co":134.0,"o3":68.0,"so2":1.6,"mosquito_risk":10,"arthritis_risk":5,"migraine_risk":4,"frizz_risk":1,"updated_at":"2026-05-17T18:56:50.528724+05:30"},{"city":"Munnar","state":"Kerala","latitude":10.0889,"longitude":77.0595,"temp":18.1,"humidity":100,"rain":0.0,"pressure":853.9,"uv_index":7.8,"wind_gusts":25.6,"aqi":46,"pm10":3.9,"pm2_5":3.7,"no2":5.8,"co":203.0,"o3":64.0,"so2":1.4,"mosquito_risk":3,"arthritis_risk":10,"migraine_risk":7,"frizz_risk":1,"updated_at":"2026-05-17T18:56:50.528731+05:30"},{"city":"Silchar","state":"Assam","latitude":24.8333,"longitude":92.7789,"temp":27.0,"humidity":89,"rain":0.0,"pressure":1000.7,"uv_index":8.9,"wind_gusts":27.7,"aqi":67,"pm10":35.4,"pm2_5":26.7,"no2":6.0,"co":301.0,"o3":82.0,"so2":4.4,"mosquito_risk":7,"arthritis_risk":5,"migraine_risk":4,"frizz_risk":1,"updated_at":"2026-05-17T18:56:50.528738+05:30"},{"city":"Dibrugarh","state":"Assam","latitude":27.4728,"longitude":94.912,"temp":23.1,"humidity":90,"rain":0.0,"pressure":992.3,"uv_index":5.7,"wind_gusts":30.2,"aqi":72,"pm10":28.6,"pm2_5":25.1,"no2":10.3,"co":305.0,"o3":76.0,"so2":2.2,"mosquito_risk":3,"arthritis_risk":5,"migraine_risk":3,"frizz_risk":1,"updated_at":"2026-05-17T18:56:50.528744+05:30"}]