[{"city":"Delhi","state":"Delhi","latitude":28.6139,"longitude":77.209,"temp":22.5,"humidity":59,"rain":0.0,"pressure":986.2,"uv_index":5.85,"wind_gusts":22.3,"aqi":291,"pm10":115.7,"pm2_5":56.6,"mosquito_risk":0,"arthritis_risk":5,"migraine_risk":3,"frizz_risk":0,"updated_at":"2026-03-17T10:25:06.315281+05:30"},{"city":"Mumbai","state":"Maharashtra","latitude":19.076,"longitude":72.8777,"temp":26.4,"humidity":76,"rain":0.0,"pressure":1011.3,"uv_index":7.7,"wind_gusts":18.7,"aqi":104,"pm10":108.7,"pm2_5":39.7,"mosquito_risk":7,"arthritis_risk":0,"migraine_risk":4,"frizz_risk":1,"updated_at":"2026-03-17T10:25:06.315321+05:30"},{"city":"Bangalore","state":"Karnataka","latitude":12.9716,"longitude":77.5946,"temp":26.4,"humidity":58,"rain":0.0,"pressure":914.7,"uv_index":9.35,"wind_gusts":44.6,"aqi":96,"pm10":31.0,"pm2_5":29.3,"mosquito_risk":4,"arthritis_risk":5,"migraine_risk":7,"frizz_risk":1,"updated_at":"2026-03-17T10:25:06.315337+05:30"},{"city":"Hyderabad","state":"Telangana","latitude":17.385,"longitude":78.4867,"temp":29.3,"humidity":52,"rain":0.0,"pressure":956.8,"uv_index":7.65,"wind_gusts":21.2,"aqi":92,"pm10":20.3,"pm2_5":15.9,"mosquito_risk":4,"arthritis_risk":5,"migraine_risk":7,"frizz_risk":1,"updated_at":"2026-03-17T10:25:06.315346+05:30"},{"city":"Chennai","state":"Tamil Nadu","latitude":13.0827,"longitude":80.2707,"temp":30.9,"humidity":57,"rain":0.0,"pressure":1011.0,"uv_index":9.1,"wind_gusts":31.7,"aqi":33,"pm10":11.0,"pm2_5":7.8,"mosquito_risk":0,"arthritis_risk":0,"migraine_risk":4,"frizz_risk":1,"updated_at":"2026-03-17T10:25:06.315354+05:30"},{"city":"Kolkata","state":"West Bengal","latitude":22.5726,"longitude":88.3639,"temp":28.5,"humidity":71,"rain":0.0,"pressure":1010.3,"uv_index":7.85,"wind_gusts":53.6,"aqi":86,"pm10":34.3,"pm2_5":30.0,"mosquito_risk":7,"arthritis_risk":0,"migraine_risk":4,"frizz_risk":1,"updated_at":"2026-03-17T10:25:06.315363+05:30"},{"city":"Pune","state":"Maharashtra","latitude":18.5204,"longitude":73.8567,"temp":30.2,"humidity":25,"rain":0.0,"pressure":951.1,"uv_index":8.25,"wind_gusts":34.9,"aqi":87,"pm10":59.8,"pm2_5":26.9,"mosquito_risk":0,"arthritis_risk":5,"migraine_risk":7,"frizz_risk":0,"updated_at":"2026-03-17T10:25:06.315375+05:30"},{"city":"Ahmedabad","state":"Gujarat","latitude":23.0225,"longitude":72.5714,"temp":28.1,"humidity":57,"rain":0.0,"pressure":1005.0,"uv_index":7.55,"wind_gusts":22.3,"aqi":56,"pm10":33.8,"pm2_5":17.0,"mosquito_risk":4,"arthritis_risk":5,"migraine_risk":4,"frizz_risk":1,"updated_at":"2026-03-17T10:25:06.315383+05:30"},{"city":"Jaipur","state":"Rajasthan","latitude":26.9124,"longitude":75.7873,"temp":27.8,"humidity":37,"rain":0.0,"pressure":961.9,"uv_index":6.85,"wind_gusts":38.5,"aqi":230,"pm10":442.4,"pm2_5":94.3,"mosquito_risk":4,"arthritis_risk":5,"migraine_risk":7,"frizz_risk":0,"updated_at":"2026-03-17T10:25:06.315390+05:30"},{"city":"Lucknow","state":"Uttar Pradesh","latitude":26.8467,"longitude":80.9462,"temp":29.3,"humidity":37,"rain":0.0,"pressure":996.1,"uv_index":6.45,"wind_gusts":25.2,"aqi":93,"pm10":54.0,"pm2_5":31.3,"mosquito_risk":4,"arthritis_risk":5,"migraine_risk":7,"frizz_risk":0,"updated_at":"2026-03-17T10:25:06.315398+05:30"},{"city":"Kanpur","state":"Uttar Pradesh","latitude":26.4499,"longitude":80.3319,"temp":29.1,"humidity":46,"rain":0.0,"pressure":994.2,"uv_index":6.7,"wind_gusts":21.6,"aqi":120,"pm10":91.0,"pm2_5":40.4,"mosquito_risk":4,"arthritis_risk":5,"migraine_risk":7,"frizz_risk":1,"updated_at":"2026-03-17T10:25:06.315405+05:30"},{"city":"Chandigarh","state":"Chandigarh","latitude":30.7333,"longitude":76.7794,"temp":22.8,"humidity":48,"rain":0.0,"pressure":972.1,"uv_index":5.65,"wind_gusts":12.2,"aqi":62,"pm10":44.5,"pm2_5":20.0,"mosquito_risk":0,"arthritis_risk":5,"migraine_risk":3,"frizz_risk":0,"updated_at":"2026-03-17T10:25:06.315412+05:30"},{"city":"Srinagar","state":"Jammu and Kashmir","latitude":34.0837,"longitude":74.7973,"temp":8.9,"humidity":73,"rain":0.0,"pressure":842.5,"uv_index":6.8,"wind_gusts":13.0,"aqi":81,"pm10":22.1,"pm2_5":19.1,"mosquito_risk":3,"arthritis_risk":5,"migraine_risk":7,"frizz_risk":0,"updated_at":"2026-03-17T10:25:06.315419+05:30"},{"city":"Jammu","state":"Jammu and Kashmir","latitude":32.7266,"longitude":74.857,"temp":22.6,"humidity":46,"rain":0.0,"pressure":976.5,"uv_index":6.75,"wind_gusts":16.9,"aqi":74,"pm10":30.2,"pm2_5":25.7,"mosquito_risk":0,"arthritis_risk":5,"migraine_risk":7,"frizz_risk":0,"updated_at":"2026-03-17T10:25:06.315425+05:30"},{"city":"Amritsar","state":"Punjab","latitude":31.634,"longitude":74.8723,"temp":20.2,"humidity":58,"rain":0.0,"pressure":985.2,"uv_index":6.55,"wind_gusts":16.6,"aqi":85,"pm10":42.5,"pm2_5":30.7,"mosquito_risk":0,"arthritis_risk":5,"migraine_risk":7,"frizz_risk":0,"updated_at":"2026-03-17T10:25:06.315432+05:30"},{"city":"Ludhiana","state":"Punjab","latitude":30.901,"longitude":75.8573,"temp":20.2,"humidity":53,"rain":0.0,"pressure":982.6,"uv_index":6.3,"wind_gusts":16.2,"aqi":75,"pm10":45.4,"pm2_5":28.8,"mosquito_risk":0,"arthritis_risk":5,"migraine_risk":7,"frizz_risk":0,"updated_at":"2026-03-17T10:25:06.315438+05:30"},{"city":"Jalandhar","state":"Punjab","latitude":31.326,"longitude":75.5762,"temp":19.5,"humidity":57,"rain":0.0,"pressure":983.9,"uv_index":6.4,"wind_gusts":16.6,"aqi":72,"pm10":43.8,"pm2_5":29.3,"mosquito_risk":0,"arthritis_risk":5,"migraine_risk":7,"frizz_risk":0,"updated_at":"2026-03-17T10:25:06.315446+05:30"},{"city":"Dehradun","state":"Uttarakhand","latitude":30.6284,"longitude":78.0322,"temp":13.4,"humidity":38,"rain":0.0,"pressure":830.7,"uv_index":5.2,"wind_gusts":23.8,"aqi":35,"pm10":32.2,"pm2_5":6.0,"mosquito_risk":0,"arthritis_risk":5,"migraine_risk":3,"frizz_risk":1,"updated_at":"2026-03-17T10:25:06.315453+05:30"},{"city":"Shimla","state":"Himachal Pradesh","latitude":31.1048,"longitude":77.1734,"temp":13.2,"humidity":45,"rain":0.0,"pressure":785.0,"uv_index":5.65,"wind_gusts":23.0,"aqi":45,"pm10":38.8,"pm2_5":11.5,"mosquito_risk":0,"arthritis_risk":5,"migraine_risk":3,"frizz_risk":0,"updated_at":"2026-03-17T10:25:06.315460+05:30"},{"city":"Manali","state":"Himachal Pradesh","latitude":32.2396,"longitude":77.1887,"temp":13.0,"humidity":23,"rain":0.0,"pressure":818.1,"uv_index":8.55,"wind_gusts":38.2,"aqi":47,"pm10":15.4,"pm2_5":5.8,"mosquito_risk":0,"arthritis_risk":5,"migraine_risk":7,"frizz_risk":1,"updated_at":"2026-03-17T10:25:06.315467+05:30"},{"city":"Gurgaon","state":"Haryana","latitude":28.4595,"longitude":77.0266,"temp":22.3,"humidity":61,"rain":0.0,"pressure":984.8,"uv_index":5.4,"wind_gusts":22.7,"aqi":1531,"pm10":814.0,"pm2_5":131.3,"mosquito_risk":3,"arthritis_risk":5,"migraine_risk":3,"frizz_risk":0,"updated_at":"2026-03-17T10:25:06.315474+05:30"},{"city":"Noida","state":"Uttar Pradesh","latitude":28.5355,"longitude":77.391,"temp":23.0,"humidity":60,"rain":0.0,"pressure":987.7,"uv_index":5.45,"wind_gusts":22.3,"aqi":1531,"pm10":814.0,"pm2_5":131.3,"mosquito_risk":0,"arthritis_risk":5,"migraine_risk":3,"frizz_risk":0,"updated_at":"2026-03-17T10:25:06.315480+05:30"},{"city":"Ghaziabad","state":"Uttar Pradesh","latitude":28.6692,"longitude":77.4538,"temp":22.1,"humidity":65,"rain":0.0,"pressure":985.8,"uv_index":5.6,"wind_gusts":19.8,"aqi":120,"pm10":65.4,"pm2_5":49.6,"mosquito_risk":3,"arthritis_risk":5,"migraine_risk":3,"frizz_risk":0,"updated_at":"2026-03-17T10:25:06.315488+05:30"},{"city":"Faridabad","state":"Haryana","latitude":28.4089,"longitude":77.3178,"temp":23.5,"humidity":60,"rain":0.0,"pressure":986.9,"uv_index":5.3,"wind_gusts":21.2,"aqi":1531,"pm10":814.0,"pm2_5":131.3,"mosquito_risk":0,"arthritis_risk":5,"migraine_risk":3,"frizz_risk":0,"updated_at":"2026-03-17T10:25:06.315495+05:30"},{"city":"Meerut","state":"Uttar Pradesh","latitude":28.9845,"longitude":77.7064,"temp":23.5,"humidity":59,"rain":0.0,"pressure":984.7,"uv_index":5.8,"wind_gusts":15.1,"aqi":120,"pm10":65.4,"pm2_5":49.6,"mosquito_risk":0,"arthritis_risk":5,"migraine_risk":3,"frizz_risk":0,"updated_at":"2026-03-17T10:25:06.315501+05:30"},{"city":"Agra","state":"Uttar Pradesh","latitude":27.1767,"longitude":78.0081,"temp":26.6,"humidity":53,"rain":0.0,"pressure":990.4,"uv_index":6.55,"wind_gusts":16.6,"aqi":585,"pm10":401.4,"pm2_5":80.8,"mosquito_risk":4,"arthritis_risk":5,"migraine_risk":7,"frizz_risk":1,"updated_at":"2026-03-17T10:25:06.315508+05:30"},{"city":"Varanasi","state":"Uttar Pradesh","latitude":25.3176,"longitude":82.9739,"temp":30.4,"humidity":53,"rain":0.0,"pressure":1000.4,"uv_index":7.35,"wind_gusts":21.6,"aqi":151,"pm10":67.5,"pm2_5":48.4,"mosquito_risk":0,"arthritis_risk":5,"migraine_risk":4,"frizz_risk":1,"updated_at":"2026-03-17T10:25:06.315516+05:30"},{"city":"Prayagraj","state":"Uttar Pradesh","latitude":25.4358,"longitude":81.8463,"temp":29.4,"humidity":58,"rain":0.0,"pressure":998.7,"uv_index":7.2,"wind_gusts":20.9,"aqi":136,"pm10":64.3,"pm2_5":44.0,"mosquito_risk":4,"arthritis_risk":5,"migraine_risk":7,"frizz_risk":1,"updated_at":"2026-03-17T10:25:06.315524+05:30"},{"city":"Gorakhpur","state":"Uttar Pradesh","latitude":26.7606,"longitude":83.3732,"temp":28.6,"humidity":45,"rain":0.0,"pressure":1000.1,"uv_index":7.05,"wind_gusts":23.0,"aqi":91,"pm10":59.6,"pm2_5":34.7,"mosquito_risk":4,"arthritis_risk":5,"migraine_risk":4,"frizz_risk":0,"updated_at":"2026-03-17T10:25:06.315531+05:30"},{"city":"Bareilly","state":"Uttar Pradesh","latitude":28.367,"longitude":79.4304,"temp":24.5,"humidity":52,"rain":0.0,"pressure":990.0,"uv_index":5.3,"wind_gusts":16.6,"aqi":99,"pm10":70.8,"pm2_5":34.2,"mosquito_risk":0,"arthritis_risk":5,"migraine_risk":3,"frizz_risk":0,"updated_at":"2026-03-17T10:25:06.315538+05:30"},{"city":"Aligarh","state":"Uttar Pradesh","latitude":27.8974,"longitude":78.088,"temp":25.8,"humidity":53,"rain":0.0,"pressure":988.5,"uv_index":5.6,"wind_gusts":18.0,"aqi":368,"pm10":259.8,"pm2_5":65.7,"mosquito_risk":4,"arthritis_risk":5,"migraine_risk":3,"frizz_risk":0,"updated_at":"2026-03-17T10:25:06.315544+05:30"},{"city":"Moradabad","state":"Uttar Pradesh","latitude":28.8386,"longitude":78.7733,"temp":23.8,"humidity":57,"rain":0.0,"pressure":986.8,"uv_index":5.0,"wind_gusts":16.2,"aqi":107,"pm10":66.8,"pm2_5":41.6,"mosquito_risk":0,"arthritis_risk":5,"migraine_risk":3,"frizz_risk":0,"updated_at":"2026-03-17T10:25:06.315550+05:30"},{"city":"Saharanpur","state":"Uttar Pradesh","latitude":29.9637,"longitude":77.546,"temp":22.9,"humidity":46,"rain":0.0,"pressure":979.0,"uv_index":4.8,"wind_gusts":14.8,"aqi":123,"pm10":42.0,"pm2_5":33.5,"mosquito_risk":0,"arthritis_risk":5,"migraine_risk":3,"frizz_risk":0,"updated_at":"2026-03-17T10:25:06.315558+05:30"},{"city":"Jhansi","state":"Uttar Pradesh","latitude":25.4484,"longitude":78.5685,"temp":30.9,"humidity":26,"rain":0.0,"pressure":979.8,"uv_index":7.2,"wind_gusts":25.2,"aqi":91,"pm10":38.1,"pm2_5":16.4,"mosquito_risk":0,"arthritis_risk":5,"migraine_risk":7,"frizz_risk":0,"updated_at":"2026-03-17T10:25:09.652796+05:30"},{"city":"Surat","state":"Gujarat","latitude":21.1702,"longitude":72.8311,"temp":27.5,"humidity":74,"rain":0.0,"pressure":1009.9,"uv_index":7.4,"wind_gusts":29.5,"aqi":97,"pm10":59.3,"pm2_5":37.4,"mosquito_risk":7,"arthritis_risk":0,"migraine_risk":4,"frizz_risk":1,"updated_at":"2026-03-17T10:25:09.652833+05:30"},{"city":"Vadodara","state":"Gujarat","latitude":22.3072,"longitude":73.1812,"temp":29.7,"humidity":60,"rain":0.0,"pressure":1007.4,"uv_index":7.5,"wind_gusts":28.1,"aqi":72,"pm10":38.1,"pm2_5":23.6,"mosquito_risk":4,"arthritis_risk":5,"migraine_risk":4,"frizz_risk":1,"updated_at":"2026-03-17T10:25:09.652845+05:30"},{"city":"Rajkot","state":"Gujarat","latitude":22.3039,"longitude":70.8022,"temp":29.1,"humidity":48,"rain":0.0,"pressure":996.9,"uv_index":7.35,"wind_gusts":24.5,"aqi":56,"pm10":43.0,"pm2_5":14.8,"mosquito_risk":4,"arthritis_risk":5,"migraine_risk":7,"frizz_risk":1,"updated_at":"2026-03-17T10:25:09.652855+05:30"},{"city":"Thane","state":"Maharashtra","latitude":19.2183,"longitude":72.9781,"temp":28.2,"humidity":63,"rain":0.0,"pressure":1010.8,"uv_index":7.7,"wind_gusts":30.2,"aqi":104,"pm10":108.7,"pm2_5":39.7,"mosquito_risk":7,"arthritis_risk":0,"migraine_risk":4,"frizz_risk":1,"updated_at":"2026-03-17T10:25:09.652864+05:30"},{"city":"Nagpur","state":"Maharashtra","latitude":21.1458,"longitude":79.0882,"temp":30.6,"humidity":43,"rain":0.0,"pressure":976.4,"uv_index":8.05,"wind_gusts":18.0,"aqi":103,"pm10":56.0,"pm2_5":50.3,"mosquito_risk":0,"arthritis_risk":5,"migraine_risk":7,"frizz_risk":1,"updated_at":"2026-03-17T10:25:09.652873+05:30"},{"city":"Nashik","state":"Maharashtra","latitude":19.9975,"longitude":73.7898,"temp":26.6,"humidity":41,"rain":0.0,"pressure":948.4,"uv_index":7.9,"wind_gusts":27.4,"aqi":73,"pm10":91.3,"pm2_5":19.9,"mosquito_risk":4,"arthritis_risk":5,"migraine_risk":7,"frizz_risk":0,"updated_at":"2026-03-17T10:25:09.652882+05:30"},{"city":"Aurangabad","state":"Maharashtra","latitude":19.8762,"longitude":75.3433,"temp":29.8,"humidity":26,"rain":0.0,"pressure":947.2,"uv_index":8.4,"wind_gusts":27.4,"aqi":61,"pm10":54.9,"pm2_5":17.0,"mosquito_risk":4,"arthritis_risk":5,"migraine_risk":7,"frizz_risk":0,"updated_at":"2026-03-17T10:25:09.652891+05:30"},{"city":"Solapur","state":"Maharashtra","latitude":17.6599,"longitude":75.9064,"temp":29.5,"humidity":40,"rain":0.0,"pressure":960.3,"uv_index":8.5,"wind_gusts":26.6,"aqi":89,"pm10":35.7,"pm2_5":26.1,"mosquito_risk":4,"arthritis_risk":5,"migraine_risk":7,"frizz_risk":0,"updated_at":"2026-03-17T10:25:09.652901+05:30"},{"city":"Kolhapur","state":"Maharashtra","latitude":16.705,"longitude":74.2433,"temp":27.0,"humidity":49,"rain":0.0,"pressure":950.8,"uv_index":8.7,"wind_gusts":37.4,"aqi":89,"pm10":37.5,"pm2_5":28.3,"mosquito_risk":4,"arthritis_risk":5,"migraine_risk":7,"frizz_risk":0,"updated_at":"2026-03-17T10:25:09.652910+05:30"},{"city":"Goa","state":"Goa","latitude":15.2993,"longitude":74.124,"temp":29.8,"humidity":61,"rain":0.0,"pressure":1000.9,"uv_index":8.75,"wind_gusts":36.0,"aqi":76,"pm10":41.1,"pm2_5":21.0,"mosquito_risk":7,"arthritis_risk":5,"migraine_risk":4,"frizz_risk":1,"updated_at":"2026-03-17T10:25:09.652920+05:30"},{"city":"Jodhpur","state":"Rajasthan","latitude":26.2389,"longitude":73.0243,"temp":27.4,"humidity":37,"rain":0.0,"pressure":984.9,"uv_index":6.0,"wind_gusts":30.6,"aqi":107,"pm10":230.5,"pm2_5":70.5,"mosquito_risk":4,"arthritis_risk":5,"migraine_risk":3,"frizz_risk":0,"updated_at":"2026-03-17T10:25:09.652929+05:30"},{"city":"Udaipur","state":"Rajasthan","latitude":24.5854,"longitude":73.7125,"temp":29.8,"humidity":25,"rain":0.0,"pressure":948.4,"uv_index":7.85,"wind_gusts":34.2,"aqi":35,"pm10":52.0,"pm2_5":12.3,"mosquito_risk":4,"arthritis_risk":5,"migraine_risk":7,"frizz_risk":0,"updated_at":"2026-03-17T10:25:09.652938+05:30"},{"city":"Kota","state":"Rajasthan","latitude":25.2138,"longitude":75.8648,"temp":30.1,"humidity":26,"rain":0.0,"pressure":980.9,"uv_index":7.3,"wind_gusts":28.8,"aqi":70,"pm10":355.8,"pm2_5":73.6,"mosquito_risk":0,"arthritis_risk":5,"migraine_risk":7,"frizz_risk":0,"updated_at":"2026-03-17T10:25:09.652946+05:30"},{"city":"Bikaner","state":"Rajasthan","latitude":28.0229,"longitude":73.3119,"temp":23.3,"humidity":55,"rain":0.0,"pressure":985.2,"uv_index":6.7,"wind_gusts":19.8,"aqi":81,"pm10":190.5,"pm2_5":46.7,"mosquito_risk":0,"arthritis_risk":5,"migraine_risk":7,"frizz_risk":0,"updated_at":"2026-03-17T10:25:09.652954+05:30"},{"city":"Ajmer","state":"Rajasthan","latitude":26.4499,"longitude":74.6399,"temp":27.6,"humidity":37,"rain":0.0,"pressure":956.4,"uv_index":6.9,"wind_gusts":37.4,"aqi":113,"pm10":275.7,"pm2_5":68.5,"mosquito_risk":4,"arthritis_risk":5,"migraine_risk":7,"frizz_risk":0,"updated_at":"2026-03-17T10:25:09.652963+05:30"},{"city":"Gwalior","state":"Madhya Pradesh","latitude":26.2183,"longitude":78.1828,"temp":28.8,"humidity":40,"rain":0.0,"pressure":985.0,"uv_index":6.9,"wind_gusts":34.9,"aqi":92,"pm10":93.4,"pm2_5":32.4,"mosquito_risk":4,"arthritis_risk":5,"migraine_risk":7,"frizz_risk":0,"updated_at":"2026-03-17T10:25:09.652972+05:30"},{"city":"Indore","state":"Madhya Pradesh","latitude":22.7196,"longitude":75.8577,"temp":29.1,"humidity":35,"rain":0.0,"pressure":951.1,"uv_index":7.75,"wind_gusts":31.7,"aqi":58,"pm10":43.3,"pm2_5":20.0,"mosquito_risk":4,"arthritis_risk":5,"migraine_risk":7,"frizz_risk":0,"updated_at":"2026-03-17T10:25:09.652979+05:30"},{"city":"Bhopal","state":"Madhya Pradesh","latitude":23.2599,"longitude":77.4126,"temp":30.4,"humidity":28,"rain":0.0,"pressure":956.6,"uv_index":7.7,"wind_gusts":32.0,"aqi":46,"pm10":12.9,"pm2_5":10.5,"mosquito_risk":0,"arthritis_risk":5,"migraine_risk":7,"frizz_risk":0,"updated_at":"2026-03-17T10:25:09.652985+05:30"},{"city":"Jabalpur","state":"Madhya Pradesh","latitude":23.1815,"longitude":79.9864,"temp":28.9,"humidity":38,"rain":0.0,"pressure":964.7,"uv_index":7.75,"wind_gusts":32.0,"aqi":55,"pm10":28.5,"pm2_5":22.2,"mosquito_risk":4,"arthritis_risk":5,"migraine_risk":7,"frizz_risk":0,"updated_at":"2026-03-17T10:25:09.652992+05:30"},{"city":"Ujjain","state":"Madhya Pradesh","latitude":23.1765,"longitude":75.7885,"temp":28.0,"humidity":43,"rain":0.0,"pressure":956.5,"uv_index":7.65,"wind_gusts":28.4,"aqi":56,"pm10":44.4,"pm2_5":21.7,"mosquito_risk":4,"arthritis_risk":5,"migraine_risk":7,"frizz_risk":0,"updated_at":"2026-03-17T10:25:09.652999+05:30"},{"city":"Visakhapatnam","state":"Andhra Pradesh","latitude":17.6868,"longitude":83.2185,"temp":29.5,"humidity":62,"rain":0.0,"pressure":1008.4,"uv_index":8.7,"wind_gusts":37.4,"aqi":56,"pm10":20.4,"pm2_5":16.4,"mosquito_risk":7,"arthritis_risk":0,"migraine_risk":4,"frizz_risk":1,"updated_at":"2026-03-17T10:25:09.653006+05:30"},{"city":"Vijayawada","state":"Andhra Pradesh","latitude":16.5062,"longitude":80.648,"temp":28.9,"humidity":64,"rain":0.0,"pressure":1007.0,"uv_index":8.8,"wind_gusts":27.0,"aqi":50,"pm10":12.8,"pm2_5":10.0,"mosquito_risk":7,"arthritis_risk":5,"migraine_risk":4,"frizz_risk":1,"updated_at":"2026-03-17T10:25:09.653013+05:30"},{"city":"Guntur","state":"Andhra Pradesh","latitude":16.3067,"longitude":80.4365,"temp":29.7,"humidity":62,"rain":0.0,"pressure":1008.0,"uv_index":8.8,"wind_gusts":31.0,"aqi":48,"pm10":11.9,"pm2_5":9.1,"mosquito_risk":7,"arthritis_risk":0,"migraine_risk":4,"frizz_risk":1,"updated_at":"2026-03-17T10:25:09.653040+05:30"},{"city":"Nellore","state":"Andhra Pradesh","latitude":14.4426,"longitude":79.9865,"temp":30.3,"humidity":60,"rain":0.0,"pressure":1009.8,"uv_index":8.95,"wind_gusts":30.6,"aqi":39,"pm10":13.0,"pm2_5":9.9,"mosquito_risk":0,"arthritis_risk":0,"migraine_risk":4,"frizz_risk":1,"updated_at":"2026-03-17T10:25:09.653049+05:30"},{"city":"Kurnool","state":"Andhra Pradesh","latitude":15.8281,"longitude":78.0373,"temp":30.8,"humidity":51,"rain":0.0,"pressure":980.2,"uv_index":8.3,"wind_gusts":37.4,"aqi":73,"pm10":11.7,"pm2_5":10.4,"mosquito_risk":0,"arthritis_risk":5,"migraine_risk":7,"frizz_risk":1,"updated_at":"2026-03-17T10:25:09.653056+05:30"},{"city":"Kakinada","state":"Andhra Pradesh","latitude":16.9891,"longitude":82.2475,"temp":30.0,"humidity":61,"rain":0.0,"pressure":1012.0,"uv_index":8.75,"wind_gusts":29.2,"aqi":41,"pm10":12.8,"pm2_5":9.4,"mosquito_risk":7,"arthritis_risk":0,"migraine_risk":4,"frizz_risk":1,"updated_at":"2026-03-17T10:25:09.653063+05:30"},{"city":"Tirupati","state":"Andhra Pradesh","latitude":13.6288,"longitude":79.4192,"temp":28.7,"humidity":63,"rain":0.0,"pressure":995.7,"uv_index":9.1,"wind_gusts":28.1,"aqi":54,"pm10":12.1,"pm2_5":9.1,"mosquito_risk":7,"arthritis_risk":5,"migraine_risk":7,"frizz_risk":1,"updated_at":"2026-03-17T10:25:09.653069+05:30"},{"city":"Warangal","state":"Telangana","latitude":17.9689,"longitude":79.5941,"temp":27.4,"humidity":67,"rain":0.0,"pressure":982.9,"uv_index":8.25,"wind_gusts":29.9,"aqi":68,"pm10":15.0,"pm2_5":12.2,"mosquito_risk":7,"arthritis_risk":5,"migraine_risk":7,"frizz_risk":1,"updated_at":"2026-03-17T10:25:09.653076+05:30"},{"city":"Nizamabad","state":"Telangana","latitude":18.6725,"longitude":78.0941,"temp":31.9,"humidity":37,"rain":0.0,"pressure":968.2,"uv_index":8.45,"wind_gusts":26.3,"aqi":127,"pm10":32.8,"pm2_5":29.5,"mosquito_risk":0,"arthritis_risk":5,"migraine_risk":7,"frizz_risk":0,"updated_at":"2026-03-17T10:25:09.653082+05:30"},{"city":"Mysore","state":"Karnataka","latitude":12.2958,"longitude":76.6396,"temp":27.0,"humidity":58,"rain":0.0,"pressure":931.2,"uv_index":9.35,"wind_gusts":39.2,"aqi":127,"pm10":38.5,"pm2_5":35.5,"mosquito_risk":4,"arthritis_risk":5,"migraine_risk":7,"frizz_risk":1,"updated_at":"2026-03-17T10:25:09.653089+05:30"},{"city":"Mangalore","state":"Karnataka","latitude":12.9141,"longitude":74.856,"temp":26.2,"humidity":83,"rain":0.0,"pressure":1009.6,"uv_index":8.95,"wind_gusts":20.9,"aqi":105,"pm10":41.2,"pm2_5":28.5,"mosquito_risk":7,"arthritis_risk":0,"migraine_risk":4,"frizz_risk":1,"updated_at":"2026-03-17T10:25:09.653095+05:30"},{"city":"Hubli-Dharwad","state":"Karnataka","latitude":15.3647,"longitude":75.124,"temp":27.4,"humidity":53,"rain":0.0,"pressure":944.0,"uv_index":8.85,"wind_gusts":25.6,"aqi":83,"pm10":28.9,"pm2_5":19.8,"mosquito_risk":4,"arthritis_risk":5,"migraine_risk":7,"frizz_risk":1,"updated_at":"2026-03-17T10:25:09.653102+05:30"},{"city":"Belgaum","state":"Karnataka","latitude":15.8497,"longitude":74.4977,"temp":27.4,"humidity":35,"rain":0.0,"pressure":928.8,"uv_index":8.95,"wind_gusts":35.3,"aqi":77,"pm10":32.1,"pm2_5":20.5,"mosquito_risk":4,"arthritis_risk":5,"migraine_risk":7,"frizz_risk":0,"updated_at":"2026-03-17T10:25:12.993082+05:30"},{"city":"Coimbatore","state":"Tamil Nadu","latitude":11.0168,"longitude":76.9558,"temp":29.3,"humidity":52,"rain":0.0,"pressure":964.9,"uv_index":9.3,"wind_gusts":34.9,"aqi":100,"pm10":26.7,"pm2_5":24.9,"mosquito_risk":4,"arthritis_risk":5,"migraine_risk":7,"frizz_risk":1,"updated_at":"2026-03-17T10:25:12.993122+05:30"},{"city":"Madurai","state":"Tamil Nadu","latitude":9.9252,"longitude":78.1198,"temp":30.0,"humidity":62,"rain":0.0,"pressure":996.2,"uv_index":7.0,"wind_gusts":25.9,"aqi":49,"pm10":10.1,"pm2_5":7.9,"mosquito_risk":7,"arthritis_risk":5,"migraine_risk":7,"frizz_risk":1,"updated_at":"2026-03-17T10:25:12.993134+05:30"},{"city":"Trichy","state":"Tamil Nadu","latitude":10.7905,"longitude":78.7047,"temp":29.8,"humidity":63,"rain":0.0,"pressure":1003.2,"uv_index":9.2,"wind_gusts":20.9,"aqi":53,"pm10":13.9,"pm2_5":11.9,"mosquito_risk":7,"arthritis_risk":5,"migraine_risk":4,"frizz_risk":1,"updated_at":"2026-03-17T10:25:12.993144+05:30"},{"city":"Salem","state":"Tamil Nadu","latitude":11.6643,"longitude":78.146,"temp":29.4,"humidity":62,"rain":0.0,"pressure":980.6,"uv_index":9.25,"wind_gusts":19.1,"aqi":69,"pm10":22.2,"pm2_5":20.5,"mosquito_risk":7,"arthritis_risk":5,"migraine_risk":7,"frizz_risk":1,"updated_at":"2026-03-17T10:25:12.993153+05:30"},{"city":"Tirunelveli","state":"Tamil Nadu","latitude":8.7139,"longitude":77.7567,"temp":31.3,"humidity":57,"rain":0.0,"pressure":1006.1,"uv_index":7.15,"wind_gusts":39.2,"aqi":60,"pm10":16.6,"pm2_5":15.0,"mosquito_risk":0,"arthritis_risk":5,"migraine_risk":4,"frizz_risk":1,"updated_at":"2026-03-17T10:25:12.993162+05:30"},{"city":"Vellore","state":"Tamil Nadu","latitude":12.9165,"longitude":79.1325,"temp":29.5,"humidity":53,"rain":0.0,"pressure":988.4,"uv_index":9.15,"wind_gusts":32.0,"aqi":63,"pm10":15.8,"pm2_5":14.0,"mosquito_risk":4,"arthritis_risk":5,"migraine_risk":7,"frizz_risk":1,"updated_at":"2026-03-17T10:25:12.993171+05:30"},{"city":"Erode","state":"Tamil Nadu","latitude":11.341,"longitude":77.7172,"temp":30.4,"humidity":61,"rain":0.0,"pressure":992.3,"uv_index":9.25,"wind_gusts":28.8,"aqi":50,"pm10":10.0,"pm2_5":8.0,"mosquito_risk":3,"arthritis_risk":5,"migraine_risk":7,"frizz_risk":1,"updated_at":"2026-03-17T10:25:12.993180+05:30"},{"city":"Kochi","state":"Kerala","latitude":9.9312,"longitude":76.2673,"temp":28.1,"humidity":77,"rain":0.0,"pressure":1011.0,"uv_index":8.75,"wind_gusts":32.4,"aqi":85,"pm10":33.1,"pm2_5":30.2,"mosquito_risk":7,"arthritis_risk":0,"migraine_risk":4,"frizz_risk":1,"updated_at":"2026-03-17T10:25:12.993188+05:30"},{"city":"Thiruvananthapuram","state":"Kerala","latitude":8.5241,"longitude":76.9366,"temp":27.4,"humidity":80,"rain":0.0,"pressure":1010.1,"uv_index":8.2,"wind_gusts":24.8,"aqi":54,"pm10":14.3,"pm2_5":13.2,"mosquito_risk":7,"arthritis_risk":0,"migraine_risk":4,"frizz_risk":1,"updated_at":"2026-03-17T10:25:12.993196+05:30"},{"city":"Kozhikode","state":"Kerala","latitude":11.2588,"longitude":75.7804,"temp":28.8,"humidity":75,"rain":0.0,"pressure":1010.4,"uv_index":9.0,"wind_gusts":29.9,"aqi":97,"pm10":42.4,"pm2_5":37.1,"mosquito_risk":7,"arthritis_risk":0,"migraine_risk":4,"frizz_risk":1,"updated_at":"2026-03-17T10:25:12.993203+05:30"},{"city":"Thrissur","state":"Kerala","latitude":10.5276,"longitude":76.2144,"temp":30.8,"humidity":65,"rain":0.0,"pressure":1009.5,"uv_index":8.25,"wind_gusts":34.2,"aqi":86,"pm10":34.9,"pm2_5":31.4,"mosquito_risk":3,"arthritis_risk":0,"migraine_risk":4,"frizz_risk":1,"updated_at":"2026-03-17T10:25:12.993210+05:30"},{"city":"Kannur","state":"Kerala","latitude":11.8745,"longitude":75.3704,"temp":29.9,"humidity":64,"rain":0.0,"pressure":1009.7,"uv_index":9.0,"wind_gusts":27.4,"aqi":110,"pm10":47.4,"pm2_5":39.6,"mosquito_risk":7,"arthritis_risk":0,"migraine_risk":4,"frizz_risk":1,"updated_at":"2026-03-17T10:25:12.993217+05:30"},{"city":"Patna","state":"Bihar","latitude":25.5941,"longitude":85.1376,"temp":30.3,"humidity":47,"rain":0.0,"pressure":1003.4,"uv_index":7.5,"wind_gusts":27.0,"aqi":153,"pm10":89.4,"pm2_5":62.2,"mosquito_risk":0,"arthritis_risk":5,"migraine_risk":4,"frizz_risk":1,"updated_at":"2026-03-17T10:25:12.993223+05:30"},{"city":"Gaya","state":"Bihar","latitude":24.7914,"longitude":85.0002,"temp":30.5,"humidity":49,"rain":0.0,"pressure":997.1,"uv_index":7.6,"wind_gusts":27.7,"aqi":107,"pm10":44.8,"pm2_5":39.0,"mosquito_risk":0,"arthritis_risk":5,"migraine_risk":7,"frizz_risk":1,"updated_at":"2026-03-17T10:25:12.993229+05:30"},{"city":"Muzaffarpur","state":"Bihar","latitude":26.1209,"longitude":85.3647,"temp":28.8,"humidity":57,"rain":0.0,"pressure":1003.3,"uv_index":7.45,"wind_gusts":27.7,"aqi":156,"pm10":91.5,"pm2_5":60.1,"mosquito_risk":4,"arthritis_risk":5,"migraine_risk":4,"frizz_risk":1,"updated_at":"2026-03-17T10:25:12.993236+05:30"},{"city":"Bhagalpur","state":"Bihar","latitude":25.2425,"longitude":87.0117,"temp":28.6,"humidity":64,"rain":0.0,"pressure":1004.2,"uv_index":7.5,"wind_gusts":28.8,"aqi":143,"pm10":61.0,"pm2_5":54.8,"mosquito_risk":7,"arthritis_risk":5,"migraine_risk":4,"frizz_risk":1,"updated_at":"2026-03-17T10:25:12.993242+05:30"},{"city":"Ranchi","state":"Jharkhand","latitude":23.3441,"longitude":85.3096,"temp":25.4,"humidity":60,"rain":0.0,"pressure":942.2,"uv_index":8.2,"wind_gusts":54.7,"aqi":113,"pm10":60.8,"pm2_5":52.7,"mosquito_risk":4,"arthritis_risk":5,"migraine_risk":7,"frizz_risk":1,"updated_at":"2026-03-17T10:25:12.993248+05:30"},{"city":"Jamshedpur","state":"Jharkhand","latitude":22.8046,"longitude":86.2029,"temp":27.9,"humidity":54,"rain":0.0,"pressure":995.6,"uv_index":8.15,"wind_gusts":36.0,"aqi":125,"pm10":78.7,"pm2_5":65.4,"mosquito_risk":4,"arthritis_risk":5,"migraine_risk":7,"frizz_risk":1,"updated_at":"2026-03-17T10:25:12.993255+05:30"},{"city":"Dhanbad","state":"Jharkhand","latitude":23.7957,"longitude":86.4304,"temp":30.4,"humidity":42,"rain":0.0,"pressure":983.7,"uv_index":8.0,"wind_gusts":37.8,"aqi":152,"pm10":79.4,"pm2_5":70.3,"mosquito_risk":0,"arthritis_risk":5,"migraine_risk":7,"frizz_risk":1,"updated_at":"2026-03-17T10:25:12.993262+05:30"},{"city":"Bokaro","state":"Jharkhand","latitude":23.6693,"longitude":86.1511,"temp":30.9,"humidity":39,"rain":0.0,"pressure":987.9,"uv_index":8.0,"wind_gusts":40.7,"aqi":135,"pm10":70.1,"pm2_5":61.0,"mosquito_risk":0,"arthritis_risk":5,"migraine_risk":7,"frizz_risk":0,"updated_at":"2026-03-17T10:25:12.993269+05:30"},{"city":"Bhubaneswar","state":"Odisha","latitude":20.2961,"longitude":85.8245,"temp":29.5,"humidity":63,"rain":0.0,"pressure":1007.6,"uv_index":8.45,"wind_gusts":36.7,"aqi":68,"pm10":21.5,"pm2_5":16.0,"mosquito_risk":7,"arthritis_risk":5,"migraine_risk":4,"frizz_risk":1,"updated_at":"2026-03-17T10:25:12.993276+05:30"},{"city":"Cuttack","state":"Odisha","latitude":20.4625,"longitude":85.8828,"temp":29.3,"humidity":66,"rain":0.0,"pressure":1009.4,"uv_index":8.5,"wind_gusts":33.8,"aqi":68,"pm10":21.5,"pm2_5":16.0,"mosquito_risk":7,"arthritis_risk":0,"migraine_risk":4,"frizz_risk":1,"updated_at":"2026-03-17T10:25:12.993282+05:30"},{"city":"Rourkela","state":"Odisha","latitude":22.2604,"longitude":84.8536,"temp":29.0,"humidity":53,"rain":0.0,"pressure":989.9,"uv_index":8.05,"wind_gusts":45.0,"aqi":150,"pm10":69.4,"pm2_5":59.6,"mosquito_risk":4,"arthritis_risk":5,"migraine_risk":7,"frizz_risk":1,"updated_at":"2026-03-17T10:25:12.993288+05:30"},{"city":"Raipur","state":"Chhattisgarh","latitude":21.2514,"longitude":81.6296,"temp":31.6,"humidity":47,"rain":0.0,"pressure":978.1,"uv_index":8.15,"wind_gusts":43.2,"aqi":145,"pm10":58.1,"pm2_5":50.3,"mosquito_risk":0,"arthritis_risk":5,"migraine_risk":7,"frizz_risk":1,"updated_at":"2026-03-17T10:25:12.993294+05:30"},{"city":"Bhilai","state":"Chhattisgarh","latitude":21.1938,"longitude":81.3509,"temp":32.0,"humidity":48,"rain":0.0,"pressure":978.4,"uv_index":8.15,"wind_gusts":40.0,"aqi":135,"pm10":44.2,"pm2_5":38.0,"mosquito_risk":0,"arthritis_risk":5,"migraine_risk":7,"frizz_risk":1,"updated_at":"2026-03-17T10:25:12.993300+05:30"},{"city":"Guwahati","state":"Assam","latitude":26.1158,"longitude":91.7086,"temp":21.5,"humidity":86,"rain":0.0,"pressure":1005.5,"uv_index":7.5,"wind_gusts":46.4,"aqi":82,"pm10":30.3,"pm2_5":23.9,"mosquito_risk":3,"arthritis_risk":5,"migraine_risk":4,"frizz_risk":1,"updated_at":"2026-03-17T10:25:12.993307+05:30"},{"city":"Agartala","state":"Tripura","latitude":23.8315,"longitude":91.2868,"temp":28.1,"humidity":65,"rain":0.0,"pressure":1011.1,"uv_index":7.9,"wind_gusts":43.6,"aqi":69,"pm10":12.3,"pm2_5":10.5,"mosquito_risk":7,"arthritis_risk":0,"migraine_risk":4,"frizz_risk":1,"updated_at":"2026-03-17T10:25:12.993313+05:30"},{"city":"Shillong","state":"Meghalaya","latitude":25.5788,"longitude":91.8933,"temp":15.4,"humidity":76,"rain":0.0,"pressure":858.2,"uv_index":7.2,"wind_gusts":77.8,"aqi":59,"pm10":13.4,"pm2_5":9.7,"mosquito_risk":3,"arthritis_risk":5,"migraine_risk":7,"frizz_risk":0,"updated_at":"2026-03-17T10:25:12.993320+05:30"},{"city":"Imphal","state":"Manipur","latitude":24.817,"longitude":93.9368,"temp":17.2,"humidity":85,"rain":0.0,"pressure":927.1,"uv_index":8.1,"wind_gusts":91.4,"aqi":105,"pm10":37.8,"pm2_5":27.5,"mosquito_risk":3,"arthritis_risk":10,"migraine_risk":7,"frizz_risk":0,"updated_at":"2026-03-17T10:25:12.993326+05:30"},{"city":"Aizawl","state":"Mizoram","latitude":23.7271,"longitude":92.7176,"temp":22.1,"humidity":60,"rain":0.0,"pressure":897.4,"uv_index":7.95,"wind_gusts":61.9,"aqi":99,"pm10":27.9,"pm2_5":19.7,"mosquito_risk":0,"arthritis_risk":5,"migraine_risk":7,"frizz_risk":0,"updated_at":"2026-03-17T10:25:12.993333+05:30"},{"city":"Kohima","state":"Nagaland","latitude":25.6701,"longitude":94.1077,"temp":17.9,"humidity":60,"rain":0.0,"pressure":857.7,"uv_index":8.05,"wind_gusts":102.2,"aqi":87,"pm10":34.1,"pm2_5":24.3,"mosquito_risk":0,"arthritis_risk":5,"migraine_risk":7,"frizz_risk":0,"updated_at":"2026-03-17T10:25:12.993340+05:30"},{"city":"Gangtok","state":"Sikkim","latitude":27.3314,"longitude":88.6138,"temp":16.6,"humidity":57,"rain":0.0,"pressure":838.8,"uv_index":7.55,"wind_gusts":19.4,"aqi":87,"pm10":45.4,"pm2_5":19.8,"mosquito_risk":0,"arthritis_risk":5,"migraine_risk":7,"frizz_risk":0,"updated_at":"2026-03-17T10:25:12.993346+05:30"},{"city":"Siliguri","state":"West Bengal","latitude":26.7271,"longitude":88.3953,"temp":22.2,"humidity":65,"rain":0.0,"pressure":996.9,"uv_index":7.4,"wind_gusts":42.5,"aqi":129,"pm10":59.4,"pm2_5":40.2,"mosquito_risk":3,"arthritis_risk":5,"migraine_risk":7,"frizz_risk":0,"updated_at":"2026-03-17T10:25:16.330139+05:30"},{"city":"Durgapur","state":"West Bengal","latitude":23.5204,"longitude":87.3119,"temp":28.9,"humidity":54,"rain":0.0,"pressure":998.9,"uv_index":8.0,"wind_gusts":33.5,"aqi":154,"pm10":81.5,"pm2_5":71.9,"mosquito_risk":4,"arthritis_risk":5,"migraine_risk":7,"frizz_risk":1,"updated_at":"2026-03-17T10:25:16.330172+05:30"},{"city":"Asansol","state":"West Bengal","latitude":23.6739,"longitude":86.9524,"temp":29.3,"humidity":51,"rain":0.0,"pressure":997.4,"uv_index":8.0,"wind_gusts":33.8,"aqi":146,"pm10":79.6,"pm2_5":70.3,"mosquito_risk":4,"arthritis_risk":5,"migraine_risk":7,"frizz_risk":1,"updated_at":"2026-03-17T10:25:16.330184+05:30"},{"city":"Pondicherry","state":"Puducherry","latitude":11.9139,"longitude":79.8145,"temp":30.7,"humidity":63,"rain":0.0,"pressure":1011.9,"uv_index":9.05,"wind_gusts":27.4,"aqi":31,"pm10":9.8,"pm2_5":6.8,"mosquito_risk":3,"arthritis_risk":0,"migraine_risk":4,"frizz_risk":1,"updated_at":"2026-03-17T10:25:16.330193+05:30"},{"city":"Port Blair","state":"Andaman and Nicobar Islands","latitude":11.6234,"longitude":92.7265,"temp":28.8,"humidity":72,"rain":0.0,"pressure":1010.3,"uv_index":9.0,"wind_gusts":20.5,"aqi":86,"pm10":13.6,"pm2_5":11.1,"mosquito_risk":7,"arthritis_risk":0,"migraine_risk":4,"frizz_risk":1,"updated_at":"2026-03-17T10:25:16.330203+05:30"},{"city":"Haridwar","state":"Uttarakhand","latitude":29.9457,"longitude":78.1642,"temp":23.9,"humidity":41,"rain":0.0,"pressure":977.3,"uv_index":4.75,"wind_gusts":18.4,"aqi":65,"pm10":23.8,"pm2_5":13.6,"mosquito_risk":0,"arthritis_risk":5,"migraine_risk":3,"frizz_risk":0,"updated_at":"2026-03-17T10:25:16.330212+05:30"},{"city":"Rishikesh","state":"Uttarakhand","latitude":30.0869,"longitude":78.2676,"temp":23.1,"humidity":39,"rain":0.0,"pressure":969.9,"uv_index":4.65,"wind_gusts":19.8,"aqi":55,"pm10":27.0,"pm2_5":10.4,"mosquito_risk":0,"arthritis_risk":5,"migraine_risk":3,"frizz_risk":0,"updated_at":"2026-03-17T10:25:16.330220+05:30"},{"city":"Nainital","state":"Uttarakhand","latitude":29.3919,"longitude":79.4542,"temp":19.2,"humidity":35,"rain":0.0,"pressure":808.1,"uv_index":4.85,"wind_gusts":37.8,"aqi":59,"pm10":84.8,"pm2_5":15.9,"mosquito_risk":0,"arthritis_risk":5,"migraine_risk":3,"frizz_risk":0,"updated_at":"2026-03-17T10:25:16.330228+05:30"},{"city":"Mussoorie","state":"Uttarakhand","latitude":30.4599,"longitude":78.0664,"temp":15.1,"humidity":41,"rain":0.0,"pressure":803.4,"uv_index":5.55,"wind_gusts":29.5,"aqi":56,"pm10":25.3,"pm2_5":11.5,"mosquito_risk":0,"arthritis_risk":5,"migraine_risk":3,"frizz_risk":0,"updated_at":"2026-03-17T10:25:16.330236+05:30"},{"city":"Dharamshala","state":"Himachal Pradesh","latitude":32.219,"longitude":76.3234,"temp":18.1,"humidity":40,"rain":0.0,"pressure":869.9,"uv_index":5.75,"wind_gusts":26.3,"aqi":47,"pm10":15.5,"pm2_5":5.3,"mosquito_risk":0,"arthritis_risk":5,"migraine_risk":3,"frizz_risk":0,"updated_at":"2026-03-17T10:25:16.330244+05:30"},{"city":"Dalhousie","state":"Himachal Pradesh","latitude":32.5387,"longitude":75.971,"temp":15.7,"humidity":22,"rain":0.0,"pressure":804.3,"uv_index":6.15,"wind_gusts":24.1,"aqi":58,"pm10":23.9,"pm2_5":10.6,"mosquito_risk":0,"arthritis_risk":5,"migraine_risk":7,"frizz_risk":1,"updated_at":"2026-03-17T10:25:16.330252+05:30"},{"city":"Patiala","state":"Punjab","latitude":30.3398,"longitude":76.3869,"temp":21.3,"humidity":55,"rain":0.0,"pressure":981.9,"uv_index":5.75,"wind_gusts":16.9,"aqi":83,"pm10":104.3,"pm2_5":34.5,"mosquito_risk":0,"arthritis_risk":5,"migraine_risk":3,"frizz_risk":0,"updated_at":"2026-03-17T10:25:16.330261+05:30"},{"city":"Bhatinda","state":"Punjab","latitude":30.211,"longitude":74.9455,"temp":20.9,"humidity":55,"rain":0.0,"pressure":987.8,"uv_index":6.55,"wind_gusts":18.4,"aqi":93,"pm10":68.9,"pm2_5":30.3,"mosquito_risk":0,"arthritis_risk":5,"migraine_risk":7,"frizz_risk":0,"updated_at":"2026-03-17T10:25:16.330268+05:30"},{"city":"Rohtak","state":"Haryana","latitude":28.8955,"longitude":76.6066,"temp":21.9,"humidity":63,"rain":0.0,"pressure":985.3,"uv_index":5.85,"wind_gusts":18.7,"aqi":529,"pm10":143.4,"pm2_5":62.9,"mosquito_risk":3,"arthritis_risk":5,"migraine_risk":3,"frizz_risk":0,"updated_at":"2026-03-17T10:25:16.330276+05:30"},{"city":"Panipat","state":"Haryana","latitude":29.3909,"longitude":76.9635,"temp":23.2,"humidity":54,"rain":0.0,"pressure":983.8,"uv_index":5.9,"wind_gusts":15.1,"aqi":292,"pm10":102.7,"pm2_5":52.7,"mosquito_risk":0,"arthritis_risk":5,"migraine_risk":3,"frizz_risk":0,"updated_at":"2026-03-17T10:25:16.330284+05:30"},{"city":"Mathura","state":"Uttar Pradesh","latitude":27.4924,"longitude":77.6737,"temp":26.4,"humidity":49,"rain":0.0,"pressure":989.6,"uv_index":6.1,"wind_gusts":20.5,"aqi":540,"pm10":737.6,"pm2_5":114.8,"mosquito_risk":4,"arthritis_risk":5,"migraine_risk":7,"frizz_risk":0,"updated_at":"2026-03-17T10:25:16.330292+05:30"},{"city":"Vrindavan","state":"Uttar Pradesh","latitude":27.5823,"longitude":77.7027,"temp":26.0,"humidity":53,"rain":0.0,"pressure":990.2,"uv_index":6.1,"wind_gusts":20.2,"aqi":540,"pm10":737.6,"pm2_5":114.8,"mosquito_risk":4,"arthritis_risk":5,"migraine_risk":7,"frizz_risk":0,"updated_at":"2026-03-17T10:25:16.330300+05:30"},{"city":"Ayodhya","state":"Uttar Pradesh","latitude":26.7922,"longitude":82.1998,"temp":30.4,"humidity":39,"rain":0.0,"pressure":997.8,"uv_index":6.5,"wind_gusts":25.9,"aqi":97,"pm10":56.0,"pm2_5":34.6,"mosquito_risk":0,"arthritis_risk":5,"migraine_risk":7,"frizz_risk":0,"updated_at":"2026-03-17T10:25:16.330308+05:30"},{"city":"Ratlam","state":"Madhya Pradesh","latitude":23.3315,"longitude":75.0367,"temp":27.6,"humidity":48,"rain":0.0,"pressure":957.2,"uv_index":7.6,"wind_gusts":35.3,"aqi":55,"pm10":42.8,"pm2_5":20.6,"mosquito_risk":4,"arthritis_risk":5,"migraine_risk":7,"frizz_risk":0,"updated_at":"2026-03-17T10:25:16.330316+05:30"},{"city":"Sagar","state":"Madhya Pradesh","latitude":23.8388,"longitude":78.7378,"temp":30.0,"humidity":30,"rain":0.0,"pressure":952.9,"uv_index":7.65,"wind_gusts":31.7,"aqi":35,"pm10":8.1,"pm2_5":6.5,"mosquito_risk":4,"arthritis_risk":5,"migraine_risk":7,"frizz_risk":0,"updated_at":"2026-03-17T10:25:16.330323+05:30"},{"city":"Satna","state":"Madhya Pradesh","latitude":24.6005,"longitude":80.8322,"temp":32.0,"humidity":29,"rain":0.0,"pressure":973.9,"uv_index":7.55,"wind_gusts":34.9,"aqi":94,"pm10":58.7,"pm2_5":44.7,"mosquito_risk":0,"arthritis_risk":5,"migraine_risk":7,"frizz_risk":0,"updated_at":"2026-03-17T10:25:16.330331+05:30"},{"city":"Akola","state":"Maharashtra","latitude":20.7002,"longitude":77.0082,"temp":31.5,"humidity":36,"rain":0.0,"pressure":978.4,"uv_index":8.05,"wind_gusts":25.6,"aqi":70,"pm10":36.3,"pm2_5":21.7,"mosquito_risk":0,"arthritis_risk":5,"migraine_risk":7,"frizz_risk":0,"updated_at":"2026-03-17T10:25:16.330340+05:30"},{"city":"Amravati","state":"Maharashtra","latitude":20.9374,"longitude":77.7796,"temp":32.4,"humidity":28,"rain":0.0,"pressure":970.6,"uv_index":8.05,"wind_gusts":32.4,"aqi":79,"pm10":32.7,"pm2_5":22.0,"mosquito_risk":0,"arthritis_risk":5,"migraine_risk":7,"frizz_risk":0,"updated_at":"2026-03-17T10:25:16.330348+05:30"},{"city":"Latur","state":"Maharashtra","latitude":18.4088,"longitude":76.5604,"temp":29.6,"humidity":37,"rain":0.0,"pressure":943.1,"uv_index":8.5,"wind_gusts":27.7,"aqi":90,"pm10":41.6,"pm2_5":23.3,"mosquito_risk":4,"arthritis_risk":5,"migraine_risk":7,"frizz_risk":0,"updated_at":"2026-03-17T10:25:16.330356+05:30"},{"city":"Nanded","state":"Maharashtra","latitude":19.1383,"longitude":77.3091,"temp":31.7,"humidity":33,"rain":0.0,"pressure":972.2,"uv_index":8.3,"wind_gusts":20.9,"aqi":99,"pm10":41.2,"pm2_5":30.2,"mosquito_risk":0,"arthritis_risk":5,"migraine_risk":7,"frizz_risk":0,"updated_at":"2026-03-17T10:25:16.330363+05:30"},{"city":"Gulbarga","state":"Karnataka","latitude":17.3297,"longitude":76.8343,"temp":31.5,"humidity":40,"rain":0.0,"pressure":961.6,"uv_index":7.65,"wind_gusts":37.4,"aqi":114,"pm10":28.6,"pm2_5":25.8,"mosquito_risk":0,"arthritis_risk":5,"migraine_risk":7,"frizz_risk":1,"updated_at":"2026-03-17T10:25:16.330371+05:30"},{"city":"Bidar","state":"Karnataka","latitude":17.9104,"longitude":77.5199,"temp":30.0,"humidity":42,"rain":0.0,"pressure":938.6,"uv_index":7.9,"wind_gusts":33.8,"aqi":121,"pm10":18.8,"pm2_5":16.8,"mosquito_risk":4,"arthritis_risk":5,"migraine_risk":7,"frizz_risk":0,"updated_at":"2026-03-17T10:25:16.330379+05:30"},{"city":"Hospet","state":"Karnataka","latitude":15.2689,"longitude":76.3909,"temp":29.1,"humidity":56,"rain":0.0,"pressure":958.8,"uv_index":8.65,"wind_gusts":23.8,"aqi":117,"pm10":32.0,"pm2_5":25.7,"mosquito_risk":4,"arthritis_risk":5,"migraine_risk":7,"frizz_risk":1,"updated_at":"2026-03-17T10:25:16.330386+05:30"},{"city":"Tirupur","state":"Tamil Nadu","latitude":11.1085,"longitude":77.3411,"temp":29.8,"humidity":55,"rain":0.0,"pressure":978.4,"uv_index":9.35,"wind_gusts":32.0,"aqi":76,"pm10":15.3,"pm2_5":13.8,"mosquito_risk":4,"arthritis_risk":5,"migraine_risk":7,"frizz_risk":1,"updated_at":"2026-03-17T10:25:16.330394+05:30"},{"city":"Alappuzha","state":"Kerala","latitude":9.4981,"longitude":76.3388,"temp":27.9,"humidity":81,"rain":0.0,"pressure":1011.1,"uv_index":9.05,"wind_gusts":30.6,"aqi":81,"pm10":29.6,"pm2_5":27.0,"mosquito_risk":7,"arthritis_risk":0,"migraine_risk":4,"frizz_risk":1,"updated_at":"2026-03-17T10:25:16.330401+05:30"},{"city":"Munnar","state":"Kerala","latitude":10.0889,"longitude":77.0595,"temp":27.1,"humidity":54,"rain":0.0,"pressure":860.7,"uv_index":9.6,"wind_gusts":32.4,"aqi":79,"pm10":13.9,"pm2_5":12.3,"mosquito_risk":4,"arthritis_risk":5,"migraine_risk":7,"frizz_risk":1,"updated_at":"2026-03-17T10:25:16.330409+05:30"},{"city":"Silchar","state":"Assam","latitude":24.8333,"longitude":92.7789,"temp":21.4,"humidity":74,"rain":0.0,"pressure":1011.6,"uv_index":7.9,"wind_gusts":49.7,"aqi":81,"pm10":33.2,"pm2_5":25.8,"mosquito_risk":3,"arthritis_risk":0,"migraine_risk":4,"frizz_risk":1,"updated_at":"2026-03-17T10:25:16.330417+05:30"},{"city":"Dibrugarh","state":"Assam","latitude":27.4728,"longitude":94.912,"temp":20.2,"humidity":83,"rain":0.0,"pressure":999.7,"uv_index":5.75,"wind_gusts":51.8,"aqi":92,"pm10":52.2,"pm2_5":36.6,"mosquito_risk":3,"arthritis_risk":5,"migraine_risk":3,"frizz_risk":1,"updated_at":"2026-03-17T10:25:16.330424+05:30"}]