[{"city":"Delhi","state":"Delhi","latitude":28.6139,"longitude":77.209,"temp":28.6,"humidity":43,"rain":0.0,"pressure":986.1,"uv_index":5.85,"wind_gusts":32.8,"aqi":282,"pm10":698.5,"pm2_5":108.0,"mosquito_risk":4,"arthritis_risk":5,"migraine_risk":3,"frizz_risk":0,"updated_at":"2026-03-04T18:34:00.429593+05:30"},{"city":"Mumbai","state":"Maharashtra","latitude":19.076,"longitude":72.8777,"temp":28.6,"humidity":65,"rain":0.0,"pressure":1009.0,"uv_index":7.35,"wind_gusts":24.5,"aqi":211,"pm10":49.7,"pm2_5":47.1,"mosquito_risk":7,"arthritis_risk":0,"migraine_risk":4,"frizz_risk":1,"updated_at":"2026-03-04T18:34:00.429627+05:30"},{"city":"Bangalore","state":"Karnataka","latitude":12.9716,"longitude":77.5946,"temp":28.7,"humidity":30,"rain":0.0,"pressure":913.3,"uv_index":9.1,"wind_gusts":35.3,"aqi":128,"pm10":30.7,"pm2_5":29.9,"mosquito_risk":4,"arthritis_risk":5,"migraine_risk":7,"frizz_risk":0,"updated_at":"2026-03-04T18:34:00.429641+05:30"},{"city":"Hyderabad","state":"Telangana","latitude":17.385,"longitude":78.4867,"temp":30.7,"humidity":34,"rain":0.0,"pressure":955.2,"uv_index":8.4,"wind_gusts":25.6,"aqi":162,"pm10":22.5,"pm2_5":20.8,"mosquito_risk":0,"arthritis_risk":5,"migraine_risk":7,"frizz_risk":0,"updated_at":"2026-03-04T18:34:00.429650+05:30"},{"city":"Chennai","state":"Tamil Nadu","latitude":13.0827,"longitude":80.2707,"temp":27.9,"humidity":63,"rain":0.0,"pressure":1009.5,"uv_index":8.8,"wind_gusts":29.5,"aqi":103,"pm10":18.3,"pm2_5":16.0,"mosquito_risk":7,"arthritis_risk":0,"migraine_risk":4,"frizz_risk":1,"updated_at":"2026-03-04T18:34:00.429657+05:30"},{"city":"Kolkata","state":"West Bengal","latitude":22.5726,"longitude":88.3639,"temp":26.4,"humidity":53,"rain":0.0,"pressure":1007.6,"uv_index":7.75,"wind_gusts":18.7,"aqi":168,"pm10":110.4,"pm2_5":78.0,"mosquito_risk":4,"arthritis_risk":5,"migraine_risk":4,"frizz_risk":0,"updated_at":"2026-03-04T18:34:00.429665+05:30"},{"city":"Pune","state":"Maharashtra","latitude":18.5204,"longitude":73.8567,"temp":34.1,"humidity":24,"rain":0.0,"pressure":949.7,"uv_index":7.95,"wind_gusts":30.2,"aqi":139,"pm10":17.1,"pm2_5":16.6,"mosquito_risk":0,"arthritis_risk":5,"migraine_risk":7,"frizz_risk":0,"updated_at":"2026-03-04T18:34:00.429675+05:30"},{"city":"Ahmedabad","state":"Gujarat","latitude":23.0225,"longitude":72.5714,"temp":34.9,"humidity":22,"rain":0.0,"pressure":1004.7,"uv_index":7.2,"wind_gusts":19.8,"aqi":101,"pm10":20.8,"pm2_5":17.5,"mosquito_risk":0,"arthritis_risk":5,"migraine_risk":4,"frizz_risk":0,"updated_at":"2026-03-04T18:34:00.429682+05:30"},{"city":"Jaipur","state":"Rajasthan","latitude":26.9124,"longitude":75.7873,"temp":31.2,"humidity":15,"rain":0.0,"pressure":963.8,"uv_index":6.6,"wind_gusts":32.0,"aqi":91,"pm10":103.4,"pm2_5":28.9,"mosquito_risk":0,"arthritis_risk":5,"migraine_risk":7,"frizz_risk":0,"updated_at":"2026-03-04T18:34:00.429688+05:30"},{"city":"Lucknow","state":"Uttar Pradesh","latitude":26.8467,"longitude":80.9462,"temp":27.9,"humidity":48,"rain":0.0,"pressure":996.3,"uv_index":6.35,"wind_gusts":24.8,"aqi":164,"pm10":136.0,"pm2_5":58.3,"mosquito_risk":4,"arthritis_risk":5,"migraine_risk":7,"frizz_risk":0,"updated_at":"2026-03-04T18:34:00.429694+05:30"},{"city":"Kanpur","state":"Uttar Pradesh","latitude":26.4499,"longitude":80.3319,"temp":26.8,"humidity":48,"rain":0.0,"pressure":994.6,"uv_index":6.35,"wind_gusts":27.0,"aqi":178,"pm10":262.6,"pm2_5":69.8,"mosquito_risk":4,"arthritis_risk":5,"migraine_risk":7,"frizz_risk":0,"updated_at":"2026-03-04T18:34:00.429700+05:30"},{"city":"Chandigarh","state":"Chandigarh","latitude":30.7333,"longitude":76.7794,"temp":24.6,"humidity":56,"rain":0.0,"pressure":971.6,"uv_index":5.75,"wind_gusts":34.9,"aqi":132,"pm10":40.3,"pm2_5":36.0,"mosquito_risk":0,"arthritis_risk":5,"migraine_risk":3,"frizz_risk":0,"updated_at":"2026-03-04T18:34:00.429707+05:30"},{"city":"Srinagar","state":"Jammu and Kashmir","latitude":34.0837,"longitude":74.7973,"temp":18.1,"humidity":42,"rain":0.0,"pressure":846.5,"uv_index":6.15,"wind_gusts":15.5,"aqi":145,"pm10":73.6,"pm2_5":50.1,"mosquito_risk":0,"arthritis_risk":5,"migraine_risk":7,"frizz_risk":0,"updated_at":"2026-03-04T18:34:00.429715+05:30"},{"city":"Jammu","state":"Jammu and Kashmir","latitude":32.7266,"longitude":74.857,"temp":26.9,"humidity":56,"rain":0.0,"pressure":976.1,"uv_index":6.35,"wind_gusts":22.3,"aqi":122,"pm10":54.1,"pm2_5":45.6,"mosquito_risk":4,"arthritis_risk":5,"migraine_risk":7,"frizz_risk":1,"updated_at":"2026-03-04T18:34:00.429723+05:30"},{"city":"Amritsar","state":"Punjab","latitude":31.634,"longitude":74.8723,"temp":25.6,"humidity":59,"rain":0.0,"pressure":984.3,"uv_index":6.3,"wind_gusts":22.0,"aqi":155,"pm10":55.8,"pm2_5":41.2,"mosquito_risk":4,"arthritis_risk":5,"migraine_risk":7,"frizz_risk":1,"updated_at":"2026-03-04T18:34:00.429729+05:30"},{"city":"Ludhiana","state":"Punjab","latitude":30.901,"longitude":75.8573,"temp":27.0,"humidity":59,"rain":0.0,"pressure":982.1,"uv_index":5.95,"wind_gusts":28.8,"aqi":153,"pm10":96.9,"pm2_5":55.3,"mosquito_risk":4,"arthritis_risk":5,"migraine_risk":3,"frizz_risk":1,"updated_at":"2026-03-04T18:34:00.429736+05:30"},{"city":"Jalandhar","state":"Punjab","latitude":31.326,"longitude":75.5762,"temp":26.3,"humidity":55,"rain":0.0,"pressure":983.2,"uv_index":6.15,"wind_gusts":27.0,"aqi":154,"pm10":82.7,"pm2_5":51.9,"mosquito_risk":4,"arthritis_risk":5,"migraine_risk":7,"frizz_risk":1,"updated_at":"2026-03-04T18:34:00.429744+05:30"},{"city":"Dehradun","state":"Uttarakhand","latitude":30.6284,"longitude":78.0322,"temp":17.4,"humidity":60,"rain":0.0,"pressure":832.3,"uv_index":6.1,"wind_gusts":29.2,"aqi":91,"pm10":24.0,"pm2_5":16.3,"mosquito_risk":0,"arthritis_risk":5,"migraine_risk":7,"frizz_risk":0,"updated_at":"2026-03-04T18:34:00.429750+05:30"},{"city":"Shimla","state":"Himachal Pradesh","latitude":31.1048,"longitude":77.1734,"temp":17.1,"humidity":48,"rain":0.0,"pressure":788.2,"uv_index":6.15,"wind_gusts":50.4,"aqi":101,"pm10":22.8,"pm2_5":15.2,"mosquito_risk":0,"arthritis_risk":5,"migraine_risk":7,"frizz_risk":0,"updated_at":"2026-03-04T18:34:00.429756+05:30"},{"city":"Manali","state":"Himachal Pradesh","latitude":32.2396,"longitude":77.1887,"temp":20.8,"humidity":45,"rain":0.0,"pressure":825.0,"uv_index":7.75,"wind_gusts":32.8,"aqi":104,"pm10":24.1,"pm2_5":12.1,"mosquito_risk":0,"arthritis_risk":5,"migraine_risk":7,"frizz_risk":0,"updated_at":"2026-03-04T18:34:00.429762+05:30"},{"city":"Gurgaon","state":"Haryana","latitude":28.4595,"longitude":77.0266,"temp":25.9,"humidity":54,"rain":0.0,"pressure":984.6,"uv_index":5.95,"wind_gusts":31.0,"aqi":1158,"pm10":1691.3,"pm2_5":203.5,"mosquito_risk":4,"arthritis_risk":5,"migraine_risk":3,"frizz_risk":0,"updated_at":"2026-03-04T18:34:00.429768+05:30"},{"city":"Noida","state":"Uttar Pradesh","latitude":28.5355,"longitude":77.391,"temp":28.9,"humidity":41,"rain":0.0,"pressure":987.6,"uv_index":5.85,"wind_gusts":32.0,"aqi":1158,"pm10":1691.3,"pm2_5":203.5,"mosquito_risk":4,"arthritis_risk":5,"migraine_risk":3,"frizz_risk":0,"updated_at":"2026-03-04T18:34:00.429774+05:30"},{"city":"Ghaziabad","state":"Uttar Pradesh","latitude":28.6692,"longitude":77.4538,"temp":27.9,"humidity":46,"rain":0.0,"pressure":985.6,"uv_index":5.8,"wind_gusts":29.5,"aqi":196,"pm10":566.2,"pm2_5":95.0,"mosquito_risk":4,"arthritis_risk":5,"migraine_risk":3,"frizz_risk":0,"updated_at":"2026-03-04T18:34:00.429779+05:30"},{"city":"Faridabad","state":"Haryana","latitude":28.4089,"longitude":77.3178,"temp":27.3,"humidity":44,"rain":0.0,"pressure":986.9,"uv_index":5.9,"wind_gusts":29.9,"aqi":1158,"pm10":1691.3,"pm2_5":203.5,"mosquito_risk":4,"arthritis_risk":5,"migraine_risk":3,"frizz_risk":0,"updated_at":"2026-03-04T18:34:00.429785+05:30"},{"city":"Meerut","state":"Uttar Pradesh","latitude":28.9845,"longitude":77.7064,"temp":26.3,"humidity":54,"rain":0.0,"pressure":984.0,"uv_index":5.7,"wind_gusts":32.0,"aqi":196,"pm10":566.2,"pm2_5":95.0,"mosquito_risk":4,"arthritis_risk":5,"migraine_risk":3,"frizz_risk":1,"updated_at":"2026-03-04T18:34:00.429791+05:30"},{"city":"Agra","state":"Uttar Pradesh","latitude":27.1767,"longitude":78.0081,"temp":27.7,"humidity":41,"rain":0.0,"pressure":991.0,"uv_index":6.2,"wind_gusts":32.8,"aqi":400,"pm10":713.4,"pm2_5":97.3,"mosquito_risk":4,"arthritis_risk":5,"migraine_risk":7,"frizz_risk":0,"updated_at":"2026-03-04T18:34:00.429797+05:30"},{"city":"Varanasi","state":"Uttar Pradesh","latitude":25.3176,"longitude":82.9739,"temp":25.8,"humidity":58,"rain":0.0,"pressure":1000.3,"uv_index":7.0,"wind_gusts":18.4,"aqi":152,"pm10":149.0,"pm2_5":61.5,"mosquito_risk":4,"arthritis_risk":5,"migraine_risk":4,"frizz_risk":1,"updated_at":"2026-03-04T18:34:00.429808+05:30"},{"city":"Prayagraj","state":"Uttar Pradesh","latitude":25.4358,"longitude":81.8463,"temp":26.3,"humidity":52,"rain":0.0,"pressure":998.8,"uv_index":6.85,"wind_gusts":23.4,"aqi":153,"pm10":112.5,"pm2_5":55.2,"mosquito_risk":4,"arthritis_risk":5,"migraine_risk":7,"frizz_risk":0,"updated_at":"2026-03-04T18:34:00.429814+05:30"},{"city":"Gorakhpur","state":"Uttar Pradesh","latitude":26.7606,"longitude":83.3732,"temp":25.3,"humidity":62,"rain":0.0,"pressure":1000.1,"uv_index":6.7,"wind_gusts":12.2,"aqi":170,"pm10":125.3,"pm2_5":80.3,"mosquito_risk":7,"arthritis_risk":5,"migraine_risk":4,"frizz_risk":1,"updated_at":"2026-03-04T18:34:00.429820+05:30"},{"city":"Bareilly","state":"Uttar Pradesh","latitude":28.367,"longitude":79.4304,"temp":25.4,"humidity":57,"rain":0.0,"pressure":989.8,"uv_index":6.05,"wind_gusts":20.5,"aqi":162,"pm10":91.5,"pm2_5":61.5,"mosquito_risk":4,"arthritis_risk":5,"migraine_risk":7,"frizz_risk":1,"updated_at":"2026-03-04T18:34:00.429826+05:30"},{"city":"Aligarh","state":"Uttar Pradesh","latitude":27.8974,"longitude":78.088,"temp":26.6,"humidity":48,"rain":0.0,"pressure":988.5,"uv_index":5.95,"wind_gusts":28.8,"aqi":601,"pm10":1106.4,"pm2_5":162.1,"mosquito_risk":4,"arthritis_risk":5,"migraine_risk":3,"frizz_risk":0,"updated_at":"2026-03-04T18:34:00.429832+05:30"},{"city":"Moradabad","state":"Uttar Pradesh","latitude":28.8386,"longitude":78.7733,"temp":26.9,"humidity":55,"rain":0.0,"pressure":986.3,"uv_index":5.85,"wind_gusts":23.4,"aqi":157,"pm10":105.0,"pm2_5":66.8,"mosquito_risk":4,"arthritis_risk":5,"migraine_risk":3,"frizz_risk":1,"updated_at":"2026-03-04T18:34:00.429838+05:30"},{"city":"Saharanpur","state":"Uttar Pradesh","latitude":29.9637,"longitude":77.546,"temp":25.8,"humidity":50,"rain":0.0,"pressure":977.4,"uv_index":5.5,"wind_gusts":39.2,"aqi":150,"pm10":199.3,"pm2_5":58.0,"mosquito_risk":4,"arthritis_risk":5,"migraine_risk":3,"frizz_risk":0,"updated_at":"2026-03-04T18:34:00.429843+05:30"},{"city":"Jhansi","state":"Uttar Pradesh","latitude":25.4484,"longitude":78.5685,"temp":29.5,"humidity":28,"rain":0.0,"pressure":981.4,"uv_index":6.8,"wind_gusts":31.7,"aqi":87,"pm10":29.8,"pm2_5":20.5,"mosquito_risk":4,"arthritis_risk":5,"migraine_risk":7,"frizz_risk":0,"updated_at":"2026-03-04T18:34:03.674418+05:30"},{"city":"Surat","state":"Gujarat","latitude":21.1702,"longitude":72.8311,"temp":31.6,"humidity":38,"rain":0.0,"pressure":1008.6,"uv_index":7.05,"wind_gusts":27.7,"aqi":147,"pm10":47.8,"pm2_5":45.3,"mosquito_risk":0,"arthritis_risk":0,"migraine_risk":4,"frizz_risk":0,"updated_at":"2026-03-04T18:34:03.674448+05:30"},{"city":"Vadodara","state":"Gujarat","latitude":22.3072,"longitude":73.1812,"temp":35.3,"humidity":25,"rain":0.0,"pressure":1006.5,"uv_index":7.2,"wind_gusts":18.7,"aqi":148,"pm10":30.3,"pm2_5":26.2,"mosquito_risk":0,"arthritis_risk":5,"migraine_risk":7,"frizz_risk":0,"updated_at":"2026-03-04T18:34:03.674460+05:30"},{"city":"Rajkot","state":"Gujarat","latitude":22.3039,"longitude":70.8022,"temp":34.1,"humidity":23,"rain":0.0,"pressure":997.3,"uv_index":7.0,"wind_gusts":25.9,"aqi":106,"pm10":26.4,"pm2_5":24.9,"mosquito_risk":0,"arthritis_risk":5,"migraine_risk":7,"frizz_risk":0,"updated_at":"2026-03-04T18:34:03.674469+05:30"},{"city":"Thane","state":"Maharashtra","latitude":19.2183,"longitude":72.9781,"temp":31.2,"humidity":42,"rain":0.0,"pressure":1008.7,"uv_index":7.35,"wind_gusts":35.3,"aqi":211,"pm10":49.7,"pm2_5":47.1,"mosquito_risk":0,"arthritis_risk":0,"migraine_risk":4,"frizz_risk":1,"updated_at":"2026-03-04T18:34:03.674477+05:30"},{"city":"Nagpur","state":"Maharashtra","latitude":21.1458,"longitude":79.0882,"temp":32.5,"humidity":31,"rain":0.0,"pressure":975.3,"uv_index":7.75,"wind_gusts":23.0,"aqi":108,"pm10":28.9,"pm2_5":23.2,"mosquito_risk":0,"arthritis_risk":5,"migraine_risk":7,"frizz_risk":0,"updated_at":"2026-03-04T18:34:03.674486+05:30"},{"city":"Nashik","state":"Maharashtra","latitude":19.9975,"longitude":73.7898,"temp":32.5,"humidity":26,"rain":0.0,"pressure":947.5,"uv_index":7.55,"wind_gusts":23.4,"aqi":142,"pm10":18.0,"pm2_5":17.5,"mosquito_risk":0,"arthritis_risk":5,"migraine_risk":7,"frizz_risk":0,"updated_at":"2026-03-04T18:34:03.674528+05:30"},{"city":"Aurangabad","state":"Maharashtra","latitude":19.8762,"longitude":75.3433,"temp":32.2,"humidity":29,"rain":0.0,"pressure":946.1,"uv_index":8.05,"wind_gusts":22.7,"aqi":143,"pm10":19.2,"pm2_5":18.5,"mosquito_risk":0,"arthritis_risk":5,"migraine_risk":7,"frizz_risk":0,"updated_at":"2026-03-04T18:34:03.674539+05:30"},{"city":"Solapur","state":"Maharashtra","latitude":17.6599,"longitude":75.9064,"temp":31.3,"humidity":37,"rain":0.0,"pressure":958.6,"uv_index":8.3,"wind_gusts":18.0,"aqi":151,"pm10":17.6,"pm2_5":16.5,"mosquito_risk":0,"arthritis_risk":5,"migraine_risk":7,"frizz_risk":0,"updated_at":"2026-03-04T18:34:03.674547+05:30"},{"city":"Kolhapur","state":"Maharashtra","latitude":16.705,"longitude":74.2433,"temp":31.5,"humidity":30,"rain":0.0,"pressure":949.0,"uv_index":8.45,"wind_gusts":37.8,"aqi":159,"pm10":37.8,"pm2_5":37.3,"mosquito_risk":0,"arthritis_risk":5,"migraine_risk":7,"frizz_risk":0,"updated_at":"2026-03-04T18:34:03.674555+05:30"},{"city":"Goa","state":"Goa","latitude":15.2993,"longitude":74.124,"temp":28.3,"humidity":78,"rain":0.0,"pressure":998.8,"uv_index":8.5,"wind_gusts":35.6,"aqi":128,"pm10":41.3,"pm2_5":36.9,"mosquito_risk":7,"arthritis_risk":5,"migraine_risk":7,"frizz_risk":1,"updated_at":"2026-03-04T18:34:03.674563+05:30"},{"city":"Jodhpur","state":"Rajasthan","latitude":26.2389,"longitude":73.0243,"temp":32.8,"humidity":24,"rain":0.0,"pressure":986.8,"uv_index":6.9,"wind_gusts":18.0,"aqi":99,"pm10":68.7,"pm2_5":22.9,"mosquito_risk":0,"arthritis_risk":5,"migraine_risk":7,"frizz_risk":0,"updated_at":"2026-03-04T18:34:03.674571+05:30"},{"city":"Udaipur","state":"Rajasthan","latitude":24.5854,"longitude":73.7125,"temp":30.4,"humidity":24,"rain":0.0,"pressure":950.6,"uv_index":7.5,"wind_gusts":23.8,"aqi":103,"pm10":27.6,"pm2_5":15.1,"mosquito_risk":0,"arthritis_risk":5,"migraine_risk":7,"frizz_risk":0,"updated_at":"2026-03-04T18:34:03.674578+05:30"},{"city":"Kota","state":"Rajasthan","latitude":25.2138,"longitude":75.8648,"temp":31.8,"humidity":29,"rain":0.0,"pressure":982.4,"uv_index":6.9,"wind_gusts":17.6,"aqi":89,"pm10":36.6,"pm2_5":22.1,"mosquito_risk":0,"arthritis_risk":5,"migraine_risk":7,"frizz_risk":0,"updated_at":"2026-03-04T18:34:03.674586+05:30"},{"city":"Bikaner","state":"Rajasthan","latitude":28.0229,"longitude":73.3119,"temp":32.0,"humidity":27,"rain":0.0,"pressure":985.9,"uv_index":6.55,"wind_gusts":23.8,"aqi":67,"pm10":58.3,"pm2_5":18.1,"mosquito_risk":0,"arthritis_risk":5,"migraine_risk":7,"frizz_risk":0,"updated_at":"2026-03-04T18:34:03.674594+05:30"},{"city":"Ajmer","state":"Rajasthan","latitude":26.4499,"longitude":74.6399,"temp":30.5,"humidity":26,"rain":0.0,"pressure":958.7,"uv_index":6.85,"wind_gusts":23.4,"aqi":82,"pm10":44.8,"pm2_5":18.9,"mosquito_risk":0,"arthritis_risk":5,"migraine_risk":7,"frizz_risk":0,"updated_at":"2026-03-04T18:34:03.674601+05:30"},{"city":"Gwalior","state":"Madhya Pradesh","latitude":26.2183,"longitude":78.1828,"temp":28.2,"humidity":46,"rain":0.0,"pressure":986.7,"uv_index":6.5,"wind_gusts":29.2,"aqi":94,"pm10":48.9,"pm2_5":24.2,"mosquito_risk":4,"arthritis_risk":5,"migraine_risk":7,"frizz_risk":0,"updated_at":"2026-03-04T18:34:03.674611+05:30"},{"city":"Indore","state":"Madhya Pradesh","latitude":22.7196,"longitude":75.8577,"temp":27.9,"humidity":41,"rain":0.0,"pressure":951.3,"uv_index":7.45,"wind_gusts":20.5,"aqi":103,"pm10":25.7,"pm2_5":19.6,"mosquito_risk":4,"arthritis_risk":5,"migraine_risk":7,"frizz_risk":0,"updated_at":"2026-03-04T18:34:03.674619+05:30"},{"city":"Bhopal","state":"Madhya Pradesh","latitude":23.2599,"longitude":77.4126,"temp":27.3,"humidity":36,"rain":0.0,"pressure":957.0,"uv_index":7.3,"wind_gusts":23.0,"aqi":84,"pm10":14.7,"pm2_5":10.6,"mosquito_risk":4,"arthritis_risk":5,"migraine_risk":7,"frizz_risk":0,"updated_at":"2026-03-04T18:34:03.674627+05:30"},{"city":"Jabalpur","state":"Madhya Pradesh","latitude":23.1815,"longitude":79.9864,"temp":29.2,"humidity":37,"rain":0.0,"pressure":964.4,"uv_index":7.45,"wind_gusts":23.4,"aqi":85,"pm10":23.3,"pm2_5":15.5,"mosquito_risk":4,"arthritis_risk":5,"migraine_risk":7,"frizz_risk":0,"updated_at":"2026-03-04T18:34:03.674635+05:30"},{"city":"Ujjain","state":"Madhya Pradesh","latitude":23.1765,"longitude":75.7885,"temp":28.0,"humidity":40,"rain":0.0,"pressure":957.1,"uv_index":7.35,"wind_gusts":19.4,"aqi":105,"pm10":33.2,"pm2_5":25.2,"mosquito_risk":4,"arthritis_risk":5,"migraine_risk":7,"frizz_risk":0,"updated_at":"2026-03-04T18:34:03.674642+05:30"},{"city":"Visakhapatnam","state":"Andhra Pradesh","latitude":17.6868,"longitude":83.2185,"temp":27.3,"humidity":64,"rain":0.0,"pressure":1005.3,"uv_index":8.4,"wind_gusts":36.7,"aqi":135,"pm10":34.2,"pm2_5":30.2,"mosquito_risk":7,"arthritis_risk":5,"migraine_risk":4,"frizz_risk":1,"updated_at":"2026-03-04T18:34:03.674650+05:30"},{"city":"Vijayawada","state":"Andhra Pradesh","latitude":16.5062,"longitude":80.648,"temp":31.9,"humidity":51,"rain":0.0,"pressure":1004.0,"uv_index":8.45,"wind_gusts":22.0,"aqi":124,"pm10":48.5,"pm2_5":46.7,"mosquito_risk":0,"arthritis_risk":5,"migraine_risk":4,"frizz_risk":1,"updated_at":"2026-03-04T18:34:03.674658+05:30"},{"city":"Guntur","state":"Andhra Pradesh","latitude":16.3067,"longitude":80.4365,"temp":29.9,"humidity":47,"rain":0.0,"pressure":1005.6,"uv_index":8.45,"wind_gusts":25.6,"aqi":113,"pm10":43.3,"pm2_5":41.7,"mosquito_risk":4,"arthritis_risk":5,"migraine_risk":4,"frizz_risk":1,"updated_at":"2026-03-04T18:34:03.674666+05:30"},{"city":"Nellore","state":"Andhra Pradesh","latitude":14.4426,"longitude":79.9865,"temp":28.8,"humidity":54,"rain":0.0,"pressure":1007.9,"uv_index":8.65,"wind_gusts":29.9,"aqi":120,"pm10":20.4,"pm2_5":18.3,"mosquito_risk":4,"arthritis_risk":5,"migraine_risk":4,"frizz_risk":1,"updated_at":"2026-03-04T18:34:03.674674+05:30"},{"city":"Kurnool","state":"Andhra Pradesh","latitude":15.8281,"longitude":78.0373,"temp":33.8,"humidity":31,"rain":0.0,"pressure":978.1,"uv_index":8.45,"wind_gusts":27.0,"aqi":136,"pm10":19.4,"pm2_5":18.6,"mosquito_risk":0,"arthritis_risk":5,"migraine_risk":7,"frizz_risk":0,"updated_at":"2026-03-04T18:34:03.674682+05:30"},{"city":"Kakinada","state":"Andhra Pradesh","latitude":16.9891,"longitude":82.2475,"temp":28.5,"humidity":52,"rain":0.0,"pressure":1008.7,"uv_index":8.4,"wind_gusts":33.8,"aqi":100,"pm10":30.4,"pm2_5":26.7,"mosquito_risk":4,"arthritis_risk":0,"migraine_risk":4,"frizz_risk":1,"updated_at":"2026-03-04T18:34:03.674690+05:30"},{"city":"Tirupati","state":"Andhra Pradesh","latitude":13.6288,"longitude":79.4192,"temp":30.0,"humidity":35,"rain":0.0,"pressure":993.4,"uv_index":8.8,"wind_gusts":34.6,"aqi":142,"pm10":33.6,"pm2_5":32.5,"mosquito_risk":4,"arthritis_risk":5,"migraine_risk":7,"frizz_risk":0,"updated_at":"2026-03-04T18:34:03.674697+05:30"},{"city":"Warangal","state":"Telangana","latitude":17.9689,"longitude":79.5941,"temp":31.1,"humidity":37,"rain":0.0,"pressure":980.6,"uv_index":8.2,"wind_gusts":20.5,"aqi":142,"pm10":31.2,"pm2_5":28.5,"mosquito_risk":0,"arthritis_risk":5,"migraine_risk":7,"frizz_risk":0,"updated_at":"2026-03-04T18:34:03.674704+05:30"},{"city":"Nizamabad","state":"Telangana","latitude":18.6725,"longitude":78.0941,"temp":31.2,"humidity":36,"rain":0.0,"pressure":966.9,"uv_index":8.1,"wind_gusts":26.3,"aqi":140,"pm10":28.8,"pm2_5":25.4,"mosquito_risk":0,"arthritis_risk":5,"migraine_risk":7,"frizz_risk":0,"updated_at":"2026-03-04T18:34:03.674712+05:30"},{"city":"Mysore","state":"Karnataka","latitude":12.2958,"longitude":76.6396,"temp":30.0,"humidity":23,"rain":0.0,"pressure":929.3,"uv_index":9.15,"wind_gusts":40.3,"aqi":128,"pm10":30.5,"pm2_5":29.4,"mosquito_risk":4,"arthritis_risk":5,"migraine_risk":7,"frizz_risk":0,"updated_at":"2026-03-04T18:34:03.674720+05:30"},{"city":"Mangalore","state":"Karnataka","latitude":12.9141,"longitude":74.856,"temp":28.6,"humidity":82,"rain":0.0,"pressure":1007.6,"uv_index":8.75,"wind_gusts":29.2,"aqi":115,"pm10":37.1,"pm2_5":32.7,"mosquito_risk":7,"arthritis_risk":5,"migraine_risk":4,"frizz_risk":1,"updated_at":"2026-03-04T18:34:03.674727+05:30"},{"city":"Hubli-Dharwad","state":"Karnataka","latitude":15.3647,"longitude":75.124,"temp":32.0,"humidity":29,"rain":0.0,"pressure":941.9,"uv_index":8.65,"wind_gusts":25.6,"aqi":159,"pm10":20.7,"pm2_5":20.3,"mosquito_risk":0,"arthritis_risk":5,"migraine_risk":7,"frizz_risk":0,"updated_at":"2026-03-04T18:34:03.674735+05:30"},{"city":"Belgaum","state":"Karnataka","latitude":15.8497,"longitude":74.4977,"temp":31.3,"humidity":34,"rain":0.0,"pressure":927.1,"uv_index":8.7,"wind_gusts":32.4,"aqi":169,"pm10":27.1,"pm2_5":26.4,"mosquito_risk":0,"arthritis_risk":5,"migraine_risk":7,"frizz_risk":0,"updated_at":"2026-03-04T18:34:06.920822+05:30"},{"city":"Coimbatore","state":"Tamil Nadu","latitude":11.0168,"longitude":76.9558,"temp":30.2,"humidity":30,"rain":0.0,"pressure":962.6,"uv_index":9.15,"wind_gusts":43.2,"aqi":137,"pm10":30.2,"pm2_5":29.0,"mosquito_risk":0,"arthritis_risk":5,"migraine_risk":7,"frizz_risk":0,"updated_at":"2026-03-04T18:34:06.920852+05:30"},{"city":"Madurai","state":"Tamil Nadu","latitude":9.9252,"longitude":78.1198,"temp":32.4,"humidity":32,"rain":0.0,"pressure":993.5,"uv_index":9.1,"wind_gusts":25.9,"aqi":104,"pm10":18.2,"pm2_5":17.3,"mosquito_risk":0,"arthritis_risk":5,"migraine_risk":7,"frizz_risk":0,"updated_at":"2026-03-04T18:34:06.920864+05:30"},{"city":"Trichy","state":"Tamil Nadu","latitude":10.7905,"longitude":78.7047,"temp":31.1,"humidity":43,"rain":0.0,"pressure":1000.9,"uv_index":9.0,"wind_gusts":31.0,"aqi":97,"pm10":20.8,"pm2_5":20.0,"mosquito_risk":0,"arthritis_risk":5,"migraine_risk":4,"frizz_risk":1,"updated_at":"2026-03-04T18:34:06.920874+05:30"},{"city":"Salem","state":"Tamil Nadu","latitude":11.6643,"longitude":78.146,"temp":31.9,"humidity":31,"rain":0.0,"pressure":978.3,"uv_index":9.0,"wind_gusts":37.8,"aqi":129,"pm10":17.6,"pm2_5":16.8,"mosquito_risk":0,"arthritis_risk":5,"migraine_risk":7,"frizz_risk":0,"updated_at":"2026-03-04T18:34:06.920883+05:30"},{"city":"Tirunelveli","state":"Tamil Nadu","latitude":8.7139,"longitude":77.7567,"temp":30.0,"humidity":52,"rain":0.0,"pressure":1004.2,"uv_index":9.15,"wind_gusts":41.4,"aqi":81,"pm10":15.3,"pm2_5":14.3,"mosquito_risk":4,"arthritis_risk":5,"migraine_risk":4,"frizz_risk":1,"updated_at":"2026-03-04T18:34:06.920891+05:30"},{"city":"Vellore","state":"Tamil Nadu","latitude":12.9165,"longitude":79.1325,"temp":30.0,"humidity":37,"rain":0.0,"pressure":986.1,"uv_index":8.85,"wind_gusts":38.9,"aqi":131,"pm10":21.5,"pm2_5":20.5,"mosquito_risk":4,"arthritis_risk":5,"migraine_risk":7,"frizz_risk":0,"updated_at":"2026-03-04T18:34:06.920899+05:30"},{"city":"Erode","state":"Tamil Nadu","latitude":11.341,"longitude":77.7172,"temp":33.4,"humidity":24,"rain":0.0,"pressure":989.4,"uv_index":9.05,"wind_gusts":31.0,"aqi":143,"pm10":23.4,"pm2_5":22.7,"mosquito_risk":0,"arthritis_risk":5,"migraine_risk":7,"frizz_risk":0,"updated_at":"2026-03-04T18:34:06.920907+05:30"},{"city":"Kochi","state":"Kerala","latitude":9.9312,"longitude":76.2673,"temp":28.4,"humidity":80,"rain":0.0,"pressure":1009.2,"uv_index":8.95,"wind_gusts":34.6,"aqi":128,"pm10":30.3,"pm2_5":28.6,"mosquito_risk":7,"arthritis_risk":0,"migraine_risk":4,"frizz_risk":1,"updated_at":"2026-03-04T18:34:06.920914+05:30"},{"city":"Thiruvananthapuram","state":"Kerala","latitude":8.5241,"longitude":76.9366,"temp":28.4,"humidity":68,"rain":0.0,"pressure":1009.3,"uv_index":9.0,"wind_gusts":27.4,"aqi":135,"pm10":27.4,"pm2_5":24.9,"mosquito_risk":7,"arthritis_risk":0,"migraine_risk":4,"frizz_risk":1,"updated_at":"2026-03-04T18:34:06.920919+05:30"},{"city":"Kozhikode","state":"Kerala","latitude":11.2588,"longitude":75.7804,"temp":28.9,"humidity":78,"rain":0.0,"pressure":1008.5,"uv_index":8.85,"wind_gusts":31.0,"aqi":96,"pm10":31.8,"pm2_5":27.5,"mosquito_risk":7,"arthritis_risk":0,"migraine_risk":4,"frizz_risk":1,"updated_at":"2026-03-04T18:34:06.920925+05:30"},{"city":"Thrissur","state":"Kerala","latitude":10.5276,"longitude":76.2144,"temp":28.5,"humidity":77,"rain":0.0,"pressure":1007.6,"uv_index":8.9,"wind_gusts":37.8,"aqi":142,"pm10":31.1,"pm2_5":29.6,"mosquito_risk":7,"arthritis_risk":5,"migraine_risk":4,"frizz_risk":1,"updated_at":"2026-03-04T18:34:06.920931+05:30"},{"city":"Kannur","state":"Kerala","latitude":11.8745,"longitude":75.3704,"temp":28.7,"humidity":74,"rain":0.0,"pressure":1008.1,"uv_index":8.8,"wind_gusts":33.5,"aqi":104,"pm10":38.2,"pm2_5":33.2,"mosquito_risk":7,"arthritis_risk":0,"migraine_risk":4,"frizz_risk":1,"updated_at":"2026-03-04T18:34:06.920937+05:30"},{"city":"Patna","state":"Bihar","latitude":25.5941,"longitude":85.1376,"temp":27.5,"humidity":49,"rain":0.0,"pressure":1003.1,"uv_index":7.2,"wind_gusts":15.5,"aqi":184,"pm10":121.5,"pm2_5":84.8,"mosquito_risk":4,"arthritis_risk":5,"migraine_risk":4,"frizz_risk":0,"updated_at":"2026-03-04T18:34:06.920942+05:30"},{"city":"Gaya","state":"Bihar","latitude":24.7914,"longitude":85.0002,"temp":24.9,"humidity":62,"rain":0.0,"pressure":996.5,"uv_index":7.25,"wind_gusts":17.6,"aqi":154,"pm10":139.7,"pm2_5":61.2,"mosquito_risk":3,"arthritis_risk":5,"migraine_risk":7,"frizz_risk":1,"updated_at":"2026-03-04T18:34:06.920948+05:30"},{"city":"Muzaffarpur","state":"Bihar","latitude":26.1209,"longitude":85.3647,"temp":26.0,"humidity":53,"rain":0.0,"pressure":1003.1,"uv_index":7.15,"wind_gusts":14.0,"aqi":180,"pm10":106.4,"pm2_5":80.3,"mosquito_risk":4,"arthritis_risk":5,"migraine_risk":4,"frizz_risk":0,"updated_at":"2026-03-04T18:34:06.920954+05:30"},{"city":"Bhagalpur","state":"Bihar","latitude":25.2425,"longitude":87.0117,"temp":25.4,"humidity":59,"rain":0.0,"pressure":1004.0,"uv_index":7.2,"wind_gusts":8.3,"aqi":181,"pm10":95.5,"pm2_5":65.0,"mosquito_risk":4,"arthritis_risk":5,"migraine_risk":4,"frizz_risk":1,"updated_at":"2026-03-04T18:34:06.920960+05:30"},{"city":"Ranchi","state":"Jharkhand","latitude":23.3441,"longitude":85.3096,"temp":24.1,"humidity":32,"rain":0.0,"pressure":939.7,"uv_index":7.9,"wind_gusts":30.6,"aqi":122,"pm10":71.5,"pm2_5":26.1,"mosquito_risk":0,"arthritis_risk":5,"migraine_risk":7,"frizz_risk":0,"updated_at":"2026-03-04T18:34:06.920965+05:30"},{"city":"Jamshedpur","state":"Jharkhand","latitude":22.8046,"longitude":86.2029,"temp":29.4,"humidity":33,"rain":0.0,"pressure":992.3,"uv_index":7.85,"wind_gusts":19.1,"aqi":161,"pm10":109.9,"pm2_5":48.5,"mosquito_risk":4,"arthritis_risk":5,"migraine_risk":7,"frizz_risk":0,"updated_at":"2026-03-04T18:34:06.920971+05:30"},{"city":"Dhanbad","state":"Jharkhand","latitude":23.7957,"longitude":86.4304,"temp":28.9,"humidity":28,"rain":0.0,"pressure":981.8,"uv_index":7.7,"wind_gusts":23.4,"aqi":150,"pm10":122.9,"pm2_5":58.6,"mosquito_risk":4,"arthritis_risk":5,"migraine_risk":7,"frizz_risk":0,"updated_at":"2026-03-04T18:34:06.920977+05:30"},{"city":"Bokaro","state":"Jharkhand","latitude":23.6693,"longitude":86.1511,"temp":27.3,"humidity":32,"rain":0.0,"pressure":985.8,"uv_index":7.7,"wind_gusts":23.8,"aqi":150,"pm10":133.6,"pm2_5":56.7,"mosquito_risk":4,"arthritis_risk":5,"migraine_risk":7,"frizz_risk":0,"updated_at":"2026-03-04T18:34:06.920983+05:30"},{"city":"Bhubaneswar","state":"Odisha","latitude":20.2961,"longitude":85.8245,"temp":30.1,"humidity":43,"rain":0.0,"pressure":1003.4,"uv_index":8.15,"wind_gusts":26.6,"aqi":180,"pm10":74.0,"pm2_5":60.1,"mosquito_risk":0,"arthritis_risk":5,"migraine_risk":4,"frizz_risk":1,"updated_at":"2026-03-04T18:34:06.920989+05:30"},{"city":"Cuttack","state":"Odisha","latitude":20.4625,"longitude":85.8828,"temp":32.3,"humidity":30,"rain":0.0,"pressure":1004.8,"uv_index":8.15,"wind_gusts":27.0,"aqi":180,"pm10":74.0,"pm2_5":60.1,"mosquito_risk":0,"arthritis_risk":5,"migraine_risk":4,"frizz_risk":0,"updated_at":"2026-03-04T18:34:06.920994+05:30"},{"city":"Rourkela","state":"Odisha","latitude":22.2604,"longitude":84.8536,"temp":29.8,"humidity":35,"rain":0.0,"pressure":985.9,"uv_index":7.75,"wind_gusts":21.2,"aqi":142,"pm10":55.8,"pm2_5":30.9,"mosquito_risk":4,"arthritis_risk":5,"migraine_risk":7,"frizz_risk":0,"updated_at":"2026-03-04T18:34:06.921000+05:30"},{"city":"Raipur","state":"Chhattisgarh","latitude":21.2514,"longitude":81.6296,"temp":31.2,"humidity":32,"rain":0.0,"pressure":976.4,"uv_index":7.8,"wind_gusts":19.8,"aqi":127,"pm10":43.8,"pm2_5":34.6,"mosquito_risk":0,"arthritis_risk":5,"migraine_risk":7,"frizz_risk":0,"updated_at":"2026-03-04T18:34:06.921005+05:30"},{"city":"Bhilai","state":"Chhattisgarh","latitude":21.1938,"longitude":81.3509,"temp":30.7,"humidity":33,"rain":0.0,"pressure":976.6,"uv_index":7.8,"wind_gusts":16.9,"aqi":112,"pm10":43.5,"pm2_5":34.6,"mosquito_risk":0,"arthritis_risk":5,"migraine_risk":7,"frizz_risk":0,"updated_at":"2026-03-04T18:34:06.921011+05:30"},{"city":"Guwahati","state":"Assam","latitude":26.1158,"longitude":91.7086,"temp":26.6,"humidity":59,"rain":0.0,"pressure":1003.5,"uv_index":7.1,"wind_gusts":18.4,"aqi":150,"pm10":55.9,"pm2_5":49.5,"mosquito_risk":4,"arthritis_risk":5,"migraine_risk":4,"frizz_risk":1,"updated_at":"2026-03-04T18:34:06.921016+05:30"},{"city":"Agartala","state":"Tripura","latitude":23.8315,"longitude":91.2868,"temp":24.2,"humidity":64,"rain":0.0,"pressure":1007.9,"uv_index":7.5,"wind_gusts":20.9,"aqi":175,"pm10":88.0,"pm2_5":66.8,"mosquito_risk":3,"arthritis_risk":5,"migraine_risk":4,"frizz_risk":1,"updated_at":"2026-03-04T18:34:06.921022+05:30"},{"city":"Shillong","state":"Meghalaya","latitude":25.5788,"longitude":91.8933,"temp":13.0,"humidity":88,"rain":0.0,"pressure":856.7,"uv_index":7.5,"wind_gusts":29.9,"aqi":133,"pm10":51.9,"pm2_5":44.2,"mosquito_risk":3,"arthritis_risk":10,"migraine_risk":7,"frizz_risk":0,"updated_at":"2026-03-04T18:34:06.921028+05:30"},{"city":"Imphal","state":"Manipur","latitude":24.817,"longitude":93.9368,"temp":17.8,"humidity":66,"rain":0.0,"pressure":923.9,"uv_index":7.7,"wind_gusts":21.2,"aqi":131,"pm10":56.7,"pm2_5":50.5,"mosquito_risk":3,"arthritis_risk":5,"migraine_risk":7,"frizz_risk":0,"updated_at":"2026-03-04T18:34:06.921034+05:30"},{"city":"Aizawl","state":"Mizoram","latitude":23.7271,"longitude":92.7176,"temp":18.1,"humidity":66,"rain":0.0,"pressure":893.0,"uv_index":7.7,"wind_gusts":22.0,"aqi":159,"pm10":93.4,"pm2_5":79.6,"mosquito_risk":3,"arthritis_risk":5,"migraine_risk":7,"frizz_risk":0,"updated_at":"2026-03-04T18:34:06.921040+05:30"},{"city":"Kohima","state":"Nagaland","latitude":25.6701,"longitude":94.1077,"temp":13.9,"humidity":89,"rain":0.0,"pressure":855.4,"uv_index":7.55,"wind_gusts":38.5,"aqi":148,"pm10":71.0,"pm2_5":61.2,"mosquito_risk":3,"arthritis_risk":10,"migraine_risk":7,"frizz_risk":0,"updated_at":"2026-03-04T18:34:06.921045+05:30"},{"city":"Gangtok","state":"Sikkim","latitude":27.3314,"longitude":88.6138,"temp":16.0,"humidity":71,"rain":0.0,"pressure":839.2,"uv_index":7.45,"wind_gusts":22.7,"aqi":137,"pm10":53.3,"pm2_5":42.1,"mosquito_risk":3,"arthritis_risk":5,"migraine_risk":7,"frizz_risk":0,"updated_at":"2026-03-04T18:34:06.921051+05:30"},{"city":"Siliguri","state":"West Bengal","latitude":26.7271,"longitude":88.3953,"temp":21.7,"humidity":71,"rain":0.0,"pressure":996.5,"uv_index":7.1,"wind_gusts":19.8,"aqi":157,"pm10":66.4,"pm2_5":50.4,"mosquito_risk":3,"arthritis_risk":5,"migraine_risk":7,"frizz_risk":1,"updated_at":"2026-03-04T18:34:10.172086+05:30"},{"city":"Durgapur","state":"West Bengal","latitude":23.5204,"longitude":87.3119,"temp":27.9,"humidity":29,"rain":0.0,"pressure":996.9,"uv_index":7.7,"wind_gusts":20.5,"aqi":149,"pm10":100.1,"pm2_5":54.4,"mosquito_risk":4,"arthritis_risk":5,"migraine_risk":7,"frizz_risk":0,"updated_at":"2026-03-04T18:34:10.172105+05:30"},{"city":"Asansol","state":"West Bengal","latitude":23.6739,"longitude":86.9524,"temp":27.9,"humidity":31,"rain":0.0,"pressure":995.6,"uv_index":7.7,"wind_gusts":20.9,"aqi":149,"pm10":105.0,"pm2_5":50.1,"mosquito_risk":4,"arthritis_risk":5,"migraine_risk":7,"frizz_risk":0,"updated_at":"2026-03-04T18:34:10.172114+05:30"},{"city":"Pondicherry","state":"Puducherry","latitude":11.9139,"longitude":79.8145,"temp":27.2,"humidity":65,"rain":0.0,"pressure":1010.4,"uv_index":8.85,"wind_gusts":29.2,"aqi":92,"pm10":20.0,"pm2_5":17.1,"mosquito_risk":7,"arthritis_risk":0,"migraine_risk":4,"frizz_risk":1,"updated_at":"2026-03-04T18:34:10.172121+05:30"},{"city":"Port Blair","state":"Andaman and Nicobar Islands","latitude":11.6234,"longitude":92.7265,"temp":27.3,"humidity":72,"rain":0.0,"pressure":1008.1,"uv_index":8.8,"wind_gusts":25.6,"aqi":97,"pm10":38.2,"pm2_5":32.6,"mosquito_risk":7,"arthritis_risk":0,"migraine_risk":4,"frizz_risk":1,"updated_at":"2026-03-04T18:34:10.172128+05:30"},{"city":"Haridwar","state":"Uttarakhand","latitude":29.9457,"longitude":78.1642,"temp":26.7,"humidity":61,"rain":0.0,"pressure":976.6,"uv_index":5.6,"wind_gusts":19.8,"aqi":160,"pm10":93.8,"pm2_5":41.0,"mosquito_risk":7,"arthritis_risk":5,"migraine_risk":3,"frizz_risk":1,"updated_at":"2026-03-04T18:34:10.172133+05:30"},{"city":"Rishikesh","state":"Uttarakhand","latitude":30.0869,"longitude":78.2676,"temp":24.6,"humidity":60,"rain":0.0,"pressure":969.5,"uv_index":5.65,"wind_gusts":22.7,"aqi":161,"pm10":44.7,"pm2_5":32.6,"mosquito_risk":0,"arthritis_risk":5,"migraine_risk":3,"frizz_risk":1,"updated_at":"2026-03-04T18:34:10.172139+05:30"},{"city":"Nainital","state":"Uttarakhand","latitude":29.3919,"longitude":79.4542,"temp":16.9,"humidity":77,"rain":0.0,"pressure":807.7,"uv_index":6.45,"wind_gusts":57.2,"aqi":162,"pm10":87.5,"pm2_5":60.3,"mosquito_risk":3,"arthritis_risk":5,"migraine_risk":7,"frizz_risk":0,"updated_at":"2026-03-04T18:34:10.172145+05:30"},{"city":"Mussoorie","state":"Uttarakhand","latitude":30.4599,"longitude":78.0664,"temp":17.3,"humidity":66,"rain":0.0,"pressure":804.6,"uv_index":6.0,"wind_gusts":35.6,"aqi":167,"pm10":45.9,"pm2_5":34.9,"mosquito_risk":3,"arthritis_risk":5,"migraine_risk":3,"frizz_risk":0,"updated_at":"2026-03-04T18:34:10.172151+05:30"},{"city":"Dharamshala","state":"Himachal Pradesh","latitude":32.219,"longitude":76.3234,"temp":22.1,"humidity":55,"rain":0.0,"pressure":872.7,"uv_index":6.25,"wind_gusts":27.7,"aqi":98,"pm10":24.3,"pm2_5":16.1,"mosquito_risk":0,"arthritis_risk":5,"migraine_risk":7,"frizz_risk":0,"updated_at":"2026-03-04T18:34:10.172156+05:30"},{"city":"Dalhousie","state":"Himachal Pradesh","latitude":32.5387,"longitude":75.971,"temp":20.8,"humidity":46,"rain":0.0,"pressure":807.8,"uv_index":6.45,"wind_gusts":22.0,"aqi":120,"pm10":36.6,"pm2_5":29.6,"mosquito_risk":0,"arthritis_risk":5,"migraine_risk":7,"frizz_risk":0,"updated_at":"2026-03-04T18:34:10.172162+05:30"},{"city":"Patiala","state":"Punjab","latitude":30.3398,"longitude":76.3869,"temp":26.0,"humidity":58,"rain":0.0,"pressure":981.3,"uv_index":5.65,"wind_gusts":30.6,"aqi":179,"pm10":530.9,"pm2_5":94.1,"mosquito_risk":4,"arthritis_risk":5,"migraine_risk":3,"frizz_risk":1,"updated_at":"2026-03-04T18:34:10.172168+05:30"},{"city":"Bhatinda","state":"Punjab","latitude":30.211,"longitude":74.9455,"temp":26.6,"humidity":63,"rain":0.0,"pressure":987.4,"uv_index":6.3,"wind_gusts":22.7,"aqi":152,"pm10":59.6,"pm2_5":39.3,"mosquito_risk":7,"arthritis_risk":5,"migraine_risk":7,"frizz_risk":1,"updated_at":"2026-03-04T18:34:10.172174+05:30"},{"city":"Rohtak","state":"Haryana","latitude":28.8955,"longitude":76.6066,"temp":26.1,"humidity":56,"rain":0.0,"pressure":985.0,"uv_index":5.85,"wind_gusts":31.0,"aqi":387,"pm10":890.3,"pm2_5":122.9,"mosquito_risk":4,"arthritis_risk":5,"migraine_risk":3,"frizz_risk":1,"updated_at":"2026-03-04T18:34:10.172179+05:30"},{"city":"Panipat","state":"Haryana","latitude":29.3909,"longitude":76.9635,"temp":25.8,"humidity":56,"rain":0.0,"pressure":983.3,"uv_index":5.65,"wind_gusts":31.0,"aqi":915,"pm10":1628.0,"pm2_5":193.2,"mosquito_risk":4,"arthritis_risk":5,"migraine_risk":3,"frizz_risk":1,"updated_at":"2026-03-04T18:34:10.172185+05:30"},{"city":"Mathura","state":"Uttar Pradesh","latitude":27.4924,"longitude":77.6737,"temp":27.8,"humidity":43,"rain":0.0,"pressure":990.1,"uv_index":6.1,"wind_gusts":29.9,"aqi":467,"pm10":843.8,"pm2_5":114.1,"mosquito_risk":4,"arthritis_risk":5,"migraine_risk":7,"frizz_risk":0,"updated_at":"2026-03-04T18:34:10.172191+05:30"},{"city":"Vrindavan","state":"Uttar Pradesh","latitude":27.5823,"longitude":77.7027,"temp":27.0,"humidity":46,"rain":0.0,"pressure":990.4,"uv_index":6.1,"wind_gusts":31.7,"aqi":467,"pm10":843.8,"pm2_5":114.1,"mosquito_risk":4,"arthritis_risk":5,"migraine_risk":7,"frizz_risk":0,"updated_at":"2026-03-04T18:34:10.172196+05:30"},{"city":"Ayodhya","state":"Uttar Pradesh","latitude":26.7922,"longitude":82.1998,"temp":26.8,"humidity":54,"rain":0.0,"pressure":998.2,"uv_index":6.5,"wind_gusts":9.7,"aqi":162,"pm10":215.1,"pm2_5":85.2,"mosquito_risk":4,"arthritis_risk":5,"migraine_risk":7,"frizz_risk":1,"updated_at":"2026-03-04T18:34:10.172202+05:30"},{"city":"Ratlam","state":"Madhya Pradesh","latitude":23.3315,"longitude":75.0367,"temp":30.0,"humidity":35,"rain":0.0,"pressure":957.9,"uv_index":7.3,"wind_gusts":21.2,"aqi":108,"pm10":26.9,"pm2_5":20.5,"mosquito_risk":4,"arthritis_risk":5,"migraine_risk":7,"frizz_risk":0,"updated_at":"2026-03-04T18:34:10.172208+05:30"},{"city":"Sagar","state":"Madhya Pradesh","latitude":23.8388,"longitude":78.7378,"temp":27.8,"humidity":34,"rain":0.0,"pressure":953.1,"uv_index":7.25,"wind_gusts":25.6,"aqi":93,"pm10":17.5,"pm2_5":11.7,"mosquito_risk":4,"arthritis_risk":5,"migraine_risk":7,"frizz_risk":0,"updated_at":"2026-03-04T18:34:10.172213+05:30"},{"city":"Satna","state":"Madhya Pradesh","latitude":24.6005,"longitude":80.8322,"temp":28.2,"humidity":33,"rain":0.0,"pressure":974.2,"uv_index":7.25,"wind_gusts":34.9,"aqi":115,"pm10":42.5,"pm2_5":27.6,"mosquito_risk":4,"arthritis_risk":5,"migraine_risk":7,"frizz_risk":0,"updated_at":"2026-03-04T18:34:10.172219+05:30"},{"city":"Akola","state":"Maharashtra","latitude":20.7002,"longitude":77.0082,"temp":32.5,"humidity":27,"rain":0.0,"pressure":977.0,"uv_index":7.8,"wind_gusts":18.7,"aqi":128,"pm10":25.9,"pm2_5":22.5,"mosquito_risk":0,"arthritis_risk":5,"migraine_risk":7,"frizz_risk":0,"updated_at":"2026-03-04T18:34:10.172226+05:30"},{"city":"Amravati","state":"Maharashtra","latitude":20.9374,"longitude":77.7796,"temp":32.4,"humidity":37,"rain":0.0,"pressure":969.1,"uv_index":7.75,"wind_gusts":16.2,"aqi":125,"pm10":24.6,"pm2_5":20.6,"mosquito_risk":0,"arthritis_risk":5,"migraine_risk":7,"frizz_risk":0,"updated_at":"2026-03-04T18:34:10.172233+05:30"},{"city":"Latur","state":"Maharashtra","latitude":18.4088,"longitude":76.5604,"temp":30.2,"humidity":33,"rain":0.0,"pressure":941.8,"uv_index":8.25,"wind_gusts":19.8,"aqi":146,"pm10":23.3,"pm2_5":21.5,"mosquito_risk":0,"arthritis_risk":5,"migraine_risk":7,"frizz_risk":0,"updated_at":"2026-03-04T18:34:10.172239+05:30"},{"city":"Nanded","state":"Maharashtra","latitude":19.1383,"longitude":77.3091,"temp":32.1,"humidity":35,"rain":0.0,"pressure":970.4,"uv_index":8.0,"wind_gusts":13.0,"aqi":132,"pm10":20.3,"pm2_5":18.2,"mosquito_risk":0,"arthritis_risk":5,"migraine_risk":7,"frizz_risk":0,"updated_at":"2026-03-04T18:34:10.172244+05:30"},{"city":"Gulbarga","state":"Karnataka","latitude":17.3297,"longitude":76.8343,"temp":33.8,"humidity":24,"rain":0.0,"pressure":960.1,"uv_index":8.35,"wind_gusts":23.0,"aqi":161,"pm10":15.9,"pm2_5":14.7,"mosquito_risk":0,"arthritis_risk":5,"migraine_risk":7,"frizz_risk":0,"updated_at":"2026-03-04T18:34:10.172250+05:30"},{"city":"Bidar","state":"Karnataka","latitude":17.9104,"longitude":77.5199,"temp":30.6,"humidity":30,"rain":0.0,"pressure":937.5,"uv_index":8.3,"wind_gusts":25.9,"aqi":143,"pm10":23.4,"pm2_5":21.1,"mosquito_risk":0,"arthritis_risk":5,"migraine_risk":7,"frizz_risk":0,"updated_at":"2026-03-04T18:34:10.172255+05:30"},{"city":"Hospet","state":"Karnataka","latitude":15.2689,"longitude":76.3909,"temp":33.5,"humidity":25,"rain":0.0,"pressure":957.1,"uv_index":8.6,"wind_gusts":25.9,"aqi":170,"pm10":28.8,"pm2_5":28.1,"mosquito_risk":0,"arthritis_risk":5,"migraine_risk":7,"frizz_risk":0,"updated_at":"2026-03-04T18:34:10.172261+05:30"},{"city":"Tirupur","state":"Tamil Nadu","latitude":11.1085,"longitude":77.3411,"temp":32.6,"humidity":29,"rain":0.0,"pressure":975.9,"uv_index":9.15,"wind_gusts":32.4,"aqi":159,"pm10":35.5,"pm2_5":34.5,"mosquito_risk":0,"arthritis_risk":5,"migraine_risk":7,"frizz_risk":0,"updated_at":"2026-03-04T18:34:10.172266+05:30"},{"city":"Alappuzha","state":"Kerala","latitude":9.4981,"longitude":76.3388,"temp":28.5,"humidity":78,"rain":0.0,"pressure":1009.4,"uv_index":8.95,"wind_gusts":30.2,"aqi":126,"pm10":28.9,"pm2_5":26.7,"mosquito_risk":7,"arthritis_risk":0,"migraine_risk":4,"frizz_risk":1,"updated_at":"2026-03-04T18:34:10.172272+05:30"},{"city":"Munnar","state":"Kerala","latitude":10.0889,"longitude":77.0595,"temp":25.2,"humidity":49,"rain":0.0,"pressure":858.6,"uv_index":9.45,"wind_gusts":24.5,"aqi":103,"pm10":22.2,"pm2_5":21.7,"mosquito_risk":4,"arthritis_risk":5,"migraine_risk":7,"frizz_risk":0,"updated_at":"2026-03-04T18:34:10.172278+05:30"},{"city":"Silchar","state":"Assam","latitude":24.8333,"longitude":92.7789,"temp":26.6,"humidity":57,"rain":0.0,"pressure":1006.1,"uv_index":7.45,"wind_gusts":14.4,"aqi":150,"pm10":67.8,"pm2_5":58.7,"mosquito_risk":4,"arthritis_risk":5,"migraine_risk":4,"frizz_risk":1,"updated_at":"2026-03-04T18:34:10.172284+05:30"},{"city":"Dibrugarh","state":"Assam","latitude":27.4728,"longitude":94.912,"temp":25.8,"humidity":61,"rain":0.0,"pressure":996.9,"uv_index":7.15,"wind_gusts":9.0,"aqi":130,"pm10":70.1,"pm2_5":57.7,"mosquito_risk":7,"arthritis_risk":5,"migraine_risk":7,"frizz_risk":1,"updated_at":"2026-03-04T18:34:10.172289+05:30"}]