[{"city":"Delhi","state":"Delhi","latitude":28.6139,"longitude":77.209,"temp":34.5,"humidity":35,"rain":0.0,"pressure":976.9,"uv_index":7.25,"wind_gusts":56.9,"aqi":747,"pm10":480.6,"pm2_5":64.7,"mosquito_risk":0,"arthritis_risk":5,"migraine_risk":7,"frizz_risk":1,"updated_at":"2026-04-28T17:17:51.563114+05:30"},{"city":"Mumbai","state":"Maharashtra","latitude":19.076,"longitude":72.8777,"temp":31.5,"humidity":61,"rain":0.0,"pressure":1004.4,"uv_index":8.0,"wind_gusts":40.0,"aqi":88,"pm10":50.1,"pm2_5":23.2,"mosquito_risk":3,"arthritis_risk":5,"migraine_risk":4,"frizz_risk":1,"updated_at":"2026-04-28T17:17:51.563150+05:30"},{"city":"Bangalore","state":"Karnataka","latitude":12.9716,"longitude":77.5946,"temp":34.8,"humidity":21,"rain":0.0,"pressure":909.1,"uv_index":9.0,"wind_gusts":33.8,"aqi":164,"pm10":43.1,"pm2_5":28.7,"mosquito_risk":0,"arthritis_risk":5,"migraine_risk":7,"frizz_risk":0,"updated_at":"2026-04-28T17:17:51.563166+05:30"},{"city":"Hyderabad","state":"Telangana","latitude":17.385,"longitude":78.4867,"temp":38.8,"humidity":18,"rain":0.0,"pressure":949.3,"uv_index":8.85,"wind_gusts":36.4,"aqi":159,"pm10":47.4,"pm2_5":35.9,"mosquito_risk":0,"arthritis_risk":5,"migraine_risk":10,"frizz_risk":0,"updated_at":"2026-04-28T17:17:51.563175+05:30"},{"city":"Chennai","state":"Tamil Nadu","latitude":13.0827,"longitude":80.2707,"temp":31.8,"humidity":64,"rain":0.0,"pressure":1002.7,"uv_index":8.25,"wind_gusts":55.4,"aqi":74,"pm10":17.7,"pm2_5":14.0,"mosquito_risk":3,"arthritis_risk":5,"migraine_risk":4,"frizz_risk":1,"updated_at":"2026-04-28T17:17:51.563184+05:30"},{"city":"Kolkata","state":"West Bengal","latitude":22.5726,"longitude":88.3639,"temp":27.8,"humidity":90,"rain":0.1,"pressure":1000.1,"uv_index":8.85,"wind_gusts":49.3,"aqi":73,"pm10":35.6,"pm2_5":29.0,"mosquito_risk":10,"arthritis_risk":5,"migraine_risk":4,"frizz_risk":1,"updated_at":"2026-04-28T17:17:51.563193+05:30"},{"city":"Pune","state":"Maharashtra","latitude":18.5204,"longitude":73.8567,"temp":36.5,"humidity":23,"rain":0.0,"pressure":944.7,"uv_index":8.6,"wind_gusts":42.8,"aqi":86,"pm10":34.9,"pm2_5":23.9,"mosquito_risk":0,"arthritis_risk":5,"migraine_risk":10,"frizz_risk":0,"updated_at":"2026-04-28T17:17:51.563204+05:30"},{"city":"Ahmedabad","state":"Gujarat","latitude":23.0225,"longitude":72.5714,"temp":42.5,"humidity":12,"rain":0.0,"pressure":994.5,"uv_index":8.2,"wind_gusts":46.4,"aqi":57,"pm10":47.3,"pm2_5":13.4,"mosquito_risk":0,"arthritis_risk":5,"migraine_risk":10,"frizz_risk":0,"updated_at":"2026-04-28T17:17:51.563212+05:30"},{"city":"Jaipur","state":"Rajasthan","latitude":26.9124,"longitude":75.7873,"temp":38.8,"humidity":13,"rain":0.0,"pressure":953.3,"uv_index":8.05,"wind_gusts":37.1,"aqi":130,"pm10":138.3,"pm2_5":18.5,"mosquito_risk":0,"arthritis_risk":5,"migraine_risk":10,"frizz_risk":0,"updated_at":"2026-04-28T17:17:51.563220+05:30"},{"city":"Lucknow","state":"Uttar Pradesh","latitude":26.8467,"longitude":80.9462,"temp":40.0,"humidity":16,"rain":0.0,"pressure":985.0,"uv_index":7.9,"wind_gusts":39.6,"aqi":161,"pm10":316.6,"pm2_5":63.1,"mosquito_risk":0,"arthritis_risk":5,"migraine_risk":10,"frizz_risk":0,"updated_at":"2026-04-28T17:17:51.563227+05:30"},{"city":"Kanpur","state":"Uttar Pradesh","latitude":26.4499,"longitude":80.3319,"temp":40.8,"humidity":15,"rain":0.0,"pressure":983.2,"uv_index":7.95,"wind_gusts":40.3,"aqi":195,"pm10":538.3,"pm2_5":71.2,"mosquito_risk":0,"arthritis_risk":5,"migraine_risk":10,"frizz_risk":0,"updated_at":"2026-04-28T17:17:51.563235+05:30"},{"city":"Chandigarh","state":"Chandigarh","latitude":30.7333,"longitude":76.7794,"temp":32.0,"humidity":30,"rain":0.0,"pressure":963.8,"uv_index":4.6,"wind_gusts":34.2,"aqi":56,"pm10":54.1,"pm2_5":17.2,"mosquito_risk":0,"arthritis_risk":5,"migraine_risk":3,"frizz_risk":0,"updated_at":"2026-04-28T17:17:51.563242+05:30"},{"city":"Srinagar","state":"Jammu and Kashmir","latitude":34.0837,"longitude":74.7973,"temp":15.3,"humidity":87,"rain":0.1,"pressure":839.7,"uv_index":5.1,"wind_gusts":19.1,"aqi":81,"pm10":24.7,"pm2_5":20.0,"mosquito_risk":6,"arthritis_risk":10,"migraine_risk":3,"frizz_risk":0,"updated_at":"2026-04-28T17:17:51.563249+05:30"},{"city":"Jammu","state":"Jammu and Kashmir","latitude":32.7266,"longitude":74.857,"temp":31.2,"humidity":32,"rain":0.0,"pressure":968.4,"uv_index":6.6,"wind_gusts":27.0,"aqi":67,"pm10":43.0,"pm2_5":21.2,"mosquito_risk":0,"arthritis_risk":5,"migraine_risk":7,"frizz_risk":0,"updated_at":"2026-04-28T17:17:51.563256+05:30"},{"city":"Amritsar","state":"Punjab","latitude":31.634,"longitude":74.8723,"temp":33.4,"humidity":31,"rain":0.0,"pressure":975.9,"uv_index":6.25,"wind_gusts":32.8,"aqi":79,"pm10":51.2,"pm2_5":17.3,"mosquito_risk":0,"arthritis_risk":5,"migraine_risk":7,"frizz_risk":0,"updated_at":"2026-04-28T17:17:51.563263+05:30"},{"city":"Ludhiana","state":"Punjab","latitude":30.901,"longitude":75.8573,"temp":33.9,"humidity":28,"rain":0.0,"pressure":973.5,"uv_index":6.75,"wind_gusts":37.1,"aqi":80,"pm10":71.0,"pm2_5":22.5,"mosquito_risk":0,"arthritis_risk":5,"migraine_risk":7,"frizz_risk":0,"updated_at":"2026-04-28T17:17:51.563270+05:30"},{"city":"Jalandhar","state":"Punjab","latitude":31.326,"longitude":75.5762,"temp":31.0,"humidity":38,"rain":0.0,"pressure":974.9,"uv_index":7.25,"wind_gusts":37.8,"aqi":81,"pm10":69.2,"pm2_5":20.8,"mosquito_risk":0,"arthritis_risk":5,"migraine_risk":7,"frizz_risk":0,"updated_at":"2026-04-28T17:17:51.563278+05:30"},{"city":"Dehradun","state":"Uttarakhand","latitude":30.6284,"longitude":78.0322,"temp":20.5,"humidity":43,"rain":0.0,"pressure":828.5,"uv_index":4.95,"wind_gusts":43.2,"aqi":103,"pm10":31.1,"pm2_5":11.1,"mosquito_risk":0,"arthritis_risk":5,"migraine_risk":3,"frizz_risk":0,"updated_at":"2026-04-28T17:17:51.563285+05:30"},{"city":"Shimla","state":"Himachal Pradesh","latitude":31.1048,"longitude":77.1734,"temp":13.6,"humidity":77,"rain":0.1,"pressure":781.3,"uv_index":3.75,"wind_gusts":39.6,"aqi":55,"pm10":30.3,"pm2_5":11.6,"mosquito_risk":6,"arthritis_risk":5,"migraine_risk":3,"frizz_risk":0,"updated_at":"2026-04-28T17:17:51.563292+05:30"},{"city":"Manali","state":"Himachal Pradesh","latitude":32.2396,"longitude":77.1887,"temp":13.6,"humidity":76,"rain":0.1,"pressure":814.4,"uv_index":9.85,"wind_gusts":40.7,"aqi":111,"pm10":15.8,"pm2_5":9.1,"mosquito_risk":6,"arthritis_risk":5,"migraine_risk":7,"frizz_risk":0,"updated_at":"2026-04-28T17:17:51.563301+05:30"},{"city":"Gurgaon","state":"Haryana","latitude":28.4595,"longitude":77.0266,"temp":35.7,"humidity":26,"rain":0.0,"pressure":975.3,"uv_index":7.6,"wind_gusts":54.7,"aqi":1448,"pm10":834.5,"pm2_5":87.3,"mosquito_risk":0,"arthritis_risk":5,"migraine_risk":10,"frizz_risk":0,"updated_at":"2026-04-28T17:17:51.563308+05:30"},{"city":"Noida","state":"Uttar Pradesh","latitude":28.5355,"longitude":77.391,"temp":34.7,"humidity":32,"rain":0.0,"pressure":978.4,"uv_index":7.5,"wind_gusts":47.9,"aqi":1448,"pm10":834.5,"pm2_5":87.3,"mosquito_risk":0,"arthritis_risk":5,"migraine_risk":7,"frizz_risk":0,"updated_at":"2026-04-28T17:17:51.563314+05:30"},{"city":"Ghaziabad","state":"Uttar Pradesh","latitude":28.6692,"longitude":77.4538,"temp":35.5,"humidity":28,"rain":0.0,"pressure":976.7,"uv_index":7.3,"wind_gusts":32.4,"aqi":584,"pm10":353.9,"pm2_5":54.7,"mosquito_risk":0,"arthritis_risk":5,"migraine_risk":10,"frizz_risk":0,"updated_at":"2026-04-28T17:17:51.563320+05:30"},{"city":"Faridabad","state":"Haryana","latitude":28.4089,"longitude":77.3178,"temp":34.0,"humidity":36,"rain":0.0,"pressure":977.7,"uv_index":7.55,"wind_gusts":59.0,"aqi":1448,"pm10":834.5,"pm2_5":87.3,"mosquito_risk":0,"arthritis_risk":5,"migraine_risk":7,"frizz_risk":1,"updated_at":"2026-04-28T17:17:51.563327+05:30"},{"city":"Meerut","state":"Uttar Pradesh","latitude":28.9845,"longitude":77.7064,"temp":34.0,"humidity":32,"rain":0.0,"pressure":975.7,"uv_index":7.05,"wind_gusts":37.1,"aqi":584,"pm10":353.9,"pm2_5":54.7,"mosquito_risk":0,"arthritis_risk":5,"migraine_risk":7,"frizz_risk":0,"updated_at":"2026-04-28T17:17:51.563333+05:30"},{"city":"Agra","state":"Uttar Pradesh","latitude":27.1767,"longitude":78.0081,"temp":38.5,"humidity":20,"rain":0.0,"pressure":980.8,"uv_index":7.8,"wind_gusts":40.7,"aqi":770,"pm10":489.9,"pm2_5":58.4,"mosquito_risk":0,"arthritis_risk":5,"migraine_risk":10,"frizz_risk":0,"updated_at":"2026-04-28T17:17:51.563339+05:30"},{"city":"Varanasi","state":"Uttar Pradesh","latitude":25.3176,"longitude":82.9739,"temp":40.1,"humidity":19,"rain":0.0,"pressure":989.1,"uv_index":8.5,"wind_gusts":40.0,"aqi":154,"pm10":150.9,"pm2_5":30.4,"mosquito_risk":0,"arthritis_risk":5,"migraine_risk":10,"frizz_risk":0,"updated_at":"2026-04-28T17:17:51.563348+05:30"},{"city":"Prayagraj","state":"Uttar Pradesh","latitude":25.4358,"longitude":81.8463,"temp":40.5,"humidity":17,"rain":0.0,"pressure":987.2,"uv_index":8.4,"wind_gusts":40.7,"aqi":152,"pm10":149.5,"pm2_5":32.5,"mosquito_risk":0,"arthritis_risk":5,"migraine_risk":10,"frizz_risk":0,"updated_at":"2026-04-28T17:17:51.563355+05:30"},{"city":"Gorakhpur","state":"Uttar Pradesh","latitude":26.7606,"longitude":83.3732,"temp":34.6,"humidity":35,"rain":0.0,"pressure":990.0,"uv_index":8.3,"wind_gusts":29.9,"aqi":138,"pm10":133.6,"pm2_5":41.3,"mosquito_risk":0,"arthritis_risk":5,"migraine_risk":7,"frizz_risk":1,"updated_at":"2026-04-28T17:17:51.563364+05:30"},{"city":"Bareilly","state":"Uttar Pradesh","latitude":28.367,"longitude":79.4304,"temp":36.8,"humidity":23,"rain":0.0,"pressure":980.1,"uv_index":7.7,"wind_gusts":45.7,"aqi":168,"pm10":92.2,"pm2_5":33.8,"mosquito_risk":0,"arthritis_risk":5,"migraine_risk":10,"frizz_risk":0,"updated_at":"2026-04-28T17:17:51.563371+05:30"},{"city":"Aligarh","state":"Uttar Pradesh","latitude":27.8974,"longitude":78.088,"temp":35.5,"humidity":27,"rain":0.0,"pressure":979.3,"uv_index":7.65,"wind_gusts":50.0,"aqi":849,"pm10":549.5,"pm2_5":74.5,"mosquito_risk":0,"arthritis_risk":5,"migraine_risk":10,"frizz_risk":0,"updated_at":"2026-04-28T17:17:51.563378+05:30"},{"city":"Moradabad","state":"Uttar Pradesh","latitude":28.8386,"longitude":78.7733,"temp":36.1,"humidity":25,"rain":0.0,"pressure":977.5,"uv_index":7.5,"wind_gusts":42.5,"aqi":154,"pm10":122.9,"pm2_5":36.8,"mosquito_risk":0,"arthritis_risk":5,"migraine_risk":10,"frizz_risk":0,"updated_at":"2026-04-28T17:17:51.563384+05:30"},{"city":"Saharanpur","state":"Uttar Pradesh","latitude":29.9637,"longitude":77.546,"temp":31.6,"humidity":35,"rain":0.0,"pressure":970.4,"uv_index":6.65,"wind_gusts":42.5,"aqi":70,"pm10":74.0,"pm2_5":21.0,"mosquito_risk":0,"arthritis_risk":5,"migraine_risk":7,"frizz_risk":0,"updated_at":"2026-04-28T17:17:51.563390+05:30"},{"city":"Jhansi","state":"Uttar Pradesh","latitude":25.4484,"longitude":78.5685,"temp":40.6,"humidity":15,"rain":0.0,"pressure":970.1,"uv_index":8.3,"wind_gusts":33.8,"aqi":98,"pm10":52.2,"pm2_5":15.9,"mosquito_risk":0,"arthritis_risk":5,"migraine_risk":10,"frizz_risk":0,"updated_at":"2026-04-28T17:17:54.802305+05:30"},{"city":"Surat","state":"Gujarat","latitude":21.1702,"longitude":72.8311,"temp":33.4,"humidity":48,"rain":0.0,"pressure":1001.3,"uv_index":7.9,"wind_gusts":45.0,"aqi":79,"pm10":33.3,"pm2_5":21.1,"mosquito_risk":0,"arthritis_risk":5,"migraine_risk":4,"frizz_risk":1,"updated_at":"2026-04-28T17:17:54.802330+05:30"},{"city":"Vadodara","state":"Gujarat","latitude":22.3072,"longitude":73.1812,"temp":41.2,"humidity":17,"rain":0.0,"pressure":997.3,"uv_index":8.15,"wind_gusts":46.8,"aqi":67,"pm10":49.1,"pm2_5":15.6,"mosquito_risk":0,"arthritis_risk":5,"migraine_risk":10,"frizz_risk":0,"updated_at":"2026-04-28T17:17:54.802339+05:30"},{"city":"Rajkot","state":"Gujarat","latitude":22.3039,"longitude":70.8022,"temp":40.3,"humidity":16,"rain":0.0,"pressure":988.2,"uv_index":7.9,"wind_gusts":51.1,"aqi":50,"pm10":43.0,"pm2_5":12.7,"mosquito_risk":0,"arthritis_risk":5,"migraine_risk":10,"frizz_risk":0,"updated_at":"2026-04-28T17:17:54.802346+05:30"},{"city":"Thane","state":"Maharashtra","latitude":19.2183,"longitude":72.9781,"temp":34.0,"humidity":44,"rain":0.0,"pressure":1003.4,"uv_index":8.05,"wind_gusts":37.1,"aqi":88,"pm10":50.1,"pm2_5":23.2,"mosquito_risk":0,"arthritis_risk":5,"migraine_risk":4,"frizz_risk":1,"updated_at":"2026-04-28T17:17:54.802352+05:30"},{"city":"Nagpur","state":"Maharashtra","latitude":21.1458,"longitude":79.0882,"temp":41.2,"humidity":13,"rain":0.0,"pressure":967.0,"uv_index":8.85,"wind_gusts":50.8,"aqi":161,"pm10":25.8,"pm2_5":19.0,"mosquito_risk":0,"arthritis_risk":5,"migraine_risk":10,"frizz_risk":0,"updated_at":"2026-04-28T17:17:54.802358+05:30"},{"city":"Nashik","state":"Maharashtra","latitude":19.9975,"longitude":73.7898,"temp":36.2,"humidity":18,"rain":0.0,"pressure":942.4,"uv_index":8.3,"wind_gusts":43.2,"aqi":70,"pm10":24.6,"pm2_5":11.0,"mosquito_risk":0,"arthritis_risk":5,"migraine_risk":10,"frizz_risk":0,"updated_at":"2026-04-28T17:17:54.802364+05:30"},{"city":"Aurangabad","state":"Maharashtra","latitude":19.8762,"longitude":75.3433,"temp":39.5,"humidity":13,"rain":0.0,"pressure":939.8,"uv_index":9.0,"wind_gusts":42.5,"aqi":74,"pm10":25.0,"pm2_5":16.8,"mosquito_risk":0,"arthritis_risk":5,"migraine_risk":10,"frizz_risk":0,"updated_at":"2026-04-28T17:17:54.802370+05:30"},{"city":"Solapur","state":"Maharashtra","latitude":17.6599,"longitude":75.9064,"temp":40.3,"humidity":15,"rain":0.0,"pressure":952.1,"uv_index":9.05,"wind_gusts":37.8,"aqi":118,"pm10":35.3,"pm2_5":23.2,"mosquito_risk":0,"arthritis_risk":5,"migraine_risk":10,"frizz_risk":0,"updated_at":"2026-04-28T17:17:54.802376+05:30"},{"city":"Kolhapur","state":"Maharashtra","latitude":16.705,"longitude":74.2433,"temp":34.0,"humidity":41,"rain":0.0,"pressure":944.3,"uv_index":6.4,"wind_gusts":49.3,"aqi":73,"pm10":38.5,"pm2_5":23.3,"mosquito_risk":0,"arthritis_risk":5,"migraine_risk":7,"frizz_risk":1,"updated_at":"2026-04-28T17:17:54.802382+05:30"},{"city":"Goa","state":"Goa","latitude":15.2993,"longitude":74.124,"temp":32.7,"humidity":62,"rain":0.0,"pressure":994.3,"uv_index":8.95,"wind_gusts":37.8,"aqi":62,"pm10":57.6,"pm2_5":20.3,"mosquito_risk":3,"arthritis_risk":5,"migraine_risk":7,"frizz_risk":1,"updated_at":"2026-04-28T17:17:54.802387+05:30"},{"city":"Jodhpur","state":"Rajasthan","latitude":26.2389,"longitude":73.0243,"temp":40.0,"humidity":15,"rain":0.0,"pressure":975.4,"uv_index":8.3,"wind_gusts":49.0,"aqi":112,"pm10":258.9,"pm2_5":28.6,"mosquito_risk":0,"arthritis_risk":5,"migraine_risk":10,"frizz_risk":0,"updated_at":"2026-04-28T17:17:54.802393+05:30"},{"city":"Udaipur","state":"Rajasthan","latitude":24.5854,"longitude":73.7125,"temp":36.8,"humidity":17,"rain":0.0,"pressure":941.0,"uv_index":8.75,"wind_gusts":49.7,"aqi":46,"pm10":37.1,"pm2_5":10.6,"mosquito_risk":0,"arthritis_risk":5,"migraine_risk":10,"frizz_risk":0,"updated_at":"2026-04-28T17:17:54.802399+05:30"},{"city":"Kota","state":"Rajasthan","latitude":25.2138,"longitude":75.8648,"temp":40.4,"humidity":12,"rain":0.0,"pressure":971.3,"uv_index":8.3,"wind_gusts":33.8,"aqi":64,"pm10":24.3,"pm2_5":8.3,"mosquito_risk":0,"arthritis_risk":5,"migraine_risk":10,"frizz_risk":0,"updated_at":"2026-04-28T17:17:54.802404+05:30"},{"city":"Bikaner","state":"Rajasthan","latitude":28.0229,"longitude":73.3119,"temp":40.3,"humidity":14,"rain":0.0,"pressure":974.1,"uv_index":8.15,"wind_gusts":40.0,"aqi":56,"pm10":89.6,"pm2_5":16.8,"mosquito_risk":0,"arthritis_risk":5,"migraine_risk":10,"frizz_risk":0,"updated_at":"2026-04-28T17:17:54.802410+05:30"},{"city":"Ajmer","state":"Rajasthan","latitude":26.4499,"longitude":74.6399,"temp":38.1,"humidity":14,"rain":0.0,"pressure":948.3,"uv_index":8.25,"wind_gusts":47.2,"aqi":53,"pm10":26.5,"pm2_5":7.9,"mosquito_risk":0,"arthritis_risk":5,"migraine_risk":10,"frizz_risk":0,"updated_at":"2026-04-28T17:17:54.802415+05:30"},{"city":"Gwalior","state":"Madhya Pradesh","latitude":26.2183,"longitude":78.1828,"temp":39.5,"humidity":17,"rain":0.0,"pressure":975.8,"uv_index":8.05,"wind_gusts":39.6,"aqi":70,"pm10":97.8,"pm2_5":19.6,"mosquito_risk":0,"arthritis_risk":5,"migraine_risk":10,"frizz_risk":0,"updated_at":"2026-04-28T17:17:54.802420+05:30"},{"city":"Indore","state":"Madhya Pradesh","latitude":22.7196,"longitude":75.8577,"temp":38.2,"humidity":14,"rain":0.0,"pressure":943.3,"uv_index":8.6,"wind_gusts":56.2,"aqi":68,"pm10":17.3,"pm2_5":8.9,"mosquito_risk":0,"arthritis_risk":5,"migraine_risk":10,"frizz_risk":0,"updated_at":"2026-04-28T17:17:54.802426+05:30"},{"city":"Bhopal","state":"Madhya Pradesh","latitude":23.2599,"longitude":77.4126,"temp":39.9,"humidity":9,"rain":0.0,"pressure":947.6,"uv_index":8.6,"wind_gusts":50.8,"aqi":94,"pm10":14.7,"pm2_5":10.5,"mosquito_risk":0,"arthritis_risk":5,"migraine_risk":10,"frizz_risk":0,"updated_at":"2026-04-28T17:17:54.802431+05:30"},{"city":"Jabalpur","state":"Madhya Pradesh","latitude":23.1815,"longitude":79.9864,"temp":40.8,"humidity":9,"rain":0.0,"pressure":954.5,"uv_index":8.75,"wind_gusts":45.4,"aqi":110,"pm10":14.0,"pm2_5":8.8,"mosquito_risk":0,"arthritis_risk":5,"migraine_risk":10,"frizz_risk":0,"updated_at":"2026-04-28T17:17:54.802437+05:30"},{"city":"Ujjain","state":"Madhya Pradesh","latitude":23.1765,"longitude":75.7885,"temp":38.0,"humidity":13,"rain":0.0,"pressure":948.7,"uv_index":8.55,"wind_gusts":55.1,"aqi":52,"pm10":23.1,"pm2_5":8.4,"mosquito_risk":0,"arthritis_risk":5,"migraine_risk":10,"frizz_risk":0,"updated_at":"2026-04-28T17:17:54.802442+05:30"},{"city":"Visakhapatnam","state":"Andhra Pradesh","latitude":17.6868,"longitude":83.2185,"temp":30.9,"humidity":69,"rain":0.0,"pressure":1000.1,"uv_index":9.05,"wind_gusts":59.0,"aqi":71,"pm10":25.0,"pm2_5":17.6,"mosquito_risk":3,"arthritis_risk":5,"migraine_risk":4,"frizz_risk":1,"updated_at":"2026-04-28T17:17:54.802448+05:30"},{"city":"Vijayawada","state":"Andhra Pradesh","latitude":16.5062,"longitude":80.648,"temp":35.2,"humidity":47,"rain":0.0,"pressure":998.2,"uv_index":9.2,"wind_gusts":41.0,"aqi":67,"pm10":33.4,"pm2_5":23.6,"mosquito_risk":0,"arthritis_risk":5,"migraine_risk":10,"frizz_risk":1,"updated_at":"2026-04-28T17:17:54.802453+05:30"},{"city":"Guntur","state":"Andhra Pradesh","latitude":16.3067,"longitude":80.4365,"temp":33.9,"humidity":58,"rain":0.0,"pressure":999.2,"uv_index":9.25,"wind_gusts":43.6,"aqi":78,"pm10":37.8,"pm2_5":27.9,"mosquito_risk":0,"arthritis_risk":5,"migraine_risk":7,"frizz_risk":1,"updated_at":"2026-04-28T17:17:54.802459+05:30"},{"city":"Nellore","state":"Andhra Pradesh","latitude":14.4426,"longitude":79.9865,"temp":33.3,"humidity":56,"rain":0.0,"pressure":1000.7,"uv_index":9.25,"wind_gusts":50.0,"aqi":91,"pm10":24.8,"pm2_5":18.9,"mosquito_risk":0,"arthritis_risk":5,"migraine_risk":4,"frizz_risk":1,"updated_at":"2026-04-28T17:17:54.802465+05:30"},{"city":"Kurnool","state":"Andhra Pradesh","latitude":15.8281,"longitude":78.0373,"temp":32.9,"humidity":43,"rain":0.0,"pressure":973.4,"uv_index":9.2,"wind_gusts":52.2,"aqi":181,"pm10":53.0,"pm2_5":40.9,"mosquito_risk":0,"arthritis_risk":5,"migraine_risk":7,"frizz_risk":1,"updated_at":"2026-04-28T17:17:54.802471+05:30"},{"city":"Kakinada","state":"Andhra Pradesh","latitude":16.9891,"longitude":82.2475,"temp":34.5,"humidity":52,"rain":0.0,"pressure":1003.4,"uv_index":9.2,"wind_gusts":43.9,"aqi":63,"pm10":18.7,"pm2_5":12.5,"mosquito_risk":0,"arthritis_risk":5,"migraine_risk":4,"frizz_risk":1,"updated_at":"2026-04-28T17:17:54.802477+05:30"},{"city":"Tirupati","state":"Andhra Pradesh","latitude":13.6288,"longitude":79.4192,"temp":38.8,"humidity":23,"rain":0.0,"pressure":985.6,"uv_index":8.6,"wind_gusts":41.4,"aqi":74,"pm10":26.5,"pm2_5":18.0,"mosquito_risk":0,"arthritis_risk":5,"migraine_risk":10,"frizz_risk":0,"updated_at":"2026-04-28T17:17:54.802482+05:30"},{"city":"Warangal","state":"Telangana","latitude":17.9689,"longitude":79.5941,"temp":36.5,"humidity":31,"rain":0.0,"pressure":974.6,"uv_index":9.15,"wind_gusts":40.0,"aqi":119,"pm10":52.4,"pm2_5":39.0,"mosquito_risk":0,"arthritis_risk":5,"migraine_risk":10,"frizz_risk":1,"updated_at":"2026-04-28T17:17:54.802488+05:30"},{"city":"Nizamabad","state":"Telangana","latitude":18.6725,"longitude":78.0941,"temp":39.2,"humidity":15,"rain":0.0,"pressure":959.9,"uv_index":9.1,"wind_gusts":37.1,"aqi":134,"pm10":32.0,"pm2_5":22.4,"mosquito_risk":0,"arthritis_risk":5,"migraine_risk":10,"frizz_risk":0,"updated_at":"2026-04-28T17:17:54.802493+05:30"},{"city":"Mysore","state":"Karnataka","latitude":12.2958,"longitude":76.6396,"temp":33.8,"humidity":32,"rain":0.0,"pressure":925.5,"uv_index":8.35,"wind_gusts":37.8,"aqi":128,"pm10":42.6,"pm2_5":29.9,"mosquito_risk":0,"arthritis_risk":5,"migraine_risk":7,"frizz_risk":0,"updated_at":"2026-04-28T17:17:54.802499+05:30"},{"city":"Mangalore","state":"Karnataka","latitude":12.9141,"longitude":74.856,"temp":31.4,"humidity":64,"rain":0.0,"pressure":1003.3,"uv_index":8.7,"wind_gusts":41.8,"aqi":74,"pm10":28.5,"pm2_5":18.0,"mosquito_risk":3,"arthritis_risk":5,"migraine_risk":4,"frizz_risk":1,"updated_at":"2026-04-28T17:17:54.802504+05:30"},{"city":"Hubli-Dharwad","state":"Karnataka","latitude":15.3647,"longitude":75.124,"temp":29.8,"humidity":60,"rain":0.0,"pressure":937.7,"uv_index":9.2,"wind_gusts":49.3,"aqi":91,"pm10":43.9,"pm2_5":30.4,"mosquito_risk":4,"arthritis_risk":5,"migraine_risk":7,"frizz_risk":1,"updated_at":"2026-04-28T17:17:54.802510+05:30"},{"city":"Belgaum","state":"Karnataka","latitude":15.8497,"longitude":74.4977,"temp":30.2,"humidity":61,"rain":0.0,"pressure":923.2,"uv_index":9.25,"wind_gusts":47.5,"aqi":101,"pm10":45.2,"pm2_5":26.3,"mosquito_risk":3,"arthritis_risk":5,"migraine_risk":7,"frizz_risk":1,"updated_at":"2026-04-28T17:17:58.040861+05:30"},{"city":"Coimbatore","state":"Tamil Nadu","latitude":11.0168,"longitude":76.9558,"temp":32.4,"humidity":48,"rain":0.0,"pressure":958.0,"uv_index":8.2,"wind_gusts":56.2,"aqi":117,"pm10":33.5,"pm2_5":21.2,"mosquito_risk":0,"arthritis_risk":5,"migraine_risk":7,"frizz_risk":1,"updated_at":"2026-04-28T17:17:58.040890+05:30"},{"city":"Madurai","state":"Tamil Nadu","latitude":9.9252,"longitude":78.1198,"temp":35.2,"humidity":39,"rain":0.0,"pressure":989.1,"uv_index":9.2,"wind_gusts":51.1,"aqi":105,"pm10":21.2,"pm2_5":17.6,"mosquito_risk":0,"arthritis_risk":5,"migraine_risk":10,"frizz_risk":1,"updated_at":"2026-04-28T17:17:58.040901+05:30"},{"city":"Trichy","state":"Tamil Nadu","latitude":10.7905,"longitude":78.7047,"temp":36.4,"humidity":37,"rain":0.0,"pressure":994.9,"uv_index":8.25,"wind_gusts":45.4,"aqi":62,"pm10":12.0,"pm2_5":10.8,"mosquito_risk":0,"arthritis_risk":5,"migraine_risk":10,"frizz_risk":1,"updated_at":"2026-04-28T17:17:58.040910+05:30"},{"city":"Salem","state":"Tamil Nadu","latitude":11.6643,"longitude":78.146,"temp":38.8,"humidity":20,"rain":0.0,"pressure":972.1,"uv_index":8.25,"wind_gusts":31.3,"aqi":107,"pm10":28.2,"pm2_5":18.7,"mosquito_risk":0,"arthritis_risk":5,"migraine_risk":10,"frizz_risk":0,"updated_at":"2026-04-28T17:17:58.040918+05:30"},{"city":"Tirunelveli","state":"Tamil Nadu","latitude":8.7139,"longitude":77.7567,"temp":33.8,"humidity":49,"rain":0.0,"pressure":999.6,"uv_index":9.15,"wind_gusts":45.4,"aqi":70,"pm10":17.4,"pm2_5":15.4,"mosquito_risk":0,"arthritis_risk":5,"migraine_risk":7,"frizz_risk":1,"updated_at":"2026-04-28T17:17:58.040925+05:30"},{"city":"Vellore","state":"Tamil Nadu","latitude":12.9165,"longitude":79.1325,"temp":37.7,"humidity":26,"rain":0.0,"pressure":979.6,"uv_index":8.35,"wind_gusts":40.0,"aqi":70,"pm10":25.6,"pm2_5":18.0,"mosquito_risk":0,"arthritis_risk":5,"migraine_risk":10,"frizz_risk":0,"updated_at":"2026-04-28T17:17:58.040932+05:30"},{"city":"Erode","state":"Tamil Nadu","latitude":11.341,"longitude":77.7172,"temp":38.9,"humidity":22,"rain":0.0,"pressure":983.6,"uv_index":8.35,"wind_gusts":40.3,"aqi":126,"pm10":29.2,"pm2_5":19.6,"mosquito_risk":0,"arthritis_risk":5,"migraine_risk":10,"frizz_risk":0,"updated_at":"2026-04-28T17:17:58.040939+05:30"},{"city":"Kochi","state":"Kerala","latitude":9.9312,"longitude":76.2673,"temp":29.5,"humidity":77,"rain":0.0,"pressure":1006.1,"uv_index":7.55,"wind_gusts":37.1,"aqi":73,"pm10":23.6,"pm2_5":18.9,"mosquito_risk":7,"arthritis_risk":5,"migraine_risk":4,"frizz_risk":1,"updated_at":"2026-04-28T17:17:58.040946+05:30"},{"city":"Thiruvananthapuram","state":"Kerala","latitude":8.5241,"longitude":76.9366,"temp":28.9,"humidity":76,"rain":0.0,"pressure":1005.7,"uv_index":7.7,"wind_gusts":32.8,"aqi":59,"pm10":15.0,"pm2_5":11.4,"mosquito_risk":7,"arthritis_risk":5,"migraine_risk":4,"frizz_risk":1,"updated_at":"2026-04-28T17:17:58.040953+05:30"},{"city":"Kozhikode","state":"Kerala","latitude":11.2588,"longitude":75.7804,"temp":30.1,"humidity":77,"rain":0.1,"pressure":1004.3,"uv_index":7.55,"wind_gusts":37.8,"aqi":65,"pm10":19.2,"pm2_5":13.9,"mosquito_risk":6,"arthritis_risk":5,"migraine_risk":4,"frizz_risk":1,"updated_at":"2026-04-28T17:17:58.040960+05:30"},{"city":"Thrissur","state":"Kerala","latitude":10.5276,"longitude":76.2144,"temp":29.8,"humidity":75,"rain":0.1,"pressure":1004.1,"uv_index":7.05,"wind_gusts":37.8,"aqi":74,"pm10":22.6,"pm2_5":18.1,"mosquito_risk":10,"arthritis_risk":5,"migraine_risk":4,"frizz_risk":1,"updated_at":"2026-04-28T17:17:58.040967+05:30"},{"city":"Kannur","state":"Kerala","latitude":11.8745,"longitude":75.3704,"temp":29.9,"humidity":75,"rain":0.0,"pressure":1004.0,"uv_index":7.3,"wind_gusts":43.9,"aqi":75,"pm10":29.0,"pm2_5":21.5,"mosquito_risk":7,"arthritis_risk":5,"migraine_risk":4,"frizz_risk":1,"updated_at":"2026-04-28T17:17:58.040975+05:30"},{"city":"Patna","state":"Bihar","latitude":25.5941,"longitude":85.1376,"temp":34.5,"humidity":43,"rain":0.0,"pressure":993.5,"uv_index":8.6,"wind_gusts":33.1,"aqi":152,"pm10":99.4,"pm2_5":50.3,"mosquito_risk":0,"arthritis_risk":5,"migraine_risk":7,"frizz_risk":1,"updated_at":"2026-04-28T17:17:58.040982+05:30"},{"city":"Gaya","state":"Bihar","latitude":24.7914,"longitude":85.0002,"temp":34.9,"humidity":40,"rain":0.0,"pressure":986.7,"uv_index":8.7,"wind_gusts":41.8,"aqi":159,"pm10":98.3,"pm2_5":39.9,"mosquito_risk":0,"arthritis_risk":5,"migraine_risk":7,"frizz_risk":1,"updated_at":"2026-04-28T17:17:58.040989+05:30"},{"city":"Muzaffarpur","state":"Bihar","latitude":26.1209,"longitude":85.3647,"temp":32.5,"humidity":54,"rain":0.0,"pressure":993.7,"uv_index":8.55,"wind_gusts":45.4,"aqi":144,"pm10":88.2,"pm2_5":44.2,"mosquito_risk":0,"arthritis_risk":5,"migraine_risk":7,"frizz_risk":1,"updated_at":"2026-04-28T17:17:58.040996+05:30"},{"city":"Bhagalpur","state":"Bihar","latitude":25.2425,"longitude":87.0117,"temp":31.0,"humidity":59,"rain":0.0,"pressure":994.8,"uv_index":8.55,"wind_gusts":32.4,"aqi":136,"pm10":89.4,"pm2_5":42.8,"mosquito_risk":0,"arthritis_risk":5,"migraine_risk":7,"frizz_risk":1,"updated_at":"2026-04-28T17:17:58.041002+05:30"},{"city":"Ranchi","state":"Jharkhand","latitude":23.3441,"longitude":85.3096,"temp":32.2,"humidity":31,"rain":0.0,"pressure":933.0,"uv_index":8.9,"wind_gusts":53.6,"aqi":98,"pm10":53.9,"pm2_5":19.4,"mosquito_risk":0,"arthritis_risk":5,"migraine_risk":7,"frizz_risk":0,"updated_at":"2026-04-28T17:17:58.041009+05:30"},{"city":"Jamshedpur","state":"Jharkhand","latitude":22.8046,"longitude":86.2029,"temp":36.5,"humidity":27,"rain":0.0,"pressure":984.3,"uv_index":8.8,"wind_gusts":51.5,"aqi":179,"pm10":55.6,"pm2_5":39.5,"mosquito_risk":0,"arthritis_risk":5,"migraine_risk":10,"frizz_risk":0,"updated_at":"2026-04-28T17:17:58.041016+05:30"},{"city":"Dhanbad","state":"Jharkhand","latitude":23.7957,"longitude":86.4304,"temp":32.4,"humidity":53,"rain":0.0,"pressure":973.4,"uv_index":8.75,"wind_gusts":39.2,"aqi":138,"pm10":94.5,"pm2_5":65.4,"mosquito_risk":0,"arthritis_risk":5,"migraine_risk":7,"frizz_risk":1,"updated_at":"2026-04-28T17:17:58.041058+05:30"},{"city":"Bokaro","state":"Jharkhand","latitude":23.6693,"longitude":86.1511,"temp":35.2,"humidity":36,"rain":0.0,"pressure":977.0,"uv_index":8.95,"wind_gusts":38.9,"aqi":161,"pm10":95.2,"pm2_5":66.4,"mosquito_risk":0,"arthritis_risk":5,"migraine_risk":10,"frizz_risk":1,"updated_at":"2026-04-28T17:17:58.041078+05:30"},{"city":"Bhubaneswar","state":"Odisha","latitude":20.2961,"longitude":85.8245,"temp":32.1,"humidity":64,"rain":0.0,"pressure":996.9,"uv_index":9.1,"wind_gusts":46.4,"aqi":69,"pm10":24.8,"pm2_5":21.5,"mosquito_risk":3,"arthritis_risk":5,"migraine_risk":7,"frizz_risk":1,"updated_at":"2026-04-28T17:17:58.041088+05:30"},{"city":"Cuttack","state":"Odisha","latitude":20.4625,"longitude":85.8828,"temp":35.5,"humidity":38,"rain":0.0,"pressure":998.2,"uv_index":9.1,"wind_gusts":43.9,"aqi":69,"pm10":24.8,"pm2_5":21.5,"mosquito_risk":0,"arthritis_risk":5,"migraine_risk":10,"frizz_risk":1,"updated_at":"2026-04-28T17:17:58.041095+05:30"},{"city":"Rourkela","state":"Odisha","latitude":22.2604,"longitude":84.8536,"temp":37.8,"humidity":24,"rain":0.0,"pressure":979.1,"uv_index":8.4,"wind_gusts":46.8,"aqi":133,"pm10":25.8,"pm2_5":16.4,"mosquito_risk":0,"arthritis_risk":5,"migraine_risk":10,"frizz_risk":0,"updated_at":"2026-04-28T17:17:58.041102+05:30"},{"city":"Raipur","state":"Chhattisgarh","latitude":21.2514,"longitude":81.6296,"temp":38.2,"humidity":23,"rain":0.0,"pressure":968.8,"uv_index":8.9,"wind_gusts":49.0,"aqi":169,"pm10":26.5,"pm2_5":20.5,"mosquito_risk":0,"arthritis_risk":5,"migraine_risk":10,"frizz_risk":0,"updated_at":"2026-04-28T17:17:58.041109+05:30"},{"city":"Bhilai","state":"Chhattisgarh","latitude":21.1938,"longitude":81.3509,"temp":37.5,"humidity":25,"rain":0.0,"pressure":969.5,"uv_index":8.9,"wind_gusts":54.4,"aqi":147,"pm10":26.5,"pm2_5":20.4,"mosquito_risk":0,"arthritis_risk":5,"migraine_risk":10,"frizz_risk":0,"updated_at":"2026-04-28T17:17:58.041116+05:30"},{"city":"Guwahati","state":"Assam","latitude":26.1158,"longitude":91.7086,"temp":24.8,"humidity":82,"rain":0.0,"pressure":996.1,"uv_index":7.7,"wind_gusts":28.4,"aqi":75,"pm10":27.5,"pm2_5":16.0,"mosquito_risk":3,"arthritis_risk":5,"migraine_risk":7,"frizz_risk":1,"updated_at":"2026-04-28T17:17:58.041123+05:30"},{"city":"Agartala","state":"Tripura","latitude":23.8315,"longitude":91.2868,"temp":24.4,"humidity":95,"rain":0.0,"pressure":1001.8,"uv_index":4.35,"wind_gusts":45.0,"aqi":67,"pm10":35.7,"pm2_5":25.8,"mosquito_risk":3,"arthritis_risk":5,"migraine_risk":0,"frizz_risk":1,"updated_at":"2026-04-28T17:17:58.041131+05:30"},{"city":"Shillong","state":"Meghalaya","latitude":25.5788,"longitude":91.8933,"temp":17.6,"humidity":90,"rain":0.0,"pressure":852.6,"uv_index":8.85,"wind_gusts":38.2,"aqi":50,"pm10":9.5,"pm2_5":6.2,"mosquito_risk":3,"arthritis_risk":10,"migraine_risk":7,"frizz_risk":0,"updated_at":"2026-04-28T17:17:58.041139+05:30"},{"city":"Imphal","state":"Manipur","latitude":24.817,"longitude":93.9368,"temp":22.0,"humidity":84,"rain":0.0,"pressure":919.6,"uv_index":2.3,"wind_gusts":20.9,"aqi":95,"pm10":14.8,"pm2_5":12.6,"mosquito_risk":3,"arthritis_risk":5,"migraine_risk":3,"frizz_risk":1,"updated_at":"2026-04-28T17:17:58.041145+05:30"},{"city":"Aizawl","state":"Mizoram","latitude":23.7271,"longitude":92.7176,"temp":18.3,"humidity":87,"rain":0.0,"pressure":888.5,"uv_index":5.85,"wind_gusts":47.5,"aqi":84,"pm10":36.6,"pm2_5":24.2,"mosquito_risk":3,"arthritis_risk":10,"migraine_risk":3,"frizz_risk":0,"updated_at":"2026-04-28T17:17:58.041150+05:30"},{"city":"Kohima","state":"Nagaland","latitude":25.6701,"longitude":94.1077,"temp":19.4,"humidity":87,"rain":0.0,"pressure":852.2,"uv_index":8.45,"wind_gusts":30.2,"aqi":58,"pm10":7.8,"pm2_5":4.2,"mosquito_risk":3,"arthritis_risk":10,"migraine_risk":7,"frizz_risk":1,"updated_at":"2026-04-28T17:17:58.041155+05:30"},{"city":"Gangtok","state":"Sikkim","latitude":27.3314,"longitude":88.6138,"temp":16.3,"humidity":97,"rain":0.0,"pressure":832.7,"uv_index":8.45,"wind_gusts":36.4,"aqi":90,"pm10":22.6,"pm2_5":14.8,"mosquito_risk":3,"arthritis_risk":10,"migraine_risk":7,"frizz_risk":0,"updated_at":"2026-04-28T17:17:58.041162+05:30"},{"city":"Siliguri","state":"West Bengal","latitude":26.7271,"longitude":88.3953,"temp":26.7,"humidity":70,"rain":0.0,"pressure":987.7,"uv_index":8.0,"wind_gusts":33.1,"aqi":91,"pm10":36.9,"pm2_5":22.0,"mosquito_risk":7,"arthritis_risk":5,"migraine_risk":7,"frizz_risk":1,"updated_at":"2026-04-28T17:18:01.274381+05:30"},{"city":"Durgapur","state":"West Bengal","latitude":23.5204,"longitude":87.3119,"temp":27.8,"humidity":82,"rain":0.0,"pressure":988.2,"uv_index":8.85,"wind_gusts":37.1,"aqi":124,"pm10":100.6,"pm2_5":66.4,"mosquito_risk":7,"arthritis_risk":5,"migraine_risk":7,"frizz_risk":1,"updated_at":"2026-04-28T17:18:01.274408+05:30"},{"city":"Asansol","state":"West Bengal","latitude":23.6739,"longitude":86.9524,"temp":29.4,"humidity":71,"rain":0.0,"pressure":987.0,"uv_index":8.9,"wind_gusts":31.0,"aqi":121,"pm10":94.3,"pm2_5":65.9,"mosquito_risk":7,"arthritis_risk":5,"migraine_risk":7,"frizz_risk":1,"updated_at":"2026-04-28T17:18:01.274417+05:30"},{"city":"Pondicherry","state":"Puducherry","latitude":11.9139,"longitude":79.8145,"temp":30.9,"humidity":72,"rain":0.0,"pressure":1004.2,"uv_index":8.6,"wind_gusts":46.8,"aqi":63,"pm10":13.8,"pm2_5":10.5,"mosquito_risk":3,"arthritis_risk":5,"migraine_risk":4,"frizz_risk":1,"updated_at":"2026-04-28T17:18:01.274424+05:30"},{"city":"Port Blair","state":"Andaman and Nicobar Islands","latitude":11.6234,"longitude":92.7265,"temp":30.5,"humidity":64,"rain":0.1,"pressure":1005.0,"uv_index":9.1,"wind_gusts":31.3,"aqi":52,"pm10":14.7,"pm2_5":11.2,"mosquito_risk":6,"arthritis_risk":5,"migraine_risk":4,"frizz_risk":1,"updated_at":"2026-04-28T17:18:01.274431+05:30"},{"city":"Haridwar","state":"Uttarakhand","latitude":29.9457,"longitude":78.1642,"temp":28.9,"humidity":59,"rain":0.0,"pressure":969.2,"uv_index":7.0,"wind_gusts":32.0,"aqi":72,"pm10":94.3,"pm2_5":20.1,"mosquito_risk":4,"arthritis_risk":5,"migraine_risk":7,"frizz_risk":1,"updated_at":"2026-04-28T17:18:01.274437+05:30"},{"city":"Rishikesh","state":"Uttarakhand","latitude":30.0869,"longitude":78.2676,"temp":29.7,"humidity":50,"rain":0.0,"pressure":962.3,"uv_index":6.75,"wind_gusts":23.4,"aqi":113,"pm10":114.1,"pm2_5":18.8,"mosquito_risk":4,"arthritis_risk":5,"migraine_risk":7,"frizz_risk":1,"updated_at":"2026-04-28T17:18:01.274443+05:30"},{"city":"Nainital","state":"Uttarakhand","latitude":29.3919,"longitude":79.4542,"temp":20.3,"humidity":51,"rain":0.0,"pressure":804.0,"uv_index":7.8,"wind_gusts":44.6,"aqi":156,"pm10":95.9,"pm2_5":28.2,"mosquito_risk":0,"arthritis_risk":5,"migraine_risk":7,"frizz_risk":0,"updated_at":"2026-04-28T17:18:01.274449+05:30"},{"city":"Mussoorie","state":"Uttarakhand","latitude":30.4599,"longitude":78.0664,"temp":17.2,"humidity":55,"rain":0.0,"pressure":800.7,"uv_index":4.25,"wind_gusts":48.2,"aqi":95,"pm10":101.0,"pm2_5":19.7,"mosquito_risk":0,"arthritis_risk":5,"migraine_risk":3,"frizz_risk":0,"updated_at":"2026-04-28T17:18:01.274456+05:30"},{"city":"Dharamshala","state":"Himachal Pradesh","latitude":32.219,"longitude":76.3234,"temp":21.2,"humidity":53,"rain":0.0,"pressure":866.0,"uv_index":7.45,"wind_gusts":49.7,"aqi":81,"pm10":17.8,"pm2_5":8.7,"mosquito_risk":0,"arthritis_risk":5,"migraine_risk":7,"frizz_risk":0,"updated_at":"2026-04-28T17:18:01.274462+05:30"},{"city":"Dalhousie","state":"Himachal Pradesh","latitude":32.5387,"longitude":75.971,"temp":14.9,"humidity":88,"rain":0.0,"pressure":801.2,"uv_index":7.1,"wind_gusts":27.7,"aqi":78,"pm10":49.2,"pm2_5":18.2,"mosquito_risk":3,"arthritis_risk":10,"migraine_risk":7,"frizz_risk":0,"updated_at":"2026-04-28T17:18:01.274469+05:30"},{"city":"Patiala","state":"Punjab","latitude":30.3398,"longitude":76.3869,"temp":34.6,"humidity":26,"rain":0.0,"pressure":972.6,"uv_index":5.7,"wind_gusts":43.9,"aqi":375,"pm10":369.7,"pm2_5":44.8,"mosquito_risk":0,"arthritis_risk":5,"migraine_risk":3,"frizz_risk":0,"updated_at":"2026-04-28T17:18:01.274475+05:30"},{"city":"Bhatinda","state":"Punjab","latitude":30.211,"longitude":74.9455,"temp":35.5,"humidity":24,"rain":0.0,"pressure":978.2,"uv_index":7.3,"wind_gusts":52.9,"aqi":92,"pm10":138.8,"pm2_5":29.0,"mosquito_risk":0,"arthritis_risk":5,"migraine_risk":10,"frizz_risk":0,"updated_at":"2026-04-28T17:18:01.274481+05:30"},{"city":"Rohtak","state":"Haryana","latitude":28.8955,"longitude":76.6066,"temp":37.8,"humidity":19,"rain":0.0,"pressure":975.2,"uv_index":7.3,"wind_gusts":48.6,"aqi":894,"pm10":592.3,"pm2_5":68.2,"mosquito_risk":0,"arthritis_risk":5,"migraine_risk":10,"frizz_risk":0,"updated_at":"2026-04-28T17:18:01.274487+05:30"},{"city":"Panipat","state":"Haryana","latitude":29.3909,"longitude":76.9635,"temp":34.8,"humidity":27,"rain":0.0,"pressure":974.7,"uv_index":6.5,"wind_gusts":46.1,"aqi":1582,"pm10":758.1,"pm2_5":80.6,"mosquito_risk":0,"arthritis_risk":5,"migraine_risk":7,"frizz_risk":0,"updated_at":"2026-04-28T17:18:01.274493+05:30"},{"city":"Mathura","state":"Uttar Pradesh","latitude":27.4924,"longitude":77.6737,"temp":36.3,"humidity":24,"rain":0.0,"pressure":980.2,"uv_index":7.75,"wind_gusts":42.8,"aqi":713,"pm10":393.0,"pm2_5":47.7,"mosquito_risk":0,"arthritis_risk":5,"migraine_risk":10,"frizz_risk":0,"updated_at":"2026-04-28T17:18:01.274499+05:30"},{"city":"Vrindavan","state":"Uttar Pradesh","latitude":27.5823,"longitude":77.7027,"temp":35.1,"humidity":27,"rain":0.0,"pressure":980.7,"uv_index":7.75,"wind_gusts":45.7,"aqi":713,"pm10":393.0,"pm2_5":47.7,"mosquito_risk":0,"arthritis_risk":5,"migraine_risk":10,"frizz_risk":0,"updated_at":"2026-04-28T17:18:01.274504+05:30"},{"city":"Ayodhya","state":"Uttar Pradesh","latitude":26.7922,"longitude":82.1998,"temp":36.7,"humidity":25,"rain":0.0,"pressure":987.2,"uv_index":8.1,"wind_gusts":49.0,"aqi":145,"pm10":212.3,"pm2_5":53.4,"mosquito_risk":0,"arthritis_risk":5,"migraine_risk":10,"frizz_risk":0,"updated_at":"2026-04-28T17:18:01.274510+05:30"},{"city":"Ratlam","state":"Madhya Pradesh","latitude":23.3315,"longitude":75.0367,"temp":37.3,"humidity":14,"rain":0.0,"pressure":949.9,"uv_index":8.45,"wind_gusts":50.4,"aqi":53,"pm10":27.8,"pm2_5":9.4,"mosquito_risk":0,"arthritis_risk":5,"migraine_risk":10,"frizz_risk":0,"updated_at":"2026-04-28T17:18:01.274516+05:30"},{"city":"Sagar","state":"Madhya Pradesh","latitude":23.8388,"longitude":78.7378,"temp":38.8,"humidity":11,"rain":0.0,"pressure":944.2,"uv_index":8.6,"wind_gusts":45.4,"aqi":88,"pm10":12.7,"pm2_5":9.0,"mosquito_risk":0,"arthritis_risk":5,"migraine_risk":10,"frizz_risk":0,"updated_at":"2026-04-28T17:18:01.274522+05:30"},{"city":"Satna","state":"Madhya Pradesh","latitude":24.6005,"longitude":80.8322,"temp":39.5,"humidity":15,"rain":0.0,"pressure":964.0,"uv_index":8.65,"wind_gusts":47.2,"aqi":95,"pm10":36.3,"pm2_5":13.7,"mosquito_risk":0,"arthritis_risk":5,"migraine_risk":10,"frizz_risk":0,"updated_at":"2026-04-28T17:18:01.274527+05:30"},{"city":"Akola","state":"Maharashtra","latitude":20.7002,"longitude":77.0082,"temp":41.3,"humidity":13,"rain":0.0,"pressure":968.7,"uv_index":8.85,"wind_gusts":37.4,"aqi":107,"pm10":22.7,"pm2_5":16.6,"mosquito_risk":0,"arthritis_risk":5,"migraine_risk":10,"frizz_risk":0,"updated_at":"2026-04-28T17:18:01.274534+05:30"},{"city":"Amravati","state":"Maharashtra","latitude":20.9374,"longitude":77.7796,"temp":40.8,"humidity":13,"rain":0.0,"pressure":961.6,"uv_index":8.85,"wind_gusts":47.2,"aqi":116,"pm10":23.7,"pm2_5":17.2,"mosquito_risk":0,"arthritis_risk":5,"migraine_risk":10,"frizz_risk":0,"updated_at":"2026-04-28T17:18:01.274540+05:30"},{"city":"Latur","state":"Maharashtra","latitude":18.4088,"longitude":76.5604,"temp":38.5,"humidity":15,"rain":0.0,"pressure":936.0,"uv_index":9.05,"wind_gusts":34.9,"aqi":105,"pm10":35.3,"pm2_5":22.7,"mosquito_risk":0,"arthritis_risk":5,"migraine_risk":10,"frizz_risk":0,"updated_at":"2026-04-28T17:18:01.274546+05:30"},{"city":"Nanded","state":"Maharashtra","latitude":19.1383,"longitude":77.3091,"temp":40.6,"humidity":15,"rain":0.0,"pressure":963.0,"uv_index":8.95,"wind_gusts":32.8,"aqi":118,"pm10":36.7,"pm2_5":24.3,"mosquito_risk":0,"arthritis_risk":5,"migraine_risk":10,"frizz_risk":0,"updated_at":"2026-04-28T17:18:01.274552+05:30"},{"city":"Gulbarga","state":"Karnataka","latitude":17.3297,"longitude":76.8343,"temp":40.2,"humidity":15,"rain":0.0,"pressure":953.7,"uv_index":9.1,"wind_gusts":40.7,"aqi":140,"pm10":30.6,"pm2_5":21.7,"mosquito_risk":0,"arthritis_risk":5,"migraine_risk":10,"frizz_risk":0,"updated_at":"2026-04-28T17:18:01.274558+05:30"},{"city":"Bidar","state":"Karnataka","latitude":17.9104,"longitude":77.5199,"temp":37.9,"humidity":16,"rain":0.0,"pressure":932.0,"uv_index":7.05,"wind_gusts":34.6,"aqi":135,"pm10":32.2,"pm2_5":22.8,"mosquito_risk":0,"arthritis_risk":5,"migraine_risk":10,"frizz_risk":0,"updated_at":"2026-04-28T17:18:01.274564+05:30"},{"city":"Hospet","state":"Karnataka","latitude":15.2689,"longitude":76.3909,"temp":33.9,"humidity":36,"rain":0.0,"pressure":952.4,"uv_index":9.25,"wind_gusts":36.4,"aqi":116,"pm10":43.8,"pm2_5":31.7,"mosquito_risk":0,"arthritis_risk":5,"migraine_risk":7,"frizz_risk":1,"updated_at":"2026-04-28T17:18:01.274569+05:30"},{"city":"Tirupur","state":"Tamil Nadu","latitude":11.1085,"longitude":77.3411,"temp":39.2,"humidity":21,"rain":0.0,"pressure":970.3,"uv_index":8.25,"wind_gusts":48.2,"aqi":130,"pm10":34.8,"pm2_5":22.4,"mosquito_risk":0,"arthritis_risk":5,"migraine_risk":10,"frizz_risk":0,"updated_at":"2026-04-28T17:18:01.274575+05:30"},{"city":"Alappuzha","state":"Kerala","latitude":9.4981,"longitude":76.3388,"temp":29.0,"humidity":79,"rain":0.0,"pressure":1006.2,"uv_index":7.65,"wind_gusts":35.3,"aqi":72,"pm10":21.8,"pm2_5":17.6,"mosquito_risk":7,"arthritis_risk":5,"migraine_risk":4,"frizz_risk":1,"updated_at":"2026-04-28T17:18:01.274580+05:30"},{"city":"Munnar","state":"Kerala","latitude":10.0889,"longitude":77.0595,"temp":20.0,"humidity":95,"rain":0.0,"pressure":855.5,"uv_index":8.75,"wind_gusts":27.4,"aqi":87,"pm10":20.8,"pm2_5":14.9,"mosquito_risk":3,"arthritis_risk":5,"migraine_risk":7,"frizz_risk":1,"updated_at":"2026-04-28T17:18:01.274587+05:30"},{"city":"Silchar","state":"Assam","latitude":24.8333,"longitude":92.7789,"temp":24.2,"humidity":94,"rain":0.1,"pressure":1001.5,"uv_index":1.95,"wind_gusts":34.2,"aqi":92,"pm10":16.1,"pm2_5":13.6,"mosquito_risk":6,"arthritis_risk":5,"migraine_risk":0,"frizz_risk":1,"updated_at":"2026-04-28T17:18:01.274593+05:30"},{"city":"Dibrugarh","state":"Assam","latitude":27.4728,"longitude":94.912,"temp":27.0,"humidity":72,"rain":0.0,"pressure":991.9,"uv_index":7.3,"wind_gusts":20.2,"aqi":123,"pm10":37.7,"pm2_5":26.7,"mosquito_risk":7,"arthritis_risk":5,"migraine_risk":7,"frizz_risk":1,"updated_at":"2026-04-28T17:18:01.274598+05:30"}]