[{"city":"Delhi","state":"Delhi","latitude":28.6139,"longitude":77.209,"temp":18.1,"humidity":83,"rain":0.0,"pressure":985.9,"uv_index":3.1,"wind_gusts":20.2,"aqi":138,"pm10":52.5,"pm2_5":39.6,"mosquito_risk":3,"arthritis_risk":10,"migraine_risk":3,"frizz_risk":0,"updated_at":"2026-03-20T18:36:36.911308+05:30"},{"city":"Mumbai","state":"Maharashtra","latitude":19.076,"longitude":72.8777,"temp":27.0,"humidity":76,"rain":0.0,"pressure":1008.4,"uv_index":7.8,"wind_gusts":24.5,"aqi":132,"pm10":50.9,"pm2_5":21.1,"mosquito_risk":7,"arthritis_risk":0,"migraine_risk":4,"frizz_risk":1,"updated_at":"2026-03-20T18:36:36.911347+05:30"},{"city":"Bangalore","state":"Karnataka","latitude":12.9716,"longitude":77.5946,"temp":28.5,"humidity":40,"rain":0.0,"pressure":910.6,"uv_index":9.4,"wind_gusts":18.0,"aqi":186,"pm10":44.6,"pm2_5":34.0,"mosquito_risk":4,"arthritis_risk":5,"migraine_risk":7,"frizz_risk":0,"updated_at":"2026-03-20T18:36:36.911363+05:30"},{"city":"Hyderabad","state":"Telangana","latitude":17.385,"longitude":78.4867,"temp":29.9,"humidity":32,"rain":0.0,"pressure":952.3,"uv_index":8.8,"wind_gusts":22.3,"aqi":130,"pm10":44.1,"pm2_5":28.9,"mosquito_risk":4,"arthritis_risk":5,"migraine_risk":7,"frizz_risk":0,"updated_at":"2026-03-20T18:36:36.911373+05:30"},{"city":"Chennai","state":"Tamil Nadu","latitude":13.0827,"longitude":80.2707,"temp":28.3,"humidity":75,"rain":0.0,"pressure":1006.9,"uv_index":9.15,"wind_gusts":31.0,"aqi":46,"pm10":11.0,"pm2_5":8.5,"mosquito_risk":7,"arthritis_risk":5,"migraine_risk":4,"frizz_risk":1,"updated_at":"2026-03-20T18:36:36.911382+05:30"},{"city":"Kolkata","state":"West Bengal","latitude":22.5726,"longitude":88.3639,"temp":23.7,"humidity":82,"rain":0.0,"pressure":1008.7,"uv_index":7.5,"wind_gusts":36.0,"aqi":78,"pm10":20.1,"pm2_5":17.4,"mosquito_risk":3,"arthritis_risk":0,"migraine_risk":4,"frizz_risk":1,"updated_at":"2026-03-20T18:36:36.911391+05:30"},{"city":"Pune","state":"Maharashtra","latitude":18.5204,"longitude":73.8567,"temp":28.9,"humidity":48,"rain":0.0,"pressure":947.7,"uv_index":8.35,"wind_gusts":36.7,"aqi":118,"pm10":54.6,"pm2_5":23.5,"mosquito_risk":4,"arthritis_risk":5,"migraine_risk":7,"frizz_risk":1,"updated_at":"2026-03-20T18:36:36.911403+05:30"},{"city":"Ahmedabad","state":"Gujarat","latitude":23.0225,"longitude":72.5714,"temp":29.0,"humidity":37,"rain":0.0,"pressure":1003.0,"uv_index":7.6,"wind_gusts":33.1,"aqi":74,"pm10":39.3,"pm2_5":16.2,"mosquito_risk":4,"arthritis_risk":5,"migraine_risk":4,"frizz_risk":0,"updated_at":"2026-03-20T18:36:36.911411+05:30"},{"city":"Jaipur","state":"Rajasthan","latitude":26.9124,"longitude":75.7873,"temp":21.5,"humidity":56,"rain":0.0,"pressure":961.1,"uv_index":6.7,"wind_gusts":25.6,"aqi":78,"pm10":18.3,"pm2_5":8.6,"mosquito_risk":0,"arthritis_risk":5,"migraine_risk":7,"frizz_risk":0,"updated_at":"2026-03-20T18:36:36.911419+05:30"},{"city":"Lucknow","state":"Uttar Pradesh","latitude":26.8467,"longitude":80.9462,"temp":23.1,"humidity":70,"rain":0.0,"pressure":995.0,"uv_index":4.95,"wind_gusts":36.0,"aqi":103,"pm10":72.6,"pm2_5":37.4,"mosquito_risk":3,"arthritis_risk":5,"migraine_risk":3,"frizz_risk":1,"updated_at":"2026-03-20T18:36:36.911427+05:30"},{"city":"Kanpur","state":"Uttar Pradesh","latitude":26.4499,"longitude":80.3319,"temp":22.0,"humidity":79,"rain":0.0,"pressure":993.5,"uv_index":2.95,"wind_gusts":37.8,"aqi":128,"pm10":88.5,"pm2_5":42.4,"mosquito_risk":3,"arthritis_risk":5,"migraine_risk":3,"frizz_risk":1,"updated_at":"2026-03-20T18:36:36.911434+05:30"},{"city":"Chandigarh","state":"Chandigarh","latitude":30.7333,"longitude":76.7794,"temp":17.2,"humidity":90,"rain":0.0,"pressure":971.6,"uv_index":1.3,"wind_gusts":25.2,"aqi":90,"pm10":58.3,"pm2_5":37.5,"mosquito_risk":3,"arthritis_risk":10,"migraine_risk":3,"frizz_risk":0,"updated_at":"2026-03-20T18:36:36.911442+05:30"},{"city":"Srinagar","state":"Jammu and Kashmir","latitude":34.0837,"longitude":74.7973,"temp":10.2,"humidity":72,"rain":0.0,"pressure":838.4,"uv_index":4.8,"wind_gusts":18.4,"aqi":118,"pm10":26.4,"pm2_5":24.9,"mosquito_risk":3,"arthritis_risk":5,"migraine_risk":3,"frizz_risk":0,"updated_at":"2026-03-20T18:36:36.911449+05:30"},{"city":"Jammu","state":"Jammu and Kashmir","latitude":32.7266,"longitude":74.857,"temp":18.3,"humidity":86,"rain":0.0,"pressure":976.0,"uv_index":4.95,"wind_gusts":14.4,"aqi":92,"pm10":40.2,"pm2_5":26.1,"mosquito_risk":3,"arthritis_risk":10,"migraine_risk":3,"frizz_risk":0,"updated_at":"2026-03-20T18:36:36.911457+05:30"},{"city":"Amritsar","state":"Punjab","latitude":31.634,"longitude":74.8723,"temp":17.7,"humidity":84,"rain":0.0,"pressure":984.3,"uv_index":5.35,"wind_gusts":16.9,"aqi":94,"pm10":39.6,"pm2_5":24.5,"mosquito_risk":3,"arthritis_risk":10,"migraine_risk":3,"frizz_risk":0,"updated_at":"2026-03-20T18:36:36.911463+05:30"},{"city":"Ludhiana","state":"Punjab","latitude":30.901,"longitude":75.8573,"temp":17.9,"humidity":85,"rain":0.0,"pressure":982.3,"uv_index":3.1,"wind_gusts":16.9,"aqi":95,"pm10":62.6,"pm2_5":38.0,"mosquito_risk":3,"arthritis_risk":10,"migraine_risk":3,"frizz_risk":0,"updated_at":"2026-03-20T18:36:36.911470+05:30"},{"city":"Jalandhar","state":"Punjab","latitude":31.326,"longitude":75.5762,"temp":17.8,"humidity":86,"rain":0.0,"pressure":983.6,"uv_index":4.2,"wind_gusts":16.9,"aqi":81,"pm10":48.4,"pm2_5":28.3,"mosquito_risk":3,"arthritis_risk":10,"migraine_risk":3,"frizz_risk":0,"updated_at":"2026-03-20T18:36:36.911479+05:30"},{"city":"Dehradun","state":"Uttarakhand","latitude":30.6284,"longitude":78.0322,"temp":8.7,"humidity":78,"rain":0.4,"pressure":827.1,"uv_index":0.35,"wind_gusts":34.6,"aqi":60,"pm10":5.9,"pm2_5":5.6,"mosquito_risk":6,"arthritis_risk":5,"migraine_risk":3,"frizz_risk":0,"updated_at":"2026-03-20T18:36:36.911486+05:30"},{"city":"Shimla","state":"Himachal Pradesh","latitude":31.1048,"longitude":77.1734,"temp":7.7,"humidity":82,"rain":0.0,"pressure":780.4,"uv_index":0.5,"wind_gusts":33.5,"aqi":58,"pm10":1.6,"pm2_5":1.6,"mosquito_risk":3,"arthritis_risk":10,"migraine_risk":3,"frizz_risk":0,"updated_at":"2026-03-20T18:36:36.911493+05:30"},{"city":"Manali","state":"Himachal Pradesh","latitude":32.2396,"longitude":77.1887,"temp":9.7,"humidity":96,"rain":0.2,"pressure":814.0,"uv_index":3.15,"wind_gusts":26.6,"aqi":63,"pm10":1.3,"pm2_5":1.2,"mosquito_risk":6,"arthritis_risk":10,"migraine_risk":3,"frizz_risk":0,"updated_at":"2026-03-20T18:36:36.911499+05:30"},{"city":"Gurgaon","state":"Haryana","latitude":28.4595,"longitude":77.0266,"temp":17.4,"humidity":89,"rain":0.0,"pressure":984.3,"uv_index":3.25,"wind_gusts":17.3,"aqi":151,"pm10":58.9,"pm2_5":47.8,"mosquito_risk":3,"arthritis_risk":10,"migraine_risk":3,"frizz_risk":0,"updated_at":"2026-03-20T18:36:36.911508+05:30"},{"city":"Noida","state":"Uttar Pradesh","latitude":28.5355,"longitude":77.391,"temp":18.2,"humidity":85,"rain":0.0,"pressure":987.4,"uv_index":2.6,"wind_gusts":21.2,"aqi":151,"pm10":58.9,"pm2_5":47.8,"mosquito_risk":3,"arthritis_risk":10,"migraine_risk":3,"frizz_risk":0,"updated_at":"2026-03-20T18:36:36.911515+05:30"},{"city":"Ghaziabad","state":"Uttar Pradesh","latitude":28.6692,"longitude":77.4538,"temp":17.7,"humidity":90,"rain":0.0,"pressure":985.6,"uv_index":2.35,"wind_gusts":19.1,"aqi":135,"pm10":52.3,"pm2_5":38.1,"mosquito_risk":3,"arthritis_risk":10,"migraine_risk":3,"frizz_risk":0,"updated_at":"2026-03-20T18:36:36.911521+05:30"},{"city":"Faridabad","state":"Haryana","latitude":28.4089,"longitude":77.3178,"temp":17.9,"humidity":85,"rain":0.0,"pressure":986.6,"uv_index":3.1,"wind_gusts":19.8,"aqi":151,"pm10":58.9,"pm2_5":47.8,"mosquito_risk":3,"arthritis_risk":10,"migraine_risk":3,"frizz_risk":0,"updated_at":"2026-03-20T18:36:36.911527+05:30"},{"city":"Meerut","state":"Uttar Pradesh","latitude":28.9845,"longitude":77.7064,"temp":17.1,"humidity":92,"rain":0.0,"pressure":984.3,"uv_index":1.9,"wind_gusts":24.8,"aqi":135,"pm10":52.3,"pm2_5":38.1,"mosquito_risk":3,"arthritis_risk":10,"migraine_risk":3,"frizz_risk":0,"updated_at":"2026-03-20T18:36:36.911533+05:30"},{"city":"Agra","state":"Uttar Pradesh","latitude":27.1767,"longitude":78.0081,"temp":20.2,"humidity":81,"rain":0.0,"pressure":990.3,"uv_index":5.15,"wind_gusts":25.2,"aqi":491,"pm10":55.3,"pm2_5":33.1,"mosquito_risk":3,"arthritis_risk":5,"migraine_risk":3,"frizz_risk":1,"updated_at":"2026-03-20T18:36:36.911540+05:30"},{"city":"Varanasi","state":"Uttar Pradesh","latitude":25.3176,"longitude":82.9739,"temp":24.9,"humidity":71,"rain":0.0,"pressure":998.7,"uv_index":7.25,"wind_gusts":50.0,"aqi":100,"pm10":37.3,"pm2_5":31.9,"mosquito_risk":3,"arthritis_risk":5,"migraine_risk":7,"frizz_risk":1,"updated_at":"2026-03-20T18:36:36.911549+05:30"},{"city":"Prayagraj","state":"Uttar Pradesh","latitude":25.4358,"longitude":81.8463,"temp":24.5,"humidity":66,"rain":0.0,"pressure":997.3,"uv_index":4.75,"wind_gusts":56.9,"aqi":86,"pm10":45.6,"pm2_5":30.7,"mosquito_risk":3,"arthritis_risk":5,"migraine_risk":3,"frizz_risk":1,"updated_at":"2026-03-20T18:36:36.911555+05:30"},{"city":"Gorakhpur","state":"Uttar Pradesh","latitude":26.7606,"longitude":83.3732,"temp":24.0,"humidity":72,"rain":0.0,"pressure":998.4,"uv_index":7.0,"wind_gusts":32.4,"aqi":145,"pm10":52.2,"pm2_5":33.5,"mosquito_risk":3,"arthritis_risk":5,"migraine_risk":7,"frizz_risk":1,"updated_at":"2026-03-20T18:36:36.911561+05:30"},{"city":"Bareilly","state":"Uttar Pradesh","latitude":28.367,"longitude":79.4304,"temp":19.1,"humidity":89,"rain":0.0,"pressure":989.3,"uv_index":2.85,"wind_gusts":29.9,"aqi":86,"pm10":46.6,"pm2_5":31.4,"mosquito_risk":3,"arthritis_risk":10,"migraine_risk":3,"frizz_risk":1,"updated_at":"2026-03-20T18:36:36.911568+05:30"},{"city":"Aligarh","state":"Uttar Pradesh","latitude":27.8974,"longitude":78.088,"temp":19.0,"humidity":87,"rain":0.0,"pressure":988.1,"uv_index":3.8,"wind_gusts":23.4,"aqi":118,"pm10":51.7,"pm2_5":34.0,"mosquito_risk":3,"arthritis_risk":10,"migraine_risk":3,"frizz_risk":1,"updated_at":"2026-03-20T18:36:36.911574+05:30"},{"city":"Moradabad","state":"Uttar Pradesh","latitude":28.8386,"longitude":78.7733,"temp":17.8,"humidity":92,"rain":0.0,"pressure":986.4,"uv_index":2.3,"wind_gusts":25.6,"aqi":95,"pm10":63.3,"pm2_5":42.1,"mosquito_risk":3,"arthritis_risk":10,"migraine_risk":3,"frizz_risk":1,"updated_at":"2026-03-20T18:36:36.911581+05:30"},{"city":"Saharanpur","state":"Uttar Pradesh","latitude":29.9637,"longitude":77.546,"temp":16.4,"humidity":94,"rain":0.0,"pressure":978.7,"uv_index":0.6,"wind_gusts":15.8,"aqi":144,"pm10":49.7,"pm2_5":36.6,"mosquito_risk":3,"arthritis_risk":10,"migraine_risk":3,"frizz_risk":0,"updated_at":"2026-03-20T18:36:36.911588+05:30"},{"city":"Jhansi","state":"Uttar Pradesh","latitude":25.4484,"longitude":78.5685,"temp":22.0,"humidity":72,"rain":0.0,"pressure":979.7,"uv_index":5.8,"wind_gusts":30.6,"aqi":103,"pm10":73.8,"pm2_5":37.1,"mosquito_risk":3,"arthritis_risk":5,"migraine_risk":3,"frizz_risk":1,"updated_at":"2026-03-20T18:36:40.125775+05:30"},{"city":"Surat","state":"Gujarat","latitude":21.1702,"longitude":72.8311,"temp":27.0,"humidity":64,"rain":0.0,"pressure":1007.4,"uv_index":7.5,"wind_gusts":24.8,"aqi":108,"pm10":56.1,"pm2_5":33.8,"mosquito_risk":7,"arthritis_risk":5,"migraine_risk":4,"frizz_risk":1,"updated_at":"2026-03-20T18:36:40.125805+05:30"},{"city":"Vadodara","state":"Gujarat","latitude":22.3072,"longitude":73.1812,"temp":30.3,"humidity":38,"rain":0.0,"pressure":1004.7,"uv_index":7.6,"wind_gusts":28.1,"aqi":86,"pm10":65.2,"pm2_5":24.2,"mosquito_risk":0,"arthritis_risk":5,"migraine_risk":4,"frizz_risk":0,"updated_at":"2026-03-20T18:36:40.125815+05:30"},{"city":"Rajkot","state":"Gujarat","latitude":22.3039,"longitude":70.8022,"temp":28.9,"humidity":40,"rain":0.0,"pressure":995.2,"uv_index":7.45,"wind_gusts":30.2,"aqi":83,"pm10":74.0,"pm2_5":23.6,"mosquito_risk":4,"arthritis_risk":5,"migraine_risk":7,"frizz_risk":0,"updated_at":"2026-03-20T18:36:40.125823+05:30"},{"city":"Thane","state":"Maharashtra","latitude":19.2183,"longitude":72.9781,"temp":27.0,"humidity":69,"rain":0.0,"pressure":1007.9,"uv_index":7.8,"wind_gusts":36.4,"aqi":132,"pm10":50.9,"pm2_5":21.1,"mosquito_risk":7,"arthritis_risk":5,"migraine_risk":4,"frizz_risk":1,"updated_at":"2026-03-20T18:36:40.125831+05:30"},{"city":"Nagpur","state":"Maharashtra","latitude":21.1458,"longitude":79.0882,"temp":24.8,"humidity":65,"rain":0.0,"pressure":973.9,"uv_index":8.15,"wind_gusts":37.8,"aqi":105,"pm10":38.6,"pm2_5":19.0,"mosquito_risk":3,"arthritis_risk":5,"migraine_risk":7,"frizz_risk":1,"updated_at":"2026-03-20T18:36:40.125837+05:30"},{"city":"Nashik","state":"Maharashtra","latitude":19.9975,"longitude":73.7898,"temp":26.4,"humidity":50,"rain":0.0,"pressure":945.3,"uv_index":8.0,"wind_gusts":33.8,"aqi":57,"pm10":39.3,"pm2_5":14.3,"mosquito_risk":4,"arthritis_risk":5,"migraine_risk":7,"frizz_risk":0,"updated_at":"2026-03-20T18:36:40.125844+05:30"},{"city":"Aurangabad","state":"Maharashtra","latitude":19.8762,"longitude":75.3433,"temp":30.5,"humidity":20,"rain":0.0,"pressure":942.9,"uv_index":8.5,"wind_gusts":33.8,"aqi":75,"pm10":68.7,"pm2_5":20.6,"mosquito_risk":0,"arthritis_risk":5,"migraine_risk":7,"frizz_risk":0,"updated_at":"2026-03-20T18:36:40.125852+05:30"},{"city":"Solapur","state":"Maharashtra","latitude":17.6599,"longitude":75.9064,"temp":32.4,"humidity":23,"rain":0.0,"pressure":955.6,"uv_index":8.65,"wind_gusts":23.8,"aqi":145,"pm10":37.7,"pm2_5":24.4,"mosquito_risk":0,"arthritis_risk":5,"migraine_risk":7,"frizz_risk":0,"updated_at":"2026-03-20T18:36:40.125860+05:30"},{"city":"Kolhapur","state":"Maharashtra","latitude":16.705,"longitude":74.2433,"temp":27.3,"humidity":40,"rain":0.0,"pressure":946.8,"uv_index":8.8,"wind_gusts":43.2,"aqi":99,"pm10":29.6,"pm2_5":25.7,"mosquito_risk":4,"arthritis_risk":5,"migraine_risk":7,"frizz_risk":0,"updated_at":"2026-03-20T18:36:40.125866+05:30"},{"city":"Goa","state":"Goa","latitude":15.2993,"longitude":74.124,"temp":28.1,"humidity":71,"rain":0.0,"pressure":997.0,"uv_index":8.8,"wind_gusts":35.6,"aqi":65,"pm10":34.0,"pm2_5":17.1,"mosquito_risk":7,"arthritis_risk":5,"migraine_risk":7,"frizz_risk":1,"updated_at":"2026-03-20T18:36:40.125873+05:30"},{"city":"Jodhpur","state":"Rajasthan","latitude":26.2389,"longitude":73.0243,"temp":26.7,"humidity":37,"rain":0.0,"pressure":984.7,"uv_index":7.25,"wind_gusts":19.8,"aqi":68,"pm10":65.2,"pm2_5":19.4,"mosquito_risk":4,"arthritis_risk":5,"migraine_risk":7,"frizz_risk":0,"updated_at":"2026-03-20T18:36:40.125881+05:30"},{"city":"Udaipur","state":"Rajasthan","latitude":24.5854,"longitude":73.7125,"temp":23.8,"humidity":41,"rain":0.0,"pressure":947.0,"uv_index":4.7,"wind_gusts":30.6,"aqi":61,"pm10":30.6,"pm2_5":11.2,"mosquito_risk":0,"arthritis_risk":5,"migraine_risk":3,"frizz_risk":0,"updated_at":"2026-03-20T18:36:40.125905+05:30"},{"city":"Kota","state":"Rajasthan","latitude":25.2138,"longitude":75.8648,"temp":24.8,"humidity":46,"rain":0.0,"pressure":980.2,"uv_index":6.4,"wind_gusts":34.6,"aqi":61,"pm10":30.0,"pm2_5":12.6,"mosquito_risk":0,"arthritis_risk":5,"migraine_risk":7,"frizz_risk":0,"updated_at":"2026-03-20T18:36:40.125913+05:30"},{"city":"Bikaner","state":"Rajasthan","latitude":28.0229,"longitude":73.3119,"temp":25.9,"humidity":39,"rain":0.0,"pressure":983.7,"uv_index":6.95,"wind_gusts":17.6,"aqi":72,"pm10":34.9,"pm2_5":14.5,"mosquito_risk":4,"arthritis_risk":5,"migraine_risk":7,"frizz_risk":0,"updated_at":"2026-03-20T18:36:40.125919+05:30"},{"city":"Ajmer","state":"Rajasthan","latitude":26.4499,"longitude":74.6399,"temp":23.0,"humidity":50,"rain":0.0,"pressure":955.8,"uv_index":7.2,"wind_gusts":27.4,"aqi":59,"pm10":22.8,"pm2_5":11.7,"mosquito_risk":0,"arthritis_risk":5,"migraine_risk":7,"frizz_risk":0,"updated_at":"2026-03-20T18:36:40.125926+05:30"},{"city":"Gwalior","state":"Madhya Pradesh","latitude":26.2183,"longitude":78.1828,"temp":21.3,"humidity":73,"rain":0.0,"pressure":985.1,"uv_index":6.3,"wind_gusts":31.0,"aqi":122,"pm10":58.9,"pm2_5":28.1,"mosquito_risk":3,"arthritis_risk":5,"migraine_risk":7,"frizz_risk":1,"updated_at":"2026-03-20T18:36:40.125932+05:30"},{"city":"Indore","state":"Madhya Pradesh","latitude":22.7196,"longitude":75.8577,"temp":24.2,"humidity":52,"rain":0.0,"pressure":947.8,"uv_index":7.85,"wind_gusts":38.5,"aqi":68,"pm10":54.6,"pm2_5":20.1,"mosquito_risk":0,"arthritis_risk":5,"migraine_risk":7,"frizz_risk":0,"updated_at":"2026-03-20T18:36:40.125938+05:30"},{"city":"Bhopal","state":"Madhya Pradesh","latitude":23.2599,"longitude":77.4126,"temp":22.3,"humidity":67,"rain":0.0,"pressure":954.2,"uv_index":7.75,"wind_gusts":46.1,"aqi":70,"pm10":62.2,"pm2_5":22.5,"mosquito_risk":3,"arthritis_risk":5,"migraine_risk":7,"frizz_risk":0,"updated_at":"2026-03-20T18:36:40.125945+05:30"},{"city":"Jabalpur","state":"Madhya Pradesh","latitude":23.1815,"longitude":79.9864,"temp":25.3,"humidity":52,"rain":0.0,"pressure":961.7,"uv_index":4.9,"wind_gusts":36.0,"aqi":78,"pm10":25.9,"pm2_5":15.4,"mosquito_risk":4,"arthritis_risk":5,"migraine_risk":3,"frizz_risk":0,"updated_at":"2026-03-20T18:36:40.125952+05:30"},{"city":"Ujjain","state":"Madhya Pradesh","latitude":23.1765,"longitude":75.7885,"temp":24.2,"humidity":51,"rain":0.0,"pressure":953.8,"uv_index":7.75,"wind_gusts":39.6,"aqi":67,"pm10":35.9,"pm2_5":15.3,"mosquito_risk":0,"arthritis_risk":5,"migraine_risk":7,"frizz_risk":0,"updated_at":"2026-03-20T18:36:40.125959+05:30"},{"city":"Visakhapatnam","state":"Andhra Pradesh","latitude":17.6868,"longitude":83.2185,"temp":26.8,"humidity":72,"rain":0.0,"pressure":1004.3,"uv_index":8.8,"wind_gusts":39.2,"aqi":64,"pm10":21.0,"pm2_5":16.9,"mosquito_risk":7,"arthritis_risk":5,"migraine_risk":4,"frizz_risk":1,"updated_at":"2026-03-20T18:36:40.125965+05:30"},{"city":"Vijayawada","state":"Andhra Pradesh","latitude":16.5062,"longitude":80.648,"temp":30.0,"humidity":57,"rain":0.0,"pressure":1002.3,"uv_index":8.85,"wind_gusts":19.1,"aqi":63,"pm10":26.8,"pm2_5":23.1,"mosquito_risk":4,"arthritis_risk":5,"migraine_risk":4,"frizz_risk":1,"updated_at":"2026-03-20T18:36:40.125972+05:30"},{"city":"Guntur","state":"Andhra Pradesh","latitude":16.3067,"longitude":80.4365,"temp":29.8,"humidity":56,"rain":0.0,"pressure":1003.1,"uv_index":8.85,"wind_gusts":19.1,"aqi":58,"pm10":26.1,"pm2_5":22.0,"mosquito_risk":4,"arthritis_risk":5,"migraine_risk":4,"frizz_risk":1,"updated_at":"2026-03-20T18:36:40.125978+05:30"},{"city":"Nellore","state":"Andhra Pradesh","latitude":14.4426,"longitude":79.9865,"temp":28.5,"humidity":67,"rain":0.0,"pressure":1005.1,"uv_index":9.0,"wind_gusts":27.4,"aqi":74,"pm10":13.0,"pm2_5":9.5,"mosquito_risk":7,"arthritis_risk":5,"migraine_risk":4,"frizz_risk":1,"updated_at":"2026-03-20T18:36:40.125986+05:30"},{"city":"Kurnool","state":"Andhra Pradesh","latitude":15.8281,"longitude":78.0373,"temp":33.4,"humidity":28,"rain":0.0,"pressure":975.2,"uv_index":8.85,"wind_gusts":19.4,"aqi":106,"pm10":26.2,"pm2_5":17.2,"mosquito_risk":0,"arthritis_risk":5,"migraine_risk":7,"frizz_risk":0,"updated_at":"2026-03-20T18:36:40.125993+05:30"},{"city":"Kakinada","state":"Andhra Pradesh","latitude":16.9891,"longitude":82.2475,"temp":27.4,"humidity":69,"rain":0.0,"pressure":1007.4,"uv_index":8.8,"wind_gusts":27.7,"aqi":49,"pm10":14.1,"pm2_5":10.4,"mosquito_risk":7,"arthritis_risk":5,"migraine_risk":4,"frizz_risk":1,"updated_at":"2026-03-20T18:36:40.126000+05:30"},{"city":"Tirupati","state":"Andhra Pradesh","latitude":13.6288,"longitude":79.4192,"temp":29.8,"humidity":52,"rain":0.0,"pressure":990.6,"uv_index":9.1,"wind_gusts":22.0,"aqi":65,"pm10":22.2,"pm2_5":18.1,"mosquito_risk":4,"arthritis_risk":5,"migraine_risk":7,"frizz_risk":1,"updated_at":"2026-03-20T18:36:40.126006+05:30"},{"city":"Warangal","state":"Telangana","latitude":17.9689,"longitude":79.5941,"temp":26.7,"humidity":63,"rain":0.0,"pressure":979.1,"uv_index":8.65,"wind_gusts":28.4,"aqi":120,"pm10":53.7,"pm2_5":43.4,"mosquito_risk":7,"arthritis_risk":5,"migraine_risk":7,"frizz_risk":1,"updated_at":"2026-03-20T18:36:40.126013+05:30"},{"city":"Nizamabad","state":"Telangana","latitude":18.6725,"longitude":78.0941,"temp":29.3,"humidity":38,"rain":0.0,"pressure":964.2,"uv_index":8.55,"wind_gusts":25.9,"aqi":113,"pm10":47.8,"pm2_5":32.4,"mosquito_risk":4,"arthritis_risk":5,"migraine_risk":7,"frizz_risk":0,"updated_at":"2026-03-20T18:36:40.126019+05:30"},{"city":"Mysore","state":"Karnataka","latitude":12.2958,"longitude":76.6396,"temp":30.3,"humidity":33,"rain":0.0,"pressure":926.9,"uv_index":9.35,"wind_gusts":26.6,"aqi":166,"pm10":31.5,"pm2_5":23.1,"mosquito_risk":0,"arthritis_risk":5,"migraine_risk":7,"frizz_risk":0,"updated_at":"2026-03-20T18:36:40.126026+05:30"},{"city":"Mangalore","state":"Karnataka","latitude":12.9141,"longitude":74.856,"temp":29.1,"humidity":76,"rain":0.0,"pressure":1005.2,"uv_index":9.0,"wind_gusts":27.7,"aqi":94,"pm10":22.4,"pm2_5":14.9,"mosquito_risk":7,"arthritis_risk":5,"migraine_risk":4,"frizz_risk":1,"updated_at":"2026-03-20T18:36:40.126032+05:30"},{"city":"Hubli-Dharwad","state":"Karnataka","latitude":15.3647,"longitude":75.124,"temp":30.8,"humidity":30,"rain":0.0,"pressure":939.3,"uv_index":9.0,"wind_gusts":35.3,"aqi":146,"pm10":35.6,"pm2_5":20.5,"mosquito_risk":0,"arthritis_risk":5,"migraine_risk":7,"frizz_risk":0,"updated_at":"2026-03-20T18:36:40.126039+05:30"},{"city":"Belgaum","state":"Karnataka","latitude":15.8497,"longitude":74.4977,"temp":26.4,"humidity":48,"rain":0.0,"pressure":924.6,"uv_index":9.05,"wind_gusts":41.4,"aqi":101,"pm10":25.6,"pm2_5":20.1,"mosquito_risk":4,"arthritis_risk":5,"migraine_risk":7,"frizz_risk":0,"updated_at":"2026-03-20T18:36:43.354317+05:30"},{"city":"Coimbatore","state":"Tamil Nadu","latitude":11.0168,"longitude":76.9558,"temp":30.5,"humidity":43,"rain":0.0,"pressure":960.3,"uv_index":9.35,"wind_gusts":36.7,"aqi":118,"pm10":19.8,"pm2_5":15.0,"mosquito_risk":0,"arthritis_risk":5,"migraine_risk":7,"frizz_risk":1,"updated_at":"2026-03-20T18:36:43.354351+05:30"},{"city":"Madurai","state":"Tamil Nadu","latitude":9.9252,"longitude":78.1198,"temp":31.8,"humidity":48,"rain":0.0,"pressure":991.6,"uv_index":9.3,"wind_gusts":23.0,"aqi":124,"pm10":21.7,"pm2_5":14.7,"mosquito_risk":0,"arthritis_risk":5,"migraine_risk":7,"frizz_risk":1,"updated_at":"2026-03-20T18:36:43.354364+05:30"},{"city":"Trichy","state":"Tamil Nadu","latitude":10.7905,"longitude":78.7047,"temp":30.9,"humidity":58,"rain":0.0,"pressure":998.3,"uv_index":9.25,"wind_gusts":24.8,"aqi":128,"pm10":26.4,"pm2_5":21.5,"mosquito_risk":0,"arthritis_risk":5,"migraine_risk":7,"frizz_risk":1,"updated_at":"2026-03-20T18:36:43.354374+05:30"},{"city":"Salem","state":"Tamil Nadu","latitude":11.6643,"longitude":78.146,"temp":31.7,"humidity":46,"rain":0.0,"pressure":975.8,"uv_index":9.3,"wind_gusts":20.9,"aqi":164,"pm10":33.6,"pm2_5":25.1,"mosquito_risk":0,"arthritis_risk":5,"migraine_risk":7,"frizz_risk":1,"updated_at":"2026-03-20T18:36:43.354384+05:30"},{"city":"Tirunelveli","state":"Tamil Nadu","latitude":8.7139,"longitude":77.7567,"temp":30.1,"humidity":63,"rain":0.0,"pressure":1002.0,"uv_index":9.25,"wind_gusts":34.2,"aqi":85,"pm10":20.6,"pm2_5":16.2,"mosquito_risk":3,"arthritis_risk":5,"migraine_risk":4,"frizz_risk":1,"updated_at":"2026-03-20T18:36:43.354392+05:30"},{"city":"Vellore","state":"Tamil Nadu","latitude":12.9165,"longitude":79.1325,"temp":29.7,"humidity":50,"rain":0.0,"pressure":983.9,"uv_index":9.2,"wind_gusts":21.6,"aqi":85,"pm10":20.4,"pm2_5":17.8,"mosquito_risk":4,"arthritis_risk":5,"migraine_risk":7,"frizz_risk":1,"updated_at":"2026-03-20T18:36:43.354401+05:30"},{"city":"Erode","state":"Tamil Nadu","latitude":11.341,"longitude":77.7172,"temp":33.0,"humidity":42,"rain":0.0,"pressure":987.1,"uv_index":9.25,"wind_gusts":26.6,"aqi":142,"pm10":25.1,"pm2_5":19.3,"mosquito_risk":0,"arthritis_risk":5,"migraine_risk":7,"frizz_risk":1,"updated_at":"2026-03-20T18:36:43.354410+05:30"},{"city":"Kochi","state":"Kerala","latitude":9.9312,"longitude":76.2673,"temp":28.7,"humidity":75,"rain":0.0,"pressure":1006.8,"uv_index":9.15,"wind_gusts":38.2,"aqi":83,"pm10":21.7,"pm2_5":17.3,"mosquito_risk":7,"arthritis_risk":5,"migraine_risk":4,"frizz_risk":1,"updated_at":"2026-03-20T18:36:43.354418+05:30"},{"city":"Thiruvananthapuram","state":"Kerala","latitude":8.5241,"longitude":76.9366,"temp":28.8,"humidity":78,"rain":0.0,"pressure":1006.9,"uv_index":9.15,"wind_gusts":30.6,"aqi":101,"pm10":21.1,"pm2_5":14.8,"mosquito_risk":7,"arthritis_risk":5,"migraine_risk":4,"frizz_risk":1,"updated_at":"2026-03-20T18:36:43.354427+05:30"},{"city":"Kozhikode","state":"Kerala","latitude":11.2588,"longitude":75.7804,"temp":29.1,"humidity":75,"rain":0.0,"pressure":1006.5,"uv_index":9.05,"wind_gusts":32.0,"aqi":73,"pm10":21.0,"pm2_5":13.6,"mosquito_risk":7,"arthritis_risk":5,"migraine_risk":4,"frizz_risk":1,"updated_at":"2026-03-20T18:36:43.354435+05:30"},{"city":"Thrissur","state":"Kerala","latitude":10.5276,"longitude":76.2144,"temp":29.0,"humidity":72,"rain":0.0,"pressure":1005.2,"uv_index":9.1,"wind_gusts":39.6,"aqi":83,"pm10":18.2,"pm2_5":14.3,"mosquito_risk":7,"arthritis_risk":5,"migraine_risk":4,"frizz_risk":1,"updated_at":"2026-03-20T18:36:43.354443+05:30"},{"city":"Kannur","state":"Kerala","latitude":11.8745,"longitude":75.3704,"temp":29.2,"humidity":71,"rain":0.0,"pressure":1005.7,"uv_index":9.05,"wind_gusts":40.3,"aqi":81,"pm10":18.1,"pm2_5":12.3,"mosquito_risk":7,"arthritis_risk":5,"migraine_risk":4,"frizz_risk":1,"updated_at":"2026-03-20T18:36:43.354452+05:30"},{"city":"Patna","state":"Bihar","latitude":25.5941,"longitude":85.1376,"temp":26.5,"humidity":64,"rain":0.0,"pressure":1001.6,"uv_index":7.65,"wind_gusts":44.3,"aqi":180,"pm10":60.1,"pm2_5":54.0,"mosquito_risk":7,"arthritis_risk":5,"migraine_risk":4,"frizz_risk":1,"updated_at":"2026-03-20T18:36:43.354460+05:30"},{"city":"Gaya","state":"Bihar","latitude":24.7914,"longitude":85.0002,"temp":23.8,"humidity":75,"rain":0.0,"pressure":996.4,"uv_index":7.8,"wind_gusts":30.6,"aqi":165,"pm10":45.6,"pm2_5":41.4,"mosquito_risk":3,"arthritis_risk":5,"migraine_risk":7,"frizz_risk":1,"updated_at":"2026-03-20T18:36:43.354468+05:30"},{"city":"Muzaffarpur","state":"Bihar","latitude":26.1209,"longitude":85.3647,"temp":26.3,"humidity":73,"rain":0.0,"pressure":1001.3,"uv_index":7.65,"wind_gusts":31.7,"aqi":165,"pm10":60.5,"pm2_5":53.8,"mosquito_risk":7,"arthritis_risk":5,"migraine_risk":4,"frizz_risk":1,"updated_at":"2026-03-20T18:36:43.354475+05:30"},{"city":"Bhagalpur","state":"Bihar","latitude":25.2425,"longitude":87.0117,"temp":23.6,"humidity":82,"rain":0.0,"pressure":1003.5,"uv_index":7.7,"wind_gusts":44.6,"aqi":174,"pm10":56.5,"pm2_5":51.8,"mosquito_risk":3,"arthritis_risk":5,"migraine_risk":4,"frizz_risk":1,"updated_at":"2026-03-20T18:36:43.354482+05:30"},{"city":"Ranchi","state":"Jharkhand","latitude":23.3441,"longitude":85.3096,"temp":23.9,"humidity":59,"rain":0.0,"pressure":938.4,"uv_index":7.7,"wind_gusts":27.4,"aqi":152,"pm10":59.0,"pm2_5":45.5,"mosquito_risk":0,"arthritis_risk":5,"migraine_risk":7,"frizz_risk":0,"updated_at":"2026-03-20T18:36:43.354489+05:30"},{"city":"Jamshedpur","state":"Jharkhand","latitude":22.8046,"longitude":86.2029,"temp":26.9,"humidity":61,"rain":0.0,"pressure":991.7,"uv_index":7.9,"wind_gusts":28.4,"aqi":170,"pm10":44.2,"pm2_5":38.4,"mosquito_risk":7,"arthritis_risk":5,"migraine_risk":7,"frizz_risk":1,"updated_at":"2026-03-20T18:36:43.354495+05:30"},{"city":"Dhanbad","state":"Jharkhand","latitude":23.7957,"longitude":86.4304,"temp":24.5,"humidity":69,"rain":0.0,"pressure":981.5,"uv_index":7.6,"wind_gusts":51.8,"aqi":158,"pm10":66.8,"pm2_5":59.8,"mosquito_risk":3,"arthritis_risk":5,"migraine_risk":7,"frizz_risk":1,"updated_at":"2026-03-20T18:36:43.354502+05:30"},{"city":"Bokaro","state":"Jharkhand","latitude":23.6693,"longitude":86.1511,"temp":26.7,"humidity":52,"rain":0.0,"pressure":984.8,"uv_index":7.7,"wind_gusts":51.8,"aqi":150,"pm10":59.3,"pm2_5":49.2,"mosquito_risk":4,"arthritis_risk":5,"migraine_risk":7,"frizz_risk":0,"updated_at":"2026-03-20T18:36:43.354508+05:30"},{"city":"Bhubaneswar","state":"Odisha","latitude":20.2961,"longitude":85.8245,"temp":26.8,"humidity":68,"rain":0.0,"pressure":1003.5,"uv_index":8.55,"wind_gusts":33.5,"aqi":75,"pm10":24.7,"pm2_5":21.4,"mosquito_risk":7,"arthritis_risk":5,"migraine_risk":4,"frizz_risk":1,"updated_at":"2026-03-20T18:36:43.354515+05:30"},{"city":"Cuttack","state":"Odisha","latitude":20.4625,"longitude":85.8828,"temp":28.5,"humidity":53,"rain":0.0,"pressure":1005.1,"uv_index":8.35,"wind_gusts":34.2,"aqi":75,"pm10":24.7,"pm2_5":21.4,"mosquito_risk":4,"arthritis_risk":5,"migraine_risk":4,"frizz_risk":1,"updated_at":"2026-03-20T18:36:43.354522+05:30"},{"city":"Rourkela","state":"Odisha","latitude":22.2604,"longitude":84.8536,"temp":27.8,"humidity":58,"rain":0.0,"pressure":985.7,"uv_index":7.55,"wind_gusts":37.1,"aqi":189,"pm10":50.3,"pm2_5":40.7,"mosquito_risk":4,"arthritis_risk":5,"migraine_risk":7,"frizz_risk":1,"updated_at":"2026-03-20T18:36:43.354528+05:30"},{"city":"Raipur","state":"Chhattisgarh","latitude":21.2514,"longitude":81.6296,"temp":24.4,"humidity":65,"rain":0.0,"pressure":975.7,"uv_index":7.4,"wind_gusts":45.0,"aqi":133,"pm10":49.1,"pm2_5":41.8,"mosquito_risk":3,"arthritis_risk":5,"migraine_risk":7,"frizz_risk":1,"updated_at":"2026-03-20T18:36:43.354534+05:30"},{"city":"Bhilai","state":"Chhattisgarh","latitude":21.1938,"longitude":81.3509,"temp":24.6,"humidity":66,"rain":0.0,"pressure":976.0,"uv_index":6.9,"wind_gusts":35.3,"aqi":111,"pm10":45.9,"pm2_5":35.2,"mosquito_risk":3,"arthritis_risk":5,"migraine_risk":7,"frizz_risk":1,"updated_at":"2026-03-20T18:36:43.354541+05:30"},{"city":"Guwahati","state":"Assam","latitude":26.1158,"longitude":91.7086,"temp":25.5,"humidity":75,"rain":0.0,"pressure":1004.5,"uv_index":7.1,"wind_gusts":27.4,"aqi":100,"pm10":38.4,"pm2_5":32.9,"mosquito_risk":7,"arthritis_risk":5,"migraine_risk":4,"frizz_risk":1,"updated_at":"2026-03-20T18:36:43.354547+05:30"},{"city":"Agartala","state":"Tripura","latitude":23.8315,"longitude":91.2868,"temp":23.6,"humidity":89,"rain":0.0,"pressure":1008.2,"uv_index":6.4,"wind_gusts":29.2,"aqi":104,"pm10":43.8,"pm2_5":39.6,"mosquito_risk":3,"arthritis_risk":0,"migraine_risk":4,"frizz_risk":1,"updated_at":"2026-03-20T18:36:43.354553+05:30"},{"city":"Shillong","state":"Meghalaya","latitude":25.5788,"longitude":91.8933,"temp":13.7,"humidity":82,"rain":0.0,"pressure":857.3,"uv_index":7.5,"wind_gusts":32.4,"aqi":107,"pm10":34.5,"pm2_5":28.3,"mosquito_risk":3,"arthritis_risk":10,"migraine_risk":7,"frizz_risk":0,"updated_at":"2026-03-20T18:36:43.354560+05:30"},{"city":"Imphal","state":"Manipur","latitude":24.817,"longitude":93.9368,"temp":18.8,"humidity":76,"rain":0.0,"pressure":925.3,"uv_index":7.9,"wind_gusts":44.6,"aqi":89,"pm10":37.3,"pm2_5":29.3,"mosquito_risk":3,"arthritis_risk":5,"migraine_risk":7,"frizz_risk":0,"updated_at":"2026-03-20T18:36:43.354567+05:30"},{"city":"Aizawl","state":"Mizoram","latitude":23.7271,"longitude":92.7176,"temp":20.4,"humidity":59,"rain":0.0,"pressure":894.4,"uv_index":7.6,"wind_gusts":23.8,"aqi":103,"pm10":51.7,"pm2_5":41.0,"mosquito_risk":0,"arthritis_risk":5,"migraine_risk":7,"frizz_risk":0,"updated_at":"2026-03-20T18:36:43.354573+05:30"},{"city":"Kohima","state":"Nagaland","latitude":25.6701,"longitude":94.1077,"temp":14.7,"humidity":93,"rain":0.0,"pressure":856.3,"uv_index":7.7,"wind_gusts":62.3,"aqi":91,"pm10":41.3,"pm2_5":29.9,"mosquito_risk":3,"arthritis_risk":10,"migraine_risk":7,"frizz_risk":0,"updated_at":"2026-03-20T18:36:43.354580+05:30"},{"city":"Gangtok","state":"Sikkim","latitude":27.3314,"longitude":88.6138,"temp":13.6,"humidity":95,"rain":0.0,"pressure":837.7,"uv_index":7.9,"wind_gusts":20.2,"aqi":98,"pm10":45.4,"pm2_5":33.1,"mosquito_risk":3,"arthritis_risk":10,"migraine_risk":7,"frizz_risk":0,"updated_at":"2026-03-20T18:36:43.354586+05:30"},{"city":"Siliguri","state":"West Bengal","latitude":26.7271,"longitude":88.3953,"temp":18.8,"humidity":86,"rain":0.0,"pressure":997.1,"uv_index":7.6,"wind_gusts":23.0,"aqi":151,"pm10":91.0,"pm2_5":70.1,"mosquito_risk":3,"arthritis_risk":10,"migraine_risk":7,"frizz_risk":1,"updated_at":"2026-03-20T18:36:46.569711+05:30"},{"city":"Durgapur","state":"West Bengal","latitude":23.5204,"longitude":87.3119,"temp":24.4,"humidity":76,"rain":0.0,"pressure":997.4,"uv_index":7.0,"wind_gusts":41.0,"aqi":154,"pm10":55.1,"pm2_5":50.5,"mosquito_risk":3,"arthritis_risk":5,"migraine_risk":7,"frizz_risk":1,"updated_at":"2026-03-20T18:36:46.569740+05:30"},{"city":"Asansol","state":"West Bengal","latitude":23.6739,"longitude":86.9524,"temp":25.0,"humidity":75,"rain":0.0,"pressure":995.5,"uv_index":5.4,"wind_gusts":37.4,"aqi":152,"pm10":54.4,"pm2_5":49.1,"mosquito_risk":7,"arthritis_risk":5,"migraine_risk":3,"frizz_risk":1,"updated_at":"2026-03-20T18:36:46.569750+05:30"},{"city":"Pondicherry","state":"Puducherry","latitude":11.9139,"longitude":79.8145,"temp":29.2,"humidity":68,"rain":0.0,"pressure":1007.7,"uv_index":9.1,"wind_gusts":23.0,"aqi":69,"pm10":11.9,"pm2_5":10.3,"mosquito_risk":7,"arthritis_risk":5,"migraine_risk":4,"frizz_risk":1,"updated_at":"2026-03-20T18:36:46.569758+05:30"},{"city":"Port Blair","state":"Andaman and Nicobar Islands","latitude":11.6234,"longitude":92.7265,"temp":28.0,"humidity":78,"rain":0.0,"pressure":1008.1,"uv_index":6.3,"wind_gusts":13.7,"aqi":43,"pm10":13.9,"pm2_5":10.1,"mosquito_risk":7,"arthritis_risk":0,"migraine_risk":4,"frizz_risk":1,"updated_at":"2026-03-20T18:36:46.569766+05:30"},{"city":"Haridwar","state":"Uttarakhand","latitude":29.9457,"longitude":78.1642,"temp":17.0,"humidity":93,"rain":0.1,"pressure":977.0,"uv_index":0.7,"wind_gusts":27.7,"aqi":81,"pm10":38.8,"pm2_5":29.5,"mosquito_risk":6,"arthritis_risk":10,"migraine_risk":3,"frizz_risk":0,"updated_at":"2026-03-20T18:36:46.569774+05:30"},{"city":"Rishikesh","state":"Uttarakhand","latitude":30.0869,"longitude":78.2676,"temp":16.4,"humidity":94,"rain":0.2,"pressure":969.3,"uv_index":0.9,"wind_gusts":27.7,"aqi":67,"pm10":36.4,"pm2_5":23.1,"mosquito_risk":6,"arthritis_risk":10,"migraine_risk":3,"frizz_risk":0,"updated_at":"2026-03-20T18:36:46.569782+05:30"},{"city":"Nainital","state":"Uttarakhand","latitude":29.3919,"longitude":79.4542,"temp":12.4,"humidity":92,"rain":0.0,"pressure":803.4,"uv_index":1.9,"wind_gusts":67.0,"aqi":69,"pm10":28.8,"pm2_5":20.4,"mosquito_risk":3,"arthritis_risk":10,"migraine_risk":3,"frizz_risk":0,"updated_at":"2026-03-20T18:36:46.569789+05:30"},{"city":"Mussoorie","state":"Uttarakhand","latitude":30.4599,"longitude":78.0664,"temp":9.1,"humidity":81,"rain":0.6,"pressure":799.1,"uv_index":0.45,"wind_gusts":46.8,"aqi":66,"pm10":20.4,"pm2_5":19.0,"mosquito_risk":6,"arthritis_risk":10,"migraine_risk":3,"frizz_risk":0,"updated_at":"2026-03-20T18:36:46.569797+05:30"},{"city":"Dharamshala","state":"Himachal Pradesh","latitude":32.219,"longitude":76.3234,"temp":12.5,"humidity":96,"rain":0.0,"pressure":867.3,"uv_index":2.15,"wind_gusts":27.0,"aqi":55,"pm10":12.3,"pm2_5":7.2,"mosquito_risk":3,"arthritis_risk":10,"migraine_risk":3,"frizz_risk":0,"updated_at":"2026-03-20T18:36:46.569804+05:30"},{"city":"Dalhousie","state":"Himachal Pradesh","latitude":32.5387,"longitude":75.971,"temp":10.3,"humidity":80,"rain":0.0,"pressure":800.7,"uv_index":1.7,"wind_gusts":25.9,"aqi":62,"pm10":31.2,"pm2_5":17.6,"mosquito_risk":3,"arthritis_risk":5,"migraine_risk":3,"frizz_risk":0,"updated_at":"2026-03-20T18:36:46.569812+05:30"},{"city":"Patiala","state":"Punjab","latitude":30.3398,"longitude":76.3869,"temp":17.6,"humidity":89,"rain":0.0,"pressure":981.6,"uv_index":2.2,"wind_gusts":17.6,"aqi":96,"pm10":57.9,"pm2_5":35.0,"mosquito_risk":3,"arthritis_risk":10,"migraine_risk":3,"frizz_risk":0,"updated_at":"2026-03-20T18:36:46.569819+05:30"},{"city":"Bhatinda","state":"Punjab","latitude":30.211,"longitude":74.9455,"temp":18.0,"humidity":84,"rain":0.0,"pressure":987.3,"uv_index":5.95,"wind_gusts":25.6,"aqi":108,"pm10":48.4,"pm2_5":35.5,"mosquito_risk":3,"arthritis_risk":10,"migraine_risk":3,"frizz_risk":0,"updated_at":"2026-03-20T18:36:46.569826+05:30"},{"city":"Rohtak","state":"Haryana","latitude":28.8955,"longitude":76.6066,"temp":17.8,"humidity":89,"rain":0.0,"pressure":984.9,"uv_index":3.75,"wind_gusts":18.4,"aqi":126,"pm10":52.2,"pm2_5":38.3,"mosquito_risk":3,"arthritis_risk":10,"migraine_risk":3,"frizz_risk":0,"updated_at":"2026-03-20T18:36:46.569833+05:30"},{"city":"Panipat","state":"Haryana","latitude":29.3909,"longitude":76.9635,"temp":16.7,"humidity":95,"rain":0.0,"pressure":983.6,"uv_index":2.6,"wind_gusts":15.8,"aqi":140,"pm10":51.2,"pm2_5":34.5,"mosquito_risk":3,"arthritis_risk":10,"migraine_risk":3,"frizz_risk":0,"updated_at":"2026-03-20T18:36:46.569839+05:30"},{"city":"Mathura","state":"Uttar Pradesh","latitude":27.4924,"longitude":77.6737,"temp":19.3,"humidity":79,"rain":0.0,"pressure":989.4,"uv_index":5.25,"wind_gusts":22.0,"aqi":128,"pm10":41.4,"pm2_5":33.2,"mosquito_risk":3,"arthritis_risk":5,"migraine_risk":3,"frizz_risk":0,"updated_at":"2026-03-20T18:36:46.569846+05:30"},{"city":"Vrindavan","state":"Uttar Pradesh","latitude":27.5823,"longitude":77.7027,"temp":19.0,"humidity":81,"rain":0.0,"pressure":989.9,"uv_index":5.25,"wind_gusts":22.3,"aqi":128,"pm10":41.4,"pm2_5":33.2,"mosquito_risk":3,"arthritis_risk":10,"migraine_risk":3,"frizz_risk":0,"updated_at":"2026-03-20T18:36:46.569852+05:30"},{"city":"Ayodhya","state":"Uttar Pradesh","latitude":26.7922,"longitude":82.1998,"temp":23.5,"humidity":73,"rain":0.0,"pressure":996.2,"uv_index":6.25,"wind_gusts":34.9,"aqi":131,"pm10":53.8,"pm2_5":34.9,"mosquito_risk":3,"arthritis_risk":5,"migraine_risk":7,"frizz_risk":1,"updated_at":"2026-03-20T18:36:46.569859+05:30"},{"city":"Ratlam","state":"Madhya Pradesh","latitude":23.3315,"longitude":75.0367,"temp":25.3,"humidity":46,"rain":0.0,"pressure":954.7,"uv_index":7.7,"wind_gusts":41.4,"aqi":66,"pm10":33.3,"pm2_5":13.9,"mosquito_risk":4,"arthritis_risk":5,"migraine_risk":7,"frizz_risk":0,"updated_at":"2026-03-20T18:36:46.569866+05:30"},{"city":"Sagar","state":"Madhya Pradesh","latitude":23.8388,"longitude":78.7378,"temp":23.4,"humidity":60,"rain":0.0,"pressure":951.0,"uv_index":7.6,"wind_gusts":36.0,"aqi":71,"pm10":42.7,"pm2_5":18.0,"mosquito_risk":0,"arthritis_risk":5,"migraine_risk":7,"frizz_risk":0,"updated_at":"2026-03-20T18:36:46.569873+05:30"},{"city":"Satna","state":"Madhya Pradesh","latitude":24.6005,"longitude":80.8322,"temp":24.8,"humidity":57,"rain":0.0,"pressure":972.2,"uv_index":4.75,"wind_gusts":50.4,"aqi":72,"pm10":29.4,"pm2_5":16.5,"mosquito_risk":0,"arthritis_risk":5,"migraine_risk":3,"frizz_risk":0,"updated_at":"2026-03-20T18:36:46.569879+05:30"},{"city":"Akola","state":"Maharashtra","latitude":20.7002,"longitude":77.0082,"temp":30.3,"humidity":31,"rain":0.0,"pressure":974.4,"uv_index":8.2,"wind_gusts":29.5,"aqi":97,"pm10":54.7,"pm2_5":20.7,"mosquito_risk":0,"arthritis_risk":5,"migraine_risk":7,"frizz_risk":0,"updated_at":"2026-03-20T18:36:46.569903+05:30"},{"city":"Amravati","state":"Maharashtra","latitude":20.9374,"longitude":77.7796,"temp":29.6,"humidity":30,"rain":0.0,"pressure":966.8,"uv_index":8.15,"wind_gusts":35.6,"aqi":103,"pm10":53.7,"pm2_5":19.4,"mosquito_risk":4,"arthritis_risk":5,"migraine_risk":7,"frizz_risk":0,"updated_at":"2026-03-20T18:36:46.569912+05:30"},{"city":"Latur","state":"Maharashtra","latitude":18.4088,"longitude":76.5604,"temp":29.6,"humidity":28,"rain":0.0,"pressure":938.6,"uv_index":8.6,"wind_gusts":24.1,"aqi":129,"pm10":38.1,"pm2_5":26.1,"mosquito_risk":4,"arthritis_risk":5,"migraine_risk":7,"frizz_risk":0,"updated_at":"2026-03-20T18:36:46.569920+05:30"},{"city":"Nanded","state":"Maharashtra","latitude":19.1383,"longitude":77.3091,"temp":30.9,"humidity":34,"rain":0.0,"pressure":967.5,"uv_index":8.4,"wind_gusts":23.8,"aqi":109,"pm10":29.6,"pm2_5":22.5,"mosquito_risk":0,"arthritis_risk":5,"migraine_risk":7,"frizz_risk":0,"updated_at":"2026-03-20T18:36:46.569927+05:30"},{"city":"Gulbarga","state":"Karnataka","latitude":17.3297,"longitude":76.8343,"temp":32.4,"humidity":22,"rain":0.0,"pressure":957.3,"uv_index":8.7,"wind_gusts":24.5,"aqi":147,"pm10":39.6,"pm2_5":20.2,"mosquito_risk":0,"arthritis_risk":5,"migraine_risk":7,"frizz_risk":0,"updated_at":"2026-03-20T18:36:46.569933+05:30"},{"city":"Bidar","state":"Karnataka","latitude":17.9104,"longitude":77.5199,"temp":29.6,"humidity":30,"rain":0.0,"pressure":934.6,"uv_index":8.65,"wind_gusts":26.3,"aqi":127,"pm10":44.9,"pm2_5":29.9,"mosquito_risk":4,"arthritis_risk":5,"migraine_risk":7,"frizz_risk":0,"updated_at":"2026-03-20T18:36:46.569939+05:30"},{"city":"Hospet","state":"Karnataka","latitude":15.2689,"longitude":76.3909,"temp":32.1,"humidity":30,"rain":0.0,"pressure":954.4,"uv_index":8.95,"wind_gusts":11.5,"aqi":149,"pm10":31.3,"pm2_5":22.9,"mosquito_risk":0,"arthritis_risk":5,"migraine_risk":7,"frizz_risk":0,"updated_at":"2026-03-20T18:36:46.569946+05:30"},{"city":"Tirupur","state":"Tamil Nadu","latitude":11.1085,"longitude":77.3411,"temp":32.7,"humidity":37,"rain":0.0,"pressure":973.5,"uv_index":9.35,"wind_gusts":28.1,"aqi":146,"pm10":27.6,"pm2_5":20.2,"mosquito_risk":0,"arthritis_risk":5,"migraine_risk":7,"frizz_risk":1,"updated_at":"2026-03-20T18:36:46.569952+05:30"},{"city":"Alappuzha","state":"Kerala","latitude":9.4981,"longitude":76.3388,"temp":28.8,"humidity":74,"rain":0.0,"pressure":1007.0,"uv_index":9.1,"wind_gusts":32.8,"aqi":108,"pm10":26.5,"pm2_5":18.9,"mosquito_risk":7,"arthritis_risk":5,"migraine_risk":4,"frizz_risk":1,"updated_at":"2026-03-20T18:36:46.569959+05:30"},{"city":"Munnar","state":"Kerala","latitude":10.0889,"longitude":77.0595,"temp":25.0,"humidity":59,"rain":0.0,"pressure":856.9,"uv_index":9.6,"wind_gusts":37.4,"aqi":58,"pm10":19.7,"pm2_5":15.0,"mosquito_risk":4,"arthritis_risk":5,"migraine_risk":7,"frizz_risk":1,"updated_at":"2026-03-20T18:36:46.569966+05:30"},{"city":"Silchar","state":"Assam","latitude":24.8333,"longitude":92.7789,"temp":26.9,"humidity":71,"rain":0.0,"pressure":1007.2,"uv_index":7.55,"wind_gusts":19.1,"aqi":113,"pm10":55.5,"pm2_5":46.9,"mosquito_risk":7,"arthritis_risk":5,"migraine_risk":4,"frizz_risk":1,"updated_at":"2026-03-20T18:36:46.569973+05:30"},{"city":"Dibrugarh","state":"Assam","latitude":27.4728,"longitude":94.912,"temp":24.3,"humidity":75,"rain":0.0,"pressure":999.6,"uv_index":7.75,"wind_gusts":14.0,"aqi":93,"pm10":63.1,"pm2_5":46.9,"mosquito_risk":3,"arthritis_risk":5,"migraine_risk":7,"frizz_risk":1,"updated_at":"2026-03-20T18:36:46.569979+05:30"}]