[{"city":"Delhi","state":"Delhi","latitude":28.6139,"longitude":77.209,"temp":26.2,"humidity":68,"rain":0.0,"pressure":983.3,"uv_index":7.55,"wind_gusts":37.4,"aqi":155,"pm10":102.9,"pm2_5":43.7,"no2":26.4,"co":527.0,"o3":81.0,"so2":21.7,"mosquito_risk":7,"arthritis_risk":5,"migraine_risk":7,"frizz_risk":1,"updated_at":"2026-05-31T23:34:56.014304+05:30"},{"city":"Mumbai","state":"Maharashtra","latitude":19.076,"longitude":72.8777,"temp":30.1,"humidity":75,"rain":0.0,"pressure":1009.3,"uv_index":7.8,"wind_gusts":39.2,"aqi":61,"pm10":21.2,"pm2_5":12.8,"no2":6.3,"co":233.0,"o3":43.0,"so2":4.4,"mosquito_risk":3,"arthritis_risk":0,"migraine_risk":4,"frizz_risk":1,"updated_at":"2026-05-31T23:34:56.014345+05:30"},{"city":"Bangalore","state":"Karnataka","latitude":12.9716,"longitude":77.5946,"temp":22.5,"humidity":84,"rain":0.0,"pressure":913.7,"uv_index":9.25,"wind_gusts":29.2,"aqi":74,"pm10":24.3,"pm2_5":21.0,"no2":24.7,"co":768.0,"o3":62.0,"so2":7.8,"mosquito_risk":3,"arthritis_risk":5,"migraine_risk":7,"frizz_risk":1,"updated_at":"2026-05-31T23:34:56.014360+05:30"},{"city":"Hyderabad","state":"Telangana","latitude":17.385,"longitude":78.4867,"temp":31.2,"humidity":46,"rain":0.0,"pressure":953.6,"uv_index":9.05,"wind_gusts":55.1,"aqi":79,"pm10":75.7,"pm2_5":51.0,"no2":40.7,"co":703.0,"o3":27.0,"so2":13.2,"mosquito_risk":0,"arthritis_risk":5,"migraine_risk":7,"frizz_risk":1,"updated_at":"2026-05-31T23:34:56.014370+05:30"},{"city":"Chennai","state":"Tamil Nadu","latitude":13.0827,"longitude":80.2707,"temp":30.5,"humidity":83,"rain":0.0,"pressure":1007.3,"uv_index":8.3,"wind_gusts":38.5,"aqi":86,"pm10":26.3,"pm2_5":20.0,"no2":9.9,"co":205.0,"o3":83.0,"so2":7.8,"mosquito_risk":3,"arthritis_risk":5,"migraine_risk":4,"frizz_risk":1,"updated_at":"2026-05-31T23:34:56.014378+05:30"},{"city":"Kolkata","state":"West Bengal","latitude":22.5726,"longitude":88.3639,"temp":28.3,"humidity":88,"rain":0.0,"pressure":1006.1,"uv_index":8.95,"wind_gusts":32.4,"aqi":151,"pm10":51.1,"pm2_5":42.8,"no2":18.4,"co":515.0,"o3":35.0,"so2":7.1,"mosquito_risk":7,"arthritis_risk":5,"migraine_risk":4,"frizz_risk":1,"updated_at":"2026-05-31T23:34:56.014386+05:30"},{"city":"Pune","state":"Maharashtra","latitude":18.5204,"longitude":73.8567,"temp":26.0,"humidity":80,"rain":0.0,"pressure":949.7,"uv_index":5.75,"wind_gusts":38.9,"aqi":53,"pm10":25.6,"pm2_5":15.3,"no2":7.0,"co":177.0,"o3":53.0,"so2":7.9,"mosquito_risk":7,"arthritis_risk":5,"migraine_risk":3,"frizz_risk":1,"updated_at":"2026-05-31T23:34:56.014393+05:30"},{"city":"Ahmedabad","state":"Gujarat","latitude":23.0225,"longitude":72.5714,"temp":31.0,"humidity":68,"rain":0.0,"pressure":1001.1,"uv_index":8.1,"wind_gusts":53.3,"aqi":73,"pm10":39.1,"pm2_5":23.7,"no2":6.1,"co":170.0,"o3":68.0,"so2":5.6,"mosquito_risk":3,"arthritis_risk":5,"migraine_risk":4,"frizz_risk":1,"updated_at":"2026-05-31T23:34:56.014400+05:30"},{"city":"Jaipur","state":"Rajasthan","latitude":26.9124,"longitude":75.7873,"temp":28.0,"humidity":64,"rain":0.0,"pressure":959.4,"uv_index":8.15,"wind_gusts":35.3,"aqi":92,"pm10":136.4,"pm2_5":55.8,"no2":29.2,"co":256.0,"o3":40.0,"so2":15.6,"mosquito_risk":7,"arthritis_risk":5,"migraine_risk":7,"frizz_risk":1,"updated_at":"2026-05-31T23:34:56.014410+05:30"},{"city":"Lucknow","state":"Uttar Pradesh","latitude":26.8467,"longitude":80.9462,"temp":26.8,"humidity":81,"rain":0.0,"pressure":994.0,"uv_index":8.15,"wind_gusts":29.5,"aqi":79,"pm10":67.8,"pm2_5":48.1,"no2":39.7,"co":464.0,"o3":46.0,"so2":16.0,"mosquito_risk":7,"arthritis_risk":5,"migraine_risk":7,"frizz_risk":1,"updated_at":"2026-05-31T23:34:56.014417+05:30"},{"city":"Kanpur","state":"Uttar Pradesh","latitude":26.4499,"longitude":80.3319,"temp":27.3,"humidity":74,"rain":0.0,"pressure":992.2,"uv_index":8.15,"wind_gusts":47.9,"aqi":99,"pm10":71.2,"pm2_5":32.2,"no2":18.5,"co":328.0,"o3":70.0,"so2":7.5,"mosquito_risk":7,"arthritis_risk":5,"migraine_risk":7,"frizz_risk":1,"updated_at":"2026-05-31T23:34:56.014424+05:30"},{"city":"Chandigarh","state":"Chandigarh","latitude":30.7333,"longitude":76.7794,"temp":22.5,"humidity":82,"rain":0.0,"pressure":969.2,"uv_index":7.0,"wind_gusts":40.0,"aqi":81,"pm10":49.5,"pm2_5":46.7,"no2":38.9,"co":958.0,"o3":32.0,"so2":5.9,"mosquito_risk":3,"arthritis_risk":5,"migraine_risk":7,"frizz_risk":1,"updated_at":"2026-05-31T23:34:56.014430+05:30"},{"city":"Srinagar","state":"Jammu and Kashmir","latitude":34.0837,"longitude":74.7973,"temp":18.6,"humidity":68,"rain":0.0,"pressure":841.7,"uv_index":9.0,"wind_gusts":25.6,"aqi":117,"pm10":76.8,"pm2_5":53.6,"no2":31.4,"co":634.0,"o3":31.0,"so2":2.5,"mosquito_risk":3,"arthritis_risk":5,"migraine_risk":7,"frizz_risk":0,"updated_at":"2026-05-31T23:34:56.014437+05:30"},{"city":"Jammu","state":"Jammu and Kashmir","latitude":32.7266,"longitude":74.857,"temp":25.9,"humidity":61,"rain":0.0,"pressure":973.8,"uv_index":8.5,"wind_gusts":28.1,"aqi":113,"pm10":65.9,"pm2_5":48.9,"no2":37.9,"co":377.0,"o3":32.0,"so2":5.8,"mosquito_risk":7,"arthritis_risk":5,"migraine_risk":7,"frizz_risk":1,"updated_at":"2026-05-31T23:34:56.014443+05:30"},{"city":"Amritsar","state":"Punjab","latitude":31.634,"longitude":74.8723,"temp":25.8,"humidity":59,"rain":0.0,"pressure":981.6,"uv_index":8.3,"wind_gusts":38.5,"aqi":97,"pm10":38.0,"pm2_5":31.8,"no2":12.0,"co":394.0,"o3":96.0,"so2":7.5,"mosquito_risk":4,"arthritis_risk":5,"migraine_risk":7,"frizz_risk":1,"updated_at":"2026-05-31T23:34:56.014449+05:30"},{"city":"Ludhiana","state":"Punjab","latitude":30.901,"longitude":75.8573,"temp":24.8,"humidity":70,"rain":0.0,"pressure":979.5,"uv_index":7.85,"wind_gusts":38.5,"aqi":103,"pm10":38.8,"pm2_5":35.2,"no2":14.0,"co":490.0,"o3":99.0,"so2":12.5,"mosquito_risk":3,"arthritis_risk":5,"migraine_risk":7,"frizz_risk":1,"updated_at":"2026-05-31T23:34:56.014455+05:30"},{"city":"Jalandhar","state":"Punjab","latitude":31.326,"longitude":75.5762,"temp":24.9,"humidity":63,"rain":0.0,"pressure":980.6,"uv_index":8.05,"wind_gusts":40.3,"aqi":92,"pm10":59.5,"pm2_5":48.4,"no2":24.3,"co":479.0,"o3":76.0,"so2":13.6,"mosquito_risk":3,"arthritis_risk":5,"migraine_risk":7,"frizz_risk":1,"updated_at":"2026-05-31T23:34:56.014461+05:30"},{"city":"Dehradun","state":"Uttarakhand","latitude":30.6284,"longitude":78.0322,"temp":13.3,"humidity":79,"rain":0.0,"pressure":829.4,"uv_index":7.25,"wind_gusts":31.0,"aqi":56,"pm10":13.4,"pm2_5":11.4,"no2":26.9,"co":236.0,"o3":58.0,"so2":1.2,"mosquito_risk":3,"arthritis_risk":5,"migraine_risk":7,"frizz_risk":0,"updated_at":"2026-05-31T23:34:56.014469+05:30"},{"city":"Shimla","state":"Himachal Pradesh","latitude":31.1048,"longitude":77.1734,"temp":11.6,"humidity":71,"rain":0.0,"pressure":783.5,"uv_index":2.85,"wind_gusts":25.9,"aqi":68,"pm10":20.8,"pm2_5":17.9,"no2":19.8,"co":439.0,"o3":81.0,"so2":0.5,"mosquito_risk":3,"arthritis_risk":5,"migraine_risk":3,"frizz_risk":0,"updated_at":"2026-05-31T23:34:56.014477+05:30"},{"city":"Manali","state":"Himachal Pradesh","latitude":32.2396,"longitude":77.1887,"temp":15.0,"humidity":74,"rain":0.0,"pressure":819.4,"uv_index":7.6,"wind_gusts":33.5,"aqi":95,"pm10":6.5,"pm2_5":5.7,"no2":28.0,"co":278.0,"o3":87.0,"so2":0.0,"mosquito_risk":3,"arthritis_risk":5,"migraine_risk":7,"frizz_risk":0,"updated_at":"2026-05-31T23:34:56.014496+05:30"},{"city":"Gurgaon","state":"Haryana","latitude":28.4595,"longitude":77.0266,"temp":24.8,"humidity":75,"rain":0.0,"pressure":981.6,"uv_index":7.65,"wind_gusts":37.4,"aqi":667,"pm10":730.2,"pm2_5":123.4,"no2":25.2,"co":553.0,"o3":86.0,"so2":23.8,"mosquito_risk":3,"arthritis_risk":5,"migraine_risk":7,"frizz_risk":1,"updated_at":"2026-05-31T23:34:56.014503+05:30"},{"city":"Noida","state":"Uttar Pradesh","latitude":28.5355,"longitude":77.391,"temp":25.4,"humidity":74,"rain":0.0,"pressure":984.9,"uv_index":7.6,"wind_gusts":41.4,"aqi":667,"pm10":730.2,"pm2_5":123.4,"no2":25.2,"co":582.0,"o3":86.0,"so2":23.8,"mosquito_risk":7,"arthritis_risk":5,"migraine_risk":7,"frizz_risk":1,"updated_at":"2026-05-31T23:34:56.014509+05:30"},{"city":"Ghaziabad","state":"Uttar Pradesh","latitude":28.6692,"longitude":77.4538,"temp":25.4,"humidity":75,"rain":0.0,"pressure":983.2,"uv_index":7.6,"wind_gusts":42.8,"aqi":106,"pm10":58.9,"pm2_5":38.2,"no2":16.8,"co":467.0,"o3":84.0,"so2":8.1,"mosquito_risk":7,"arthritis_risk":5,"migraine_risk":7,"frizz_risk":1,"updated_at":"2026-05-31T23:34:56.014515+05:30"},{"city":"Faridabad","state":"Haryana","latitude":28.4089,"longitude":77.3178,"temp":25.6,"humidity":70,"rain":0.0,"pressure":984.1,"uv_index":7.65,"wind_gusts":42.8,"aqi":667,"pm10":730.2,"pm2_5":123.4,"no2":25.2,"co":549.0,"o3":86.0,"so2":23.8,"mosquito_risk":7,"arthritis_risk":5,"migraine_risk":7,"frizz_risk":1,"updated_at":"2026-05-31T23:34:56.014521+05:30"},{"city":"Meerut","state":"Uttar Pradesh","latitude":28.9845,"longitude":77.7064,"temp":24.1,"humidity":86,"rain":0.0,"pressure":982.0,"uv_index":6.9,"wind_gusts":51.1,"aqi":106,"pm10":58.9,"pm2_5":38.2,"no2":16.8,"co":480.0,"o3":84.0,"so2":8.1,"mosquito_risk":3,"arthritis_risk":5,"migraine_risk":7,"frizz_risk":1,"updated_at":"2026-05-31T23:34:56.014528+05:30"},{"city":"Agra","state":"Uttar Pradesh","latitude":27.1767,"longitude":78.0081,"temp":27.0,"humidity":68,"rain":0.0,"pressure":987.6,"uv_index":7.95,"wind_gusts":43.2,"aqi":380,"pm10":472.2,"pm2_5":77.3,"no2":18.0,"co":323.0,"o3":74.0,"so2":10.3,"mosquito_risk":7,"arthritis_risk":5,"migraine_risk":7,"frizz_risk":1,"updated_at":"2026-05-31T23:34:56.014534+05:30"},{"city":"Varanasi","state":"Uttar Pradesh","latitude":25.3176,"longitude":82.9739,"temp":28.5,"humidity":65,"rain":0.0,"pressure":997.6,"uv_index":8.65,"wind_gusts":31.0,"aqi":128,"pm10":58.3,"pm2_5":46.7,"no2":20.3,"co":608.0,"o3":82.0,"so2":12.5,"mosquito_risk":7,"arthritis_risk":5,"migraine_risk":7,"frizz_risk":1,"updated_at":"2026-05-31T23:34:56.014540+05:30"},{"city":"Prayagraj","state":"Uttar Pradesh","latitude":25.4358,"longitude":81.8463,"temp":28.9,"humidity":66,"rain":0.0,"pressure":996.1,"uv_index":8.55,"wind_gusts":28.1,"aqi":104,"pm10":45.2,"pm2_5":33.9,"no2":15.0,"co":354.0,"o3":86.0,"so2":8.6,"mosquito_risk":7,"arthritis_risk":5,"migraine_risk":7,"frizz_risk":1,"updated_at":"2026-05-31T23:34:56.014546+05:30"},{"city":"Gorakhpur","state":"Uttar Pradesh","latitude":26.7606,"longitude":83.3732,"temp":26.9,"humidity":77,"rain":0.0,"pressure":997.3,"uv_index":8.55,"wind_gusts":26.3,"aqi":109,"pm10":78.7,"pm2_5":69.2,"no2":36.8,"co":444.0,"o3":53.0,"so2":12.5,"mosquito_risk":7,"arthritis_risk":5,"migraine_risk":7,"frizz_risk":1,"updated_at":"2026-05-31T23:34:56.014554+05:30"},{"city":"Bareilly","state":"Uttar Pradesh","latitude":28.367,"longitude":79.4304,"temp":24.9,"humidity":82,"rain":0.0,"pressure":987.3,"uv_index":7.95,"wind_gusts":33.5,"aqi":84,"pm10":57.4,"pm2_5":50.8,"no2":42.0,"co":442.0,"o3":46.0,"so2":9.4,"mosquito_risk":3,"arthritis_risk":5,"migraine_risk":7,"frizz_risk":1,"updated_at":"2026-05-31T23:34:56.014560+05:30"},{"city":"Aligarh","state":"Uttar Pradesh","latitude":27.8974,"longitude":78.088,"temp":25.2,"humidity":76,"rain":0.0,"pressure":985.9,"uv_index":7.75,"wind_gusts":26.6,"aqi":129,"pm10":47.0,"pm2_5":30.7,"no2":10.8,"co":327.0,"o3":105.0,"so2":6.7,"mosquito_risk":7,"arthritis_risk":5,"migraine_risk":7,"frizz_risk":1,"updated_at":"2026-05-31T23:34:56.014567+05:30"},{"city":"Moradabad","state":"Uttar Pradesh","latitude":28.8386,"longitude":78.7733,"temp":24.3,"humidity":93,"rain":0.0,"pressure":984.1,"uv_index":7.75,"wind_gusts":30.2,"aqi":99,"pm10":57.9,"pm2_5":51.0,"no2":29.5,"co":406.0,"o3":61.0,"so2":12.4,"mosquito_risk":3,"arthritis_risk":5,"migraine_risk":7,"frizz_risk":1,"updated_at":"2026-05-31T23:34:56.014573+05:30"},{"city":"Saharanpur","state":"Uttar Pradesh","latitude":29.9637,"longitude":77.546,"temp":23.3,"humidity":89,"rain":0.0,"pressure":976.2,"uv_index":6.55,"wind_gusts":39.6,"aqi":97,"pm10":77.3,"pm2_5":71.0,"no2":52.9,"co":776.0,"o3":28.0,"so2":14.3,"mosquito_risk":3,"arthritis_risk":5,"migraine_risk":7,"frizz_risk":1,"updated_at":"2026-05-31T23:34:56.014579+05:30"},{"city":"Jhansi","state":"Uttar Pradesh","latitude":25.4484,"longitude":78.5685,"temp":27.5,"humidity":65,"rain":0.0,"pressure":978.1,"uv_index":8.35,"wind_gusts":32.0,"aqi":68,"pm10":28.9,"pm2_5":19.9,"no2":8.6,"co":307.0,"o3":77.0,"so2":5.2,"mosquito_risk":7,"arthritis_risk":5,"migraine_risk":7,"frizz_risk":1,"updated_at":"2026-05-31T23:34:59.272503+05:30"},{"city":"Surat","state":"Gujarat","latitude":21.1702,"longitude":72.8311,"temp":30.1,"humidity":80,"rain":0.0,"pressure":1006.9,"uv_index":7.7,"wind_gusts":50.8,"aqi":74,"pm10":25.9,"pm2_5":18.5,"no2":15.9,"co":231.0,"o3":33.0,"so2":26.8,"mosquito_risk":3,"arthritis_risk":5,"migraine_risk":4,"frizz_risk":1,"updated_at":"2026-05-31T23:34:59.272536+05:30"},{"city":"Vadodara","state":"Gujarat","latitude":22.3072,"longitude":73.1812,"temp":30.4,"humidity":71,"rain":0.0,"pressure":1003.8,"uv_index":8.05,"wind_gusts":42.5,"aqi":69,"pm10":25.3,"pm2_5":18.7,"no2":17.3,"co":196.0,"o3":30.0,"so2":20.0,"mosquito_risk":3,"arthritis_risk":5,"migraine_risk":4,"frizz_risk":1,"updated_at":"2026-05-31T23:34:59.272547+05:30"},{"city":"Rajkot","state":"Gujarat","latitude":22.3039,"longitude":70.8022,"temp":30.4,"humidity":67,"rain":0.0,"pressure":994.0,"uv_index":7.7,"wind_gusts":43.6,"aqi":64,"pm10":27.2,"pm2_5":15.6,"no2":3.8,"co":115.0,"o3":46.0,"so2":4.3,"mosquito_risk":3,"arthritis_risk":5,"migraine_risk":7,"frizz_risk":1,"updated_at":"2026-05-31T23:34:59.272557+05:30"},{"city":"Thane","state":"Maharashtra","latitude":19.2183,"longitude":72.9781,"temp":29.9,"humidity":75,"rain":0.0,"pressure":1008.7,"uv_index":7.8,"wind_gusts":38.2,"aqi":61,"pm10":21.2,"pm2_5":12.8,"no2":6.3,"co":170.0,"o3":43.0,"so2":4.4,"mosquito_risk":7,"arthritis_risk":0,"migraine_risk":4,"frizz_risk":1,"updated_at":"2026-05-31T23:34:59.272566+05:30"},{"city":"Nagpur","state":"Maharashtra","latitude":21.1458,"longitude":79.0882,"temp":33.3,"humidity":31,"rain":0.0,"pressure":973.3,"uv_index":8.8,"wind_gusts":38.2,"aqi":85,"pm10":27.6,"pm2_5":20.1,"no2":12.9,"co":299.0,"o3":79.0,"so2":9.1,"mosquito_risk":0,"arthritis_risk":5,"migraine_risk":7,"frizz_risk":0,"updated_at":"2026-05-31T23:34:59.272576+05:30"},{"city":"Nashik","state":"Maharashtra","latitude":19.9975,"longitude":73.7898,"temp":25.5,"humidity":82,"rain":0.0,"pressure":946.8,"uv_index":8.1,"wind_gusts":49.0,"aqi":51,"pm10":16.0,"pm2_5":10.0,"no2":3.7,"co":145.0,"o3":46.0,"so2":1.6,"mosquito_risk":7,"arthritis_risk":5,"migraine_risk":7,"frizz_risk":1,"updated_at":"2026-05-31T23:34:59.272585+05:30"},{"city":"Aurangabad","state":"Maharashtra","latitude":19.8762,"longitude":75.3433,"temp":29.5,"humidity":52,"rain":0.0,"pressure":945.7,"uv_index":8.85,"wind_gusts":49.0,"aqi":61,"pm10":20.5,"pm2_5":12.8,"no2":6.1,"co":139.0,"o3":53.0,"so2":4.3,"mosquito_risk":4,"arthritis_risk":5,"migraine_risk":7,"frizz_risk":1,"updated_at":"2026-05-31T23:34:59.272595+05:30"},{"city":"Solapur","state":"Maharashtra","latitude":17.6599,"longitude":75.9064,"temp":29.9,"humidity":51,"rain":0.0,"pressure":958.2,"uv_index":8.9,"wind_gusts":51.5,"aqi":62,"pm10":32.6,"pm2_5":18.9,"no2":6.5,"co":192.0,"o3":82.0,"so2":3.4,"mosquito_risk":4,"arthritis_risk":5,"migraine_risk":7,"frizz_risk":1,"updated_at":"2026-05-31T23:34:59.272604+05:30"},{"city":"Kolhapur","state":"Maharashtra","latitude":16.705,"longitude":74.2433,"temp":25.9,"humidity":83,"rain":0.0,"pressure":949.7,"uv_index":8.75,"wind_gusts":46.1,"aqi":37,"pm10":15.2,"pm2_5":11.1,"no2":5.4,"co":158.0,"o3":50.0,"so2":2.7,"mosquito_risk":7,"arthritis_risk":5,"migraine_risk":7,"frizz_risk":1,"updated_at":"2026-05-31T23:34:59.272613+05:30"},{"city":"Goa","state":"Goa","latitude":15.2993,"longitude":74.124,"temp":27.2,"humidity":95,"rain":0.0,"pressure":999.9,"uv_index":7.35,"wind_gusts":31.0,"aqi":49,"pm10":22.6,"pm2_5":17.1,"no2":6.5,"co":543.0,"o3":44.0,"so2":2.0,"mosquito_risk":7,"arthritis_risk":5,"migraine_risk":7,"frizz_risk":1,"updated_at":"2026-05-31T23:34:59.272621+05:30"},{"city":"Jodhpur","state":"Rajasthan","latitude":26.2389,"longitude":73.0243,"temp":32.2,"humidity":43,"rain":0.0,"pressure":981.7,"uv_index":8.4,"wind_gusts":39.6,"aqi":97,"pm10":229.6,"pm2_5":52.0,"no2":21.7,"co":221.0,"o3":42.0,"so2":5.7,"mosquito_risk":0,"arthritis_risk":5,"migraine_risk":7,"frizz_risk":1,"updated_at":"2026-05-31T23:34:59.272630+05:30"},{"city":"Udaipur","state":"Rajasthan","latitude":24.5854,"longitude":73.7125,"temp":29.5,"humidity":49,"rain":0.0,"pressure":946.4,"uv_index":8.75,"wind_gusts":38.2,"aqi":69,"pm10":82.9,"pm2_5":25.8,"no2":6.5,"co":207.0,"o3":58.0,"so2":3.0,"mosquito_risk":4,"arthritis_risk":5,"migraine_risk":7,"frizz_risk":1,"updated_at":"2026-05-31T23:34:59.272638+05:30"},{"city":"Kota","state":"Rajasthan","latitude":25.2138,"longitude":75.8648,"temp":29.8,"humidity":59,"rain":0.0,"pressure":978.5,"uv_index":8.3,"wind_gusts":33.1,"aqi":64,"pm10":77.3,"pm2_5":43.2,"no2":17.9,"co":350.0,"o3":57.0,"so2":9.3,"mosquito_risk":4,"arthritis_risk":5,"migraine_risk":7,"frizz_risk":1,"updated_at":"2026-05-31T23:34:59.272647+05:30"},{"city":"Bikaner","state":"Rajasthan","latitude":28.0229,"longitude":73.3119,"temp":29.5,"humidity":59,"rain":0.0,"pressure":980.8,"uv_index":8.35,"wind_gusts":25.9,"aqi":79,"pm10":155.5,"pm2_5":47.7,"no2":8.8,"co":290.0,"o3":42.0,"so2":4.6,"mosquito_risk":4,"arthritis_risk":5,"migraine_risk":7,"frizz_risk":1,"updated_at":"2026-05-31T23:34:59.272655+05:30"},{"city":"Ajmer","state":"Rajasthan","latitude":26.4499,"longitude":74.6399,"temp":27.2,"humidity":69,"rain":0.0,"pressure":953.9,"uv_index":8.3,"wind_gusts":40.3,"aqi":63,"pm10":127.1,"pm2_5":44.8,"no2":17.6,"co":319.0,"o3":54.0,"so2":6.2,"mosquito_risk":7,"arthritis_risk":5,"migraine_risk":7,"frizz_risk":1,"updated_at":"2026-05-31T23:34:59.272664+05:30"},{"city":"Gwalior","state":"Madhya Pradesh","latitude":26.2183,"longitude":78.1828,"temp":26.4,"humidity":74,"rain":0.0,"pressure":983.3,"uv_index":8.15,"wind_gusts":35.6,"aqi":88,"pm10":61.5,"pm2_5":31.7,"no2":14.9,"co":294.0,"o3":67.0,"so2":6.8,"mosquito_risk":7,"arthritis_risk":5,"migraine_risk":7,"frizz_risk":1,"updated_at":"2026-05-31T23:34:59.272673+05:30"},{"city":"Indore","state":"Madhya Pradesh","latitude":22.7196,"longitude":75.8577,"temp":27.1,"humidity":65,"rain":0.0,"pressure":948.7,"uv_index":8.15,"wind_gusts":67.7,"aqi":68,"pm10":57.4,"pm2_5":35.2,"no2":14.5,"co":259.0,"o3":61.0,"so2":9.2,"mosquito_risk":7,"arthritis_risk":5,"migraine_risk":7,"frizz_risk":1,"updated_at":"2026-05-31T23:34:59.272681+05:30"},{"city":"Bhopal","state":"Madhya Pradesh","latitude":23.2599,"longitude":77.4126,"temp":30.1,"humidity":39,"rain":0.0,"pressure":953.6,"uv_index":8.6,"wind_gusts":42.1,"aqi":53,"pm10":32.6,"pm2_5":20.5,"no2":8.7,"co":329.0,"o3":72.0,"so2":4.5,"mosquito_risk":0,"arthritis_risk":5,"migraine_risk":7,"frizz_risk":0,"updated_at":"2026-05-31T23:34:59.272691+05:30"},{"city":"Jabalpur","state":"Madhya Pradesh","latitude":23.1815,"longitude":79.9864,"temp":29.1,"humidity":53,"rain":0.0,"pressure":961.8,"uv_index":8.75,"wind_gusts":45.4,"aqi":75,"pm10":62.4,"pm2_5":43.2,"no2":30.0,"co":272.0,"o3":43.0,"so2":7.7,"mosquito_risk":4,"arthritis_risk":5,"migraine_risk":7,"frizz_risk":1,"updated_at":"2026-05-31T23:34:59.272699+05:30"},{"city":"Ujjain","state":"Madhya Pradesh","latitude":23.1765,"longitude":75.7885,"temp":27.8,"humidity":63,"rain":0.0,"pressure":954.3,"uv_index":8.3,"wind_gusts":52.6,"aqi":68,"pm10":57.7,"pm2_5":32.5,"no2":6.7,"co":227.0,"o3":62.0,"so2":5.6,"mosquito_risk":7,"arthritis_risk":5,"migraine_risk":7,"frizz_risk":1,"updated_at":"2026-05-31T23:34:59.272708+05:30"},{"city":"Visakhapatnam","state":"Andhra Pradesh","latitude":17.6868,"longitude":83.2185,"temp":29.9,"humidity":85,"rain":0.0,"pressure":1002.7,"uv_index":9.0,"wind_gusts":41.0,"aqi":120,"pm10":41.8,"pm2_5":33.6,"no2":22.4,"co":345.0,"o3":88.0,"so2":36.7,"mosquito_risk":7,"arthritis_risk":5,"migraine_risk":4,"frizz_risk":1,"updated_at":"2026-05-31T23:34:59.272717+05:30"},{"city":"Vijayawada","state":"Andhra Pradesh","latitude":16.5062,"longitude":80.648,"temp":31.2,"humidity":59,"rain":0.0,"pressure":1001.5,"uv_index":8.95,"wind_gusts":42.5,"aqi":95,"pm10":30.7,"pm2_5":27.5,"no2":8.1,"co":385.0,"o3":91.0,"so2":4.7,"mosquito_risk":0,"arthritis_risk":5,"migraine_risk":4,"frizz_risk":1,"updated_at":"2026-05-31T23:34:59.272726+05:30"},{"city":"Guntur","state":"Andhra Pradesh","latitude":16.3067,"longitude":80.4365,"temp":30.5,"humidity":63,"rain":0.0,"pressure":1002.9,"uv_index":8.55,"wind_gusts":45.0,"aqi":88,"pm10":29.6,"pm2_5":26.0,"no2":9.3,"co":361.0,"o3":88.0,"so2":4.8,"mosquito_risk":3,"arthritis_risk":5,"migraine_risk":4,"frizz_risk":1,"updated_at":"2026-05-31T23:34:59.272734+05:30"},{"city":"Nellore","state":"Andhra Pradesh","latitude":14.4426,"longitude":79.9865,"temp":29.8,"humidity":72,"rain":0.0,"pressure":1005.4,"uv_index":8.3,"wind_gusts":38.2,"aqi":100,"pm10":31.4,"pm2_5":27.8,"no2":6.5,"co":299.0,"o3":113.0,"so2":7.7,"mosquito_risk":7,"arthritis_risk":5,"migraine_risk":4,"frizz_risk":1,"updated_at":"2026-05-31T23:34:59.272744+05:30"},{"city":"Kurnool","state":"Andhra Pradesh","latitude":15.8281,"longitude":78.0373,"temp":29.8,"humidity":53,"rain":0.0,"pressure":976.9,"uv_index":9.0,"wind_gusts":43.6,"aqi":69,"pm10":60.8,"pm2_5":41.0,"no2":28.3,"co":179.0,"o3":60.0,"so2":11.3,"mosquito_risk":4,"arthritis_risk":5,"migraine_risk":7,"frizz_risk":1,"updated_at":"2026-05-31T23:34:59.272753+05:30"},{"city":"Kakinada","state":"Andhra Pradesh","latitude":16.9891,"longitude":82.2475,"temp":30.2,"humidity":74,"rain":0.0,"pressure":1006.2,"uv_index":8.8,"wind_gusts":36.0,"aqi":90,"pm10":37.3,"pm2_5":29.2,"no2":3.2,"co":290.0,"o3":117.0,"so2":3.3,"mosquito_risk":3,"arthritis_risk":5,"migraine_risk":4,"frizz_risk":1,"updated_at":"2026-05-31T23:34:59.272762+05:30"},{"city":"Tirupati","state":"Andhra Pradesh","latitude":13.6288,"longitude":79.4192,"temp":29.0,"humidity":71,"rain":0.0,"pressure":991.5,"uv_index":9.05,"wind_gusts":36.0,"aqi":72,"pm10":24.2,"pm2_5":21.1,"no2":15.5,"co":241.0,"o3":58.0,"so2":3.3,"mosquito_risk":7,"arthritis_risk":5,"migraine_risk":7,"frizz_risk":1,"updated_at":"2026-05-31T23:34:59.272770+05:30"},{"city":"Warangal","state":"Telangana","latitude":17.9689,"longitude":79.5941,"temp":30.0,"humidity":54,"rain":0.0,"pressure":978.1,"uv_index":8.55,"wind_gusts":59.0,"aqi":100,"pm10":97.6,"pm2_5":73.1,"no2":39.5,"co":519.0,"o3":31.0,"so2":11.5,"mosquito_risk":4,"arthritis_risk":5,"migraine_risk":7,"frizz_risk":1,"updated_at":"2026-05-31T23:34:59.272779+05:30"},{"city":"Nizamabad","state":"Telangana","latitude":18.6725,"longitude":78.0941,"temp":28.8,"humidity":61,"rain":0.0,"pressure":964.8,"uv_index":9.0,"wind_gusts":40.0,"aqi":89,"pm10":66.1,"pm2_5":31.5,"no2":9.3,"co":268.0,"o3":67.0,"so2":2.8,"mosquito_risk":7,"arthritis_risk":5,"migraine_risk":7,"frizz_risk":1,"updated_at":"2026-05-31T23:34:59.272787+05:30"},{"city":"Mysore","state":"Karnataka","latitude":12.2958,"longitude":76.6396,"temp":22.8,"humidity":90,"rain":0.0,"pressure":931.2,"uv_index":9.15,"wind_gusts":29.2,"aqi":50,"pm10":14.9,"pm2_5":12.8,"no2":11.8,"co":226.0,"o3":61.0,"so2":2.3,"mosquito_risk":3,"arthritis_risk":5,"migraine_risk":7,"frizz_risk":1,"updated_at":"2026-05-31T23:34:59.272796+05:30"},{"city":"Mangalore","state":"Karnataka","latitude":12.9141,"longitude":74.856,"temp":26.3,"humidity":97,"rain":0.0,"pressure":1009.4,"uv_index":8.75,"wind_gusts":26.6,"aqi":51,"pm10":21.8,"pm2_5":17.8,"no2":10.9,"co":258.0,"o3":50.0,"so2":3.6,"mosquito_risk":7,"arthritis_risk":0,"migraine_risk":4,"frizz_risk":1,"updated_at":"2026-05-31T23:34:59.272804+05:30"},{"city":"Hubli-Dharwad","state":"Karnataka","latitude":15.3647,"longitude":75.124,"temp":25.1,"humidity":87,"rain":0.0,"pressure":943.0,"uv_index":8.9,"wind_gusts":38.9,"aqi":32,"pm10":9.4,"pm2_5":7.2,"no2":4.8,"co":162.0,"o3":43.0,"so2":1.6,"mosquito_risk":7,"arthritis_risk":5,"migraine_risk":7,"frizz_risk":1,"updated_at":"2026-05-31T23:34:59.272812+05:30"},{"city":"Belgaum","state":"Karnataka","latitude":15.8497,"longitude":74.4977,"temp":23.6,"humidity":96,"rain":0.0,"pressure":927.9,"uv_index":7.55,"wind_gusts":36.7,"aqi":31,"pm10":15.2,"pm2_5":11.8,"no2":7.6,"co":161.0,"o3":39.0,"so2":1.8,"mosquito_risk":3,"arthritis_risk":5,"migraine_risk":7,"frizz_risk":1,"updated_at":"2026-05-31T23:35:02.577088+05:30"},{"city":"Coimbatore","state":"Tamil Nadu","latitude":11.0168,"longitude":76.9558,"temp":25.4,"humidity":87,"rain":0.0,"pressure":963.9,"uv_index":7.95,"wind_gusts":42.5,"aqi":34,"pm10":6.8,"pm2_5":5.7,"no2":5.2,"co":201.0,"o3":61.0,"so2":2.6,"mosquito_risk":7,"arthritis_risk":5,"migraine_risk":7,"frizz_risk":1,"updated_at":"2026-05-31T23:35:02.577150+05:30"},{"city":"Madurai","state":"Tamil Nadu","latitude":9.9252,"longitude":78.1198,"temp":28.7,"humidity":70,"rain":0.0,"pressure":994.9,"uv_index":8.8,"wind_gusts":29.5,"aqi":75,"pm10":29.5,"pm2_5":24.0,"no2":29.5,"co":298.0,"o3":29.0,"so2":6.4,"mosquito_risk":7,"arthritis_risk":5,"migraine_risk":7,"frizz_risk":1,"updated_at":"2026-05-31T23:35:02.577168+05:30"},{"city":"Trichy","state":"Tamil Nadu","latitude":10.7905,"longitude":78.7047,"temp":29.3,"humidity":73,"rain":0.0,"pressure":1001.4,"uv_index":8.9,"wind_gusts":38.5,"aqi":51,"pm10":21.9,"pm2_5":16.6,"no2":14.1,"co":219.0,"o3":51.0,"so2":4.6,"mosquito_risk":7,"arthritis_risk":5,"migraine_risk":4,"frizz_risk":1,"updated_at":"2026-05-31T23:35:02.577182+05:30"},{"city":"Salem","state":"Tamil Nadu","latitude":11.6643,"longitude":78.146,"temp":27.9,"humidity":71,"rain":0.0,"pressure":979.4,"uv_index":8.35,"wind_gusts":36.4,"aqi":87,"pm10":26.0,"pm2_5":21.3,"no2":14.8,"co":235.0,"o3":67.0,"so2":7.1,"mosquito_risk":7,"arthritis_risk":5,"migraine_risk":7,"frizz_risk":1,"updated_at":"2026-05-31T23:35:02.577195+05:30"},{"city":"Tirunelveli","state":"Tamil Nadu","latitude":8.7139,"longitude":77.7567,"temp":29.4,"humidity":66,"rain":0.0,"pressure":1005.2,"uv_index":8.45,"wind_gusts":20.5,"aqi":31,"pm10":10.8,"pm2_5":8.2,"no2":6.3,"co":170.0,"o3":46.0,"so2":1.8,"mosquito_risk":7,"arthritis_risk":5,"migraine_risk":4,"frizz_risk":1,"updated_at":"2026-05-31T23:35:02.577206+05:30"},{"city":"Vellore","state":"Tamil Nadu","latitude":12.9165,"longitude":79.1325,"temp":28.4,"humidity":72,"rain":0.0,"pressure":985.0,"uv_index":8.45,"wind_gusts":26.3,"aqi":93,"pm10":35.4,"pm2_5":30.7,"no2":18.9,"co":243.0,"o3":47.0,"so2":5.1,"mosquito_risk":7,"arthritis_risk":5,"migraine_risk":7,"frizz_risk":1,"updated_at":"2026-05-31T23:35:02.577219+05:30"},{"city":"Erode","state":"Tamil Nadu","latitude":11.341,"longitude":77.7172,"temp":27.6,"humidity":77,"rain":0.0,"pressure":991.1,"uv_index":8.75,"wind_gusts":37.8,"aqi":51,"pm10":13.5,"pm2_5":11.8,"no2":12.3,"co":316.0,"o3":49.0,"so2":3.1,"mosquito_risk":7,"arthritis_risk":5,"migraine_risk":7,"frizz_risk":1,"updated_at":"2026-05-31T23:35:02.577231+05:30"},{"city":"Kochi","state":"Kerala","latitude":9.9312,"longitude":76.2673,"temp":26.8,"humidity":91,"rain":0.1,"pressure":1011.8,"uv_index":7.75,"wind_gusts":29.2,"aqi":58,"pm10":18.0,"pm2_5":15.0,"no2":15.6,"co":254.0,"o3":30.0,"so2":4.6,"mosquito_risk":10,"arthritis_risk":0,"migraine_risk":4,"frizz_risk":1,"updated_at":"2026-05-31T23:35:02.577243+05:30"},{"city":"Thiruvananthapuram","state":"Kerala","latitude":8.5241,"longitude":76.9366,"temp":25.0,"humidity":98,"rain":0.0,"pressure":1011.6,"uv_index":7.35,"wind_gusts":32.4,"aqi":29,"pm10":11.4,"pm2_5":7.0,"no2":3.1,"co":268.0,"o3":58.0,"so2":1.4,"mosquito_risk":7,"arthritis_risk":0,"migraine_risk":4,"frizz_risk":1,"updated_at":"2026-05-31T23:35:02.577254+05:30"},{"city":"Kozhikode","state":"Kerala","latitude":11.2588,"longitude":75.7804,"temp":25.2,"humidity":100,"rain":0.0,"pressure":1011.1,"uv_index":8.65,"wind_gusts":32.4,"aqi":31,"pm10":8.9,"pm2_5":4.8,"no2":1.1,"co":355.0,"o3":71.0,"so2":0.6,"mosquito_risk":7,"arthritis_risk":0,"migraine_risk":4,"frizz_risk":1,"updated_at":"2026-05-31T23:35:02.577265+05:30"},{"city":"Thrissur","state":"Kerala","latitude":10.5276,"longitude":76.2144,"temp":24.9,"humidity":99,"rain":0.1,"pressure":1010.3,"uv_index":7.4,"wind_gusts":30.6,"aqi":53,"pm10":14.7,"pm2_5":12.3,"no2":11.2,"co":231.0,"o3":37.0,"so2":4.4,"mosquito_risk":6,"arthritis_risk":0,"migraine_risk":4,"frizz_risk":1,"updated_at":"2026-05-31T23:35:02.577278+05:30"},{"city":"Kannur","state":"Kerala","latitude":11.8745,"longitude":75.3704,"temp":25.8,"humidity":97,"rain":0.0,"pressure":1010.1,"uv_index":7.1,"wind_gusts":25.6,"aqi":42,"pm10":10.5,"pm2_5":7.6,"no2":4.8,"co":289.0,"o3":57.0,"so2":1.4,"mosquito_risk":7,"arthritis_risk":0,"migraine_risk":4,"frizz_risk":1,"updated_at":"2026-05-31T23:35:02.577289+05:30"},{"city":"Patna","state":"Bihar","latitude":25.5941,"longitude":85.1376,"temp":28.5,"humidity":83,"rain":0.0,"pressure":1000.6,"uv_index":8.8,"wind_gusts":33.5,"aqi":155,"pm10":113.2,"pm2_5":96.9,"no2":35.2,"co":835.0,"o3":78.0,"so2":23.7,"mosquito_risk":7,"arthritis_risk":5,"migraine_risk":4,"frizz_risk":1,"updated_at":"2026-05-31T23:35:02.577300+05:30"},{"city":"Gaya","state":"Bihar","latitude":24.7914,"longitude":85.0002,"temp":27.1,"humidity":79,"rain":0.0,"pressure":993.9,"uv_index":8.85,"wind_gusts":21.2,"aqi":134,"pm10":75.9,"pm2_5":68.2,"no2":35.0,"co":415.0,"o3":42.0,"so2":14.3,"mosquito_risk":7,"arthritis_risk":5,"migraine_risk":7,"frizz_risk":1,"updated_at":"2026-05-31T23:35:02.577311+05:30"},{"city":"Muzaffarpur","state":"Bihar","latitude":26.1209,"longitude":85.3647,"temp":27.0,"humidity":87,"rain":0.0,"pressure":1000.5,"uv_index":8.75,"wind_gusts":33.5,"aqi":155,"pm10":138.8,"pm2_5":121.1,"no2":48.6,"co":808.0,"o3":66.0,"so2":27.4,"mosquito_risk":7,"arthritis_risk":5,"migraine_risk":4,"frizz_risk":1,"updated_at":"2026-05-31T23:35:02.577322+05:30"},{"city":"Bhagalpur","state":"Bihar","latitude":25.2425,"longitude":87.0117,"temp":28.1,"humidity":88,"rain":0.0,"pressure":1001.2,"uv_index":8.75,"wind_gusts":19.8,"aqi":157,"pm10":81.5,"pm2_5":70.3,"no2":24.3,"co":360.0,"o3":90.0,"so2":17.8,"mosquito_risk":7,"arthritis_risk":5,"migraine_risk":4,"frizz_risk":1,"updated_at":"2026-05-31T23:35:02.577333+05:30"},{"city":"Ranchi","state":"Jharkhand","latitude":23.3441,"longitude":85.3096,"temp":23.4,"humidity":92,"rain":0.0,"pressure":937.9,"uv_index":9.2,"wind_gusts":34.9,"aqi":116,"pm10":59.8,"pm2_5":46.6,"no2":18.3,"co":492.0,"o3":87.0,"so2":6.4,"mosquito_risk":3,"arthritis_risk":5,"migraine_risk":7,"frizz_risk":1,"updated_at":"2026-05-31T23:35:02.577344+05:30"},{"city":"Jamshedpur","state":"Jharkhand","latitude":22.8046,"longitude":86.2029,"temp":26.2,"humidity":93,"rain":0.0,"pressure":991.0,"uv_index":5.55,"wind_gusts":36.7,"aqi":133,"pm10":90.6,"pm2_5":79.9,"no2":38.5,"co":715.0,"o3":63.0,"so2":29.0,"mosquito_risk":7,"arthritis_risk":5,"migraine_risk":3,"frizz_risk":1,"updated_at":"2026-05-31T23:35:02.577356+05:30"},{"city":"Dhanbad","state":"Jharkhand","latitude":23.7957,"longitude":86.4304,"temp":26.9,"humidity":88,"rain":0.0,"pressure":980.2,"uv_index":8.85,"wind_gusts":25.2,"aqi":163,"pm10":148.1,"pm2_5":134.6,"no2":60.5,"co":1541.0,"o3":69.0,"so2":187.3,"mosquito_risk":7,"arthritis_risk":5,"migraine_risk":7,"frizz_risk":1,"updated_at":"2026-05-31T23:35:02.577367+05:30"},{"city":"Bokaro","state":"Jharkhand","latitude":23.6693,"longitude":86.1511,"temp":26.2,"humidity":91,"rain":0.0,"pressure":984.0,"uv_index":9.0,"wind_gusts":30.6,"aqi":169,"pm10":163.0,"pm2_5":149.0,"no2":62.6,"co":1235.0,"o3":71.0,"so2":190.7,"mosquito_risk":7,"arthritis_risk":5,"migraine_risk":7,"frizz_risk":1,"updated_at":"2026-05-31T23:35:02.577379+05:30"},{"city":"Bhubaneswar","state":"Odisha","latitude":20.2961,"longitude":85.8245,"temp":27.9,"humidity":93,"rain":0.0,"pressure":1002.6,"uv_index":8.85,"wind_gusts":24.8,"aqi":116,"pm10":43.4,"pm2_5":40.7,"no2":13.8,"co":343.0,"o3":74.0,"so2":8.3,"mosquito_risk":7,"arthritis_risk":5,"migraine_risk":4,"frizz_risk":1,"updated_at":"2026-05-31T23:35:02.577391+05:30"},{"city":"Cuttack","state":"Odisha","latitude":20.4625,"longitude":85.8828,"temp":28.2,"humidity":93,"rain":0.0,"pressure":1004.4,"uv_index":9.1,"wind_gusts":27.4,"aqi":116,"pm10":43.4,"pm2_5":40.7,"no2":13.8,"co":403.0,"o3":74.0,"so2":8.3,"mosquito_risk":7,"arthritis_risk":5,"migraine_risk":4,"frizz_risk":1,"updated_at":"2026-05-31T23:35:02.577402+05:30"},{"city":"Rourkela","state":"Odisha","latitude":22.2604,"longitude":84.8536,"temp":27.4,"humidity":82,"rain":0.0,"pressure":985.0,"uv_index":8.9,"wind_gusts":37.1,"aqi":129,"pm10":54.5,"pm2_5":46.0,"no2":17.6,"co":388.0,"o3":86.0,"so2":21.4,"mosquito_risk":7,"arthritis_risk":5,"migraine_risk":7,"frizz_risk":1,"updated_at":"2026-05-31T23:35:02.577413+05:30"},{"city":"Raipur","state":"Chhattisgarh","latitude":21.2514,"longitude":81.6296,"temp":31.1,"humidity":45,"rain":0.0,"pressure":974.7,"uv_index":8.85,"wind_gusts":30.2,"aqi":127,"pm10":49.6,"pm2_5":38.4,"no2":24.2,"co":347.0,"o3":86.0,"so2":29.3,"mosquito_risk":0,"arthritis_risk":5,"migraine_risk":7,"frizz_risk":1,"updated_at":"2026-05-31T23:35:02.577423+05:30"},{"city":"Bhilai","state":"Chhattisgarh","latitude":21.1938,"longitude":81.3509,"temp":31.0,"humidity":46,"rain":0.0,"pressure":974.8,"uv_index":8.85,"wind_gusts":28.4,"aqi":138,"pm10":65.9,"pm2_5":50.8,"no2":43.2,"co":307.0,"o3":52.0,"so2":44.9,"mosquito_risk":0,"arthritis_risk":5,"migraine_risk":7,"frizz_risk":1,"updated_at":"2026-05-31T23:35:02.577434+05:30"},{"city":"Guwahati","state":"Assam","latitude":26.1158,"longitude":91.7086,"temp":25.9,"humidity":89,"rain":0.0,"pressure":1001.3,"uv_index":8.75,"wind_gusts":29.9,"aqi":69,"pm10":25.7,"pm2_5":22.3,"no2":12.2,"co":337.0,"o3":31.0,"so2":1.5,"mosquito_risk":7,"arthritis_risk":5,"migraine_risk":4,"frizz_risk":1,"updated_at":"2026-05-31T23:35:02.577446+05:30"},{"city":"Agartala","state":"Tripura","latitude":23.8315,"longitude":91.2868,"temp":26.9,"humidity":87,"rain":0.0,"pressure":1006.3,"uv_index":8.85,"wind_gusts":23.8,"aqi":151,"pm10":96.2,"pm2_5":89.2,"no2":39.9,"co":748.0,"o3":58.0,"so2":11.2,"mosquito_risk":7,"arthritis_risk":5,"migraine_risk":4,"frizz_risk":1,"updated_at":"2026-05-31T23:35:02.577458+05:30"},{"city":"Shillong","state":"Meghalaya","latitude":25.5788,"longitude":91.8933,"temp":18.4,"humidity":97,"rain":0.0,"pressure":857.9,"uv_index":9.05,"wind_gusts":23.8,"aqi":61,"pm10":9.9,"pm2_5":7.7,"no2":6.7,"co":289.0,"o3":59.0,"so2":1.0,"mosquito_risk":3,"arthritis_risk":10,"migraine_risk":7,"frizz_risk":1,"updated_at":"2026-05-31T23:35:02.577469+05:30"},{"city":"Imphal","state":"Manipur","latitude":24.817,"longitude":93.9368,"temp":22.6,"humidity":93,"rain":0.0,"pressure":924.3,"uv_index":9.0,"wind_gusts":20.5,"aqi":52,"pm10":12.3,"pm2_5":12.1,"no2":13.8,"co":699.0,"o3":23.0,"so2":2.6,"mosquito_risk":3,"arthritis_risk":5,"migraine_risk":7,"frizz_risk":1,"updated_at":"2026-05-31T23:35:02.577480+05:30"},{"city":"Aizawl","state":"Mizoram","latitude":23.7271,"longitude":92.7176,"temp":20.2,"humidity":99,"rain":0.0,"pressure":892.8,"uv_index":8.2,"wind_gusts":23.4,"aqi":33,"pm10":9.1,"pm2_5":6.9,"no2":4.3,"co":201.0,"o3":42.0,"so2":0.6,"mosquito_risk":3,"arthritis_risk":5,"migraine_risk":7,"frizz_risk":1,"updated_at":"2026-05-31T23:35:02.577491+05:30"},{"city":"Kohima","state":"Nagaland","latitude":25.6701,"longitude":94.1077,"temp":18.4,"humidity":96,"rain":0.0,"pressure":856.0,"uv_index":1.95,"wind_gusts":23.0,"aqi":44,"pm10":5.2,"pm2_5":4.8,"no2":6.2,"co":254.0,"o3":37.0,"so2":0.7,"mosquito_risk":3,"arthritis_risk":10,"migraine_risk":3,"frizz_risk":1,"updated_at":"2026-05-31T23:35:02.577503+05:30"},{"city":"Gangtok","state":"Sikkim","latitude":27.3314,"longitude":88.6138,"temp":15.4,"humidity":92,"rain":0.0,"pressure":838.2,"uv_index":9.2,"wind_gusts":40.7,"aqi":64,"pm10":29.5,"pm2_5":21.8,"no2":13.9,"co":500.0,"o3":79.0,"so2":2.1,"mosquito_risk":3,"arthritis_risk":10,"migraine_risk":7,"frizz_risk":0,"updated_at":"2026-05-31T23:35:02.577514+05:30"},{"city":"Siliguri","state":"West Bengal","latitude":26.7271,"longitude":88.3953,"temp":27.0,"humidity":78,"rain":0.0,"pressure":993.3,"uv_index":8.6,"wind_gusts":20.9,"aqi":130,"pm10":78.0,"pm2_5":57.7,"no2":24.5,"co":715.0,"o3":95.0,"so2":8.2,"mosquito_risk":7,"arthritis_risk":5,"migraine_risk":7,"frizz_risk":1,"updated_at":"2026-05-31T23:35:05.858218+05:30"},{"city":"Durgapur","state":"West Bengal","latitude":23.5204,"longitude":87.3119,"temp":27.0,"humidity":90,"rain":0.0,"pressure":995.1,"uv_index":8.95,"wind_gusts":19.1,"aqi":161,"pm10":164.8,"pm2_5":155.1,"no2":57.8,"co":742.0,"o3":55.0,"so2":52.2,"mosquito_risk":7,"arthritis_risk":5,"migraine_risk":7,"frizz_risk":1,"updated_at":"2026-05-31T23:35:05.858263+05:30"},{"city":"Asansol","state":"West Bengal","latitude":23.6739,"longitude":86.9524,"temp":27.0,"humidity":92,"rain":0.0,"pressure":993.7,"uv_index":9.0,"wind_gusts":30.6,"aqi":156,"pm10":123.9,"pm2_5":112.5,"no2":46.4,"co":955.0,"o3":74.0,"so2":47.2,"mosquito_risk":7,"arthritis_risk":5,"migraine_risk":7,"frizz_risk":1,"updated_at":"2026-05-31T23:35:05.858277+05:30"},{"city":"Pondicherry","state":"Puducherry","latitude":11.9139,"longitude":79.8145,"temp":29.4,"humidity":78,"rain":0.0,"pressure":1009.2,"uv_index":8.85,"wind_gusts":38.2,"aqi":67,"pm10":14.0,"pm2_5":10.1,"no2":9.7,"co":185.0,"o3":58.0,"so2":8.6,"mosquito_risk":7,"arthritis_risk":0,"migraine_risk":4,"frizz_risk":1,"updated_at":"2026-05-31T23:35:05.858288+05:30"},{"city":"Port Blair","state":"Andaman and Nicobar Islands","latitude":11.6234,"longitude":92.7265,"temp":25.2,"humidity":97,"rain":0.0,"pressure":1008.3,"uv_index":8.0,"wind_gusts":36.0,"aqi":36,"pm10":13.0,"pm2_5":6.7,"no2":0.2,"co":122.0,"o3":81.0,"so2":0.4,"mosquito_risk":7,"arthritis_risk":0,"migraine_risk":4,"frizz_risk":1,"updated_at":"2026-05-31T23:35:05.858298+05:30"},{"city":"Haridwar","state":"Uttarakhand","latitude":29.9457,"longitude":78.1642,"temp":23.4,"humidity":85,"rain":0.0,"pressure":974.5,"uv_index":7.15,"wind_gusts":33.8,"aqi":78,"pm10":51.9,"pm2_5":47.0,"no2":37.2,"co":348.0,"o3":32.0,"so2":8.4,"mosquito_risk":3,"arthritis_risk":5,"migraine_risk":7,"frizz_risk":1,"updated_at":"2026-05-31T23:35:05.858307+05:30"},{"city":"Rishikesh","state":"Uttarakhand","latitude":30.0869,"longitude":78.2676,"temp":20.9,"humidity":92,"rain":0.0,"pressure":967.1,"uv_index":6.9,"wind_gusts":22.7,"aqi":59,"pm10":22.2,"pm2_5":17.1,"no2":13.6,"co":419.0,"o3":89.0,"so2":2.9,"mosquito_risk":3,"arthritis_risk":5,"migraine_risk":7,"frizz_risk":1,"updated_at":"2026-05-31T23:35:05.858316+05:30"},{"city":"Nainital","state":"Uttarakhand","latitude":29.3919,"longitude":79.4542,"temp":12.6,"humidity":85,"rain":0.0,"pressure":804.9,"uv_index":6.15,"wind_gusts":27.4,"aqi":59,"pm10":33.1,"pm2_5":26.1,"no2":21.4,"co":326.0,"o3":62.0,"so2":2.9,"mosquito_risk":3,"arthritis_risk":10,"migraine_risk":7,"frizz_risk":0,"updated_at":"2026-05-31T23:35:05.858326+05:30"},{"city":"Mussoorie","state":"Uttarakhand","latitude":30.4599,"longitude":78.0664,"temp":13.3,"humidity":74,"rain":0.0,"pressure":802.5,"uv_index":7.65,"wind_gusts":38.9,"aqi":60,"pm10":26.7,"pm2_5":23.8,"no2":32.8,"co":328.0,"o3":45.0,"so2":6.5,"mosquito_risk":3,"arthritis_risk":5,"migraine_risk":7,"frizz_risk":0,"updated_at":"2026-05-31T23:35:05.858337+05:30"},{"city":"Dharamshala","state":"Himachal Pradesh","latitude":32.219,"longitude":76.3234,"temp":18.5,"humidity":63,"rain":0.0,"pressure":869.6,"uv_index":7.85,"wind_gusts":30.2,"aqi":48,"pm10":22.9,"pm2_5":17.4,"no2":15.8,"co":215.0,"o3":42.0,"so2":0.1,"mosquito_risk":3,"arthritis_risk":5,"migraine_risk":7,"frizz_risk":0,"updated_at":"2026-05-31T23:35:05.858346+05:30"},{"city":"Dalhousie","state":"Himachal Pradesh","latitude":32.5387,"longitude":75.971,"temp":11.0,"humidity":98,"rain":0.0,"pressure":803.2,"uv_index":7.7,"wind_gusts":31.3,"aqi":84,"pm10":49.6,"pm2_5":29.9,"no2":34.7,"co":486.0,"o3":64.0,"so2":3.5,"mosquito_risk":3,"arthritis_risk":10,"migraine_risk":7,"frizz_risk":0,"updated_at":"2026-05-31T23:35:05.858356+05:30"},{"city":"Patiala","state":"Punjab","latitude":30.3398,"longitude":76.3869,"temp":24.2,"humidity":68,"rain":0.0,"pressure":978.9,"uv_index":7.5,"wind_gusts":44.6,"aqi":303,"pm10":265.4,"pm2_5":56.9,"no2":10.7,"co":490.0,"o3":95.0,"so2":7.4,"mosquito_risk":3,"arthritis_risk":5,"migraine_risk":7,"frizz_risk":1,"updated_at":"2026-05-31T23:35:05.858365+05:30"},{"city":"Bhatinda","state":"Punjab","latitude":30.211,"longitude":74.9455,"temp":26.8,"humidity":61,"rain":0.0,"pressure":984.0,"uv_index":8.2,"wind_gusts":33.5,"aqi":518,"pm10":551.3,"pm2_5":127.1,"no2":12.2,"co":334.0,"o3":93.0,"so2":8.6,"mosquito_risk":7,"arthritis_risk":5,"migraine_risk":7,"frizz_risk":1,"updated_at":"2026-05-31T23:35:05.858372+05:30"},{"city":"Rohtak","state":"Haryana","latitude":28.8955,"longitude":76.6066,"temp":25.4,"humidity":74,"rain":0.0,"pressure":982.1,"uv_index":7.6,"wind_gusts":36.4,"aqi":450,"pm10":380.0,"pm2_5":76.6,"no2":22.5,"co":431.0,"o3":92.0,"so2":23.3,"mosquito_risk":7,"arthritis_risk":5,"migraine_risk":7,"frizz_risk":1,"updated_at":"2026-05-31T23:35:05.858379+05:30"},{"city":"Panipat","state":"Haryana","latitude":29.3909,"longitude":76.9635,"temp":24.7,"humidity":76,"rain":0.0,"pressure":980.9,"uv_index":7.4,"wind_gusts":36.0,"aqi":479,"pm10":722.7,"pm2_5":122.9,"no2":13.9,"co":501.0,"o3":93.0,"so2":8.6,"mosquito_risk":3,"arthritis_risk":5,"migraine_risk":7,"frizz_risk":1,"updated_at":"2026-05-31T23:35:05.858386+05:30"},{"city":"Mathura","state":"Uttar Pradesh","latitude":27.4924,"longitude":77.6737,"temp":25.4,"humidity":75,"rain":0.0,"pressure":986.9,"uv_index":7.9,"wind_gusts":49.0,"aqi":315,"pm10":372.5,"pm2_5":67.5,"no2":12.5,"co":336.0,"o3":96.0,"so2":8.4,"mosquito_risk":7,"arthritis_risk":5,"migraine_risk":7,"frizz_risk":1,"updated_at":"2026-05-31T23:35:05.858392+05:30"},{"city":"Vrindavan","state":"Uttar Pradesh","latitude":27.5823,"longitude":77.7027,"temp":25.4,"humidity":73,"rain":0.0,"pressure":987.5,"uv_index":7.85,"wind_gusts":54.7,"aqi":315,"pm10":372.5,"pm2_5":67.5,"no2":12.5,"co":350.0,"o3":96.0,"so2":8.4,"mosquito_risk":7,"arthritis_risk":5,"migraine_risk":7,"frizz_risk":1,"updated_at":"2026-05-31T23:35:05.858399+05:30"},{"city":"Ayodhya","state":"Uttar Pradesh","latitude":26.7922,"longitude":82.1998,"temp":25.9,"humidity":87,"rain":0.0,"pressure":995.7,"uv_index":8.25,"wind_gusts":36.7,"aqi":92,"pm10":72.9,"pm2_5":57.0,"no2":40.4,"co":409.0,"o3":62.0,"so2":12.2,"mosquito_risk":7,"arthritis_risk":5,"migraine_risk":7,"frizz_risk":1,"updated_at":"2026-05-31T23:35:05.858405+05:30"},{"city":"Ratlam","state":"Madhya Pradesh","latitude":23.3315,"longitude":75.0367,"temp":29.1,"humidity":54,"rain":0.0,"pressure":954.9,"uv_index":8.4,"wind_gusts":47.2,"aqi":69,"pm10":68.9,"pm2_5":34.0,"no2":6.4,"co":229.0,"o3":63.0,"so2":5.7,"mosquito_risk":4,"arthritis_risk":5,"migraine_risk":7,"frizz_risk":1,"updated_at":"2026-05-31T23:35:05.858412+05:30"},{"city":"Sagar","state":"Madhya Pradesh","latitude":23.8388,"longitude":78.7378,"temp":27.0,"humidity":55,"rain":0.0,"pressure":950.3,"uv_index":8.65,"wind_gusts":42.8,"aqi":59,"pm10":16.5,"pm2_5":12.7,"no2":8.6,"co":283.0,"o3":89.0,"so2":3.6,"mosquito_risk":4,"arthritis_risk":5,"migraine_risk":7,"frizz_risk":1,"updated_at":"2026-05-31T23:35:05.858418+05:30"},{"city":"Satna","state":"Madhya Pradesh","latitude":24.6005,"longitude":80.8322,"temp":28.5,"humidity":58,"rain":0.0,"pressure":971.5,"uv_index":8.7,"wind_gusts":55.4,"aqi":82,"pm10":33.4,"pm2_5":23.2,"no2":13.5,"co":402.0,"o3":83.0,"so2":4.2,"mosquito_risk":4,"arthritis_risk":5,"migraine_risk":7,"frizz_risk":1,"updated_at":"2026-05-31T23:35:05.858425+05:30"},{"city":"Akola","state":"Maharashtra","latitude":20.7002,"longitude":77.0082,"temp":29.3,"humidity":57,"rain":0.0,"pressure":975.9,"uv_index":8.75,"wind_gusts":64.1,"aqi":74,"pm10":49.6,"pm2_5":25.9,"no2":12.8,"co":240.0,"o3":68.0,"so2":5.4,"mosquito_risk":4,"arthritis_risk":5,"migraine_risk":7,"frizz_risk":1,"updated_at":"2026-05-31T23:35:05.858432+05:30"},{"city":"Amravati","state":"Maharashtra","latitude":20.9374,"longitude":77.7796,"temp":31.7,"humidity":41,"rain":0.0,"pressure":967.7,"uv_index":8.75,"wind_gusts":48.6,"aqi":74,"pm10":52.7,"pm2_5":28.8,"no2":19.8,"co":213.0,"o3":55.0,"so2":6.1,"mosquito_risk":0,"arthritis_risk":5,"migraine_risk":7,"frizz_risk":1,"updated_at":"2026-05-31T23:35:05.858439+05:30"},{"city":"Latur","state":"Maharashtra","latitude":18.4088,"longitude":76.5604,"temp":29.8,"humidity":43,"rain":0.0,"pressure":940.8,"uv_index":8.95,"wind_gusts":44.3,"aqi":70,"pm10":32.9,"pm2_5":18.2,"no2":6.9,"co":209.0,"o3":80.0,"so2":2.1,"mosquito_risk":4,"arthritis_risk":5,"migraine_risk":7,"frizz_risk":0,"updated_at":"2026-05-31T23:35:05.858446+05:30"},{"city":"Nanded","state":"Maharashtra","latitude":19.1383,"longitude":77.3091,"temp":32.2,"humidity":38,"rain":0.0,"pressure":969.0,"uv_index":8.85,"wind_gusts":47.2,"aqi":77,"pm10":43.8,"pm2_5":22.8,"no2":5.9,"co":199.0,"o3":81.0,"so2":1.8,"mosquito_risk":0,"arthritis_risk":5,"migraine_risk":7,"frizz_risk":0,"updated_at":"2026-05-31T23:35:05.858453+05:30"},{"city":"Gulbarga","state":"Karnataka","latitude":17.3297,"longitude":76.8343,"temp":30.2,"humidity":43,"rain":0.0,"pressure":959.2,"uv_index":8.95,"wind_gusts":46.4,"aqi":61,"pm10":34.1,"pm2_5":18.3,"no2":4.3,"co":183.0,"o3":85.0,"so2":2.2,"mosquito_risk":0,"arthritis_risk":5,"migraine_risk":7,"frizz_risk":1,"updated_at":"2026-05-31T23:35:05.858459+05:30"},{"city":"Bidar","state":"Karnataka","latitude":17.9104,"longitude":77.5199,"temp":28.4,"humidity":49,"rain":0.0,"pressure":935.9,"uv_index":9.0,"wind_gusts":45.4,"aqi":81,"pm10":68.2,"pm2_5":36.1,"no2":14.6,"co":157.0,"o3":62.0,"so2":4.9,"mosquito_risk":4,"arthritis_risk":5,"migraine_risk":7,"frizz_risk":1,"updated_at":"2026-05-31T23:35:05.858467+05:30"},{"city":"Hospet","state":"Karnataka","latitude":15.2689,"longitude":76.3909,"temp":25.0,"humidity":85,"rain":0.0,"pressure":958.2,"uv_index":9.0,"wind_gusts":56.5,"aqi":40,"pm10":12.5,"pm2_5":9.7,"no2":5.9,"co":190.0,"o3":54.0,"so2":1.7,"mosquito_risk":7,"arthritis_risk":5,"migraine_risk":7,"frizz_risk":1,"updated_at":"2026-05-31T23:35:05.858474+05:30"},{"city":"Tirupur","state":"Tamil Nadu","latitude":11.1085,"longitude":77.3411,"temp":25.8,"humidity":87,"rain":0.0,"pressure":977.2,"uv_index":8.5,"wind_gusts":41.4,"aqi":52,"pm10":15.3,"pm2_5":13.2,"no2":13.1,"co":180.0,"o3":50.0,"so2":3.9,"mosquito_risk":7,"arthritis_risk":5,"migraine_risk":7,"frizz_risk":1,"updated_at":"2026-05-31T23:35:05.858480+05:30"},{"city":"Alappuzha","state":"Kerala","latitude":9.4981,"longitude":76.3388,"temp":26.5,"humidity":89,"rain":0.0,"pressure":1012.0,"uv_index":6.4,"wind_gusts":37.8,"aqi":45,"pm10":18.0,"pm2_5":12.9,"no2":10.4,"co":110.0,"o3":46.0,"so2":2.8,"mosquito_risk":7,"arthritis_risk":0,"migraine_risk":4,"frizz_risk":1,"updated_at":"2026-05-31T23:35:05.858487+05:30"},{"city":"Munnar","state":"Kerala","latitude":10.0889,"longitude":77.0595,"temp":18.3,"humidity":99,"rain":0.0,"pressure":859.2,"uv_index":7.95,"wind_gusts":25.9,"aqi":35,"pm10":4.0,"pm2_5":3.9,"no2":6.4,"co":172.0,"o3":50.0,"so2":1.5,"mosquito_risk":3,"arthritis_risk":10,"migraine_risk":7,"frizz_risk":1,"updated_at":"2026-05-31T23:35:05.858493+05:30"},{"city":"Silchar","state":"Assam","latitude":24.8333,"longitude":92.7789,"temp":27.0,"humidity":95,"rain":0.2,"pressure":1005.3,"uv_index":8.2,"wind_gusts":24.8,"aqi":100,"pm10":41.2,"pm2_5":35.3,"no2":12.7,"co":288.0,"o3":43.0,"so2":6.2,"mosquito_risk":10,"arthritis_risk":5,"migraine_risk":4,"frizz_risk":1,"updated_at":"2026-05-31T23:35:05.858500+05:30"},{"city":"Dibrugarh","state":"Assam","latitude":27.4728,"longitude":94.912,"temp":27.3,"humidity":91,"rain":0.0,"pressure":995.3,"uv_index":5.15,"wind_gusts":22.7,"aqi":98,"pm10":32.2,"pm2_5":30.2,"no2":25.5,"co":408.0,"o3":5.0,"so2":1.7,"mosquito_risk":7,"arthritis_risk":5,"migraine_risk":3,"frizz_risk":1,"updated_at":"2026-05-31T23:35:05.858507+05:30"}]