[{"city":"Delhi","state":"Delhi","latitude":28.6139,"longitude":77.209,"temp":28.8,"humidity":46,"rain":0.0,"pressure":983.6,"uv_index":6.5,"wind_gusts":36.0,"aqi":174,"pm10":271.9,"pm2_5":48.3,"mosquito_risk":4,"arthritis_risk":5,"migraine_risk":7,"frizz_risk":0,"updated_at":"2026-03-27T14:27:51.384731+05:30"},{"city":"Mumbai","state":"Maharashtra","latitude":19.076,"longitude":72.8777,"temp":29.4,"humidity":73,"rain":0.0,"pressure":1007.5,"uv_index":8.0,"wind_gusts":25.9,"aqi":105,"pm10":47.6,"pm2_5":42.1,"mosquito_risk":7,"arthritis_risk":5,"migraine_risk":4,"frizz_risk":1,"updated_at":"2026-03-27T14:27:51.384777+05:30"},{"city":"Bangalore","state":"Karnataka","latitude":12.9716,"longitude":77.5946,"temp":34.9,"humidity":19,"rain":0.0,"pressure":912.3,"uv_index":9.5,"wind_gusts":27.0,"aqi":70,"pm10":23.7,"pm2_5":17.7,"mosquito_risk":0,"arthritis_risk":5,"migraine_risk":7,"frizz_risk":0,"updated_at":"2026-03-27T14:27:51.384793+05:30"},{"city":"Hyderabad","state":"Telangana","latitude":17.385,"longitude":78.4867,"temp":36.3,"humidity":29,"rain":0.0,"pressure":953.3,"uv_index":9.0,"wind_gusts":39.2,"aqi":76,"pm10":28.8,"pm2_5":21.6,"mosquito_risk":0,"arthritis_risk":5,"migraine_risk":10,"frizz_risk":0,"updated_at":"2026-03-27T14:27:51.384803+05:30"},{"city":"Chennai","state":"Tamil Nadu","latitude":13.0827,"longitude":80.2707,"temp":33.9,"humidity":45,"rain":0.0,"pressure":1007.1,"uv_index":9.25,"wind_gusts":29.9,"aqi":69,"pm10":35.5,"pm2_5":20.7,"mosquito_risk":0,"arthritis_risk":5,"migraine_risk":4,"frizz_risk":1,"updated_at":"2026-03-27T14:27:51.384812+05:30"},{"city":"Kolkata","state":"West Bengal","latitude":22.5726,"longitude":88.3639,"temp":34.4,"humidity":46,"rain":0.0,"pressure":1004.1,"uv_index":8.45,"wind_gusts":24.5,"aqi":133,"pm10":52.2,"pm2_5":31.4,"mosquito_risk":0,"arthritis_risk":5,"migraine_risk":4,"frizz_risk":1,"updated_at":"2026-03-27T14:27:51.384849+05:30"},{"city":"Pune","state":"Maharashtra","latitude":18.5204,"longitude":73.8567,"temp":37.8,"humidity":21,"rain":0.0,"pressure":948.6,"uv_index":8.55,"wind_gusts":44.3,"aqi":110,"pm10":41.0,"pm2_5":28.7,"mosquito_risk":0,"arthritis_risk":5,"migraine_risk":10,"frizz_risk":0,"updated_at":"2026-03-27T14:27:51.384869+05:30"},{"city":"Ahmedabad","state":"Gujarat","latitude":23.0225,"longitude":72.5714,"temp":37.3,"humidity":26,"rain":0.0,"pressure":1002.3,"uv_index":7.9,"wind_gusts":31.3,"aqi":57,"pm10":32.6,"pm2_5":13.5,"mosquito_risk":0,"arthritis_risk":5,"migraine_risk":7,"frizz_risk":0,"updated_at":"2026-03-27T14:27:51.384877+05:30"},{"city":"Jaipur","state":"Rajasthan","latitude":26.9124,"longitude":75.7873,"temp":33.4,"humidity":26,"rain":0.0,"pressure":959.6,"uv_index":7.35,"wind_gusts":33.8,"aqi":95,"pm10":251.5,"pm2_5":34.7,"mosquito_risk":0,"arthritis_risk":5,"migraine_risk":7,"frizz_risk":0,"updated_at":"2026-03-27T14:27:51.384885+05:30"},{"city":"Lucknow","state":"Uttar Pradesh","latitude":26.8467,"longitude":80.9462,"temp":30.5,"humidity":39,"rain":0.0,"pressure":993.7,"uv_index":6.0,"wind_gusts":49.3,"aqi":84,"pm10":62.9,"pm2_5":16.4,"mosquito_risk":0,"arthritis_risk":5,"migraine_risk":3,"frizz_risk":0,"updated_at":"2026-03-27T14:27:51.384893+05:30"},{"city":"Kanpur","state":"Uttar Pradesh","latitude":26.4499,"longitude":80.3319,"temp":28.3,"humidity":50,"rain":0.0,"pressure":992.8,"uv_index":6.7,"wind_gusts":64.1,"aqi":142,"pm10":161.1,"pm2_5":26.3,"mosquito_risk":4,"arthritis_risk":5,"migraine_risk":7,"frizz_risk":1,"updated_at":"2026-03-27T14:27:51.384901+05:30"},{"city":"Chandigarh","state":"Chandigarh","latitude":30.7333,"longitude":76.7794,"temp":28.2,"humidity":46,"rain":0.0,"pressure":969.2,"uv_index":6.45,"wind_gusts":33.1,"aqi":70,"pm10":32.4,"pm2_5":16.7,"mosquito_risk":4,"arthritis_risk":5,"migraine_risk":7,"frizz_risk":0,"updated_at":"2026-03-27T14:27:51.384914+05:30"},{"city":"Srinagar","state":"Jammu and Kashmir","latitude":34.0837,"longitude":74.7973,"temp":20.5,"humidity":36,"rain":0.0,"pressure":841.9,"uv_index":7.5,"wind_gusts":16.6,"aqi":106,"pm10":25.7,"pm2_5":14.1,"mosquito_risk":0,"arthritis_risk":5,"migraine_risk":7,"frizz_risk":0,"updated_at":"2026-03-27T14:27:51.384922+05:30"},{"city":"Jammu","state":"Jammu and Kashmir","latitude":32.7266,"longitude":74.857,"temp":29.5,"humidity":47,"rain":0.0,"pressure":972.5,"uv_index":7.15,"wind_gusts":25.2,"aqi":86,"pm10":22.3,"pm2_5":15.3,"mosquito_risk":4,"arthritis_risk":5,"migraine_risk":7,"frizz_risk":1,"updated_at":"2026-03-27T14:27:51.384930+05:30"},{"city":"Amritsar","state":"Punjab","latitude":31.634,"longitude":74.8723,"temp":28.9,"humidity":41,"rain":0.0,"pressure":981.2,"uv_index":7.1,"wind_gusts":25.9,"aqi":82,"pm10":35.9,"pm2_5":23.1,"mosquito_risk":4,"arthritis_risk":5,"migraine_risk":7,"frizz_risk":0,"updated_at":"2026-03-27T14:27:51.384937+05:30"},{"city":"Ludhiana","state":"Punjab","latitude":30.901,"longitude":75.8573,"temp":29.2,"humidity":39,"rain":0.0,"pressure":979.0,"uv_index":6.6,"wind_gusts":27.4,"aqi":87,"pm10":34.2,"pm2_5":17.7,"mosquito_risk":4,"arthritis_risk":5,"migraine_risk":7,"frizz_risk":0,"updated_at":"2026-03-27T14:27:51.384944+05:30"},{"city":"Jalandhar","state":"Punjab","latitude":31.326,"longitude":75.5762,"temp":28.7,"humidity":42,"rain":0.0,"pressure":980.3,"uv_index":4.4,"wind_gusts":23.0,"aqi":87,"pm10":41.1,"pm2_5":15.9,"mosquito_risk":4,"arthritis_risk":5,"migraine_risk":3,"frizz_risk":0,"updated_at":"2026-03-27T14:27:51.384953+05:30"},{"city":"Dehradun","state":"Uttarakhand","latitude":30.6284,"longitude":78.0322,"temp":17.8,"humidity":63,"rain":0.0,"pressure":829.7,"uv_index":5.8,"wind_gusts":24.1,"aqi":50,"pm10":29.7,"pm2_5":16.6,"mosquito_risk":3,"arthritis_risk":5,"migraine_risk":3,"frizz_risk":0,"updated_at":"2026-03-27T14:27:51.384961+05:30"},{"city":"Shimla","state":"Himachal Pradesh","latitude":31.1048,"longitude":77.1734,"temp":16.3,"humidity":64,"rain":0.0,"pressure":784.7,"uv_index":6.0,"wind_gusts":40.0,"aqi":58,"pm10":24.9,"pm2_5":15.2,"mosquito_risk":3,"arthritis_risk":5,"migraine_risk":3,"frizz_risk":0,"updated_at":"2026-03-27T14:27:51.384967+05:30"},{"city":"Manali","state":"Himachal Pradesh","latitude":32.2396,"longitude":77.1887,"temp":19.3,"humidity":64,"rain":0.0,"pressure":819.5,"uv_index":8.7,"wind_gusts":26.6,"aqi":85,"pm10":17.8,"pm2_5":7.6,"mosquito_risk":3,"arthritis_risk":5,"migraine_risk":7,"frizz_risk":0,"updated_at":"2026-03-27T14:27:51.384975+05:30"},{"city":"Gurgaon","state":"Haryana","latitude":28.4595,"longitude":77.0266,"temp":29.8,"humidity":43,"rain":0.0,"pressure":982.0,"uv_index":6.65,"wind_gusts":37.4,"aqi":742,"pm10":1013.3,"pm2_5":110.4,"mosquito_risk":4,"arthritis_risk":5,"migraine_risk":7,"frizz_risk":0,"updated_at":"2026-03-27T14:27:51.384982+05:30"},{"city":"Noida","state":"Uttar Pradesh","latitude":28.5355,"longitude":77.391,"temp":28.5,"humidity":49,"rain":0.0,"pressure":985.3,"uv_index":6.5,"wind_gusts":34.6,"aqi":742,"pm10":1013.3,"pm2_5":110.4,"mosquito_risk":4,"arthritis_risk":5,"migraine_risk":7,"frizz_risk":1,"updated_at":"2026-03-27T14:27:51.384990+05:30"},{"city":"Ghaziabad","state":"Uttar Pradesh","latitude":28.6692,"longitude":77.4538,"temp":28.9,"humidity":47,"rain":0.0,"pressure":983.2,"uv_index":6.5,"wind_gusts":34.6,"aqi":134,"pm10":175.6,"pm2_5":37.6,"mosquito_risk":4,"arthritis_risk":5,"migraine_risk":7,"frizz_risk":1,"updated_at":"2026-03-27T14:27:51.384996+05:30"},{"city":"Faridabad","state":"Haryana","latitude":28.4089,"longitude":77.3178,"temp":28.1,"humidity":53,"rain":0.0,"pressure":984.9,"uv_index":6.6,"wind_gusts":33.1,"aqi":742,"pm10":1013.3,"pm2_5":110.4,"mosquito_risk":4,"arthritis_risk":5,"migraine_risk":7,"frizz_risk":1,"updated_at":"2026-03-27T14:27:51.385004+05:30"},{"city":"Meerut","state":"Uttar Pradesh","latitude":28.9845,"longitude":77.7064,"temp":28.5,"humidity":49,"rain":0.0,"pressure":981.7,"uv_index":6.35,"wind_gusts":42.1,"aqi":134,"pm10":175.6,"pm2_5":37.6,"mosquito_risk":4,"arthritis_risk":5,"migraine_risk":7,"frizz_risk":1,"updated_at":"2026-03-27T14:27:51.385010+05:30"},{"city":"Agra","state":"Uttar Pradesh","latitude":27.1767,"longitude":78.0081,"temp":32.4,"humidity":36,"rain":0.0,"pressure":988.0,"uv_index":6.8,"wind_gusts":47.5,"aqi":565,"pm10":597.9,"pm2_5":64.3,"mosquito_risk":0,"arthritis_risk":5,"migraine_risk":7,"frizz_risk":0,"updated_at":"2026-03-27T14:27:51.385017+05:30"},{"city":"Varanasi","state":"Uttar Pradesh","latitude":25.3176,"longitude":82.9739,"temp":33.0,"humidity":34,"rain":0.0,"pressure":996.9,"uv_index":7.3,"wind_gusts":52.2,"aqi":90,"pm10":71.5,"pm2_5":19.8,"mosquito_risk":0,"arthritis_risk":5,"migraine_risk":7,"frizz_risk":0,"updated_at":"2026-03-27T14:27:51.385026+05:30"},{"city":"Prayagraj","state":"Uttar Pradesh","latitude":25.4358,"longitude":81.8463,"temp":32.3,"humidity":37,"rain":0.0,"pressure":995.8,"uv_index":6.25,"wind_gusts":34.6,"aqi":86,"pm10":59.1,"pm2_5":20.4,"mosquito_risk":0,"arthritis_risk":5,"migraine_risk":7,"frizz_risk":0,"updated_at":"2026-03-27T14:27:51.385033+05:30"},{"city":"Gorakhpur","state":"Uttar Pradesh","latitude":26.7606,"longitude":83.3732,"temp":33.6,"humidity":28,"rain":0.0,"pressure":995.7,"uv_index":6.75,"wind_gusts":44.6,"aqi":98,"pm10":56.5,"pm2_5":21.8,"mosquito_risk":0,"arthritis_risk":5,"migraine_risk":7,"frizz_risk":0,"updated_at":"2026-03-27T14:27:51.385042+05:30"},{"city":"Bareilly","state":"Uttar Pradesh","latitude":28.367,"longitude":79.4304,"temp":26.8,"humidity":57,"rain":0.0,"pressure":987.3,"uv_index":5.75,"wind_gusts":51.5,"aqi":62,"pm10":31.4,"pm2_5":13.6,"mosquito_risk":4,"arthritis_risk":5,"migraine_risk":3,"frizz_risk":1,"updated_at":"2026-03-27T14:27:51.385049+05:30"},{"city":"Aligarh","state":"Uttar Pradesh","latitude":27.8974,"longitude":78.088,"temp":30.2,"humidity":43,"rain":0.0,"pressure":985.9,"uv_index":6.45,"wind_gusts":44.6,"aqi":332,"pm10":527.1,"pm2_5":67.3,"mosquito_risk":0,"arthritis_risk":5,"migraine_risk":7,"frizz_risk":1,"updated_at":"2026-03-27T14:27:51.385058+05:30"},{"city":"Moradabad","state":"Uttar Pradesh","latitude":28.8386,"longitude":78.7733,"temp":27.8,"humidity":53,"rain":0.0,"pressure":984.1,"uv_index":5.35,"wind_gusts":40.3,"aqi":72,"pm10":40.5,"pm2_5":17.1,"mosquito_risk":4,"arthritis_risk":5,"migraine_risk":3,"frizz_risk":1,"updated_at":"2026-03-27T14:27:51.385064+05:30"},{"city":"Saharanpur","state":"Uttar Pradesh","latitude":29.9637,"longitude":77.546,"temp":28.8,"humidity":40,"rain":0.0,"pressure":975.6,"uv_index":6.15,"wind_gusts":34.2,"aqi":87,"pm10":48.1,"pm2_5":20.8,"mosquito_risk":4,"arthritis_risk":5,"migraine_risk":7,"frizz_risk":0,"updated_at":"2026-03-27T14:27:51.385070+05:30"},{"city":"Jhansi","state":"Uttar Pradesh","latitude":25.4484,"longitude":78.5685,"temp":32.9,"humidity":34,"rain":0.0,"pressure":977.7,"uv_index":7.55,"wind_gusts":61.2,"aqi":85,"pm10":164.4,"pm2_5":41.0,"mosquito_risk":0,"arthritis_risk":5,"migraine_risk":7,"frizz_risk":0,"updated_at":"2026-03-27T14:27:54.663520+05:30"},{"city":"Surat","state":"Gujarat","latitude":21.1702,"longitude":72.8311,"temp":35.1,"humidity":35,"rain":0.0,"pressure":1006.9,"uv_index":7.75,"wind_gusts":27.7,"aqi":123,"pm10":34.0,"pm2_5":25.6,"mosquito_risk":0,"arthritis_risk":5,"migraine_risk":7,"frizz_risk":1,"updated_at":"2026-03-27T14:27:54.663550+05:30"},{"city":"Vadodara","state":"Gujarat","latitude":22.3072,"longitude":73.1812,"temp":38.5,"humidity":25,"rain":0.0,"pressure":1004.1,"uv_index":7.9,"wind_gusts":27.4,"aqi":75,"pm10":23.7,"pm2_5":13.4,"mosquito_risk":0,"arthritis_risk":5,"migraine_risk":7,"frizz_risk":0,"updated_at":"2026-03-27T14:27:54.663560+05:30"},{"city":"Rajkot","state":"Gujarat","latitude":22.3039,"longitude":70.8022,"temp":36.2,"humidity":31,"rain":0.0,"pressure":995.5,"uv_index":7.75,"wind_gusts":32.8,"aqi":51,"pm10":24.4,"pm2_5":11.2,"mosquito_risk":0,"arthritis_risk":5,"migraine_risk":10,"frizz_risk":1,"updated_at":"2026-03-27T14:27:54.663568+05:30"},{"city":"Thane","state":"Maharashtra","latitude":19.2183,"longitude":72.9781,"temp":34.7,"humidity":45,"rain":0.0,"pressure":1007.4,"uv_index":8.0,"wind_gusts":38.5,"aqi":105,"pm10":47.6,"pm2_5":42.1,"mosquito_risk":0,"arthritis_risk":5,"migraine_risk":4,"frizz_risk":1,"updated_at":"2026-03-27T14:27:54.663575+05:30"},{"city":"Nagpur","state":"Maharashtra","latitude":21.1458,"longitude":79.0882,"temp":38.2,"humidity":17,"rain":0.0,"pressure":971.6,"uv_index":8.25,"wind_gusts":50.0,"aqi":121,"pm10":21.1,"pm2_5":15.3,"mosquito_risk":0,"arthritis_risk":5,"migraine_risk":10,"frizz_risk":0,"updated_at":"2026-03-27T14:27:54.663583+05:30"},{"city":"Nashik","state":"Maharashtra","latitude":19.9975,"longitude":73.7898,"temp":36.4,"humidity":21,"rain":0.0,"pressure":945.9,"uv_index":8.2,"wind_gusts":43.6,"aqi":78,"pm10":30.9,"pm2_5":22.8,"mosquito_risk":0,"arthritis_risk":5,"migraine_risk":10,"frizz_risk":0,"updated_at":"2026-03-27T14:27:54.663589+05:30"},{"city":"Aurangabad","state":"Maharashtra","latitude":19.8762,"longitude":75.3433,"temp":37.7,"humidity":19,"rain":0.0,"pressure":944.2,"uv_index":8.75,"wind_gusts":39.2,"aqi":69,"pm10":33.4,"pm2_5":22.5,"mosquito_risk":0,"arthritis_risk":5,"migraine_risk":10,"frizz_risk":0,"updated_at":"2026-03-27T14:27:54.663596+05:30"},{"city":"Solapur","state":"Maharashtra","latitude":17.6599,"longitude":75.9064,"temp":38.4,"humidity":22,"rain":0.0,"pressure":956.9,"uv_index":8.85,"wind_gusts":30.2,"aqi":99,"pm10":41.6,"pm2_5":32.7,"mosquito_risk":0,"arthritis_risk":5,"migraine_risk":10,"frizz_risk":0,"updated_at":"2026-03-27T14:27:54.663603+05:30"},{"city":"Kolhapur","state":"Maharashtra","latitude":16.705,"longitude":74.2433,"temp":35.4,"humidity":32,"rain":0.0,"pressure":948.3,"uv_index":8.95,"wind_gusts":44.6,"aqi":156,"pm10":40.9,"pm2_5":32.9,"mosquito_risk":0,"arthritis_risk":5,"migraine_risk":10,"frizz_risk":1,"updated_at":"2026-03-27T14:27:54.663610+05:30"},{"city":"Goa","state":"Goa","latitude":15.2993,"longitude":74.124,"temp":33.2,"humidity":63,"rain":0.0,"pressure":997.6,"uv_index":8.9,"wind_gusts":32.0,"aqi":96,"pm10":33.2,"pm2_5":26.0,"mosquito_risk":3,"arthritis_risk":5,"migraine_risk":7,"frizz_risk":1,"updated_at":"2026-03-27T14:27:54.663617+05:30"},{"city":"Jodhpur","state":"Rajasthan","latitude":26.2389,"longitude":73.0243,"temp":35.3,"humidity":26,"rain":0.0,"pressure":983.9,"uv_index":7.7,"wind_gusts":30.6,"aqi":77,"pm10":89.4,"pm2_5":20.6,"mosquito_risk":0,"arthritis_risk":5,"migraine_risk":10,"frizz_risk":0,"updated_at":"2026-03-27T14:27:54.663625+05:30"},{"city":"Udaipur","state":"Rajasthan","latitude":24.5854,"longitude":73.7125,"temp":33.4,"humidity":26,"rain":0.0,"pressure":947.5,"uv_index":8.35,"wind_gusts":43.2,"aqi":34,"pm10":46.6,"pm2_5":13.3,"mosquito_risk":0,"arthritis_risk":5,"migraine_risk":7,"frizz_risk":0,"updated_at":"2026-03-27T14:27:54.663632+05:30"},{"city":"Kota","state":"Rajasthan","latitude":25.2138,"longitude":75.8648,"temp":37.9,"humidity":17,"rain":0.0,"pressure":977.3,"uv_index":7.7,"wind_gusts":39.6,"aqi":64,"pm10":112.7,"pm2_5":21.7,"mosquito_risk":0,"arthritis_risk":5,"migraine_risk":10,"frizz_risk":0,"updated_at":"2026-03-27T14:27:54.663639+05:30"},{"city":"Bikaner","state":"Rajasthan","latitude":28.0229,"longitude":73.3119,"temp":32.1,"humidity":33,"rain":0.0,"pressure":983.1,"uv_index":7.45,"wind_gusts":27.4,"aqi":71,"pm10":47.5,"pm2_5":21.1,"mosquito_risk":0,"arthritis_risk":5,"migraine_risk":7,"frizz_risk":0,"updated_at":"2026-03-27T14:27:54.663646+05:30"},{"city":"Ajmer","state":"Rajasthan","latitude":26.4499,"longitude":74.6399,"temp":33.1,"humidity":29,"rain":0.0,"pressure":955.1,"uv_index":7.65,"wind_gusts":36.0,"aqi":57,"pm10":49.1,"pm2_5":15.8,"mosquito_risk":0,"arthritis_risk":5,"migraine_risk":7,"frizz_risk":0,"updated_at":"2026-03-27T14:27:54.663652+05:30"},{"city":"Gwalior","state":"Madhya Pradesh","latitude":26.2183,"longitude":78.1828,"temp":30.6,"humidity":43,"rain":0.0,"pressure":983.7,"uv_index":7.2,"wind_gusts":55.8,"aqi":120,"pm10":118.5,"pm2_5":29.8,"mosquito_risk":0,"arthritis_risk":5,"migraine_risk":7,"frizz_risk":1,"updated_at":"2026-03-27T14:27:54.663659+05:30"},{"city":"Indore","state":"Madhya Pradesh","latitude":22.7196,"longitude":75.8577,"temp":35.8,"humidity":15,"rain":0.0,"pressure":948.5,"uv_index":8.2,"wind_gusts":38.9,"aqi":46,"pm10":20.6,"pm2_5":7.8,"mosquito_risk":0,"arthritis_risk":5,"migraine_risk":10,"frizz_risk":0,"updated_at":"2026-03-27T14:27:54.663665+05:30"},{"city":"Bhopal","state":"Madhya Pradesh","latitude":23.2599,"longitude":77.4126,"temp":37.5,"humidity":16,"rain":0.0,"pressure":953.1,"uv_index":8.1,"wind_gusts":44.3,"aqi":46,"pm10":19.0,"pm2_5":8.4,"mosquito_risk":0,"arthritis_risk":5,"migraine_risk":10,"frizz_risk":0,"updated_at":"2026-03-27T14:27:54.663671+05:30"},{"city":"Jabalpur","state":"Madhya Pradesh","latitude":23.1815,"longitude":79.9864,"temp":37.2,"humidity":22,"rain":0.0,"pressure":959.4,"uv_index":8.15,"wind_gusts":47.2,"aqi":58,"pm10":9.9,"pm2_5":7.3,"mosquito_risk":0,"arthritis_risk":5,"migraine_risk":10,"frizz_risk":0,"updated_at":"2026-03-27T14:27:54.663678+05:30"},{"city":"Ujjain","state":"Madhya Pradesh","latitude":23.1765,"longitude":75.7885,"temp":35.5,"humidity":18,"rain":0.0,"pressure":954.0,"uv_index":8.1,"wind_gusts":38.5,"aqi":39,"pm10":18.9,"pm2_5":6.9,"mosquito_risk":0,"arthritis_risk":5,"migraine_risk":10,"frizz_risk":0,"updated_at":"2026-03-27T14:27:54.663685+05:30"},{"city":"Visakhapatnam","state":"Andhra Pradesh","latitude":17.6868,"longitude":83.2185,"temp":34.5,"humidity":45,"rain":0.0,"pressure":1003.0,"uv_index":8.95,"wind_gusts":38.2,"aqi":83,"pm10":38.8,"pm2_5":26.3,"mosquito_risk":0,"arthritis_risk":5,"migraine_risk":4,"frizz_risk":1,"updated_at":"2026-03-27T14:27:54.663692+05:30"},{"city":"Vijayawada","state":"Andhra Pradesh","latitude":16.5062,"longitude":80.648,"temp":36.1,"humidity":40,"rain":0.0,"pressure":1001.8,"uv_index":9.05,"wind_gusts":25.6,"aqi":76,"pm10":37.1,"pm2_5":23.6,"mosquito_risk":0,"arthritis_risk":5,"migraine_risk":7,"frizz_risk":1,"updated_at":"2026-03-27T14:27:54.663699+05:30"},{"city":"Guntur","state":"Andhra Pradesh","latitude":16.3067,"longitude":80.4365,"temp":36.7,"humidity":38,"rain":0.0,"pressure":1002.9,"uv_index":9.05,"wind_gusts":30.2,"aqi":71,"pm10":34.5,"pm2_5":21.4,"mosquito_risk":0,"arthritis_risk":5,"migraine_risk":7,"frizz_risk":1,"updated_at":"2026-03-27T14:27:54.663705+05:30"},{"city":"Nellore","state":"Andhra Pradesh","latitude":14.4426,"longitude":79.9865,"temp":37.5,"humidity":31,"rain":0.0,"pressure":1005.0,"uv_index":9.15,"wind_gusts":29.9,"aqi":65,"pm10":38.1,"pm2_5":26.1,"mosquito_risk":0,"arthritis_risk":5,"migraine_risk":7,"frizz_risk":1,"updated_at":"2026-03-27T14:27:54.663712+05:30"},{"city":"Kurnool","state":"Andhra Pradesh","latitude":15.8281,"longitude":78.0373,"temp":39.5,"humidity":20,"rain":0.0,"pressure":975.9,"uv_index":9.05,"wind_gusts":16.2,"aqi":69,"pm10":29.6,"pm2_5":21.0,"mosquito_risk":0,"arthritis_risk":5,"migraine_risk":10,"frizz_risk":0,"updated_at":"2026-03-27T14:27:54.663719+05:30"},{"city":"Kakinada","state":"Andhra Pradesh","latitude":16.9891,"longitude":82.2475,"temp":38.0,"humidity":39,"rain":0.0,"pressure":1006.0,"uv_index":9.0,"wind_gusts":27.7,"aqi":69,"pm10":33.9,"pm2_5":20.4,"mosquito_risk":0,"arthritis_risk":5,"migraine_risk":7,"frizz_risk":1,"updated_at":"2026-03-27T14:27:54.663725+05:30"},{"city":"Tirupati","state":"Andhra Pradesh","latitude":13.6288,"longitude":79.4192,"temp":36.8,"humidity":24,"rain":0.0,"pressure":990.8,"uv_index":9.25,"wind_gusts":31.3,"aqi":96,"pm10":35.6,"pm2_5":25.6,"mosquito_risk":0,"arthritis_risk":5,"migraine_risk":10,"frizz_risk":0,"updated_at":"2026-03-27T14:27:54.663732+05:30"},{"city":"Warangal","state":"Telangana","latitude":17.9689,"longitude":79.5941,"temp":37.8,"humidity":27,"rain":0.0,"pressure":978.1,"uv_index":8.85,"wind_gusts":26.6,"aqi":82,"pm10":27.2,"pm2_5":20.5,"mosquito_risk":0,"arthritis_risk":5,"migraine_risk":10,"frizz_risk":0,"updated_at":"2026-03-27T14:27:54.663739+05:30"},{"city":"Nizamabad","state":"Telangana","latitude":18.6725,"longitude":78.0941,"temp":38.4,"humidity":24,"rain":0.0,"pressure":964.2,"uv_index":8.75,"wind_gusts":30.6,"aqi":99,"pm10":20.6,"pm2_5":14.1,"mosquito_risk":0,"arthritis_risk":5,"migraine_risk":10,"frizz_risk":0,"updated_at":"2026-03-27T14:27:54.663745+05:30"},{"city":"Mysore","state":"Karnataka","latitude":12.2958,"longitude":76.6396,"temp":36.6,"humidity":14,"rain":0.0,"pressure":928.5,"uv_index":9.45,"wind_gusts":41.0,"aqi":70,"pm10":26.0,"pm2_5":19.3,"mosquito_risk":0,"arthritis_risk":5,"migraine_risk":10,"frizz_risk":0,"updated_at":"2026-03-27T14:27:54.663752+05:30"},{"city":"Mangalore","state":"Karnataka","latitude":12.9141,"longitude":74.856,"temp":29.5,"humidity":83,"rain":0.0,"pressure":1005.8,"uv_index":9.1,"wind_gusts":24.8,"aqi":98,"pm10":38.3,"pm2_5":30.0,"mosquito_risk":7,"arthritis_risk":5,"migraine_risk":4,"frizz_risk":1,"updated_at":"2026-03-27T14:27:54.663758+05:30"},{"city":"Hubli-Dharwad","state":"Karnataka","latitude":15.3647,"longitude":75.124,"temp":35.3,"humidity":29,"rain":0.0,"pressure":941.2,"uv_index":9.1,"wind_gusts":41.8,"aqi":75,"pm10":26.5,"pm2_5":20.8,"mosquito_risk":0,"arthritis_risk":5,"migraine_risk":10,"frizz_risk":0,"updated_at":"2026-03-27T14:27:54.663765+05:30"},{"city":"Belgaum","state":"Karnataka","latitude":15.8497,"longitude":74.4977,"temp":31.0,"humidity":53,"rain":0.0,"pressure":926.8,"uv_index":9.15,"wind_gusts":37.8,"aqi":111,"pm10":32.2,"pm2_5":25.9,"mosquito_risk":0,"arthritis_risk":5,"migraine_risk":7,"frizz_risk":1,"updated_at":"2026-03-27T14:27:57.935913+05:30"},{"city":"Coimbatore","state":"Tamil Nadu","latitude":11.0168,"longitude":76.9558,"temp":37.0,"humidity":20,"rain":0.0,"pressure":961.1,"uv_index":9.4,"wind_gusts":40.7,"aqi":81,"pm10":26.9,"pm2_5":20.3,"mosquito_risk":0,"arthritis_risk":5,"migraine_risk":10,"frizz_risk":0,"updated_at":"2026-03-27T14:27:57.935943+05:30"},{"city":"Madurai","state":"Tamil Nadu","latitude":9.9252,"longitude":78.1198,"temp":35.7,"humidity":34,"rain":0.0,"pressure":991.8,"uv_index":9.35,"wind_gusts":21.6,"aqi":78,"pm10":31.9,"pm2_5":19.9,"mosquito_risk":0,"arthritis_risk":5,"migraine_risk":10,"frizz_risk":1,"updated_at":"2026-03-27T14:27:57.935953+05:30"},{"city":"Trichy","state":"Tamil Nadu","latitude":10.7905,"longitude":78.7047,"temp":34.6,"humidity":42,"rain":0.0,"pressure":998.8,"uv_index":9.3,"wind_gusts":18.7,"aqi":87,"pm10":43.2,"pm2_5":29.9,"mosquito_risk":0,"arthritis_risk":5,"migraine_risk":7,"frizz_risk":1,"updated_at":"2026-03-27T14:27:57.935961+05:30"},{"city":"Salem","state":"Tamil Nadu","latitude":11.6643,"longitude":78.146,"temp":37.4,"humidity":27,"rain":0.0,"pressure":976.3,"uv_index":9.35,"wind_gusts":26.3,"aqi":94,"pm10":36.3,"pm2_5":28.5,"mosquito_risk":0,"arthritis_risk":5,"migraine_risk":10,"frizz_risk":0,"updated_at":"2026-03-27T14:27:57.935969+05:30"},{"city":"Tirunelveli","state":"Tamil Nadu","latitude":8.7139,"longitude":77.7567,"temp":37.7,"humidity":26,"rain":0.0,"pressure":1001.7,"uv_index":9.35,"wind_gusts":44.3,"aqi":59,"pm10":26.1,"pm2_5":15.9,"mosquito_risk":0,"arthritis_risk":5,"migraine_risk":7,"frizz_risk":0,"updated_at":"2026-03-27T14:27:57.935977+05:30"},{"city":"Vellore","state":"Tamil Nadu","latitude":12.9165,"longitude":79.1325,"temp":36.2,"humidity":23,"rain":0.0,"pressure":984.0,"uv_index":9.3,"wind_gusts":31.7,"aqi":96,"pm10":28.6,"pm2_5":19.4,"mosquito_risk":0,"arthritis_risk":5,"migraine_risk":10,"frizz_risk":0,"updated_at":"2026-03-27T14:27:57.935984+05:30"},{"city":"Erode","state":"Tamil Nadu","latitude":11.341,"longitude":77.7172,"temp":37.6,"humidity":25,"rain":0.0,"pressure":987.6,"uv_index":9.35,"wind_gusts":29.2,"aqi":88,"pm10":33.6,"pm2_5":25.2,"mosquito_risk":0,"arthritis_risk":5,"migraine_risk":10,"frizz_risk":0,"updated_at":"2026-03-27T14:27:57.935991+05:30"},{"city":"Kochi","state":"Kerala","latitude":9.9312,"longitude":76.2673,"temp":29.3,"humidity":76,"rain":0.0,"pressure":1007.4,"uv_index":9.2,"wind_gusts":37.8,"aqi":92,"pm10":34.0,"pm2_5":28.2,"mosquito_risk":7,"arthritis_risk":5,"migraine_risk":4,"frizz_risk":1,"updated_at":"2026-03-27T14:27:57.935999+05:30"},{"city":"Thiruvananthapuram","state":"Kerala","latitude":8.5241,"longitude":76.9366,"temp":29.6,"humidity":74,"rain":0.0,"pressure":1006.6,"uv_index":9.2,"wind_gusts":31.7,"aqi":91,"pm10":23.7,"pm2_5":19.0,"mosquito_risk":7,"arthritis_risk":5,"migraine_risk":4,"frizz_risk":1,"updated_at":"2026-03-27T14:27:57.936006+05:30"},{"city":"Kozhikode","state":"Kerala","latitude":11.2588,"longitude":75.7804,"temp":30.7,"humidity":73,"rain":0.0,"pressure":1006.7,"uv_index":9.1,"wind_gusts":31.3,"aqi":93,"pm10":36.0,"pm2_5":29.5,"mosquito_risk":3,"arthritis_risk":5,"migraine_risk":4,"frizz_risk":1,"updated_at":"2026-03-27T14:27:57.936012+05:30"},{"city":"Thrissur","state":"Kerala","latitude":10.5276,"longitude":76.2144,"temp":33.5,"humidity":58,"rain":0.0,"pressure":1005.7,"uv_index":9.15,"wind_gusts":40.7,"aqi":92,"pm10":33.8,"pm2_5":26.7,"mosquito_risk":0,"arthritis_risk":5,"migraine_risk":4,"frizz_risk":1,"updated_at":"2026-03-27T14:27:57.936020+05:30"},{"city":"Kannur","state":"Kerala","latitude":11.8745,"longitude":75.3704,"temp":31.9,"humidity":68,"rain":0.0,"pressure":1006.2,"uv_index":9.1,"wind_gusts":31.0,"aqi":104,"pm10":39.5,"pm2_5":32.0,"mosquito_risk":3,"arthritis_risk":5,"migraine_risk":4,"frizz_risk":1,"updated_at":"2026-03-27T14:27:57.936027+05:30"},{"city":"Patna","state":"Bihar","latitude":25.5941,"longitude":85.1376,"temp":34.3,"humidity":35,"rain":0.0,"pressure":998.5,"uv_index":7.95,"wind_gusts":41.8,"aqi":150,"pm10":58.4,"pm2_5":21.3,"mosquito_risk":0,"arthritis_risk":5,"migraine_risk":7,"frizz_risk":1,"updated_at":"2026-03-27T14:27:57.936033+05:30"},{"city":"Gaya","state":"Bihar","latitude":24.7914,"longitude":85.0002,"temp":34.5,"humidity":28,"rain":0.0,"pressure":992.0,"uv_index":8.05,"wind_gusts":30.2,"aqi":69,"pm10":43.7,"pm2_5":12.9,"mosquito_risk":0,"arthritis_risk":5,"migraine_risk":7,"frizz_risk":0,"updated_at":"2026-03-27T14:27:57.936040+05:30"},{"city":"Muzaffarpur","state":"Bihar","latitude":26.1209,"longitude":85.3647,"temp":32.4,"humidity":43,"rain":0.0,"pressure":998.4,"uv_index":7.6,"wind_gusts":44.6,"aqi":157,"pm10":62.9,"pm2_5":31.1,"mosquito_risk":0,"arthritis_risk":5,"migraine_risk":7,"frizz_risk":1,"updated_at":"2026-03-27T14:27:57.936046+05:30"},{"city":"Bhagalpur","state":"Bihar","latitude":25.2425,"longitude":87.0117,"temp":32.5,"humidity":45,"rain":0.0,"pressure":999.3,"uv_index":8.0,"wind_gusts":28.8,"aqi":138,"pm10":60.3,"pm2_5":30.3,"mosquito_risk":0,"arthritis_risk":5,"migraine_risk":7,"frizz_risk":1,"updated_at":"2026-03-27T14:27:57.936053+05:30"},{"city":"Ranchi","state":"Jharkhand","latitude":23.3441,"longitude":85.3096,"temp":31.4,"humidity":30,"rain":0.0,"pressure":937.5,"uv_index":8.7,"wind_gusts":34.2,"aqi":84,"pm10":27.7,"pm2_5":8.5,"mosquito_risk":0,"arthritis_risk":5,"migraine_risk":7,"frizz_risk":0,"updated_at":"2026-03-27T14:27:57.936059+05:30"},{"city":"Jamshedpur","state":"Jharkhand","latitude":22.8046,"longitude":86.2029,"temp":37.1,"humidity":24,"rain":0.0,"pressure":988.8,"uv_index":8.55,"wind_gusts":24.5,"aqi":154,"pm10":39.7,"pm2_5":20.0,"mosquito_risk":0,"arthritis_risk":5,"migraine_risk":10,"frizz_risk":0,"updated_at":"2026-03-27T14:27:57.936066+05:30"},{"city":"Dhanbad","state":"Jharkhand","latitude":23.7957,"longitude":86.4304,"temp":36.5,"humidity":19,"rain":0.0,"pressure":978.0,"uv_index":8.4,"wind_gusts":25.6,"aqi":127,"pm10":46.7,"pm2_5":19.6,"mosquito_risk":0,"arthritis_risk":5,"migraine_risk":10,"frizz_risk":0,"updated_at":"2026-03-27T14:27:57.936073+05:30"},{"city":"Bokaro","state":"Jharkhand","latitude":23.6693,"longitude":86.1511,"temp":36.1,"humidity":20,"rain":0.0,"pressure":981.9,"uv_index":8.3,"wind_gusts":36.0,"aqi":117,"pm10":41.4,"pm2_5":15.4,"mosquito_risk":0,"arthritis_risk":5,"migraine_risk":10,"frizz_risk":0,"updated_at":"2026-03-27T14:27:57.936080+05:30"},{"city":"Bhubaneswar","state":"Odisha","latitude":20.2961,"longitude":85.8245,"temp":35.8,"humidity":39,"rain":0.0,"pressure":1001.0,"uv_index":8.75,"wind_gusts":25.2,"aqi":116,"pm10":47.7,"pm2_5":37.0,"mosquito_risk":0,"arthritis_risk":5,"migraine_risk":7,"frizz_risk":1,"updated_at":"2026-03-27T14:27:57.936086+05:30"},{"city":"Cuttack","state":"Odisha","latitude":20.4625,"longitude":85.8828,"temp":36.5,"humidity":42,"rain":0.0,"pressure":1002.5,"uv_index":8.8,"wind_gusts":31.7,"aqi":116,"pm10":47.7,"pm2_5":37.0,"mosquito_risk":0,"arthritis_risk":5,"migraine_risk":7,"frizz_risk":1,"updated_at":"2026-03-27T14:27:57.936092+05:30"},{"city":"Rourkela","state":"Odisha","latitude":22.2604,"longitude":84.8536,"temp":36.6,"humidity":29,"rain":0.0,"pressure":983.4,"uv_index":8.45,"wind_gusts":42.1,"aqi":84,"pm10":25.2,"pm2_5":14.6,"mosquito_risk":0,"arthritis_risk":5,"migraine_risk":10,"frizz_risk":0,"updated_at":"2026-03-27T14:27:57.936099+05:30"},{"city":"Raipur","state":"Chhattisgarh","latitude":21.2514,"longitude":81.6296,"temp":33.0,"humidity":42,"rain":0.0,"pressure":974.0,"uv_index":8.55,"wind_gusts":48.6,"aqi":127,"pm10":36.0,"pm2_5":29.6,"mosquito_risk":0,"arthritis_risk":5,"migraine_risk":7,"frizz_risk":1,"updated_at":"2026-03-27T14:27:57.936105+05:30"},{"city":"Bhilai","state":"Chhattisgarh","latitude":21.1938,"longitude":81.3509,"temp":31.7,"humidity":50,"rain":0.0,"pressure":973.8,"uv_index":8.55,"wind_gusts":45.0,"aqi":123,"pm10":32.9,"pm2_5":26.6,"mosquito_risk":0,"arthritis_risk":5,"migraine_risk":7,"frizz_risk":1,"updated_at":"2026-03-27T14:27:57.936111+05:30"},{"city":"Guwahati","state":"Assam","latitude":26.1158,"longitude":91.7086,"temp":27.1,"humidity":68,"rain":0.0,"pressure":1001.6,"uv_index":7.9,"wind_gusts":28.4,"aqi":152,"pm10":70.5,"pm2_5":44.9,"mosquito_risk":7,"arthritis_risk":5,"migraine_risk":4,"frizz_risk":1,"updated_at":"2026-03-27T14:27:57.936117+05:30"},{"city":"Agartala","state":"Tripura","latitude":23.8315,"longitude":91.2868,"temp":31.7,"humidity":53,"rain":0.0,"pressure":1004.7,"uv_index":8.2,"wind_gusts":24.5,"aqi":156,"pm10":69.6,"pm2_5":51.5,"mosquito_risk":0,"arthritis_risk":5,"migraine_risk":4,"frizz_risk":1,"updated_at":"2026-03-27T14:27:57.936123+05:30"},{"city":"Shillong","state":"Meghalaya","latitude":25.5788,"longitude":91.8933,"temp":17.2,"humidity":71,"rain":0.0,"pressure":855.7,"uv_index":8.15,"wind_gusts":42.1,"aqi":124,"pm10":59.6,"pm2_5":37.6,"mosquito_risk":3,"arthritis_risk":5,"migraine_risk":7,"frizz_risk":0,"updated_at":"2026-03-27T14:27:57.936130+05:30"},{"city":"Imphal","state":"Manipur","latitude":24.817,"longitude":93.9368,"temp":24.0,"humidity":46,"rain":0.0,"pressure":922.5,"uv_index":8.55,"wind_gusts":43.2,"aqi":124,"pm10":42.8,"pm2_5":27.0,"mosquito_risk":0,"arthritis_risk":5,"migraine_risk":7,"frizz_risk":0,"updated_at":"2026-03-27T14:27:57.936137+05:30"},{"city":"Aizawl","state":"Mizoram","latitude":23.7271,"longitude":92.7176,"temp":27.1,"humidity":35,"rain":0.0,"pressure":893.1,"uv_index":8.5,"wind_gusts":30.6,"aqi":99,"pm10":49.2,"pm2_5":28.6,"mosquito_risk":4,"arthritis_risk":5,"migraine_risk":7,"frizz_risk":0,"updated_at":"2026-03-27T14:27:57.936144+05:30"},{"city":"Kohima","state":"Nagaland","latitude":25.6701,"longitude":94.1077,"temp":17.9,"humidity":74,"rain":0.0,"pressure":854.7,"uv_index":8.45,"wind_gusts":71.6,"aqi":95,"pm10":35.5,"pm2_5":22.5,"mosquito_risk":3,"arthritis_risk":5,"migraine_risk":7,"frizz_risk":0,"updated_at":"2026-03-27T14:27:57.936150+05:30"},{"city":"Gangtok","state":"Sikkim","latitude":27.3314,"longitude":88.6138,"temp":17.4,"humidity":77,"rain":0.0,"pressure":836.3,"uv_index":7.65,"wind_gusts":21.2,"aqi":110,"pm10":47.5,"pm2_5":34.3,"mosquito_risk":3,"arthritis_risk":5,"migraine_risk":7,"frizz_risk":0,"updated_at":"2026-03-27T14:27:57.936156+05:30"},{"city":"Siliguri","state":"West Bengal","latitude":26.7271,"longitude":88.3953,"temp":22.6,"humidity":79,"rain":0.0,"pressure":993.6,"uv_index":7.8,"wind_gusts":33.1,"aqi":159,"pm10":82.2,"pm2_5":54.1,"mosquito_risk":3,"arthritis_risk":5,"migraine_risk":7,"frizz_risk":1,"updated_at":"2026-03-27T14:28:01.214501+05:30"},{"city":"Durgapur","state":"West Bengal","latitude":23.5204,"longitude":87.3119,"temp":37.1,"humidity":26,"rain":0.0,"pressure":992.9,"uv_index":8.4,"wind_gusts":19.8,"aqi":154,"pm10":59.8,"pm2_5":33.6,"mosquito_risk":0,"arthritis_risk":5,"migraine_risk":10,"frizz_risk":0,"updated_at":"2026-03-27T14:28:01.214543+05:30"},{"city":"Asansol","state":"West Bengal","latitude":23.6739,"longitude":86.9524,"temp":36.9,"humidity":22,"rain":0.0,"pressure":991.5,"uv_index":8.45,"wind_gusts":20.2,"aqi":116,"pm10":53.8,"pm2_5":26.5,"mosquito_risk":0,"arthritis_risk":5,"migraine_risk":10,"frizz_risk":0,"updated_at":"2026-03-27T14:28:01.214559+05:30"},{"city":"Pondicherry","state":"Puducherry","latitude":11.9139,"longitude":79.8145,"temp":33.8,"humidity":54,"rain":0.0,"pressure":1007.6,"uv_index":9.2,"wind_gusts":25.6,"aqi":68,"pm10":35.7,"pm2_5":19.2,"mosquito_risk":0,"arthritis_risk":5,"migraine_risk":4,"frizz_risk":1,"updated_at":"2026-03-27T14:28:01.214572+05:30"},{"city":"Port Blair","state":"Andaman and Nicobar Islands","latitude":11.6234,"longitude":92.7265,"temp":28.1,"humidity":80,"rain":0.0,"pressure":1005.4,"uv_index":9.15,"wind_gusts":23.0,"aqi":57,"pm10":35.9,"pm2_5":25.2,"mosquito_risk":7,"arthritis_risk":5,"migraine_risk":4,"frizz_risk":1,"updated_at":"2026-03-27T14:28:01.214586+05:30"},{"city":"Haridwar","state":"Uttarakhand","latitude":29.9457,"longitude":78.1642,"temp":27.7,"humidity":40,"rain":0.0,"pressure":974.0,"uv_index":5.5,"wind_gusts":38.5,"aqi":77,"pm10":31.2,"pm2_5":18.2,"mosquito_risk":4,"arthritis_risk":5,"migraine_risk":3,"frizz_risk":0,"updated_at":"2026-03-27T14:28:01.214600+05:30"},{"city":"Rishikesh","state":"Uttarakhand","latitude":30.0869,"longitude":78.2676,"temp":27.4,"humidity":41,"rain":0.0,"pressure":966.5,"uv_index":6.05,"wind_gusts":29.5,"aqi":60,"pm10":29.3,"pm2_5":12.3,"mosquito_risk":4,"arthritis_risk":5,"migraine_risk":7,"frizz_risk":0,"updated_at":"2026-03-27T14:28:01.214613+05:30"},{"city":"Nainital","state":"Uttarakhand","latitude":29.3919,"longitude":79.4542,"temp":22.6,"humidity":41,"rain":0.0,"pressure":806.6,"uv_index":6.5,"wind_gusts":58.0,"aqi":50,"pm10":24.4,"pm2_5":8.8,"mosquito_risk":0,"arthritis_risk":5,"migraine_risk":7,"frizz_risk":0,"updated_at":"2026-03-27T14:28:01.214625+05:30"},{"city":"Mussoorie","state":"Uttarakhand","latitude":30.4599,"longitude":78.0664,"temp":18.7,"humidity":56,"rain":0.0,"pressure":802.6,"uv_index":6.25,"wind_gusts":28.4,"aqi":68,"pm10":33.5,"pm2_5":18.5,"mosquito_risk":0,"arthritis_risk":5,"migraine_risk":7,"frizz_risk":0,"updated_at":"2026-03-27T14:28:01.214638+05:30"},{"city":"Dharamshala","state":"Himachal Pradesh","latitude":32.219,"longitude":76.3234,"temp":22.1,"humidity":66,"rain":0.0,"pressure":869.2,"uv_index":6.95,"wind_gusts":20.2,"aqi":47,"pm10":26.3,"pm2_5":13.4,"mosquito_risk":3,"arthritis_risk":5,"migraine_risk":7,"frizz_risk":0,"updated_at":"2026-03-27T14:28:01.214651+05:30"},{"city":"Dalhousie","state":"Himachal Pradesh","latitude":32.5387,"longitude":75.971,"temp":21.5,"humidity":51,"rain":0.0,"pressure":804.7,"uv_index":7.2,"wind_gusts":22.7,"aqi":69,"pm10":21.7,"pm2_5":14.6,"mosquito_risk":0,"arthritis_risk":5,"migraine_risk":7,"frizz_risk":0,"updated_at":"2026-03-27T14:28:01.214664+05:30"},{"city":"Patiala","state":"Punjab","latitude":30.3398,"longitude":76.3869,"temp":29.2,"humidity":41,"rain":0.0,"pressure":978.6,"uv_index":6.3,"wind_gusts":34.2,"aqi":172,"pm10":56.6,"pm2_5":19.3,"mosquito_risk":4,"arthritis_risk":5,"migraine_risk":7,"frizz_risk":0,"updated_at":"2026-03-27T14:28:01.214677+05:30"},{"city":"Bhatinda","state":"Punjab","latitude":30.211,"longitude":74.9455,"temp":30.5,"humidity":36,"rain":0.0,"pressure":984.1,"uv_index":7.0,"wind_gusts":29.9,"aqi":83,"pm10":43.1,"pm2_5":17.8,"mosquito_risk":0,"arthritis_risk":5,"migraine_risk":7,"frizz_risk":0,"updated_at":"2026-03-27T14:28:01.214688+05:30"},{"city":"Rohtak","state":"Haryana","latitude":28.8955,"longitude":76.6066,"temp":30.1,"humidity":39,"rain":0.0,"pressure":982.2,"uv_index":6.55,"wind_gusts":35.3,"aqi":184,"pm10":389.3,"pm2_5":54.6,"mosquito_risk":0,"arthritis_risk":5,"migraine_risk":7,"frizz_risk":0,"updated_at":"2026-03-27T14:28:01.214701+05:30"},{"city":"Panipat","state":"Haryana","latitude":29.3909,"longitude":76.9635,"temp":29.0,"humidity":43,"rain":0.0,"pressure":980.7,"uv_index":6.35,"wind_gusts":41.8,"aqi":335,"pm10":657.5,"pm2_5":72.4,"mosquito_risk":4,"arthritis_risk":5,"migraine_risk":7,"frizz_risk":0,"updated_at":"2026-03-27T14:28:01.214713+05:30"},{"city":"Mathura","state":"Uttar Pradesh","latitude":27.4924,"longitude":77.6737,"temp":31.7,"humidity":39,"rain":0.0,"pressure":986.8,"uv_index":6.75,"wind_gusts":36.0,"aqi":534,"pm10":488.0,"pm2_5":59.5,"mosquito_risk":0,"arthritis_risk":5,"migraine_risk":7,"frizz_risk":1,"updated_at":"2026-03-27T14:28:01.214726+05:30"},{"city":"Vrindavan","state":"Uttar Pradesh","latitude":27.5823,"longitude":77.7027,"temp":31.2,"humidity":40,"rain":0.0,"pressure":987.3,"uv_index":6.5,"wind_gusts":39.2,"aqi":534,"pm10":488.0,"pm2_5":59.5,"mosquito_risk":0,"arthritis_risk":5,"migraine_risk":7,"frizz_risk":0,"updated_at":"2026-03-27T14:28:01.214739+05:30"},{"city":"Ayodhya","state":"Uttar Pradesh","latitude":26.7922,"longitude":82.1998,"temp":31.8,"humidity":32,"rain":0.0,"pressure":994.5,"uv_index":5.5,"wind_gusts":52.6,"aqi":78,"pm10":53.4,"pm2_5":17.8,"mosquito_risk":0,"arthritis_risk":5,"migraine_risk":3,"frizz_risk":0,"updated_at":"2026-03-27T14:28:01.214753+05:30"},{"city":"Ratlam","state":"Madhya Pradesh","latitude":23.3315,"longitude":75.0367,"temp":34.3,"humidity":23,"rain":0.0,"pressure":955.1,"uv_index":8.05,"wind_gusts":33.8,"aqi":36,"pm10":13.8,"pm2_5":5.7,"mosquito_risk":0,"arthritis_risk":5,"migraine_risk":7,"frizz_risk":0,"updated_at":"2026-03-27T14:28:01.214767+05:30"},{"city":"Sagar","state":"Madhya Pradesh","latitude":23.8388,"longitude":78.7378,"temp":37.0,"humidity":20,"rain":0.0,"pressure":948.8,"uv_index":8.05,"wind_gusts":40.0,"aqi":47,"pm10":14.0,"pm2_5":5.8,"mosquito_risk":0,"arthritis_risk":5,"migraine_risk":10,"frizz_risk":0,"updated_at":"2026-03-27T14:28:01.214780+05:30"},{"city":"Satna","state":"Madhya Pradesh","latitude":24.6005,"longitude":80.8322,"temp":29.9,"humidity":45,"rain":0.0,"pressure":971.4,"uv_index":7.75,"wind_gusts":38.5,"aqi":65,"pm10":97.1,"pm2_5":22.6,"mosquito_risk":4,"arthritis_risk":5,"migraine_risk":7,"frizz_risk":1,"updated_at":"2026-03-27T14:28:01.214793+05:30"},{"city":"Akola","state":"Maharashtra","latitude":20.7002,"longitude":77.0082,"temp":38.3,"humidity":23,"rain":0.0,"pressure":974.4,"uv_index":8.45,"wind_gusts":41.4,"aqi":65,"pm10":21.0,"pm2_5":14.9,"mosquito_risk":0,"arthritis_risk":5,"migraine_risk":10,"frizz_risk":0,"updated_at":"2026-03-27T14:28:01.214807+05:30"},{"city":"Amravati","state":"Maharashtra","latitude":20.9374,"longitude":77.7796,"temp":37.9,"humidity":21,"rain":0.0,"pressure":966.7,"uv_index":8.45,"wind_gusts":40.3,"aqi":64,"pm10":19.6,"pm2_5":13.8,"mosquito_risk":0,"arthritis_risk":5,"migraine_risk":10,"frizz_risk":0,"updated_at":"2026-03-27T14:28:01.214843+05:30"},{"city":"Latur","state":"Maharashtra","latitude":18.4088,"longitude":76.5604,"temp":36.8,"humidity":21,"rain":0.0,"pressure":940.0,"uv_index":8.8,"wind_gusts":27.7,"aqi":91,"pm10":40.6,"pm2_5":30.2,"mosquito_risk":0,"arthritis_risk":5,"migraine_risk":10,"frizz_risk":0,"updated_at":"2026-03-27T14:28:01.214859+05:30"},{"city":"Nanded","state":"Maharashtra","latitude":19.1383,"longitude":77.3091,"temp":38.9,"humidity":19,"rain":0.0,"pressure":968.0,"uv_index":8.65,"wind_gusts":26.3,"aqi":87,"pm10":23.8,"pm2_5":17.0,"mosquito_risk":0,"arthritis_risk":5,"migraine_risk":10,"frizz_risk":0,"updated_at":"2026-03-27T14:28:01.214872+05:30"},{"city":"Gulbarga","state":"Karnataka","latitude":17.3297,"longitude":76.8343,"temp":38.5,"humidity":23,"rain":0.0,"pressure":958.3,"uv_index":8.85,"wind_gusts":32.0,"aqi":90,"pm10":35.9,"pm2_5":27.8,"mosquito_risk":0,"arthritis_risk":5,"migraine_risk":10,"frizz_risk":0,"updated_at":"2026-03-27T14:28:01.214884+05:30"},{"city":"Bidar","state":"Karnataka","latitude":17.9104,"longitude":77.5199,"temp":36.4,"humidity":26,"rain":0.0,"pressure":935.9,"uv_index":8.85,"wind_gusts":29.9,"aqi":89,"pm10":36.3,"pm2_5":28.8,"mosquito_risk":0,"arthritis_risk":5,"migraine_risk":10,"frizz_risk":0,"updated_at":"2026-03-27T14:28:01.214897+05:30"},{"city":"Hospet","state":"Karnataka","latitude":15.2689,"longitude":76.3909,"temp":36.2,"humidity":25,"rain":0.0,"pressure":955.9,"uv_index":9.1,"wind_gusts":23.8,"aqi":84,"pm10":29.6,"pm2_5":22.3,"mosquito_risk":0,"arthritis_risk":5,"migraine_risk":10,"frizz_risk":0,"updated_at":"2026-03-27T14:28:01.214909+05:30"},{"city":"Tirupur","state":"Tamil Nadu","latitude":11.1085,"longitude":77.3411,"temp":37.7,"humidity":21,"rain":0.0,"pressure":974.3,"uv_index":9.4,"wind_gusts":30.6,"aqi":94,"pm10":32.2,"pm2_5":24.3,"mosquito_risk":0,"arthritis_risk":5,"migraine_risk":10,"frizz_risk":0,"updated_at":"2026-03-27T14:28:01.214920+05:30"},{"city":"Alappuzha","state":"Kerala","latitude":9.4981,"longitude":76.3388,"temp":29.2,"humidity":78,"rain":0.0,"pressure":1007.5,"uv_index":9.15,"wind_gusts":34.9,"aqi":85,"pm10":33.2,"pm2_5":27.6,"mosquito_risk":7,"arthritis_risk":5,"migraine_risk":4,"frizz_risk":1,"updated_at":"2026-03-27T14:28:01.214931+05:30"},{"city":"Munnar","state":"Kerala","latitude":10.0889,"longitude":77.0595,"temp":32.2,"humidity":33,"rain":0.0,"pressure":859.3,"uv_index":9.65,"wind_gusts":33.8,"aqi":72,"pm10":22.9,"pm2_5":14.4,"mosquito_risk":0,"arthritis_risk":5,"migraine_risk":7,"frizz_risk":0,"updated_at":"2026-03-27T14:28:01.214947+05:30"},{"city":"Silchar","state":"Assam","latitude":24.8333,"longitude":92.7789,"temp":32.0,"humidity":43,"rain":0.0,"pressure":1003.4,"uv_index":8.25,"wind_gusts":16.9,"aqi":154,"pm10":75.0,"pm2_5":45.5,"mosquito_risk":0,"arthritis_risk":5,"migraine_risk":4,"frizz_risk":1,"updated_at":"2026-03-27T14:28:01.214960+05:30"},{"city":"Dibrugarh","state":"Assam","latitude":27.4728,"longitude":94.912,"temp":26.5,"humidity":65,"rain":0.0,"pressure":995.6,"uv_index":4.8,"wind_gusts":10.8,"aqi":122,"pm10":62.6,"pm2_5":40.7,"mosquito_risk":7,"arthritis_risk":5,"migraine_risk":3,"frizz_risk":1,"updated_at":"2026-03-27T14:28:01.214972+05:30"}]