[{"city":"Delhi","state":"Delhi","latitude":28.6139,"longitude":77.209,"temp":17.9,"humidity":86,"rain":0.0,"pressure":987.5,"uv_index":6.45,"wind_gusts":31.7,"aqi":159,"pm10":215.6,"pm2_5":69.4,"mosquito_risk":3,"arthritis_risk":10,"migraine_risk":7,"frizz_risk":0,"updated_at":"2026-03-22T03:59:03.930555+05:30"},{"city":"Mumbai","state":"Maharashtra","latitude":19.076,"longitude":72.8777,"temp":27.8,"humidity":61,"rain":0.0,"pressure":1008.8,"uv_index":7.9,"wind_gusts":30.2,"aqi":83,"pm10":32.1,"pm2_5":26.2,"mosquito_risk":7,"arthritis_risk":0,"migraine_risk":4,"frizz_risk":1,"updated_at":"2026-03-22T03:59:03.930611+05:30"},{"city":"Bangalore","state":"Karnataka","latitude":12.9716,"longitude":77.5946,"temp":22.3,"humidity":89,"rain":0.0,"pressure":911.6,"uv_index":9.45,"wind_gusts":26.6,"aqi":98,"pm10":46.1,"pm2_5":41.3,"mosquito_risk":3,"arthritis_risk":5,"migraine_risk":7,"frizz_risk":1,"updated_at":"2026-03-22T03:59:03.930627+05:30"},{"city":"Hyderabad","state":"Telangana","latitude":17.385,"longitude":78.4867,"temp":23.5,"humidity":87,"rain":0.0,"pressure":953.4,"uv_index":8.9,"wind_gusts":23.8,"aqi":99,"pm10":43.9,"pm2_5":33.2,"mosquito_risk":3,"arthritis_risk":5,"migraine_risk":7,"frizz_risk":1,"updated_at":"2026-03-22T03:59:03.930637+05:30"},{"city":"Chennai","state":"Tamil Nadu","latitude":13.0827,"longitude":80.2707,"temp":27.0,"humidity":83,"rain":0.0,"pressure":1008.3,"uv_index":9.2,"wind_gusts":32.0,"aqi":40,"pm10":14.8,"pm2_5":9.8,"mosquito_risk":7,"arthritis_risk":0,"migraine_risk":4,"frizz_risk":1,"updated_at":"2026-03-22T03:59:03.930647+05:30"},{"city":"Kolkata","state":"West Bengal","latitude":22.5726,"longitude":88.3639,"temp":20.2,"humidity":92,"rain":0.0,"pressure":1009.4,"uv_index":8.25,"wind_gusts":22.7,"aqi":82,"pm10":45.1,"pm2_5":43.4,"mosquito_risk":3,"arthritis_risk":0,"migraine_risk":4,"frizz_risk":1,"updated_at":"2026-03-22T03:59:03.930656+05:30"},{"city":"Pune","state":"Maharashtra","latitude":18.5204,"longitude":73.8567,"temp":22.4,"humidity":71,"rain":0.0,"pressure":948.6,"uv_index":8.45,"wind_gusts":26.3,"aqi":83,"pm10":46.6,"pm2_5":42.7,"mosquito_risk":3,"arthritis_risk":5,"migraine_risk":7,"frizz_risk":1,"updated_at":"2026-03-22T03:59:03.930668+05:30"},{"city":"Ahmedabad","state":"Gujarat","latitude":23.0225,"longitude":72.5714,"temp":22.1,"humidity":54,"rain":0.0,"pressure":1004.7,"uv_index":7.8,"wind_gusts":20.2,"aqi":72,"pm10":33.9,"pm2_5":23.3,"mosquito_risk":0,"arthritis_risk":5,"migraine_risk":4,"frizz_risk":0,"updated_at":"2026-03-22T03:59:03.930677+05:30"},{"city":"Jaipur","state":"Rajasthan","latitude":26.9124,"longitude":75.7873,"temp":19.1,"humidity":74,"rain":0.0,"pressure":963.4,"uv_index":7.25,"wind_gusts":29.5,"aqi":79,"pm10":114.8,"pm2_5":31.1,"mosquito_risk":3,"arthritis_risk":5,"migraine_risk":7,"frizz_risk":0,"updated_at":"2026-03-22T03:59:03.930685+05:30"},{"city":"Lucknow","state":"Uttar Pradesh","latitude":26.8467,"longitude":80.9462,"temp":19.5,"humidity":83,"rain":0.0,"pressure":997.8,"uv_index":6.9,"wind_gusts":26.6,"aqi":104,"pm10":61.9,"pm2_5":60.1,"mosquito_risk":3,"arthritis_risk":10,"migraine_risk":7,"frizz_risk":1,"updated_at":"2026-03-22T03:59:03.930693+05:30"},{"city":"Kanpur","state":"Uttar Pradesh","latitude":26.4499,"longitude":80.3319,"temp":18.0,"humidity":81,"rain":0.0,"pressure":996.0,"uv_index":7.0,"wind_gusts":29.5,"aqi":119,"pm10":126.7,"pm2_5":56.0,"mosquito_risk":3,"arthritis_risk":10,"migraine_risk":7,"frizz_risk":0,"updated_at":"2026-03-22T03:59:03.930700+05:30"},{"city":"Chandigarh","state":"Chandigarh","latitude":30.7333,"longitude":76.7794,"temp":14.1,"humidity":95,"rain":0.0,"pressure":972.7,"uv_index":6.35,"wind_gusts":34.9,"aqi":81,"pm10":35.5,"pm2_5":31.4,"mosquito_risk":3,"arthritis_risk":10,"migraine_risk":7,"frizz_risk":0,"updated_at":"2026-03-22T03:59:03.930708+05:30"},{"city":"Srinagar","state":"Jammu and Kashmir","latitude":34.0837,"longitude":74.7973,"temp":3.9,"humidity":89,"rain":0.0,"pressure":839.7,"uv_index":7.45,"wind_gusts":14.0,"aqi":93,"pm10":57.4,"pm2_5":53.0,"mosquito_risk":3,"arthritis_risk":10,"migraine_risk":7,"frizz_risk":0,"updated_at":"2026-03-22T03:59:03.930716+05:30"},{"city":"Jammu","state":"Jammu and Kashmir","latitude":32.7266,"longitude":74.857,"temp":14.1,"humidity":93,"rain":0.0,"pressure":977.5,"uv_index":6.5,"wind_gusts":23.4,"aqi":101,"pm10":42.0,"pm2_5":38.6,"mosquito_risk":3,"arthritis_risk":10,"migraine_risk":7,"frizz_risk":0,"updated_at":"2026-03-22T03:59:03.930723+05:30"},{"city":"Amritsar","state":"Punjab","latitude":31.634,"longitude":74.8723,"temp":14.4,"humidity":90,"rain":0.0,"pressure":986.1,"uv_index":6.75,"wind_gusts":22.3,"aqi":147,"pm10":98.5,"pm2_5":88.7,"mosquito_risk":3,"arthritis_risk":10,"migraine_risk":7,"frizz_risk":0,"updated_at":"2026-03-22T03:59:03.930731+05:30"},{"city":"Ludhiana","state":"Punjab","latitude":30.901,"longitude":75.8573,"temp":15.1,"humidity":90,"rain":0.0,"pressure":983.5,"uv_index":6.45,"wind_gusts":27.7,"aqi":151,"pm10":63.6,"pm2_5":53.9,"mosquito_risk":3,"arthritis_risk":10,"migraine_risk":7,"frizz_risk":0,"updated_at":"2026-03-22T03:59:03.930738+05:30"},{"city":"Jalandhar","state":"Punjab","latitude":31.326,"longitude":75.5762,"temp":15.0,"humidity":91,"rain":0.0,"pressure":984.9,"uv_index":6.75,"wind_gusts":24.1,"aqi":139,"pm10":82.9,"pm2_5":71.9,"mosquito_risk":3,"arthritis_risk":10,"migraine_risk":7,"frizz_risk":0,"updated_at":"2026-03-22T03:59:03.930762+05:30"},{"city":"Dehradun","state":"Uttarakhand","latitude":30.6284,"longitude":78.0322,"temp":8.4,"humidity":89,"rain":0.0,"pressure":828.2,"uv_index":6.4,"wind_gusts":23.0,"aqi":38,"pm10":21.0,"pm2_5":16.2,"mosquito_risk":3,"arthritis_risk":10,"migraine_risk":7,"frizz_risk":0,"updated_at":"2026-03-22T03:59:03.930770+05:30"},{"city":"Shimla","state":"Himachal Pradesh","latitude":31.1048,"longitude":77.1734,"temp":6.2,"humidity":87,"rain":0.0,"pressure":781.1,"uv_index":6.65,"wind_gusts":33.8,"aqi":56,"pm10":34.2,"pm2_5":25.4,"mosquito_risk":3,"arthritis_risk":10,"migraine_risk":7,"frizz_risk":0,"updated_at":"2026-03-22T03:59:03.930778+05:30"},{"city":"Manali","state":"Himachal Pradesh","latitude":32.2396,"longitude":77.1887,"temp":8.9,"humidity":38,"rain":0.0,"pressure":816.8,"uv_index":8.8,"wind_gusts":29.9,"aqi":47,"pm10":19.8,"pm2_5":15.4,"mosquito_risk":0,"arthritis_risk":5,"migraine_risk":7,"frizz_risk":1,"updated_at":"2026-03-22T03:59:03.930785+05:30"},{"city":"Gurgaon","state":"Haryana","latitude":28.4595,"longitude":77.0266,"temp":16.2,"humidity":92,"rain":0.0,"pressure":986.0,"uv_index":6.55,"wind_gusts":28.8,"aqi":207,"pm10":235.2,"pm2_5":75.0,"mosquito_risk":3,"arthritis_risk":10,"migraine_risk":7,"frizz_risk":0,"updated_at":"2026-03-22T03:59:03.930793+05:30"},{"city":"Noida","state":"Uttar Pradesh","latitude":28.5355,"longitude":77.391,"temp":17.7,"humidity":87,"rain":0.0,"pressure":989.0,"uv_index":6.45,"wind_gusts":31.0,"aqi":207,"pm10":235.2,"pm2_5":75.0,"mosquito_risk":3,"arthritis_risk":10,"migraine_risk":7,"frizz_risk":0,"updated_at":"2026-03-22T03:59:03.930800+05:30"},{"city":"Ghaziabad","state":"Uttar Pradesh","latitude":28.6692,"longitude":77.4538,"temp":16.6,"humidity":91,"rain":0.0,"pressure":987.1,"uv_index":6.45,"wind_gusts":31.0,"aqi":154,"pm10":189.1,"pm2_5":64.7,"mosquito_risk":3,"arthritis_risk":10,"migraine_risk":7,"frizz_risk":0,"updated_at":"2026-03-22T03:59:03.930807+05:30"},{"city":"Faridabad","state":"Haryana","latitude":28.4089,"longitude":77.3178,"temp":16.5,"humidity":91,"rain":0.0,"pressure":988.2,"uv_index":6.5,"wind_gusts":28.8,"aqi":207,"pm10":235.2,"pm2_5":75.0,"mosquito_risk":3,"arthritis_risk":10,"migraine_risk":7,"frizz_risk":0,"updated_at":"2026-03-22T03:59:03.930815+05:30"},{"city":"Meerut","state":"Uttar Pradesh","latitude":28.9845,"longitude":77.7064,"temp":15.4,"humidity":93,"rain":0.0,"pressure":985.7,"uv_index":6.35,"wind_gusts":32.8,"aqi":154,"pm10":189.1,"pm2_5":64.7,"mosquito_risk":3,"arthritis_risk":10,"migraine_risk":7,"frizz_risk":0,"updated_at":"2026-03-22T03:59:03.930822+05:30"},{"city":"Agra","state":"Uttar Pradesh","latitude":27.1767,"longitude":78.0081,"temp":17.5,"humidity":87,"rain":0.0,"pressure":992.4,"uv_index":6.7,"wind_gusts":31.0,"aqi":408,"pm10":724.6,"pm2_5":120.6,"mosquito_risk":3,"arthritis_risk":10,"migraine_risk":7,"frizz_risk":0,"updated_at":"2026-03-22T03:59:03.930829+05:30"},{"city":"Varanasi","state":"Uttar Pradesh","latitude":25.3176,"longitude":82.9739,"temp":17.5,"humidity":93,"rain":0.0,"pressure":1002.0,"uv_index":7.6,"wind_gusts":27.4,"aqi":97,"pm10":50.5,"pm2_5":45.1,"mosquito_risk":3,"arthritis_risk":10,"migraine_risk":4,"frizz_risk":1,"updated_at":"2026-03-22T03:59:03.930840+05:30"},{"city":"Prayagraj","state":"Uttar Pradesh","latitude":25.4358,"longitude":81.8463,"temp":18.5,"humidity":86,"rain":0.0,"pressure":1000.4,"uv_index":7.5,"wind_gusts":23.8,"aqi":105,"pm10":69.6,"pm2_5":63.8,"mosquito_risk":3,"arthritis_risk":10,"migraine_risk":4,"frizz_risk":1,"updated_at":"2026-03-22T03:59:03.930848+05:30"},{"city":"Gorakhpur","state":"Uttar Pradesh","latitude":26.7606,"longitude":83.3732,"temp":15.4,"humidity":100,"rain":0.0,"pressure":1001.8,"uv_index":7.3,"wind_gusts":13.0,"aqi":147,"pm10":118.5,"pm2_5":115.9,"mosquito_risk":3,"arthritis_risk":10,"migraine_risk":4,"frizz_risk":0,"updated_at":"2026-03-22T03:59:03.930855+05:30"},{"city":"Bareilly","state":"Uttar Pradesh","latitude":28.367,"longitude":79.4304,"temp":15.9,"humidity":96,"rain":0.0,"pressure":991.2,"uv_index":6.65,"wind_gusts":29.9,"aqi":116,"pm10":54.9,"pm2_5":51.3,"mosquito_risk":3,"arthritis_risk":10,"migraine_risk":7,"frizz_risk":0,"updated_at":"2026-03-22T03:59:03.930865+05:30"},{"city":"Aligarh","state":"Uttar Pradesh","latitude":27.8974,"longitude":78.088,"temp":16.4,"humidity":90,"rain":0.0,"pressure":990.0,"uv_index":6.55,"wind_gusts":31.3,"aqi":173,"pm10":307.3,"pm2_5":81.5,"mosquito_risk":3,"arthritis_risk":10,"migraine_risk":7,"frizz_risk":0,"updated_at":"2026-03-22T03:59:03.930872+05:30"},{"city":"Moradabad","state":"Uttar Pradesh","latitude":28.8386,"longitude":78.7733,"temp":15.7,"humidity":92,"rain":0.0,"pressure":987.9,"uv_index":6.5,"wind_gusts":31.0,"aqi":136,"pm10":77.5,"pm2_5":72.9,"mosquito_risk":3,"arthritis_risk":10,"migraine_risk":7,"frizz_risk":0,"updated_at":"2026-03-22T03:59:03.930879+05:30"},{"city":"Saharanpur","state":"Uttar Pradesh","latitude":29.9637,"longitude":77.546,"temp":14.1,"humidity":96,"rain":0.0,"pressure":979.6,"uv_index":6.15,"wind_gusts":35.6,"aqi":144,"pm10":105.2,"pm2_5":73.6,"mosquito_risk":3,"arthritis_risk":10,"migraine_risk":7,"frizz_risk":0,"updated_at":"2026-03-22T03:59:03.930886+05:30"},{"city":"Jhansi","state":"Uttar Pradesh","latitude":25.4484,"longitude":78.5685,"temp":18.7,"humidity":69,"rain":0.0,"pressure":981.9,"uv_index":7.45,"wind_gusts":29.2,"aqi":71,"pm10":89.2,"pm2_5":27.1,"mosquito_risk":3,"arthritis_risk":5,"migraine_risk":7,"frizz_risk":0,"updated_at":"2026-03-22T03:59:07.154288+05:30"},{"city":"Surat","state":"Gujarat","latitude":21.1702,"longitude":72.8311,"temp":24.2,"humidity":69,"rain":0.0,"pressure":1008.6,"uv_index":7.65,"wind_gusts":25.6,"aqi":106,"pm10":42.5,"pm2_5":32.2,"mosquito_risk":3,"arthritis_risk":0,"migraine_risk":4,"frizz_risk":1,"updated_at":"2026-03-22T03:59:07.154321+05:30"},{"city":"Vadodara","state":"Gujarat","latitude":22.3072,"longitude":73.1812,"temp":23.5,"humidity":49,"rain":0.0,"pressure":1006.3,"uv_index":7.8,"wind_gusts":16.9,"aqi":66,"pm10":36.4,"pm2_5":27.6,"mosquito_risk":0,"arthritis_risk":5,"migraine_risk":4,"frizz_risk":0,"updated_at":"2026-03-22T03:59:07.154336+05:30"},{"city":"Rajkot","state":"Gujarat","latitude":22.3039,"longitude":70.8022,"temp":22.5,"humidity":82,"rain":0.0,"pressure":997.4,"uv_index":7.6,"wind_gusts":26.3,"aqi":58,"pm10":51.7,"pm2_5":21.3,"mosquito_risk":3,"arthritis_risk":5,"migraine_risk":7,"frizz_risk":1,"updated_at":"2026-03-22T03:59:07.154348+05:30"},{"city":"Thane","state":"Maharashtra","latitude":19.2183,"longitude":72.9781,"temp":24.5,"humidity":59,"rain":0.0,"pressure":1008.4,"uv_index":7.9,"wind_gusts":43.2,"aqi":83,"pm10":32.1,"pm2_5":26.2,"mosquito_risk":0,"arthritis_risk":0,"migraine_risk":4,"frizz_risk":0,"updated_at":"2026-03-22T03:59:07.154358+05:30"},{"city":"Nagpur","state":"Maharashtra","latitude":21.1458,"longitude":79.0882,"temp":21.5,"humidity":47,"rain":0.0,"pressure":975.9,"uv_index":8.2,"wind_gusts":22.0,"aqi":55,"pm10":7.7,"pm2_5":7.4,"mosquito_risk":0,"arthritis_risk":5,"migraine_risk":7,"frizz_risk":0,"updated_at":"2026-03-22T03:59:07.154369+05:30"},{"city":"Nashik","state":"Maharashtra","latitude":19.9975,"longitude":73.7898,"temp":22.2,"humidity":50,"rain":0.0,"pressure":946.2,"uv_index":8.05,"wind_gusts":30.6,"aqi":59,"pm10":19.1,"pm2_5":17.2,"mosquito_risk":0,"arthritis_risk":5,"migraine_risk":7,"frizz_risk":0,"updated_at":"2026-03-22T03:59:07.154380+05:30"},{"city":"Aurangabad","state":"Maharashtra","latitude":19.8762,"longitude":75.3433,"temp":21.9,"humidity":50,"rain":0.0,"pressure":944.7,"uv_index":8.6,"wind_gusts":25.9,"aqi":53,"pm10":17.5,"pm2_5":16.2,"mosquito_risk":0,"arthritis_risk":5,"migraine_risk":7,"frizz_risk":0,"updated_at":"2026-03-22T03:59:07.154391+05:30"},{"city":"Solapur","state":"Maharashtra","latitude":17.6599,"longitude":75.9064,"temp":23.4,"humidity":54,"rain":0.0,"pressure":956.8,"uv_index":8.75,"wind_gusts":25.9,"aqi":65,"pm10":27.0,"pm2_5":19.0,"mosquito_risk":0,"arthritis_risk":5,"migraine_risk":7,"frizz_risk":0,"updated_at":"2026-03-22T03:59:07.154401+05:30"},{"city":"Kolhapur","state":"Maharashtra","latitude":16.705,"longitude":74.2433,"temp":17.6,"humidity":74,"rain":0.0,"pressure":946.8,"uv_index":8.9,"wind_gusts":30.6,"aqi":89,"pm10":50.5,"pm2_5":40.6,"mosquito_risk":3,"arthritis_risk":5,"migraine_risk":7,"frizz_risk":0,"updated_at":"2026-03-22T03:59:07.154411+05:30"},{"city":"Goa","state":"Goa","latitude":15.2993,"longitude":74.124,"temp":22.9,"humidity":96,"rain":0.0,"pressure":997.3,"uv_index":8.85,"wind_gusts":35.3,"aqi":79,"pm10":59.6,"pm2_5":41.2,"mosquito_risk":3,"arthritis_risk":5,"migraine_risk":7,"frizz_risk":1,"updated_at":"2026-03-22T03:59:07.154422+05:30"},{"city":"Jodhpur","state":"Rajasthan","latitude":26.2389,"longitude":73.0243,"temp":20.9,"humidity":66,"rain":0.0,"pressure":986.8,"uv_index":7.55,"wind_gusts":22.3,"aqi":66,"pm10":50.5,"pm2_5":21.7,"mosquito_risk":3,"arthritis_risk":5,"migraine_risk":7,"frizz_risk":0,"updated_at":"2026-03-22T03:59:07.154432+05:30"},{"city":"Udaipur","state":"Rajasthan","latitude":24.5854,"longitude":73.7125,"temp":20.2,"humidity":58,"rain":0.0,"pressure":949.0,"uv_index":8.2,"wind_gusts":28.1,"aqi":55,"pm10":42.8,"pm2_5":21.1,"mosquito_risk":0,"arthritis_risk":5,"migraine_risk":7,"frizz_risk":0,"updated_at":"2026-03-22T03:59:07.154443+05:30"},{"city":"Kota","state":"Rajasthan","latitude":25.2138,"longitude":75.8648,"temp":20.1,"humidity":67,"rain":0.0,"pressure":982.6,"uv_index":7.6,"wind_gusts":13.7,"aqi":78,"pm10":44.9,"pm2_5":32.1,"mosquito_risk":3,"arthritis_risk":5,"migraine_risk":7,"frizz_risk":0,"updated_at":"2026-03-22T03:59:07.154453+05:30"},{"city":"Bikaner","state":"Rajasthan","latitude":28.0229,"longitude":73.3119,"temp":20.8,"humidity":66,"rain":0.0,"pressure":985.9,"uv_index":7.1,"wind_gusts":15.8,"aqi":55,"pm10":45.6,"pm2_5":21.9,"mosquito_risk":3,"arthritis_risk":5,"migraine_risk":7,"frizz_risk":0,"updated_at":"2026-03-22T03:59:07.154463+05:30"},{"city":"Ajmer","state":"Rajasthan","latitude":26.4499,"longitude":74.6399,"temp":20.5,"humidity":63,"rain":0.0,"pressure":957.8,"uv_index":7.5,"wind_gusts":22.0,"aqi":68,"pm10":55.6,"pm2_5":24.4,"mosquito_risk":3,"arthritis_risk":5,"migraine_risk":7,"frizz_risk":0,"updated_at":"2026-03-22T03:59:07.154473+05:30"},{"city":"Gwalior","state":"Madhya Pradesh","latitude":26.2183,"longitude":78.1828,"temp":20.3,"humidity":74,"rain":0.0,"pressure":987.5,"uv_index":6.95,"wind_gusts":34.9,"aqi":96,"pm10":449.8,"pm2_5":72.4,"mosquito_risk":3,"arthritis_risk":5,"migraine_risk":7,"frizz_risk":0,"updated_at":"2026-03-22T03:59:07.154483+05:30"},{"city":"Indore","state":"Madhya Pradesh","latitude":22.7196,"longitude":75.8577,"temp":19.6,"humidity":57,"rain":0.0,"pressure":949.8,"uv_index":8.05,"wind_gusts":18.7,"aqi":62,"pm10":23.6,"pm2_5":18.3,"mosquito_risk":0,"arthritis_risk":5,"migraine_risk":7,"frizz_risk":0,"updated_at":"2026-03-22T03:59:07.154492+05:30"},{"city":"Bhopal","state":"Madhya Pradesh","latitude":23.2599,"longitude":77.4126,"temp":19.4,"humidity":59,"rain":0.0,"pressure":956.0,"uv_index":7.9,"wind_gusts":24.5,"aqi":57,"pm10":16.1,"pm2_5":12.9,"mosquito_risk":0,"arthritis_risk":5,"migraine_risk":7,"frizz_risk":0,"updated_at":"2026-03-22T03:59:07.154502+05:30"},{"city":"Jabalpur","state":"Madhya Pradesh","latitude":23.1815,"longitude":79.9864,"temp":18.7,"humidity":63,"rain":0.0,"pressure":964.5,"uv_index":8.05,"wind_gusts":29.5,"aqi":58,"pm10":16.7,"pm2_5":14.5,"mosquito_risk":3,"arthritis_risk":5,"migraine_risk":7,"frizz_risk":0,"updated_at":"2026-03-22T03:59:07.154512+05:30"},{"city":"Ujjain","state":"Madhya Pradesh","latitude":23.1765,"longitude":75.7885,"temp":19.8,"humidity":59,"rain":0.0,"pressure":955.9,"uv_index":8.0,"wind_gusts":14.8,"aqi":67,"pm10":26.4,"pm2_5":21.7,"mosquito_risk":0,"arthritis_risk":5,"migraine_risk":7,"frizz_risk":0,"updated_at":"2026-03-22T03:59:07.154522+05:30"},{"city":"Visakhapatnam","state":"Andhra Pradesh","latitude":17.6868,"longitude":83.2185,"temp":23.7,"humidity":92,"rain":0.0,"pressure":1005.2,"uv_index":8.85,"wind_gusts":30.6,"aqi":81,"pm10":33.1,"pm2_5":29.8,"mosquito_risk":3,"arthritis_risk":5,"migraine_risk":4,"frizz_risk":1,"updated_at":"2026-03-22T03:59:07.154532+05:30"},{"city":"Vijayawada","state":"Andhra Pradesh","latitude":16.5062,"longitude":80.648,"temp":25.2,"humidity":91,"rain":0.0,"pressure":1004.0,"uv_index":8.25,"wind_gusts":19.8,"aqi":66,"pm10":20.0,"pm2_5":16.8,"mosquito_risk":7,"arthritis_risk":5,"migraine_risk":4,"frizz_risk":1,"updated_at":"2026-03-22T03:59:07.154543+05:30"},{"city":"Guntur","state":"Andhra Pradesh","latitude":16.3067,"longitude":80.4365,"temp":25.4,"humidity":92,"rain":0.0,"pressure":1005.0,"uv_index":8.25,"wind_gusts":23.4,"aqi":67,"pm10":19.3,"pm2_5":16.4,"mosquito_risk":7,"arthritis_risk":5,"migraine_risk":4,"frizz_risk":1,"updated_at":"2026-03-22T03:59:07.154553+05:30"},{"city":"Nellore","state":"Andhra Pradesh","latitude":14.4426,"longitude":79.9865,"temp":26.1,"humidity":88,"rain":0.0,"pressure":1006.9,"uv_index":9.1,"wind_gusts":30.6,"aqi":50,"pm10":14.0,"pm2_5":10.1,"mosquito_risk":7,"arthritis_risk":5,"migraine_risk":4,"frizz_risk":1,"updated_at":"2026-03-22T03:59:07.154578+05:30"},{"city":"Kurnool","state":"Andhra Pradesh","latitude":15.8281,"longitude":78.0373,"temp":26.2,"humidity":77,"rain":0.0,"pressure":977.0,"uv_index":8.95,"wind_gusts":25.6,"aqi":75,"pm10":23.5,"pm2_5":19.3,"mosquito_risk":7,"arthritis_risk":5,"migraine_risk":7,"frizz_risk":1,"updated_at":"2026-03-22T03:59:07.154590+05:30"},{"city":"Kakinada","state":"Andhra Pradesh","latitude":16.9891,"longitude":82.2475,"temp":23.2,"humidity":95,"rain":0.0,"pressure":1008.9,"uv_index":8.9,"wind_gusts":25.6,"aqi":37,"pm10":12.5,"pm2_5":8.0,"mosquito_risk":3,"arthritis_risk":0,"migraine_risk":4,"frizz_risk":1,"updated_at":"2026-03-22T03:59:07.154601+05:30"},{"city":"Tirupati","state":"Andhra Pradesh","latitude":13.6288,"longitude":79.4192,"temp":24.1,"humidity":89,"rain":0.0,"pressure":992.9,"uv_index":9.2,"wind_gusts":28.1,"aqi":78,"pm10":27.2,"pm2_5":23.3,"mosquito_risk":3,"arthritis_risk":5,"migraine_risk":7,"frizz_risk":1,"updated_at":"2026-03-22T03:59:07.154610+05:30"},{"city":"Warangal","state":"Telangana","latitude":17.9689,"longitude":79.5941,"temp":24.1,"humidity":87,"rain":0.0,"pressure":979.5,"uv_index":8.75,"wind_gusts":25.9,"aqi":95,"pm10":48.5,"pm2_5":40.9,"mosquito_risk":3,"arthritis_risk":5,"migraine_risk":7,"frizz_risk":1,"updated_at":"2026-03-22T03:59:07.154621+05:30"},{"city":"Nizamabad","state":"Telangana","latitude":18.6725,"longitude":78.0941,"temp":24.8,"humidity":68,"rain":0.0,"pressure":965.5,"uv_index":8.65,"wind_gusts":27.0,"aqi":83,"pm10":55.5,"pm2_5":39.9,"mosquito_risk":3,"arthritis_risk":5,"migraine_risk":7,"frizz_risk":1,"updated_at":"2026-03-22T03:59:07.154631+05:30"},{"city":"Mysore","state":"Karnataka","latitude":12.2958,"longitude":76.6396,"temp":22.4,"humidity":88,"rain":0.0,"pressure":928.5,"uv_index":9.4,"wind_gusts":28.1,"aqi":89,"pm10":55.6,"pm2_5":47.3,"mosquito_risk":3,"arthritis_risk":5,"migraine_risk":7,"frizz_risk":1,"updated_at":"2026-03-22T03:59:07.154641+05:30"},{"city":"Mangalore","state":"Karnataka","latitude":12.9141,"longitude":74.856,"temp":29.4,"humidity":76,"rain":0.0,"pressure":1006.2,"uv_index":9.1,"wind_gusts":25.6,"aqi":69,"pm10":38.1,"pm2_5":26.9,"mosquito_risk":7,"arthritis_risk":5,"migraine_risk":4,"frizz_risk":1,"updated_at":"2026-03-22T03:59:07.154652+05:30"},{"city":"Hubli-Dharwad","state":"Karnataka","latitude":15.3647,"longitude":75.124,"temp":21.1,"humidity":65,"rain":0.0,"pressure":940.1,"uv_index":9.05,"wind_gusts":33.5,"aqi":61,"pm10":31.5,"pm2_5":21.8,"mosquito_risk":3,"arthritis_risk":5,"migraine_risk":7,"frizz_risk":0,"updated_at":"2026-03-22T03:59:07.154662+05:30"},{"city":"Belgaum","state":"Karnataka","latitude":15.8497,"longitude":74.4977,"temp":21.6,"humidity":56,"rain":0.0,"pressure":924.8,"uv_index":9.1,"wind_gusts":37.1,"aqi":67,"pm10":49.9,"pm2_5":27.1,"mosquito_risk":0,"arthritis_risk":5,"migraine_risk":7,"frizz_risk":0,"updated_at":"2026-03-22T03:59:10.623167+05:30"},{"city":"Coimbatore","state":"Tamil Nadu","latitude":11.0168,"longitude":76.9558,"temp":22.6,"humidity":73,"rain":0.0,"pressure":962.5,"uv_index":9.4,"wind_gusts":32.4,"aqi":77,"pm10":31.5,"pm2_5":27.0,"mosquito_risk":3,"arthritis_risk":5,"migraine_risk":7,"frizz_risk":1,"updated_at":"2026-03-22T03:59:10.623198+05:30"},{"city":"Madurai","state":"Tamil Nadu","latitude":9.9252,"longitude":78.1198,"temp":24.7,"humidity":84,"rain":0.0,"pressure":993.7,"uv_index":9.35,"wind_gusts":29.2,"aqi":69,"pm10":27.0,"pm2_5":24.3,"mosquito_risk":3,"arthritis_risk":5,"migraine_risk":7,"frizz_risk":1,"updated_at":"2026-03-22T03:59:10.623212+05:30"},{"city":"Trichy","state":"Tamil Nadu","latitude":10.7905,"longitude":78.7047,"temp":25.6,"humidity":93,"rain":0.0,"pressure":1000.8,"uv_index":9.3,"wind_gusts":23.0,"aqi":58,"pm10":31.9,"pm2_5":27.4,"mosquito_risk":7,"arthritis_risk":5,"migraine_risk":4,"frizz_risk":1,"updated_at":"2026-03-22T03:59:10.623223+05:30"},{"city":"Salem","state":"Tamil Nadu","latitude":11.6643,"longitude":78.146,"temp":24.6,"humidity":84,"rain":0.0,"pressure":978.7,"uv_index":9.35,"wind_gusts":20.2,"aqi":78,"pm10":33.5,"pm2_5":28.3,"mosquito_risk":3,"arthritis_risk":5,"migraine_risk":7,"frizz_risk":1,"updated_at":"2026-03-22T03:59:10.623234+05:30"},{"city":"Tirunelveli","state":"Tamil Nadu","latitude":8.7139,"longitude":77.7567,"temp":25.0,"humidity":87,"rain":0.0,"pressure":1003.7,"uv_index":9.3,"wind_gusts":29.5,"aqi":81,"pm10":36.1,"pm2_5":33.9,"mosquito_risk":7,"arthritis_risk":5,"migraine_risk":4,"frizz_risk":1,"updated_at":"2026-03-22T03:59:10.623244+05:30"},{"city":"Vellore","state":"Tamil Nadu","latitude":12.9165,"longitude":79.1325,"temp":23.7,"humidity":90,"rain":0.0,"pressure":985.6,"uv_index":9.3,"wind_gusts":32.8,"aqi":107,"pm10":48.1,"pm2_5":43.0,"mosquito_risk":3,"arthritis_risk":5,"migraine_risk":7,"frizz_risk":1,"updated_at":"2026-03-22T03:59:10.623254+05:30"},{"city":"Erode","state":"Tamil Nadu","latitude":11.341,"longitude":77.7172,"temp":24.0,"humidity":85,"rain":0.0,"pressure":990.5,"uv_index":9.3,"wind_gusts":32.8,"aqi":59,"pm10":15.4,"pm2_5":13.0,"mosquito_risk":3,"arthritis_risk":5,"migraine_risk":7,"frizz_risk":1,"updated_at":"2026-03-22T03:59:10.623264+05:30"},{"city":"Kochi","state":"Kerala","latitude":9.9312,"longitude":76.2673,"temp":27.0,"humidity":83,"rain":0.0,"pressure":1009.0,"uv_index":9.15,"wind_gusts":29.5,"aqi":75,"pm10":26.6,"pm2_5":24.5,"mosquito_risk":7,"arthritis_risk":0,"migraine_risk":4,"frizz_risk":1,"updated_at":"2026-03-22T03:59:10.623274+05:30"},{"city":"Thiruvananthapuram","state":"Kerala","latitude":8.5241,"longitude":76.9366,"temp":27.2,"humidity":81,"rain":0.0,"pressure":1007.9,"uv_index":9.1,"wind_gusts":23.0,"aqi":63,"pm10":14.3,"pm2_5":12.0,"mosquito_risk":7,"arthritis_risk":5,"migraine_risk":4,"frizz_risk":1,"updated_at":"2026-03-22T03:59:10.623284+05:30"},{"city":"Kozhikode","state":"Kerala","latitude":11.2588,"longitude":75.7804,"temp":29.0,"humidity":78,"rain":0.0,"pressure":1007.6,"uv_index":9.1,"wind_gusts":27.0,"aqi":60,"pm10":30.0,"pm2_5":20.4,"mosquito_risk":7,"arthritis_risk":5,"migraine_risk":4,"frizz_risk":1,"updated_at":"2026-03-22T03:59:10.623294+05:30"},{"city":"Thrissur","state":"Kerala","latitude":10.5276,"longitude":76.2144,"temp":26.2,"humidity":82,"rain":0.0,"pressure":1007.2,"uv_index":9.15,"wind_gusts":34.6,"aqi":70,"pm10":24.1,"pm2_5":22.9,"mosquito_risk":7,"arthritis_risk":5,"migraine_risk":4,"frizz_risk":1,"updated_at":"2026-03-22T03:59:10.623305+05:30"},{"city":"Kannur","state":"Kerala","latitude":11.8745,"longitude":75.3704,"temp":28.2,"humidity":81,"rain":0.0,"pressure":1006.8,"uv_index":9.1,"wind_gusts":26.6,"aqi":64,"pm10":29.5,"pm2_5":21.8,"mosquito_risk":7,"arthritis_risk":5,"migraine_risk":4,"frizz_risk":1,"updated_at":"2026-03-22T03:59:10.623315+05:30"},{"city":"Patna","state":"Bihar","latitude":25.5941,"longitude":85.1376,"temp":18.3,"humidity":96,"rain":0.0,"pressure":1005.1,"uv_index":7.55,"wind_gusts":20.5,"aqi":151,"pm10":110.1,"pm2_5":104.5,"mosquito_risk":3,"arthritis_risk":10,"migraine_risk":4,"frizz_risk":1,"updated_at":"2026-03-22T03:59:10.623324+05:30"},{"city":"Gaya","state":"Bihar","latitude":24.7914,"longitude":85.0002,"temp":17.2,"humidity":97,"rain":0.0,"pressure":997.9,"uv_index":7.75,"wind_gusts":22.7,"aqi":125,"pm10":70.3,"pm2_5":65.7,"mosquito_risk":3,"arthritis_risk":10,"migraine_risk":7,"frizz_risk":1,"updated_at":"2026-03-22T03:59:10.623334+05:30"},{"city":"Muzaffarpur","state":"Bihar","latitude":26.1209,"longitude":85.3647,"temp":16.6,"humidity":100,"rain":0.0,"pressure":1005.1,"uv_index":7.65,"wind_gusts":14.0,"aqi":154,"pm10":137.8,"pm2_5":135.0,"mosquito_risk":3,"arthritis_risk":10,"migraine_risk":4,"frizz_risk":1,"updated_at":"2026-03-22T03:59:10.623344+05:30"},{"city":"Bhagalpur","state":"Bihar","latitude":25.2425,"longitude":87.0117,"temp":18.5,"humidity":97,"rain":0.0,"pressure":1005.4,"uv_index":7.2,"wind_gusts":18.4,"aqi":136,"pm10":98.7,"pm2_5":95.5,"mosquito_risk":3,"arthritis_risk":10,"migraine_risk":4,"frizz_risk":1,"updated_at":"2026-03-22T03:59:10.623353+05:30"},{"city":"Ranchi","state":"Jharkhand","latitude":23.3441,"longitude":85.3096,"temp":15.0,"humidity":95,"rain":0.0,"pressure":939.0,"uv_index":8.45,"wind_gusts":28.8,"aqi":89,"pm10":48.8,"pm2_5":44.1,"mosquito_risk":3,"arthritis_risk":10,"migraine_risk":7,"frizz_risk":0,"updated_at":"2026-03-22T03:59:10.623363+05:30"},{"city":"Jamshedpur","state":"Jharkhand","latitude":22.8046,"longitude":86.2029,"temp":20.4,"humidity":85,"rain":0.0,"pressure":994.5,"uv_index":8.35,"wind_gusts":19.8,"aqi":111,"pm10":72.2,"pm2_5":69.4,"mosquito_risk":3,"arthritis_risk":5,"migraine_risk":7,"frizz_risk":1,"updated_at":"2026-03-22T03:59:10.623373+05:30"},{"city":"Dhanbad","state":"Jharkhand","latitude":23.7957,"longitude":86.4304,"temp":18.3,"humidity":85,"rain":0.0,"pressure":982.9,"uv_index":7.7,"wind_gusts":22.7,"aqi":138,"pm10":71.5,"pm2_5":67.8,"mosquito_risk":3,"arthritis_risk":10,"migraine_risk":7,"frizz_risk":0,"updated_at":"2026-03-22T03:59:10.623382+05:30"},{"city":"Bokaro","state":"Jharkhand","latitude":23.6693,"longitude":86.1511,"temp":17.4,"humidity":96,"rain":0.0,"pressure":987.1,"uv_index":8.2,"wind_gusts":23.4,"aqi":136,"pm10":85.4,"pm2_5":81.3,"mosquito_risk":3,"arthritis_risk":10,"migraine_risk":7,"frizz_risk":1,"updated_at":"2026-03-22T03:59:10.623392+05:30"},{"city":"Bhubaneswar","state":"Odisha","latitude":20.2961,"longitude":85.8245,"temp":22.9,"humidity":91,"rain":0.0,"pressure":1004.9,"uv_index":8.6,"wind_gusts":30.2,"aqi":96,"pm10":31.9,"pm2_5":28.9,"mosquito_risk":3,"arthritis_risk":5,"migraine_risk":4,"frizz_risk":1,"updated_at":"2026-03-22T03:59:10.623402+05:30"},{"city":"Cuttack","state":"Odisha","latitude":20.4625,"longitude":85.8828,"temp":22.6,"humidity":86,"rain":0.0,"pressure":1007.2,"uv_index":8.35,"wind_gusts":21.6,"aqi":96,"pm10":31.9,"pm2_5":28.9,"mosquito_risk":3,"arthritis_risk":5,"migraine_risk":4,"frizz_risk":1,"updated_at":"2026-03-22T03:59:10.623411+05:30"},{"city":"Rourkela","state":"Odisha","latitude":22.2604,"longitude":84.8536,"temp":20.6,"humidity":80,"rain":0.0,"pressure":988.4,"uv_index":8.25,"wind_gusts":19.4,"aqi":95,"pm10":31.9,"pm2_5":29.4,"mosquito_risk":3,"arthritis_risk":5,"migraine_risk":7,"frizz_risk":1,"updated_at":"2026-03-22T03:59:10.623421+05:30"},{"city":"Raipur","state":"Chhattisgarh","latitude":21.2514,"longitude":81.6296,"temp":19.7,"humidity":61,"rain":0.0,"pressure":977.4,"uv_index":8.4,"wind_gusts":18.4,"aqi":108,"pm10":16.9,"pm2_5":16.6,"mosquito_risk":3,"arthritis_risk":5,"migraine_risk":7,"frizz_risk":0,"updated_at":"2026-03-22T03:59:10.623430+05:30"},{"city":"Bhilai","state":"Chhattisgarh","latitude":21.1938,"longitude":81.3509,"temp":19.1,"humidity":59,"rain":0.0,"pressure":977.6,"uv_index":8.4,"wind_gusts":14.8,"aqi":87,"pm10":18.8,"pm2_5":18.3,"mosquito_risk":0,"arthritis_risk":5,"migraine_risk":7,"frizz_risk":0,"updated_at":"2026-03-22T03:59:10.623440+05:30"},{"city":"Guwahati","state":"Assam","latitude":26.1158,"longitude":91.7086,"temp":19.5,"humidity":91,"rain":0.0,"pressure":1004.4,"uv_index":7.6,"wind_gusts":13.0,"aqi":84,"pm10":27.5,"pm2_5":24.9,"mosquito_risk":3,"arthritis_risk":10,"migraine_risk":4,"frizz_risk":1,"updated_at":"2026-03-22T03:59:10.623449+05:30"},{"city":"Agartala","state":"Tripura","latitude":23.8315,"longitude":91.2868,"temp":19.2,"humidity":90,"rain":0.0,"pressure":1008.8,"uv_index":8.0,"wind_gusts":18.4,"aqi":126,"pm10":62.2,"pm2_5":57.0,"mosquito_risk":3,"arthritis_risk":5,"migraine_risk":4,"frizz_risk":1,"updated_at":"2026-03-22T03:59:10.623459+05:30"},{"city":"Shillong","state":"Meghalaya","latitude":25.5788,"longitude":91.8933,"temp":9.7,"humidity":97,"rain":0.3,"pressure":853.8,"uv_index":7.95,"wind_gusts":19.1,"aqi":65,"pm10":11.2,"pm2_5":8.6,"mosquito_risk":6,"arthritis_risk":10,"migraine_risk":7,"frizz_risk":0,"updated_at":"2026-03-22T03:59:10.623469+05:30"},{"city":"Imphal","state":"Manipur","latitude":24.817,"longitude":93.9368,"temp":14.7,"humidity":90,"rain":0.2,"pressure":922.8,"uv_index":8.1,"wind_gusts":46.8,"aqi":86,"pm10":27.8,"pm2_5":25.7,"mosquito_risk":6,"arthritis_risk":10,"migraine_risk":7,"frizz_risk":0,"updated_at":"2026-03-22T03:59:10.623479+05:30"},{"city":"Aizawl","state":"Mizoram","latitude":23.7271,"longitude":92.7176,"temp":14.7,"humidity":95,"rain":0.0,"pressure":892.0,"uv_index":7.3,"wind_gusts":44.6,"aqi":98,"pm10":8.2,"pm2_5":6.8,"mosquito_risk":3,"arthritis_risk":10,"migraine_risk":7,"frizz_risk":0,"updated_at":"2026-03-22T03:59:10.623489+05:30"},{"city":"Kohima","state":"Nagaland","latitude":25.6701,"longitude":94.1077,"temp":11.6,"humidity":100,"rain":0.3,"pressure":853.1,"uv_index":7.05,"wind_gusts":56.9,"aqi":72,"pm10":22.8,"pm2_5":19.7,"mosquito_risk":6,"arthritis_risk":10,"migraine_risk":7,"frizz_risk":0,"updated_at":"2026-03-22T03:59:10.623498+05:30"},{"city":"Gangtok","state":"Sikkim","latitude":27.3314,"longitude":88.6138,"temp":8.4,"humidity":87,"rain":0.0,"pressure":833.6,"uv_index":7.6,"wind_gusts":20.5,"aqi":61,"pm10":13.8,"pm2_5":12.5,"mosquito_risk":3,"arthritis_risk":10,"migraine_risk":7,"frizz_risk":0,"updated_at":"2026-03-22T03:59:10.623508+05:30"},{"city":"Siliguri","state":"West Bengal","latitude":26.7271,"longitude":88.3953,"temp":15.8,"humidity":68,"rain":0.0,"pressure":996.3,"uv_index":6.95,"wind_gusts":15.8,"aqi":111,"pm10":57.6,"pm2_5":52.9,"mosquito_risk":3,"arthritis_risk":5,"migraine_risk":7,"frizz_risk":0,"updated_at":"2026-03-22T03:59:13.850954+05:30"},{"city":"Durgapur","state":"West Bengal","latitude":23.5204,"longitude":87.3119,"temp":20.3,"humidity":83,"rain":0.0,"pressure":998.4,"uv_index":8.2,"wind_gusts":20.2,"aqi":110,"pm10":50.2,"pm2_5":47.6,"mosquito_risk":3,"arthritis_risk":5,"migraine_risk":7,"frizz_risk":1,"updated_at":"2026-03-22T03:59:13.850988+05:30"},{"city":"Asansol","state":"West Bengal","latitude":23.6739,"longitude":86.9524,"temp":19.7,"humidity":84,"rain":0.0,"pressure":997.1,"uv_index":7.9,"wind_gusts":22.3,"aqi":113,"pm10":49.5,"pm2_5":46.2,"mosquito_risk":3,"arthritis_risk":10,"migraine_risk":7,"frizz_risk":1,"updated_at":"2026-03-22T03:59:13.851002+05:30"},{"city":"Pondicherry","state":"Puducherry","latitude":11.9139,"longitude":79.8145,"temp":24.5,"humidity":99,"rain":0.0,"pressure":1009.5,"uv_index":9.15,"wind_gusts":29.9,"aqi":35,"pm10":15.0,"pm2_5":10.1,"mosquito_risk":3,"arthritis_risk":0,"migraine_risk":4,"frizz_risk":1,"updated_at":"2026-03-22T03:59:13.851015+05:30"},{"city":"Port Blair","state":"Andaman and Nicobar Islands","latitude":11.6234,"longitude":92.7265,"temp":27.4,"humidity":83,"rain":0.0,"pressure":1007.4,"uv_index":9.1,"wind_gusts":19.8,"aqi":45,"pm10":15.0,"pm2_5":11.6,"mosquito_risk":7,"arthritis_risk":5,"migraine_risk":4,"frizz_risk":1,"updated_at":"2026-03-22T03:59:13.851027+05:30"},{"city":"Haridwar","state":"Uttarakhand","latitude":29.9457,"longitude":78.1642,"temp":14.4,"humidity":96,"rain":0.0,"pressure":978.0,"uv_index":6.25,"wind_gusts":23.8,"aqi":82,"pm10":53.6,"pm2_5":46.1,"mosquito_risk":3,"arthritis_risk":10,"migraine_risk":7,"frizz_risk":0,"updated_at":"2026-03-22T03:59:13.851037+05:30"},{"city":"Rishikesh","state":"Uttarakhand","latitude":30.0869,"longitude":78.2676,"temp":15.3,"humidity":84,"rain":0.0,"pressure":970.4,"uv_index":6.35,"wind_gusts":25.2,"aqi":53,"pm10":27.0,"pm2_5":21.8,"mosquito_risk":3,"arthritis_risk":10,"migraine_risk":7,"frizz_risk":0,"updated_at":"2026-03-22T03:59:13.851048+05:30"},{"city":"Nainital","state":"Uttarakhand","latitude":29.3919,"longitude":79.4542,"temp":11.4,"humidity":83,"rain":0.0,"pressure":804.5,"uv_index":7.15,"wind_gusts":36.0,"aqi":61,"pm10":22.5,"pm2_5":20.3,"mosquito_risk":3,"arthritis_risk":10,"migraine_risk":7,"frizz_risk":0,"updated_at":"2026-03-22T03:59:13.851058+05:30"},{"city":"Mussoorie","state":"Uttarakhand","latitude":30.4599,"longitude":78.0664,"temp":9.9,"humidity":75,"rain":0.0,"pressure":800.9,"uv_index":6.5,"wind_gusts":25.2,"aqi":59,"pm10":31.1,"pm2_5":25.6,"mosquito_risk":3,"arthritis_risk":5,"migraine_risk":7,"frizz_risk":0,"updated_at":"2026-03-22T03:59:13.851069+05:30"},{"city":"Dharamshala","state":"Himachal Pradesh","latitude":32.219,"longitude":76.3234,"temp":13.9,"humidity":30,"rain":0.0,"pressure":869.3,"uv_index":6.1,"wind_gusts":20.9,"aqi":57,"pm10":11.5,"pm2_5":5.8,"mosquito_risk":0,"arthritis_risk":5,"migraine_risk":7,"frizz_risk":1,"updated_at":"2026-03-22T03:59:13.851079+05:30"},{"city":"Dalhousie","state":"Himachal Pradesh","latitude":32.5387,"longitude":75.971,"temp":9.3,"humidity":46,"rain":0.0,"pressure":801.9,"uv_index":6.95,"wind_gusts":19.8,"aqi":81,"pm10":36.6,"pm2_5":31.1,"mosquito_risk":0,"arthritis_risk":5,"migraine_risk":7,"frizz_risk":1,"updated_at":"2026-03-22T03:59:13.851091+05:30"},{"city":"Patiala","state":"Punjab","latitude":30.3398,"longitude":76.3869,"temp":14.3,"humidity":95,"rain":0.0,"pressure":982.6,"uv_index":6.2,"wind_gusts":31.3,"aqi":153,"pm10":55.8,"pm2_5":48.4,"mosquito_risk":3,"arthritis_risk":10,"migraine_risk":7,"frizz_risk":0,"updated_at":"2026-03-22T03:59:13.851101+05:30"},{"city":"Bhatinda","state":"Punjab","latitude":30.211,"longitude":74.9455,"temp":15.9,"humidity":92,"rain":0.0,"pressure":988.9,"uv_index":6.95,"wind_gusts":20.2,"aqi":130,"pm10":99.4,"pm2_5":70.3,"mosquito_risk":3,"arthritis_risk":10,"migraine_risk":7,"frizz_risk":0,"updated_at":"2026-03-22T03:59:13.851112+05:30"},{"city":"Rohtak","state":"Haryana","latitude":28.8955,"longitude":76.6066,"temp":16.1,"humidity":92,"rain":0.0,"pressure":986.4,"uv_index":6.45,"wind_gusts":29.2,"aqi":165,"pm10":210.0,"pm2_5":65.9,"mosquito_risk":3,"arthritis_risk":10,"migraine_risk":7,"frizz_risk":0,"updated_at":"2026-03-22T03:59:13.851122+05:30"},{"city":"Panipat","state":"Haryana","latitude":29.3909,"longitude":76.9635,"temp":14.6,"humidity":94,"rain":0.0,"pressure":984.8,"uv_index":6.25,"wind_gusts":31.3,"aqi":181,"pm10":128.1,"pm2_5":56.8,"mosquito_risk":3,"arthritis_risk":10,"migraine_risk":7,"frizz_risk":0,"updated_at":"2026-03-22T03:59:13.851132+05:30"},{"city":"Mathura","state":"Uttar Pradesh","latitude":27.4924,"longitude":77.6737,"temp":17.3,"humidity":87,"rain":0.0,"pressure":991.4,"uv_index":5.95,"wind_gusts":28.4,"aqi":341,"pm10":631.4,"pm2_5":109.4,"mosquito_risk":3,"arthritis_risk":10,"migraine_risk":3,"frizz_risk":0,"updated_at":"2026-03-22T03:59:13.851142+05:30"},{"city":"Vrindavan","state":"Uttar Pradesh","latitude":27.5823,"longitude":77.7027,"temp":17.4,"humidity":88,"rain":0.0,"pressure":991.8,"uv_index":5.95,"wind_gusts":30.2,"aqi":341,"pm10":631.4,"pm2_5":109.4,"mosquito_risk":3,"arthritis_risk":10,"migraine_risk":3,"frizz_risk":0,"updated_at":"2026-03-22T03:59:13.851152+05:30"},{"city":"Ayodhya","state":"Uttar Pradesh","latitude":26.7922,"longitude":82.1998,"temp":16.9,"humidity":97,"rain":0.0,"pressure":999.8,"uv_index":7.1,"wind_gusts":22.3,"aqi":84,"pm10":59.3,"pm2_5":54.6,"mosquito_risk":3,"arthritis_risk":10,"migraine_risk":7,"frizz_risk":1,"updated_at":"2026-03-22T03:59:13.851162+05:30"},{"city":"Ratlam","state":"Madhya Pradesh","latitude":23.3315,"longitude":75.0367,"temp":19.6,"humidity":68,"rain":0.0,"pressure":956.5,"uv_index":7.85,"wind_gusts":16.6,"aqi":60,"pm10":26.4,"pm2_5":21.4,"mosquito_risk":3,"arthritis_risk":5,"migraine_risk":7,"frizz_risk":0,"updated_at":"2026-03-22T03:59:13.851173+05:30"},{"city":"Sagar","state":"Madhya Pradesh","latitude":23.8388,"longitude":78.7378,"temp":18.3,"humidity":57,"rain":0.0,"pressure":952.9,"uv_index":7.95,"wind_gusts":30.6,"aqi":63,"pm10":23.9,"pm2_5":16.0,"mosquito_risk":0,"arthritis_risk":5,"migraine_risk":7,"frizz_risk":0,"updated_at":"2026-03-22T03:59:13.851183+05:30"},{"city":"Satna","state":"Madhya Pradesh","latitude":24.6005,"longitude":80.8322,"temp":18.4,"humidity":69,"rain":0.0,"pressure":974.7,"uv_index":7.9,"wind_gusts":33.5,"aqi":64,"pm10":81.3,"pm2_5":20.8,"mosquito_risk":3,"arthritis_risk":5,"migraine_risk":7,"frizz_risk":0,"updated_at":"2026-03-22T03:59:13.851192+05:30"},{"city":"Akola","state":"Maharashtra","latitude":20.7002,"longitude":77.0082,"temp":21.4,"humidity":53,"rain":0.0,"pressure":977.0,"uv_index":8.3,"wind_gusts":23.4,"aqi":54,"pm10":11.4,"pm2_5":10.1,"mosquito_risk":0,"arthritis_risk":5,"migraine_risk":7,"frizz_risk":0,"updated_at":"2026-03-22T03:59:13.851203+05:30"},{"city":"Amravati","state":"Maharashtra","latitude":20.9374,"longitude":77.7796,"temp":20.8,"humidity":47,"rain":0.0,"pressure":969.1,"uv_index":8.1,"wind_gusts":24.1,"aqi":52,"pm10":9.6,"pm2_5":8.4,"mosquito_risk":0,"arthritis_risk":5,"migraine_risk":7,"frizz_risk":0,"updated_at":"2026-03-22T03:59:13.851214+05:30"},{"city":"Latur","state":"Maharashtra","latitude":18.4088,"longitude":76.5604,"temp":21.3,"humidity":58,"rain":0.0,"pressure":939.9,"uv_index":8.7,"wind_gusts":29.5,"aqi":64,"pm10":41.3,"pm2_5":24.5,"mosquito_risk":0,"arthritis_risk":5,"migraine_risk":7,"frizz_risk":0,"updated_at":"2026-03-22T03:59:13.851224+05:30"},{"city":"Nanded","state":"Maharashtra","latitude":19.1383,"longitude":77.3091,"temp":22.6,"humidity":49,"rain":0.0,"pressure":969.5,"uv_index":8.55,"wind_gusts":29.2,"aqi":69,"pm10":23.7,"pm2_5":20.8,"mosquito_risk":0,"arthritis_risk":5,"migraine_risk":7,"frizz_risk":0,"updated_at":"2026-03-22T03:59:13.851234+05:30"},{"city":"Gulbarga","state":"Karnataka","latitude":17.3297,"longitude":76.8343,"temp":25.7,"humidity":49,"rain":0.0,"pressure":958.7,"uv_index":8.75,"wind_gusts":27.4,"aqi":69,"pm10":38.2,"pm2_5":29.9,"mosquito_risk":4,"arthritis_risk":5,"migraine_risk":7,"frizz_risk":0,"updated_at":"2026-03-22T03:59:13.851244+05:30"},{"city":"Bidar","state":"Karnataka","latitude":17.9104,"longitude":77.5199,"temp":24.1,"humidity":66,"rain":0.0,"pressure":935.6,"uv_index":8.8,"wind_gusts":34.2,"aqi":79,"pm10":48.9,"pm2_5":35.6,"mosquito_risk":3,"arthritis_risk":5,"migraine_risk":7,"frizz_risk":1,"updated_at":"2026-03-22T03:59:13.851254+05:30"},{"city":"Hospet","state":"Karnataka","latitude":15.2689,"longitude":76.3909,"temp":24.1,"humidity":66,"rain":0.0,"pressure":955.5,"uv_index":9.0,"wind_gusts":29.5,"aqi":76,"pm10":28.4,"pm2_5":24.9,"mosquito_risk":3,"arthritis_risk":5,"migraine_risk":7,"frizz_risk":1,"updated_at":"2026-03-22T03:59:13.851264+05:30"},{"city":"Tirupur","state":"Tamil Nadu","latitude":11.1085,"longitude":77.3411,"temp":23.9,"humidity":82,"rain":0.0,"pressure":976.5,"uv_index":9.4,"wind_gusts":29.9,"aqi":74,"pm10":22.1,"pm2_5":17.6,"mosquito_risk":3,"arthritis_risk":5,"migraine_risk":7,"frizz_risk":1,"updated_at":"2026-03-22T03:59:13.851274+05:30"},{"city":"Alappuzha","state":"Kerala","latitude":9.4981,"longitude":76.3388,"temp":26.7,"humidity":81,"rain":0.0,"pressure":1009.0,"uv_index":9.1,"wind_gusts":30.2,"aqi":69,"pm10":19.8,"pm2_5":16.0,"mosquito_risk":7,"arthritis_risk":0,"migraine_risk":4,"frizz_risk":1,"updated_at":"2026-03-22T03:59:13.851284+05:30"},{"city":"Munnar","state":"Kerala","latitude":10.0889,"longitude":77.0595,"temp":19.0,"humidity":94,"rain":0.0,"pressure":855.9,"uv_index":8.7,"wind_gusts":29.2,"aqi":71,"pm10":25.0,"pm2_5":22.0,"mosquito_risk":3,"arthritis_risk":10,"migraine_risk":7,"frizz_risk":1,"updated_at":"2026-03-22T03:59:13.851295+05:30"},{"city":"Silchar","state":"Assam","latitude":24.8333,"longitude":92.7789,"temp":20.0,"humidity":93,"rain":0.0,"pressure":1007.6,"uv_index":7.95,"wind_gusts":20.2,"aqi":107,"pm10":31.8,"pm2_5":28.5,"mosquito_risk":3,"arthritis_risk":5,"migraine_risk":4,"frizz_risk":1,"updated_at":"2026-03-22T03:59:13.851304+05:30"},{"city":"Dibrugarh","state":"Assam","latitude":27.4728,"longitude":94.912,"temp":20.5,"humidity":94,"rain":0.2,"pressure":997.7,"uv_index":1.25,"wind_gusts":28.4,"aqi":111,"pm10":61.5,"pm2_5":53.0,"mosquito_risk":6,"arthritis_risk":5,"migraine_risk":3,"frizz_risk":1,"updated_at":"2026-03-22T03:59:13.851315+05:30"}]