[{"city":"Delhi","state":"Delhi","latitude":28.6139,"longitude":77.209,"temp":35.5,"humidity":26,"rain":0.0,"pressure":979.9,"uv_index":7.4,"wind_gusts":36.0,"aqi":188,"pm10":326.0,"pm2_5":54.9,"mosquito_risk":0,"arthritis_risk":5,"migraine_risk":10,"frizz_risk":0,"updated_at":"2026-04-29T11:56:38.802877+05:30"},{"city":"Mumbai","state":"Maharashtra","latitude":19.076,"longitude":72.8777,"temp":33.0,"humidity":53,"rain":0.0,"pressure":1008.2,"uv_index":8.05,"wind_gusts":40.0,"aqi":82,"pm10":53.4,"pm2_5":35.4,"mosquito_risk":0,"arthritis_risk":0,"migraine_risk":4,"frizz_risk":1,"updated_at":"2026-04-29T11:56:38.802935+05:30"},{"city":"Bangalore","state":"Karnataka","latitude":12.9716,"longitude":77.5946,"temp":34.3,"humidity":33,"rain":0.0,"pressure":913.4,"uv_index":9.55,"wind_gusts":33.1,"aqi":95,"pm10":46.4,"pm2_5":36.0,"mosquito_risk":0,"arthritis_risk":5,"migraine_risk":7,"frizz_risk":0,"updated_at":"2026-04-29T11:56:38.802953+05:30"},{"city":"Hyderabad","state":"Telangana","latitude":17.385,"longitude":78.4867,"temp":38.8,"humidity":19,"rain":0.0,"pressure":953.2,"uv_index":9.3,"wind_gusts":32.0,"aqi":123,"pm10":45.1,"pm2_5":35.0,"mosquito_risk":0,"arthritis_risk":5,"migraine_risk":10,"frizz_risk":0,"updated_at":"2026-04-29T11:56:38.802965+05:30"},{"city":"Chennai","state":"Tamil Nadu","latitude":13.0827,"longitude":80.2707,"temp":36.1,"humidity":48,"rain":0.0,"pressure":1006.2,"uv_index":9.25,"wind_gusts":55.4,"aqi":55,"pm10":17.3,"pm2_5":14.7,"mosquito_risk":0,"arthritis_risk":5,"migraine_risk":7,"frizz_risk":1,"updated_at":"2026-04-29T11:56:38.802974+05:30"},{"city":"Kolkata","state":"West Bengal","latitude":22.5726,"longitude":88.3639,"temp":33.5,"humidity":67,"rain":0.0,"pressure":1003.5,"uv_index":8.85,"wind_gusts":45.0,"aqi":81,"pm10":34.1,"pm2_5":28.2,"mosquito_risk":3,"arthritis_risk":5,"migraine_risk":4,"frizz_risk":1,"updated_at":"2026-04-29T11:56:38.802984+05:30"},{"city":"Pune","state":"Maharashtra","latitude":18.5204,"longitude":73.8567,"temp":36.8,"humidity":17,"rain":0.0,"pressure":949.1,"uv_index":8.6,"wind_gusts":41.0,"aqi":74,"pm10":33.4,"pm2_5":14.3,"mosquito_risk":0,"arthritis_risk":5,"migraine_risk":10,"frizz_risk":0,"updated_at":"2026-04-29T11:56:38.802998+05:30"},{"city":"Ahmedabad","state":"Gujarat","latitude":23.0225,"longitude":72.5714,"temp":37.0,"humidity":27,"rain":0.0,"pressure":1000.4,"uv_index":8.2,"wind_gusts":50.8,"aqi":49,"pm10":43.5,"pm2_5":15.7,"mosquito_risk":0,"arthritis_risk":5,"migraine_risk":7,"frizz_risk":0,"updated_at":"2026-04-29T11:56:38.803006+05:30"},{"city":"Jaipur","state":"Rajasthan","latitude":26.9124,"longitude":75.7873,"temp":37.8,"humidity":20,"rain":0.0,"pressure":956.5,"uv_index":8.1,"wind_gusts":47.2,"aqi":97,"pm10":304.5,"pm2_5":48.9,"mosquito_risk":0,"arthritis_risk":5,"migraine_risk":10,"frizz_risk":0,"updated_at":"2026-04-29T11:56:38.803015+05:30"},{"city":"Lucknow","state":"Uttar Pradesh","latitude":26.8467,"longitude":80.9462,"temp":38.8,"humidity":29,"rain":0.0,"pressure":989.5,"uv_index":7.6,"wind_gusts":47.9,"aqi":154,"pm10":117.6,"pm2_5":45.5,"mosquito_risk":0,"arthritis_risk":5,"migraine_risk":10,"frizz_risk":1,"updated_at":"2026-04-29T11:56:38.803024+05:30"},{"city":"Kanpur","state":"Uttar Pradesh","latitude":26.4499,"longitude":80.3319,"temp":39.5,"humidity":23,"rain":0.0,"pressure":987.4,"uv_index":7.9,"wind_gusts":41.8,"aqi":232,"pm10":276.6,"pm2_5":61.0,"mosquito_risk":0,"arthritis_risk":5,"migraine_risk":10,"frizz_risk":0,"updated_at":"2026-04-29T11:56:38.803032+05:30"},{"city":"Chandigarh","state":"Chandigarh","latitude":30.7333,"longitude":76.7794,"temp":33.0,"humidity":28,"rain":0.0,"pressure":966.5,"uv_index":7.35,"wind_gusts":38.2,"aqi":76,"pm10":155.1,"pm2_5":33.2,"mosquito_risk":0,"arthritis_risk":5,"migraine_risk":7,"frizz_risk":0,"updated_at":"2026-04-29T11:56:38.803041+05:30"},{"city":"Srinagar","state":"Jammu and Kashmir","latitude":34.0837,"longitude":74.7973,"temp":15.4,"humidity":80,"rain":0.1,"pressure":840.7,"uv_index":5.8,"wind_gusts":26.6,"aqi":95,"pm10":21.8,"pm2_5":15.1,"mosquito_risk":6,"arthritis_risk":5,"migraine_risk":3,"frizz_risk":0,"updated_at":"2026-04-29T11:56:38.803050+05:30"},{"city":"Jammu","state":"Jammu and Kashmir","latitude":32.7266,"longitude":74.857,"temp":25.0,"humidity":55,"rain":0.0,"pressure":972.1,"uv_index":7.1,"wind_gusts":53.6,"aqi":75,"pm10":23.6,"pm2_5":9.9,"mosquito_risk":4,"arthritis_risk":5,"migraine_risk":7,"frizz_risk":0,"updated_at":"2026-04-29T11:56:38.803058+05:30"},{"city":"Amritsar","state":"Punjab","latitude":31.634,"longitude":74.8723,"temp":32.0,"humidity":39,"rain":0.0,"pressure":978.3,"uv_index":8.1,"wind_gusts":40.7,"aqi":90,"pm10":46.2,"pm2_5":15.9,"mosquito_risk":0,"arthritis_risk":5,"migraine_risk":7,"frizz_risk":1,"updated_at":"2026-04-29T11:56:38.803065+05:30"},{"city":"Ludhiana","state":"Punjab","latitude":30.901,"longitude":75.8573,"temp":33.5,"humidity":33,"rain":0.0,"pressure":975.5,"uv_index":7.7,"wind_gusts":47.2,"aqi":93,"pm10":90.3,"pm2_5":26.8,"mosquito_risk":0,"arthritis_risk":5,"migraine_risk":7,"frizz_risk":0,"updated_at":"2026-04-29T11:56:38.803073+05:30"},{"city":"Jalandhar","state":"Punjab","latitude":31.326,"longitude":75.5762,"temp":32.9,"humidity":36,"rain":0.0,"pressure":976.6,"uv_index":7.9,"wind_gusts":34.9,"aqi":83,"pm10":54.8,"pm2_5":20.5,"mosquito_risk":0,"arthritis_risk":5,"migraine_risk":7,"frizz_risk":0,"updated_at":"2026-04-29T11:56:38.803083+05:30"},{"city":"Dehradun","state":"Uttarakhand","latitude":30.6284,"longitude":78.0322,"temp":22.6,"humidity":42,"rain":0.0,"pressure":831.5,"uv_index":6.25,"wind_gusts":31.7,"aqi":61,"pm10":55.6,"pm2_5":12.5,"mosquito_risk":0,"arthritis_risk":5,"migraine_risk":7,"frizz_risk":0,"updated_at":"2026-04-29T11:56:38.803092+05:30"},{"city":"Shimla","state":"Himachal Pradesh","latitude":31.1048,"longitude":77.1734,"temp":18.8,"humidity":35,"rain":0.0,"pressure":785.5,"uv_index":7.85,"wind_gusts":29.9,"aqi":52,"pm10":59.4,"pm2_5":12.8,"mosquito_risk":0,"arthritis_risk":5,"migraine_risk":7,"frizz_risk":0,"updated_at":"2026-04-29T11:56:38.803099+05:30"},{"city":"Manali","state":"Himachal Pradesh","latitude":32.2396,"longitude":77.1887,"temp":15.5,"humidity":54,"rain":0.1,"pressure":818.1,"uv_index":7.5,"wind_gusts":38.9,"aqi":77,"pm10":14.0,"pm2_5":4.7,"mosquito_risk":3,"arthritis_risk":5,"migraine_risk":7,"frizz_risk":0,"updated_at":"2026-04-29T11:56:38.803107+05:30"},{"city":"Gurgaon","state":"Haryana","latitude":28.4595,"longitude":77.0266,"temp":36.0,"humidity":25,"rain":0.0,"pressure":978.2,"uv_index":7.4,"wind_gusts":34.6,"aqi":590,"pm10":1166.0,"pm2_5":122.0,"mosquito_risk":0,"arthritis_risk":5,"migraine_risk":10,"frizz_risk":0,"updated_at":"2026-04-29T11:56:38.803114+05:30"},{"city":"Noida","state":"Uttar Pradesh","latitude":28.5355,"longitude":77.391,"temp":36.0,"humidity":26,"rain":0.0,"pressure":981.2,"uv_index":7.3,"wind_gusts":33.8,"aqi":590,"pm10":1166.0,"pm2_5":122.0,"mosquito_risk":0,"arthritis_risk":5,"migraine_risk":10,"frizz_risk":0,"updated_at":"2026-04-29T11:56:38.803122+05:30"},{"city":"Ghaziabad","state":"Uttar Pradesh","latitude":28.6692,"longitude":77.4538,"temp":36.1,"humidity":24,"rain":0.0,"pressure":979.7,"uv_index":7.25,"wind_gusts":40.3,"aqi":152,"pm10":221.2,"pm2_5":36.3,"mosquito_risk":0,"arthritis_risk":5,"migraine_risk":10,"frizz_risk":0,"updated_at":"2026-04-29T11:56:38.803130+05:30"},{"city":"Faridabad","state":"Haryana","latitude":28.4089,"longitude":77.3178,"temp":35.8,"humidity":26,"rain":0.0,"pressure":980.5,"uv_index":7.1,"wind_gusts":40.3,"aqi":590,"pm10":1166.0,"pm2_5":122.0,"mosquito_risk":0,"arthritis_risk":5,"migraine_risk":10,"frizz_risk":0,"updated_at":"2026-04-29T11:56:38.803137+05:30"},{"city":"Meerut","state":"Uttar Pradesh","latitude":28.9845,"longitude":77.7064,"temp":34.5,"humidity":26,"rain":0.0,"pressure":978.8,"uv_index":6.05,"wind_gusts":56.2,"aqi":152,"pm10":221.2,"pm2_5":36.3,"mosquito_risk":0,"arthritis_risk":5,"migraine_risk":7,"frizz_risk":0,"updated_at":"2026-04-29T11:56:38.803144+05:30"},{"city":"Agra","state":"Uttar Pradesh","latitude":27.1767,"longitude":78.0081,"temp":39.0,"humidity":19,"rain":0.0,"pressure":983.1,"uv_index":7.55,"wind_gusts":48.2,"aqi":594,"pm10":1039.4,"pm2_5":106.4,"mosquito_risk":0,"arthritis_risk":5,"migraine_risk":10,"frizz_risk":0,"updated_at":"2026-04-29T11:56:38.803151+05:30"},{"city":"Varanasi","state":"Uttar Pradesh","latitude":25.3176,"longitude":82.9739,"temp":38.3,"humidity":34,"rain":0.0,"pressure":993.3,"uv_index":8.45,"wind_gusts":47.9,"aqi":136,"pm10":129.5,"pm2_5":42.4,"mosquito_risk":0,"arthritis_risk":5,"migraine_risk":10,"frizz_risk":1,"updated_at":"2026-04-29T11:56:38.803161+05:30"},{"city":"Prayagraj","state":"Uttar Pradesh","latitude":25.4358,"longitude":81.8463,"temp":41.2,"humidity":21,"rain":0.0,"pressure":991.0,"uv_index":8.35,"wind_gusts":43.2,"aqi":137,"pm10":144.8,"pm2_5":44.7,"mosquito_risk":0,"arthritis_risk":5,"migraine_risk":10,"frizz_risk":0,"updated_at":"2026-04-29T11:56:38.803168+05:30"},{"city":"Gorakhpur","state":"Uttar Pradesh","latitude":26.7606,"longitude":83.3732,"temp":34.7,"humidity":47,"rain":0.0,"pressure":994.3,"uv_index":8.3,"wind_gusts":41.4,"aqi":121,"pm10":66.1,"pm2_5":41.9,"mosquito_risk":0,"arthritis_risk":5,"migraine_risk":7,"frizz_risk":1,"updated_at":"2026-04-29T11:56:38.803176+05:30"},{"city":"Bareilly","state":"Uttar Pradesh","latitude":28.367,"longitude":79.4304,"temp":37.7,"humidity":24,"rain":0.0,"pressure":983.1,"uv_index":7.45,"wind_gusts":50.4,"aqi":121,"pm10":126.7,"pm2_5":29.0,"mosquito_risk":0,"arthritis_risk":5,"migraine_risk":10,"frizz_risk":0,"updated_at":"2026-04-29T11:56:38.803183+05:30"},{"city":"Aligarh","state":"Uttar Pradesh","latitude":27.8974,"longitude":78.088,"temp":38.2,"humidity":23,"rain":0.0,"pressure":981.4,"uv_index":5.25,"wind_gusts":41.8,"aqi":291,"pm10":564.4,"pm2_5":61.5,"mosquito_risk":0,"arthritis_risk":5,"migraine_risk":6,"frizz_risk":0,"updated_at":"2026-04-29T11:56:38.803190+05:30"},{"city":"Moradabad","state":"Uttar Pradesh","latitude":28.8386,"longitude":78.7733,"temp":36.0,"humidity":26,"rain":0.0,"pressure":980.9,"uv_index":5.45,"wind_gusts":45.4,"aqi":152,"pm10":84.5,"pm2_5":27.1,"mosquito_risk":0,"arthritis_risk":5,"migraine_risk":6,"frizz_risk":0,"updated_at":"2026-04-29T11:56:38.803197+05:30"},{"city":"Saharanpur","state":"Uttar Pradesh","latitude":29.9637,"longitude":77.546,"temp":32.7,"humidity":33,"rain":0.0,"pressure":973.4,"uv_index":7.15,"wind_gusts":53.3,"aqi":116,"pm10":158.8,"pm2_5":35.0,"mosquito_risk":0,"arthritis_risk":5,"migraine_risk":7,"frizz_risk":0,"updated_at":"2026-04-29T11:56:38.803204+05:30"},{"city":"Jhansi","state":"Uttar Pradesh","latitude":25.4484,"longitude":78.5685,"temp":40.8,"humidity":16,"rain":0.0,"pressure":974.1,"uv_index":7.8,"wind_gusts":54.0,"aqi":54,"pm10":57.2,"pm2_5":15.2,"mosquito_risk":0,"arthritis_risk":5,"migraine_risk":10,"frizz_risk":0,"updated_at":"2026-04-29T11:56:42.086205+05:30"},{"city":"Surat","state":"Gujarat","latitude":21.1702,"longitude":72.8311,"temp":35.5,"humidity":45,"rain":0.0,"pressure":1005.9,"uv_index":7.85,"wind_gusts":44.6,"aqi":70,"pm10":52.9,"pm2_5":28.3,"mosquito_risk":0,"arthritis_risk":5,"migraine_risk":7,"frizz_risk":1,"updated_at":"2026-04-29T11:56:42.086240+05:30"},{"city":"Vadodara","state":"Gujarat","latitude":22.3072,"longitude":73.1812,"temp":38.3,"humidity":24,"rain":0.0,"pressure":1002.8,"uv_index":8.15,"wind_gusts":47.9,"aqi":58,"pm10":54.0,"pm2_5":20.6,"mosquito_risk":0,"arthritis_risk":5,"migraine_risk":7,"frizz_risk":0,"updated_at":"2026-04-29T11:56:42.086251+05:30"},{"city":"Rajkot","state":"Gujarat","latitude":22.3039,"longitude":70.8022,"temp":39.4,"humidity":21,"rain":0.0,"pressure":992.4,"uv_index":7.9,"wind_gusts":53.6,"aqi":50,"pm10":44.4,"pm2_5":14.7,"mosquito_risk":0,"arthritis_risk":5,"migraine_risk":10,"frizz_risk":0,"updated_at":"2026-04-29T11:56:42.086260+05:30"},{"city":"Thane","state":"Maharashtra","latitude":19.2183,"longitude":72.9781,"temp":37.1,"humidity":35,"rain":0.0,"pressure":1006.9,"uv_index":8.05,"wind_gusts":39.2,"aqi":82,"pm10":53.4,"pm2_5":35.4,"mosquito_risk":0,"arthritis_risk":5,"migraine_risk":7,"frizz_risk":1,"updated_at":"2026-04-29T11:56:42.086267+05:30"},{"city":"Nagpur","state":"Maharashtra","latitude":21.1458,"longitude":79.0882,"temp":41.0,"humidity":12,"rain":0.0,"pressure":972.1,"uv_index":8.85,"wind_gusts":55.4,"aqi":76,"pm10":32.8,"pm2_5":17.1,"mosquito_risk":0,"arthritis_risk":5,"migraine_risk":10,"frizz_risk":0,"updated_at":"2026-04-29T11:56:42.086274+05:30"},{"city":"Nashik","state":"Maharashtra","latitude":19.9975,"longitude":73.7898,"temp":37.3,"humidity":16,"rain":0.0,"pressure":946.4,"uv_index":8.3,"wind_gusts":43.6,"aqi":62,"pm10":47.6,"pm2_5":13.4,"mosquito_risk":0,"arthritis_risk":5,"migraine_risk":10,"frizz_risk":0,"updated_at":"2026-04-29T11:56:42.086281+05:30"},{"city":"Aurangabad","state":"Maharashtra","latitude":19.8762,"longitude":75.3433,"temp":38.2,"humidity":15,"rain":0.0,"pressure":945.0,"uv_index":9.05,"wind_gusts":54.4,"aqi":56,"pm10":34.3,"pm2_5":11.3,"mosquito_risk":0,"arthritis_risk":5,"migraine_risk":10,"frizz_risk":0,"updated_at":"2026-04-29T11:56:42.086289+05:30"},{"city":"Solapur","state":"Maharashtra","latitude":17.6599,"longitude":75.9064,"temp":39.6,"humidity":17,"rain":0.0,"pressure":957.3,"uv_index":9.1,"wind_gusts":41.4,"aqi":84,"pm10":27.9,"pm2_5":14.9,"mosquito_risk":0,"arthritis_risk":5,"migraine_risk":10,"frizz_risk":0,"updated_at":"2026-04-29T11:56:42.086296+05:30"},{"city":"Kolhapur","state":"Maharashtra","latitude":16.705,"longitude":74.2433,"temp":37.0,"humidity":23,"rain":0.0,"pressure":948.7,"uv_index":9.0,"wind_gusts":46.1,"aqi":71,"pm10":39.3,"pm2_5":20.0,"mosquito_risk":0,"arthritis_risk":5,"migraine_risk":10,"frizz_risk":0,"updated_at":"2026-04-29T11:56:42.086304+05:30"},{"city":"Goa","state":"Goa","latitude":15.2993,"longitude":74.124,"temp":37.3,"humidity":46,"rain":0.0,"pressure":996.8,"uv_index":8.75,"wind_gusts":40.0,"aqi":73,"pm10":42.1,"pm2_5":19.9,"mosquito_risk":0,"arthritis_risk":5,"migraine_risk":10,"frizz_risk":1,"updated_at":"2026-04-29T11:56:42.086310+05:30"},{"city":"Jodhpur","state":"Rajasthan","latitude":26.2389,"longitude":73.0243,"temp":37.7,"humidity":25,"rain":0.0,"pressure":979.6,"uv_index":8.3,"wind_gusts":43.6,"aqi":140,"pm10":210.0,"pm2_5":33.4,"mosquito_risk":0,"arthritis_risk":5,"migraine_risk":10,"frizz_risk":0,"updated_at":"2026-04-29T11:56:42.086317+05:30"},{"city":"Udaipur","state":"Rajasthan","latitude":24.5854,"longitude":73.7125,"temp":36.0,"humidity":23,"rain":0.0,"pressure":945.1,"uv_index":8.75,"wind_gusts":44.6,"aqi":42,"pm10":44.7,"pm2_5":13.8,"mosquito_risk":0,"arthritis_risk":5,"migraine_risk":10,"frizz_risk":0,"updated_at":"2026-04-29T11:56:42.086325+05:30"},{"city":"Kota","state":"Rajasthan","latitude":25.2138,"longitude":75.8648,"temp":39.4,"humidity":20,"rain":0.0,"pressure":975.6,"uv_index":8.3,"wind_gusts":43.9,"aqi":39,"pm10":93.6,"pm2_5":23.1,"mosquito_risk":0,"arthritis_risk":5,"migraine_risk":10,"frizz_risk":0,"updated_at":"2026-04-29T11:56:42.086331+05:30"},{"city":"Bikaner","state":"Rajasthan","latitude":28.0229,"longitude":73.3119,"temp":38.0,"humidity":20,"rain":0.0,"pressure":977.8,"uv_index":8.15,"wind_gusts":42.8,"aqi":79,"pm10":172.8,"pm2_5":35.3,"mosquito_risk":0,"arthritis_risk":5,"migraine_risk":10,"frizz_risk":0,"updated_at":"2026-04-29T11:56:42.086337+05:30"},{"city":"Ajmer","state":"Rajasthan","latitude":26.4499,"longitude":74.6399,"temp":37.0,"humidity":21,"rain":0.0,"pressure":952.0,"uv_index":8.25,"wind_gusts":59.0,"aqi":48,"pm10":165.3,"pm2_5":29.9,"mosquito_risk":0,"arthritis_risk":5,"migraine_risk":10,"frizz_risk":0,"updated_at":"2026-04-29T11:56:42.086344+05:30"},{"city":"Gwalior","state":"Madhya Pradesh","latitude":26.2183,"longitude":78.1828,"temp":40.0,"humidity":17,"rain":0.0,"pressure":978.9,"uv_index":8.05,"wind_gusts":55.8,"aqi":117,"pm10":178.3,"pm2_5":42.8,"mosquito_risk":0,"arthritis_risk":5,"migraine_risk":10,"frizz_risk":0,"updated_at":"2026-04-29T11:56:42.086350+05:30"},{"city":"Indore","state":"Madhya Pradesh","latitude":22.7196,"longitude":75.8577,"temp":37.1,"humidity":15,"rain":0.0,"pressure":947.9,"uv_index":8.65,"wind_gusts":55.1,"aqi":48,"pm10":21.8,"pm2_5":9.2,"mosquito_risk":0,"arthritis_risk":5,"migraine_risk":10,"frizz_risk":0,"updated_at":"2026-04-29T11:56:42.086356+05:30"},{"city":"Bhopal","state":"Madhya Pradesh","latitude":23.2599,"longitude":77.4126,"temp":39.5,"humidity":11,"rain":0.0,"pressure":952.3,"uv_index":8.65,"wind_gusts":52.2,"aqi":43,"pm10":22.5,"pm2_5":7.6,"mosquito_risk":0,"arthritis_risk":5,"migraine_risk":10,"frizz_risk":0,"updated_at":"2026-04-29T11:56:42.086363+05:30"},{"city":"Jabalpur","state":"Madhya Pradesh","latitude":23.1815,"longitude":79.9864,"temp":40.0,"humidity":13,"rain":0.0,"pressure":959.6,"uv_index":8.75,"wind_gusts":41.4,"aqi":51,"pm10":21.2,"pm2_5":8.8,"mosquito_risk":0,"arthritis_risk":5,"migraine_risk":10,"frizz_risk":0,"updated_at":"2026-04-29T11:56:42.086369+05:30"},{"city":"Ujjain","state":"Madhya Pradesh","latitude":23.1765,"longitude":75.7885,"temp":37.0,"humidity":16,"rain":0.0,"pressure":953.1,"uv_index":8.55,"wind_gusts":53.3,"aqi":48,"pm10":31.9,"pm2_5":12.6,"mosquito_risk":0,"arthritis_risk":5,"migraine_risk":10,"frizz_risk":0,"updated_at":"2026-04-29T11:56:42.086376+05:30"},{"city":"Visakhapatnam","state":"Andhra Pradesh","latitude":17.6868,"longitude":83.2185,"temp":34.5,"humidity":55,"rain":0.0,"pressure":1002.5,"uv_index":8.95,"wind_gusts":54.0,"aqi":61,"pm10":20.8,"pm2_5":15.6,"mosquito_risk":0,"arthritis_risk":5,"migraine_risk":4,"frizz_risk":1,"updated_at":"2026-04-29T11:56:42.086384+05:30"},{"city":"Vijayawada","state":"Andhra Pradesh","latitude":16.5062,"longitude":80.648,"temp":37.4,"humidity":41,"rain":0.0,"pressure":1002.1,"uv_index":8.35,"wind_gusts":35.3,"aqi":66,"pm10":29.9,"pm2_5":25.4,"mosquito_risk":0,"arthritis_risk":5,"migraine_risk":7,"frizz_risk":1,"updated_at":"2026-04-29T11:56:42.086390+05:30"},{"city":"Guntur","state":"Andhra Pradesh","latitude":16.3067,"longitude":80.4365,"temp":37.8,"humidity":41,"rain":0.0,"pressure":1003.2,"uv_index":8.65,"wind_gusts":40.3,"aqi":70,"pm10":32.5,"pm2_5":27.5,"mosquito_risk":0,"arthritis_risk":5,"migraine_risk":7,"frizz_risk":1,"updated_at":"2026-04-29T11:56:42.086396+05:30"},{"city":"Nellore","state":"Andhra Pradesh","latitude":14.4426,"longitude":79.9865,"temp":39.5,"humidity":32,"rain":0.0,"pressure":1004.3,"uv_index":9.25,"wind_gusts":41.0,"aqi":64,"pm10":27.3,"pm2_5":23.1,"mosquito_risk":0,"arthritis_risk":5,"migraine_risk":7,"frizz_risk":1,"updated_at":"2026-04-29T11:56:42.086403+05:30"},{"city":"Kurnool","state":"Andhra Pradesh","latitude":15.8281,"longitude":78.0373,"temp":39.9,"humidity":26,"rain":0.0,"pressure":976.2,"uv_index":8.05,"wind_gusts":39.2,"aqi":114,"pm10":39.8,"pm2_5":29.5,"mosquito_risk":0,"arthritis_risk":5,"migraine_risk":10,"frizz_risk":1,"updated_at":"2026-04-29T11:56:42.086410+05:30"},{"city":"Kakinada","state":"Andhra Pradesh","latitude":16.9891,"longitude":82.2475,"temp":37.2,"humidity":44,"rain":0.0,"pressure":1006.3,"uv_index":8.95,"wind_gusts":46.1,"aqi":54,"pm10":16.6,"pm2_5":11.6,"mosquito_risk":0,"arthritis_risk":5,"migraine_risk":7,"frizz_risk":1,"updated_at":"2026-04-29T11:56:42.086417+05:30"},{"city":"Tirupati","state":"Andhra Pradesh","latitude":13.6288,"longitude":79.4192,"temp":38.8,"humidity":30,"rain":0.0,"pressure":990.2,"uv_index":9.3,"wind_gusts":37.1,"aqi":70,"pm10":21.9,"pm2_5":17.9,"mosquito_risk":0,"arthritis_risk":5,"migraine_risk":10,"frizz_risk":1,"updated_at":"2026-04-29T11:56:42.086423+05:30"},{"city":"Warangal","state":"Telangana","latitude":17.9689,"longitude":79.5941,"temp":38.5,"humidity":32,"rain":0.0,"pressure":978.1,"uv_index":9.15,"wind_gusts":36.7,"aqi":107,"pm10":44.2,"pm2_5":37.1,"mosquito_risk":0,"arthritis_risk":5,"migraine_risk":10,"frizz_risk":1,"updated_at":"2026-04-29T11:56:42.086430+05:30"},{"city":"Nizamabad","state":"Telangana","latitude":18.6725,"longitude":78.0941,"temp":40.0,"humidity":17,"rain":0.0,"pressure":964.5,"uv_index":9.1,"wind_gusts":38.9,"aqi":105,"pm10":31.8,"pm2_5":18.5,"mosquito_risk":0,"arthritis_risk":5,"migraine_risk":10,"frizz_risk":0,"updated_at":"2026-04-29T11:56:42.086437+05:30"},{"city":"Mysore","state":"Karnataka","latitude":12.2958,"longitude":76.6396,"temp":33.6,"humidity":39,"rain":0.0,"pressure":929.6,"uv_index":9.4,"wind_gusts":50.4,"aqi":95,"pm10":45.2,"pm2_5":34.2,"mosquito_risk":0,"arthritis_risk":5,"migraine_risk":7,"frizz_risk":1,"updated_at":"2026-04-29T11:56:42.086444+05:30"},{"city":"Mangalore","state":"Karnataka","latitude":12.9141,"longitude":74.856,"temp":33.2,"humidity":59,"rain":0.0,"pressure":1006.6,"uv_index":9.1,"wind_gusts":39.2,"aqi":75,"pm10":60.3,"pm2_5":25.3,"mosquito_risk":0,"arthritis_risk":5,"migraine_risk":4,"frizz_risk":1,"updated_at":"2026-04-29T11:56:42.086450+05:30"},{"city":"Hubli-Dharwad","state":"Karnataka","latitude":15.3647,"longitude":75.124,"temp":35.0,"humidity":41,"rain":0.0,"pressure":941.6,"uv_index":8.9,"wind_gusts":44.3,"aqi":71,"pm10":36.7,"pm2_5":22.7,"mosquito_risk":0,"arthritis_risk":5,"migraine_risk":7,"frizz_risk":1,"updated_at":"2026-04-29T11:56:42.086456+05:30"},{"city":"Belgaum","state":"Karnataka","latitude":15.8497,"longitude":74.4977,"temp":34.3,"humidity":33,"rain":0.0,"pressure":927.0,"uv_index":9.25,"wind_gusts":46.1,"aqi":69,"pm10":36.2,"pm2_5":17.9,"mosquito_risk":0,"arthritis_risk":5,"migraine_risk":7,"frizz_risk":0,"updated_at":"2026-04-29T11:56:45.418516+05:30"},{"city":"Coimbatore","state":"Tamil Nadu","latitude":11.0168,"longitude":76.9558,"temp":34.0,"humidity":39,"rain":0.0,"pressure":962.6,"uv_index":9.15,"wind_gusts":52.6,"aqi":77,"pm10":28.1,"pm2_5":20.9,"mosquito_risk":0,"arthritis_risk":5,"migraine_risk":7,"frizz_risk":1,"updated_at":"2026-04-29T11:56:45.418552+05:30"},{"city":"Madurai","state":"Tamil Nadu","latitude":9.9252,"longitude":78.1198,"temp":38.2,"humidity":32,"rain":0.0,"pressure":992.6,"uv_index":8.15,"wind_gusts":50.0,"aqi":68,"pm10":27.1,"pm2_5":23.5,"mosquito_risk":0,"arthritis_risk":5,"migraine_risk":10,"frizz_risk":1,"updated_at":"2026-04-29T11:56:45.418564+05:30"},{"city":"Trichy","state":"Tamil Nadu","latitude":10.7905,"longitude":78.7047,"temp":36.6,"humidity":38,"rain":0.0,"pressure":999.4,"uv_index":9.15,"wind_gusts":49.0,"aqi":55,"pm10":22.2,"pm2_5":19.9,"mosquito_risk":0,"arthritis_risk":5,"migraine_risk":10,"frizz_risk":1,"updated_at":"2026-04-29T11:56:45.418574+05:30"},{"city":"Salem","state":"Tamil Nadu","latitude":11.6643,"longitude":78.146,"temp":37.0,"humidity":33,"rain":0.0,"pressure":977.2,"uv_index":9.15,"wind_gusts":36.0,"aqi":69,"pm10":31.9,"pm2_5":25.9,"mosquito_risk":0,"arthritis_risk":5,"migraine_risk":10,"frizz_risk":1,"updated_at":"2026-04-29T11:56:45.418582+05:30"},{"city":"Tirunelveli","state":"Tamil Nadu","latitude":8.7139,"longitude":77.7567,"temp":37.8,"humidity":36,"rain":0.0,"pressure":1002.6,"uv_index":8.4,"wind_gusts":41.4,"aqi":57,"pm10":11.8,"pm2_5":10.3,"mosquito_risk":0,"arthritis_risk":5,"migraine_risk":7,"frizz_risk":1,"updated_at":"2026-04-29T11:56:45.418590+05:30"},{"city":"Vellore","state":"Tamil Nadu","latitude":12.9165,"longitude":79.1325,"temp":38.6,"humidity":29,"rain":0.0,"pressure":983.7,"uv_index":9.35,"wind_gusts":38.5,"aqi":76,"pm10":20.9,"pm2_5":17.5,"mosquito_risk":0,"arthritis_risk":5,"migraine_risk":10,"frizz_risk":1,"updated_at":"2026-04-29T11:56:45.418598+05:30"},{"city":"Erode","state":"Tamil Nadu","latitude":11.341,"longitude":77.7172,"temp":37.2,"humidity":34,"rain":0.0,"pressure":988.7,"uv_index":8.8,"wind_gusts":36.4,"aqi":81,"pm10":33.1,"pm2_5":25.7,"mosquito_risk":0,"arthritis_risk":5,"migraine_risk":10,"frizz_risk":1,"updated_at":"2026-04-29T11:56:45.418605+05:30"},{"city":"Kochi","state":"Kerala","latitude":9.9312,"longitude":76.2673,"temp":31.2,"humidity":71,"rain":0.0,"pressure":1009.2,"uv_index":7.3,"wind_gusts":33.5,"aqi":80,"pm10":13.0,"pm2_5":11.2,"mosquito_risk":3,"arthritis_risk":0,"migraine_risk":4,"frizz_risk":1,"updated_at":"2026-04-29T11:56:45.418613+05:30"},{"city":"Thiruvananthapuram","state":"Kerala","latitude":8.5241,"longitude":76.9366,"temp":30.2,"humidity":74,"rain":0.0,"pressure":1008.9,"uv_index":7.75,"wind_gusts":29.9,"aqi":44,"pm10":10.0,"pm2_5":7.9,"mosquito_risk":3,"arthritis_risk":0,"migraine_risk":4,"frizz_risk":1,"updated_at":"2026-04-29T11:56:45.418620+05:30"},{"city":"Kozhikode","state":"Kerala","latitude":11.2588,"longitude":75.7804,"temp":31.1,"humidity":75,"rain":0.0,"pressure":1007.9,"uv_index":9.0,"wind_gusts":36.4,"aqi":67,"pm10":23.9,"pm2_5":17.1,"mosquito_risk":3,"arthritis_risk":5,"migraine_risk":4,"frizz_risk":1,"updated_at":"2026-04-29T11:56:45.418627+05:30"},{"city":"Thrissur","state":"Kerala","latitude":10.5276,"longitude":76.2144,"temp":32.6,"humidity":64,"rain":0.0,"pressure":1007.3,"uv_index":7.95,"wind_gusts":37.8,"aqi":84,"pm10":12.8,"pm2_5":11.0,"mosquito_risk":3,"arthritis_risk":5,"migraine_risk":4,"frizz_risk":1,"updated_at":"2026-04-29T11:56:45.418635+05:30"},{"city":"Kannur","state":"Kerala","latitude":11.8745,"longitude":75.3704,"temp":33.1,"humidity":58,"rain":0.0,"pressure":1007.2,"uv_index":9.05,"wind_gusts":38.9,"aqi":84,"pm10":42.5,"pm2_5":23.6,"mosquito_risk":0,"arthritis_risk":5,"migraine_risk":4,"frizz_risk":1,"updated_at":"2026-04-29T11:56:45.418642+05:30"},{"city":"Patna","state":"Bihar","latitude":25.5941,"longitude":85.1376,"temp":32.3,"humidity":57,"rain":0.0,"pressure":997.7,"uv_index":8.6,"wind_gusts":46.4,"aqi":116,"pm10":61.9,"pm2_5":41.6,"mosquito_risk":0,"arthritis_risk":5,"migraine_risk":7,"frizz_risk":1,"updated_at":"2026-04-29T11:56:45.418649+05:30"},{"city":"Gaya","state":"Bihar","latitude":24.7914,"longitude":85.0002,"temp":37.0,"humidity":39,"rain":0.0,"pressure":990.3,"uv_index":8.65,"wind_gusts":41.0,"aqi":124,"pm10":59.4,"pm2_5":42.5,"mosquito_risk":0,"arthritis_risk":5,"migraine_risk":10,"frizz_risk":1,"updated_at":"2026-04-29T11:56:45.418655+05:30"},{"city":"Muzaffarpur","state":"Bihar","latitude":26.1209,"longitude":85.3647,"temp":31.1,"humidity":59,"rain":0.0,"pressure":998.5,"uv_index":8.55,"wind_gusts":49.0,"aqi":112,"pm10":58.7,"pm2_5":38.5,"mosquito_risk":0,"arthritis_risk":5,"migraine_risk":7,"frizz_risk":1,"updated_at":"2026-04-29T11:56:45.418662+05:30"},{"city":"Bhagalpur","state":"Bihar","latitude":25.2425,"longitude":87.0117,"temp":32.0,"humidity":55,"rain":0.0,"pressure":999.3,"uv_index":8.6,"wind_gusts":41.8,"aqi":83,"pm10":32.5,"pm2_5":23.9,"mosquito_risk":0,"arthritis_risk":5,"migraine_risk":7,"frizz_risk":1,"updated_at":"2026-04-29T11:56:45.418668+05:30"},{"city":"Ranchi","state":"Jharkhand","latitude":23.3441,"longitude":85.3096,"temp":32.0,"humidity":33,"rain":0.0,"pressure":937.7,"uv_index":9.15,"wind_gusts":46.1,"aqi":87,"pm10":43.8,"pm2_5":29.6,"mosquito_risk":0,"arthritis_risk":5,"migraine_risk":7,"frizz_risk":0,"updated_at":"2026-04-29T11:56:45.418674+05:30"},{"city":"Jamshedpur","state":"Jharkhand","latitude":22.8046,"longitude":86.2029,"temp":40.2,"humidity":26,"rain":0.0,"pressure":987.0,"uv_index":9.0,"wind_gusts":48.2,"aqi":138,"pm10":59.3,"pm2_5":49.9,"mosquito_risk":0,"arthritis_risk":5,"migraine_risk":10,"frizz_risk":1,"updated_at":"2026-04-29T11:56:45.418681+05:30"},{"city":"Dhanbad","state":"Jharkhand","latitude":23.7957,"longitude":86.4304,"temp":36.8,"humidity":39,"rain":0.0,"pressure":977.2,"uv_index":8.9,"wind_gusts":44.3,"aqi":163,"pm10":75.0,"pm2_5":68.0,"mosquito_risk":0,"arthritis_risk":5,"migraine_risk":10,"frizz_risk":1,"updated_at":"2026-04-29T11:56:45.418688+05:30"},{"city":"Bokaro","state":"Jharkhand","latitude":23.6693,"longitude":86.1511,"temp":37.2,"humidity":33,"rain":0.0,"pressure":981.0,"uv_index":8.9,"wind_gusts":41.4,"aqi":160,"pm10":65.9,"pm2_5":56.8,"mosquito_risk":0,"arthritis_risk":5,"migraine_risk":10,"frizz_risk":1,"updated_at":"2026-04-29T11:56:45.418694+05:30"},{"city":"Bhubaneswar","state":"Odisha","latitude":20.2961,"longitude":85.8245,"temp":35.4,"humidity":56,"rain":0.0,"pressure":1000.3,"uv_index":9.05,"wind_gusts":53.3,"aqi":63,"pm10":25.1,"pm2_5":19.7,"mosquito_risk":0,"arthritis_risk":5,"migraine_risk":7,"frizz_risk":1,"updated_at":"2026-04-29T11:56:45.418701+05:30"},{"city":"Cuttack","state":"Odisha","latitude":20.4625,"longitude":85.8828,"temp":36.2,"humidity":53,"rain":0.0,"pressure":1001.8,"uv_index":9.1,"wind_gusts":45.7,"aqi":63,"pm10":25.1,"pm2_5":19.7,"mosquito_risk":0,"arthritis_risk":5,"migraine_risk":7,"frizz_risk":1,"updated_at":"2026-04-29T11:56:45.418708+05:30"},{"city":"Rourkela","state":"Odisha","latitude":22.2604,"longitude":84.8536,"temp":40.2,"humidity":24,"rain":0.0,"pressure":981.8,"uv_index":8.9,"wind_gusts":48.6,"aqi":105,"pm10":54.2,"pm2_5":47.8,"mosquito_risk":0,"arthritis_risk":5,"migraine_risk":10,"frizz_risk":0,"updated_at":"2026-04-29T11:56:45.418715+05:30"},{"city":"Raipur","state":"Chhattisgarh","latitude":21.2514,"longitude":81.6296,"temp":40.6,"humidity":20,"rain":0.0,"pressure":972.8,"uv_index":8.9,"wind_gusts":51.8,"aqi":110,"pm10":38.4,"pm2_5":31.5,"mosquito_risk":0,"arthritis_risk":5,"migraine_risk":10,"frizz_risk":0,"updated_at":"2026-04-29T11:56:45.418722+05:30"},{"city":"Bhilai","state":"Chhattisgarh","latitude":21.1938,"longitude":81.3509,"temp":39.9,"humidity":21,"rain":0.0,"pressure":973.4,"uv_index":8.9,"wind_gusts":50.0,"aqi":107,"pm10":36.0,"pm2_5":28.5,"mosquito_risk":0,"arthritis_risk":5,"migraine_risk":10,"frizz_risk":0,"updated_at":"2026-04-29T11:56:45.418728+05:30"},{"city":"Guwahati","state":"Assam","latitude":26.1158,"longitude":91.7086,"temp":24.4,"humidity":83,"rain":0.1,"pressure":1002.4,"uv_index":7.4,"wind_gusts":24.1,"aqi":69,"pm10":27.6,"pm2_5":14.8,"mosquito_risk":6,"arthritis_risk":5,"migraine_risk":4,"frizz_risk":1,"updated_at":"2026-04-29T11:56:45.418734+05:30"},{"city":"Agartala","state":"Tripura","latitude":23.8315,"longitude":91.2868,"temp":25.0,"humidity":92,"rain":0.1,"pressure":1006.3,"uv_index":7.65,"wind_gusts":39.6,"aqi":64,"pm10":17.6,"pm2_5":12.4,"mosquito_risk":10,"arthritis_risk":5,"migraine_risk":4,"frizz_risk":1,"updated_at":"2026-04-29T11:56:45.418741+05:30"},{"city":"Shillong","state":"Meghalaya","latitude":25.5788,"longitude":91.8933,"temp":18.5,"humidity":87,"rain":0.1,"pressure":856.9,"uv_index":7.5,"wind_gusts":32.4,"aqi":38,"pm10":15.1,"pm2_5":5.8,"mosquito_risk":6,"arthritis_risk":10,"migraine_risk":7,"frizz_risk":1,"updated_at":"2026-04-29T11:56:45.418749+05:30"},{"city":"Imphal","state":"Manipur","latitude":24.817,"longitude":93.9368,"temp":22.4,"humidity":77,"rain":0.1,"pressure":924.7,"uv_index":6.15,"wind_gusts":26.6,"aqi":82,"pm10":17.8,"pm2_5":8.5,"mosquito_risk":6,"arthritis_risk":5,"migraine_risk":7,"frizz_risk":1,"updated_at":"2026-04-29T11:56:45.418756+05:30"},{"city":"Aizawl","state":"Mizoram","latitude":23.7271,"longitude":92.7176,"temp":19.3,"humidity":93,"rain":0.1,"pressure":893.4,"uv_index":6.2,"wind_gusts":42.1,"aqi":72,"pm10":30.0,"pm2_5":15.4,"mosquito_risk":6,"arthritis_risk":10,"migraine_risk":7,"frizz_risk":1,"updated_at":"2026-04-29T11:56:45.418762+05:30"},{"city":"Kohima","state":"Nagaland","latitude":25.6701,"longitude":94.1077,"temp":18.3,"humidity":89,"rain":0.2,"pressure":855.8,"uv_index":7.25,"wind_gusts":23.0,"aqi":42,"pm10":9.2,"pm2_5":5.3,"mosquito_risk":6,"arthritis_risk":10,"migraine_risk":7,"frizz_risk":1,"updated_at":"2026-04-29T11:56:45.418769+05:30"},{"city":"Gangtok","state":"Sikkim","latitude":27.3314,"longitude":88.6138,"temp":18.1,"humidity":71,"rain":0.0,"pressure":837.3,"uv_index":2.8,"wind_gusts":33.8,"aqi":62,"pm10":4.1,"pm2_5":3.2,"mosquito_risk":3,"arthritis_risk":5,"migraine_risk":3,"frizz_risk":0,"updated_at":"2026-04-29T11:56:45.418793+05:30"},{"city":"Siliguri","state":"West Bengal","latitude":26.7271,"longitude":88.3953,"temp":24.7,"humidity":82,"rain":0.0,"pressure":993.5,"uv_index":4.2,"wind_gusts":31.0,"aqi":84,"pm10":15.5,"pm2_5":10.5,"mosquito_risk":3,"arthritis_risk":5,"migraine_risk":3,"frizz_risk":1,"updated_at":"2026-04-29T11:56:48.693934+05:30"},{"city":"Durgapur","state":"West Bengal","latitude":23.5204,"longitude":87.3119,"temp":34.1,"humidity":61,"rain":0.0,"pressure":992.0,"uv_index":8.85,"wind_gusts":37.8,"aqi":154,"pm10":71.5,"pm2_5":65.7,"mosquito_risk":3,"arthritis_risk":5,"migraine_risk":7,"frizz_risk":1,"updated_at":"2026-04-29T11:56:48.693971+05:30"},{"city":"Asansol","state":"West Bengal","latitude":23.6739,"longitude":86.9524,"temp":35.9,"humidity":49,"rain":0.0,"pressure":990.5,"uv_index":8.85,"wind_gusts":42.1,"aqi":156,"pm10":71.5,"pm2_5":65.7,"mosquito_risk":0,"arthritis_risk":5,"migraine_risk":10,"frizz_risk":1,"updated_at":"2026-04-29T11:56:48.693983+05:30"},{"city":"Pondicherry","state":"Puducherry","latitude":11.9139,"longitude":79.8145,"temp":34.5,"humidity":52,"rain":0.0,"pressure":1008.0,"uv_index":8.85,"wind_gusts":51.8,"aqi":53,"pm10":16.4,"pm2_5":14.5,"mosquito_risk":0,"arthritis_risk":0,"migraine_risk":4,"frizz_risk":1,"updated_at":"2026-04-29T11:56:48.693991+05:30"},{"city":"Port Blair","state":"Andaman and Nicobar Islands","latitude":11.6234,"longitude":92.7265,"temp":34.2,"humidity":49,"rain":0.0,"pressure":1007.9,"uv_index":9.1,"wind_gusts":29.9,"aqi":36,"pm10":9.1,"pm2_5":7.0,"mosquito_risk":0,"arthritis_risk":5,"migraine_risk":4,"frizz_risk":1,"updated_at":"2026-04-29T11:56:48.693998+05:30"},{"city":"Haridwar","state":"Uttarakhand","latitude":29.9457,"longitude":78.1642,"temp":29.4,"humidity":44,"rain":0.0,"pressure":972.2,"uv_index":6.75,"wind_gusts":58.3,"aqi":90,"pm10":118.7,"pm2_5":26.4,"mosquito_risk":4,"arthritis_risk":5,"migraine_risk":7,"frizz_risk":0,"updated_at":"2026-04-29T11:56:48.694006+05:30"},{"city":"Rishikesh","state":"Uttarakhand","latitude":30.0869,"longitude":78.2676,"temp":27.5,"humidity":49,"rain":0.0,"pressure":965.4,"uv_index":6.7,"wind_gusts":52.9,"aqi":83,"pm10":97.3,"pm2_5":21.7,"mosquito_risk":4,"arthritis_risk":5,"migraine_risk":7,"frizz_risk":0,"updated_at":"2026-04-29T11:56:48.694014+05:30"},{"city":"Nainital","state":"Uttarakhand","latitude":29.3919,"longitude":79.4542,"temp":16.0,"humidity":68,"rain":0.0,"pressure":806.1,"uv_index":5.65,"wind_gusts":32.4,"aqi":86,"pm10":80.8,"pm2_5":23.3,"mosquito_risk":3,"arthritis_risk":5,"migraine_risk":3,"frizz_risk":0,"updated_at":"2026-04-29T11:56:48.694022+05:30"},{"city":"Mussoorie","state":"Uttarakhand","latitude":30.4599,"longitude":78.0664,"temp":18.3,"humidity":50,"rain":0.0,"pressure":803.9,"uv_index":5.2,"wind_gusts":44.3,"aqi":78,"pm10":95.7,"pm2_5":20.3,"mosquito_risk":0,"arthritis_risk":5,"migraine_risk":3,"frizz_risk":0,"updated_at":"2026-04-29T11:56:48.694030+05:30"},{"city":"Dharamshala","state":"Himachal Pradesh","latitude":32.219,"longitude":76.3234,"temp":24.6,"humidity":27,"rain":0.0,"pressure":868.3,"uv_index":7.3,"wind_gusts":66.6,"aqi":47,"pm10":26.9,"pm2_5":7.2,"mosquito_risk":0,"arthritis_risk":5,"migraine_risk":7,"frizz_risk":0,"updated_at":"2026-04-29T11:56:48.694037+05:30"},{"city":"Dalhousie","state":"Himachal Pradesh","latitude":32.5387,"longitude":75.971,"temp":14.3,"humidity":81,"rain":0.0,"pressure":802.7,"uv_index":7.2,"wind_gusts":42.5,"aqi":57,"pm10":32.4,"pm2_5":9.3,"mosquito_risk":3,"arthritis_risk":10,"migraine_risk":7,"frizz_risk":0,"updated_at":"2026-04-29T11:56:48.694045+05:30"},{"city":"Patiala","state":"Punjab","latitude":30.3398,"longitude":76.3869,"temp":35.3,"humidity":26,"rain":0.0,"pressure":974.7,"uv_index":7.2,"wind_gusts":50.0,"aqi":159,"pm10":393.0,"pm2_5":59.0,"mosquito_risk":0,"arthritis_risk":5,"migraine_risk":10,"frizz_risk":0,"updated_at":"2026-04-29T11:56:48.694052+05:30"},{"city":"Bhatinda","state":"Punjab","latitude":30.211,"longitude":74.9455,"temp":36.3,"humidity":25,"rain":0.0,"pressure":980.5,"uv_index":8.05,"wind_gusts":48.6,"aqi":93,"pm10":113.2,"pm2_5":28.1,"mosquito_risk":0,"arthritis_risk":5,"migraine_risk":10,"frizz_risk":0,"updated_at":"2026-04-29T11:56:48.694058+05:30"},{"city":"Rohtak","state":"Haryana","latitude":28.8955,"longitude":76.6066,"temp":36.5,"humidity":22,"rain":0.0,"pressure":978.6,"uv_index":7.25,"wind_gusts":47.2,"aqi":420,"pm10":425.6,"pm2_5":66.1,"mosquito_risk":0,"arthritis_risk":5,"migraine_risk":10,"frizz_risk":0,"updated_at":"2026-04-29T11:56:48.694066+05:30"},{"city":"Panipat","state":"Haryana","latitude":29.3909,"longitude":76.9635,"temp":35.6,"humidity":23,"rain":0.0,"pressure":977.4,"uv_index":7.3,"wind_gusts":37.1,"aqi":777,"pm10":418.2,"pm2_5":61.2,"mosquito_risk":0,"arthritis_risk":5,"migraine_risk":10,"frizz_risk":0,"updated_at":"2026-04-29T11:56:48.694073+05:30"},{"city":"Mathura","state":"Uttar Pradesh","latitude":27.4924,"longitude":77.6737,"temp":38.3,"humidity":24,"rain":0.0,"pressure":982.4,"uv_index":7.6,"wind_gusts":41.0,"aqi":526,"pm10":1121.3,"pm2_5":111.8,"mosquito_risk":0,"arthritis_risk":5,"migraine_risk":10,"frizz_risk":0,"updated_at":"2026-04-29T11:56:48.694080+05:30"},{"city":"Vrindavan","state":"Uttar Pradesh","latitude":27.5823,"longitude":77.7027,"temp":38.5,"humidity":23,"rain":0.0,"pressure":982.7,"uv_index":7.5,"wind_gusts":34.9,"aqi":526,"pm10":1121.3,"pm2_5":111.8,"mosquito_risk":0,"arthritis_risk":5,"migraine_risk":10,"frizz_risk":0,"updated_at":"2026-04-29T11:56:48.694087+05:30"},{"city":"Ayodhya","state":"Uttar Pradesh","latitude":26.7922,"longitude":82.1998,"temp":35.8,"humidity":42,"rain":0.0,"pressure":991.9,"uv_index":8.05,"wind_gusts":37.4,"aqi":150,"pm10":81.5,"pm2_5":46.2,"mosquito_risk":0,"arthritis_risk":5,"migraine_risk":10,"frizz_risk":1,"updated_at":"2026-04-29T11:56:48.694093+05:30"},{"city":"Ratlam","state":"Madhya Pradesh","latitude":23.3315,"longitude":75.0367,"temp":35.7,"humidity":22,"rain":0.0,"pressure":954.2,"uv_index":8.5,"wind_gusts":50.0,"aqi":47,"pm10":35.2,"pm2_5":13.2,"mosquito_risk":0,"arthritis_risk":5,"migraine_risk":10,"frizz_risk":0,"updated_at":"2026-04-29T11:56:48.694099+05:30"},{"city":"Sagar","state":"Madhya Pradesh","latitude":23.8388,"longitude":78.7378,"temp":38.5,"humidity":17,"rain":0.0,"pressure":948.6,"uv_index":8.65,"wind_gusts":46.8,"aqi":42,"pm10":16.9,"pm2_5":6.6,"mosquito_risk":0,"arthritis_risk":5,"migraine_risk":10,"frizz_risk":0,"updated_at":"2026-04-29T11:56:48.694105+05:30"},{"city":"Satna","state":"Madhya Pradesh","latitude":24.6005,"longitude":80.8322,"temp":40.3,"humidity":16,"rain":0.0,"pressure":967.9,"uv_index":8.6,"wind_gusts":49.3,"aqi":63,"pm10":40.5,"pm2_5":15.0,"mosquito_risk":0,"arthritis_risk":5,"migraine_risk":10,"frizz_risk":0,"updated_at":"2026-04-29T11:56:48.694111+05:30"},{"city":"Akola","state":"Maharashtra","latitude":20.7002,"longitude":77.0082,"temp":39.1,"humidity":21,"rain":0.0,"pressure":974.6,"uv_index":8.85,"wind_gusts":53.6,"aqi":62,"pm10":28.4,"pm2_5":12.0,"mosquito_risk":0,"arthritis_risk":5,"migraine_risk":10,"frizz_risk":0,"updated_at":"2026-04-29T11:56:48.694118+05:30"},{"city":"Amravati","state":"Maharashtra","latitude":20.9374,"longitude":77.7796,"temp":39.2,"humidity":16,"rain":0.0,"pressure":967.0,"uv_index":8.85,"wind_gusts":51.8,"aqi":63,"pm10":29.4,"pm2_5":12.7,"mosquito_risk":0,"arthritis_risk":5,"migraine_risk":10,"frizz_risk":0,"updated_at":"2026-04-29T11:56:48.694125+05:30"},{"city":"Latur","state":"Maharashtra","latitude":18.4088,"longitude":76.5604,"temp":39.2,"humidity":15,"rain":0.0,"pressure":940.8,"uv_index":9.05,"wind_gusts":31.0,"aqi":75,"pm10":25.8,"pm2_5":11.2,"mosquito_risk":0,"arthritis_risk":5,"migraine_risk":10,"frizz_risk":0,"updated_at":"2026-04-29T11:56:48.694131+05:30"},{"city":"Nanded","state":"Maharashtra","latitude":19.1383,"longitude":77.3091,"temp":40.4,"humidity":14,"rain":0.0,"pressure":968.5,"uv_index":9.0,"wind_gusts":34.6,"aqi":81,"pm10":32.1,"pm2_5":14.0,"mosquito_risk":0,"arthritis_risk":5,"migraine_risk":10,"frizz_risk":0,"updated_at":"2026-04-29T11:56:48.694137+05:30"},{"city":"Gulbarga","state":"Karnataka","latitude":17.3297,"longitude":76.8343,"temp":40.2,"humidity":18,"rain":0.0,"pressure":958.4,"uv_index":9.15,"wind_gusts":37.1,"aqi":82,"pm10":27.6,"pm2_5":18.1,"mosquito_risk":0,"arthritis_risk":5,"migraine_risk":10,"frizz_risk":0,"updated_at":"2026-04-29T11:56:48.694142+05:30"},{"city":"Bidar","state":"Karnataka","latitude":17.9104,"longitude":77.5199,"temp":39.0,"humidity":16,"rain":0.0,"pressure":936.5,"uv_index":9.15,"wind_gusts":33.5,"aqi":99,"pm10":24.9,"pm2_5":15.4,"mosquito_risk":0,"arthritis_risk":5,"migraine_risk":10,"frizz_risk":0,"updated_at":"2026-04-29T11:56:48.694148+05:30"},{"city":"Hospet","state":"Karnataka","latitude":15.2689,"longitude":76.3909,"temp":35.8,"humidity":40,"rain":0.0,"pressure":956.2,"uv_index":9.05,"wind_gusts":52.2,"aqi":84,"pm10":38.8,"pm2_5":26.4,"mosquito_risk":0,"arthritis_risk":5,"migraine_risk":10,"frizz_risk":1,"updated_at":"2026-04-29T11:56:48.694154+05:30"},{"city":"Tirupur","state":"Tamil Nadu","latitude":11.1085,"longitude":77.3411,"temp":36.6,"humidity":34,"rain":0.0,"pressure":975.4,"uv_index":8.9,"wind_gusts":57.6,"aqi":88,"pm10":32.7,"pm2_5":25.6,"mosquito_risk":0,"arthritis_risk":5,"migraine_risk":10,"frizz_risk":1,"updated_at":"2026-04-29T11:56:48.694159+05:30"},{"city":"Alappuzha","state":"Kerala","latitude":9.4981,"longitude":76.3388,"temp":29.6,"humidity":78,"rain":0.0,"pressure":1009.5,"uv_index":7.1,"wind_gusts":29.2,"aqi":67,"pm10":11.6,"pm2_5":9.9,"mosquito_risk":7,"arthritis_risk":0,"migraine_risk":4,"frizz_risk":1,"updated_at":"2026-04-29T11:56:48.694166+05:30"},{"city":"Munnar","state":"Kerala","latitude":10.0889,"longitude":77.0595,"temp":23.0,"humidity":69,"rain":0.0,"pressure":859.4,"uv_index":8.25,"wind_gusts":26.3,"aqi":83,"pm10":24.3,"pm2_5":19.0,"mosquito_risk":3,"arthritis_risk":5,"migraine_risk":7,"frizz_risk":1,"updated_at":"2026-04-29T11:56:48.694172+05:30"},{"city":"Silchar","state":"Assam","latitude":24.8333,"longitude":92.7789,"temp":24.0,"humidity":91,"rain":0.4,"pressure":1006.7,"uv_index":7.05,"wind_gusts":30.2,"aqi":85,"pm10":22.9,"pm2_5":13.1,"mosquito_risk":6,"arthritis_risk":5,"migraine_risk":4,"frizz_risk":1,"updated_at":"2026-04-29T11:56:48.694178+05:30"},{"city":"Dibrugarh","state":"Assam","latitude":27.4728,"longitude":94.912,"temp":25.8,"humidity":75,"rain":0.0,"pressure":996.7,"uv_index":3.45,"wind_gusts":28.1,"aqi":110,"pm10":38.4,"pm2_5":24.9,"mosquito_risk":7,"arthritis_risk":5,"migraine_risk":3,"frizz_risk":1,"updated_at":"2026-04-29T11:56:48.694185+05:30"}]