[{"city":"Delhi","state":"Delhi","latitude":28.6139,"longitude":77.209,"temp":24.3,"humidity":66,"rain":0.0,"pressure":987.9,"uv_index":6.05,"wind_gusts":23.4,"aqi":336,"pm10":301.7,"pm2_5":140.6,"mosquito_risk":3,"arthritis_risk":5,"migraine_risk":7,"frizz_risk":1,"updated_at":"2026-03-11T00:25:28.011820+05:30"},{"city":"Mumbai","state":"Maharashtra","latitude":19.076,"longitude":72.8777,"temp":27.9,"humidity":79,"rain":0.0,"pressure":1010.3,"uv_index":7.55,"wind_gusts":19.8,"aqi":203,"pm10":30.3,"pm2_5":29.3,"mosquito_risk":7,"arthritis_risk":0,"migraine_risk":4,"frizz_risk":1,"updated_at":"2026-03-11T00:25:28.011858+05:30"},{"city":"Bangalore","state":"Karnataka","latitude":12.9716,"longitude":77.5946,"temp":21.3,"humidity":68,"rain":0.0,"pressure":914.1,"uv_index":9.25,"wind_gusts":32.4,"aqi":95,"pm10":23.0,"pm2_5":22.0,"mosquito_risk":3,"arthritis_risk":5,"migraine_risk":7,"frizz_risk":0,"updated_at":"2026-03-11T00:25:28.011874+05:30"},{"city":"Hyderabad","state":"Telangana","latitude":17.385,"longitude":78.4867,"temp":22.8,"humidity":63,"rain":0.0,"pressure":956.8,"uv_index":8.6,"wind_gusts":31.0,"aqi":136,"pm10":44.9,"pm2_5":39.8,"mosquito_risk":3,"arthritis_risk":5,"migraine_risk":7,"frizz_risk":0,"updated_at":"2026-03-11T00:25:28.011885+05:30"},{"city":"Chennai","state":"Tamil Nadu","latitude":13.0827,"longitude":80.2707,"temp":24.8,"humidity":79,"rain":0.0,"pressure":1011.7,"uv_index":8.95,"wind_gusts":35.6,"aqi":75,"pm10":23.9,"pm2_5":19.0,"mosquito_risk":3,"arthritis_risk":0,"migraine_risk":4,"frizz_risk":1,"updated_at":"2026-03-11T00:25:28.011894+05:30"},{"city":"Kolkata","state":"West Bengal","latitude":22.5726,"longitude":88.3639,"temp":24.2,"humidity":93,"rain":0.0,"pressure":1010.8,"uv_index":5.1,"wind_gusts":18.0,"aqi":133,"pm10":61.5,"pm2_5":54.2,"mosquito_risk":3,"arthritis_risk":0,"migraine_risk":0,"frizz_risk":1,"updated_at":"2026-03-11T00:25:28.011902+05:30"},{"city":"Pune","state":"Maharashtra","latitude":18.5204,"longitude":73.8567,"temp":22.1,"humidity":63,"rain":0.0,"pressure":950.7,"uv_index":8.1,"wind_gusts":36.4,"aqi":81,"pm10":28.8,"pm2_5":26.6,"mosquito_risk":3,"arthritis_risk":5,"migraine_risk":7,"frizz_risk":0,"updated_at":"2026-03-11T00:25:28.011913+05:30"},{"city":"Ahmedabad","state":"Gujarat","latitude":23.0225,"longitude":72.5714,"temp":26.0,"humidity":38,"rain":0.0,"pressure":1005.9,"uv_index":7.4,"wind_gusts":19.1,"aqi":74,"pm10":30.2,"pm2_5":29.3,"mosquito_risk":4,"arthritis_risk":5,"migraine_risk":4,"frizz_risk":0,"updated_at":"2026-03-11T00:25:28.011921+05:30"},{"city":"Jaipur","state":"Rajasthan","latitude":26.9124,"longitude":75.7873,"temp":23.6,"humidity":27,"rain":0.0,"pressure":964.2,"uv_index":6.85,"wind_gusts":22.0,"aqi":117,"pm10":149.5,"pm2_5":46.1,"mosquito_risk":0,"arthritis_risk":5,"migraine_risk":7,"frizz_risk":0,"updated_at":"2026-03-11T00:25:28.011929+05:30"},{"city":"Lucknow","state":"Uttar Pradesh","latitude":26.8467,"longitude":80.9462,"temp":25.5,"humidity":75,"rain":0.0,"pressure":998.6,"uv_index":6.55,"wind_gusts":20.2,"aqi":185,"pm10":178.3,"pm2_5":141.1,"mosquito_risk":7,"arthritis_risk":5,"migraine_risk":7,"frizz_risk":1,"updated_at":"2026-03-11T00:25:28.011936+05:30"},{"city":"Kanpur","state":"Uttar Pradesh","latitude":26.4499,"longitude":80.3319,"temp":25.2,"humidity":69,"rain":0.0,"pressure":996.7,"uv_index":6.6,"wind_gusts":15.5,"aqi":175,"pm10":211.9,"pm2_5":124.3,"mosquito_risk":7,"arthritis_risk":5,"migraine_risk":7,"frizz_risk":1,"updated_at":"2026-03-11T00:25:28.011943+05:30"},{"city":"Chandigarh","state":"Chandigarh","latitude":30.7333,"longitude":76.7794,"temp":23.1,"humidity":75,"rain":0.0,"pressure":974.0,"uv_index":6.0,"wind_gusts":15.5,"aqi":150,"pm10":91.7,"pm2_5":80.6,"mosquito_risk":3,"arthritis_risk":5,"migraine_risk":3,"frizz_risk":1,"updated_at":"2026-03-11T00:25:28.011951+05:30"},{"city":"Srinagar","state":"Jammu and Kashmir","latitude":34.0837,"longitude":74.7973,"temp":9.7,"humidity":92,"rain":0.1,"pressure":847.0,"uv_index":3.95,"wind_gusts":28.8,"aqi":121,"pm10":82.9,"pm2_5":70.3,"mosquito_risk":6,"arthritis_risk":10,"migraine_risk":3,"frizz_risk":0,"updated_at":"2026-03-11T00:25:28.011959+05:30"},{"city":"Jammu","state":"Jammu and Kashmir","latitude":32.7266,"longitude":74.857,"temp":20.2,"humidity":61,"rain":0.0,"pressure":977.5,"uv_index":6.0,"wind_gusts":38.2,"aqi":112,"pm10":58.2,"pm2_5":51.6,"mosquito_risk":3,"arthritis_risk":5,"migraine_risk":3,"frizz_risk":0,"updated_at":"2026-03-11T00:25:28.011966+05:30"},{"city":"Amritsar","state":"Punjab","latitude":31.634,"longitude":74.8723,"temp":22.7,"humidity":82,"rain":0.0,"pressure":985.2,"uv_index":6.0,"wind_gusts":26.3,"aqi":159,"pm10":121.1,"pm2_5":78.2,"mosquito_risk":3,"arthritis_risk":5,"migraine_risk":3,"frizz_risk":1,"updated_at":"2026-03-11T00:25:28.011973+05:30"},{"city":"Ludhiana","state":"Punjab","latitude":30.901,"longitude":75.8573,"temp":23.6,"humidity":69,"rain":0.0,"pressure":983.8,"uv_index":5.7,"wind_gusts":13.0,"aqi":174,"pm10":202.6,"pm2_5":159.3,"mosquito_risk":3,"arthritis_risk":5,"migraine_risk":3,"frizz_risk":1,"updated_at":"2026-03-11T00:25:28.011980+05:30"},{"city":"Jalandhar","state":"Punjab","latitude":31.326,"longitude":75.5762,"temp":22.1,"humidity":85,"rain":0.0,"pressure":984.9,"uv_index":6.0,"wind_gusts":14.0,"aqi":169,"pm10":194.6,"pm2_5":134.6,"mosquito_risk":3,"arthritis_risk":5,"migraine_risk":3,"frizz_risk":1,"updated_at":"2026-03-11T00:25:28.011989+05:30"},{"city":"Dehradun","state":"Uttarakhand","latitude":30.6284,"longitude":78.0322,"temp":14.3,"humidity":96,"rain":0.0,"pressure":834.2,"uv_index":6.4,"wind_gusts":26.6,"aqi":90,"pm10":53.4,"pm2_5":38.9,"mosquito_risk":3,"arthritis_risk":10,"migraine_risk":7,"frizz_risk":0,"updated_at":"2026-03-11T00:25:28.011997+05:30"},{"city":"Shimla","state":"Himachal Pradesh","latitude":31.1048,"longitude":77.1734,"temp":13.9,"humidity":79,"rain":0.0,"pressure":788.9,"uv_index":6.1,"wind_gusts":37.1,"aqi":95,"pm10":79.9,"pm2_5":59.3,"mosquito_risk":3,"arthritis_risk":5,"migraine_risk":7,"frizz_risk":0,"updated_at":"2026-03-11T00:25:28.012004+05:30"},{"city":"Manali","state":"Himachal Pradesh","latitude":32.2396,"longitude":77.1887,"temp":15.4,"humidity":49,"rain":0.0,"pressure":826.5,"uv_index":7.45,"wind_gusts":41.0,"aqi":54,"pm10":31.0,"pm2_5":20.3,"mosquito_risk":0,"arthritis_risk":5,"migraine_risk":7,"frizz_risk":0,"updated_at":"2026-03-11T00:25:28.012011+05:30"},{"city":"Gurgaon","state":"Haryana","latitude":28.4595,"longitude":77.0266,"temp":22.1,"humidity":73,"rain":0.0,"pressure":986.1,"uv_index":5.9,"wind_gusts":21.2,"aqi":513,"pm10":366.9,"pm2_5":133.6,"mosquito_risk":3,"arthritis_risk":5,"migraine_risk":3,"frizz_risk":1,"updated_at":"2026-03-11T00:25:28.012018+05:30"},{"city":"Noida","state":"Uttar Pradesh","latitude":28.5355,"longitude":77.391,"temp":23.3,"humidity":70,"rain":0.0,"pressure":989.4,"uv_index":6.1,"wind_gusts":23.4,"aqi":513,"pm10":366.9,"pm2_5":133.6,"mosquito_risk":3,"arthritis_risk":5,"migraine_risk":7,"frizz_risk":1,"updated_at":"2026-03-11T00:25:28.012024+05:30"},{"city":"Ghaziabad","state":"Uttar Pradesh","latitude":28.6692,"longitude":77.4538,"temp":21.7,"humidity":77,"rain":0.0,"pressure":987.5,"uv_index":5.9,"wind_gusts":18.7,"aqi":193,"pm10":230.5,"pm2_5":126.7,"mosquito_risk":3,"arthritis_risk":5,"migraine_risk":3,"frizz_risk":1,"updated_at":"2026-03-11T00:25:28.012030+05:30"},{"city":"Faridabad","state":"Haryana","latitude":28.4089,"longitude":77.3178,"temp":23.5,"humidity":63,"rain":0.0,"pressure":988.6,"uv_index":6.05,"wind_gusts":23.0,"aqi":513,"pm10":366.9,"pm2_5":133.6,"mosquito_risk":3,"arthritis_risk":5,"migraine_risk":7,"frizz_risk":1,"updated_at":"2026-03-11T00:25:28.012037+05:30"},{"city":"Meerut","state":"Uttar Pradesh","latitude":28.9845,"longitude":77.7064,"temp":21.4,"humidity":84,"rain":0.0,"pressure":986.5,"uv_index":5.7,"wind_gusts":18.4,"aqi":193,"pm10":230.5,"pm2_5":126.7,"mosquito_risk":3,"arthritis_risk":5,"migraine_risk":3,"frizz_risk":1,"updated_at":"2026-03-11T00:25:28.012043+05:30"},{"city":"Agra","state":"Uttar Pradesh","latitude":27.1767,"longitude":78.0081,"temp":22.2,"humidity":74,"rain":0.0,"pressure":992.6,"uv_index":6.45,"wind_gusts":22.0,"aqi":237,"pm10":409.8,"pm2_5":140.2,"mosquito_risk":3,"arthritis_risk":5,"migraine_risk":7,"frizz_risk":1,"updated_at":"2026-03-11T00:25:28.012049+05:30"},{"city":"Varanasi","state":"Uttar Pradesh","latitude":25.3176,"longitude":82.9739,"temp":24.2,"humidity":87,"rain":0.0,"pressure":1002.6,"uv_index":7.2,"wind_gusts":15.5,"aqi":186,"pm10":167.2,"pm2_5":159.3,"mosquito_risk":3,"arthritis_risk":5,"migraine_risk":4,"frizz_risk":1,"updated_at":"2026-03-11T00:25:28.012058+05:30"},{"city":"Prayagraj","state":"Uttar Pradesh","latitude":25.4358,"longitude":81.8463,"temp":24.7,"humidity":80,"rain":0.0,"pressure":1001.0,"uv_index":7.1,"wind_gusts":15.5,"aqi":184,"pm10":127.1,"pm2_5":121.5,"mosquito_risk":3,"arthritis_risk":5,"migraine_risk":4,"frizz_risk":1,"updated_at":"2026-03-11T00:25:28.012065+05:30"},{"city":"Gorakhpur","state":"Uttar Pradesh","latitude":26.7606,"longitude":83.3732,"temp":23.8,"humidity":83,"rain":0.0,"pressure":1002.5,"uv_index":6.95,"wind_gusts":20.2,"aqi":183,"pm10":184.9,"pm2_5":170.4,"mosquito_risk":3,"arthritis_risk":5,"migraine_risk":4,"frizz_risk":1,"updated_at":"2026-03-11T00:25:28.012071+05:30"},{"city":"Bareilly","state":"Uttar Pradesh","latitude":28.367,"longitude":79.4304,"temp":22.6,"humidity":84,"rain":0.0,"pressure":991.9,"uv_index":5.9,"wind_gusts":18.0,"aqi":185,"pm10":172.8,"pm2_5":153.2,"mosquito_risk":3,"arthritis_risk":5,"migraine_risk":3,"frizz_risk":1,"updated_at":"2026-03-11T00:25:28.012082+05:30"},{"city":"Aligarh","state":"Uttar Pradesh","latitude":27.8974,"longitude":78.088,"temp":21.3,"humidity":78,"rain":0.0,"pressure":990.3,"uv_index":6.15,"wind_gusts":23.4,"aqi":190,"pm10":429.3,"pm2_5":161.6,"mosquito_risk":3,"arthritis_risk":5,"migraine_risk":7,"frizz_risk":1,"updated_at":"2026-03-11T00:25:28.012088+05:30"},{"city":"Moradabad","state":"Uttar Pradesh","latitude":28.8386,"longitude":78.7733,"temp":22.7,"humidity":83,"rain":0.0,"pressure":988.9,"uv_index":5.45,"wind_gusts":23.4,"aqi":184,"pm10":197.9,"pm2_5":156.0,"mosquito_risk":3,"arthritis_risk":5,"migraine_risk":3,"frizz_risk":1,"updated_at":"2026-03-11T00:25:28.012094+05:30"},{"city":"Saharanpur","state":"Uttar Pradesh","latitude":29.9637,"longitude":77.546,"temp":21.4,"humidity":90,"rain":0.0,"pressure":981.0,"uv_index":5.7,"wind_gusts":21.2,"aqi":165,"pm10":173.7,"pm2_5":126.7,"mosquito_risk":3,"arthritis_risk":5,"migraine_risk":3,"frizz_risk":1,"updated_at":"2026-03-11T00:25:28.012099+05:30"},{"city":"Jhansi","state":"Uttar Pradesh","latitude":25.4484,"longitude":78.5685,"temp":23.7,"humidity":46,"rain":0.0,"pressure":982.3,"uv_index":7.05,"wind_gusts":26.3,"aqi":107,"pm10":111.8,"pm2_5":35.7,"mosquito_risk":0,"arthritis_risk":5,"migraine_risk":7,"frizz_risk":0,"updated_at":"2026-03-11T00:25:31.320587+05:30"},{"city":"Surat","state":"Gujarat","latitude":21.1702,"longitude":72.8311,"temp":28.0,"humidity":43,"rain":0.0,"pressure":1008.8,"uv_index":7.3,"wind_gusts":23.8,"aqi":107,"pm10":32.5,"pm2_5":31.3,"mosquito_risk":4,"arthritis_risk":0,"migraine_risk":4,"frizz_risk":0,"updated_at":"2026-03-11T00:25:31.320643+05:30"},{"city":"Vadodara","state":"Gujarat","latitude":22.3072,"longitude":73.1812,"temp":26.8,"humidity":44,"rain":0.0,"pressure":1007.5,"uv_index":7.4,"wind_gusts":17.3,"aqi":70,"pm10":33.9,"pm2_5":32.1,"mosquito_risk":4,"arthritis_risk":5,"migraine_risk":4,"frizz_risk":0,"updated_at":"2026-03-11T00:25:31.320654+05:30"},{"city":"Rajkot","state":"Gujarat","latitude":22.3039,"longitude":70.8022,"temp":26.5,"humidity":36,"rain":0.0,"pressure":998.2,"uv_index":7.25,"wind_gusts":33.5,"aqi":65,"pm10":24.9,"pm2_5":23.4,"mosquito_risk":4,"arthritis_risk":5,"migraine_risk":7,"frizz_risk":0,"updated_at":"2026-03-11T00:25:31.320662+05:30"},{"city":"Thane","state":"Maharashtra","latitude":19.2183,"longitude":72.9781,"temp":26.0,"humidity":80,"rain":0.0,"pressure":1009.8,"uv_index":7.55,"wind_gusts":33.5,"aqi":203,"pm10":30.3,"pm2_5":29.3,"mosquito_risk":7,"arthritis_risk":0,"migraine_risk":4,"frizz_risk":1,"updated_at":"2026-03-11T00:25:31.320669+05:30"},{"city":"Nagpur","state":"Maharashtra","latitude":21.1458,"longitude":79.0882,"temp":23.6,"humidity":58,"rain":0.0,"pressure":976.4,"uv_index":7.95,"wind_gusts":24.8,"aqi":102,"pm10":56.7,"pm2_5":46.6,"mosquito_risk":0,"arthritis_risk":5,"migraine_risk":7,"frizz_risk":0,"updated_at":"2026-03-11T00:25:31.320678+05:30"},{"city":"Nashik","state":"Maharashtra","latitude":19.9975,"longitude":73.7898,"temp":25.1,"humidity":40,"rain":0.0,"pressure":948.2,"uv_index":7.75,"wind_gusts":28.1,"aqi":88,"pm10":23.5,"pm2_5":21.6,"mosquito_risk":4,"arthritis_risk":5,"migraine_risk":7,"frizz_risk":0,"updated_at":"2026-03-11T00:25:31.320685+05:30"},{"city":"Aurangabad","state":"Maharashtra","latitude":19.8762,"longitude":75.3433,"temp":25.2,"humidity":50,"rain":0.0,"pressure":946.8,"uv_index":8.3,"wind_gusts":21.6,"aqi":86,"pm10":40.4,"pm2_5":36.1,"mosquito_risk":4,"arthritis_risk":5,"migraine_risk":7,"frizz_risk":0,"updated_at":"2026-03-11T00:25:31.320691+05:30"},{"city":"Solapur","state":"Maharashtra","latitude":17.6599,"longitude":75.9064,"temp":25.9,"humidity":65,"rain":0.0,"pressure":960.1,"uv_index":8.5,"wind_gusts":29.5,"aqi":126,"pm10":50.8,"pm2_5":46.1,"mosquito_risk":7,"arthritis_risk":5,"migraine_risk":7,"frizz_risk":1,"updated_at":"2026-03-11T00:25:31.320698+05:30"},{"city":"Kolhapur","state":"Maharashtra","latitude":16.705,"longitude":74.2433,"temp":23.0,"humidity":74,"rain":0.0,"pressure":950.3,"uv_index":8.6,"wind_gusts":40.3,"aqi":127,"pm10":60.3,"pm2_5":55.6,"mosquito_risk":3,"arthritis_risk":5,"migraine_risk":7,"frizz_risk":1,"updated_at":"2026-03-11T00:25:31.320707+05:30"},{"city":"Goa","state":"Goa","latitude":15.2993,"longitude":74.124,"temp":27.6,"humidity":91,"rain":0.0,"pressure":1000.6,"uv_index":8.6,"wind_gusts":38.9,"aqi":150,"pm10":68.7,"pm2_5":60.8,"mosquito_risk":7,"arthritis_risk":5,"migraine_risk":4,"frizz_risk":1,"updated_at":"2026-03-11T00:25:31.320715+05:30"},{"city":"Jodhpur","state":"Rajasthan","latitude":26.2389,"longitude":73.0243,"temp":25.3,"humidity":31,"rain":0.0,"pressure":988.0,"uv_index":7.15,"wind_gusts":26.3,"aqi":80,"pm10":60.1,"pm2_5":22.2,"mosquito_risk":4,"arthritis_risk":5,"migraine_risk":7,"frizz_risk":0,"updated_at":"2026-03-11T00:25:31.320722+05:30"},{"city":"Udaipur","state":"Rajasthan","latitude":24.5854,"longitude":73.7125,"temp":20.7,"humidity":41,"rain":0.0,"pressure":951.0,"uv_index":7.75,"wind_gusts":21.6,"aqi":80,"pm10":21.2,"pm2_5":16.2,"mosquito_risk":0,"arthritis_risk":5,"migraine_risk":7,"frizz_risk":0,"updated_at":"2026-03-11T00:25:31.320728+05:30"},{"city":"Kota","state":"Rajasthan","latitude":25.2138,"longitude":75.8648,"temp":22.3,"humidity":46,"rain":0.0,"pressure":982.9,"uv_index":7.15,"wind_gusts":17.3,"aqi":74,"pm10":70.5,"pm2_5":34.6,"mosquito_risk":0,"arthritis_risk":5,"migraine_risk":7,"frizz_risk":0,"updated_at":"2026-03-11T00:25:31.320734+05:30"},{"city":"Bikaner","state":"Rajasthan","latitude":28.0229,"longitude":73.3119,"temp":25.2,"humidity":36,"rain":0.0,"pressure":986.7,"uv_index":6.85,"wind_gusts":29.9,"aqi":79,"pm10":58.4,"pm2_5":21.4,"mosquito_risk":4,"arthritis_risk":5,"migraine_risk":7,"frizz_risk":0,"updated_at":"2026-03-11T00:25:31.320741+05:30"},{"city":"Ajmer","state":"Rajasthan","latitude":26.4499,"longitude":74.6399,"temp":25.3,"humidity":29,"rain":0.0,"pressure":959.2,"uv_index":7.1,"wind_gusts":21.2,"aqi":67,"pm10":60.1,"pm2_5":32.4,"mosquito_risk":4,"arthritis_risk":5,"migraine_risk":7,"frizz_risk":0,"updated_at":"2026-03-11T00:25:31.320748+05:30"},{"city":"Gwalior","state":"Madhya Pradesh","latitude":26.2183,"longitude":78.1828,"temp":25.3,"humidity":50,"rain":0.0,"pressure":987.9,"uv_index":6.75,"wind_gusts":24.5,"aqi":133,"pm10":270.1,"pm2_5":62.9,"mosquito_risk":4,"arthritis_risk":5,"migraine_risk":7,"frizz_risk":0,"updated_at":"2026-03-11T00:25:31.320754+05:30"},{"city":"Indore","state":"Madhya Pradesh","latitude":22.7196,"longitude":75.8577,"temp":19.5,"humidity":56,"rain":0.0,"pressure":951.1,"uv_index":7.65,"wind_gusts":26.3,"aqi":66,"pm10":32.2,"pm2_5":24.1,"mosquito_risk":0,"arthritis_risk":5,"migraine_risk":7,"frizz_risk":0,"updated_at":"2026-03-11T00:25:31.320760+05:30"},{"city":"Bhopal","state":"Madhya Pradesh","latitude":23.2599,"longitude":77.4126,"temp":23.2,"humidity":41,"rain":0.0,"pressure":957.4,"uv_index":7.55,"wind_gusts":23.0,"aqi":63,"pm10":25.0,"pm2_5":17.5,"mosquito_risk":0,"arthritis_risk":5,"migraine_risk":7,"frizz_risk":0,"updated_at":"2026-03-11T00:25:31.320766+05:30"},{"city":"Jabalpur","state":"Madhya Pradesh","latitude":23.1815,"longitude":79.9864,"temp":25.4,"humidity":51,"rain":0.0,"pressure":965.2,"uv_index":7.65,"wind_gusts":26.3,"aqi":85,"pm10":52.7,"pm2_5":28.6,"mosquito_risk":4,"arthritis_risk":5,"migraine_risk":7,"frizz_risk":0,"updated_at":"2026-03-11T00:25:31.320773+05:30"},{"city":"Ujjain","state":"Madhya Pradesh","latitude":23.1765,"longitude":75.7885,"temp":22.3,"humidity":50,"rain":0.0,"pressure":957.4,"uv_index":7.55,"wind_gusts":19.1,"aqi":84,"pm10":44.6,"pm2_5":34.5,"mosquito_risk":0,"arthritis_risk":5,"migraine_risk":7,"frizz_risk":0,"updated_at":"2026-03-11T00:25:31.320780+05:30"},{"city":"Visakhapatnam","state":"Andhra Pradesh","latitude":17.6868,"longitude":83.2185,"temp":23.5,"humidity":90,"rain":0.0,"pressure":1008.3,"uv_index":8.55,"wind_gusts":34.2,"aqi":123,"pm10":34.8,"pm2_5":30.3,"mosquito_risk":3,"arthritis_risk":0,"migraine_risk":4,"frizz_risk":1,"updated_at":"2026-03-11T00:25:31.320786+05:30"},{"city":"Vijayawada","state":"Andhra Pradesh","latitude":16.5062,"longitude":80.648,"temp":22.8,"humidity":87,"rain":0.0,"pressure":1007.4,"uv_index":8.6,"wind_gusts":21.6,"aqi":121,"pm10":38.3,"pm2_5":35.2,"mosquito_risk":3,"arthritis_risk":5,"migraine_risk":4,"frizz_risk":1,"updated_at":"2026-03-11T00:25:31.320793+05:30"},{"city":"Guntur","state":"Andhra Pradesh","latitude":16.3067,"longitude":80.4365,"temp":21.7,"humidity":91,"rain":0.0,"pressure":1008.5,"uv_index":8.65,"wind_gusts":23.4,"aqi":114,"pm10":34.1,"pm2_5":31.7,"mosquito_risk":3,"arthritis_risk":0,"migraine_risk":4,"frizz_risk":1,"updated_at":"2026-03-11T00:25:31.320799+05:30"},{"city":"Nellore","state":"Andhra Pradesh","latitude":14.4426,"longitude":79.9865,"temp":23.1,"humidity":87,"rain":0.0,"pressure":1010.5,"uv_index":8.85,"wind_gusts":28.1,"aqi":85,"pm10":21.9,"pm2_5":17.9,"mosquito_risk":3,"arthritis_risk":0,"migraine_risk":4,"frizz_risk":1,"updated_at":"2026-03-11T00:25:31.320809+05:30"},{"city":"Kurnool","state":"Andhra Pradesh","latitude":15.8281,"longitude":78.0373,"temp":24.9,"humidity":48,"rain":0.0,"pressure":980.7,"uv_index":8.65,"wind_gusts":31.7,"aqi":102,"pm10":18.4,"pm2_5":16.2,"mosquito_risk":0,"arthritis_risk":5,"migraine_risk":7,"frizz_risk":0,"updated_at":"2026-03-11T00:25:31.320820+05:30"},{"city":"Kakinada","state":"Andhra Pradesh","latitude":16.9891,"longitude":82.2475,"temp":20.8,"humidity":93,"rain":0.0,"pressure":1012.4,"uv_index":8.6,"wind_gusts":28.4,"aqi":107,"pm10":31.2,"pm2_5":26.5,"mosquito_risk":3,"arthritis_risk":0,"migraine_risk":4,"frizz_risk":1,"updated_at":"2026-03-11T00:25:31.320827+05:30"},{"city":"Tirupati","state":"Andhra Pradesh","latitude":13.6288,"longitude":79.4192,"temp":21.3,"humidity":72,"rain":0.0,"pressure":996.2,"uv_index":8.95,"wind_gusts":34.6,"aqi":112,"pm10":32.4,"pm2_5":29.5,"mosquito_risk":3,"arthritis_risk":5,"migraine_risk":7,"frizz_risk":1,"updated_at":"2026-03-11T00:25:31.320833+05:30"},{"city":"Warangal","state":"Telangana","latitude":17.9689,"longitude":79.5941,"temp":25.0,"humidity":65,"rain":0.0,"pressure":982.3,"uv_index":8.4,"wind_gusts":27.0,"aqi":135,"pm10":41.2,"pm2_5":37.5,"mosquito_risk":7,"arthritis_risk":5,"migraine_risk":7,"frizz_risk":1,"updated_at":"2026-03-11T00:25:31.320840+05:30"},{"city":"Nizamabad","state":"Telangana","latitude":18.6725,"longitude":78.0941,"temp":25.9,"humidity":62,"rain":0.0,"pressure":968.0,"uv_index":8.3,"wind_gusts":30.6,"aqi":134,"pm10":52.6,"pm2_5":47.1,"mosquito_risk":7,"arthritis_risk":5,"migraine_risk":7,"frizz_risk":1,"updated_at":"2026-03-11T00:25:31.320846+05:30"},{"city":"Mysore","state":"Karnataka","latitude":12.2958,"longitude":76.6396,"temp":22.8,"humidity":55,"rain":0.0,"pressure":930.4,"uv_index":9.25,"wind_gusts":39.2,"aqi":96,"pm10":21.2,"pm2_5":20.2,"mosquito_risk":0,"arthritis_risk":5,"migraine_risk":7,"frizz_risk":0,"updated_at":"2026-03-11T00:25:31.320853+05:30"},{"city":"Mangalore","state":"Karnataka","latitude":12.9141,"longitude":74.856,"temp":28.8,"humidity":80,"rain":0.0,"pressure":1009.0,"uv_index":8.85,"wind_gusts":31.7,"aqi":109,"pm10":48.7,"pm2_5":40.0,"mosquito_risk":7,"arthritis_risk":0,"migraine_risk":4,"frizz_risk":1,"updated_at":"2026-03-11T00:25:31.320859+05:30"},{"city":"Hubli-Dharwad","state":"Karnataka","latitude":15.3647,"longitude":75.124,"temp":24.6,"humidity":48,"rain":0.0,"pressure":943.4,"uv_index":8.8,"wind_gusts":44.3,"aqi":121,"pm10":52.2,"pm2_5":46.7,"mosquito_risk":0,"arthritis_risk":5,"migraine_risk":7,"frizz_risk":0,"updated_at":"2026-03-11T00:25:31.320866+05:30"},{"city":"Belgaum","state":"Karnataka","latitude":15.8497,"longitude":74.4977,"temp":24.6,"humidity":53,"rain":0.0,"pressure":928.3,"uv_index":8.85,"wind_gusts":46.8,"aqi":118,"pm10":56.8,"pm2_5":50.5,"mosquito_risk":0,"arthritis_risk":5,"migraine_risk":7,"frizz_risk":0,"updated_at":"2026-03-11T00:25:34.617789+05:30"},{"city":"Coimbatore","state":"Tamil Nadu","latitude":11.0168,"longitude":76.9558,"temp":23.3,"humidity":80,"rain":0.0,"pressure":965.4,"uv_index":9.25,"wind_gusts":46.4,"aqi":99,"pm10":21.3,"pm2_5":20.7,"mosquito_risk":3,"arthritis_risk":5,"migraine_risk":7,"frizz_risk":1,"updated_at":"2026-03-11T00:25:34.617816+05:30"},{"city":"Madurai","state":"Tamil Nadu","latitude":9.9252,"longitude":78.1198,"temp":25.0,"humidity":80,"rain":0.0,"pressure":997.0,"uv_index":9.2,"wind_gusts":41.4,"aqi":91,"pm10":19.2,"pm2_5":18.2,"mosquito_risk":7,"arthritis_risk":5,"migraine_risk":7,"frizz_risk":1,"updated_at":"2026-03-11T00:25:34.617826+05:30"},{"city":"Trichy","state":"Tamil Nadu","latitude":10.7905,"longitude":78.7047,"temp":24.0,"humidity":94,"rain":0.0,"pressure":1003.9,"uv_index":9.05,"wind_gusts":37.4,"aqi":86,"pm10":19.7,"pm2_5":17.5,"mosquito_risk":3,"arthritis_risk":5,"migraine_risk":4,"frizz_risk":1,"updated_at":"2026-03-11T00:25:34.617834+05:30"},{"city":"Salem","state":"Tamil Nadu","latitude":11.6643,"longitude":78.146,"temp":23.8,"humidity":81,"rain":0.0,"pressure":981.0,"uv_index":9.15,"wind_gusts":33.1,"aqi":104,"pm10":22.7,"pm2_5":21.1,"mosquito_risk":3,"arthritis_risk":5,"migraine_risk":7,"frizz_risk":1,"updated_at":"2026-03-11T00:25:34.617842+05:30"},{"city":"Tirunelveli","state":"Tamil Nadu","latitude":8.7139,"longitude":77.7567,"temp":25.1,"humidity":81,"rain":0.0,"pressure":1006.9,"uv_index":9.2,"wind_gusts":47.2,"aqi":79,"pm10":11.0,"pm2_5":10.4,"mosquito_risk":7,"arthritis_risk":5,"migraine_risk":4,"frizz_risk":1,"updated_at":"2026-03-11T00:25:34.617849+05:30"},{"city":"Vellore","state":"Tamil Nadu","latitude":12.9165,"longitude":79.1325,"temp":22.1,"humidity":82,"rain":0.0,"pressure":989.2,"uv_index":9.05,"wind_gusts":35.6,"aqi":123,"pm10":38.4,"pm2_5":34.5,"mosquito_risk":3,"arthritis_risk":5,"migraine_risk":7,"frizz_risk":1,"updated_at":"2026-03-11T00:25:34.617856+05:30"},{"city":"Erode","state":"Tamil Nadu","latitude":11.341,"longitude":77.7172,"temp":25.0,"humidity":83,"rain":0.0,"pressure":993.0,"uv_index":9.1,"wind_gusts":30.2,"aqi":100,"pm10":19.9,"pm2_5":18.8,"mosquito_risk":7,"arthritis_risk":5,"migraine_risk":7,"frizz_risk":1,"updated_at":"2026-03-11T00:25:34.617863+05:30"},{"city":"Kochi","state":"Kerala","latitude":9.9312,"longitude":76.2673,"temp":27.9,"humidity":81,"rain":0.0,"pressure":1011.0,"uv_index":9.05,"wind_gusts":39.2,"aqi":149,"pm10":74.0,"pm2_5":69.2,"mosquito_risk":7,"arthritis_risk":0,"migraine_risk":4,"frizz_risk":1,"updated_at":"2026-03-11T00:25:34.617870+05:30"},{"city":"Thiruvananthapuram","state":"Kerala","latitude":8.5241,"longitude":76.9366,"temp":28.6,"humidity":78,"rain":0.0,"pressure":1009.8,"uv_index":9.1,"wind_gusts":27.4,"aqi":99,"pm10":20.1,"pm2_5":15.8,"mosquito_risk":7,"arthritis_risk":0,"migraine_risk":4,"frizz_risk":1,"updated_at":"2026-03-11T00:25:34.617878+05:30"},{"city":"Kozhikode","state":"Kerala","latitude":11.2588,"longitude":75.7804,"temp":28.7,"humidity":79,"rain":0.0,"pressure":1009.8,"uv_index":8.95,"wind_gusts":24.8,"aqi":139,"pm10":48.8,"pm2_5":38.4,"mosquito_risk":7,"arthritis_risk":0,"migraine_risk":4,"frizz_risk":1,"updated_at":"2026-03-11T00:25:34.617885+05:30"},{"city":"Thrissur","state":"Kerala","latitude":10.5276,"longitude":76.2144,"temp":27.0,"humidity":84,"rain":0.0,"pressure":1009.3,"uv_index":9.0,"wind_gusts":37.4,"aqi":129,"pm10":65.9,"pm2_5":59.3,"mosquito_risk":7,"arthritis_risk":0,"migraine_risk":4,"frizz_risk":1,"updated_at":"2026-03-11T00:25:34.617892+05:30"},{"city":"Kannur","state":"Kerala","latitude":11.8745,"longitude":75.3704,"temp":27.7,"humidity":83,"rain":0.0,"pressure":1009.0,"uv_index":8.95,"wind_gusts":39.2,"aqi":109,"pm10":55.8,"pm2_5":46.2,"mosquito_risk":7,"arthritis_risk":0,"migraine_risk":4,"frizz_risk":1,"updated_at":"2026-03-11T00:25:34.617899+05:30"},{"city":"Patna","state":"Bihar","latitude":25.5941,"longitude":85.1376,"temp":26.0,"humidity":80,"rain":0.0,"pressure":1005.7,"uv_index":7.4,"wind_gusts":24.5,"aqi":173,"pm10":141.1,"pm2_5":132.7,"mosquito_risk":7,"arthritis_risk":5,"migraine_risk":4,"frizz_risk":1,"updated_at":"2026-03-11T00:25:34.617906+05:30"},{"city":"Gaya","state":"Bihar","latitude":24.7914,"longitude":85.0002,"temp":24.3,"humidity":88,"rain":0.0,"pressure":998.9,"uv_index":7.5,"wind_gusts":15.5,"aqi":168,"pm10":142.0,"pm2_5":130.9,"mosquito_risk":3,"arthritis_risk":5,"migraine_risk":7,"frizz_risk":1,"updated_at":"2026-03-11T00:25:34.617912+05:30"},{"city":"Muzaffarpur","state":"Bihar","latitude":26.1209,"longitude":85.3647,"temp":24.5,"humidity":83,"rain":0.0,"pressure":1005.5,"uv_index":7.35,"wind_gusts":22.0,"aqi":177,"pm10":187.2,"pm2_5":176.5,"mosquito_risk":3,"arthritis_risk":5,"migraine_risk":4,"frizz_risk":1,"updated_at":"2026-03-11T00:25:34.617918+05:30"},{"city":"Bhagalpur","state":"Bihar","latitude":25.2425,"longitude":87.0117,"temp":25.3,"humidity":83,"rain":0.0,"pressure":1006.2,"uv_index":7.4,"wind_gusts":17.6,"aqi":164,"pm10":77.3,"pm2_5":72.4,"mosquito_risk":7,"arthritis_risk":5,"migraine_risk":4,"frizz_risk":1,"updated_at":"2026-03-11T00:25:34.617924+05:30"},{"city":"Ranchi","state":"Jharkhand","latitude":23.3441,"longitude":85.3096,"temp":21.3,"humidity":91,"rain":0.0,"pressure":942.0,"uv_index":8.15,"wind_gusts":29.5,"aqi":160,"pm10":105.0,"pm2_5":94.1,"mosquito_risk":3,"arthritis_risk":5,"migraine_risk":7,"frizz_risk":1,"updated_at":"2026-03-11T00:25:34.617930+05:30"},{"city":"Jamshedpur","state":"Jharkhand","latitude":22.8046,"longitude":86.2029,"temp":23.9,"humidity":85,"rain":0.0,"pressure":996.4,"uv_index":8.05,"wind_gusts":31.0,"aqi":141,"pm10":73.8,"pm2_5":62.6,"mosquito_risk":3,"arthritis_risk":5,"migraine_risk":7,"frizz_risk":1,"updated_at":"2026-03-11T00:25:34.617936+05:30"},{"city":"Dhanbad","state":"Jharkhand","latitude":23.7957,"longitude":86.4304,"temp":23.7,"humidity":88,"rain":0.0,"pressure":984.9,"uv_index":7.9,"wind_gusts":20.9,"aqi":169,"pm10":137.4,"pm2_5":126.2,"mosquito_risk":3,"arthritis_risk":5,"migraine_risk":7,"frizz_risk":1,"updated_at":"2026-03-11T00:25:34.617943+05:30"},{"city":"Bokaro","state":"Jharkhand","latitude":23.6693,"longitude":86.1511,"temp":23.1,"humidity":88,"rain":0.0,"pressure":989.1,"uv_index":7.9,"wind_gusts":20.5,"aqi":177,"pm10":171.4,"pm2_5":157.4,"mosquito_risk":3,"arthritis_risk":5,"migraine_risk":7,"frizz_risk":1,"updated_at":"2026-03-11T00:25:34.617949+05:30"},{"city":"Bhubaneswar","state":"Odisha","latitude":20.2961,"longitude":85.8245,"temp":24.0,"humidity":88,"rain":0.0,"pressure":1007.3,"uv_index":8.35,"wind_gusts":32.4,"aqi":117,"pm10":47.6,"pm2_5":41.1,"mosquito_risk":3,"arthritis_risk":5,"migraine_risk":4,"frizz_risk":1,"updated_at":"2026-03-11T00:25:34.617956+05:30"},{"city":"Cuttack","state":"Odisha","latitude":20.4625,"longitude":85.8828,"temp":24.6,"humidity":86,"rain":0.0,"pressure":1009.4,"uv_index":8.35,"wind_gusts":28.8,"aqi":117,"pm10":47.6,"pm2_5":41.1,"mosquito_risk":3,"arthritis_risk":0,"migraine_risk":4,"frizz_risk":1,"updated_at":"2026-03-11T00:25:34.617963+05:30"},{"city":"Rourkela","state":"Odisha","latitude":22.2604,"longitude":84.8536,"temp":24.6,"humidity":76,"rain":0.0,"pressure":989.5,"uv_index":7.95,"wind_gusts":34.9,"aqi":158,"pm10":87.5,"pm2_5":79.9,"mosquito_risk":3,"arthritis_risk":5,"migraine_risk":7,"frizz_risk":1,"updated_at":"2026-03-11T00:25:34.617969+05:30"},{"city":"Raipur","state":"Chhattisgarh","latitude":21.2514,"longitude":81.6296,"temp":27.5,"humidity":45,"rain":0.0,"pressure":977.8,"uv_index":8.05,"wind_gusts":17.3,"aqi":155,"pm10":89.2,"pm2_5":69.6,"mosquito_risk":4,"arthritis_risk":5,"migraine_risk":7,"frizz_risk":0,"updated_at":"2026-03-11T00:25:34.617976+05:30"},{"city":"Bhilai","state":"Chhattisgarh","latitude":21.1938,"longitude":81.3509,"temp":25.3,"humidity":53,"rain":0.0,"pressure":977.9,"uv_index":8.05,"wind_gusts":13.7,"aqi":151,"pm10":85.4,"pm2_5":66.1,"mosquito_risk":4,"arthritis_risk":5,"migraine_risk":7,"frizz_risk":0,"updated_at":"2026-03-11T00:25:34.617982+05:30"},{"city":"Guwahati","state":"Assam","latitude":26.1158,"longitude":91.7086,"temp":23.7,"humidity":85,"rain":0.0,"pressure":1006.1,"uv_index":7.3,"wind_gusts":11.5,"aqi":155,"pm10":59.5,"pm2_5":56.0,"mosquito_risk":3,"arthritis_risk":5,"migraine_risk":4,"frizz_risk":1,"updated_at":"2026-03-11T00:25:34.617988+05:30"},{"city":"Agartala","state":"Tripura","latitude":23.8315,"longitude":91.2868,"temp":21.8,"humidity":85,"rain":0.0,"pressure":1010.6,"uv_index":7.7,"wind_gusts":14.4,"aqi":169,"pm10":102.0,"pm2_5":94.5,"mosquito_risk":3,"arthritis_risk":0,"migraine_risk":4,"frizz_risk":1,"updated_at":"2026-03-11T00:25:34.617994+05:30"},{"city":"Shillong","state":"Meghalaya","latitude":25.5788,"longitude":91.8933,"temp":11.3,"humidity":91,"rain":0.0,"pressure":858.2,"uv_index":6.75,"wind_gusts":18.4,"aqi":144,"pm10":43.7,"pm2_5":40.5,"mosquito_risk":3,"arthritis_risk":10,"migraine_risk":7,"frizz_risk":0,"updated_at":"2026-03-11T00:25:34.618000+05:30"},{"city":"Imphal","state":"Manipur","latitude":24.817,"longitude":93.9368,"temp":17.1,"humidity":83,"rain":0.0,"pressure":927.1,"uv_index":6.2,"wind_gusts":30.6,"aqi":153,"pm10":71.2,"pm2_5":68.2,"mosquito_risk":3,"arthritis_risk":10,"migraine_risk":7,"frizz_risk":0,"updated_at":"2026-03-11T00:25:34.618007+05:30"},{"city":"Aizawl","state":"Mizoram","latitude":23.7271,"longitude":92.7176,"temp":16.6,"humidity":75,"rain":0.0,"pressure":895.4,"uv_index":7.85,"wind_gusts":27.7,"aqi":133,"pm10":32.8,"pm2_5":28.8,"mosquito_risk":3,"arthritis_risk":5,"migraine_risk":7,"frizz_risk":0,"updated_at":"2026-03-11T00:25:34.618014+05:30"},{"city":"Kohima","state":"Nagaland","latitude":25.6701,"longitude":94.1077,"temp":14.7,"humidity":82,"rain":0.0,"pressure":858.1,"uv_index":6.8,"wind_gusts":50.0,"aqi":135,"pm10":48.7,"pm2_5":46.1,"mosquito_risk":3,"arthritis_risk":10,"migraine_risk":7,"frizz_risk":0,"updated_at":"2026-03-11T00:25:34.618020+05:30"},{"city":"Gangtok","state":"Sikkim","latitude":27.3314,"longitude":88.6138,"temp":14.5,"humidity":79,"rain":0.0,"pressure":841.0,"uv_index":6.25,"wind_gusts":18.7,"aqi":145,"pm10":74.5,"pm2_5":65.7,"mosquito_risk":3,"arthritis_risk":5,"migraine_risk":7,"frizz_risk":0,"updated_at":"2026-03-11T00:25:34.618026+05:30"},{"city":"Siliguri","state":"West Bengal","latitude":26.7271,"longitude":88.3953,"temp":21.4,"humidity":68,"rain":0.0,"pressure":999.3,"uv_index":7.3,"wind_gusts":21.2,"aqi":163,"pm10":112.7,"pm2_5":99.7,"mosquito_risk":3,"arthritis_risk":5,"migraine_risk":7,"frizz_risk":0,"updated_at":"2026-03-11T00:25:37.930842+05:30"},{"city":"Durgapur","state":"West Bengal","latitude":23.5204,"longitude":87.3119,"temp":23.4,"humidity":86,"rain":0.0,"pressure":1000.4,"uv_index":7.85,"wind_gusts":19.4,"aqi":154,"pm10":82.4,"pm2_5":75.9,"mosquito_risk":3,"arthritis_risk":5,"migraine_risk":4,"frizz_risk":1,"updated_at":"2026-03-11T00:25:37.930875+05:30"},{"city":"Asansol","state":"West Bengal","latitude":23.6739,"longitude":86.9524,"temp":23.8,"humidity":83,"rain":0.0,"pressure":998.8,"uv_index":7.9,"wind_gusts":19.1,"aqi":158,"pm10":97.3,"pm2_5":88.5,"mosquito_risk":3,"arthritis_risk":5,"migraine_risk":7,"frizz_risk":1,"updated_at":"2026-03-11T00:25:37.930887+05:30"},{"city":"Pondicherry","state":"Puducherry","latitude":11.9139,"longitude":79.8145,"temp":23.4,"humidity":87,"rain":0.0,"pressure":1012.8,"uv_index":8.95,"wind_gusts":37.8,"aqi":69,"pm10":21.5,"pm2_5":16.1,"mosquito_risk":3,"arthritis_risk":0,"migraine_risk":4,"frizz_risk":1,"updated_at":"2026-03-11T00:25:37.930897+05:30"},{"city":"Port Blair","state":"Andaman and Nicobar Islands","latitude":11.6234,"longitude":92.7265,"temp":27.7,"humidity":82,"rain":0.0,"pressure":1009.6,"uv_index":8.95,"wind_gusts":29.2,"aqi":69,"pm10":25.4,"pm2_5":21.6,"mosquito_risk":7,"arthritis_risk":0,"migraine_risk":4,"frizz_risk":1,"updated_at":"2026-03-11T00:25:37.930907+05:30"},{"city":"Haridwar","state":"Uttarakhand","latitude":29.9457,"longitude":78.1642,"temp":22.2,"humidity":93,"rain":0.0,"pressure":979.9,"uv_index":5.85,"wind_gusts":22.3,"aqi":157,"pm10":110.8,"pm2_5":90.8,"mosquito_risk":3,"arthritis_risk":5,"migraine_risk":3,"frizz_risk":1,"updated_at":"2026-03-11T00:25:37.930916+05:30"},{"city":"Rishikesh","state":"Uttarakhand","latitude":30.0869,"longitude":78.2676,"temp":21.8,"humidity":88,"rain":0.0,"pressure":972.8,"uv_index":5.9,"wind_gusts":23.0,"aqi":154,"pm10":111.5,"pm2_5":76.1,"mosquito_risk":3,"arthritis_risk":5,"migraine_risk":3,"frizz_risk":1,"updated_at":"2026-03-11T00:25:37.930925+05:30"},{"city":"Nainital","state":"Uttarakhand","latitude":29.3919,"longitude":79.4542,"temp":17.3,"humidity":81,"rain":0.0,"pressure":809.9,"uv_index":6.75,"wind_gusts":56.9,"aqi":176,"pm10":135.5,"pm2_5":110.1,"mosquito_risk":3,"arthritis_risk":10,"migraine_risk":7,"frizz_risk":0,"updated_at":"2026-03-11T00:25:37.930935+05:30"},{"city":"Mussoorie","state":"Uttarakhand","latitude":30.4599,"longitude":78.0664,"temp":15.8,"humidity":88,"rain":0.0,"pressure":806.9,"uv_index":6.25,"wind_gusts":38.9,"aqi":152,"pm10":116.9,"pm2_5":85.2,"mosquito_risk":3,"arthritis_risk":10,"migraine_risk":7,"frizz_risk":0,"updated_at":"2026-03-11T00:25:37.930943+05:30"},{"city":"Dharamshala","state":"Himachal Pradesh","latitude":32.219,"longitude":76.3234,"temp":21.1,"humidity":53,"rain":0.0,"pressure":874.5,"uv_index":6.45,"wind_gusts":20.5,"aqi":56,"pm10":34.3,"pm2_5":20.6,"mosquito_risk":0,"arthritis_risk":5,"migraine_risk":7,"frizz_risk":0,"updated_at":"2026-03-11T00:25:37.930951+05:30"},{"city":"Dalhousie","state":"Himachal Pradesh","latitude":32.5387,"longitude":75.971,"temp":18.4,"humidity":31,"rain":0.0,"pressure":808.6,"uv_index":6.15,"wind_gusts":18.4,"aqi":87,"pm10":58.9,"pm2_5":44.0,"mosquito_risk":0,"arthritis_risk":5,"migraine_risk":7,"frizz_risk":0,"updated_at":"2026-03-11T00:25:37.930961+05:30"},{"city":"Patiala","state":"Punjab","latitude":30.3398,"longitude":76.3869,"temp":21.8,"humidity":82,"rain":0.0,"pressure":983.3,"uv_index":5.9,"wind_gusts":14.4,"aqi":170,"pm10":181.1,"pm2_5":130.9,"mosquito_risk":3,"arthritis_risk":5,"migraine_risk":3,"frizz_risk":1,"updated_at":"2026-03-11T00:25:37.930969+05:30"},{"city":"Bhatinda","state":"Punjab","latitude":30.211,"longitude":74.9455,"temp":21.1,"humidity":75,"rain":0.0,"pressure":988.6,"uv_index":6.45,"wind_gusts":16.9,"aqi":153,"pm10":136.4,"pm2_5":80.3,"mosquito_risk":3,"arthritis_risk":5,"migraine_risk":7,"frizz_risk":1,"updated_at":"2026-03-11T00:25:37.930977+05:30"},{"city":"Rohtak","state":"Haryana","latitude":28.8955,"longitude":76.6066,"temp":21.2,"humidity":72,"rain":0.0,"pressure":986.5,"uv_index":5.75,"wind_gusts":20.2,"aqi":355,"pm10":322.2,"pm2_5":144.8,"mosquito_risk":3,"arthritis_risk":5,"migraine_risk":3,"frizz_risk":0,"updated_at":"2026-03-11T00:25:37.930986+05:30"},{"city":"Panipat","state":"Haryana","latitude":29.3909,"longitude":76.9635,"temp":20.9,"humidity":77,"rain":0.0,"pressure":985.1,"uv_index":5.9,"wind_gusts":18.0,"aqi":303,"pm10":292.4,"pm2_5":132.2,"mosquito_risk":3,"arthritis_risk":5,"migraine_risk":3,"frizz_risk":1,"updated_at":"2026-03-11T00:25:37.930994+05:30"},{"city":"Mathura","state":"Uttar Pradesh","latitude":27.4924,"longitude":77.6737,"temp":21.4,"humidity":72,"rain":0.0,"pressure":991.6,"uv_index":6.35,"wind_gusts":23.0,"aqi":344,"pm10":431.2,"pm2_5":135.5,"mosquito_risk":3,"arthritis_risk":5,"migraine_risk":7,"frizz_risk":1,"updated_at":"2026-03-11T00:25:37.931001+05:30"},{"city":"Vrindavan","state":"Uttar Pradesh","latitude":27.5823,"longitude":77.7027,"temp":21.5,"humidity":70,"rain":0.0,"pressure":992.0,"uv_index":6.3,"wind_gusts":24.1,"aqi":344,"pm10":431.2,"pm2_5":135.5,"mosquito_risk":3,"arthritis_risk":5,"migraine_risk":7,"frizz_risk":0,"updated_at":"2026-03-11T00:25:37.931009+05:30"},{"city":"Ayodhya","state":"Uttar Pradesh","latitude":26.7922,"longitude":82.1998,"temp":24.9,"humidity":84,"rain":0.0,"pressure":1000.4,"uv_index":6.75,"wind_gusts":19.4,"aqi":188,"pm10":155.5,"pm2_5":144.8,"mosquito_risk":3,"arthritis_risk":5,"migraine_risk":4,"frizz_risk":1,"updated_at":"2026-03-11T00:25:37.931015+05:30"},{"city":"Ratlam","state":"Madhya Pradesh","latitude":23.3315,"longitude":75.0367,"temp":19.8,"humidity":64,"rain":0.0,"pressure":957.7,"uv_index":7.55,"wind_gusts":18.7,"aqi":79,"pm10":38.8,"pm2_5":29.3,"mosquito_risk":3,"arthritis_risk":5,"migraine_risk":7,"frizz_risk":0,"updated_at":"2026-03-11T00:25:37.931021+05:30"},{"city":"Sagar","state":"Madhya Pradesh","latitude":23.8388,"longitude":78.7378,"temp":25.7,"humidity":40,"rain":0.0,"pressure":954.1,"uv_index":7.5,"wind_gusts":21.2,"aqi":85,"pm10":59.4,"pm2_5":23.5,"mosquito_risk":4,"arthritis_risk":5,"migraine_risk":7,"frizz_risk":0,"updated_at":"2026-03-11T00:25:37.931027+05:30"},{"city":"Satna","state":"Madhya Pradesh","latitude":24.6005,"longitude":80.8322,"temp":24.1,"humidity":69,"rain":0.0,"pressure":976.0,"uv_index":7.5,"wind_gusts":24.5,"aqi":150,"pm10":110.4,"pm2_5":70.5,"mosquito_risk":3,"arthritis_risk":5,"migraine_risk":7,"frizz_risk":1,"updated_at":"2026-03-11T00:25:37.931033+05:30"},{"city":"Akola","state":"Maharashtra","latitude":20.7002,"longitude":77.0082,"temp":28.5,"humidity":39,"rain":0.0,"pressure":978.0,"uv_index":8.0,"wind_gusts":16.9,"aqi":74,"pm10":37.4,"pm2_5":31.8,"mosquito_risk":4,"arthritis_risk":5,"migraine_risk":7,"frizz_risk":0,"updated_at":"2026-03-11T00:25:37.931039+05:30"},{"city":"Amravati","state":"Maharashtra","latitude":20.9374,"longitude":77.7796,"temp":24.2,"humidity":57,"rain":0.0,"pressure":970.2,"uv_index":7.95,"wind_gusts":19.1,"aqi":70,"pm10":41.6,"pm2_5":34.8,"mosquito_risk":0,"arthritis_risk":5,"migraine_risk":7,"frizz_risk":0,"updated_at":"2026-03-11T00:25:37.931046+05:30"},{"city":"Latur","state":"Maharashtra","latitude":18.4088,"longitude":76.5604,"temp":24.2,"humidity":55,"rain":0.0,"pressure":942.8,"uv_index":8.4,"wind_gusts":27.0,"aqi":108,"pm10":44.9,"pm2_5":38.8,"mosquito_risk":0,"arthritis_risk":5,"migraine_risk":7,"frizz_risk":0,"updated_at":"2026-03-11T00:25:37.931052+05:30"},{"city":"Nanded","state":"Maharashtra","latitude":19.1383,"longitude":77.3091,"temp":26.8,"humidity":45,"rain":0.0,"pressure":971.5,"uv_index":8.2,"wind_gusts":19.4,"aqi":124,"pm10":61.0,"pm2_5":53.7,"mosquito_risk":4,"arthritis_risk":5,"migraine_risk":7,"frizz_risk":0,"updated_at":"2026-03-11T00:25:37.931058+05:30"},{"city":"Gulbarga","state":"Karnataka","latitude":17.3297,"longitude":76.8343,"temp":26.2,"humidity":53,"rain":0.0,"pressure":962.2,"uv_index":8.5,"wind_gusts":30.6,"aqi":126,"pm10":54.7,"pm2_5":49.1,"mosquito_risk":4,"arthritis_risk":5,"migraine_risk":7,"frizz_risk":0,"updated_at":"2026-03-11T00:25:37.931064+05:30"},{"city":"Bidar","state":"Karnataka","latitude":17.9104,"longitude":77.5199,"temp":24.1,"humidity":61,"rain":0.0,"pressure":938.6,"uv_index":8.45,"wind_gusts":33.1,"aqi":131,"pm10":57.3,"pm2_5":51.3,"mosquito_risk":3,"arthritis_risk":5,"migraine_risk":7,"frizz_risk":1,"updated_at":"2026-03-11T00:25:37.931070+05:30"},{"city":"Hospet","state":"Karnataka","latitude":15.2689,"longitude":76.3909,"temp":26.0,"humidity":45,"rain":0.0,"pressure":958.9,"uv_index":8.8,"wind_gusts":36.0,"aqi":119,"pm10":38.0,"pm2_5":33.3,"mosquito_risk":4,"arthritis_risk":5,"migraine_risk":7,"frizz_risk":0,"updated_at":"2026-03-11T00:25:37.931076+05:30"},{"city":"Tirupur","state":"Tamil Nadu","latitude":11.1085,"longitude":77.3411,"temp":24.5,"humidity":78,"rain":0.0,"pressure":979.1,"uv_index":9.25,"wind_gusts":45.0,"aqi":108,"pm10":22.5,"pm2_5":21.5,"mosquito_risk":3,"arthritis_risk":5,"migraine_risk":7,"frizz_risk":1,"updated_at":"2026-03-11T00:25:37.931082+05:30"},{"city":"Alappuzha","state":"Kerala","latitude":9.4981,"longitude":76.3388,"temp":29.5,"humidity":65,"rain":0.0,"pressure":1010.8,"uv_index":9.05,"wind_gusts":33.1,"aqi":146,"pm10":61.0,"pm2_5":49.6,"mosquito_risk":7,"arthritis_risk":0,"migraine_risk":4,"frizz_risk":1,"updated_at":"2026-03-11T00:25:37.931088+05:30"},{"city":"Munnar","state":"Kerala","latitude":10.0889,"longitude":77.0595,"temp":20.5,"humidity":81,"rain":0.0,"pressure":858.4,"uv_index":9.55,"wind_gusts":33.8,"aqi":93,"pm10":18.2,"pm2_5":17.6,"mosquito_risk":3,"arthritis_risk":5,"migraine_risk":7,"frizz_risk":1,"updated_at":"2026-03-11T00:25:37.931095+05:30"},{"city":"Silchar","state":"Assam","latitude":24.8333,"longitude":92.7789,"temp":23.3,"humidity":84,"rain":0.0,"pressure":1009.5,"uv_index":7.65,"wind_gusts":14.0,"aqi":163,"pm10":86.6,"pm2_5":80.1,"mosquito_risk":3,"arthritis_risk":0,"migraine_risk":4,"frizz_risk":1,"updated_at":"2026-03-11T00:25:37.931100+05:30"},{"city":"Dibrugarh","state":"Assam","latitude":27.4728,"longitude":94.912,"temp":24.1,"humidity":80,"rain":0.0,"pressure":1000.0,"uv_index":7.4,"wind_gusts":17.3,"aqi":163,"pm10":75.9,"pm2_5":70.8,"mosquito_risk":3,"arthritis_risk":5,"migraine_risk":4,"frizz_risk":1,"updated_at":"2026-03-11T00:25:37.931106+05:30"}]