[{"city":"Delhi","state":"Delhi","latitude":28.6139,"longitude":77.209,"temp":18.7,"humidity":82,"rain":0.0,"pressure":985.9,"uv_index":6.1,"wind_gusts":53.6,"aqi":158,"pm10":361.4,"pm2_5":58.9,"mosquito_risk":3,"arthritis_risk":10,"migraine_risk":7,"frizz_risk":0,"updated_at":"2026-03-16T01:00:52.314633+05:30"},{"city":"Mumbai","state":"Maharashtra","latitude":19.076,"longitude":72.8777,"temp":27.1,"humidity":86,"rain":0.0,"pressure":1009.7,"uv_index":7.7,"wind_gusts":18.4,"aqi":104,"pm10":61.7,"pm2_5":29.3,"mosquito_risk":7,"arthritis_risk":0,"migraine_risk":4,"frizz_risk":1,"updated_at":"2026-03-16T01:00:52.314668+05:30"},{"city":"Bangalore","state":"Karnataka","latitude":12.9716,"longitude":77.5946,"temp":21.8,"humidity":64,"rain":0.0,"pressure":912.1,"uv_index":9.35,"wind_gusts":28.4,"aqi":82,"pm10":27.4,"pm2_5":26.8,"mosquito_risk":3,"arthritis_risk":5,"migraine_risk":7,"frizz_risk":0,"updated_at":"2026-03-16T01:00:52.314682+05:30"},{"city":"Hyderabad","state":"Telangana","latitude":17.385,"longitude":78.4867,"temp":23.2,"humidity":71,"rain":0.0,"pressure":954.0,"uv_index":8.75,"wind_gusts":29.5,"aqi":91,"pm10":29.1,"pm2_5":25.8,"mosquito_risk":3,"arthritis_risk":5,"migraine_risk":7,"frizz_risk":1,"updated_at":"2026-03-16T01:00:52.314691+05:30"},{"city":"Chennai","state":"Tamil Nadu","latitude":13.0827,"longitude":80.2707,"temp":25.5,"humidity":82,"rain":0.0,"pressure":1008.8,"uv_index":9.1,"wind_gusts":33.1,"aqi":42,"pm10":10.8,"pm2_5":8.0,"mosquito_risk":7,"arthritis_risk":0,"migraine_risk":4,"frizz_risk":1,"updated_at":"2026-03-16T01:00:52.314699+05:30"},{"city":"Kolkata","state":"West Bengal","latitude":22.5726,"longitude":88.3639,"temp":25.1,"humidity":92,"rain":0.0,"pressure":1006.3,"uv_index":8.05,"wind_gusts":32.8,"aqi":59,"pm10":22.4,"pm2_5":18.3,"mosquito_risk":7,"arthritis_risk":5,"migraine_risk":4,"frizz_risk":1,"updated_at":"2026-03-16T01:00:52.314707+05:30"},{"city":"Pune","state":"Maharashtra","latitude":18.5204,"longitude":73.8567,"temp":19.6,"humidity":69,"rain":0.0,"pressure":949.1,"uv_index":8.25,"wind_gusts":40.3,"aqi":121,"pm10":48.1,"pm2_5":36.1,"mosquito_risk":3,"arthritis_risk":5,"migraine_risk":7,"frizz_risk":0,"updated_at":"2026-03-16T01:00:52.314718+05:30"},{"city":"Ahmedabad","state":"Gujarat","latitude":23.0225,"longitude":72.5714,"temp":23.6,"humidity":60,"rain":0.0,"pressure":1003.0,"uv_index":7.15,"wind_gusts":27.0,"aqi":71,"pm10":50.1,"pm2_5":26.6,"mosquito_risk":0,"arthritis_risk":5,"migraine_risk":4,"frizz_risk":0,"updated_at":"2026-03-16T01:00:52.314725+05:30"},{"city":"Jaipur","state":"Rajasthan","latitude":26.9124,"longitude":75.7873,"temp":24.8,"humidity":24,"rain":0.0,"pressure":959.4,"uv_index":6.9,"wind_gusts":34.9,"aqi":125,"pm10":115.0,"pm2_5":30.5,"mosquito_risk":0,"arthritis_risk":5,"migraine_risk":7,"frizz_risk":0,"updated_at":"2026-03-16T01:00:52.314732+05:30"},{"city":"Lucknow","state":"Uttar Pradesh","latitude":26.8467,"longitude":80.9462,"temp":19.4,"humidity":73,"rain":0.0,"pressure":994.8,"uv_index":6.65,"wind_gusts":65.9,"aqi":110,"pm10":35.7,"pm2_5":28.5,"mosquito_risk":3,"arthritis_risk":5,"migraine_risk":7,"frizz_risk":0,"updated_at":"2026-03-16T01:00:52.314739+05:30"},{"city":"Kanpur","state":"Uttar Pradesh","latitude":26.4499,"longitude":80.3319,"temp":19.7,"humidity":73,"rain":0.0,"pressure":992.7,"uv_index":6.7,"wind_gusts":41.0,"aqi":158,"pm10":183.5,"pm2_5":39.1,"mosquito_risk":3,"arthritis_risk":5,"migraine_risk":7,"frizz_risk":0,"updated_at":"2026-03-16T01:00:52.314745+05:30"},{"city":"Chandigarh","state":"Chandigarh","latitude":30.7333,"longitude":76.7794,"temp":15.3,"humidity":90,"rain":0.0,"pressure":971.4,"uv_index":5.9,"wind_gusts":51.8,"aqi":74,"pm10":22.9,"pm2_5":16.7,"mosquito_risk":3,"arthritis_risk":10,"migraine_risk":3,"frizz_risk":0,"updated_at":"2026-03-16T01:00:52.314752+05:30"},{"city":"Srinagar","state":"Jammu and Kashmir","latitude":34.0837,"longitude":74.7973,"temp":5.2,"humidity":96,"rain":0.0,"pressure":838.1,"uv_index":4.2,"wind_gusts":25.6,"aqi":83,"pm10":9.7,"pm2_5":9.5,"mosquito_risk":3,"arthritis_risk":10,"migraine_risk":3,"frizz_risk":0,"updated_at":"2026-03-16T01:00:52.314758+05:30"},{"city":"Jammu","state":"Jammu and Kashmir","latitude":32.7266,"longitude":74.857,"temp":14.1,"humidity":92,"rain":0.0,"pressure":974.7,"uv_index":4.9,"wind_gusts":41.8,"aqi":89,"pm10":37.0,"pm2_5":24.7,"mosquito_risk":3,"arthritis_risk":10,"migraine_risk":3,"frizz_risk":0,"updated_at":"2026-03-16T01:00:52.314764+05:30"},{"city":"Amritsar","state":"Punjab","latitude":31.634,"longitude":74.8723,"temp":14.0,"humidity":95,"rain":0.0,"pressure":983.0,"uv_index":6.45,"wind_gusts":31.3,"aqi":104,"pm10":36.3,"pm2_5":19.5,"mosquito_risk":3,"arthritis_risk":10,"migraine_risk":7,"frizz_risk":0,"updated_at":"2026-03-16T01:00:52.314771+05:30"},{"city":"Ludhiana","state":"Punjab","latitude":30.901,"longitude":75.8573,"temp":15.1,"humidity":95,"rain":0.0,"pressure":981.1,"uv_index":6.2,"wind_gusts":43.9,"aqi":110,"pm10":100.8,"pm2_5":37.1,"mosquito_risk":3,"arthritis_risk":10,"migraine_risk":7,"frizz_risk":0,"updated_at":"2026-03-16T01:00:52.314776+05:30"},{"city":"Jalandhar","state":"Punjab","latitude":31.326,"longitude":75.5762,"temp":14.4,"humidity":92,"rain":0.0,"pressure":982.3,"uv_index":6.3,"wind_gusts":42.1,"aqi":104,"pm10":31.1,"pm2_5":20.5,"mosquito_risk":3,"arthritis_risk":10,"migraine_risk":7,"frizz_risk":0,"updated_at":"2026-03-16T01:00:52.314787+05:30"},{"city":"Dehradun","state":"Uttarakhand","latitude":30.6284,"longitude":78.0322,"temp":9.1,"humidity":83,"rain":0.0,"pressure":828.7,"uv_index":6.3,"wind_gusts":40.3,"aqi":53,"pm10":25.6,"pm2_5":8.3,"mosquito_risk":3,"arthritis_risk":10,"migraine_risk":7,"frizz_risk":0,"updated_at":"2026-03-16T01:00:52.314793+05:30"},{"city":"Shimla","state":"Himachal Pradesh","latitude":31.1048,"longitude":77.1734,"temp":6.7,"humidity":85,"rain":0.0,"pressure":781.3,"uv_index":6.3,"wind_gusts":50.4,"aqi":57,"pm10":15.8,"pm2_5":7.4,"mosquito_risk":3,"arthritis_risk":10,"migraine_risk":7,"frizz_risk":0,"updated_at":"2026-03-16T01:00:52.314799+05:30"},{"city":"Manali","state":"Himachal Pradesh","latitude":32.2396,"longitude":77.1887,"temp":8.1,"humidity":91,"rain":0.7,"pressure":815.2,"uv_index":7.1,"wind_gusts":37.1,"aqi":48,"pm10":8.4,"pm2_5":3.6,"mosquito_risk":6,"arthritis_risk":10,"migraine_risk":7,"frizz_risk":0,"updated_at":"2026-03-16T01:00:52.314806+05:30"},{"city":"Gurgaon","state":"Haryana","latitude":28.4595,"longitude":77.0266,"temp":18.1,"humidity":85,"rain":0.0,"pressure":983.9,"uv_index":6.2,"wind_gusts":42.5,"aqi":1240,"pm10":2019.1,"pm2_5":231.4,"mosquito_risk":3,"arthritis_risk":10,"migraine_risk":7,"frizz_risk":0,"updated_at":"2026-03-16T01:00:52.314812+05:30"},{"city":"Noida","state":"Uttar Pradesh","latitude":28.5355,"longitude":77.391,"temp":19.1,"humidity":79,"rain":0.0,"pressure":987.3,"uv_index":6.15,"wind_gusts":45.4,"aqi":1240,"pm10":2019.1,"pm2_5":231.4,"mosquito_risk":3,"arthritis_risk":5,"migraine_risk":7,"frizz_risk":0,"updated_at":"2026-03-16T01:00:52.314818+05:30"},{"city":"Ghaziabad","state":"Uttar Pradesh","latitude":28.6692,"longitude":77.4538,"temp":17.9,"humidity":88,"rain":0.0,"pressure":986.3,"uv_index":6.1,"wind_gusts":58.7,"aqi":147,"pm10":248.7,"pm2_5":41.0,"mosquito_risk":3,"arthritis_risk":10,"migraine_risk":7,"frizz_risk":0,"updated_at":"2026-03-16T01:00:52.314824+05:30"},{"city":"Faridabad","state":"Haryana","latitude":28.4089,"longitude":77.3178,"temp":18.8,"humidity":79,"rain":0.0,"pressure":985.8,"uv_index":6.15,"wind_gusts":39.2,"aqi":1240,"pm10":2019.1,"pm2_5":231.4,"mosquito_risk":3,"arthritis_risk":5,"migraine_risk":7,"frizz_risk":0,"updated_at":"2026-03-16T01:00:52.314830+05:30"},{"city":"Meerut","state":"Uttar Pradesh","latitude":28.9845,"longitude":77.7064,"temp":17.5,"humidity":86,"rain":0.0,"pressure":985.2,"uv_index":6.0,"wind_gusts":59.4,"aqi":147,"pm10":248.7,"pm2_5":41.0,"mosquito_risk":3,"arthritis_risk":10,"migraine_risk":3,"frizz_risk":0,"updated_at":"2026-03-16T01:00:52.314836+05:30"},{"city":"Agra","state":"Uttar Pradesh","latitude":27.1767,"longitude":78.0081,"temp":18.6,"humidity":87,"rain":0.0,"pressure":988.4,"uv_index":6.5,"wind_gusts":38.2,"aqi":866,"pm10":942.5,"pm2_5":123.9,"mosquito_risk":3,"arthritis_risk":10,"migraine_risk":7,"frizz_risk":1,"updated_at":"2026-03-16T01:00:52.314842+05:30"},{"city":"Varanasi","state":"Uttar Pradesh","latitude":25.3176,"longitude":82.9739,"temp":21.7,"humidity":70,"rain":0.0,"pressure":999.1,"uv_index":7.35,"wind_gusts":37.1,"aqi":143,"pm10":64.3,"pm2_5":51.6,"mosquito_risk":3,"arthritis_risk":5,"migraine_risk":7,"frizz_risk":0,"updated_at":"2026-03-16T01:00:52.314850+05:30"},{"city":"Prayagraj","state":"Uttar Pradesh","latitude":25.4358,"longitude":81.8463,"temp":21.3,"humidity":71,"rain":0.0,"pressure":997.4,"uv_index":7.2,"wind_gusts":36.0,"aqi":119,"pm10":37.5,"pm2_5":29.5,"mosquito_risk":3,"arthritis_risk":5,"migraine_risk":7,"frizz_risk":0,"updated_at":"2026-03-16T01:00:52.314856+05:30"},{"city":"Gorakhpur","state":"Uttar Pradesh","latitude":26.7606,"longitude":83.3732,"temp":20.2,"humidity":67,"rain":0.0,"pressure":998.4,"uv_index":6.85,"wind_gusts":33.5,"aqi":151,"pm10":75.9,"pm2_5":62.2,"mosquito_risk":3,"arthritis_risk":5,"migraine_risk":7,"frizz_risk":0,"updated_at":"2026-03-16T01:00:52.314862+05:30"},{"city":"Bareilly","state":"Uttar Pradesh","latitude":28.367,"longitude":79.4304,"temp":18.4,"humidity":91,"rain":0.0,"pressure":987.4,"uv_index":6.3,"wind_gusts":74.5,"aqi":132,"pm10":33.9,"pm2_5":19.2,"mosquito_risk":3,"arthritis_risk":10,"migraine_risk":7,"frizz_risk":1,"updated_at":"2026-03-16T01:00:52.314868+05:30"},{"city":"Aligarh","state":"Uttar Pradesh","latitude":27.8974,"longitude":78.088,"temp":17.8,"humidity":87,"rain":0.0,"pressure":985.9,"uv_index":6.25,"wind_gusts":37.8,"aqi":177,"pm10":655.7,"pm2_5":88.7,"mosquito_risk":3,"arthritis_risk":10,"migraine_risk":7,"frizz_risk":0,"updated_at":"2026-03-16T01:00:52.314874+05:30"},{"city":"Moradabad","state":"Uttar Pradesh","latitude":28.8386,"longitude":78.7733,"temp":18.2,"humidity":88,"rain":0.0,"pressure":985.8,"uv_index":6.15,"wind_gusts":85.0,"aqi":135,"pm10":38.5,"pm2_5":21.4,"mosquito_risk":3,"arthritis_risk":10,"migraine_risk":7,"frizz_risk":1,"updated_at":"2026-03-16T01:00:52.314882+05:30"},{"city":"Saharanpur","state":"Uttar Pradesh","latitude":29.9637,"longitude":77.546,"temp":15.5,"humidity":88,"rain":0.0,"pressure":979.6,"uv_index":5.75,"wind_gusts":37.8,"aqi":131,"pm10":38.1,"pm2_5":22.7,"mosquito_risk":3,"arthritis_risk":10,"migraine_risk":3,"frizz_risk":0,"updated_at":"2026-03-16T01:00:52.314887+05:30"},{"city":"Jhansi","state":"Uttar Pradesh","latitude":25.4484,"longitude":78.5685,"temp":22.4,"humidity":66,"rain":0.0,"pressure":977.5,"uv_index":7.15,"wind_gusts":34.9,"aqi":80,"pm10":44.7,"pm2_5":23.7,"mosquito_risk":3,"arthritis_risk":5,"migraine_risk":7,"frizz_risk":0,"updated_at":"2026-03-16T01:00:55.642718+05:30"},{"city":"Surat","state":"Gujarat","latitude":21.1702,"longitude":72.8311,"temp":26.0,"humidity":87,"rain":0.0,"pressure":1007.7,"uv_index":7.4,"wind_gusts":26.3,"aqi":127,"pm10":45.2,"pm2_5":26.8,"mosquito_risk":7,"arthritis_risk":5,"migraine_risk":4,"frizz_risk":1,"updated_at":"2026-03-16T01:00:55.642746+05:30"},{"city":"Vadodara","state":"Gujarat","latitude":22.3072,"longitude":73.1812,"temp":25.0,"humidity":78,"rain":0.0,"pressure":1005.2,"uv_index":7.1,"wind_gusts":23.4,"aqi":89,"pm10":41.4,"pm2_5":28.6,"mosquito_risk":7,"arthritis_risk":5,"migraine_risk":4,"frizz_risk":1,"updated_at":"2026-03-16T01:00:55.642758+05:30"},{"city":"Rajkot","state":"Gujarat","latitude":22.3039,"longitude":70.8022,"temp":24.6,"humidity":76,"rain":0.0,"pressure":995.6,"uv_index":7.3,"wind_gusts":31.3,"aqi":69,"pm10":39.6,"pm2_5":20.9,"mosquito_risk":3,"arthritis_risk":5,"migraine_risk":7,"frizz_risk":1,"updated_at":"2026-03-16T01:00:55.642768+05:30"},{"city":"Thane","state":"Maharashtra","latitude":19.2183,"longitude":72.9781,"temp":25.2,"humidity":92,"rain":0.0,"pressure":1009.2,"uv_index":7.7,"wind_gusts":31.3,"aqi":104,"pm10":61.7,"pm2_5":29.3,"mosquito_risk":7,"arthritis_risk":0,"migraine_risk":4,"frizz_risk":1,"updated_at":"2026-03-16T01:00:55.642777+05:30"},{"city":"Nagpur","state":"Maharashtra","latitude":21.1458,"longitude":79.0882,"temp":26.4,"humidity":61,"rain":0.0,"pressure":973.2,"uv_index":7.95,"wind_gusts":22.0,"aqi":108,"pm10":39.0,"pm2_5":35.5,"mosquito_risk":7,"arthritis_risk":5,"migraine_risk":7,"frizz_risk":1,"updated_at":"2026-03-16T01:00:55.642785+05:30"},{"city":"Nashik","state":"Maharashtra","latitude":19.9975,"longitude":73.7898,"temp":20.4,"humidity":66,"rain":0.0,"pressure":945.8,"uv_index":7.7,"wind_gusts":29.5,"aqi":72,"pm10":65.7,"pm2_5":32.9,"mosquito_risk":3,"arthritis_risk":5,"migraine_risk":7,"frizz_risk":0,"updated_at":"2026-03-16T01:00:55.642793+05:30"},{"city":"Aurangabad","state":"Maharashtra","latitude":19.8762,"longitude":75.3433,"temp":24.1,"humidity":53,"rain":0.0,"pressure":944.6,"uv_index":8.05,"wind_gusts":27.0,"aqi":75,"pm10":39.8,"pm2_5":26.8,"mosquito_risk":0,"arthritis_risk":5,"migraine_risk":7,"frizz_risk":0,"updated_at":"2026-03-16T01:00:55.642801+05:30"},{"city":"Solapur","state":"Maharashtra","latitude":17.6599,"longitude":75.9064,"temp":24.5,"humidity":53,"rain":0.0,"pressure":957.9,"uv_index":8.65,"wind_gusts":23.0,"aqi":105,"pm10":49.8,"pm2_5":45.5,"mosquito_risk":0,"arthritis_risk":5,"migraine_risk":7,"frizz_risk":0,"updated_at":"2026-03-16T01:00:55.642809+05:30"},{"city":"Kolhapur","state":"Maharashtra","latitude":16.705,"longitude":74.2433,"temp":21.5,"humidity":74,"rain":0.0,"pressure":948.7,"uv_index":8.75,"wind_gusts":38.2,"aqi":125,"pm10":40.4,"pm2_5":30.6,"mosquito_risk":3,"arthritis_risk":5,"migraine_risk":7,"frizz_risk":1,"updated_at":"2026-03-16T01:00:55.642816+05:30"},{"city":"Goa","state":"Goa","latitude":15.2993,"longitude":74.124,"temp":27.8,"humidity":78,"rain":0.0,"pressure":999.4,"uv_index":8.8,"wind_gusts":31.7,"aqi":116,"pm10":53.3,"pm2_5":37.7,"mosquito_risk":7,"arthritis_risk":5,"migraine_risk":7,"frizz_risk":1,"updated_at":"2026-03-16T01:00:55.642824+05:30"},{"city":"Jodhpur","state":"Rajasthan","latitude":26.2389,"longitude":73.0243,"temp":25.1,"humidity":23,"rain":0.0,"pressure":983.3,"uv_index":7.2,"wind_gusts":36.7,"aqi":107,"pm10":199.3,"pm2_5":33.5,"mosquito_risk":4,"arthritis_risk":5,"migraine_risk":7,"frizz_risk":0,"updated_at":"2026-03-16T01:00:55.642832+05:30"},{"city":"Udaipur","state":"Rajasthan","latitude":24.5854,"longitude":73.7125,"temp":22.6,"humidity":24,"rain":0.0,"pressure":946.9,"uv_index":7.85,"wind_gusts":34.6,"aqi":64,"pm10":42.5,"pm2_5":14.7,"mosquito_risk":0,"arthritis_risk":5,"migraine_risk":7,"frizz_risk":0,"updated_at":"2026-03-16T01:00:55.642840+05:30"},{"city":"Kota","state":"Rajasthan","latitude":25.2138,"longitude":75.8648,"temp":22.3,"humidity":38,"rain":0.0,"pressure":978.1,"uv_index":7.2,"wind_gusts":29.2,"aqi":65,"pm10":38.2,"pm2_5":22.4,"mosquito_risk":0,"arthritis_risk":5,"migraine_risk":7,"frizz_risk":0,"updated_at":"2026-03-16T01:00:55.642848+05:30"},{"city":"Bikaner","state":"Rajasthan","latitude":28.0229,"longitude":73.3119,"temp":25.4,"humidity":33,"rain":0.0,"pressure":982.1,"uv_index":6.9,"wind_gusts":25.9,"aqi":53,"pm10":15.3,"pm2_5":6.8,"mosquito_risk":4,"arthritis_risk":5,"migraine_risk":7,"frizz_risk":0,"updated_at":"2026-03-16T01:00:55.642855+05:30"},{"city":"Ajmer","state":"Rajasthan","latitude":26.4499,"longitude":74.6399,"temp":24.1,"humidity":38,"rain":0.0,"pressure":954.7,"uv_index":7.15,"wind_gusts":39.2,"aqi":75,"pm10":57.6,"pm2_5":22.2,"mosquito_risk":0,"arthritis_risk":5,"migraine_risk":7,"frizz_risk":0,"updated_at":"2026-03-16T01:00:55.642863+05:30"},{"city":"Gwalior","state":"Madhya Pradesh","latitude":26.2183,"longitude":78.1828,"temp":22.3,"humidity":69,"rain":0.0,"pressure":983.2,"uv_index":6.85,"wind_gusts":32.4,"aqi":105,"pm10":115.9,"pm2_5":40.3,"mosquito_risk":3,"arthritis_risk":5,"migraine_risk":7,"frizz_risk":1,"updated_at":"2026-03-16T01:00:55.642871+05:30"},{"city":"Indore","state":"Madhya Pradesh","latitude":22.7196,"longitude":75.8577,"temp":22.4,"humidity":46,"rain":0.0,"pressure":948.0,"uv_index":7.75,"wind_gusts":32.4,"aqi":65,"pm10":32.0,"pm2_5":19.6,"mosquito_risk":0,"arthritis_risk":5,"migraine_risk":7,"frizz_risk":0,"updated_at":"2026-03-16T01:00:55.642878+05:30"},{"city":"Bhopal","state":"Madhya Pradesh","latitude":23.2599,"longitude":77.4126,"temp":22.0,"humidity":51,"rain":0.0,"pressure":953.2,"uv_index":7.65,"wind_gusts":32.0,"aqi":61,"pm10":38.8,"pm2_5":22.4,"mosquito_risk":0,"arthritis_risk":5,"migraine_risk":7,"frizz_risk":0,"updated_at":"2026-03-16T01:00:55.642886+05:30"},{"city":"Jabalpur","state":"Madhya Pradesh","latitude":23.1815,"longitude":79.9864,"temp":23.7,"humidity":55,"rain":0.0,"pressure":960.8,"uv_index":7.8,"wind_gusts":38.2,"aqi":65,"pm10":29.7,"pm2_5":21.8,"mosquito_risk":0,"arthritis_risk":5,"migraine_risk":7,"frizz_risk":0,"updated_at":"2026-03-16T01:00:55.642893+05:30"},{"city":"Ujjain","state":"Madhya Pradesh","latitude":23.1765,"longitude":75.7885,"temp":22.5,"humidity":48,"rain":0.0,"pressure":953.6,"uv_index":7.65,"wind_gusts":31.0,"aqi":69,"pm10":31.9,"pm2_5":18.1,"mosquito_risk":0,"arthritis_risk":5,"migraine_risk":7,"frizz_risk":0,"updated_at":"2026-03-16T01:00:55.642901+05:30"},{"city":"Visakhapatnam","state":"Andhra Pradesh","latitude":17.6868,"longitude":83.2185,"temp":25.2,"humidity":87,"rain":0.0,"pressure":1006.5,"uv_index":8.7,"wind_gusts":42.1,"aqi":63,"pm10":20.0,"pm2_5":16.0,"mosquito_risk":7,"arthritis_risk":5,"migraine_risk":4,"frizz_risk":1,"updated_at":"2026-03-16T01:00:55.642908+05:30"},{"city":"Vijayawada","state":"Andhra Pradesh","latitude":16.5062,"longitude":80.648,"temp":24.2,"humidity":90,"rain":0.0,"pressure":1005.0,"uv_index":8.8,"wind_gusts":27.7,"aqi":56,"pm10":16.4,"pm2_5":14.1,"mosquito_risk":3,"arthritis_risk":5,"migraine_risk":4,"frizz_risk":1,"updated_at":"2026-03-16T01:00:55.642916+05:30"},{"city":"Guntur","state":"Andhra Pradesh","latitude":16.3067,"longitude":80.4365,"temp":24.1,"humidity":89,"rain":0.0,"pressure":1006.0,"uv_index":8.8,"wind_gusts":29.2,"aqi":53,"pm10":13.9,"pm2_5":11.9,"mosquito_risk":3,"arthritis_risk":5,"migraine_risk":4,"frizz_risk":1,"updated_at":"2026-03-16T01:00:55.642923+05:30"},{"city":"Nellore","state":"Andhra Pradesh","latitude":14.4426,"longitude":79.9865,"temp":24.5,"humidity":89,"rain":0.0,"pressure":1007.7,"uv_index":8.95,"wind_gusts":32.8,"aqi":51,"pm10":8.3,"pm2_5":6.7,"mosquito_risk":3,"arthritis_risk":5,"migraine_risk":4,"frizz_risk":1,"updated_at":"2026-03-16T01:00:55.642932+05:30"},{"city":"Kurnool","state":"Andhra Pradesh","latitude":15.8281,"longitude":78.0373,"temp":27.3,"humidity":48,"rain":0.0,"pressure":977.8,"uv_index":8.55,"wind_gusts":21.6,"aqi":84,"pm10":27.4,"pm2_5":24.6,"mosquito_risk":4,"arthritis_risk":5,"migraine_risk":7,"frizz_risk":0,"updated_at":"2026-03-16T01:00:55.642977+05:30"},{"city":"Kakinada","state":"Andhra Pradesh","latitude":16.9891,"longitude":82.2475,"temp":23.5,"humidity":90,"rain":0.0,"pressure":1010.3,"uv_index":8.7,"wind_gusts":29.9,"aqi":57,"pm10":16.7,"pm2_5":12.0,"mosquito_risk":3,"arthritis_risk":0,"migraine_risk":4,"frizz_risk":1,"updated_at":"2026-03-16T01:00:55.642990+05:30"},{"city":"Tirupati","state":"Andhra Pradesh","latitude":13.6288,"longitude":79.4192,"temp":23.3,"humidity":88,"rain":0.0,"pressure":993.5,"uv_index":9.1,"wind_gusts":24.5,"aqi":66,"pm10":20.0,"pm2_5":18.6,"mosquito_risk":3,"arthritis_risk":5,"migraine_risk":7,"frizz_risk":1,"updated_at":"2026-03-16T01:00:55.642996+05:30"},{"city":"Warangal","state":"Telangana","latitude":17.9689,"longitude":79.5941,"temp":25.2,"humidity":78,"rain":0.0,"pressure":979.6,"uv_index":8.6,"wind_gusts":33.1,"aqi":74,"pm10":18.2,"pm2_5":17.1,"mosquito_risk":7,"arthritis_risk":5,"migraine_risk":7,"frizz_risk":1,"updated_at":"2026-03-16T01:00:55.643003+05:30"},{"city":"Nizamabad","state":"Telangana","latitude":18.6725,"longitude":78.0941,"temp":26.1,"humidity":56,"rain":0.0,"pressure":965.1,"uv_index":8.45,"wind_gusts":27.0,"aqi":125,"pm10":51.2,"pm2_5":45.8,"mosquito_risk":4,"arthritis_risk":5,"migraine_risk":7,"frizz_risk":1,"updated_at":"2026-03-16T01:00:55.643008+05:30"},{"city":"Mysore","state":"Karnataka","latitude":12.2958,"longitude":76.6396,"temp":21.8,"humidity":89,"rain":0.0,"pressure":929.0,"uv_index":9.35,"wind_gusts":32.8,"aqi":90,"pm10":34.5,"pm2_5":32.1,"mosquito_risk":3,"arthritis_risk":5,"migraine_risk":7,"frizz_risk":1,"updated_at":"2026-03-16T01:00:55.643014+05:30"},{"city":"Mangalore","state":"Karnataka","latitude":12.9141,"longitude":74.856,"temp":28.9,"humidity":78,"rain":0.0,"pressure":1007.9,"uv_index":9.0,"wind_gusts":24.5,"aqi":83,"pm10":29.3,"pm2_5":25.1,"mosquito_risk":7,"arthritis_risk":5,"migraine_risk":4,"frizz_risk":1,"updated_at":"2026-03-16T01:00:55.643020+05:30"},{"city":"Hubli-Dharwad","state":"Karnataka","latitude":15.3647,"longitude":75.124,"temp":22.8,"humidity":88,"rain":0.0,"pressure":942.0,"uv_index":8.95,"wind_gusts":37.4,"aqi":109,"pm10":36.0,"pm2_5":34.2,"mosquito_risk":3,"arthritis_risk":5,"migraine_risk":7,"frizz_risk":1,"updated_at":"2026-03-16T01:00:55.643025+05:30"},{"city":"Belgaum","state":"Karnataka","latitude":15.8497,"longitude":74.4977,"temp":21.9,"humidity":95,"rain":0.0,"pressure":926.6,"uv_index":9.0,"wind_gusts":37.4,"aqi":118,"pm10":45.3,"pm2_5":34.1,"mosquito_risk":3,"arthritis_risk":5,"migraine_risk":7,"frizz_risk":1,"updated_at":"2026-03-16T01:00:58.972773+05:30"},{"city":"Coimbatore","state":"Tamil Nadu","latitude":11.0168,"longitude":76.9558,"temp":23.5,"humidity":89,"rain":0.0,"pressure":962.7,"uv_index":9.3,"wind_gusts":42.5,"aqi":70,"pm10":32.9,"pm2_5":30.3,"mosquito_risk":3,"arthritis_risk":5,"migraine_risk":7,"frizz_risk":1,"updated_at":"2026-03-16T01:00:58.972800+05:30"},{"city":"Madurai","state":"Tamil Nadu","latitude":9.9252,"longitude":78.1198,"temp":25.0,"humidity":78,"rain":0.0,"pressure":994.7,"uv_index":9.3,"wind_gusts":19.1,"aqi":53,"pm10":14.8,"pm2_5":13.9,"mosquito_risk":7,"arthritis_risk":5,"migraine_risk":7,"frizz_risk":1,"updated_at":"2026-03-16T01:00:58.972812+05:30"},{"city":"Trichy","state":"Tamil Nadu","latitude":10.7905,"longitude":78.7047,"temp":24.8,"humidity":92,"rain":0.0,"pressure":1001.3,"uv_index":9.2,"wind_gusts":21.2,"aqi":52,"pm10":12.0,"pm2_5":10.9,"mosquito_risk":3,"arthritis_risk":5,"migraine_risk":4,"frizz_risk":1,"updated_at":"2026-03-16T01:00:58.972822+05:30"},{"city":"Salem","state":"Tamil Nadu","latitude":11.6643,"longitude":78.146,"temp":24.4,"humidity":85,"rain":0.0,"pressure":978.4,"uv_index":9.25,"wind_gusts":13.7,"aqi":70,"pm10":21.2,"pm2_5":20.6,"mosquito_risk":3,"arthritis_risk":5,"migraine_risk":7,"frizz_risk":1,"updated_at":"2026-03-16T01:00:58.972831+05:30"},{"city":"Tirunelveli","state":"Tamil Nadu","latitude":8.7139,"longitude":77.7567,"temp":25.9,"humidity":82,"rain":0.0,"pressure":1004.6,"uv_index":9.3,"wind_gusts":46.1,"aqi":50,"pm10":16.7,"pm2_5":15.4,"mosquito_risk":7,"arthritis_risk":5,"migraine_risk":4,"frizz_risk":1,"updated_at":"2026-03-16T01:00:58.972839+05:30"},{"city":"Vellore","state":"Tamil Nadu","latitude":12.9165,"longitude":79.1325,"temp":22.6,"humidity":79,"rain":0.0,"pressure":986.1,"uv_index":9.15,"wind_gusts":36.7,"aqi":88,"pm10":32.7,"pm2_5":30.9,"mosquito_risk":3,"arthritis_risk":5,"migraine_risk":7,"frizz_risk":1,"updated_at":"2026-03-16T01:00:58.972846+05:30"},{"city":"Erode","state":"Tamil Nadu","latitude":11.341,"longitude":77.7172,"temp":25.5,"humidity":78,"rain":0.0,"pressure":990.6,"uv_index":9.25,"wind_gusts":24.5,"aqi":50,"pm10":11.1,"pm2_5":10.4,"mosquito_risk":7,"arthritis_risk":5,"migraine_risk":7,"frizz_risk":1,"updated_at":"2026-03-16T01:00:58.972853+05:30"},{"city":"Kochi","state":"Kerala","latitude":9.9312,"longitude":76.2673,"temp":27.8,"humidity":79,"rain":0.0,"pressure":1009.9,"uv_index":9.1,"wind_gusts":34.6,"aqi":75,"pm10":45.4,"pm2_5":44.7,"mosquito_risk":7,"arthritis_risk":0,"migraine_risk":4,"frizz_risk":1,"updated_at":"2026-03-16T01:00:58.972861+05:30"},{"city":"Thiruvananthapuram","state":"Kerala","latitude":8.5241,"longitude":76.9366,"temp":27.8,"humidity":80,"rain":0.0,"pressure":1008.9,"uv_index":9.15,"wind_gusts":30.6,"aqi":60,"pm10":11.7,"pm2_5":8.9,"mosquito_risk":7,"arthritis_risk":0,"migraine_risk":4,"frizz_risk":1,"updated_at":"2026-03-16T01:00:58.972868+05:30"},{"city":"Kozhikode","state":"Kerala","latitude":11.2588,"longitude":75.7804,"temp":27.9,"humidity":83,"rain":0.0,"pressure":1009.0,"uv_index":9.0,"wind_gusts":29.2,"aqi":67,"pm10":25.6,"pm2_5":21.5,"mosquito_risk":7,"arthritis_risk":0,"migraine_risk":4,"frizz_risk":1,"updated_at":"2026-03-16T01:00:58.972876+05:30"},{"city":"Thrissur","state":"Kerala","latitude":10.5276,"longitude":76.2144,"temp":26.9,"humidity":86,"rain":0.0,"pressure":1008.1,"uv_index":9.05,"wind_gusts":37.8,"aqi":74,"pm10":39.9,"pm2_5":38.0,"mosquito_risk":7,"arthritis_risk":0,"migraine_risk":4,"frizz_risk":1,"updated_at":"2026-03-16T01:00:58.972884+05:30"},{"city":"Kannur","state":"Kerala","latitude":11.8745,"longitude":75.3704,"temp":27.4,"humidity":84,"rain":0.0,"pressure":1008.3,"uv_index":9.0,"wind_gusts":31.7,"aqi":79,"pm10":25.6,"pm2_5":22.6,"mosquito_risk":7,"arthritis_risk":0,"migraine_risk":4,"frizz_risk":1,"updated_at":"2026-03-16T01:00:58.972892+05:30"},{"city":"Patna","state":"Bihar","latitude":25.5941,"longitude":85.1376,"temp":23.3,"humidity":83,"rain":0.0,"pressure":1001.6,"uv_index":7.55,"wind_gusts":38.2,"aqi":159,"pm10":81.7,"pm2_5":66.1,"mosquito_risk":3,"arthritis_risk":5,"migraine_risk":4,"frizz_risk":1,"updated_at":"2026-03-16T01:00:58.972899+05:30"},{"city":"Gaya","state":"Bihar","latitude":24.7914,"longitude":85.0002,"temp":22.3,"humidity":82,"rain":0.0,"pressure":995.0,"uv_index":7.65,"wind_gusts":68.0,"aqi":138,"pm10":58.0,"pm2_5":43.7,"mosquito_risk":3,"arthritis_risk":5,"migraine_risk":7,"frizz_risk":1,"updated_at":"2026-03-16T01:00:58.972907+05:30"},{"city":"Muzaffarpur","state":"Bihar","latitude":26.1209,"longitude":85.3647,"temp":21.2,"humidity":83,"rain":0.0,"pressure":1001.9,"uv_index":7.5,"wind_gusts":29.9,"aqi":160,"pm10":98.0,"pm2_5":82.0,"mosquito_risk":3,"arthritis_risk":5,"migraine_risk":4,"frizz_risk":1,"updated_at":"2026-03-16T01:00:58.972915+05:30"},{"city":"Bhagalpur","state":"Bihar","latitude":25.2425,"longitude":87.0117,"temp":23.2,"humidity":89,"rain":0.0,"pressure":1002.4,"uv_index":7.55,"wind_gusts":41.8,"aqi":151,"pm10":71.2,"pm2_5":57.7,"mosquito_risk":3,"arthritis_risk":5,"migraine_risk":4,"frizz_risk":1,"updated_at":"2026-03-16T01:00:58.972923+05:30"},{"city":"Ranchi","state":"Jharkhand","latitude":23.3441,"longitude":85.3096,"temp":20.8,"humidity":88,"rain":0.0,"pressure":938.2,"uv_index":7.7,"wind_gusts":62.6,"aqi":137,"pm10":51.7,"pm2_5":46.7,"mosquito_risk":3,"arthritis_risk":5,"migraine_risk":7,"frizz_risk":1,"updated_at":"2026-03-16T01:00:58.972930+05:30"},{"city":"Jamshedpur","state":"Jharkhand","latitude":22.8046,"longitude":86.2029,"temp":23.8,"humidity":82,"rain":0.0,"pressure":991.5,"uv_index":8.05,"wind_gusts":55.4,"aqi":129,"pm10":62.4,"pm2_5":54.7,"mosquito_risk":3,"arthritis_risk":5,"migraine_risk":7,"frizz_risk":1,"updated_at":"2026-03-16T01:00:58.972938+05:30"},{"city":"Dhanbad","state":"Jharkhand","latitude":23.7957,"longitude":86.4304,"temp":23.3,"humidity":82,"rain":0.0,"pressure":979.8,"uv_index":7.55,"wind_gusts":32.0,"aqi":161,"pm10":78.5,"pm2_5":72.6,"mosquito_risk":3,"arthritis_risk":5,"migraine_risk":7,"frizz_risk":1,"updated_at":"2026-03-16T01:00:58.973001+05:30"},{"city":"Bokaro","state":"Jharkhand","latitude":23.6693,"longitude":86.1511,"temp":23.8,"humidity":75,"rain":0.0,"pressure":983.9,"uv_index":7.25,"wind_gusts":31.7,"aqi":154,"pm10":68.5,"pm2_5":62.4,"mosquito_risk":3,"arthritis_risk":5,"migraine_risk":7,"frizz_risk":1,"updated_at":"2026-03-16T01:00:58.973013+05:30"},{"city":"Bhubaneswar","state":"Odisha","latitude":20.2961,"longitude":85.8245,"temp":25.2,"humidity":86,"rain":0.0,"pressure":1004.3,"uv_index":8.5,"wind_gusts":37.8,"aqi":57,"pm10":15.1,"pm2_5":12.3,"mosquito_risk":7,"arthritis_risk":5,"migraine_risk":4,"frizz_risk":1,"updated_at":"2026-03-16T01:00:58.973022+05:30"},{"city":"Cuttack","state":"Odisha","latitude":20.4625,"longitude":85.8828,"temp":25.0,"humidity":88,"rain":0.0,"pressure":1006.2,"uv_index":8.5,"wind_gusts":40.7,"aqi":57,"pm10":15.1,"pm2_5":12.3,"mosquito_risk":7,"arthritis_risk":5,"migraine_risk":4,"frizz_risk":1,"updated_at":"2026-03-16T01:00:58.973030+05:30"},{"city":"Rourkela","state":"Odisha","latitude":22.2604,"longitude":84.8536,"temp":25.1,"humidity":80,"rain":0.0,"pressure":986.0,"uv_index":8.0,"wind_gusts":52.2,"aqi":149,"pm10":63.3,"pm2_5":55.6,"mosquito_risk":7,"arthritis_risk":5,"migraine_risk":7,"frizz_risk":1,"updated_at":"2026-03-16T01:00:58.973037+05:30"},{"city":"Raipur","state":"Chhattisgarh","latitude":21.2514,"longitude":81.6296,"temp":24.1,"humidity":66,"rain":0.0,"pressure":975.5,"uv_index":8.25,"wind_gusts":46.4,"aqi":135,"pm10":56.6,"pm2_5":51.8,"mosquito_risk":3,"arthritis_risk":5,"migraine_risk":7,"frizz_risk":1,"updated_at":"2026-03-16T01:00:58.973045+05:30"},{"city":"Bhilai","state":"Chhattisgarh","latitude":21.1938,"longitude":81.3509,"temp":25.1,"humidity":65,"rain":0.0,"pressure":975.7,"uv_index":8.25,"wind_gusts":45.0,"aqi":129,"pm10":56.9,"pm2_5":52.0,"mosquito_risk":7,"arthritis_risk":5,"migraine_risk":7,"frizz_risk":1,"updated_at":"2026-03-16T01:00:58.973053+05:30"},{"city":"Guwahati","state":"Assam","latitude":26.1158,"longitude":91.7086,"temp":20.6,"humidity":91,"rain":0.0,"pressure":1004.2,"uv_index":7.15,"wind_gusts":34.2,"aqi":67,"pm10":20.1,"pm2_5":16.7,"mosquito_risk":3,"arthritis_risk":5,"migraine_risk":4,"frizz_risk":1,"updated_at":"2026-03-16T01:00:58.973061+05:30"},{"city":"Agartala","state":"Tripura","latitude":23.8315,"longitude":91.2868,"temp":21.2,"humidity":95,"rain":0.0,"pressure":1008.7,"uv_index":7.85,"wind_gusts":45.0,"aqi":56,"pm10":15.3,"pm2_5":13.5,"mosquito_risk":3,"arthritis_risk":0,"migraine_risk":4,"frizz_risk":1,"updated_at":"2026-03-16T01:00:58.973069+05:30"},{"city":"Shillong","state":"Meghalaya","latitude":25.5788,"longitude":91.8933,"temp":12.4,"humidity":95,"rain":0.0,"pressure":855.3,"uv_index":7.9,"wind_gusts":69.8,"aqi":52,"pm10":6.1,"pm2_5":5.5,"mosquito_risk":3,"arthritis_risk":10,"migraine_risk":7,"frizz_risk":0,"updated_at":"2026-03-16T01:00:58.973077+05:30"},{"city":"Imphal","state":"Manipur","latitude":24.817,"longitude":93.9368,"temp":14.7,"humidity":95,"rain":2.0,"pressure":925.0,"uv_index":8.15,"wind_gusts":77.4,"aqi":83,"pm10":44.0,"pm2_5":37.1,"mosquito_risk":6,"arthritis_risk":10,"migraine_risk":7,"frizz_risk":0,"updated_at":"2026-03-16T01:00:58.973085+05:30"},{"city":"Aizawl","state":"Mizoram","latitude":23.7271,"longitude":92.7176,"temp":15.7,"humidity":89,"rain":0.0,"pressure":893.8,"uv_index":8.1,"wind_gusts":63.0,"aqi":79,"pm10":26.9,"pm2_5":20.7,"mosquito_risk":3,"arthritis_risk":10,"migraine_risk":7,"frizz_risk":0,"updated_at":"2026-03-16T01:00:58.973093+05:30"},{"city":"Kohima","state":"Nagaland","latitude":25.6701,"longitude":94.1077,"temp":14.2,"humidity":78,"rain":0.0,"pressure":854.4,"uv_index":7.05,"wind_gusts":96.5,"aqi":69,"pm10":33.5,"pm2_5":27.5,"mosquito_risk":3,"arthritis_risk":5,"migraine_risk":7,"frizz_risk":0,"updated_at":"2026-03-16T01:00:58.973102+05:30"},{"city":"Gangtok","state":"Sikkim","latitude":27.3314,"longitude":88.6138,"temp":11.6,"humidity":78,"rain":0.0,"pressure":834.9,"uv_index":7.8,"wind_gusts":20.9,"aqi":102,"pm10":62.2,"pm2_5":40.6,"mosquito_risk":3,"arthritis_risk":5,"migraine_risk":7,"frizz_risk":0,"updated_at":"2026-03-16T01:00:58.973109+05:30"},{"city":"Siliguri","state":"West Bengal","latitude":26.7271,"longitude":88.3953,"temp":19.0,"humidity":85,"rain":0.0,"pressure":994.6,"uv_index":6.75,"wind_gusts":30.6,"aqi":129,"pm10":89.6,"pm2_5":62.9,"mosquito_risk":3,"arthritis_risk":10,"migraine_risk":7,"frizz_risk":1,"updated_at":"2026-03-16T01:01:02.305021+05:30"},{"city":"Durgapur","state":"West Bengal","latitude":23.5204,"longitude":87.3119,"temp":23.6,"humidity":93,"rain":0.0,"pressure":995.3,"uv_index":7.85,"wind_gusts":42.5,"aqi":138,"pm10":78.5,"pm2_5":74.3,"mosquito_risk":3,"arthritis_risk":5,"migraine_risk":7,"frizz_risk":1,"updated_at":"2026-03-16T01:01:02.305049+05:30"},{"city":"Asansol","state":"West Bengal","latitude":23.6739,"longitude":86.9524,"temp":23.8,"humidity":90,"rain":0.0,"pressure":993.9,"uv_index":7.8,"wind_gusts":35.6,"aqi":150,"pm10":72.2,"pm2_5":67.1,"mosquito_risk":3,"arthritis_risk":5,"migraine_risk":7,"frizz_risk":1,"updated_at":"2026-03-16T01:01:02.305061+05:30"},{"city":"Pondicherry","state":"Puducherry","latitude":11.9139,"longitude":79.8145,"temp":24.3,"humidity":93,"rain":0.0,"pressure":1010.0,"uv_index":9.05,"wind_gusts":32.0,"aqi":33,"pm10":8.7,"pm2_5":5.9,"mosquito_risk":3,"arthritis_risk":0,"migraine_risk":4,"frizz_risk":1,"updated_at":"2026-03-16T01:01:02.305070+05:30"},{"city":"Port Blair","state":"Andaman and Nicobar Islands","latitude":11.6234,"longitude":92.7265,"temp":27.7,"humidity":79,"rain":0.0,"pressure":1007.9,"uv_index":9.0,"wind_gusts":20.2,"aqi":76,"pm10":15.5,"pm2_5":12.5,"mosquito_risk":7,"arthritis_risk":5,"migraine_risk":4,"frizz_risk":1,"updated_at":"2026-03-16T01:01:02.305079+05:30"},{"city":"Haridwar","state":"Uttarakhand","latitude":29.9457,"longitude":78.1642,"temp":17.5,"humidity":79,"rain":0.2,"pressure":978.7,"uv_index":5.85,"wind_gusts":36.0,"aqi":81,"pm10":26.6,"pm2_5":18.0,"mosquito_risk":6,"arthritis_risk":5,"migraine_risk":3,"frizz_risk":0,"updated_at":"2026-03-16T01:01:02.305087+05:30"},{"city":"Rishikesh","state":"Uttarakhand","latitude":30.0869,"longitude":78.2676,"temp":17.0,"humidity":77,"rain":0.0,"pressure":970.7,"uv_index":5.95,"wind_gusts":29.5,"aqi":66,"pm10":25.6,"pm2_5":15.0,"mosquito_risk":3,"arthritis_risk":5,"migraine_risk":3,"frizz_risk":0,"updated_at":"2026-03-16T01:01:02.305096+05:30"},{"city":"Nainital","state":"Uttarakhand","latitude":29.3919,"longitude":79.4542,"temp":15.2,"humidity":47,"rain":0.0,"pressure":804.3,"uv_index":6.75,"wind_gusts":83.9,"aqi":72,"pm10":26.0,"pm2_5":15.5,"mosquito_risk":0,"arthritis_risk":5,"migraine_risk":7,"frizz_risk":0,"updated_at":"2026-03-16T01:01:02.305104+05:30"},{"city":"Mussoorie","state":"Uttarakhand","latitude":30.4599,"longitude":78.0664,"temp":10.5,"humidity":73,"rain":0.0,"pressure":801.3,"uv_index":6.25,"wind_gusts":47.9,"aqi":72,"pm10":25.4,"pm2_5":15.3,"mosquito_risk":3,"arthritis_risk":5,"migraine_risk":7,"frizz_risk":0,"updated_at":"2026-03-16T01:01:02.305112+05:30"},{"city":"Dharamshala","state":"Himachal Pradesh","latitude":32.219,"longitude":76.3234,"temp":12.4,"humidity":74,"rain":0.0,"pressure":867.8,"uv_index":6.05,"wind_gusts":32.8,"aqi":45,"pm10":8.8,"pm2_5":4.1,"mosquito_risk":3,"arthritis_risk":5,"migraine_risk":7,"frizz_risk":0,"updated_at":"2026-03-16T01:01:02.305120+05:30"},{"city":"Dalhousie","state":"Himachal Pradesh","latitude":32.5387,"longitude":75.971,"temp":9.0,"humidity":67,"rain":0.0,"pressure":800.6,"uv_index":3.9,"wind_gusts":31.7,"aqi":72,"pm10":41.1,"pm2_5":27.5,"mosquito_risk":3,"arthritis_risk":5,"migraine_risk":3,"frizz_risk":0,"updated_at":"2026-03-16T01:01:02.305129+05:30"},{"city":"Patiala","state":"Punjab","latitude":30.3398,"longitude":76.3869,"temp":14.9,"humidity":89,"rain":0.0,"pressure":980.7,"uv_index":5.9,"wind_gusts":43.6,"aqi":105,"pm10":120.1,"pm2_5":32.4,"mosquito_risk":3,"arthritis_risk":10,"migraine_risk":3,"frizz_risk":0,"updated_at":"2026-03-16T01:01:02.305137+05:30"},{"city":"Bhatinda","state":"Punjab","latitude":30.211,"longitude":74.9455,"temp":15.5,"humidity":93,"rain":0.0,"pressure":985.2,"uv_index":6.6,"wind_gusts":32.0,"aqi":104,"pm10":245.9,"pm2_5":60.3,"mosquito_risk":3,"arthritis_risk":10,"migraine_risk":7,"frizz_risk":0,"updated_at":"2026-03-16T01:01:02.305145+05:30"},{"city":"Rohtak","state":"Haryana","latitude":28.8955,"longitude":76.6066,"temp":17.2,"humidity":87,"rain":0.0,"pressure":984.3,"uv_index":6.15,"wind_gusts":46.4,"aqi":303,"pm10":638.9,"pm2_5":90.6,"mosquito_risk":3,"arthritis_risk":10,"migraine_risk":7,"frizz_risk":0,"updated_at":"2026-03-16T01:01:02.305153+05:30"},{"city":"Panipat","state":"Haryana","latitude":29.3909,"longitude":76.9635,"temp":16.4,"humidity":88,"rain":0.0,"pressure":983.3,"uv_index":5.9,"wind_gusts":45.0,"aqi":179,"pm10":814.0,"pm2_5":92.2,"mosquito_risk":3,"arthritis_risk":10,"migraine_risk":3,"frizz_risk":0,"updated_at":"2026-03-16T01:01:02.305161+05:30"},{"city":"Mathura","state":"Uttar Pradesh","latitude":27.4924,"longitude":77.6737,"temp":18.0,"humidity":90,"rain":0.0,"pressure":987.6,"uv_index":6.4,"wind_gusts":34.6,"aqi":342,"pm10":815.8,"pm2_5":104.3,"mosquito_risk":3,"arthritis_risk":10,"migraine_risk":7,"frizz_risk":1,"updated_at":"2026-03-16T01:01:02.305169+05:30"},{"city":"Vrindavan","state":"Uttar Pradesh","latitude":27.5823,"longitude":77.7027,"temp":17.9,"humidity":88,"rain":0.0,"pressure":988.0,"uv_index":6.35,"wind_gusts":37.1,"aqi":342,"pm10":815.8,"pm2_5":104.3,"mosquito_risk":3,"arthritis_risk":10,"migraine_risk":7,"frizz_risk":0,"updated_at":"2026-03-16T01:01:02.305176+05:30"},{"city":"Ayodhya","state":"Uttar Pradesh","latitude":26.7922,"longitude":82.1998,"temp":19.7,"humidity":71,"rain":0.0,"pressure":996.7,"uv_index":6.6,"wind_gusts":51.5,"aqi":113,"pm10":44.6,"pm2_5":34.1,"mosquito_risk":3,"arthritis_risk":5,"migraine_risk":7,"frizz_risk":0,"updated_at":"2026-03-16T01:01:02.305184+05:30"},{"city":"Ratlam","state":"Madhya Pradesh","latitude":23.3315,"longitude":75.0367,"temp":25.3,"humidity":42,"rain":0.0,"pressure":954.7,"uv_index":7.6,"wind_gusts":34.9,"aqi":66,"pm10":33.8,"pm2_5":18.0,"mosquito_risk":4,"arthritis_risk":5,"migraine_risk":7,"frizz_risk":0,"updated_at":"2026-03-16T01:01:02.305192+05:30"},{"city":"Sagar","state":"Madhya Pradesh","latitude":23.8388,"longitude":78.7378,"temp":24.7,"humidity":39,"rain":0.0,"pressure":949.1,"uv_index":7.6,"wind_gusts":30.2,"aqi":57,"pm10":27.2,"pm2_5":17.0,"mosquito_risk":0,"arthritis_risk":5,"migraine_risk":7,"frizz_risk":0,"updated_at":"2026-03-16T01:01:02.305200+05:30"},{"city":"Satna","state":"Madhya Pradesh","latitude":24.6005,"longitude":80.8322,"temp":24.0,"humidity":60,"rain":0.0,"pressure":971.7,"uv_index":7.6,"wind_gusts":42.1,"aqi":75,"pm10":47.5,"pm2_5":32.8,"mosquito_risk":0,"arthritis_risk":5,"migraine_risk":7,"frizz_risk":0,"updated_at":"2026-03-16T01:01:02.305207+05:30"},{"city":"Akola","state":"Maharashtra","latitude":20.7002,"longitude":77.0082,"temp":26.4,"humidity":47,"rain":0.0,"pressure":975.0,"uv_index":8.0,"wind_gusts":24.8,"aqi":87,"pm10":32.6,"pm2_5":22.5,"mosquito_risk":4,"arthritis_risk":5,"migraine_risk":7,"frizz_risk":0,"updated_at":"2026-03-16T01:01:02.305216+05:30"},{"city":"Amravati","state":"Maharashtra","latitude":20.9374,"longitude":77.7796,"temp":24.1,"humidity":57,"rain":0.0,"pressure":967.0,"uv_index":7.8,"wind_gusts":30.2,"aqi":85,"pm10":32.0,"pm2_5":24.4,"mosquito_risk":0,"arthritis_risk":5,"migraine_risk":7,"frizz_risk":0,"updated_at":"2026-03-16T01:01:02.305224+05:30"},{"city":"Latur","state":"Maharashtra","latitude":18.4088,"longitude":76.5604,"temp":24.4,"humidity":51,"rain":0.0,"pressure":940.1,"uv_index":8.55,"wind_gusts":20.2,"aqi":106,"pm10":44.7,"pm2_5":38.1,"mosquito_risk":0,"arthritis_risk":5,"migraine_risk":7,"frizz_risk":0,"updated_at":"2026-03-16T01:01:02.305232+05:30"},{"city":"Nanded","state":"Maharashtra","latitude":19.1383,"longitude":77.3091,"temp":25.2,"humidity":58,"rain":0.0,"pressure":968.7,"uv_index":8.25,"wind_gusts":20.2,"aqi":123,"pm10":67.8,"pm2_5":60.1,"mosquito_risk":4,"arthritis_risk":5,"migraine_risk":7,"frizz_risk":1,"updated_at":"2026-03-16T01:01:02.305239+05:30"},{"city":"Gulbarga","state":"Karnataka","latitude":17.3297,"longitude":76.8343,"temp":25.7,"humidity":59,"rain":0.0,"pressure":959.5,"uv_index":8.65,"wind_gusts":34.6,"aqi":118,"pm10":43.9,"pm2_5":38.0,"mosquito_risk":4,"arthritis_risk":5,"migraine_risk":7,"frizz_risk":1,"updated_at":"2026-03-16T01:01:02.305246+05:30"},{"city":"Bidar","state":"Karnataka","latitude":17.9104,"longitude":77.5199,"temp":23.9,"humidity":64,"rain":0.0,"pressure":936.1,"uv_index":8.65,"wind_gusts":32.0,"aqi":102,"pm10":40.2,"pm2_5":34.3,"mosquito_risk":3,"arthritis_risk":5,"migraine_risk":7,"frizz_risk":1,"updated_at":"2026-03-16T01:01:02.305254+05:30"},{"city":"Hospet","state":"Karnataka","latitude":15.2689,"longitude":76.3909,"temp":26.2,"humidity":76,"rain":0.0,"pressure":957.1,"uv_index":8.9,"wind_gusts":21.2,"aqi":116,"pm10":59.0,"pm2_5":53.1,"mosquito_risk":7,"arthritis_risk":5,"migraine_risk":7,"frizz_risk":1,"updated_at":"2026-03-16T01:01:02.305261+05:30"},{"city":"Tirupur","state":"Tamil Nadu","latitude":11.1085,"longitude":77.3411,"temp":25.4,"humidity":84,"rain":0.0,"pressure":976.4,"uv_index":9.3,"wind_gusts":46.1,"aqi":58,"pm10":19.6,"pm2_5":18.5,"mosquito_risk":7,"arthritis_risk":5,"migraine_risk":7,"frizz_risk":1,"updated_at":"2026-03-16T01:01:02.305268+05:30"},{"city":"Alappuzha","state":"Kerala","latitude":9.4981,"longitude":76.3388,"temp":26.8,"humidity":86,"rain":0.0,"pressure":1010.2,"uv_index":9.1,"wind_gusts":30.6,"aqi":70,"pm10":33.1,"pm2_5":31.2,"mosquito_risk":7,"arthritis_risk":0,"migraine_risk":4,"frizz_risk":1,"updated_at":"2026-03-16T01:01:02.305276+05:30"},{"city":"Munnar","state":"Kerala","latitude":10.0889,"longitude":77.0595,"temp":19.1,"humidity":88,"rain":0.0,"pressure":856.8,"uv_index":9.6,"wind_gusts":32.4,"aqi":60,"pm10":29.1,"pm2_5":26.8,"mosquito_risk":3,"arthritis_risk":10,"migraine_risk":7,"frizz_risk":1,"updated_at":"2026-03-16T01:01:02.305284+05:30"},{"city":"Silchar","state":"Assam","latitude":24.8333,"longitude":92.7789,"temp":20.0,"humidity":94,"rain":0.0,"pressure":1008.8,"uv_index":7.9,"wind_gusts":42.5,"aqi":90,"pm10":40.3,"pm2_5":37.4,"mosquito_risk":3,"arthritis_risk":0,"migraine_risk":4,"frizz_risk":1,"updated_at":"2026-03-16T01:01:02.305291+05:30"},{"city":"Dibrugarh","state":"Assam","latitude":27.4728,"longitude":94.912,"temp":18.3,"humidity":93,"rain":0.0,"pressure":997.8,"uv_index":5.0,"wind_gusts":29.5,"aqi":72,"pm10":31.1,"pm2_5":23.3,"mosquito_risk":3,"arthritis_risk":10,"migraine_risk":3,"frizz_risk":1,"updated_at":"2026-03-16T01:01:02.305298+05:30"}]