[{"city":"Delhi","state":"Delhi","latitude":28.6139,"longitude":77.209,"temp":28.1,"humidity":64,"rain":0.0,"pressure":981.5,"uv_index":7.55,"wind_gusts":50.8,"aqi":169,"pm10":198.8,"pm2_5":51.3,"no2":10.0,"co":495.0,"o3":177.0,"so2":20.9,"mosquito_risk":7,"arthritis_risk":5,"migraine_risk":7,"frizz_risk":1,"updated_at":"2026-05-31T17:47:20.315448+05:30"},{"city":"Mumbai","state":"Maharashtra","latitude":19.076,"longitude":72.8777,"temp":31.6,"humidity":68,"rain":0.0,"pressure":1007.1,"uv_index":7.8,"wind_gusts":40.3,"aqi":62,"pm10":26.4,"pm2_5":16.3,"no2":5.2,"co":158.0,"o3":65.0,"so2":4.6,"mosquito_risk":3,"arthritis_risk":5,"migraine_risk":4,"frizz_risk":1,"updated_at":"2026-05-31T17:47:20.315497+05:30"},{"city":"Bangalore","state":"Karnataka","latitude":12.9716,"longitude":77.5946,"temp":25.4,"humidity":76,"rain":0.2,"pressure":911.1,"uv_index":9.25,"wind_gusts":42.8,"aqi":84,"pm10":22.3,"pm2_5":16.7,"no2":14.5,"co":566.0,"o3":94.0,"so2":4.2,"mosquito_risk":10,"arthritis_risk":5,"migraine_risk":7,"frizz_risk":1,"updated_at":"2026-05-31T17:47:20.315513+05:30"},{"city":"Hyderabad","state":"Telangana","latitude":17.385,"longitude":78.4867,"temp":35.5,"humidity":32,"rain":0.0,"pressure":950.9,"uv_index":9.05,"wind_gusts":55.1,"aqi":73,"pm10":51.6,"pm2_5":24.6,"no2":3.8,"co":228.0,"o3":111.0,"so2":4.0,"mosquito_risk":0,"arthritis_risk":5,"migraine_risk":10,"frizz_risk":0,"updated_at":"2026-05-31T17:47:20.315523+05:30"},{"city":"Chennai","state":"Tamil Nadu","latitude":13.0827,"longitude":80.2707,"temp":33.8,"humidity":58,"rain":0.0,"pressure":1004.3,"uv_index":8.3,"wind_gusts":38.2,"aqi":106,"pm10":30.5,"pm2_5":24.0,"no2":5.9,"co":278.0,"o3":132.0,"so2":8.0,"mosquito_risk":0,"arthritis_risk":5,"migraine_risk":4,"frizz_risk":1,"updated_at":"2026-05-31T17:47:20.315531+05:30"},{"city":"Kolkata","state":"West Bengal","latitude":22.5726,"longitude":88.3639,"temp":30.6,"humidity":74,"rain":0.0,"pressure":1003.3,"uv_index":8.95,"wind_gusts":26.6,"aqi":152,"pm10":49.8,"pm2_5":37.8,"no2":8.8,"co":445.0,"o3":106.0,"so2":9.4,"mosquito_risk":3,"arthritis_risk":5,"migraine_risk":4,"frizz_risk":1,"updated_at":"2026-05-31T17:47:20.315538+05:30"},{"city":"Pune","state":"Maharashtra","latitude":18.5204,"longitude":73.8567,"temp":29.9,"humidity":58,"rain":0.0,"pressure":947.4,"uv_index":5.75,"wind_gusts":42.1,"aqi":53,"pm10":32.8,"pm2_5":15.4,"no2":2.4,"co":139.0,"o3":88.0,"so2":3.5,"mosquito_risk":4,"arthritis_risk":5,"migraine_risk":3,"frizz_risk":1,"updated_at":"2026-05-31T17:47:20.315546+05:30"},{"city":"Ahmedabad","state":"Gujarat","latitude":23.0225,"longitude":72.5714,"temp":39.7,"humidity":29,"rain":0.0,"pressure":997.8,"uv_index":8.1,"wind_gusts":53.3,"aqi":71,"pm10":74.0,"pm2_5":21.9,"no2":1.9,"co":140.0,"o3":91.0,"so2":2.5,"mosquito_risk":0,"arthritis_risk":5,"migraine_risk":10,"frizz_risk":1,"updated_at":"2026-05-31T17:47:20.315553+05:30"},{"city":"Jaipur","state":"Rajasthan","latitude":26.9124,"longitude":75.7873,"temp":33.3,"humidity":35,"rain":0.0,"pressure":958.2,"uv_index":8.15,"wind_gusts":41.4,"aqi":83,"pm10":177.9,"pm2_5":36.2,"no2":1.6,"co":200.0,"o3":108.0,"so2":2.7,"mosquito_risk":0,"arthritis_risk":5,"migraine_risk":7,"frizz_risk":0,"updated_at":"2026-05-31T17:47:20.315566+05:30"},{"city":"Lucknow","state":"Uttar Pradesh","latitude":26.8467,"longitude":80.9462,"temp":30.4,"humidity":60,"rain":0.0,"pressure":991.6,"uv_index":8.15,"wind_gusts":41.0,"aqi":145,"pm10":54.5,"pm2_5":21.4,"no2":3.1,"co":258.0,"o3":147.0,"so2":4.5,"mosquito_risk":0,"arthritis_risk":5,"migraine_risk":7,"frizz_risk":1,"updated_at":"2026-05-31T17:47:20.315572+05:30"},{"city":"Kanpur","state":"Uttar Pradesh","latitude":26.4499,"longitude":80.3319,"temp":34.2,"humidity":40,"rain":0.0,"pressure":989.4,"uv_index":8.15,"wind_gusts":54.7,"aqi":151,"pm10":73.8,"pm2_5":23.7,"no2":2.8,"co":250.0,"o3":154.0,"so2":5.7,"mosquito_risk":0,"arthritis_risk":5,"migraine_risk":7,"frizz_risk":1,"updated_at":"2026-05-31T17:47:20.315579+05:30"},{"city":"Chandigarh","state":"Chandigarh","latitude":30.7333,"longitude":76.7794,"temp":28.6,"humidity":50,"rain":0.0,"pressure":968.6,"uv_index":7.0,"wind_gusts":39.2,"aqi":146,"pm10":36.9,"pm2_5":24.6,"no2":4.3,"co":324.0,"o3":160.0,"so2":5.8,"mosquito_risk":4,"arthritis_risk":5,"migraine_risk":7,"frizz_risk":1,"updated_at":"2026-05-31T17:47:20.315585+05:30"},{"city":"Srinagar","state":"Jammu and Kashmir","latitude":34.0837,"longitude":74.7973,"temp":27.0,"humidity":33,"rain":0.0,"pressure":841.3,"uv_index":9.0,"wind_gusts":27.0,"aqi":125,"pm10":60.3,"pm2_5":24.9,"no2":2.3,"co":324.0,"o3":135.0,"so2":2.8,"mosquito_risk":4,"arthritis_risk":5,"migraine_risk":7,"frizz_risk":0,"updated_at":"2026-05-31T17:47:20.315592+05:30"},{"city":"Jammu","state":"Jammu and Kashmir","latitude":32.7266,"longitude":74.857,"temp":31.4,"humidity":40,"rain":0.0,"pressure":971.9,"uv_index":8.5,"wind_gusts":28.1,"aqi":142,"pm10":92.4,"pm2_5":30.4,"no2":2.5,"co":254.0,"o3":154.0,"so2":4.3,"mosquito_risk":0,"arthritis_risk":5,"migraine_risk":7,"frizz_risk":1,"updated_at":"2026-05-31T17:47:20.315598+05:30"},{"city":"Amritsar","state":"Punjab","latitude":31.634,"longitude":74.8723,"temp":31.9,"humidity":40,"rain":0.0,"pressure":979.7,"uv_index":8.3,"wind_gusts":35.6,"aqi":136,"pm10":183.0,"pm2_5":44.1,"no2":1.9,"co":261.0,"o3":153.0,"so2":5.7,"mosquito_risk":0,"arthritis_risk":5,"migraine_risk":7,"frizz_risk":1,"updated_at":"2026-05-31T17:47:20.315605+05:30"},{"city":"Ludhiana","state":"Punjab","latitude":30.901,"longitude":75.8573,"temp":31.8,"humidity":38,"rain":0.0,"pressure":977.8,"uv_index":7.85,"wind_gusts":38.5,"aqi":140,"pm10":276.6,"pm2_5":50.3,"no2":2.4,"co":345.0,"o3":161.0,"so2":6.9,"mosquito_risk":0,"arthritis_risk":5,"migraine_risk":7,"frizz_risk":0,"updated_at":"2026-05-31T17:47:20.315617+05:30"},{"city":"Jalandhar","state":"Punjab","latitude":31.326,"longitude":75.5762,"temp":32.0,"humidity":37,"rain":0.0,"pressure":978.8,"uv_index":8.05,"wind_gusts":38.2,"aqi":146,"pm10":134.6,"pm2_5":35.6,"no2":2.4,"co":298.0,"o3":165.0,"so2":7.7,"mosquito_risk":0,"arthritis_risk":5,"migraine_risk":7,"frizz_risk":0,"updated_at":"2026-05-31T17:47:20.315623+05:30"},{"city":"Dehradun","state":"Uttarakhand","latitude":30.6284,"longitude":78.0322,"temp":17.2,"humidity":77,"rain":0.0,"pressure":830.8,"uv_index":7.25,"wind_gusts":30.2,"aqi":101,"pm10":6.7,"pm2_5":4.3,"no2":1.3,"co":228.0,"o3":136.0,"so2":0.9,"mosquito_risk":3,"arthritis_risk":5,"migraine_risk":7,"frizz_risk":0,"updated_at":"2026-05-31T17:47:20.315630+05:30"},{"city":"Shimla","state":"Himachal Pradesh","latitude":31.1048,"longitude":77.1734,"temp":12.5,"humidity":98,"rain":0.0,"pressure":783.9,"uv_index":2.85,"wind_gusts":22.3,"aqi":101,"pm10":16.9,"pm2_5":13.1,"no2":5.2,"co":292.0,"o3":132.0,"so2":1.1,"mosquito_risk":3,"arthritis_risk":10,"migraine_risk":3,"frizz_risk":0,"updated_at":"2026-05-31T17:47:20.315638+05:30"},{"city":"Manali","state":"Himachal Pradesh","latitude":32.2396,"longitude":77.1887,"temp":17.4,"humidity":75,"rain":0.0,"pressure":819.3,"uv_index":7.6,"wind_gusts":33.5,"aqi":122,"pm10":12.5,"pm2_5":6.4,"no2":2.0,"co":166.0,"o3":154.0,"so2":0.3,"mosquito_risk":3,"arthritis_risk":5,"migraine_risk":7,"frizz_risk":0,"updated_at":"2026-05-31T17:47:20.315645+05:30"},{"city":"Gurgaon","state":"Haryana","latitude":28.4595,"longitude":77.0266,"temp":28.7,"humidity":61,"rain":0.0,"pressure":979.8,"uv_index":7.65,"wind_gusts":46.4,"aqi":803,"pm10":421.0,"pm2_5":70.5,"no2":8.2,"co":471.0,"o3":157.0,"so2":13.1,"mosquito_risk":7,"arthritis_risk":5,"migraine_risk":7,"frizz_risk":1,"updated_at":"2026-05-31T17:47:20.315652+05:30"},{"city":"Noida","state":"Uttar Pradesh","latitude":28.5355,"longitude":77.391,"temp":28.0,"humidity":65,"rain":0.0,"pressure":983.1,"uv_index":7.6,"wind_gusts":51.5,"aqi":803,"pm10":421.0,"pm2_5":70.5,"no2":8.2,"co":380.0,"o3":157.0,"so2":13.1,"mosquito_risk":7,"arthritis_risk":5,"migraine_risk":7,"frizz_risk":1,"updated_at":"2026-05-31T17:47:20.315658+05:30"},{"city":"Ghaziabad","state":"Uttar Pradesh","latitude":28.6692,"longitude":77.4538,"temp":27.4,"humidity":71,"rain":0.0,"pressure":981.5,"uv_index":7.6,"wind_gusts":54.4,"aqi":131,"pm10":100.4,"pm2_5":30.5,"no2":4.6,"co":315.0,"o3":153.0,"so2":9.9,"mosquito_risk":7,"arthritis_risk":5,"migraine_risk":7,"frizz_risk":1,"updated_at":"2026-05-31T17:47:20.315665+05:30"},{"city":"Faridabad","state":"Haryana","latitude":28.4089,"longitude":77.3178,"temp":28.5,"humidity":64,"rain":0.0,"pressure":982.2,"uv_index":7.65,"wind_gusts":49.7,"aqi":803,"pm10":421.0,"pm2_5":70.5,"no2":8.2,"co":442.0,"o3":157.0,"so2":13.1,"mosquito_risk":7,"arthritis_risk":5,"migraine_risk":7,"frizz_risk":1,"updated_at":"2026-05-31T17:47:20.315673+05:30"},{"city":"Meerut","state":"Uttar Pradesh","latitude":28.9845,"longitude":77.7064,"temp":26.4,"humidity":73,"rain":0.0,"pressure":980.7,"uv_index":6.9,"wind_gusts":35.6,"aqi":131,"pm10":100.4,"pm2_5":30.5,"no2":4.6,"co":312.0,"o3":153.0,"so2":9.9,"mosquito_risk":7,"arthritis_risk":5,"migraine_risk":7,"frizz_risk":1,"updated_at":"2026-05-31T17:47:20.315679+05:30"},{"city":"Agra","state":"Uttar Pradesh","latitude":27.1767,"longitude":78.0081,"temp":34.5,"humidity":35,"rain":0.1,"pressure":985.2,"uv_index":7.95,"wind_gusts":33.1,"aqi":548,"pm10":146.2,"pm2_5":32.5,"no2":2.7,"co":250.0,"o3":150.0,"so2":4.6,"mosquito_risk":3,"arthritis_risk":5,"migraine_risk":7,"frizz_risk":1,"updated_at":"2026-05-31T17:47:20.315685+05:30"},{"city":"Varanasi","state":"Uttar Pradesh","latitude":25.3176,"longitude":82.9739,"temp":33.8,"humidity":49,"rain":0.0,"pressure":994.4,"uv_index":8.65,"wind_gusts":31.0,"aqi":169,"pm10":61.2,"pm2_5":36.0,"no2":3.2,"co":375.0,"o3":171.0,"so2":8.1,"mosquito_risk":0,"arthritis_risk":5,"migraine_risk":7,"frizz_risk":1,"updated_at":"2026-05-31T17:47:20.315692+05:30"},{"city":"Prayagraj","state":"Uttar Pradesh","latitude":25.4358,"longitude":81.8463,"temp":35.3,"humidity":36,"rain":0.0,"pressure":993.1,"uv_index":8.55,"wind_gusts":25.2,"aqi":166,"pm10":54.4,"pm2_5":31.4,"no2":2.9,"co":269.0,"o3":169.0,"so2":7.2,"mosquito_risk":0,"arthritis_risk":5,"migraine_risk":10,"frizz_risk":1,"updated_at":"2026-05-31T17:47:20.315699+05:30"},{"city":"Gorakhpur","state":"Uttar Pradesh","latitude":26.7606,"longitude":83.3732,"temp":31.4,"humidity":61,"rain":0.0,"pressure":994.7,"uv_index":8.55,"wind_gusts":26.3,"aqi":154,"pm10":61.7,"pm2_5":39.3,"no2":3.4,"co":327.0,"o3":159.0,"so2":6.5,"mosquito_risk":3,"arthritis_risk":5,"migraine_risk":7,"frizz_risk":1,"updated_at":"2026-05-31T17:47:20.315707+05:30"},{"city":"Bareilly","state":"Uttar Pradesh","latitude":28.367,"longitude":79.4304,"temp":26.6,"humidity":76,"rain":0.0,"pressure":986.6,"uv_index":7.95,"wind_gusts":33.5,"aqi":135,"pm10":32.2,"pm2_5":19.8,"no2":3.2,"co":283.0,"o3":151.0,"so2":3.3,"mosquito_risk":7,"arthritis_risk":5,"migraine_risk":7,"frizz_risk":1,"updated_at":"2026-05-31T17:47:20.315714+05:30"},{"city":"Aligarh","state":"Uttar Pradesh","latitude":27.8974,"longitude":78.088,"temp":26.6,"humidity":73,"rain":0.1,"pressure":983.7,"uv_index":7.75,"wind_gusts":44.6,"aqi":146,"pm10":158.8,"pm2_5":38.2,"no2":3.5,"co":286.0,"o3":161.0,"so2":10.2,"mosquito_risk":10,"arthritis_risk":5,"migraine_risk":7,"frizz_risk":1,"updated_at":"2026-05-31T17:47:20.315720+05:30"},{"city":"Moradabad","state":"Uttar Pradesh","latitude":28.8386,"longitude":78.7733,"temp":25.5,"humidity":85,"rain":0.0,"pressure":983.2,"uv_index":7.75,"wind_gusts":30.2,"aqi":150,"pm10":42.1,"pm2_5":25.4,"no2":4.6,"co":353.0,"o3":170.0,"so2":11.3,"mosquito_risk":7,"arthritis_risk":5,"migraine_risk":7,"frizz_risk":1,"updated_at":"2026-05-31T17:47:20.315726+05:30"},{"city":"Saharanpur","state":"Uttar Pradesh","latitude":29.9637,"longitude":77.546,"temp":27.9,"humidity":62,"rain":0.0,"pressure":975.5,"uv_index":6.55,"wind_gusts":32.8,"aqi":129,"pm10":36.6,"pm2_5":21.4,"no2":2.6,"co":326.0,"o3":153.0,"so2":2.9,"mosquito_risk":7,"arthritis_risk":5,"migraine_risk":7,"frizz_risk":1,"updated_at":"2026-05-31T17:47:20.315732+05:30"},{"city":"Jhansi","state":"Uttar Pradesh","latitude":25.4484,"longitude":78.5685,"temp":34.5,"humidity":35,"rain":0.0,"pressure":975.5,"uv_index":8.35,"wind_gusts":19.4,"aqi":124,"pm10":30.6,"pm2_5":14.0,"no2":1.8,"co":216.0,"o3":144.0,"so2":6.9,"mosquito_risk":0,"arthritis_risk":5,"migraine_risk":7,"frizz_risk":1,"updated_at":"2026-05-31T17:47:23.543693+05:30"},{"city":"Surat","state":"Gujarat","latitude":21.1702,"longitude":72.8311,"temp":32.7,"humidity":62,"rain":0.0,"pressure":1004.5,"uv_index":7.7,"wind_gusts":49.7,"aqi":78,"pm10":27.9,"pm2_5":19.6,"no2":12.1,"co":195.0,"o3":44.0,"so2":29.5,"mosquito_risk":3,"arthritis_risk":5,"migraine_risk":4,"frizz_risk":1,"updated_at":"2026-05-31T17:47:23.543729+05:30"},{"city":"Vadodara","state":"Gujarat","latitude":22.3072,"longitude":73.1812,"temp":36.2,"humidity":43,"rain":0.0,"pressure":1000.9,"uv_index":8.05,"wind_gusts":43.6,"aqi":73,"pm10":59.0,"pm2_5":21.2,"no2":2.4,"co":144.0,"o3":89.0,"so2":3.7,"mosquito_risk":0,"arthritis_risk":5,"migraine_risk":7,"frizz_risk":1,"updated_at":"2026-05-31T17:47:23.543740+05:30"},{"city":"Rajkot","state":"Gujarat","latitude":22.3039,"longitude":70.8022,"temp":37.8,"humidity":37,"rain":0.0,"pressure":990.7,"uv_index":7.7,"wind_gusts":43.6,"aqi":65,"pm10":48.4,"pm2_5":23.1,"no2":1.4,"co":111.0,"o3":91.0,"so2":4.1,"mosquito_risk":0,"arthritis_risk":5,"migraine_risk":10,"frizz_risk":1,"updated_at":"2026-05-31T17:47:23.543749+05:30"},{"city":"Thane","state":"Maharashtra","latitude":19.2183,"longitude":72.9781,"temp":32.2,"humidity":64,"rain":0.0,"pressure":1006.3,"uv_index":7.8,"wind_gusts":37.1,"aqi":62,"pm10":26.4,"pm2_5":16.3,"no2":5.2,"co":148.0,"o3":65.0,"so2":4.6,"mosquito_risk":3,"arthritis_risk":5,"migraine_risk":4,"frizz_risk":1,"updated_at":"2026-05-31T17:47:23.543757+05:30"},{"city":"Nagpur","state":"Maharashtra","latitude":21.1458,"longitude":79.0882,"temp":37.8,"humidity":20,"rain":0.0,"pressure":970.2,"uv_index":8.8,"wind_gusts":39.6,"aqi":95,"pm10":50.4,"pm2_5":20.6,"no2":5.0,"co":176.0,"o3":127.0,"so2":12.3,"mosquito_risk":0,"arthritis_risk":5,"migraine_risk":10,"frizz_risk":0,"updated_at":"2026-05-31T17:47:23.543765+05:30"},{"city":"Nashik","state":"Maharashtra","latitude":19.9975,"longitude":73.7898,"temp":30.6,"humidity":51,"rain":0.1,"pressure":944.8,"uv_index":8.1,"wind_gusts":46.8,"aqi":55,"pm10":23.2,"pm2_5":12.0,"no2":1.3,"co":120.0,"o3":68.0,"so2":0.8,"mosquito_risk":3,"arthritis_risk":5,"migraine_risk":7,"frizz_risk":1,"updated_at":"2026-05-31T17:47:23.543772+05:30"},{"city":"Aurangabad","state":"Maharashtra","latitude":19.8762,"longitude":75.3433,"temp":35.1,"humidity":25,"rain":0.0,"pressure":942.4,"uv_index":8.85,"wind_gusts":51.8,"aqi":65,"pm10":59.6,"pm2_5":19.6,"no2":1.7,"co":127.0,"o3":102.0,"so2":2.5,"mosquito_risk":0,"arthritis_risk":5,"migraine_risk":10,"frizz_risk":0,"updated_at":"2026-05-31T17:47:23.543780+05:30"},{"city":"Solapur","state":"Maharashtra","latitude":17.6599,"longitude":75.9064,"temp":36.6,"humidity":25,"rain":0.1,"pressure":954.9,"uv_index":8.9,"wind_gusts":62.3,"aqi":65,"pm10":61.5,"pm2_5":20.6,"no2":1.5,"co":129.0,"o3":99.0,"so2":1.9,"mosquito_risk":3,"arthritis_risk":5,"migraine_risk":10,"frizz_risk":0,"updated_at":"2026-05-31T17:47:23.543788+05:30"},{"city":"Kolhapur","state":"Maharashtra","latitude":16.705,"longitude":74.2433,"temp":30.6,"humidity":55,"rain":0.0,"pressure":947.3,"uv_index":8.75,"wind_gusts":47.5,"aqi":42,"pm10":15.0,"pm2_5":9.1,"no2":2.6,"co":133.0,"o3":82.0,"so2":1.6,"mosquito_risk":0,"arthritis_risk":5,"migraine_risk":7,"frizz_risk":1,"updated_at":"2026-05-31T17:47:23.543795+05:30"},{"city":"Goa","state":"Goa","latitude":15.2993,"longitude":74.124,"temp":31.9,"humidity":64,"rain":0.0,"pressure":996.8,"uv_index":7.35,"wind_gusts":33.1,"aqi":51,"pm10":12.7,"pm2_5":8.2,"no2":0.9,"co":150.0,"o3":57.0,"so2":1.0,"mosquito_risk":3,"arthritis_risk":5,"migraine_risk":7,"frizz_risk":1,"updated_at":"2026-05-31T17:47:23.543802+05:30"},{"city":"Jodhpur","state":"Rajasthan","latitude":26.2389,"longitude":73.0243,"temp":37.7,"humidity":31,"rain":0.0,"pressure":980.1,"uv_index":8.4,"wind_gusts":39.6,"aqi":84,"pm10":206.3,"pm2_5":37.4,"no2":1.0,"co":124.0,"o3":93.0,"so2":1.8,"mosquito_risk":0,"arthritis_risk":5,"migraine_risk":10,"frizz_risk":1,"updated_at":"2026-05-31T17:47:23.543808+05:30"},{"city":"Udaipur","state":"Rajasthan","latitude":24.5854,"longitude":73.7125,"temp":34.5,"humidity":31,"rain":0.0,"pressure":944.8,"uv_index":8.75,"wind_gusts":36.7,"aqi":64,"pm10":98.0,"pm2_5":27.2,"no2":0.9,"co":127.0,"o3":101.0,"so2":3.4,"mosquito_risk":0,"arthritis_risk":5,"migraine_risk":7,"frizz_risk":0,"updated_at":"2026-05-31T17:47:23.543816+05:30"},{"city":"Kota","state":"Rajasthan","latitude":25.2138,"longitude":75.8648,"temp":37.0,"humidity":25,"rain":0.0,"pressure":975.9,"uv_index":8.3,"wind_gusts":28.8,"aqi":75,"pm10":58.9,"pm2_5":21.3,"no2":1.4,"co":141.0,"o3":117.0,"so2":4.1,"mosquito_risk":0,"arthritis_risk":5,"migraine_risk":10,"frizz_risk":0,"updated_at":"2026-05-31T17:47:23.543824+05:30"},{"city":"Bikaner","state":"Rajasthan","latitude":28.0229,"longitude":73.3119,"temp":35.8,"humidity":34,"rain":0.0,"pressure":979.4,"uv_index":8.35,"wind_gusts":28.1,"aqi":58,"pm10":212.8,"pm2_5":44.6,"no2":0.5,"co":133.0,"o3":92.0,"so2":2.7,"mosquito_risk":0,"arthritis_risk":5,"migraine_risk":10,"frizz_risk":1,"updated_at":"2026-05-31T17:47:23.543832+05:30"},{"city":"Ajmer","state":"Rajasthan","latitude":26.4499,"longitude":74.6399,"temp":31.5,"humidity":47,"rain":0.0,"pressure":953.2,"uv_index":8.3,"wind_gusts":40.3,"aqi":51,"pm10":99.4,"pm2_5":26.6,"no2":1.0,"co":131.0,"o3":106.0,"so2":2.2,"mosquito_risk":0,"arthritis_risk":5,"migraine_risk":7,"frizz_risk":1,"updated_at":"2026-05-31T17:47:23.543839+05:30"},{"city":"Gwalior","state":"Madhya Pradesh","latitude":26.2183,"longitude":78.1828,"temp":33.8,"humidity":44,"rain":0.0,"pressure":980.7,"uv_index":8.15,"wind_gusts":19.1,"aqi":110,"pm10":51.6,"pm2_5":18.2,"no2":1.0,"co":189.0,"o3":137.0,"so2":3.7,"mosquito_risk":0,"arthritis_risk":5,"migraine_risk":7,"frizz_risk":1,"updated_at":"2026-05-31T17:47:23.543845+05:30"},{"city":"Indore","state":"Madhya Pradesh","latitude":22.7196,"longitude":75.8577,"temp":35.5,"humidity":28,"rain":0.1,"pressure":946.3,"uv_index":8.15,"wind_gusts":67.7,"aqi":64,"pm10":55.3,"pm2_5":20.6,"no2":1.4,"co":163.0,"o3":108.0,"so2":2.5,"mosquito_risk":3,"arthritis_risk":5,"migraine_risk":10,"frizz_risk":0,"updated_at":"2026-05-31T17:47:23.543852+05:30"},{"city":"Bhopal","state":"Madhya Pradesh","latitude":23.2599,"longitude":77.4126,"temp":35.5,"humidity":23,"rain":0.0,"pressure":951.4,"uv_index":8.6,"wind_gusts":42.1,"aqi":94,"pm10":29.6,"pm2_5":11.6,"no2":1.0,"co":166.0,"o3":131.0,"so2":2.8,"mosquito_risk":0,"arthritis_risk":5,"migraine_risk":10,"frizz_risk":0,"updated_at":"2026-05-31T17:47:23.543860+05:30"},{"city":"Jabalpur","state":"Madhya Pradesh","latitude":23.1815,"longitude":79.9864,"temp":32.8,"humidity":37,"rain":0.0,"pressure":959.7,"uv_index":8.75,"wind_gusts":48.6,"aqi":111,"pm10":52.2,"pm2_5":24.6,"no2":2.3,"co":176.0,"o3":134.0,"so2":3.9,"mosquito_risk":0,"arthritis_risk":5,"migraine_risk":7,"frizz_risk":1,"updated_at":"2026-05-31T17:47:23.543866+05:30"},{"city":"Ujjain","state":"Madhya Pradesh","latitude":23.1765,"longitude":75.7885,"temp":35.8,"humidity":30,"rain":0.1,"pressure":951.7,"uv_index":8.3,"wind_gusts":52.6,"aqi":63,"pm10":58.1,"pm2_5":21.6,"no2":0.9,"co":140.0,"o3":104.0,"so2":2.9,"mosquito_risk":3,"arthritis_risk":5,"migraine_risk":10,"frizz_risk":0,"updated_at":"2026-05-31T17:47:23.543874+05:30"},{"city":"Visakhapatnam","state":"Andhra Pradesh","latitude":17.6868,"longitude":83.2185,"temp":32.5,"humidity":68,"rain":0.0,"pressure":999.2,"uv_index":9.0,"wind_gusts":44.6,"aqi":120,"pm10":50.3,"pm2_5":39.7,"no2":18.0,"co":412.0,"o3":109.0,"so2":40.5,"mosquito_risk":3,"arthritis_risk":5,"migraine_risk":7,"frizz_risk":1,"updated_at":"2026-05-31T17:47:23.543881+05:30"},{"city":"Vijayawada","state":"Andhra Pradesh","latitude":16.5062,"longitude":80.648,"temp":38.1,"humidity":33,"rain":0.0,"pressure":998.1,"uv_index":8.95,"wind_gusts":41.4,"aqi":114,"pm10":55.5,"pm2_5":38.3,"no2":9.3,"co":216.0,"o3":124.0,"so2":8.0,"mosquito_risk":0,"arthritis_risk":5,"migraine_risk":10,"frizz_risk":1,"updated_at":"2026-05-31T17:47:23.543888+05:30"},{"city":"Guntur","state":"Andhra Pradesh","latitude":16.3067,"longitude":80.4365,"temp":37.4,"humidity":37,"rain":0.0,"pressure":999.5,"uv_index":8.55,"wind_gusts":45.0,"aqi":95,"pm10":56.5,"pm2_5":33.4,"no2":6.1,"co":224.0,"o3":116.0,"so2":6.1,"mosquito_risk":0,"arthritis_risk":5,"migraine_risk":10,"frizz_risk":1,"updated_at":"2026-05-31T17:47:23.543895+05:30"},{"city":"Nellore","state":"Andhra Pradesh","latitude":14.4426,"longitude":79.9865,"temp":33.8,"humidity":60,"rain":0.0,"pressure":1002.8,"uv_index":8.3,"wind_gusts":33.1,"aqi":92,"pm10":34.0,"pm2_5":27.5,"no2":3.5,"co":167.0,"o3":143.0,"so2":3.5,"mosquito_risk":0,"arthritis_risk":5,"migraine_risk":4,"frizz_risk":1,"updated_at":"2026-05-31T17:47:23.543903+05:30"},{"city":"Kurnool","state":"Andhra Pradesh","latitude":15.8281,"longitude":78.0373,"temp":35.8,"humidity":40,"rain":0.0,"pressure":973.9,"uv_index":9.0,"wind_gusts":55.1,"aqi":61,"pm10":41.9,"pm2_5":21.9,"no2":2.1,"co":150.0,"o3":120.0,"so2":7.0,"mosquito_risk":0,"arthritis_risk":5,"migraine_risk":10,"frizz_risk":1,"updated_at":"2026-05-31T17:47:23.543910+05:30"},{"city":"Kakinada","state":"Andhra Pradesh","latitude":16.9891,"longitude":82.2475,"temp":36.2,"humidity":51,"rain":0.0,"pressure":1002.5,"uv_index":8.8,"wind_gusts":37.8,"aqi":90,"pm10":38.2,"pm2_5":29.6,"no2":3.2,"co":275.0,"o3":125.0,"so2":2.9,"mosquito_risk":0,"arthritis_risk":5,"migraine_risk":7,"frizz_risk":1,"updated_at":"2026-05-31T17:47:23.543917+05:30"},{"city":"Tirupati","state":"Andhra Pradesh","latitude":13.6288,"longitude":79.4192,"temp":32.5,"humidity":51,"rain":0.0,"pressure":988.5,"uv_index":9.05,"wind_gusts":34.9,"aqi":73,"pm10":26.8,"pm2_5":19.0,"no2":6.4,"co":222.0,"o3":110.0,"so2":3.7,"mosquito_risk":0,"arthritis_risk":5,"migraine_risk":7,"frizz_risk":1,"updated_at":"2026-05-31T17:47:23.543925+05:30"},{"city":"Warangal","state":"Telangana","latitude":17.9689,"longitude":79.5941,"temp":36.2,"humidity":34,"rain":0.0,"pressure":975.2,"uv_index":8.55,"wind_gusts":59.0,"aqi":96,"pm10":46.4,"pm2_5":26.7,"no2":4.4,"co":180.0,"o3":114.0,"so2":5.3,"mosquito_risk":0,"arthritis_risk":5,"migraine_risk":10,"frizz_risk":1,"updated_at":"2026-05-31T17:47:23.543931+05:30"},{"city":"Nizamabad","state":"Telangana","latitude":18.6725,"longitude":78.0941,"temp":36.0,"humidity":28,"rain":0.0,"pressure":961.9,"uv_index":9.0,"wind_gusts":40.0,"aqi":86,"pm10":81.3,"pm2_5":27.3,"no2":1.4,"co":139.0,"o3":107.0,"so2":2.8,"mosquito_risk":0,"arthritis_risk":5,"migraine_risk":10,"frizz_risk":0,"updated_at":"2026-05-31T17:47:23.543938+05:30"},{"city":"Mysore","state":"Karnataka","latitude":12.2958,"longitude":76.6396,"temp":27.0,"humidity":70,"rain":0.1,"pressure":928.5,"uv_index":9.15,"wind_gusts":44.6,"aqi":54,"pm10":15.9,"pm2_5":11.0,"no2":4.1,"co":209.0,"o3":111.0,"so2":1.7,"mosquito_risk":10,"arthritis_risk":5,"migraine_risk":7,"frizz_risk":1,"updated_at":"2026-05-31T17:47:23.543945+05:30"},{"city":"Mangalore","state":"Karnataka","latitude":12.9141,"longitude":74.856,"temp":29.0,"humidity":82,"rain":0.0,"pressure":1006.2,"uv_index":8.75,"wind_gusts":29.5,"aqi":45,"pm10":13.8,"pm2_5":8.7,"no2":1.7,"co":176.0,"o3":68.0,"so2":1.5,"mosquito_risk":7,"arthritis_risk":5,"migraine_risk":4,"frizz_risk":1,"updated_at":"2026-05-31T17:47:23.543952+05:30"},{"city":"Hubli-Dharwad","state":"Karnataka","latitude":15.3647,"longitude":75.124,"temp":30.7,"humidity":55,"rain":0.0,"pressure":939.9,"uv_index":8.9,"wind_gusts":43.6,"aqi":39,"pm10":13.5,"pm2_5":8.4,"no2":2.1,"co":151.0,"o3":82.0,"so2":1.0,"mosquito_risk":0,"arthritis_risk":5,"migraine_risk":7,"frizz_risk":1,"updated_at":"2026-05-31T17:47:23.543959+05:30"},{"city":"Belgaum","state":"Karnataka","latitude":15.8497,"longitude":74.4977,"temp":28.2,"humidity":66,"rain":0.0,"pressure":925.5,"uv_index":7.55,"wind_gusts":44.6,"aqi":37,"pm10":14.1,"pm2_5":9.3,"no2":1.9,"co":132.0,"o3":71.0,"so2":1.2,"mosquito_risk":7,"arthritis_risk":5,"migraine_risk":7,"frizz_risk":1,"updated_at":"2026-05-31T17:47:26.774605+05:30"},{"city":"Coimbatore","state":"Tamil Nadu","latitude":11.0168,"longitude":76.9558,"temp":29.2,"humidity":67,"rain":0.0,"pressure":961.1,"uv_index":7.95,"wind_gusts":43.2,"aqi":44,"pm10":10.5,"pm2_5":8.5,"no2":4.5,"co":160.0,"o3":77.0,"so2":2.0,"mosquito_risk":7,"arthritis_risk":5,"migraine_risk":7,"frizz_risk":1,"updated_at":"2026-05-31T17:47:26.774643+05:30"},{"city":"Madurai","state":"Tamil Nadu","latitude":9.9252,"longitude":78.1198,"temp":32.8,"humidity":49,"rain":0.0,"pressure":991.2,"uv_index":8.8,"wind_gusts":33.1,"aqi":114,"pm10":38.9,"pm2_5":19.4,"no2":4.7,"co":176.0,"o3":140.0,"so2":3.3,"mosquito_risk":0,"arthritis_risk":5,"migraine_risk":7,"frizz_risk":1,"updated_at":"2026-05-31T17:47:26.774654+05:30"},{"city":"Trichy","state":"Tamil Nadu","latitude":10.7905,"longitude":78.7047,"temp":29.8,"humidity":86,"rain":0.0,"pressure":997.7,"uv_index":8.9,"wind_gusts":34.2,"aqi":69,"pm10":25.3,"pm2_5":15.2,"no2":6.4,"co":158.0,"o3":114.0,"so2":3.2,"mosquito_risk":7,"arthritis_risk":5,"migraine_risk":7,"frizz_risk":1,"updated_at":"2026-05-31T17:47:26.774663+05:30"},{"city":"Salem","state":"Tamil Nadu","latitude":11.6643,"longitude":78.146,"temp":26.4,"humidity":84,"rain":0.2,"pressure":976.1,"uv_index":8.35,"wind_gusts":47.9,"aqi":137,"pm10":29.8,"pm2_5":19.8,"no2":5.4,"co":204.0,"o3":152.0,"so2":8.6,"mosquito_risk":10,"arthritis_risk":5,"migraine_risk":7,"frizz_risk":1,"updated_at":"2026-05-31T17:47:26.774671+05:30"},{"city":"Tirunelveli","state":"Tamil Nadu","latitude":8.7139,"longitude":77.7567,"temp":35.0,"humidity":40,"rain":0.1,"pressure":1001.0,"uv_index":8.45,"wind_gusts":24.5,"aqi":39,"pm10":10.3,"pm2_5":6.7,"no2":2.7,"co":126.0,"o3":76.0,"so2":1.1,"mosquito_risk":3,"arthritis_risk":5,"migraine_risk":4,"frizz_risk":1,"updated_at":"2026-05-31T17:47:26.774680+05:30"},{"city":"Vellore","state":"Tamil Nadu","latitude":12.9165,"longitude":79.1325,"temp":27.4,"humidity":85,"rain":0.0,"pressure":983.0,"uv_index":8.45,"wind_gusts":37.1,"aqi":98,"pm10":27.1,"pm2_5":21.8,"no2":10.0,"co":208.0,"o3":97.0,"so2":3.0,"mosquito_risk":7,"arthritis_risk":5,"migraine_risk":7,"frizz_risk":1,"updated_at":"2026-05-31T17:47:26.774688+05:30"},{"city":"Erode","state":"Tamil Nadu","latitude":11.341,"longitude":77.7172,"temp":31.1,"humidity":60,"rain":0.0,"pressure":988.2,"uv_index":8.75,"wind_gusts":27.7,"aqi":80,"pm10":19.2,"pm2_5":12.5,"no2":4.8,"co":179.0,"o3":121.0,"so2":2.2,"mosquito_risk":0,"arthritis_risk":5,"migraine_risk":7,"frizz_risk":1,"updated_at":"2026-05-31T17:47:26.774696+05:30"},{"city":"Kochi","state":"Kerala","latitude":9.9312,"longitude":76.2673,"temp":25.6,"humidity":90,"rain":0.0,"pressure":1009.4,"uv_index":7.75,"wind_gusts":32.8,"aqi":62,"pm10":13.5,"pm2_5":9.1,"no2":5.2,"co":133.0,"o3":64.0,"so2":2.7,"mosquito_risk":7,"arthritis_risk":0,"migraine_risk":4,"frizz_risk":1,"updated_at":"2026-05-31T17:47:26.774703+05:30"},{"city":"Thiruvananthapuram","state":"Kerala","latitude":8.5241,"longitude":76.9366,"temp":26.8,"humidity":88,"rain":0.1,"pressure":1008.6,"uv_index":7.35,"wind_gusts":31.3,"aqi":36,"pm10":11.9,"pm2_5":6.9,"no2":1.5,"co":126.0,"o3":65.0,"so2":0.5,"mosquito_risk":10,"arthritis_risk":0,"migraine_risk":4,"frizz_risk":1,"updated_at":"2026-05-31T17:47:26.774711+05:30"},{"city":"Kozhikode","state":"Kerala","latitude":11.2588,"longitude":75.7804,"temp":27.3,"humidity":89,"rain":0.1,"pressure":1007.9,"uv_index":8.65,"wind_gusts":29.2,"aqi":32,"pm10":8.1,"pm2_5":4.9,"no2":0.6,"co":181.0,"o3":63.0,"so2":0.5,"mosquito_risk":10,"arthritis_risk":5,"migraine_risk":4,"frizz_risk":1,"updated_at":"2026-05-31T17:47:26.774718+05:30"},{"city":"Thrissur","state":"Kerala","latitude":10.5276,"longitude":76.2144,"temp":26.9,"humidity":88,"rain":0.0,"pressure":1007.5,"uv_index":7.4,"wind_gusts":32.4,"aqi":56,"pm10":12.8,"pm2_5":8.7,"no2":4.5,"co":131.0,"o3":57.0,"so2":1.6,"mosquito_risk":7,"arthritis_risk":5,"migraine_risk":4,"frizz_risk":1,"updated_at":"2026-05-31T17:47:26.774726+05:30"},{"city":"Kannur","state":"Kerala","latitude":11.8745,"longitude":75.3704,"temp":27.3,"humidity":92,"rain":0.1,"pressure":1007.1,"uv_index":7.1,"wind_gusts":31.0,"aqi":40,"pm10":10.6,"pm2_5":6.8,"no2":1.5,"co":200.0,"o3":64.0,"so2":1.0,"mosquito_risk":10,"arthritis_risk":5,"migraine_risk":4,"frizz_risk":1,"updated_at":"2026-05-31T17:47:26.774733+05:30"},{"city":"Patna","state":"Bihar","latitude":25.5941,"longitude":85.1376,"temp":31.8,"humidity":67,"rain":0.0,"pressure":997.4,"uv_index":8.8,"wind_gusts":33.5,"aqi":195,"pm10":75.0,"pm2_5":57.6,"no2":7.3,"co":406.0,"o3":178.0,"so2":16.5,"mosquito_risk":3,"arthritis_risk":5,"migraine_risk":7,"frizz_risk":1,"updated_at":"2026-05-31T17:47:26.774741+05:30"},{"city":"Gaya","state":"Bihar","latitude":24.7914,"longitude":85.0002,"temp":32.8,"humidity":56,"rain":0.0,"pressure":991.0,"uv_index":8.85,"wind_gusts":21.2,"aqi":172,"pm10":53.6,"pm2_5":40.0,"no2":4.2,"co":317.0,"o3":167.0,"so2":12.1,"mosquito_risk":0,"arthritis_risk":5,"migraine_risk":7,"frizz_risk":1,"updated_at":"2026-05-31T17:47:26.774749+05:30"},{"city":"Muzaffarpur","state":"Bihar","latitude":26.1209,"longitude":85.3647,"temp":31.9,"humidity":68,"rain":0.0,"pressure":997.3,"uv_index":8.75,"wind_gusts":33.5,"aqi":195,"pm10":80.8,"pm2_5":62.9,"no2":10.9,"co":425.0,"o3":165.0,"so2":16.3,"mosquito_risk":3,"arthritis_risk":5,"migraine_risk":7,"frizz_risk":1,"updated_at":"2026-05-31T17:47:26.774757+05:30"},{"city":"Bhagalpur","state":"Bihar","latitude":25.2425,"longitude":87.0117,"temp":32.2,"humidity":66,"rain":0.0,"pressure":997.9,"uv_index":8.75,"wind_gusts":25.9,"aqi":212,"pm10":78.7,"pm2_5":61.2,"no2":8.4,"co":373.0,"o3":213.0,"so2":30.0,"mosquito_risk":3,"arthritis_risk":5,"migraine_risk":7,"frizz_risk":1,"updated_at":"2026-05-31T17:47:26.774763+05:30"},{"city":"Ranchi","state":"Jharkhand","latitude":23.3441,"longitude":85.3096,"temp":27.5,"humidity":67,"rain":0.0,"pressure":936.2,"uv_index":9.2,"wind_gusts":32.4,"aqi":136,"pm10":56.6,"pm2_5":39.1,"no2":4.0,"co":249.0,"o3":157.0,"so2":9.1,"mosquito_risk":7,"arthritis_risk":5,"migraine_risk":7,"frizz_risk":1,"updated_at":"2026-05-31T17:47:26.774771+05:30"},{"city":"Jamshedpur","state":"Jharkhand","latitude":22.8046,"longitude":86.2029,"temp":27.5,"humidity":82,"rain":0.0,"pressure":988.6,"uv_index":5.55,"wind_gusts":36.7,"aqi":187,"pm10":61.7,"pm2_5":48.3,"no2":9.6,"co":414.0,"o3":170.0,"so2":24.3,"mosquito_risk":7,"arthritis_risk":5,"migraine_risk":3,"frizz_risk":1,"updated_at":"2026-05-31T17:47:26.774777+05:30"},{"city":"Dhanbad","state":"Jharkhand","latitude":23.7957,"longitude":86.4304,"temp":28.9,"humidity":72,"rain":0.3,"pressure":977.9,"uv_index":8.85,"wind_gusts":24.5,"aqi":168,"pm10":85.2,"pm2_5":70.5,"no2":26.3,"co":544.0,"o3":178.0,"so2":78.7,"mosquito_risk":10,"arthritis_risk":5,"migraine_risk":7,"frizz_risk":1,"updated_at":"2026-05-31T17:47:26.774784+05:30"},{"city":"Bokaro","state":"Jharkhand","latitude":23.6693,"longitude":86.1511,"temp":29.9,"humidity":72,"rain":0.0,"pressure":981.5,"uv_index":9.0,"wind_gusts":27.0,"aqi":185,"pm10":86.6,"pm2_5":71.0,"no2":24.0,"co":746.0,"o3":200.0,"so2":84.9,"mosquito_risk":7,"arthritis_risk":5,"migraine_risk":7,"frizz_risk":1,"updated_at":"2026-05-31T17:47:26.774791+05:30"},{"city":"Bhubaneswar","state":"Odisha","latitude":20.2961,"longitude":85.8245,"temp":29.4,"humidity":83,"rain":0.0,"pressure":999.8,"uv_index":8.85,"wind_gusts":26.3,"aqi":128,"pm10":50.4,"pm2_5":36.6,"no2":5.7,"co":361.0,"o3":133.0,"so2":8.0,"mosquito_risk":7,"arthritis_risk":5,"migraine_risk":7,"frizz_risk":1,"updated_at":"2026-05-31T17:47:26.774799+05:30"},{"city":"Cuttack","state":"Odisha","latitude":20.4625,"longitude":85.8828,"temp":29.6,"humidity":85,"rain":0.3,"pressure":1001.6,"uv_index":9.1,"wind_gusts":24.5,"aqi":128,"pm10":50.4,"pm2_5":36.6,"no2":5.7,"co":311.0,"o3":133.0,"so2":8.0,"mosquito_risk":10,"arthritis_risk":5,"migraine_risk":4,"frizz_risk":1,"updated_at":"2026-05-31T17:47:26.774805+05:30"},{"city":"Rourkela","state":"Odisha","latitude":22.2604,"longitude":84.8536,"temp":31.0,"humidity":63,"rain":0.0,"pressure":982.2,"uv_index":8.9,"wind_gusts":37.1,"aqi":172,"pm10":46.4,"pm2_5":33.1,"no2":4.4,"co":327.0,"o3":179.0,"so2":10.4,"mosquito_risk":3,"arthritis_risk":5,"migraine_risk":7,"frizz_risk":1,"updated_at":"2026-05-31T17:47:26.774812+05:30"},{"city":"Raipur","state":"Chhattisgarh","latitude":21.2514,"longitude":81.6296,"temp":38.2,"humidity":20,"rain":0.0,"pressure":971.0,"uv_index":8.85,"wind_gusts":31.3,"aqi":148,"pm10":52.7,"pm2_5":31.8,"no2":10.3,"co":239.0,"o3":153.0,"so2":31.6,"mosquito_risk":0,"arthritis_risk":5,"migraine_risk":10,"frizz_risk":0,"updated_at":"2026-05-31T17:47:26.774819+05:30"},{"city":"Bhilai","state":"Chhattisgarh","latitude":21.1938,"longitude":81.3509,"temp":37.7,"humidity":22,"rain":0.0,"pressure":971.5,"uv_index":8.85,"wind_gusts":29.5,"aqi":136,"pm10":54.4,"pm2_5":28.5,"no2":11.5,"co":275.0,"o3":134.0,"so2":29.4,"mosquito_risk":0,"arthritis_risk":5,"migraine_risk":10,"frizz_risk":0,"updated_at":"2026-05-31T17:47:26.774827+05:30"},{"city":"Guwahati","state":"Assam","latitude":26.1158,"longitude":91.7086,"temp":30.4,"humidity":80,"rain":0.0,"pressure":998.3,"uv_index":8.75,"wind_gusts":29.9,"aqi":79,"pm10":29.9,"pm2_5":20.9,"no2":4.1,"co":355.0,"o3":93.0,"so2":1.9,"mosquito_risk":3,"arthritis_risk":5,"migraine_risk":7,"frizz_risk":1,"updated_at":"2026-05-31T17:47:26.774833+05:30"},{"city":"Agartala","state":"Tripura","latitude":23.8315,"longitude":91.2868,"temp":31.0,"humidity":72,"rain":0.0,"pressure":1003.0,"uv_index":8.85,"wind_gusts":23.8,"aqi":183,"pm10":46.3,"pm2_5":38.9,"no2":17.0,"co":365.0,"o3":135.0,"so2":9.7,"mosquito_risk":3,"arthritis_risk":5,"migraine_risk":4,"frizz_risk":1,"updated_at":"2026-05-31T17:47:26.774840+05:30"},{"city":"Shillong","state":"Meghalaya","latitude":25.5788,"longitude":91.8933,"temp":20.9,"humidity":95,"rain":0.1,"pressure":856.9,"uv_index":9.05,"wind_gusts":23.8,"aqi":67,"pm10":22.1,"pm2_5":15.3,"no2":4.5,"co":258.0,"o3":98.0,"so2":2.8,"mosquito_risk":6,"arthritis_risk":5,"migraine_risk":7,"frizz_risk":1,"updated_at":"2026-05-31T17:47:26.774847+05:30"},{"city":"Imphal","state":"Manipur","latitude":24.817,"longitude":93.9368,"temp":24.2,"humidity":90,"rain":0.0,"pressure":922.1,"uv_index":9.0,"wind_gusts":24.5,"aqi":68,"pm10":5.6,"pm2_5":5.4,"no2":5.7,"co":298.0,"o3":55.0,"so2":1.4,"mosquito_risk":3,"arthritis_risk":5,"migraine_risk":7,"frizz_risk":1,"updated_at":"2026-05-31T17:47:26.774854+05:30"},{"city":"Aizawl","state":"Mizoram","latitude":23.7271,"longitude":92.7176,"temp":22.0,"humidity":95,"rain":0.0,"pressure":891.0,"uv_index":8.2,"wind_gusts":27.7,"aqi":38,"pm10":9.5,"pm2_5":7.6,"no2":3.8,"co":232.0,"o3":53.0,"so2":0.6,"mosquito_risk":3,"arthritis_risk":5,"migraine_risk":7,"frizz_risk":1,"updated_at":"2026-05-31T17:47:26.774860+05:30"},{"city":"Kohima","state":"Nagaland","latitude":25.6701,"longitude":94.1077,"temp":21.6,"humidity":98,"rain":0.2,"pressure":854.6,"uv_index":1.95,"wind_gusts":23.0,"aqi":51,"pm10":7.8,"pm2_5":6.8,"no2":4.6,"co":207.0,"o3":51.0,"so2":0.6,"mosquito_risk":6,"arthritis_risk":5,"migraine_risk":3,"frizz_risk":1,"updated_at":"2026-05-31T17:47:26.774867+05:30"},{"city":"Gangtok","state":"Sikkim","latitude":27.3314,"longitude":88.6138,"temp":20.8,"humidity":78,"rain":0.0,"pressure":837.4,"uv_index":9.2,"wind_gusts":42.5,"aqi":86,"pm10":32.0,"pm2_5":20.1,"no2":3.0,"co":257.0,"o3":125.0,"so2":2.0,"mosquito_risk":3,"arthritis_risk":5,"migraine_risk":7,"frizz_risk":1,"updated_at":"2026-05-31T17:47:26.774873+05:30"},{"city":"Siliguri","state":"West Bengal","latitude":26.7271,"longitude":88.3953,"temp":31.0,"humidity":68,"rain":0.0,"pressure":989.4,"uv_index":8.6,"wind_gusts":20.2,"aqi":137,"pm10":51.5,"pm2_5":31.0,"no2":4.8,"co":526.0,"o3":144.0,"so2":4.5,"mosquito_risk":3,"arthritis_risk":5,"migraine_risk":7,"frizz_risk":1,"updated_at":"2026-05-31T17:47:30.024071+05:30"},{"city":"Durgapur","state":"West Bengal","latitude":23.5204,"longitude":87.3119,"temp":30.2,"humidity":75,"rain":0.0,"pressure":992.3,"uv_index":8.95,"wind_gusts":23.8,"aqi":185,"pm10":79.9,"pm2_5":70.5,"no2":25.1,"co":435.0,"o3":182.0,"so2":61.2,"mosquito_risk":3,"arthritis_risk":5,"migraine_risk":7,"frizz_risk":1,"updated_at":"2026-05-31T17:47:30.024109+05:30"},{"city":"Asansol","state":"West Bengal","latitude":23.6739,"longitude":86.9524,"temp":26.5,"humidity":94,"rain":0.0,"pressure":991.2,"uv_index":9.0,"wind_gusts":29.2,"aqi":167,"pm10":77.1,"pm2_5":65.9,"no2":24.2,"co":381.0,"o3":167.0,"so2":53.0,"mosquito_risk":7,"arthritis_risk":5,"migraine_risk":7,"frizz_risk":1,"updated_at":"2026-05-31T17:47:30.024121+05:30"},{"city":"Pondicherry","state":"Puducherry","latitude":11.9139,"longitude":79.8145,"temp":31.3,"humidity":74,"rain":0.0,"pressure":1005.8,"uv_index":8.85,"wind_gusts":38.9,"aqi":119,"pm10":34.7,"pm2_5":27.5,"no2":12.0,"co":193.0,"o3":135.0,"so2":6.1,"mosquito_risk":3,"arthritis_risk":5,"migraine_risk":4,"frizz_risk":1,"updated_at":"2026-05-31T17:47:30.024131+05:30"},{"city":"Port Blair","state":"Andaman and Nicobar Islands","latitude":11.6234,"longitude":92.7265,"temp":26.5,"humidity":90,"rain":0.0,"pressure":1005.8,"uv_index":8.0,"wind_gusts":36.0,"aqi":35,"pm10":9.0,"pm2_5":5.1,"no2":0.4,"co":139.0,"o3":78.0,"so2":0.4,"mosquito_risk":7,"arthritis_risk":5,"migraine_risk":4,"frizz_risk":1,"updated_at":"2026-05-31T17:47:30.024139+05:30"},{"city":"Haridwar","state":"Uttarakhand","latitude":29.9457,"longitude":78.1642,"temp":27.3,"humidity":64,"rain":0.0,"pressure":973.8,"uv_index":7.15,"wind_gusts":27.4,"aqi":123,"pm10":27.9,"pm2_5":17.1,"no2":2.1,"co":242.0,"o3":147.0,"so2":2.6,"mosquito_risk":7,"arthritis_risk":5,"migraine_risk":7,"frizz_risk":1,"updated_at":"2026-05-31T17:47:30.024147+05:30"},{"city":"Rishikesh","state":"Uttarakhand","latitude":30.0869,"longitude":78.2676,"temp":24.6,"humidity":92,"rain":0.1,"pressure":966.5,"uv_index":6.9,"wind_gusts":29.9,"aqi":103,"pm10":19.4,"pm2_5":12.3,"no2":3.2,"co":245.0,"o3":123.0,"so2":1.6,"mosquito_risk":6,"arthritis_risk":5,"migraine_risk":7,"frizz_risk":1,"updated_at":"2026-05-31T17:47:30.024155+05:30"},{"city":"Nainital","state":"Uttarakhand","latitude":29.3919,"longitude":79.4542,"temp":16.2,"humidity":77,"rain":0.0,"pressure":805.8,"uv_index":6.15,"wind_gusts":25.6,"aqi":107,"pm10":28.2,"pm2_5":17.3,"no2":3.4,"co":245.0,"o3":135.0,"so2":2.6,"mosquito_risk":3,"arthritis_risk":5,"migraine_risk":7,"frizz_risk":0,"updated_at":"2026-05-31T17:47:30.024162+05:30"},{"city":"Mussoorie","state":"Uttarakhand","latitude":30.4599,"longitude":78.0664,"temp":15.3,"humidity":76,"rain":0.0,"pressure":803.0,"uv_index":7.65,"wind_gusts":37.4,"aqi":125,"pm10":16.2,"pm2_5":10.6,"no2":2.1,"co":239.0,"o3":141.0,"so2":1.7,"mosquito_risk":3,"arthritis_risk":5,"migraine_risk":7,"frizz_risk":0,"updated_at":"2026-05-31T17:47:30.024170+05:30"},{"city":"Dharamshala","state":"Himachal Pradesh","latitude":32.219,"longitude":76.3234,"temp":20.6,"humidity":56,"rain":0.1,"pressure":869.5,"uv_index":7.85,"wind_gusts":36.7,"aqi":96,"pm10":22.8,"pm2_5":11.0,"no2":1.8,"co":254.0,"o3":134.0,"so2":0.7,"mosquito_risk":3,"arthritis_risk":5,"migraine_risk":7,"frizz_risk":0,"updated_at":"2026-05-31T17:47:30.024177+05:30"},{"city":"Dalhousie","state":"Himachal Pradesh","latitude":32.5387,"longitude":75.971,"temp":16.5,"humidity":80,"rain":0.0,"pressure":805.1,"uv_index":7.7,"wind_gusts":23.0,"aqi":139,"pm10":41.3,"pm2_5":15.0,"no2":2.6,"co":265.0,"o3":150.0,"so2":2.1,"mosquito_risk":3,"arthritis_risk":5,"migraine_risk":7,"frizz_risk":0,"updated_at":"2026-05-31T17:47:30.024185+05:30"},{"city":"Patiala","state":"Punjab","latitude":30.3398,"longitude":76.3869,"temp":29.4,"humidity":50,"rain":0.0,"pressure":977.7,"uv_index":7.5,"wind_gusts":44.6,"aqi":343,"pm10":362.3,"pm2_5":54.0,"no2":2.2,"co":284.0,"o3":162.0,"so2":6.8,"mosquito_risk":4,"arthritis_risk":5,"migraine_risk":7,"frizz_risk":1,"updated_at":"2026-05-31T17:47:30.024193+05:30"},{"city":"Bhatinda","state":"Punjab","latitude":30.211,"longitude":74.9455,"temp":33.0,"humidity":41,"rain":0.0,"pressure":982.0,"uv_index":8.2,"wind_gusts":33.5,"aqi":361,"pm10":957.4,"pm2_5":156.0,"no2":3.8,"co":237.0,"o3":164.0,"so2":13.6,"mosquito_risk":0,"arthritis_risk":5,"migraine_risk":7,"frizz_risk":1,"updated_at":"2026-05-31T17:47:30.024201+05:30"},{"city":"Rohtak","state":"Haryana","latitude":28.8955,"longitude":76.6066,"temp":29.9,"humidity":56,"rain":0.0,"pressure":980.4,"uv_index":7.6,"wind_gusts":47.5,"aqi":514,"pm10":378.1,"pm2_5":75.4,"no2":5.3,"co":347.0,"o3":193.0,"so2":14.6,"mosquito_risk":4,"arthritis_risk":5,"migraine_risk":7,"frizz_risk":1,"updated_at":"2026-05-31T17:47:30.024208+05:30"},{"city":"Panipat","state":"Haryana","latitude":29.3909,"longitude":76.9635,"temp":28.4,"humidity":61,"rain":0.0,"pressure":979.7,"uv_index":7.4,"wind_gusts":32.4,"aqi":646,"pm10":244.0,"pm2_5":54.1,"no2":5.6,"co":314.0,"o3":181.0,"so2":17.3,"mosquito_risk":7,"arthritis_risk":5,"migraine_risk":7,"frizz_risk":1,"updated_at":"2026-05-31T17:47:30.024215+05:30"},{"city":"Mathura","state":"Uttar Pradesh","latitude":27.4924,"longitude":77.6737,"temp":31.3,"humidity":47,"rain":0.1,"pressure":984.4,"uv_index":7.9,"wind_gusts":40.3,"aqi":499,"pm10":161.1,"pm2_5":34.1,"no2":2.8,"co":294.0,"o3":146.0,"so2":3.7,"mosquito_risk":3,"arthritis_risk":5,"migraine_risk":7,"frizz_risk":1,"updated_at":"2026-05-31T17:47:30.024222+05:30"},{"city":"Vrindavan","state":"Uttar Pradesh","latitude":27.5823,"longitude":77.7027,"temp":30.1,"humidity":53,"rain":0.2,"pressure":985.1,"uv_index":7.85,"wind_gusts":39.6,"aqi":499,"pm10":161.1,"pm2_5":34.1,"no2":2.8,"co":278.0,"o3":146.0,"so2":3.7,"mosquito_risk":3,"arthritis_risk":5,"migraine_risk":7,"frizz_risk":1,"updated_at":"2026-05-31T17:47:30.024229+05:30"},{"city":"Ayodhya","state":"Uttar Pradesh","latitude":26.7922,"longitude":82.1998,"temp":29.1,"humidity":70,"rain":0.0,"pressure":993.4,"uv_index":8.25,"wind_gusts":38.5,"aqi":148,"pm10":52.2,"pm2_5":28.6,"no2":3.9,"co":287.0,"o3":144.0,"so2":4.6,"mosquito_risk":7,"arthritis_risk":5,"migraine_risk":7,"frizz_risk":1,"updated_at":"2026-05-31T17:47:30.024236+05:30"},{"city":"Ratlam","state":"Madhya Pradesh","latitude":23.3315,"longitude":75.0367,"temp":34.7,"humidity":33,"rain":0.0,"pressure":953.0,"uv_index":8.4,"wind_gusts":47.2,"aqi":64,"pm10":60.8,"pm2_5":22.8,"no2":0.8,"co":126.0,"o3":101.0,"so2":3.3,"mosquito_risk":0,"arthritis_risk":5,"migraine_risk":7,"frizz_risk":0,"updated_at":"2026-05-31T17:47:30.024242+05:30"},{"city":"Sagar","state":"Madhya Pradesh","latitude":23.8388,"longitude":78.7378,"temp":32.5,"humidity":38,"rain":0.0,"pressure":948.4,"uv_index":8.65,"wind_gusts":49.0,"aqi":94,"pm10":17.1,"pm2_5":7.8,"no2":0.9,"co":151.0,"o3":132.0,"so2":2.6,"mosquito_risk":0,"arthritis_risk":5,"migraine_risk":7,"frizz_risk":1,"updated_at":"2026-05-31T17:47:30.024249+05:30"},{"city":"Satna","state":"Madhya Pradesh","latitude":24.6005,"longitude":80.8322,"temp":33.7,"humidity":33,"rain":0.0,"pressure":969.3,"uv_index":8.7,"wind_gusts":30.6,"aqi":134,"pm10":31.3,"pm2_5":18.7,"no2":1.3,"co":225.0,"o3":150.0,"so2":4.9,"mosquito_risk":0,"arthritis_risk":5,"migraine_risk":7,"frizz_risk":0,"updated_at":"2026-05-31T17:47:30.024257+05:30"},{"city":"Akola","state":"Maharashtra","latitude":20.7002,"longitude":77.0082,"temp":36.4,"humidity":25,"rain":0.0,"pressure":972.6,"uv_index":8.75,"wind_gusts":64.1,"aqi":73,"pm10":60.5,"pm2_5":22.1,"no2":1.9,"co":126.0,"o3":118.0,"so2":5.1,"mosquito_risk":0,"arthritis_risk":5,"migraine_risk":10,"frizz_risk":0,"updated_at":"2026-05-31T17:47:30.024265+05:30"},{"city":"Amravati","state":"Maharashtra","latitude":20.9374,"longitude":77.7796,"temp":37.0,"humidity":23,"rain":0.0,"pressure":964.5,"uv_index":8.75,"wind_gusts":48.6,"aqi":73,"pm10":62.4,"pm2_5":22.6,"no2":2.2,"co":146.0,"o3":119.0,"so2":5.4,"mosquito_risk":0,"arthritis_risk":5,"migraine_risk":10,"frizz_risk":0,"updated_at":"2026-05-31T17:47:30.024273+05:30"},{"city":"Latur","state":"Maharashtra","latitude":18.4088,"longitude":76.5604,"temp":35.8,"humidity":20,"rain":0.0,"pressure":937.9,"uv_index":8.95,"wind_gusts":44.3,"aqi":67,"pm10":85.9,"pm2_5":25.7,"no2":1.3,"co":134.0,"o3":98.0,"so2":1.9,"mosquito_risk":0,"arthritis_risk":5,"migraine_risk":10,"frizz_risk":0,"updated_at":"2026-05-31T17:47:30.024281+05:30"},{"city":"Nanded","state":"Maharashtra","latitude":19.1383,"longitude":77.3091,"temp":37.3,"humidity":22,"rain":0.0,"pressure":965.6,"uv_index":8.85,"wind_gusts":47.2,"aqi":75,"pm10":97.1,"pm2_5":27.2,"no2":1.5,"co":138.0,"o3":94.0,"so2":1.2,"mosquito_risk":0,"arthritis_risk":5,"migraine_risk":10,"frizz_risk":0,"updated_at":"2026-05-31T17:47:30.024289+05:30"},{"city":"Gulbarga","state":"Karnataka","latitude":17.3297,"longitude":76.8343,"temp":36.8,"humidity":25,"rain":0.0,"pressure":956.3,"uv_index":8.95,"wind_gusts":52.2,"aqi":59,"pm10":49.4,"pm2_5":18.2,"no2":1.9,"co":136.0,"o3":103.0,"so2":2.0,"mosquito_risk":0,"arthritis_risk":5,"migraine_risk":10,"frizz_risk":0,"updated_at":"2026-05-31T17:47:30.024296+05:30"},{"city":"Bidar","state":"Karnataka","latitude":17.9104,"longitude":77.5199,"temp":33.3,"humidity":36,"rain":0.1,"pressure":933.5,"uv_index":9.0,"wind_gusts":45.4,"aqi":73,"pm10":75.9,"pm2_5":26.2,"no2":2.1,"co":149.0,"o3":107.0,"so2":3.0,"mosquito_risk":3,"arthritis_risk":5,"migraine_risk":7,"frizz_risk":0,"updated_at":"2026-05-31T17:47:30.024303+05:30"},{"city":"Hospet","state":"Karnataka","latitude":15.2689,"longitude":76.3909,"temp":33.2,"humidity":54,"rain":0.0,"pressure":953.6,"uv_index":9.0,"wind_gusts":52.2,"aqi":46,"pm10":22.4,"pm2_5":11.6,"no2":2.7,"co":144.0,"o3":102.0,"so2":3.0,"mosquito_risk":0,"arthritis_risk":5,"migraine_risk":7,"frizz_risk":1,"updated_at":"2026-05-31T17:47:30.024309+05:30"},{"city":"Tirupur","state":"Tamil Nadu","latitude":11.1085,"longitude":77.3411,"temp":31.6,"humidity":54,"rain":0.0,"pressure":974.1,"uv_index":8.5,"wind_gusts":36.0,"aqi":68,"pm10":15.9,"pm2_5":11.2,"no2":5.3,"co":160.0,"o3":106.0,"so2":2.7,"mosquito_risk":0,"arthritis_risk":5,"migraine_risk":7,"frizz_risk":1,"updated_at":"2026-05-31T17:47:30.024316+05:30"},{"city":"Alappuzha","state":"Kerala","latitude":9.4981,"longitude":76.3388,"temp":26.4,"humidity":91,"rain":0.1,"pressure":1009.5,"uv_index":6.4,"wind_gusts":27.7,"aqi":46,"pm10":11.6,"pm2_5":7.1,"no2":3.9,"co":104.0,"o3":63.0,"so2":1.5,"mosquito_risk":10,"arthritis_risk":0,"migraine_risk":4,"frizz_risk":1,"updated_at":"2026-05-31T17:47:30.024323+05:30"},{"city":"Munnar","state":"Kerala","latitude":10.0889,"longitude":77.0595,"temp":19.0,"humidity":96,"rain":0.1,"pressure":857.6,"uv_index":7.95,"wind_gusts":25.9,"aqi":41,"pm10":19.9,"pm2_5":10.6,"no2":2.7,"co":144.0,"o3":85.0,"so2":1.3,"mosquito_risk":6,"arthritis_risk":10,"migraine_risk":7,"frizz_risk":1,"updated_at":"2026-05-31T17:47:30.024331+05:30"},{"city":"Silchar","state":"Assam","latitude":24.8333,"longitude":92.7789,"temp":30.1,"humidity":79,"rain":0.0,"pressure":1001.6,"uv_index":8.2,"wind_gusts":20.2,"aqi":112,"pm10":35.5,"pm2_5":25.9,"no2":6.1,"co":253.0,"o3":79.0,"so2":4.5,"mosquito_risk":3,"arthritis_risk":5,"migraine_risk":4,"frizz_risk":1,"updated_at":"2026-05-31T17:47:30.024338+05:30"},{"city":"Dibrugarh","state":"Assam","latitude":27.4728,"longitude":94.912,"temp":29.0,"humidity":86,"rain":0.1,"pressure":992.8,"uv_index":5.15,"wind_gusts":22.7,"aqi":111,"pm10":22.4,"pm2_5":18.6,"no2":6.8,"co":246.0,"o3":66.0,"so2":1.6,"mosquito_risk":10,"arthritis_risk":5,"migraine_risk":3,"frizz_risk":1,"updated_at":"2026-05-31T17:47:30.024344+05:30"}]