[{"city":"Delhi","state":"Delhi","latitude":28.6139,"longitude":77.209,"temp":26.5,"humidity":58,"rain":0.0,"pressure":982.4,"uv_index":7.6,"wind_gusts":26.6,"aqi":150,"pm10":256.1,"pm2_5":66.6,"no2":22.2,"co":535.0,"o3":98.0,"so2":19.4,"mosquito_risk":4,"arthritis_risk":5,"migraine_risk":7,"frizz_risk":1,"updated_at":"2026-05-10T02:19:41.675651+05:30"},{"city":"Mumbai","state":"Maharashtra","latitude":19.076,"longitude":72.8777,"temp":28.3,"humidity":84,"rain":0.0,"pressure":1006.3,"uv_index":7.9,"wind_gusts":52.2,"aqi":81,"pm10":49.5,"pm2_5":20.3,"no2":14.0,"co":531.0,"o3":74.0,"so2":9.7,"mosquito_risk":7,"arthritis_risk":5,"migraine_risk":4,"frizz_risk":1,"updated_at":"2026-05-10T02:19:41.675695+05:30"},{"city":"Bangalore","state":"Karnataka","latitude":12.9716,"longitude":77.5946,"temp":21.4,"humidity":94,"rain":0.0,"pressure":909.5,"uv_index":9.45,"wind_gusts":37.8,"aqi":49,"pm10":13.9,"pm2_5":13.7,"no2":16.9,"co":212.0,"o3":40.0,"so2":7.8,"mosquito_risk":3,"arthritis_risk":5,"migraine_risk":7,"frizz_risk":1,"updated_at":"2026-05-10T02:19:41.675711+05:30"},{"city":"Hyderabad","state":"Telangana","latitude":17.385,"longitude":78.4867,"temp":26.8,"humidity":57,"rain":0.0,"pressure":952.2,"uv_index":9.25,"wind_gusts":37.8,"aqi":51,"pm10":13.2,"pm2_5":11.9,"no2":10.3,"co":259.0,"o3":61.0,"so2":5.6,"mosquito_risk":4,"arthritis_risk":5,"migraine_risk":7,"frizz_risk":1,"updated_at":"2026-05-10T02:19:41.675722+05:30"},{"city":"Chennai","state":"Tamil Nadu","latitude":13.0827,"longitude":80.2707,"temp":26.5,"humidity":90,"rain":0.0,"pressure":1005.3,"uv_index":8.0,"wind_gusts":35.6,"aqi":20,"pm10":6.1,"pm2_5":4.5,"no2":6.0,"co":216.0,"o3":44.0,"so2":1.7,"mosquito_risk":7,"arthritis_risk":5,"migraine_risk":4,"frizz_risk":1,"updated_at":"2026-05-10T02:19:41.675732+05:30"},{"city":"Kolkata","state":"West Bengal","latitude":22.5726,"longitude":88.3639,"temp":25.5,"humidity":86,"rain":0.0,"pressure":1006.1,"uv_index":8.85,"wind_gusts":33.8,"aqi":151,"pm10":87.3,"pm2_5":82.2,"no2":26.9,"co":685.0,"o3":78.0,"so2":20.8,"mosquito_risk":7,"arthritis_risk":5,"migraine_risk":4,"frizz_risk":1,"updated_at":"2026-05-10T02:19:41.675741+05:30"},{"city":"Pune","state":"Maharashtra","latitude":18.5204,"longitude":73.8567,"temp":28.0,"humidity":39,"rain":0.0,"pressure":946.1,"uv_index":8.5,"wind_gusts":37.1,"aqi":91,"pm10":34.5,"pm2_5":23.6,"no2":21.0,"co":297.0,"o3":74.0,"so2":15.9,"mosquito_risk":4,"arthritis_risk":5,"migraine_risk":7,"frizz_risk":0,"updated_at":"2026-05-10T02:19:41.675749+05:30"},{"city":"Ahmedabad","state":"Gujarat","latitude":23.0225,"longitude":72.5714,"temp":32.6,"humidity":20,"rain":0.0,"pressure":999.4,"uv_index":8.1,"wind_gusts":33.8,"aqi":63,"pm10":33.6,"pm2_5":21.8,"no2":14.5,"co":211.0,"o3":57.0,"so2":7.6,"mosquito_risk":0,"arthritis_risk":5,"migraine_risk":7,"frizz_risk":0,"updated_at":"2026-05-10T02:19:41.675767+05:30"},{"city":"Jaipur","state":"Rajasthan","latitude":26.9124,"longitude":75.7873,"temp":26.2,"humidity":49,"rain":0.0,"pressure":958.8,"uv_index":8.15,"wind_gusts":26.6,"aqi":159,"pm10":434.9,"pm2_5":78.7,"no2":6.6,"co":389.0,"o3":113.0,"so2":8.3,"mosquito_risk":4,"arthritis_risk":5,"migraine_risk":7,"frizz_risk":0,"updated_at":"2026-05-10T02:19:41.675775+05:30"},{"city":"Lucknow","state":"Uttar Pradesh","latitude":26.8467,"longitude":80.9462,"temp":24.5,"humidity":65,"rain":0.0,"pressure":993.3,"uv_index":7.95,"wind_gusts":33.5,"aqi":112,"pm10":77.3,"pm2_5":54.4,"no2":21.2,"co":467.0,"o3":84.0,"so2":14.8,"mosquito_risk":3,"arthritis_risk":5,"migraine_risk":7,"frizz_risk":1,"updated_at":"2026-05-10T02:19:41.675783+05:30"},{"city":"Kanpur","state":"Uttar Pradesh","latitude":26.4499,"longitude":80.3319,"temp":25.5,"humidity":65,"rain":0.0,"pressure":991.1,"uv_index":8.1,"wind_gusts":31.7,"aqi":161,"pm10":88.2,"pm2_5":42.1,"no2":11.1,"co":412.0,"o3":97.0,"so2":9.0,"mosquito_risk":7,"arthritis_risk":5,"migraine_risk":7,"frizz_risk":1,"updated_at":"2026-05-10T02:19:41.675791+05:30"},{"city":"Chandigarh","state":"Chandigarh","latitude":30.7333,"longitude":76.7794,"temp":22.4,"humidity":73,"rain":0.0,"pressure":968.0,"uv_index":7.7,"wind_gusts":38.5,"aqi":93,"pm10":62.4,"pm2_5":41.0,"no2":25.7,"co":413.0,"o3":64.0,"so2":7.6,"mosquito_risk":3,"arthritis_risk":5,"migraine_risk":7,"frizz_risk":1,"updated_at":"2026-05-10T02:19:41.675798+05:30"},{"city":"Srinagar","state":"Jammu and Kashmir","latitude":34.0837,"longitude":74.7973,"temp":9.6,"humidity":77,"rain":0.0,"pressure":838.7,"uv_index":8.35,"wind_gusts":16.2,"aqi":88,"pm10":69.8,"pm2_5":43.8,"no2":31.3,"co":333.0,"o3":35.0,"so2":5.5,"mosquito_risk":3,"arthritis_risk":5,"migraine_risk":7,"frizz_risk":0,"updated_at":"2026-05-10T02:19:41.675807+05:30"},{"city":"Jammu","state":"Jammu and Kashmir","latitude":32.7266,"longitude":74.857,"temp":24.6,"humidity":58,"rain":0.0,"pressure":971.5,"uv_index":7.95,"wind_gusts":34.2,"aqi":151,"pm10":74.0,"pm2_5":52.5,"no2":28.3,"co":405.0,"o3":42.0,"so2":5.1,"mosquito_risk":0,"arthritis_risk":5,"migraine_risk":7,"frizz_risk":0,"updated_at":"2026-05-10T02:19:41.675814+05:30"},{"city":"Amritsar","state":"Punjab","latitude":31.634,"longitude":74.8723,"temp":26.6,"humidity":57,"rain":0.0,"pressure":979.4,"uv_index":8.35,"wind_gusts":32.4,"aqi":152,"pm10":141.1,"pm2_5":57.7,"no2":6.9,"co":550.0,"o3":95.0,"so2":8.5,"mosquito_risk":4,"arthritis_risk":5,"migraine_risk":7,"frizz_risk":1,"updated_at":"2026-05-10T02:19:41.675824+05:30"},{"city":"Ludhiana","state":"Punjab","latitude":30.901,"longitude":75.8573,"temp":24.9,"humidity":64,"rain":0.0,"pressure":977.7,"uv_index":7.95,"wind_gusts":34.2,"aqi":146,"pm10":346.5,"pm2_5":78.7,"no2":9.1,"co":788.0,"o3":107.0,"so2":10.9,"mosquito_risk":3,"arthritis_risk":5,"migraine_risk":7,"frizz_risk":1,"updated_at":"2026-05-10T02:19:41.675831+05:30"},{"city":"Jalandhar","state":"Punjab","latitude":31.326,"longitude":75.5762,"temp":24.6,"humidity":62,"rain":0.0,"pressure":978.6,"uv_index":8.15,"wind_gusts":33.1,"aqi":145,"pm10":276.6,"pm2_5":70.8,"no2":11.5,"co":593.0,"o3":97.0,"so2":12.2,"mosquito_risk":3,"arthritis_risk":5,"migraine_risk":7,"frizz_risk":1,"updated_at":"2026-05-10T02:19:41.675838+05:30"},{"city":"Dehradun","state":"Uttarakhand","latitude":30.6284,"longitude":78.0322,"temp":10.9,"humidity":100,"rain":0.0,"pressure":827.5,"uv_index":8.1,"wind_gusts":35.6,"aqi":70,"pm10":46.6,"pm2_5":25.6,"no2":25.8,"co":273.0,"o3":51.0,"so2":1.0,"mosquito_risk":3,"arthritis_risk":10,"migraine_risk":7,"frizz_risk":0,"updated_at":"2026-05-10T02:19:41.675847+05:30"},{"city":"Shimla","state":"Himachal Pradesh","latitude":31.1048,"longitude":77.1734,"temp":10.4,"humidity":82,"rain":0.0,"pressure":781.8,"uv_index":8.2,"wind_gusts":42.1,"aqi":106,"pm10":101.3,"pm2_5":42.0,"no2":23.6,"co":327.0,"o3":84.0,"so2":9.5,"mosquito_risk":3,"arthritis_risk":10,"migraine_risk":7,"frizz_risk":0,"updated_at":"2026-05-10T02:19:41.675854+05:30"},{"city":"Manali","state":"Himachal Pradesh","latitude":32.2396,"longitude":77.1887,"temp":7.7,"humidity":41,"rain":0.0,"pressure":812.0,"uv_index":9.2,"wind_gusts":42.8,"aqi":80,"pm10":37.4,"pm2_5":10.6,"no2":28.4,"co":231.0,"o3":102.0,"so2":0.6,"mosquito_risk":0,"arthritis_risk":5,"migraine_risk":7,"frizz_risk":1,"updated_at":"2026-05-10T02:19:41.675861+05:30"},{"city":"Gurgaon","state":"Haryana","latitude":28.4595,"longitude":77.0266,"temp":25.3,"humidity":62,"rain":0.0,"pressure":980.5,"uv_index":7.75,"wind_gusts":30.2,"aqi":842,"pm10":644.5,"pm2_5":110.1,"no2":15.7,"co":468.0,"o3":102.0,"so2":15.0,"mosquito_risk":7,"arthritis_risk":5,"migraine_risk":7,"frizz_risk":1,"updated_at":"2026-05-10T02:19:41.675869+05:30"},{"city":"Noida","state":"Uttar Pradesh","latitude":28.5355,"longitude":77.391,"temp":23.8,"humidity":71,"rain":0.0,"pressure":983.8,"uv_index":7.65,"wind_gusts":23.0,"aqi":842,"pm10":644.5,"pm2_5":110.1,"no2":15.7,"co":559.0,"o3":102.0,"so2":15.0,"mosquito_risk":3,"arthritis_risk":5,"migraine_risk":7,"frizz_risk":1,"updated_at":"2026-05-10T02:19:41.675876+05:30"},{"city":"Ghaziabad","state":"Uttar Pradesh","latitude":28.6692,"longitude":77.4538,"temp":23.8,"humidity":71,"rain":0.0,"pressure":981.9,"uv_index":7.6,"wind_gusts":26.6,"aqi":118,"pm10":122.5,"pm2_5":51.1,"no2":11.6,"co":421.0,"o3":97.0,"so2":9.6,"mosquito_risk":3,"arthritis_risk":5,"migraine_risk":7,"frizz_risk":1,"updated_at":"2026-05-10T02:19:41.675883+05:30"},{"city":"Faridabad","state":"Haryana","latitude":28.4089,"longitude":77.3178,"temp":25.6,"humidity":63,"rain":0.0,"pressure":983.1,"uv_index":7.7,"wind_gusts":23.8,"aqi":842,"pm10":644.5,"pm2_5":110.1,"no2":15.7,"co":498.0,"o3":102.0,"so2":15.0,"mosquito_risk":7,"arthritis_risk":5,"migraine_risk":7,"frizz_risk":1,"updated_at":"2026-05-10T02:19:41.675890+05:30"},{"city":"Meerut","state":"Uttar Pradesh","latitude":28.9845,"longitude":77.7064,"temp":23.5,"humidity":74,"rain":0.0,"pressure":980.8,"uv_index":7.55,"wind_gusts":26.6,"aqi":118,"pm10":122.5,"pm2_5":51.1,"no2":11.6,"co":463.0,"o3":97.0,"so2":9.6,"mosquito_risk":3,"arthritis_risk":5,"migraine_risk":7,"frizz_risk":1,"updated_at":"2026-05-10T02:19:41.675898+05:30"},{"city":"Agra","state":"Uttar Pradesh","latitude":27.1767,"longitude":78.0081,"temp":25.0,"humidity":64,"rain":0.0,"pressure":987.1,"uv_index":7.95,"wind_gusts":24.8,"aqi":866,"pm10":700.4,"pm2_5":95.9,"no2":8.2,"co":374.0,"o3":101.0,"so2":11.6,"mosquito_risk":7,"arthritis_risk":5,"migraine_risk":7,"frizz_risk":1,"updated_at":"2026-05-10T02:19:41.675905+05:30"},{"city":"Varanasi","state":"Uttar Pradesh","latitude":25.3176,"longitude":82.9739,"temp":24.1,"humidity":74,"rain":0.0,"pressure":996.8,"uv_index":8.55,"wind_gusts":33.8,"aqi":129,"pm10":63.3,"pm2_5":52.3,"no2":19.4,"co":510.0,"o3":85.0,"so2":17.1,"mosquito_risk":3,"arthritis_risk":5,"migraine_risk":7,"frizz_risk":1,"updated_at":"2026-05-10T02:19:41.675912+05:30"},{"city":"Prayagraj","state":"Uttar Pradesh","latitude":25.4358,"longitude":81.8463,"temp":25.5,"humidity":65,"rain":0.0,"pressure":995.0,"uv_index":8.45,"wind_gusts":32.4,"aqi":129,"pm10":65.9,"pm2_5":58.8,"no2":15.9,"co":528.0,"o3":97.0,"so2":15.1,"mosquito_risk":7,"arthritis_risk":5,"migraine_risk":7,"frizz_risk":1,"updated_at":"2026-05-10T02:19:41.675920+05:30"},{"city":"Gorakhpur","state":"Uttar Pradesh","latitude":26.7606,"longitude":83.3732,"temp":24.2,"humidity":67,"rain":0.0,"pressure":998.0,"uv_index":8.4,"wind_gusts":32.4,"aqi":116,"pm10":65.9,"pm2_5":56.0,"no2":13.6,"co":488.0,"o3":110.0,"so2":13.0,"mosquito_risk":3,"arthritis_risk":5,"migraine_risk":7,"frizz_risk":1,"updated_at":"2026-05-10T02:19:41.675928+05:30"},{"city":"Bareilly","state":"Uttar Pradesh","latitude":28.367,"longitude":79.4304,"temp":23.3,"humidity":67,"rain":0.0,"pressure":987.0,"uv_index":7.9,"wind_gusts":24.5,"aqi":98,"pm10":48.4,"pm2_5":40.9,"no2":26.3,"co":519.0,"o3":54.0,"so2":5.9,"mosquito_risk":3,"arthritis_risk":5,"migraine_risk":7,"frizz_risk":1,"updated_at":"2026-05-10T02:19:41.675935+05:30"},{"city":"Aligarh","state":"Uttar Pradesh","latitude":27.8974,"longitude":78.088,"temp":24.1,"humidity":68,"rain":0.0,"pressure":984.8,"uv_index":7.75,"wind_gusts":24.1,"aqi":409,"pm10":365.1,"pm2_5":73.1,"no2":9.4,"co":442.0,"o3":102.0,"so2":16.1,"mosquito_risk":3,"arthritis_risk":5,"migraine_risk":7,"frizz_risk":1,"updated_at":"2026-05-10T02:19:41.675942+05:30"},{"city":"Moradabad","state":"Uttar Pradesh","latitude":28.8386,"longitude":78.7733,"temp":23.1,"humidity":71,"rain":0.0,"pressure":983.5,"uv_index":7.75,"wind_gusts":27.7,"aqi":109,"pm10":112.7,"pm2_5":64.5,"no2":29.8,"co":597.0,"o3":57.0,"so2":11.6,"mosquito_risk":3,"arthritis_risk":5,"migraine_risk":7,"frizz_risk":1,"updated_at":"2026-05-10T02:19:41.675948+05:30"},{"city":"Saharanpur","state":"Uttar Pradesh","latitude":29.9637,"longitude":77.546,"temp":23.2,"humidity":77,"rain":0.0,"pressure":975.1,"uv_index":7.4,"wind_gusts":30.6,"aqi":104,"pm10":69.6,"pm2_5":54.2,"no2":28.7,"co":557.0,"o3":48.0,"so2":10.9,"mosquito_risk":3,"arthritis_risk":5,"migraine_risk":7,"frizz_risk":1,"updated_at":"2026-05-10T02:19:41.675955+05:30"},{"city":"Jhansi","state":"Uttar Pradesh","latitude":25.4484,"longitude":78.5685,"temp":24.3,"humidity":64,"rain":0.0,"pressure":976.6,"uv_index":8.4,"wind_gusts":26.6,"aqi":87,"pm10":73.6,"pm2_5":34.7,"no2":4.1,"co":344.0,"o3":112.0,"so2":8.2,"mosquito_risk":3,"arthritis_risk":5,"migraine_risk":7,"frizz_risk":1,"updated_at":"2026-05-10T02:19:45.053643+05:30"},{"city":"Surat","state":"Gujarat","latitude":21.1702,"longitude":72.8311,"temp":30.1,"humidity":49,"rain":0.0,"pressure":1003.6,"uv_index":7.75,"wind_gusts":32.0,"aqi":104,"pm10":35.7,"pm2_5":23.0,"no2":27.9,"co":291.0,"o3":58.0,"so2":43.0,"mosquito_risk":0,"arthritis_risk":5,"migraine_risk":4,"frizz_risk":1,"updated_at":"2026-05-10T02:19:45.053676+05:30"},{"city":"Vadodara","state":"Gujarat","latitude":22.3072,"longitude":73.1812,"temp":31.0,"humidity":37,"rain":0.0,"pressure":1001.3,"uv_index":8.1,"wind_gusts":30.2,"aqi":75,"pm10":52.5,"pm2_5":41.3,"no2":40.3,"co":301.0,"o3":34.0,"so2":17.6,"mosquito_risk":0,"arthritis_risk":5,"migraine_risk":4,"frizz_risk":0,"updated_at":"2026-05-10T02:19:45.053687+05:30"},{"city":"Rajkot","state":"Gujarat","latitude":22.3039,"longitude":70.8022,"temp":25.7,"humidity":87,"rain":0.0,"pressure":993.1,"uv_index":7.7,"wind_gusts":40.0,"aqi":54,"pm10":29.6,"pm2_5":10.5,"no2":6.5,"co":174.0,"o3":55.0,"so2":5.5,"mosquito_risk":7,"arthritis_risk":5,"migraine_risk":7,"frizz_risk":1,"updated_at":"2026-05-10T02:19:45.053697+05:30"},{"city":"Thane","state":"Maharashtra","latitude":19.2183,"longitude":72.9781,"temp":27.4,"humidity":83,"rain":0.0,"pressure":1005.6,"uv_index":7.9,"wind_gusts":48.6,"aqi":81,"pm10":49.5,"pm2_5":20.3,"no2":14.0,"co":444.0,"o3":74.0,"so2":9.7,"mosquito_risk":7,"arthritis_risk":5,"migraine_risk":4,"frizz_risk":1,"updated_at":"2026-05-10T02:19:45.053706+05:30"},{"city":"Nagpur","state":"Maharashtra","latitude":21.1458,"longitude":79.0882,"temp":28.8,"humidity":46,"rain":0.0,"pressure":971.7,"uv_index":8.9,"wind_gusts":36.7,"aqi":92,"pm10":50.1,"pm2_5":34.5,"no2":23.1,"co":314.0,"o3":72.0,"so2":14.1,"mosquito_risk":4,"arthritis_risk":5,"migraine_risk":7,"frizz_risk":0,"updated_at":"2026-05-10T02:19:45.053713+05:30"},{"city":"Nashik","state":"Maharashtra","latitude":19.9975,"longitude":73.7898,"temp":26.9,"humidity":43,"rain":0.0,"pressure":943.7,"uv_index":8.2,"wind_gusts":40.3,"aqi":88,"pm10":46.8,"pm2_5":27.7,"no2":21.6,"co":311.0,"o3":85.0,"so2":14.5,"mosquito_risk":4,"arthritis_risk":5,"migraine_risk":7,"frizz_risk":0,"updated_at":"2026-05-10T02:19:45.053721+05:30"},{"city":"Aurangabad","state":"Maharashtra","latitude":19.8762,"longitude":75.3433,"temp":29.9,"humidity":26,"rain":0.0,"pressure":942.0,"uv_index":9.05,"wind_gusts":45.0,"aqi":83,"pm10":44.7,"pm2_5":23.9,"no2":17.4,"co":316.0,"o3":94.0,"so2":10.3,"mosquito_risk":4,"arthritis_risk":5,"migraine_risk":7,"frizz_risk":0,"updated_at":"2026-05-10T02:19:45.053728+05:30"},{"city":"Solapur","state":"Maharashtra","latitude":17.6599,"longitude":75.9064,"temp":29.9,"humidity":34,"rain":0.0,"pressure":954.9,"uv_index":9.1,"wind_gusts":33.8,"aqi":81,"pm10":28.1,"pm2_5":21.8,"no2":12.8,"co":311.0,"o3":84.0,"so2":5.0,"mosquito_risk":4,"arthritis_risk":5,"migraine_risk":7,"frizz_risk":0,"updated_at":"2026-05-10T02:19:45.053735+05:30"},{"city":"Kolhapur","state":"Maharashtra","latitude":16.705,"longitude":74.2433,"temp":26.1,"humidity":65,"rain":0.0,"pressure":945.7,"uv_index":8.9,"wind_gusts":44.6,"aqi":112,"pm10":89.4,"pm2_5":71.5,"no2":36.6,"co":310.0,"o3":44.0,"so2":9.8,"mosquito_risk":7,"arthritis_risk":5,"migraine_risk":7,"frizz_risk":1,"updated_at":"2026-05-10T02:19:45.053743+05:30"},{"city":"Goa","state":"Goa","latitude":15.2993,"longitude":74.124,"temp":27.4,"humidity":86,"rain":0.0,"pressure":995.2,"uv_index":6.25,"wind_gusts":48.6,"aqi":88,"pm10":59.0,"pm2_5":44.8,"no2":13.8,"co":377.0,"o3":89.0,"so2":5.4,"mosquito_risk":7,"arthritis_risk":5,"migraine_risk":7,"frizz_risk":1,"updated_at":"2026-05-10T02:19:45.053750+05:30"},{"city":"Jodhpur","state":"Rajasthan","latitude":26.2389,"longitude":73.0243,"temp":32.0,"humidity":19,"rain":0.0,"pressure":980.2,"uv_index":8.35,"wind_gusts":32.4,"aqi":91,"pm10":89.4,"pm2_5":34.1,"no2":13.5,"co":439.0,"o3":62.0,"so2":5.7,"mosquito_risk":0,"arthritis_risk":5,"migraine_risk":7,"frizz_risk":0,"updated_at":"2026-05-10T02:19:45.053758+05:30"},{"city":"Udaipur","state":"Rajasthan","latitude":24.5854,"longitude":73.7125,"temp":30.0,"humidity":23,"rain":0.0,"pressure":944.5,"uv_index":8.8,"wind_gusts":40.0,"aqi":47,"pm10":27.1,"pm2_5":13.0,"no2":5.4,"co":192.0,"o3":65.0,"so2":3.0,"mosquito_risk":4,"arthritis_risk":5,"migraine_risk":7,"frizz_risk":0,"updated_at":"2026-05-10T02:19:45.053766+05:30"},{"city":"Kota","state":"Rajasthan","latitude":25.2138,"longitude":75.8648,"temp":28.1,"humidity":47,"rain":0.0,"pressure":976.9,"uv_index":8.35,"wind_gusts":33.8,"aqi":72,"pm10":77.1,"pm2_5":29.5,"no2":4.6,"co":404.0,"o3":99.0,"so2":7.3,"mosquito_risk":4,"arthritis_risk":5,"migraine_risk":7,"frizz_risk":0,"updated_at":"2026-05-10T02:19:45.053773+05:30"},{"city":"Bikaner","state":"Rajasthan","latitude":28.0229,"longitude":73.3119,"temp":29.2,"humidity":39,"rain":0.0,"pressure":979.6,"uv_index":8.35,"wind_gusts":28.8,"aqi":120,"pm10":102.7,"pm2_5":36.4,"no2":3.0,"co":291.0,"o3":103.0,"so2":5.8,"mosquito_risk":4,"arthritis_risk":5,"migraine_risk":7,"frizz_risk":0,"updated_at":"2026-05-10T02:19:45.053781+05:30"},{"city":"Ajmer","state":"Rajasthan","latitude":26.4499,"longitude":74.6399,"temp":27.4,"humidity":43,"rain":0.0,"pressure":953.0,"uv_index":8.35,"wind_gusts":33.5,"aqi":86,"pm10":122.9,"pm2_5":39.5,"no2":6.7,"co":339.0,"o3":97.0,"so2":6.3,"mosquito_risk":4,"arthritis_risk":5,"migraine_risk":7,"frizz_risk":0,"updated_at":"2026-05-10T02:19:45.053788+05:30"},{"city":"Gwalior","state":"Madhya Pradesh","latitude":26.2183,"longitude":78.1828,"temp":25.2,"humidity":64,"rain":0.0,"pressure":982.2,"uv_index":8.2,"wind_gusts":24.1,"aqi":121,"pm10":156.0,"pm2_5":47.7,"no2":4.5,"co":309.0,"o3":111.0,"so2":8.1,"mosquito_risk":7,"arthritis_risk":5,"migraine_risk":7,"frizz_risk":1,"updated_at":"2026-05-10T02:19:45.053795+05:30"},{"city":"Indore","state":"Madhya Pradesh","latitude":22.7196,"longitude":75.8577,"temp":30.0,"humidity":23,"rain":0.0,"pressure":946.4,"uv_index":8.65,"wind_gusts":41.4,"aqi":57,"pm10":47.6,"pm2_5":25.0,"no2":9.2,"co":376.0,"o3":67.0,"so2":5.1,"mosquito_risk":4,"arthritis_risk":5,"migraine_risk":7,"frizz_risk":0,"updated_at":"2026-05-10T02:19:45.053801+05:30"},{"city":"Bhopal","state":"Madhya Pradesh","latitude":23.2599,"longitude":77.4126,"temp":28.0,"humidity":34,"rain":0.0,"pressure":951.2,"uv_index":8.65,"wind_gusts":45.0,"aqi":62,"pm10":32.8,"pm2_5":20.4,"no2":4.1,"co":268.0,"o3":98.0,"so2":6.1,"mosquito_risk":4,"arthritis_risk":5,"migraine_risk":7,"frizz_risk":0,"updated_at":"2026-05-10T02:19:45.053808+05:30"},{"city":"Jabalpur","state":"Madhya Pradesh","latitude":23.1815,"longitude":79.9864,"temp":26.4,"humidity":52,"rain":0.0,"pressure":959.0,"uv_index":8.8,"wind_gusts":32.4,"aqi":67,"pm10":36.0,"pm2_5":24.2,"no2":17.1,"co":279.0,"o3":63.0,"so2":5.3,"mosquito_risk":4,"arthritis_risk":5,"migraine_risk":7,"frizz_risk":0,"updated_at":"2026-05-10T02:19:45.053815+05:30"},{"city":"Ujjain","state":"Madhya Pradesh","latitude":23.1765,"longitude":75.7885,"temp":29.2,"humidity":23,"rain":0.0,"pressure":951.7,"uv_index":8.6,"wind_gusts":43.2,"aqi":55,"pm10":39.3,"pm2_5":24.6,"no2":7.3,"co":384.0,"o3":64.0,"so2":4.7,"mosquito_risk":4,"arthritis_risk":5,"migraine_risk":7,"frizz_risk":0,"updated_at":"2026-05-10T02:19:45.053823+05:30"},{"city":"Visakhapatnam","state":"Andhra Pradesh","latitude":17.6868,"longitude":83.2185,"temp":26.4,"humidity":91,"rain":0.0,"pressure":1003.3,"uv_index":8.95,"wind_gusts":35.3,"aqi":75,"pm10":28.5,"pm2_5":26.5,"no2":19.5,"co":1147.0,"o3":26.0,"so2":6.4,"mosquito_risk":7,"arthritis_risk":5,"migraine_risk":4,"frizz_risk":1,"updated_at":"2026-05-10T02:19:45.053830+05:30"},{"city":"Vijayawada","state":"Andhra Pradesh","latitude":16.5062,"longitude":80.648,"temp":27.6,"humidity":83,"rain":0.0,"pressure":1002.0,"uv_index":9.05,"wind_gusts":38.9,"aqi":44,"pm10":11.8,"pm2_5":10.5,"no2":9.5,"co":177.0,"o3":29.0,"so2":4.8,"mosquito_risk":7,"arthritis_risk":5,"migraine_risk":4,"frizz_risk":1,"updated_at":"2026-05-10T02:19:45.053836+05:30"},{"city":"Guntur","state":"Andhra Pradesh","latitude":16.3067,"longitude":80.4365,"temp":27.8,"humidity":81,"rain":0.0,"pressure":1003.2,"uv_index":8.9,"wind_gusts":39.6,"aqi":44,"pm10":9.5,"pm2_5":8.6,"no2":9.6,"co":170.0,"o3":29.0,"so2":6.8,"mosquito_risk":7,"arthritis_risk":5,"migraine_risk":4,"frizz_risk":1,"updated_at":"2026-05-10T02:19:45.053843+05:30"},{"city":"Nellore","state":"Andhra Pradesh","latitude":14.4426,"longitude":79.9865,"temp":26.8,"humidity":88,"rain":0.0,"pressure":1004.5,"uv_index":9.2,"wind_gusts":37.1,"aqi":21,"pm10":6.6,"pm2_5":4.6,"no2":3.9,"co":173.0,"o3":39.0,"so2":1.9,"mosquito_risk":7,"arthritis_risk":5,"migraine_risk":4,"frizz_risk":1,"updated_at":"2026-05-10T02:19:45.053850+05:30"},{"city":"Kurnool","state":"Andhra Pradesh","latitude":15.8281,"longitude":78.0373,"temp":27.9,"humidity":62,"rain":0.0,"pressure":975.6,"uv_index":8.8,"wind_gusts":42.1,"aqi":36,"pm10":4.0,"pm2_5":3.5,"no2":4.4,"co":136.0,"o3":40.0,"so2":1.1,"mosquito_risk":7,"arthritis_risk":5,"migraine_risk":7,"frizz_risk":1,"updated_at":"2026-05-10T02:19:45.053858+05:30"},{"city":"Kakinada","state":"Andhra Pradesh","latitude":16.9891,"longitude":82.2475,"temp":26.9,"humidity":89,"rain":0.0,"pressure":1006.9,"uv_index":9.15,"wind_gusts":36.7,"aqi":22,"pm10":7.7,"pm2_5":5.3,"no2":1.1,"co":179.0,"o3":48.0,"so2":0.4,"mosquito_risk":7,"arthritis_risk":5,"migraine_risk":4,"frizz_risk":1,"updated_at":"2026-05-10T02:19:45.053866+05:30"},{"city":"Tirupati","state":"Andhra Pradesh","latitude":13.6288,"longitude":79.4192,"temp":25.2,"humidity":91,"rain":0.0,"pressure":989.6,"uv_index":9.25,"wind_gusts":40.7,"aqi":34,"pm10":23.8,"pm2_5":22.4,"no2":29.1,"co":193.0,"o3":7.0,"so2":5.6,"mosquito_risk":7,"arthritis_risk":5,"migraine_risk":7,"frizz_risk":1,"updated_at":"2026-05-10T02:19:45.053872+05:30"},{"city":"Warangal","state":"Telangana","latitude":17.9689,"longitude":79.5941,"temp":27.1,"humidity":66,"rain":0.0,"pressure":977.6,"uv_index":9.15,"wind_gusts":44.6,"aqi":59,"pm10":11.5,"pm2_5":11.0,"no2":9.8,"co":207.0,"o3":54.0,"so2":8.8,"mosquito_risk":7,"arthritis_risk":5,"migraine_risk":7,"frizz_risk":1,"updated_at":"2026-05-10T02:19:45.053879+05:30"},{"city":"Nizamabad","state":"Telangana","latitude":18.6725,"longitude":78.0941,"temp":28.1,"humidity":50,"rain":0.0,"pressure":962.4,"uv_index":9.1,"wind_gusts":31.7,"aqi":74,"pm10":27.5,"pm2_5":23.3,"no2":13.4,"co":280.0,"o3":78.0,"so2":5.2,"mosquito_risk":4,"arthritis_risk":5,"migraine_risk":7,"frizz_risk":1,"updated_at":"2026-05-10T02:19:45.053885+05:30"},{"city":"Mysore","state":"Karnataka","latitude":12.2958,"longitude":76.6396,"temp":22.7,"humidity":88,"rain":0.0,"pressure":926.1,"uv_index":9.1,"wind_gusts":36.4,"aqi":57,"pm10":13.1,"pm2_5":12.8,"no2":15.4,"co":224.0,"o3":45.0,"so2":5.1,"mosquito_risk":3,"arthritis_risk":5,"migraine_risk":7,"frizz_risk":1,"updated_at":"2026-05-10T02:19:45.053892+05:30"},{"city":"Mangalore","state":"Karnataka","latitude":12.9141,"longitude":74.856,"temp":25.5,"humidity":96,"rain":0.0,"pressure":1004.5,"uv_index":8.95,"wind_gusts":41.4,"aqi":70,"pm10":32.2,"pm2_5":25.4,"no2":14.7,"co":252.0,"o3":57.0,"so2":4.6,"mosquito_risk":7,"arthritis_risk":5,"migraine_risk":4,"frizz_risk":1,"updated_at":"2026-05-10T02:19:45.053899+05:30"},{"city":"Hubli-Dharwad","state":"Karnataka","latitude":15.3647,"longitude":75.124,"temp":23.9,"humidity":89,"rain":0.0,"pressure":938.3,"uv_index":7.2,"wind_gusts":47.9,"aqi":54,"pm10":34.9,"pm2_5":31.0,"no2":24.4,"co":325.0,"o3":41.0,"so2":2.6,"mosquito_risk":3,"arthritis_risk":5,"migraine_risk":7,"frizz_risk":1,"updated_at":"2026-05-10T02:19:45.053906+05:30"},{"city":"Belgaum","state":"Karnataka","latitude":15.8497,"longitude":74.4977,"temp":24.2,"humidity":71,"rain":0.0,"pressure":923.1,"uv_index":8.3,"wind_gusts":40.0,"aqi":80,"pm10":57.5,"pm2_5":44.4,"no2":25.7,"co":265.0,"o3":64.0,"so2":7.3,"mosquito_risk":3,"arthritis_risk":5,"migraine_risk":7,"frizz_risk":1,"updated_at":"2026-05-10T02:19:48.420255+05:30"},{"city":"Coimbatore","state":"Tamil Nadu","latitude":11.0168,"longitude":76.9558,"temp":23.5,"humidity":96,"rain":0.0,"pressure":958.9,"uv_index":9.15,"wind_gusts":34.6,"aqi":58,"pm10":10.5,"pm2_5":10.3,"no2":13.2,"co":260.0,"o3":44.0,"so2":4.0,"mosquito_risk":3,"arthritis_risk":5,"migraine_risk":7,"frizz_risk":1,"updated_at":"2026-05-10T02:19:48.420291+05:30"},{"city":"Madurai","state":"Tamil Nadu","latitude":9.9252,"longitude":78.1198,"temp":25.5,"humidity":92,"rain":0.0,"pressure":989.5,"uv_index":3.4,"wind_gusts":39.2,"aqi":62,"pm10":16.5,"pm2_5":16.3,"no2":21.2,"co":386.0,"o3":33.0,"so2":7.9,"mosquito_risk":7,"arthritis_risk":5,"migraine_risk":3,"frizz_risk":1,"updated_at":"2026-05-10T02:19:48.420304+05:30"},{"city":"Trichy","state":"Tamil Nadu","latitude":10.7905,"longitude":78.7047,"temp":25.8,"humidity":92,"rain":0.0,"pressure":997.0,"uv_index":4.85,"wind_gusts":40.0,"aqi":39,"pm10":9.9,"pm2_5":9.4,"no2":20.3,"co":257.0,"o3":24.0,"so2":15.1,"mosquito_risk":7,"arthritis_risk":5,"migraine_risk":3,"frizz_risk":1,"updated_at":"2026-05-10T02:19:48.420313+05:30"},{"city":"Salem","state":"Tamil Nadu","latitude":11.6643,"longitude":78.146,"temp":25.3,"humidity":87,"rain":0.0,"pressure":975.0,"uv_index":8.5,"wind_gusts":50.8,"aqi":52,"pm10":16.5,"pm2_5":16.3,"no2":18.7,"co":228.0,"o3":42.0,"so2":9.4,"mosquito_risk":7,"arthritis_risk":5,"migraine_risk":7,"frizz_risk":1,"updated_at":"2026-05-10T02:19:48.420321+05:30"},{"city":"Tirunelveli","state":"Tamil Nadu","latitude":8.7139,"longitude":77.7567,"temp":26.0,"humidity":90,"rain":0.0,"pressure":1000.2,"uv_index":3.85,"wind_gusts":34.9,"aqi":57,"pm10":11.7,"pm2_5":11.5,"no2":8.2,"co":283.0,"o3":53.0,"so2":3.7,"mosquito_risk":7,"arthritis_risk":5,"migraine_risk":0,"frizz_risk":1,"updated_at":"2026-05-10T02:19:48.420329+05:30"},{"city":"Vellore","state":"Tamil Nadu","latitude":12.9165,"longitude":79.1325,"temp":24.4,"humidity":98,"rain":0.0,"pressure":982.8,"uv_index":9.25,"wind_gusts":34.9,"aqi":52,"pm10":21.5,"pm2_5":19.7,"no2":24.2,"co":277.0,"o3":20.0,"so2":12.9,"mosquito_risk":3,"arthritis_risk":5,"migraine_risk":7,"frizz_risk":1,"updated_at":"2026-05-10T02:19:48.420336+05:30"},{"city":"Erode","state":"Tamil Nadu","latitude":11.341,"longitude":77.7172,"temp":24.7,"humidity":94,"rain":0.0,"pressure":986.7,"uv_index":6.2,"wind_gusts":33.5,"aqi":59,"pm10":14.2,"pm2_5":13.9,"no2":16.4,"co":290.0,"o3":48.0,"so2":6.2,"mosquito_risk":3,"arthritis_risk":5,"migraine_risk":7,"frizz_risk":1,"updated_at":"2026-05-10T02:19:48.420344+05:30"},{"city":"Kochi","state":"Kerala","latitude":9.9312,"longitude":76.2673,"temp":26.1,"humidity":94,"rain":0.0,"pressure":1005.0,"uv_index":8.65,"wind_gusts":24.1,"aqi":70,"pm10":22.4,"pm2_5":21.8,"no2":15.7,"co":329.0,"o3":41.0,"so2":3.7,"mosquito_risk":7,"arthritis_risk":5,"migraine_risk":4,"frizz_risk":1,"updated_at":"2026-05-10T02:19:48.420352+05:30"},{"city":"Thiruvananthapuram","state":"Kerala","latitude":8.5241,"longitude":76.9366,"temp":24.9,"humidity":96,"rain":0.0,"pressure":1004.6,"uv_index":2.8,"wind_gusts":25.2,"aqi":50,"pm10":11.0,"pm2_5":10.4,"no2":5.2,"co":435.0,"o3":103.0,"so2":3.4,"mosquito_risk":3,"arthritis_risk":5,"migraine_risk":0,"frizz_risk":1,"updated_at":"2026-05-10T02:19:48.420359+05:30"},{"city":"Kozhikode","state":"Kerala","latitude":11.2588,"longitude":75.7804,"temp":25.4,"humidity":94,"rain":0.0,"pressure":1004.6,"uv_index":8.85,"wind_gusts":38.2,"aqi":48,"pm10":11.4,"pm2_5":9.6,"no2":4.3,"co":272.0,"o3":99.0,"so2":2.3,"mosquito_risk":7,"arthritis_risk":5,"migraine_risk":4,"frizz_risk":1,"updated_at":"2026-05-10T02:19:48.420367+05:30"},{"city":"Thrissur","state":"Kerala","latitude":10.5276,"longitude":76.2144,"temp":24.6,"humidity":98,"rain":0.0,"pressure":1003.6,"uv_index":8.95,"wind_gusts":32.4,"aqi":71,"pm10":21.4,"pm2_5":20.8,"no2":12.5,"co":271.0,"o3":54.0,"so2":3.6,"mosquito_risk":3,"arthritis_risk":5,"migraine_risk":4,"frizz_risk":1,"updated_at":"2026-05-10T02:19:48.420375+05:30"},{"city":"Kannur","state":"Kerala","latitude":11.8745,"longitude":75.3704,"temp":25.4,"humidity":92,"rain":0.0,"pressure":1004.1,"uv_index":8.75,"wind_gusts":45.4,"aqi":64,"pm10":22.0,"pm2_5":19.5,"no2":14.8,"co":255.0,"o3":56.0,"so2":3.0,"mosquito_risk":7,"arthritis_risk":5,"migraine_risk":4,"frizz_risk":1,"updated_at":"2026-05-10T02:19:48.420382+05:30"},{"city":"Patna","state":"Bihar","latitude":25.5941,"longitude":85.1376,"temp":23.9,"humidity":83,"rain":0.0,"pressure":1000.9,"uv_index":8.65,"wind_gusts":34.2,"aqi":144,"pm10":61.7,"pm2_5":53.4,"no2":12.6,"co":389.0,"o3":118.0,"so2":19.5,"mosquito_risk":3,"arthritis_risk":5,"migraine_risk":4,"frizz_risk":1,"updated_at":"2026-05-10T02:19:48.420389+05:30"},{"city":"Gaya","state":"Bihar","latitude":24.7914,"longitude":85.0002,"temp":22.2,"humidity":78,"rain":0.0,"pressure":993.4,"uv_index":8.7,"wind_gusts":33.5,"aqi":121,"pm10":68.5,"pm2_5":50.9,"no2":14.0,"co":347.0,"o3":94.0,"so2":12.7,"mosquito_risk":3,"arthritis_risk":5,"migraine_risk":7,"frizz_risk":1,"updated_at":"2026-05-10T02:19:48.420396+05:30"},{"city":"Muzaffarpur","state":"Bihar","latitude":26.1209,"longitude":85.3647,"temp":23.2,"humidity":82,"rain":0.0,"pressure":1001.3,"uv_index":8.65,"wind_gusts":31.0,"aqi":151,"pm10":65.7,"pm2_5":59.3,"no2":14.8,"co":433.0,"o3":99.0,"so2":17.3,"mosquito_risk":3,"arthritis_risk":5,"migraine_risk":4,"frizz_risk":1,"updated_at":"2026-05-10T02:19:48.420402+05:30"},{"city":"Bhagalpur","state":"Bihar","latitude":25.2425,"longitude":87.0117,"temp":24.0,"humidity":86,"rain":0.0,"pressure":1002.0,"uv_index":8.6,"wind_gusts":25.2,"aqi":151,"pm10":71.0,"pm2_5":59.1,"no2":15.4,"co":372.0,"o3":114.0,"so2":14.0,"mosquito_risk":3,"arthritis_risk":5,"migraine_risk":4,"frizz_risk":1,"updated_at":"2026-05-10T02:19:48.420408+05:30"},{"city":"Ranchi","state":"Jharkhand","latitude":23.3441,"longitude":85.3096,"temp":21.1,"humidity":72,"rain":0.0,"pressure":936.7,"uv_index":9.15,"wind_gusts":46.1,"aqi":102,"pm10":78.9,"pm2_5":49.2,"no2":9.9,"co":258.0,"o3":112.0,"so2":14.1,"mosquito_risk":3,"arthritis_risk":5,"migraine_risk":7,"frizz_risk":0,"updated_at":"2026-05-10T02:19:48.420415+05:30"},{"city":"Jamshedpur","state":"Jharkhand","latitude":22.8046,"longitude":86.2029,"temp":23.8,"humidity":89,"rain":0.0,"pressure":990.9,"uv_index":8.95,"wind_gusts":32.4,"aqi":100,"pm10":32.8,"pm2_5":27.4,"no2":13.6,"co":326.0,"o3":81.0,"so2":18.2,"mosquito_risk":3,"arthritis_risk":5,"migraine_risk":7,"frizz_risk":1,"updated_at":"2026-05-10T02:19:48.420422+05:30"},{"city":"Dhanbad","state":"Jharkhand","latitude":23.7957,"longitude":86.4304,"temp":22.8,"humidity":86,"rain":0.0,"pressure":980.1,"uv_index":8.9,"wind_gusts":29.9,"aqi":156,"pm10":105.0,"pm2_5":95.2,"no2":70.1,"co":355.0,"o3":44.0,"so2":87.6,"mosquito_risk":3,"arthritis_risk":5,"migraine_risk":7,"frizz_risk":1,"updated_at":"2026-05-10T02:19:48.420429+05:30"},{"city":"Bokaro","state":"Jharkhand","latitude":23.6693,"longitude":86.1511,"temp":22.1,"humidity":85,"rain":0.0,"pressure":983.9,"uv_index":8.9,"wind_gusts":27.0,"aqi":158,"pm10":122.5,"pm2_5":104.3,"no2":62.5,"co":2207.0,"o3":50.0,"so2":74.4,"mosquito_risk":3,"arthritis_risk":5,"migraine_risk":7,"frizz_risk":1,"updated_at":"2026-05-10T02:19:48.420457+05:30"},{"city":"Bhubaneswar","state":"Odisha","latitude":20.2961,"longitude":85.8245,"temp":25.6,"humidity":94,"rain":0.0,"pressure":1002.5,"uv_index":9.05,"wind_gusts":32.4,"aqi":55,"pm10":24.1,"pm2_5":21.7,"no2":18.7,"co":321.0,"o3":32.0,"so2":5.3,"mosquito_risk":7,"arthritis_risk":5,"migraine_risk":4,"frizz_risk":1,"updated_at":"2026-05-10T02:19:48.420466+05:30"},{"city":"Cuttack","state":"Odisha","latitude":20.4625,"longitude":85.8828,"temp":25.6,"humidity":95,"rain":0.0,"pressure":1004.4,"uv_index":9.1,"wind_gusts":28.1,"aqi":55,"pm10":24.1,"pm2_5":21.7,"no2":18.7,"co":301.0,"o3":32.0,"so2":5.3,"mosquito_risk":7,"arthritis_risk":5,"migraine_risk":4,"frizz_risk":1,"updated_at":"2026-05-10T02:19:48.420473+05:30"},{"city":"Rourkela","state":"Odisha","latitude":22.2604,"longitude":84.8536,"temp":25.5,"humidity":74,"rain":0.0,"pressure":984.5,"uv_index":8.85,"wind_gusts":38.2,"aqi":126,"pm10":82.2,"pm2_5":64.3,"no2":36.4,"co":465.0,"o3":50.0,"so2":35.3,"mosquito_risk":7,"arthritis_risk":5,"migraine_risk":7,"frizz_risk":1,"updated_at":"2026-05-10T02:19:48.420480+05:30"},{"city":"Raipur","state":"Chhattisgarh","latitude":21.2514,"longitude":81.6296,"temp":27.0,"humidity":54,"rain":0.0,"pressure":972.9,"uv_index":8.9,"wind_gusts":35.6,"aqi":90,"pm10":36.4,"pm2_5":27.5,"no2":14.6,"co":455.0,"o3":112.0,"so2":6.6,"mosquito_risk":4,"arthritis_risk":5,"migraine_risk":7,"frizz_risk":1,"updated_at":"2026-05-10T02:19:48.420486+05:30"},{"city":"Bhilai","state":"Chhattisgarh","latitude":21.1938,"longitude":81.3509,"temp":26.3,"humidity":61,"rain":0.0,"pressure":973.1,"uv_index":8.95,"wind_gusts":33.1,"aqi":92,"pm10":39.9,"pm2_5":31.3,"no2":29.8,"co":431.0,"o3":94.0,"so2":7.0,"mosquito_risk":7,"arthritis_risk":5,"migraine_risk":7,"frizz_risk":1,"updated_at":"2026-05-10T02:19:48.420492+05:30"},{"city":"Guwahati","state":"Assam","latitude":26.1158,"longitude":91.7086,"temp":21.8,"humidity":87,"rain":0.0,"pressure":1002.5,"uv_index":8.6,"wind_gusts":24.1,"aqi":94,"pm10":41.4,"pm2_5":36.7,"no2":17.7,"co":351.0,"o3":34.0,"so2":3.0,"mosquito_risk":3,"arthritis_risk":5,"migraine_risk":4,"frizz_risk":1,"updated_at":"2026-05-10T02:19:48.420499+05:30"},{"city":"Agartala","state":"Tripura","latitude":23.8315,"longitude":91.2868,"temp":23.5,"humidity":88,"rain":0.0,"pressure":1006.5,"uv_index":7.65,"wind_gusts":32.0,"aqi":158,"pm10":110.4,"pm2_5":100.1,"no2":59.8,"co":538.0,"o3":25.0,"so2":10.7,"mosquito_risk":3,"arthritis_risk":5,"migraine_risk":4,"frizz_risk":1,"updated_at":"2026-05-10T02:19:48.420506+05:30"},{"city":"Shillong","state":"Meghalaya","latitude":25.5788,"longitude":91.8933,"temp":17.5,"humidity":69,"rain":0.0,"pressure":857.6,"uv_index":9.05,"wind_gusts":24.8,"aqi":77,"pm10":36.6,"pm2_5":26.8,"no2":13.0,"co":342.0,"o3":49.0,"so2":1.9,"mosquito_risk":3,"arthritis_risk":5,"migraine_risk":7,"frizz_risk":0,"updated_at":"2026-05-10T02:19:48.420512+05:30"},{"city":"Imphal","state":"Manipur","latitude":24.817,"longitude":93.9368,"temp":17.9,"humidity":86,"rain":0.0,"pressure":922.8,"uv_index":7.0,"wind_gusts":22.0,"aqi":96,"pm10":57.9,"pm2_5":51.5,"no2":34.8,"co":500.0,"o3":22.0,"so2":5.8,"mosquito_risk":3,"arthritis_risk":10,"migraine_risk":7,"frizz_risk":0,"updated_at":"2026-05-10T02:19:48.420519+05:30"},{"city":"Aizawl","state":"Mizoram","latitude":23.7271,"longitude":92.7176,"temp":16.2,"humidity":81,"rain":0.0,"pressure":891.4,"uv_index":8.55,"wind_gusts":14.0,"aqi":90,"pm10":63.6,"pm2_5":43.9,"no2":12.7,"co":386.0,"o3":53.0,"so2":4.3,"mosquito_risk":3,"arthritis_risk":10,"migraine_risk":7,"frizz_risk":0,"updated_at":"2026-05-10T02:19:48.420526+05:30"},{"city":"Kohima","state":"Nagaland","latitude":25.6701,"longitude":94.1077,"temp":14.2,"humidity":94,"rain":0.0,"pressure":854.1,"uv_index":7.95,"wind_gusts":24.1,"aqi":75,"pm10":38.6,"pm2_5":28.3,"no2":15.5,"co":276.0,"o3":35.0,"so2":1.8,"mosquito_risk":3,"arthritis_risk":10,"migraine_risk":7,"frizz_risk":0,"updated_at":"2026-05-10T02:19:48.420532+05:30"},{"city":"Gangtok","state":"Sikkim","latitude":27.3314,"longitude":88.6138,"temp":11.6,"humidity":90,"rain":0.0,"pressure":837.4,"uv_index":7.1,"wind_gusts":34.9,"aqi":60,"pm10":22.1,"pm2_5":16.2,"no2":14.4,"co":313.0,"o3":69.0,"so2":1.1,"mosquito_risk":3,"arthritis_risk":10,"migraine_risk":7,"frizz_risk":0,"updated_at":"2026-05-10T02:19:48.420539+05:30"},{"city":"Siliguri","state":"West Bengal","latitude":26.7271,"longitude":88.3953,"temp":23.0,"humidity":61,"rain":0.0,"pressure":994.1,"uv_index":8.1,"wind_gusts":20.9,"aqi":107,"pm10":65.7,"pm2_5":51.8,"no2":32.9,"co":653.0,"o3":56.0,"so2":5.4,"mosquito_risk":3,"arthritis_risk":5,"migraine_risk":7,"frizz_risk":0,"updated_at":"2026-05-10T02:19:51.789055+05:30"},{"city":"Durgapur","state":"West Bengal","latitude":23.5204,"longitude":87.3119,"temp":23.0,"humidity":91,"rain":0.0,"pressure":995.3,"uv_index":8.85,"wind_gusts":32.8,"aqi":145,"pm10":67.8,"pm2_5":62.6,"no2":38.0,"co":630.0,"o3":60.0,"so2":48.9,"mosquito_risk":3,"arthritis_risk":5,"migraine_risk":7,"frizz_risk":1,"updated_at":"2026-05-10T02:19:51.789085+05:30"},{"city":"Asansol","state":"West Bengal","latitude":23.6739,"longitude":86.9524,"temp":22.9,"humidity":89,"rain":0.0,"pressure":994.0,"uv_index":8.85,"wind_gusts":26.3,"aqi":139,"pm10":71.7,"pm2_5":65.0,"no2":40.0,"co":758.0,"o3":59.0,"so2":59.2,"mosquito_risk":3,"arthritis_risk":5,"migraine_risk":7,"frizz_risk":1,"updated_at":"2026-05-10T02:19:51.789096+05:30"},{"city":"Pondicherry","state":"Puducherry","latitude":11.9139,"longitude":79.8145,"temp":25.6,"humidity":94,"rain":0.1,"pressure":1006.5,"uv_index":8.0,"wind_gusts":39.6,"aqi":21,"pm10":4.2,"pm2_5":3.1,"no2":3.2,"co":310.0,"o3":45.0,"so2":0.4,"mosquito_risk":10,"arthritis_risk":5,"migraine_risk":4,"frizz_risk":1,"updated_at":"2026-05-10T02:19:51.789105+05:30"},{"city":"Port Blair","state":"Andaman and Nicobar Islands","latitude":11.6234,"longitude":92.7265,"temp":24.5,"humidity":97,"rain":0.0,"pressure":1005.6,"uv_index":9.0,"wind_gusts":29.9,"aqi":26,"pm10":2.4,"pm2_5":1.7,"no2":0.4,"co":139.0,"o3":57.0,"so2":0.1,"mosquito_risk":3,"arthritis_risk":5,"migraine_risk":4,"frizz_risk":1,"updated_at":"2026-05-10T02:19:51.789113+05:30"},{"city":"Haridwar","state":"Uttarakhand","latitude":29.9457,"longitude":78.1642,"temp":21.1,"humidity":79,"rain":0.0,"pressure":973.4,"uv_index":7.45,"wind_gusts":28.8,"aqi":96,"pm10":63.8,"pm2_5":46.1,"no2":20.9,"co":332.0,"o3":67.0,"so2":8.2,"mosquito_risk":3,"arthritis_risk":5,"migraine_risk":7,"frizz_risk":1,"updated_at":"2026-05-10T02:19:51.789120+05:30"},{"city":"Rishikesh","state":"Uttarakhand","latitude":30.0869,"longitude":78.2676,"temp":18.8,"humidity":87,"rain":0.0,"pressure":966.0,"uv_index":7.55,"wind_gusts":23.8,"aqi":105,"pm10":68.7,"pm2_5":39.2,"no2":13.5,"co":356.0,"o3":101.0,"so2":6.2,"mosquito_risk":3,"arthritis_risk":10,"migraine_risk":7,"frizz_risk":1,"updated_at":"2026-05-10T02:19:51.789127+05:30"},{"city":"Nainital","state":"Uttarakhand","latitude":29.3919,"longitude":79.4542,"temp":11.8,"humidity":85,"rain":0.0,"pressure":804.2,"uv_index":8.1,"wind_gusts":32.8,"aqi":73,"pm10":44.1,"pm2_5":33.2,"no2":22.8,"co":290.0,"o3":56.0,"so2":3.8,"mosquito_risk":3,"arthritis_risk":10,"migraine_risk":7,"frizz_risk":0,"updated_at":"2026-05-10T02:19:51.789134+05:30"},{"city":"Mussoorie","state":"Uttarakhand","latitude":30.4599,"longitude":78.0664,"temp":12.3,"humidity":86,"rain":0.0,"pressure":801.2,"uv_index":7.95,"wind_gusts":39.2,"aqi":88,"pm10":65.7,"pm2_5":43.9,"no2":31.6,"co":302.0,"o3":59.0,"so2":11.0,"mosquito_risk":3,"arthritis_risk":10,"migraine_risk":7,"frizz_risk":0,"updated_at":"2026-05-10T02:19:51.789141+05:30"},{"city":"Dharamshala","state":"Himachal Pradesh","latitude":32.219,"longitude":76.3234,"temp":20.1,"humidity":63,"rain":0.0,"pressure":868.9,"uv_index":7.7,"wind_gusts":35.6,"aqi":86,"pm10":44.9,"pm2_5":23.0,"no2":11.8,"co":290.0,"o3":78.0,"so2":1.6,"mosquito_risk":3,"arthritis_risk":5,"migraine_risk":7,"frizz_risk":0,"updated_at":"2026-05-10T02:19:51.789148+05:30"},{"city":"Dalhousie","state":"Himachal Pradesh","latitude":32.5387,"longitude":75.971,"temp":9.5,"humidity":95,"rain":0.0,"pressure":800.4,"uv_index":7.95,"wind_gusts":35.3,"aqi":118,"pm10":71.9,"pm2_5":47.3,"no2":28.4,"co":475.0,"o3":58.0,"so2":4.0,"mosquito_risk":3,"arthritis_risk":10,"migraine_risk":7,"frizz_risk":0,"updated_at":"2026-05-10T02:19:51.789156+05:30"},{"city":"Patiala","state":"Punjab","latitude":30.3398,"longitude":76.3869,"temp":23.8,"humidity":68,"rain":0.0,"pressure":977.3,"uv_index":7.6,"wind_gusts":34.9,"aqi":268,"pm10":448.9,"pm2_5":78.5,"no2":9.4,"co":461.0,"o3":102.0,"so2":9.5,"mosquito_risk":3,"arthritis_risk":5,"migraine_risk":7,"frizz_risk":1,"updated_at":"2026-05-10T02:19:51.789162+05:30"},{"city":"Bhatinda","state":"Punjab","latitude":30.211,"longitude":74.9455,"temp":27.4,"humidity":50,"rain":0.0,"pressure":982.4,"uv_index":8.25,"wind_gusts":29.2,"aqi":324,"pm10":523.4,"pm2_5":109.7,"no2":9.7,"co":453.0,"o3":98.0,"so2":12.4,"mosquito_risk":4,"arthritis_risk":5,"migraine_risk":7,"frizz_risk":1,"updated_at":"2026-05-10T02:19:51.789170+05:30"},{"city":"Rohtak","state":"Haryana","latitude":28.8955,"longitude":76.6066,"temp":24.6,"humidity":68,"rain":0.0,"pressure":980.9,"uv_index":7.7,"wind_gusts":29.9,"aqi":298,"pm10":482.4,"pm2_5":90.8,"no2":20.9,"co":526.0,"o3":95.0,"so2":25.4,"mosquito_risk":3,"arthritis_risk":5,"migraine_risk":7,"frizz_risk":1,"updated_at":"2026-05-10T02:19:51.789177+05:30"},{"city":"Panipat","state":"Haryana","latitude":29.3909,"longitude":76.9635,"temp":23.6,"humidity":71,"rain":0.0,"pressure":979.5,"uv_index":7.55,"wind_gusts":31.0,"aqi":624,"pm10":640.7,"pm2_5":96.2,"no2":15.0,"co":414.0,"o3":97.0,"so2":17.0,"mosquito_risk":3,"arthritis_risk":5,"migraine_risk":7,"frizz_risk":1,"updated_at":"2026-05-10T02:19:51.789183+05:30"},{"city":"Mathura","state":"Uttar Pradesh","latitude":27.4924,"longitude":77.6737,"temp":24.9,"humidity":63,"rain":0.0,"pressure":986.1,"uv_index":7.9,"wind_gusts":22.0,"aqi":721,"pm10":681.7,"pm2_5":102.7,"no2":7.9,"co":401.0,"o3":101.0,"so2":11.2,"mosquito_risk":3,"arthritis_risk":5,"migraine_risk":7,"frizz_risk":1,"updated_at":"2026-05-10T02:19:51.789190+05:30"},{"city":"Vrindavan","state":"Uttar Pradesh","latitude":27.5823,"longitude":77.7027,"temp":25.0,"humidity":62,"rain":0.0,"pressure":986.6,"uv_index":7.9,"wind_gusts":22.3,"aqi":721,"pm10":681.7,"pm2_5":102.7,"no2":7.9,"co":421.0,"o3":101.0,"so2":11.2,"mosquito_risk":7,"arthritis_risk":5,"migraine_risk":7,"frizz_risk":1,"updated_at":"2026-05-10T02:19:51.789197+05:30"},{"city":"Ayodhya","state":"Uttar Pradesh","latitude":26.7922,"longitude":82.1998,"temp":23.8,"humidity":66,"rain":0.0,"pressure":995.7,"uv_index":8.2,"wind_gusts":32.0,"aqi":119,"pm10":77.8,"pm2_5":63.6,"no2":29.0,"co":454.0,"o3":73.0,"so2":11.8,"mosquito_risk":3,"arthritis_risk":5,"migraine_risk":7,"frizz_risk":1,"updated_at":"2026-05-10T02:19:51.789204+05:30"},{"city":"Ratlam","state":"Madhya Pradesh","latitude":23.3315,"longitude":75.0367,"temp":28.2,"humidity":26,"rain":0.0,"pressure":952.6,"uv_index":8.5,"wind_gusts":43.6,"aqi":50,"pm10":23.3,"pm2_5":15.3,"no2":4.0,"co":245.0,"o3":80.0,"so2":3.8,"mosquito_risk":4,"arthritis_risk":5,"migraine_risk":7,"frizz_risk":0,"updated_at":"2026-05-10T02:19:51.789211+05:30"},{"city":"Sagar","state":"Madhya Pradesh","latitude":23.8388,"longitude":78.7378,"temp":24.8,"humidity":46,"rain":0.0,"pressure":947.6,"uv_index":8.65,"wind_gusts":35.3,"aqi":104,"pm10":40.4,"pm2_5":27.4,"no2":5.6,"co":298.0,"o3":122.0,"so2":7.8,"mosquito_risk":0,"arthritis_risk":5,"migraine_risk":7,"frizz_risk":0,"updated_at":"2026-05-10T02:19:51.789218+05:30"},{"city":"Satna","state":"Madhya Pradesh","latitude":24.6005,"longitude":80.8322,"temp":24.5,"humidity":54,"rain":0.0,"pressure":969.4,"uv_index":8.65,"wind_gusts":28.4,"aqi":148,"pm10":52.7,"pm2_5":43.0,"no2":9.9,"co":389.0,"o3":118.0,"so2":14.0,"mosquito_risk":0,"arthritis_risk":5,"migraine_risk":7,"frizz_risk":0,"updated_at":"2026-05-10T02:19:51.789224+05:30"},{"city":"Akola","state":"Maharashtra","latitude":20.7002,"longitude":77.0082,"temp":28.7,"humidity":38,"rain":0.0,"pressure":972.7,"uv_index":8.9,"wind_gusts":39.6,"aqi":83,"pm10":73.6,"pm2_5":37.6,"no2":26.4,"co":287.0,"o3":58.0,"so2":11.9,"mosquito_risk":4,"arthritis_risk":5,"migraine_risk":7,"frizz_risk":0,"updated_at":"2026-05-10T02:19:51.789232+05:30"},{"city":"Amravati","state":"Maharashtra","latitude":20.9374,"longitude":77.7796,"temp":28.1,"humidity":38,"rain":0.0,"pressure":965.6,"uv_index":8.85,"wind_gusts":38.2,"aqi":82,"pm10":72.4,"pm2_5":37.5,"no2":27.2,"co":307.0,"o3":55.0,"so2":9.3,"mosquito_risk":4,"arthritis_risk":5,"migraine_risk":7,"frizz_risk":0,"updated_at":"2026-05-10T02:19:51.789239+05:30"},{"city":"Latur","state":"Maharashtra","latitude":18.4088,"longitude":76.5604,"temp":27.5,"humidity":39,"rain":0.0,"pressure":937.7,"uv_index":9.1,"wind_gusts":37.4,"aqi":78,"pm10":40.3,"pm2_5":27.7,"no2":12.3,"co":297.0,"o3":82.0,"so2":5.5,"mosquito_risk":4,"arthritis_risk":5,"migraine_risk":7,"frizz_risk":0,"updated_at":"2026-05-10T02:19:51.789246+05:30"},{"city":"Nanded","state":"Maharashtra","latitude":19.1383,"longitude":77.3091,"temp":28.5,"humidity":42,"rain":0.0,"pressure":966.2,"uv_index":9.0,"wind_gusts":31.0,"aqi":79,"pm10":55.4,"pm2_5":33.5,"no2":13.6,"co":309.0,"o3":90.0,"so2":4.9,"mosquito_risk":4,"arthritis_risk":5,"migraine_risk":7,"frizz_risk":0,"updated_at":"2026-05-10T02:19:51.789253+05:30"},{"city":"Gulbarga","state":"Karnataka","latitude":17.3297,"longitude":76.8343,"temp":28.0,"humidity":45,"rain":0.0,"pressure":956.8,"uv_index":9.1,"wind_gusts":35.3,"aqi":64,"pm10":19.0,"pm2_5":16.2,"no2":13.2,"co":298.0,"o3":84.0,"so2":5.9,"mosquito_risk":4,"arthritis_risk":5,"migraine_risk":7,"frizz_risk":0,"updated_at":"2026-05-10T02:19:51.789259+05:30"},{"city":"Bidar","state":"Karnataka","latitude":17.9104,"longitude":77.5199,"temp":26.3,"humidity":52,"rain":0.0,"pressure":933.7,"uv_index":9.15,"wind_gusts":34.9,"aqi":63,"pm10":23.5,"pm2_5":20.7,"no2":16.5,"co":315.0,"o3":73.0,"so2":7.0,"mosquito_risk":4,"arthritis_risk":5,"migraine_risk":7,"frizz_risk":0,"updated_at":"2026-05-10T02:19:51.789266+05:30"},{"city":"Hospet","state":"Karnataka","latitude":15.2689,"longitude":76.3909,"temp":26.5,"humidity":57,"rain":0.0,"pressure":954.0,"uv_index":9.2,"wind_gusts":39.2,"aqi":45,"pm10":13.5,"pm2_5":12.0,"no2":13.6,"co":198.0,"o3":52.0,"so2":7.1,"mosquito_risk":4,"arthritis_risk":5,"migraine_risk":7,"frizz_risk":1,"updated_at":"2026-05-10T02:19:51.789273+05:30"},{"city":"Tirupur","state":"Tamil Nadu","latitude":11.1085,"longitude":77.3411,"temp":24.0,"humidity":96,"rain":0.0,"pressure":972.5,"uv_index":7.0,"wind_gusts":28.1,"aqi":70,"pm10":19.0,"pm2_5":18.6,"no2":20.3,"co":249.0,"o3":42.0,"so2":6.1,"mosquito_risk":3,"arthritis_risk":5,"migraine_risk":7,"frizz_risk":1,"updated_at":"2026-05-10T02:19:51.789280+05:30"},{"city":"Alappuzha","state":"Kerala","latitude":9.4981,"longitude":76.3388,"temp":26.1,"humidity":95,"rain":0.0,"pressure":1005.2,"uv_index":7.55,"wind_gusts":30.2,"aqi":61,"pm10":19.6,"pm2_5":18.9,"no2":13.1,"co":352.0,"o3":69.0,"so2":4.5,"mosquito_risk":7,"arthritis_risk":5,"migraine_risk":4,"frizz_risk":1,"updated_at":"2026-05-10T02:19:51.789286+05:30"},{"city":"Munnar","state":"Kerala","latitude":10.0889,"longitude":77.0595,"temp":16.9,"humidity":97,"rain":0.0,"pressure":852.5,"uv_index":5.4,"wind_gusts":22.7,"aqi":40,"pm10":3.8,"pm2_5":3.7,"no2":10.1,"co":169.0,"o3":40.0,"so2":1.9,"mosquito_risk":3,"arthritis_risk":10,"migraine_risk":3,"frizz_risk":1,"updated_at":"2026-05-10T02:19:51.789294+05:30"},{"city":"Silchar","state":"Assam","latitude":24.8333,"longitude":92.7789,"temp":22.8,"humidity":94,"rain":0.0,"pressure":1005.4,"uv_index":8.1,"wind_gusts":15.8,"aqi":125,"pm10":83.6,"pm2_5":64.7,"no2":27.4,"co":719.0,"o3":24.0,"so2":8.5,"mosquito_risk":3,"arthritis_risk":5,"migraine_risk":4,"frizz_risk":1,"updated_at":"2026-05-10T02:19:51.789301+05:30"},{"city":"Dibrugarh","state":"Assam","latitude":27.4728,"longitude":94.912,"temp":22.7,"humidity":95,"rain":0.0,"pressure":995.9,"uv_index":8.75,"wind_gusts":45.4,"aqi":103,"pm10":53.0,"pm2_5":48.0,"no2":36.9,"co":701.0,"o3":7.0,"so2":2.2,"mosquito_risk":3,"arthritis_risk":5,"migraine_risk":7,"frizz_risk":1,"updated_at":"2026-05-10T02:19:51.789307+05:30"}]