[{"city":"Delhi","state":"Delhi","latitude":28.6139,"longitude":77.209,"temp":28.8,"humidity":31,"rain":0.0,"pressure":980.5,"uv_index":7.45,"wind_gusts":48.6,"aqi":575,"pm10":486.2,"pm2_5":98.3,"mosquito_risk":4,"arthritis_risk":5,"migraine_risk":7,"frizz_risk":0,"updated_at":"2026-04-26T04:10:22.553752+05:30"},{"city":"Mumbai","state":"Maharashtra","latitude":19.076,"longitude":72.8777,"temp":28.0,"humidity":53,"rain":0.0,"pressure":1005.9,"uv_index":7.7,"wind_gusts":38.9,"aqi":80,"pm10":67.5,"pm2_5":25.0,"mosquito_risk":4,"arthritis_risk":5,"migraine_risk":4,"frizz_risk":1,"updated_at":"2026-04-26T04:10:22.553794+05:30"},{"city":"Bangalore","state":"Karnataka","latitude":12.9716,"longitude":77.5946,"temp":24.2,"humidity":62,"rain":0.0,"pressure":910.9,"uv_index":9.5,"wind_gusts":36.7,"aqi":75,"pm10":32.1,"pm2_5":27.9,"mosquito_risk":3,"arthritis_risk":5,"migraine_risk":7,"frizz_risk":1,"updated_at":"2026-04-26T04:10:22.553809+05:30"},{"city":"Hyderabad","state":"Telangana","latitude":17.385,"longitude":78.4867,"temp":27.9,"humidity":57,"rain":0.0,"pressure":951.8,"uv_index":8.85,"wind_gusts":28.8,"aqi":115,"pm10":21.9,"pm2_5":17.9,"mosquito_risk":4,"arthritis_risk":5,"migraine_risk":7,"frizz_risk":1,"updated_at":"2026-04-26T04:10:22.553819+05:30"},{"city":"Chennai","state":"Tamil Nadu","latitude":13.0827,"longitude":80.2707,"temp":27.0,"humidity":92,"rain":0.0,"pressure":1006.2,"uv_index":9.25,"wind_gusts":52.2,"aqi":33,"pm10":12.5,"pm2_5":8.3,"mosquito_risk":7,"arthritis_risk":5,"migraine_risk":4,"frizz_risk":1,"updated_at":"2026-04-26T04:10:22.553828+05:30"},{"city":"Kolkata","state":"West Bengal","latitude":22.5726,"longitude":88.3639,"temp":27.4,"humidity":90,"rain":0.0,"pressure":1004.4,"uv_index":8.6,"wind_gusts":47.2,"aqi":76,"pm10":22.6,"pm2_5":17.8,"mosquito_risk":7,"arthritis_risk":5,"migraine_risk":4,"frizz_risk":1,"updated_at":"2026-04-26T04:10:22.553840+05:30"},{"city":"Pune","state":"Maharashtra","latitude":18.5204,"longitude":73.8567,"temp":27.9,"humidity":22,"rain":0.0,"pressure":946.4,"uv_index":8.6,"wind_gusts":37.4,"aqi":98,"pm10":25.9,"pm2_5":21.6,"mosquito_risk":4,"arthritis_risk":5,"migraine_risk":7,"frizz_risk":0,"updated_at":"2026-04-26T04:10:22.553849+05:30"},{"city":"Ahmedabad","state":"Gujarat","latitude":23.0225,"longitude":72.5714,"temp":29.6,"humidity":37,"rain":0.0,"pressure":1000.1,"uv_index":8.2,"wind_gusts":34.9,"aqi":63,"pm10":36.2,"pm2_5":14.7,"mosquito_risk":4,"arthritis_risk":5,"migraine_risk":4,"frizz_risk":0,"updated_at":"2026-04-26T04:10:22.553856+05:30"},{"city":"Jaipur","state":"Rajasthan","latitude":26.9124,"longitude":75.7873,"temp":30.6,"humidity":25,"rain":0.0,"pressure":958.1,"uv_index":8.05,"wind_gusts":42.8,"aqi":149,"pm10":227.7,"pm2_5":42.1,"mosquito_risk":0,"arthritis_risk":5,"migraine_risk":7,"frizz_risk":0,"updated_at":"2026-04-26T04:10:22.553864+05:30"},{"city":"Lucknow","state":"Uttar Pradesh","latitude":26.8467,"longitude":80.9462,"temp":28.3,"humidity":44,"rain":0.0,"pressure":990.4,"uv_index":7.9,"wind_gusts":48.6,"aqi":133,"pm10":328.8,"pm2_5":75.7,"mosquito_risk":4,"arthritis_risk":5,"migraine_risk":7,"frizz_risk":0,"updated_at":"2026-04-26T04:10:22.553871+05:30"},{"city":"Kanpur","state":"Uttar Pradesh","latitude":26.4499,"longitude":80.3319,"temp":30.0,"humidity":27,"rain":0.0,"pressure":988.3,"uv_index":7.9,"wind_gusts":47.2,"aqi":209,"pm10":767.4,"pm2_5":125.7,"mosquito_risk":4,"arthritis_risk":5,"migraine_risk":7,"frizz_risk":0,"updated_at":"2026-04-26T04:10:22.553878+05:30"},{"city":"Chandigarh","state":"Chandigarh","latitude":30.7333,"longitude":76.7794,"temp":25.5,"humidity":35,"rain":0.0,"pressure":965.3,"uv_index":7.4,"wind_gusts":46.1,"aqi":64,"pm10":45.4,"pm2_5":21.0,"mosquito_risk":4,"arthritis_risk":5,"migraine_risk":7,"frizz_risk":0,"updated_at":"2026-04-26T04:10:22.553886+05:30"},{"city":"Srinagar","state":"Jammu and Kashmir","latitude":34.0837,"longitude":74.7973,"temp":8.2,"humidity":98,"rain":0.0,"pressure":842.0,"uv_index":8.6,"wind_gusts":14.8,"aqi":77,"pm10":54.8,"pm2_5":38.3,"mosquito_risk":3,"arthritis_risk":10,"migraine_risk":7,"frizz_risk":0,"updated_at":"2026-04-26T04:10:22.553893+05:30"},{"city":"Jammu","state":"Jammu and Kashmir","latitude":32.7266,"longitude":74.857,"temp":22.1,"humidity":47,"rain":0.0,"pressure":970.1,"uv_index":8.15,"wind_gusts":36.4,"aqi":75,"pm10":26.4,"pm2_5":19.3,"mosquito_risk":0,"arthritis_risk":5,"migraine_risk":7,"frizz_risk":0,"updated_at":"2026-04-26T04:10:22.553900+05:30"},{"city":"Amritsar","state":"Punjab","latitude":31.634,"longitude":74.8723,"temp":25.5,"humidity":44,"rain":0.0,"pressure":978.5,"uv_index":8.1,"wind_gusts":33.5,"aqi":92,"pm10":91.3,"pm2_5":39.5,"mosquito_risk":4,"arthritis_risk":5,"migraine_risk":7,"frizz_risk":0,"updated_at":"2026-04-26T04:10:22.553907+05:30"},{"city":"Ludhiana","state":"Punjab","latitude":30.901,"longitude":75.8573,"temp":25.2,"humidity":45,"rain":0.0,"pressure":976.3,"uv_index":7.65,"wind_gusts":39.2,"aqi":85,"pm10":51.3,"pm2_5":31.9,"mosquito_risk":4,"arthritis_risk":5,"migraine_risk":7,"frizz_risk":0,"updated_at":"2026-04-26T04:10:22.553916+05:30"},{"city":"Jalandhar","state":"Punjab","latitude":31.326,"longitude":75.5762,"temp":24.4,"humidity":52,"rain":0.0,"pressure":977.2,"uv_index":7.85,"wind_gusts":32.4,"aqi":93,"pm10":72.9,"pm2_5":38.4,"mosquito_risk":0,"arthritis_risk":5,"migraine_risk":7,"frizz_risk":0,"updated_at":"2026-04-26T04:10:22.553922+05:30"},{"city":"Dehradun","state":"Uttarakhand","latitude":30.6284,"longitude":78.0322,"temp":10.3,"humidity":73,"rain":0.0,"pressure":825.0,"uv_index":7.8,"wind_gusts":49.3,"aqi":44,"pm10":19.9,"pm2_5":9.6,"mosquito_risk":3,"arthritis_risk":5,"migraine_risk":7,"frizz_risk":0,"updated_at":"2026-04-26T04:10:22.553929+05:30"},{"city":"Shimla","state":"Himachal Pradesh","latitude":31.1048,"longitude":77.1734,"temp":13.1,"humidity":44,"rain":0.0,"pressure":782.2,"uv_index":7.9,"wind_gusts":46.4,"aqi":56,"pm10":38.6,"pm2_5":15.1,"mosquito_risk":0,"arthritis_risk":5,"migraine_risk":7,"frizz_risk":0,"updated_at":"2026-04-26T04:10:22.553936+05:30"},{"city":"Manali","state":"Himachal Pradesh","latitude":32.2396,"longitude":77.1887,"temp":8.9,"humidity":59,"rain":0.0,"pressure":814.4,"uv_index":9.3,"wind_gusts":42.5,"aqi":44,"pm10":1.6,"pm2_5":1.2,"mosquito_risk":0,"arthritis_risk":5,"migraine_risk":7,"frizz_risk":0,"updated_at":"2026-04-26T04:10:22.553943+05:30"},{"city":"Gurgaon","state":"Haryana","latitude":28.4595,"longitude":77.0266,"temp":26.4,"humidity":37,"rain":0.0,"pressure":978.9,"uv_index":7.55,"wind_gusts":46.8,"aqi":1500,"pm10":1065.4,"pm2_5":152.7,"mosquito_risk":4,"arthritis_risk":5,"migraine_risk":7,"frizz_risk":0,"updated_at":"2026-04-26T04:10:22.553950+05:30"},{"city":"Noida","state":"Uttar Pradesh","latitude":28.5355,"longitude":77.391,"temp":28.2,"humidity":33,"rain":0.0,"pressure":981.7,"uv_index":7.45,"wind_gusts":41.4,"aqi":1500,"pm10":1065.4,"pm2_5":152.7,"mosquito_risk":4,"arthritis_risk":5,"migraine_risk":7,"frizz_risk":0,"updated_at":"2026-04-26T04:10:22.553957+05:30"},{"city":"Ghaziabad","state":"Uttar Pradesh","latitude":28.6692,"longitude":77.4538,"temp":28.5,"humidity":34,"rain":0.0,"pressure":980.0,"uv_index":7.45,"wind_gusts":47.2,"aqi":401,"pm10":415.4,"pm2_5":91.5,"mosquito_risk":4,"arthritis_risk":5,"migraine_risk":7,"frizz_risk":0,"updated_at":"2026-04-26T04:10:22.553963+05:30"},{"city":"Faridabad","state":"Haryana","latitude":28.4089,"longitude":77.3178,"temp":29.8,"humidity":29,"rain":0.0,"pressure":981.2,"uv_index":7.5,"wind_gusts":51.5,"aqi":1500,"pm10":1065.4,"pm2_5":152.7,"mosquito_risk":4,"arthritis_risk":5,"migraine_risk":7,"frizz_risk":0,"updated_at":"2026-04-26T04:10:22.553969+05:30"},{"city":"Meerut","state":"Uttar Pradesh","latitude":28.9845,"longitude":77.7064,"temp":27.5,"humidity":35,"rain":0.0,"pressure":978.3,"uv_index":7.35,"wind_gusts":40.7,"aqi":401,"pm10":415.4,"pm2_5":91.5,"mosquito_risk":4,"arthritis_risk":5,"migraine_risk":7,"frizz_risk":0,"updated_at":"2026-04-26T04:10:22.553976+05:30"},{"city":"Agra","state":"Uttar Pradesh","latitude":27.1767,"longitude":78.0081,"temp":29.0,"humidity":31,"rain":0.0,"pressure":985.2,"uv_index":7.8,"wind_gusts":47.2,"aqi":908,"pm10":1110.1,"pm2_5":174.6,"mosquito_risk":4,"arthritis_risk":5,"migraine_risk":7,"frizz_risk":0,"updated_at":"2026-04-26T04:10:22.553984+05:30"},{"city":"Varanasi","state":"Uttar Pradesh","latitude":25.3176,"longitude":82.9739,"temp":28.4,"humidity":53,"rain":0.0,"pressure":993.5,"uv_index":8.5,"wind_gusts":46.1,"aqi":130,"pm10":106.2,"pm2_5":69.6,"mosquito_risk":4,"arthritis_risk":5,"migraine_risk":7,"frizz_risk":1,"updated_at":"2026-04-26T04:10:22.553991+05:30"},{"city":"Prayagraj","state":"Uttar Pradesh","latitude":25.4358,"longitude":81.8463,"temp":27.0,"humidity":39,"rain":0.0,"pressure":992.1,"uv_index":8.4,"wind_gusts":41.0,"aqi":113,"pm10":82.2,"pm2_5":55.1,"mosquito_risk":4,"arthritis_risk":5,"migraine_risk":7,"frizz_risk":0,"updated_at":"2026-04-26T04:10:22.554000+05:30"},{"city":"Gorakhpur","state":"Uttar Pradesh","latitude":26.7606,"longitude":83.3732,"temp":26.1,"humidity":68,"rain":0.0,"pressure":994.8,"uv_index":8.35,"wind_gusts":35.6,"aqi":152,"pm10":94.1,"pm2_5":58.7,"mosquito_risk":7,"arthritis_risk":5,"migraine_risk":7,"frizz_risk":1,"updated_at":"2026-04-26T04:10:22.554007+05:30"},{"city":"Bareilly","state":"Uttar Pradesh","latitude":28.367,"longitude":79.4304,"temp":26.2,"humidity":41,"rain":0.0,"pressure":983.4,"uv_index":7.7,"wind_gusts":46.8,"aqi":102,"pm10":180.2,"pm2_5":61.2,"mosquito_risk":4,"arthritis_risk":5,"migraine_risk":7,"frizz_risk":0,"updated_at":"2026-04-26T04:10:22.554013+05:30"},{"city":"Aligarh","state":"Uttar Pradesh","latitude":27.8974,"longitude":78.088,"temp":28.1,"humidity":31,"rain":0.0,"pressure":982.7,"uv_index":7.6,"wind_gusts":51.5,"aqi":771,"pm10":782.3,"pm2_5":144.4,"mosquito_risk":4,"arthritis_risk":5,"migraine_risk":7,"frizz_risk":0,"updated_at":"2026-04-26T04:10:22.554020+05:30"},{"city":"Moradabad","state":"Uttar Pradesh","latitude":28.8386,"longitude":78.7733,"temp":27.5,"humidity":33,"rain":0.0,"pressure":980.0,"uv_index":7.5,"wind_gusts":49.3,"aqi":152,"pm10":204.0,"pm2_5":70.1,"mosquito_risk":4,"arthritis_risk":5,"migraine_risk":7,"frizz_risk":0,"updated_at":"2026-04-26T04:10:22.554025+05:30"},{"city":"Saharanpur","state":"Uttar Pradesh","latitude":29.9637,"longitude":77.546,"temp":26.9,"humidity":33,"rain":0.0,"pressure":972.2,"uv_index":7.1,"wind_gusts":51.8,"aqi":97,"pm10":46.2,"pm2_5":21.9,"mosquito_risk":4,"arthritis_risk":5,"migraine_risk":7,"frizz_risk":0,"updated_at":"2026-04-26T04:10:22.554031+05:30"},{"city":"Jhansi","state":"Uttar Pradesh","latitude":25.4484,"longitude":78.5685,"temp":29.1,"humidity":29,"rain":0.0,"pressure":975.2,"uv_index":8.3,"wind_gusts":43.6,"aqi":76,"pm10":115.7,"pm2_5":34.0,"mosquito_risk":4,"arthritis_risk":5,"migraine_risk":7,"frizz_risk":0,"updated_at":"2026-04-26T04:10:25.835871+05:30"},{"city":"Surat","state":"Gujarat","latitude":21.1702,"longitude":72.8311,"temp":28.2,"humidity":60,"rain":0.0,"pressure":1004.2,"uv_index":7.85,"wind_gusts":32.0,"aqi":100,"pm10":44.0,"pm2_5":26.4,"mosquito_risk":4,"arthritis_risk":5,"migraine_risk":4,"frizz_risk":1,"updated_at":"2026-04-26T04:10:25.835899+05:30"},{"city":"Vadodara","state":"Gujarat","latitude":22.3072,"longitude":73.1812,"temp":29.3,"humidity":35,"rain":0.0,"pressure":1002.2,"uv_index":8.15,"wind_gusts":37.1,"aqi":76,"pm10":29.0,"pm2_5":18.8,"mosquito_risk":4,"arthritis_risk":5,"migraine_risk":4,"frizz_risk":0,"updated_at":"2026-04-26T04:10:25.835908+05:30"},{"city":"Rajkot","state":"Gujarat","latitude":22.3039,"longitude":70.8022,"temp":24.0,"humidity":85,"rain":0.0,"pressure":993.2,"uv_index":7.9,"wind_gusts":37.8,"aqi":57,"pm10":53.3,"pm2_5":14.9,"mosquito_risk":3,"arthritis_risk":5,"migraine_risk":7,"frizz_risk":1,"updated_at":"2026-04-26T04:10:25.835916+05:30"},{"city":"Thane","state":"Maharashtra","latitude":19.2183,"longitude":72.9781,"temp":26.5,"humidity":69,"rain":0.0,"pressure":1005.2,"uv_index":7.8,"wind_gusts":34.2,"aqi":80,"pm10":67.5,"pm2_5":25.0,"mosquito_risk":7,"arthritis_risk":5,"migraine_risk":4,"frizz_risk":1,"updated_at":"2026-04-26T04:10:25.835923+05:30"},{"city":"Nagpur","state":"Maharashtra","latitude":21.1458,"longitude":79.0882,"temp":31.8,"humidity":23,"rain":0.0,"pressure":970.5,"uv_index":8.9,"wind_gusts":31.7,"aqi":92,"pm10":50.5,"pm2_5":45.8,"mosquito_risk":0,"arthritis_risk":5,"migraine_risk":7,"frizz_risk":0,"updated_at":"2026-04-26T04:10:25.835930+05:30"},{"city":"Nashik","state":"Maharashtra","latitude":19.9975,"longitude":73.7898,"temp":26.8,"humidity":24,"rain":0.0,"pressure":943.6,"uv_index":8.3,"wind_gusts":34.9,"aqi":74,"pm10":38.8,"pm2_5":27.8,"mosquito_risk":4,"arthritis_risk":5,"migraine_risk":7,"frizz_risk":0,"updated_at":"2026-04-26T04:10:25.835937+05:30"},{"city":"Aurangabad","state":"Maharashtra","latitude":19.8762,"longitude":75.3433,"temp":30.3,"humidity":23,"rain":0.0,"pressure":942.4,"uv_index":9.05,"wind_gusts":30.2,"aqi":72,"pm10":27.2,"pm2_5":20.1,"mosquito_risk":0,"arthritis_risk":5,"migraine_risk":7,"frizz_risk":0,"updated_at":"2026-04-26T04:10:25.835943+05:30"},{"city":"Solapur","state":"Maharashtra","latitude":17.6599,"longitude":75.9064,"temp":28.3,"humidity":37,"rain":0.0,"pressure":955.4,"uv_index":8.85,"wind_gusts":24.8,"aqi":116,"pm10":42.7,"pm2_5":38.8,"mosquito_risk":4,"arthritis_risk":5,"migraine_risk":7,"frizz_risk":0,"updated_at":"2026-04-26T04:10:25.835950+05:30"},{"city":"Kolhapur","state":"Maharashtra","latitude":16.705,"longitude":74.2433,"temp":24.8,"humidity":80,"rain":0.0,"pressure":945.8,"uv_index":8.5,"wind_gusts":46.4,"aqi":138,"pm10":47.7,"pm2_5":43.7,"mosquito_risk":3,"arthritis_risk":5,"migraine_risk":7,"frizz_risk":1,"updated_at":"2026-04-26T04:10:25.835957+05:30"},{"city":"Goa","state":"Goa","latitude":15.2993,"longitude":74.124,"temp":27.3,"humidity":96,"rain":0.0,"pressure":995.9,"uv_index":9.0,"wind_gusts":40.3,"aqi":78,"pm10":47.1,"pm2_5":38.8,"mosquito_risk":7,"arthritis_risk":5,"migraine_risk":7,"frizz_risk":1,"updated_at":"2026-04-26T04:10:25.835963+05:30"},{"city":"Jodhpur","state":"Rajasthan","latitude":26.2389,"longitude":73.0243,"temp":30.0,"humidity":32,"rain":0.0,"pressure":981.3,"uv_index":8.3,"wind_gusts":36.4,"aqi":88,"pm10":98.0,"pm2_5":25.3,"mosquito_risk":4,"arthritis_risk":5,"migraine_risk":7,"frizz_risk":0,"updated_at":"2026-04-26T04:10:25.835970+05:30"},{"city":"Udaipur","state":"Rajasthan","latitude":24.5854,"longitude":73.7125,"temp":29.9,"humidity":24,"rain":0.0,"pressure":945.3,"uv_index":8.8,"wind_gusts":41.4,"aqi":60,"pm10":21.4,"pm2_5":10.4,"mosquito_risk":4,"arthritis_risk":5,"migraine_risk":7,"frizz_risk":0,"updated_at":"2026-04-26T04:10:25.835977+05:30"},{"city":"Kota","state":"Rajasthan","latitude":25.2138,"longitude":75.8648,"temp":28.1,"humidity":34,"rain":0.0,"pressure":976.9,"uv_index":8.3,"wind_gusts":30.6,"aqi":80,"pm10":65.9,"pm2_5":30.2,"mosquito_risk":4,"arthritis_risk":5,"migraine_risk":7,"frizz_risk":0,"updated_at":"2026-04-26T04:10:25.835983+05:30"},{"city":"Bikaner","state":"Rajasthan","latitude":28.0229,"longitude":73.3119,"temp":28.1,"humidity":42,"rain":0.0,"pressure":979.5,"uv_index":8.15,"wind_gusts":35.3,"aqi":75,"pm10":75.2,"pm2_5":22.1,"mosquito_risk":4,"arthritis_risk":5,"migraine_risk":7,"frizz_risk":0,"updated_at":"2026-04-26T04:10:25.835989+05:30"},{"city":"Ajmer","state":"Rajasthan","latitude":26.4499,"longitude":74.6399,"temp":31.1,"humidity":24,"rain":0.0,"pressure":953.2,"uv_index":8.25,"wind_gusts":44.3,"aqi":75,"pm10":75.7,"pm2_5":21.5,"mosquito_risk":0,"arthritis_risk":5,"migraine_risk":7,"frizz_risk":0,"updated_at":"2026-04-26T04:10:25.835996+05:30"},{"city":"Gwalior","state":"Madhya Pradesh","latitude":26.2183,"longitude":78.1828,"temp":30.9,"humidity":27,"rain":0.0,"pressure":980.8,"uv_index":8.05,"wind_gusts":46.1,"aqi":92,"pm10":323.2,"pm2_5":57.3,"mosquito_risk":0,"arthritis_risk":5,"migraine_risk":7,"frizz_risk":0,"updated_at":"2026-04-26T04:10:25.836002+05:30"},{"city":"Indore","state":"Madhya Pradesh","latitude":22.7196,"longitude":75.8577,"temp":29.3,"humidity":22,"rain":0.0,"pressure":947.0,"uv_index":8.6,"wind_gusts":34.9,"aqi":64,"pm10":26.4,"pm2_5":19.4,"mosquito_risk":4,"arthritis_risk":5,"migraine_risk":7,"frizz_risk":0,"updated_at":"2026-04-26T04:10:25.836009+05:30"},{"city":"Bhopal","state":"Madhya Pradesh","latitude":23.2599,"longitude":77.4126,"temp":28.7,"humidity":23,"rain":0.0,"pressure":951.2,"uv_index":8.65,"wind_gusts":32.8,"aqi":59,"pm10":33.9,"pm2_5":21.1,"mosquito_risk":4,"arthritis_risk":5,"migraine_risk":7,"frizz_risk":0,"updated_at":"2026-04-26T04:10:25.836016+05:30"},{"city":"Jabalpur","state":"Madhya Pradesh","latitude":23.1815,"longitude":79.9864,"temp":27.0,"humidity":34,"rain":0.0,"pressure":958.7,"uv_index":8.6,"wind_gusts":36.0,"aqi":48,"pm10":18.3,"pm2_5":13.0,"mosquito_risk":4,"arthritis_risk":5,"migraine_risk":7,"frizz_risk":0,"updated_at":"2026-04-26T04:10:25.836022+05:30"},{"city":"Ujjain","state":"Madhya Pradesh","latitude":23.1765,"longitude":75.7885,"temp":29.0,"humidity":24,"rain":0.0,"pressure":952.4,"uv_index":8.55,"wind_gusts":29.2,"aqi":71,"pm10":24.1,"pm2_5":17.6,"mosquito_risk":4,"arthritis_risk":5,"migraine_risk":7,"frizz_risk":0,"updated_at":"2026-04-26T04:10:25.836029+05:30"},{"city":"Visakhapatnam","state":"Andhra Pradesh","latitude":17.6868,"longitude":83.2185,"temp":26.0,"humidity":93,"rain":0.0,"pressure":1002.3,"uv_index":9.1,"wind_gusts":48.6,"aqi":57,"pm10":17.8,"pm2_5":14.6,"mosquito_risk":7,"arthritis_risk":5,"migraine_risk":4,"frizz_risk":1,"updated_at":"2026-04-26T04:10:25.836035+05:30"},{"city":"Vijayawada","state":"Andhra Pradesh","latitude":16.5062,"longitude":80.648,"temp":26.8,"humidity":97,"rain":0.0,"pressure":1001.2,"uv_index":9.2,"wind_gusts":38.9,"aqi":52,"pm10":17.9,"pm2_5":14.0,"mosquito_risk":7,"arthritis_risk":5,"migraine_risk":4,"frizz_risk":1,"updated_at":"2026-04-26T04:10:25.836042+05:30"},{"city":"Guntur","state":"Andhra Pradesh","latitude":16.3067,"longitude":80.4365,"temp":26.4,"humidity":99,"rain":0.0,"pressure":1002.3,"uv_index":9.2,"wind_gusts":41.0,"aqi":53,"pm10":16.6,"pm2_5":12.5,"mosquito_risk":7,"arthritis_risk":5,"migraine_risk":4,"frizz_risk":1,"updated_at":"2026-04-26T04:10:25.836048+05:30"},{"city":"Nellore","state":"Andhra Pradesh","latitude":14.4426,"longitude":79.9865,"temp":25.4,"humidity":95,"rain":0.0,"pressure":1004.5,"uv_index":8.85,"wind_gusts":46.4,"aqi":45,"pm10":13.1,"pm2_5":9.9,"mosquito_risk":7,"arthritis_risk":5,"migraine_risk":4,"frizz_risk":1,"updated_at":"2026-04-26T04:10:25.836055+05:30"},{"city":"Kurnool","state":"Andhra Pradesh","latitude":15.8281,"longitude":78.0373,"temp":29.5,"humidity":57,"rain":0.0,"pressure":975.5,"uv_index":9.2,"wind_gusts":30.2,"aqi":84,"pm10":20.3,"pm2_5":18.2,"mosquito_risk":4,"arthritis_risk":5,"migraine_risk":7,"frizz_risk":1,"updated_at":"2026-04-26T04:10:25.836062+05:30"},{"city":"Kakinada","state":"Andhra Pradesh","latitude":16.9891,"longitude":82.2475,"temp":27.0,"humidity":93,"rain":0.0,"pressure":1006.4,"uv_index":9.15,"wind_gusts":45.4,"aqi":40,"pm10":16.8,"pm2_5":11.6,"mosquito_risk":7,"arthritis_risk":5,"migraine_risk":4,"frizz_risk":1,"updated_at":"2026-04-26T04:10:25.836069+05:30"},{"city":"Tirupati","state":"Andhra Pradesh","latitude":13.6288,"longitude":79.4192,"temp":25.8,"humidity":77,"rain":0.0,"pressure":990.4,"uv_index":9.3,"wind_gusts":35.6,"aqi":59,"pm10":23.8,"pm2_5":21.1,"mosquito_risk":7,"arthritis_risk":5,"migraine_risk":7,"frizz_risk":1,"updated_at":"2026-04-26T04:10:25.836075+05:30"},{"city":"Warangal","state":"Telangana","latitude":17.9689,"longitude":79.5941,"temp":27.4,"humidity":64,"rain":0.0,"pressure":976.9,"uv_index":8.9,"wind_gusts":34.2,"aqi":89,"pm10":20.0,"pm2_5":17.7,"mosquito_risk":7,"arthritis_risk":5,"migraine_risk":7,"frizz_risk":1,"updated_at":"2026-04-26T04:10:25.836082+05:30"},{"city":"Nizamabad","state":"Telangana","latitude":18.6725,"longitude":78.0941,"temp":29.2,"humidity":38,"rain":0.0,"pressure":962.8,"uv_index":9.1,"wind_gusts":36.0,"aqi":126,"pm10":37.8,"pm2_5":35.4,"mosquito_risk":4,"arthritis_risk":5,"migraine_risk":7,"frizz_risk":0,"updated_at":"2026-04-26T04:10:25.836088+05:30"},{"city":"Mysore","state":"Karnataka","latitude":12.2958,"longitude":76.6396,"temp":22.8,"humidity":86,"rain":0.0,"pressure":927.2,"uv_index":9.45,"wind_gusts":38.2,"aqi":83,"pm10":32.5,"pm2_5":29.8,"mosquito_risk":3,"arthritis_risk":5,"migraine_risk":7,"frizz_risk":1,"updated_at":"2026-04-26T04:10:25.836094+05:30"},{"city":"Mangalore","state":"Karnataka","latitude":12.9141,"longitude":74.856,"temp":28.0,"humidity":92,"rain":0.0,"pressure":1005.1,"uv_index":9.1,"wind_gusts":39.2,"aqi":68,"pm10":36.1,"pm2_5":26.6,"mosquito_risk":7,"arthritis_risk":5,"migraine_risk":4,"frizz_risk":1,"updated_at":"2026-04-26T04:10:25.836100+05:30"},{"city":"Hubli-Dharwad","state":"Karnataka","latitude":15.3647,"longitude":75.124,"temp":24.2,"humidity":94,"rain":0.0,"pressure":939.4,"uv_index":9.2,"wind_gusts":53.3,"aqi":102,"pm10":32.8,"pm2_5":29.9,"mosquito_risk":3,"arthritis_risk":5,"migraine_risk":7,"frizz_risk":1,"updated_at":"2026-04-26T04:10:25.836107+05:30"},{"city":"Belgaum","state":"Karnataka","latitude":15.8497,"longitude":74.4977,"temp":24.6,"humidity":74,"rain":0.0,"pressure":923.7,"uv_index":9.2,"wind_gusts":46.1,"aqi":118,"pm10":51.8,"pm2_5":43.8,"mosquito_risk":3,"arthritis_risk":5,"migraine_risk":7,"frizz_risk":1,"updated_at":"2026-04-26T04:10:29.133511+05:30"},{"city":"Coimbatore","state":"Tamil Nadu","latitude":11.0168,"longitude":76.9558,"temp":26.3,"humidity":73,"rain":0.0,"pressure":960.7,"uv_index":9.35,"wind_gusts":39.6,"aqi":73,"pm10":33.1,"pm2_5":30.5,"mosquito_risk":7,"arthritis_risk":5,"migraine_risk":7,"frizz_risk":1,"updated_at":"2026-04-26T04:10:29.133594+05:30"},{"city":"Madurai","state":"Tamil Nadu","latitude":9.9252,"longitude":78.1198,"temp":27.8,"humidity":63,"rain":0.0,"pressure":992.4,"uv_index":9.25,"wind_gusts":43.9,"aqi":57,"pm10":15.2,"pm2_5":15.0,"mosquito_risk":7,"arthritis_risk":5,"migraine_risk":7,"frizz_risk":1,"updated_at":"2026-04-26T04:10:29.133607+05:30"},{"city":"Trichy","state":"Tamil Nadu","latitude":10.7905,"longitude":78.7047,"temp":25.8,"humidity":91,"rain":0.0,"pressure":999.1,"uv_index":9.3,"wind_gusts":29.2,"aqi":54,"pm10":14.1,"pm2_5":12.3,"mosquito_risk":7,"arthritis_risk":5,"migraine_risk":7,"frizz_risk":1,"updated_at":"2026-04-26T04:10:29.133618+05:30"},{"city":"Salem","state":"Tamil Nadu","latitude":11.6643,"longitude":78.146,"temp":25.7,"humidity":76,"rain":0.0,"pressure":976.5,"uv_index":9.3,"wind_gusts":37.8,"aqi":65,"pm10":28.3,"pm2_5":25.6,"mosquito_risk":7,"arthritis_risk":5,"migraine_risk":7,"frizz_risk":1,"updated_at":"2026-04-26T04:10:29.133627+05:30"},{"city":"Tirunelveli","state":"Tamil Nadu","latitude":8.7139,"longitude":77.7567,"temp":26.2,"humidity":81,"rain":0.0,"pressure":1002.3,"uv_index":9.2,"wind_gusts":37.1,"aqi":55,"pm10":17.5,"pm2_5":16.8,"mosquito_risk":7,"arthritis_risk":5,"migraine_risk":4,"frizz_risk":1,"updated_at":"2026-04-26T04:10:29.133636+05:30"},{"city":"Vellore","state":"Tamil Nadu","latitude":12.9165,"longitude":79.1325,"temp":24.7,"humidity":82,"rain":0.0,"pressure":983.6,"uv_index":9.35,"wind_gusts":37.1,"aqi":80,"pm10":38.8,"pm2_5":36.2,"mosquito_risk":3,"arthritis_risk":5,"migraine_risk":7,"frizz_risk":1,"updated_at":"2026-04-26T04:10:29.133644+05:30"},{"city":"Erode","state":"Tamil Nadu","latitude":11.341,"longitude":77.7172,"temp":26.8,"humidity":72,"rain":0.0,"pressure":988.5,"uv_index":9.3,"wind_gusts":39.2,"aqi":55,"pm10":18.3,"pm2_5":16.4,"mosquito_risk":7,"arthritis_risk":5,"migraine_risk":7,"frizz_risk":1,"updated_at":"2026-04-26T04:10:29.133652+05:30"},{"city":"Kochi","state":"Kerala","latitude":9.9312,"longitude":76.2673,"temp":27.5,"humidity":88,"rain":0.0,"pressure":1007.5,"uv_index":9.0,"wind_gusts":37.4,"aqi":80,"pm10":28.5,"pm2_5":27.1,"mosquito_risk":7,"arthritis_risk":5,"migraine_risk":4,"frizz_risk":1,"updated_at":"2026-04-26T04:10:29.133660+05:30"},{"city":"Thiruvananthapuram","state":"Kerala","latitude":8.5241,"longitude":76.9366,"temp":24.4,"humidity":93,"rain":0.0,"pressure":1006.8,"uv_index":9.0,"wind_gusts":32.0,"aqi":53,"pm10":13.8,"pm2_5":10.0,"mosquito_risk":3,"arthritis_risk":5,"migraine_risk":4,"frizz_risk":1,"updated_at":"2026-04-26T04:10:29.133668+05:30"},{"city":"Kozhikode","state":"Kerala","latitude":11.2588,"longitude":75.7804,"temp":26.5,"humidity":94,"rain":0.0,"pressure":1006.6,"uv_index":8.25,"wind_gusts":34.2,"aqi":61,"pm10":21.9,"pm2_5":16.7,"mosquito_risk":7,"arthritis_risk":5,"migraine_risk":4,"frizz_risk":1,"updated_at":"2026-04-26T04:10:29.133675+05:30"},{"city":"Thrissur","state":"Kerala","latitude":10.5276,"longitude":76.2144,"temp":26.5,"humidity":95,"rain":0.0,"pressure":1005.9,"uv_index":8.05,"wind_gusts":36.7,"aqi":72,"pm10":26.2,"pm2_5":24.6,"mosquito_risk":7,"arthritis_risk":5,"migraine_risk":4,"frizz_risk":1,"updated_at":"2026-04-26T04:10:29.133684+05:30"},{"city":"Kannur","state":"Kerala","latitude":11.8745,"longitude":75.3704,"temp":27.5,"humidity":88,"rain":0.0,"pressure":1005.6,"uv_index":8.95,"wind_gusts":35.3,"aqi":67,"pm10":28.5,"pm2_5":23.5,"mosquito_risk":7,"arthritis_risk":5,"migraine_risk":4,"frizz_risk":1,"updated_at":"2026-04-26T04:10:29.133692+05:30"},{"city":"Patna","state":"Bihar","latitude":25.5941,"longitude":85.1376,"temp":26.6,"humidity":77,"rain":0.0,"pressure":997.2,"uv_index":8.6,"wind_gusts":54.7,"aqi":152,"pm10":63.8,"pm2_5":57.5,"mosquito_risk":7,"arthritis_risk":5,"migraine_risk":7,"frizz_risk":1,"updated_at":"2026-04-26T04:10:29.133700+05:30"},{"city":"Gaya","state":"Bihar","latitude":24.7914,"longitude":85.0002,"temp":25.9,"humidity":70,"rain":0.0,"pressure":989.9,"uv_index":8.7,"wind_gusts":41.4,"aqi":109,"pm10":55.1,"pm2_5":49.8,"mosquito_risk":7,"arthritis_risk":5,"migraine_risk":7,"frizz_risk":1,"updated_at":"2026-04-26T04:10:29.133707+05:30"},{"city":"Muzaffarpur","state":"Bihar","latitude":26.1209,"longitude":85.3647,"temp":25.9,"humidity":76,"rain":0.0,"pressure":997.8,"uv_index":8.65,"wind_gusts":53.6,"aqi":154,"pm10":69.6,"pm2_5":60.1,"mosquito_risk":7,"arthritis_risk":5,"migraine_risk":7,"frizz_risk":1,"updated_at":"2026-04-26T04:10:29.133716+05:30"},{"city":"Bhagalpur","state":"Bihar","latitude":25.2425,"longitude":87.0117,"temp":26.5,"humidity":80,"rain":0.0,"pressure":999.0,"uv_index":8.6,"wind_gusts":47.5,"aqi":151,"pm10":52.5,"pm2_5":46.1,"mosquito_risk":7,"arthritis_risk":5,"migraine_risk":7,"frizz_risk":1,"updated_at":"2026-04-26T04:10:29.133723+05:30"},{"city":"Ranchi","state":"Jharkhand","latitude":23.3441,"longitude":85.3096,"temp":26.0,"humidity":31,"rain":0.0,"pressure":935.3,"uv_index":9.15,"wind_gusts":39.2,"aqi":112,"pm10":62.2,"pm2_5":55.8,"mosquito_risk":4,"arthritis_risk":5,"migraine_risk":7,"frizz_risk":0,"updated_at":"2026-04-26T04:10:29.133731+05:30"},{"city":"Jamshedpur","state":"Jharkhand","latitude":22.8046,"longitude":86.2029,"temp":27.4,"humidity":74,"rain":0.0,"pressure":988.4,"uv_index":8.8,"wind_gusts":45.7,"aqi":140,"pm10":64.0,"pm2_5":54.6,"mosquito_risk":7,"arthritis_risk":5,"migraine_risk":7,"frizz_risk":1,"updated_at":"2026-04-26T04:10:29.133739+05:30"},{"city":"Dhanbad","state":"Jharkhand","latitude":23.7957,"longitude":86.4304,"temp":26.0,"humidity":97,"rain":0.0,"pressure":977.2,"uv_index":8.95,"wind_gusts":33.8,"aqi":155,"pm10":76.1,"pm2_5":70.8,"mosquito_risk":7,"arthritis_risk":5,"migraine_risk":7,"frizz_risk":1,"updated_at":"2026-04-26T04:10:29.133745+05:30"},{"city":"Bokaro","state":"Jharkhand","latitude":23.6693,"longitude":86.1511,"temp":24.7,"humidity":99,"rain":0.0,"pressure":980.7,"uv_index":8.95,"wind_gusts":47.5,"aqi":155,"pm10":95.0,"pm2_5":86.4,"mosquito_risk":3,"arthritis_risk":5,"migraine_risk":7,"frizz_risk":1,"updated_at":"2026-04-26T04:10:29.133752+05:30"},{"city":"Bhubaneswar","state":"Odisha","latitude":20.2961,"longitude":85.8245,"temp":26.2,"humidity":96,"rain":0.0,"pressure":1000.6,"uv_index":8.95,"wind_gusts":49.3,"aqi":59,"pm10":12.8,"pm2_5":9.3,"mosquito_risk":7,"arthritis_risk":5,"migraine_risk":4,"frizz_risk":1,"updated_at":"2026-04-26T04:10:29.133758+05:30"},{"city":"Cuttack","state":"Odisha","latitude":20.4625,"longitude":85.8828,"temp":26.2,"humidity":96,"rain":0.0,"pressure":1002.5,"uv_index":8.95,"wind_gusts":45.4,"aqi":59,"pm10":12.8,"pm2_5":9.3,"mosquito_risk":7,"arthritis_risk":5,"migraine_risk":4,"frizz_risk":1,"updated_at":"2026-04-26T04:10:29.133764+05:30"},{"city":"Rourkela","state":"Odisha","latitude":22.2604,"longitude":84.8536,"temp":26.9,"humidity":80,"rain":0.0,"pressure":982.8,"uv_index":8.9,"wind_gusts":40.0,"aqi":143,"pm10":81.5,"pm2_5":69.8,"mosquito_risk":7,"arthritis_risk":5,"migraine_risk":7,"frizz_risk":1,"updated_at":"2026-04-26T04:10:29.133771+05:30"},{"city":"Raipur","state":"Chhattisgarh","latitude":21.2514,"longitude":81.6296,"temp":28.8,"humidity":30,"rain":0.0,"pressure":972.5,"uv_index":8.95,"wind_gusts":41.8,"aqi":103,"pm10":45.1,"pm2_5":42.5,"mosquito_risk":4,"arthritis_risk":5,"migraine_risk":7,"frizz_risk":0,"updated_at":"2026-04-26T04:10:29.133777+05:30"},{"city":"Bhilai","state":"Chhattisgarh","latitude":21.1938,"longitude":81.3509,"temp":28.1,"humidity":35,"rain":0.0,"pressure":973.0,"uv_index":8.95,"wind_gusts":43.2,"aqi":98,"pm10":41.0,"pm2_5":38.3,"mosquito_risk":4,"arthritis_risk":5,"migraine_risk":7,"frizz_risk":0,"updated_at":"2026-04-26T04:10:29.133783+05:30"},{"city":"Guwahati","state":"Assam","latitude":26.1158,"longitude":91.7086,"temp":21.8,"humidity":94,"rain":0.0,"pressure":1001.9,"uv_index":3.1,"wind_gusts":37.1,"aqi":154,"pm10":63.8,"pm2_5":48.1,"mosquito_risk":3,"arthritis_risk":5,"migraine_risk":0,"frizz_risk":1,"updated_at":"2026-04-26T04:10:29.133789+05:30"},{"city":"Agartala","state":"Tripura","latitude":23.8315,"longitude":91.2868,"temp":26.2,"humidity":92,"rain":0.0,"pressure":1006.1,"uv_index":8.8,"wind_gusts":43.2,"aqi":141,"pm10":21.4,"pm2_5":19.1,"mosquito_risk":7,"arthritis_risk":5,"migraine_risk":4,"frizz_risk":1,"updated_at":"2026-04-26T04:10:29.133796+05:30"},{"city":"Shillong","state":"Meghalaya","latitude":25.5788,"longitude":91.8933,"temp":16.4,"humidity":85,"rain":0.0,"pressure":855.5,"uv_index":3.7,"wind_gusts":44.3,"aqi":143,"pm10":68.2,"pm2_5":40.0,"mosquito_risk":3,"arthritis_risk":10,"migraine_risk":3,"frizz_risk":0,"updated_at":"2026-04-26T04:10:29.133802+05:30"},{"city":"Imphal","state":"Manipur","latitude":24.817,"longitude":93.9368,"temp":17.9,"humidity":76,"rain":0.0,"pressure":922.3,"uv_index":7.75,"wind_gusts":33.5,"aqi":153,"pm10":137.4,"pm2_5":75.0,"mosquito_risk":3,"arthritis_risk":5,"migraine_risk":7,"frizz_risk":0,"updated_at":"2026-04-26T04:10:29.133809+05:30"},{"city":"Aizawl","state":"Mizoram","latitude":23.7271,"longitude":92.7176,"temp":17.7,"humidity":85,"rain":0.0,"pressure":891.9,"uv_index":9.0,"wind_gusts":45.7,"aqi":118,"pm10":79.2,"pm2_5":43.1,"mosquito_risk":3,"arthritis_risk":10,"migraine_risk":7,"frizz_risk":0,"updated_at":"2026-04-26T04:10:29.133815+05:30"},{"city":"Kohima","state":"Nagaland","latitude":25.6701,"longitude":94.1077,"temp":14.6,"humidity":74,"rain":0.0,"pressure":852.8,"uv_index":6.9,"wind_gusts":35.6,"aqi":155,"pm10":86.8,"pm2_5":59.8,"mosquito_risk":3,"arthritis_risk":5,"migraine_risk":7,"frizz_risk":0,"updated_at":"2026-04-26T04:10:29.133822+05:30"},{"city":"Gangtok","state":"Sikkim","latitude":27.3314,"longitude":88.6138,"temp":13.5,"humidity":75,"rain":0.0,"pressure":834.8,"uv_index":8.65,"wind_gusts":42.1,"aqi":79,"pm10":21.8,"pm2_5":15.8,"mosquito_risk":3,"arthritis_risk":5,"migraine_risk":7,"frizz_risk":0,"updated_at":"2026-04-26T04:10:29.133828+05:30"},{"city":"Siliguri","state":"West Bengal","latitude":26.7271,"longitude":88.3953,"temp":21.0,"humidity":99,"rain":0.1,"pressure":993.4,"uv_index":8.4,"wind_gusts":38.9,"aqi":142,"pm10":69.6,"pm2_5":43.1,"mosquito_risk":6,"arthritis_risk":5,"migraine_risk":7,"frizz_risk":1,"updated_at":"2026-04-26T04:10:32.426795+05:30"},{"city":"Durgapur","state":"West Bengal","latitude":23.5204,"longitude":87.3119,"temp":26.5,"humidity":94,"rain":0.0,"pressure":992.3,"uv_index":8.9,"wind_gusts":36.7,"aqi":130,"pm10":42.1,"pm2_5":38.6,"mosquito_risk":7,"arthritis_risk":5,"migraine_risk":7,"frizz_risk":1,"updated_at":"2026-04-26T04:10:32.426824+05:30"},{"city":"Asansol","state":"West Bengal","latitude":23.6739,"longitude":86.9524,"temp":26.0,"humidity":97,"rain":0.0,"pressure":990.8,"uv_index":8.95,"wind_gusts":32.0,"aqi":137,"pm10":42.6,"pm2_5":39.9,"mosquito_risk":7,"arthritis_risk":5,"migraine_risk":7,"frizz_risk":1,"updated_at":"2026-04-26T04:10:32.426833+05:30"},{"city":"Pondicherry","state":"Puducherry","latitude":11.9139,"longitude":79.8145,"temp":27.4,"humidity":89,"rain":0.0,"pressure":1007.6,"uv_index":9.2,"wind_gusts":41.0,"aqi":27,"pm10":10.9,"pm2_5":6.7,"mosquito_risk":7,"arthritis_risk":5,"migraine_risk":4,"frizz_risk":1,"updated_at":"2026-04-26T04:10:32.426841+05:30"},{"city":"Port Blair","state":"Andaman and Nicobar Islands","latitude":11.6234,"longitude":92.7265,"temp":26.5,"humidity":87,"rain":0.0,"pressure":1006.7,"uv_index":9.15,"wind_gusts":35.3,"aqi":52,"pm10":25.7,"pm2_5":17.6,"mosquito_risk":7,"arthritis_risk":5,"migraine_risk":4,"frizz_risk":1,"updated_at":"2026-04-26T04:10:32.426849+05:30"},{"city":"Haridwar","state":"Uttarakhand","latitude":29.9457,"longitude":78.1642,"temp":20.4,"humidity":61,"rain":0.0,"pressure":969.7,"uv_index":7.2,"wind_gusts":41.0,"aqi":67,"pm10":25.8,"pm2_5":23.3,"mosquito_risk":3,"arthritis_risk":5,"migraine_risk":7,"frizz_risk":0,"updated_at":"2026-04-26T04:10:32.426857+05:30"},{"city":"Rishikesh","state":"Uttarakhand","latitude":30.0869,"longitude":78.2676,"temp":19.0,"humidity":64,"rain":0.0,"pressure":962.4,"uv_index":7.3,"wind_gusts":33.1,"aqi":63,"pm10":30.9,"pm2_5":25.3,"mosquito_risk":3,"arthritis_risk":5,"migraine_risk":7,"frizz_risk":0,"updated_at":"2026-04-26T04:10:32.426864+05:30"},{"city":"Nainital","state":"Uttarakhand","latitude":29.3919,"longitude":79.4542,"temp":16.2,"humidity":44,"rain":0.0,"pressure":803.8,"uv_index":8.15,"wind_gusts":53.3,"aqi":74,"pm10":43.4,"pm2_5":27.9,"mosquito_risk":0,"arthritis_risk":5,"migraine_risk":7,"frizz_risk":0,"updated_at":"2026-04-26T04:10:32.426871+05:30"},{"city":"Mussoorie","state":"Uttarakhand","latitude":30.4599,"longitude":78.0664,"temp":17.2,"humidity":38,"rain":0.0,"pressure":801.7,"uv_index":7.7,"wind_gusts":55.8,"aqi":58,"pm10":27.1,"pm2_5":21.7,"mosquito_risk":0,"arthritis_risk":5,"migraine_risk":7,"frizz_risk":0,"updated_at":"2026-04-26T04:10:32.426878+05:30"},{"city":"Dharamshala","state":"Himachal Pradesh","latitude":32.219,"longitude":76.3234,"temp":21.2,"humidity":35,"rain":0.0,"pressure":868.1,"uv_index":8.05,"wind_gusts":44.3,"aqi":47,"pm10":18.7,"pm2_5":6.9,"mosquito_risk":0,"arthritis_risk":5,"migraine_risk":7,"frizz_risk":0,"updated_at":"2026-04-26T04:10:32.426884+05:30"},{"city":"Dalhousie","state":"Himachal Pradesh","latitude":32.5387,"longitude":75.971,"temp":10.3,"humidity":66,"rain":0.0,"pressure":800.1,"uv_index":8.3,"wind_gusts":40.0,"aqi":66,"pm10":32.0,"pm2_5":18.1,"mosquito_risk":3,"arthritis_risk":5,"migraine_risk":7,"frizz_risk":0,"updated_at":"2026-04-26T04:10:32.426892+05:30"},{"city":"Patiala","state":"Punjab","latitude":30.3398,"longitude":76.3869,"temp":27.2,"humidity":37,"rain":0.0,"pressure":975.4,"uv_index":7.3,"wind_gusts":46.4,"aqi":517,"pm10":369.7,"pm2_5":61.2,"mosquito_risk":4,"arthritis_risk":5,"migraine_risk":7,"frizz_risk":0,"updated_at":"2026-04-26T04:10:32.426900+05:30"},{"city":"Bhatinda","state":"Punjab","latitude":30.211,"longitude":74.9455,"temp":27.9,"humidity":33,"rain":0.0,"pressure":981.4,"uv_index":8.0,"wind_gusts":40.7,"aqi":91,"pm10":82.9,"pm2_5":37.4,"mosquito_risk":4,"arthritis_risk":5,"migraine_risk":7,"frizz_risk":0,"updated_at":"2026-04-26T04:10:32.426908+05:30"},{"city":"Rohtak","state":"Haryana","latitude":28.8955,"longitude":76.6066,"temp":26.2,"humidity":38,"rain":0.0,"pressure":979.3,"uv_index":7.45,"wind_gusts":45.7,"aqi":877,"pm10":478.7,"pm2_5":86.4,"mosquito_risk":4,"arthritis_risk":5,"migraine_risk":7,"frizz_risk":0,"updated_at":"2026-04-26T04:10:32.426915+05:30"},{"city":"Panipat","state":"Haryana","latitude":29.3909,"longitude":76.9635,"temp":28.1,"humidity":32,"rain":0.0,"pressure":977.5,"uv_index":7.25,"wind_gusts":50.4,"aqi":1636,"pm10":987.2,"pm2_5":140.2,"mosquito_risk":4,"arthritis_risk":5,"migraine_risk":7,"frizz_risk":0,"updated_at":"2026-04-26T04:10:32.426922+05:30"},{"city":"Mathura","state":"Uttar Pradesh","latitude":27.4924,"longitude":77.6737,"temp":28.1,"humidity":33,"rain":0.0,"pressure":984.2,"uv_index":7.75,"wind_gusts":43.2,"aqi":912,"pm10":923.9,"pm2_5":163.4,"mosquito_risk":4,"arthritis_risk":5,"migraine_risk":7,"frizz_risk":0,"updated_at":"2026-04-26T04:10:32.426928+05:30"},{"city":"Vrindavan","state":"Uttar Pradesh","latitude":27.5823,"longitude":77.7027,"temp":27.6,"humidity":34,"rain":0.0,"pressure":984.6,"uv_index":7.7,"wind_gusts":42.8,"aqi":912,"pm10":923.9,"pm2_5":163.4,"mosquito_risk":4,"arthritis_risk":5,"migraine_risk":7,"frizz_risk":0,"updated_at":"2026-04-26T04:10:32.426935+05:30"},{"city":"Ayodhya","state":"Uttar Pradesh","latitude":26.7922,"longitude":82.1998,"temp":26.5,"humidity":62,"rain":0.0,"pressure":992.5,"uv_index":8.1,"wind_gusts":50.0,"aqi":145,"pm10":85.4,"pm2_5":66.8,"mosquito_risk":7,"arthritis_risk":5,"migraine_risk":7,"frizz_risk":1,"updated_at":"2026-04-26T04:10:32.426941+05:30"},{"city":"Ratlam","state":"Madhya Pradesh","latitude":23.3315,"longitude":75.0367,"temp":27.9,"humidity":26,"rain":0.0,"pressure":953.0,"uv_index":8.5,"wind_gusts":33.8,"aqi":65,"pm10":15.1,"pm2_5":10.6,"mosquito_risk":4,"arthritis_risk":5,"migraine_risk":7,"frizz_risk":0,"updated_at":"2026-04-26T04:10:32.426948+05:30"},{"city":"Sagar","state":"Madhya Pradesh","latitude":23.8388,"longitude":78.7378,"temp":27.5,"humidity":29,"rain":0.0,"pressure":947.7,"uv_index":8.65,"wind_gusts":34.9,"aqi":55,"pm10":73.6,"pm2_5":22.8,"mosquito_risk":4,"arthritis_risk":5,"migraine_risk":7,"frizz_risk":0,"updated_at":"2026-04-26T04:10:32.426955+05:30"},{"city":"Satna","state":"Madhya Pradesh","latitude":24.6005,"longitude":80.8322,"temp":27.8,"humidity":31,"rain":0.0,"pressure":968.1,"uv_index":8.65,"wind_gusts":44.6,"aqi":79,"pm10":113.9,"pm2_5":29.0,"mosquito_risk":4,"arthritis_risk":5,"migraine_risk":7,"frizz_risk":0,"updated_at":"2026-04-26T04:10:32.426961+05:30"},{"city":"Akola","state":"Maharashtra","latitude":20.7002,"longitude":77.0082,"temp":28.7,"humidity":30,"rain":0.0,"pressure":972.5,"uv_index":8.85,"wind_gusts":33.1,"aqi":66,"pm10":21.1,"pm2_5":17.2,"mosquito_risk":4,"arthritis_risk":5,"migraine_risk":7,"frizz_risk":0,"updated_at":"2026-04-26T04:10:32.426968+05:30"},{"city":"Amravati","state":"Maharashtra","latitude":20.9374,"longitude":77.7796,"temp":29.8,"humidity":25,"rain":0.0,"pressure":965.2,"uv_index":8.85,"wind_gusts":37.4,"aqi":69,"pm10":23.7,"pm2_5":19.4,"mosquito_risk":4,"arthritis_risk":5,"migraine_risk":7,"frizz_risk":0,"updated_at":"2026-04-26T04:10:32.426975+05:30"},{"city":"Latur","state":"Maharashtra","latitude":18.4088,"longitude":76.5604,"temp":28.0,"humidity":39,"rain":0.0,"pressure":937.9,"uv_index":9.0,"wind_gusts":29.2,"aqi":111,"pm10":48.2,"pm2_5":44.0,"mosquito_risk":4,"arthritis_risk":5,"migraine_risk":7,"frizz_risk":0,"updated_at":"2026-04-26T04:10:32.426982+05:30"},{"city":"Nanded","state":"Maharashtra","latitude":19.1383,"longitude":77.3091,"temp":27.6,"humidity":41,"rain":0.0,"pressure":966.7,"uv_index":9.05,"wind_gusts":28.4,"aqi":104,"pm10":59.1,"pm2_5":53.0,"mosquito_risk":4,"arthritis_risk":5,"migraine_risk":7,"frizz_risk":0,"updated_at":"2026-04-26T04:10:32.426988+05:30"},{"city":"Gulbarga","state":"Karnataka","latitude":17.3297,"longitude":76.8343,"temp":28.6,"humidity":41,"rain":0.0,"pressure":957.0,"uv_index":9.0,"wind_gusts":24.5,"aqi":118,"pm10":41.3,"pm2_5":36.6,"mosquito_risk":4,"arthritis_risk":5,"migraine_risk":7,"frizz_risk":0,"updated_at":"2026-04-26T04:10:32.426994+05:30"},{"city":"Bidar","state":"Karnataka","latitude":17.9104,"longitude":77.5199,"temp":27.4,"humidity":40,"rain":0.0,"pressure":933.5,"uv_index":8.1,"wind_gusts":34.9,"aqi":124,"pm10":35.9,"pm2_5":33.1,"mosquito_risk":4,"arthritis_risk":5,"migraine_risk":7,"frizz_risk":0,"updated_at":"2026-04-26T04:10:32.427000+05:30"},{"city":"Hospet","state":"Karnataka","latitude":15.2689,"longitude":76.3909,"temp":27.1,"humidity":39,"rain":0.0,"pressure":954.3,"uv_index":9.05,"wind_gusts":33.5,"aqi":103,"pm10":35.2,"pm2_5":31.7,"mosquito_risk":4,"arthritis_risk":5,"migraine_risk":7,"frizz_risk":0,"updated_at":"2026-04-26T04:10:32.427007+05:30"},{"city":"Tirupur","state":"Tamil Nadu","latitude":11.1085,"longitude":77.3411,"temp":27.1,"humidity":60,"rain":0.0,"pressure":974.1,"uv_index":9.4,"wind_gusts":33.8,"aqi":60,"pm10":27.2,"pm2_5":24.0,"mosquito_risk":4,"arthritis_risk":5,"migraine_risk":7,"frizz_risk":1,"updated_at":"2026-04-26T04:10:32.427013+05:30"},{"city":"Alappuzha","state":"Kerala","latitude":9.4981,"longitude":76.3388,"temp":26.3,"humidity":95,"rain":0.0,"pressure":1007.5,"uv_index":8.5,"wind_gusts":36.0,"aqi":74,"pm10":20.6,"pm2_5":19.1,"mosquito_risk":7,"arthritis_risk":5,"migraine_risk":4,"frizz_risk":1,"updated_at":"2026-04-26T04:10:32.427019+05:30"},{"city":"Munnar","state":"Kerala","latitude":10.0889,"longitude":77.0595,"temp":15.4,"humidity":88,"rain":0.0,"pressure":854.3,"uv_index":9.6,"wind_gusts":28.4,"aqi":61,"pm10":24.0,"pm2_5":22.5,"mosquito_risk":3,"arthritis_risk":10,"migraine_risk":7,"frizz_risk":0,"updated_at":"2026-04-26T04:10:32.427026+05:30"},{"city":"Silchar","state":"Assam","latitude":24.8333,"longitude":92.7789,"temp":22.9,"humidity":97,"rain":0.0,"pressure":1004.9,"uv_index":8.6,"wind_gusts":32.4,"aqi":161,"pm10":123.4,"pm2_5":83.8,"mosquito_risk":3,"arthritis_risk":5,"migraine_risk":4,"frizz_risk":1,"updated_at":"2026-04-26T04:10:32.427033+05:30"},{"city":"Dibrugarh","state":"Assam","latitude":27.4728,"longitude":94.912,"temp":21.1,"humidity":95,"rain":0.1,"pressure":996.6,"uv_index":8.7,"wind_gusts":27.7,"aqi":89,"pm10":45.8,"pm2_5":25.0,"mosquito_risk":6,"arthritis_risk":5,"migraine_risk":7,"frizz_risk":1,"updated_at":"2026-04-26T04:10:32.427040+05:30"}]