[{"city":"Delhi","state":"Delhi","latitude":28.6139,"longitude":77.209,"temp":37.5,"humidity":27,"rain":0.0,"pressure":983.3,"uv_index":6.7,"wind_gusts":19.1,"aqi":153,"pm10":203.0,"pm2_5":46.2,"mosquito_risk":0,"arthritis_risk":5,"migraine_risk":10,"frizz_risk":0,"updated_at":"2026-04-18T12:43:36.563337+05:30"},{"city":"Mumbai","state":"Maharashtra","latitude":19.076,"longitude":72.8777,"temp":29.8,"humidity":79,"rain":0.0,"pressure":1008.2,"uv_index":7.0,"wind_gusts":24.1,"aqi":95,"pm10":90.6,"pm2_5":45.6,"mosquito_risk":7,"arthritis_risk":0,"migraine_risk":4,"frizz_risk":1,"updated_at":"2026-04-18T12:43:36.563388+05:30"},{"city":"Bangalore","state":"Karnataka","latitude":12.9716,"longitude":77.5946,"temp":33.5,"humidity":39,"rain":0.0,"pressure":913.3,"uv_index":8.8,"wind_gusts":34.6,"aqi":99,"pm10":38.4,"pm2_5":30.4,"mosquito_risk":0,"arthritis_risk":5,"migraine_risk":7,"frizz_risk":1,"updated_at":"2026-04-18T12:43:36.563401+05:30"},{"city":"Hyderabad","state":"Telangana","latitude":17.385,"longitude":78.4867,"temp":39.0,"humidity":22,"rain":0.0,"pressure":954.0,"uv_index":9.3,"wind_gusts":47.2,"aqi":92,"pm10":37.6,"pm2_5":30.6,"mosquito_risk":0,"arthritis_risk":5,"migraine_risk":10,"frizz_risk":0,"updated_at":"2026-04-18T12:43:36.563410+05:30"},{"city":"Chennai","state":"Tamil Nadu","latitude":13.0827,"longitude":80.2707,"temp":35.3,"humidity":51,"rain":0.0,"pressure":1007.2,"uv_index":8.7,"wind_gusts":31.7,"aqi":44,"pm10":15.1,"pm2_5":9.5,"mosquito_risk":0,"arthritis_risk":5,"migraine_risk":7,"frizz_risk":1,"updated_at":"2026-04-18T12:43:36.563417+05:30"},{"city":"Kolkata","state":"West Bengal","latitude":22.5726,"longitude":88.3639,"temp":34.2,"humidity":60,"rain":0.0,"pressure":1005.2,"uv_index":8.85,"wind_gusts":26.3,"aqi":67,"pm10":42.1,"pm2_5":31.3,"mosquito_risk":0,"arthritis_risk":5,"migraine_risk":4,"frizz_risk":1,"updated_at":"2026-04-18T12:43:36.563427+05:30"},{"city":"Pune","state":"Maharashtra","latitude":18.5204,"longitude":73.8567,"temp":38.8,"humidity":19,"rain":0.0,"pressure":949.3,"uv_index":8.45,"wind_gusts":30.2,"aqi":90,"pm10":32.9,"pm2_5":24.5,"mosquito_risk":0,"arthritis_risk":5,"migraine_risk":10,"frizz_risk":0,"updated_at":"2026-04-18T12:43:36.563434+05:30"},{"city":"Ahmedabad","state":"Gujarat","latitude":23.0225,"longitude":72.5714,"temp":38.8,"humidity":22,"rain":0.0,"pressure":1002.6,"uv_index":8.15,"wind_gusts":26.6,"aqi":62,"pm10":44.9,"pm2_5":15.0,"mosquito_risk":0,"arthritis_risk":5,"migraine_risk":7,"frizz_risk":0,"updated_at":"2026-04-18T12:43:36.563441+05:30"},{"city":"Jaipur","state":"Rajasthan","latitude":26.9124,"longitude":75.7873,"temp":39.3,"humidity":17,"rain":0.0,"pressure":960.9,"uv_index":7.95,"wind_gusts":30.2,"aqi":186,"pm10":230.5,"pm2_5":35.0,"mosquito_risk":0,"arthritis_risk":5,"migraine_risk":10,"frizz_risk":0,"updated_at":"2026-04-18T12:43:36.563448+05:30"},{"city":"Lucknow","state":"Uttar Pradesh","latitude":26.8467,"longitude":80.9462,"temp":39.1,"humidity":23,"rain":0.0,"pressure":993.0,"uv_index":7.85,"wind_gusts":31.3,"aqi":122,"pm10":101.0,"pm2_5":25.8,"mosquito_risk":0,"arthritis_risk":5,"migraine_risk":10,"frizz_risk":0,"updated_at":"2026-04-18T12:43:36.563454+05:30"},{"city":"Kanpur","state":"Uttar Pradesh","latitude":26.4499,"longitude":80.3319,"temp":38.4,"humidity":29,"rain":0.0,"pressure":991.5,"uv_index":7.85,"wind_gusts":25.2,"aqi":111,"pm10":186.3,"pm2_5":35.2,"mosquito_risk":0,"arthritis_risk":5,"migraine_risk":10,"frizz_risk":1,"updated_at":"2026-04-18T12:43:36.563460+05:30"},{"city":"Chandigarh","state":"Chandigarh","latitude":30.7333,"longitude":76.7794,"temp":35.8,"humidity":29,"rain":0.0,"pressure":970.1,"uv_index":7.1,"wind_gusts":21.2,"aqi":58,"pm10":53.0,"pm2_5":14.4,"mosquito_risk":0,"arthritis_risk":5,"migraine_risk":10,"frizz_risk":0,"updated_at":"2026-04-18T12:43:36.563466+05:30"},{"city":"Srinagar","state":"Jammu and Kashmir","latitude":34.0837,"longitude":74.7973,"temp":15.7,"humidity":78,"rain":0.0,"pressure":846.8,"uv_index":5.85,"wind_gusts":28.8,"aqi":75,"pm10":33.6,"pm2_5":11.6,"mosquito_risk":3,"arthritis_risk":5,"migraine_risk":3,"frizz_risk":0,"updated_at":"2026-04-18T12:43:36.563472+05:30"},{"city":"Jammu","state":"Jammu and Kashmir","latitude":32.7266,"longitude":74.857,"temp":30.5,"humidity":37,"rain":0.0,"pressure":976.6,"uv_index":6.7,"wind_gusts":37.8,"aqi":58,"pm10":48.8,"pm2_5":13.4,"mosquito_risk":0,"arthritis_risk":5,"migraine_risk":7,"frizz_risk":0,"updated_at":"2026-04-18T12:43:36.563477+05:30"},{"city":"Amritsar","state":"Punjab","latitude":31.634,"longitude":74.8723,"temp":34.6,"humidity":29,"rain":0.0,"pressure":983.2,"uv_index":7.65,"wind_gusts":42.5,"aqi":60,"pm10":58.2,"pm2_5":15.3,"mosquito_risk":0,"arthritis_risk":5,"migraine_risk":7,"frizz_risk":0,"updated_at":"2026-04-18T12:43:36.563483+05:30"},{"city":"Ludhiana","state":"Punjab","latitude":30.901,"longitude":75.8573,"temp":37.2,"humidity":20,"rain":0.0,"pressure":979.9,"uv_index":7.55,"wind_gusts":28.1,"aqi":65,"pm10":52.5,"pm2_5":15.3,"mosquito_risk":0,"arthritis_risk":5,"migraine_risk":10,"frizz_risk":0,"updated_at":"2026-04-18T12:43:36.563490+05:30"},{"city":"Jalandhar","state":"Punjab","latitude":31.326,"longitude":75.5762,"temp":36.7,"humidity":21,"rain":0.0,"pressure":981.4,"uv_index":7.65,"wind_gusts":42.1,"aqi":59,"pm10":58.9,"pm2_5":15.7,"mosquito_risk":0,"arthritis_risk":5,"migraine_risk":10,"frizz_risk":0,"updated_at":"2026-04-18T12:43:36.563495+05:30"},{"city":"Dehradun","state":"Uttarakhand","latitude":30.6284,"longitude":78.0322,"temp":27.7,"humidity":24,"rain":0.0,"pressure":835.7,"uv_index":7.7,"wind_gusts":42.1,"aqi":40,"pm10":23.6,"pm2_5":6.3,"mosquito_risk":4,"arthritis_risk":5,"migraine_risk":7,"frizz_risk":0,"updated_at":"2026-04-18T12:43:36.563501+05:30"},{"city":"Shimla","state":"Himachal Pradesh","latitude":31.1048,"longitude":77.1734,"temp":26.0,"humidity":22,"rain":0.0,"pressure":792.0,"uv_index":7.75,"wind_gusts":44.6,"aqi":42,"pm10":26.4,"pm2_5":7.2,"mosquito_risk":4,"arthritis_risk":5,"migraine_risk":7,"frizz_risk":0,"updated_at":"2026-04-18T12:43:36.563506+05:30"},{"city":"Manali","state":"Himachal Pradesh","latitude":32.2396,"longitude":77.1887,"temp":23.1,"humidity":34,"rain":0.0,"pressure":827.6,"uv_index":8.9,"wind_gusts":25.2,"aqi":58,"pm10":39.7,"pm2_5":8.6,"mosquito_risk":0,"arthritis_risk":5,"migraine_risk":7,"frizz_risk":0,"updated_at":"2026-04-18T12:43:36.563512+05:30"},{"city":"Gurgaon","state":"Haryana","latitude":28.4595,"longitude":77.0266,"temp":37.9,"humidity":28,"rain":0.0,"pressure":981.8,"uv_index":7.0,"wind_gusts":22.7,"aqi":485,"pm10":365.1,"pm2_5":70.5,"mosquito_risk":0,"arthritis_risk":5,"migraine_risk":10,"frizz_risk":1,"updated_at":"2026-04-18T12:43:36.563517+05:30"},{"city":"Noida","state":"Uttar Pradesh","latitude":28.5355,"longitude":77.391,"temp":37.9,"humidity":26,"rain":0.0,"pressure":985.0,"uv_index":6.8,"wind_gusts":21.2,"aqi":485,"pm10":365.1,"pm2_5":70.5,"mosquito_risk":0,"arthritis_risk":5,"migraine_risk":10,"frizz_risk":0,"updated_at":"2026-04-18T12:43:36.563522+05:30"},{"city":"Ghaziabad","state":"Uttar Pradesh","latitude":28.6692,"longitude":77.4538,"temp":37.2,"humidity":28,"rain":0.0,"pressure":983.3,"uv_index":6.6,"wind_gusts":14.0,"aqi":125,"pm10":137.4,"pm2_5":34.9,"mosquito_risk":0,"arthritis_risk":5,"migraine_risk":10,"frizz_risk":0,"updated_at":"2026-04-18T12:43:36.563527+05:30"},{"city":"Faridabad","state":"Haryana","latitude":28.4089,"longitude":77.3178,"temp":38.8,"humidity":24,"rain":0.0,"pressure":984.1,"uv_index":6.95,"wind_gusts":25.9,"aqi":485,"pm10":365.1,"pm2_5":70.5,"mosquito_risk":0,"arthritis_risk":5,"migraine_risk":10,"frizz_risk":0,"updated_at":"2026-04-18T12:43:36.563532+05:30"},{"city":"Meerut","state":"Uttar Pradesh","latitude":28.9845,"longitude":77.7064,"temp":37.9,"humidity":25,"rain":0.0,"pressure":982.1,"uv_index":6.8,"wind_gusts":20.2,"aqi":125,"pm10":137.4,"pm2_5":34.9,"mosquito_risk":0,"arthritis_risk":5,"migraine_risk":10,"frizz_risk":0,"updated_at":"2026-04-18T12:43:36.563537+05:30"},{"city":"Agra","state":"Uttar Pradesh","latitude":27.1767,"longitude":78.0081,"temp":39.4,"humidity":26,"rain":0.0,"pressure":987.8,"uv_index":7.7,"wind_gusts":20.9,"aqi":581,"pm10":247.7,"pm2_5":46.2,"mosquito_risk":0,"arthritis_risk":5,"migraine_risk":10,"frizz_risk":1,"updated_at":"2026-04-18T12:43:36.563544+05:30"},{"city":"Varanasi","state":"Uttar Pradesh","latitude":25.3176,"longitude":82.9739,"temp":40.6,"humidity":20,"rain":0.0,"pressure":996.4,"uv_index":7.95,"wind_gusts":27.7,"aqi":111,"pm10":105.7,"pm2_5":27.0,"mosquito_risk":0,"arthritis_risk":5,"migraine_risk":10,"frizz_risk":0,"updated_at":"2026-04-18T12:43:36.563550+05:30"},{"city":"Prayagraj","state":"Uttar Pradesh","latitude":25.4358,"longitude":81.8463,"temp":40.1,"humidity":21,"rain":0.0,"pressure":995.2,"uv_index":7.9,"wind_gusts":28.1,"aqi":106,"pm10":94.8,"pm2_5":26.4,"mosquito_risk":0,"arthritis_risk":5,"migraine_risk":10,"frizz_risk":0,"updated_at":"2026-04-18T12:43:36.563555+05:30"},{"city":"Gorakhpur","state":"Uttar Pradesh","latitude":26.7606,"longitude":83.3732,"temp":37.0,"humidity":40,"rain":0.0,"pressure":996.1,"uv_index":8.15,"wind_gusts":32.0,"aqi":155,"pm10":78.2,"pm2_5":53.2,"mosquito_risk":0,"arthritis_risk":5,"migraine_risk":10,"frizz_risk":1,"updated_at":"2026-04-18T12:43:36.563560+05:30"},{"city":"Bareilly","state":"Uttar Pradesh","latitude":28.367,"longitude":79.4304,"temp":38.9,"humidity":24,"rain":0.0,"pressure":986.8,"uv_index":7.6,"wind_gusts":29.9,"aqi":78,"pm10":59.6,"pm2_5":19.3,"mosquito_risk":0,"arthritis_risk":5,"migraine_risk":10,"frizz_risk":0,"updated_at":"2026-04-18T12:43:36.563565+05:30"},{"city":"Aligarh","state":"Uttar Pradesh","latitude":27.8974,"longitude":78.088,"temp":40.8,"humidity":19,"rain":0.0,"pressure":985.6,"uv_index":7.35,"wind_gusts":25.6,"aqi":168,"pm10":264.5,"pm2_5":49.5,"mosquito_risk":0,"arthritis_risk":5,"migraine_risk":10,"frizz_risk":0,"updated_at":"2026-04-18T12:43:36.563571+05:30"},{"city":"Moradabad","state":"Uttar Pradesh","latitude":28.8386,"longitude":78.7733,"temp":38.5,"humidity":23,"rain":0.0,"pressure":983.9,"uv_index":7.4,"wind_gusts":27.4,"aqi":88,"pm10":57.5,"pm2_5":19.6,"mosquito_risk":0,"arthritis_risk":5,"migraine_risk":10,"frizz_risk":0,"updated_at":"2026-04-18T12:43:36.563575+05:30"},{"city":"Saharanpur","state":"Uttar Pradesh","latitude":29.9637,"longitude":77.546,"temp":36.6,"humidity":26,"rain":0.0,"pressure":976.7,"uv_index":7.0,"wind_gusts":21.2,"aqi":102,"pm10":61.5,"pm2_5":16.6,"mosquito_risk":0,"arthritis_risk":5,"migraine_risk":10,"frizz_risk":0,"updated_at":"2026-04-18T12:43:36.563580+05:30"},{"city":"Jhansi","state":"Uttar Pradesh","latitude":25.4484,"longitude":78.5685,"temp":41.7,"humidity":17,"rain":0.0,"pressure":978.0,"uv_index":7.85,"wind_gusts":25.9,"aqi":77,"pm10":79.2,"pm2_5":23.9,"mosquito_risk":0,"arthritis_risk":5,"migraine_risk":10,"frizz_risk":0,"updated_at":"2026-04-18T12:43:39.862129+05:30"},{"city":"Surat","state":"Gujarat","latitude":21.1702,"longitude":72.8311,"temp":35.5,"humidity":43,"rain":0.0,"pressure":1006.8,"uv_index":7.8,"wind_gusts":28.8,"aqi":115,"pm10":60.3,"pm2_5":36.8,"mosquito_risk":0,"arthritis_risk":5,"migraine_risk":7,"frizz_risk":1,"updated_at":"2026-04-18T12:43:39.862159+05:30"},{"city":"Vadodara","state":"Gujarat","latitude":22.3072,"longitude":73.1812,"temp":39.8,"humidity":29,"rain":0.0,"pressure":1004.3,"uv_index":8.15,"wind_gusts":19.8,"aqi":91,"pm10":51.2,"pm2_5":20.5,"mosquito_risk":0,"arthritis_risk":5,"migraine_risk":7,"frizz_risk":1,"updated_at":"2026-04-18T12:43:39.862167+05:30"},{"city":"Rajkot","state":"Gujarat","latitude":22.3039,"longitude":70.8022,"temp":36.8,"humidity":25,"rain":0.0,"pressure":995.1,"uv_index":7.8,"wind_gusts":29.2,"aqi":59,"pm10":65.2,"pm2_5":15.9,"mosquito_risk":0,"arthritis_risk":5,"migraine_risk":10,"frizz_risk":0,"updated_at":"2026-04-18T12:43:39.862174+05:30"},{"city":"Thane","state":"Maharashtra","latitude":19.2183,"longitude":72.9781,"temp":33.4,"humidity":57,"rain":0.0,"pressure":1007.8,"uv_index":7.75,"wind_gusts":33.5,"aqi":95,"pm10":90.6,"pm2_5":45.6,"mosquito_risk":0,"arthritis_risk":5,"migraine_risk":4,"frizz_risk":1,"updated_at":"2026-04-18T12:43:39.862179+05:30"},{"city":"Nagpur","state":"Maharashtra","latitude":21.1458,"longitude":79.0882,"temp":39.8,"humidity":23,"rain":0.0,"pressure":972.9,"uv_index":7.6,"wind_gusts":21.2,"aqi":95,"pm10":55.5,"pm2_5":40.0,"mosquito_risk":0,"arthritis_risk":5,"migraine_risk":10,"frizz_risk":0,"updated_at":"2026-04-18T12:43:39.862184+05:30"},{"city":"Nashik","state":"Maharashtra","latitude":19.9975,"longitude":73.7898,"temp":34.8,"humidity":23,"rain":0.0,"pressure":947.0,"uv_index":8.1,"wind_gusts":25.9,"aqi":73,"pm10":31.3,"pm2_5":14.8,"mosquito_risk":0,"arthritis_risk":5,"migraine_risk":7,"frizz_risk":0,"updated_at":"2026-04-18T12:43:39.862190+05:30"},{"city":"Aurangabad","state":"Maharashtra","latitude":19.8762,"longitude":75.3433,"temp":38.5,"humidity":18,"rain":0.0,"pressure":945.4,"uv_index":6.55,"wind_gusts":29.2,"aqi":56,"pm10":17.6,"pm2_5":10.9,"mosquito_risk":0,"arthritis_risk":5,"migraine_risk":10,"frizz_risk":0,"updated_at":"2026-04-18T12:43:39.862195+05:30"},{"city":"Solapur","state":"Maharashtra","latitude":17.6599,"longitude":75.9064,"temp":38.5,"humidity":27,"rain":0.0,"pressure":957.5,"uv_index":8.0,"wind_gusts":20.9,"aqi":118,"pm10":40.4,"pm2_5":34.0,"mosquito_risk":0,"arthritis_risk":5,"migraine_risk":10,"frizz_risk":1,"updated_at":"2026-04-18T12:43:39.862200+05:30"},{"city":"Kolhapur","state":"Maharashtra","latitude":16.705,"longitude":74.2433,"temp":36.3,"humidity":32,"rain":0.0,"pressure":948.5,"uv_index":8.7,"wind_gusts":43.9,"aqi":82,"pm10":39.9,"pm2_5":32.0,"mosquito_risk":0,"arthritis_risk":5,"migraine_risk":10,"frizz_risk":1,"updated_at":"2026-04-18T12:43:39.862206+05:30"},{"city":"Goa","state":"Goa","latitude":15.2993,"longitude":74.124,"temp":32.7,"humidity":62,"rain":0.0,"pressure":998.0,"uv_index":9.05,"wind_gusts":27.7,"aqi":70,"pm10":54.4,"pm2_5":23.3,"mosquito_risk":3,"arthritis_risk":5,"migraine_risk":7,"frizz_risk":1,"updated_at":"2026-04-18T12:43:39.862211+05:30"},{"city":"Jodhpur","state":"Rajasthan","latitude":26.2389,"longitude":73.0243,"temp":38.3,"humidity":23,"rain":0.0,"pressure":983.8,"uv_index":8.15,"wind_gusts":30.2,"aqi":97,"pm10":137.4,"pm2_5":28.3,"mosquito_risk":0,"arthritis_risk":5,"migraine_risk":10,"frizz_risk":0,"updated_at":"2026-04-18T12:43:39.862217+05:30"},{"city":"Udaipur","state":"Rajasthan","latitude":24.5854,"longitude":73.7125,"temp":36.9,"humidity":27,"rain":0.0,"pressure":948.5,"uv_index":8.7,"wind_gusts":29.5,"aqi":41,"pm10":77.1,"pm2_5":15.8,"mosquito_risk":0,"arthritis_risk":5,"migraine_risk":10,"frizz_risk":0,"updated_at":"2026-04-18T12:43:39.862222+05:30"},{"city":"Kota","state":"Rajasthan","latitude":25.2138,"longitude":75.8648,"temp":41.0,"humidity":19,"rain":0.0,"pressure":978.8,"uv_index":8.25,"wind_gusts":23.0,"aqi":59,"pm10":89.4,"pm2_5":17.3,"mosquito_risk":0,"arthritis_risk":5,"migraine_risk":10,"frizz_risk":0,"updated_at":"2026-04-18T12:43:39.862228+05:30"},{"city":"Bikaner","state":"Rajasthan","latitude":28.0229,"longitude":73.3119,"temp":38.5,"humidity":23,"rain":0.0,"pressure":981.8,"uv_index":7.45,"wind_gusts":29.9,"aqi":73,"pm10":78.7,"pm2_5":21.0,"mosquito_risk":0,"arthritis_risk":5,"migraine_risk":10,"frizz_risk":0,"updated_at":"2026-04-18T12:43:39.862233+05:30"},{"city":"Ajmer","state":"Rajasthan","latitude":26.4499,"longitude":74.6399,"temp":36.9,"humidity":27,"rain":0.0,"pressure":956.1,"uv_index":8.15,"wind_gusts":33.5,"aqi":54,"pm10":183.9,"pm2_5":26.8,"mosquito_risk":0,"arthritis_risk":5,"migraine_risk":10,"frizz_risk":0,"updated_at":"2026-04-18T12:43:39.862237+05:30"},{"city":"Gwalior","state":"Madhya Pradesh","latitude":26.2183,"longitude":78.1828,"temp":40.9,"humidity":18,"rain":0.0,"pressure":983.4,"uv_index":7.95,"wind_gusts":25.2,"aqi":118,"pm10":108.7,"pm2_5":24.0,"mosquito_risk":0,"arthritis_risk":5,"migraine_risk":10,"frizz_risk":0,"updated_at":"2026-04-18T12:43:39.862242+05:30"},{"city":"Indore","state":"Madhya Pradesh","latitude":22.7196,"longitude":75.8577,"temp":37.6,"humidity":16,"rain":0.0,"pressure":949.7,"uv_index":8.45,"wind_gusts":25.6,"aqi":58,"pm10":13.9,"pm2_5":7.6,"mosquito_risk":0,"arthritis_risk":5,"migraine_risk":10,"frizz_risk":0,"updated_at":"2026-04-18T12:43:39.862247+05:30"},{"city":"Bhopal","state":"Madhya Pradesh","latitude":23.2599,"longitude":77.4126,"temp":40.0,"humidity":15,"rain":0.0,"pressure":954.7,"uv_index":7.9,"wind_gusts":23.8,"aqi":63,"pm10":18.7,"pm2_5":11.9,"mosquito_risk":0,"arthritis_risk":5,"migraine_risk":10,"frizz_risk":0,"updated_at":"2026-04-18T12:43:39.862252+05:30"},{"city":"Jabalpur","state":"Madhya Pradesh","latitude":23.1815,"longitude":79.9864,"temp":38.9,"humidity":25,"rain":0.0,"pressure":961.8,"uv_index":7.5,"wind_gusts":27.0,"aqi":71,"pm10":49.4,"pm2_5":18.5,"mosquito_risk":0,"arthritis_risk":5,"migraine_risk":10,"frizz_risk":0,"updated_at":"2026-04-18T12:43:39.862257+05:30"},{"city":"Ujjain","state":"Madhya Pradesh","latitude":23.1765,"longitude":75.7885,"temp":37.9,"humidity":18,"rain":0.0,"pressure":955.3,"uv_index":8.5,"wind_gusts":23.8,"aqi":57,"pm10":15.5,"pm2_5":7.7,"mosquito_risk":0,"arthritis_risk":5,"migraine_risk":10,"frizz_risk":0,"updated_at":"2026-04-18T12:43:39.862262+05:30"},{"city":"Visakhapatnam","state":"Andhra Pradesh","latitude":17.6868,"longitude":83.2185,"temp":34.4,"humidity":56,"rain":0.0,"pressure":1003.8,"uv_index":9.15,"wind_gusts":35.3,"aqi":59,"pm10":32.9,"pm2_5":22.4,"mosquito_risk":0,"arthritis_risk":5,"migraine_risk":4,"frizz_risk":1,"updated_at":"2026-04-18T12:43:39.862267+05:30"},{"city":"Vijayawada","state":"Andhra Pradesh","latitude":16.5062,"longitude":80.648,"temp":35.5,"humidity":53,"rain":0.0,"pressure":1002.7,"uv_index":8.9,"wind_gusts":25.6,"aqi":55,"pm10":28.9,"pm2_5":18.1,"mosquito_risk":0,"arthritis_risk":5,"migraine_risk":7,"frizz_risk":1,"updated_at":"2026-04-18T12:43:39.862272+05:30"},{"city":"Guntur","state":"Andhra Pradesh","latitude":16.3067,"longitude":80.4365,"temp":36.1,"humidity":47,"rain":0.0,"pressure":1003.8,"uv_index":8.9,"wind_gusts":29.5,"aqi":58,"pm10":29.2,"pm2_5":19.3,"mosquito_risk":0,"arthritis_risk":5,"migraine_risk":7,"frizz_risk":1,"updated_at":"2026-04-18T12:43:39.862276+05:30"},{"city":"Nellore","state":"Andhra Pradesh","latitude":14.4426,"longitude":79.9865,"temp":37.8,"humidity":41,"rain":0.0,"pressure":1005.2,"uv_index":8.65,"wind_gusts":32.0,"aqi":55,"pm10":23.9,"pm2_5":17.4,"mosquito_risk":0,"arthritis_risk":5,"migraine_risk":7,"frizz_risk":1,"updated_at":"2026-04-18T12:43:39.862281+05:30"},{"city":"Kurnool","state":"Andhra Pradesh","latitude":15.8281,"longitude":78.0373,"temp":40.9,"humidity":24,"rain":0.0,"pressure":976.4,"uv_index":9.2,"wind_gusts":31.3,"aqi":89,"pm10":41.0,"pm2_5":33.5,"mosquito_risk":0,"arthritis_risk":5,"migraine_risk":10,"frizz_risk":1,"updated_at":"2026-04-18T12:43:39.862286+05:30"},{"city":"Kakinada","state":"Andhra Pradesh","latitude":16.9891,"longitude":82.2475,"temp":35.7,"humidity":53,"rain":0.0,"pressure":1007.3,"uv_index":9.1,"wind_gusts":27.0,"aqi":51,"pm10":26.4,"pm2_5":15.7,"mosquito_risk":0,"arthritis_risk":5,"migraine_risk":7,"frizz_risk":1,"updated_at":"2026-04-18T12:43:39.862291+05:30"},{"city":"Tirupati","state":"Andhra Pradesh","latitude":13.6288,"longitude":79.4192,"temp":35.8,"humidity":46,"rain":0.0,"pressure":991.9,"uv_index":8.95,"wind_gusts":32.0,"aqi":69,"pm10":21.4,"pm2_5":15.7,"mosquito_risk":0,"arthritis_risk":5,"migraine_risk":10,"frizz_risk":1,"updated_at":"2026-04-18T12:43:39.862295+05:30"},{"city":"Warangal","state":"Telangana","latitude":17.9689,"longitude":79.5941,"temp":36.7,"humidity":41,"rain":0.0,"pressure":979.1,"uv_index":8.8,"wind_gusts":27.0,"aqi":85,"pm10":34.9,"pm2_5":29.1,"mosquito_risk":0,"arthritis_risk":5,"migraine_risk":10,"frizz_risk":1,"updated_at":"2026-04-18T12:43:39.862300+05:30"},{"city":"Nizamabad","state":"Telangana","latitude":18.6725,"longitude":78.0941,"temp":39.2,"humidity":24,"rain":0.0,"pressure":965.1,"uv_index":8.8,"wind_gusts":31.3,"aqi":118,"pm10":33.5,"pm2_5":26.0,"mosquito_risk":0,"arthritis_risk":5,"migraine_risk":10,"frizz_risk":0,"updated_at":"2026-04-18T12:43:39.862305+05:30"},{"city":"Mysore","state":"Karnataka","latitude":12.2958,"longitude":76.6396,"temp":35.5,"humidity":31,"rain":0.0,"pressure":929.7,"uv_index":8.9,"wind_gusts":40.3,"aqi":94,"pm10":36.6,"pm2_5":28.1,"mosquito_risk":0,"arthritis_risk":5,"migraine_risk":10,"frizz_risk":0,"updated_at":"2026-04-18T12:43:39.862309+05:30"},{"city":"Mangalore","state":"Karnataka","latitude":12.9141,"longitude":74.856,"temp":29.6,"humidity":79,"rain":0.0,"pressure":1006.6,"uv_index":9.15,"wind_gusts":21.6,"aqi":66,"pm10":32.5,"pm2_5":19.3,"mosquito_risk":7,"arthritis_risk":5,"migraine_risk":4,"frizz_risk":1,"updated_at":"2026-04-18T12:43:39.862314+05:30"},{"city":"Hubli-Dharwad","state":"Karnataka","latitude":15.3647,"longitude":75.124,"temp":33.7,"humidity":49,"rain":0.0,"pressure":941.9,"uv_index":9.25,"wind_gusts":29.5,"aqi":70,"pm10":31.0,"pm2_5":23.3,"mosquito_risk":0,"arthritis_risk":5,"migraine_risk":7,"frizz_risk":1,"updated_at":"2026-04-18T12:43:39.862319+05:30"},{"city":"Belgaum","state":"Karnataka","latitude":15.8497,"longitude":74.4977,"temp":33.6,"humidity":45,"rain":0.0,"pressure":927.0,"uv_index":9.25,"wind_gusts":29.2,"aqi":71,"pm10":40.7,"pm2_5":30.3,"mosquito_risk":0,"arthritis_risk":5,"migraine_risk":7,"frizz_risk":1,"updated_at":"2026-04-18T12:43:43.158340+05:30"},{"city":"Coimbatore","state":"Tamil Nadu","latitude":11.0168,"longitude":76.9558,"temp":36.0,"humidity":37,"rain":0.0,"pressure":962.5,"uv_index":9.2,"wind_gusts":30.2,"aqi":106,"pm10":32.4,"pm2_5":23.6,"mosquito_risk":0,"arthritis_risk":5,"migraine_risk":10,"frizz_risk":1,"updated_at":"2026-04-18T12:43:43.158397+05:30"},{"city":"Madurai","state":"Tamil Nadu","latitude":9.9252,"longitude":78.1198,"temp":36.6,"humidity":39,"rain":0.0,"pressure":993.0,"uv_index":9.35,"wind_gusts":32.8,"aqi":78,"pm10":19.4,"pm2_5":14.8,"mosquito_risk":0,"arthritis_risk":5,"migraine_risk":10,"frizz_risk":1,"updated_at":"2026-04-18T12:43:43.158405+05:30"},{"city":"Trichy","state":"Tamil Nadu","latitude":10.7905,"longitude":78.7047,"temp":35.4,"humidity":48,"rain":0.0,"pressure":999.7,"uv_index":9.35,"wind_gusts":18.4,"aqi":69,"pm10":13.2,"pm2_5":9.4,"mosquito_risk":0,"arthritis_risk":5,"migraine_risk":10,"frizz_risk":1,"updated_at":"2026-04-18T12:43:43.158412+05:30"},{"city":"Salem","state":"Tamil Nadu","latitude":11.6643,"longitude":78.146,"temp":35.4,"humidity":46,"rain":0.0,"pressure":977.8,"uv_index":9.35,"wind_gusts":18.4,"aqi":89,"pm10":29.4,"pm2_5":22.2,"mosquito_risk":0,"arthritis_risk":5,"migraine_risk":10,"frizz_risk":1,"updated_at":"2026-04-18T12:43:43.158418+05:30"},{"city":"Tirunelveli","state":"Tamil Nadu","latitude":8.7139,"longitude":77.7567,"temp":38.5,"humidity":31,"rain":0.0,"pressure":1002.7,"uv_index":9.25,"wind_gusts":48.2,"aqi":94,"pm10":21.8,"pm2_5":18.0,"mosquito_risk":0,"arthritis_risk":5,"migraine_risk":7,"frizz_risk":1,"updated_at":"2026-04-18T12:43:43.158425+05:30"},{"city":"Vellore","state":"Tamil Nadu","latitude":12.9165,"longitude":79.1325,"temp":34.8,"humidity":46,"rain":0.0,"pressure":984.9,"uv_index":8.9,"wind_gusts":27.0,"aqi":94,"pm10":24.6,"pm2_5":19.0,"mosquito_risk":0,"arthritis_risk":5,"migraine_risk":7,"frizz_risk":1,"updated_at":"2026-04-18T12:43:43.158430+05:30"},{"city":"Erode","state":"Tamil Nadu","latitude":11.341,"longitude":77.7172,"temp":37.4,"humidity":40,"rain":0.0,"pressure":988.9,"uv_index":9.35,"wind_gusts":25.6,"aqi":75,"pm10":25.7,"pm2_5":18.6,"mosquito_risk":0,"arthritis_risk":5,"migraine_risk":10,"frizz_risk":1,"updated_at":"2026-04-18T12:43:43.158436+05:30"},{"city":"Kochi","state":"Kerala","latitude":9.9312,"longitude":76.2673,"temp":29.6,"humidity":82,"rain":0.0,"pressure":1008.4,"uv_index":9.1,"wind_gusts":28.8,"aqi":93,"pm10":35.4,"pm2_5":24.9,"mosquito_risk":7,"arthritis_risk":0,"migraine_risk":4,"frizz_risk":1,"updated_at":"2026-04-18T12:43:43.158442+05:30"},{"city":"Thiruvananthapuram","state":"Kerala","latitude":8.5241,"longitude":76.9366,"temp":29.5,"humidity":82,"rain":0.0,"pressure":1007.8,"uv_index":9.1,"wind_gusts":26.6,"aqi":82,"pm10":41.6,"pm2_5":29.2,"mosquito_risk":7,"arthritis_risk":5,"migraine_risk":4,"frizz_risk":1,"updated_at":"2026-04-18T12:43:43.158448+05:30"},{"city":"Kozhikode","state":"Kerala","latitude":11.2588,"longitude":75.7804,"temp":31.5,"humidity":74,"rain":0.0,"pressure":1007.6,"uv_index":8.65,"wind_gusts":29.9,"aqi":75,"pm10":25.7,"pm2_5":17.9,"mosquito_risk":3,"arthritis_risk":5,"migraine_risk":4,"frizz_risk":1,"updated_at":"2026-04-18T12:43:43.158453+05:30"},{"city":"Thrissur","state":"Kerala","latitude":10.5276,"longitude":76.2144,"temp":34.5,"humidity":60,"rain":0.0,"pressure":1006.8,"uv_index":8.8,"wind_gusts":37.8,"aqi":85,"pm10":37.3,"pm2_5":26.4,"mosquito_risk":0,"arthritis_risk":5,"migraine_risk":4,"frizz_risk":1,"updated_at":"2026-04-18T12:43:43.158459+05:30"},{"city":"Kannur","state":"Kerala","latitude":11.8745,"longitude":75.3704,"temp":32.9,"humidity":67,"rain":0.0,"pressure":1007.0,"uv_index":8.55,"wind_gusts":31.3,"aqi":73,"pm10":32.4,"pm2_5":22.6,"mosquito_risk":3,"arthritis_risk":5,"migraine_risk":4,"frizz_risk":1,"updated_at":"2026-04-18T12:43:43.158465+05:30"},{"city":"Patna","state":"Bihar","latitude":25.5941,"longitude":85.1376,"temp":37.2,"humidity":44,"rain":0.0,"pressure":998.9,"uv_index":8.6,"wind_gusts":27.4,"aqi":151,"pm10":73.6,"pm2_5":52.5,"mosquito_risk":0,"arthritis_risk":5,"migraine_risk":10,"frizz_risk":1,"updated_at":"2026-04-18T12:43:43.158470+05:30"},{"city":"Gaya","state":"Bihar","latitude":24.7914,"longitude":85.0002,"temp":40.7,"humidity":20,"rain":0.0,"pressure":992.0,"uv_index":8.6,"wind_gusts":33.1,"aqi":111,"pm10":63.3,"pm2_5":26.6,"mosquito_risk":0,"arthritis_risk":5,"migraine_risk":10,"frizz_risk":0,"updated_at":"2026-04-18T12:43:43.158475+05:30"},{"city":"Muzaffarpur","state":"Bihar","latitude":26.1209,"longitude":85.3647,"temp":33.8,"humidity":56,"rain":0.0,"pressure":999.7,"uv_index":8.6,"wind_gusts":31.0,"aqi":153,"pm10":77.5,"pm2_5":62.6,"mosquito_risk":0,"arthritis_risk":5,"migraine_risk":7,"frizz_risk":1,"updated_at":"2026-04-18T12:43:43.158479+05:30"},{"city":"Bhagalpur","state":"Bihar","latitude":25.2425,"longitude":87.0117,"temp":31.1,"humidity":68,"rain":0.0,"pressure":1001.2,"uv_index":8.3,"wind_gusts":31.3,"aqi":155,"pm10":64.0,"pm2_5":51.9,"mosquito_risk":3,"arthritis_risk":5,"migraine_risk":4,"frizz_risk":1,"updated_at":"2026-04-18T12:43:43.158485+05:30"},{"city":"Ranchi","state":"Jharkhand","latitude":23.3441,"longitude":85.3096,"temp":37.2,"humidity":26,"rain":0.0,"pressure":938.7,"uv_index":9.1,"wind_gusts":38.5,"aqi":91,"pm10":72.2,"pm2_5":20.9,"mosquito_risk":0,"arthritis_risk":5,"migraine_risk":10,"frizz_risk":0,"updated_at":"2026-04-18T12:43:43.158490+05:30"},{"city":"Jamshedpur","state":"Jharkhand","latitude":22.8046,"longitude":86.2029,"temp":37.1,"humidity":49,"rain":0.0,"pressure":989.8,"uv_index":8.95,"wind_gusts":45.4,"aqi":97,"pm10":60.8,"pm2_5":38.6,"mosquito_risk":0,"arthritis_risk":5,"migraine_risk":10,"frizz_risk":1,"updated_at":"2026-04-18T12:43:43.158495+05:30"},{"city":"Dhanbad","state":"Jharkhand","latitude":23.7957,"longitude":86.4304,"temp":37.7,"humidity":38,"rain":0.0,"pressure":978.7,"uv_index":8.95,"wind_gusts":33.8,"aqi":151,"pm10":72.2,"pm2_5":52.2,"mosquito_risk":0,"arthritis_risk":5,"migraine_risk":10,"frizz_risk":1,"updated_at":"2026-04-18T12:43:43.158500+05:30"},{"city":"Bokaro","state":"Jharkhand","latitude":23.6693,"longitude":86.1511,"temp":37.4,"humidity":37,"rain":0.0,"pressure":982.8,"uv_index":8.95,"wind_gusts":37.4,"aqi":154,"pm10":69.8,"pm2_5":40.5,"mosquito_risk":0,"arthritis_risk":5,"migraine_risk":10,"frizz_risk":1,"updated_at":"2026-04-18T12:43:43.158505+05:30"},{"city":"Bhubaneswar","state":"Odisha","latitude":20.2961,"longitude":85.8245,"temp":34.7,"humidity":61,"rain":0.0,"pressure":1002.4,"uv_index":8.65,"wind_gusts":30.6,"aqi":60,"pm10":28.3,"pm2_5":21.0,"mosquito_risk":3,"arthritis_risk":5,"migraine_risk":4,"frizz_risk":1,"updated_at":"2026-04-18T12:43:43.158510+05:30"},{"city":"Cuttack","state":"Odisha","latitude":20.4625,"longitude":85.8828,"temp":36.6,"humidity":55,"rain":0.0,"pressure":1003.9,"uv_index":8.9,"wind_gusts":29.9,"aqi":60,"pm10":28.3,"pm2_5":21.0,"mosquito_risk":0,"arthritis_risk":5,"migraine_risk":7,"frizz_risk":1,"updated_at":"2026-04-18T12:43:43.158515+05:30"},{"city":"Rourkela","state":"Odisha","latitude":22.2604,"longitude":84.8536,"temp":40.2,"humidity":33,"rain":0.0,"pressure":984.1,"uv_index":8.5,"wind_gusts":48.2,"aqi":132,"pm10":71.9,"pm2_5":32.5,"mosquito_risk":0,"arthritis_risk":5,"migraine_risk":10,"frizz_risk":1,"updated_at":"2026-04-18T12:43:43.158521+05:30"},{"city":"Raipur","state":"Chhattisgarh","latitude":21.2514,"longitude":81.6296,"temp":40.5,"humidity":32,"rain":0.0,"pressure":974.0,"uv_index":8.9,"wind_gusts":34.6,"aqi":125,"pm10":46.4,"pm2_5":41.2,"mosquito_risk":0,"arthritis_risk":5,"migraine_risk":10,"frizz_risk":1,"updated_at":"2026-04-18T12:43:43.158526+05:30"},{"city":"Bhilai","state":"Chhattisgarh","latitude":21.1938,"longitude":81.3509,"temp":40.3,"humidity":34,"rain":0.0,"pressure":974.3,"uv_index":8.8,"wind_gusts":36.7,"aqi":137,"pm10":44.9,"pm2_5":38.0,"mosquito_risk":0,"arthritis_risk":5,"migraine_risk":10,"frizz_risk":1,"updated_at":"2026-04-18T12:43:43.158530+05:30"},{"city":"Guwahati","state":"Assam","latitude":26.1158,"longitude":91.7086,"temp":31.2,"humidity":68,"rain":0.0,"pressure":1001.2,"uv_index":8.5,"wind_gusts":23.8,"aqi":150,"pm10":88.5,"pm2_5":60.8,"mosquito_risk":3,"arthritis_risk":5,"migraine_risk":4,"frizz_risk":1,"updated_at":"2026-04-18T12:43:43.158535+05:30"},{"city":"Agartala","state":"Tripura","latitude":23.8315,"longitude":91.2868,"temp":33.1,"humidity":59,"rain":0.0,"pressure":1006.3,"uv_index":8.7,"wind_gusts":19.8,"aqi":130,"pm10":34.6,"pm2_5":24.7,"mosquito_risk":0,"arthritis_risk":5,"migraine_risk":4,"frizz_risk":1,"updated_at":"2026-04-18T12:43:43.158540+05:30"},{"city":"Shillong","state":"Meghalaya","latitude":25.5788,"longitude":91.8933,"temp":21.1,"humidity":54,"rain":0.0,"pressure":858.8,"uv_index":6.85,"wind_gusts":28.8,"aqi":133,"pm10":59.4,"pm2_5":40.4,"mosquito_risk":0,"arthritis_risk":5,"migraine_risk":7,"frizz_risk":0,"updated_at":"2026-04-18T12:43:43.158545+05:30"},{"city":"Imphal","state":"Manipur","latitude":24.817,"longitude":93.9368,"temp":25.1,"humidity":65,"rain":0.0,"pressure":924.4,"uv_index":9.1,"wind_gusts":45.7,"aqi":157,"pm10":59.8,"pm2_5":34.1,"mosquito_risk":7,"arthritis_risk":5,"migraine_risk":7,"frizz_risk":1,"updated_at":"2026-04-18T12:43:43.158549+05:30"},{"city":"Aizawl","state":"Mizoram","latitude":23.7271,"longitude":92.7176,"temp":29.3,"humidity":41,"rain":0.0,"pressure":895.3,"uv_index":8.95,"wind_gusts":34.2,"aqi":128,"pm10":58.8,"pm2_5":32.8,"mosquito_risk":4,"arthritis_risk":5,"migraine_risk":7,"frizz_risk":0,"updated_at":"2026-04-18T12:43:43.158554+05:30"},{"city":"Kohima","state":"Nagaland","latitude":25.6701,"longitude":94.1077,"temp":20.1,"humidity":85,"rain":0.0,"pressure":856.9,"uv_index":9.0,"wind_gusts":48.6,"aqi":138,"pm10":68.9,"pm2_5":43.2,"mosquito_risk":3,"arthritis_risk":5,"migraine_risk":7,"frizz_risk":1,"updated_at":"2026-04-18T12:43:43.158559+05:30"},{"city":"Gangtok","state":"Sikkim","latitude":27.3314,"longitude":88.6138,"temp":20.3,"humidity":75,"rain":0.0,"pressure":840.1,"uv_index":8.9,"wind_gusts":20.2,"aqi":130,"pm10":41.9,"pm2_5":26.8,"mosquito_risk":3,"arthritis_risk":5,"migraine_risk":7,"frizz_risk":0,"updated_at":"2026-04-18T12:43:43.158564+05:30"},{"city":"Siliguri","state":"West Bengal","latitude":26.7271,"longitude":88.3953,"temp":25.4,"humidity":80,"rain":0.0,"pressure":995.4,"uv_index":8.05,"wind_gusts":19.8,"aqi":164,"pm10":102.9,"pm2_5":64.3,"mosquito_risk":7,"arthritis_risk":5,"migraine_risk":7,"frizz_risk":1,"updated_at":"2026-04-18T12:43:46.457964+05:30"},{"city":"Durgapur","state":"West Bengal","latitude":23.5204,"longitude":87.3119,"temp":36.0,"humidity":54,"rain":0.0,"pressure":993.7,"uv_index":8.85,"wind_gusts":52.9,"aqi":120,"pm10":58.7,"pm2_5":50.9,"mosquito_risk":0,"arthritis_risk":5,"migraine_risk":10,"frizz_risk":1,"updated_at":"2026-04-18T12:43:46.457994+05:30"},{"city":"Asansol","state":"West Bengal","latitude":23.6739,"longitude":86.9524,"temp":36.4,"humidity":52,"rain":0.0,"pressure":992.2,"uv_index":8.9,"wind_gusts":49.3,"aqi":122,"pm10":63.8,"pm2_5":52.4,"mosquito_risk":0,"arthritis_risk":5,"migraine_risk":10,"frizz_risk":1,"updated_at":"2026-04-18T12:43:46.458002+05:30"},{"city":"Pondicherry","state":"Puducherry","latitude":11.9139,"longitude":79.8145,"temp":35.0,"humidity":54,"rain":0.0,"pressure":1008.4,"uv_index":9.15,"wind_gusts":26.3,"aqi":39,"pm10":13.9,"pm2_5":8.5,"mosquito_risk":0,"arthritis_risk":0,"migraine_risk":4,"frizz_risk":1,"updated_at":"2026-04-18T12:43:46.458009+05:30"},{"city":"Port Blair","state":"Andaman and Nicobar Islands","latitude":11.6234,"longitude":92.7265,"temp":29.3,"humidity":72,"rain":0.0,"pressure":1006.8,"uv_index":9.2,"wind_gusts":10.4,"aqi":44,"pm10":18.8,"pm2_5":13.6,"mosquito_risk":7,"arthritis_risk":5,"migraine_risk":4,"frizz_risk":1,"updated_at":"2026-04-18T12:43:46.458015+05:30"},{"city":"Haridwar","state":"Uttarakhand","latitude":29.9457,"longitude":78.1642,"temp":37.0,"humidity":26,"rain":0.0,"pressure":975.1,"uv_index":6.7,"wind_gusts":30.2,"aqi":63,"pm10":55.6,"pm2_5":14.1,"mosquito_risk":0,"arthritis_risk":5,"migraine_risk":10,"frizz_risk":0,"updated_at":"2026-04-18T12:43:46.458022+05:30"},{"city":"Rishikesh","state":"Uttarakhand","latitude":30.0869,"longitude":78.2676,"temp":36.6,"humidity":24,"rain":0.0,"pressure":968.1,"uv_index":6.95,"wind_gusts":36.0,"aqi":55,"pm10":49.0,"pm2_5":12.0,"mosquito_risk":0,"arthritis_risk":5,"migraine_risk":10,"frizz_risk":0,"updated_at":"2026-04-18T12:43:46.458028+05:30"},{"city":"Nainital","state":"Uttarakhand","latitude":29.3919,"longitude":79.4542,"temp":30.7,"humidity":25,"rain":0.0,"pressure":812.6,"uv_index":8.0,"wind_gusts":60.5,"aqi":57,"pm10":45.8,"pm2_5":13.3,"mosquito_risk":0,"arthritis_risk":5,"migraine_risk":7,"frizz_risk":0,"updated_at":"2026-04-18T12:43:46.458034+05:30"},{"city":"Mussoorie","state":"Uttarakhand","latitude":30.4599,"longitude":78.0664,"temp":28.7,"humidity":23,"rain":0.0,"pressure":809.3,"uv_index":7.55,"wind_gusts":42.8,"aqi":58,"pm10":41.8,"pm2_5":10.9,"mosquito_risk":4,"arthritis_risk":5,"migraine_risk":7,"frizz_risk":0,"updated_at":"2026-04-18T12:43:46.458039+05:30"},{"city":"Dharamshala","state":"Himachal Pradesh","latitude":32.219,"longitude":76.3234,"temp":29.4,"humidity":32,"rain":0.0,"pressure":874.0,"uv_index":6.8,"wind_gusts":38.9,"aqi":44,"pm10":53.4,"pm2_5":10.5,"mosquito_risk":4,"arthritis_risk":5,"migraine_risk":7,"frizz_risk":0,"updated_at":"2026-04-18T12:43:46.458045+05:30"},{"city":"Dalhousie","state":"Himachal Pradesh","latitude":32.5387,"longitude":75.971,"temp":22.8,"humidity":36,"rain":0.0,"pressure":809.4,"uv_index":6.65,"wind_gusts":36.0,"aqi":53,"pm10":62.6,"pm2_5":13.6,"mosquito_risk":0,"arthritis_risk":5,"migraine_risk":7,"frizz_risk":0,"updated_at":"2026-04-18T12:43:46.458051+05:30"},{"city":"Patiala","state":"Punjab","latitude":30.3398,"longitude":76.3869,"temp":36.3,"humidity":25,"rain":0.0,"pressure":979.4,"uv_index":7.2,"wind_gusts":19.4,"aqi":127,"pm10":286.8,"pm2_5":37.1,"mosquito_risk":0,"arthritis_risk":5,"migraine_risk":10,"frizz_risk":0,"updated_at":"2026-04-18T12:43:46.458057+05:30"},{"city":"Bhatinda","state":"Punjab","latitude":30.211,"longitude":74.9455,"temp":38.2,"humidity":18,"rain":0.0,"pressure":984.5,"uv_index":7.7,"wind_gusts":32.8,"aqi":76,"pm10":90.6,"pm2_5":20.1,"mosquito_risk":0,"arthritis_risk":5,"migraine_risk":10,"frizz_risk":0,"updated_at":"2026-04-18T12:43:46.458062+05:30"},{"city":"Rohtak","state":"Haryana","latitude":28.8955,"longitude":76.6066,"temp":37.0,"humidity":30,"rain":0.0,"pressure":982.2,"uv_index":6.85,"wind_gusts":15.8,"aqi":328,"pm10":277.5,"pm2_5":53.0,"mosquito_risk":0,"arthritis_risk":5,"migraine_risk":10,"frizz_risk":1,"updated_at":"2026-04-18T12:43:46.458068+05:30"},{"city":"Panipat","state":"Haryana","latitude":29.3909,"longitude":76.9635,"temp":37.8,"humidity":24,"rain":0.0,"pressure":981.2,"uv_index":6.6,"wind_gusts":11.2,"aqi":539,"pm10":304.5,"pm2_5":51.8,"mosquito_risk":0,"arthritis_risk":5,"migraine_risk":10,"frizz_risk":0,"updated_at":"2026-04-18T12:43:46.458074+05:30"},{"city":"Mathura","state":"Uttar Pradesh","latitude":27.4924,"longitude":77.6737,"temp":40.0,"humidity":24,"rain":0.0,"pressure":986.8,"uv_index":7.65,"wind_gusts":24.5,"aqi":498,"pm10":202.1,"pm2_5":41.7,"mosquito_risk":0,"arthritis_risk":5,"migraine_risk":10,"frizz_risk":0,"updated_at":"2026-04-18T12:43:46.458079+05:30"},{"city":"Vrindavan","state":"Uttar Pradesh","latitude":27.5823,"longitude":77.7027,"temp":40.3,"humidity":22,"rain":0.0,"pressure":987.2,"uv_index":7.6,"wind_gusts":25.6,"aqi":498,"pm10":202.1,"pm2_5":41.7,"mosquito_risk":0,"arthritis_risk":5,"migraine_risk":10,"frizz_risk":0,"updated_at":"2026-04-18T12:43:46.458084+05:30"},{"city":"Ayodhya","state":"Uttar Pradesh","latitude":26.7922,"longitude":82.1998,"temp":38.7,"humidity":31,"rain":0.0,"pressure":994.5,"uv_index":7.8,"wind_gusts":37.8,"aqi":140,"pm10":83.1,"pm2_5":39.9,"mosquito_risk":0,"arthritis_risk":5,"migraine_risk":10,"frizz_risk":1,"updated_at":"2026-04-18T12:43:46.458089+05:30"},{"city":"Ratlam","state":"Madhya Pradesh","latitude":23.3315,"longitude":75.0367,"temp":34.8,"humidity":35,"rain":0.0,"pressure":956.1,"uv_index":8.35,"wind_gusts":23.4,"aqi":50,"pm10":18.8,"pm2_5":8.1,"mosquito_risk":0,"arthritis_risk":5,"migraine_risk":7,"frizz_risk":1,"updated_at":"2026-04-18T12:43:46.458094+05:30"},{"city":"Sagar","state":"Madhya Pradesh","latitude":23.8388,"longitude":78.7378,"temp":40.5,"humidity":17,"rain":0.0,"pressure":950.9,"uv_index":7.95,"wind_gusts":31.0,"aqi":65,"pm10":43.2,"pm2_5":17.4,"mosquito_risk":0,"arthritis_risk":5,"migraine_risk":10,"frizz_risk":0,"updated_at":"2026-04-18T12:43:46.458099+05:30"},{"city":"Satna","state":"Madhya Pradesh","latitude":24.6005,"longitude":80.8322,"temp":41.6,"humidity":14,"rain":0.0,"pressure":971.5,"uv_index":8.4,"wind_gusts":20.2,"aqi":68,"pm10":87.5,"pm2_5":21.2,"mosquito_risk":0,"arthritis_risk":5,"migraine_risk":10,"frizz_risk":0,"updated_at":"2026-04-18T12:43:46.458104+05:30"},{"city":"Akola","state":"Maharashtra","latitude":20.7002,"longitude":77.0082,"temp":41.6,"humidity":12,"rain":0.0,"pressure":975.2,"uv_index":8.7,"wind_gusts":29.9,"aqi":63,"pm10":20.7,"pm2_5":13.1,"mosquito_risk":0,"arthritis_risk":5,"migraine_risk":10,"frizz_risk":0,"updated_at":"2026-04-18T12:43:46.458110+05:30"},{"city":"Amravati","state":"Maharashtra","latitude":20.9374,"longitude":77.7796,"temp":39.6,"humidity":19,"rain":0.0,"pressure":967.7,"uv_index":8.05,"wind_gusts":17.3,"aqi":64,"pm10":21.6,"pm2_5":13.8,"mosquito_risk":0,"arthritis_risk":5,"migraine_risk":10,"frizz_risk":0,"updated_at":"2026-04-18T12:43:46.458115+05:30"},{"city":"Latur","state":"Maharashtra","latitude":18.4088,"longitude":76.5604,"temp":36.7,"humidity":26,"rain":0.0,"pressure":941.2,"uv_index":9.05,"wind_gusts":14.4,"aqi":109,"pm10":39.6,"pm2_5":31.7,"mosquito_risk":0,"arthritis_risk":5,"migraine_risk":10,"frizz_risk":0,"updated_at":"2026-04-18T12:43:46.458120+05:30"},{"city":"Nanded","state":"Maharashtra","latitude":19.1383,"longitude":77.3091,"temp":38.4,"humidity":28,"rain":0.0,"pressure":969.1,"uv_index":8.8,"wind_gusts":18.0,"aqi":86,"pm10":24.6,"pm2_5":16.0,"mosquito_risk":0,"arthritis_risk":5,"migraine_risk":10,"frizz_risk":1,"updated_at":"2026-04-18T12:43:46.458126+05:30"},{"city":"Gulbarga","state":"Karnataka","latitude":17.3297,"longitude":76.8343,"temp":38.6,"humidity":28,"rain":0.0,"pressure":959.5,"uv_index":9.0,"wind_gusts":46.8,"aqi":92,"pm10":40.4,"pm2_5":34.2,"mosquito_risk":0,"arthritis_risk":5,"migraine_risk":10,"frizz_risk":1,"updated_at":"2026-04-18T12:43:46.458130+05:30"},{"city":"Bidar","state":"Karnataka","latitude":17.9104,"longitude":77.5199,"temp":37.3,"humidity":31,"rain":0.0,"pressure":936.7,"uv_index":9.05,"wind_gusts":34.2,"aqi":100,"pm10":39.8,"pm2_5":33.2,"mosquito_risk":0,"arthritis_risk":5,"migraine_risk":10,"frizz_risk":1,"updated_at":"2026-04-18T12:43:46.458135+05:30"},{"city":"Hospet","state":"Karnataka","latitude":15.2689,"longitude":76.3909,"temp":34.4,"humidity":48,"rain":0.0,"pressure":956.5,"uv_index":9.25,"wind_gusts":21.2,"aqi":98,"pm10":30.7,"pm2_5":23.8,"mosquito_risk":0,"arthritis_risk":5,"migraine_risk":7,"frizz_risk":1,"updated_at":"2026-04-18T12:43:46.458140+05:30"},{"city":"Tirupur","state":"Tamil Nadu","latitude":11.1085,"longitude":77.3411,"temp":36.7,"humidity":38,"rain":0.0,"pressure":975.6,"uv_index":9.15,"wind_gusts":31.3,"aqi":88,"pm10":30.9,"pm2_5":23.1,"mosquito_risk":0,"arthritis_risk":5,"migraine_risk":10,"frizz_risk":1,"updated_at":"2026-04-18T12:43:46.458144+05:30"},{"city":"Alappuzha","state":"Kerala","latitude":9.4981,"longitude":76.3388,"temp":29.5,"humidity":82,"rain":0.0,"pressure":1008.6,"uv_index":9.1,"wind_gusts":25.2,"aqi":98,"pm10":37.4,"pm2_5":26.5,"mosquito_risk":7,"arthritis_risk":0,"migraine_risk":4,"frizz_risk":1,"updated_at":"2026-04-18T12:43:46.458149+05:30"},{"city":"Munnar","state":"Kerala","latitude":10.0889,"longitude":77.0595,"temp":32.5,"humidity":37,"rain":0.0,"pressure":860.5,"uv_index":9.7,"wind_gusts":23.8,"aqi":93,"pm10":27.1,"pm2_5":18.5,"mosquito_risk":0,"arthritis_risk":5,"migraine_risk":7,"frizz_risk":0,"updated_at":"2026-04-18T12:43:46.458155+05:30"},{"city":"Silchar","state":"Assam","latitude":24.8333,"longitude":92.7789,"temp":32.1,"humidity":60,"rain":0.0,"pressure":1004.9,"uv_index":8.75,"wind_gusts":21.6,"aqi":161,"pm10":71.0,"pm2_5":49.7,"mosquito_risk":0,"arthritis_risk":5,"migraine_risk":4,"frizz_risk":1,"updated_at":"2026-04-18T12:43:46.458161+05:30"},{"city":"Dibrugarh","state":"Assam","latitude":27.4728,"longitude":94.912,"temp":30.1,"humidity":65,"rain":0.0,"pressure":995.2,"uv_index":8.65,"wind_gusts":13.7,"aqi":130,"pm10":64.3,"pm2_5":42.4,"mosquito_risk":3,"arthritis_risk":5,"migraine_risk":7,"frizz_risk":1,"updated_at":"2026-04-18T12:43:46.458165+05:30"}]