[{"city":"Delhi","state":"Delhi","latitude":28.6139,"longitude":77.209,"temp":37.9,"humidity":19,"rain":0.0,"pressure":981.4,"uv_index":7.3,"wind_gusts":20.5,"aqi":296,"pm10":142.0,"pm2_5":25.0,"mosquito_risk":0,"arthritis_risk":5,"migraine_risk":10,"frizz_risk":0,"updated_at":"2026-04-16T14:53:20.000749+05:30"},{"city":"Mumbai","state":"Maharashtra","latitude":19.076,"longitude":72.8777,"temp":29.0,"humidity":72,"rain":0.0,"pressure":1006.0,"uv_index":8.0,"wind_gusts":19.4,"aqi":86,"pm10":52.5,"pm2_5":28.1,"mosquito_risk":7,"arthritis_risk":5,"migraine_risk":4,"frizz_risk":1,"updated_at":"2026-04-16T14:53:20.000812+05:30"},{"city":"Bangalore","state":"Karnataka","latitude":12.9716,"longitude":77.5946,"temp":36.1,"humidity":23,"rain":0.0,"pressure":910.8,"uv_index":9.6,"wind_gusts":33.8,"aqi":96,"pm10":25.2,"pm2_5":20.8,"mosquito_risk":0,"arthritis_risk":5,"migraine_risk":10,"frizz_risk":0,"updated_at":"2026-04-16T14:53:20.000829+05:30"},{"city":"Hyderabad","state":"Telangana","latitude":17.385,"longitude":78.4867,"temp":39.5,"humidity":22,"rain":0.0,"pressure":950.6,"uv_index":9.25,"wind_gusts":34.6,"aqi":103,"pm10":30.6,"pm2_5":24.8,"mosquito_risk":0,"arthritis_risk":5,"migraine_risk":10,"frizz_risk":0,"updated_at":"2026-04-16T14:53:20.000840+05:30"},{"city":"Chennai","state":"Tamil Nadu","latitude":13.0827,"longitude":80.2707,"temp":35.8,"humidity":53,"rain":0.0,"pressure":1005.0,"uv_index":9.3,"wind_gusts":34.2,"aqi":38,"pm10":11.0,"pm2_5":7.9,"mosquito_risk":0,"arthritis_risk":5,"migraine_risk":7,"frizz_risk":1,"updated_at":"2026-04-16T14:53:20.000849+05:30"},{"city":"Kolkata","state":"West Bengal","latitude":22.5726,"longitude":88.3639,"temp":33.9,"humidity":59,"rain":0.0,"pressure":1002.9,"uv_index":8.85,"wind_gusts":33.5,"aqi":83,"pm10":31.7,"pm2_5":23.5,"mosquito_risk":0,"arthritis_risk":5,"migraine_risk":4,"frizz_risk":1,"updated_at":"2026-04-16T14:53:20.000862+05:30"},{"city":"Pune","state":"Maharashtra","latitude":18.5204,"longitude":73.8567,"temp":39.8,"humidity":11,"rain":0.0,"pressure":946.6,"uv_index":8.6,"wind_gusts":42.1,"aqi":63,"pm10":13.5,"pm2_5":9.8,"mosquito_risk":0,"arthritis_risk":5,"migraine_risk":10,"frizz_risk":0,"updated_at":"2026-04-16T14:53:20.000870+05:30"},{"city":"Ahmedabad","state":"Gujarat","latitude":23.0225,"longitude":72.5714,"temp":39.2,"humidity":27,"rain":0.0,"pressure":999.0,"uv_index":8.15,"wind_gusts":15.8,"aqi":81,"pm10":76.1,"pm2_5":23.3,"mosquito_risk":0,"arthritis_risk":5,"migraine_risk":10,"frizz_risk":1,"updated_at":"2026-04-16T14:53:20.000878+05:30"},{"city":"Jaipur","state":"Rajasthan","latitude":26.9124,"longitude":75.7873,"temp":39.9,"humidity":12,"rain":0.0,"pressure":958.4,"uv_index":7.95,"wind_gusts":26.6,"aqi":132,"pm10":153.7,"pm2_5":21.2,"mosquito_risk":0,"arthritis_risk":5,"migraine_risk":10,"frizz_risk":0,"updated_at":"2026-04-16T14:53:20.000886+05:30"},{"city":"Lucknow","state":"Uttar Pradesh","latitude":26.8467,"longitude":80.9462,"temp":38.9,"humidity":16,"rain":0.0,"pressure":991.0,"uv_index":7.8,"wind_gusts":23.8,"aqi":121,"pm10":97.6,"pm2_5":18.2,"mosquito_risk":0,"arthritis_risk":5,"migraine_risk":10,"frizz_risk":0,"updated_at":"2026-04-16T14:53:20.000894+05:30"},{"city":"Kanpur","state":"Uttar Pradesh","latitude":26.4499,"longitude":80.3319,"temp":38.3,"humidity":18,"rain":0.0,"pressure":989.7,"uv_index":7.85,"wind_gusts":21.6,"aqi":143,"pm10":328.8,"pm2_5":37.0,"mosquito_risk":0,"arthritis_risk":5,"migraine_risk":10,"frizz_risk":0,"updated_at":"2026-04-16T14:53:20.000901+05:30"},{"city":"Chandigarh","state":"Chandigarh","latitude":30.7333,"longitude":76.7794,"temp":37.0,"humidity":17,"rain":0.0,"pressure":967.6,"uv_index":7.2,"wind_gusts":23.0,"aqi":93,"pm10":15.3,"pm2_5":8.0,"mosquito_risk":0,"arthritis_risk":5,"migraine_risk":10,"frizz_risk":0,"updated_at":"2026-04-16T14:53:20.000909+05:30"},{"city":"Srinagar","state":"Jammu and Kashmir","latitude":34.0837,"longitude":74.7973,"temp":20.0,"humidity":51,"rain":0.0,"pressure":843.7,"uv_index":7.95,"wind_gusts":28.4,"aqi":74,"pm10":22.2,"pm2_5":9.7,"mosquito_risk":0,"arthritis_risk":5,"migraine_risk":7,"frizz_risk":0,"updated_at":"2026-04-16T14:53:20.000916+05:30"},{"city":"Jammu","state":"Jammu and Kashmir","latitude":32.7266,"longitude":74.857,"temp":35.2,"humidity":32,"rain":0.0,"pressure":971.7,"uv_index":7.4,"wind_gusts":31.3,"aqi":64,"pm10":17.1,"pm2_5":6.1,"mosquito_risk":0,"arthritis_risk":5,"migraine_risk":10,"frizz_risk":0,"updated_at":"2026-04-16T14:53:20.000924+05:30"},{"city":"Amritsar","state":"Punjab","latitude":31.634,"longitude":74.8723,"temp":37.3,"humidity":24,"rain":0.0,"pressure":978.9,"uv_index":7.9,"wind_gusts":42.8,"aqi":90,"pm10":33.3,"pm2_5":10.5,"mosquito_risk":0,"arthritis_risk":5,"migraine_risk":10,"frizz_risk":0,"updated_at":"2026-04-16T14:53:20.000932+05:30"},{"city":"Ludhiana","state":"Punjab","latitude":30.901,"longitude":75.8573,"temp":37.8,"humidity":18,"rain":0.0,"pressure":977.0,"uv_index":7.4,"wind_gusts":24.1,"aqi":84,"pm10":22.7,"pm2_5":7.9,"mosquito_risk":0,"arthritis_risk":5,"migraine_risk":10,"frizz_risk":0,"updated_at":"2026-04-16T14:53:20.000961+05:30"},{"city":"Jalandhar","state":"Punjab","latitude":31.326,"longitude":75.5762,"temp":37.7,"humidity":18,"rain":0.0,"pressure":978.2,"uv_index":7.0,"wind_gusts":24.5,"aqi":91,"pm10":34.9,"pm2_5":9.0,"mosquito_risk":0,"arthritis_risk":5,"migraine_risk":10,"frizz_risk":0,"updated_at":"2026-04-16T14:53:20.000971+05:30"},{"city":"Dehradun","state":"Uttarakhand","latitude":30.6284,"longitude":78.0322,"temp":24.7,"humidity":36,"rain":0.0,"pressure":832.9,"uv_index":7.35,"wind_gusts":31.3,"aqi":108,"pm10":7.0,"pm2_5":3.1,"mosquito_risk":0,"arthritis_risk":5,"migraine_risk":7,"frizz_risk":0,"updated_at":"2026-04-16T14:53:20.000978+05:30"},{"city":"Shimla","state":"Himachal Pradesh","latitude":31.1048,"longitude":77.1734,"temp":23.4,"humidity":25,"rain":0.0,"pressure":788.6,"uv_index":7.5,"wind_gusts":42.1,"aqi":100,"pm10":8.1,"pm2_5":4.4,"mosquito_risk":0,"arthritis_risk":5,"migraine_risk":7,"frizz_risk":0,"updated_at":"2026-04-16T14:53:20.000985+05:30"},{"city":"Manali","state":"Himachal Pradesh","latitude":32.2396,"longitude":77.1887,"temp":22.7,"humidity":39,"rain":0.0,"pressure":823.4,"uv_index":9.05,"wind_gusts":36.0,"aqi":127,"pm10":11.1,"pm2_5":6.0,"mosquito_risk":0,"arthritis_risk":5,"migraine_risk":7,"frizz_risk":0,"updated_at":"2026-04-16T14:53:20.000993+05:30"},{"city":"Gurgaon","state":"Haryana","latitude":28.4595,"longitude":77.0266,"temp":38.4,"humidity":19,"rain":0.0,"pressure":979.8,"uv_index":7.45,"wind_gusts":19.4,"aqi":593,"pm10":516.0,"pm2_5":59.3,"mosquito_risk":0,"arthritis_risk":5,"migraine_risk":10,"frizz_risk":0,"updated_at":"2026-04-16T14:53:20.000999+05:30"},{"city":"Noida","state":"Uttar Pradesh","latitude":28.5355,"longitude":77.391,"temp":38.2,"humidity":18,"rain":0.0,"pressure":982.8,"uv_index":7.35,"wind_gusts":22.3,"aqi":593,"pm10":516.0,"pm2_5":59.3,"mosquito_risk":0,"arthritis_risk":5,"migraine_risk":10,"frizz_risk":0,"updated_at":"2026-04-16T14:53:20.001006+05:30"},{"city":"Ghaziabad","state":"Uttar Pradesh","latitude":28.6692,"longitude":77.4538,"temp":37.7,"humidity":22,"rain":0.0,"pressure":981.1,"uv_index":7.35,"wind_gusts":20.9,"aqi":149,"pm10":95.0,"pm2_5":20.1,"mosquito_risk":0,"arthritis_risk":5,"migraine_risk":10,"frizz_risk":0,"updated_at":"2026-04-16T14:53:20.001012+05:30"},{"city":"Faridabad","state":"Haryana","latitude":28.4089,"longitude":77.3178,"temp":38.8,"humidity":18,"rain":0.0,"pressure":982.0,"uv_index":7.4,"wind_gusts":23.8,"aqi":593,"pm10":516.0,"pm2_5":59.3,"mosquito_risk":0,"arthritis_risk":5,"migraine_risk":10,"frizz_risk":0,"updated_at":"2026-04-16T14:53:20.001019+05:30"},{"city":"Meerut","state":"Uttar Pradesh","latitude":28.9845,"longitude":77.7064,"temp":38.1,"humidity":17,"rain":0.0,"pressure":979.8,"uv_index":7.25,"wind_gusts":26.6,"aqi":149,"pm10":95.0,"pm2_5":20.1,"mosquito_risk":0,"arthritis_risk":5,"migraine_risk":10,"frizz_risk":0,"updated_at":"2026-04-16T14:53:20.001026+05:30"},{"city":"Agra","state":"Uttar Pradesh","latitude":27.1767,"longitude":78.0081,"temp":38.9,"humidity":18,"rain":0.0,"pressure":985.7,"uv_index":7.7,"wind_gusts":21.6,"aqi":444,"pm10":355.8,"pm2_5":40.4,"mosquito_risk":0,"arthritis_risk":5,"migraine_risk":10,"frizz_risk":0,"updated_at":"2026-04-16T14:53:20.001035+05:30"},{"city":"Varanasi","state":"Uttar Pradesh","latitude":25.3176,"longitude":82.9739,"temp":40.6,"humidity":15,"rain":0.0,"pressure":994.4,"uv_index":8.45,"wind_gusts":22.0,"aqi":123,"pm10":122.0,"pm2_5":24.9,"mosquito_risk":0,"arthritis_risk":5,"migraine_risk":10,"frizz_risk":0,"updated_at":"2026-04-16T14:53:20.001042+05:30"},{"city":"Prayagraj","state":"Uttar Pradesh","latitude":25.4358,"longitude":81.8463,"temp":40.3,"humidity":15,"rain":0.0,"pressure":993.3,"uv_index":8.3,"wind_gusts":28.1,"aqi":113,"pm10":168.6,"pm2_5":25.8,"mosquito_risk":0,"arthritis_risk":5,"migraine_risk":10,"frizz_risk":0,"updated_at":"2026-04-16T14:53:20.001051+05:30"},{"city":"Gorakhpur","state":"Uttar Pradesh","latitude":26.7606,"longitude":83.3732,"temp":37.8,"humidity":29,"rain":0.0,"pressure":994.7,"uv_index":8.25,"wind_gusts":31.3,"aqi":138,"pm10":76.4,"pm2_5":35.3,"mosquito_risk":0,"arthritis_risk":5,"migraine_risk":10,"frizz_risk":1,"updated_at":"2026-04-16T14:53:20.001058+05:30"},{"city":"Bareilly","state":"Uttar Pradesh","latitude":28.367,"longitude":79.4304,"temp":38.1,"humidity":18,"rain":0.0,"pressure":984.9,"uv_index":7.6,"wind_gusts":24.1,"aqi":126,"pm10":18.7,"pm2_5":8.6,"mosquito_risk":0,"arthritis_risk":5,"migraine_risk":10,"frizz_risk":0,"updated_at":"2026-04-16T14:53:20.001064+05:30"},{"city":"Aligarh","state":"Uttar Pradesh","latitude":27.8974,"longitude":78.088,"temp":40.2,"humidity":14,"rain":0.0,"pressure":983.4,"uv_index":7.5,"wind_gusts":29.2,"aqi":267,"pm10":183.9,"pm2_5":28.2,"mosquito_risk":0,"arthritis_risk":5,"migraine_risk":10,"frizz_risk":0,"updated_at":"2026-04-16T14:53:20.001070+05:30"},{"city":"Moradabad","state":"Uttar Pradesh","latitude":28.8386,"longitude":78.7733,"temp":38.0,"humidity":16,"rain":0.0,"pressure":981.9,"uv_index":7.45,"wind_gusts":26.3,"aqi":109,"pm10":30.9,"pm2_5":11.8,"mosquito_risk":0,"arthritis_risk":5,"migraine_risk":10,"frizz_risk":0,"updated_at":"2026-04-16T14:53:20.001079+05:30"},{"city":"Saharanpur","state":"Uttar Pradesh","latitude":29.9637,"longitude":77.546,"temp":36.4,"humidity":21,"rain":0.0,"pressure":974.3,"uv_index":7.05,"wind_gusts":25.6,"aqi":108,"pm10":35.0,"pm2_5":10.0,"mosquito_risk":0,"arthritis_risk":5,"migraine_risk":10,"frizz_risk":0,"updated_at":"2026-04-16T14:53:20.001085+05:30"},{"city":"Jhansi","state":"Uttar Pradesh","latitude":25.4484,"longitude":78.5685,"temp":42.0,"humidity":12,"rain":0.0,"pressure":975.4,"uv_index":8.2,"wind_gusts":36.4,"aqi":105,"pm10":165.8,"pm2_5":25.2,"mosquito_risk":0,"arthritis_risk":5,"migraine_risk":10,"frizz_risk":0,"updated_at":"2026-04-16T14:53:23.221220+05:30"},{"city":"Surat","state":"Gujarat","latitude":21.1702,"longitude":72.8311,"temp":30.9,"humidity":57,"rain":0.0,"pressure":1004.8,"uv_index":7.8,"wind_gusts":28.1,"aqi":90,"pm10":51.8,"pm2_5":34.6,"mosquito_risk":0,"arthritis_risk":5,"migraine_risk":4,"frizz_risk":1,"updated_at":"2026-04-16T14:53:23.221251+05:30"},{"city":"Vadodara","state":"Gujarat","latitude":22.3072,"longitude":73.1812,"temp":38.9,"humidity":34,"rain":0.0,"pressure":1001.4,"uv_index":8.0,"wind_gusts":23.0,"aqi":79,"pm10":77.8,"pm2_5":28.3,"mosquito_risk":0,"arthritis_risk":5,"migraine_risk":7,"frizz_risk":1,"updated_at":"2026-04-16T14:53:23.221262+05:30"},{"city":"Rajkot","state":"Gujarat","latitude":22.3039,"longitude":70.8022,"temp":37.1,"humidity":30,"rain":0.0,"pressure":991.9,"uv_index":7.8,"wind_gusts":30.2,"aqi":61,"pm10":65.0,"pm2_5":21.6,"mosquito_risk":0,"arthritis_risk":5,"migraine_risk":10,"frizz_risk":1,"updated_at":"2026-04-16T14:53:23.221272+05:30"},{"city":"Thane","state":"Maharashtra","latitude":19.2183,"longitude":72.9781,"temp":32.7,"humidity":48,"rain":0.0,"pressure":1005.6,"uv_index":8.0,"wind_gusts":30.6,"aqi":86,"pm10":52.5,"pm2_5":28.1,"mosquito_risk":0,"arthritis_risk":5,"migraine_risk":4,"frizz_risk":1,"updated_at":"2026-04-16T14:53:23.221281+05:30"},{"city":"Nagpur","state":"Maharashtra","latitude":21.1458,"longitude":79.0882,"temp":40.9,"humidity":18,"rain":0.0,"pressure":969.4,"uv_index":8.85,"wind_gusts":24.8,"aqi":103,"pm10":36.4,"pm2_5":22.2,"mosquito_risk":0,"arthritis_risk":5,"migraine_risk":10,"frizz_risk":0,"updated_at":"2026-04-16T14:53:23.221290+05:30"},{"city":"Nashik","state":"Maharashtra","latitude":19.9975,"longitude":73.7898,"temp":36.8,"humidity":18,"rain":0.0,"pressure":944.3,"uv_index":8.3,"wind_gusts":31.3,"aqi":60,"pm10":13.4,"pm2_5":8.1,"mosquito_risk":0,"arthritis_risk":5,"migraine_risk":10,"frizz_risk":0,"updated_at":"2026-04-16T14:53:23.221298+05:30"},{"city":"Aurangabad","state":"Maharashtra","latitude":19.8762,"longitude":75.3433,"temp":40.2,"humidity":11,"rain":0.0,"pressure":942.1,"uv_index":8.95,"wind_gusts":27.0,"aqi":60,"pm10":15.7,"pm2_5":6.4,"mosquito_risk":0,"arthritis_risk":5,"migraine_risk":10,"frizz_risk":0,"updated_at":"2026-04-16T14:53:23.221306+05:30"},{"city":"Solapur","state":"Maharashtra","latitude":17.6599,"longitude":75.9064,"temp":41.3,"humidity":8,"rain":0.0,"pressure":954.7,"uv_index":9.05,"wind_gusts":23.0,"aqi":81,"pm10":28.6,"pm2_5":17.1,"mosquito_risk":0,"arthritis_risk":5,"migraine_risk":10,"frizz_risk":0,"updated_at":"2026-04-16T14:53:23.221314+05:30"},{"city":"Kolhapur","state":"Maharashtra","latitude":16.705,"longitude":74.2433,"temp":35.4,"humidity":38,"rain":0.0,"pressure":946.5,"uv_index":9.0,"wind_gusts":41.4,"aqi":73,"pm10":24.7,"pm2_5":16.0,"mosquito_risk":0,"arthritis_risk":5,"migraine_risk":10,"frizz_risk":1,"updated_at":"2026-04-16T14:53:23.221321+05:30"},{"city":"Goa","state":"Goa","latitude":15.2993,"longitude":74.124,"temp":31.6,"humidity":60,"rain":0.0,"pressure":995.8,"uv_index":9.0,"wind_gusts":27.7,"aqi":76,"pm10":36.2,"pm2_5":17.6,"mosquito_risk":0,"arthritis_risk":5,"migraine_risk":7,"frizz_risk":1,"updated_at":"2026-04-16T14:53:23.221329+05:30"},{"city":"Jodhpur","state":"Rajasthan","latitude":26.2389,"longitude":73.0243,"temp":40.6,"humidity":17,"rain":0.0,"pressure":980.3,"uv_index":7.6,"wind_gusts":28.8,"aqi":68,"pm10":84.5,"pm2_5":15.8,"mosquito_risk":0,"arthritis_risk":5,"migraine_risk":10,"frizz_risk":0,"updated_at":"2026-04-16T14:53:23.221336+05:30"},{"city":"Udaipur","state":"Rajasthan","latitude":24.5854,"longitude":73.7125,"temp":37.9,"humidity":20,"rain":0.0,"pressure":945.2,"uv_index":8.65,"wind_gusts":29.9,"aqi":69,"pm10":72.4,"pm2_5":17.2,"mosquito_risk":0,"arthritis_risk":5,"migraine_risk":10,"frizz_risk":0,"updated_at":"2026-04-16T14:53:23.221344+05:30"},{"city":"Kota","state":"Rajasthan","latitude":25.2138,"longitude":75.8648,"temp":41.2,"humidity":16,"rain":0.0,"pressure":975.8,"uv_index":8.2,"wind_gusts":16.9,"aqi":102,"pm10":110.6,"pm2_5":25.4,"mosquito_risk":0,"arthritis_risk":5,"migraine_risk":10,"frizz_risk":0,"updated_at":"2026-04-16T14:53:23.221352+05:30"},{"city":"Bikaner","state":"Rajasthan","latitude":28.0229,"longitude":73.3119,"temp":40.9,"humidity":12,"rain":0.0,"pressure":978.9,"uv_index":7.6,"wind_gusts":22.3,"aqi":85,"pm10":54.2,"pm2_5":12.4,"mosquito_risk":0,"arthritis_risk":5,"migraine_risk":10,"frizz_risk":0,"updated_at":"2026-04-16T14:53:23.221359+05:30"},{"city":"Ajmer","state":"Rajasthan","latitude":26.4499,"longitude":74.6399,"temp":39.4,"humidity":15,"rain":0.0,"pressure":953.0,"uv_index":8.15,"wind_gusts":23.8,"aqi":96,"pm10":77.8,"pm2_5":16.5,"mosquito_risk":0,"arthritis_risk":5,"migraine_risk":10,"frizz_risk":0,"updated_at":"2026-04-16T14:53:23.221368+05:30"},{"city":"Gwalior","state":"Madhya Pradesh","latitude":26.2183,"longitude":78.1828,"temp":40.5,"humidity":14,"rain":0.0,"pressure":981.4,"uv_index":7.95,"wind_gusts":30.6,"aqi":139,"pm10":186.3,"pm2_5":25.3,"mosquito_risk":0,"arthritis_risk":5,"migraine_risk":10,"frizz_risk":0,"updated_at":"2026-04-16T14:53:23.221376+05:30"},{"city":"Indore","state":"Madhya Pradesh","latitude":22.7196,"longitude":75.8577,"temp":38.1,"humidity":23,"rain":0.0,"pressure":946.4,"uv_index":8.55,"wind_gusts":26.6,"aqi":82,"pm10":54.7,"pm2_5":19.7,"mosquito_risk":0,"arthritis_risk":5,"migraine_risk":10,"frizz_risk":0,"updated_at":"2026-04-16T14:53:23.221383+05:30"},{"city":"Bhopal","state":"Madhya Pradesh","latitude":23.2599,"longitude":77.4126,"temp":40.3,"humidity":18,"rain":0.0,"pressure":951.2,"uv_index":8.55,"wind_gusts":20.9,"aqi":87,"pm10":42.6,"pm2_5":14.9,"mosquito_risk":0,"arthritis_risk":5,"migraine_risk":10,"frizz_risk":0,"updated_at":"2026-04-16T14:53:23.221390+05:30"},{"city":"Jabalpur","state":"Madhya Pradesh","latitude":23.1815,"longitude":79.9864,"temp":39.5,"humidity":19,"rain":0.0,"pressure":959.0,"uv_index":8.7,"wind_gusts":22.0,"aqi":102,"pm10":32.1,"pm2_5":14.3,"mosquito_risk":0,"arthritis_risk":5,"migraine_risk":10,"frizz_risk":0,"updated_at":"2026-04-16T14:53:23.221397+05:30"},{"city":"Ujjain","state":"Madhya Pradesh","latitude":23.1765,"longitude":75.7885,"temp":38.5,"humidity":26,"rain":0.0,"pressure":951.9,"uv_index":8.5,"wind_gusts":25.9,"aqi":74,"pm10":56.1,"pm2_5":21.1,"mosquito_risk":0,"arthritis_risk":5,"migraine_risk":10,"frizz_risk":0,"updated_at":"2026-04-16T14:53:23.221405+05:30"},{"city":"Visakhapatnam","state":"Andhra Pradesh","latitude":17.6868,"longitude":83.2185,"temp":33.6,"humidity":54,"rain":0.0,"pressure":1001.2,"uv_index":9.15,"wind_gusts":44.6,"aqi":49,"pm10":14.0,"pm2_5":10.4,"mosquito_risk":0,"arthritis_risk":5,"migraine_risk":4,"frizz_risk":1,"updated_at":"2026-04-16T14:53:23.221412+05:30"},{"city":"Vijayawada","state":"Andhra Pradesh","latitude":16.5062,"longitude":80.648,"temp":36.8,"humidity":47,"rain":0.0,"pressure":999.7,"uv_index":9.2,"wind_gusts":30.2,"aqi":44,"pm10":16.6,"pm2_5":12.5,"mosquito_risk":0,"arthritis_risk":5,"migraine_risk":10,"frizz_risk":1,"updated_at":"2026-04-16T14:53:23.221419+05:30"},{"city":"Guntur","state":"Andhra Pradesh","latitude":16.3067,"longitude":80.4365,"temp":36.6,"humidity":46,"rain":0.0,"pressure":1001.0,"uv_index":9.2,"wind_gusts":33.1,"aqi":50,"pm10":20.7,"pm2_5":16.9,"mosquito_risk":0,"arthritis_risk":5,"migraine_risk":7,"frizz_risk":1,"updated_at":"2026-04-16T14:53:23.221426+05:30"},{"city":"Nellore","state":"Andhra Pradesh","latitude":14.4426,"longitude":79.9865,"temp":39.5,"humidity":39,"rain":0.0,"pressure":1002.3,"uv_index":9.3,"wind_gusts":35.6,"aqi":49,"pm10":23.4,"pm2_5":19.3,"mosquito_risk":0,"arthritis_risk":5,"migraine_risk":7,"frizz_risk":1,"updated_at":"2026-04-16T14:53:23.221435+05:30"},{"city":"Kurnool","state":"Andhra Pradesh","latitude":15.8281,"longitude":78.0373,"temp":41.6,"humidity":22,"rain":0.0,"pressure":973.0,"uv_index":9.2,"wind_gusts":29.9,"aqi":98,"pm10":31.5,"pm2_5":24.7,"mosquito_risk":0,"arthritis_risk":5,"migraine_risk":10,"frizz_risk":0,"updated_at":"2026-04-16T14:53:23.221444+05:30"},{"city":"Kakinada","state":"Andhra Pradesh","latitude":16.9891,"longitude":82.2475,"temp":36.9,"humidity":45,"rain":0.0,"pressure":1004.5,"uv_index":9.2,"wind_gusts":35.6,"aqi":30,"pm10":9.8,"pm2_5":6.1,"mosquito_risk":0,"arthritis_risk":5,"migraine_risk":7,"frizz_risk":1,"updated_at":"2026-04-16T14:53:23.221451+05:30"},{"city":"Tirupati","state":"Andhra Pradesh","latitude":13.6288,"longitude":79.4192,"temp":37.6,"humidity":36,"rain":0.0,"pressure":989.0,"uv_index":9.4,"wind_gusts":33.8,"aqi":66,"pm10":28.1,"pm2_5":25.6,"mosquito_risk":0,"arthritis_risk":5,"migraine_risk":10,"frizz_risk":1,"updated_at":"2026-04-16T14:53:23.221458+05:30"},{"city":"Warangal","state":"Telangana","latitude":17.9689,"longitude":79.5941,"temp":40.1,"humidity":31,"rain":0.0,"pressure":975.3,"uv_index":9.1,"wind_gusts":28.4,"aqi":72,"pm10":28.8,"pm2_5":23.8,"mosquito_risk":0,"arthritis_risk":5,"migraine_risk":10,"frizz_risk":1,"updated_at":"2026-04-16T14:53:23.221465+05:30"},{"city":"Nizamabad","state":"Telangana","latitude":18.6725,"longitude":78.0941,"temp":40.9,"humidity":18,"rain":0.0,"pressure":962.1,"uv_index":9.05,"wind_gusts":25.9,"aqi":93,"pm10":42.1,"pm2_5":27.8,"mosquito_risk":0,"arthritis_risk":5,"migraine_risk":10,"frizz_risk":0,"updated_at":"2026-04-16T14:53:23.221472+05:30"},{"city":"Mysore","state":"Karnataka","latitude":12.2958,"longitude":76.6396,"temp":37.7,"humidity":19,"rain":0.0,"pressure":926.7,"uv_index":9.5,"wind_gusts":39.6,"aqi":86,"pm10":29.8,"pm2_5":23.5,"mosquito_risk":0,"arthritis_risk":5,"migraine_risk":10,"frizz_risk":0,"updated_at":"2026-04-16T14:53:23.221479+05:30"},{"city":"Mangalore","state":"Karnataka","latitude":12.9141,"longitude":74.856,"temp":29.5,"humidity":83,"rain":0.0,"pressure":1003.9,"uv_index":8.4,"wind_gusts":22.0,"aqi":86,"pm10":51.9,"pm2_5":29.4,"mosquito_risk":7,"arthritis_risk":5,"migraine_risk":4,"frizz_risk":1,"updated_at":"2026-04-16T14:53:23.221487+05:30"},{"city":"Hubli-Dharwad","state":"Karnataka","latitude":15.3647,"longitude":75.124,"temp":35.4,"humidity":33,"rain":0.0,"pressure":939.2,"uv_index":9.2,"wind_gusts":31.7,"aqi":66,"pm10":23.8,"pm2_5":15.7,"mosquito_risk":0,"arthritis_risk":5,"migraine_risk":10,"frizz_risk":1,"updated_at":"2026-04-16T14:53:23.221495+05:30"},{"city":"Belgaum","state":"Karnataka","latitude":15.8497,"longitude":74.4977,"temp":34.6,"humidity":36,"rain":0.0,"pressure":924.6,"uv_index":9.25,"wind_gusts":33.8,"aqi":70,"pm10":25.6,"pm2_5":14.1,"mosquito_risk":0,"arthritis_risk":5,"migraine_risk":7,"frizz_risk":1,"updated_at":"2026-04-16T14:53:26.447284+05:30"},{"city":"Coimbatore","state":"Tamil Nadu","latitude":11.0168,"longitude":76.9558,"temp":38.4,"humidity":25,"rain":0.0,"pressure":959.2,"uv_index":9.45,"wind_gusts":37.1,"aqi":100,"pm10":30.0,"pm2_5":24.1,"mosquito_risk":0,"arthritis_risk":5,"migraine_risk":10,"frizz_risk":0,"updated_at":"2026-04-16T14:53:26.447313+05:30"},{"city":"Madurai","state":"Tamil Nadu","latitude":9.9252,"longitude":78.1198,"temp":39.3,"humidity":27,"rain":0.0,"pressure":989.8,"uv_index":9.3,"wind_gusts":42.1,"aqi":55,"pm10":19.3,"pm2_5":14.2,"mosquito_risk":0,"arthritis_risk":5,"migraine_risk":10,"frizz_risk":1,"updated_at":"2026-04-16T14:53:26.447323+05:30"},{"city":"Trichy","state":"Tamil Nadu","latitude":10.7905,"longitude":78.7047,"temp":38.7,"humidity":29,"rain":0.0,"pressure":996.5,"uv_index":9.35,"wind_gusts":28.8,"aqi":48,"pm10":17.2,"pm2_5":13.4,"mosquito_risk":0,"arthritis_risk":5,"migraine_risk":10,"frizz_risk":1,"updated_at":"2026-04-16T14:53:26.447331+05:30"},{"city":"Salem","state":"Tamil Nadu","latitude":11.6643,"longitude":78.146,"temp":38.1,"humidity":36,"rain":0.0,"pressure":974.5,"uv_index":9.45,"wind_gusts":27.7,"aqi":60,"pm10":19.0,"pm2_5":14.7,"mosquito_risk":0,"arthritis_risk":5,"migraine_risk":10,"frizz_risk":1,"updated_at":"2026-04-16T14:53:26.447338+05:30"},{"city":"Tirunelveli","state":"Tamil Nadu","latitude":8.7139,"longitude":77.7567,"temp":38.1,"humidity":32,"rain":0.0,"pressure":999.8,"uv_index":8.75,"wind_gusts":50.8,"aqi":70,"pm10":19.4,"pm2_5":14.8,"mosquito_risk":0,"arthritis_risk":5,"migraine_risk":10,"frizz_risk":1,"updated_at":"2026-04-16T14:53:26.447346+05:30"},{"city":"Vellore","state":"Tamil Nadu","latitude":12.9165,"longitude":79.1325,"temp":37.4,"humidity":35,"rain":0.0,"pressure":982.0,"uv_index":9.4,"wind_gusts":33.5,"aqi":79,"pm10":27.5,"pm2_5":24.8,"mosquito_risk":0,"arthritis_risk":5,"migraine_risk":10,"frizz_risk":1,"updated_at":"2026-04-16T14:53:26.447353+05:30"},{"city":"Erode","state":"Tamil Nadu","latitude":11.341,"longitude":77.7172,"temp":40.2,"humidity":29,"rain":0.0,"pressure":985.6,"uv_index":9.4,"wind_gusts":30.2,"aqi":67,"pm10":23.0,"pm2_5":17.6,"mosquito_risk":0,"arthritis_risk":5,"migraine_risk":10,"frizz_risk":1,"updated_at":"2026-04-16T14:53:26.447360+05:30"},{"city":"Kochi","state":"Kerala","latitude":9.9312,"longitude":76.2673,"temp":29.7,"humidity":82,"rain":0.0,"pressure":1005.6,"uv_index":9.2,"wind_gusts":29.9,"aqi":100,"pm10":40.0,"pm2_5":29.6,"mosquito_risk":7,"arthritis_risk":5,"migraine_risk":4,"frizz_risk":1,"updated_at":"2026-04-16T14:53:26.447367+05:30"},{"city":"Thiruvananthapuram","state":"Kerala","latitude":8.5241,"longitude":76.9366,"temp":29.7,"humidity":81,"rain":0.0,"pressure":1004.9,"uv_index":9.15,"wind_gusts":33.8,"aqi":77,"pm10":37.8,"pm2_5":25.7,"mosquito_risk":7,"arthritis_risk":5,"migraine_risk":4,"frizz_risk":1,"updated_at":"2026-04-16T14:53:26.447374+05:30"},{"city":"Kozhikode","state":"Kerala","latitude":11.2588,"longitude":75.7804,"temp":31.4,"humidity":72,"rain":0.0,"pressure":1004.9,"uv_index":9.15,"wind_gusts":32.0,"aqi":87,"pm10":46.2,"pm2_5":28.3,"mosquito_risk":3,"arthritis_risk":5,"migraine_risk":4,"frizz_risk":1,"updated_at":"2026-04-16T14:53:26.447380+05:30"},{"city":"Thrissur","state":"Kerala","latitude":10.5276,"longitude":76.2144,"temp":33.9,"humidity":60,"rain":0.0,"pressure":1004.1,"uv_index":9.1,"wind_gusts":35.6,"aqi":104,"pm10":40.4,"pm2_5":29.4,"mosquito_risk":0,"arthritis_risk":5,"migraine_risk":4,"frizz_risk":1,"updated_at":"2026-04-16T14:53:26.447388+05:30"},{"city":"Kannur","state":"Kerala","latitude":11.8745,"longitude":75.3704,"temp":32.4,"humidity":67,"rain":0.0,"pressure":1004.4,"uv_index":9.15,"wind_gusts":31.7,"aqi":87,"pm10":48.7,"pm2_5":30.0,"mosquito_risk":3,"arthritis_risk":5,"migraine_risk":4,"frizz_risk":1,"updated_at":"2026-04-16T14:53:26.447395+05:30"},{"city":"Patna","state":"Bihar","latitude":25.5941,"longitude":85.1376,"temp":34.7,"humidity":52,"rain":0.0,"pressure":998.0,"uv_index":8.55,"wind_gusts":34.2,"aqi":143,"pm10":84.3,"pm2_5":52.0,"mosquito_risk":0,"arthritis_risk":5,"migraine_risk":7,"frizz_risk":1,"updated_at":"2026-04-16T14:53:26.447401+05:30"},{"city":"Gaya","state":"Bihar","latitude":24.7914,"longitude":85.0002,"temp":36.4,"humidity":40,"rain":0.0,"pressure":990.9,"uv_index":8.65,"wind_gusts":23.0,"aqi":132,"pm10":75.0,"pm2_5":24.9,"mosquito_risk":0,"arthritis_risk":5,"migraine_risk":10,"frizz_risk":1,"updated_at":"2026-04-16T14:53:26.447407+05:30"},{"city":"Muzaffarpur","state":"Bihar","latitude":26.1209,"longitude":85.3647,"temp":33.6,"humidity":56,"rain":0.0,"pressure":998.5,"uv_index":8.55,"wind_gusts":35.3,"aqi":150,"pm10":80.6,"pm2_5":54.1,"mosquito_risk":0,"arthritis_risk":5,"migraine_risk":7,"frizz_risk":1,"updated_at":"2026-04-16T14:53:26.447414+05:30"},{"city":"Bhagalpur","state":"Bihar","latitude":25.2425,"longitude":87.0117,"temp":32.2,"humidity":63,"rain":0.0,"pressure":999.1,"uv_index":8.55,"wind_gusts":30.6,"aqi":147,"pm10":76.1,"pm2_5":61.7,"mosquito_risk":3,"arthritis_risk":5,"migraine_risk":7,"frizz_risk":1,"updated_at":"2026-04-16T14:53:26.447421+05:30"},{"city":"Ranchi","state":"Jharkhand","latitude":23.3441,"longitude":85.3096,"temp":31.1,"humidity":52,"rain":0.0,"pressure":936.1,"uv_index":9.15,"wind_gusts":38.9,"aqi":170,"pm10":45.6,"pm2_5":31.8,"mosquito_risk":0,"arthritis_risk":5,"migraine_risk":7,"frizz_risk":1,"updated_at":"2026-04-16T14:53:26.447427+05:30"},{"city":"Jamshedpur","state":"Jharkhand","latitude":22.8046,"longitude":86.2029,"temp":32.3,"humidity":62,"rain":0.0,"pressure":987.9,"uv_index":9.0,"wind_gusts":30.2,"aqi":143,"pm10":61.7,"pm2_5":53.6,"mosquito_risk":3,"arthritis_risk":5,"migraine_risk":7,"frizz_risk":1,"updated_at":"2026-04-16T14:53:26.447433+05:30"},{"city":"Dhanbad","state":"Jharkhand","latitude":23.7957,"longitude":86.4304,"temp":35.6,"humidity":46,"rain":0.0,"pressure":976.6,"uv_index":8.95,"wind_gusts":29.9,"aqi":155,"pm10":99.2,"pm2_5":85.7,"mosquito_risk":0,"arthritis_risk":5,"migraine_risk":10,"frizz_risk":1,"updated_at":"2026-04-16T14:53:26.447439+05:30"},{"city":"Bokaro","state":"Jharkhand","latitude":23.6693,"longitude":86.1511,"temp":33.0,"humidity":60,"rain":0.0,"pressure":981.0,"uv_index":8.95,"wind_gusts":34.6,"aqi":154,"pm10":103.8,"pm2_5":84.8,"mosquito_risk":0,"arthritis_risk":5,"migraine_risk":7,"frizz_risk":1,"updated_at":"2026-04-16T14:53:26.447446+05:30"},{"city":"Bhubaneswar","state":"Odisha","latitude":20.2961,"longitude":85.8245,"temp":32.3,"humidity":67,"rain":0.0,"pressure":999.9,"uv_index":9.1,"wind_gusts":41.4,"aqi":57,"pm10":16.6,"pm2_5":13.0,"mosquito_risk":3,"arthritis_risk":5,"migraine_risk":7,"frizz_risk":1,"updated_at":"2026-04-16T14:53:26.447452+05:30"},{"city":"Cuttack","state":"Odisha","latitude":20.4625,"longitude":85.8828,"temp":35.1,"humidity":58,"rain":0.0,"pressure":1001.2,"uv_index":9.15,"wind_gusts":37.8,"aqi":57,"pm10":16.6,"pm2_5":13.0,"mosquito_risk":0,"arthritis_risk":5,"migraine_risk":7,"frizz_risk":1,"updated_at":"2026-04-16T14:53:26.447458+05:30"},{"city":"Rourkela","state":"Odisha","latitude":22.2604,"longitude":84.8536,"temp":40.8,"humidity":29,"rain":0.0,"pressure":980.1,"uv_index":8.9,"wind_gusts":32.4,"aqi":162,"pm10":32.7,"pm2_5":26.2,"mosquito_risk":0,"arthritis_risk":5,"migraine_risk":10,"frizz_risk":1,"updated_at":"2026-04-16T14:53:26.447464+05:30"},{"city":"Raipur","state":"Chhattisgarh","latitude":21.2514,"longitude":81.6296,"temp":42.2,"humidity":16,"rain":0.0,"pressure":970.4,"uv_index":8.95,"wind_gusts":32.0,"aqi":136,"pm10":25.2,"pm2_5":17.2,"mosquito_risk":0,"arthritis_risk":5,"migraine_risk":10,"frizz_risk":0,"updated_at":"2026-04-16T14:53:26.447471+05:30"},{"city":"Bhilai","state":"Chhattisgarh","latitude":21.1938,"longitude":81.3509,"temp":42.2,"humidity":17,"rain":0.0,"pressure":970.7,"uv_index":8.95,"wind_gusts":30.2,"aqi":109,"pm10":23.0,"pm2_5":14.6,"mosquito_risk":0,"arthritis_risk":5,"migraine_risk":10,"frizz_risk":0,"updated_at":"2026-04-16T14:53:26.447477+05:30"},{"city":"Guwahati","state":"Assam","latitude":26.1158,"longitude":91.7086,"temp":30.7,"humidity":59,"rain":0.0,"pressure":1000.3,"uv_index":8.45,"wind_gusts":24.5,"aqi":134,"pm10":69.8,"pm2_5":45.2,"mosquito_risk":0,"arthritis_risk":5,"migraine_risk":4,"frizz_risk":1,"updated_at":"2026-04-16T14:53:26.447483+05:30"},{"city":"Agartala","state":"Tripura","latitude":23.8315,"longitude":91.2868,"temp":29.6,"humidity":73,"rain":0.0,"pressure":1005.0,"uv_index":8.7,"wind_gusts":27.4,"aqi":115,"pm10":59.6,"pm2_5":42.1,"mosquito_risk":7,"arthritis_risk":5,"migraine_risk":4,"frizz_risk":1,"updated_at":"2026-04-16T14:53:26.447490+05:30"},{"city":"Shillong","state":"Meghalaya","latitude":25.5788,"longitude":91.8933,"temp":20.6,"humidity":57,"rain":0.0,"pressure":857.1,"uv_index":7.75,"wind_gusts":54.0,"aqi":112,"pm10":61.5,"pm2_5":38.5,"mosquito_risk":0,"arthritis_risk":5,"migraine_risk":7,"frizz_risk":0,"updated_at":"2026-04-16T14:53:26.447496+05:30"},{"city":"Imphal","state":"Manipur","latitude":24.817,"longitude":93.9368,"temp":23.7,"humidity":67,"rain":0.0,"pressure":922.9,"uv_index":9.05,"wind_gusts":65.2,"aqi":120,"pm10":69.8,"pm2_5":36.2,"mosquito_risk":3,"arthritis_risk":5,"migraine_risk":7,"frizz_risk":1,"updated_at":"2026-04-16T14:53:26.447502+05:30"},{"city":"Aizawl","state":"Mizoram","latitude":23.7271,"longitude":92.7176,"temp":24.5,"humidity":69,"rain":0.0,"pressure":893.3,"uv_index":8.95,"wind_gusts":36.7,"aqi":130,"pm10":79.9,"pm2_5":48.9,"mosquito_risk":3,"arthritis_risk":5,"migraine_risk":7,"frizz_risk":1,"updated_at":"2026-04-16T14:53:26.447509+05:30"},{"city":"Kohima","state":"Nagaland","latitude":25.6701,"longitude":94.1077,"temp":19.3,"humidity":76,"rain":0.0,"pressure":855.6,"uv_index":8.5,"wind_gusts":67.3,"aqi":105,"pm10":65.4,"pm2_5":36.1,"mosquito_risk":3,"arthritis_risk":5,"migraine_risk":7,"frizz_risk":0,"updated_at":"2026-04-16T14:53:26.447515+05:30"},{"city":"Gangtok","state":"Sikkim","latitude":27.3314,"longitude":88.6138,"temp":20.5,"humidity":65,"rain":0.0,"pressure":838.9,"uv_index":8.8,"wind_gusts":20.2,"aqi":130,"pm10":69.2,"pm2_5":43.9,"mosquito_risk":3,"arthritis_risk":5,"migraine_risk":7,"frizz_risk":0,"updated_at":"2026-04-16T14:53:26.447521+05:30"},{"city":"Siliguri","state":"West Bengal","latitude":26.7271,"longitude":88.3953,"temp":26.7,"humidity":59,"rain":0.0,"pressure":993.6,"uv_index":8.45,"wind_gusts":25.9,"aqi":166,"pm10":97.6,"pm2_5":57.2,"mosquito_risk":4,"arthritis_risk":5,"migraine_risk":7,"frizz_risk":1,"updated_at":"2026-04-16T14:53:29.663428+05:30"},{"city":"Durgapur","state":"West Bengal","latitude":23.5204,"longitude":87.3119,"temp":32.8,"humidity":63,"rain":0.0,"pressure":992.2,"uv_index":8.85,"wind_gusts":29.2,"aqi":130,"pm10":71.2,"pm2_5":60.8,"mosquito_risk":3,"arthritis_risk":5,"migraine_risk":7,"frizz_risk":1,"updated_at":"2026-04-16T14:53:29.663461+05:30"},{"city":"Asansol","state":"West Bengal","latitude":23.6739,"longitude":86.9524,"temp":34.1,"humidity":57,"rain":0.0,"pressure":990.6,"uv_index":8.9,"wind_gusts":30.6,"aqi":134,"pm10":80.1,"pm2_5":69.4,"mosquito_risk":0,"arthritis_risk":5,"migraine_risk":7,"frizz_risk":1,"updated_at":"2026-04-16T14:53:29.663473+05:30"},{"city":"Pondicherry","state":"Puducherry","latitude":11.9139,"longitude":79.8145,"temp":37.2,"humidity":47,"rain":0.0,"pressure":1005.3,"uv_index":9.25,"wind_gusts":28.1,"aqi":42,"pm10":10.0,"pm2_5":6.8,"mosquito_risk":0,"arthritis_risk":5,"migraine_risk":7,"frizz_risk":1,"updated_at":"2026-04-16T14:53:29.663483+05:30"},{"city":"Port Blair","state":"Andaman and Nicobar Islands","latitude":11.6234,"longitude":92.7265,"temp":29.4,"humidity":73,"rain":0.0,"pressure":1005.3,"uv_index":9.2,"wind_gusts":13.0,"aqi":62,"pm10":22.4,"pm2_5":16.6,"mosquito_risk":7,"arthritis_risk":5,"migraine_risk":4,"frizz_risk":1,"updated_at":"2026-04-16T14:53:29.663492+05:30"},{"city":"Haridwar","state":"Uttarakhand","latitude":29.9457,"longitude":78.1642,"temp":35.9,"humidity":22,"rain":0.0,"pressure":972.9,"uv_index":7.1,"wind_gusts":29.9,"aqi":90,"pm10":22.8,"pm2_5":7.1,"mosquito_risk":0,"arthritis_risk":5,"migraine_risk":10,"frizz_risk":0,"updated_at":"2026-04-16T14:53:29.663502+05:30"},{"city":"Rishikesh","state":"Uttarakhand","latitude":30.0869,"longitude":78.2676,"temp":34.9,"humidity":24,"rain":0.0,"pressure":965.8,"uv_index":7.1,"wind_gusts":32.8,"aqi":95,"pm10":15.4,"pm2_5":4.7,"mosquito_risk":0,"arthritis_risk":5,"migraine_risk":7,"frizz_risk":0,"updated_at":"2026-04-16T14:53:29.663512+05:30"},{"city":"Nainital","state":"Uttarakhand","latitude":29.3919,"longitude":79.4542,"temp":27.9,"humidity":24,"rain":0.0,"pressure":809.7,"uv_index":8.1,"wind_gusts":38.2,"aqi":129,"pm10":12.9,"pm2_5":7.1,"mosquito_risk":4,"arthritis_risk":5,"migraine_risk":7,"frizz_risk":0,"updated_at":"2026-04-16T14:53:29.663521+05:30"},{"city":"Mussoorie","state":"Uttarakhand","latitude":30.4599,"longitude":78.0664,"temp":25.8,"humidity":26,"rain":0.0,"pressure":806.2,"uv_index":6.9,"wind_gusts":35.6,"aqi":96,"pm10":13.6,"pm2_5":4.9,"mosquito_risk":4,"arthritis_risk":5,"migraine_risk":7,"frizz_risk":0,"updated_at":"2026-04-16T14:53:29.663530+05:30"},{"city":"Dharamshala","state":"Himachal Pradesh","latitude":32.219,"longitude":76.3234,"temp":28.6,"humidity":32,"rain":0.0,"pressure":871.0,"uv_index":7.75,"wind_gusts":25.6,"aqi":122,"pm10":10.9,"pm2_5":3.9,"mosquito_risk":4,"arthritis_risk":5,"migraine_risk":7,"frizz_risk":0,"updated_at":"2026-04-16T14:53:29.663539+05:30"},{"city":"Dalhousie","state":"Himachal Pradesh","latitude":32.5387,"longitude":75.971,"temp":27.1,"humidity":24,"rain":0.0,"pressure":807.3,"uv_index":7.9,"wind_gusts":27.0,"aqi":91,"pm10":10.3,"pm2_5":3.7,"mosquito_risk":4,"arthritis_risk":5,"migraine_risk":7,"frizz_risk":0,"updated_at":"2026-04-16T14:53:29.663549+05:30"},{"city":"Patiala","state":"Punjab","latitude":30.3398,"longitude":76.3869,"temp":38.7,"humidity":15,"rain":0.0,"pressure":976.5,"uv_index":7.2,"wind_gusts":22.0,"aqi":114,"pm10":408.9,"pm2_5":38.9,"mosquito_risk":0,"arthritis_risk":5,"migraine_risk":10,"frizz_risk":0,"updated_at":"2026-04-16T14:53:29.663558+05:30"},{"city":"Bhatinda","state":"Punjab","latitude":30.211,"longitude":74.9455,"temp":40.4,"humidity":14,"rain":0.0,"pressure":981.3,"uv_index":7.35,"wind_gusts":27.7,"aqi":99,"pm10":49.7,"pm2_5":14.3,"mosquito_risk":0,"arthritis_risk":5,"migraine_risk":10,"frizz_risk":0,"updated_at":"2026-04-16T14:53:29.663567+05:30"},{"city":"Rohtak","state":"Haryana","latitude":28.8955,"longitude":76.6066,"temp":39.4,"humidity":16,"rain":0.0,"pressure":980.0,"uv_index":7.35,"wind_gusts":24.5,"aqi":464,"pm10":213.7,"pm2_5":29.9,"mosquito_risk":0,"arthritis_risk":5,"migraine_risk":10,"frizz_risk":0,"updated_at":"2026-04-16T14:53:29.663575+05:30"},{"city":"Panipat","state":"Haryana","latitude":29.3909,"longitude":76.9635,"temp":38.2,"humidity":19,"rain":0.0,"pressure":978.9,"uv_index":7.15,"wind_gusts":22.0,"aqi":531,"pm10":339.9,"pm2_5":39.7,"mosquito_risk":0,"arthritis_risk":5,"migraine_risk":10,"frizz_risk":0,"updated_at":"2026-04-16T14:53:29.663584+05:30"},{"city":"Mathura","state":"Uttar Pradesh","latitude":27.4924,"longitude":77.6737,"temp":39.9,"humidity":15,"rain":0.0,"pressure":984.6,"uv_index":7.65,"wind_gusts":22.7,"aqi":445,"pm10":320.4,"pm2_5":39.9,"mosquito_risk":0,"arthritis_risk":5,"migraine_risk":10,"frizz_risk":0,"updated_at":"2026-04-16T14:53:29.663592+05:30"},{"city":"Vrindavan","state":"Uttar Pradesh","latitude":27.5823,"longitude":77.7027,"temp":40.0,"humidity":15,"rain":0.0,"pressure":985.1,"uv_index":7.6,"wind_gusts":23.0,"aqi":445,"pm10":320.4,"pm2_5":39.9,"mosquito_risk":0,"arthritis_risk":5,"migraine_risk":10,"frizz_risk":0,"updated_at":"2026-04-16T14:53:29.663600+05:30"},{"city":"Ayodhya","state":"Uttar Pradesh","latitude":26.7922,"longitude":82.1998,"temp":39.9,"humidity":16,"rain":0.0,"pressure":992.5,"uv_index":8.0,"wind_gusts":24.1,"aqi":122,"pm10":144.4,"pm2_5":25.6,"mosquito_risk":0,"arthritis_risk":5,"migraine_risk":10,"frizz_risk":0,"updated_at":"2026-04-16T14:53:29.663608+05:30"},{"city":"Ratlam","state":"Madhya Pradesh","latitude":23.3315,"longitude":75.0367,"temp":35.5,"humidity":36,"rain":0.0,"pressure":953.0,"uv_index":8.4,"wind_gusts":29.9,"aqi":66,"pm10":61.5,"pm2_5":20.7,"mosquito_risk":0,"arthritis_risk":5,"migraine_risk":10,"frizz_risk":1,"updated_at":"2026-04-16T14:53:29.663616+05:30"},{"city":"Sagar","state":"Madhya Pradesh","latitude":23.8388,"longitude":78.7378,"temp":39.7,"humidity":16,"rain":0.0,"pressure":948.5,"uv_index":8.55,"wind_gusts":19.1,"aqi":122,"pm10":73.8,"pm2_5":18.7,"mosquito_risk":0,"arthritis_risk":5,"migraine_risk":10,"frizz_risk":0,"updated_at":"2026-04-16T14:53:29.663625+05:30"},{"city":"Satna","state":"Madhya Pradesh","latitude":24.6005,"longitude":80.8322,"temp":40.7,"humidity":11,"rain":0.0,"pressure":969.2,"uv_index":8.6,"wind_gusts":27.0,"aqi":120,"pm10":142.0,"pm2_5":23.1,"mosquito_risk":0,"arthritis_risk":5,"migraine_risk":10,"frizz_risk":0,"updated_at":"2026-04-16T14:53:29.663633+05:30"},{"city":"Akola","state":"Maharashtra","latitude":20.7002,"longitude":77.0082,"temp":41.2,"humidity":19,"rain":0.0,"pressure":971.8,"uv_index":8.8,"wind_gusts":25.6,"aqi":90,"pm10":34.5,"pm2_5":15.9,"mosquito_risk":0,"arthritis_risk":5,"migraine_risk":10,"frizz_risk":0,"updated_at":"2026-04-16T14:53:29.663641+05:30"},{"city":"Amravati","state":"Maharashtra","latitude":20.9374,"longitude":77.7796,"temp":40.5,"humidity":18,"rain":0.0,"pressure":964.4,"uv_index":8.8,"wind_gusts":19.4,"aqi":91,"pm10":32.0,"pm2_5":14.4,"mosquito_risk":0,"arthritis_risk":5,"migraine_risk":10,"frizz_risk":0,"updated_at":"2026-04-16T14:53:29.663651+05:30"},{"city":"Latur","state":"Maharashtra","latitude":18.4088,"longitude":76.5604,"temp":38.5,"humidity":13,"rain":0.0,"pressure":938.3,"uv_index":9.05,"wind_gusts":23.0,"aqi":60,"pm10":33.8,"pm2_5":19.4,"mosquito_risk":0,"arthritis_risk":5,"migraine_risk":10,"frizz_risk":0,"updated_at":"2026-04-16T14:53:29.663659+05:30"},{"city":"Nanded","state":"Maharashtra","latitude":19.1383,"longitude":77.3091,"temp":40.3,"humidity":15,"rain":0.0,"pressure":966.1,"uv_index":8.95,"wind_gusts":17.3,"aqi":63,"pm10":32.5,"pm2_5":17.9,"mosquito_risk":0,"arthritis_risk":5,"migraine_risk":10,"frizz_risk":0,"updated_at":"2026-04-16T14:53:29.663667+05:30"},{"city":"Gulbarga","state":"Karnataka","latitude":17.3297,"longitude":76.8343,"temp":41.6,"humidity":16,"rain":0.0,"pressure":955.5,"uv_index":9.1,"wind_gusts":22.3,"aqi":124,"pm10":34.0,"pm2_5":27.5,"mosquito_risk":0,"arthritis_risk":5,"migraine_risk":10,"frizz_risk":0,"updated_at":"2026-04-16T14:53:29.663675+05:30"},{"city":"Bidar","state":"Karnataka","latitude":17.9104,"longitude":77.5199,"temp":39.5,"humidity":17,"rain":0.0,"pressure":933.4,"uv_index":9.1,"wind_gusts":34.2,"aqi":102,"pm10":37.3,"pm2_5":29.9,"mosquito_risk":0,"arthritis_risk":5,"migraine_risk":10,"frizz_risk":0,"updated_at":"2026-04-16T14:53:29.663684+05:30"},{"city":"Hospet","state":"Karnataka","latitude":15.2689,"longitude":76.3909,"temp":37.7,"humidity":29,"rain":0.0,"pressure":953.6,"uv_index":9.25,"wind_gusts":23.8,"aqi":79,"pm10":29.9,"pm2_5":22.1,"mosquito_risk":0,"arthritis_risk":5,"migraine_risk":10,"frizz_risk":1,"updated_at":"2026-04-16T14:53:29.663692+05:30"},{"city":"Tirupur","state":"Tamil Nadu","latitude":11.1085,"longitude":77.3411,"temp":39.6,"humidity":25,"rain":0.0,"pressure":972.2,"uv_index":9.45,"wind_gusts":34.6,"aqi":77,"pm10":27.7,"pm2_5":21.1,"mosquito_risk":0,"arthritis_risk":5,"migraine_risk":10,"frizz_risk":0,"updated_at":"2026-04-16T14:53:29.663701+05:30"},{"city":"Alappuzha","state":"Kerala","latitude":9.4981,"longitude":76.3388,"temp":29.7,"humidity":81,"rain":0.0,"pressure":1005.8,"uv_index":8.55,"wind_gusts":26.6,"aqi":95,"pm10":44.0,"pm2_5":31.5,"mosquito_risk":7,"arthritis_risk":5,"migraine_risk":4,"frizz_risk":1,"updated_at":"2026-04-16T14:53:29.663709+05:30"},{"city":"Munnar","state":"Kerala","latitude":10.0889,"longitude":77.0595,"temp":31.7,"humidity":38,"rain":0.0,"pressure":857.9,"uv_index":8.95,"wind_gusts":32.4,"aqi":74,"pm10":18.8,"pm2_5":13.5,"mosquito_risk":0,"arthritis_risk":5,"migraine_risk":7,"frizz_risk":0,"updated_at":"2026-04-16T14:53:29.663718+05:30"},{"city":"Silchar","state":"Assam","latitude":24.8333,"longitude":92.7789,"temp":31.6,"humidity":58,"rain":0.0,"pressure":1003.7,"uv_index":8.7,"wind_gusts":24.1,"aqi":117,"pm10":77.8,"pm2_5":44.7,"mosquito_risk":0,"arthritis_risk":5,"migraine_risk":4,"frizz_risk":1,"updated_at":"2026-04-16T14:53:29.663726+05:30"},{"city":"Dibrugarh","state":"Assam","latitude":27.4728,"longitude":94.912,"temp":28.5,"humidity":57,"rain":0.0,"pressure":994.7,"uv_index":8.55,"wind_gusts":10.8,"aqi":146,"pm10":88.7,"pm2_5":44.5,"mosquito_risk":4,"arthritis_risk":5,"migraine_risk":7,"frizz_risk":1,"updated_at":"2026-04-16T14:53:29.663734+05:30"}]