[{"city":"Delhi","state":"Delhi","latitude":28.6139,"longitude":77.209,"temp":21.7,"humidity":65,"rain":0.0,"pressure":986.0,"uv_index":6.0,"wind_gusts":25.2,"aqi":172,"pm10":256.1,"pm2_5":143.4,"mosquito_risk":3,"arthritis_risk":5,"migraine_risk":3,"frizz_risk":0,"updated_at":"2026-03-08T02:55:05.632723+05:30"},{"city":"Mumbai","state":"Maharashtra","latitude":19.076,"longitude":72.8777,"temp":27.1,"humidity":77,"rain":0.0,"pressure":1008.7,"uv_index":7.5,"wind_gusts":24.1,"aqi":98,"pm10":36.6,"pm2_5":33.3,"mosquito_risk":7,"arthritis_risk":0,"migraine_risk":4,"frizz_risk":1,"updated_at":"2026-03-08T02:55:05.632761+05:30"},{"city":"Bangalore","state":"Karnataka","latitude":12.9716,"longitude":77.5946,"temp":21.3,"humidity":68,"rain":0.0,"pressure":911.3,"uv_index":9.25,"wind_gusts":25.9,"aqi":107,"pm10":46.1,"pm2_5":41.1,"mosquito_risk":3,"arthritis_risk":5,"migraine_risk":7,"frizz_risk":0,"updated_at":"2026-03-08T02:55:05.632776+05:30"},{"city":"Hyderabad","state":"Telangana","latitude":17.385,"longitude":78.4867,"temp":22.7,"humidity":58,"rain":0.0,"pressure":953.0,"uv_index":8.55,"wind_gusts":25.9,"aqi":97,"pm10":51.0,"pm2_5":41.8,"mosquito_risk":0,"arthritis_risk":5,"migraine_risk":7,"frizz_risk":0,"updated_at":"2026-03-08T02:55:05.632786+05:30"},{"city":"Chennai","state":"Tamil Nadu","latitude":13.0827,"longitude":80.2707,"temp":25.8,"humidity":83,"rain":0.0,"pressure":1008.3,"uv_index":8.95,"wind_gusts":33.5,"aqi":82,"pm10":26.9,"pm2_5":18.7,"mosquito_risk":7,"arthritis_risk":0,"migraine_risk":4,"frizz_risk":1,"updated_at":"2026-03-08T02:55:05.632795+05:30"},{"city":"Kolkata","state":"West Bengal","latitude":22.5726,"longitude":88.3639,"temp":23.2,"humidity":96,"rain":0.0,"pressure":1009.2,"uv_index":7.65,"wind_gusts":15.1,"aqi":148,"pm10":60.1,"pm2_5":51.6,"mosquito_risk":3,"arthritis_risk":0,"migraine_risk":4,"frizz_risk":1,"updated_at":"2026-03-08T02:55:05.632804+05:30"},{"city":"Pune","state":"Maharashtra","latitude":18.5204,"longitude":73.8567,"temp":22.4,"humidity":49,"rain":0.0,"pressure":948.6,"uv_index":8.1,"wind_gusts":28.4,"aqi":100,"pm10":59.1,"pm2_5":57.9,"mosquito_risk":0,"arthritis_risk":5,"migraine_risk":7,"frizz_risk":0,"updated_at":"2026-03-08T02:55:05.632816+05:30"},{"city":"Ahmedabad","state":"Gujarat","latitude":23.0225,"longitude":72.5714,"temp":22.3,"humidity":55,"rain":0.0,"pressure":1004.1,"uv_index":7.35,"wind_gusts":19.1,"aqi":104,"pm10":55.5,"pm2_5":48.5,"mosquito_risk":0,"arthritis_risk":5,"migraine_risk":4,"frizz_risk":0,"updated_at":"2026-03-08T02:55:05.632825+05:30"},{"city":"Jaipur","state":"Rajasthan","latitude":26.9124,"longitude":75.7873,"temp":24.1,"humidity":45,"rain":0.0,"pressure":962.5,"uv_index":6.8,"wind_gusts":25.6,"aqi":85,"pm10":60.8,"pm2_5":43.5,"mosquito_risk":0,"arthritis_risk":5,"migraine_risk":7,"frizz_risk":0,"updated_at":"2026-03-08T02:55:05.632832+05:30"},{"city":"Lucknow","state":"Uttar Pradesh","latitude":26.8467,"longitude":80.9462,"temp":22.5,"humidity":76,"rain":0.0,"pressure":996.6,"uv_index":6.5,"wind_gusts":19.4,"aqi":173,"pm10":198.4,"pm2_5":170.4,"mosquito_risk":3,"arthritis_risk":5,"migraine_risk":7,"frizz_risk":1,"updated_at":"2026-03-08T02:55:05.632840+05:30"},{"city":"Kanpur","state":"Uttar Pradesh","latitude":26.4499,"longitude":80.3319,"temp":21.1,"humidity":84,"rain":0.0,"pressure":994.7,"uv_index":6.5,"wind_gusts":16.9,"aqi":165,"pm10":164.8,"pm2_5":129.9,"mosquito_risk":3,"arthritis_risk":5,"migraine_risk":7,"frizz_risk":1,"updated_at":"2026-03-08T02:55:05.632846+05:30"},{"city":"Chandigarh","state":"Chandigarh","latitude":30.7333,"longitude":76.7794,"temp":21.0,"humidity":72,"rain":0.0,"pressure":971.8,"uv_index":5.9,"wind_gusts":30.6,"aqi":158,"pm10":81.3,"pm2_5":72.6,"mosquito_risk":3,"arthritis_risk":5,"migraine_risk":3,"frizz_risk":0,"updated_at":"2026-03-08T02:55:05.632854+05:30"},{"city":"Srinagar","state":"Jammu and Kashmir","latitude":34.0837,"longitude":74.7973,"temp":7.5,"humidity":74,"rain":0.0,"pressure":844.4,"uv_index":6.8,"wind_gusts":14.8,"aqi":119,"pm10":82.2,"pm2_5":71.7,"mosquito_risk":3,"arthritis_risk":5,"migraine_risk":7,"frizz_risk":0,"updated_at":"2026-03-08T02:55:05.632861+05:30"},{"city":"Jammu","state":"Jammu and Kashmir","latitude":32.7266,"longitude":74.857,"temp":18.8,"humidity":69,"rain":0.0,"pressure":976.5,"uv_index":6.3,"wind_gusts":29.9,"aqi":138,"pm10":45.2,"pm2_5":41.9,"mosquito_risk":3,"arthritis_risk":5,"migraine_risk":7,"frizz_risk":0,"updated_at":"2026-03-08T02:55:05.632868+05:30"},{"city":"Amritsar","state":"Punjab","latitude":31.634,"longitude":74.8723,"temp":19.9,"humidity":86,"rain":0.0,"pressure":984.3,"uv_index":6.1,"wind_gusts":23.8,"aqi":155,"pm10":148.5,"pm2_5":111.3,"mosquito_risk":3,"arthritis_risk":10,"migraine_risk":7,"frizz_risk":1,"updated_at":"2026-03-08T02:55:05.632875+05:30"},{"city":"Ludhiana","state":"Punjab","latitude":30.901,"longitude":75.8573,"temp":21.4,"humidity":72,"rain":0.0,"pressure":982.1,"uv_index":6.15,"wind_gusts":27.7,"aqi":174,"pm10":173.2,"pm2_5":139.7,"mosquito_risk":3,"arthritis_risk":5,"migraine_risk":7,"frizz_risk":1,"updated_at":"2026-03-08T02:55:05.632882+05:30"},{"city":"Jalandhar","state":"Punjab","latitude":31.326,"longitude":75.5762,"temp":19.9,"humidity":84,"rain":0.0,"pressure":983.3,"uv_index":6.2,"wind_gusts":27.4,"aqi":169,"pm10":178.8,"pm2_5":142.0,"mosquito_risk":3,"arthritis_risk":10,"migraine_risk":7,"frizz_risk":1,"updated_at":"2026-03-08T02:55:05.632891+05:30"},{"city":"Dehradun","state":"Uttarakhand","latitude":30.6284,"longitude":78.0322,"temp":13.4,"humidity":72,"rain":0.0,"pressure":831.4,"uv_index":6.3,"wind_gusts":37.1,"aqi":102,"pm10":40.3,"pm2_5":33.6,"mosquito_risk":3,"arthritis_risk":5,"migraine_risk":7,"frizz_risk":0,"updated_at":"2026-03-08T02:55:05.632898+05:30"},{"city":"Shimla","state":"Himachal Pradesh","latitude":31.1048,"longitude":77.1734,"temp":11.9,"humidity":76,"rain":0.0,"pressure":785.6,"uv_index":6.35,"wind_gusts":52.2,"aqi":129,"pm10":69.2,"pm2_5":57.3,"mosquito_risk":3,"arthritis_risk":5,"migraine_risk":7,"frizz_risk":0,"updated_at":"2026-03-08T02:55:05.632905+05:30"},{"city":"Manali","state":"Himachal Pradesh","latitude":32.2396,"longitude":77.1887,"temp":15.7,"humidity":43,"rain":0.0,"pressure":823.6,"uv_index":7.55,"wind_gusts":27.4,"aqi":52,"pm10":8.3,"pm2_5":5.1,"mosquito_risk":0,"arthritis_risk":5,"migraine_risk":7,"frizz_risk":0,"updated_at":"2026-03-08T02:55:05.632912+05:30"},{"city":"Gurgaon","state":"Haryana","latitude":28.4595,"longitude":77.0266,"temp":20.1,"humidity":67,"rain":0.0,"pressure":984.4,"uv_index":6.1,"wind_gusts":22.7,"aqi":178,"pm10":210.0,"pm2_5":118.7,"mosquito_risk":3,"arthritis_risk":5,"migraine_risk":7,"frizz_risk":0,"updated_at":"2026-03-08T02:55:05.632919+05:30"},{"city":"Noida","state":"Uttar Pradesh","latitude":28.5355,"longitude":77.391,"temp":20.6,"humidity":75,"rain":0.0,"pressure":987.5,"uv_index":6.0,"wind_gusts":24.8,"aqi":178,"pm10":210.0,"pm2_5":118.7,"mosquito_risk":3,"arthritis_risk":5,"migraine_risk":3,"frizz_risk":0,"updated_at":"2026-03-08T02:55:05.632925+05:30"},{"city":"Ghaziabad","state":"Uttar Pradesh","latitude":28.6692,"longitude":77.4538,"temp":20.2,"humidity":79,"rain":0.0,"pressure":985.7,"uv_index":6.0,"wind_gusts":24.1,"aqi":174,"pm10":281.3,"pm2_5":158.3,"mosquito_risk":3,"arthritis_risk":5,"migraine_risk":3,"frizz_risk":1,"updated_at":"2026-03-08T02:55:05.632931+05:30"},{"city":"Faridabad","state":"Haryana","latitude":28.4089,"longitude":77.3178,"temp":19.3,"humidity":71,"rain":0.0,"pressure":986.8,"uv_index":6.05,"wind_gusts":22.0,"aqi":178,"pm10":210.0,"pm2_5":118.7,"mosquito_risk":3,"arthritis_risk":5,"migraine_risk":7,"frizz_risk":0,"updated_at":"2026-03-08T02:55:05.632938+05:30"},{"city":"Meerut","state":"Uttar Pradesh","latitude":28.9845,"longitude":77.7064,"temp":20.4,"humidity":81,"rain":0.0,"pressure":984.4,"uv_index":5.85,"wind_gusts":28.4,"aqi":174,"pm10":281.3,"pm2_5":158.3,"mosquito_risk":3,"arthritis_risk":5,"migraine_risk":3,"frizz_risk":1,"updated_at":"2026-03-08T02:55:05.632944+05:30"},{"city":"Agra","state":"Uttar Pradesh","latitude":27.1767,"longitude":78.0081,"temp":19.7,"humidity":82,"rain":0.0,"pressure":990.8,"uv_index":6.35,"wind_gusts":19.4,"aqi":164,"pm10":195.1,"pm2_5":79.2,"mosquito_risk":3,"arthritis_risk":10,"migraine_risk":7,"frizz_risk":1,"updated_at":"2026-03-08T02:55:05.632951+05:30"},{"city":"Varanasi","state":"Uttar Pradesh","latitude":25.3176,"longitude":82.9739,"temp":22.0,"humidity":82,"rain":0.0,"pressure":1000.5,"uv_index":7.2,"wind_gusts":13.0,"aqi":175,"pm10":136.0,"pm2_5":124.3,"mosquito_risk":3,"arthritis_risk":5,"migraine_risk":4,"frizz_risk":1,"updated_at":"2026-03-08T02:55:05.632962+05:30"},{"city":"Prayagraj","state":"Uttar Pradesh","latitude":25.4358,"longitude":81.8463,"temp":21.3,"humidity":85,"rain":0.0,"pressure":998.9,"uv_index":7.05,"wind_gusts":12.6,"aqi":172,"pm10":130.4,"pm2_5":120.6,"mosquito_risk":3,"arthritis_risk":5,"migraine_risk":7,"frizz_risk":1,"updated_at":"2026-03-08T02:55:05.632970+05:30"},{"city":"Gorakhpur","state":"Uttar Pradesh","latitude":26.7606,"longitude":83.3732,"temp":21.0,"humidity":85,"rain":0.0,"pressure":1000.2,"uv_index":6.9,"wind_gusts":17.3,"aqi":173,"pm10":122.9,"pm2_5":115.3,"mosquito_risk":3,"arthritis_risk":5,"migraine_risk":4,"frizz_risk":1,"updated_at":"2026-03-08T02:55:05.632978+05:30"},{"city":"Bareilly","state":"Uttar Pradesh","latitude":28.367,"longitude":79.4304,"temp":21.0,"humidity":86,"rain":0.0,"pressure":989.8,"uv_index":6.2,"wind_gusts":20.2,"aqi":165,"pm10":110.1,"pm2_5":96.4,"mosquito_risk":3,"arthritis_risk":5,"migraine_risk":7,"frizz_risk":1,"updated_at":"2026-03-08T02:55:05.632985+05:30"},{"city":"Aligarh","state":"Uttar Pradesh","latitude":27.8974,"longitude":78.088,"temp":19.7,"humidity":87,"rain":0.0,"pressure":988.7,"uv_index":6.15,"wind_gusts":22.3,"aqi":171,"pm10":199.3,"pm2_5":102.9,"mosquito_risk":3,"arthritis_risk":10,"migraine_risk":7,"frizz_risk":1,"updated_at":"2026-03-08T02:55:05.632991+05:30"},{"city":"Moradabad","state":"Uttar Pradesh","latitude":28.8386,"longitude":78.7733,"temp":20.7,"humidity":85,"rain":0.0,"pressure":986.6,"uv_index":6.05,"wind_gusts":23.8,"aqi":172,"pm10":149.0,"pm2_5":130.4,"mosquito_risk":3,"arthritis_risk":5,"migraine_risk":7,"frizz_risk":1,"updated_at":"2026-03-08T02:55:05.632997+05:30"},{"city":"Saharanpur","state":"Uttar Pradesh","latitude":29.9637,"longitude":77.546,"temp":19.1,"humidity":90,"rain":0.0,"pressure":978.7,"uv_index":5.65,"wind_gusts":35.3,"aqi":168,"pm10":139.2,"pm2_5":119.7,"mosquito_risk":3,"arthritis_risk":10,"migraine_risk":3,"frizz_risk":1,"updated_at":"2026-03-08T02:55:05.633004+05:30"},{"city":"Jhansi","state":"Uttar Pradesh","latitude":25.4484,"longitude":78.5685,"temp":20.8,"humidity":60,"rain":0.0,"pressure":980.5,"uv_index":6.95,"wind_gusts":24.8,"aqi":110,"pm10":107.8,"pm2_5":46.2,"mosquito_risk":0,"arthritis_risk":5,"migraine_risk":7,"frizz_risk":0,"updated_at":"2026-03-08T02:55:08.918767+05:30"},{"city":"Surat","state":"Gujarat","latitude":21.1702,"longitude":72.8311,"temp":24.5,"humidity":69,"rain":0.0,"pressure":1007.8,"uv_index":7.2,"wind_gusts":23.8,"aqi":155,"pm10":67.5,"pm2_5":65.7,"mosquito_risk":3,"arthritis_risk":5,"migraine_risk":4,"frizz_risk":1,"updated_at":"2026-03-08T02:55:08.918799+05:30"},{"city":"Vadodara","state":"Gujarat","latitude":22.3072,"longitude":73.1812,"temp":23.2,"humidity":61,"rain":0.0,"pressure":1005.7,"uv_index":7.35,"wind_gusts":17.6,"aqi":151,"pm10":53.0,"pm2_5":50.3,"mosquito_risk":3,"arthritis_risk":5,"migraine_risk":4,"frizz_risk":0,"updated_at":"2026-03-08T02:55:08.918811+05:30"},{"city":"Rajkot","state":"Gujarat","latitude":22.3039,"longitude":70.8022,"temp":22.3,"humidity":60,"rain":0.0,"pressure":996.6,"uv_index":7.2,"wind_gusts":22.3,"aqi":76,"pm10":64.3,"pm2_5":26.4,"mosquito_risk":0,"arthritis_risk":5,"migraine_risk":7,"frizz_risk":0,"updated_at":"2026-03-08T02:55:08.918818+05:30"},{"city":"Thane","state":"Maharashtra","latitude":19.2183,"longitude":72.9781,"temp":24.4,"humidity":80,"rain":0.0,"pressure":1008.2,"uv_index":7.5,"wind_gusts":32.0,"aqi":98,"pm10":36.6,"pm2_5":33.3,"mosquito_risk":3,"arthritis_risk":0,"migraine_risk":4,"frizz_risk":1,"updated_at":"2026-03-08T02:55:08.918825+05:30"},{"city":"Nagpur","state":"Maharashtra","latitude":21.1458,"longitude":79.0882,"temp":22.5,"humidity":54,"rain":0.0,"pressure":974.1,"uv_index":7.9,"wind_gusts":24.1,"aqi":67,"pm10":31.4,"pm2_5":19.9,"mosquito_risk":0,"arthritis_risk":5,"migraine_risk":7,"frizz_risk":0,"updated_at":"2026-03-08T02:55:08.918833+05:30"},{"city":"Nashik","state":"Maharashtra","latitude":19.9975,"longitude":73.7898,"temp":23.6,"humidity":58,"rain":0.0,"pressure":946.3,"uv_index":7.7,"wind_gusts":27.7,"aqi":98,"pm10":38.6,"pm2_5":37.7,"mosquito_risk":0,"arthritis_risk":5,"migraine_risk":7,"frizz_risk":0,"updated_at":"2026-03-08T02:55:08.918839+05:30"},{"city":"Aurangabad","state":"Maharashtra","latitude":19.8762,"longitude":75.3433,"temp":23.2,"humidity":52,"rain":0.0,"pressure":944.3,"uv_index":8.2,"wind_gusts":29.2,"aqi":83,"pm10":43.5,"pm2_5":41.6,"mosquito_risk":0,"arthritis_risk":5,"migraine_risk":7,"frizz_risk":0,"updated_at":"2026-03-08T02:55:08.918845+05:30"},{"city":"Solapur","state":"Maharashtra","latitude":17.6599,"longitude":75.9064,"temp":23.7,"humidity":58,"rain":0.0,"pressure":956.4,"uv_index":8.45,"wind_gusts":18.4,"aqi":68,"pm10":27.0,"pm2_5":23.2,"mosquito_risk":0,"arthritis_risk":5,"migraine_risk":7,"frizz_risk":0,"updated_at":"2026-03-08T02:55:08.918853+05:30"},{"city":"Kolhapur","state":"Maharashtra","latitude":16.705,"longitude":74.2433,"temp":19.0,"humidity":61,"rain":0.0,"pressure":947.2,"uv_index":8.6,"wind_gusts":28.1,"aqi":143,"pm10":67.5,"pm2_5":66.6,"mosquito_risk":3,"arthritis_risk":5,"migraine_risk":7,"frizz_risk":0,"updated_at":"2026-03-08T02:55:08.918860+05:30"},{"city":"Goa","state":"Goa","latitude":15.2993,"longitude":74.124,"temp":24.8,"humidity":92,"rain":0.0,"pressure":997.6,"uv_index":8.65,"wind_gusts":35.6,"aqi":145,"pm10":61.9,"pm2_5":59.8,"mosquito_risk":3,"arthritis_risk":5,"migraine_risk":7,"frizz_risk":1,"updated_at":"2026-03-08T02:55:08.918866+05:30"},{"city":"Jodhpur","state":"Rajasthan","latitude":26.2389,"longitude":73.0243,"temp":24.7,"humidity":39,"rain":0.0,"pressure":985.8,"uv_index":7.05,"wind_gusts":18.4,"aqi":63,"pm10":109.2,"pm2_5":23.3,"mosquito_risk":0,"arthritis_risk":5,"migraine_risk":7,"frizz_risk":0,"updated_at":"2026-03-08T02:55:08.918873+05:30"},{"city":"Udaipur","state":"Rajasthan","latitude":24.5854,"longitude":73.7125,"temp":19.0,"humidity":52,"rain":0.0,"pressure":948.9,"uv_index":7.7,"wind_gusts":21.2,"aqi":46,"pm10":14.9,"pm2_5":12.9,"mosquito_risk":0,"arthritis_risk":5,"migraine_risk":7,"frizz_risk":0,"updated_at":"2026-03-08T02:55:08.918879+05:30"},{"city":"Kota","state":"Rajasthan","latitude":25.2138,"longitude":75.8648,"temp":19.1,"humidity":65,"rain":0.0,"pressure":980.8,"uv_index":7.05,"wind_gusts":13.0,"aqi":91,"pm10":47.5,"pm2_5":44.5,"mosquito_risk":3,"arthritis_risk":5,"migraine_risk":7,"frizz_risk":0,"updated_at":"2026-03-08T02:55:08.918886+05:30"},{"city":"Bikaner","state":"Rajasthan","latitude":28.0229,"longitude":73.3119,"temp":23.9,"humidity":52,"rain":0.0,"pressure":984.7,"uv_index":6.8,"wind_gusts":15.8,"aqi":55,"pm10":31.1,"pm2_5":11.4,"mosquito_risk":0,"arthritis_risk":5,"migraine_risk":7,"frizz_risk":0,"updated_at":"2026-03-08T02:55:08.918893+05:30"},{"city":"Ajmer","state":"Rajasthan","latitude":26.4499,"longitude":74.6399,"temp":22.0,"humidity":35,"rain":0.0,"pressure":957.0,"uv_index":7.05,"wind_gusts":18.0,"aqi":69,"pm10":37.0,"pm2_5":35.6,"mosquito_risk":0,"arthritis_risk":5,"migraine_risk":7,"frizz_risk":0,"updated_at":"2026-03-08T02:55:08.918899+05:30"},{"city":"Gwalior","state":"Madhya Pradesh","latitude":26.2183,"longitude":78.1828,"temp":21.1,"humidity":67,"rain":0.0,"pressure":986.0,"uv_index":6.65,"wind_gusts":22.7,"aqi":113,"pm10":150.9,"pm2_5":46.6,"mosquito_risk":3,"arthritis_risk":5,"migraine_risk":7,"frizz_risk":0,"updated_at":"2026-03-08T02:55:08.918906+05:30"},{"city":"Indore","state":"Madhya Pradesh","latitude":22.7196,"longitude":75.8577,"temp":19.1,"humidity":62,"rain":0.0,"pressure":949.0,"uv_index":7.65,"wind_gusts":22.3,"aqi":83,"pm10":34.2,"pm2_5":30.4,"mosquito_risk":3,"arthritis_risk":5,"migraine_risk":7,"frizz_risk":0,"updated_at":"2026-03-08T02:55:08.918913+05:30"},{"city":"Bhopal","state":"Madhya Pradesh","latitude":23.2599,"longitude":77.4126,"temp":21.6,"humidity":50,"rain":0.0,"pressure":954.9,"uv_index":7.5,"wind_gusts":22.0,"aqi":67,"pm10":47.6,"pm2_5":26.8,"mosquito_risk":0,"arthritis_risk":5,"migraine_risk":7,"frizz_risk":0,"updated_at":"2026-03-08T02:55:08.918919+05:30"},{"city":"Jabalpur","state":"Madhya Pradesh","latitude":23.1815,"longitude":79.9864,"temp":20.9,"humidity":72,"rain":0.0,"pressure":963.2,"uv_index":7.6,"wind_gusts":24.8,"aqi":94,"pm10":65.0,"pm2_5":46.9,"mosquito_risk":3,"arthritis_risk":5,"migraine_risk":7,"frizz_risk":0,"updated_at":"2026-03-08T02:55:08.918926+05:30"},{"city":"Ujjain","state":"Madhya Pradesh","latitude":23.1765,"longitude":75.7885,"temp":20.9,"humidity":55,"rain":0.0,"pressure":955.3,"uv_index":7.55,"wind_gusts":19.8,"aqi":90,"pm10":49.5,"pm2_5":47.1,"mosquito_risk":0,"arthritis_risk":5,"migraine_risk":7,"frizz_risk":0,"updated_at":"2026-03-08T02:55:08.918933+05:30"},{"city":"Visakhapatnam","state":"Andhra Pradesh","latitude":17.6868,"longitude":83.2185,"temp":25.6,"humidity":86,"rain":0.0,"pressure":1005.5,"uv_index":8.5,"wind_gusts":38.5,"aqi":124,"pm10":39.3,"pm2_5":32.8,"mosquito_risk":7,"arthritis_risk":5,"migraine_risk":4,"frizz_risk":1,"updated_at":"2026-03-08T02:55:08.918940+05:30"},{"city":"Vijayawada","state":"Andhra Pradesh","latitude":16.5062,"longitude":80.648,"temp":24.8,"humidity":91,"rain":0.0,"pressure":1003.8,"uv_index":8.6,"wind_gusts":33.5,"aqi":128,"pm10":32.0,"pm2_5":27.6,"mosquito_risk":3,"arthritis_risk":5,"migraine_risk":4,"frizz_risk":1,"updated_at":"2026-03-08T02:55:08.918947+05:30"},{"city":"Guntur","state":"Andhra Pradesh","latitude":16.3067,"longitude":80.4365,"temp":24.7,"humidity":91,"rain":0.0,"pressure":1004.8,"uv_index":8.6,"wind_gusts":28.8,"aqi":129,"pm10":29.5,"pm2_5":25.7,"mosquito_risk":3,"arthritis_risk":5,"migraine_risk":4,"frizz_risk":1,"updated_at":"2026-03-08T02:55:08.918954+05:30"},{"city":"Nellore","state":"Andhra Pradesh","latitude":14.4426,"longitude":79.9865,"temp":24.7,"humidity":89,"rain":0.0,"pressure":1006.8,"uv_index":8.8,"wind_gusts":32.0,"aqi":103,"pm10":22.6,"pm2_5":18.7,"mosquito_risk":3,"arthritis_risk":5,"migraine_risk":4,"frizz_risk":1,"updated_at":"2026-03-08T02:55:08.918961+05:30"},{"city":"Kurnool","state":"Andhra Pradesh","latitude":15.8281,"longitude":78.0373,"temp":25.4,"humidity":60,"rain":0.0,"pressure":976.7,"uv_index":8.6,"wind_gusts":28.8,"aqi":73,"pm10":41.8,"pm2_5":35.7,"mosquito_risk":4,"arthritis_risk":5,"migraine_risk":7,"frizz_risk":1,"updated_at":"2026-03-08T02:55:08.918968+05:30"},{"city":"Kakinada","state":"Andhra Pradesh","latitude":16.9891,"longitude":82.2475,"temp":25.3,"humidity":86,"rain":0.0,"pressure":1009.1,"uv_index":8.55,"wind_gusts":33.1,"aqi":96,"pm10":35.6,"pm2_5":26.8,"mosquito_risk":7,"arthritis_risk":0,"migraine_risk":4,"frizz_risk":1,"updated_at":"2026-03-08T02:55:08.918975+05:30"},{"city":"Tirupati","state":"Andhra Pradesh","latitude":13.6288,"longitude":79.4192,"temp":22.7,"humidity":91,"rain":0.0,"pressure":992.8,"uv_index":8.95,"wind_gusts":28.1,"aqi":133,"pm10":37.0,"pm2_5":33.9,"mosquito_risk":3,"arthritis_risk":5,"migraine_risk":7,"frizz_risk":1,"updated_at":"2026-03-08T02:55:08.918981+05:30"},{"city":"Warangal","state":"Telangana","latitude":17.9689,"longitude":79.5941,"temp":22.9,"humidity":89,"rain":0.0,"pressure":979.1,"uv_index":8.35,"wind_gusts":27.4,"aqi":96,"pm10":44.7,"pm2_5":41.3,"mosquito_risk":3,"arthritis_risk":5,"migraine_risk":7,"frizz_risk":1,"updated_at":"2026-03-08T02:55:08.918988+05:30"},{"city":"Nizamabad","state":"Telangana","latitude":18.6725,"longitude":78.0941,"temp":21.1,"humidity":60,"rain":0.0,"pressure":964.4,"uv_index":8.25,"wind_gusts":29.5,"aqi":102,"pm10":46.2,"pm2_5":33.5,"mosquito_risk":0,"arthritis_risk":5,"migraine_risk":7,"frizz_risk":0,"updated_at":"2026-03-08T02:55:08.918994+05:30"},{"city":"Mysore","state":"Karnataka","latitude":12.2958,"longitude":76.6396,"temp":21.9,"humidity":93,"rain":0.0,"pressure":928.1,"uv_index":9.25,"wind_gusts":32.8,"aqi":113,"pm10":53.4,"pm2_5":51.5,"mosquito_risk":3,"arthritis_risk":5,"migraine_risk":7,"frizz_risk":1,"updated_at":"2026-03-08T02:55:08.919001+05:30"},{"city":"Mangalore","state":"Karnataka","latitude":12.9141,"longitude":74.856,"temp":28.2,"humidity":81,"rain":0.0,"pressure":1006.3,"uv_index":8.85,"wind_gusts":24.8,"aqi":145,"pm10":51.1,"pm2_5":46.2,"mosquito_risk":7,"arthritis_risk":5,"migraine_risk":4,"frizz_risk":1,"updated_at":"2026-03-08T02:55:08.919007+05:30"},{"city":"Hubli-Dharwad","state":"Karnataka","latitude":15.3647,"longitude":75.124,"temp":20.6,"humidity":94,"rain":0.0,"pressure":939.9,"uv_index":8.8,"wind_gusts":28.1,"aqi":121,"pm10":47.1,"pm2_5":46.0,"mosquito_risk":3,"arthritis_risk":5,"migraine_risk":7,"frizz_risk":1,"updated_at":"2026-03-08T02:55:08.919014+05:30"},{"city":"Belgaum","state":"Karnataka","latitude":15.8497,"longitude":74.4977,"temp":20.7,"humidity":80,"rain":0.0,"pressure":924.8,"uv_index":8.85,"wind_gusts":38.9,"aqi":113,"pm10":64.5,"pm2_5":62.9,"mosquito_risk":3,"arthritis_risk":5,"migraine_risk":7,"frizz_risk":1,"updated_at":"2026-03-08T02:55:12.201159+05:30"},{"city":"Coimbatore","state":"Tamil Nadu","latitude":11.0168,"longitude":76.9558,"temp":23.0,"humidity":89,"rain":0.0,"pressure":961.7,"uv_index":9.2,"wind_gusts":34.2,"aqi":98,"pm10":39.8,"pm2_5":39.0,"mosquito_risk":3,"arthritis_risk":5,"migraine_risk":7,"frizz_risk":1,"updated_at":"2026-03-08T02:55:12.201187+05:30"},{"city":"Madurai","state":"Tamil Nadu","latitude":9.9252,"longitude":78.1198,"temp":24.3,"humidity":96,"rain":0.0,"pressure":993.4,"uv_index":9.15,"wind_gusts":32.4,"aqi":96,"pm10":43.3,"pm2_5":39.7,"mosquito_risk":3,"arthritis_risk":5,"migraine_risk":7,"frizz_risk":1,"updated_at":"2026-03-08T02:55:12.201197+05:30"},{"city":"Trichy","state":"Tamil Nadu","latitude":10.7905,"longitude":78.7047,"temp":24.6,"humidity":95,"rain":0.0,"pressure":1000.6,"uv_index":9.05,"wind_gusts":26.6,"aqi":92,"pm10":39.2,"pm2_5":35.2,"mosquito_risk":3,"arthritis_risk":5,"migraine_risk":4,"frizz_risk":1,"updated_at":"2026-03-08T02:55:12.201204+05:30"},{"city":"Salem","state":"Tamil Nadu","latitude":11.6643,"longitude":78.146,"temp":25.0,"humidity":82,"rain":0.0,"pressure":978.0,"uv_index":9.1,"wind_gusts":18.7,"aqi":101,"pm10":41.3,"pm2_5":37.7,"mosquito_risk":7,"arthritis_risk":5,"migraine_risk":7,"frizz_risk":1,"updated_at":"2026-03-08T02:55:12.201212+05:30"},{"city":"Tirunelveli","state":"Tamil Nadu","latitude":8.7139,"longitude":77.7567,"temp":24.2,"humidity":84,"rain":0.0,"pressure":1003.1,"uv_index":9.15,"wind_gusts":45.7,"aqi":99,"pm10":46.2,"pm2_5":44.7,"mosquito_risk":3,"arthritis_risk":5,"migraine_risk":4,"frizz_risk":1,"updated_at":"2026-03-08T02:55:12.201219+05:30"},{"city":"Vellore","state":"Tamil Nadu","latitude":12.9165,"longitude":79.1325,"temp":22.1,"humidity":95,"rain":0.0,"pressure":985.6,"uv_index":9.05,"wind_gusts":38.5,"aqi":138,"pm10":54.8,"pm2_5":51.2,"mosquito_risk":3,"arthritis_risk":5,"migraine_risk":7,"frizz_risk":1,"updated_at":"2026-03-08T02:55:12.201225+05:30"},{"city":"Erode","state":"Tamil Nadu","latitude":11.341,"longitude":77.7172,"temp":26.1,"humidity":80,"rain":0.0,"pressure":989.5,"uv_index":9.1,"wind_gusts":20.2,"aqi":106,"pm10":32.8,"pm2_5":30.5,"mosquito_risk":7,"arthritis_risk":5,"migraine_risk":7,"frizz_risk":1,"updated_at":"2026-03-08T02:55:12.201232+05:30"},{"city":"Kochi","state":"Kerala","latitude":9.9312,"longitude":76.2673,"temp":27.0,"humidity":86,"rain":0.0,"pressure":1008.5,"uv_index":8.9,"wind_gusts":36.0,"aqi":112,"pm10":33.8,"pm2_5":33.5,"mosquito_risk":7,"arthritis_risk":0,"migraine_risk":4,"frizz_risk":1,"updated_at":"2026-03-08T02:55:12.201239+05:30"},{"city":"Thiruvananthapuram","state":"Kerala","latitude":8.5241,"longitude":76.9366,"temp":27.2,"humidity":85,"rain":0.0,"pressure":1007.6,"uv_index":9.05,"wind_gusts":30.2,"aqi":96,"pm10":29.5,"pm2_5":27.8,"mosquito_risk":7,"arthritis_risk":5,"migraine_risk":4,"frizz_risk":1,"updated_at":"2026-03-08T02:55:12.201245+05:30"},{"city":"Kozhikode","state":"Kerala","latitude":11.2588,"longitude":75.7804,"temp":28.0,"humidity":84,"rain":0.0,"pressure":1007.5,"uv_index":8.9,"wind_gusts":30.6,"aqi":123,"pm10":42.5,"pm2_5":39.1,"mosquito_risk":7,"arthritis_risk":5,"migraine_risk":4,"frizz_risk":1,"updated_at":"2026-03-08T02:55:12.201252+05:30"},{"city":"Thrissur","state":"Kerala","latitude":10.5276,"longitude":76.2144,"temp":25.4,"humidity":94,"rain":0.0,"pressure":1007.1,"uv_index":9.0,"wind_gusts":38.9,"aqi":112,"pm10":34.0,"pm2_5":33.4,"mosquito_risk":7,"arthritis_risk":5,"migraine_risk":4,"frizz_risk":1,"updated_at":"2026-03-08T02:55:12.201259+05:30"},{"city":"Kannur","state":"Kerala","latitude":11.8745,"longitude":75.3704,"temp":27.2,"humidity":85,"rain":0.0,"pressure":1006.7,"uv_index":8.9,"wind_gusts":29.9,"aqi":141,"pm10":54.4,"pm2_5":51.6,"mosquito_risk":7,"arthritis_risk":5,"migraine_risk":4,"frizz_risk":1,"updated_at":"2026-03-08T02:55:12.201265+05:30"},{"city":"Patna","state":"Bihar","latitude":25.5941,"longitude":85.1376,"temp":23.4,"humidity":79,"rain":0.0,"pressure":1003.5,"uv_index":7.35,"wind_gusts":12.2,"aqi":163,"pm10":112.9,"pm2_5":104.3,"mosquito_risk":3,"arthritis_risk":5,"migraine_risk":4,"frizz_risk":1,"updated_at":"2026-03-08T02:55:12.201271+05:30"},{"city":"Gaya","state":"Bihar","latitude":24.7914,"longitude":85.0002,"temp":23.4,"humidity":78,"rain":0.0,"pressure":996.4,"uv_index":7.45,"wind_gusts":19.8,"aqi":155,"pm10":73.6,"pm2_5":66.8,"mosquito_risk":3,"arthritis_risk":5,"migraine_risk":7,"frizz_risk":1,"updated_at":"2026-03-08T02:55:12.201277+05:30"},{"city":"Muzaffarpur","state":"Bihar","latitude":26.1209,"longitude":85.3647,"temp":22.6,"humidity":81,"rain":0.0,"pressure":1003.6,"uv_index":7.3,"wind_gusts":14.4,"aqi":170,"pm10":130.9,"pm2_5":122.5,"mosquito_risk":3,"arthritis_risk":5,"migraine_risk":4,"frizz_risk":1,"updated_at":"2026-03-08T02:55:12.201284+05:30"},{"city":"Bhagalpur","state":"Bihar","latitude":25.2425,"longitude":87.0117,"temp":22.9,"humidity":76,"rain":0.0,"pressure":1004.2,"uv_index":7.4,"wind_gusts":15.8,"aqi":161,"pm10":82.9,"pm2_5":71.9,"mosquito_risk":3,"arthritis_risk":5,"migraine_risk":4,"frizz_risk":1,"updated_at":"2026-03-08T02:55:12.201289+05:30"},{"city":"Ranchi","state":"Jharkhand","latitude":23.3441,"longitude":85.3096,"temp":20.9,"humidity":83,"rain":0.0,"pressure":939.8,"uv_index":8.1,"wind_gusts":20.5,"aqi":154,"pm10":87.1,"pm2_5":70.5,"mosquito_risk":3,"arthritis_risk":5,"migraine_risk":7,"frizz_risk":1,"updated_at":"2026-03-08T02:55:12.201295+05:30"},{"city":"Jamshedpur","state":"Jharkhand","latitude":22.8046,"longitude":86.2029,"temp":23.8,"humidity":93,"rain":0.0,"pressure":993.8,"uv_index":8.0,"wind_gusts":29.2,"aqi":152,"pm10":64.7,"pm2_5":58.1,"mosquito_risk":3,"arthritis_risk":5,"migraine_risk":7,"frizz_risk":1,"updated_at":"2026-03-08T02:55:12.201301+05:30"},{"city":"Dhanbad","state":"Jharkhand","latitude":23.7957,"longitude":86.4304,"temp":24.5,"humidity":75,"rain":0.0,"pressure":982.9,"uv_index":7.5,"wind_gusts":19.8,"aqi":164,"pm10":85.4,"pm2_5":78.0,"mosquito_risk":3,"arthritis_risk":5,"migraine_risk":7,"frizz_risk":1,"updated_at":"2026-03-08T02:55:12.201308+05:30"},{"city":"Bokaro","state":"Jharkhand","latitude":23.6693,"longitude":86.1511,"temp":23.2,"humidity":82,"rain":0.0,"pressure":986.9,"uv_index":7.85,"wind_gusts":27.0,"aqi":168,"pm10":105.7,"pm2_5":95.5,"mosquito_risk":3,"arthritis_risk":5,"migraine_risk":7,"frizz_risk":1,"updated_at":"2026-03-08T02:55:12.201314+05:30"},{"city":"Bhubaneswar","state":"Odisha","latitude":20.2961,"longitude":85.8245,"temp":25.6,"humidity":88,"rain":0.0,"pressure":1005.1,"uv_index":8.25,"wind_gusts":33.5,"aqi":136,"pm10":46.1,"pm2_5":41.1,"mosquito_risk":7,"arthritis_risk":5,"migraine_risk":4,"frizz_risk":1,"updated_at":"2026-03-08T02:55:12.201321+05:30"},{"city":"Cuttack","state":"Odisha","latitude":20.4625,"longitude":85.8828,"temp":25.6,"humidity":88,"rain":0.0,"pressure":1007.1,"uv_index":8.3,"wind_gusts":30.6,"aqi":136,"pm10":46.1,"pm2_5":41.1,"mosquito_risk":7,"arthritis_risk":5,"migraine_risk":4,"frizz_risk":1,"updated_at":"2026-03-08T02:55:12.201327+05:30"},{"city":"Rourkela","state":"Odisha","latitude":22.2604,"longitude":84.8536,"temp":25.0,"humidity":82,"rain":0.0,"pressure":987.3,"uv_index":7.9,"wind_gusts":33.1,"aqi":160,"pm10":68.7,"pm2_5":60.5,"mosquito_risk":7,"arthritis_risk":5,"migraine_risk":7,"frizz_risk":1,"updated_at":"2026-03-08T02:55:12.201334+05:30"},{"city":"Raipur","state":"Chhattisgarh","latitude":21.2514,"longitude":81.6296,"temp":24.2,"humidity":59,"rain":0.0,"pressure":975.7,"uv_index":8.0,"wind_gusts":21.2,"aqi":153,"pm10":88.9,"pm2_5":67.8,"mosquito_risk":0,"arthritis_risk":5,"migraine_risk":7,"frizz_risk":0,"updated_at":"2026-03-08T02:55:12.201357+05:30"},{"city":"Bhilai","state":"Chhattisgarh","latitude":21.1938,"longitude":81.3509,"temp":22.6,"humidity":64,"rain":0.0,"pressure":975.9,"uv_index":8.0,"wind_gusts":20.5,"aqi":147,"pm10":76.8,"pm2_5":57.0,"mosquito_risk":3,"arthritis_risk":5,"migraine_risk":7,"frizz_risk":0,"updated_at":"2026-03-08T02:55:12.201364+05:30"},{"city":"Guwahati","state":"Assam","latitude":26.1158,"longitude":91.7086,"temp":22.0,"humidity":82,"rain":0.0,"pressure":1004.5,"uv_index":7.35,"wind_gusts":23.8,"aqi":150,"pm10":56.5,"pm2_5":50.6,"mosquito_risk":3,"arthritis_risk":5,"migraine_risk":4,"frizz_risk":1,"updated_at":"2026-03-08T02:55:12.201371+05:30"},{"city":"Agartala","state":"Tripura","latitude":23.8315,"longitude":91.2868,"temp":20.7,"humidity":95,"rain":0.0,"pressure":1010.1,"uv_index":7.65,"wind_gusts":25.2,"aqi":152,"pm10":55.6,"pm2_5":52.0,"mosquito_risk":3,"arthritis_risk":0,"migraine_risk":4,"frizz_risk":1,"updated_at":"2026-03-08T02:55:12.201378+05:30"},{"city":"Shillong","state":"Meghalaya","latitude":25.5788,"longitude":91.8933,"temp":11.3,"humidity":73,"rain":0.0,"pressure":856.6,"uv_index":7.7,"wind_gusts":36.7,"aqi":105,"pm10":45.8,"pm2_5":40.2,"mosquito_risk":3,"arthritis_risk":5,"migraine_risk":7,"frizz_risk":0,"updated_at":"2026-03-08T02:55:12.201384+05:30"},{"city":"Imphal","state":"Manipur","latitude":24.817,"longitude":93.9368,"temp":17.3,"humidity":85,"rain":0.0,"pressure":926.3,"uv_index":7.9,"wind_gusts":43.6,"aqi":160,"pm10":109.7,"pm2_5":106.2,"mosquito_risk":3,"arthritis_risk":10,"migraine_risk":7,"frizz_risk":0,"updated_at":"2026-03-08T02:55:12.201391+05:30"},{"city":"Aizawl","state":"Mizoram","latitude":23.7271,"longitude":92.7176,"temp":16.7,"humidity":79,"rain":0.0,"pressure":894.7,"uv_index":7.85,"wind_gusts":29.9,"aqi":182,"pm10":147.1,"pm2_5":139.7,"mosquito_risk":3,"arthritis_risk":5,"migraine_risk":7,"frizz_risk":0,"updated_at":"2026-03-08T02:55:12.201397+05:30"},{"city":"Kohima","state":"Nagaland","latitude":25.6701,"longitude":94.1077,"temp":14.8,"humidity":84,"rain":0.0,"pressure":857.1,"uv_index":7.75,"wind_gusts":42.5,"aqi":155,"pm10":91.7,"pm2_5":87.8,"mosquito_risk":3,"arthritis_risk":10,"migraine_risk":7,"frizz_risk":0,"updated_at":"2026-03-08T02:55:12.201404+05:30"},{"city":"Gangtok","state":"Sikkim","latitude":27.3314,"longitude":88.6138,"temp":13.7,"humidity":80,"rain":0.0,"pressure":839.0,"uv_index":5.15,"wind_gusts":18.4,"aqi":153,"pm10":69.6,"pm2_5":62.4,"mosquito_risk":3,"arthritis_risk":5,"migraine_risk":3,"frizz_risk":0,"updated_at":"2026-03-08T02:55:12.201410+05:30"},{"city":"Siliguri","state":"West Bengal","latitude":26.7271,"longitude":88.3953,"temp":21.6,"humidity":54,"rain":0.0,"pressure":997.2,"uv_index":7.3,"wind_gusts":20.9,"aqi":152,"pm10":81.0,"pm2_5":70.8,"mosquito_risk":0,"arthritis_risk":5,"migraine_risk":7,"frizz_risk":0,"updated_at":"2026-03-08T02:55:15.493412+05:30"},{"city":"Durgapur","state":"West Bengal","latitude":23.5204,"longitude":87.3119,"temp":23.8,"humidity":89,"rain":0.0,"pressure":998.2,"uv_index":7.85,"wind_gusts":23.0,"aqi":159,"pm10":72.6,"pm2_5":63.1,"mosquito_risk":3,"arthritis_risk":5,"migraine_risk":7,"frizz_risk":1,"updated_at":"2026-03-08T02:55:15.493443+05:30"},{"city":"Asansol","state":"West Bengal","latitude":23.6739,"longitude":86.9524,"temp":24.5,"humidity":85,"rain":0.0,"pressure":996.7,"uv_index":7.5,"wind_gusts":21.6,"aqi":158,"pm10":69.4,"pm2_5":61.0,"mosquito_risk":3,"arthritis_risk":5,"migraine_risk":7,"frizz_risk":1,"updated_at":"2026-03-08T02:55:15.493457+05:30"},{"city":"Pondicherry","state":"Puducherry","latitude":11.9139,"longitude":79.8145,"temp":24.1,"humidity":98,"rain":0.0,"pressure":1009.4,"uv_index":8.95,"wind_gusts":34.2,"aqi":76,"pm10":25.0,"pm2_5":16.8,"mosquito_risk":3,"arthritis_risk":0,"migraine_risk":4,"frizz_risk":1,"updated_at":"2026-03-08T02:55:15.493464+05:30"},{"city":"Port Blair","state":"Andaman and Nicobar Islands","latitude":11.6234,"longitude":92.7265,"temp":26.9,"humidity":74,"rain":0.0,"pressure":1008.5,"uv_index":8.9,"wind_gusts":21.6,"aqi":94,"pm10":42.8,"pm2_5":27.7,"mosquito_risk":7,"arthritis_risk":0,"migraine_risk":4,"frizz_risk":1,"updated_at":"2026-03-08T02:55:15.493472+05:30"},{"city":"Haridwar","state":"Uttarakhand","latitude":29.9457,"longitude":78.1642,"temp":21.2,"humidity":89,"rain":0.0,"pressure":977.5,"uv_index":5.8,"wind_gusts":27.0,"aqi":161,"pm10":92.2,"pm2_5":82.9,"mosquito_risk":3,"arthritis_risk":5,"migraine_risk":3,"frizz_risk":1,"updated_at":"2026-03-08T02:55:15.493478+05:30"},{"city":"Rishikesh","state":"Uttarakhand","latitude":30.0869,"longitude":78.2676,"temp":21.2,"humidity":81,"rain":0.0,"pressure":970.3,"uv_index":5.85,"wind_gusts":23.4,"aqi":160,"pm10":93.8,"pm2_5":79.4,"mosquito_risk":3,"arthritis_risk":5,"migraine_risk":3,"frizz_risk":1,"updated_at":"2026-03-08T02:55:15.493485+05:30"},{"city":"Nainital","state":"Uttarakhand","latitude":29.3919,"longitude":79.4542,"temp":16.8,"humidity":78,"rain":0.0,"pressure":807.6,"uv_index":6.65,"wind_gusts":61.9,"aqi":160,"pm10":95.0,"pm2_5":79.9,"mosquito_risk":3,"arthritis_risk":5,"migraine_risk":7,"frizz_risk":0,"updated_at":"2026-03-08T02:55:15.493492+05:30"},{"city":"Mussoorie","state":"Uttarakhand","latitude":30.4599,"longitude":78.0664,"temp":15.7,"humidity":85,"rain":0.0,"pressure":804.6,"uv_index":6.2,"wind_gusts":45.0,"aqi":160,"pm10":92.0,"pm2_5":79.6,"mosquito_risk":3,"arthritis_risk":10,"migraine_risk":7,"frizz_risk":0,"updated_at":"2026-03-08T02:55:15.493499+05:30"},{"city":"Dharamshala","state":"Himachal Pradesh","latitude":32.219,"longitude":76.3234,"temp":21.3,"humidity":25,"rain":0.0,"pressure":872.7,"uv_index":6.4,"wind_gusts":27.7,"aqi":50,"pm10":20.5,"pm2_5":9.3,"mosquito_risk":0,"arthritis_risk":5,"migraine_risk":7,"frizz_risk":0,"updated_at":"2026-03-08T02:55:15.493506+05:30"},{"city":"Dalhousie","state":"Himachal Pradesh","latitude":32.5387,"longitude":75.971,"temp":17.4,"humidity":28,"rain":0.0,"pressure":806.8,"uv_index":6.65,"wind_gusts":25.2,"aqi":91,"pm10":34.7,"pm2_5":30.3,"mosquito_risk":0,"arthritis_risk":5,"migraine_risk":7,"frizz_risk":1,"updated_at":"2026-03-08T02:55:15.493514+05:30"},{"city":"Patiala","state":"Punjab","latitude":30.3398,"longitude":76.3869,"temp":20.3,"humidity":77,"rain":0.0,"pressure":981.3,"uv_index":5.85,"wind_gusts":28.8,"aqi":168,"pm10":157.9,"pm2_5":117.8,"mosquito_risk":3,"arthritis_risk":5,"migraine_risk":3,"frizz_risk":1,"updated_at":"2026-03-08T02:55:15.493521+05:30"},{"city":"Bhatinda","state":"Punjab","latitude":30.211,"longitude":74.9455,"temp":19.2,"humidity":83,"rain":0.0,"pressure":986.7,"uv_index":6.5,"wind_gusts":20.2,"aqi":150,"pm10":145.3,"pm2_5":66.8,"mosquito_risk":3,"arthritis_risk":10,"migraine_risk":7,"frizz_risk":1,"updated_at":"2026-03-08T02:55:15.493528+05:30"},{"city":"Rohtak","state":"Haryana","latitude":28.8955,"longitude":76.6066,"temp":19.7,"humidity":71,"rain":0.0,"pressure":984.7,"uv_index":6.05,"wind_gusts":23.8,"aqi":170,"pm10":267.3,"pm2_5":138.8,"mosquito_risk":3,"arthritis_risk":5,"migraine_risk":7,"frizz_risk":0,"updated_at":"2026-03-08T02:55:15.493534+05:30"},{"city":"Panipat","state":"Haryana","latitude":29.3909,"longitude":76.9635,"temp":19.9,"humidity":77,"rain":0.0,"pressure":983.3,"uv_index":5.8,"wind_gusts":28.4,"aqi":175,"pm10":261.7,"pm2_5":145.8,"mosquito_risk":3,"arthritis_risk":5,"migraine_risk":3,"frizz_risk":0,"updated_at":"2026-03-08T02:55:15.493540+05:30"},{"city":"Mathura","state":"Uttar Pradesh","latitude":27.4924,"longitude":77.6737,"temp":16.8,"humidity":82,"rain":0.0,"pressure":989.9,"uv_index":6.3,"wind_gusts":22.3,"aqi":165,"pm10":176.5,"pm2_5":85.0,"mosquito_risk":3,"arthritis_risk":10,"migraine_risk":7,"frizz_risk":0,"updated_at":"2026-03-08T02:55:15.493547+05:30"},{"city":"Vrindavan","state":"Uttar Pradesh","latitude":27.5823,"longitude":77.7027,"temp":17.7,"humidity":86,"rain":0.0,"pressure":990.5,"uv_index":6.25,"wind_gusts":23.0,"aqi":165,"pm10":176.5,"pm2_5":85.0,"mosquito_risk":3,"arthritis_risk":10,"migraine_risk":7,"frizz_risk":0,"updated_at":"2026-03-08T02:55:15.493553+05:30"},{"city":"Ayodhya","state":"Uttar Pradesh","latitude":26.7922,"longitude":82.1998,"temp":21.5,"humidity":82,"rain":0.0,"pressure":998.4,"uv_index":6.65,"wind_gusts":14.0,"aqi":173,"pm10":127.1,"pm2_5":115.5,"mosquito_risk":3,"arthritis_risk":5,"migraine_risk":7,"frizz_risk":1,"updated_at":"2026-03-08T02:55:15.493560+05:30"},{"city":"Ratlam","state":"Madhya Pradesh","latitude":23.3315,"longitude":75.0367,"temp":17.4,"humidity":89,"rain":0.0,"pressure":955.7,"uv_index":7.5,"wind_gusts":14.4,"aqi":75,"pm10":51.2,"pm2_5":49.8,"mosquito_risk":3,"arthritis_risk":10,"migraine_risk":7,"frizz_risk":0,"updated_at":"2026-03-08T02:55:15.493566+05:30"},{"city":"Sagar","state":"Madhya Pradesh","latitude":23.8388,"longitude":78.7378,"temp":20.2,"humidity":60,"rain":0.0,"pressure":951.8,"uv_index":7.45,"wind_gusts":23.4,"aqi":71,"pm10":66.8,"pm2_5":28.4,"mosquito_risk":0,"arthritis_risk":5,"migraine_risk":7,"frizz_risk":0,"updated_at":"2026-03-08T02:55:15.493573+05:30"},{"city":"Satna","state":"Madhya Pradesh","latitude":24.6005,"longitude":80.8322,"temp":20.4,"humidity":77,"rain":0.0,"pressure":973.7,"uv_index":7.4,"wind_gusts":23.8,"aqi":155,"pm10":103.1,"pm2_5":85.4,"mosquito_risk":3,"arthritis_risk":5,"migraine_risk":7,"frizz_risk":1,"updated_at":"2026-03-08T02:55:15.493578+05:30"},{"city":"Akola","state":"Maharashtra","latitude":20.7002,"longitude":77.0082,"temp":22.2,"humidity":61,"rain":0.0,"pressure":975.8,"uv_index":7.95,"wind_gusts":14.4,"aqi":82,"pm10":34.1,"pm2_5":28.9,"mosquito_risk":3,"arthritis_risk":5,"migraine_risk":7,"frizz_risk":0,"updated_at":"2026-03-08T02:55:15.493586+05:30"},{"city":"Amravati","state":"Maharashtra","latitude":20.9374,"longitude":77.7796,"temp":22.7,"humidity":49,"rain":0.0,"pressure":967.7,"uv_index":7.9,"wind_gusts":19.1,"aqi":86,"pm10":40.9,"pm2_5":34.0,"mosquito_risk":0,"arthritis_risk":5,"migraine_risk":7,"frizz_risk":0,"updated_at":"2026-03-08T02:55:15.493593+05:30"},{"city":"Latur","state":"Maharashtra","latitude":18.4088,"longitude":76.5604,"temp":24.0,"humidity":42,"rain":0.0,"pressure":939.8,"uv_index":8.4,"wind_gusts":23.8,"aqi":79,"pm10":50.6,"pm2_5":42.3,"mosquito_risk":0,"arthritis_risk":5,"migraine_risk":7,"frizz_risk":0,"updated_at":"2026-03-08T02:55:15.493599+05:30"},{"city":"Nanded","state":"Maharashtra","latitude":19.1383,"longitude":77.3091,"temp":22.0,"humidity":59,"rain":0.0,"pressure":968.8,"uv_index":8.15,"wind_gusts":23.4,"aqi":90,"pm10":55.8,"pm2_5":44.6,"mosquito_risk":0,"arthritis_risk":5,"migraine_risk":7,"frizz_risk":0,"updated_at":"2026-03-08T02:55:15.493605+05:30"},{"city":"Gulbarga","state":"Karnataka","latitude":17.3297,"longitude":76.8343,"temp":25.3,"humidity":45,"rain":0.0,"pressure":958.6,"uv_index":8.5,"wind_gusts":20.9,"aqi":70,"pm10":28.4,"pm2_5":23.9,"mosquito_risk":4,"arthritis_risk":5,"migraine_risk":7,"frizz_risk":0,"updated_at":"2026-03-08T02:55:15.493611+05:30"},{"city":"Bidar","state":"Karnataka","latitude":17.9104,"longitude":77.5199,"temp":23.0,"humidity":56,"rain":0.0,"pressure":935.3,"uv_index":8.4,"wind_gusts":26.3,"aqi":81,"pm10":39.0,"pm2_5":29.3,"mosquito_risk":0,"arthritis_risk":5,"migraine_risk":7,"frizz_risk":0,"updated_at":"2026-03-08T02:55:15.493617+05:30"},{"city":"Hospet","state":"Karnataka","latitude":15.2689,"longitude":76.3909,"temp":24.3,"humidity":64,"rain":0.0,"pressure":955.3,"uv_index":8.8,"wind_gusts":20.5,"aqi":88,"pm10":45.3,"pm2_5":33.5,"mosquito_risk":3,"arthritis_risk":5,"migraine_risk":7,"frizz_risk":1,"updated_at":"2026-03-08T02:55:15.493623+05:30"},{"city":"Tirupur","state":"Tamil Nadu","latitude":11.1085,"longitude":77.3411,"temp":25.6,"humidity":84,"rain":0.0,"pressure":975.4,"uv_index":9.25,"wind_gusts":33.5,"aqi":115,"pm10":39.8,"pm2_5":38.3,"mosquito_risk":7,"arthritis_risk":5,"migraine_risk":7,"frizz_risk":1,"updated_at":"2026-03-08T02:55:15.493629+05:30"},{"city":"Alappuzha","state":"Kerala","latitude":9.4981,"longitude":76.3388,"temp":26.9,"humidity":89,"rain":0.0,"pressure":1008.5,"uv_index":9.0,"wind_gusts":31.3,"aqi":115,"pm10":43.5,"pm2_5":42.3,"mosquito_risk":7,"arthritis_risk":0,"migraine_risk":4,"frizz_risk":1,"updated_at":"2026-03-08T02:55:15.493635+05:30"},{"city":"Munnar","state":"Kerala","latitude":10.0889,"longitude":77.0595,"temp":17.6,"humidity":92,"rain":0.0,"pressure":855.0,"uv_index":9.5,"wind_gusts":25.6,"aqi":89,"pm10":44.1,"pm2_5":40.7,"mosquito_risk":3,"arthritis_risk":10,"migraine_risk":7,"frizz_risk":1,"updated_at":"2026-03-08T02:55:15.493642+05:30"},{"city":"Silchar","state":"Assam","latitude":24.8333,"longitude":92.7789,"temp":23.2,"humidity":78,"rain":0.0,"pressure":1008.6,"uv_index":7.65,"wind_gusts":22.0,"aqi":161,"pm10":107.8,"pm2_5":101.3,"mosquito_risk":3,"arthritis_risk":0,"migraine_risk":4,"frizz_risk":1,"updated_at":"2026-03-08T02:55:15.493649+05:30"},{"city":"Dibrugarh","state":"Assam","latitude":27.4728,"longitude":94.912,"temp":23.1,"humidity":83,"rain":0.0,"pressure":998.9,"uv_index":6.7,"wind_gusts":24.1,"aqi":155,"pm10":67.3,"pm2_5":62.2,"mosquito_risk":3,"arthritis_risk":5,"migraine_risk":7,"frizz_risk":1,"updated_at":"2026-03-08T02:55:15.493655+05:30"}]