[{"city":"Delhi","state":"Delhi","latitude":28.6139,"longitude":77.209,"temp":35.5,"humidity":20,"rain":0.0,"pressure":979.4,"uv_index":7.75,"wind_gusts":46.4,"aqi":447,"pm10":910.8,"pm2_5":177.9,"no2":28.0,"co":465.0,"o3":69.0,"so2":17.0,"mosquito_risk":0,"arthritis_risk":5,"migraine_risk":10,"frizz_risk":0,"updated_at":"2026-05-23T22:32:46.381365+05:30"},{"city":"Mumbai","state":"Maharashtra","latitude":19.076,"longitude":72.8777,"temp":30.5,"humidity":74,"rain":0.0,"pressure":1009.7,"uv_index":7.8,"wind_gusts":32.8,"aqi":42,"pm10":10.7,"pm2_5":7.8,"no2":8.8,"co":298.0,"o3":53.0,"so2":6.1,"mosquito_risk":3,"arthritis_risk":0,"migraine_risk":4,"frizz_risk":1,"updated_at":"2026-05-23T22:32:46.381409+05:30"},{"city":"Bangalore","state":"Karnataka","latitude":12.9716,"longitude":77.5946,"temp":21.9,"humidity":90,"rain":0.0,"pressure":914.3,"uv_index":6.3,"wind_gusts":34.6,"aqi":41,"pm10":21.7,"pm2_5":18.2,"no2":31.7,"co":507.0,"o3":43.0,"so2":7.5,"mosquito_risk":3,"arthritis_risk":5,"migraine_risk":7,"frizz_risk":1,"updated_at":"2026-05-23T22:32:46.381425+05:30"},{"city":"Hyderabad","state":"Telangana","latitude":17.385,"longitude":78.4867,"temp":29.4,"humidity":56,"rain":0.0,"pressure":953.9,"uv_index":9.2,"wind_gusts":47.9,"aqi":81,"pm10":31.2,"pm2_5":27.1,"no2":10.4,"co":306.0,"o3":96.0,"so2":6.0,"mosquito_risk":4,"arthritis_risk":5,"migraine_risk":7,"frizz_risk":1,"updated_at":"2026-05-23T22:32:46.381435+05:30"},{"city":"Chennai","state":"Tamil Nadu","latitude":13.0827,"longitude":80.2707,"temp":32.5,"humidity":54,"rain":0.0,"pressure":1007.4,"uv_index":3.2,"wind_gusts":45.7,"aqi":86,"pm10":29.0,"pm2_5":24.3,"no2":16.1,"co":407.0,"o3":84.0,"so2":10.7,"mosquito_risk":0,"arthritis_risk":5,"migraine_risk":0,"frizz_risk":1,"updated_at":"2026-05-23T22:32:46.381443+05:30"},{"city":"Kolkata","state":"West Bengal","latitude":22.5726,"longitude":88.3639,"temp":29.4,"humidity":89,"rain":0.0,"pressure":1003.6,"uv_index":8.95,"wind_gusts":44.6,"aqi":98,"pm10":29.7,"pm2_5":24.0,"no2":5.5,"co":260.0,"o3":85.0,"so2":5.3,"mosquito_risk":7,"arthritis_risk":5,"migraine_risk":4,"frizz_risk":1,"updated_at":"2026-05-23T22:32:46.381451+05:30"},{"city":"Pune","state":"Maharashtra","latitude":18.5204,"longitude":73.8567,"temp":26.0,"humidity":87,"rain":0.0,"pressure":950.0,"uv_index":8.4,"wind_gusts":38.9,"aqi":40,"pm10":13.3,"pm2_5":11.5,"no2":15.6,"co":255.0,"o3":49.0,"so2":9.4,"mosquito_risk":7,"arthritis_risk":5,"migraine_risk":7,"frizz_risk":1,"updated_at":"2026-05-23T22:32:46.381458+05:30"},{"city":"Ahmedabad","state":"Gujarat","latitude":23.0225,"longitude":72.5714,"temp":33.2,"humidity":64,"rain":0.0,"pressure":1001.5,"uv_index":8.15,"wind_gusts":33.1,"aqi":75,"pm10":30.0,"pm2_5":23.7,"no2":10.2,"co":221.0,"o3":66.0,"so2":4.8,"mosquito_risk":3,"arthritis_risk":5,"migraine_risk":4,"frizz_risk":1,"updated_at":"2026-05-23T22:32:46.381464+05:30"},{"city":"Jaipur","state":"Rajasthan","latitude":26.9124,"longitude":75.7873,"temp":35.5,"humidity":19,"rain":0.0,"pressure":957.7,"uv_index":8.25,"wind_gusts":51.8,"aqi":182,"pm10":186.7,"pm2_5":62.2,"no2":13.7,"co":323.0,"o3":62.0,"so2":6.7,"mosquito_risk":0,"arthritis_risk":5,"migraine_risk":10,"frizz_risk":0,"updated_at":"2026-05-23T22:32:46.381475+05:30"},{"city":"Lucknow","state":"Uttar Pradesh","latitude":26.8467,"longitude":80.9462,"temp":34.0,"humidity":27,"rain":0.0,"pressure":989.3,"uv_index":8.2,"wind_gusts":56.9,"aqi":164,"pm10":446.1,"pm2_5":107.1,"no2":15.1,"co":373.0,"o3":87.0,"so2":10.4,"mosquito_risk":0,"arthritis_risk":5,"migraine_risk":7,"frizz_risk":0,"updated_at":"2026-05-23T22:32:46.381483+05:30"},{"city":"Kanpur","state":"Uttar Pradesh","latitude":26.4499,"longitude":80.3319,"temp":34.2,"humidity":27,"rain":0.0,"pressure":987.8,"uv_index":8.25,"wind_gusts":52.9,"aqi":424,"pm10":728.3,"pm2_5":139.2,"no2":15.1,"co":306.0,"o3":82.0,"so2":10.3,"mosquito_risk":0,"arthritis_risk":5,"migraine_risk":7,"frizz_risk":0,"updated_at":"2026-05-23T22:32:46.381490+05:30"},{"city":"Chandigarh","state":"Chandigarh","latitude":30.7333,"longitude":76.7794,"temp":30.6,"humidity":26,"rain":0.0,"pressure":965.1,"uv_index":7.75,"wind_gusts":37.8,"aqi":85,"pm10":47.0,"pm2_5":29.9,"no2":23.0,"co":430.0,"o3":73.0,"so2":9.6,"mosquito_risk":0,"arthritis_risk":5,"migraine_risk":7,"frizz_risk":0,"updated_at":"2026-05-23T22:32:46.381497+05:30"},{"city":"Srinagar","state":"Jammu and Kashmir","latitude":34.0837,"longitude":74.7973,"temp":15.8,"humidity":75,"rain":0.0,"pressure":843.3,"uv_index":8.85,"wind_gusts":27.7,"aqi":67,"pm10":39.8,"pm2_5":32.1,"no2":35.3,"co":796.0,"o3":33.0,"so2":2.7,"mosquito_risk":3,"arthritis_risk":5,"migraine_risk":7,"frizz_risk":0,"updated_at":"2026-05-23T22:32:46.381503+05:30"},{"city":"Jammu","state":"Jammu and Kashmir","latitude":32.7266,"longitude":74.857,"temp":25.6,"humidity":47,"rain":0.0,"pressure":969.0,"uv_index":8.5,"wind_gusts":49.0,"aqi":78,"pm10":42.6,"pm2_5":28.4,"no2":26.5,"co":310.0,"o3":52.0,"so2":3.9,"mosquito_risk":4,"arthritis_risk":5,"migraine_risk":7,"frizz_risk":0,"updated_at":"2026-05-23T22:32:46.381512+05:30"},{"city":"Amritsar","state":"Punjab","latitude":31.634,"longitude":74.8723,"temp":29.8,"humidity":33,"rain":0.0,"pressure":977.0,"uv_index":8.4,"wind_gusts":30.2,"aqi":137,"pm10":52.7,"pm2_5":36.6,"no2":25.5,"co":378.0,"o3":63.0,"so2":9.1,"mosquito_risk":4,"arthritis_risk":5,"migraine_risk":7,"frizz_risk":0,"updated_at":"2026-05-23T22:32:46.381518+05:30"},{"city":"Ludhiana","state":"Punjab","latitude":30.901,"longitude":75.8573,"temp":32.2,"humidity":25,"rain":0.0,"pressure":975.0,"uv_index":8.0,"wind_gusts":37.8,"aqi":107,"pm10":68.2,"pm2_5":36.0,"no2":15.2,"co":575.0,"o3":86.0,"so2":7.7,"mosquito_risk":0,"arthritis_risk":5,"migraine_risk":7,"frizz_risk":0,"updated_at":"2026-05-23T22:32:46.381524+05:30"},{"city":"Jalandhar","state":"Punjab","latitude":31.326,"longitude":75.5762,"temp":32.0,"humidity":27,"rain":0.0,"pressure":976.0,"uv_index":8.15,"wind_gusts":35.3,"aqi":114,"pm10":69.2,"pm2_5":37.7,"no2":18.1,"co":519.0,"o3":83.0,"so2":7.0,"mosquito_risk":0,"arthritis_risk":5,"migraine_risk":7,"frizz_risk":0,"updated_at":"2026-05-23T22:32:46.381530+05:30"},{"city":"Dehradun","state":"Uttarakhand","latitude":30.6284,"longitude":78.0322,"temp":15.9,"humidity":56,"rain":0.0,"pressure":826.6,"uv_index":8.15,"wind_gusts":47.5,"aqi":62,"pm10":49.7,"pm2_5":19.8,"no2":31.8,"co":199.0,"o3":58.0,"so2":1.6,"mosquito_risk":0,"arthritis_risk":5,"migraine_risk":7,"frizz_risk":0,"updated_at":"2026-05-23T22:32:46.381536+05:30"},{"city":"Shimla","state":"Himachal Pradesh","latitude":31.1048,"longitude":77.1734,"temp":15.6,"humidity":40,"rain":0.0,"pressure":783.4,"uv_index":8.25,"wind_gusts":46.4,"aqi":74,"pm10":55.8,"pm2_5":21.4,"no2":19.7,"co":211.0,"o3":80.0,"so2":2.7,"mosquito_risk":0,"arthritis_risk":5,"migraine_risk":7,"frizz_risk":0,"updated_at":"2026-05-23T22:32:46.381548+05:30"},{"city":"Manali","state":"Himachal Pradesh","latitude":32.2396,"longitude":77.1887,"temp":12.1,"humidity":62,"rain":0.0,"pressure":815.5,"uv_index":9.85,"wind_gusts":47.5,"aqi":68,"pm10":20.3,"pm2_5":7.9,"no2":54.9,"co":265.0,"o3":58.0,"so2":0.1,"mosquito_risk":3,"arthritis_risk":5,"migraine_risk":7,"frizz_risk":0,"updated_at":"2026-05-23T22:32:46.381556+05:30"},{"city":"Gurgaon","state":"Haryana","latitude":28.4595,"longitude":77.0266,"temp":32.5,"humidity":28,"rain":0.0,"pressure":977.8,"uv_index":7.85,"wind_gusts":47.5,"aqi":910,"pm10":717.1,"pm2_5":152.7,"no2":40.6,"co":648.0,"o3":46.0,"so2":17.5,"mosquito_risk":0,"arthritis_risk":5,"migraine_risk":7,"frizz_risk":0,"updated_at":"2026-05-23T22:32:46.381563+05:30"},{"city":"Noida","state":"Uttar Pradesh","latitude":28.5355,"longitude":77.391,"temp":33.7,"humidity":26,"rain":0.0,"pressure":980.5,"uv_index":7.75,"wind_gusts":44.6,"aqi":910,"pm10":717.1,"pm2_5":152.7,"no2":40.6,"co":588.0,"o3":46.0,"so2":17.5,"mosquito_risk":0,"arthritis_risk":5,"migraine_risk":7,"frizz_risk":0,"updated_at":"2026-05-23T22:32:46.381569+05:30"},{"city":"Ghaziabad","state":"Uttar Pradesh","latitude":28.6692,"longitude":77.4538,"temp":33.3,"humidity":24,"rain":0.0,"pressure":978.7,"uv_index":7.75,"wind_gusts":58.0,"aqi":234,"pm10":754.4,"pm2_5":148.5,"no2":17.5,"co":401.0,"o3":85.0,"so2":16.0,"mosquito_risk":0,"arthritis_risk":5,"migraine_risk":7,"frizz_risk":0,"updated_at":"2026-05-23T22:32:46.381576+05:30"},{"city":"Faridabad","state":"Haryana","latitude":28.4089,"longitude":77.3178,"temp":35.2,"humidity":20,"rain":0.0,"pressure":979.9,"uv_index":7.8,"wind_gusts":50.0,"aqi":910,"pm10":717.1,"pm2_5":152.7,"no2":40.6,"co":577.0,"o3":46.0,"so2":17.5,"mosquito_risk":0,"arthritis_risk":5,"migraine_risk":10,"frizz_risk":0,"updated_at":"2026-05-23T22:32:46.381582+05:30"},{"city":"Meerut","state":"Uttar Pradesh","latitude":28.9845,"longitude":77.7064,"temp":33.2,"humidity":23,"rain":0.0,"pressure":977.2,"uv_index":7.65,"wind_gusts":59.8,"aqi":234,"pm10":754.4,"pm2_5":148.5,"no2":17.5,"co":289.0,"o3":85.0,"so2":16.0,"mosquito_risk":0,"arthritis_risk":5,"migraine_risk":7,"frizz_risk":0,"updated_at":"2026-05-23T22:32:46.381587+05:30"},{"city":"Agra","state":"Uttar Pradesh","latitude":27.1767,"longitude":78.0081,"temp":34.9,"humidity":28,"rain":0.0,"pressure":983.7,"uv_index":8.1,"wind_gusts":42.1,"aqi":670,"pm10":442.4,"pm2_5":95.9,"no2":27.1,"co":403.0,"o3":41.0,"so2":9.1,"mosquito_risk":0,"arthritis_risk":5,"migraine_risk":7,"frizz_risk":0,"updated_at":"2026-05-23T22:32:46.381593+05:30"},{"city":"Varanasi","state":"Uttar Pradesh","latitude":25.3176,"longitude":82.9739,"temp":34.5,"humidity":27,"rain":0.0,"pressure":993.5,"uv_index":8.75,"wind_gusts":49.0,"aqi":155,"pm10":138.3,"pm2_5":68.0,"no2":33.6,"co":612.0,"o3":57.0,"so2":15.8,"mosquito_risk":0,"arthritis_risk":5,"migraine_risk":7,"frizz_risk":0,"updated_at":"2026-05-23T22:32:46.381600+05:30"},{"city":"Prayagraj","state":"Uttar Pradesh","latitude":25.4358,"longitude":81.8463,"temp":35.8,"humidity":22,"rain":0.0,"pressure":992.0,"uv_index":8.65,"wind_gusts":42.8,"aqi":152,"pm10":183.0,"pm2_5":60.3,"no2":22.5,"co":391.0,"o3":70.0,"so2":12.4,"mosquito_risk":0,"arthritis_risk":5,"migraine_risk":10,"frizz_risk":0,"updated_at":"2026-05-23T22:32:46.381606+05:30"},{"city":"Gorakhpur","state":"Uttar Pradesh","latitude":26.7606,"longitude":83.3732,"temp":31.1,"humidity":46,"rain":0.0,"pressure":992.4,"uv_index":8.65,"wind_gusts":42.5,"aqi":157,"pm10":100.8,"pm2_5":54.8,"no2":33.2,"co":334.0,"o3":73.0,"so2":15.8,"mosquito_risk":0,"arthritis_risk":5,"migraine_risk":7,"frizz_risk":1,"updated_at":"2026-05-23T22:32:46.381615+05:30"},{"city":"Bareilly","state":"Uttar Pradesh","latitude":28.367,"longitude":79.4304,"temp":31.2,"humidity":35,"rain":0.0,"pressure":981.9,"uv_index":8.05,"wind_gusts":57.2,"aqi":140,"pm10":118.0,"pm2_5":49.7,"no2":18.0,"co":256.0,"o3":78.0,"so2":11.1,"mosquito_risk":0,"arthritis_risk":5,"migraine_risk":7,"frizz_risk":0,"updated_at":"2026-05-23T22:32:46.381621+05:30"},{"city":"Aligarh","state":"Uttar Pradesh","latitude":27.8974,"longitude":78.088,"temp":32.8,"humidity":35,"rain":0.0,"pressure":981.4,"uv_index":7.85,"wind_gusts":51.1,"aqi":590,"pm10":748.8,"pm2_5":154.1,"no2":23.7,"co":295.0,"o3":53.0,"so2":8.8,"mosquito_risk":0,"arthritis_risk":5,"migraine_risk":7,"frizz_risk":0,"updated_at":"2026-05-23T22:32:46.381627+05:30"},{"city":"Moradabad","state":"Uttar Pradesh","latitude":28.8386,"longitude":78.7733,"temp":31.1,"humidity":33,"rain":0.0,"pressure":978.9,"uv_index":7.85,"wind_gusts":65.9,"aqi":117,"pm10":190.9,"pm2_5":68.0,"no2":23.1,"co":342.0,"o3":61.0,"so2":9.6,"mosquito_risk":0,"arthritis_risk":5,"migraine_risk":7,"frizz_risk":0,"updated_at":"2026-05-23T22:32:46.381632+05:30"},{"city":"Saharanpur","state":"Uttar Pradesh","latitude":29.9637,"longitude":77.546,"temp":32.1,"humidity":23,"rain":0.0,"pressure":971.5,"uv_index":7.45,"wind_gusts":59.8,"aqi":101,"pm10":146.2,"pm2_5":48.5,"no2":14.0,"co":247.0,"o3":83.0,"so2":9.0,"mosquito_risk":0,"arthritis_risk":5,"migraine_risk":7,"frizz_risk":0,"updated_at":"2026-05-23T22:32:46.381638+05:30"},{"city":"Jhansi","state":"Uttar Pradesh","latitude":25.4484,"longitude":78.5685,"temp":34.6,"humidity":23,"rain":0.0,"pressure":975.1,"uv_index":8.5,"wind_gusts":46.8,"aqi":85,"pm10":79.4,"pm2_5":38.0,"no2":5.4,"co":193.0,"o3":69.0,"so2":3.2,"mosquito_risk":0,"arthritis_risk":5,"migraine_risk":7,"frizz_risk":0,"updated_at":"2026-05-23T22:32:49.657250+05:30"},{"city":"Surat","state":"Gujarat","latitude":21.1702,"longitude":72.8311,"temp":30.5,"humidity":79,"rain":0.0,"pressure":1007.3,"uv_index":7.65,"wind_gusts":39.2,"aqi":57,"pm10":14.1,"pm2_5":11.7,"no2":19.8,"co":241.0,"o3":33.0,"so2":31.6,"mosquito_risk":3,"arthritis_risk":5,"migraine_risk":4,"frizz_risk":1,"updated_at":"2026-05-23T22:32:49.657288+05:30"},{"city":"Vadodara","state":"Gujarat","latitude":22.3072,"longitude":73.1812,"temp":31.2,"humidity":72,"rain":0.0,"pressure":1003.9,"uv_index":8.1,"wind_gusts":41.8,"aqi":62,"pm10":15.1,"pm2_5":12.5,"no2":18.3,"co":163.0,"o3":38.0,"so2":19.3,"mosquito_risk":3,"arthritis_risk":5,"migraine_risk":4,"frizz_risk":1,"updated_at":"2026-05-23T22:32:49.657299+05:30"},{"city":"Rajkot","state":"Gujarat","latitude":22.3039,"longitude":70.8022,"temp":30.2,"humidity":71,"rain":0.0,"pressure":994.9,"uv_index":7.55,"wind_gusts":41.0,"aqi":68,"pm10":31.5,"pm2_5":21.4,"no2":6.3,"co":132.0,"o3":54.0,"so2":6.6,"mosquito_risk":3,"arthritis_risk":5,"migraine_risk":7,"frizz_risk":1,"updated_at":"2026-05-23T22:32:49.657307+05:30"},{"city":"Thane","state":"Maharashtra","latitude":19.2183,"longitude":72.9781,"temp":29.6,"humidity":82,"rain":0.0,"pressure":1009.0,"uv_index":7.65,"wind_gusts":29.9,"aqi":42,"pm10":10.7,"pm2_5":7.8,"no2":8.8,"co":413.0,"o3":53.0,"so2":6.1,"mosquito_risk":7,"arthritis_risk":0,"migraine_risk":4,"frizz_risk":1,"updated_at":"2026-05-23T22:32:49.657316+05:30"},{"city":"Nagpur","state":"Maharashtra","latitude":21.1458,"longitude":79.0882,"temp":36.8,"humidity":23,"rain":0.0,"pressure":971.2,"uv_index":8.95,"wind_gusts":56.9,"aqi":64,"pm10":34.7,"pm2_5":23.2,"no2":12.0,"co":212.0,"o3":72.0,"so2":8.0,"mosquito_risk":0,"arthritis_risk":5,"migraine_risk":10,"frizz_risk":0,"updated_at":"2026-05-23T22:32:49.657325+05:30"},{"city":"Nashik","state":"Maharashtra","latitude":19.9975,"longitude":73.7898,"temp":26.6,"humidity":76,"rain":0.0,"pressure":947.2,"uv_index":8.1,"wind_gusts":43.9,"aqi":41,"pm10":7.3,"pm2_5":5.5,"no2":5.2,"co":191.0,"o3":51.0,"so2":1.5,"mosquito_risk":7,"arthritis_risk":5,"migraine_risk":7,"frizz_risk":1,"updated_at":"2026-05-23T22:32:49.657333+05:30"},{"city":"Aurangabad","state":"Maharashtra","latitude":19.8762,"longitude":75.3433,"temp":30.6,"humidity":54,"rain":0.0,"pressure":945.6,"uv_index":9.05,"wind_gusts":44.3,"aqi":58,"pm10":18.7,"pm2_5":15.8,"no2":9.2,"co":177.0,"o3":68.0,"so2":5.7,"mosquito_risk":0,"arthritis_risk":5,"migraine_risk":7,"frizz_risk":1,"updated_at":"2026-05-23T22:32:49.657341+05:30"},{"city":"Solapur","state":"Maharashtra","latitude":17.6599,"longitude":75.9064,"temp":28.0,"humidity":67,"rain":0.0,"pressure":959.3,"uv_index":9.0,"wind_gusts":42.5,"aqi":60,"pm10":18.5,"pm2_5":17.2,"no2":12.1,"co":221.0,"o3":61.0,"so2":3.0,"mosquito_risk":7,"arthritis_risk":5,"migraine_risk":7,"frizz_risk":1,"updated_at":"2026-05-23T22:32:49.657348+05:30"},{"city":"Kolhapur","state":"Maharashtra","latitude":16.705,"longitude":74.2433,"temp":24.5,"humidity":92,"rain":0.0,"pressure":950.7,"uv_index":8.85,"wind_gusts":35.6,"aqi":42,"pm10":17.4,"pm2_5":15.9,"no2":14.0,"co":193.0,"o3":41.0,"so2":3.7,"mosquito_risk":3,"arthritis_risk":5,"migraine_risk":7,"frizz_risk":1,"updated_at":"2026-05-23T22:32:49.657356+05:30"},{"city":"Goa","state":"Goa","latitude":15.2993,"longitude":74.124,"temp":26.3,"humidity":96,"rain":0.0,"pressure":1001.1,"uv_index":5.2,"wind_gusts":27.0,"aqi":33,"pm10":21.1,"pm2_5":17.8,"no2":8.6,"co":292.0,"o3":40.0,"so2":1.8,"mosquito_risk":7,"arthritis_risk":5,"migraine_risk":0,"frizz_risk":1,"updated_at":"2026-05-23T22:32:49.657363+05:30"},{"city":"Jodhpur","state":"Rajasthan","latitude":26.2389,"longitude":73.0243,"temp":35.4,"humidity":21,"rain":0.0,"pressure":980.9,"uv_index":8.4,"wind_gusts":43.2,"aqi":176,"pm10":278.5,"pm2_5":71.2,"no2":7.8,"co":159.0,"o3":60.0,"so2":3.5,"mosquito_risk":0,"arthritis_risk":5,"migraine_risk":10,"frizz_risk":0,"updated_at":"2026-05-23T22:32:49.657371+05:30"},{"city":"Udaipur","state":"Rajasthan","latitude":24.5854,"longitude":73.7125,"temp":32.2,"humidity":27,"rain":0.0,"pressure":946.9,"uv_index":8.85,"wind_gusts":39.2,"aqi":97,"pm10":79.6,"pm2_5":31.2,"no2":3.3,"co":164.0,"o3":76.0,"so2":2.5,"mosquito_risk":0,"arthritis_risk":5,"migraine_risk":7,"frizz_risk":0,"updated_at":"2026-05-23T22:32:49.657378+05:30"},{"city":"Kota","state":"Rajasthan","latitude":25.2138,"longitude":75.8648,"temp":35.8,"humidity":21,"rain":0.0,"pressure":976.7,"uv_index":8.4,"wind_gusts":50.0,"aqi":98,"pm10":97.3,"pm2_5":46.0,"no2":14.2,"co":181.0,"o3":55.0,"so2":4.8,"mosquito_risk":0,"arthritis_risk":5,"migraine_risk":10,"frizz_risk":0,"updated_at":"2026-05-23T22:32:49.657386+05:30"},{"city":"Bikaner","state":"Rajasthan","latitude":28.0229,"longitude":73.3119,"temp":35.4,"humidity":15,"rain":0.0,"pressure":978.8,"uv_index":8.4,"wind_gusts":45.7,"aqi":126,"pm10":50.8,"pm2_5":23.1,"no2":4.8,"co":358.0,"o3":75.0,"so2":2.5,"mosquito_risk":0,"arthritis_risk":5,"migraine_risk":10,"frizz_risk":0,"updated_at":"2026-05-23T22:32:49.657393+05:30"},{"city":"Ajmer","state":"Rajasthan","latitude":26.4499,"longitude":74.6399,"temp":33.0,"humidity":25,"rain":0.0,"pressure":953.4,"uv_index":8.4,"wind_gusts":51.8,"aqi":124,"pm10":159.7,"pm2_5":51.7,"no2":4.9,"co":175.0,"o3":79.0,"so2":4.4,"mosquito_risk":0,"arthritis_risk":5,"migraine_risk":7,"frizz_risk":0,"updated_at":"2026-05-23T22:32:49.657400+05:30"},{"city":"Gwalior","state":"Madhya Pradesh","latitude":26.2183,"longitude":78.1828,"temp":34.8,"humidity":24,"rain":0.0,"pressure":980.0,"uv_index":8.25,"wind_gusts":47.5,"aqi":95,"pm10":85.9,"pm2_5":41.2,"no2":7.9,"co":192.0,"o3":64.0,"so2":3.7,"mosquito_risk":0,"arthritis_risk":5,"migraine_risk":7,"frizz_risk":0,"updated_at":"2026-05-23T22:32:49.657407+05:30"},{"city":"Indore","state":"Madhya Pradesh","latitude":22.7196,"longitude":75.8577,"temp":33.3,"humidity":24,"rain":0.0,"pressure":948.1,"uv_index":8.7,"wind_gusts":54.0,"aqi":70,"pm10":62.9,"pm2_5":31.0,"no2":5.1,"co":238.0,"o3":85.0,"so2":3.9,"mosquito_risk":0,"arthritis_risk":5,"migraine_risk":7,"frizz_risk":0,"updated_at":"2026-05-23T22:32:49.657414+05:30"},{"city":"Bhopal","state":"Madhya Pradesh","latitude":23.2599,"longitude":77.4126,"temp":34.5,"humidity":20,"rain":0.0,"pressure":952.4,"uv_index":8.75,"wind_gusts":44.6,"aqi":73,"pm10":63.6,"pm2_5":34.0,"no2":8.3,"co":227.0,"o3":69.0,"so2":5.0,"mosquito_risk":0,"arthritis_risk":5,"migraine_risk":7,"frizz_risk":0,"updated_at":"2026-05-23T22:32:49.657421+05:30"},{"city":"Jabalpur","state":"Madhya Pradesh","latitude":23.1815,"longitude":79.9864,"temp":34.0,"humidity":19,"rain":0.0,"pressure":959.6,"uv_index":8.9,"wind_gusts":43.9,"aqi":69,"pm10":67.5,"pm2_5":31.7,"no2":17.0,"co":294.0,"o3":67.0,"so2":5.1,"mosquito_risk":0,"arthritis_risk":5,"migraine_risk":7,"frizz_risk":0,"updated_at":"2026-05-23T22:32:49.657427+05:30"},{"city":"Ujjain","state":"Madhya Pradesh","latitude":23.1765,"longitude":75.7885,"temp":32.8,"humidity":25,"rain":0.0,"pressure":953.5,"uv_index":8.65,"wind_gusts":50.0,"aqi":72,"pm10":71.7,"pm2_5":33.8,"no2":3.4,"co":206.0,"o3":85.0,"so2":3.7,"mosquito_risk":0,"arthritis_risk":5,"migraine_risk":7,"frizz_risk":0,"updated_at":"2026-05-23T22:32:49.657435+05:30"},{"city":"Visakhapatnam","state":"Andhra Pradesh","latitude":17.6868,"longitude":83.2185,"temp":31.2,"humidity":81,"rain":0.0,"pressure":1000.4,"uv_index":9.05,"wind_gusts":32.0,"aqi":151,"pm10":57.3,"pm2_5":49.9,"no2":35.6,"co":389.0,"o3":89.0,"so2":36.8,"mosquito_risk":3,"arthritis_risk":5,"migraine_risk":4,"frizz_risk":1,"updated_at":"2026-05-23T22:32:49.657442+05:30"},{"city":"Vijayawada","state":"Andhra Pradesh","latitude":16.5062,"longitude":80.648,"temp":35.0,"humidity":42,"rain":0.0,"pressure":1000.2,"uv_index":8.9,"wind_gusts":44.6,"aqi":91,"pm10":38.2,"pm2_5":35.5,"no2":15.8,"co":310.0,"o3":89.0,"so2":8.5,"mosquito_risk":0,"arthritis_risk":5,"migraine_risk":4,"frizz_risk":1,"updated_at":"2026-05-23T22:32:49.657449+05:30"},{"city":"Guntur","state":"Andhra Pradesh","latitude":16.3067,"longitude":80.4365,"temp":33.2,"humidity":48,"rain":0.0,"pressure":1001.6,"uv_index":8.9,"wind_gusts":44.6,"aqi":94,"pm10":27.5,"pm2_5":24.8,"no2":10.8,"co":275.0,"o3":98.0,"so2":7.2,"mosquito_risk":0,"arthritis_risk":5,"migraine_risk":4,"frizz_risk":1,"updated_at":"2026-05-23T22:32:49.657455+05:30"},{"city":"Nellore","state":"Andhra Pradesh","latitude":14.4426,"longitude":79.9865,"temp":31.4,"humidity":58,"rain":0.0,"pressure":1005.3,"uv_index":8.95,"wind_gusts":54.0,"aqi":73,"pm10":24.1,"pm2_5":21.1,"no2":7.2,"co":183.0,"o3":95.0,"so2":6.6,"mosquito_risk":0,"arthritis_risk":5,"migraine_risk":4,"frizz_risk":1,"updated_at":"2026-05-23T22:32:49.657464+05:30"},{"city":"Kurnool","state":"Andhra Pradesh","latitude":15.8281,"longitude":78.0373,"temp":26.9,"humidity":73,"rain":0.0,"pressure":979.1,"uv_index":9.05,"wind_gusts":55.8,"aqi":73,"pm10":23.9,"pm2_5":20.7,"no2":7.6,"co":219.0,"o3":99.0,"so2":5.2,"mosquito_risk":7,"arthritis_risk":5,"migraine_risk":7,"frizz_risk":1,"updated_at":"2026-05-23T22:32:49.657472+05:30"},{"city":"Kakinada","state":"Andhra Pradesh","latitude":16.9891,"longitude":82.2475,"temp":33.8,"humidity":58,"rain":0.0,"pressure":1004.0,"uv_index":9.05,"wind_gusts":47.2,"aqi":133,"pm10":31.7,"pm2_5":24.2,"no2":3.7,"co":396.0,"o3":124.0,"so2":3.1,"mosquito_risk":0,"arthritis_risk":5,"migraine_risk":4,"frizz_risk":1,"updated_at":"2026-05-23T22:32:49.657480+05:30"},{"city":"Tirupati","state":"Andhra Pradesh","latitude":13.6288,"longitude":79.4192,"temp":29.1,"humidity":65,"rain":0.0,"pressure":991.7,"uv_index":6.65,"wind_gusts":42.1,"aqi":71,"pm10":29.3,"pm2_5":25.1,"no2":10.1,"co":208.0,"o3":88.0,"so2":5.3,"mosquito_risk":7,"arthritis_risk":5,"migraine_risk":7,"frizz_risk":1,"updated_at":"2026-05-23T22:32:49.657486+05:30"},{"city":"Warangal","state":"Telangana","latitude":17.9689,"longitude":79.5941,"temp":35.2,"humidity":31,"rain":0.0,"pressure":976.7,"uv_index":9.1,"wind_gusts":49.7,"aqi":97,"pm10":40.5,"pm2_5":35.7,"no2":14.1,"co":267.0,"o3":79.0,"so2":6.8,"mosquito_risk":0,"arthritis_risk":5,"migraine_risk":10,"frizz_risk":0,"updated_at":"2026-05-23T22:32:49.657494+05:30"},{"city":"Nizamabad","state":"Telangana","latitude":18.6725,"longitude":78.0941,"temp":34.0,"humidity":36,"rain":0.0,"pressure":964.8,"uv_index":9.1,"wind_gusts":47.2,"aqi":78,"pm10":35.2,"pm2_5":29.7,"no2":12.3,"co":231.0,"o3":70.0,"so2":4.9,"mosquito_risk":0,"arthritis_risk":5,"migraine_risk":7,"frizz_risk":1,"updated_at":"2026-05-23T22:32:49.657502+05:30"},{"city":"Mysore","state":"Karnataka","latitude":12.2958,"longitude":76.6396,"temp":22.2,"humidity":92,"rain":0.0,"pressure":931.5,"uv_index":8.7,"wind_gusts":40.7,"aqi":38,"pm10":11.0,"pm2_5":9.9,"no2":15.2,"co":271.0,"o3":52.0,"so2":2.7,"mosquito_risk":3,"arthritis_risk":5,"migraine_risk":7,"frizz_risk":1,"updated_at":"2026-05-23T22:32:49.657511+05:30"},{"city":"Mangalore","state":"Karnataka","latitude":12.9141,"longitude":74.856,"temp":24.2,"humidity":97,"rain":0.0,"pressure":1010.9,"uv_index":7.6,"wind_gusts":28.4,"aqi":40,"pm10":18.2,"pm2_5":12.8,"no2":9.2,"co":346.0,"o3":47.0,"so2":2.4,"mosquito_risk":3,"arthritis_risk":0,"migraine_risk":4,"frizz_risk":1,"updated_at":"2026-05-23T22:32:49.657519+05:30"},{"city":"Hubli-Dharwad","state":"Karnataka","latitude":15.3647,"longitude":75.124,"temp":23.6,"humidity":97,"rain":0.0,"pressure":943.8,"uv_index":9.0,"wind_gusts":51.8,"aqi":30,"pm10":7.0,"pm2_5":5.9,"no2":8.0,"co":164.0,"o3":39.0,"so2":1.4,"mosquito_risk":3,"arthritis_risk":5,"migraine_risk":7,"frizz_risk":1,"updated_at":"2026-05-23T22:32:49.657525+05:30"},{"city":"Belgaum","state":"Karnataka","latitude":15.8497,"longitude":74.4977,"temp":22.6,"humidity":96,"rain":0.0,"pressure":928.5,"uv_index":9.0,"wind_gusts":37.8,"aqi":31,"pm10":12.4,"pm2_5":10.3,"no2":11.3,"co":171.0,"o3":41.0,"so2":2.2,"mosquito_risk":3,"arthritis_risk":5,"migraine_risk":7,"frizz_risk":1,"updated_at":"2026-05-23T22:32:52.918873+05:30"},{"city":"Coimbatore","state":"Tamil Nadu","latitude":11.0168,"longitude":76.9558,"temp":24.5,"humidity":91,"rain":0.0,"pressure":964.5,"uv_index":8.8,"wind_gusts":49.3,"aqi":35,"pm10":7.7,"pm2_5":6.8,"no2":7.2,"co":223.0,"o3":56.0,"so2":2.8,"mosquito_risk":3,"arthritis_risk":5,"migraine_risk":7,"frizz_risk":1,"updated_at":"2026-05-23T22:32:52.918909+05:30"},{"city":"Madurai","state":"Tamil Nadu","latitude":9.9252,"longitude":78.1198,"temp":30.3,"humidity":61,"rain":0.0,"pressure":994.7,"uv_index":8.2,"wind_gusts":30.6,"aqi":54,"pm10":20.7,"pm2_5":17.9,"no2":23.6,"co":513.0,"o3":37.0,"so2":5.7,"mosquito_risk":3,"arthritis_risk":5,"migraine_risk":7,"frizz_risk":1,"updated_at":"2026-05-23T22:32:52.918920+05:30"},{"city":"Trichy","state":"Tamil Nadu","latitude":10.7905,"longitude":78.7047,"temp":29.5,"humidity":69,"rain":0.0,"pressure":1001.3,"uv_index":8.3,"wind_gusts":46.1,"aqi":44,"pm10":26.3,"pm2_5":21.5,"no2":21.6,"co":176.0,"o3":54.0,"so2":5.0,"mosquito_risk":7,"arthritis_risk":5,"migraine_risk":4,"frizz_risk":1,"updated_at":"2026-05-23T22:32:52.918929+05:30"},{"city":"Salem","state":"Tamil Nadu","latitude":11.6643,"longitude":78.146,"temp":28.3,"humidity":69,"rain":0.0,"pressure":979.8,"uv_index":8.3,"wind_gusts":38.5,"aqi":56,"pm10":27.2,"pm2_5":20.6,"no2":21.0,"co":242.0,"o3":54.0,"so2":6.6,"mosquito_risk":7,"arthritis_risk":5,"migraine_risk":7,"frizz_risk":1,"updated_at":"2026-05-23T22:32:52.918937+05:30"},{"city":"Tirunelveli","state":"Tamil Nadu","latitude":8.7139,"longitude":77.7567,"temp":29.2,"humidity":67,"rain":0.0,"pressure":1005.4,"uv_index":8.25,"wind_gusts":39.2,"aqi":34,"pm10":10.3,"pm2_5":8.7,"no2":8.3,"co":176.0,"o3":46.0,"so2":2.1,"mosquito_risk":7,"arthritis_risk":5,"migraine_risk":4,"frizz_risk":1,"updated_at":"2026-05-23T22:32:52.918944+05:30"},{"city":"Vellore","state":"Tamil Nadu","latitude":12.9165,"longitude":79.1325,"temp":29.5,"humidity":64,"rain":0.0,"pressure":985.8,"uv_index":8.1,"wind_gusts":42.8,"aqi":74,"pm10":25.7,"pm2_5":22.2,"no2":17.9,"co":470.0,"o3":65.0,"so2":4.8,"mosquito_risk":7,"arthritis_risk":5,"migraine_risk":7,"frizz_risk":1,"updated_at":"2026-05-23T22:32:52.918952+05:30"},{"city":"Erode","state":"Tamil Nadu","latitude":11.341,"longitude":77.7172,"temp":28.5,"humidity":65,"rain":0.0,"pressure":991.4,"uv_index":8.55,"wind_gusts":42.8,"aqi":42,"pm10":15.1,"pm2_5":12.8,"no2":17.7,"co":237.0,"o3":45.0,"so2":3.4,"mosquito_risk":7,"arthritis_risk":5,"migraine_risk":7,"frizz_risk":1,"updated_at":"2026-05-23T22:32:52.918959+05:30"},{"city":"Kochi","state":"Kerala","latitude":9.9312,"longitude":76.2673,"temp":26.1,"humidity":96,"rain":0.0,"pressure":1012.5,"uv_index":8.05,"wind_gusts":37.4,"aqi":59,"pm10":28.1,"pm2_5":25.1,"no2":29.1,"co":378.0,"o3":12.0,"so2":7.0,"mosquito_risk":7,"arthritis_risk":0,"migraine_risk":4,"frizz_risk":1,"updated_at":"2026-05-23T22:32:52.918967+05:30"},{"city":"Thiruvananthapuram","state":"Kerala","latitude":8.5241,"longitude":76.9366,"temp":25.3,"humidity":96,"rain":0.0,"pressure":1012.0,"uv_index":8.15,"wind_gusts":43.2,"aqi":41,"pm10":15.5,"pm2_5":9.4,"no2":3.7,"co":230.0,"o3":52.0,"so2":1.4,"mosquito_risk":7,"arthritis_risk":0,"migraine_risk":4,"frizz_risk":1,"updated_at":"2026-05-23T22:32:52.918974+05:30"},{"city":"Kozhikode","state":"Kerala","latitude":11.2588,"longitude":75.7804,"temp":25.4,"humidity":97,"rain":0.0,"pressure":1012.1,"uv_index":8.45,"wind_gusts":25.9,"aqi":32,"pm10":13.3,"pm2_5":8.5,"no2":2.1,"co":233.0,"o3":66.0,"so2":1.0,"mosquito_risk":7,"arthritis_risk":0,"migraine_risk":4,"frizz_risk":1,"updated_at":"2026-05-23T22:32:52.918980+05:30"},{"city":"Thrissur","state":"Kerala","latitude":10.5276,"longitude":76.2144,"temp":24.9,"humidity":99,"rain":0.0,"pressure":1011.0,"uv_index":8.6,"wind_gusts":29.2,"aqi":59,"pm10":35.0,"pm2_5":32.2,"no2":24.2,"co":669.0,"o3":19.0,"so2":5.7,"mosquito_risk":3,"arthritis_risk":0,"migraine_risk":4,"frizz_risk":1,"updated_at":"2026-05-23T22:32:52.918989+05:30"},{"city":"Kannur","state":"Kerala","latitude":11.8745,"longitude":75.3704,"temp":25.6,"humidity":97,"rain":0.0,"pressure":1011.3,"uv_index":7.85,"wind_gusts":24.5,"aqi":38,"pm10":10.7,"pm2_5":7.9,"no2":13.1,"co":293.0,"o3":38.0,"so2":2.3,"mosquito_risk":7,"arthritis_risk":0,"migraine_risk":4,"frizz_risk":1,"updated_at":"2026-05-23T22:32:52.918996+05:30"},{"city":"Patna","state":"Bihar","latitude":25.5941,"longitude":85.1376,"temp":32.5,"humidity":66,"rain":0.0,"pressure":995.9,"uv_index":8.85,"wind_gusts":36.0,"aqi":158,"pm10":174.6,"pm2_5":106.2,"no2":59.9,"co":921.0,"o3":59.0,"so2":28.7,"mosquito_risk":3,"arthritis_risk":5,"migraine_risk":7,"frizz_risk":1,"updated_at":"2026-05-23T22:32:52.919003+05:30"},{"city":"Gaya","state":"Bihar","latitude":24.7914,"longitude":85.0002,"temp":32.7,"humidity":41,"rain":0.0,"pressure":989.6,"uv_index":8.9,"wind_gusts":36.0,"aqi":158,"pm10":174.2,"pm2_5":72.6,"no2":26.3,"co":691.0,"o3":65.0,"so2":11.5,"mosquito_risk":0,"arthritis_risk":5,"migraine_risk":7,"frizz_risk":1,"updated_at":"2026-05-23T22:32:52.919010+05:30"},{"city":"Muzaffarpur","state":"Bihar","latitude":26.1209,"longitude":85.3647,"temp":30.5,"humidity":77,"rain":0.0,"pressure":995.9,"uv_index":8.85,"wind_gusts":21.6,"aqi":157,"pm10":105.0,"pm2_5":77.3,"no2":20.9,"co":687.0,"o3":110.0,"so2":19.7,"mosquito_risk":3,"arthritis_risk":5,"migraine_risk":7,"frizz_risk":1,"updated_at":"2026-05-23T22:32:52.919017+05:30"},{"city":"Bhagalpur","state":"Bihar","latitude":25.2425,"longitude":87.0117,"temp":30.0,"humidity":78,"rain":0.0,"pressure":996.9,"uv_index":8.8,"wind_gusts":38.2,"aqi":151,"pm10":98.0,"pm2_5":67.5,"no2":15.9,"co":620.0,"o3":111.0,"so2":19.7,"mosquito_risk":7,"arthritis_risk":5,"migraine_risk":7,"frizz_risk":1,"updated_at":"2026-05-23T22:32:52.919024+05:30"},{"city":"Ranchi","state":"Jharkhand","latitude":23.3441,"longitude":85.3096,"temp":28.4,"humidity":37,"rain":0.0,"pressure":935.1,"uv_index":9.3,"wind_gusts":41.0,"aqi":128,"pm10":88.2,"pm2_5":39.8,"no2":16.5,"co":327.0,"o3":84.0,"so2":8.7,"mosquito_risk":4,"arthritis_risk":5,"migraine_risk":7,"frizz_risk":0,"updated_at":"2026-05-23T22:32:52.919031+05:30"},{"city":"Jamshedpur","state":"Jharkhand","latitude":22.8046,"longitude":86.2029,"temp":30.6,"humidity":68,"rain":0.0,"pressure":988.0,"uv_index":9.1,"wind_gusts":28.4,"aqi":153,"pm10":50.6,"pm2_5":43.1,"no2":10.8,"co":616.0,"o3":99.0,"so2":17.6,"mosquito_risk":3,"arthritis_risk":5,"migraine_risk":7,"frizz_risk":1,"updated_at":"2026-05-23T22:32:52.919038+05:30"},{"city":"Dhanbad","state":"Jharkhand","latitude":23.7957,"longitude":86.4304,"temp":30.6,"humidity":69,"rain":0.0,"pressure":977.1,"uv_index":9.05,"wind_gusts":38.9,"aqi":163,"pm10":105.7,"pm2_5":75.2,"no2":62.3,"co":519.0,"o3":54.0,"so2":96.3,"mosquito_risk":3,"arthritis_risk":5,"migraine_risk":7,"frizz_risk":1,"updated_at":"2026-05-23T22:32:52.919045+05:30"},{"city":"Bokaro","state":"Jharkhand","latitude":23.6693,"longitude":86.1511,"temp":30.7,"humidity":56,"rain":0.0,"pressure":980.6,"uv_index":9.1,"wind_gusts":31.3,"aqi":164,"pm10":132.7,"pm2_5":78.0,"no2":55.5,"co":1334.0,"o3":46.0,"so2":75.2,"mosquito_risk":0,"arthritis_risk":5,"migraine_risk":7,"frizz_risk":1,"updated_at":"2026-05-23T22:32:52.919051+05:30"},{"city":"Bhubaneswar","state":"Odisha","latitude":20.2961,"longitude":85.8245,"temp":28.8,"humidity":97,"rain":0.0,"pressure":1000.0,"uv_index":8.45,"wind_gusts":38.9,"aqi":89,"pm10":20.2,"pm2_5":16.0,"no2":5.7,"co":303.0,"o3":91.0,"so2":4.1,"mosquito_risk":7,"arthritis_risk":5,"migraine_risk":4,"frizz_risk":1,"updated_at":"2026-05-23T22:32:52.919059+05:30"},{"city":"Cuttack","state":"Odisha","latitude":20.4625,"longitude":85.8828,"temp":29.0,"humidity":96,"rain":0.0,"pressure":1001.8,"uv_index":8.35,"wind_gusts":31.7,"aqi":89,"pm10":20.2,"pm2_5":16.0,"no2":5.7,"co":328.0,"o3":91.0,"so2":4.1,"mosquito_risk":7,"arthritis_risk":5,"migraine_risk":4,"frizz_risk":1,"updated_at":"2026-05-23T22:32:52.919066+05:30"},{"city":"Rourkela","state":"Odisha","latitude":22.2604,"longitude":84.8536,"temp":31.0,"humidity":71,"rain":0.0,"pressure":982.1,"uv_index":9.0,"wind_gusts":38.2,"aqi":157,"pm10":104.1,"pm2_5":63.8,"no2":39.9,"co":311.0,"o3":51.0,"so2":9.8,"mosquito_risk":3,"arthritis_risk":5,"migraine_risk":7,"frizz_risk":1,"updated_at":"2026-05-23T22:32:52.919073+05:30"},{"city":"Raipur","state":"Chhattisgarh","latitude":21.2514,"longitude":81.6296,"temp":34.9,"humidity":29,"rain":0.0,"pressure":971.8,"uv_index":8.85,"wind_gusts":45.4,"aqi":130,"pm10":47.0,"pm2_5":38.0,"no2":42.8,"co":369.0,"o3":38.0,"so2":47.7,"mosquito_risk":0,"arthritis_risk":5,"migraine_risk":7,"frizz_risk":0,"updated_at":"2026-05-23T22:32:52.919080+05:30"},{"city":"Bhilai","state":"Chhattisgarh","latitude":21.1938,"longitude":81.3509,"temp":34.2,"humidity":24,"rain":0.0,"pressure":972.1,"uv_index":8.95,"wind_gusts":45.7,"aqi":101,"pm10":55.5,"pm2_5":44.2,"no2":38.5,"co":428.0,"o3":37.0,"so2":33.7,"mosquito_risk":0,"arthritis_risk":5,"migraine_risk":7,"frizz_risk":0,"updated_at":"2026-05-23T22:32:52.919087+05:30"},{"city":"Guwahati","state":"Assam","latitude":26.1158,"longitude":91.7086,"temp":24.2,"humidity":98,"rain":0.2,"pressure":999.3,"uv_index":8.75,"wind_gusts":25.9,"aqi":58,"pm10":25.4,"pm2_5":18.4,"no2":7.1,"co":375.0,"o3":88.0,"so2":3.4,"mosquito_risk":6,"arthritis_risk":5,"migraine_risk":7,"frizz_risk":1,"updated_at":"2026-05-23T22:32:52.919094+05:30"},{"city":"Agartala","state":"Tripura","latitude":23.8315,"longitude":91.2868,"temp":28.1,"humidity":87,"rain":0.0,"pressure":1005.1,"uv_index":8.8,"wind_gusts":44.6,"aqi":76,"pm10":29.0,"pm2_5":23.4,"no2":6.9,"co":213.0,"o3":54.0,"so2":2.2,"mosquito_risk":7,"arthritis_risk":5,"migraine_risk":4,"frizz_risk":1,"updated_at":"2026-05-23T22:32:52.919101+05:30"},{"city":"Shillong","state":"Meghalaya","latitude":25.5788,"longitude":91.8933,"temp":20.6,"humidity":92,"rain":0.0,"pressure":856.3,"uv_index":9.05,"wind_gusts":51.5,"aqi":47,"pm10":8.6,"pm2_5":6.5,"no2":5.6,"co":219.0,"o3":87.0,"so2":3.2,"mosquito_risk":3,"arthritis_risk":5,"migraine_risk":7,"frizz_risk":1,"updated_at":"2026-05-23T22:32:52.919108+05:30"},{"city":"Imphal","state":"Manipur","latitude":24.817,"longitude":93.9368,"temp":23.0,"humidity":95,"rain":0.0,"pressure":922.8,"uv_index":9.0,"wind_gusts":36.0,"aqi":54,"pm10":23.7,"pm2_5":19.2,"no2":13.1,"co":419.0,"o3":41.0,"so2":2.5,"mosquito_risk":3,"arthritis_risk":5,"migraine_risk":7,"frizz_risk":1,"updated_at":"2026-05-23T22:32:52.919115+05:30"},{"city":"Aizawl","state":"Mizoram","latitude":23.7271,"longitude":92.7176,"temp":19.9,"humidity":94,"rain":0.0,"pressure":892.2,"uv_index":9.0,"wind_gusts":38.2,"aqi":59,"pm10":23.2,"pm2_5":15.2,"no2":2.7,"co":187.0,"o3":69.0,"so2":1.5,"mosquito_risk":3,"arthritis_risk":10,"migraine_risk":7,"frizz_risk":1,"updated_at":"2026-05-23T22:32:52.919122+05:30"},{"city":"Kohima","state":"Nagaland","latitude":25.6701,"longitude":94.1077,"temp":17.2,"humidity":94,"rain":0.0,"pressure":853.0,"uv_index":9.3,"wind_gusts":26.6,"aqi":35,"pm10":13.8,"pm2_5":10.2,"no2":8.4,"co":315.0,"o3":46.0,"so2":1.3,"mosquito_risk":3,"arthritis_risk":10,"migraine_risk":7,"frizz_risk":1,"updated_at":"2026-05-23T22:32:52.919130+05:30"},{"city":"Gangtok","state":"Sikkim","latitude":27.3314,"longitude":88.6138,"temp":16.7,"humidity":96,"rain":0.1,"pressure":835.9,"uv_index":9.15,"wind_gusts":32.4,"aqi":74,"pm10":17.5,"pm2_5":9.0,"no2":3.9,"co":407.0,"o3":132.0,"so2":3.1,"mosquito_risk":6,"arthritis_risk":10,"migraine_risk":7,"frizz_risk":1,"updated_at":"2026-05-23T22:32:52.919137+05:30"},{"city":"Siliguri","state":"West Bengal","latitude":26.7271,"longitude":88.3953,"temp":23.6,"humidity":97,"rain":0.1,"pressure":991.1,"uv_index":8.75,"wind_gusts":23.8,"aqi":85,"pm10":36.3,"pm2_5":21.3,"no2":8.7,"co":643.0,"o3":117.0,"so2":5.1,"mosquito_risk":6,"arthritis_risk":5,"migraine_risk":7,"frizz_risk":1,"updated_at":"2026-05-23T22:32:56.189694+05:30"},{"city":"Durgapur","state":"West Bengal","latitude":23.5204,"longitude":87.3119,"temp":29.1,"humidity":88,"rain":0.0,"pressure":992.2,"uv_index":9.0,"wind_gusts":34.9,"aqi":155,"pm10":44.6,"pm2_5":37.4,"no2":16.7,"co":348.0,"o3":70.0,"so2":24.4,"mosquito_risk":7,"arthritis_risk":5,"migraine_risk":7,"frizz_risk":1,"updated_at":"2026-05-23T22:32:56.189732+05:30"},{"city":"Asansol","state":"West Bengal","latitude":23.6739,"longitude":86.9524,"temp":29.5,"humidity":86,"rain":0.0,"pressure":990.7,"uv_index":9.0,"wind_gusts":33.1,"aqi":153,"pm10":47.6,"pm2_5":42.3,"no2":22.8,"co":557.0,"o3":75.0,"so2":25.9,"mosquito_risk":7,"arthritis_risk":5,"migraine_risk":7,"frizz_risk":1,"updated_at":"2026-05-23T22:32:56.189744+05:30"},{"city":"Pondicherry","state":"Puducherry","latitude":11.9139,"longitude":79.8145,"temp":30.0,"humidity":72,"rain":0.0,"pressure":1009.3,"uv_index":4.65,"wind_gusts":37.4,"aqi":76,"pm10":26.4,"pm2_5":20.6,"no2":19.7,"co":407.0,"o3":84.0,"so2":10.7,"mosquito_risk":7,"arthritis_risk":0,"migraine_risk":0,"frizz_risk":1,"updated_at":"2026-05-23T22:32:56.189753+05:30"},{"city":"Port Blair","state":"Andaman and Nicobar Islands","latitude":11.6234,"longitude":92.7265,"temp":26.6,"humidity":88,"rain":0.0,"pressure":1008.6,"uv_index":8.05,"wind_gusts":34.9,"aqi":30,"pm10":10.6,"pm2_5":5.9,"no2":0.3,"co":115.0,"o3":78.0,"so2":0.6,"mosquito_risk":7,"arthritis_risk":0,"migraine_risk":4,"frizz_risk":1,"updated_at":"2026-05-23T22:32:56.189761+05:30"},{"city":"Haridwar","state":"Uttarakhand","latitude":29.9457,"longitude":78.1642,"temp":29.1,"humidity":35,"rain":0.0,"pressure":969.4,"uv_index":7.55,"wind_gusts":47.2,"aqi":89,"pm10":46.6,"pm2_5":26.0,"no2":11.9,"co":289.0,"o3":94.0,"so2":9.8,"mosquito_risk":4,"arthritis_risk":5,"migraine_risk":7,"frizz_risk":0,"updated_at":"2026-05-23T22:32:56.189769+05:30"},{"city":"Rishikesh","state":"Uttarakhand","latitude":30.0869,"longitude":78.2676,"temp":27.4,"humidity":42,"rain":0.0,"pressure":962.1,"uv_index":7.65,"wind_gusts":42.8,"aqi":98,"pm10":32.2,"pm2_5":20.0,"no2":8.0,"co":303.0,"o3":116.0,"so2":8.4,"mosquito_risk":4,"arthritis_risk":5,"migraine_risk":7,"frizz_risk":0,"updated_at":"2026-05-23T22:32:56.189777+05:30"},{"city":"Nainital","state":"Uttarakhand","latitude":29.3919,"longitude":79.4542,"temp":15.7,"humidity":55,"rain":0.0,"pressure":802.8,"uv_index":8.5,"wind_gusts":49.0,"aqi":115,"pm10":72.2,"pm2_5":25.9,"no2":7.5,"co":248.0,"o3":116.0,"so2":5.9,"mosquito_risk":0,"arthritis_risk":5,"migraine_risk":7,"frizz_risk":0,"updated_at":"2026-05-23T22:32:56.189785+05:30"},{"city":"Mussoorie","state":"Uttarakhand","latitude":30.4599,"longitude":78.0664,"temp":17.6,"humidity":44,"rain":0.0,"pressure":801.2,"uv_index":8.05,"wind_gusts":54.0,"aqi":84,"pm10":39.0,"pm2_5":23.5,"no2":20.7,"co":268.0,"o3":88.0,"so2":7.6,"mosquito_risk":0,"arthritis_risk":5,"migraine_risk":7,"frizz_risk":0,"updated_at":"2026-05-23T22:32:56.189793+05:30"},{"city":"Dharamshala","state":"Himachal Pradesh","latitude":32.219,"longitude":76.3234,"temp":21.2,"humidity":41,"rain":0.0,"pressure":867.2,"uv_index":8.4,"wind_gusts":48.2,"aqi":53,"pm10":34.0,"pm2_5":14.6,"no2":16.1,"co":228.0,"o3":37.0,"so2":0.7,"mosquito_risk":0,"arthritis_risk":5,"migraine_risk":7,"frizz_risk":0,"updated_at":"2026-05-23T22:32:56.189816+05:30"},{"city":"Dalhousie","state":"Himachal Pradesh","latitude":32.5387,"longitude":75.971,"temp":12.5,"humidity":61,"rain":0.0,"pressure":800.7,"uv_index":8.65,"wind_gusts":45.4,"aqi":70,"pm10":49.4,"pm2_5":28.4,"no2":47.4,"co":491.0,"o3":22.0,"so2":2.2,"mosquito_risk":3,"arthritis_risk":5,"migraine_risk":7,"frizz_risk":0,"updated_at":"2026-05-23T22:32:56.189825+05:30"},{"city":"Patiala","state":"Punjab","latitude":30.3398,"longitude":76.3869,"temp":32.0,"humidity":26,"rain":0.0,"pressure":974.4,"uv_index":7.65,"wind_gusts":50.4,"aqi":325,"pm10":922.0,"pm2_5":144.4,"no2":11.1,"co":337.0,"o3":87.0,"so2":7.5,"mosquito_risk":0,"arthritis_risk":5,"migraine_risk":7,"frizz_risk":0,"updated_at":"2026-05-23T22:32:56.189833+05:30"},{"city":"Bhatinda","state":"Punjab","latitude":30.211,"longitude":74.9455,"temp":32.5,"humidity":31,"rain":0.0,"pressure":980.3,"uv_index":8.3,"wind_gusts":36.4,"aqi":89,"pm10":51.0,"pm2_5":30.5,"no2":14.7,"co":342.0,"o3":86.0,"so2":8.3,"mosquito_risk":0,"arthritis_risk":5,"migraine_risk":7,"frizz_risk":0,"updated_at":"2026-05-23T22:32:56.189839+05:30"},{"city":"Rohtak","state":"Haryana","latitude":28.8955,"longitude":76.6066,"temp":32.5,"humidity":27,"rain":0.0,"pressure":978.0,"uv_index":7.75,"wind_gusts":49.0,"aqi":703,"pm10":1005.8,"pm2_5":189.1,"no2":28.6,"co":347.0,"o3":61.0,"so2":9.7,"mosquito_risk":0,"arthritis_risk":5,"migraine_risk":7,"frizz_risk":0,"updated_at":"2026-05-23T22:32:56.189846+05:30"},{"city":"Panipat","state":"Haryana","latitude":29.3909,"longitude":76.9635,"temp":33.0,"humidity":24,"rain":0.0,"pressure":976.6,"uv_index":7.4,"wind_gusts":52.2,"aqi":1509,"pm10":1505.0,"pm2_5":249.6,"no2":14.9,"co":272.0,"o3":82.0,"so2":8.5,"mosquito_risk":0,"arthritis_risk":5,"migraine_risk":7,"frizz_risk":0,"updated_at":"2026-05-23T22:32:56.189853+05:30"},{"city":"Mathura","state":"Uttar Pradesh","latitude":27.4924,"longitude":77.6737,"temp":33.5,"humidity":28,"rain":0.0,"pressure":982.9,"uv_index":8.0,"wind_gusts":48.2,"aqi":655,"pm10":264.5,"pm2_5":74.3,"no2":31.6,"co":337.0,"o3":35.0,"so2":5.9,"mosquito_risk":0,"arthritis_risk":5,"migraine_risk":7,"frizz_risk":0,"updated_at":"2026-05-23T22:32:56.189860+05:30"},{"city":"Vrindavan","state":"Uttar Pradesh","latitude":27.5823,"longitude":77.7027,"temp":32.7,"humidity":28,"rain":0.0,"pressure":983.2,"uv_index":8.0,"wind_gusts":47.2,"aqi":655,"pm10":264.5,"pm2_5":74.3,"no2":31.6,"co":320.0,"o3":35.0,"so2":5.9,"mosquito_risk":0,"arthritis_risk":5,"migraine_risk":7,"frizz_risk":0,"updated_at":"2026-05-23T22:32:56.189866+05:30"},{"city":"Ayodhya","state":"Uttar Pradesh","latitude":26.7922,"longitude":82.1998,"temp":32.0,"humidity":33,"rain":0.0,"pressure":990.7,"uv_index":8.35,"wind_gusts":49.0,"aqi":154,"pm10":207.2,"pm2_5":63.1,"no2":14.0,"co":238.0,"o3":87.0,"so2":10.1,"mosquito_risk":0,"arthritis_risk":5,"migraine_risk":7,"frizz_risk":0,"updated_at":"2026-05-23T22:32:56.189873+05:30"},{"city":"Ratlam","state":"Madhya Pradesh","latitude":23.3315,"longitude":75.0367,"temp":32.2,"humidity":28,"rain":0.0,"pressure":954.3,"uv_index":8.55,"wind_gusts":46.1,"aqi":73,"pm10":74.7,"pm2_5":34.1,"no2":3.1,"co":184.0,"o3":84.0,"so2":3.5,"mosquito_risk":0,"arthritis_risk":5,"migraine_risk":7,"frizz_risk":0,"updated_at":"2026-05-23T22:32:56.189881+05:30"},{"city":"Sagar","state":"Madhya Pradesh","latitude":23.8388,"longitude":78.7378,"temp":33.4,"humidity":22,"rain":0.0,"pressure":948.9,"uv_index":8.75,"wind_gusts":45.0,"aqi":70,"pm10":71.9,"pm2_5":34.2,"no2":14.7,"co":242.0,"o3":57.0,"so2":3.5,"mosquito_risk":0,"arthritis_risk":5,"migraine_risk":7,"frizz_risk":0,"updated_at":"2026-05-23T22:32:56.189888+05:30"},{"city":"Satna","state":"Madhya Pradesh","latitude":24.6005,"longitude":80.8322,"temp":32.6,"humidity":29,"rain":0.0,"pressure":968.6,"uv_index":8.8,"wind_gusts":50.0,"aqi":100,"pm10":128.5,"pm2_5":49.1,"no2":15.8,"co":227.0,"o3":61.0,"so2":3.9,"mosquito_risk":0,"arthritis_risk":5,"migraine_risk":7,"frizz_risk":0,"updated_at":"2026-05-23T22:32:56.189894+05:30"},{"city":"Akola","state":"Maharashtra","latitude":20.7002,"longitude":77.0082,"temp":35.9,"humidity":30,"rain":0.0,"pressure":974.4,"uv_index":8.9,"wind_gusts":50.8,"aqi":64,"pm10":25.6,"pm2_5":18.9,"no2":8.8,"co":171.0,"o3":70.0,"so2":5.6,"mosquito_risk":0,"arthritis_risk":5,"migraine_risk":10,"frizz_risk":0,"updated_at":"2026-05-23T22:32:56.189902+05:30"},{"city":"Amravati","state":"Maharashtra","latitude":20.9374,"longitude":77.7796,"temp":36.0,"humidity":26,"rain":0.0,"pressure":966.6,"uv_index":8.9,"wind_gusts":54.7,"aqi":66,"pm10":27.5,"pm2_5":19.7,"no2":11.5,"co":177.0,"o3":62.0,"so2":4.8,"mosquito_risk":0,"arthritis_risk":5,"migraine_risk":10,"frizz_risk":0,"updated_at":"2026-05-23T22:32:56.189910+05:30"},{"city":"Latur","state":"Maharashtra","latitude":18.4088,"longitude":76.5604,"temp":29.0,"humidity":57,"rain":0.0,"pressure":941.2,"uv_index":9.05,"wind_gusts":43.2,"aqi":69,"pm10":26.5,"pm2_5":23.6,"no2":8.5,"co":241.0,"o3":84.0,"so2":3.3,"mosquito_risk":4,"arthritis_risk":5,"migraine_risk":7,"frizz_risk":1,"updated_at":"2026-05-23T22:32:56.189918+05:30"},{"city":"Nanded","state":"Maharashtra","latitude":19.1383,"longitude":77.3091,"temp":33.5,"humidity":39,"rain":0.0,"pressure":968.7,"uv_index":9.0,"wind_gusts":45.0,"aqi":70,"pm10":29.1,"pm2_5":23.1,"no2":8.0,"co":199.0,"o3":80.0,"so2":4.1,"mosquito_risk":0,"arthritis_risk":5,"migraine_risk":7,"frizz_risk":1,"updated_at":"2026-05-23T22:32:56.189926+05:30"},{"city":"Gulbarga","state":"Karnataka","latitude":17.3297,"longitude":76.8343,"temp":28.1,"humidity":70,"rain":0.1,"pressure":960.3,"uv_index":9.0,"wind_gusts":45.0,"aqi":60,"pm10":20.4,"pm2_5":17.8,"no2":10.9,"co":234.0,"o3":79.0,"so2":3.1,"mosquito_risk":10,"arthritis_risk":5,"migraine_risk":7,"frizz_risk":1,"updated_at":"2026-05-23T22:32:56.189932+05:30"},{"city":"Bidar","state":"Karnataka","latitude":17.9104,"longitude":77.5199,"temp":25.6,"humidity":75,"rain":0.0,"pressure":936.8,"uv_index":8.95,"wind_gusts":45.7,"aqi":81,"pm10":30.6,"pm2_5":26.8,"no2":11.0,"co":262.0,"o3":88.0,"so2":4.0,"mosquito_risk":7,"arthritis_risk":5,"migraine_risk":7,"frizz_risk":1,"updated_at":"2026-05-23T22:32:56.189940+05:30"},{"city":"Hospet","state":"Karnataka","latitude":15.2689,"longitude":76.3909,"temp":24.2,"humidity":96,"rain":0.2,"pressure":958.8,"uv_index":8.95,"wind_gusts":42.5,"aqi":42,"pm10":10.7,"pm2_5":9.8,"no2":13.9,"co":210.0,"o3":47.0,"so2":1.9,"mosquito_risk":6,"arthritis_risk":5,"migraine_risk":7,"frizz_risk":1,"updated_at":"2026-05-23T22:32:56.189946+05:30"},{"city":"Tirupur","state":"Tamil Nadu","latitude":11.1085,"longitude":77.3411,"temp":25.5,"humidity":86,"rain":0.0,"pressure":977.9,"uv_index":8.85,"wind_gusts":45.0,"aqi":39,"pm10":15.7,"pm2_5":13.2,"no2":18.6,"co":204.0,"o3":42.0,"so2":3.8,"mosquito_risk":7,"arthritis_risk":5,"migraine_risk":7,"frizz_risk":1,"updated_at":"2026-05-23T22:32:56.189953+05:30"},{"city":"Alappuzha","state":"Kerala","latitude":9.4981,"longitude":76.3388,"temp":26.2,"humidity":93,"rain":0.0,"pressure":1012.6,"uv_index":7.55,"wind_gusts":41.8,"aqi":49,"pm10":18.7,"pm2_5":14.8,"no2":15.3,"co":98.0,"o3":40.0,"so2":4.0,"mosquito_risk":7,"arthritis_risk":0,"migraine_risk":4,"frizz_risk":1,"updated_at":"2026-05-23T22:32:56.189960+05:30"},{"city":"Munnar","state":"Kerala","latitude":10.0889,"longitude":77.0595,"temp":17.5,"humidity":96,"rain":0.0,"pressure":859.2,"uv_index":8.7,"wind_gusts":32.0,"aqi":30,"pm10":12.3,"pm2_5":11.4,"no2":9.4,"co":183.0,"o3":43.0,"so2":1.7,"mosquito_risk":3,"arthritis_risk":10,"migraine_risk":7,"frizz_risk":1,"updated_at":"2026-05-23T22:32:56.189967+05:30"},{"city":"Silchar","state":"Assam","latitude":24.8333,"longitude":92.7789,"temp":23.5,"humidity":92,"rain":0.0,"pressure":1004.7,"uv_index":8.45,"wind_gusts":38.9,"aqi":56,"pm10":26.3,"pm2_5":15.8,"no2":5.4,"co":270.0,"o3":74.0,"so2":2.7,"mosquito_risk":3,"arthritis_risk":5,"migraine_risk":4,"frizz_risk":1,"updated_at":"2026-05-23T22:32:56.189973+05:30"},{"city":"Dibrugarh","state":"Assam","latitude":27.4728,"longitude":94.912,"temp":23.0,"humidity":98,"rain":0.2,"pressure":993.6,"uv_index":8.9,"wind_gusts":37.1,"aqi":59,"pm10":14.7,"pm2_5":12.1,"no2":9.3,"co":255.0,"o3":79.0,"so2":1.8,"mosquito_risk":6,"arthritis_risk":5,"migraine_risk":7,"frizz_risk":1,"updated_at":"2026-05-23T22:32:56.189979+05:30"}]