[{"city":"Delhi","state":"Delhi","latitude":28.6139,"longitude":77.209,"temp":29.6,"humidity":44,"rain":0.0,"pressure":982.0,"uv_index":7.4,"wind_gusts":27.7,"aqi":161,"pm10":211.9,"pm2_5":75.9,"mosquito_risk":4,"arthritis_risk":5,"migraine_risk":7,"frizz_risk":0,"updated_at":"2026-04-24T08:24:22.602224+05:30"},{"city":"Mumbai","state":"Maharashtra","latitude":19.076,"longitude":72.8777,"temp":28.8,"humidity":81,"rain":0.0,"pressure":1008.3,"uv_index":8.05,"wind_gusts":24.5,"aqi":80,"pm10":31.5,"pm2_5":22.9,"mosquito_risk":7,"arthritis_risk":0,"migraine_risk":4,"frizz_risk":1,"updated_at":"2026-04-24T08:24:22.602259+05:30"},{"city":"Bangalore","state":"Karnataka","latitude":12.9716,"longitude":77.5946,"temp":25.6,"humidity":68,"rain":0.0,"pressure":912.5,"uv_index":9.6,"wind_gusts":34.9,"aqi":80,"pm10":37.8,"pm2_5":35.7,"mosquito_risk":7,"arthritis_risk":5,"migraine_risk":7,"frizz_risk":1,"updated_at":"2026-04-24T08:24:22.602274+05:30"},{"city":"Hyderabad","state":"Telangana","latitude":17.385,"longitude":78.4867,"temp":29.7,"humidity":54,"rain":0.0,"pressure":954.6,"uv_index":9.3,"wind_gusts":40.3,"aqi":123,"pm10":44.5,"pm2_5":39.1,"mosquito_risk":4,"arthritis_risk":5,"migraine_risk":7,"frizz_risk":1,"updated_at":"2026-04-24T08:24:22.602283+05:30"},{"city":"Chennai","state":"Tamil Nadu","latitude":13.0827,"longitude":80.2707,"temp":31.0,"humidity":70,"rain":0.0,"pressure":1007.8,"uv_index":8.7,"wind_gusts":33.5,"aqi":30,"pm10":10.3,"pm2_5":7.2,"mosquito_risk":3,"arthritis_risk":5,"migraine_risk":4,"frizz_risk":1,"updated_at":"2026-04-24T08:24:22.602292+05:30"},{"city":"Kolkata","state":"West Bengal","latitude":22.5726,"longitude":88.3639,"temp":30.1,"humidity":82,"rain":0.0,"pressure":1007.0,"uv_index":8.9,"wind_gusts":25.2,"aqi":97,"pm10":28.3,"pm2_5":22.7,"mosquito_risk":3,"arthritis_risk":5,"migraine_risk":4,"frizz_risk":1,"updated_at":"2026-04-24T08:24:22.602303+05:30"},{"city":"Pune","state":"Maharashtra","latitude":18.5204,"longitude":73.8567,"temp":29.7,"humidity":60,"rain":0.0,"pressure":949.6,"uv_index":8.6,"wind_gusts":28.1,"aqi":111,"pm10":53.7,"pm2_5":49.9,"mosquito_risk":4,"arthritis_risk":5,"migraine_risk":7,"frizz_risk":1,"updated_at":"2026-04-24T08:24:22.602311+05:30"},{"city":"Ahmedabad","state":"Gujarat","latitude":23.0225,"longitude":72.5714,"temp":28.9,"humidity":61,"rain":0.0,"pressure":1002.9,"uv_index":8.2,"wind_gusts":23.4,"aqi":50,"pm10":13.4,"pm2_5":8.8,"mosquito_risk":7,"arthritis_risk":5,"migraine_risk":4,"frizz_risk":1,"updated_at":"2026-04-24T08:24:22.602318+05:30"},{"city":"Jaipur","state":"Rajasthan","latitude":26.9124,"longitude":75.7873,"temp":31.0,"humidity":33,"rain":0.0,"pressure":960.4,"uv_index":8.05,"wind_gusts":29.9,"aqi":71,"pm10":223.5,"pm2_5":33.2,"mosquito_risk":0,"arthritis_risk":5,"migraine_risk":7,"frizz_risk":0,"updated_at":"2026-04-24T08:24:22.602326+05:30"},{"city":"Lucknow","state":"Uttar Pradesh","latitude":26.8467,"longitude":80.9462,"temp":29.2,"humidity":43,"rain":0.0,"pressure":993.7,"uv_index":7.9,"wind_gusts":19.8,"aqi":163,"pm10":83.6,"pm2_5":34.1,"mosquito_risk":4,"arthritis_risk":5,"migraine_risk":7,"frizz_risk":0,"updated_at":"2026-04-24T08:24:22.602333+05:30"},{"city":"Kanpur","state":"Uttar Pradesh","latitude":26.4499,"longitude":80.3319,"temp":28.5,"humidity":53,"rain":0.0,"pressure":991.5,"uv_index":7.95,"wind_gusts":18.4,"aqi":219,"pm10":170.9,"pm2_5":39.5,"mosquito_risk":4,"arthritis_risk":5,"migraine_risk":7,"frizz_risk":1,"updated_at":"2026-04-24T08:24:22.602340+05:30"},{"city":"Chandigarh","state":"Chandigarh","latitude":30.7333,"longitude":76.7794,"temp":28.0,"humidity":57,"rain":0.0,"pressure":967.7,"uv_index":7.4,"wind_gusts":28.8,"aqi":70,"pm10":26.2,"pm2_5":23.1,"mosquito_risk":4,"arthritis_risk":5,"migraine_risk":7,"frizz_risk":1,"updated_at":"2026-04-24T08:24:22.602347+05:30"},{"city":"Srinagar","state":"Jammu and Kashmir","latitude":34.0837,"longitude":74.7973,"temp":16.8,"humidity":67,"rain":0.0,"pressure":845.4,"uv_index":8.5,"wind_gusts":29.5,"aqi":77,"pm10":40.5,"pm2_5":32.2,"mosquito_risk":3,"arthritis_risk":5,"migraine_risk":7,"frizz_risk":0,"updated_at":"2026-04-24T08:24:22.602354+05:30"},{"city":"Jammu","state":"Jammu and Kashmir","latitude":32.7266,"longitude":74.857,"temp":29.0,"humidity":58,"rain":0.0,"pressure":971.6,"uv_index":8.2,"wind_gusts":36.7,"aqi":71,"pm10":22.4,"pm2_5":19.4,"mosquito_risk":4,"arthritis_risk":5,"migraine_risk":7,"frizz_risk":1,"updated_at":"2026-04-24T08:24:22.602361+05:30"},{"city":"Amritsar","state":"Punjab","latitude":31.634,"longitude":74.8723,"temp":28.4,"humidity":62,"rain":0.0,"pressure":979.9,"uv_index":8.1,"wind_gusts":38.5,"aqi":86,"pm10":54.0,"pm2_5":43.3,"mosquito_risk":7,"arthritis_risk":5,"migraine_risk":7,"frizz_risk":1,"updated_at":"2026-04-24T08:24:22.602367+05:30"},{"city":"Ludhiana","state":"Punjab","latitude":30.901,"longitude":75.8573,"temp":29.0,"humidity":56,"rain":0.0,"pressure":977.8,"uv_index":7.7,"wind_gusts":35.3,"aqi":83,"pm10":37.0,"pm2_5":32.5,"mosquito_risk":4,"arthritis_risk":5,"migraine_risk":7,"frizz_risk":1,"updated_at":"2026-04-24T08:24:22.602376+05:30"},{"city":"Jalandhar","state":"Punjab","latitude":31.326,"longitude":75.5762,"temp":28.7,"humidity":57,"rain":0.0,"pressure":978.9,"uv_index":7.85,"wind_gusts":30.6,"aqi":88,"pm10":56.3,"pm2_5":46.9,"mosquito_risk":4,"arthritis_risk":5,"migraine_risk":7,"frizz_risk":1,"updated_at":"2026-04-24T08:24:22.602382+05:30"},{"city":"Dehradun","state":"Uttarakhand","latitude":30.6284,"longitude":78.0322,"temp":22.4,"humidity":44,"rain":0.0,"pressure":833.4,"uv_index":7.85,"wind_gusts":45.4,"aqi":53,"pm10":8.2,"pm2_5":6.7,"mosquito_risk":0,"arthritis_risk":5,"migraine_risk":7,"frizz_risk":0,"updated_at":"2026-04-24T08:24:22.602388+05:30"},{"city":"Shimla","state":"Himachal Pradesh","latitude":31.1048,"longitude":77.1734,"temp":22.4,"humidity":46,"rain":0.0,"pressure":789.1,"uv_index":7.9,"wind_gusts":49.0,"aqi":56,"pm10":20.0,"pm2_5":17.2,"mosquito_risk":0,"arthritis_risk":5,"migraine_risk":7,"frizz_risk":0,"updated_at":"2026-04-24T08:24:22.602395+05:30"},{"city":"Manali","state":"Himachal Pradesh","latitude":32.2396,"longitude":77.1887,"temp":22.5,"humidity":35,"rain":0.0,"pressure":824.9,"uv_index":9.3,"wind_gusts":33.5,"aqi":54,"pm10":21.9,"pm2_5":15.8,"mosquito_risk":0,"arthritis_risk":5,"migraine_risk":7,"frizz_risk":0,"updated_at":"2026-04-24T08:24:22.602401+05:30"},{"city":"Gurgaon","state":"Haryana","latitude":28.4595,"longitude":77.0266,"temp":27.6,"humidity":56,"rain":0.0,"pressure":980.4,"uv_index":7.5,"wind_gusts":23.0,"aqi":562,"pm10":910.8,"pm2_5":140.6,"mosquito_risk":4,"arthritis_risk":5,"migraine_risk":7,"frizz_risk":1,"updated_at":"2026-04-24T08:24:22.602408+05:30"},{"city":"Noida","state":"Uttar Pradesh","latitude":28.5355,"longitude":77.391,"temp":29.9,"humidity":45,"rain":0.0,"pressure":983.4,"uv_index":7.45,"wind_gusts":27.4,"aqi":562,"pm10":910.8,"pm2_5":140.6,"mosquito_risk":4,"arthritis_risk":5,"migraine_risk":7,"frizz_risk":1,"updated_at":"2026-04-24T08:24:22.602416+05:30"},{"city":"Ghaziabad","state":"Uttar Pradesh","latitude":28.6692,"longitude":77.4538,"temp":29.3,"humidity":50,"rain":0.0,"pressure":981.6,"uv_index":7.4,"wind_gusts":27.0,"aqi":158,"pm10":192.3,"pm2_5":74.3,"mosquito_risk":4,"arthritis_risk":5,"migraine_risk":7,"frizz_risk":1,"updated_at":"2026-04-24T08:24:22.602422+05:30"},{"city":"Faridabad","state":"Haryana","latitude":28.4089,"longitude":77.3178,"temp":29.6,"humidity":45,"rain":0.0,"pressure":982.8,"uv_index":7.5,"wind_gusts":25.9,"aqi":562,"pm10":910.8,"pm2_5":140.6,"mosquito_risk":4,"arthritis_risk":5,"migraine_risk":7,"frizz_risk":1,"updated_at":"2026-04-24T08:24:22.602428+05:30"},{"city":"Meerut","state":"Uttar Pradesh","latitude":28.9845,"longitude":77.7064,"temp":29.0,"humidity":51,"rain":0.0,"pressure":980.4,"uv_index":7.35,"wind_gusts":25.6,"aqi":158,"pm10":192.3,"pm2_5":74.3,"mosquito_risk":4,"arthritis_risk":5,"migraine_risk":7,"frizz_risk":1,"updated_at":"2026-04-24T08:24:22.602434+05:30"},{"city":"Agra","state":"Uttar Pradesh","latitude":27.1767,"longitude":78.0081,"temp":30.2,"humidity":42,"rain":0.0,"pressure":987.0,"uv_index":7.8,"wind_gusts":28.1,"aqi":544,"pm10":754.4,"pm2_5":82.2,"mosquito_risk":0,"arthritis_risk":5,"migraine_risk":7,"frizz_risk":0,"updated_at":"2026-04-24T08:24:22.602442+05:30"},{"city":"Varanasi","state":"Uttar Pradesh","latitude":25.3176,"longitude":82.9739,"temp":31.0,"humidity":41,"rain":0.0,"pressure":997.7,"uv_index":8.5,"wind_gusts":22.0,"aqi":146,"pm10":161.1,"pm2_5":57.3,"mosquito_risk":0,"arthritis_risk":5,"migraine_risk":7,"frizz_risk":1,"updated_at":"2026-04-24T08:24:22.602448+05:30"},{"city":"Prayagraj","state":"Uttar Pradesh","latitude":25.4358,"longitude":81.8463,"temp":31.2,"humidity":46,"rain":0.0,"pressure":995.8,"uv_index":8.35,"wind_gusts":19.8,"aqi":148,"pm10":184.4,"pm2_5":59.6,"mosquito_risk":0,"arthritis_risk":5,"migraine_risk":7,"frizz_risk":1,"updated_at":"2026-04-24T08:24:22.602455+05:30"},{"city":"Gorakhpur","state":"Uttar Pradesh","latitude":26.7606,"longitude":83.3732,"temp":29.5,"humidity":70,"rain":0.0,"pressure":997.8,"uv_index":8.3,"wind_gusts":24.5,"aqi":116,"pm10":123.4,"pm2_5":57.0,"mosquito_risk":7,"arthritis_risk":5,"migraine_risk":7,"frizz_risk":1,"updated_at":"2026-04-24T08:24:22.602461+05:30"},{"city":"Bareilly","state":"Uttar Pradesh","latitude":28.367,"longitude":79.4304,"temp":29.0,"humidity":53,"rain":0.0,"pressure":986.3,"uv_index":7.7,"wind_gusts":22.3,"aqi":119,"pm10":150.4,"pm2_5":54.7,"mosquito_risk":4,"arthritis_risk":5,"migraine_risk":7,"frizz_risk":1,"updated_at":"2026-04-24T08:24:22.602467+05:30"},{"city":"Aligarh","state":"Uttar Pradesh","latitude":27.8974,"longitude":78.088,"temp":29.1,"humidity":46,"rain":0.0,"pressure":984.9,"uv_index":7.6,"wind_gusts":25.6,"aqi":382,"pm10":465.7,"pm2_5":77.5,"mosquito_risk":4,"arthritis_risk":5,"migraine_risk":7,"frizz_risk":1,"updated_at":"2026-04-24T08:24:22.602473+05:30"},{"city":"Moradabad","state":"Uttar Pradesh","latitude":28.8386,"longitude":78.7733,"temp":28.9,"humidity":56,"rain":0.0,"pressure":982.7,"uv_index":7.5,"wind_gusts":33.5,"aqi":150,"pm10":230.5,"pm2_5":87.5,"mosquito_risk":4,"arthritis_risk":5,"migraine_risk":7,"frizz_risk":1,"updated_at":"2026-04-24T08:24:22.602479+05:30"},{"city":"Saharanpur","state":"Uttar Pradesh","latitude":29.9637,"longitude":77.546,"temp":27.8,"humidity":61,"rain":0.0,"pressure":974.7,"uv_index":7.15,"wind_gusts":25.9,"aqi":105,"pm10":48.7,"pm2_5":46.3,"mosquito_risk":7,"arthritis_risk":5,"migraine_risk":7,"frizz_risk":1,"updated_at":"2026-04-24T08:24:22.602484+05:30"},{"city":"Jhansi","state":"Uttar Pradesh","latitude":25.4484,"longitude":78.5685,"temp":30.8,"humidity":30,"rain":0.0,"pressure":978.4,"uv_index":8.3,"wind_gusts":31.0,"aqi":47,"pm10":14.0,"pm2_5":13.1,"mosquito_risk":0,"arthritis_risk":5,"migraine_risk":7,"frizz_risk":0,"updated_at":"2026-04-24T08:24:25.820260+05:30"},{"city":"Surat","state":"Gujarat","latitude":21.1702,"longitude":72.8311,"temp":28.9,"humidity":57,"rain":0.0,"pressure":1007.3,"uv_index":7.9,"wind_gusts":21.2,"aqi":100,"pm10":40.2,"pm2_5":29.8,"mosquito_risk":4,"arthritis_risk":5,"migraine_risk":4,"frizz_risk":1,"updated_at":"2026-04-24T08:24:25.820291+05:30"},{"city":"Vadodara","state":"Gujarat","latitude":22.3072,"longitude":73.1812,"temp":29.3,"humidity":46,"rain":0.0,"pressure":1005.2,"uv_index":8.15,"wind_gusts":23.8,"aqi":77,"pm10":27.9,"pm2_5":21.4,"mosquito_risk":4,"arthritis_risk":5,"migraine_risk":4,"frizz_risk":1,"updated_at":"2026-04-24T08:24:25.820301+05:30"},{"city":"Rajkot","state":"Gujarat","latitude":22.3039,"longitude":70.8022,"temp":26.0,"humidity":83,"rain":0.0,"pressure":995.8,"uv_index":7.9,"wind_gusts":32.0,"aqi":31,"pm10":9.5,"pm2_5":6.9,"mosquito_risk":7,"arthritis_risk":5,"migraine_risk":7,"frizz_risk":1,"updated_at":"2026-04-24T08:24:25.820309+05:30"},{"city":"Thane","state":"Maharashtra","latitude":19.2183,"longitude":72.9781,"temp":29.1,"humidity":73,"rain":0.0,"pressure":1007.8,"uv_index":8.05,"wind_gusts":37.8,"aqi":80,"pm10":31.5,"pm2_5":22.9,"mosquito_risk":7,"arthritis_risk":5,"migraine_risk":4,"frizz_risk":1,"updated_at":"2026-04-24T08:24:25.820317+05:30"},{"city":"Nagpur","state":"Maharashtra","latitude":21.1458,"longitude":79.0882,"temp":31.6,"humidity":39,"rain":0.0,"pressure":974.0,"uv_index":8.9,"wind_gusts":32.4,"aqi":115,"pm10":31.0,"pm2_5":29.0,"mosquito_risk":0,"arthritis_risk":5,"migraine_risk":7,"frizz_risk":0,"updated_at":"2026-04-24T08:24:25.820325+05:30"},{"city":"Nashik","state":"Maharashtra","latitude":19.9975,"longitude":73.7898,"temp":28.1,"humidity":57,"rain":0.0,"pressure":946.9,"uv_index":8.35,"wind_gusts":36.7,"aqi":78,"pm10":40.0,"pm2_5":35.0,"mosquito_risk":4,"arthritis_risk":5,"migraine_risk":7,"frizz_risk":1,"updated_at":"2026-04-24T08:24:25.820332+05:30"},{"city":"Aurangabad","state":"Maharashtra","latitude":19.8762,"longitude":75.3433,"temp":31.9,"humidity":30,"rain":0.0,"pressure":945.7,"uv_index":9.05,"wind_gusts":33.1,"aqi":86,"pm10":35.3,"pm2_5":32.7,"mosquito_risk":0,"arthritis_risk":5,"migraine_risk":7,"frizz_risk":0,"updated_at":"2026-04-24T08:24:25.820339+05:30"},{"city":"Solapur","state":"Maharashtra","latitude":17.6599,"longitude":75.9064,"temp":29.4,"humidity":54,"rain":0.0,"pressure":957.7,"uv_index":9.1,"wind_gusts":31.7,"aqi":104,"pm10":45.9,"pm2_5":42.3,"mosquito_risk":4,"arthritis_risk":5,"migraine_risk":7,"frizz_risk":1,"updated_at":"2026-04-24T08:24:25.820347+05:30"},{"city":"Kolhapur","state":"Maharashtra","latitude":16.705,"longitude":74.2433,"temp":28.7,"humidity":71,"rain":0.0,"pressure":948.0,"uv_index":9.05,"wind_gusts":46.4,"aqi":133,"pm10":69.4,"pm2_5":67.5,"mosquito_risk":7,"arthritis_risk":5,"migraine_risk":7,"frizz_risk":1,"updated_at":"2026-04-24T08:24:25.820354+05:30"},{"city":"Goa","state":"Goa","latitude":15.2993,"longitude":74.124,"temp":30.7,"humidity":77,"rain":0.0,"pressure":997.5,"uv_index":9.0,"wind_gusts":28.4,"aqi":80,"pm10":34.8,"pm2_5":25.7,"mosquito_risk":3,"arthritis_risk":5,"migraine_risk":7,"frizz_risk":1,"updated_at":"2026-04-24T08:24:25.820361+05:30"},{"city":"Jodhpur","state":"Rajasthan","latitude":26.2389,"longitude":73.0243,"temp":31.7,"humidity":48,"rain":0.0,"pressure":983.0,"uv_index":8.25,"wind_gusts":29.5,"aqi":53,"pm10":68.2,"pm2_5":14.4,"mosquito_risk":0,"arthritis_risk":5,"migraine_risk":7,"frizz_risk":1,"updated_at":"2026-04-24T08:24:25.820368+05:30"},{"city":"Udaipur","state":"Rajasthan","latitude":24.5854,"longitude":73.7125,"temp":29.5,"humidity":40,"rain":0.0,"pressure":948.0,"uv_index":8.8,"wind_gusts":33.1,"aqi":46,"pm10":35.9,"pm2_5":13.5,"mosquito_risk":4,"arthritis_risk":5,"migraine_risk":7,"frizz_risk":0,"updated_at":"2026-04-24T08:24:25.820375+05:30"},{"city":"Kota","state":"Rajasthan","latitude":25.2138,"longitude":75.8648,"temp":31.2,"humidity":35,"rain":0.0,"pressure":979.5,"uv_index":8.3,"wind_gusts":22.0,"aqi":51,"pm10":21.8,"pm2_5":13.3,"mosquito_risk":0,"arthritis_risk":5,"migraine_risk":7,"frizz_risk":0,"updated_at":"2026-04-24T08:24:25.820382+05:30"},{"city":"Bikaner","state":"Rajasthan","latitude":28.0229,"longitude":73.3119,"temp":32.4,"humidity":37,"rain":0.0,"pressure":981.0,"uv_index":8.1,"wind_gusts":30.6,"aqi":60,"pm10":26.6,"pm2_5":8.8,"mosquito_risk":0,"arthritis_risk":5,"migraine_risk":7,"frizz_risk":0,"updated_at":"2026-04-24T08:24:25.820390+05:30"},{"city":"Ajmer","state":"Rajasthan","latitude":26.4499,"longitude":74.6399,"temp":29.2,"humidity":45,"rain":0.0,"pressure":955.4,"uv_index":8.25,"wind_gusts":31.3,"aqi":32,"pm10":36.4,"pm2_5":12.1,"mosquito_risk":4,"arthritis_risk":5,"migraine_risk":7,"frizz_risk":1,"updated_at":"2026-04-24T08:24:25.820397+05:30"},{"city":"Gwalior","state":"Madhya Pradesh","latitude":26.2183,"longitude":78.1828,"temp":31.3,"humidity":37,"rain":0.0,"pressure":983.1,"uv_index":8.05,"wind_gusts":27.4,"aqi":33,"pm10":8.3,"pm2_5":6.2,"mosquito_risk":0,"arthritis_risk":5,"migraine_risk":7,"frizz_risk":0,"updated_at":"2026-04-24T08:24:25.820404+05:30"},{"city":"Indore","state":"Madhya Pradesh","latitude":22.7196,"longitude":75.8577,"temp":28.9,"humidity":34,"rain":0.0,"pressure":949.6,"uv_index":8.65,"wind_gusts":29.5,"aqi":59,"pm10":32.9,"pm2_5":14.7,"mosquito_risk":4,"arthritis_risk":5,"migraine_risk":7,"frizz_risk":0,"updated_at":"2026-04-24T08:24:25.820411+05:30"},{"city":"Bhopal","state":"Madhya Pradesh","latitude":23.2599,"longitude":77.4126,"temp":29.3,"humidity":36,"rain":0.0,"pressure":955.4,"uv_index":8.65,"wind_gusts":22.7,"aqi":63,"pm10":25.7,"pm2_5":13.3,"mosquito_risk":4,"arthritis_risk":5,"migraine_risk":7,"frizz_risk":0,"updated_at":"2026-04-24T08:24:25.820418+05:30"},{"city":"Jabalpur","state":"Madhya Pradesh","latitude":23.1815,"longitude":79.9864,"temp":30.3,"humidity":39,"rain":0.0,"pressure":962.7,"uv_index":8.75,"wind_gusts":22.7,"aqi":67,"pm10":29.4,"pm2_5":27.5,"mosquito_risk":0,"arthritis_risk":5,"migraine_risk":7,"frizz_risk":0,"updated_at":"2026-04-24T08:24:25.820425+05:30"},{"city":"Ujjain","state":"Madhya Pradesh","latitude":23.1765,"longitude":75.7885,"temp":29.2,"humidity":32,"rain":0.0,"pressure":955.2,"uv_index":8.55,"wind_gusts":29.5,"aqi":60,"pm10":41.2,"pm2_5":20.1,"mosquito_risk":4,"arthritis_risk":5,"migraine_risk":7,"frizz_risk":0,"updated_at":"2026-04-24T08:24:25.820432+05:30"},{"city":"Visakhapatnam","state":"Andhra Pradesh","latitude":17.6868,"longitude":83.2185,"temp":29.4,"humidity":77,"rain":0.0,"pressure":1003.8,"uv_index":8.95,"wind_gusts":40.0,"aqi":64,"pm10":24.3,"pm2_5":20.9,"mosquito_risk":7,"arthritis_risk":5,"migraine_risk":4,"frizz_risk":1,"updated_at":"2026-04-24T08:24:25.820439+05:30"},{"city":"Vijayawada","state":"Andhra Pradesh","latitude":16.5062,"longitude":80.648,"temp":29.1,"humidity":80,"rain":0.0,"pressure":1002.9,"uv_index":9.25,"wind_gusts":29.2,"aqi":53,"pm10":15.1,"pm2_5":12.0,"mosquito_risk":7,"arthritis_risk":5,"migraine_risk":4,"frizz_risk":1,"updated_at":"2026-04-24T08:24:25.820447+05:30"},{"city":"Guntur","state":"Andhra Pradesh","latitude":16.3067,"longitude":80.4365,"temp":29.6,"humidity":77,"rain":0.0,"pressure":1004.1,"uv_index":9.2,"wind_gusts":30.2,"aqi":54,"pm10":13.1,"pm2_5":10.5,"mosquito_risk":7,"arthritis_risk":5,"migraine_risk":4,"frizz_risk":1,"updated_at":"2026-04-24T08:24:25.820453+05:30"},{"city":"Nellore","state":"Andhra Pradesh","latitude":14.4426,"longitude":79.9865,"temp":30.0,"humidity":72,"rain":0.0,"pressure":1006.2,"uv_index":9.15,"wind_gusts":35.6,"aqi":41,"pm10":11.7,"pm2_5":9.3,"mosquito_risk":7,"arthritis_risk":5,"migraine_risk":4,"frizz_risk":1,"updated_at":"2026-04-24T08:24:25.820461+05:30"},{"city":"Kurnool","state":"Andhra Pradesh","latitude":15.8281,"longitude":78.0373,"temp":32.5,"humidity":49,"rain":0.0,"pressure":977.1,"uv_index":9.25,"wind_gusts":26.3,"aqi":87,"pm10":22.7,"pm2_5":19.2,"mosquito_risk":0,"arthritis_risk":5,"migraine_risk":7,"frizz_risk":1,"updated_at":"2026-04-24T08:24:25.820469+05:30"},{"city":"Kakinada","state":"Andhra Pradesh","latitude":16.9891,"longitude":82.2475,"temp":29.9,"humidity":77,"rain":0.0,"pressure":1007.9,"uv_index":9.1,"wind_gusts":32.8,"aqi":43,"pm10":14.7,"pm2_5":11.1,"mosquito_risk":7,"arthritis_risk":5,"migraine_risk":4,"frizz_risk":1,"updated_at":"2026-04-24T08:24:25.820476+05:30"},{"city":"Tirupati","state":"Andhra Pradesh","latitude":13.6288,"longitude":79.4192,"temp":28.6,"humidity":71,"rain":0.0,"pressure":992.6,"uv_index":9.35,"wind_gusts":34.2,"aqi":53,"pm10":14.8,"pm2_5":13.0,"mosquito_risk":7,"arthritis_risk":5,"migraine_risk":7,"frizz_risk":1,"updated_at":"2026-04-24T08:24:25.820482+05:30"},{"city":"Warangal","state":"Telangana","latitude":17.9689,"longitude":79.5941,"temp":29.9,"humidity":53,"rain":0.0,"pressure":979.6,"uv_index":9.2,"wind_gusts":19.1,"aqi":116,"pm10":30.0,"pm2_5":27.0,"mosquito_risk":4,"arthritis_risk":5,"migraine_risk":7,"frizz_risk":1,"updated_at":"2026-04-24T08:24:25.820489+05:30"},{"city":"Nizamabad","state":"Telangana","latitude":18.6725,"longitude":78.0941,"temp":31.3,"humidity":44,"rain":0.0,"pressure":965.6,"uv_index":8.95,"wind_gusts":42.1,"aqi":116,"pm10":48.7,"pm2_5":45.6,"mosquito_risk":0,"arthritis_risk":5,"migraine_risk":7,"frizz_risk":1,"updated_at":"2026-04-24T08:24:25.820496+05:30"},{"city":"Mysore","state":"Karnataka","latitude":12.2958,"longitude":76.6396,"temp":25.8,"humidity":79,"rain":0.0,"pressure":929.0,"uv_index":9.5,"wind_gusts":40.3,"aqi":93,"pm10":51.0,"pm2_5":46.9,"mosquito_risk":7,"arthritis_risk":5,"migraine_risk":7,"frizz_risk":1,"updated_at":"2026-04-24T08:24:25.820503+05:30"},{"city":"Mangalore","state":"Karnataka","latitude":12.9141,"longitude":74.856,"temp":29.3,"humidity":83,"rain":0.0,"pressure":1005.9,"uv_index":9.1,"wind_gusts":32.4,"aqi":80,"pm10":31.8,"pm2_5":25.0,"mosquito_risk":7,"arthritis_risk":5,"migraine_risk":4,"frizz_risk":1,"updated_at":"2026-04-24T08:24:25.820510+05:30"},{"city":"Hubli-Dharwad","state":"Karnataka","latitude":15.3647,"longitude":75.124,"temp":27.4,"humidity":62,"rain":0.0,"pressure":941.1,"uv_index":9.2,"wind_gusts":50.0,"aqi":94,"pm10":50.1,"pm2_5":46.7,"mosquito_risk":7,"arthritis_risk":5,"migraine_risk":7,"frizz_risk":1,"updated_at":"2026-04-24T08:24:25.820517+05:30"},{"city":"Belgaum","state":"Karnataka","latitude":15.8497,"longitude":74.4977,"temp":26.1,"humidity":71,"rain":0.0,"pressure":926.3,"uv_index":9.25,"wind_gusts":41.0,"aqi":98,"pm10":49.8,"pm2_5":45.1,"mosquito_risk":7,"arthritis_risk":5,"migraine_risk":7,"frizz_risk":1,"updated_at":"2026-04-24T08:24:29.031057+05:30"},{"city":"Coimbatore","state":"Tamil Nadu","latitude":11.0168,"longitude":76.9558,"temp":27.7,"humidity":74,"rain":0.0,"pressure":962.3,"uv_index":9.4,"wind_gusts":34.6,"aqi":90,"pm10":38.4,"pm2_5":34.7,"mosquito_risk":7,"arthritis_risk":5,"migraine_risk":7,"frizz_risk":1,"updated_at":"2026-04-24T08:24:29.031090+05:30"},{"city":"Madurai","state":"Tamil Nadu","latitude":9.9252,"longitude":78.1198,"temp":29.4,"humidity":73,"rain":0.0,"pressure":993.5,"uv_index":9.0,"wind_gusts":29.5,"aqi":51,"pm10":19.9,"pm2_5":18.8,"mosquito_risk":7,"arthritis_risk":5,"migraine_risk":7,"frizz_risk":1,"updated_at":"2026-04-24T08:24:29.031100+05:30"},{"city":"Trichy","state":"Tamil Nadu","latitude":10.7905,"longitude":78.7047,"temp":29.9,"humidity":76,"rain":0.0,"pressure":1000.3,"uv_index":9.3,"wind_gusts":24.1,"aqi":47,"pm10":18.7,"pm2_5":16.0,"mosquito_risk":7,"arthritis_risk":5,"migraine_risk":4,"frizz_risk":1,"updated_at":"2026-04-24T08:24:29.031108+05:30"},{"city":"Salem","state":"Tamil Nadu","latitude":11.6643,"longitude":78.146,"temp":29.1,"humidity":73,"rain":0.0,"pressure":978.0,"uv_index":9.35,"wind_gusts":27.7,"aqi":61,"pm10":15.1,"pm2_5":12.9,"mosquito_risk":7,"arthritis_risk":5,"migraine_risk":7,"frizz_risk":1,"updated_at":"2026-04-24T08:24:29.031115+05:30"},{"city":"Tirunelveli","state":"Tamil Nadu","latitude":8.7139,"longitude":77.7567,"temp":29.4,"humidity":71,"rain":0.0,"pressure":1003.5,"uv_index":9.2,"wind_gusts":41.8,"aqi":70,"pm10":27.8,"pm2_5":25.4,"mosquito_risk":7,"arthritis_risk":5,"migraine_risk":4,"frizz_risk":1,"updated_at":"2026-04-24T08:24:29.031122+05:30"},{"city":"Vellore","state":"Tamil Nadu","latitude":12.9165,"longitude":79.1325,"temp":27.7,"humidity":75,"rain":0.0,"pressure":985.7,"uv_index":9.4,"wind_gusts":31.3,"aqi":70,"pm10":19.2,"pm2_5":16.2,"mosquito_risk":7,"arthritis_risk":5,"migraine_risk":7,"frizz_risk":1,"updated_at":"2026-04-24T08:24:29.031129+05:30"},{"city":"Erode","state":"Tamil Nadu","latitude":11.341,"longitude":77.7172,"temp":29.9,"humidity":74,"rain":0.0,"pressure":989.5,"uv_index":9.35,"wind_gusts":27.7,"aqi":49,"pm10":10.9,"pm2_5":9.7,"mosquito_risk":7,"arthritis_risk":5,"migraine_risk":7,"frizz_risk":1,"updated_at":"2026-04-24T08:24:29.031136+05:30"},{"city":"Kochi","state":"Kerala","latitude":9.9312,"longitude":76.2673,"temp":28.8,"humidity":82,"rain":0.0,"pressure":1008.1,"uv_index":8.85,"wind_gusts":32.4,"aqi":77,"pm10":24.9,"pm2_5":22.7,"mosquito_risk":7,"arthritis_risk":0,"migraine_risk":4,"frizz_risk":1,"updated_at":"2026-04-24T08:24:29.031144+05:30"},{"city":"Thiruvananthapuram","state":"Kerala","latitude":8.5241,"longitude":76.9366,"temp":28.4,"humidity":85,"rain":0.0,"pressure":1007.4,"uv_index":9.05,"wind_gusts":24.8,"aqi":66,"pm10":24.7,"pm2_5":21.1,"mosquito_risk":7,"arthritis_risk":5,"migraine_risk":4,"frizz_risk":1,"updated_at":"2026-04-24T08:24:29.031151+05:30"},{"city":"Kozhikode","state":"Kerala","latitude":11.2588,"longitude":75.7804,"temp":28.8,"humidity":82,"rain":0.0,"pressure":1007.3,"uv_index":9.1,"wind_gusts":33.1,"aqi":88,"pm10":35.6,"pm2_5":28.6,"mosquito_risk":7,"arthritis_risk":5,"migraine_risk":4,"frizz_risk":1,"updated_at":"2026-04-24T08:24:29.031157+05:30"},{"city":"Thrissur","state":"Kerala","latitude":10.5276,"longitude":76.2144,"temp":29.7,"humidity":80,"rain":0.0,"pressure":1006.4,"uv_index":9.15,"wind_gusts":36.7,"aqi":83,"pm10":28.1,"pm2_5":25.5,"mosquito_risk":7,"arthritis_risk":5,"migraine_risk":4,"frizz_risk":1,"updated_at":"2026-04-24T08:24:29.031165+05:30"},{"city":"Kannur","state":"Kerala","latitude":11.8745,"longitude":75.3704,"temp":29.6,"humidity":79,"rain":0.0,"pressure":1006.6,"uv_index":9.1,"wind_gusts":31.0,"aqi":89,"pm10":36.4,"pm2_5":30.2,"mosquito_risk":7,"arthritis_risk":5,"migraine_risk":4,"frizz_risk":1,"updated_at":"2026-04-24T08:24:29.031171+05:30"},{"city":"Patna","state":"Bihar","latitude":25.5941,"longitude":85.1376,"temp":30.0,"humidity":75,"rain":0.0,"pressure":1000.6,"uv_index":8.6,"wind_gusts":25.2,"aqi":155,"pm10":81.3,"pm2_5":67.5,"mosquito_risk":7,"arthritis_risk":5,"migraine_risk":4,"frizz_risk":1,"updated_at":"2026-04-24T08:24:29.031178+05:30"},{"city":"Gaya","state":"Bihar","latitude":24.7914,"longitude":85.0002,"temp":32.0,"humidity":42,"rain":0.0,"pressure":993.6,"uv_index":8.7,"wind_gusts":18.7,"aqi":150,"pm10":143.0,"pm2_5":66.4,"mosquito_risk":0,"arthritis_risk":5,"migraine_risk":7,"frizz_risk":1,"updated_at":"2026-04-24T08:24:29.031184+05:30"},{"city":"Muzaffarpur","state":"Bihar","latitude":26.1209,"longitude":85.3647,"temp":29.5,"humidity":79,"rain":0.0,"pressure":1000.9,"uv_index":8.6,"wind_gusts":32.4,"aqi":153,"pm10":77.1,"pm2_5":63.8,"mosquito_risk":7,"arthritis_risk":5,"migraine_risk":4,"frizz_risk":1,"updated_at":"2026-04-24T08:24:29.031191+05:30"},{"city":"Bhagalpur","state":"Bihar","latitude":25.2425,"longitude":87.0117,"temp":30.0,"humidity":82,"rain":0.0,"pressure":1002.2,"uv_index":8.65,"wind_gusts":22.0,"aqi":153,"pm10":74.3,"pm2_5":63.3,"mosquito_risk":7,"arthritis_risk":5,"migraine_risk":4,"frizz_risk":1,"updated_at":"2026-04-24T08:24:29.031197+05:30"},{"city":"Ranchi","state":"Jharkhand","latitude":23.3441,"longitude":85.3096,"temp":31.7,"humidity":41,"rain":0.0,"pressure":940.2,"uv_index":9.15,"wind_gusts":25.6,"aqi":105,"pm10":191.9,"pm2_5":61.7,"mosquito_risk":0,"arthritis_risk":5,"migraine_risk":7,"frizz_risk":1,"updated_at":"2026-04-24T08:24:29.031203+05:30"},{"city":"Jamshedpur","state":"Jharkhand","latitude":22.8046,"longitude":86.2029,"temp":30.6,"humidity":81,"rain":0.0,"pressure":991.8,"uv_index":9.0,"wind_gusts":32.4,"aqi":151,"pm10":105.7,"pm2_5":83.1,"mosquito_risk":3,"arthritis_risk":5,"migraine_risk":7,"frizz_risk":1,"updated_at":"2026-04-24T08:24:29.031210+05:30"},{"city":"Dhanbad","state":"Jharkhand","latitude":23.7957,"longitude":86.4304,"temp":31.5,"humidity":68,"rain":0.0,"pressure":981.0,"uv_index":8.95,"wind_gusts":35.6,"aqi":160,"pm10":165.8,"pm2_5":106.6,"mosquito_risk":3,"arthritis_risk":5,"migraine_risk":7,"frizz_risk":1,"updated_at":"2026-04-24T08:24:29.031217+05:30"},{"city":"Bokaro","state":"Jharkhand","latitude":23.6693,"longitude":86.1511,"temp":31.4,"humidity":63,"rain":0.0,"pressure":985.2,"uv_index":8.95,"wind_gusts":24.1,"aqi":158,"pm10":184.9,"pm2_5":100.6,"mosquito_risk":3,"arthritis_risk":5,"migraine_risk":7,"frizz_risk":1,"updated_at":"2026-04-24T08:24:29.031223+05:30"},{"city":"Bhubaneswar","state":"Odisha","latitude":20.2961,"longitude":85.8245,"temp":28.9,"humidity":84,"rain":0.0,"pressure":1003.0,"uv_index":9.15,"wind_gusts":34.6,"aqi":88,"pm10":25.6,"pm2_5":21.7,"mosquito_risk":7,"arthritis_risk":5,"migraine_risk":4,"frizz_risk":1,"updated_at":"2026-04-24T08:24:29.031230+05:30"},{"city":"Cuttack","state":"Odisha","latitude":20.4625,"longitude":85.8828,"temp":29.7,"humidity":78,"rain":0.0,"pressure":1005.0,"uv_index":9.2,"wind_gusts":34.9,"aqi":88,"pm10":25.6,"pm2_5":21.7,"mosquito_risk":7,"arthritis_risk":5,"migraine_risk":4,"frizz_risk":1,"updated_at":"2026-04-24T08:24:29.031236+05:30"},{"city":"Rourkela","state":"Odisha","latitude":22.2604,"longitude":84.8536,"temp":30.8,"humidity":62,"rain":0.0,"pressure":986.1,"uv_index":8.95,"wind_gusts":30.2,"aqi":114,"pm10":106.4,"pm2_5":55.9,"mosquito_risk":3,"arthritis_risk":5,"migraine_risk":7,"frizz_risk":1,"updated_at":"2026-04-24T08:24:29.031243+05:30"},{"city":"Raipur","state":"Chhattisgarh","latitude":21.2514,"longitude":81.6296,"temp":32.2,"humidity":45,"rain":0.0,"pressure":975.3,"uv_index":8.85,"wind_gusts":24.5,"aqi":104,"pm10":59.0,"pm2_5":57.2,"mosquito_risk":0,"arthritis_risk":5,"migraine_risk":7,"frizz_risk":1,"updated_at":"2026-04-24T08:24:29.031249+05:30"},{"city":"Bhilai","state":"Chhattisgarh","latitude":21.1938,"longitude":81.3509,"temp":31.5,"humidity":51,"rain":0.0,"pressure":975.5,"uv_index":8.9,"wind_gusts":21.2,"aqi":111,"pm10":58.4,"pm2_5":56.6,"mosquito_risk":0,"arthritis_risk":5,"migraine_risk":7,"frizz_risk":1,"updated_at":"2026-04-24T08:24:29.031255+05:30"},{"city":"Guwahati","state":"Assam","latitude":26.1158,"longitude":91.7086,"temp":29.3,"humidity":76,"rain":0.0,"pressure":1003.4,"uv_index":8.55,"wind_gusts":23.4,"aqi":142,"pm10":91.3,"pm2_5":52.7,"mosquito_risk":7,"arthritis_risk":5,"migraine_risk":4,"frizz_risk":1,"updated_at":"2026-04-24T08:24:29.031262+05:30"},{"city":"Agartala","state":"Tripura","latitude":23.8315,"longitude":91.2868,"temp":30.4,"humidity":78,"rain":0.0,"pressure":1007.4,"uv_index":8.65,"wind_gusts":25.9,"aqi":113,"pm10":38.3,"pm2_5":31.4,"mosquito_risk":3,"arthritis_risk":5,"migraine_risk":4,"frizz_risk":1,"updated_at":"2026-04-24T08:24:29.031269+05:30"},{"city":"Shillong","state":"Meghalaya","latitude":25.5788,"longitude":91.8933,"temp":20.6,"humidity":64,"rain":0.0,"pressure":860.3,"uv_index":6.0,"wind_gusts":27.0,"aqi":121,"pm10":109.2,"pm2_5":43.1,"mosquito_risk":3,"arthritis_risk":5,"migraine_risk":3,"frizz_risk":0,"updated_at":"2026-04-24T08:24:29.031275+05:30"},{"city":"Imphal","state":"Manipur","latitude":24.817,"longitude":93.9368,"temp":24.4,"humidity":68,"rain":0.0,"pressure":926.3,"uv_index":9.1,"wind_gusts":35.3,"aqi":151,"pm10":141.1,"pm2_5":51.7,"mosquito_risk":3,"arthritis_risk":5,"migraine_risk":7,"frizz_risk":1,"updated_at":"2026-04-24T08:24:29.031282+05:30"},{"city":"Aizawl","state":"Mizoram","latitude":23.7271,"longitude":92.7176,"temp":25.9,"humidity":63,"rain":0.0,"pressure":895.9,"uv_index":8.45,"wind_gusts":37.1,"aqi":123,"pm10":90.6,"pm2_5":37.0,"mosquito_risk":7,"arthritis_risk":5,"migraine_risk":7,"frizz_risk":1,"updated_at":"2026-04-24T08:24:29.031288+05:30"},{"city":"Kohima","state":"Nagaland","latitude":25.6701,"longitude":94.1077,"temp":20.7,"humidity":77,"rain":0.0,"pressure":858.8,"uv_index":9.05,"wind_gusts":38.9,"aqi":124,"pm10":76.1,"pm2_5":43.8,"mosquito_risk":3,"arthritis_risk":5,"migraine_risk":7,"frizz_risk":1,"updated_at":"2026-04-24T08:24:29.031294+05:30"},{"city":"Gangtok","state":"Sikkim","latitude":27.3314,"longitude":88.6138,"temp":20.6,"humidity":83,"rain":0.0,"pressure":841.4,"uv_index":8.75,"wind_gusts":24.5,"aqi":102,"pm10":32.2,"pm2_5":21.1,"mosquito_risk":3,"arthritis_risk":5,"migraine_risk":7,"frizz_risk":1,"updated_at":"2026-04-24T08:24:29.031300+05:30"},{"city":"Siliguri","state":"West Bengal","latitude":26.7271,"longitude":88.3953,"temp":24.6,"humidity":83,"rain":0.0,"pressure":996.6,"uv_index":8.45,"wind_gusts":19.1,"aqi":151,"pm10":78.7,"pm2_5":58.0,"mosquito_risk":3,"arthritis_risk":5,"migraine_risk":7,"frizz_risk":1,"updated_at":"2026-04-24T08:24:32.246860+05:30"},{"city":"Durgapur","state":"West Bengal","latitude":23.5204,"longitude":87.3119,"temp":30.9,"humidity":74,"rain":0.0,"pressure":996.2,"uv_index":8.65,"wind_gusts":37.4,"aqi":154,"pm10":67.1,"pm2_5":55.3,"mosquito_risk":3,"arthritis_risk":5,"migraine_risk":7,"frizz_risk":1,"updated_at":"2026-04-24T08:24:32.246886+05:30"},{"city":"Asansol","state":"West Bengal","latitude":23.6739,"longitude":86.9524,"temp":31.1,"humidity":75,"rain":0.0,"pressure":994.7,"uv_index":8.9,"wind_gusts":39.6,"aqi":152,"pm10":88.7,"pm2_5":72.4,"mosquito_risk":3,"arthritis_risk":5,"migraine_risk":7,"frizz_risk":1,"updated_at":"2026-04-24T08:24:32.246896+05:30"},{"city":"Pondicherry","state":"Puducherry","latitude":11.9139,"longitude":79.8145,"temp":30.3,"humidity":76,"rain":0.0,"pressure":1009.1,"uv_index":9.25,"wind_gusts":29.5,"aqi":25,"pm10":8.4,"pm2_5":5.9,"mosquito_risk":3,"arthritis_risk":0,"migraine_risk":4,"frizz_risk":1,"updated_at":"2026-04-24T08:24:32.246904+05:30"},{"city":"Port Blair","state":"Andaman and Nicobar Islands","latitude":11.6234,"longitude":92.7265,"temp":29.7,"humidity":72,"rain":0.0,"pressure":1007.8,"uv_index":9.1,"wind_gusts":23.8,"aqi":29,"pm10":8.0,"pm2_5":4.2,"mosquito_risk":7,"arthritis_risk":5,"migraine_risk":4,"frizz_risk":1,"updated_at":"2026-04-24T08:24:32.246911+05:30"},{"city":"Haridwar","state":"Uttarakhand","latitude":29.9457,"longitude":78.1642,"temp":31.0,"humidity":45,"rain":0.0,"pressure":973.4,"uv_index":7.2,"wind_gusts":33.8,"aqi":82,"pm10":25.1,"pm2_5":22.9,"mosquito_risk":0,"arthritis_risk":5,"migraine_risk":7,"frizz_risk":1,"updated_at":"2026-04-24T08:24:32.246919+05:30"},{"city":"Rishikesh","state":"Uttarakhand","latitude":30.0869,"longitude":78.2676,"temp":30.7,"humidity":45,"rain":0.0,"pressure":966.6,"uv_index":7.35,"wind_gusts":37.8,"aqi":69,"pm10":20.5,"pm2_5":19.6,"mosquito_risk":0,"arthritis_risk":5,"migraine_risk":7,"frizz_risk":1,"updated_at":"2026-04-24T08:24:32.246926+05:30"},{"city":"Nainital","state":"Uttarakhand","latitude":29.3919,"longitude":79.4542,"temp":27.1,"humidity":36,"rain":0.0,"pressure":810.2,"uv_index":8.2,"wind_gusts":46.1,"aqi":69,"pm10":23.8,"pm2_5":22.5,"mosquito_risk":4,"arthritis_risk":5,"migraine_risk":7,"frizz_risk":0,"updated_at":"2026-04-24T08:24:32.246934+05:30"},{"city":"Mussoorie","state":"Uttarakhand","latitude":30.4599,"longitude":78.0664,"temp":25.1,"humidity":38,"rain":0.0,"pressure":806.7,"uv_index":7.75,"wind_gusts":49.3,"aqi":71,"pm10":16.4,"pm2_5":15.4,"mosquito_risk":4,"arthritis_risk":5,"migraine_risk":7,"frizz_risk":0,"updated_at":"2026-04-24T08:24:32.246941+05:30"},{"city":"Dharamshala","state":"Himachal Pradesh","latitude":32.219,"longitude":76.3234,"temp":27.6,"humidity":36,"rain":0.0,"pressure":871.0,"uv_index":8.05,"wind_gusts":33.8,"aqi":43,"pm10":14.4,"pm2_5":10.7,"mosquito_risk":4,"arthritis_risk":5,"migraine_risk":7,"frizz_risk":0,"updated_at":"2026-04-24T08:24:32.246948+05:30"},{"city":"Dalhousie","state":"Himachal Pradesh","latitude":32.5387,"longitude":75.971,"temp":24.9,"humidity":28,"rain":0.0,"pressure":807.1,"uv_index":8.3,"wind_gusts":35.3,"aqi":60,"pm10":17.5,"pm2_5":15.3,"mosquito_risk":0,"arthritis_risk":5,"migraine_risk":7,"frizz_risk":0,"updated_at":"2026-04-24T08:24:32.246984+05:30"},{"city":"Patiala","state":"Punjab","latitude":30.3398,"longitude":76.3869,"temp":27.8,"humidity":63,"rain":0.0,"pressure":976.9,"uv_index":7.35,"wind_gusts":24.8,"aqi":159,"pm10":350.2,"pm2_5":62.2,"mosquito_risk":7,"arthritis_risk":5,"migraine_risk":7,"frizz_risk":1,"updated_at":"2026-04-24T08:24:32.246993+05:30"},{"city":"Bhatinda","state":"Punjab","latitude":30.211,"longitude":74.9455,"temp":30.8,"humidity":45,"rain":0.0,"pressure":982.9,"uv_index":8.0,"wind_gusts":27.7,"aqi":77,"pm10":53.1,"pm2_5":43.4,"mosquito_risk":0,"arthritis_risk":5,"migraine_risk":7,"frizz_risk":1,"updated_at":"2026-04-24T08:24:32.247000+05:30"},{"city":"Rohtak","state":"Haryana","latitude":28.8955,"longitude":76.6066,"temp":28.3,"humidity":57,"rain":0.0,"pressure":980.5,"uv_index":7.45,"wind_gusts":25.9,"aqi":187,"pm10":344.6,"pm2_5":85.7,"mosquito_risk":4,"arthritis_risk":5,"migraine_risk":7,"frizz_risk":1,"updated_at":"2026-04-24T08:24:32.247006+05:30"},{"city":"Panipat","state":"Haryana","latitude":29.3909,"longitude":76.9635,"temp":28.8,"humidity":58,"rain":0.0,"pressure":979.3,"uv_index":7.3,"wind_gusts":26.6,"aqi":467,"pm10":556.9,"pm2_5":110.4,"mosquito_risk":4,"arthritis_risk":5,"migraine_risk":7,"frizz_risk":1,"updated_at":"2026-04-24T08:24:32.247013+05:30"},{"city":"Mathura","state":"Uttar Pradesh","latitude":27.4924,"longitude":77.6737,"temp":30.1,"humidity":41,"rain":0.0,"pressure":985.9,"uv_index":7.75,"wind_gusts":26.3,"aqi":396,"pm10":707.8,"pm2_5":77.5,"mosquito_risk":0,"arthritis_risk":5,"migraine_risk":7,"frizz_risk":0,"updated_at":"2026-04-24T08:24:32.247020+05:30"},{"city":"Vrindavan","state":"Uttar Pradesh","latitude":27.5823,"longitude":77.7027,"temp":29.6,"humidity":44,"rain":0.0,"pressure":986.4,"uv_index":7.7,"wind_gusts":22.0,"aqi":396,"pm10":707.8,"pm2_5":77.5,"mosquito_risk":4,"arthritis_risk":5,"migraine_risk":7,"frizz_risk":1,"updated_at":"2026-04-24T08:24:32.247032+05:30"},{"city":"Ayodhya","state":"Uttar Pradesh","latitude":26.7922,"longitude":82.1998,"temp":29.1,"humidity":48,"rain":0.0,"pressure":995.7,"uv_index":8.05,"wind_gusts":20.2,"aqi":134,"pm10":209.5,"pm2_5":55.5,"mosquito_risk":4,"arthritis_risk":5,"migraine_risk":7,"frizz_risk":1,"updated_at":"2026-04-24T08:24:32.247040+05:30"},{"city":"Ratlam","state":"Madhya Pradesh","latitude":23.3315,"longitude":75.0367,"temp":28.7,"humidity":41,"rain":0.0,"pressure":955.5,"uv_index":8.5,"wind_gusts":25.9,"aqi":59,"pm10":41.9,"pm2_5":22.0,"mosquito_risk":4,"arthritis_risk":5,"migraine_risk":7,"frizz_risk":0,"updated_at":"2026-04-24T08:24:32.247047+05:30"},{"city":"Sagar","state":"Madhya Pradesh","latitude":23.8388,"longitude":78.7378,"temp":31.3,"humidity":31,"rain":0.0,"pressure":951.8,"uv_index":8.65,"wind_gusts":27.7,"aqi":57,"pm10":16.4,"pm2_5":12.1,"mosquito_risk":0,"arthritis_risk":5,"migraine_risk":7,"frizz_risk":0,"updated_at":"2026-04-24T08:24:32.247054+05:30"},{"city":"Satna","state":"Madhya Pradesh","latitude":24.6005,"longitude":80.8322,"temp":32.5,"humidity":35,"rain":0.0,"pressure":972.1,"uv_index":8.65,"wind_gusts":20.9,"aqi":73,"pm10":30.0,"pm2_5":29.5,"mosquito_risk":0,"arthritis_risk":5,"migraine_risk":7,"frizz_risk":0,"updated_at":"2026-04-24T08:24:32.247060+05:30"},{"city":"Akola","state":"Maharashtra","latitude":20.7002,"longitude":77.0082,"temp":31.9,"humidity":41,"rain":0.0,"pressure":976.3,"uv_index":8.9,"wind_gusts":28.8,"aqi":84,"pm10":24.4,"pm2_5":23.5,"mosquito_risk":0,"arthritis_risk":5,"migraine_risk":7,"frizz_risk":1,"updated_at":"2026-04-24T08:24:32.247067+05:30"},{"city":"Amravati","state":"Maharashtra","latitude":20.9374,"longitude":77.7796,"temp":31.0,"humidity":44,"rain":0.0,"pressure":968.4,"uv_index":8.9,"wind_gusts":23.0,"aqi":84,"pm10":27.0,"pm2_5":25.6,"mosquito_risk":0,"arthritis_risk":5,"migraine_risk":7,"frizz_risk":1,"updated_at":"2026-04-24T08:24:32.247074+05:30"},{"city":"Latur","state":"Maharashtra","latitude":18.4088,"longitude":76.5604,"temp":29.2,"humidity":48,"rain":0.0,"pressure":941.2,"uv_index":8.8,"wind_gusts":34.6,"aqi":101,"pm10":44.1,"pm2_5":40.3,"mosquito_risk":4,"arthritis_risk":5,"migraine_risk":7,"frizz_risk":1,"updated_at":"2026-04-24T08:24:32.247081+05:30"},{"city":"Nanded","state":"Maharashtra","latitude":19.1383,"longitude":77.3091,"temp":29.8,"humidity":53,"rain":0.0,"pressure":969.8,"uv_index":9.05,"wind_gusts":34.6,"aqi":111,"pm10":40.5,"pm2_5":38.4,"mosquito_risk":4,"arthritis_risk":5,"migraine_risk":7,"frizz_risk":1,"updated_at":"2026-04-24T08:24:32.247088+05:30"},{"city":"Gulbarga","state":"Karnataka","latitude":17.3297,"longitude":76.8343,"temp":30.5,"humidity":47,"rain":0.0,"pressure":959.4,"uv_index":8.35,"wind_gusts":32.4,"aqi":118,"pm10":56.2,"pm2_5":51.1,"mosquito_risk":0,"arthritis_risk":5,"migraine_risk":7,"frizz_risk":1,"updated_at":"2026-04-24T08:24:32.247095+05:30"},{"city":"Bidar","state":"Karnataka","latitude":17.9104,"longitude":77.5199,"temp":28.5,"humidity":49,"rain":0.0,"pressure":936.8,"uv_index":8.45,"wind_gusts":37.8,"aqi":115,"pm10":54.7,"pm2_5":50.2,"mosquito_risk":4,"arthritis_risk":5,"migraine_risk":7,"frizz_risk":1,"updated_at":"2026-04-24T08:24:32.247101+05:30"},{"city":"Hospet","state":"Karnataka","latitude":15.2689,"longitude":76.3909,"temp":28.0,"humidity":66,"rain":0.0,"pressure":956.1,"uv_index":9.25,"wind_gusts":60.8,"aqi":103,"pm10":36.2,"pm2_5":34.1,"mosquito_risk":7,"arthritis_risk":5,"migraine_risk":7,"frizz_risk":1,"updated_at":"2026-04-24T08:24:32.247108+05:30"},{"city":"Tirupur","state":"Tamil Nadu","latitude":11.1085,"longitude":77.3411,"temp":28.7,"humidity":73,"rain":0.0,"pressure":975.8,"uv_index":9.45,"wind_gusts":32.8,"aqi":65,"pm10":21.0,"pm2_5":18.6,"mosquito_risk":7,"arthritis_risk":5,"migraine_risk":7,"frizz_risk":1,"updated_at":"2026-04-24T08:24:32.247114+05:30"},{"city":"Alappuzha","state":"Kerala","latitude":9.4981,"longitude":76.3388,"temp":28.5,"humidity":84,"rain":0.0,"pressure":1008.2,"uv_index":9.0,"wind_gusts":27.0,"aqi":76,"pm10":28.7,"pm2_5":26.3,"mosquito_risk":7,"arthritis_risk":0,"migraine_risk":4,"frizz_risk":1,"updated_at":"2026-04-24T08:24:32.247121+05:30"},{"city":"Munnar","state":"Kerala","latitude":10.0889,"longitude":77.0595,"temp":24.7,"humidity":64,"rain":0.0,"pressure":857.8,"uv_index":9.65,"wind_gusts":25.6,"aqi":70,"pm10":27.4,"pm2_5":26.3,"mosquito_risk":3,"arthritis_risk":5,"migraine_risk":7,"frizz_risk":1,"updated_at":"2026-04-24T08:24:32.247129+05:30"},{"city":"Silchar","state":"Assam","latitude":24.8333,"longitude":92.7789,"temp":29.3,"humidity":74,"rain":0.0,"pressure":1006.7,"uv_index":8.75,"wind_gusts":22.0,"aqi":156,"pm10":126.2,"pm2_5":68.0,"mosquito_risk":7,"arthritis_risk":5,"migraine_risk":4,"frizz_risk":1,"updated_at":"2026-04-24T08:24:32.247135+05:30"},{"city":"Dibrugarh","state":"Assam","latitude":27.4728,"longitude":94.912,"temp":27.0,"humidity":75,"rain":0.0,"pressure":998.1,"uv_index":8.65,"wind_gusts":11.9,"aqi":77,"pm10":28.9,"pm2_5":21.1,"mosquito_risk":7,"arthritis_risk":5,"migraine_risk":7,"frizz_risk":1,"updated_at":"2026-04-24T08:24:32.247142+05:30"}]