[{"city":"Delhi","state":"Delhi","latitude":28.6139,"longitude":77.209,"temp":30.4,"humidity":53,"rain":0.0,"pressure":976.4,"uv_index":7.8,"wind_gusts":51.8,"aqi":157,"pm10":174.2,"pm2_5":87.1,"no2":58.0,"co":580.0,"o3":50.0,"so2":37.4,"mosquito_risk":0,"arthritis_risk":5,"migraine_risk":7,"frizz_risk":1,"updated_at":"2026-06-04T03:21:38.131644+05:30"},{"city":"Mumbai","state":"Maharashtra","latitude":19.076,"longitude":72.8777,"temp":29.3,"humidity":73,"rain":0.0,"pressure":1004.1,"uv_index":7.7,"wind_gusts":45.7,"aqi":67,"pm10":33.9,"pm2_5":14.3,"no2":9.1,"co":186.0,"o3":45.0,"so2":8.7,"mosquito_risk":7,"arthritis_risk":5,"migraine_risk":4,"frizz_risk":1,"updated_at":"2026-06-04T03:21:38.131705+05:30"},{"city":"Bangalore","state":"Karnataka","latitude":12.9716,"longitude":77.5946,"temp":20.2,"humidity":94,"rain":0.0,"pressure":908.9,"uv_index":8.05,"wind_gusts":47.5,"aqi":41,"pm10":7.4,"pm2_5":6.4,"no2":12.8,"co":213.0,"o3":34.0,"so2":4.9,"mosquito_risk":3,"arthritis_risk":5,"migraine_risk":7,"frizz_risk":1,"updated_at":"2026-06-04T03:21:38.131721+05:30"},{"city":"Hyderabad","state":"Telangana","latitude":17.385,"longitude":78.4867,"temp":27.6,"humidity":65,"rain":0.0,"pressure":949.7,"uv_index":9.15,"wind_gusts":47.5,"aqi":77,"pm10":27.5,"pm2_5":20.9,"no2":15.0,"co":192.0,"o3":65.0,"so2":8.2,"mosquito_risk":7,"arthritis_risk":5,"migraine_risk":7,"frizz_risk":1,"updated_at":"2026-06-04T03:21:38.131732+05:30"},{"city":"Chennai","state":"Tamil Nadu","latitude":13.0827,"longitude":80.2707,"temp":30.5,"humidity":65,"rain":0.0,"pressure":1002.8,"uv_index":8.0,"wind_gusts":51.1,"aqi":63,"pm10":16.1,"pm2_5":15.4,"no2":18.9,"co":429.0,"o3":61.0,"so2":10.0,"mosquito_risk":3,"arthritis_risk":5,"migraine_risk":4,"frizz_risk":1,"updated_at":"2026-06-04T03:21:38.131740+05:30"},{"city":"Kolkata","state":"West Bengal","latitude":22.5726,"longitude":88.3639,"temp":29.6,"humidity":92,"rain":0.0,"pressure":999.9,"uv_index":8.95,"wind_gusts":43.6,"aqi":124,"pm10":52.6,"pm2_5":48.5,"no2":15.3,"co":334.0,"o3":72.0,"so2":10.1,"mosquito_risk":7,"arthritis_risk":5,"migraine_risk":7,"frizz_risk":1,"updated_at":"2026-06-04T03:21:38.131748+05:30"},{"city":"Pune","state":"Maharashtra","latitude":18.5204,"longitude":73.8567,"temp":24.4,"humidity":84,"rain":0.0,"pressure":944.5,"uv_index":8.35,"wind_gusts":43.2,"aqi":58,"pm10":14.9,"pm2_5":7.9,"no2":8.8,"co":126.0,"o3":37.0,"so2":7.6,"mosquito_risk":3,"arthritis_risk":5,"migraine_risk":7,"frizz_risk":1,"updated_at":"2026-06-04T03:21:38.131754+05:30"},{"city":"Ahmedabad","state":"Gujarat","latitude":23.0225,"longitude":72.5714,"temp":30.7,"humidity":71,"rain":0.0,"pressure":996.4,"uv_index":8.05,"wind_gusts":41.0,"aqi":87,"pm10":29.9,"pm2_5":19.5,"no2":6.2,"co":166.0,"o3":54.0,"so2":4.1,"mosquito_risk":3,"arthritis_risk":5,"migraine_risk":7,"frizz_risk":1,"updated_at":"2026-06-04T03:21:38.131760+05:30"},{"city":"Jaipur","state":"Rajasthan","latitude":26.9124,"longitude":75.7873,"temp":29.0,"humidity":48,"rain":0.0,"pressure":953.3,"uv_index":8.25,"wind_gusts":68.4,"aqi":120,"pm10":107.1,"pm2_5":43.9,"no2":19.1,"co":373.0,"o3":53.0,"so2":7.7,"mosquito_risk":4,"arthritis_risk":5,"migraine_risk":7,"frizz_risk":1,"updated_at":"2026-06-04T03:21:38.131771+05:30"},{"city":"Lucknow","state":"Uttar Pradesh","latitude":26.8467,"longitude":80.9462,"temp":28.0,"humidity":71,"rain":0.0,"pressure":986.9,"uv_index":8.0,"wind_gusts":21.2,"aqi":130,"pm10":149.9,"pm2_5":87.8,"no2":81.6,"co":533.0,"o3":1.0,"so2":24.9,"mosquito_risk":7,"arthritis_risk":5,"migraine_risk":7,"frizz_risk":1,"updated_at":"2026-06-04T03:21:38.131778+05:30"},{"city":"Kanpur","state":"Uttar Pradesh","latitude":26.4499,"longitude":80.3319,"temp":30.8,"humidity":53,"rain":0.0,"pressure":985.2,"uv_index":8.3,"wind_gusts":49.3,"aqi":125,"pm10":138.8,"pm2_5":70.5,"no2":72.9,"co":320.0,"o3":4.0,"so2":15.5,"mosquito_risk":0,"arthritis_risk":5,"migraine_risk":7,"frizz_risk":1,"updated_at":"2026-06-04T03:21:38.131787+05:30"},{"city":"Chandigarh","state":"Chandigarh","latitude":30.7333,"longitude":76.7794,"temp":24.9,"humidity":75,"rain":0.0,"pressure":962.3,"uv_index":7.75,"wind_gusts":34.9,"aqi":117,"pm10":64.7,"pm2_5":51.5,"no2":45.2,"co":777.0,"o3":17.0,"so2":6.9,"mosquito_risk":3,"arthritis_risk":5,"migraine_risk":7,"frizz_risk":1,"updated_at":"2026-06-04T03:21:38.131793+05:30"},{"city":"Srinagar","state":"Jammu and Kashmir","latitude":34.0837,"longitude":74.7973,"temp":14.2,"humidity":96,"rain":0.0,"pressure":836.8,"uv_index":8.15,"wind_gusts":33.5,"aqi":89,"pm10":48.7,"pm2_5":42.7,"no2":25.1,"co":606.0,"o3":3.0,"so2":0.4,"mosquito_risk":3,"arthritis_risk":10,"migraine_risk":7,"frizz_risk":0,"updated_at":"2026-06-04T03:21:38.131800+05:30"},{"city":"Jammu","state":"Jammu and Kashmir","latitude":32.7266,"longitude":74.857,"temp":26.2,"humidity":61,"rain":0.0,"pressure":966.0,"uv_index":8.45,"wind_gusts":69.5,"aqi":98,"pm10":47.4,"pm2_5":38.0,"no2":34.1,"co":396.0,"o3":25.0,"so2":3.3,"mosquito_risk":7,"arthritis_risk":5,"migraine_risk":7,"frizz_risk":1,"updated_at":"2026-06-04T03:21:38.131806+05:30"},{"city":"Amritsar","state":"Punjab","latitude":31.634,"longitude":74.8723,"temp":28.6,"humidity":57,"rain":0.0,"pressure":973.6,"uv_index":8.4,"wind_gusts":67.0,"aqi":150,"pm10":75.7,"pm2_5":60.3,"no2":31.6,"co":753.0,"o3":43.0,"so2":9.1,"mosquito_risk":4,"arthritis_risk":5,"migraine_risk":7,"frizz_risk":1,"updated_at":"2026-06-04T03:21:38.131812+05:30"},{"city":"Ludhiana","state":"Punjab","latitude":30.901,"longitude":75.8573,"temp":27.8,"humidity":65,"rain":0.0,"pressure":972.1,"uv_index":7.9,"wind_gusts":55.4,"aqi":152,"pm10":142.5,"pm2_5":86.1,"no2":48.3,"co":1065.0,"o3":41.0,"so2":14.8,"mosquito_risk":7,"arthritis_risk":5,"migraine_risk":7,"frizz_risk":1,"updated_at":"2026-06-04T03:21:38.131818+05:30"},{"city":"Jalandhar","state":"Punjab","latitude":31.326,"longitude":75.5762,"temp":27.5,"humidity":57,"rain":0.0,"pressure":973.0,"uv_index":8.2,"wind_gusts":63.7,"aqi":155,"pm10":112.0,"pm2_5":87.5,"no2":60.9,"co":769.0,"o3":13.0,"so2":8.6,"mosquito_risk":4,"arthritis_risk":5,"migraine_risk":7,"frizz_risk":1,"updated_at":"2026-06-04T03:21:38.131824+05:30"},{"city":"Dehradun","state":"Uttarakhand","latitude":30.6284,"longitude":78.0322,"temp":15.0,"humidity":89,"rain":0.0,"pressure":825.9,"uv_index":6.55,"wind_gusts":28.1,"aqi":55,"pm10":23.5,"pm2_5":20.5,"no2":31.6,"co":208.0,"o3":17.0,"so2":0.0,"mosquito_risk":3,"arthritis_risk":10,"migraine_risk":7,"frizz_risk":0,"updated_at":"2026-06-04T03:21:38.131830+05:30"},{"city":"Shimla","state":"Himachal Pradesh","latitude":31.1048,"longitude":77.1734,"temp":12.2,"humidity":85,"rain":0.0,"pressure":778.9,"uv_index":7.2,"wind_gusts":42.1,"aqi":81,"pm10":41.3,"pm2_5":32.5,"no2":19.3,"co":351.0,"o3":47.0,"so2":0.0,"mosquito_risk":3,"arthritis_risk":10,"migraine_risk":7,"frizz_risk":0,"updated_at":"2026-06-04T03:21:38.131839+05:30"},{"city":"Manali","state":"Himachal Pradesh","latitude":32.2396,"longitude":77.1887,"temp":14.6,"humidity":65,"rain":0.0,"pressure":814.0,"uv_index":8.95,"wind_gusts":38.2,"aqi":30,"pm10":4.0,"pm2_5":2.3,"no2":27.1,"co":245.0,"o3":82.0,"so2":0.0,"mosquito_risk":3,"arthritis_risk":5,"migraine_risk":7,"frizz_risk":0,"updated_at":"2026-06-04T03:21:38.131844+05:30"},{"city":"Gurgaon","state":"Haryana","latitude":28.4595,"longitude":77.0266,"temp":29.1,"humidity":56,"rain":0.0,"pressure":974.6,"uv_index":7.9,"wind_gusts":50.8,"aqi":161,"pm10":133.2,"pm2_5":67.1,"no2":34.5,"co":521.0,"o3":62.0,"so2":19.7,"mosquito_risk":4,"arthritis_risk":5,"migraine_risk":7,"frizz_risk":1,"updated_at":"2026-06-04T03:21:38.131851+05:30"},{"city":"Noida","state":"Uttar Pradesh","latitude":28.5355,"longitude":77.391,"temp":28.8,"humidity":61,"rain":0.0,"pressure":977.7,"uv_index":7.85,"wind_gusts":59.4,"aqi":161,"pm10":133.2,"pm2_5":67.1,"no2":34.5,"co":605.0,"o3":62.0,"so2":19.7,"mosquito_risk":7,"arthritis_risk":5,"migraine_risk":7,"frizz_risk":1,"updated_at":"2026-06-04T03:21:38.131857+05:30"},{"city":"Ghaziabad","state":"Uttar Pradesh","latitude":28.6692,"longitude":77.4538,"temp":27.8,"humidity":66,"rain":0.0,"pressure":976.0,"uv_index":7.8,"wind_gusts":67.7,"aqi":154,"pm10":99.7,"pm2_5":68.5,"no2":38.7,"co":467.0,"o3":47.0,"so2":13.5,"mosquito_risk":7,"arthritis_risk":5,"migraine_risk":7,"frizz_risk":1,"updated_at":"2026-06-04T03:21:38.131863+05:30"},{"city":"Faridabad","state":"Haryana","latitude":28.4089,"longitude":77.3178,"temp":30.1,"humidity":52,"rain":0.0,"pressure":977.1,"uv_index":7.85,"wind_gusts":51.1,"aqi":161,"pm10":133.2,"pm2_5":67.1,"no2":34.5,"co":652.0,"o3":62.0,"so2":19.7,"mosquito_risk":0,"arthritis_risk":5,"migraine_risk":7,"frizz_risk":1,"updated_at":"2026-06-04T03:21:38.131869+05:30"},{"city":"Meerut","state":"Uttar Pradesh","latitude":28.9845,"longitude":77.7064,"temp":28.9,"humidity":61,"rain":0.0,"pressure":975.0,"uv_index":7.15,"wind_gusts":51.8,"aqi":154,"pm10":99.7,"pm2_5":68.5,"no2":38.7,"co":703.0,"o3":47.0,"so2":13.5,"mosquito_risk":7,"arthritis_risk":5,"migraine_risk":7,"frizz_risk":1,"updated_at":"2026-06-04T03:21:38.131899+05:30"},{"city":"Agra","state":"Uttar Pradesh","latitude":27.1767,"longitude":78.0081,"temp":29.2,"humidity":56,"rain":0.0,"pressure":981.0,"uv_index":8.15,"wind_gusts":86.4,"aqi":231,"pm10":243.1,"pm2_5":74.5,"no2":19.9,"co":724.0,"o3":65.0,"so2":11.5,"mosquito_risk":4,"arthritis_risk":5,"migraine_risk":7,"frizz_risk":1,"updated_at":"2026-06-04T03:21:38.131905+05:30"},{"city":"Varanasi","state":"Uttar Pradesh","latitude":25.3176,"longitude":82.9739,"temp":31.0,"humidity":48,"rain":0.0,"pressure":991.2,"uv_index":8.45,"wind_gusts":24.8,"aqi":146,"pm10":57.9,"pm2_5":50.6,"no2":42.9,"co":784.0,"o3":26.0,"so2":29.6,"mosquito_risk":0,"arthritis_risk":5,"migraine_risk":7,"frizz_risk":1,"updated_at":"2026-06-04T03:21:38.131912+05:30"},{"city":"Prayagraj","state":"Uttar Pradesh","latitude":25.4358,"longitude":81.8463,"temp":30.6,"humidity":53,"rain":0.0,"pressure":989.7,"uv_index":8.7,"wind_gusts":24.8,"aqi":124,"pm10":79.9,"pm2_5":60.8,"no2":51.7,"co":327.0,"o3":22.0,"so2":16.1,"mosquito_risk":0,"arthritis_risk":5,"migraine_risk":7,"frizz_risk":1,"updated_at":"2026-06-04T03:21:38.131918+05:30"},{"city":"Gorakhpur","state":"Uttar Pradesh","latitude":26.7606,"longitude":83.3732,"temp":28.0,"humidity":66,"rain":0.0,"pressure":990.6,"uv_index":7.5,"wind_gusts":20.2,"aqi":149,"pm10":80.1,"pm2_5":70.1,"no2":56.3,"co":441.0,"o3":17.0,"so2":12.7,"mosquito_risk":7,"arthritis_risk":5,"migraine_risk":7,"frizz_risk":1,"updated_at":"2026-06-04T03:21:38.131927+05:30"},{"city":"Bareilly","state":"Uttar Pradesh","latitude":28.367,"longitude":79.4304,"temp":27.4,"humidity":71,"rain":0.0,"pressure":980.4,"uv_index":8.1,"wind_gusts":52.2,"aqi":152,"pm10":120.1,"pm2_5":83.4,"no2":61.0,"co":930.0,"o3":18.0,"so2":11.5,"mosquito_risk":7,"arthritis_risk":5,"migraine_risk":7,"frizz_risk":1,"updated_at":"2026-06-04T03:21:38.131933+05:30"},{"city":"Aligarh","state":"Uttar Pradesh","latitude":27.8974,"longitude":78.088,"temp":28.4,"humidity":64,"rain":0.0,"pressure":978.7,"uv_index":7.7,"wind_gusts":67.7,"aqi":151,"pm10":104.8,"pm2_5":65.0,"no2":29.0,"co":470.0,"o3":60.0,"so2":11.4,"mosquito_risk":7,"arthritis_risk":5,"migraine_risk":7,"frizz_risk":1,"updated_at":"2026-06-04T03:21:38.131939+05:30"},{"city":"Moradabad","state":"Uttar Pradesh","latitude":28.8386,"longitude":78.7733,"temp":28.9,"humidity":59,"rain":0.0,"pressure":977.4,"uv_index":7.95,"wind_gusts":43.9,"aqi":159,"pm10":124.3,"pm2_5":90.6,"no2":49.8,"co":1138.0,"o3":34.0,"so2":14.0,"mosquito_risk":4,"arthritis_risk":5,"migraine_risk":7,"frizz_risk":1,"updated_at":"2026-06-04T03:21:38.131944+05:30"},{"city":"Saharanpur","state":"Uttar Pradesh","latitude":29.9637,"longitude":77.546,"temp":27.1,"humidity":74,"rain":0.0,"pressure":969.4,"uv_index":7.5,"wind_gusts":36.0,"aqi":141,"pm10":88.7,"pm2_5":71.0,"no2":46.8,"co":763.0,"o3":34.0,"so2":12.7,"mosquito_risk":7,"arthritis_risk":5,"migraine_risk":7,"frizz_risk":1,"updated_at":"2026-06-04T03:21:38.131950+05:30"},{"city":"Jhansi","state":"Uttar Pradesh","latitude":25.4484,"longitude":78.5685,"temp":29.0,"humidity":61,"rain":0.0,"pressure":971.2,"uv_index":8.5,"wind_gusts":64.1,"aqi":84,"pm10":50.1,"pm2_5":29.5,"no2":12.3,"co":295.0,"o3":55.0,"so2":5.7,"mosquito_risk":7,"arthritis_risk":5,"migraine_risk":7,"frizz_risk":1,"updated_at":"2026-06-04T03:21:41.374204+05:30"},{"city":"Surat","state":"Gujarat","latitude":21.1702,"longitude":72.8311,"temp":29.2,"humidity":81,"rain":0.0,"pressure":1002.1,"uv_index":7.6,"wind_gusts":47.9,"aqi":85,"pm10":44.2,"pm2_5":23.6,"no2":17.6,"co":219.0,"o3":39.0,"so2":30.7,"mosquito_risk":7,"arthritis_risk":5,"migraine_risk":4,"frizz_risk":1,"updated_at":"2026-06-04T03:21:41.374241+05:30"},{"city":"Vadodara","state":"Gujarat","latitude":22.3072,"longitude":73.1812,"temp":29.4,"humidity":81,"rain":0.0,"pressure":999.1,"uv_index":8.0,"wind_gusts":44.6,"aqi":83,"pm10":31.3,"pm2_5":19.7,"no2":15.5,"co":147.0,"o3":38.0,"so2":19.8,"mosquito_risk":7,"arthritis_risk":5,"migraine_risk":7,"frizz_risk":1,"updated_at":"2026-06-04T03:21:41.374251+05:30"},{"city":"Rajkot","state":"Gujarat","latitude":22.3039,"longitude":70.8022,"temp":28.5,"humidity":79,"rain":0.0,"pressure":988.6,"uv_index":7.55,"wind_gusts":48.6,"aqi":71,"pm10":31.8,"pm2_5":15.7,"no2":3.7,"co":106.0,"o3":42.0,"so2":3.0,"mosquito_risk":7,"arthritis_risk":5,"migraine_risk":7,"frizz_risk":1,"updated_at":"2026-06-04T03:21:41.374259+05:30"},{"city":"Thane","state":"Maharashtra","latitude":19.2183,"longitude":72.9781,"temp":28.5,"humidity":78,"rain":0.0,"pressure":1003.6,"uv_index":7.7,"wind_gusts":39.6,"aqi":67,"pm10":33.9,"pm2_5":14.3,"no2":9.1,"co":172.0,"o3":45.0,"so2":8.7,"mosquito_risk":7,"arthritis_risk":5,"migraine_risk":4,"frizz_risk":1,"updated_at":"2026-06-04T03:21:41.374268+05:30"},{"city":"Nagpur","state":"Maharashtra","latitude":21.1458,"longitude":79.0882,"temp":31.9,"humidity":42,"rain":0.0,"pressure":967.9,"uv_index":6.95,"wind_gusts":35.6,"aqi":72,"pm10":45.3,"pm2_5":33.9,"no2":32.7,"co":265.0,"o3":25.0,"so2":10.4,"mosquito_risk":0,"arthritis_risk":5,"migraine_risk":7,"frizz_risk":1,"updated_at":"2026-06-04T03:21:41.374275+05:30"},{"city":"Nashik","state":"Maharashtra","latitude":19.9975,"longitude":73.7898,"temp":23.8,"humidity":90,"rain":0.0,"pressure":941.8,"uv_index":8.05,"wind_gusts":39.6,"aqi":66,"pm10":22.3,"pm2_5":11.5,"no2":11.1,"co":177.0,"o3":32.0,"so2":10.6,"mosquito_risk":3,"arthritis_risk":5,"migraine_risk":7,"frizz_risk":1,"updated_at":"2026-06-04T03:21:41.374283+05:30"},{"city":"Aurangabad","state":"Maharashtra","latitude":19.8762,"longitude":75.3433,"temp":25.9,"humidity":74,"rain":0.0,"pressure":940.4,"uv_index":8.95,"wind_gusts":39.6,"aqi":73,"pm10":25.6,"pm2_5":15.4,"no2":8.1,"co":139.0,"o3":58.0,"so2":9.3,"mosquito_risk":7,"arthritis_risk":5,"migraine_risk":7,"frizz_risk":1,"updated_at":"2026-06-04T03:21:41.374290+05:30"},{"city":"Solapur","state":"Maharashtra","latitude":17.6599,"longitude":75.9064,"temp":28.0,"humidity":62,"rain":0.0,"pressure":954.0,"uv_index":9.0,"wind_gusts":43.9,"aqi":62,"pm10":12.1,"pm2_5":8.7,"no2":6.9,"co":171.0,"o3":46.0,"so2":2.5,"mosquito_risk":7,"arthritis_risk":5,"migraine_risk":7,"frizz_risk":1,"updated_at":"2026-06-04T03:21:41.374298+05:30"},{"city":"Kolhapur","state":"Maharashtra","latitude":16.705,"longitude":74.2433,"temp":23.9,"humidity":83,"rain":0.0,"pressure":944.8,"uv_index":8.75,"wind_gusts":46.8,"aqi":43,"pm10":11.6,"pm2_5":7.7,"no2":6.7,"co":121.0,"o3":38.0,"so2":2.5,"mosquito_risk":3,"arthritis_risk":5,"migraine_risk":7,"frizz_risk":1,"updated_at":"2026-06-04T03:21:41.374305+05:30"},{"city":"Goa","state":"Goa","latitude":15.2993,"longitude":74.124,"temp":25.0,"humidity":97,"rain":0.1,"pressure":995.5,"uv_index":8.75,"wind_gusts":34.9,"aqi":34,"pm10":17.8,"pm2_5":9.4,"no2":4.2,"co":188.0,"o3":44.0,"so2":1.1,"mosquito_risk":10,"arthritis_risk":5,"migraine_risk":7,"frizz_risk":1,"updated_at":"2026-06-04T03:21:41.374312+05:30"},{"city":"Jodhpur","state":"Rajasthan","latitude":26.2389,"longitude":73.0243,"temp":32.3,"humidity":46,"rain":0.0,"pressure":976.3,"uv_index":8.4,"wind_gusts":51.8,"aqi":110,"pm10":175.1,"pm2_5":45.8,"no2":3.8,"co":140.0,"o3":61.0,"so2":2.2,"mosquito_risk":0,"arthritis_risk":5,"migraine_risk":7,"frizz_risk":1,"updated_at":"2026-06-04T03:21:41.374319+05:30"},{"city":"Udaipur","state":"Rajasthan","latitude":24.5854,"longitude":73.7125,"temp":27.8,"humidity":60,"rain":0.0,"pressure":941.1,"uv_index":8.8,"wind_gusts":60.5,"aqi":94,"pm10":69.8,"pm2_5":32.0,"no2":6.0,"co":146.0,"o3":59.0,"so2":3.8,"mosquito_risk":4,"arthritis_risk":5,"migraine_risk":7,"frizz_risk":1,"updated_at":"2026-06-04T03:21:41.374327+05:30"},{"city":"Kota","state":"Rajasthan","latitude":25.2138,"longitude":75.8648,"temp":31.3,"humidity":47,"rain":0.0,"pressure":972.1,"uv_index":8.4,"wind_gusts":60.1,"aqi":99,"pm10":58.2,"pm2_5":33.1,"no2":6.5,"co":204.0,"o3":65.0,"so2":6.2,"mosquito_risk":0,"arthritis_risk":5,"migraine_risk":7,"frizz_risk":1,"updated_at":"2026-06-04T03:21:41.374334+05:30"},{"city":"Bikaner","state":"Rajasthan","latitude":28.0229,"longitude":73.3119,"temp":31.6,"humidity":35,"rain":0.0,"pressure":974.1,"uv_index":8.3,"wind_gusts":57.2,"aqi":105,"pm10":155.5,"pm2_5":46.9,"no2":2.3,"co":141.0,"o3":75.0,"so2":2.1,"mosquito_risk":0,"arthritis_risk":5,"migraine_risk":7,"frizz_risk":0,"updated_at":"2026-06-04T03:21:41.374341+05:30"},{"city":"Ajmer","state":"Rajasthan","latitude":26.4499,"longitude":74.6399,"temp":29.0,"humidity":53,"rain":0.0,"pressure":948.6,"uv_index":8.35,"wind_gusts":46.4,"aqi":96,"pm10":74.5,"pm2_5":31.0,"no2":4.1,"co":176.0,"o3":67.0,"so2":4.6,"mosquito_risk":4,"arthritis_risk":5,"migraine_risk":7,"frizz_risk":1,"updated_at":"2026-06-04T03:21:41.374347+05:30"},{"city":"Gwalior","state":"Madhya Pradesh","latitude":26.2183,"longitude":78.1828,"temp":27.7,"humidity":70,"rain":0.0,"pressure":976.2,"uv_index":8.3,"wind_gusts":77.4,"aqi":104,"pm10":102.0,"pm2_5":42.1,"no2":11.6,"co":245.0,"o3":74.0,"so2":6.8,"mosquito_risk":7,"arthritis_risk":5,"migraine_risk":7,"frizz_risk":1,"updated_at":"2026-06-04T03:21:41.374354+05:30"},{"city":"Indore","state":"Madhya Pradesh","latitude":22.7196,"longitude":75.8577,"temp":28.0,"humidity":66,"rain":0.0,"pressure":943.4,"uv_index":8.65,"wind_gusts":53.6,"aqi":89,"pm10":45.4,"pm2_5":30.9,"no2":6.6,"co":266.0,"o3":79.0,"so2":8.4,"mosquito_risk":7,"arthritis_risk":5,"migraine_risk":7,"frizz_risk":1,"updated_at":"2026-06-04T03:21:41.374361+05:30"},{"city":"Bhopal","state":"Madhya Pradesh","latitude":23.2599,"longitude":77.4126,"temp":29.1,"humidity":52,"rain":0.0,"pressure":948.2,"uv_index":8.7,"wind_gusts":47.9,"aqi":83,"pm10":48.4,"pm2_5":32.6,"no2":9.0,"co":259.0,"o3":59.0,"so2":5.7,"mosquito_risk":4,"arthritis_risk":5,"migraine_risk":7,"frizz_risk":1,"updated_at":"2026-06-04T03:21:41.374367+05:30"},{"city":"Jabalpur","state":"Madhya Pradesh","latitude":23.1815,"longitude":79.9864,"temp":27.2,"humidity":72,"rain":0.0,"pressure":956.6,"uv_index":8.85,"wind_gusts":28.8,"aqi":73,"pm10":35.4,"pm2_5":23.0,"no2":7.9,"co":185.0,"o3":74.0,"so2":4.5,"mosquito_risk":7,"arthritis_risk":5,"migraine_risk":7,"frizz_risk":1,"updated_at":"2026-06-04T03:21:41.374374+05:30"},{"city":"Ujjain","state":"Madhya Pradesh","latitude":23.1765,"longitude":75.7885,"temp":28.0,"humidity":64,"rain":0.0,"pressure":948.8,"uv_index":8.6,"wind_gusts":51.5,"aqi":88,"pm10":49.0,"pm2_5":31.5,"no2":4.8,"co":242.0,"o3":81.0,"so2":8.3,"mosquito_risk":7,"arthritis_risk":5,"migraine_risk":7,"frizz_risk":1,"updated_at":"2026-06-04T03:21:41.374381+05:30"},{"city":"Visakhapatnam","state":"Andhra Pradesh","latitude":17.6868,"longitude":83.2185,"temp":29.4,"humidity":82,"rain":0.0,"pressure":998.1,"uv_index":8.8,"wind_gusts":37.1,"aqi":87,"pm10":34.1,"pm2_5":27.6,"no2":20.8,"co":404.0,"o3":93.0,"so2":37.0,"mosquito_risk":7,"arthritis_risk":5,"migraine_risk":7,"frizz_risk":1,"updated_at":"2026-06-04T03:21:41.374388+05:30"},{"city":"Vijayawada","state":"Andhra Pradesh","latitude":16.5062,"longitude":80.648,"temp":30.0,"humidity":63,"rain":0.0,"pressure":997.6,"uv_index":8.7,"wind_gusts":41.4,"aqi":83,"pm10":22.4,"pm2_5":19.7,"no2":8.6,"co":253.0,"o3":80.0,"so2":3.9,"mosquito_risk":7,"arthritis_risk":5,"migraine_risk":7,"frizz_risk":1,"updated_at":"2026-06-04T03:21:41.374395+05:30"},{"city":"Guntur","state":"Andhra Pradesh","latitude":16.3067,"longitude":80.4365,"temp":29.0,"humidity":69,"rain":0.0,"pressure":998.9,"uv_index":8.65,"wind_gusts":42.1,"aqi":83,"pm10":21.5,"pm2_5":18.8,"no2":8.8,"co":214.0,"o3":76.0,"so2":3.6,"mosquito_risk":7,"arthritis_risk":5,"migraine_risk":7,"frizz_risk":1,"updated_at":"2026-06-04T03:21:41.374402+05:30"},{"city":"Nellore","state":"Andhra Pradesh","latitude":14.4426,"longitude":79.9865,"temp":28.4,"humidity":71,"rain":0.0,"pressure":1001.7,"uv_index":8.65,"wind_gusts":42.8,"aqi":63,"pm10":10.3,"pm2_5":9.0,"no2":6.4,"co":176.0,"o3":76.0,"so2":3.0,"mosquito_risk":7,"arthritis_risk":5,"migraine_risk":4,"frizz_risk":1,"updated_at":"2026-06-04T03:21:41.374410+05:30"},{"city":"Kurnool","state":"Andhra Pradesh","latitude":15.8281,"longitude":78.0373,"temp":27.5,"humidity":71,"rain":0.0,"pressure":973.9,"uv_index":8.5,"wind_gusts":33.1,"aqi":58,"pm10":9.3,"pm2_5":7.7,"no2":12.0,"co":180.0,"o3":51.0,"so2":8.2,"mosquito_risk":7,"arthritis_risk":5,"migraine_risk":7,"frizz_risk":1,"updated_at":"2026-06-04T03:21:41.374417+05:30"},{"city":"Kakinada","state":"Andhra Pradesh","latitude":16.9891,"longitude":82.2475,"temp":29.5,"humidity":80,"rain":0.0,"pressure":1002.0,"uv_index":8.9,"wind_gusts":44.3,"aqi":86,"pm10":29.6,"pm2_5":22.0,"no2":2.6,"co":250.0,"o3":139.0,"so2":4.5,"mosquito_risk":7,"arthritis_risk":5,"migraine_risk":4,"frizz_risk":1,"updated_at":"2026-06-04T03:21:41.374424+05:30"},{"city":"Tirupati","state":"Andhra Pradesh","latitude":13.6288,"longitude":79.4192,"temp":27.9,"humidity":69,"rain":0.0,"pressure":987.3,"uv_index":8.9,"wind_gusts":32.0,"aqi":59,"pm10":11.8,"pm2_5":11.1,"no2":14.7,"co":179.0,"o3":46.0,"so2":2.1,"mosquito_risk":7,"arthritis_risk":5,"migraine_risk":7,"frizz_risk":1,"updated_at":"2026-06-04T03:21:41.374431+05:30"},{"city":"Warangal","state":"Telangana","latitude":17.9689,"longitude":79.5941,"temp":30.6,"humidity":54,"rain":0.0,"pressure":973.8,"uv_index":9.1,"wind_gusts":39.6,"aqi":89,"pm10":42.5,"pm2_5":35.0,"no2":18.3,"co":306.0,"o3":55.0,"so2":5.9,"mosquito_risk":0,"arthritis_risk":5,"migraine_risk":7,"frizz_risk":1,"updated_at":"2026-06-04T03:21:41.374437+05:30"},{"city":"Nizamabad","state":"Telangana","latitude":18.6725,"longitude":78.0941,"temp":28.2,"humidity":65,"rain":0.1,"pressure":961.0,"uv_index":9.05,"wind_gusts":33.1,"aqi":72,"pm10":39.9,"pm2_5":30.2,"no2":15.2,"co":178.0,"o3":66.0,"so2":5.2,"mosquito_risk":10,"arthritis_risk":5,"migraine_risk":7,"frizz_risk":1,"updated_at":"2026-06-04T03:21:41.374444+05:30"},{"city":"Mysore","state":"Karnataka","latitude":12.2958,"longitude":76.6396,"temp":21.2,"humidity":92,"rain":0.0,"pressure":926.0,"uv_index":8.3,"wind_gusts":51.8,"aqi":23,"pm10":7.2,"pm2_5":6.1,"no2":9.0,"co":125.0,"o3":34.0,"so2":2.1,"mosquito_risk":3,"arthritis_risk":5,"migraine_risk":7,"frizz_risk":1,"updated_at":"2026-06-04T03:21:41.374450+05:30"},{"city":"Mangalore","state":"Karnataka","latitude":12.9141,"longitude":74.856,"temp":24.6,"humidity":96,"rain":0.2,"pressure":1005.1,"uv_index":8.45,"wind_gusts":35.6,"aqi":32,"pm10":10.5,"pm2_5":6.9,"no2":5.8,"co":198.0,"o3":39.0,"so2":1.9,"mosquito_risk":6,"arthritis_risk":5,"migraine_risk":4,"frizz_risk":1,"updated_at":"2026-06-04T03:21:41.374457+05:30"},{"city":"Hubli-Dharwad","state":"Karnataka","latitude":15.3647,"longitude":75.124,"temp":22.6,"humidity":92,"rain":0.0,"pressure":938.0,"uv_index":8.95,"wind_gusts":50.0,"aqi":25,"pm10":3.8,"pm2_5":2.7,"no2":4.1,"co":112.0,"o3":46.0,"so2":1.0,"mosquito_risk":3,"arthritis_risk":5,"migraine_risk":7,"frizz_risk":1,"updated_at":"2026-06-04T03:21:41.374464+05:30"},{"city":"Belgaum","state":"Karnataka","latitude":15.8497,"longitude":74.4977,"temp":21.2,"humidity":96,"rain":0.0,"pressure":922.6,"uv_index":8.95,"wind_gusts":37.8,"aqi":31,"pm10":13.9,"pm2_5":9.1,"no2":8.1,"co":114.0,"o3":36.0,"so2":1.9,"mosquito_risk":3,"arthritis_risk":5,"migraine_risk":7,"frizz_risk":1,"updated_at":"2026-06-04T03:21:44.616776+05:30"},{"city":"Coimbatore","state":"Tamil Nadu","latitude":11.0168,"longitude":76.9558,"temp":22.7,"humidity":95,"rain":0.0,"pressure":959.4,"uv_index":7.9,"wind_gusts":60.1,"aqi":22,"pm10":6.5,"pm2_5":4.8,"no2":5.2,"co":189.0,"o3":41.0,"so2":2.3,"mosquito_risk":3,"arthritis_risk":5,"migraine_risk":7,"frizz_risk":1,"updated_at":"2026-06-04T03:21:44.616812+05:30"},{"city":"Madurai","state":"Tamil Nadu","latitude":9.9252,"longitude":78.1198,"temp":27.5,"humidity":72,"rain":0.0,"pressure":990.6,"uv_index":7.95,"wind_gusts":56.2,"aqi":52,"pm10":15.4,"pm2_5":14.3,"no2":25.9,"co":146.0,"o3":12.0,"so2":4.7,"mosquito_risk":7,"arthritis_risk":5,"migraine_risk":7,"frizz_risk":1,"updated_at":"2026-06-04T03:21:44.616823+05:30"},{"city":"Trichy","state":"Tamil Nadu","latitude":10.7905,"longitude":78.7047,"temp":27.5,"humidity":72,"rain":0.0,"pressure":996.8,"uv_index":8.75,"wind_gusts":45.7,"aqi":36,"pm10":7.9,"pm2_5":6.1,"no2":7.3,"co":125.0,"o3":38.0,"so2":3.1,"mosquito_risk":7,"arthritis_risk":5,"migraine_risk":7,"frizz_risk":1,"updated_at":"2026-06-04T03:21:44.616832+05:30"},{"city":"Salem","state":"Tamil Nadu","latitude":11.6643,"longitude":78.146,"temp":24.6,"humidity":91,"rain":0.0,"pressure":975.1,"uv_index":8.05,"wind_gusts":38.2,"aqi":43,"pm10":16.0,"pm2_5":13.7,"no2":19.4,"co":224.0,"o3":31.0,"so2":7.0,"mosquito_risk":3,"arthritis_risk":5,"migraine_risk":7,"frizz_risk":1,"updated_at":"2026-06-04T03:21:44.616840+05:30"},{"city":"Tirunelveli","state":"Tamil Nadu","latitude":8.7139,"longitude":77.7567,"temp":28.0,"humidity":70,"rain":0.0,"pressure":1001.5,"uv_index":8.05,"wind_gusts":45.7,"aqi":19,"pm10":4.0,"pm2_5":3.3,"no2":5.4,"co":146.0,"o3":34.0,"so2":1.5,"mosquito_risk":7,"arthritis_risk":5,"migraine_risk":4,"frizz_risk":1,"updated_at":"2026-06-04T03:21:44.616848+05:30"},{"city":"Vellore","state":"Tamil Nadu","latitude":12.9165,"longitude":79.1325,"temp":27.5,"humidity":64,"rain":0.0,"pressure":980.9,"uv_index":8.9,"wind_gusts":61.2,"aqi":60,"pm10":13.0,"pm2_5":12.0,"no2":19.1,"co":254.0,"o3":33.0,"so2":5.5,"mosquito_risk":7,"arthritis_risk":5,"migraine_risk":7,"frizz_risk":1,"updated_at":"2026-06-04T03:21:44.616856+05:30"},{"city":"Erode","state":"Tamil Nadu","latitude":11.341,"longitude":77.7172,"temp":24.9,"humidity":85,"rain":0.0,"pressure":986.8,"uv_index":7.65,"wind_gusts":44.6,"aqi":33,"pm10":11.9,"pm2_5":10.3,"no2":14.3,"co":164.0,"o3":32.0,"so2":3.4,"mosquito_risk":3,"arthritis_risk":5,"migraine_risk":7,"frizz_risk":1,"updated_at":"2026-06-04T03:21:44.616864+05:30"},{"city":"Kochi","state":"Kerala","latitude":9.9312,"longitude":76.2673,"temp":25.8,"humidity":93,"rain":0.1,"pressure":1007.7,"uv_index":7.85,"wind_gusts":37.4,"aqi":43,"pm10":12.6,"pm2_5":10.9,"no2":16.2,"co":175.0,"o3":20.0,"so2":3.3,"mosquito_risk":10,"arthritis_risk":5,"migraine_risk":4,"frizz_risk":1,"updated_at":"2026-06-04T03:21:44.616871+05:30"},{"city":"Thiruvananthapuram","state":"Kerala","latitude":8.5241,"longitude":76.9366,"temp":23.9,"humidity":98,"rain":0.4,"pressure":1007.7,"uv_index":7.9,"wind_gusts":46.1,"aqi":25,"pm10":9.2,"pm2_5":5.0,"no2":1.4,"co":89.0,"o3":43.0,"so2":0.3,"mosquito_risk":6,"arthritis_risk":5,"migraine_risk":4,"frizz_risk":1,"updated_at":"2026-06-04T03:21:44.616878+05:30"},{"city":"Kozhikode","state":"Kerala","latitude":11.2588,"longitude":75.7804,"temp":24.8,"humidity":98,"rain":0.3,"pressure":1006.7,"uv_index":7.7,"wind_gusts":27.4,"aqi":25,"pm10":6.1,"pm2_5":3.2,"no2":1.5,"co":342.0,"o3":54.0,"so2":0.5,"mosquito_risk":6,"arthritis_risk":5,"migraine_risk":4,"frizz_risk":1,"updated_at":"2026-06-04T03:21:44.616885+05:30"},{"city":"Thrissur","state":"Kerala","latitude":10.5276,"longitude":76.2144,"temp":24.3,"humidity":100,"rain":0.2,"pressure":1006.0,"uv_index":3.45,"wind_gusts":30.2,"aqi":45,"pm10":11.2,"pm2_5":9.6,"no2":11.0,"co":186.0,"o3":28.0,"so2":2.8,"mosquito_risk":6,"arthritis_risk":5,"migraine_risk":0,"frizz_risk":1,"updated_at":"2026-06-04T03:21:44.616893+05:30"},{"city":"Kannur","state":"Kerala","latitude":11.8745,"longitude":75.3704,"temp":25.1,"humidity":96,"rain":0.5,"pressure":1005.4,"uv_index":8.45,"wind_gusts":31.3,"aqi":27,"pm10":6.6,"pm2_5":5.0,"no2":7.5,"co":156.0,"o3":32.0,"so2":2.2,"mosquito_risk":10,"arthritis_risk":5,"migraine_risk":4,"frizz_risk":1,"updated_at":"2026-06-04T03:21:44.616900+05:30"},{"city":"Patna","state":"Bihar","latitude":25.5941,"longitude":85.1376,"temp":28.8,"humidity":75,"rain":0.0,"pressure":994.0,"uv_index":8.75,"wind_gusts":24.5,"aqi":157,"pm10":74.0,"pm2_5":65.0,"no2":35.1,"co":727.0,"o3":42.0,"so2":13.1,"mosquito_risk":7,"arthritis_risk":5,"migraine_risk":7,"frizz_risk":1,"updated_at":"2026-06-04T03:21:44.616907+05:30"},{"city":"Gaya","state":"Bihar","latitude":24.7914,"longitude":85.0002,"temp":28.8,"humidity":63,"rain":0.0,"pressure":987.8,"uv_index":8.7,"wind_gusts":28.8,"aqi":152,"pm10":69.8,"pm2_5":61.0,"no2":14.5,"co":652.0,"o3":94.0,"so2":18.0,"mosquito_risk":7,"arthritis_risk":5,"migraine_risk":7,"frizz_risk":1,"updated_at":"2026-06-04T03:21:44.616914+05:30"},{"city":"Muzaffarpur","state":"Bihar","latitude":26.1209,"longitude":85.3647,"temp":28.1,"humidity":76,"rain":0.0,"pressure":994.0,"uv_index":8.85,"wind_gusts":18.4,"aqi":161,"pm10":75.4,"pm2_5":66.4,"no2":35.2,"co":861.0,"o3":46.0,"so2":12.3,"mosquito_risk":7,"arthritis_risk":5,"migraine_risk":7,"frizz_risk":1,"updated_at":"2026-06-04T03:21:44.616920+05:30"},{"city":"Bhagalpur","state":"Bihar","latitude":25.2425,"longitude":87.0117,"temp":29.0,"humidity":72,"rain":0.0,"pressure":995.0,"uv_index":8.7,"wind_gusts":20.5,"aqi":154,"pm10":78.9,"pm2_5":74.3,"no2":22.0,"co":674.0,"o3":77.0,"so2":26.4,"mosquito_risk":7,"arthritis_risk":5,"migraine_risk":7,"frizz_risk":1,"updated_at":"2026-06-04T03:21:44.616927+05:30"},{"city":"Ranchi","state":"Jharkhand","latitude":23.3441,"longitude":85.3096,"temp":24.6,"humidity":77,"rain":0.0,"pressure":933.0,"uv_index":9.25,"wind_gusts":26.6,"aqi":150,"pm10":89.4,"pm2_5":67.3,"no2":21.8,"co":331.0,"o3":65.0,"so2":5.5,"mosquito_risk":3,"arthritis_risk":5,"migraine_risk":7,"frizz_risk":1,"updated_at":"2026-06-04T03:21:44.616934+05:30"},{"city":"Jamshedpur","state":"Jharkhand","latitude":22.8046,"longitude":86.2029,"temp":27.0,"humidity":84,"rain":0.0,"pressure":985.5,"uv_index":9.1,"wind_gusts":23.0,"aqi":156,"pm10":90.8,"pm2_5":82.0,"no2":37.4,"co":378.0,"o3":43.0,"so2":28.9,"mosquito_risk":7,"arthritis_risk":5,"migraine_risk":7,"frizz_risk":1,"updated_at":"2026-06-04T03:21:44.616941+05:30"},{"city":"Dhanbad","state":"Jharkhand","latitude":23.7957,"longitude":86.4304,"temp":29.0,"humidity":69,"rain":0.0,"pressure":974.4,"uv_index":8.95,"wind_gusts":26.6,"aqi":169,"pm10":115.7,"pm2_5":102.7,"no2":62.2,"co":1176.0,"o3":40.0,"so2":191.1,"mosquito_risk":7,"arthritis_risk":5,"migraine_risk":7,"frizz_risk":1,"updated_at":"2026-06-04T03:21:44.616948+05:30"},{"city":"Bokaro","state":"Jharkhand","latitude":23.6693,"longitude":86.1511,"temp":27.5,"humidity":77,"rain":0.0,"pressure":978.1,"uv_index":9.05,"wind_gusts":32.0,"aqi":163,"pm10":112.2,"pm2_5":93.6,"no2":48.9,"co":637.0,"o3":47.0,"so2":145.8,"mosquito_risk":7,"arthritis_risk":5,"migraine_risk":7,"frizz_risk":1,"updated_at":"2026-06-04T03:21:44.616955+05:30"},{"city":"Bhubaneswar","state":"Odisha","latitude":20.2961,"longitude":85.8245,"temp":28.7,"humidity":95,"rain":0.0,"pressure":996.6,"uv_index":9.05,"wind_gusts":32.4,"aqi":100,"pm10":37.4,"pm2_5":34.6,"no2":11.2,"co":352.0,"o3":89.0,"so2":8.6,"mosquito_risk":7,"arthritis_risk":5,"migraine_risk":7,"frizz_risk":1,"updated_at":"2026-06-04T03:21:44.616962+05:30"},{"city":"Cuttack","state":"Odisha","latitude":20.4625,"longitude":85.8828,"temp":28.6,"humidity":95,"rain":0.0,"pressure":998.4,"uv_index":9.15,"wind_gusts":28.1,"aqi":100,"pm10":37.4,"pm2_5":34.6,"no2":11.2,"co":449.0,"o3":89.0,"so2":8.6,"mosquito_risk":7,"arthritis_risk":5,"migraine_risk":7,"frizz_risk":1,"updated_at":"2026-06-04T03:21:44.616969+05:30"},{"city":"Rourkela","state":"Odisha","latitude":22.2604,"longitude":84.8536,"temp":27.6,"humidity":79,"rain":0.0,"pressure":979.9,"uv_index":9.0,"wind_gusts":32.0,"aqi":159,"pm10":106.2,"pm2_5":87.5,"no2":43.2,"co":351.0,"o3":38.0,"so2":26.9,"mosquito_risk":7,"arthritis_risk":5,"migraine_risk":7,"frizz_risk":1,"updated_at":"2026-06-04T03:21:44.616976+05:30"},{"city":"Raipur","state":"Chhattisgarh","latitude":21.2514,"longitude":81.6296,"temp":31.3,"humidity":46,"rain":0.0,"pressure":969.6,"uv_index":8.85,"wind_gusts":34.9,"aqi":127,"pm10":51.0,"pm2_5":43.2,"no2":39.1,"co":593.0,"o3":51.0,"so2":54.2,"mosquito_risk":0,"arthritis_risk":5,"migraine_risk":7,"frizz_risk":1,"updated_at":"2026-06-04T03:21:44.616982+05:30"},{"city":"Bhilai","state":"Chhattisgarh","latitude":21.1938,"longitude":81.3509,"temp":30.1,"humidity":49,"rain":0.0,"pressure":969.8,"uv_index":8.6,"wind_gusts":38.2,"aqi":119,"pm10":44.9,"pm2_5":37.8,"no2":31.5,"co":618.0,"o3":55.0,"so2":43.4,"mosquito_risk":0,"arthritis_risk":5,"migraine_risk":7,"frizz_risk":1,"updated_at":"2026-06-04T03:21:44.616990+05:30"},{"city":"Guwahati","state":"Assam","latitude":26.1158,"longitude":91.7086,"temp":24.0,"humidity":96,"rain":0.1,"pressure":997.5,"uv_index":8.8,"wind_gusts":34.9,"aqi":109,"pm10":29.7,"pm2_5":28.2,"no2":7.5,"co":445.0,"o3":88.0,"so2":3.8,"mosquito_risk":6,"arthritis_risk":5,"migraine_risk":7,"frizz_risk":1,"updated_at":"2026-06-04T03:21:44.616997+05:30"},{"city":"Agartala","state":"Tripura","latitude":23.8315,"longitude":91.2868,"temp":27.2,"humidity":91,"rain":0.0,"pressure":1001.1,"uv_index":8.85,"wind_gusts":23.0,"aqi":94,"pm10":37.3,"pm2_5":35.2,"no2":24.2,"co":291.0,"o3":24.0,"so2":4.0,"mosquito_risk":7,"arthritis_risk":5,"migraine_risk":4,"frizz_risk":1,"updated_at":"2026-06-04T03:21:44.617004+05:30"},{"city":"Shillong","state":"Meghalaya","latitude":25.5788,"longitude":91.8933,"temp":19.1,"humidity":93,"rain":0.0,"pressure":853.6,"uv_index":7.9,"wind_gusts":26.3,"aqi":86,"pm10":19.1,"pm2_5":16.7,"no2":4.2,"co":292.0,"o3":115.0,"so2":5.4,"mosquito_risk":3,"arthritis_risk":10,"migraine_risk":7,"frizz_risk":1,"updated_at":"2026-06-04T03:21:44.617010+05:30"},{"city":"Imphal","state":"Manipur","latitude":24.817,"longitude":93.9368,"temp":21.5,"humidity":96,"rain":0.0,"pressure":919.3,"uv_index":9.25,"wind_gusts":27.4,"aqi":86,"pm10":36.8,"pm2_5":32.8,"no2":13.9,"co":539.0,"o3":36.0,"so2":2.2,"mosquito_risk":3,"arthritis_risk":5,"migraine_risk":7,"frizz_risk":1,"updated_at":"2026-06-04T03:21:44.617016+05:30"},{"city":"Aizawl","state":"Mizoram","latitude":23.7271,"longitude":92.7176,"temp":19.3,"humidity":96,"rain":0.0,"pressure":888.3,"uv_index":9.05,"wind_gusts":28.1,"aqi":69,"pm10":21.4,"pm2_5":16.6,"no2":4.9,"co":252.0,"o3":49.0,"so2":2.0,"mosquito_risk":3,"arthritis_risk":10,"migraine_risk":7,"frizz_risk":1,"updated_at":"2026-06-04T03:21:44.617023+05:30"},{"city":"Kohima","state":"Nagaland","latitude":25.6701,"longitude":94.1077,"temp":17.4,"humidity":88,"rain":0.0,"pressure":850.7,"uv_index":8.75,"wind_gusts":32.4,"aqi":81,"pm10":19.8,"pm2_5":16.9,"no2":6.9,"co":270.0,"o3":47.0,"so2":1.1,"mosquito_risk":3,"arthritis_risk":10,"migraine_risk":7,"frizz_risk":0,"updated_at":"2026-06-04T03:21:44.617030+05:30"},{"city":"Gangtok","state":"Sikkim","latitude":27.3314,"longitude":88.6138,"temp":16.3,"humidity":92,"rain":0.4,"pressure":833.8,"uv_index":9.2,"wind_gusts":37.8,"aqi":92,"pm10":21.0,"pm2_5":17.4,"no2":6.8,"co":396.0,"o3":121.0,"so2":2.1,"mosquito_risk":6,"arthritis_risk":10,"migraine_risk":7,"frizz_risk":0,"updated_at":"2026-06-04T03:21:44.617037+05:30"},{"city":"Siliguri","state":"West Bengal","latitude":26.7271,"longitude":88.3953,"temp":25.5,"humidity":88,"rain":0.0,"pressure":987.6,"uv_index":8.8,"wind_gusts":21.6,"aqi":135,"pm10":58.8,"pm2_5":47.7,"no2":12.7,"co":506.0,"o3":111.0,"so2":5.4,"mosquito_risk":7,"arthritis_risk":5,"migraine_risk":7,"frizz_risk":1,"updated_at":"2026-06-04T03:21:47.874263+05:30"},{"city":"Durgapur","state":"West Bengal","latitude":23.5204,"longitude":87.3119,"temp":28.0,"humidity":92,"rain":0.0,"pressure":989.2,"uv_index":9.0,"wind_gusts":28.1,"aqi":167,"pm10":85.9,"pm2_5":83.1,"no2":32.8,"co":881.0,"o3":63.0,"so2":49.1,"mosquito_risk":7,"arthritis_risk":5,"migraine_risk":7,"frizz_risk":1,"updated_at":"2026-06-04T03:21:47.874300+05:30"},{"city":"Asansol","state":"West Bengal","latitude":23.6739,"longitude":86.9524,"temp":27.9,"humidity":84,"rain":0.0,"pressure":987.8,"uv_index":8.85,"wind_gusts":24.5,"aqi":165,"pm10":81.5,"pm2_5":75.7,"no2":39.9,"co":571.0,"o3":56.0,"so2":70.6,"mosquito_risk":7,"arthritis_risk":5,"migraine_risk":7,"frizz_risk":1,"updated_at":"2026-06-04T03:21:47.874311+05:30"},{"city":"Pondicherry","state":"Puducherry","latitude":11.9139,"longitude":79.8145,"temp":28.4,"humidity":75,"rain":0.0,"pressure":1004.3,"uv_index":8.3,"wind_gusts":32.8,"aqi":59,"pm10":14.6,"pm2_5":12.7,"no2":14.1,"co":382.0,"o3":57.0,"so2":6.4,"mosquito_risk":7,"arthritis_risk":5,"migraine_risk":4,"frizz_risk":1,"updated_at":"2026-06-04T03:21:47.874321+05:30"},{"city":"Port Blair","state":"Andaman and Nicobar Islands","latitude":11.6234,"longitude":92.7265,"temp":24.4,"humidity":98,"rain":0.3,"pressure":1004.4,"uv_index":1.45,"wind_gusts":43.9,"aqi":32,"pm10":10.6,"pm2_5":6.1,"no2":0.2,"co":105.0,"o3":69.0,"so2":0.6,"mosquito_risk":6,"arthritis_risk":5,"migraine_risk":0,"frizz_risk":1,"updated_at":"2026-06-04T03:21:47.874329+05:30"},{"city":"Haridwar","state":"Uttarakhand","latitude":29.9457,"longitude":78.1642,"temp":25.7,"humidity":74,"rain":0.0,"pressure":968.0,"uv_index":7.6,"wind_gusts":42.5,"aqi":93,"pm10":38.8,"pm2_5":36.1,"no2":33.3,"co":295.0,"o3":32.0,"so2":4.8,"mosquito_risk":7,"arthritis_risk":5,"migraine_risk":7,"frizz_risk":1,"updated_at":"2026-06-04T03:21:47.874337+05:30"},{"city":"Rishikesh","state":"Uttarakhand","latitude":30.0869,"longitude":78.2676,"temp":22.8,"humidity":83,"rain":0.0,"pressure":960.7,"uv_index":7.7,"wind_gusts":34.2,"aqi":70,"pm10":27.4,"pm2_5":22.7,"no2":19.8,"co":367.0,"o3":70.0,"so2":3.1,"mosquito_risk":3,"arthritis_risk":5,"migraine_risk":7,"frizz_risk":1,"updated_at":"2026-06-04T03:21:47.874345+05:30"},{"city":"Nainital","state":"Uttarakhand","latitude":29.3919,"longitude":79.4542,"temp":13.7,"humidity":87,"rain":0.0,"pressure":801.1,"uv_index":6.95,"wind_gusts":27.7,"aqi":109,"pm10":58.4,"pm2_5":43.5,"no2":27.4,"co":313.0,"o3":52.0,"so2":2.9,"mosquito_risk":3,"arthritis_risk":10,"migraine_risk":7,"frizz_risk":0,"updated_at":"2026-06-04T03:21:47.874353+05:30"},{"city":"Mussoorie","state":"Uttarakhand","latitude":30.4599,"longitude":78.0664,"temp":15.5,"humidity":78,"rain":0.0,"pressure":799.5,"uv_index":6.45,"wind_gusts":32.0,"aqi":78,"pm10":39.3,"pm2_5":36.3,"no2":43.3,"co":286.0,"o3":32.0,"so2":5.8,"mosquito_risk":3,"arthritis_risk":5,"migraine_risk":7,"frizz_risk":0,"updated_at":"2026-06-04T03:21:47.874361+05:30"},{"city":"Dharamshala","state":"Himachal Pradesh","latitude":32.219,"longitude":76.3234,"temp":21.1,"humidity":71,"rain":0.0,"pressure":864.9,"uv_index":7.8,"wind_gusts":40.0,"aqi":52,"pm10":13.3,"pm2_5":6.6,"no2":9.9,"co":291.0,"o3":74.0,"so2":0.0,"mosquito_risk":3,"arthritis_risk":5,"migraine_risk":7,"frizz_risk":0,"updated_at":"2026-06-04T03:21:47.874369+05:30"},{"city":"Dalhousie","state":"Himachal Pradesh","latitude":32.5387,"longitude":75.971,"temp":14.1,"humidity":87,"rain":0.0,"pressure":799.5,"uv_index":6.8,"wind_gusts":46.8,"aqi":80,"pm10":34.3,"pm2_5":21.5,"no2":21.2,"co":324.0,"o3":62.0,"so2":1.5,"mosquito_risk":3,"arthritis_risk":10,"migraine_risk":7,"frizz_risk":0,"updated_at":"2026-06-04T03:21:47.874376+05:30"},{"city":"Patiala","state":"Punjab","latitude":30.3398,"longitude":76.3869,"temp":27.1,"humidity":68,"rain":0.0,"pressure":971.7,"uv_index":7.7,"wind_gusts":68.0,"aqi":150,"pm10":139.2,"pm2_5":81.7,"no2":36.0,"co":671.0,"o3":38.0,"so2":11.8,"mosquito_risk":7,"arthritis_risk":5,"migraine_risk":7,"frizz_risk":1,"updated_at":"2026-06-04T03:21:47.874384+05:30"},{"city":"Bhatinda","state":"Punjab","latitude":30.211,"longitude":74.9455,"temp":29.6,"humidity":51,"rain":0.0,"pressure":976.4,"uv_index":8.35,"wind_gusts":67.3,"aqi":154,"pm10":95.5,"pm2_5":60.5,"no2":28.8,"co":539.0,"o3":80.0,"so2":13.7,"mosquito_risk":4,"arthritis_risk":5,"migraine_risk":7,"frizz_risk":1,"updated_at":"2026-06-04T03:21:47.874391+05:30"},{"city":"Rohtak","state":"Haryana","latitude":28.8955,"longitude":76.6066,"temp":28.4,"humidity":64,"rain":0.0,"pressure":975.1,"uv_index":7.8,"wind_gusts":57.6,"aqi":159,"pm10":151.8,"pm2_5":81.0,"no2":54.8,"co":609.0,"o3":42.0,"so2":27.0,"mosquito_risk":7,"arthritis_risk":5,"migraine_risk":7,"frizz_risk":1,"updated_at":"2026-06-04T03:21:47.874398+05:30"},{"city":"Panipat","state":"Haryana","latitude":29.3909,"longitude":76.9635,"temp":27.3,"humidity":70,"rain":0.0,"pressure":973.7,"uv_index":7.7,"wind_gusts":47.5,"aqi":167,"pm10":294.3,"pm2_5":127.1,"no2":90.5,"co":606.0,"o3":12.0,"so2":26.9,"mosquito_risk":7,"arthritis_risk":5,"migraine_risk":7,"frizz_risk":1,"updated_at":"2026-06-04T03:21:47.874404+05:30"},{"city":"Mathura","state":"Uttar Pradesh","latitude":27.4924,"longitude":77.6737,"temp":28.0,"humidity":64,"rain":0.0,"pressure":979.9,"uv_index":8.1,"wind_gusts":75.6,"aqi":150,"pm10":227.7,"pm2_5":71.0,"no2":22.1,"co":440.0,"o3":66.0,"so2":10.7,"mosquito_risk":7,"arthritis_risk":5,"migraine_risk":7,"frizz_risk":1,"updated_at":"2026-06-04T03:21:47.874411+05:30"},{"city":"Vrindavan","state":"Uttar Pradesh","latitude":27.5823,"longitude":77.7027,"temp":28.1,"humidity":63,"rain":0.0,"pressure":980.3,"uv_index":8.05,"wind_gusts":71.3,"aqi":150,"pm10":227.7,"pm2_5":71.0,"no2":22.1,"co":424.0,"o3":66.0,"so2":10.7,"mosquito_risk":7,"arthritis_risk":5,"migraine_risk":7,"frizz_risk":1,"updated_at":"2026-06-04T03:21:47.874418+05:30"},{"city":"Ayodhya","state":"Uttar Pradesh","latitude":26.7922,"longitude":82.1998,"temp":27.5,"humidity":76,"rain":0.0,"pressure":988.8,"uv_index":8.05,"wind_gusts":19.1,"aqi":119,"pm10":88.7,"pm2_5":72.6,"no2":64.5,"co":824.0,"o3":8.0,"so2":12.0,"mosquito_risk":7,"arthritis_risk":5,"migraine_risk":7,"frizz_risk":1,"updated_at":"2026-06-04T03:21:47.874425+05:30"},{"city":"Ratlam","state":"Madhya Pradesh","latitude":23.3315,"longitude":75.0367,"temp":27.0,"humidity":74,"rain":0.0,"pressure":950.0,"uv_index":8.5,"wind_gusts":45.7,"aqi":88,"pm10":42.1,"pm2_5":28.9,"no2":6.2,"co":174.0,"o3":73.0,"so2":12.7,"mosquito_risk":7,"arthritis_risk":5,"migraine_risk":7,"frizz_risk":1,"updated_at":"2026-06-04T03:21:47.874431+05:30"},{"city":"Sagar","state":"Madhya Pradesh","latitude":23.8388,"longitude":78.7378,"temp":27.5,"humidity":58,"rain":0.0,"pressure":944.6,"uv_index":8.35,"wind_gusts":63.7,"aqi":74,"pm10":42.0,"pm2_5":24.2,"no2":8.8,"co":218.0,"o3":68.0,"so2":3.5,"mosquito_risk":4,"arthritis_risk":5,"migraine_risk":7,"frizz_risk":1,"updated_at":"2026-06-04T03:21:47.874438+05:30"},{"city":"Satna","state":"Madhya Pradesh","latitude":24.6005,"longitude":80.8322,"temp":27.1,"humidity":70,"rain":0.0,"pressure":965.6,"uv_index":6.8,"wind_gusts":26.6,"aqi":85,"pm10":47.4,"pm2_5":33.5,"no2":38.3,"co":344.0,"o3":24.0,"so2":4.6,"mosquito_risk":7,"arthritis_risk":5,"migraine_risk":7,"frizz_risk":1,"updated_at":"2026-06-04T03:21:47.874445+05:30"},{"city":"Akola","state":"Maharashtra","latitude":20.7002,"longitude":77.0082,"temp":30.6,"humidity":58,"rain":0.0,"pressure":970.3,"uv_index":6.65,"wind_gusts":38.5,"aqi":70,"pm10":36.7,"pm2_5":24.7,"no2":10.5,"co":179.0,"o3":72.0,"so2":9.1,"mosquito_risk":0,"arthritis_risk":5,"migraine_risk":7,"frizz_risk":1,"updated_at":"2026-06-04T03:21:47.874454+05:30"},{"city":"Amravati","state":"Maharashtra","latitude":20.9374,"longitude":77.7796,"temp":31.4,"humidity":45,"rain":0.0,"pressure":962.4,"uv_index":8.45,"wind_gusts":37.8,"aqi":69,"pm10":42.1,"pm2_5":26.5,"no2":15.1,"co":208.0,"o3":57.0,"so2":7.0,"mosquito_risk":0,"arthritis_risk":5,"migraine_risk":7,"frizz_risk":1,"updated_at":"2026-06-04T03:21:47.874462+05:30"},{"city":"Latur","state":"Maharashtra","latitude":18.4088,"longitude":76.5604,"temp":27.0,"humidity":67,"rain":0.0,"pressure":936.2,"uv_index":8.8,"wind_gusts":35.6,"aqi":67,"pm10":14.9,"pm2_5":10.4,"no2":6.7,"co":160.0,"o3":56.0,"so2":2.9,"mosquito_risk":7,"arthritis_risk":5,"migraine_risk":7,"frizz_risk":1,"updated_at":"2026-06-04T03:21:47.874470+05:30"},{"city":"Nanded","state":"Maharashtra","latitude":19.1383,"longitude":77.3091,"temp":30.2,"humidity":54,"rain":0.0,"pressure":964.4,"uv_index":6.25,"wind_gusts":36.7,"aqi":75,"pm10":51.1,"pm2_5":30.6,"no2":11.8,"co":181.0,"o3":72.0,"so2":6.7,"mosquito_risk":0,"arthritis_risk":5,"migraine_risk":7,"frizz_risk":1,"updated_at":"2026-06-04T03:21:47.874477+05:30"},{"city":"Gulbarga","state":"Karnataka","latitude":17.3297,"longitude":76.8343,"temp":26.6,"humidity":72,"rain":0.0,"pressure":955.6,"uv_index":9.0,"wind_gusts":32.0,"aqi":61,"pm10":11.9,"pm2_5":8.9,"no2":7.5,"co":203.0,"o3":51.0,"so2":2.9,"mosquito_risk":7,"arthritis_risk":5,"migraine_risk":7,"frizz_risk":1,"updated_at":"2026-06-04T03:21:47.874483+05:30"},{"city":"Bidar","state":"Karnataka","latitude":17.9104,"longitude":77.5199,"temp":26.4,"humidity":70,"rain":0.0,"pressure":932.3,"uv_index":9.05,"wind_gusts":36.4,"aqi":75,"pm10":27.2,"pm2_5":18.5,"no2":12.8,"co":205.0,"o3":61.0,"so2":3.9,"mosquito_risk":7,"arthritis_risk":5,"migraine_risk":7,"frizz_risk":1,"updated_at":"2026-06-04T03:21:47.874490+05:30"},{"city":"Hospet","state":"Karnataka","latitude":15.2689,"longitude":76.3909,"temp":23.9,"humidity":87,"rain":0.0,"pressure":953.2,"uv_index":8.95,"wind_gusts":41.8,"aqi":28,"pm10":5.5,"pm2_5":4.2,"no2":6.8,"co":179.0,"o3":42.0,"so2":1.6,"mosquito_risk":3,"arthritis_risk":5,"migraine_risk":7,"frizz_risk":1,"updated_at":"2026-06-04T03:21:47.874497+05:30"},{"city":"Tirupur","state":"Tamil Nadu","latitude":11.1085,"longitude":77.3411,"temp":23.6,"humidity":91,"rain":0.0,"pressure":972.8,"uv_index":7.85,"wind_gusts":53.6,"aqi":36,"pm10":14.0,"pm2_5":12.3,"no2":17.3,"co":153.0,"o3":28.0,"so2":4.0,"mosquito_risk":3,"arthritis_risk":5,"migraine_risk":7,"frizz_risk":1,"updated_at":"2026-06-04T03:21:47.874503+05:30"},{"city":"Alappuzha","state":"Kerala","latitude":9.4981,"longitude":76.3388,"temp":26.0,"humidity":94,"rain":0.3,"pressure":1007.8,"uv_index":7.3,"wind_gusts":40.3,"aqi":29,"pm10":7.5,"pm2_5":5.0,"no2":5.7,"co":89.0,"o3":44.0,"so2":1.5,"mosquito_risk":10,"arthritis_risk":5,"migraine_risk":4,"frizz_risk":1,"updated_at":"2026-06-04T03:21:47.874510+05:30"},{"city":"Munnar","state":"Kerala","latitude":10.0889,"longitude":77.0595,"temp":17.2,"humidity":100,"rain":0.3,"pressure":855.0,"uv_index":8.2,"wind_gusts":42.1,"aqi":20,"pm10":3.6,"pm2_5":2.9,"no2":5.0,"co":95.0,"o3":33.0,"so2":1.5,"mosquito_risk":6,"arthritis_risk":10,"migraine_risk":7,"frizz_risk":1,"updated_at":"2026-06-04T03:21:47.874517+05:30"},{"city":"Silchar","state":"Assam","latitude":24.8333,"longitude":92.7789,"temp":25.5,"humidity":98,"rain":0.0,"pressure":1001.1,"uv_index":8.95,"wind_gusts":25.9,"aqi":97,"pm10":40.5,"pm2_5":35.6,"no2":14.5,"co":335.0,"o3":62.0,"so2":4.5,"mosquito_risk":7,"arthritis_risk":5,"migraine_risk":4,"frizz_risk":1,"updated_at":"2026-06-04T03:21:47.874524+05:30"},{"city":"Dibrugarh","state":"Assam","latitude":27.4728,"longitude":94.912,"temp":23.6,"humidity":97,"rain":0.2,"pressure":991.2,"uv_index":8.8,"wind_gusts":27.4,"aqi":71,"pm10":25.6,"pm2_5":22.4,"no2":12.7,"co":289.0,"o3":62.0,"so2":1.7,"mosquito_risk":6,"arthritis_risk":5,"migraine_risk":7,"frizz_risk":1,"updated_at":"2026-06-04T03:21:47.874531+05:30"}]