[{"city":"Delhi","state":"Delhi","latitude":28.6139,"longitude":77.209,"temp":34.3,"humidity":58,"rain":0.0,"pressure":973.1,"uv_index":7.7,"wind_gusts":28.8,"aqi":513,"pm10":1084.1,"pm2_5":191.4,"no2":4.8,"co":213.0,"o3":127.0,"so2":12.3,"mosquito_risk":0,"arthritis_risk":5,"migraine_risk":7,"frizz_risk":1,"updated_at":"2026-07-12T12:05:36.924903+05:30"},{"city":"Mumbai","state":"Maharashtra","latitude":19.076,"longitude":72.8777,"temp":29.7,"humidity":75,"rain":0.0,"pressure":1006.0,"uv_index":7.55,"wind_gusts":54.7,"aqi":52,"pm10":32.9,"pm2_5":13.7,"no2":3.1,"co":120.0,"o3":65.0,"so2":5.6,"mosquito_risk":7,"arthritis_risk":5,"migraine_risk":4,"frizz_risk":1,"updated_at":"2026-07-12T12:05:36.924940+05:30"},{"city":"Bangalore","state":"Karnataka","latitude":12.9716,"longitude":77.5946,"temp":29.6,"humidity":49,"rain":0.0,"pressure":911.2,"uv_index":8.8,"wind_gusts":47.9,"aqi":51,"pm10":31.7,"pm2_5":12.2,"no2":2.5,"co":172.0,"o3":73.0,"so2":2.9,"mosquito_risk":4,"arthritis_risk":5,"migraine_risk":7,"frizz_risk":1,"updated_at":"2026-07-12T12:05:36.924955+05:30"},{"city":"Hyderabad","state":"Telangana","latitude":17.385,"longitude":78.4867,"temp":31.6,"humidity":45,"rain":0.0,"pressure":950.7,"uv_index":8.7,"wind_gusts":51.1,"aqi":60,"pm10":43.9,"pm2_5":16.1,"no2":1.4,"co":145.0,"o3":73.0,"so2":2.9,"mosquito_risk":0,"arthritis_risk":5,"migraine_risk":7,"frizz_risk":1,"updated_at":"2026-07-12T12:05:36.924964+05:30"},{"city":"Chennai","state":"Tamil Nadu","latitude":13.0827,"longitude":80.2707,"temp":37.2,"humidity":37,"rain":0.0,"pressure":1003.4,"uv_index":8.8,"wind_gusts":43.2,"aqi":75,"pm10":43.4,"pm2_5":22.6,"no2":7.9,"co":151.0,"o3":99.0,"so2":12.4,"mosquito_risk":0,"arthritis_risk":5,"migraine_risk":7,"frizz_risk":1,"updated_at":"2026-07-12T12:05:36.924972+05:30"},{"city":"Kolkata","state":"West Bengal","latitude":22.5726,"longitude":88.3639,"temp":33.1,"humidity":68,"rain":0.0,"pressure":996.2,"uv_index":8.65,"wind_gusts":32.4,"aqi":141,"pm10":78.5,"pm2_5":49.7,"no2":6.1,"co":330.0,"o3":119.0,"so2":25.1,"mosquito_risk":3,"arthritis_risk":5,"migraine_risk":7,"frizz_risk":1,"updated_at":"2026-07-12T12:05:36.924980+05:30"},{"city":"Pune","state":"Maharashtra","latitude":18.5204,"longitude":73.8567,"temp":28.9,"humidity":66,"rain":0.0,"pressure":945.8,"uv_index":8.35,"wind_gusts":56.2,"aqi":34,"pm10":28.4,"pm2_5":10.6,"no2":1.4,"co":108.0,"o3":63.0,"so2":3.6,"mosquito_risk":7,"arthritis_risk":5,"migraine_risk":7,"frizz_risk":1,"updated_at":"2026-07-12T12:05:36.924987+05:30"},{"city":"Ahmedabad","state":"Gujarat","latitude":23.0225,"longitude":72.5714,"temp":34.1,"humidity":50,"rain":0.0,"pressure":995.0,"uv_index":8.1,"wind_gusts":51.1,"aqi":64,"pm10":57.3,"pm2_5":20.5,"no2":1.5,"co":111.0,"o3":74.0,"so2":3.5,"mosquito_risk":0,"arthritis_risk":5,"migraine_risk":7,"frizz_risk":1,"updated_at":"2026-07-12T12:05:36.924993+05:30"},{"city":"Jaipur","state":"Rajasthan","latitude":26.9124,"longitude":75.7873,"temp":32.3,"humidity":54,"rain":0.0,"pressure":951.8,"uv_index":8.2,"wind_gusts":39.2,"aqi":365,"pm10":529.0,"pm2_5":85.7,"no2":1.3,"co":128.0,"o3":84.0,"so2":3.5,"mosquito_risk":0,"arthritis_risk":5,"migraine_risk":7,"frizz_risk":1,"updated_at":"2026-07-12T12:05:36.924999+05:30"},{"city":"Lucknow","state":"Uttar Pradesh","latitude":26.8467,"longitude":80.9462,"temp":34.4,"humidity":59,"rain":0.0,"pressure":983.3,"uv_index":8.2,"wind_gusts":36.0,"aqi":154,"pm10":96.4,"pm2_5":39.9,"no2":2.2,"co":176.0,"o3":131.0,"so2":5.2,"mosquito_risk":0,"arthritis_risk":5,"migraine_risk":7,"frizz_risk":1,"updated_at":"2026-07-12T12:05:36.925009+05:30"},{"city":"Kanpur","state":"Uttar Pradesh","latitude":26.4499,"longitude":80.3319,"temp":34.8,"humidity":54,"rain":0.0,"pressure":982.1,"uv_index":7.9,"wind_gusts":37.8,"aqi":135,"pm10":126.2,"pm2_5":39.0,"no2":1.8,"co":146.0,"o3":118.0,"so2":5.8,"mosquito_risk":0,"arthritis_risk":5,"migraine_risk":7,"frizz_risk":1,"updated_at":"2026-07-12T12:05:36.925018+05:30"},{"city":"Chandigarh","state":"Chandigarh","latitude":30.7333,"longitude":76.7794,"temp":26.0,"humidity":81,"rain":0.0,"pressure":957.9,"uv_index":7.7,"wind_gusts":32.0,"aqi":152,"pm10":299.9,"pm2_5":90.1,"no2":2.7,"co":326.0,"o3":162.0,"so2":11.9,"mosquito_risk":7,"arthritis_risk":5,"migraine_risk":7,"frizz_risk":1,"updated_at":"2026-07-12T12:05:36.925025+05:30"},{"city":"Srinagar","state":"Jammu and Kashmir","latitude":34.0837,"longitude":74.7973,"temp":22.9,"humidity":70,"rain":0.1,"pressure":837.2,"uv_index":8.3,"wind_gusts":31.3,"aqi":48,"pm10":9.4,"pm2_5":9.0,"no2":7.6,"co":396.0,"o3":102.0,"so2":2.1,"mosquito_risk":6,"arthritis_risk":5,"migraine_risk":7,"frizz_risk":1,"updated_at":"2026-07-12T12:05:36.925032+05:30"},{"city":"Jammu","state":"Jammu and Kashmir","latitude":32.7266,"longitude":74.857,"temp":28.4,"humidity":74,"rain":0.0,"pressure":961.8,"uv_index":8.6,"wind_gusts":27.0,"aqi":111,"pm10":46.7,"pm2_5":28.9,"no2":2.9,"co":503.0,"o3":169.0,"so2":3.8,"mosquito_risk":7,"arthritis_risk":5,"migraine_risk":7,"frizz_risk":1,"updated_at":"2026-07-12T12:05:36.925038+05:30"},{"city":"Amritsar","state":"Punjab","latitude":31.634,"longitude":74.8723,"temp":27.7,"humidity":90,"rain":0.0,"pressure":969.9,"uv_index":8.45,"wind_gusts":37.1,"aqi":162,"pm10":123.9,"pm2_5":58.2,"no2":2.9,"co":294.0,"o3":164.0,"so2":7.1,"mosquito_risk":7,"arthritis_risk":5,"migraine_risk":7,"frizz_risk":1,"updated_at":"2026-07-12T12:05:36.925045+05:30"},{"city":"Ludhiana","state":"Punjab","latitude":30.901,"longitude":75.8573,"temp":28.8,"humidity":80,"rain":0.0,"pressure":968.0,"uv_index":7.95,"wind_gusts":41.0,"aqi":168,"pm10":393.0,"pm2_5":106.2,"no2":2.8,"co":393.0,"o3":153.0,"so2":9.7,"mosquito_risk":7,"arthritis_risk":5,"migraine_risk":7,"frizz_risk":1,"updated_at":"2026-07-12T12:05:36.925051+05:30"},{"city":"Jalandhar","state":"Punjab","latitude":31.326,"longitude":75.5762,"temp":28.8,"humidity":81,"rain":0.0,"pressure":969.0,"uv_index":8.15,"wind_gusts":47.9,"aqi":164,"pm10":290.6,"pm2_5":92.4,"no2":3.0,"co":319.0,"o3":164.0,"so2":11.2,"mosquito_risk":7,"arthritis_risk":5,"migraine_risk":7,"frizz_risk":1,"updated_at":"2026-07-12T12:05:36.925057+05:30"},{"city":"Dehradun","state":"Uttarakhand","latitude":30.6284,"longitude":78.0322,"temp":24.1,"humidity":73,"rain":0.1,"pressure":825.7,"uv_index":8.05,"wind_gusts":29.9,"aqi":52,"pm10":41.6,"pm2_5":18.5,"no2":0.8,"co":277.0,"o3":143.0,"so2":2.6,"mosquito_risk":6,"arthritis_risk":5,"migraine_risk":7,"frizz_risk":1,"updated_at":"2026-07-12T12:05:36.925064+05:30"},{"city":"Shimla","state":"Himachal Pradesh","latitude":31.1048,"longitude":77.1734,"temp":20.3,"humidity":58,"rain":0.0,"pressure":780.5,"uv_index":8.25,"wind_gusts":31.7,"aqi":98,"pm10":86.1,"pm2_5":37.0,"no2":0.7,"co":173.0,"o3":127.0,"so2":4.8,"mosquito_risk":0,"arthritis_risk":5,"migraine_risk":7,"frizz_risk":0,"updated_at":"2026-07-12T12:05:36.925070+05:30"},{"city":"Manali","state":"Himachal Pradesh","latitude":32.2396,"longitude":77.1887,"temp":25.3,"humidity":68,"rain":0.0,"pressure":816.5,"uv_index":9.4,"wind_gusts":28.4,"aqi":44,"pm10":4.6,"pm2_5":4.3,"no2":2.7,"co":206.0,"o3":144.0,"so2":0.8,"mosquito_risk":7,"arthritis_risk":5,"migraine_risk":7,"frizz_risk":1,"updated_at":"2026-07-12T12:05:36.925080+05:30"},{"city":"Gurgaon","state":"Haryana","latitude":28.4595,"longitude":77.0266,"temp":34.7,"humidity":55,"rain":0.0,"pressure":971.7,"uv_index":7.7,"wind_gusts":30.2,"aqi":634,"pm10":1143.7,"pm2_5":196.0,"no2":4.0,"co":159.0,"o3":121.0,"so2":9.6,"mosquito_risk":0,"arthritis_risk":5,"migraine_risk":7,"frizz_risk":1,"updated_at":"2026-07-12T12:05:36.925087+05:30"},{"city":"Noida","state":"Uttar Pradesh","latitude":28.5355,"longitude":77.391,"temp":34.9,"humidity":56,"rain":0.0,"pressure":974.5,"uv_index":7.7,"wind_gusts":27.7,"aqi":634,"pm10":1143.7,"pm2_5":196.0,"no2":4.0,"co":230.0,"o3":121.0,"so2":9.6,"mosquito_risk":0,"arthritis_risk":5,"migraine_risk":7,"frizz_risk":1,"updated_at":"2026-07-12T12:05:36.925094+05:30"},{"city":"Ghaziabad","state":"Uttar Pradesh","latitude":28.6692,"longitude":77.4538,"temp":34.3,"humidity":59,"rain":0.0,"pressure":972.7,"uv_index":7.7,"wind_gusts":42.1,"aqi":421,"pm10":683.6,"pm2_5":151.8,"no2":5.3,"co":280.0,"o3":160.0,"so2":18.3,"mosquito_risk":0,"arthritis_risk":5,"migraine_risk":7,"frizz_risk":1,"updated_at":"2026-07-12T12:05:36.925100+05:30"},{"city":"Faridabad","state":"Haryana","latitude":28.4089,"longitude":77.3178,"temp":34.5,"humidity":57,"rain":0.0,"pressure":973.9,"uv_index":7.75,"wind_gusts":28.8,"aqi":634,"pm10":1143.7,"pm2_5":196.0,"no2":4.0,"co":183.0,"o3":121.0,"so2":9.6,"mosquito_risk":0,"arthritis_risk":5,"migraine_risk":7,"frizz_risk":1,"updated_at":"2026-07-12T12:05:36.925107+05:30"},{"city":"Meerut","state":"Uttar Pradesh","latitude":28.9845,"longitude":77.7064,"temp":34.2,"humidity":60,"rain":0.0,"pressure":971.5,"uv_index":7.6,"wind_gusts":45.7,"aqi":421,"pm10":683.6,"pm2_5":151.8,"no2":5.3,"co":250.0,"o3":160.0,"so2":18.3,"mosquito_risk":0,"arthritis_risk":5,"migraine_risk":7,"frizz_risk":1,"updated_at":"2026-07-12T12:05:36.925113+05:30"},{"city":"Agra","state":"Uttar Pradesh","latitude":27.1767,"longitude":78.0081,"temp":34.3,"humidity":57,"rain":0.0,"pressure":978.5,"uv_index":8.0,"wind_gusts":37.8,"aqi":137,"pm10":277.5,"pm2_5":56.7,"no2":1.8,"co":132.0,"o3":110.0,"so2":3.9,"mosquito_risk":0,"arthritis_risk":5,"migraine_risk":7,"frizz_risk":1,"updated_at":"2026-07-12T12:05:36.925119+05:30"},{"city":"Varanasi","state":"Uttar Pradesh","latitude":25.3176,"longitude":82.9739,"temp":34.0,"humidity":56,"rain":0.0,"pressure":987.9,"uv_index":8.4,"wind_gusts":42.5,"aqi":100,"pm10":51.0,"pm2_5":29.4,"no2":1.9,"co":184.0,"o3":125.0,"so2":7.8,"mosquito_risk":0,"arthritis_risk":5,"migraine_risk":7,"frizz_risk":1,"updated_at":"2026-07-12T12:05:36.925125+05:30"},{"city":"Prayagraj","state":"Uttar Pradesh","latitude":25.4358,"longitude":81.8463,"temp":34.8,"humidity":54,"rain":0.0,"pressure":986.8,"uv_index":8.5,"wind_gusts":40.7,"aqi":104,"pm10":47.1,"pm2_5":28.8,"no2":2.0,"co":152.0,"o3":126.0,"so2":8.7,"mosquito_risk":0,"arthritis_risk":5,"migraine_risk":7,"frizz_risk":1,"updated_at":"2026-07-12T12:05:36.925131+05:30"},{"city":"Gorakhpur","state":"Uttar Pradesh","latitude":26.7606,"longitude":83.3732,"temp":33.4,"humidity":66,"rain":0.0,"pressure":986.5,"uv_index":6.8,"wind_gusts":37.4,"aqi":137,"pm10":157.4,"pm2_5":59.8,"no2":1.8,"co":256.0,"o3":137.0,"so2":6.2,"mosquito_risk":3,"arthritis_risk":5,"migraine_risk":7,"frizz_risk":1,"updated_at":"2026-07-12T12:05:36.925138+05:30"},{"city":"Bareilly","state":"Uttar Pradesh","latitude":28.367,"longitude":79.4304,"temp":34.2,"humidity":65,"rain":0.0,"pressure":976.3,"uv_index":8.0,"wind_gusts":35.3,"aqi":160,"pm10":309.2,"pm2_5":95.9,"no2":2.5,"co":267.0,"o3":158.0,"so2":10.0,"mosquito_risk":3,"arthritis_risk":5,"migraine_risk":7,"frizz_risk":1,"updated_at":"2026-07-12T12:05:36.925146+05:30"},{"city":"Aligarh","state":"Uttar Pradesh","latitude":27.8974,"longitude":78.088,"temp":34.6,"humidity":57,"rain":0.0,"pressure":975.8,"uv_index":7.85,"wind_gusts":31.7,"aqi":523,"pm10":944.4,"pm2_5":162.1,"no2":2.4,"co":166.0,"o3":119.0,"so2":6.8,"mosquito_risk":0,"arthritis_risk":5,"migraine_risk":7,"frizz_risk":1,"updated_at":"2026-07-12T12:05:36.925152+05:30"},{"city":"Moradabad","state":"Uttar Pradesh","latitude":28.8386,"longitude":78.7733,"temp":33.9,"humidity":65,"rain":0.0,"pressure":973.4,"uv_index":7.8,"wind_gusts":43.9,"aqi":171,"pm10":422.8,"pm2_5":124.3,"no2":3.9,"co":281.0,"o3":186.0,"so2":19.3,"mosquito_risk":3,"arthritis_risk":5,"migraine_risk":7,"frizz_risk":1,"updated_at":"2026-07-12T12:05:36.925158+05:30"},{"city":"Saharanpur","state":"Uttar Pradesh","latitude":29.9637,"longitude":77.546,"temp":30.8,"humidity":77,"rain":0.0,"pressure":965.6,"uv_index":7.35,"wind_gusts":46.1,"aqi":161,"pm10":297.1,"pm2_5":90.1,"no2":3.1,"co":309.0,"o3":170.0,"so2":18.6,"mosquito_risk":3,"arthritis_risk":5,"migraine_risk":7,"frizz_risk":1,"updated_at":"2026-07-12T12:05:36.925164+05:30"},{"city":"Jhansi","state":"Uttar Pradesh","latitude":25.4484,"longitude":78.5685,"temp":33.7,"humidity":54,"rain":0.0,"pressure":970.3,"uv_index":8.35,"wind_gusts":45.0,"aqi":85,"pm10":68.0,"pm2_5":30.7,"no2":1.7,"co":132.0,"o3":104.0,"so2":8.0,"mosquito_risk":0,"arthritis_risk":5,"migraine_risk":7,"frizz_risk":1,"updated_at":"2026-07-12T12:05:40.196711+05:30"},{"city":"Surat","state":"Gujarat","latitude":21.1702,"longitude":72.8311,"temp":30.9,"humidity":73,"rain":0.1,"pressure":1001.7,"uv_index":5.9,"wind_gusts":65.2,"aqi":56,"pm10":38.6,"pm2_5":18.8,"no2":6.7,"co":178.0,"o3":49.0,"so2":20.9,"mosquito_risk":6,"arthritis_risk":5,"migraine_risk":0,"frizz_risk":1,"updated_at":"2026-07-12T12:05:40.196740+05:30"},{"city":"Vadodara","state":"Gujarat","latitude":22.3072,"longitude":73.1812,"temp":32.2,"humidity":61,"rain":0.0,"pressure":997.9,"uv_index":8.05,"wind_gusts":58.7,"aqi":55,"pm10":49.8,"pm2_5":18.4,"no2":1.6,"co":114.0,"o3":68.0,"so2":3.4,"mosquito_risk":3,"arthritis_risk":5,"migraine_risk":7,"frizz_risk":1,"updated_at":"2026-07-12T12:05:40.196750+05:30"},{"city":"Rajkot","state":"Gujarat","latitude":22.3039,"longitude":70.8022,"temp":33.8,"humidity":52,"rain":0.0,"pressure":987.4,"uv_index":7.7,"wind_gusts":60.8,"aqi":60,"pm10":51.6,"pm2_5":20.0,"no2":0.9,"co":94.0,"o3":67.0,"so2":2.8,"mosquito_risk":0,"arthritis_risk":5,"migraine_risk":7,"frizz_risk":1,"updated_at":"2026-07-12T12:05:40.196758+05:30"},{"city":"Thane","state":"Maharashtra","latitude":19.2183,"longitude":72.9781,"temp":30.8,"humidity":70,"rain":0.0,"pressure":1005.1,"uv_index":7.0,"wind_gusts":49.3,"aqi":52,"pm10":32.9,"pm2_5":13.7,"no2":3.1,"co":122.0,"o3":65.0,"so2":5.6,"mosquito_risk":3,"arthritis_risk":5,"migraine_risk":4,"frizz_risk":1,"updated_at":"2026-07-12T12:05:40.196766+05:30"},{"city":"Nagpur","state":"Maharashtra","latitude":21.1458,"longitude":79.0882,"temp":31.6,"humidity":54,"rain":0.0,"pressure":968.7,"uv_index":8.45,"wind_gusts":41.8,"aqi":76,"pm10":49.6,"pm2_5":20.1,"no2":5.8,"co":120.0,"o3":70.0,"so2":15.1,"mosquito_risk":0,"arthritis_risk":5,"migraine_risk":7,"frizz_risk":1,"updated_at":"2026-07-12T12:05:40.196774+05:30"},{"city":"Nashik","state":"Maharashtra","latitude":19.9975,"longitude":73.7898,"temp":28.9,"humidity":66,"rain":0.0,"pressure":941.9,"uv_index":8.05,"wind_gusts":64.8,"aqi":33,"pm10":27.0,"pm2_5":11.6,"no2":1.3,"co":99.0,"o3":64.0,"so2":3.0,"mosquito_risk":7,"arthritis_risk":5,"migraine_risk":7,"frizz_risk":1,"updated_at":"2026-07-12T12:05:40.196781+05:30"},{"city":"Aurangabad","state":"Maharashtra","latitude":19.8762,"longitude":75.3433,"temp":30.7,"humidity":52,"rain":0.0,"pressure":940.6,"uv_index":8.95,"wind_gusts":56.5,"aqi":48,"pm10":40.7,"pm2_5":14.9,"no2":1.2,"co":107.0,"o3":80.0,"so2":5.2,"mosquito_risk":0,"arthritis_risk":5,"migraine_risk":7,"frizz_risk":1,"updated_at":"2026-07-12T12:05:40.196788+05:30"},{"city":"Solapur","state":"Maharashtra","latitude":17.6599,"longitude":75.9064,"temp":31.4,"humidity":50,"rain":0.0,"pressure":955.1,"uv_index":8.85,"wind_gusts":51.8,"aqi":50,"pm10":22.8,"pm2_5":8.4,"no2":1.1,"co":100.0,"o3":64.0,"so2":1.7,"mosquito_risk":0,"arthritis_risk":5,"migraine_risk":7,"frizz_risk":1,"updated_at":"2026-07-12T12:05:40.196795+05:30"},{"city":"Kolhapur","state":"Maharashtra","latitude":16.705,"longitude":74.2433,"temp":27.3,"humidity":71,"rain":0.0,"pressure":946.9,"uv_index":8.2,"wind_gusts":52.6,"aqi":38,"pm10":34.2,"pm2_5":11.7,"no2":1.2,"co":103.0,"o3":55.0,"so2":1.7,"mosquito_risk":7,"arthritis_risk":5,"migraine_risk":7,"frizz_risk":1,"updated_at":"2026-07-12T12:05:40.196803+05:30"},{"city":"Goa","state":"Goa","latitude":15.2993,"longitude":74.124,"temp":30.1,"humidity":69,"rain":0.0,"pressure":997.8,"uv_index":7.4,"wind_gusts":39.6,"aqi":57,"pm10":23.3,"pm2_5":10.4,"no2":0.7,"co":103.0,"o3":52.0,"so2":1.1,"mosquito_risk":3,"arthritis_risk":5,"migraine_risk":7,"frizz_risk":1,"updated_at":"2026-07-12T12:05:40.196810+05:30"},{"city":"Jodhpur","state":"Rajasthan","latitude":26.2389,"longitude":73.0243,"temp":34.0,"humidity":48,"rain":0.0,"pressure":973.7,"uv_index":8.45,"wind_gusts":53.3,"aqi":193,"pm10":208.6,"pm2_5":46.1,"no2":0.9,"co":102.0,"o3":74.0,"so2":2.4,"mosquito_risk":0,"arthritis_risk":5,"migraine_risk":7,"frizz_risk":1,"updated_at":"2026-07-12T12:05:40.196817+05:30"},{"city":"Udaipur","state":"Rajasthan","latitude":24.5854,"longitude":73.7125,"temp":30.2,"humidity":58,"rain":0.0,"pressure":939.6,"uv_index":8.8,"wind_gusts":52.6,"aqi":68,"pm10":65.9,"pm2_5":23.7,"no2":1.0,"co":104.0,"o3":72.0,"so2":3.4,"mosquito_risk":0,"arthritis_risk":5,"migraine_risk":7,"frizz_risk":1,"updated_at":"2026-07-12T12:05:40.196824+05:30"},{"city":"Kota","state":"Rajasthan","latitude":25.2138,"longitude":75.8648,"temp":32.7,"humidity":52,"rain":0.0,"pressure":971.2,"uv_index":8.3,"wind_gusts":38.9,"aqi":76,"pm10":75.0,"pm2_5":28.6,"no2":1.9,"co":124.0,"o3":79.0,"so2":6.5,"mosquito_risk":0,"arthritis_risk":5,"migraine_risk":7,"frizz_risk":1,"updated_at":"2026-07-12T12:05:40.196831+05:30"},{"city":"Bikaner","state":"Rajasthan","latitude":28.0229,"longitude":73.3119,"temp":35.3,"humidity":45,"rain":0.0,"pressure":971.9,"uv_index":8.45,"wind_gusts":42.8,"aqi":159,"pm10":189.1,"pm2_5":60.5,"no2":0.5,"co":101.0,"o3":81.0,"so2":4.0,"mosquito_risk":0,"arthritis_risk":5,"migraine_risk":10,"frizz_risk":1,"updated_at":"2026-07-12T12:05:40.196838+05:30"},{"city":"Ajmer","state":"Rajasthan","latitude":26.4499,"longitude":74.6399,"temp":30.5,"humidity":57,"rain":0.0,"pressure":946.6,"uv_index":8.35,"wind_gusts":51.5,"aqi":73,"pm10":74.7,"pm2_5":26.4,"no2":1.1,"co":108.0,"o3":79.0,"so2":3.2,"mosquito_risk":0,"arthritis_risk":5,"migraine_risk":7,"frizz_risk":1,"updated_at":"2026-07-12T12:05:40.196845+05:30"},{"city":"Gwalior","state":"Madhya Pradesh","latitude":26.2183,"longitude":78.1828,"temp":33.0,"humidity":59,"rain":0.0,"pressure":975.0,"uv_index":8.15,"wind_gusts":42.8,"aqi":83,"pm10":71.0,"pm2_5":29.7,"no2":1.1,"co":114.0,"o3":99.0,"so2":3.4,"mosquito_risk":0,"arthritis_risk":5,"migraine_risk":7,"frizz_risk":1,"updated_at":"2026-07-12T12:05:40.196852+05:30"},{"city":"Indore","state":"Madhya Pradesh","latitude":22.7196,"longitude":75.8577,"temp":28.7,"humidity":65,"rain":0.0,"pressure":942.6,"uv_index":8.55,"wind_gusts":51.8,"aqi":61,"pm10":52.0,"pm2_5":20.7,"no2":2.5,"co":143.0,"o3":65.0,"so2":5.5,"mosquito_risk":7,"arthritis_risk":5,"migraine_risk":7,"frizz_risk":1,"updated_at":"2026-07-12T12:05:40.196859+05:30"},{"city":"Bhopal","state":"Madhya Pradesh","latitude":23.2599,"longitude":77.4126,"temp":29.2,"humidity":63,"rain":0.0,"pressure":948.3,"uv_index":8.3,"wind_gusts":42.8,"aqi":69,"pm10":61.7,"pm2_5":22.9,"no2":1.5,"co":143.0,"o3":73.0,"so2":4.5,"mosquito_risk":7,"arthritis_risk":5,"migraine_risk":7,"frizz_risk":1,"updated_at":"2026-07-12T12:05:40.196866+05:30"},{"city":"Jabalpur","state":"Madhya Pradesh","latitude":23.1815,"longitude":79.9864,"temp":30.4,"humidity":65,"rain":0.0,"pressure":955.8,"uv_index":6.2,"wind_gusts":41.4,"aqi":76,"pm10":50.4,"pm2_5":22.8,"no2":1.4,"co":141.0,"o3":85.0,"so2":4.9,"mosquito_risk":3,"arthritis_risk":5,"migraine_risk":7,"frizz_risk":1,"updated_at":"2026-07-12T12:05:40.196873+05:30"},{"city":"Ujjain","state":"Madhya Pradesh","latitude":23.1765,"longitude":75.7885,"temp":29.2,"humidity":63,"rain":0.0,"pressure":948.0,"uv_index":8.45,"wind_gusts":51.1,"aqi":60,"pm10":51.6,"pm2_5":20.5,"no2":1.8,"co":133.0,"o3":65.0,"so2":4.2,"mosquito_risk":7,"arthritis_risk":5,"migraine_risk":7,"frizz_risk":1,"updated_at":"2026-07-12T12:05:40.196880+05:30"},{"city":"Visakhapatnam","state":"Andhra Pradesh","latitude":17.6868,"longitude":83.2185,"temp":36.0,"humidity":47,"rain":0.0,"pressure":996.5,"uv_index":8.6,"wind_gusts":42.8,"aqi":107,"pm10":64.7,"pm2_5":36.3,"no2":6.7,"co":298.0,"o3":139.0,"so2":23.6,"mosquito_risk":0,"arthritis_risk":5,"migraine_risk":10,"frizz_risk":1,"updated_at":"2026-07-12T12:05:40.196888+05:30"},{"city":"Vijayawada","state":"Andhra Pradesh","latitude":16.5062,"longitude":80.648,"temp":35.7,"humidity":42,"rain":0.0,"pressure":997.8,"uv_index":7.45,"wind_gusts":42.8,"aqi":91,"pm10":40.6,"pm2_5":18.0,"no2":1.5,"co":127.0,"o3":92.0,"so2":5.2,"mosquito_risk":0,"arthritis_risk":5,"migraine_risk":10,"frizz_risk":1,"updated_at":"2026-07-12T12:05:40.196895+05:30"},{"city":"Guntur","state":"Andhra Pradesh","latitude":16.3067,"longitude":80.4365,"temp":36.3,"humidity":39,"rain":0.0,"pressure":999.1,"uv_index":7.8,"wind_gusts":45.0,"aqi":82,"pm10":40.0,"pm2_5":17.2,"no2":1.4,"co":125.0,"o3":88.0,"so2":4.8,"mosquito_risk":0,"arthritis_risk":5,"migraine_risk":10,"frizz_risk":1,"updated_at":"2026-07-12T12:05:40.196902+05:30"},{"city":"Nellore","state":"Andhra Pradesh","latitude":14.4426,"longitude":79.9865,"temp":36.0,"humidity":40,"rain":0.0,"pressure":1001.8,"uv_index":8.1,"wind_gusts":44.3,"aqi":71,"pm10":45.3,"pm2_5":15.6,"no2":1.7,"co":107.0,"o3":85.0,"so2":5.5,"mosquito_risk":0,"arthritis_risk":5,"migraine_risk":7,"frizz_risk":1,"updated_at":"2026-07-12T12:05:40.196910+05:30"},{"city":"Kurnool","state":"Andhra Pradesh","latitude":15.8281,"longitude":78.0373,"temp":33.4,"humidity":44,"rain":0.0,"pressure":974.5,"uv_index":8.1,"wind_gusts":46.4,"aqi":56,"pm10":43.4,"pm2_5":15.4,"no2":1.5,"co":109.0,"o3":74.0,"so2":4.3,"mosquito_risk":0,"arthritis_risk":5,"migraine_risk":7,"frizz_risk":1,"updated_at":"2026-07-12T12:05:40.196918+05:30"},{"city":"Kakinada","state":"Andhra Pradesh","latitude":16.9891,"longitude":82.2475,"temp":35.4,"humidity":47,"rain":0.0,"pressure":1001.3,"uv_index":8.4,"wind_gusts":44.6,"aqi":94,"pm10":56.6,"pm2_5":29.5,"no2":2.4,"co":169.0,"o3":139.0,"so2":5.5,"mosquito_risk":0,"arthritis_risk":5,"migraine_risk":7,"frizz_risk":1,"updated_at":"2026-07-12T12:05:40.196925+05:30"},{"city":"Tirupati","state":"Andhra Pradesh","latitude":13.6288,"longitude":79.4192,"temp":36.5,"humidity":34,"rain":0.0,"pressure":987.6,"uv_index":8.7,"wind_gusts":33.1,"aqi":79,"pm10":43.8,"pm2_5":13.0,"no2":1.1,"co":104.0,"o3":70.0,"so2":1.4,"mosquito_risk":0,"arthritis_risk":5,"migraine_risk":10,"frizz_risk":1,"updated_at":"2026-07-12T12:05:40.196931+05:30"},{"city":"Warangal","state":"Telangana","latitude":17.9689,"longitude":79.5941,"temp":32.3,"humidity":53,"rain":0.0,"pressure":975.1,"uv_index":8.85,"wind_gusts":43.9,"aqi":74,"pm10":42.8,"pm2_5":17.6,"no2":1.1,"co":127.0,"o3":81.0,"so2":2.4,"mosquito_risk":0,"arthritis_risk":5,"migraine_risk":7,"frizz_risk":1,"updated_at":"2026-07-12T12:05:40.196938+05:30"},{"city":"Nizamabad","state":"Telangana","latitude":18.6725,"longitude":78.0941,"temp":30.9,"humidity":51,"rain":0.0,"pressure":962.0,"uv_index":8.9,"wind_gusts":44.3,"aqi":64,"pm10":42.3,"pm2_5":16.5,"no2":1.6,"co":112.0,"o3":70.0,"so2":5.2,"mosquito_risk":0,"arthritis_risk":5,"migraine_risk":7,"frizz_risk":1,"updated_at":"2026-07-12T12:05:40.196945+05:30"},{"city":"Mysore","state":"Karnataka","latitude":12.2958,"longitude":76.6396,"temp":30.2,"humidity":49,"rain":0.0,"pressure":928.1,"uv_index":8.5,"wind_gusts":47.5,"aqi":39,"pm10":28.1,"pm2_5":10.2,"no2":1.3,"co":110.0,"o3":69.0,"so2":1.6,"mosquito_risk":0,"arthritis_risk":5,"migraine_risk":7,"frizz_risk":1,"updated_at":"2026-07-12T12:05:40.196951+05:30"},{"city":"Mangalore","state":"Karnataka","latitude":12.9141,"longitude":74.856,"temp":29.5,"humidity":71,"rain":0.0,"pressure":1007.1,"uv_index":6.75,"wind_gusts":44.3,"aqi":42,"pm10":22.2,"pm2_5":10.5,"no2":0.9,"co":88.0,"o3":55.0,"so2":1.7,"mosquito_risk":7,"arthritis_risk":5,"migraine_risk":4,"frizz_risk":1,"updated_at":"2026-07-12T12:05:40.196958+05:30"},{"city":"Hubli-Dharwad","state":"Karnataka","latitude":15.3647,"longitude":75.124,"temp":28.5,"humidity":62,"rain":0.0,"pressure":940.4,"uv_index":8.85,"wind_gusts":54.0,"aqi":31,"pm10":17.7,"pm2_5":7.2,"no2":1.0,"co":96.0,"o3":54.0,"so2":1.1,"mosquito_risk":7,"arthritis_risk":5,"migraine_risk":7,"frizz_risk":1,"updated_at":"2026-07-12T12:05:40.196965+05:30"},{"city":"Belgaum","state":"Karnataka","latitude":15.8497,"longitude":74.4977,"temp":26.9,"humidity":70,"rain":0.0,"pressure":925.5,"uv_index":8.8,"wind_gusts":50.8,"aqi":34,"pm10":16.1,"pm2_5":6.7,"no2":1.0,"co":94.0,"o3":54.0,"so2":1.6,"mosquito_risk":7,"arthritis_risk":5,"migraine_risk":7,"frizz_risk":1,"updated_at":"2026-07-12T12:05:43.459939+05:30"},{"city":"Coimbatore","state":"Tamil Nadu","latitude":11.0168,"longitude":76.9558,"temp":31.6,"humidity":54,"rain":0.0,"pressure":960.6,"uv_index":8.2,"wind_gusts":56.5,"aqi":42,"pm10":28.1,"pm2_5":10.6,"no2":1.2,"co":124.0,"o3":68.0,"so2":2.2,"mosquito_risk":0,"arthritis_risk":5,"migraine_risk":7,"frizz_risk":1,"updated_at":"2026-07-12T12:05:43.459966+05:30"},{"city":"Madurai","state":"Tamil Nadu","latitude":9.9252,"longitude":78.1198,"temp":37.0,"humidity":36,"rain":0.0,"pressure":990.6,"uv_index":7.85,"wind_gusts":38.2,"aqi":64,"pm10":39.6,"pm2_5":12.5,"no2":1.6,"co":122.0,"o3":85.0,"so2":2.4,"mosquito_risk":0,"arthritis_risk":5,"migraine_risk":10,"frizz_risk":1,"updated_at":"2026-07-12T12:05:43.459975+05:30"},{"city":"Trichy","state":"Tamil Nadu","latitude":10.7905,"longitude":78.7047,"temp":36.6,"humidity":37,"rain":0.0,"pressure":997.0,"uv_index":8.4,"wind_gusts":51.5,"aqi":47,"pm10":33.2,"pm2_5":11.6,"no2":1.3,"co":107.0,"o3":72.0,"so2":2.2,"mosquito_risk":0,"arthritis_risk":5,"migraine_risk":10,"frizz_risk":1,"updated_at":"2026-07-12T12:05:43.459983+05:30"},{"city":"Salem","state":"Tamil Nadu","latitude":11.6643,"longitude":78.146,"temp":32.4,"humidity":54,"rain":0.0,"pressure":975.5,"uv_index":8.6,"wind_gusts":29.2,"aqi":63,"pm10":37.6,"pm2_5":16.9,"no2":3.4,"co":172.0,"o3":97.0,"so2":8.6,"mosquito_risk":0,"arthritis_risk":5,"migraine_risk":7,"frizz_risk":1,"updated_at":"2026-07-12T12:05:43.459990+05:30"},{"city":"Tirunelveli","state":"Tamil Nadu","latitude":8.7139,"longitude":77.7567,"temp":37.4,"humidity":36,"rain":0.0,"pressure":1001.2,"uv_index":7.9,"wind_gusts":42.1,"aqi":29,"pm10":14.9,"pm2_5":6.4,"no2":0.9,"co":108.0,"o3":67.0,"so2":1.4,"mosquito_risk":0,"arthritis_risk":5,"migraine_risk":7,"frizz_risk":1,"updated_at":"2026-07-12T12:05:43.459997+05:30"},{"city":"Vellore","state":"Tamil Nadu","latitude":12.9165,"longitude":79.1325,"temp":36.6,"humidity":34,"rain":0.0,"pressure":981.2,"uv_index":8.25,"wind_gusts":40.0,"aqi":70,"pm10":39.6,"pm2_5":15.1,"no2":1.9,"co":143.0,"o3":86.0,"so2":3.0,"mosquito_risk":0,"arthritis_risk":5,"migraine_risk":10,"frizz_risk":1,"updated_at":"2026-07-12T12:05:43.460003+05:30"},{"city":"Erode","state":"Tamil Nadu","latitude":11.341,"longitude":77.7172,"temp":36.0,"humidity":36,"rain":0.0,"pressure":986.9,"uv_index":8.3,"wind_gusts":53.6,"aqi":54,"pm10":30.2,"pm2_5":12.8,"no2":1.9,"co":153.0,"o3":84.0,"so2":2.6,"mosquito_risk":0,"arthritis_risk":5,"migraine_risk":10,"frizz_risk":1,"updated_at":"2026-07-12T12:05:43.460010+05:30"},{"city":"Kochi","state":"Kerala","latitude":9.9312,"longitude":76.2673,"temp":28.8,"humidity":77,"rain":0.0,"pressure":1009.0,"uv_index":7.65,"wind_gusts":41.4,"aqi":48,"pm10":19.0,"pm2_5":9.3,"no2":1.7,"co":99.0,"o3":61.0,"so2":2.5,"mosquito_risk":7,"arthritis_risk":0,"migraine_risk":4,"frizz_risk":1,"updated_at":"2026-07-12T12:05:43.460017+05:30"},{"city":"Thiruvananthapuram","state":"Kerala","latitude":8.5241,"longitude":76.9366,"temp":29.0,"humidity":76,"rain":0.0,"pressure":1008.3,"uv_index":7.7,"wind_gusts":47.2,"aqi":35,"pm10":18.3,"pm2_5":9.9,"no2":1.6,"co":91.0,"o3":67.0,"so2":1.6,"mosquito_risk":7,"arthritis_risk":0,"migraine_risk":4,"frizz_risk":1,"updated_at":"2026-07-12T12:05:43.460023+05:30"},{"city":"Kozhikode","state":"Kerala","latitude":11.2588,"longitude":75.7804,"temp":29.5,"humidity":74,"rain":0.0,"pressure":1008.2,"uv_index":7.95,"wind_gusts":44.6,"aqi":36,"pm10":18.3,"pm2_5":8.5,"no2":0.7,"co":98.0,"o3":60.0,"so2":1.5,"mosquito_risk":7,"arthritis_risk":0,"migraine_risk":4,"frizz_risk":1,"updated_at":"2026-07-12T12:05:43.460029+05:30"},{"city":"Thrissur","state":"Kerala","latitude":10.5276,"longitude":76.2144,"temp":29.4,"humidity":75,"rain":0.1,"pressure":1007.2,"uv_index":7.7,"wind_gusts":39.2,"aqi":42,"pm10":16.1,"pm2_5":8.2,"no2":1.2,"co":97.0,"o3":60.0,"so2":1.8,"mosquito_risk":10,"arthritis_risk":5,"migraine_risk":4,"frizz_risk":1,"updated_at":"2026-07-12T12:05:43.460036+05:30"},{"city":"Kannur","state":"Kerala","latitude":11.8745,"longitude":75.3704,"temp":29.6,"humidity":73,"rain":0.0,"pressure":1007.6,"uv_index":8.2,"wind_gusts":42.8,"aqi":39,"pm10":20.7,"pm2_5":9.6,"no2":1.0,"co":91.0,"o3":59.0,"so2":1.6,"mosquito_risk":7,"arthritis_risk":5,"migraine_risk":4,"frizz_risk":1,"updated_at":"2026-07-12T12:05:43.460043+05:30"},{"city":"Patna","state":"Bihar","latitude":25.5941,"longitude":85.1376,"temp":33.5,"humidity":60,"rain":0.0,"pressure":989.7,"uv_index":8.6,"wind_gusts":42.5,"aqi":132,"pm10":101.0,"pm2_5":52.6,"no2":2.7,"co":217.0,"o3":139.0,"so2":7.3,"mosquito_risk":0,"arthritis_risk":5,"migraine_risk":7,"frizz_risk":1,"updated_at":"2026-07-12T12:05:43.460050+05:30"},{"city":"Gaya","state":"Bihar","latitude":24.7914,"longitude":85.0002,"temp":34.1,"humidity":57,"rain":0.0,"pressure":984.0,"uv_index":8.85,"wind_gusts":38.9,"aqi":104,"pm10":57.9,"pm2_5":35.2,"no2":2.0,"co":184.0,"o3":126.0,"so2":7.6,"mosquito_risk":0,"arthritis_risk":5,"migraine_risk":7,"frizz_risk":1,"updated_at":"2026-07-12T12:05:43.460056+05:30"},{"city":"Muzaffarpur","state":"Bihar","latitude":26.1209,"longitude":85.3647,"temp":31.3,"humidity":77,"rain":0.0,"pressure":989.6,"uv_index":7.2,"wind_gusts":39.6,"aqi":120,"pm10":109.2,"pm2_5":49.2,"no2":2.5,"co":247.0,"o3":131.0,"so2":6.5,"mosquito_risk":3,"arthritis_risk":5,"migraine_risk":7,"frizz_risk":1,"updated_at":"2026-07-12T12:05:43.460062+05:30"},{"city":"Bhagalpur","state":"Bihar","latitude":25.2425,"longitude":87.0117,"temp":33.3,"humidity":63,"rain":0.1,"pressure":990.4,"uv_index":8.45,"wind_gusts":32.4,"aqi":98,"pm10":89.6,"pm2_5":51.9,"no2":4.5,"co":229.0,"o3":133.0,"so2":13.7,"mosquito_risk":6,"arthritis_risk":5,"migraine_risk":7,"frizz_risk":1,"updated_at":"2026-07-12T12:05:43.460068+05:30"},{"city":"Ranchi","state":"Jharkhand","latitude":23.3441,"longitude":85.3096,"temp":30.3,"humidity":60,"rain":0.1,"pressure":930.1,"uv_index":9.2,"wind_gusts":34.2,"aqi":95,"pm10":67.1,"pm2_5":31.3,"no2":1.4,"co":152.0,"o3":113.0,"so2":7.3,"mosquito_risk":3,"arthritis_risk":5,"migraine_risk":7,"frizz_risk":1,"updated_at":"2026-07-12T12:05:43.460074+05:30"},{"city":"Jamshedpur","state":"Jharkhand","latitude":22.8046,"longitude":86.2029,"temp":33.2,"humidity":61,"rain":0.0,"pressure":981.6,"uv_index":9.1,"wind_gusts":29.9,"aqi":118,"pm10":75.0,"pm2_5":41.2,"no2":3.4,"co":211.0,"o3":142.0,"so2":19.3,"mosquito_risk":3,"arthritis_risk":5,"migraine_risk":7,"frizz_risk":1,"updated_at":"2026-07-12T12:05:43.460080+05:30"},{"city":"Dhanbad","state":"Jharkhand","latitude":23.7957,"longitude":86.4304,"temp":32.7,"humidity":65,"rain":0.0,"pressure":970.5,"uv_index":9.0,"wind_gusts":28.1,"aqi":149,"pm10":80.8,"pm2_5":43.7,"no2":7.8,"co":180.0,"o3":130.0,"so2":34.3,"mosquito_risk":3,"arthritis_risk":5,"migraine_risk":7,"frizz_risk":1,"updated_at":"2026-07-12T12:05:43.460087+05:30"},{"city":"Bokaro","state":"Jharkhand","latitude":23.6693,"longitude":86.1511,"temp":33.0,"humidity":62,"rain":0.0,"pressure":974.3,"uv_index":9.1,"wind_gusts":32.4,"aqi":137,"pm10":78.7,"pm2_5":41.7,"no2":8.4,"co":165.0,"o3":128.0,"so2":37.0,"mosquito_risk":3,"arthritis_risk":5,"migraine_risk":7,"frizz_risk":1,"updated_at":"2026-07-12T12:05:43.460093+05:30"},{"city":"Bhubaneswar","state":"Odisha","latitude":20.2961,"longitude":85.8245,"temp":34.0,"humidity":58,"rain":0.0,"pressure":994.1,"uv_index":8.5,"wind_gusts":39.6,"aqi":127,"pm10":77.3,"pm2_5":38.5,"no2":2.4,"co":150.0,"o3":132.0,"so2":11.3,"mosquito_risk":0,"arthritis_risk":5,"migraine_risk":7,"frizz_risk":1,"updated_at":"2026-07-12T12:05:43.460098+05:30"},{"city":"Cuttack","state":"Odisha","latitude":20.4625,"longitude":85.8828,"temp":33.7,"humidity":60,"rain":0.0,"pressure":995.7,"uv_index":8.5,"wind_gusts":37.4,"aqi":127,"pm10":77.3,"pm2_5":38.5,"no2":2.4,"co":215.0,"o3":132.0,"so2":11.3,"mosquito_risk":0,"arthritis_risk":5,"migraine_risk":7,"frizz_risk":1,"updated_at":"2026-07-12T12:05:43.460104+05:30"},{"city":"Rourkela","state":"Odisha","latitude":22.2604,"longitude":84.8536,"temp":32.7,"humidity":60,"rain":0.0,"pressure":976.4,"uv_index":8.8,"wind_gusts":32.4,"aqi":120,"pm10":69.6,"pm2_5":35.3,"no2":2.2,"co":200.0,"o3":123.0,"so2":10.5,"mosquito_risk":0,"arthritis_risk":5,"migraine_risk":7,"frizz_risk":1,"updated_at":"2026-07-12T12:05:43.460110+05:30"},{"city":"Raipur","state":"Chhattisgarh","latitude":21.2514,"longitude":81.6296,"temp":32.2,"humidity":56,"rain":0.0,"pressure":968.3,"uv_index":8.3,"wind_gusts":43.9,"aqi":106,"pm10":60.8,"pm2_5":32.4,"no2":7.0,"co":123.0,"o3":106.0,"so2":29.0,"mosquito_risk":0,"arthritis_risk":5,"migraine_risk":7,"frizz_risk":1,"updated_at":"2026-07-12T12:05:43.460116+05:30"},{"city":"Bhilai","state":"Chhattisgarh","latitude":21.1938,"longitude":81.3509,"temp":31.8,"humidity":56,"rain":0.0,"pressure":969.1,"uv_index":7.4,"wind_gusts":48.2,"aqi":99,"pm10":54.4,"pm2_5":29.0,"no2":6.3,"co":272.0,"o3":98.0,"so2":23.4,"mosquito_risk":0,"arthritis_risk":5,"migraine_risk":7,"frizz_risk":1,"updated_at":"2026-07-12T12:05:43.460122+05:30"},{"city":"Guwahati","state":"Assam","latitude":26.1158,"longitude":91.7086,"temp":27.2,"humidity":95,"rain":0.1,"pressure":990.7,"uv_index":3.65,"wind_gusts":14.4,"aqi":35,"pm10":5.8,"pm2_5":5.7,"no2":2.5,"co":291.0,"o3":98.0,"so2":1.8,"mosquito_risk":10,"arthritis_risk":5,"migraine_risk":3,"frizz_risk":1,"updated_at":"2026-07-12T12:05:43.460128+05:30"},{"city":"Agartala","state":"Tripura","latitude":23.8315,"longitude":91.2868,"temp":27.2,"humidity":100,"rain":0.0,"pressure":995.9,"uv_index":7.9,"wind_gusts":33.5,"aqi":89,"pm10":31.1,"pm2_5":29.3,"no2":15.9,"co":202.0,"o3":68.0,"so2":4.2,"mosquito_risk":7,"arthritis_risk":5,"migraine_risk":7,"frizz_risk":1,"updated_at":"2026-07-12T12:05:43.460135+05:30"},{"city":"Shillong","state":"Meghalaya","latitude":25.5788,"longitude":91.8933,"temp":21.3,"humidity":95,"rain":0.0,"pressure":849.3,"uv_index":3.3,"wind_gusts":31.3,"aqi":35,"pm10":8.5,"pm2_5":5.7,"no2":1.7,"co":229.0,"o3":96.0,"so2":3.6,"mosquito_risk":3,"arthritis_risk":5,"migraine_risk":3,"frizz_risk":1,"updated_at":"2026-07-12T12:05:43.460142+05:30"},{"city":"Imphal","state":"Manipur","latitude":24.817,"longitude":93.9368,"temp":28.2,"humidity":73,"rain":0.0,"pressure":915.4,"uv_index":7.15,"wind_gusts":29.2,"aqi":38,"pm10":23.2,"pm2_5":12.4,"no2":1.0,"co":183.0,"o3":102.0,"so2":2.7,"mosquito_risk":7,"arthritis_risk":5,"migraine_risk":7,"frizz_risk":1,"updated_at":"2026-07-12T12:05:43.460148+05:30"},{"city":"Aizawl","state":"Mizoram","latitude":23.7271,"longitude":92.7176,"temp":25.9,"humidity":71,"rain":0.0,"pressure":885.9,"uv_index":8.0,"wind_gusts":38.5,"aqi":36,"pm10":46.1,"pm2_5":19.8,"no2":0.4,"co":144.0,"o3":96.0,"so2":3.8,"mosquito_risk":7,"arthritis_risk":5,"migraine_risk":7,"frizz_risk":1,"updated_at":"2026-07-12T12:05:43.460155+05:30"},{"city":"Kohima","state":"Nagaland","latitude":25.6701,"longitude":94.1077,"temp":22.7,"humidity":95,"rain":0.2,"pressure":849.1,"uv_index":8.05,"wind_gusts":22.3,"aqi":36,"pm10":11.7,"pm2_5":7.3,"no2":0.6,"co":209.0,"o3":98.0,"so2":1.9,"mosquito_risk":6,"arthritis_risk":5,"migraine_risk":7,"frizz_risk":1,"updated_at":"2026-07-12T12:05:43.460161+05:30"},{"city":"Gangtok","state":"Sikkim","latitude":27.3314,"longitude":88.6138,"temp":23.6,"humidity":80,"rain":0.2,"pressure":832.3,"uv_index":4.55,"wind_gusts":32.0,"aqi":51,"pm10":3.2,"pm2_5":3.2,"no2":2.1,"co":220.0,"o3":101.0,"so2":1.2,"mosquito_risk":6,"arthritis_risk":5,"migraine_risk":3,"frizz_risk":1,"updated_at":"2026-07-12T12:05:43.460167+05:30"},{"city":"Siliguri","state":"West Bengal","latitude":26.7271,"longitude":88.3953,"temp":28.6,"humidity":92,"rain":0.0,"pressure":982.2,"uv_index":8.65,"wind_gusts":24.8,"aqi":56,"pm10":7.8,"pm2_5":7.8,"no2":3.4,"co":356.0,"o3":107.0,"so2":2.1,"mosquito_risk":7,"arthritis_risk":5,"migraine_risk":7,"frizz_risk":1,"updated_at":"2026-07-12T12:05:46.741239+05:30"},{"city":"Durgapur","state":"West Bengal","latitude":23.5204,"longitude":87.3119,"temp":33.3,"humidity":64,"rain":0.0,"pressure":985.2,"uv_index":5.2,"wind_gusts":26.3,"aqi":150,"pm10":80.6,"pm2_5":51.5,"no2":12.0,"co":572.0,"o3":147.0,"so2":48.1,"mosquito_risk":3,"arthritis_risk":5,"migraine_risk":3,"frizz_risk":1,"updated_at":"2026-07-12T12:05:46.741267+05:30"},{"city":"Asansol","state":"West Bengal","latitude":23.6739,"longitude":86.9524,"temp":33.5,"humidity":63,"rain":0.0,"pressure":983.8,"uv_index":8.15,"wind_gusts":28.4,"aqi":132,"pm10":78.7,"pm2_5":45.8,"no2":9.6,"co":249.0,"o3":134.0,"so2":37.3,"mosquito_risk":3,"arthritis_risk":5,"migraine_risk":7,"frizz_risk":1,"updated_at":"2026-07-12T12:05:46.741277+05:30"},{"city":"Pondicherry","state":"Puducherry","latitude":11.9139,"longitude":79.8145,"temp":35.6,"humidity":46,"rain":0.0,"pressure":1005.0,"uv_index":8.55,"wind_gusts":43.6,"aqi":69,"pm10":38.2,"pm2_5":20.9,"no2":4.1,"co":150.0,"o3":103.0,"so2":7.2,"mosquito_risk":0,"arthritis_risk":5,"migraine_risk":7,"frizz_risk":1,"updated_at":"2026-07-12T12:05:46.741285+05:30"},{"city":"Port Blair","state":"Andaman and Nicobar Islands","latitude":11.6234,"longitude":92.7265,"temp":30.2,"humidity":75,"rain":0.0,"pressure":1004.1,"uv_index":8.7,"wind_gusts":58.3,"aqi":51,"pm10":33.6,"pm2_5":15.9,"no2":0.2,"co":86.0,"o3":44.0,"so2":0.4,"mosquito_risk":3,"arthritis_risk":5,"migraine_risk":4,"frizz_risk":1,"updated_at":"2026-07-12T12:05:46.741293+05:30"},{"city":"Haridwar","state":"Uttarakhand","latitude":29.9457,"longitude":78.1642,"temp":33.5,"humidity":63,"rain":0.0,"pressure":964.1,"uv_index":7.45,"wind_gusts":37.4,"aqi":133,"pm10":253.3,"pm2_5":75.2,"no2":1.7,"co":259.0,"o3":151.0,"so2":10.5,"mosquito_risk":3,"arthritis_risk":5,"migraine_risk":7,"frizz_risk":1,"updated_at":"2026-07-12T12:05:46.741299+05:30"},{"city":"Rishikesh","state":"Uttarakhand","latitude":30.0869,"longitude":78.2676,"temp":32.2,"humidity":66,"rain":0.0,"pressure":957.1,"uv_index":7.6,"wind_gusts":35.6,"aqi":77,"pm10":207.7,"pm2_5":59.4,"no2":0.9,"co":226.0,"o3":134.0,"so2":5.2,"mosquito_risk":3,"arthritis_risk":5,"migraine_risk":7,"frizz_risk":1,"updated_at":"2026-07-12T12:05:46.741307+05:30"},{"city":"Nainital","state":"Uttarakhand","latitude":29.3919,"longitude":79.4542,"temp":25.1,"humidity":59,"rain":0.0,"pressure":802.5,"uv_index":6.3,"wind_gusts":34.9,"aqi":104,"pm10":156.9,"pm2_5":56.1,"no2":1.6,"co":212.0,"o3":154.0,"so2":9.0,"mosquito_risk":4,"arthritis_risk":5,"migraine_risk":7,"frizz_risk":1,"updated_at":"2026-07-12T12:05:46.741314+05:30"},{"city":"Mussoorie","state":"Uttarakhand","latitude":30.4599,"longitude":78.0664,"temp":23.1,"humidity":64,"rain":0.0,"pressure":799.2,"uv_index":8.0,"wind_gusts":42.1,"aqi":86,"pm10":163.4,"pm2_5":52.6,"no2":1.1,"co":287.0,"o3":140.0,"so2":4.6,"mosquito_risk":3,"arthritis_risk":5,"migraine_risk":7,"frizz_risk":0,"updated_at":"2026-07-12T12:05:46.741320+05:30"},{"city":"Dharamshala","state":"Himachal Pradesh","latitude":32.219,"longitude":76.3234,"temp":25.1,"humidity":61,"rain":0.0,"pressure":862.4,"uv_index":8.45,"wind_gusts":27.0,"aqi":51,"pm10":33.8,"pm2_5":16.2,"no2":0.5,"co":322.0,"o3":141.0,"so2":1.6,"mosquito_risk":7,"arthritis_risk":5,"migraine_risk":7,"frizz_risk":1,"updated_at":"2026-07-12T12:05:46.741327+05:30"},{"city":"Dalhousie","state":"Himachal Pradesh","latitude":32.5387,"longitude":75.971,"temp":21.4,"humidity":68,"rain":0.0,"pressure":800.4,"uv_index":8.65,"wind_gusts":23.8,"aqi":92,"pm10":81.0,"pm2_5":33.5,"no2":1.3,"co":311.0,"o3":148.0,"so2":2.5,"mosquito_risk":3,"arthritis_risk":5,"migraine_risk":7,"frizz_risk":0,"updated_at":"2026-07-12T12:05:46.741335+05:30"},{"city":"Patiala","state":"Punjab","latitude":30.3398,"longitude":76.3869,"temp":27.3,"humidity":86,"rain":0.0,"pressure":967.3,"uv_index":7.5,"wind_gusts":33.1,"aqi":162,"pm10":412.6,"pm2_5":108.7,"no2":3.0,"co":361.0,"o3":159.0,"so2":12.3,"mosquito_risk":7,"arthritis_risk":5,"migraine_risk":7,"frizz_risk":1,"updated_at":"2026-07-12T12:05:46.741341+05:30"},{"city":"Bhatinda","state":"Punjab","latitude":30.211,"longitude":74.9455,"temp":34.4,"humidity":56,"rain":0.0,"pressure":973.1,"uv_index":8.25,"wind_gusts":34.9,"aqi":333,"pm10":624.0,"pm2_5":187.7,"no2":3.5,"co":138.0,"o3":138.0,"so2":11.8,"mosquito_risk":0,"arthritis_risk":5,"migraine_risk":7,"frizz_risk":1,"updated_at":"2026-07-12T12:05:46.741348+05:30"},{"city":"Rohtak","state":"Haryana","latitude":28.8955,"longitude":76.6066,"temp":34.8,"humidity":55,"rain":0.0,"pressure":972.0,"uv_index":7.6,"wind_gusts":33.8,"aqi":807,"pm10":1967.0,"pm2_5":269.2,"no2":1.9,"co":140.0,"o3":103.0,"so2":3.6,"mosquito_risk":0,"arthritis_risk":5,"migraine_risk":7,"frizz_risk":1,"updated_at":"2026-07-12T12:05:46.741354+05:30"},{"city":"Panipat","state":"Haryana","latitude":29.3909,"longitude":76.9635,"temp":31.9,"humidity":66,"rain":0.0,"pressure":970.2,"uv_index":7.45,"wind_gusts":51.8,"aqi":945,"pm10":1974.4,"pm2_5":413.5,"no2":3.3,"co":163.0,"o3":108.0,"so2":11.0,"mosquito_risk":3,"arthritis_risk":5,"migraine_risk":7,"frizz_risk":1,"updated_at":"2026-07-12T12:05:46.741361+05:30"},{"city":"Mathura","state":"Uttar Pradesh","latitude":27.4924,"longitude":77.6737,"temp":34.7,"humidity":57,"rain":0.0,"pressure":977.3,"uv_index":7.95,"wind_gusts":35.6,"aqi":735,"pm10":1158.6,"pm2_5":151.3,"no2":1.9,"co":152.0,"o3":106.0,"so2":3.5,"mosquito_risk":0,"arthritis_risk":5,"migraine_risk":7,"frizz_risk":1,"updated_at":"2026-07-12T12:05:46.741367+05:30"},{"city":"Vrindavan","state":"Uttar Pradesh","latitude":27.5823,"longitude":77.7027,"temp":34.9,"humidity":56,"rain":0.0,"pressure":977.7,"uv_index":7.9,"wind_gusts":34.6,"aqi":735,"pm10":1158.6,"pm2_5":151.3,"no2":1.9,"co":147.0,"o3":106.0,"so2":3.5,"mosquito_risk":0,"arthritis_risk":5,"migraine_risk":7,"frizz_risk":1,"updated_at":"2026-07-12T12:05:46.741373+05:30"},{"city":"Ayodhya","state":"Uttar Pradesh","latitude":26.7922,"longitude":82.1998,"temp":34.2,"humidity":58,"rain":0.0,"pressure":985.0,"uv_index":7.05,"wind_gusts":37.8,"aqi":152,"pm10":116.2,"pm2_5":53.7,"no2":2.0,"co":231.0,"o3":138.0,"so2":6.0,"mosquito_risk":0,"arthritis_risk":5,"migraine_risk":7,"frizz_risk":1,"updated_at":"2026-07-12T12:05:46.741379+05:30"},{"city":"Ratlam","state":"Madhya Pradesh","latitude":23.3315,"longitude":75.0367,"temp":30.0,"humidity":61,"rain":0.0,"pressure":948.8,"uv_index":8.45,"wind_gusts":51.5,"aqi":59,"pm10":51.9,"pm2_5":20.4,"no2":1.6,"co":110.0,"o3":67.0,"so2":4.1,"mosquito_risk":7,"arthritis_risk":5,"migraine_risk":7,"frizz_risk":1,"updated_at":"2026-07-12T12:05:46.741386+05:30"},{"city":"Sagar","state":"Madhya Pradesh","latitude":23.8388,"longitude":78.7378,"temp":31.3,"humidity":56,"rain":0.0,"pressure":944.5,"uv_index":7.25,"wind_gusts":47.5,"aqi":74,"pm10":60.1,"pm2_5":24.3,"no2":1.1,"co":135.0,"o3":83.0,"so2":4.4,"mosquito_risk":0,"arthritis_risk":5,"migraine_risk":7,"frizz_risk":1,"updated_at":"2026-07-12T12:05:46.741392+05:30"},{"city":"Satna","state":"Madhya Pradesh","latitude":24.6005,"longitude":80.8322,"temp":33.2,"humidity":56,"rain":0.0,"pressure":964.0,"uv_index":8.2,"wind_gusts":44.6,"aqi":83,"pm10":45.9,"pm2_5":25.0,"no2":1.1,"co":128.0,"o3":105.0,"so2":4.8,"mosquito_risk":0,"arthritis_risk":5,"migraine_risk":7,"frizz_risk":1,"updated_at":"2026-07-12T12:05:46.741399+05:30"},{"city":"Akola","state":"Maharashtra","latitude":20.7002,"longitude":77.0082,"temp":31.1,"humidity":58,"rain":0.0,"pressure":971.2,"uv_index":7.9,"wind_gusts":45.7,"aqi":58,"pm10":45.9,"pm2_5":16.8,"no2":1.8,"co":103.0,"o3":71.0,"so2":6.2,"mosquito_risk":0,"arthritis_risk":5,"migraine_risk":7,"frizz_risk":1,"updated_at":"2026-07-12T12:05:46.741406+05:30"},{"city":"Amravati","state":"Maharashtra","latitude":20.9374,"longitude":77.7796,"temp":29.9,"humidity":63,"rain":0.0,"pressure":963.6,"uv_index":6.0,"wind_gusts":48.2,"aqi":60,"pm10":47.7,"pm2_5":17.9,"no2":2.2,"co":108.0,"o3":71.0,"so2":7.8,"mosquito_risk":7,"arthritis_risk":5,"migraine_risk":3,"frizz_risk":1,"updated_at":"2026-07-12T12:05:46.741412+05:30"},{"city":"Latur","state":"Maharashtra","latitude":18.4088,"longitude":76.5604,"temp":30.8,"humidity":51,"rain":0.0,"pressure":937.6,"uv_index":8.9,"wind_gusts":49.3,"aqi":52,"pm10":34.3,"pm2_5":12.4,"no2":0.8,"co":103.0,"o3":65.0,"so2":1.9,"mosquito_risk":0,"arthritis_risk":5,"migraine_risk":7,"frizz_risk":1,"updated_at":"2026-07-12T12:05:46.741419+05:30"},{"city":"Nanded","state":"Maharashtra","latitude":19.1383,"longitude":77.3091,"temp":30.8,"humidity":56,"rain":0.0,"pressure":965.8,"uv_index":8.85,"wind_gusts":43.2,"aqi":59,"pm10":39.8,"pm2_5":15.0,"no2":1.2,"co":108.0,"o3":69.0,"so2":3.2,"mosquito_risk":0,"arthritis_risk":5,"migraine_risk":7,"frizz_risk":1,"updated_at":"2026-07-12T12:05:46.741425+05:30"},{"city":"Gulbarga","state":"Karnataka","latitude":17.3297,"longitude":76.8343,"temp":31.4,"humidity":46,"rain":0.0,"pressure":956.5,"uv_index":8.7,"wind_gusts":51.1,"aqi":52,"pm10":27.4,"pm2_5":10.0,"no2":1.4,"co":105.0,"o3":64.0,"so2":2.2,"mosquito_risk":0,"arthritis_risk":5,"migraine_risk":7,"frizz_risk":1,"updated_at":"2026-07-12T12:05:46.741452+05:30"},{"city":"Bidar","state":"Karnataka","latitude":17.9104,"longitude":77.5199,"temp":30.1,"humidity":51,"rain":0.0,"pressure":933.4,"uv_index":8.95,"wind_gusts":49.0,"aqi":57,"pm10":35.9,"pm2_5":13.3,"no2":1.2,"co":108.0,"o3":69.0,"so2":1.7,"mosquito_risk":0,"arthritis_risk":5,"migraine_risk":7,"frizz_risk":1,"updated_at":"2026-07-12T12:05:46.741460+05:30"},{"city":"Hospet","state":"Karnataka","latitude":15.2689,"longitude":76.3909,"temp":31.9,"humidity":47,"rain":0.0,"pressure":954.5,"uv_index":8.55,"wind_gusts":53.6,"aqi":41,"pm10":28.2,"pm2_5":10.0,"no2":1.1,"co":100.0,"o3":60.0,"so2":1.7,"mosquito_risk":0,"arthritis_risk":5,"migraine_risk":7,"frizz_risk":1,"updated_at":"2026-07-12T12:05:46.741466+05:30"},{"city":"Tirupur","state":"Tamil Nadu","latitude":11.1085,"longitude":77.3411,"temp":34.0,"humidity":47,"rain":0.0,"pressure":973.5,"uv_index":8.3,"wind_gusts":67.0,"aqi":57,"pm10":29.3,"pm2_5":12.8,"no2":1.9,"co":136.0,"o3":85.0,"so2":2.9,"mosquito_risk":0,"arthritis_risk":5,"migraine_risk":7,"frizz_risk":1,"updated_at":"2026-07-12T12:05:46.741472+05:30"},{"city":"Alappuzha","state":"Kerala","latitude":9.4981,"longitude":76.3388,"temp":29.0,"humidity":77,"rain":0.0,"pressure":1009.2,"uv_index":7.8,"wind_gusts":43.2,"aqi":44,"pm10":19.3,"pm2_5":10.2,"no2":1.9,"co":84.0,"o3":65.0,"so2":2.8,"mosquito_risk":7,"arthritis_risk":0,"migraine_risk":4,"frizz_risk":1,"updated_at":"2026-07-12T12:05:46.741479+05:30"},{"city":"Munnar","state":"Kerala","latitude":10.0889,"longitude":77.0595,"temp":22.1,"humidity":73,"rain":0.1,"pressure":858.1,"uv_index":7.95,"wind_gusts":37.8,"aqi":29,"pm10":20.8,"pm2_5":6.9,"no2":0.7,"co":90.0,"o3":56.0,"so2":1.1,"mosquito_risk":6,"arthritis_risk":5,"migraine_risk":7,"frizz_risk":1,"updated_at":"2026-07-12T12:05:46.741486+05:30"},{"city":"Silchar","state":"Assam","latitude":24.8333,"longitude":92.7789,"temp":30.2,"humidity":83,"rain":0.3,"pressure":994.8,"uv_index":6.05,"wind_gusts":28.1,"aqi":61,"pm10":40.2,"pm2_5":20.1,"no2":1.1,"co":192.0,"o3":103.0,"so2":4.1,"mosquito_risk":6,"arthritis_risk":5,"migraine_risk":7,"frizz_risk":1,"updated_at":"2026-07-12T12:05:46.741492+05:30"},{"city":"Dibrugarh","state":"Assam","latitude":27.4728,"longitude":94.912,"temp":30.9,"humidity":80,"rain":0.1,"pressure":985.1,"uv_index":1.95,"wind_gusts":23.8,"aqi":35,"pm10":4.6,"pm2_5":4.5,"no2":1.1,"co":253.0,"o3":116.0,"so2":1.7,"mosquito_risk":6,"arthritis_risk":5,"migraine_risk":3,"frizz_risk":1,"updated_at":"2026-07-12T12:05:46.741498+05:30"}]