[{"city":"Delhi","state":"Delhi","latitude":28.6139,"longitude":77.209,"temp":37.8,"humidity":21,"rain":0.0,"pressure":979.4,"uv_index":7.2,"wind_gusts":28.4,"aqi":168,"pm10":263.6,"pm2_5":38.1,"mosquito_risk":0,"arthritis_risk":5,"migraine_risk":10,"frizz_risk":0,"updated_at":"2026-04-19T17:07:14.039990+05:30"},{"city":"Mumbai","state":"Maharashtra","latitude":19.076,"longitude":72.8777,"temp":29.9,"humidity":69,"rain":0.0,"pressure":1005.7,"uv_index":7.9,"wind_gusts":25.9,"aqi":109,"pm10":33.2,"pm2_5":20.7,"mosquito_risk":7,"arthritis_risk":5,"migraine_risk":4,"frizz_risk":1,"updated_at":"2026-04-19T17:07:14.040048+05:30"},{"city":"Bangalore","state":"Karnataka","latitude":12.9716,"longitude":77.5946,"temp":34.9,"humidity":21,"rain":0.0,"pressure":909.8,"uv_index":9.6,"wind_gusts":29.2,"aqi":145,"pm10":29.7,"pm2_5":23.9,"mosquito_risk":0,"arthritis_risk":5,"migraine_risk":7,"frizz_risk":0,"updated_at":"2026-04-19T17:07:14.040064+05:30"},{"city":"Hyderabad","state":"Telangana","latitude":17.385,"longitude":78.4867,"temp":36.7,"humidity":32,"rain":0.0,"pressure":950.4,"uv_index":9.25,"wind_gusts":27.0,"aqi":130,"pm10":48.0,"pm2_5":36.6,"mosquito_risk":0,"arthritis_risk":5,"migraine_risk":10,"frizz_risk":1,"updated_at":"2026-04-19T17:07:14.040074+05:30"},{"city":"Chennai","state":"Tamil Nadu","latitude":13.0827,"longitude":80.2707,"temp":32.8,"humidity":57,"rain":0.0,"pressure":1004.4,"uv_index":9.3,"wind_gusts":36.0,"aqi":36,"pm10":12.4,"pm2_5":8.0,"mosquito_risk":0,"arthritis_risk":5,"migraine_risk":4,"frizz_risk":1,"updated_at":"2026-04-19T17:07:14.040083+05:30"},{"city":"Kolkata","state":"West Bengal","latitude":22.5726,"longitude":88.3639,"temp":31.6,"humidity":72,"rain":0.0,"pressure":1002.5,"uv_index":8.9,"wind_gusts":32.4,"aqi":80,"pm10":34.9,"pm2_5":27.1,"mosquito_risk":3,"arthritis_risk":5,"migraine_risk":4,"frizz_risk":1,"updated_at":"2026-04-19T17:07:14.040095+05:30"},{"city":"Pune","state":"Maharashtra","latitude":18.5204,"longitude":73.8567,"temp":35.1,"humidity":40,"rain":0.0,"pressure":946.6,"uv_index":8.65,"wind_gusts":37.1,"aqi":142,"pm10":41.9,"pm2_5":35.3,"mosquito_risk":0,"arthritis_risk":5,"migraine_risk":10,"frizz_risk":1,"updated_at":"2026-04-19T17:07:14.040104+05:30"},{"city":"Ahmedabad","state":"Gujarat","latitude":23.0225,"longitude":72.5714,"temp":39.7,"humidity":12,"rain":0.0,"pressure":998.9,"uv_index":8.0,"wind_gusts":25.6,"aqi":71,"pm10":25.2,"pm2_5":9.6,"mosquito_risk":0,"arthritis_risk":5,"migraine_risk":10,"frizz_risk":0,"updated_at":"2026-04-19T17:07:14.040111+05:30"},{"city":"Jaipur","state":"Rajasthan","latitude":26.9124,"longitude":75.7873,"temp":39.0,"humidity":10,"rain":0.0,"pressure":957.3,"uv_index":7.85,"wind_gusts":40.3,"aqi":107,"pm10":220.3,"pm2_5":29.7,"mosquito_risk":0,"arthritis_risk":5,"migraine_risk":10,"frizz_risk":0,"updated_at":"2026-04-19T17:07:14.040119+05:30"},{"city":"Lucknow","state":"Uttar Pradesh","latitude":26.8467,"longitude":80.9462,"temp":40.6,"humidity":14,"rain":0.0,"pressure":988.2,"uv_index":7.9,"wind_gusts":37.4,"aqi":149,"pm10":134.6,"pm2_5":27.4,"mosquito_risk":0,"arthritis_risk":5,"migraine_risk":10,"frizz_risk":0,"updated_at":"2026-04-19T17:07:14.040126+05:30"},{"city":"Kanpur","state":"Uttar Pradesh","latitude":26.4499,"longitude":80.3319,"temp":38.5,"humidity":25,"rain":0.0,"pressure":987.1,"uv_index":7.9,"wind_gusts":23.4,"aqi":194,"pm10":339.9,"pm2_5":41.3,"mosquito_risk":0,"arthritis_risk":5,"migraine_risk":10,"frizz_risk":0,"updated_at":"2026-04-19T17:07:14.040133+05:30"},{"city":"Chandigarh","state":"Chandigarh","latitude":30.7333,"longitude":76.7794,"temp":33.2,"humidity":30,"rain":0.0,"pressure":967.1,"uv_index":6.1,"wind_gusts":33.8,"aqi":110,"pm10":59.8,"pm2_5":16.1,"mosquito_risk":0,"arthritis_risk":5,"migraine_risk":7,"frizz_risk":0,"updated_at":"2026-04-19T17:07:14.040140+05:30"},{"city":"Srinagar","state":"Jammu and Kashmir","latitude":34.0837,"longitude":74.7973,"temp":16.4,"humidity":69,"rain":0.0,"pressure":843.8,"uv_index":7.25,"wind_gusts":21.2,"aqi":63,"pm10":29.0,"pm2_5":10.1,"mosquito_risk":3,"arthritis_risk":5,"migraine_risk":7,"frizz_risk":0,"updated_at":"2026-04-19T17:07:14.040147+05:30"},{"city":"Jammu","state":"Jammu and Kashmir","latitude":32.7266,"longitude":74.857,"temp":33.6,"humidity":29,"rain":0.0,"pressure":972.4,"uv_index":5.4,"wind_gusts":32.4,"aqi":61,"pm10":65.7,"pm2_5":15.9,"mosquito_risk":0,"arthritis_risk":5,"migraine_risk":3,"frizz_risk":0,"updated_at":"2026-04-19T17:07:14.040154+05:30"},{"city":"Amritsar","state":"Punjab","latitude":31.634,"longitude":74.8723,"temp":33.1,"humidity":33,"rain":0.0,"pressure":980.0,"uv_index":7.35,"wind_gusts":25.9,"aqi":75,"pm10":64.0,"pm2_5":17.9,"mosquito_risk":0,"arthritis_risk":5,"migraine_risk":7,"frizz_risk":0,"updated_at":"2026-04-19T17:07:14.040161+05:30"},{"city":"Ludhiana","state":"Punjab","latitude":30.901,"longitude":75.8573,"temp":33.9,"humidity":26,"rain":0.0,"pressure":977.8,"uv_index":7.3,"wind_gusts":42.5,"aqi":98,"pm10":82.0,"pm2_5":18.8,"mosquito_risk":0,"arthritis_risk":5,"migraine_risk":7,"frizz_risk":0,"updated_at":"2026-04-19T17:07:14.040169+05:30"},{"city":"Jalandhar","state":"Punjab","latitude":31.326,"longitude":75.5762,"temp":33.6,"humidity":30,"rain":0.0,"pressure":979.0,"uv_index":6.45,"wind_gusts":28.1,"aqi":84,"pm10":74.7,"pm2_5":17.2,"mosquito_risk":0,"arthritis_risk":5,"migraine_risk":7,"frizz_risk":0,"updated_at":"2026-04-19T17:07:14.040175+05:30"},{"city":"Dehradun","state":"Uttarakhand","latitude":30.6284,"longitude":78.0322,"temp":22.9,"humidity":40,"rain":0.0,"pressure":832.2,"uv_index":6.3,"wind_gusts":46.1,"aqi":87,"pm10":50.2,"pm2_5":11.9,"mosquito_risk":0,"arthritis_risk":5,"migraine_risk":7,"frizz_risk":0,"updated_at":"2026-04-19T17:07:14.040182+05:30"},{"city":"Shimla","state":"Himachal Pradesh","latitude":31.1048,"longitude":77.1734,"temp":22.0,"humidity":34,"rain":0.0,"pressure":787.6,"uv_index":6.75,"wind_gusts":45.7,"aqi":94,"pm10":47.7,"pm2_5":12.3,"mosquito_risk":0,"arthritis_risk":5,"migraine_risk":7,"frizz_risk":0,"updated_at":"2026-04-19T17:07:14.040188+05:30"},{"city":"Manali","state":"Himachal Pradesh","latitude":32.2396,"longitude":77.1887,"temp":16.5,"humidity":67,"rain":0.1,"pressure":823.3,"uv_index":6.95,"wind_gusts":40.7,"aqi":75,"pm10":11.9,"pm2_5":3.9,"mosquito_risk":6,"arthritis_risk":5,"migraine_risk":7,"frizz_risk":0,"updated_at":"2026-04-19T17:07:14.040195+05:30"},{"city":"Gurgaon","state":"Haryana","latitude":28.4595,"longitude":77.0266,"temp":37.5,"humidity":21,"rain":0.0,"pressure":978.0,"uv_index":7.3,"wind_gusts":25.2,"aqi":495,"pm10":1072.9,"pm2_5":102.0,"mosquito_risk":0,"arthritis_risk":5,"migraine_risk":10,"frizz_risk":0,"updated_at":"2026-04-19T17:07:14.040202+05:30"},{"city":"Noida","state":"Uttar Pradesh","latitude":28.5355,"longitude":77.391,"temp":37.9,"humidity":22,"rain":0.0,"pressure":980.9,"uv_index":7.25,"wind_gusts":26.6,"aqi":495,"pm10":1072.9,"pm2_5":102.0,"mosquito_risk":0,"arthritis_risk":5,"migraine_risk":10,"frizz_risk":0,"updated_at":"2026-04-19T17:07:14.040208+05:30"},{"city":"Ghaziabad","state":"Uttar Pradesh","latitude":28.6692,"longitude":77.4538,"temp":37.7,"humidity":22,"rain":0.0,"pressure":979.0,"uv_index":7.2,"wind_gusts":29.2,"aqi":152,"pm10":204.0,"pm2_5":35.5,"mosquito_risk":0,"arthritis_risk":5,"migraine_risk":10,"frizz_risk":0,"updated_at":"2026-04-19T17:07:14.040214+05:30"},{"city":"Faridabad","state":"Haryana","latitude":28.4089,"longitude":77.3178,"temp":37.8,"humidity":20,"rain":0.0,"pressure":980.3,"uv_index":7.3,"wind_gusts":28.8,"aqi":495,"pm10":1072.9,"pm2_5":102.0,"mosquito_risk":0,"arthritis_risk":5,"migraine_risk":10,"frizz_risk":0,"updated_at":"2026-04-19T17:07:14.040222+05:30"},{"city":"Meerut","state":"Uttar Pradesh","latitude":28.9845,"longitude":77.7064,"temp":38.1,"humidity":20,"rain":0.0,"pressure":977.7,"uv_index":6.6,"wind_gusts":31.7,"aqi":152,"pm10":204.0,"pm2_5":35.5,"mosquito_risk":0,"arthritis_risk":5,"migraine_risk":10,"frizz_risk":0,"updated_at":"2026-04-19T17:07:14.040228+05:30"},{"city":"Agra","state":"Uttar Pradesh","latitude":27.1767,"longitude":78.0081,"temp":39.9,"humidity":18,"rain":0.0,"pressure":983.4,"uv_index":7.55,"wind_gusts":27.7,"aqi":366,"pm10":767.4,"pm2_5":69.8,"mosquito_risk":0,"arthritis_risk":5,"migraine_risk":10,"frizz_risk":0,"updated_at":"2026-04-19T17:07:14.040236+05:30"},{"city":"Varanasi","state":"Uttar Pradesh","latitude":25.3176,"longitude":82.9739,"temp":41.5,"humidity":14,"rain":0.0,"pressure":991.8,"uv_index":8.45,"wind_gusts":29.5,"aqi":153,"pm10":105.2,"pm2_5":24.8,"mosquito_risk":0,"arthritis_risk":5,"migraine_risk":10,"frizz_risk":0,"updated_at":"2026-04-19T17:07:14.040242+05:30"},{"city":"Prayagraj","state":"Uttar Pradesh","latitude":25.4358,"longitude":81.8463,"temp":40.7,"humidity":16,"rain":0.0,"pressure":990.7,"uv_index":8.35,"wind_gusts":29.9,"aqi":153,"pm10":105.2,"pm2_5":23.6,"mosquito_risk":0,"arthritis_risk":5,"migraine_risk":10,"frizz_risk":0,"updated_at":"2026-04-19T17:07:14.040251+05:30"},{"city":"Gorakhpur","state":"Uttar Pradesh","latitude":26.7606,"longitude":83.3732,"temp":39.9,"humidity":23,"rain":0.0,"pressure":991.1,"uv_index":8.3,"wind_gusts":32.4,"aqi":156,"pm10":66.6,"pm2_5":28.6,"mosquito_risk":0,"arthritis_risk":5,"migraine_risk":10,"frizz_risk":0,"updated_at":"2026-04-19T17:07:14.040258+05:30"},{"city":"Bareilly","state":"Uttar Pradesh","latitude":28.367,"longitude":79.4304,"temp":38.5,"humidity":20,"rain":0.0,"pressure":982.2,"uv_index":7.35,"wind_gusts":32.8,"aqi":138,"pm10":61.5,"pm2_5":17.5,"mosquito_risk":0,"arthritis_risk":5,"migraine_risk":10,"frizz_risk":0,"updated_at":"2026-04-19T17:07:14.040264+05:30"},{"city":"Aligarh","state":"Uttar Pradesh","latitude":27.8974,"longitude":78.088,"temp":39.0,"humidity":16,"rain":0.0,"pressure":981.6,"uv_index":7.5,"wind_gusts":39.6,"aqi":208,"pm10":676.1,"pm2_5":67.3,"mosquito_risk":0,"arthritis_risk":5,"migraine_risk":10,"frizz_risk":0,"updated_at":"2026-04-19T17:07:14.040270+05:30"},{"city":"Moradabad","state":"Uttar Pradesh","latitude":28.8386,"longitude":78.7733,"temp":37.9,"humidity":20,"rain":0.0,"pressure":979.5,"uv_index":7.4,"wind_gusts":37.1,"aqi":141,"pm10":61.9,"pm2_5":18.6,"mosquito_risk":0,"arthritis_risk":5,"migraine_risk":10,"frizz_risk":0,"updated_at":"2026-04-19T17:07:14.040276+05:30"},{"city":"Saharanpur","state":"Uttar Pradesh","latitude":29.9637,"longitude":77.546,"temp":36.0,"humidity":23,"rain":0.0,"pressure":972.6,"uv_index":6.75,"wind_gusts":36.0,"aqi":134,"pm10":85.2,"pm2_5":21.9,"mosquito_risk":0,"arthritis_risk":5,"migraine_risk":10,"frizz_risk":0,"updated_at":"2026-04-19T17:07:14.040282+05:30"},{"city":"Jhansi","state":"Uttar Pradesh","latitude":25.4484,"longitude":78.5685,"temp":37.6,"humidity":24,"rain":0.0,"pressure":974.3,"uv_index":8.25,"wind_gusts":32.0,"aqi":96,"pm10":36.9,"pm2_5":10.6,"mosquito_risk":0,"arthritis_risk":5,"migraine_risk":10,"frizz_risk":0,"updated_at":"2026-04-19T17:07:17.307407+05:30"},{"city":"Surat","state":"Gujarat","latitude":21.1702,"longitude":72.8311,"temp":32.3,"humidity":45,"rain":0.0,"pressure":1004.0,"uv_index":7.75,"wind_gusts":25.2,"aqi":98,"pm10":57.6,"pm2_5":44.4,"mosquito_risk":0,"arthritis_risk":5,"migraine_risk":4,"frizz_risk":1,"updated_at":"2026-04-19T17:07:17.307446+05:30"},{"city":"Vadodara","state":"Gujarat","latitude":22.3072,"longitude":73.1812,"temp":39.5,"humidity":16,"rain":0.0,"pressure":1000.9,"uv_index":8.15,"wind_gusts":29.9,"aqi":99,"pm10":29.2,"pm2_5":16.2,"mosquito_risk":0,"arthritis_risk":5,"migraine_risk":7,"frizz_risk":0,"updated_at":"2026-04-19T17:07:17.307456+05:30"},{"city":"Rajkot","state":"Gujarat","latitude":22.3039,"longitude":70.8022,"temp":37.2,"humidity":17,"rain":0.0,"pressure":992.1,"uv_index":7.55,"wind_gusts":27.0,"aqi":74,"pm10":12.8,"pm2_5":7.7,"mosquito_risk":0,"arthritis_risk":5,"migraine_risk":10,"frizz_risk":0,"updated_at":"2026-04-19T17:07:17.307464+05:30"},{"city":"Thane","state":"Maharashtra","latitude":19.2183,"longitude":72.9781,"temp":31.5,"humidity":60,"rain":0.0,"pressure":1005.3,"uv_index":8.05,"wind_gusts":37.4,"aqi":109,"pm10":33.2,"pm2_5":20.7,"mosquito_risk":0,"arthritis_risk":5,"migraine_risk":4,"frizz_risk":1,"updated_at":"2026-04-19T17:07:17.307471+05:30"},{"city":"Nagpur","state":"Maharashtra","latitude":21.1458,"longitude":79.0882,"temp":41.0,"humidity":14,"rain":0.0,"pressure":968.3,"uv_index":8.9,"wind_gusts":21.6,"aqi":144,"pm10":26.3,"pm2_5":23.1,"mosquito_risk":0,"arthritis_risk":5,"migraine_risk":10,"frizz_risk":0,"updated_at":"2026-04-19T17:07:17.307478+05:30"},{"city":"Nashik","state":"Maharashtra","latitude":19.9975,"longitude":73.7898,"temp":34.7,"humidity":31,"rain":0.0,"pressure":944.3,"uv_index":6.8,"wind_gusts":33.5,"aqi":112,"pm10":41.4,"pm2_5":33.3,"mosquito_risk":0,"arthritis_risk":5,"migraine_risk":7,"frizz_risk":0,"updated_at":"2026-04-19T17:07:17.307486+05:30"},{"city":"Aurangabad","state":"Maharashtra","latitude":19.8762,"longitude":75.3433,"temp":33.8,"humidity":32,"rain":0.0,"pressure":942.8,"uv_index":9.05,"wind_gusts":46.8,"aqi":130,"pm10":34.7,"pm2_5":27.7,"mosquito_risk":0,"arthritis_risk":5,"migraine_risk":7,"frizz_risk":0,"updated_at":"2026-04-19T17:07:17.307493+05:30"},{"city":"Solapur","state":"Maharashtra","latitude":17.6599,"longitude":75.9064,"temp":34.8,"humidity":37,"rain":0.0,"pressure":954.8,"uv_index":8.85,"wind_gusts":52.6,"aqi":158,"pm10":53.1,"pm2_5":44.1,"mosquito_risk":0,"arthritis_risk":5,"migraine_risk":7,"frizz_risk":1,"updated_at":"2026-04-19T17:07:17.307501+05:30"},{"city":"Kolhapur","state":"Maharashtra","latitude":16.705,"longitude":74.2433,"temp":31.2,"humidity":64,"rain":0.0,"pressure":945.5,"uv_index":9.0,"wind_gusts":45.7,"aqi":154,"pm10":39.9,"pm2_5":33.8,"mosquito_risk":3,"arthritis_risk":5,"migraine_risk":7,"frizz_risk":1,"updated_at":"2026-04-19T17:07:17.307508+05:30"},{"city":"Goa","state":"Goa","latitude":15.2993,"longitude":74.124,"temp":30.9,"humidity":68,"rain":0.0,"pressure":995.7,"uv_index":9.0,"wind_gusts":28.8,"aqi":86,"pm10":49.0,"pm2_5":24.6,"mosquito_risk":3,"arthritis_risk":5,"migraine_risk":7,"frizz_risk":1,"updated_at":"2026-04-19T17:07:17.307515+05:30"},{"city":"Jodhpur","state":"Rajasthan","latitude":26.2389,"longitude":73.0243,"temp":38.6,"humidity":14,"rain":0.0,"pressure":980.4,"uv_index":8.15,"wind_gusts":28.4,"aqi":100,"pm10":111.8,"pm2_5":17.5,"mosquito_risk":0,"arthritis_risk":5,"migraine_risk":10,"frizz_risk":0,"updated_at":"2026-04-19T17:07:17.307521+05:30"},{"city":"Udaipur","state":"Rajasthan","latitude":24.5854,"longitude":73.7125,"temp":36.8,"humidity":15,"rain":0.0,"pressure":945.0,"uv_index":8.65,"wind_gusts":40.3,"aqi":79,"pm10":15.5,"pm2_5":8.7,"mosquito_risk":0,"arthritis_risk":5,"migraine_risk":10,"frizz_risk":0,"updated_at":"2026-04-19T17:07:17.307528+05:30"},{"city":"Kota","state":"Rajasthan","latitude":25.2138,"longitude":75.8648,"temp":41.5,"humidity":11,"rain":0.0,"pressure":974.7,"uv_index":8.2,"wind_gusts":36.7,"aqi":82,"pm10":21.0,"pm2_5":10.0,"mosquito_risk":0,"arthritis_risk":5,"migraine_risk":10,"frizz_risk":0,"updated_at":"2026-04-19T17:07:17.307534+05:30"},{"city":"Bikaner","state":"Rajasthan","latitude":28.0229,"longitude":73.3119,"temp":38.9,"humidity":15,"rain":0.0,"pressure":979.1,"uv_index":7.9,"wind_gusts":25.2,"aqi":113,"pm10":109.9,"pm2_5":18.4,"mosquito_risk":0,"arthritis_risk":5,"migraine_risk":10,"frizz_risk":0,"updated_at":"2026-04-19T17:07:17.307541+05:30"},{"city":"Ajmer","state":"Rajasthan","latitude":26.4499,"longitude":74.6399,"temp":37.3,"humidity":11,"rain":0.0,"pressure":953.0,"uv_index":7.6,"wind_gusts":32.4,"aqi":87,"pm10":59.0,"pm2_5":14.5,"mosquito_risk":0,"arthritis_risk":5,"migraine_risk":10,"frizz_risk":0,"updated_at":"2026-04-19T17:07:17.307547+05:30"},{"city":"Gwalior","state":"Madhya Pradesh","latitude":26.2183,"longitude":78.1828,"temp":39.7,"humidity":16,"rain":0.0,"pressure":979.4,"uv_index":7.45,"wind_gusts":29.9,"aqi":106,"pm10":38.5,"pm2_5":12.1,"mosquito_risk":0,"arthritis_risk":5,"migraine_risk":10,"frizz_risk":0,"updated_at":"2026-04-19T17:07:17.307553+05:30"},{"city":"Indore","state":"Madhya Pradesh","latitude":22.7196,"longitude":75.8577,"temp":37.7,"humidity":18,"rain":0.0,"pressure":946.1,"uv_index":8.6,"wind_gusts":31.0,"aqi":91,"pm10":20.4,"pm2_5":14.8,"mosquito_risk":0,"arthritis_risk":5,"migraine_risk":10,"frizz_risk":0,"updated_at":"2026-04-19T17:07:17.307559+05:30"},{"city":"Bhopal","state":"Madhya Pradesh","latitude":23.2599,"longitude":77.4126,"temp":38.8,"humidity":15,"rain":0.0,"pressure":951.2,"uv_index":8.6,"wind_gusts":34.9,"aqi":121,"pm10":34.9,"pm2_5":19.2,"mosquito_risk":0,"arthritis_risk":5,"migraine_risk":10,"frizz_risk":0,"updated_at":"2026-04-19T17:07:17.307566+05:30"},{"city":"Jabalpur","state":"Madhya Pradesh","latitude":23.1815,"longitude":79.9864,"temp":40.0,"humidity":19,"rain":0.0,"pressure":957.5,"uv_index":8.75,"wind_gusts":21.2,"aqi":123,"pm10":27.5,"pm2_5":14.5,"mosquito_risk":0,"arthritis_risk":5,"migraine_risk":10,"frizz_risk":0,"updated_at":"2026-04-19T17:07:17.307573+05:30"},{"city":"Ujjain","state":"Madhya Pradesh","latitude":23.1765,"longitude":75.7885,"temp":38.3,"humidity":17,"rain":0.0,"pressure":951.7,"uv_index":8.5,"wind_gusts":33.5,"aqi":82,"pm10":22.9,"pm2_5":17.4,"mosquito_risk":0,"arthritis_risk":5,"migraine_risk":10,"frizz_risk":0,"updated_at":"2026-04-19T17:07:17.307579+05:30"},{"city":"Visakhapatnam","state":"Andhra Pradesh","latitude":17.6868,"longitude":83.2185,"temp":31.0,"humidity":69,"rain":0.0,"pressure":1001.4,"uv_index":9.15,"wind_gusts":36.7,"aqi":64,"pm10":23.2,"pm2_5":16.0,"mosquito_risk":3,"arthritis_risk":5,"migraine_risk":4,"frizz_risk":1,"updated_at":"2026-04-19T17:07:17.307586+05:30"},{"city":"Vijayawada","state":"Andhra Pradesh","latitude":16.5062,"longitude":80.648,"temp":36.2,"humidity":40,"rain":0.0,"pressure":998.7,"uv_index":9.25,"wind_gusts":31.0,"aqi":57,"pm10":23.2,"pm2_5":16.1,"mosquito_risk":0,"arthritis_risk":5,"migraine_risk":10,"frizz_risk":1,"updated_at":"2026-04-19T17:07:17.307592+05:30"},{"city":"Guntur","state":"Andhra Pradesh","latitude":16.3067,"longitude":80.4365,"temp":34.5,"humidity":47,"rain":0.0,"pressure":1000.3,"uv_index":9.25,"wind_gusts":34.6,"aqi":61,"pm10":27.5,"pm2_5":20.0,"mosquito_risk":0,"arthritis_risk":5,"migraine_risk":4,"frizz_risk":1,"updated_at":"2026-04-19T17:07:17.307598+05:30"},{"city":"Nellore","state":"Andhra Pradesh","latitude":14.4426,"longitude":79.9865,"temp":33.9,"humidity":60,"rain":0.0,"pressure":1002.1,"uv_index":9.25,"wind_gusts":33.8,"aqi":58,"pm10":21.9,"pm2_5":16.1,"mosquito_risk":0,"arthritis_risk":5,"migraine_risk":4,"frizz_risk":1,"updated_at":"2026-04-19T17:07:17.307606+05:30"},{"city":"Kurnool","state":"Andhra Pradesh","latitude":15.8281,"longitude":78.0373,"temp":40.8,"humidity":19,"rain":0.0,"pressure":972.1,"uv_index":9.2,"wind_gusts":32.4,"aqi":124,"pm10":47.7,"pm2_5":36.6,"mosquito_risk":0,"arthritis_risk":5,"migraine_risk":10,"frizz_risk":0,"updated_at":"2026-04-19T17:07:17.307613+05:30"},{"city":"Kakinada","state":"Andhra Pradesh","latitude":16.9891,"longitude":82.2475,"temp":34.3,"humidity":50,"rain":0.0,"pressure":1004.5,"uv_index":9.2,"wind_gusts":32.0,"aqi":51,"pm10":17.9,"pm2_5":10.1,"mosquito_risk":0,"arthritis_risk":5,"migraine_risk":4,"frizz_risk":1,"updated_at":"2026-04-19T17:07:17.307620+05:30"},{"city":"Tirupati","state":"Andhra Pradesh","latitude":13.6288,"longitude":79.4192,"temp":36.5,"humidity":32,"rain":0.0,"pressure":988.3,"uv_index":9.35,"wind_gusts":34.6,"aqi":63,"pm10":26.4,"pm2_5":20.6,"mosquito_risk":0,"arthritis_risk":5,"migraine_risk":10,"frizz_risk":1,"updated_at":"2026-04-19T17:07:17.307626+05:30"},{"city":"Warangal","state":"Telangana","latitude":17.9689,"longitude":79.5941,"temp":39.1,"humidity":31,"rain":0.0,"pressure":974.5,"uv_index":9.15,"wind_gusts":30.6,"aqi":92,"pm10":46.1,"pm2_5":36.2,"mosquito_risk":0,"arthritis_risk":5,"migraine_risk":10,"frizz_risk":1,"updated_at":"2026-04-19T17:07:17.307633+05:30"},{"city":"Nizamabad","state":"Telangana","latitude":18.6725,"longitude":78.0941,"temp":40.5,"humidity":13,"rain":0.0,"pressure":960.6,"uv_index":9.0,"wind_gusts":41.0,"aqi":158,"pm10":40.2,"pm2_5":31.2,"mosquito_risk":0,"arthritis_risk":5,"migraine_risk":10,"frizz_risk":0,"updated_at":"2026-04-19T17:07:17.307639+05:30"},{"city":"Mysore","state":"Karnataka","latitude":12.2958,"longitude":76.6396,"temp":36.1,"humidity":20,"rain":0.0,"pressure":925.9,"uv_index":9.5,"wind_gusts":43.6,"aqi":125,"pm10":29.6,"pm2_5":23.2,"mosquito_risk":0,"arthritis_risk":5,"migraine_risk":10,"frizz_risk":0,"updated_at":"2026-04-19T17:07:17.307645+05:30"},{"city":"Mangalore","state":"Karnataka","latitude":12.9141,"longitude":74.856,"temp":29.8,"humidity":82,"rain":0.0,"pressure":1004.0,"uv_index":9.1,"wind_gusts":22.3,"aqi":70,"pm10":39.0,"pm2_5":23.2,"mosquito_risk":7,"arthritis_risk":5,"migraine_risk":4,"frizz_risk":1,"updated_at":"2026-04-19T17:07:17.307651+05:30"},{"city":"Hubli-Dharwad","state":"Karnataka","latitude":15.3647,"longitude":75.124,"temp":32.9,"humidity":50,"rain":0.0,"pressure":938.8,"uv_index":9.2,"wind_gusts":32.0,"aqi":119,"pm10":35.7,"pm2_5":29.4,"mosquito_risk":0,"arthritis_risk":5,"migraine_risk":7,"frizz_risk":1,"updated_at":"2026-04-19T17:07:17.307658+05:30"},{"city":"Belgaum","state":"Karnataka","latitude":15.8497,"longitude":74.4977,"temp":27.3,"humidity":73,"rain":0.0,"pressure":924.3,"uv_index":9.25,"wind_gusts":32.4,"aqi":129,"pm10":39.2,"pm2_5":30.0,"mosquito_risk":7,"arthritis_risk":5,"migraine_risk":7,"frizz_risk":1,"updated_at":"2026-04-19T17:07:20.573513+05:30"},{"city":"Coimbatore","state":"Tamil Nadu","latitude":11.0168,"longitude":76.9558,"temp":34.4,"humidity":40,"rain":0.0,"pressure":958.8,"uv_index":9.4,"wind_gusts":55.4,"aqi":125,"pm10":32.6,"pm2_5":26.2,"mosquito_risk":0,"arthritis_risk":5,"migraine_risk":7,"frizz_risk":1,"updated_at":"2026-04-19T17:07:20.573543+05:30"},{"city":"Madurai","state":"Tamil Nadu","latitude":9.9252,"longitude":78.1198,"temp":38.5,"humidity":25,"rain":0.0,"pressure":989.0,"uv_index":9.3,"wind_gusts":41.8,"aqi":99,"pm10":19.5,"pm2_5":14.5,"mosquito_risk":0,"arthritis_risk":5,"migraine_risk":10,"frizz_risk":0,"updated_at":"2026-04-19T17:07:20.573553+05:30"},{"city":"Trichy","state":"Tamil Nadu","latitude":10.7905,"longitude":78.7047,"temp":37.4,"humidity":30,"rain":0.0,"pressure":996.0,"uv_index":9.3,"wind_gusts":28.4,"aqi":61,"pm10":17.9,"pm2_5":12.7,"mosquito_risk":0,"arthritis_risk":5,"migraine_risk":10,"frizz_risk":1,"updated_at":"2026-04-19T17:07:20.573562+05:30"},{"city":"Salem","state":"Tamil Nadu","latitude":11.6643,"longitude":78.146,"temp":37.7,"humidity":30,"rain":0.0,"pressure":973.8,"uv_index":9.35,"wind_gusts":21.6,"aqi":93,"pm10":25.0,"pm2_5":17.9,"mosquito_risk":0,"arthritis_risk":5,"migraine_risk":10,"frizz_risk":1,"updated_at":"2026-04-19T17:07:20.573569+05:30"},{"city":"Tirunelveli","state":"Tamil Nadu","latitude":8.7139,"longitude":77.7567,"temp":34.8,"humidity":47,"rain":0.0,"pressure":999.7,"uv_index":9.25,"wind_gusts":51.5,"aqi":91,"pm10":20.3,"pm2_5":15.7,"mosquito_risk":0,"arthritis_risk":5,"migraine_risk":7,"frizz_risk":1,"updated_at":"2026-04-19T17:07:20.573576+05:30"},{"city":"Vellore","state":"Tamil Nadu","latitude":12.9165,"longitude":79.1325,"temp":35.6,"humidity":34,"rain":0.0,"pressure":981.6,"uv_index":9.4,"wind_gusts":29.9,"aqi":82,"pm10":24.4,"pm2_5":18.6,"mosquito_risk":0,"arthritis_risk":5,"migraine_risk":10,"frizz_risk":1,"updated_at":"2026-04-19T17:07:20.573583+05:30"},{"city":"Erode","state":"Tamil Nadu","latitude":11.341,"longitude":77.7172,"temp":39.2,"humidity":23,"rain":0.0,"pressure":985.0,"uv_index":9.35,"wind_gusts":28.4,"aqi":113,"pm10":26.0,"pm2_5":19.1,"mosquito_risk":0,"arthritis_risk":5,"migraine_risk":10,"frizz_risk":0,"updated_at":"2026-04-19T17:07:20.573590+05:30"},{"city":"Kochi","state":"Kerala","latitude":9.9312,"longitude":76.2673,"temp":30.2,"humidity":79,"rain":0.0,"pressure":1005.5,"uv_index":9.15,"wind_gusts":25.2,"aqi":74,"pm10":18.2,"pm2_5":14.1,"mosquito_risk":3,"arthritis_risk":5,"migraine_risk":4,"frizz_risk":1,"updated_at":"2026-04-19T17:07:20.573597+05:30"},{"city":"Thiruvananthapuram","state":"Kerala","latitude":8.5241,"longitude":76.9366,"temp":29.5,"humidity":79,"rain":0.0,"pressure":1005.5,"uv_index":9.1,"wind_gusts":27.4,"aqi":68,"pm10":24.7,"pm2_5":16.8,"mosquito_risk":7,"arthritis_risk":5,"migraine_risk":4,"frizz_risk":1,"updated_at":"2026-04-19T17:07:20.573604+05:30"},{"city":"Kozhikode","state":"Kerala","latitude":11.2588,"longitude":75.7804,"temp":31.1,"humidity":73,"rain":0.0,"pressure":1005.0,"uv_index":9.1,"wind_gusts":31.3,"aqi":63,"pm10":27.1,"pm2_5":17.1,"mosquito_risk":3,"arthritis_risk":5,"migraine_risk":4,"frizz_risk":1,"updated_at":"2026-04-19T17:07:20.573611+05:30"},{"city":"Thrissur","state":"Kerala","latitude":10.5276,"longitude":76.2144,"temp":32.4,"humidity":67,"rain":0.0,"pressure":1004.1,"uv_index":9.15,"wind_gusts":33.8,"aqi":68,"pm10":22.8,"pm2_5":16.8,"mosquito_risk":3,"arthritis_risk":5,"migraine_risk":4,"frizz_risk":1,"updated_at":"2026-04-19T17:07:20.573619+05:30"},{"city":"Kannur","state":"Kerala","latitude":11.8745,"longitude":75.3704,"temp":31.7,"humidity":66,"rain":0.0,"pressure":1004.7,"uv_index":9.1,"wind_gusts":34.2,"aqi":69,"pm10":35.6,"pm2_5":21.9,"mosquito_risk":3,"arthritis_risk":5,"migraine_risk":4,"frizz_risk":1,"updated_at":"2026-04-19T17:07:20.573625+05:30"},{"city":"Patna","state":"Bihar","latitude":25.5941,"longitude":85.1376,"temp":37.7,"humidity":38,"rain":0.0,"pressure":994.7,"uv_index":8.6,"wind_gusts":27.0,"aqi":166,"pm10":93.8,"pm2_5":37.1,"mosquito_risk":0,"arthritis_risk":5,"migraine_risk":10,"frizz_risk":1,"updated_at":"2026-04-19T17:07:20.573632+05:30"},{"city":"Gaya","state":"Bihar","latitude":24.7914,"longitude":85.0002,"temp":40.1,"humidity":15,"rain":0.0,"pressure":988.1,"uv_index":8.7,"wind_gusts":34.9,"aqi":165,"pm10":99.9,"pm2_5":26.4,"mosquito_risk":0,"arthritis_risk":5,"migraine_risk":10,"frizz_risk":0,"updated_at":"2026-04-19T17:07:20.573638+05:30"},{"city":"Muzaffarpur","state":"Bihar","latitude":26.1209,"longitude":85.3647,"temp":35.4,"humidity":45,"rain":0.0,"pressure":995.2,"uv_index":8.6,"wind_gusts":29.5,"aqi":158,"pm10":82.2,"pm2_5":42.7,"mosquito_risk":0,"arthritis_risk":5,"migraine_risk":10,"frizz_risk":1,"updated_at":"2026-04-19T17:07:20.573645+05:30"},{"city":"Bhagalpur","state":"Bihar","latitude":25.2425,"longitude":87.0117,"temp":33.7,"humidity":57,"rain":0.0,"pressure":996.2,"uv_index":8.65,"wind_gusts":27.0,"aqi":165,"pm10":69.2,"pm2_5":49.5,"mosquito_risk":0,"arthritis_risk":5,"migraine_risk":7,"frizz_risk":1,"updated_at":"2026-04-19T17:07:20.573651+05:30"},{"city":"Ranchi","state":"Jharkhand","latitude":23.3441,"longitude":85.3096,"temp":36.9,"humidity":14,"rain":0.0,"pressure":935.0,"uv_index":9.2,"wind_gusts":45.0,"aqi":184,"pm10":45.3,"pm2_5":21.4,"mosquito_risk":0,"arthritis_risk":5,"migraine_risk":10,"frizz_risk":0,"updated_at":"2026-04-19T17:07:20.573658+05:30"},{"city":"Jamshedpur","state":"Jharkhand","latitude":22.8046,"longitude":86.2029,"temp":38.7,"humidity":30,"rain":0.0,"pressure":985.2,"uv_index":9.0,"wind_gusts":37.1,"aqi":205,"pm10":71.5,"pm2_5":53.1,"mosquito_risk":0,"arthritis_risk":5,"migraine_risk":10,"frizz_risk":1,"updated_at":"2026-04-19T17:07:20.573664+05:30"},{"city":"Dhanbad","state":"Jharkhand","latitude":23.7957,"longitude":86.4304,"temp":41.0,"humidity":13,"rain":0.0,"pressure":974.5,"uv_index":8.95,"wind_gusts":33.8,"aqi":166,"pm10":71.0,"pm2_5":27.4,"mosquito_risk":0,"arthritis_risk":5,"migraine_risk":10,"frizz_risk":0,"updated_at":"2026-04-19T17:07:20.573671+05:30"},{"city":"Bokaro","state":"Jharkhand","latitude":23.6693,"longitude":86.1511,"temp":40.6,"humidity":14,"rain":0.0,"pressure":978.4,"uv_index":8.95,"wind_gusts":42.1,"aqi":160,"pm10":67.8,"pm2_5":26.0,"mosquito_risk":0,"arthritis_risk":5,"migraine_risk":10,"frizz_risk":0,"updated_at":"2026-04-19T17:07:20.573678+05:30"},{"city":"Bhubaneswar","state":"Odisha","latitude":20.2961,"longitude":85.8245,"temp":30.0,"humidity":77,"rain":0.0,"pressure":999.6,"uv_index":9.1,"wind_gusts":34.2,"aqi":68,"pm10":29.9,"pm2_5":23.0,"mosquito_risk":7,"arthritis_risk":5,"migraine_risk":7,"frizz_risk":1,"updated_at":"2026-04-19T17:07:20.573685+05:30"},{"city":"Cuttack","state":"Odisha","latitude":20.4625,"longitude":85.8828,"temp":32.1,"humidity":68,"rain":0.0,"pressure":1001.3,"uv_index":9.15,"wind_gusts":34.6,"aqi":68,"pm10":29.9,"pm2_5":23.0,"mosquito_risk":3,"arthritis_risk":5,"migraine_risk":4,"frizz_risk":1,"updated_at":"2026-04-19T17:07:20.573691+05:30"},{"city":"Rourkela","state":"Odisha","latitude":22.2604,"longitude":84.8536,"temp":38.6,"humidity":33,"rain":0.0,"pressure":980.1,"uv_index":8.9,"wind_gusts":43.2,"aqi":209,"pm10":70.3,"pm2_5":48.9,"mosquito_risk":0,"arthritis_risk":5,"migraine_risk":10,"frizz_risk":1,"updated_at":"2026-04-19T17:07:20.573697+05:30"},{"city":"Raipur","state":"Chhattisgarh","latitude":21.2514,"longitude":81.6296,"temp":41.4,"humidity":16,"rain":0.0,"pressure":969.7,"uv_index":8.95,"wind_gusts":33.8,"aqi":185,"pm10":30.2,"pm2_5":26.3,"mosquito_risk":0,"arthritis_risk":5,"migraine_risk":10,"frizz_risk":0,"updated_at":"2026-04-19T17:07:20.573703+05:30"},{"city":"Bhilai","state":"Chhattisgarh","latitude":21.1938,"longitude":81.3509,"temp":40.8,"humidity":19,"rain":0.0,"pressure":970.1,"uv_index":9.0,"wind_gusts":31.7,"aqi":157,"pm10":29.0,"pm2_5":24.6,"mosquito_risk":0,"arthritis_risk":5,"migraine_risk":10,"frizz_risk":0,"updated_at":"2026-04-19T17:07:20.573709+05:30"},{"city":"Guwahati","state":"Assam","latitude":26.1158,"longitude":91.7086,"temp":28.0,"humidity":79,"rain":0.0,"pressure":998.7,"uv_index":8.55,"wind_gusts":29.2,"aqi":123,"pm10":48.7,"pm2_5":36.2,"mosquito_risk":7,"arthritis_risk":5,"migraine_risk":7,"frizz_risk":1,"updated_at":"2026-04-19T17:07:20.573715+05:30"},{"city":"Agartala","state":"Tripura","latitude":23.8315,"longitude":91.2868,"temp":31.6,"humidity":68,"rain":0.0,"pressure":1002.6,"uv_index":8.75,"wind_gusts":25.2,"aqi":122,"pm10":42.0,"pm2_5":31.0,"mosquito_risk":3,"arthritis_risk":5,"migraine_risk":4,"frizz_risk":1,"updated_at":"2026-04-19T17:07:20.573721+05:30"},{"city":"Shillong","state":"Meghalaya","latitude":25.5788,"longitude":91.8933,"temp":18.4,"humidity":78,"rain":0.0,"pressure":855.1,"uv_index":8.75,"wind_gusts":48.2,"aqi":115,"pm10":28.8,"pm2_5":20.1,"mosquito_risk":3,"arthritis_risk":5,"migraine_risk":7,"frizz_risk":0,"updated_at":"2026-04-19T17:07:20.573728+05:30"},{"city":"Imphal","state":"Manipur","latitude":24.817,"longitude":93.9368,"temp":21.5,"humidity":80,"rain":0.0,"pressure":921.6,"uv_index":8.65,"wind_gusts":61.2,"aqi":150,"pm10":55.9,"pm2_5":40.2,"mosquito_risk":3,"arthritis_risk":5,"migraine_risk":7,"frizz_risk":1,"updated_at":"2026-04-19T17:07:20.573734+05:30"},{"city":"Aizawl","state":"Mizoram","latitude":23.7271,"longitude":92.7176,"temp":23.4,"humidity":73,"rain":0.0,"pressure":891.8,"uv_index":8.3,"wind_gusts":40.0,"aqi":150,"pm10":81.3,"pm2_5":65.9,"mosquito_risk":3,"arthritis_risk":5,"migraine_risk":7,"frizz_risk":1,"updated_at":"2026-04-19T17:07:20.573741+05:30"},{"city":"Kohima","state":"Nagaland","latitude":25.6701,"longitude":94.1077,"temp":18.7,"humidity":89,"rain":0.0,"pressure":853.7,"uv_index":8.85,"wind_gusts":50.8,"aqi":120,"pm10":55.3,"pm2_5":40.9,"mosquito_risk":3,"arthritis_risk":10,"migraine_risk":7,"frizz_risk":1,"updated_at":"2026-04-19T17:07:20.573747+05:30"},{"city":"Gangtok","state":"Sikkim","latitude":27.3314,"longitude":88.6138,"temp":19.0,"humidity":83,"rain":0.0,"pressure":836.7,"uv_index":8.85,"wind_gusts":23.4,"aqi":104,"pm10":12.9,"pm2_5":10.4,"mosquito_risk":3,"arthritis_risk":10,"migraine_risk":7,"frizz_risk":1,"updated_at":"2026-04-19T17:07:20.573754+05:30"},{"city":"Siliguri","state":"West Bengal","latitude":26.7271,"longitude":88.3953,"temp":23.6,"humidity":87,"rain":0.0,"pressure":991.5,"uv_index":8.4,"wind_gusts":21.2,"aqi":131,"pm10":30.5,"pm2_5":23.2,"mosquito_risk":3,"arthritis_risk":5,"migraine_risk":7,"frizz_risk":1,"updated_at":"2026-04-19T17:07:23.841930+05:30"},{"city":"Durgapur","state":"West Bengal","latitude":23.5204,"longitude":87.3119,"temp":30.8,"humidity":74,"rain":0.0,"pressure":990.6,"uv_index":8.9,"wind_gusts":28.1,"aqi":198,"pm10":89.2,"pm2_5":55.6,"mosquito_risk":3,"arthritis_risk":5,"migraine_risk":7,"frizz_risk":1,"updated_at":"2026-04-19T17:07:23.841961+05:30"},{"city":"Asansol","state":"West Bengal","latitude":23.6739,"longitude":86.9524,"temp":32.6,"humidity":65,"rain":0.0,"pressure":989.1,"uv_index":8.95,"wind_gusts":33.8,"aqi":188,"pm10":74.3,"pm2_5":33.2,"mosquito_risk":3,"arthritis_risk":5,"migraine_risk":7,"frizz_risk":1,"updated_at":"2026-04-19T17:07:23.841971+05:30"},{"city":"Pondicherry","state":"Puducherry","latitude":11.9139,"longitude":79.8145,"temp":33.7,"humidity":62,"rain":0.0,"pressure":1005.3,"uv_index":9.25,"wind_gusts":31.0,"aqi":36,"pm10":12.3,"pm2_5":8.3,"mosquito_risk":3,"arthritis_risk":5,"migraine_risk":4,"frizz_risk":1,"updated_at":"2026-04-19T17:07:23.841979+05:30"},{"city":"Port Blair","state":"Andaman and Nicobar Islands","latitude":11.6234,"longitude":92.7265,"temp":29.8,"humidity":72,"rain":0.0,"pressure":1006.1,"uv_index":9.15,"wind_gusts":13.0,"aqi":53,"pm10":14.5,"pm2_5":12.3,"mosquito_risk":7,"arthritis_risk":5,"migraine_risk":4,"frizz_risk":1,"updated_at":"2026-04-19T17:07:23.841987+05:30"},{"city":"Haridwar","state":"Uttarakhand","latitude":29.9457,"longitude":78.1642,"temp":36.3,"humidity":26,"rain":0.0,"pressure":971.0,"uv_index":6.3,"wind_gusts":28.8,"aqi":116,"pm10":53.1,"pm2_5":16.1,"mosquito_risk":0,"arthritis_risk":5,"migraine_risk":10,"frizz_risk":0,"updated_at":"2026-04-19T17:07:23.841995+05:30"},{"city":"Rishikesh","state":"Uttarakhand","latitude":30.0869,"longitude":78.2676,"temp":34.2,"humidity":31,"rain":0.0,"pressure":964.2,"uv_index":6.65,"wind_gusts":31.7,"aqi":100,"pm10":50.4,"pm2_5":13.9,"mosquito_risk":0,"arthritis_risk":5,"migraine_risk":7,"frizz_risk":0,"updated_at":"2026-04-19T17:07:23.842022+05:30"},{"city":"Nainital","state":"Uttarakhand","latitude":29.3919,"longitude":79.4542,"temp":28.4,"humidity":22,"rain":0.0,"pressure":808.5,"uv_index":7.85,"wind_gusts":70.9,"aqi":117,"pm10":35.7,"pm2_5":10.9,"mosquito_risk":4,"arthritis_risk":5,"migraine_risk":7,"frizz_risk":0,"updated_at":"2026-04-19T17:07:23.842032+05:30"},{"city":"Mussoorie","state":"Uttarakhand","latitude":30.4599,"longitude":78.0664,"temp":25.6,"humidity":27,"rain":0.0,"pressure":805.1,"uv_index":6.35,"wind_gusts":45.7,"aqi":109,"pm10":51.0,"pm2_5":14.2,"mosquito_risk":4,"arthritis_risk":5,"migraine_risk":7,"frizz_risk":0,"updated_at":"2026-04-19T17:07:23.842040+05:30"},{"city":"Dharamshala","state":"Himachal Pradesh","latitude":32.219,"longitude":76.3234,"temp":23.7,"humidity":43,"rain":0.0,"pressure":870.7,"uv_index":6.1,"wind_gusts":38.5,"aqi":71,"pm10":27.4,"pm2_5":6.7,"mosquito_risk":0,"arthritis_risk":5,"migraine_risk":7,"frizz_risk":0,"updated_at":"2026-04-19T17:07:23.842048+05:30"},{"city":"Dalhousie","state":"Himachal Pradesh","latitude":32.5387,"longitude":75.971,"temp":21.7,"humidity":39,"rain":0.0,"pressure":806.1,"uv_index":6.7,"wind_gusts":35.3,"aqi":70,"pm10":35.2,"pm2_5":9.0,"mosquito_risk":0,"arthritis_risk":5,"migraine_risk":7,"frizz_risk":0,"updated_at":"2026-04-19T17:07:23.842060+05:30"},{"city":"Patiala","state":"Punjab","latitude":30.3398,"longitude":76.3869,"temp":33.7,"humidity":30,"rain":0.0,"pressure":976.7,"uv_index":6.8,"wind_gusts":45.0,"aqi":167,"pm10":473.1,"pm2_5":48.9,"mosquito_risk":0,"arthritis_risk":5,"migraine_risk":7,"frizz_risk":0,"updated_at":"2026-04-19T17:07:23.842069+05:30"},{"city":"Bhatinda","state":"Punjab","latitude":30.211,"longitude":74.9455,"temp":35.7,"humidity":24,"rain":0.0,"pressure":982.3,"uv_index":7.85,"wind_gusts":41.0,"aqi":112,"pm10":73.3,"pm2_5":18.5,"mosquito_risk":0,"arthritis_risk":5,"migraine_risk":10,"frizz_risk":0,"updated_at":"2026-04-19T17:07:23.842076+05:30"},{"city":"Rohtak","state":"Haryana","latitude":28.8955,"longitude":76.6066,"temp":36.5,"humidity":23,"rain":0.0,"pressure":978.6,"uv_index":7.0,"wind_gusts":28.4,"aqi":193,"pm10":346.5,"pm2_5":40.0,"mosquito_risk":0,"arthritis_risk":5,"migraine_risk":10,"frizz_risk":0,"updated_at":"2026-04-19T17:07:23.842083+05:30"},{"city":"Panipat","state":"Haryana","latitude":29.3909,"longitude":76.9635,"temp":37.7,"humidity":19,"rain":0.0,"pressure":977.0,"uv_index":6.3,"wind_gusts":51.5,"aqi":392,"pm10":540.2,"pm2_5":57.0,"mosquito_risk":0,"arthritis_risk":5,"migraine_risk":10,"frizz_risk":0,"updated_at":"2026-04-19T17:07:23.842089+05:30"},{"city":"Mathura","state":"Uttar Pradesh","latitude":27.4924,"longitude":77.6737,"temp":39.2,"humidity":18,"rain":0.0,"pressure":982.8,"uv_index":7.65,"wind_gusts":44.3,"aqi":307,"pm10":527.1,"pm2_5":50.4,"mosquito_risk":0,"arthritis_risk":5,"migraine_risk":10,"frizz_risk":0,"updated_at":"2026-04-19T17:07:23.842096+05:30"},{"city":"Vrindavan","state":"Uttar Pradesh","latitude":27.5823,"longitude":77.7027,"temp":38.9,"humidity":18,"rain":0.0,"pressure":983.5,"uv_index":7.65,"wind_gusts":43.9,"aqi":307,"pm10":527.1,"pm2_5":50.4,"mosquito_risk":0,"arthritis_risk":5,"migraine_risk":10,"frizz_risk":0,"updated_at":"2026-04-19T17:07:23.842103+05:30"},{"city":"Ayodhya","state":"Uttar Pradesh","latitude":26.7922,"longitude":82.1998,"temp":41.2,"humidity":15,"rain":0.0,"pressure":989.4,"uv_index":8.05,"wind_gusts":40.0,"aqi":156,"pm10":86.1,"pm2_5":25.1,"mosquito_risk":0,"arthritis_risk":5,"migraine_risk":10,"frizz_risk":0,"updated_at":"2026-04-19T17:07:23.842109+05:30"},{"city":"Ratlam","state":"Madhya Pradesh","latitude":23.3315,"longitude":75.0367,"temp":36.2,"humidity":27,"rain":0.0,"pressure":952.7,"uv_index":8.45,"wind_gusts":27.4,"aqi":91,"pm10":23.6,"pm2_5":18.0,"mosquito_risk":0,"arthritis_risk":5,"migraine_risk":10,"frizz_risk":0,"updated_at":"2026-04-19T17:07:23.842119+05:30"},{"city":"Sagar","state":"Madhya Pradesh","latitude":23.8388,"longitude":78.7378,"temp":39.0,"humidity":16,"rain":0.0,"pressure":947.3,"uv_index":8.6,"wind_gusts":38.2,"aqi":121,"pm10":29.5,"pm2_5":14.1,"mosquito_risk":0,"arthritis_risk":5,"migraine_risk":10,"frizz_risk":0,"updated_at":"2026-04-19T17:07:23.842128+05:30"},{"city":"Satna","state":"Madhya Pradesh","latitude":24.6005,"longitude":80.8322,"temp":40.6,"humidity":13,"rain":0.0,"pressure":967.3,"uv_index":8.65,"wind_gusts":32.8,"aqi":135,"pm10":61.7,"pm2_5":16.0,"mosquito_risk":0,"arthritis_risk":5,"migraine_risk":10,"frizz_risk":0,"updated_at":"2026-04-19T17:07:23.842134+05:30"},{"city":"Akola","state":"Maharashtra","latitude":20.7002,"longitude":77.0082,"temp":40.0,"humidity":19,"rain":0.0,"pressure":971.2,"uv_index":8.85,"wind_gusts":32.0,"aqi":109,"pm10":37.1,"pm2_5":28.8,"mosquito_risk":0,"arthritis_risk":5,"migraine_risk":10,"frizz_risk":0,"updated_at":"2026-04-19T17:07:23.842141+05:30"},{"city":"Amravati","state":"Maharashtra","latitude":20.9374,"longitude":77.7796,"temp":39.6,"humidity":20,"rain":0.0,"pressure":963.2,"uv_index":8.85,"wind_gusts":15.8,"aqi":110,"pm10":28.2,"pm2_5":21.1,"mosquito_risk":0,"arthritis_risk":5,"migraine_risk":10,"frizz_risk":0,"updated_at":"2026-04-19T17:07:23.842148+05:30"},{"city":"Latur","state":"Maharashtra","latitude":18.4088,"longitude":76.5604,"temp":35.9,"humidity":28,"rain":0.0,"pressure":937.5,"uv_index":9.1,"wind_gusts":32.0,"aqi":140,"pm10":40.9,"pm2_5":33.4,"mosquito_risk":0,"arthritis_risk":5,"migraine_risk":10,"frizz_risk":0,"updated_at":"2026-04-19T17:07:23.842155+05:30"},{"city":"Nanded","state":"Maharashtra","latitude":19.1383,"longitude":77.3091,"temp":39.8,"humidity":20,"rain":0.0,"pressure":964.7,"uv_index":9.0,"wind_gusts":20.5,"aqi":125,"pm10":33.3,"pm2_5":25.6,"mosquito_risk":0,"arthritis_risk":5,"migraine_risk":10,"frizz_risk":0,"updated_at":"2026-04-19T17:07:23.842161+05:30"},{"city":"Gulbarga","state":"Karnataka","latitude":17.3297,"longitude":76.8343,"temp":29.8,"humidity":55,"rain":0.0,"pressure":957.4,"uv_index":9.1,"wind_gusts":56.5,"aqi":147,"pm10":45.5,"pm2_5":37.1,"mosquito_risk":4,"arthritis_risk":5,"migraine_risk":7,"frizz_risk":1,"updated_at":"2026-04-19T17:07:23.842167+05:30"},{"city":"Bidar","state":"Karnataka","latitude":17.9104,"longitude":77.5199,"temp":32.2,"humidity":44,"rain":0.0,"pressure":933.3,"uv_index":9.15,"wind_gusts":40.7,"aqi":152,"pm10":46.2,"pm2_5":37.7,"mosquito_risk":0,"arthritis_risk":5,"migraine_risk":7,"frizz_risk":1,"updated_at":"2026-04-19T17:07:23.842173+05:30"},{"city":"Hospet","state":"Karnataka","latitude":15.2689,"longitude":76.3909,"temp":36.6,"humidity":33,"rain":0.0,"pressure":952.6,"uv_index":9.3,"wind_gusts":36.4,"aqi":141,"pm10":43.4,"pm2_5":34.9,"mosquito_risk":0,"arthritis_risk":5,"migraine_risk":10,"frizz_risk":1,"updated_at":"2026-04-19T17:07:23.842179+05:30"},{"city":"Tirupur","state":"Tamil Nadu","latitude":11.1085,"longitude":77.3411,"temp":38.4,"humidity":22,"rain":0.0,"pressure":971.6,"uv_index":9.4,"wind_gusts":32.4,"aqi":133,"pm10":28.7,"pm2_5":21.2,"mosquito_risk":0,"arthritis_risk":5,"migraine_risk":10,"frizz_risk":0,"updated_at":"2026-04-19T17:07:23.842186+05:30"},{"city":"Alappuzha","state":"Kerala","latitude":9.4981,"longitude":76.3388,"temp":30.0,"humidity":79,"rain":0.0,"pressure":1005.7,"uv_index":9.1,"wind_gusts":22.7,"aqi":90,"pm10":22.2,"pm2_5":17.0,"mosquito_risk":7,"arthritis_risk":5,"migraine_risk":4,"frizz_risk":1,"updated_at":"2026-04-19T17:07:23.842192+05:30"},{"city":"Munnar","state":"Kerala","latitude":10.0889,"longitude":77.0595,"temp":26.9,"humidity":72,"rain":0.0,"pressure":856.7,"uv_index":9.65,"wind_gusts":39.6,"aqi":89,"pm10":22.8,"pm2_5":16.3,"mosquito_risk":7,"arthritis_risk":5,"migraine_risk":7,"frizz_risk":1,"updated_at":"2026-04-19T17:07:23.842199+05:30"},{"city":"Silchar","state":"Assam","latitude":24.8333,"longitude":92.7789,"temp":28.5,"humidity":74,"rain":0.0,"pressure":1002.4,"uv_index":8.8,"wind_gusts":28.1,"aqi":155,"pm10":39.8,"pm2_5":30.0,"mosquito_risk":7,"arthritis_risk":5,"migraine_risk":4,"frizz_risk":1,"updated_at":"2026-04-19T17:07:23.842206+05:30"},{"city":"Dibrugarh","state":"Assam","latitude":27.4728,"longitude":94.912,"temp":30.1,"humidity":61,"rain":0.0,"pressure":991.9,"uv_index":8.65,"wind_gusts":19.4,"aqi":142,"pm10":58.7,"pm2_5":40.6,"mosquito_risk":3,"arthritis_risk":5,"migraine_risk":7,"frizz_risk":1,"updated_at":"2026-04-19T17:07:23.842212+05:30"}]