[{"city":"Delhi","state":"Delhi","latitude":28.6139,"longitude":77.209,"temp":27.5,"humidity":45,"rain":0.0,"pressure":984.5,"uv_index":6.4,"wind_gusts":28.1,"aqi":193,"pm10":315.7,"pm2_5":55.8,"mosquito_risk":4,"arthritis_risk":5,"migraine_risk":7,"frizz_risk":0,"updated_at":"2026-03-25T18:48:33.248512+05:30"},{"city":"Mumbai","state":"Maharashtra","latitude":19.076,"longitude":72.8777,"temp":28.4,"humidity":75,"rain":0.0,"pressure":1006.8,"uv_index":7.95,"wind_gusts":24.8,"aqi":129,"pm10":41.8,"pm2_5":32.8,"mosquito_risk":7,"arthritis_risk":5,"migraine_risk":4,"frizz_risk":1,"updated_at":"2026-03-25T18:48:33.248560+05:30"},{"city":"Bangalore","state":"Karnataka","latitude":12.9716,"longitude":77.5946,"temp":30.1,"humidity":32,"rain":0.0,"pressure":910.8,"uv_index":9.5,"wind_gusts":32.0,"aqi":130,"pm10":28.8,"pm2_5":23.8,"mosquito_risk":0,"arthritis_risk":5,"migraine_risk":7,"frizz_risk":0,"updated_at":"2026-03-25T18:48:33.248575+05:30"},{"city":"Hyderabad","state":"Telangana","latitude":17.385,"longitude":78.4867,"temp":25.9,"humidity":71,"rain":0.0,"pressure":953.7,"uv_index":9.0,"wind_gusts":19.1,"aqi":126,"pm10":47.3,"pm2_5":37.4,"mosquito_risk":7,"arthritis_risk":5,"migraine_risk":7,"frizz_risk":1,"updated_at":"2026-03-25T18:48:33.248585+05:30"},{"city":"Chennai","state":"Tamil Nadu","latitude":13.0827,"longitude":80.2707,"temp":27.8,"humidity":70,"rain":0.0,"pressure":1007.6,"uv_index":9.2,"wind_gusts":32.8,"aqi":50,"pm10":22.9,"pm2_5":13.8,"mosquito_risk":7,"arthritis_risk":5,"migraine_risk":4,"frizz_risk":1,"updated_at":"2026-03-25T18:48:33.248593+05:30"},{"city":"Kolkata","state":"West Bengal","latitude":22.5726,"longitude":88.3639,"temp":27.5,"humidity":79,"rain":0.0,"pressure":1008.0,"uv_index":8.4,"wind_gusts":25.2,"aqi":99,"pm10":53.4,"pm2_5":46.6,"mosquito_risk":7,"arthritis_risk":0,"migraine_risk":4,"frizz_risk":1,"updated_at":"2026-03-25T18:48:33.248602+05:30"},{"city":"Pune","state":"Maharashtra","latitude":18.5204,"longitude":73.8567,"temp":32.7,"humidity":37,"rain":0.0,"pressure":947.3,"uv_index":8.5,"wind_gusts":32.8,"aqi":136,"pm10":30.5,"pm2_5":22.4,"mosquito_risk":0,"arthritis_risk":5,"migraine_risk":7,"frizz_risk":1,"updated_at":"2026-03-25T18:48:33.248612+05:30"},{"city":"Ahmedabad","state":"Gujarat","latitude":23.0225,"longitude":72.5714,"temp":34.2,"humidity":30,"rain":0.0,"pressure":1001.4,"uv_index":7.85,"wind_gusts":22.3,"aqi":84,"pm10":28.8,"pm2_5":15.9,"mosquito_risk":0,"arthritis_risk":5,"migraine_risk":4,"frizz_risk":0,"updated_at":"2026-03-25T18:48:33.248619+05:30"},{"city":"Jaipur","state":"Rajasthan","latitude":26.9124,"longitude":75.7873,"temp":29.5,"humidity":34,"rain":0.0,"pressure":960.9,"uv_index":7.35,"wind_gusts":27.7,"aqi":115,"pm10":61.0,"pm2_5":20.1,"mosquito_risk":4,"arthritis_risk":5,"migraine_risk":7,"frizz_risk":0,"updated_at":"2026-03-25T18:48:33.248625+05:30"},{"city":"Lucknow","state":"Uttar Pradesh","latitude":26.8467,"longitude":80.9462,"temp":28.9,"humidity":33,"rain":0.0,"pressure":994.6,"uv_index":7.1,"wind_gusts":37.1,"aqi":123,"pm10":169.0,"pm2_5":38.6,"mosquito_risk":4,"arthritis_risk":5,"migraine_risk":7,"frizz_risk":0,"updated_at":"2026-03-25T18:48:33.248633+05:30"},{"city":"Kanpur","state":"Uttar Pradesh","latitude":26.4499,"longitude":80.3319,"temp":27.1,"humidity":53,"rain":0.0,"pressure":993.2,"uv_index":7.15,"wind_gusts":29.2,"aqi":163,"pm10":297.1,"pm2_5":49.8,"mosquito_risk":4,"arthritis_risk":5,"migraine_risk":7,"frizz_risk":1,"updated_at":"2026-03-25T18:48:33.248639+05:30"},{"city":"Chandigarh","state":"Chandigarh","latitude":30.7333,"longitude":76.7794,"temp":23.4,"humidity":59,"rain":0.0,"pressure":970.4,"uv_index":6.55,"wind_gusts":29.9,"aqi":142,"pm10":30.7,"pm2_5":24.9,"mosquito_risk":0,"arthritis_risk":5,"migraine_risk":7,"frizz_risk":0,"updated_at":"2026-03-25T18:48:33.248645+05:30"},{"city":"Srinagar","state":"Jammu and Kashmir","latitude":34.0837,"longitude":74.7973,"temp":16.2,"humidity":49,"rain":0.0,"pressure":841.0,"uv_index":7.65,"wind_gusts":13.3,"aqi":121,"pm10":37.5,"pm2_5":23.6,"mosquito_risk":0,"arthritis_risk":5,"migraine_risk":7,"frizz_risk":0,"updated_at":"2026-03-25T18:48:33.248651+05:30"},{"city":"Jammu","state":"Jammu and Kashmir","latitude":32.7266,"longitude":74.857,"temp":25.2,"humidity":64,"rain":0.0,"pressure":974.7,"uv_index":6.9,"wind_gusts":18.7,"aqi":122,"pm10":40.9,"pm2_5":29.7,"mosquito_risk":7,"arthritis_risk":5,"migraine_risk":7,"frizz_risk":1,"updated_at":"2026-03-25T18:48:33.248657+05:30"},{"city":"Amritsar","state":"Punjab","latitude":31.634,"longitude":74.8723,"temp":24.7,"humidity":59,"rain":0.0,"pressure":983.0,"uv_index":6.85,"wind_gusts":27.7,"aqi":154,"pm10":35.4,"pm2_5":28.6,"mosquito_risk":0,"arthritis_risk":5,"migraine_risk":7,"frizz_risk":1,"updated_at":"2026-03-25T18:48:33.248662+05:30"},{"city":"Ludhiana","state":"Punjab","latitude":30.901,"longitude":75.8573,"temp":25.4,"humidity":58,"rain":0.0,"pressure":981.0,"uv_index":6.6,"wind_gusts":23.8,"aqi":117,"pm10":53.7,"pm2_5":33.1,"mosquito_risk":4,"arthritis_risk":5,"migraine_risk":7,"frizz_risk":1,"updated_at":"2026-03-25T18:48:33.248667+05:30"},{"city":"Jalandhar","state":"Punjab","latitude":31.326,"longitude":75.5762,"temp":25.5,"humidity":61,"rain":0.0,"pressure":982.0,"uv_index":6.75,"wind_gusts":22.0,"aqi":117,"pm10":46.6,"pm2_5":25.9,"mosquito_risk":7,"arthritis_risk":5,"migraine_risk":7,"frizz_risk":1,"updated_at":"2026-03-25T18:48:33.248675+05:30"},{"city":"Dehradun","state":"Uttarakhand","latitude":30.6284,"longitude":78.0322,"temp":16.3,"humidity":71,"rain":0.0,"pressure":830.3,"uv_index":7.0,"wind_gusts":23.8,"aqi":131,"pm10":27.5,"pm2_5":20.8,"mosquito_risk":3,"arthritis_risk":5,"migraine_risk":7,"frizz_risk":0,"updated_at":"2026-03-25T18:48:33.248680+05:30"},{"city":"Shimla","state":"Himachal Pradesh","latitude":31.1048,"longitude":77.1734,"temp":13.6,"humidity":67,"rain":0.0,"pressure":784.9,"uv_index":7.05,"wind_gusts":42.8,"aqi":129,"pm10":24.6,"pm2_5":17.8,"mosquito_risk":3,"arthritis_risk":5,"migraine_risk":7,"frizz_risk":0,"updated_at":"2026-03-25T18:48:33.248686+05:30"},{"city":"Manali","state":"Himachal Pradesh","latitude":32.2396,"longitude":77.1887,"temp":16.3,"humidity":68,"rain":0.0,"pressure":820.0,"uv_index":9.05,"wind_gusts":30.6,"aqi":161,"pm10":20.3,"pm2_5":10.0,"mosquito_risk":3,"arthritis_risk":5,"migraine_risk":7,"frizz_risk":0,"updated_at":"2026-03-25T18:48:33.248692+05:30"},{"city":"Gurgaon","state":"Haryana","latitude":28.4595,"longitude":77.0266,"temp":26.5,"humidity":52,"rain":0.0,"pressure":983.1,"uv_index":6.3,"wind_gusts":24.1,"aqi":611,"pm10":527.1,"pm2_5":78.7,"mosquito_risk":4,"arthritis_risk":5,"migraine_risk":7,"frizz_risk":0,"updated_at":"2026-03-25T18:48:33.248697+05:30"},{"city":"Noida","state":"Uttar Pradesh","latitude":28.5355,"longitude":77.391,"temp":27.2,"humidity":48,"rain":0.0,"pressure":986.1,"uv_index":6.35,"wind_gusts":27.4,"aqi":611,"pm10":527.1,"pm2_5":78.7,"mosquito_risk":4,"arthritis_risk":5,"migraine_risk":7,"frizz_risk":0,"updated_at":"2026-03-25T18:48:33.248703+05:30"},{"city":"Ghaziabad","state":"Uttar Pradesh","latitude":28.6692,"longitude":77.4538,"temp":26.2,"humidity":53,"rain":0.0,"pressure":984.1,"uv_index":6.4,"wind_gusts":28.4,"aqi":151,"pm10":243.1,"pm2_5":50.3,"mosquito_risk":4,"arthritis_risk":5,"migraine_risk":7,"frizz_risk":0,"updated_at":"2026-03-25T18:48:33.248708+05:30"},{"city":"Faridabad","state":"Haryana","latitude":28.4089,"longitude":77.3178,"temp":26.7,"humidity":48,"rain":0.0,"pressure":985.3,"uv_index":6.35,"wind_gusts":25.6,"aqi":611,"pm10":527.1,"pm2_5":78.7,"mosquito_risk":4,"arthritis_risk":5,"migraine_risk":7,"frizz_risk":0,"updated_at":"2026-03-25T18:48:33.248714+05:30"},{"city":"Meerut","state":"Uttar Pradesh","latitude":28.9845,"longitude":77.7064,"temp":24.8,"humidity":55,"rain":0.0,"pressure":982.6,"uv_index":6.5,"wind_gusts":32.0,"aqi":151,"pm10":243.1,"pm2_5":50.3,"mosquito_risk":0,"arthritis_risk":5,"migraine_risk":7,"frizz_risk":0,"updated_at":"2026-03-25T18:48:33.248720+05:30"},{"city":"Agra","state":"Uttar Pradesh","latitude":27.1767,"longitude":78.0081,"temp":28.7,"humidity":34,"rain":0.0,"pressure":989.2,"uv_index":7.0,"wind_gusts":31.7,"aqi":451,"pm10":364.1,"pm2_5":55.5,"mosquito_risk":4,"arthritis_risk":5,"migraine_risk":7,"frizz_risk":0,"updated_at":"2026-03-25T18:48:33.248725+05:30"},{"city":"Varanasi","state":"Uttar Pradesh","latitude":25.3176,"longitude":82.9739,"temp":27.6,"humidity":35,"rain":0.0,"pressure":998.6,"uv_index":7.8,"wind_gusts":30.6,"aqi":149,"pm10":70.5,"pm2_5":28.4,"mosquito_risk":4,"arthritis_risk":5,"migraine_risk":7,"frizz_risk":0,"updated_at":"2026-03-25T18:48:33.248733+05:30"},{"city":"Prayagraj","state":"Uttar Pradesh","latitude":25.4358,"longitude":81.8463,"temp":28.3,"humidity":36,"rain":0.0,"pressure":997.0,"uv_index":7.65,"wind_gusts":25.2,"aqi":140,"pm10":70.1,"pm2_5":25.1,"mosquito_risk":4,"arthritis_risk":5,"migraine_risk":7,"frizz_risk":0,"updated_at":"2026-03-25T18:48:33.248740+05:30"},{"city":"Gorakhpur","state":"Uttar Pradesh","latitude":26.7606,"longitude":83.3732,"temp":26.9,"humidity":36,"rain":0.0,"pressure":997.6,"uv_index":7.5,"wind_gusts":27.7,"aqi":135,"pm10":35.7,"pm2_5":21.9,"mosquito_risk":4,"arthritis_risk":5,"migraine_risk":7,"frizz_risk":0,"updated_at":"2026-03-25T18:48:33.248745+05:30"},{"city":"Bareilly","state":"Uttar Pradesh","latitude":28.367,"longitude":79.4304,"temp":25.3,"humidity":60,"rain":0.0,"pressure":987.7,"uv_index":6.85,"wind_gusts":28.8,"aqi":131,"pm10":58.8,"pm2_5":30.7,"mosquito_risk":4,"arthritis_risk":5,"migraine_risk":7,"frizz_risk":1,"updated_at":"2026-03-25T18:48:33.248751+05:30"},{"city":"Aligarh","state":"Uttar Pradesh","latitude":27.8974,"longitude":78.088,"temp":26.0,"humidity":48,"rain":0.0,"pressure":986.9,"uv_index":6.75,"wind_gusts":29.9,"aqi":398,"pm10":517.8,"pm2_5":78.2,"mosquito_risk":4,"arthritis_risk":5,"migraine_risk":7,"frizz_risk":0,"updated_at":"2026-03-25T18:48:33.248756+05:30"},{"city":"Moradabad","state":"Uttar Pradesh","latitude":28.8386,"longitude":78.7733,"temp":25.3,"humidity":56,"rain":0.0,"pressure":984.7,"uv_index":6.55,"wind_gusts":29.9,"aqi":125,"pm10":53.7,"pm2_5":30.6,"mosquito_risk":4,"arthritis_risk":5,"migraine_risk":7,"frizz_risk":0,"updated_at":"2026-03-25T18:48:33.248761+05:30"},{"city":"Saharanpur","state":"Uttar Pradesh","latitude":29.9637,"longitude":77.546,"temp":23.6,"humidity":46,"rain":0.0,"pressure":976.7,"uv_index":6.3,"wind_gusts":31.3,"aqi":135,"pm10":181.6,"pm2_5":41.8,"mosquito_risk":0,"arthritis_risk":5,"migraine_risk":7,"frizz_risk":0,"updated_at":"2026-03-25T18:48:33.248768+05:30"},{"city":"Jhansi","state":"Uttar Pradesh","latitude":25.4484,"longitude":78.5685,"temp":29.7,"humidity":32,"rain":0.0,"pressure":979.3,"uv_index":7.65,"wind_gusts":32.4,"aqi":132,"pm10":106.6,"pm2_5":26.4,"mosquito_risk":4,"arthritis_risk":5,"migraine_risk":7,"frizz_risk":0,"updated_at":"2026-03-25T18:48:36.535677+05:30"},{"city":"Surat","state":"Gujarat","latitude":21.1702,"longitude":72.8311,"temp":29.7,"humidity":59,"rain":0.0,"pressure":1005.8,"uv_index":7.7,"wind_gusts":24.1,"aqi":92,"pm10":56.5,"pm2_5":49.6,"mosquito_risk":4,"arthritis_risk":5,"migraine_risk":4,"frizz_risk":1,"updated_at":"2026-03-25T18:48:36.535706+05:30"},{"city":"Vadodara","state":"Gujarat","latitude":22.3072,"longitude":73.1812,"temp":34.0,"humidity":35,"rain":0.0,"pressure":1003.4,"uv_index":7.5,"wind_gusts":18.0,"aqi":122,"pm10":33.6,"pm2_5":24.3,"mosquito_risk":0,"arthritis_risk":5,"migraine_risk":4,"frizz_risk":1,"updated_at":"2026-03-25T18:48:36.535715+05:30"},{"city":"Rajkot","state":"Gujarat","latitude":22.3039,"longitude":70.8022,"temp":32.9,"humidity":30,"rain":0.0,"pressure":993.8,"uv_index":7.7,"wind_gusts":31.3,"aqi":54,"pm10":31.4,"pm2_5":15.1,"mosquito_risk":0,"arthritis_risk":5,"migraine_risk":7,"frizz_risk":0,"updated_at":"2026-03-25T18:48:36.535723+05:30"},{"city":"Thane","state":"Maharashtra","latitude":19.2183,"longitude":72.9781,"temp":28.9,"humidity":66,"rain":0.0,"pressure":1006.3,"uv_index":7.95,"wind_gusts":34.9,"aqi":129,"pm10":41.8,"pm2_5":32.8,"mosquito_risk":7,"arthritis_risk":5,"migraine_risk":4,"frizz_risk":1,"updated_at":"2026-03-25T18:48:36.535731+05:30"},{"city":"Nagpur","state":"Maharashtra","latitude":21.1458,"longitude":79.0882,"temp":31.4,"humidity":37,"rain":0.0,"pressure":972.5,"uv_index":8.4,"wind_gusts":20.5,"aqi":118,"pm10":25.3,"pm2_5":17.9,"mosquito_risk":0,"arthritis_risk":5,"migraine_risk":7,"frizz_risk":0,"updated_at":"2026-03-25T18:48:36.535739+05:30"},{"city":"Nashik","state":"Maharashtra","latitude":19.9975,"longitude":73.7898,"temp":30.8,"humidity":35,"rain":0.0,"pressure":945.0,"uv_index":8.15,"wind_gusts":26.6,"aqi":84,"pm10":29.3,"pm2_5":19.0,"mosquito_risk":0,"arthritis_risk":5,"migraine_risk":7,"frizz_risk":0,"updated_at":"2026-03-25T18:48:36.535746+05:30"},{"city":"Aurangabad","state":"Maharashtra","latitude":19.8762,"longitude":75.3433,"temp":32.3,"humidity":25,"rain":0.0,"pressure":943.3,"uv_index":8.7,"wind_gusts":32.8,"aqi":74,"pm10":20.3,"pm2_5":12.4,"mosquito_risk":0,"arthritis_risk":5,"migraine_risk":7,"frizz_risk":0,"updated_at":"2026-03-25T18:48:36.535753+05:30"},{"city":"Solapur","state":"Maharashtra","latitude":17.6599,"longitude":75.9064,"temp":32.3,"humidity":39,"rain":0.0,"pressure":956.5,"uv_index":8.85,"wind_gusts":29.2,"aqi":153,"pm10":35.2,"pm2_5":26.4,"mosquito_risk":0,"arthritis_risk":5,"migraine_risk":7,"frizz_risk":1,"updated_at":"2026-03-25T18:48:36.535760+05:30"},{"city":"Kolhapur","state":"Maharashtra","latitude":16.705,"longitude":74.2433,"temp":28.0,"humidity":63,"rain":0.0,"pressure":947.3,"uv_index":8.95,"wind_gusts":38.2,"aqi":153,"pm10":46.9,"pm2_5":41.6,"mosquito_risk":7,"arthritis_risk":5,"migraine_risk":7,"frizz_risk":1,"updated_at":"2026-03-25T18:48:36.535768+05:30"},{"city":"Goa","state":"Goa","latitude":15.2993,"longitude":74.124,"temp":29.4,"humidity":72,"rain":0.0,"pressure":997.0,"uv_index":8.95,"wind_gusts":29.9,"aqi":128,"pm10":41.1,"pm2_5":28.8,"mosquito_risk":7,"arthritis_risk":5,"migraine_risk":7,"frizz_risk":1,"updated_at":"2026-03-25T18:48:36.535775+05:30"},{"city":"Jodhpur","state":"Rajasthan","latitude":26.2389,"longitude":73.0243,"temp":33.0,"humidity":23,"rain":0.0,"pressure":982.9,"uv_index":7.45,"wind_gusts":26.6,"aqi":78,"pm10":109.0,"pm2_5":18.5,"mosquito_risk":0,"arthritis_risk":5,"migraine_risk":7,"frizz_risk":0,"updated_at":"2026-03-25T18:48:36.535781+05:30"},{"city":"Udaipur","state":"Rajasthan","latitude":24.5854,"longitude":73.7125,"temp":29.8,"humidity":31,"rain":0.0,"pressure":947.4,"uv_index":7.95,"wind_gusts":25.6,"aqi":63,"pm10":18.2,"pm2_5":7.7,"mosquito_risk":4,"arthritis_risk":5,"migraine_risk":7,"frizz_risk":0,"updated_at":"2026-03-25T18:48:36.535788+05:30"},{"city":"Kota","state":"Rajasthan","latitude":25.2138,"longitude":75.8648,"temp":30.8,"humidity":34,"rain":0.0,"pressure":979.8,"uv_index":7.7,"wind_gusts":17.3,"aqi":124,"pm10":40.3,"pm2_5":28.4,"mosquito_risk":0,"arthritis_risk":5,"migraine_risk":7,"frizz_risk":0,"updated_at":"2026-03-25T18:48:36.535795+05:30"},{"city":"Bikaner","state":"Rajasthan","latitude":28.0229,"longitude":73.3119,"temp":32.7,"humidity":23,"rain":0.0,"pressure":981.8,"uv_index":6.65,"wind_gusts":31.0,"aqi":92,"pm10":28.1,"pm2_5":10.1,"mosquito_risk":0,"arthritis_risk":5,"migraine_risk":7,"frizz_risk":0,"updated_at":"2026-03-25T18:48:36.535801+05:30"},{"city":"Ajmer","state":"Rajasthan","latitude":26.4499,"longitude":74.6399,"temp":29.8,"humidity":32,"rain":0.0,"pressure":955.5,"uv_index":7.5,"wind_gusts":28.8,"aqi":108,"pm10":32.1,"pm2_5":13.3,"mosquito_risk":4,"arthritis_risk":5,"migraine_risk":7,"frizz_risk":0,"updated_at":"2026-03-25T18:48:36.535808+05:30"},{"city":"Gwalior","state":"Madhya Pradesh","latitude":26.2183,"longitude":78.1828,"temp":29.9,"humidity":35,"rain":0.0,"pressure":984.7,"uv_index":7.25,"wind_gusts":29.9,"aqi":169,"pm10":71.0,"pm2_5":20.7,"mosquito_risk":4,"arthritis_risk":5,"migraine_risk":7,"frizz_risk":0,"updated_at":"2026-03-25T18:48:36.535814+05:30"},{"city":"Indore","state":"Madhya Pradesh","latitude":22.7196,"longitude":75.8577,"temp":30.6,"humidity":32,"rain":0.0,"pressure":948.1,"uv_index":8.15,"wind_gusts":23.0,"aqi":108,"pm10":29.2,"pm2_5":18.6,"mosquito_risk":0,"arthritis_risk":5,"migraine_risk":7,"frizz_risk":0,"updated_at":"2026-03-25T18:48:36.535821+05:30"},{"city":"Bhopal","state":"Madhya Pradesh","latitude":23.2599,"longitude":77.4126,"temp":30.7,"humidity":29,"rain":0.0,"pressure":954.3,"uv_index":8.05,"wind_gusts":22.0,"aqi":96,"pm10":27.2,"pm2_5":16.9,"mosquito_risk":0,"arthritis_risk":5,"migraine_risk":7,"frizz_risk":0,"updated_at":"2026-03-25T18:48:36.535828+05:30"},{"city":"Jabalpur","state":"Madhya Pradesh","latitude":23.1815,"longitude":79.9864,"temp":29.8,"humidity":35,"rain":0.0,"pressure":962.1,"uv_index":8.2,"wind_gusts":30.2,"aqi":99,"pm10":38.8,"pm2_5":19.8,"mosquito_risk":4,"arthritis_risk":5,"migraine_risk":7,"frizz_risk":0,"updated_at":"2026-03-25T18:48:36.535834+05:30"},{"city":"Ujjain","state":"Madhya Pradesh","latitude":23.1765,"longitude":75.7885,"temp":30.1,"humidity":36,"rain":0.0,"pressure":953.7,"uv_index":8.05,"wind_gusts":17.6,"aqi":95,"pm10":31.1,"pm2_5":18.7,"mosquito_risk":0,"arthritis_risk":5,"migraine_risk":7,"frizz_risk":0,"updated_at":"2026-03-25T18:48:36.535841+05:30"},{"city":"Visakhapatnam","state":"Andhra Pradesh","latitude":17.6868,"longitude":83.2185,"temp":27.4,"humidity":74,"rain":0.0,"pressure":1004.8,"uv_index":8.9,"wind_gusts":38.5,"aqi":68,"pm10":31.2,"pm2_5":21.3,"mosquito_risk":7,"arthritis_risk":5,"migraine_risk":4,"frizz_risk":1,"updated_at":"2026-03-25T18:48:36.535847+05:30"},{"city":"Vijayawada","state":"Andhra Pradesh","latitude":16.5062,"longitude":80.648,"temp":30.4,"humidity":60,"rain":0.0,"pressure":1002.7,"uv_index":9.0,"wind_gusts":24.5,"aqi":58,"pm10":27.6,"pm2_5":21.9,"mosquito_risk":0,"arthritis_risk":5,"migraine_risk":4,"frizz_risk":1,"updated_at":"2026-03-25T18:48:36.535854+05:30"},{"city":"Guntur","state":"Andhra Pradesh","latitude":16.3067,"longitude":80.4365,"temp":29.0,"humidity":63,"rain":0.0,"pressure":1004.1,"uv_index":9.0,"wind_gusts":24.8,"aqi":62,"pm10":29.7,"pm2_5":23.3,"mosquito_risk":7,"arthritis_risk":5,"migraine_risk":4,"frizz_risk":1,"updated_at":"2026-03-25T18:48:36.535860+05:30"},{"city":"Nellore","state":"Andhra Pradesh","latitude":14.4426,"longitude":79.9865,"temp":27.9,"humidity":70,"rain":0.0,"pressure":1006.2,"uv_index":9.1,"wind_gusts":29.5,"aqi":93,"pm10":20.9,"pm2_5":13.8,"mosquito_risk":7,"arthritis_risk":5,"migraine_risk":4,"frizz_risk":1,"updated_at":"2026-03-25T18:48:36.535868+05:30"},{"city":"Kurnool","state":"Andhra Pradesh","latitude":15.8281,"longitude":78.0373,"temp":33.9,"humidity":34,"rain":0.0,"pressure":976.1,"uv_index":8.65,"wind_gusts":24.1,"aqi":113,"pm10":47.6,"pm2_5":35.4,"mosquito_risk":0,"arthritis_risk":5,"migraine_risk":7,"frizz_risk":0,"updated_at":"2026-03-25T18:48:36.535875+05:30"},{"city":"Kakinada","state":"Andhra Pradesh","latitude":16.9891,"longitude":82.2475,"temp":28.7,"humidity":65,"rain":0.0,"pressure":1008.1,"uv_index":8.95,"wind_gusts":28.4,"aqi":54,"pm10":25.3,"pm2_5":14.0,"mosquito_risk":7,"arthritis_risk":0,"migraine_risk":4,"frizz_risk":1,"updated_at":"2026-03-25T18:48:36.535882+05:30"},{"city":"Tirupati","state":"Andhra Pradesh","latitude":13.6288,"longitude":79.4192,"temp":30.9,"humidity":48,"rain":0.0,"pressure":991.1,"uv_index":9.2,"wind_gusts":28.8,"aqi":103,"pm10":28.8,"pm2_5":23.9,"mosquito_risk":0,"arthritis_risk":5,"migraine_risk":7,"frizz_risk":1,"updated_at":"2026-03-25T18:48:36.535888+05:30"},{"city":"Warangal","state":"Telangana","latitude":17.9689,"longitude":79.5941,"temp":29.7,"humidity":59,"rain":0.0,"pressure":978.7,"uv_index":8.7,"wind_gusts":24.8,"aqi":106,"pm10":42.7,"pm2_5":35.2,"mosquito_risk":4,"arthritis_risk":5,"migraine_risk":7,"frizz_risk":1,"updated_at":"2026-03-25T18:48:36.535894+05:30"},{"city":"Nizamabad","state":"Telangana","latitude":18.6725,"longitude":78.0941,"temp":32.3,"humidity":38,"rain":0.0,"pressure":963.9,"uv_index":8.75,"wind_gusts":33.5,"aqi":116,"pm10":41.1,"pm2_5":31.7,"mosquito_risk":0,"arthritis_risk":5,"migraine_risk":7,"frizz_risk":1,"updated_at":"2026-03-25T18:48:36.535900+05:30"},{"city":"Mysore","state":"Karnataka","latitude":12.2958,"longitude":76.6396,"temp":31.9,"humidity":31,"rain":0.0,"pressure":926.9,"uv_index":9.4,"wind_gusts":32.0,"aqi":145,"pm10":31.4,"pm2_5":25.3,"mosquito_risk":0,"arthritis_risk":5,"migraine_risk":7,"frizz_risk":0,"updated_at":"2026-03-25T18:48:36.535906+05:30"},{"city":"Mangalore","state":"Karnataka","latitude":12.9141,"longitude":74.856,"temp":29.5,"humidity":80,"rain":0.0,"pressure":1004.8,"uv_index":9.05,"wind_gusts":23.8,"aqi":149,"pm10":39.8,"pm2_5":29.6,"mosquito_risk":7,"arthritis_risk":5,"migraine_risk":4,"frizz_risk":1,"updated_at":"2026-03-25T18:48:36.535911+05:30"},{"city":"Hubli-Dharwad","state":"Karnataka","latitude":15.3647,"longitude":75.124,"temp":25.9,"humidity":71,"rain":0.0,"pressure":940.2,"uv_index":9.1,"wind_gusts":38.2,"aqi":140,"pm10":43.8,"pm2_5":35.0,"mosquito_risk":7,"arthritis_risk":5,"migraine_risk":7,"frizz_risk":1,"updated_at":"2026-03-25T18:48:36.535917+05:30"},{"city":"Belgaum","state":"Karnataka","latitude":15.8497,"longitude":74.4977,"temp":25.9,"humidity":69,"rain":0.0,"pressure":925.3,"uv_index":9.1,"wind_gusts":24.8,"aqi":156,"pm10":43.5,"pm2_5":34.0,"mosquito_risk":7,"arthritis_risk":5,"migraine_risk":7,"frizz_risk":1,"updated_at":"2026-03-25T18:48:39.824202+05:30"},{"city":"Coimbatore","state":"Tamil Nadu","latitude":11.0168,"longitude":76.9558,"temp":32.2,"humidity":34,"rain":0.0,"pressure":959.8,"uv_index":9.4,"wind_gusts":34.6,"aqi":105,"pm10":18.7,"pm2_5":14.3,"mosquito_risk":0,"arthritis_risk":5,"migraine_risk":7,"frizz_risk":0,"updated_at":"2026-03-25T18:48:39.824232+05:30"},{"city":"Madurai","state":"Tamil Nadu","latitude":9.9252,"longitude":78.1198,"temp":32.9,"humidity":39,"rain":0.0,"pressure":991.2,"uv_index":9.35,"wind_gusts":25.9,"aqi":90,"pm10":16.8,"pm2_5":12.1,"mosquito_risk":0,"arthritis_risk":5,"migraine_risk":7,"frizz_risk":1,"updated_at":"2026-03-25T18:48:39.824240+05:30"},{"city":"Trichy","state":"Tamil Nadu","latitude":10.7905,"longitude":78.7047,"temp":30.5,"humidity":54,"rain":0.0,"pressure":998.5,"uv_index":9.3,"wind_gusts":23.0,"aqi":97,"pm10":20.1,"pm2_5":17.3,"mosquito_risk":0,"arthritis_risk":5,"migraine_risk":7,"frizz_risk":1,"updated_at":"2026-03-25T18:48:39.824246+05:30"},{"city":"Salem","state":"Tamil Nadu","latitude":11.6643,"longitude":78.146,"temp":32.2,"humidity":36,"rain":0.0,"pressure":975.7,"uv_index":9.35,"wind_gusts":31.7,"aqi":133,"pm10":26.0,"pm2_5":20.7,"mosquito_risk":0,"arthritis_risk":5,"migraine_risk":7,"frizz_risk":0,"updated_at":"2026-03-25T18:48:39.824252+05:30"},{"city":"Tirunelveli","state":"Tamil Nadu","latitude":8.7139,"longitude":77.7567,"temp":31.0,"humidity":57,"rain":0.0,"pressure":1001.4,"uv_index":9.3,"wind_gusts":40.3,"aqi":74,"pm10":11.7,"pm2_5":8.3,"mosquito_risk":0,"arthritis_risk":5,"migraine_risk":4,"frizz_risk":1,"updated_at":"2026-03-25T18:48:39.824258+05:30"},{"city":"Vellore","state":"Tamil Nadu","latitude":12.9165,"longitude":79.1325,"temp":29.8,"humidity":50,"rain":0.0,"pressure":984.1,"uv_index":9.3,"wind_gusts":31.7,"aqi":111,"pm10":23.1,"pm2_5":19.3,"mosquito_risk":4,"arthritis_risk":5,"migraine_risk":7,"frizz_risk":1,"updated_at":"2026-03-25T18:48:39.824264+05:30"},{"city":"Erode","state":"Tamil Nadu","latitude":11.341,"longitude":77.7172,"temp":34.0,"humidity":40,"rain":0.0,"pressure":986.6,"uv_index":9.3,"wind_gusts":28.1,"aqi":105,"pm10":20.6,"pm2_5":16.4,"mosquito_risk":0,"arthritis_risk":5,"migraine_risk":7,"frizz_risk":1,"updated_at":"2026-03-25T18:48:39.824270+05:30"},{"city":"Kochi","state":"Kerala","latitude":9.9312,"longitude":76.2673,"temp":29.5,"humidity":77,"rain":0.0,"pressure":1006.2,"uv_index":9.15,"wind_gusts":33.1,"aqi":136,"pm10":28.7,"pm2_5":23.6,"mosquito_risk":7,"arthritis_risk":5,"migraine_risk":4,"frizz_risk":1,"updated_at":"2026-03-25T18:48:39.824276+05:30"},{"city":"Thiruvananthapuram","state":"Kerala","latitude":8.5241,"longitude":76.9366,"temp":29.2,"humidity":79,"rain":0.0,"pressure":1006.2,"uv_index":9.2,"wind_gusts":31.3,"aqi":118,"pm10":16.8,"pm2_5":12.5,"mosquito_risk":7,"arthritis_risk":5,"migraine_risk":4,"frizz_risk":1,"updated_at":"2026-03-25T18:48:39.824282+05:30"},{"city":"Kozhikode","state":"Kerala","latitude":11.2588,"longitude":75.7804,"temp":29.8,"humidity":75,"rain":0.0,"pressure":1005.5,"uv_index":9.1,"wind_gusts":28.4,"aqi":103,"pm10":44.2,"pm2_5":31.4,"mosquito_risk":7,"arthritis_risk":5,"migraine_risk":4,"frizz_risk":1,"updated_at":"2026-03-25T18:48:39.824287+05:30"},{"city":"Thrissur","state":"Kerala","latitude":10.5276,"longitude":76.2144,"temp":29.6,"humidity":75,"rain":0.0,"pressure":1004.7,"uv_index":9.15,"wind_gusts":39.2,"aqi":113,"pm10":31.4,"pm2_5":25.5,"mosquito_risk":7,"arthritis_risk":5,"migraine_risk":4,"frizz_risk":1,"updated_at":"2026-03-25T18:48:39.824293+05:30"},{"city":"Kannur","state":"Kerala","latitude":11.8745,"longitude":75.3704,"temp":30.4,"humidity":70,"rain":0.0,"pressure":1005.1,"uv_index":9.1,"wind_gusts":29.5,"aqi":122,"pm10":39.3,"pm2_5":29.0,"mosquito_risk":3,"arthritis_risk":5,"migraine_risk":4,"frizz_risk":1,"updated_at":"2026-03-25T18:48:39.824298+05:30"},{"city":"Patna","state":"Bihar","latitude":25.5941,"longitude":85.1376,"temp":29.2,"humidity":41,"rain":0.0,"pressure":1001.4,"uv_index":7.4,"wind_gusts":30.2,"aqi":139,"pm10":69.4,"pm2_5":38.6,"mosquito_risk":4,"arthritis_risk":5,"migraine_risk":4,"frizz_risk":0,"updated_at":"2026-03-25T18:48:39.824304+05:30"},{"city":"Gaya","state":"Bihar","latitude":24.7914,"longitude":85.0002,"temp":27.5,"humidity":43,"rain":0.0,"pressure":994.8,"uv_index":8.05,"wind_gusts":22.7,"aqi":130,"pm10":54.9,"pm2_5":27.6,"mosquito_risk":4,"arthritis_risk":5,"migraine_risk":7,"frizz_risk":0,"updated_at":"2026-03-25T18:48:39.824309+05:30"},{"city":"Muzaffarpur","state":"Bihar","latitude":26.1209,"longitude":85.3647,"temp":27.2,"humidity":50,"rain":0.0,"pressure":1001.2,"uv_index":7.9,"wind_gusts":24.1,"aqi":132,"pm10":73.3,"pm2_5":40.3,"mosquito_risk":4,"arthritis_risk":5,"migraine_risk":4,"frizz_risk":0,"updated_at":"2026-03-25T18:48:39.824314+05:30"},{"city":"Bhagalpur","state":"Bihar","latitude":25.2425,"longitude":87.0117,"temp":26.2,"humidity":58,"rain":0.0,"pressure":1002.5,"uv_index":8.0,"wind_gusts":24.1,"aqi":151,"pm10":56.1,"pm2_5":37.0,"mosquito_risk":4,"arthritis_risk":5,"migraine_risk":4,"frizz_risk":1,"updated_at":"2026-03-25T18:48:39.824320+05:30"},{"city":"Ranchi","state":"Jharkhand","latitude":23.3441,"longitude":85.3096,"temp":27.2,"humidity":35,"rain":0.0,"pressure":939.1,"uv_index":8.4,"wind_gusts":31.7,"aqi":115,"pm10":32.5,"pm2_5":17.1,"mosquito_risk":4,"arthritis_risk":5,"migraine_risk":7,"frizz_risk":0,"updated_at":"2026-03-25T18:48:39.824326+05:30"},{"city":"Jamshedpur","state":"Jharkhand","latitude":22.8046,"longitude":86.2029,"temp":30.9,"humidity":45,"rain":0.0,"pressure":991.7,"uv_index":8.55,"wind_gusts":30.2,"aqi":181,"pm10":69.2,"pm2_5":47.1,"mosquito_risk":0,"arthritis_risk":5,"migraine_risk":7,"frizz_risk":1,"updated_at":"2026-03-25T18:48:39.824331+05:30"},{"city":"Dhanbad","state":"Jharkhand","latitude":23.7957,"longitude":86.4304,"temp":30.0,"humidity":33,"rain":0.0,"pressure":980.9,"uv_index":8.45,"wind_gusts":27.0,"aqi":153,"pm10":71.5,"pm2_5":52.6,"mosquito_risk":4,"arthritis_risk":5,"migraine_risk":7,"frizz_risk":0,"updated_at":"2026-03-25T18:48:39.824337+05:30"},{"city":"Bokaro","state":"Jharkhand","latitude":23.6693,"longitude":86.1511,"temp":28.5,"humidity":38,"rain":0.0,"pressure":985.0,"uv_index":8.45,"wind_gusts":24.1,"aqi":149,"pm10":63.3,"pm2_5":44.7,"mosquito_risk":4,"arthritis_risk":5,"migraine_risk":7,"frizz_risk":0,"updated_at":"2026-03-25T18:48:39.824343+05:30"},{"city":"Bhubaneswar","state":"Odisha","latitude":20.2961,"longitude":85.8245,"temp":27.8,"humidity":76,"rain":0.0,"pressure":1004.4,"uv_index":8.75,"wind_gusts":28.1,"aqi":90,"pm10":30.9,"pm2_5":25.7,"mosquito_risk":7,"arthritis_risk":5,"migraine_risk":4,"frizz_risk":1,"updated_at":"2026-03-25T18:48:39.824349+05:30"},{"city":"Cuttack","state":"Odisha","latitude":20.4625,"longitude":85.8828,"temp":29.0,"humidity":71,"rain":0.0,"pressure":1006.3,"uv_index":8.8,"wind_gusts":27.4,"aqi":90,"pm10":30.9,"pm2_5":25.7,"mosquito_risk":7,"arthritis_risk":5,"migraine_risk":4,"frizz_risk":1,"updated_at":"2026-03-25T18:48:39.824354+05:30"},{"city":"Rourkela","state":"Odisha","latitude":22.2604,"longitude":84.8536,"temp":30.5,"humidity":43,"rain":0.0,"pressure":985.4,"uv_index":8.45,"wind_gusts":19.8,"aqi":153,"pm10":52.2,"pm2_5":35.3,"mosquito_risk":0,"arthritis_risk":5,"migraine_risk":7,"frizz_risk":1,"updated_at":"2026-03-25T18:48:39.824360+05:30"},{"city":"Raipur","state":"Chhattisgarh","latitude":21.2514,"longitude":81.6296,"temp":30.0,"humidity":49,"rain":0.0,"pressure":974.7,"uv_index":8.2,"wind_gusts":45.4,"aqi":163,"pm10":42.3,"pm2_5":33.6,"mosquito_risk":4,"arthritis_risk":5,"migraine_risk":7,"frizz_risk":1,"updated_at":"2026-03-25T18:48:39.824365+05:30"},{"city":"Bhilai","state":"Chhattisgarh","latitude":21.1938,"longitude":81.3509,"temp":29.2,"humidity":54,"rain":0.0,"pressure":975.0,"uv_index":8.2,"wind_gusts":40.0,"aqi":132,"pm10":37.0,"pm2_5":28.8,"mosquito_risk":4,"arthritis_risk":5,"migraine_risk":7,"frizz_risk":1,"updated_at":"2026-03-25T18:48:39.824370+05:30"},{"city":"Guwahati","state":"Assam","latitude":26.1158,"longitude":91.7086,"temp":24.6,"humidity":78,"rain":0.0,"pressure":1004.0,"uv_index":7.85,"wind_gusts":28.1,"aqi":118,"pm10":68.2,"pm2_5":53.9,"mosquito_risk":3,"arthritis_risk":5,"migraine_risk":4,"frizz_risk":1,"updated_at":"2026-03-25T18:48:39.824375+05:30"},{"city":"Agartala","state":"Tripura","latitude":23.8315,"longitude":91.2868,"temp":26.1,"humidity":76,"rain":0.0,"pressure":1008.0,"uv_index":8.15,"wind_gusts":27.4,"aqi":154,"pm10":59.3,"pm2_5":54.7,"mosquito_risk":7,"arthritis_risk":0,"migraine_risk":4,"frizz_risk":1,"updated_at":"2026-03-25T18:48:39.824381+05:30"},{"city":"Shillong","state":"Meghalaya","latitude":25.5788,"longitude":91.8933,"temp":13.1,"humidity":90,"rain":0.0,"pressure":856.6,"uv_index":8.25,"wind_gusts":67.0,"aqi":104,"pm10":50.3,"pm2_5":36.9,"mosquito_risk":3,"arthritis_risk":10,"migraine_risk":7,"frizz_risk":0,"updated_at":"2026-03-25T18:48:39.824387+05:30"},{"city":"Imphal","state":"Manipur","latitude":24.817,"longitude":93.9368,"temp":16.8,"humidity":80,"rain":0.0,"pressure":924.7,"uv_index":8.45,"wind_gusts":76.0,"aqi":119,"pm10":49.7,"pm2_5":36.1,"mosquito_risk":3,"arthritis_risk":5,"migraine_risk":7,"frizz_risk":0,"updated_at":"2026-03-25T18:48:39.824392+05:30"},{"city":"Aizawl","state":"Mizoram","latitude":23.7271,"longitude":92.7176,"temp":19.6,"humidity":69,"rain":0.0,"pressure":894.1,"uv_index":8.25,"wind_gusts":43.9,"aqi":114,"pm10":62.4,"pm2_5":41.1,"mosquito_risk":3,"arthritis_risk":5,"migraine_risk":7,"frizz_risk":0,"updated_at":"2026-03-25T18:48:39.824398+05:30"},{"city":"Kohima","state":"Nagaland","latitude":25.6701,"longitude":94.1077,"temp":14.3,"humidity":93,"rain":0.0,"pressure":855.8,"uv_index":7.8,"wind_gusts":76.7,"aqi":95,"pm10":51.8,"pm2_5":38.2,"mosquito_risk":3,"arthritis_risk":10,"migraine_risk":7,"frizz_risk":0,"updated_at":"2026-03-25T18:48:39.824403+05:30"},{"city":"Gangtok","state":"Sikkim","latitude":27.3314,"longitude":88.6138,"temp":13.8,"humidity":88,"rain":0.1,"pressure":837.3,"uv_index":8.1,"wind_gusts":18.7,"aqi":107,"pm10":40.3,"pm2_5":32.0,"mosquito_risk":6,"arthritis_risk":10,"migraine_risk":7,"frizz_risk":0,"updated_at":"2026-03-25T18:48:39.824409+05:30"},{"city":"Siliguri","state":"West Bengal","latitude":26.7271,"longitude":88.3953,"temp":21.2,"humidity":70,"rain":0.0,"pressure":995.6,"uv_index":7.8,"wind_gusts":25.2,"aqi":151,"pm10":68.0,"pm2_5":51.3,"mosquito_risk":3,"arthritis_risk":5,"migraine_risk":7,"frizz_risk":0,"updated_at":"2026-03-25T18:48:43.118942+05:30"},{"city":"Durgapur","state":"West Bengal","latitude":23.5204,"longitude":87.3119,"temp":28.9,"humidity":60,"rain":0.0,"pressure":996.3,"uv_index":8.4,"wind_gusts":22.7,"aqi":151,"pm10":61.0,"pm2_5":44.4,"mosquito_risk":4,"arthritis_risk":5,"migraine_risk":7,"frizz_risk":1,"updated_at":"2026-03-25T18:48:43.118971+05:30"},{"city":"Asansol","state":"West Bengal","latitude":23.6739,"longitude":86.9524,"temp":31.1,"humidity":38,"rain":0.0,"pressure":994.5,"uv_index":8.4,"wind_gusts":22.3,"aqi":132,"pm10":58.7,"pm2_5":39.8,"mosquito_risk":0,"arthritis_risk":5,"migraine_risk":7,"frizz_risk":0,"updated_at":"2026-03-25T18:48:43.118980+05:30"},{"city":"Pondicherry","state":"Puducherry","latitude":11.9139,"longitude":79.8145,"temp":26.9,"humidity":77,"rain":0.0,"pressure":1008.4,"uv_index":9.15,"wind_gusts":29.5,"aqi":42,"pm10":20.1,"pm2_5":11.4,"mosquito_risk":7,"arthritis_risk":0,"migraine_risk":4,"frizz_risk":1,"updated_at":"2026-03-25T18:48:43.118989+05:30"},{"city":"Port Blair","state":"Andaman and Nicobar Islands","latitude":11.6234,"longitude":92.7265,"temp":28.5,"humidity":74,"rain":0.0,"pressure":1007.7,"uv_index":9.1,"wind_gusts":25.2,"aqi":68,"pm10":16.9,"pm2_5":13.0,"mosquito_risk":7,"arthritis_risk":5,"migraine_risk":4,"frizz_risk":1,"updated_at":"2026-03-25T18:48:43.118997+05:30"},{"city":"Haridwar","state":"Uttarakhand","latitude":29.9457,"longitude":78.1642,"temp":26.0,"humidity":46,"rain":0.0,"pressure":975.4,"uv_index":6.45,"wind_gusts":25.2,"aqi":139,"pm10":70.3,"pm2_5":29.7,"mosquito_risk":4,"arthritis_risk":5,"migraine_risk":7,"frizz_risk":0,"updated_at":"2026-03-25T18:48:43.119004+05:30"},{"city":"Rishikesh","state":"Uttarakhand","latitude":30.0869,"longitude":78.2676,"temp":25.0,"humidity":59,"rain":0.0,"pressure":968.1,"uv_index":6.5,"wind_gusts":23.4,"aqi":132,"pm10":32.6,"pm2_5":22.8,"mosquito_risk":4,"arthritis_risk":5,"migraine_risk":7,"frizz_risk":1,"updated_at":"2026-03-25T18:48:43.119012+05:30"},{"city":"Nainital","state":"Uttarakhand","latitude":29.3919,"longitude":79.4542,"temp":17.8,"humidity":62,"rain":0.0,"pressure":806.4,"uv_index":7.35,"wind_gusts":27.7,"aqi":142,"pm10":28.1,"pm2_5":23.6,"mosquito_risk":3,"arthritis_risk":5,"migraine_risk":7,"frizz_risk":0,"updated_at":"2026-03-25T18:48:43.119019+05:30"},{"city":"Mussoorie","state":"Uttarakhand","latitude":30.4599,"longitude":78.0664,"temp":16.6,"humidity":69,"rain":0.0,"pressure":803.0,"uv_index":6.9,"wind_gusts":25.2,"aqi":140,"pm10":46.4,"pm2_5":28.8,"mosquito_risk":3,"arthritis_risk":5,"migraine_risk":7,"frizz_risk":0,"updated_at":"2026-03-25T18:48:43.119027+05:30"},{"city":"Dharamshala","state":"Himachal Pradesh","latitude":32.219,"longitude":76.3234,"temp":18.8,"humidity":70,"rain":0.0,"pressure":870.1,"uv_index":7.1,"wind_gusts":18.0,"aqi":128,"pm10":25.0,"pm2_5":16.4,"mosquito_risk":3,"arthritis_risk":5,"migraine_risk":7,"frizz_risk":0,"updated_at":"2026-03-25T18:48:43.119034+05:30"},{"city":"Dalhousie","state":"Himachal Pradesh","latitude":32.5387,"longitude":75.971,"temp":17.1,"humidity":70,"rain":0.0,"pressure":804.7,"uv_index":7.35,"wind_gusts":20.5,"aqi":130,"pm10":33.2,"pm2_5":24.7,"mosquito_risk":3,"arthritis_risk":5,"migraine_risk":7,"frizz_risk":0,"updated_at":"2026-03-25T18:48:43.119041+05:30"},{"city":"Patiala","state":"Punjab","latitude":30.3398,"longitude":76.3869,"temp":24.6,"humidity":58,"rain":0.0,"pressure":980.1,"uv_index":6.45,"wind_gusts":26.6,"aqi":127,"pm10":220.7,"pm2_5":44.6,"mosquito_risk":0,"arthritis_risk":5,"migraine_risk":7,"frizz_risk":0,"updated_at":"2026-03-25T18:48:43.119048+05:30"},{"city":"Bhatinda","state":"Punjab","latitude":30.211,"longitude":74.9455,"temp":26.2,"humidity":51,"rain":0.0,"pressure":985.7,"uv_index":6.35,"wind_gusts":22.3,"aqi":136,"pm10":43.0,"pm2_5":35.5,"mosquito_risk":4,"arthritis_risk":5,"migraine_risk":7,"frizz_risk":0,"updated_at":"2026-03-25T18:48:43.119055+05:30"},{"city":"Rohtak","state":"Haryana","latitude":28.8955,"longitude":76.6066,"temp":26.3,"humidity":51,"rain":0.0,"pressure":983.5,"uv_index":6.45,"wind_gusts":21.2,"aqi":314,"pm10":188.6,"pm2_5":48.2,"mosquito_risk":4,"arthritis_risk":5,"migraine_risk":7,"frizz_risk":0,"updated_at":"2026-03-25T18:48:43.119062+05:30"},{"city":"Panipat","state":"Haryana","latitude":29.3909,"longitude":76.9635,"temp":25.4,"humidity":54,"rain":0.0,"pressure":982.0,"uv_index":5.95,"wind_gusts":28.4,"aqi":533,"pm10":433.1,"pm2_5":68.2,"mosquito_risk":4,"arthritis_risk":5,"migraine_risk":3,"frizz_risk":0,"updated_at":"2026-03-25T18:48:43.119069+05:30"},{"city":"Mathura","state":"Uttar Pradesh","latitude":27.4924,"longitude":77.6737,"temp":28.3,"humidity":48,"rain":0.0,"pressure":988.2,"uv_index":6.85,"wind_gusts":20.9,"aqi":481,"pm10":249.6,"pm2_5":47.8,"mosquito_risk":4,"arthritis_risk":5,"migraine_risk":7,"frizz_risk":1,"updated_at":"2026-03-25T18:48:43.119076+05:30"},{"city":"Vrindavan","state":"Uttar Pradesh","latitude":27.5823,"longitude":77.7027,"temp":27.3,"humidity":50,"rain":0.0,"pressure":988.7,"uv_index":6.8,"wind_gusts":24.8,"aqi":481,"pm10":249.6,"pm2_5":47.8,"mosquito_risk":4,"arthritis_risk":5,"migraine_risk":7,"frizz_risk":0,"updated_at":"2026-03-25T18:48:43.119082+05:30"},{"city":"Ayodhya","state":"Uttar Pradesh","latitude":26.7922,"longitude":82.1998,"temp":27.9,"humidity":29,"rain":0.0,"pressure":995.9,"uv_index":7.3,"wind_gusts":35.3,"aqi":125,"pm10":31.3,"pm2_5":22.5,"mosquito_risk":4,"arthritis_risk":5,"migraine_risk":7,"frizz_risk":0,"updated_at":"2026-03-25T18:48:43.119090+05:30"},{"city":"Ratlam","state":"Madhya Pradesh","latitude":23.3315,"longitude":75.0367,"temp":30.4,"humidity":40,"rain":0.0,"pressure":954.5,"uv_index":8.05,"wind_gusts":24.5,"aqi":69,"pm10":25.4,"pm2_5":12.3,"mosquito_risk":0,"arthritis_risk":5,"migraine_risk":7,"frizz_risk":0,"updated_at":"2026-03-25T18:48:43.119097+05:30"},{"city":"Sagar","state":"Madhya Pradesh","latitude":23.8388,"longitude":78.7378,"temp":29.4,"humidity":32,"rain":0.0,"pressure":951.1,"uv_index":8.05,"wind_gusts":25.6,"aqi":93,"pm10":30.5,"pm2_5":10.9,"mosquito_risk":4,"arthritis_risk":5,"migraine_risk":7,"frizz_risk":0,"updated_at":"2026-03-25T18:48:43.119103+05:30"},{"city":"Satna","state":"Madhya Pradesh","latitude":24.6005,"longitude":80.8322,"temp":29.5,"humidity":29,"rain":0.0,"pressure":972.4,"uv_index":7.85,"wind_gusts":29.9,"aqi":115,"pm10":74.0,"pm2_5":20.0,"mosquito_risk":4,"arthritis_risk":5,"migraine_risk":7,"frizz_risk":0,"updated_at":"2026-03-25T18:48:43.119110+05:30"},{"city":"Akola","state":"Maharashtra","latitude":20.7002,"longitude":77.0082,"temp":33.1,"humidity":31,"rain":0.0,"pressure":974.1,"uv_index":8.45,"wind_gusts":23.8,"aqi":87,"pm10":19.6,"pm2_5":13.0,"mosquito_risk":0,"arthritis_risk":5,"migraine_risk":7,"frizz_risk":0,"updated_at":"2026-03-25T18:48:43.119118+05:30"},{"city":"Amravati","state":"Maharashtra","latitude":20.9374,"longitude":77.7796,"temp":33.3,"humidity":37,"rain":0.0,"pressure":966.2,"uv_index":8.45,"wind_gusts":22.7,"aqi":88,"pm10":21.6,"pm2_5":14.1,"mosquito_risk":0,"arthritis_risk":5,"migraine_risk":7,"frizz_risk":1,"updated_at":"2026-03-25T18:48:43.119125+05:30"},{"city":"Latur","state":"Maharashtra","latitude":18.4088,"longitude":76.5604,"temp":31.0,"humidity":32,"rain":0.0,"pressure":939.0,"uv_index":8.8,"wind_gusts":19.8,"aqi":119,"pm10":34.8,"pm2_5":26.8,"mosquito_risk":0,"arthritis_risk":5,"migraine_risk":7,"frizz_risk":0,"updated_at":"2026-03-25T18:48:43.119132+05:30"},{"city":"Nanded","state":"Maharashtra","latitude":19.1383,"longitude":77.3091,"temp":33.7,"humidity":28,"rain":0.0,"pressure":967.1,"uv_index":8.65,"wind_gusts":22.7,"aqi":113,"pm10":31.5,"pm2_5":22.3,"mosquito_risk":0,"arthritis_risk":5,"migraine_risk":7,"frizz_risk":0,"updated_at":"2026-03-25T18:48:43.119168+05:30"},{"city":"Gulbarga","state":"Karnataka","latitude":17.3297,"longitude":76.8343,"temp":27.5,"humidity":62,"rain":0.0,"pressure":958.2,"uv_index":8.85,"wind_gusts":26.3,"aqi":137,"pm10":36.7,"pm2_5":28.7,"mosquito_risk":7,"arthritis_risk":5,"migraine_risk":7,"frizz_risk":1,"updated_at":"2026-03-25T18:48:43.119175+05:30"},{"city":"Bidar","state":"Karnataka","latitude":17.9104,"longitude":77.5199,"temp":31.5,"humidity":39,"rain":0.0,"pressure":935.4,"uv_index":8.85,"wind_gusts":24.1,"aqi":123,"pm10":32.7,"pm2_5":25.4,"mosquito_risk":0,"arthritis_risk":5,"migraine_risk":7,"frizz_risk":0,"updated_at":"2026-03-25T18:48:43.119181+05:30"},{"city":"Hospet","state":"Karnataka","latitude":15.2689,"longitude":76.3909,"temp":30.0,"humidity":55,"rain":0.0,"pressure":955.3,"uv_index":9.05,"wind_gusts":21.2,"aqi":153,"pm10":39.0,"pm2_5":33.8,"mosquito_risk":4,"arthritis_risk":5,"migraine_risk":7,"frizz_risk":1,"updated_at":"2026-03-25T18:48:43.119188+05:30"},{"city":"Tirupur","state":"Tamil Nadu","latitude":11.1085,"longitude":77.3411,"temp":33.7,"humidity":35,"rain":0.0,"pressure":973.2,"uv_index":9.4,"wind_gusts":31.7,"aqi":112,"pm10":22.2,"pm2_5":17.5,"mosquito_risk":0,"arthritis_risk":5,"migraine_risk":7,"frizz_risk":1,"updated_at":"2026-03-25T18:48:43.119193+05:30"},{"city":"Alappuzha","state":"Kerala","latitude":9.4981,"longitude":76.3388,"temp":29.5,"humidity":76,"rain":0.0,"pressure":1006.2,"uv_index":9.15,"wind_gusts":29.2,"aqi":139,"pm10":25.8,"pm2_5":20.3,"mosquito_risk":7,"arthritis_risk":5,"migraine_risk":4,"frizz_risk":1,"updated_at":"2026-03-25T18:48:43.119199+05:30"},{"city":"Munnar","state":"Kerala","latitude":10.0889,"longitude":77.0595,"temp":25.8,"humidity":67,"rain":0.0,"pressure":856.9,"uv_index":9.65,"wind_gusts":30.6,"aqi":82,"pm10":22.6,"pm2_5":17.1,"mosquito_risk":7,"arthritis_risk":5,"migraine_risk":7,"frizz_risk":1,"updated_at":"2026-03-25T18:48:43.119205+05:30"},{"city":"Silchar","state":"Assam","latitude":24.8333,"longitude":92.7789,"temp":25.6,"humidity":76,"rain":0.0,"pressure":1007.0,"uv_index":8.15,"wind_gusts":36.0,"aqi":160,"pm10":98.0,"pm2_5":72.6,"mosquito_risk":7,"arthritis_risk":5,"migraine_risk":4,"frizz_risk":1,"updated_at":"2026-03-25T18:48:43.119211+05:30"},{"city":"Dibrugarh","state":"Assam","latitude":27.4728,"longitude":94.912,"temp":20.4,"humidity":82,"rain":0.0,"pressure":999.7,"uv_index":6.95,"wind_gusts":27.4,"aqi":83,"pm10":31.1,"pm2_5":26.7,"mosquito_risk":3,"arthritis_risk":5,"migraine_risk":7,"frizz_risk":1,"updated_at":"2026-03-25T18:48:43.119217+05:30"}]