[{"city":"Delhi","state":"Delhi","latitude":28.6139,"longitude":77.209,"temp":44.0,"humidity":10,"rain":0.0,"pressure":977.0,"uv_index":7.7,"wind_gusts":38.9,"aqi":697,"pm10":538.3,"pm2_5":80.8,"no2":3.4,"co":215.0,"o3":138.0,"so2":6.6,"mosquito_risk":0,"arthritis_risk":5,"migraine_risk":10,"frizz_risk":0,"updated_at":"2026-05-19T15:21:12.589272+05:30"},{"city":"Mumbai","state":"Maharashtra","latitude":19.076,"longitude":72.8777,"temp":32.2,"humidity":59,"rain":0.0,"pressure":1005.2,"uv_index":7.25,"wind_gusts":40.3,"aqi":75,"pm10":58.0,"pm2_5":21.9,"no2":3.8,"co":173.0,"o3":96.0,"so2":3.9,"mosquito_risk":0,"arthritis_risk":5,"migraine_risk":4,"frizz_risk":1,"updated_at":"2026-05-19T15:21:12.589305+05:30"},{"city":"Bangalore","state":"Karnataka","latitude":12.9716,"longitude":77.5946,"temp":24.5,"humidity":84,"rain":0.2,"pressure":908.9,"uv_index":9.15,"wind_gusts":46.1,"aqi":59,"pm10":7.2,"pm2_5":6.6,"no2":4.4,"co":303.0,"o3":113.0,"so2":2.8,"mosquito_risk":6,"arthritis_risk":5,"migraine_risk":7,"frizz_risk":1,"updated_at":"2026-05-19T15:21:12.589320+05:30"},{"city":"Hyderabad","state":"Telangana","latitude":17.385,"longitude":78.4867,"temp":38.3,"humidity":28,"rain":0.0,"pressure":948.9,"uv_index":9.2,"wind_gusts":28.1,"aqi":88,"pm10":30.6,"pm2_5":23.9,"no2":2.3,"co":318.0,"o3":167.0,"so2":6.3,"mosquito_risk":0,"arthritis_risk":5,"migraine_risk":10,"frizz_risk":1,"updated_at":"2026-05-19T15:21:12.589330+05:30"},{"city":"Chennai","state":"Tamil Nadu","latitude":13.0827,"longitude":80.2707,"temp":36.5,"humidity":49,"rain":0.0,"pressure":1001.0,"uv_index":9.15,"wind_gusts":45.0,"aqi":84,"pm10":28.2,"pm2_5":22.8,"no2":2.9,"co":257.0,"o3":167.0,"so2":7.0,"mosquito_risk":0,"arthritis_risk":5,"migraine_risk":7,"frizz_risk":1,"updated_at":"2026-05-19T15:21:12.589342+05:30"},{"city":"Kolkata","state":"West Bengal","latitude":22.5726,"longitude":88.3639,"temp":35.2,"humidity":58,"rain":0.0,"pressure":997.4,"uv_index":8.95,"wind_gusts":42.5,"aqi":71,"pm10":35.9,"pm2_5":26.7,"no2":2.6,"co":324.0,"o3":137.0,"so2":9.8,"mosquito_risk":0,"arthritis_risk":5,"migraine_risk":10,"frizz_risk":1,"updated_at":"2026-05-19T15:21:12.589350+05:30"},{"city":"Pune","state":"Maharashtra","latitude":18.5204,"longitude":73.8567,"temp":35.7,"humidity":35,"rain":0.1,"pressure":945.1,"uv_index":8.45,"wind_gusts":42.8,"aqi":78,"pm10":50.1,"pm2_5":28.1,"no2":2.1,"co":185.0,"o3":158.0,"so2":10.1,"mosquito_risk":3,"arthritis_risk":5,"migraine_risk":10,"frizz_risk":1,"updated_at":"2026-05-19T15:21:12.589357+05:30"},{"city":"Ahmedabad","state":"Gujarat","latitude":23.0225,"longitude":72.5714,"temp":42.0,"humidity":13,"rain":0.0,"pressure":996.5,"uv_index":8.15,"wind_gusts":35.3,"aqi":64,"pm10":47.3,"pm2_5":16.5,"no2":1.4,"co":151.0,"o3":108.0,"so2":2.3,"mosquito_risk":0,"arthritis_risk":5,"migraine_risk":10,"frizz_risk":0,"updated_at":"2026-05-19T15:21:12.589364+05:30"},{"city":"Jaipur","state":"Rajasthan","latitude":26.9124,"longitude":75.7873,"temp":42.3,"humidity":12,"rain":0.0,"pressure":955.5,"uv_index":8.25,"wind_gusts":36.7,"aqi":166,"pm10":147.6,"pm2_5":28.5,"no2":1.0,"co":149.0,"o3":123.0,"so2":3.4,"mosquito_risk":0,"arthritis_risk":5,"migraine_risk":10,"frizz_risk":0,"updated_at":"2026-05-19T15:21:12.589373+05:30"},{"city":"Lucknow","state":"Uttar Pradesh","latitude":26.8467,"longitude":80.9462,"temp":42.5,"humidity":23,"rain":0.0,"pressure":985.9,"uv_index":8.25,"wind_gusts":33.5,"aqi":164,"pm10":283.1,"pm2_5":71.7,"no2":1.8,"co":354.0,"o3":204.0,"so2":13.5,"mosquito_risk":0,"arthritis_risk":5,"migraine_risk":10,"frizz_risk":1,"updated_at":"2026-05-19T15:21:12.589380+05:30"},{"city":"Kanpur","state":"Uttar Pradesh","latitude":26.4499,"longitude":80.3319,"temp":43.9,"humidity":15,"rain":0.0,"pressure":984.3,"uv_index":8.25,"wind_gusts":44.6,"aqi":448,"pm10":401.4,"pm2_5":73.3,"no2":1.4,"co":218.0,"o3":171.0,"so2":9.3,"mosquito_risk":0,"arthritis_risk":5,"migraine_risk":10,"frizz_risk":0,"updated_at":"2026-05-19T15:21:12.589386+05:30"},{"city":"Chandigarh","state":"Chandigarh","latitude":30.7333,"longitude":76.7794,"temp":40.8,"humidity":18,"rain":0.0,"pressure":963.7,"uv_index":7.75,"wind_gusts":28.1,"aqi":138,"pm10":40.7,"pm2_5":18.1,"no2":1.6,"co":300.0,"o3":152.0,"so2":8.3,"mosquito_risk":0,"arthritis_risk":5,"migraine_risk":10,"frizz_risk":0,"updated_at":"2026-05-19T15:21:12.589393+05:30"},{"city":"Srinagar","state":"Jammu and Kashmir","latitude":34.0837,"longitude":74.7973,"temp":25.9,"humidity":34,"rain":0.1,"pressure":844.5,"uv_index":9.0,"wind_gusts":34.2,"aqi":77,"pm10":31.9,"pm2_5":15.1,"no2":2.1,"co":234.0,"o3":131.0,"so2":3.1,"mosquito_risk":7,"arthritis_risk":5,"migraine_risk":7,"frizz_risk":0,"updated_at":"2026-05-19T15:21:12.589400+05:30"},{"city":"Jammu","state":"Jammu and Kashmir","latitude":32.7266,"longitude":74.857,"temp":41.6,"humidity":13,"rain":0.0,"pressure":967.0,"uv_index":8.55,"wind_gusts":30.6,"aqi":75,"pm10":34.8,"pm2_5":14.7,"no2":1.4,"co":248.0,"o3":142.0,"so2":3.7,"mosquito_risk":0,"arthritis_risk":5,"migraine_risk":10,"frizz_risk":0,"updated_at":"2026-05-19T15:21:12.589407+05:30"},{"city":"Amritsar","state":"Punjab","latitude":31.634,"longitude":74.8723,"temp":42.5,"humidity":11,"rain":0.0,"pressure":974.4,"uv_index":8.45,"wind_gusts":25.2,"aqi":106,"pm10":79.4,"pm2_5":23.9,"no2":1.7,"co":213.0,"o3":160.0,"so2":5.6,"mosquito_risk":0,"arthritis_risk":5,"migraine_risk":10,"frizz_risk":0,"updated_at":"2026-05-19T15:21:12.589413+05:30"},{"city":"Ludhiana","state":"Punjab","latitude":30.901,"longitude":75.8573,"temp":42.8,"humidity":10,"rain":0.0,"pressure":972.7,"uv_index":8.05,"wind_gusts":27.0,"aqi":101,"pm10":126.2,"pm2_5":26.3,"no2":1.2,"co":206.0,"o3":133.0,"so2":3.1,"mosquito_risk":0,"arthritis_risk":5,"migraine_risk":10,"frizz_risk":0,"updated_at":"2026-05-19T15:21:12.589419+05:30"},{"city":"Jalandhar","state":"Punjab","latitude":31.326,"longitude":75.5762,"temp":42.0,"humidity":14,"rain":0.0,"pressure":973.8,"uv_index":8.25,"wind_gusts":26.6,"aqi":115,"pm10":87.8,"pm2_5":22.3,"no2":1.3,"co":244.0,"o3":144.0,"so2":5.0,"mosquito_risk":0,"arthritis_risk":5,"migraine_risk":10,"frizz_risk":0,"updated_at":"2026-05-19T15:21:12.589425+05:30"},{"city":"Dehradun","state":"Uttarakhand","latitude":30.6284,"longitude":78.0322,"temp":27.1,"humidity":46,"rain":0.0,"pressure":831.9,"uv_index":8.2,"wind_gusts":48.2,"aqi":93,"pm10":38.4,"pm2_5":18.4,"no2":0.9,"co":304.0,"o3":166.0,"so2":7.1,"mosquito_risk":4,"arthritis_risk":5,"migraine_risk":7,"frizz_risk":0,"updated_at":"2026-05-19T15:21:12.589431+05:30"},{"city":"Shimla","state":"Himachal Pradesh","latitude":31.1048,"longitude":77.1734,"temp":25.6,"humidity":26,"rain":0.0,"pressure":788.2,"uv_index":8.3,"wind_gusts":44.6,"aqi":108,"pm10":36.1,"pm2_5":16.6,"no2":1.0,"co":196.0,"o3":158.0,"so2":8.3,"mosquito_risk":4,"arthritis_risk":5,"migraine_risk":7,"frizz_risk":0,"updated_at":"2026-05-19T15:21:12.589440+05:30"},{"city":"Manali","state":"Himachal Pradesh","latitude":32.2396,"longitude":77.1887,"temp":24.3,"humidity":46,"rain":0.0,"pressure":821.3,"uv_index":9.9,"wind_gusts":51.8,"aqi":65,"pm10":21.4,"pm2_5":10.7,"no2":1.2,"co":174.0,"o3":157.0,"so2":1.1,"mosquito_risk":0,"arthritis_risk":5,"migraine_risk":7,"frizz_risk":0,"updated_at":"2026-05-19T15:21:12.589446+05:30"},{"city":"Gurgaon","state":"Haryana","latitude":28.4595,"longitude":77.0266,"temp":42.8,"humidity":13,"rain":0.0,"pressure":975.7,"uv_index":7.85,"wind_gusts":35.6,"aqi":1590,"pm10":1192.1,"pm2_5":141.6,"no2":3.2,"co":191.0,"o3":138.0,"so2":5.6,"mosquito_risk":0,"arthritis_risk":5,"migraine_risk":10,"frizz_risk":0,"updated_at":"2026-05-19T15:21:12.589453+05:30"},{"city":"Noida","state":"Uttar Pradesh","latitude":28.5355,"longitude":77.391,"temp":43.2,"humidity":13,"rain":0.0,"pressure":977.9,"uv_index":7.75,"wind_gusts":33.5,"aqi":1590,"pm10":1192.1,"pm2_5":141.6,"no2":3.2,"co":231.0,"o3":138.0,"so2":5.6,"mosquito_risk":0,"arthritis_risk":5,"migraine_risk":10,"frizz_risk":0,"updated_at":"2026-05-19T15:21:12.589459+05:30"},{"city":"Ghaziabad","state":"Uttar Pradesh","latitude":28.6692,"longitude":77.4538,"temp":43.0,"humidity":12,"rain":0.0,"pressure":976.4,"uv_index":7.75,"wind_gusts":40.7,"aqi":563,"pm10":571.8,"pm2_5":95.7,"no2":2.6,"co":165.0,"o3":154.0,"so2":9.1,"mosquito_risk":0,"arthritis_risk":5,"migraine_risk":10,"frizz_risk":0,"updated_at":"2026-05-19T15:21:12.589471+05:30"},{"city":"Faridabad","state":"Haryana","latitude":28.4089,"longitude":77.3178,"temp":43.7,"humidity":10,"rain":0.0,"pressure":977.5,"uv_index":7.8,"wind_gusts":39.2,"aqi":1590,"pm10":1192.1,"pm2_5":141.6,"no2":3.2,"co":200.0,"o3":138.0,"so2":5.6,"mosquito_risk":0,"arthritis_risk":5,"migraine_risk":10,"frizz_risk":0,"updated_at":"2026-05-19T15:21:12.589477+05:30"},{"city":"Meerut","state":"Uttar Pradesh","latitude":28.9845,"longitude":77.7064,"temp":41.4,"humidity":20,"rain":0.0,"pressure":975.8,"uv_index":7.65,"wind_gusts":29.9,"aqi":563,"pm10":571.8,"pm2_5":95.7,"no2":2.6,"co":172.0,"o3":154.0,"so2":9.1,"mosquito_risk":0,"arthritis_risk":5,"migraine_risk":10,"frizz_risk":0,"updated_at":"2026-05-19T15:21:12.589483+05:30"},{"city":"Agra","state":"Uttar Pradesh","latitude":27.1767,"longitude":78.0081,"temp":43.7,"humidity":13,"rain":0.0,"pressure":981.5,"uv_index":8.1,"wind_gusts":43.2,"aqi":813,"pm10":1009.6,"pm2_5":137.4,"no2":1.8,"co":162.0,"o3":156.0,"so2":6.9,"mosquito_risk":0,"arthritis_risk":5,"migraine_risk":10,"frizz_risk":0,"updated_at":"2026-05-19T15:21:12.589489+05:30"},{"city":"Varanasi","state":"Uttar Pradesh","latitude":25.3176,"longitude":82.9739,"temp":40.7,"humidity":32,"rain":0.0,"pressure":989.6,"uv_index":8.7,"wind_gusts":32.0,"aqi":150,"pm10":283.1,"pm2_5":72.4,"no2":1.9,"co":351.0,"o3":200.0,"so2":13.9,"mosquito_risk":0,"arthritis_risk":5,"migraine_risk":10,"frizz_risk":1,"updated_at":"2026-05-19T15:21:12.589496+05:30"},{"city":"Prayagraj","state":"Uttar Pradesh","latitude":25.4358,"longitude":81.8463,"temp":43.3,"humidity":19,"rain":0.0,"pressure":987.8,"uv_index":8.6,"wind_gusts":35.3,"aqi":151,"pm10":285.9,"pm2_5":69.4,"no2":1.7,"co":219.0,"o3":198.0,"so2":12.9,"mosquito_risk":0,"arthritis_risk":5,"migraine_risk":10,"frizz_risk":0,"updated_at":"2026-05-19T15:21:12.589502+05:30"},{"city":"Gorakhpur","state":"Uttar Pradesh","latitude":26.7606,"longitude":83.3732,"temp":36.5,"humidity":47,"rain":0.0,"pressure":990.4,"uv_index":8.6,"wind_gusts":36.0,"aqi":157,"pm10":117.8,"pm2_5":59.8,"no2":1.7,"co":399.0,"o3":184.0,"so2":11.9,"mosquito_risk":0,"arthritis_risk":5,"migraine_risk":10,"frizz_risk":1,"updated_at":"2026-05-19T15:21:12.589510+05:30"},{"city":"Bareilly","state":"Uttar Pradesh","latitude":28.367,"longitude":79.4304,"temp":38.5,"humidity":37,"rain":0.0,"pressure":980.4,"uv_index":8.05,"wind_gusts":28.4,"aqi":156,"pm10":171.8,"pm2_5":57.2,"no2":1.6,"co":381.0,"o3":204.0,"so2":14.4,"mosquito_risk":0,"arthritis_risk":5,"migraine_risk":10,"frizz_risk":1,"updated_at":"2026-05-19T15:21:12.589516+05:30"},{"city":"Aligarh","state":"Uttar Pradesh","latitude":27.8974,"longitude":78.088,"temp":43.2,"humidity":12,"rain":0.0,"pressure":979.2,"uv_index":7.9,"wind_gusts":33.5,"aqi":862,"pm10":845.6,"pm2_5":126.2,"no2":2.4,"co":228.0,"o3":185.0,"so2":12.1,"mosquito_risk":0,"arthritis_risk":5,"migraine_risk":10,"frizz_risk":0,"updated_at":"2026-05-19T15:21:12.589523+05:30"},{"city":"Moradabad","state":"Uttar Pradesh","latitude":28.8386,"longitude":78.7733,"temp":39.3,"humidity":34,"rain":0.0,"pressure":977.8,"uv_index":7.85,"wind_gusts":30.6,"aqi":160,"pm10":169.0,"pm2_5":56.0,"no2":2.7,"co":419.0,"o3":234.0,"so2":19.8,"mosquito_risk":0,"arthritis_risk":5,"migraine_risk":10,"frizz_risk":1,"updated_at":"2026-05-19T15:21:12.589530+05:30"},{"city":"Saharanpur","state":"Uttar Pradesh","latitude":29.9637,"longitude":77.546,"temp":39.4,"humidity":26,"rain":0.0,"pressure":970.4,"uv_index":7.4,"wind_gusts":26.6,"aqi":121,"pm10":200.7,"pm2_5":54.6,"no2":2.8,"co":265.0,"o3":206.0,"so2":17.2,"mosquito_risk":0,"arthritis_risk":5,"migraine_risk":10,"frizz_risk":1,"updated_at":"2026-05-19T15:21:12.589536+05:30"},{"city":"Jhansi","state":"Uttar Pradesh","latitude":25.4484,"longitude":78.5685,"temp":43.8,"humidity":12,"rain":0.0,"pressure":972.1,"uv_index":8.5,"wind_gusts":37.4,"aqi":66,"pm10":105.0,"pm2_5":24.2,"no2":0.9,"co":147.0,"o3":127.0,"so2":4.2,"mosquito_risk":0,"arthritis_risk":5,"migraine_risk":10,"frizz_risk":0,"updated_at":"2026-05-19T15:21:15.913399+05:30"},{"city":"Surat","state":"Gujarat","latitude":21.1702,"longitude":72.8311,"temp":38.5,"humidity":27,"rain":0.0,"pressure":1001.8,"uv_index":7.75,"wind_gusts":41.0,"aqi":103,"pm10":92.4,"pm2_5":50.2,"no2":30.5,"co":540.0,"o3":107.0,"so2":71.1,"mosquito_risk":0,"arthritis_risk":5,"migraine_risk":7,"frizz_risk":1,"updated_at":"2026-05-19T15:21:15.913423+05:30"},{"city":"Vadodara","state":"Gujarat","latitude":22.3072,"longitude":73.1812,"temp":42.5,"humidity":14,"rain":0.0,"pressure":998.4,"uv_index":7.75,"wind_gusts":45.0,"aqi":81,"pm10":59.5,"pm2_5":25.6,"no2":2.1,"co":169.0,"o3":150.0,"so2":8.3,"mosquito_risk":0,"arthritis_risk":5,"migraine_risk":10,"frizz_risk":0,"updated_at":"2026-05-19T15:21:15.913433+05:30"},{"city":"Rajkot","state":"Gujarat","latitude":22.3039,"longitude":70.8022,"temp":41.2,"humidity":17,"rain":0.0,"pressure":989.1,"uv_index":7.65,"wind_gusts":45.0,"aqi":65,"pm10":56.9,"pm2_5":20.7,"no2":1.1,"co":128.0,"o3":122.0,"so2":5.0,"mosquito_risk":0,"arthritis_risk":5,"migraine_risk":10,"frizz_risk":0,"updated_at":"2026-05-19T15:21:15.913441+05:30"},{"city":"Thane","state":"Maharashtra","latitude":19.2183,"longitude":72.9781,"temp":34.7,"humidity":51,"rain":0.0,"pressure":1004.0,"uv_index":7.7,"wind_gusts":37.8,"aqi":75,"pm10":58.0,"pm2_5":21.9,"no2":3.8,"co":163.0,"o3":96.0,"so2":3.9,"mosquito_risk":0,"arthritis_risk":5,"migraine_risk":4,"frizz_risk":1,"updated_at":"2026-05-19T15:21:15.913447+05:30"},{"city":"Nagpur","state":"Maharashtra","latitude":21.1458,"longitude":79.0882,"temp":44.3,"humidity":14,"rain":0.0,"pressure":966.7,"uv_index":8.35,"wind_gusts":36.0,"aqi":97,"pm10":51.5,"pm2_5":28.9,"no2":5.0,"co":233.0,"o3":185.0,"so2":22.2,"mosquito_risk":0,"arthritis_risk":5,"migraine_risk":10,"frizz_risk":0,"updated_at":"2026-05-19T15:21:15.913454+05:30"},{"city":"Nashik","state":"Maharashtra","latitude":19.9975,"longitude":73.7898,"temp":36.8,"humidity":27,"rain":0.0,"pressure":942.7,"uv_index":8.15,"wind_gusts":38.5,"aqi":72,"pm10":55.2,"pm2_5":22.3,"no2":1.0,"co":142.0,"o3":115.0,"so2":2.3,"mosquito_risk":0,"arthritis_risk":5,"migraine_risk":10,"frizz_risk":0,"updated_at":"2026-05-19T15:21:15.913461+05:30"},{"city":"Aurangabad","state":"Maharashtra","latitude":19.8762,"longitude":75.3433,"temp":40.4,"humidity":16,"rain":0.0,"pressure":940.3,"uv_index":9.05,"wind_gusts":34.2,"aqi":70,"pm10":47.5,"pm2_5":23.3,"no2":1.1,"co":168.0,"o3":139.0,"so2":5.4,"mosquito_risk":0,"arthritis_risk":5,"migraine_risk":10,"frizz_risk":0,"updated_at":"2026-05-19T15:21:15.913468+05:30"},{"city":"Solapur","state":"Maharashtra","latitude":17.6599,"longitude":75.9064,"temp":39.9,"humidity":26,"rain":0.0,"pressure":952.4,"uv_index":8.3,"wind_gusts":35.6,"aqi":79,"pm10":40.5,"pm2_5":26.4,"no2":1.4,"co":173.0,"o3":163.0,"so2":7.8,"mosquito_risk":0,"arthritis_risk":5,"migraine_risk":10,"frizz_risk":1,"updated_at":"2026-05-19T15:21:15.913474+05:30"},{"city":"Kolhapur","state":"Maharashtra","latitude":16.705,"longitude":74.2433,"temp":31.1,"humidity":54,"rain":0.0,"pressure":945.6,"uv_index":8.4,"wind_gusts":43.6,"aqi":66,"pm10":41.1,"pm2_5":23.1,"no2":2.0,"co":151.0,"o3":132.0,"so2":4.2,"mosquito_risk":0,"arthritis_risk":5,"migraine_risk":7,"frizz_risk":1,"updated_at":"2026-05-19T15:21:15.913481+05:30"},{"city":"Goa","state":"Goa","latitude":15.2993,"longitude":74.124,"temp":27.5,"humidity":95,"rain":0.3,"pressure":995.9,"uv_index":5.0,"wind_gusts":24.8,"aqi":72,"pm10":46.2,"pm2_5":20.7,"no2":1.4,"co":122.0,"o3":81.0,"so2":1.8,"mosquito_risk":10,"arthritis_risk":5,"migraine_risk":3,"frizz_risk":1,"updated_at":"2026-05-19T15:21:15.913488+05:30"},{"city":"Jodhpur","state":"Rajasthan","latitude":26.2389,"longitude":73.0243,"temp":40.5,"humidity":17,"rain":0.0,"pressure":977.7,"uv_index":8.45,"wind_gusts":37.1,"aqi":129,"pm10":199.8,"pm2_5":37.5,"no2":0.7,"co":132.0,"o3":110.0,"so2":2.0,"mosquito_risk":0,"arthritis_risk":5,"migraine_risk":10,"frizz_risk":0,"updated_at":"2026-05-19T15:21:15.913495+05:30"},{"city":"Udaipur","state":"Rajasthan","latitude":24.5854,"longitude":73.7125,"temp":38.8,"humidity":11,"rain":0.0,"pressure":943.3,"uv_index":8.85,"wind_gusts":39.2,"aqi":54,"pm10":27.2,"pm2_5":11.4,"no2":0.5,"co":121.0,"o3":109.0,"so2":1.3,"mosquito_risk":0,"arthritis_risk":5,"migraine_risk":10,"frizz_risk":0,"updated_at":"2026-05-19T15:21:15.913501+05:30"},{"city":"Kota","state":"Rajasthan","latitude":25.2138,"longitude":75.8648,"temp":43.5,"humidity":13,"rain":0.0,"pressure":973.5,"uv_index":8.4,"wind_gusts":33.5,"aqi":66,"pm10":50.6,"pm2_5":17.9,"no2":0.8,"co":137.0,"o3":126.0,"so2":4.5,"mosquito_risk":0,"arthritis_risk":5,"migraine_risk":10,"frizz_risk":0,"updated_at":"2026-05-19T15:21:15.913507+05:30"},{"city":"Bikaner","state":"Rajasthan","latitude":28.0229,"longitude":73.3119,"temp":42.0,"humidity":12,"rain":0.0,"pressure":975.7,"uv_index":8.4,"wind_gusts":34.9,"aqi":136,"pm10":70.1,"pm2_5":29.1,"no2":0.4,"co":129.0,"o3":112.0,"so2":2.2,"mosquito_risk":0,"arthritis_risk":5,"migraine_risk":10,"frizz_risk":0,"updated_at":"2026-05-19T15:21:15.913514+05:30"},{"city":"Ajmer","state":"Rajasthan","latitude":26.4499,"longitude":74.6399,"temp":39.3,"humidity":13,"rain":0.0,"pressure":951.2,"uv_index":8.4,"wind_gusts":40.3,"aqi":64,"pm10":37.4,"pm2_5":15.1,"no2":0.7,"co":134.0,"o3":117.0,"so2":2.3,"mosquito_risk":0,"arthritis_risk":5,"migraine_risk":10,"frizz_risk":0,"updated_at":"2026-05-19T15:21:15.913520+05:30"},{"city":"Gwalior","state":"Madhya Pradesh","latitude":26.2183,"longitude":78.1828,"temp":44.0,"humidity":11,"rain":0.0,"pressure":977.1,"uv_index":8.3,"wind_gusts":40.3,"aqi":80,"pm10":223.1,"pm2_5":43.1,"no2":0.7,"co":157.0,"o3":129.0,"so2":2.9,"mosquito_risk":0,"arthritis_risk":5,"migraine_risk":10,"frizz_risk":0,"updated_at":"2026-05-19T15:21:15.913526+05:30"},{"city":"Indore","state":"Madhya Pradesh","latitude":22.7196,"longitude":75.8577,"temp":41.5,"humidity":14,"rain":0.0,"pressure":944.2,"uv_index":8.7,"wind_gusts":42.5,"aqi":68,"pm10":43.7,"pm2_5":17.5,"no2":1.2,"co":186.0,"o3":128.0,"so2":3.7,"mosquito_risk":0,"arthritis_risk":5,"migraine_risk":10,"frizz_risk":0,"updated_at":"2026-05-19T15:21:15.913532+05:30"},{"city":"Bhopal","state":"Madhya Pradesh","latitude":23.2599,"longitude":77.4126,"temp":42.8,"humidity":12,"rain":0.0,"pressure":948.5,"uv_index":8.7,"wind_gusts":35.3,"aqi":75,"pm10":62.2,"pm2_5":20.4,"no2":0.8,"co":173.0,"o3":130.0,"so2":3.8,"mosquito_risk":0,"arthritis_risk":5,"migraine_risk":10,"frizz_risk":0,"updated_at":"2026-05-19T15:21:15.913538+05:30"},{"city":"Jabalpur","state":"Madhya Pradesh","latitude":23.1815,"longitude":79.9864,"temp":42.9,"humidity":14,"rain":0.0,"pressure":955.9,"uv_index":8.85,"wind_gusts":33.5,"aqi":89,"pm10":53.7,"pm2_5":20.2,"no2":1.0,"co":163.0,"o3":140.0,"so2":4.0,"mosquito_risk":0,"arthritis_risk":5,"migraine_risk":10,"frizz_risk":0,"updated_at":"2026-05-19T15:21:15.913544+05:30"},{"city":"Ujjain","state":"Madhya Pradesh","latitude":23.1765,"longitude":75.7885,"temp":41.6,"humidity":14,"rain":0.0,"pressure":949.7,"uv_index":8.5,"wind_gusts":42.5,"aqi":65,"pm10":42.3,"pm2_5":18.1,"no2":0.6,"co":155.0,"o3":124.0,"so2":3.6,"mosquito_risk":0,"arthritis_risk":5,"migraine_risk":10,"frizz_risk":0,"updated_at":"2026-05-19T15:21:15.913550+05:30"},{"city":"Visakhapatnam","state":"Andhra Pradesh","latitude":17.6868,"longitude":83.2185,"temp":34.2,"humidity":63,"rain":0.0,"pressure":997.7,"uv_index":9.1,"wind_gusts":50.4,"aqi":64,"pm10":32.1,"pm2_5":25.1,"no2":6.9,"co":341.0,"o3":132.0,"so2":26.3,"mosquito_risk":3,"arthritis_risk":5,"migraine_risk":7,"frizz_risk":1,"updated_at":"2026-05-19T15:21:15.913556+05:30"},{"city":"Vijayawada","state":"Andhra Pradesh","latitude":16.5062,"longitude":80.648,"temp":40.5,"humidity":35,"rain":0.0,"pressure":995.5,"uv_index":8.75,"wind_gusts":29.5,"aqi":98,"pm10":23.7,"pm2_5":20.9,"no2":1.9,"co":255.0,"o3":159.0,"so2":7.5,"mosquito_risk":0,"arthritis_risk":5,"migraine_risk":10,"frizz_risk":1,"updated_at":"2026-05-19T15:21:15.913563+05:30"},{"city":"Guntur","state":"Andhra Pradesh","latitude":16.3067,"longitude":80.4365,"temp":40.7,"humidity":34,"rain":0.0,"pressure":996.7,"uv_index":8.8,"wind_gusts":36.4,"aqi":95,"pm10":21.5,"pm2_5":18.5,"no2":1.4,"co":249.0,"o3":147.0,"so2":5.1,"mosquito_risk":0,"arthritis_risk":5,"migraine_risk":10,"frizz_risk":1,"updated_at":"2026-05-19T15:21:15.913569+05:30"},{"city":"Nellore","state":"Andhra Pradesh","latitude":14.4426,"longitude":79.9865,"temp":39.8,"humidity":36,"rain":0.0,"pressure":998.7,"uv_index":9.1,"wind_gusts":45.4,"aqi":91,"pm10":30.3,"pm2_5":25.7,"no2":2.3,"co":203.0,"o3":171.0,"so2":4.9,"mosquito_risk":0,"arthritis_risk":5,"migraine_risk":10,"frizz_risk":1,"updated_at":"2026-05-19T15:21:15.913576+05:30"},{"city":"Kurnool","state":"Andhra Pradesh","latitude":15.8281,"longitude":78.0373,"temp":39.8,"humidity":29,"rain":0.0,"pressure":971.3,"uv_index":9.15,"wind_gusts":41.4,"aqi":78,"pm10":31.2,"pm2_5":24.6,"no2":1.2,"co":188.0,"o3":162.0,"so2":6.3,"mosquito_risk":0,"arthritis_risk":5,"migraine_risk":10,"frizz_risk":1,"updated_at":"2026-05-19T15:21:15.913583+05:30"},{"city":"Kakinada","state":"Andhra Pradesh","latitude":16.9891,"longitude":82.2475,"temp":40.8,"humidity":34,"rain":0.0,"pressure":999.9,"uv_index":8.7,"wind_gusts":33.8,"aqi":55,"pm10":27.6,"pm2_5":20.5,"no2":1.3,"co":243.0,"o3":125.0,"so2":4.8,"mosquito_risk":0,"arthritis_risk":5,"migraine_risk":10,"frizz_risk":1,"updated_at":"2026-05-19T15:21:15.913590+05:30"},{"city":"Tirupati","state":"Andhra Pradesh","latitude":13.6288,"longitude":79.4192,"temp":32.7,"humidity":59,"rain":0.0,"pressure":985.4,"uv_index":9.15,"wind_gusts":38.9,"aqi":69,"pm10":23.4,"pm2_5":20.6,"no2":1.9,"co":187.0,"o3":149.0,"so2":3.7,"mosquito_risk":0,"arthritis_risk":5,"migraine_risk":7,"frizz_risk":1,"updated_at":"2026-05-19T15:21:15.913596+05:30"},{"city":"Warangal","state":"Telangana","latitude":17.9689,"longitude":79.5941,"temp":39.2,"humidity":34,"rain":0.0,"pressure":973.1,"uv_index":9.15,"wind_gusts":36.0,"aqi":84,"pm10":34.6,"pm2_5":27.6,"no2":1.6,"co":241.0,"o3":151.0,"so2":5.5,"mosquito_risk":0,"arthritis_risk":5,"migraine_risk":10,"frizz_risk":1,"updated_at":"2026-05-19T15:21:15.913602+05:30"},{"city":"Nizamabad","state":"Telangana","latitude":18.6725,"longitude":78.0941,"temp":41.0,"humidity":23,"rain":0.0,"pressure":959.7,"uv_index":9.1,"wind_gusts":30.6,"aqi":91,"pm10":44.9,"pm2_5":31.8,"no2":1.3,"co":191.0,"o3":169.0,"so2":7.1,"mosquito_risk":0,"arthritis_risk":5,"migraine_risk":10,"frizz_risk":0,"updated_at":"2026-05-19T15:21:15.913608+05:30"},{"city":"Mysore","state":"Karnataka","latitude":12.2958,"longitude":76.6396,"temp":28.7,"humidity":64,"rain":0.0,"pressure":925.9,"uv_index":7.65,"wind_gusts":43.6,"aqi":43,"pm10":2.6,"pm2_5":2.5,"no2":2.8,"co":186.0,"o3":84.0,"so2":1.3,"mosquito_risk":7,"arthritis_risk":5,"migraine_risk":7,"frizz_risk":1,"updated_at":"2026-05-19T15:21:15.913614+05:30"},{"city":"Mangalore","state":"Karnataka","latitude":12.9141,"longitude":74.856,"temp":27.6,"humidity":85,"rain":0.1,"pressure":1004.6,"uv_index":7.05,"wind_gusts":38.9,"aqi":46,"pm10":7.2,"pm2_5":5.0,"no2":2.2,"co":163.0,"o3":73.0,"so2":0.9,"mosquito_risk":10,"arthritis_risk":5,"migraine_risk":4,"frizz_risk":1,"updated_at":"2026-05-19T15:21:15.913621+05:30"},{"city":"Hubli-Dharwad","state":"Karnataka","latitude":15.3647,"longitude":75.124,"temp":28.7,"humidity":68,"rain":0.0,"pressure":938.5,"uv_index":6.3,"wind_gusts":40.0,"aqi":56,"pm10":19.7,"pm2_5":11.8,"no2":2.1,"co":162.0,"o3":100.0,"so2":1.9,"mosquito_risk":7,"arthritis_risk":5,"migraine_risk":7,"frizz_risk":1,"updated_at":"2026-05-19T15:21:15.913627+05:30"},{"city":"Belgaum","state":"Karnataka","latitude":15.8497,"longitude":74.4977,"temp":27.7,"humidity":71,"rain":0.0,"pressure":923.9,"uv_index":6.35,"wind_gusts":36.7,"aqi":61,"pm10":37.1,"pm2_5":20.8,"no2":2.2,"co":146.0,"o3":104.0,"so2":2.5,"mosquito_risk":7,"arthritis_risk":5,"migraine_risk":7,"frizz_risk":1,"updated_at":"2026-05-19T15:21:19.236418+05:30"},{"city":"Coimbatore","state":"Tamil Nadu","latitude":11.0168,"longitude":76.9558,"temp":31.0,"humidity":59,"rain":0.0,"pressure":958.3,"uv_index":8.35,"wind_gusts":59.0,"aqi":33,"pm10":2.6,"pm2_5":2.3,"no2":2.3,"co":168.0,"o3":76.0,"so2":1.3,"mosquito_risk":0,"arthritis_risk":5,"migraine_risk":7,"frizz_risk":1,"updated_at":"2026-05-19T15:21:19.236447+05:30"},{"city":"Madurai","state":"Tamil Nadu","latitude":9.9252,"longitude":78.1198,"temp":34.7,"humidity":50,"rain":0.0,"pressure":988.3,"uv_index":8.95,"wind_gusts":40.3,"aqi":47,"pm10":5.4,"pm2_5":4.0,"no2":1.7,"co":165.0,"o3":85.0,"so2":1.2,"mosquito_risk":0,"arthritis_risk":5,"migraine_risk":7,"frizz_risk":1,"updated_at":"2026-05-19T15:21:19.236461+05:30"},{"city":"Trichy","state":"Tamil Nadu","latitude":10.7905,"longitude":78.7047,"temp":33.8,"humidity":60,"rain":0.0,"pressure":994.7,"uv_index":8.7,"wind_gusts":29.2,"aqi":47,"pm10":8.0,"pm2_5":7.1,"no2":2.2,"co":192.0,"o3":113.0,"so2":2.2,"mosquito_risk":0,"arthritis_risk":5,"migraine_risk":7,"frizz_risk":1,"updated_at":"2026-05-19T15:21:19.236472+05:30"},{"city":"Salem","state":"Tamil Nadu","latitude":11.6643,"longitude":78.146,"temp":30.5,"humidity":66,"rain":0.1,"pressure":973.5,"uv_index":8.9,"wind_gusts":46.8,"aqi":53,"pm10":5.6,"pm2_5":5.1,"no2":2.2,"co":194.0,"o3":116.0,"so2":4.4,"mosquito_risk":6,"arthritis_risk":5,"migraine_risk":7,"frizz_risk":1,"updated_at":"2026-05-19T15:21:19.236482+05:30"},{"city":"Tirunelveli","state":"Tamil Nadu","latitude":8.7139,"longitude":77.7567,"temp":35.2,"humidity":48,"rain":0.0,"pressure":998.9,"uv_index":8.8,"wind_gusts":21.6,"aqi":29,"pm10":2.8,"pm2_5":2.2,"no2":1.1,"co":139.0,"o3":61.0,"so2":0.5,"mosquito_risk":0,"arthritis_risk":5,"migraine_risk":10,"frizz_risk":1,"updated_at":"2026-05-19T15:21:19.236491+05:30"},{"city":"Vellore","state":"Tamil Nadu","latitude":12.9165,"longitude":79.1325,"temp":36.8,"humidity":40,"rain":0.0,"pressure":978.9,"uv_index":6.65,"wind_gusts":38.2,"aqi":67,"pm10":13.6,"pm2_5":12.2,"no2":1.6,"co":222.0,"o3":137.0,"so2":3.3,"mosquito_risk":0,"arthritis_risk":5,"migraine_risk":10,"frizz_risk":1,"updated_at":"2026-05-19T15:21:19.236500+05:30"},{"city":"Erode","state":"Tamil Nadu","latitude":11.341,"longitude":77.7172,"temp":34.5,"humidity":46,"rain":0.1,"pressure":984.7,"uv_index":9.1,"wind_gusts":46.8,"aqi":40,"pm10":4.0,"pm2_5":3.6,"no2":2.2,"co":176.0,"o3":96.0,"so2":1.4,"mosquito_risk":3,"arthritis_risk":5,"migraine_risk":7,"frizz_risk":1,"updated_at":"2026-05-19T15:21:19.236509+05:30"},{"city":"Kochi","state":"Kerala","latitude":9.9312,"longitude":76.2673,"temp":29.0,"humidity":78,"rain":0.0,"pressure":1006.3,"uv_index":7.85,"wind_gusts":32.8,"aqi":36,"pm10":8.0,"pm2_5":5.7,"no2":2.6,"co":146.0,"o3":68.0,"so2":2.0,"mosquito_risk":7,"arthritis_risk":5,"migraine_risk":4,"frizz_risk":1,"updated_at":"2026-05-19T15:21:19.236517+05:30"},{"city":"Thiruvananthapuram","state":"Kerala","latitude":8.5241,"longitude":76.9366,"temp":28.2,"humidity":79,"rain":0.0,"pressure":1005.9,"uv_index":7.5,"wind_gusts":35.3,"aqi":38,"pm10":8.0,"pm2_5":4.7,"no2":1.0,"co":117.0,"o3":59.0,"so2":0.4,"mosquito_risk":7,"arthritis_risk":5,"migraine_risk":4,"frizz_risk":1,"updated_at":"2026-05-19T15:21:19.236525+05:30"},{"city":"Kozhikode","state":"Kerala","latitude":11.2588,"longitude":75.7804,"temp":28.3,"humidity":83,"rain":0.0,"pressure":1005.4,"uv_index":3.9,"wind_gusts":30.6,"aqi":34,"pm10":5.8,"pm2_5":3.8,"no2":0.6,"co":152.0,"o3":72.0,"so2":0.3,"mosquito_risk":7,"arthritis_risk":5,"migraine_risk":0,"frizz_risk":1,"updated_at":"2026-05-19T15:21:19.236534+05:30"},{"city":"Thrissur","state":"Kerala","latitude":10.5276,"longitude":76.2144,"temp":29.0,"humidity":78,"rain":0.0,"pressure":1004.5,"uv_index":7.4,"wind_gusts":34.9,"aqi":35,"pm10":7.4,"pm2_5":5.3,"no2":2.0,"co":171.0,"o3":65.0,"so2":1.5,"mosquito_risk":7,"arthritis_risk":5,"migraine_risk":4,"frizz_risk":1,"updated_at":"2026-05-19T15:21:19.236543+05:30"},{"city":"Kannur","state":"Kerala","latitude":11.8745,"longitude":75.3704,"temp":27.5,"humidity":87,"rain":0.0,"pressure":1005.0,"uv_index":7.6,"wind_gusts":37.8,"aqi":31,"pm10":5.8,"pm2_5":4.3,"no2":2.8,"co":137.0,"o3":65.0,"so2":0.8,"mosquito_risk":7,"arthritis_risk":5,"migraine_risk":4,"frizz_risk":1,"updated_at":"2026-05-19T15:21:19.236552+05:30"},{"city":"Patna","state":"Bihar","latitude":25.5941,"longitude":85.1376,"temp":35.2,"humidity":52,"rain":0.0,"pressure":993.3,"uv_index":8.8,"wind_gusts":42.1,"aqi":148,"pm10":83.8,"pm2_5":53.8,"no2":2.8,"co":416.0,"o3":202.0,"so2":15.8,"mosquito_risk":0,"arthritis_risk":5,"migraine_risk":10,"frizz_risk":1,"updated_at":"2026-05-19T15:21:19.236561+05:30"},{"city":"Gaya","state":"Bihar","latitude":24.7914,"longitude":85.0002,"temp":38.0,"humidity":41,"rain":0.0,"pressure":986.4,"uv_index":8.85,"wind_gusts":30.2,"aqi":159,"pm10":101.3,"pm2_5":58.4,"no2":2.0,"co":354.0,"o3":220.0,"so2":17.0,"mosquito_risk":0,"arthritis_risk":5,"migraine_risk":10,"frizz_risk":1,"updated_at":"2026-05-19T15:21:19.236569+05:30"},{"city":"Muzaffarpur","state":"Bihar","latitude":26.1209,"longitude":85.3647,"temp":34.2,"humidity":56,"rain":0.0,"pressure":993.6,"uv_index":8.85,"wind_gusts":44.3,"aqi":149,"pm10":81.5,"pm2_5":51.2,"no2":2.8,"co":388.0,"o3":184.0,"so2":13.3,"mosquito_risk":0,"arthritis_risk":5,"migraine_risk":7,"frizz_risk":1,"updated_at":"2026-05-19T15:21:19.236578+05:30"},{"city":"Bhagalpur","state":"Bihar","latitude":25.2425,"longitude":87.0117,"temp":34.5,"humidity":56,"rain":0.0,"pressure":994.0,"uv_index":8.8,"wind_gusts":37.4,"aqi":144,"pm10":53.3,"pm2_5":44.0,"no2":5.3,"co":387.0,"o3":154.0,"so2":17.4,"mosquito_risk":0,"arthritis_risk":5,"migraine_risk":7,"frizz_risk":1,"updated_at":"2026-05-19T15:21:19.236586+05:30"},{"city":"Ranchi","state":"Jharkhand","latitude":23.3441,"longitude":85.3096,"temp":35.2,"humidity":29,"rain":0.0,"pressure":932.4,"uv_index":9.25,"wind_gusts":47.9,"aqi":129,"pm10":147.1,"pm2_5":37.0,"no2":1.2,"co":221.0,"o3":156.0,"so2":6.9,"mosquito_risk":0,"arthritis_risk":5,"migraine_risk":10,"frizz_risk":0,"updated_at":"2026-05-19T15:21:19.236594+05:30"},{"city":"Jamshedpur","state":"Jharkhand","latitude":22.8046,"longitude":86.2029,"temp":38.0,"humidity":32,"rain":0.0,"pressure":982.5,"uv_index":9.1,"wind_gusts":45.7,"aqi":162,"pm10":78.0,"pm2_5":32.4,"no2":2.8,"co":232.0,"o3":199.0,"so2":15.9,"mosquito_risk":0,"arthritis_risk":5,"migraine_risk":10,"frizz_risk":1,"updated_at":"2026-05-19T15:21:19.236603+05:30"},{"city":"Dhanbad","state":"Jharkhand","latitude":23.7957,"longitude":86.4304,"temp":38.7,"humidity":31,"rain":0.0,"pressure":972.1,"uv_index":9.05,"wind_gusts":25.2,"aqi":160,"pm10":98.0,"pm2_5":49.8,"no2":6.8,"co":225.0,"o3":219.0,"so2":36.3,"mosquito_risk":0,"arthritis_risk":5,"migraine_risk":10,"frizz_risk":1,"updated_at":"2026-05-19T15:21:19.236612+05:30"},{"city":"Bokaro","state":"Jharkhand","latitude":23.6693,"longitude":86.1511,"temp":37.9,"humidity":34,"rain":0.0,"pressure":975.9,"uv_index":9.05,"wind_gusts":21.6,"aqi":156,"pm10":110.6,"pm2_5":42.6,"no2":6.8,"co":220.0,"o3":195.0,"so2":33.4,"mosquito_risk":0,"arthritis_risk":5,"migraine_risk":10,"frizz_risk":1,"updated_at":"2026-05-19T15:21:19.236621+05:30"},{"city":"Bhubaneswar","state":"Odisha","latitude":20.2961,"longitude":85.8245,"temp":38.0,"humidity":50,"rain":0.0,"pressure":994.7,"uv_index":9.15,"wind_gusts":44.3,"aqi":61,"pm10":28.9,"pm2_5":23.7,"no2":2.4,"co":261.0,"o3":160.0,"so2":9.7,"mosquito_risk":0,"arthritis_risk":5,"migraine_risk":10,"frizz_risk":1,"updated_at":"2026-05-19T15:21:19.236630+05:30"},{"city":"Cuttack","state":"Odisha","latitude":20.4625,"longitude":85.8828,"temp":39.3,"humidity":41,"rain":0.0,"pressure":996.0,"uv_index":9.2,"wind_gusts":33.8,"aqi":61,"pm10":28.9,"pm2_5":23.7,"no2":2.4,"co":267.0,"o3":160.0,"so2":9.7,"mosquito_risk":0,"arthritis_risk":5,"migraine_risk":10,"frizz_risk":1,"updated_at":"2026-05-19T15:21:19.236638+05:30"},{"city":"Rourkela","state":"Odisha","latitude":22.2604,"longitude":84.8536,"temp":39.4,"humidity":29,"rain":0.0,"pressure":977.5,"uv_index":8.95,"wind_gusts":44.6,"aqi":158,"pm10":213.7,"pm2_5":51.3,"no2":1.7,"co":272.0,"o3":182.0,"so2":11.8,"mosquito_risk":0,"arthritis_risk":5,"migraine_risk":10,"frizz_risk":1,"updated_at":"2026-05-19T15:21:19.236645+05:30"},{"city":"Raipur","state":"Chhattisgarh","latitude":21.2514,"longitude":81.6296,"temp":41.2,"humidity":24,"rain":0.0,"pressure":968.7,"uv_index":9.0,"wind_gusts":46.8,"aqi":96,"pm10":56.2,"pm2_5":36.1,"no2":5.7,"co":194.0,"o3":185.0,"so2":27.6,"mosquito_risk":0,"arthritis_risk":5,"migraine_risk":10,"frizz_risk":1,"updated_at":"2026-05-19T15:21:19.236651+05:30"},{"city":"Bhilai","state":"Chhattisgarh","latitude":21.1938,"longitude":81.3509,"temp":40.5,"humidity":25,"rain":0.0,"pressure":969.2,"uv_index":9.0,"wind_gusts":46.8,"aqi":94,"pm10":52.7,"pm2_5":32.8,"no2":6.0,"co":342.0,"o3":170.0,"so2":25.2,"mosquito_risk":0,"arthritis_risk":5,"migraine_risk":10,"frizz_risk":1,"updated_at":"2026-05-19T15:21:19.236657+05:30"},{"city":"Guwahati","state":"Assam","latitude":26.1158,"longitude":91.7086,"temp":31.6,"humidity":60,"rain":0.0,"pressure":994.8,"uv_index":8.75,"wind_gusts":22.0,"aqi":87,"pm10":47.8,"pm2_5":28.3,"no2":1.5,"co":307.0,"o3":147.0,"so2":4.8,"mosquito_risk":0,"arthritis_risk":5,"migraine_risk":7,"frizz_risk":1,"updated_at":"2026-05-19T15:21:19.236663+05:30"},{"city":"Agartala","state":"Tripura","latitude":23.8315,"longitude":91.2868,"temp":30.2,"humidity":79,"rain":0.0,"pressure":999.9,"uv_index":8.75,"wind_gusts":35.3,"aqi":87,"pm10":29.0,"pm2_5":17.5,"no2":3.7,"co":245.0,"o3":123.0,"so2":2.6,"mosquito_risk":3,"arthritis_risk":5,"migraine_risk":7,"frizz_risk":1,"updated_at":"2026-05-19T15:21:19.236670+05:30"},{"city":"Shillong","state":"Meghalaya","latitude":25.5788,"longitude":91.8933,"temp":24.4,"humidity":68,"rain":0.1,"pressure":854.4,"uv_index":7.1,"wind_gusts":24.5,"aqi":81,"pm10":46.2,"pm2_5":22.4,"no2":1.5,"co":267.0,"o3":135.0,"so2":4.8,"mosquito_risk":6,"arthritis_risk":5,"migraine_risk":7,"frizz_risk":1,"updated_at":"2026-05-19T15:21:19.236676+05:30"},{"city":"Imphal","state":"Manipur","latitude":24.817,"longitude":93.9368,"temp":28.8,"humidity":60,"rain":0.0,"pressure":917.7,"uv_index":9.1,"wind_gusts":36.0,"aqi":90,"pm10":27.4,"pm2_5":16.6,"no2":1.1,"co":220.0,"o3":112.0,"so2":3.0,"mosquito_risk":4,"arthritis_risk":5,"migraine_risk":7,"frizz_risk":1,"updated_at":"2026-05-19T15:21:19.236682+05:30"},{"city":"Aizawl","state":"Mizoram","latitude":23.7271,"longitude":92.7176,"temp":27.0,"humidity":59,"rain":0.0,"pressure":888.9,"uv_index":9.1,"wind_gusts":29.9,"aqi":98,"pm10":53.0,"pm2_5":21.9,"no2":0.7,"co":190.0,"o3":110.0,"so2":3.9,"mosquito_risk":4,"arthritis_risk":5,"migraine_risk":7,"frizz_risk":1,"updated_at":"2026-05-19T15:21:19.236688+05:30"},{"city":"Kohima","state":"Nagaland","latitude":25.6701,"longitude":94.1077,"temp":24.4,"humidity":72,"rain":0.0,"pressure":852.2,"uv_index":8.65,"wind_gusts":27.7,"aqi":65,"pm10":32.4,"pm2_5":19.1,"no2":0.8,"co":243.0,"o3":124.0,"so2":3.4,"mosquito_risk":3,"arthritis_risk":5,"migraine_risk":7,"frizz_risk":1,"updated_at":"2026-05-19T15:21:19.236694+05:30"},{"city":"Gangtok","state":"Sikkim","latitude":27.3314,"longitude":88.6138,"temp":24.4,"humidity":61,"rain":0.0,"pressure":835.7,"uv_index":9.15,"wind_gusts":39.6,"aqi":91,"pm10":32.1,"pm2_5":23.7,"no2":1.1,"co":316.0,"o3":144.0,"so2":3.6,"mosquito_risk":3,"arthritis_risk":5,"migraine_risk":7,"frizz_risk":1,"updated_at":"2026-05-19T15:21:19.236700+05:30"},{"city":"Siliguri","state":"West Bengal","latitude":26.7271,"longitude":88.3953,"temp":31.7,"humidity":61,"rain":0.0,"pressure":986.7,"uv_index":8.7,"wind_gusts":28.8,"aqi":151,"pm10":46.7,"pm2_5":32.1,"no2":1.9,"co":347.0,"o3":152.0,"so2":5.5,"mosquito_risk":3,"arthritis_risk":5,"migraine_risk":7,"frizz_risk":1,"updated_at":"2026-05-19T15:21:22.561641+05:30"},{"city":"Durgapur","state":"West Bengal","latitude":23.5204,"longitude":87.3119,"temp":37.5,"humidity":48,"rain":0.0,"pressure":986.5,"uv_index":9.0,"wind_gusts":46.1,"aqi":161,"pm10":80.6,"pm2_5":72.9,"no2":8.6,"co":362.0,"o3":297.0,"so2":52.3,"mosquito_risk":0,"arthritis_risk":5,"migraine_risk":10,"frizz_risk":1,"updated_at":"2026-05-19T15:21:22.561670+05:30"},{"city":"Asansol","state":"West Bengal","latitude":23.6739,"longitude":86.9524,"temp":38.0,"humidity":44,"rain":0.0,"pressure":985.2,"uv_index":9.0,"wind_gusts":44.6,"aqi":159,"pm10":83.8,"pm2_5":61.9,"no2":6.8,"co":357.0,"o3":267.0,"so2":40.4,"mosquito_risk":0,"arthritis_risk":5,"migraine_risk":10,"frizz_risk":1,"updated_at":"2026-05-19T15:21:22.561683+05:30"},{"city":"Pondicherry","state":"Puducherry","latitude":11.9139,"longitude":79.8145,"temp":33.0,"humidity":71,"rain":0.0,"pressure":1003.0,"uv_index":9.05,"wind_gusts":36.4,"aqi":58,"pm10":21.2,"pm2_5":17.8,"no2":2.8,"co":199.0,"o3":151.0,"so2":9.6,"mosquito_risk":3,"arthritis_risk":5,"migraine_risk":4,"frizz_risk":1,"updated_at":"2026-05-19T15:21:22.561694+05:30"},{"city":"Port Blair","state":"Andaman and Nicobar Islands","latitude":11.6234,"longitude":92.7265,"temp":29.3,"humidity":77,"rain":0.0,"pressure":1002.7,"uv_index":8.8,"wind_gusts":50.8,"aqi":30,"pm10":9.4,"pm2_5":5.4,"no2":0.4,"co":138.0,"o3":53.0,"so2":0.3,"mosquito_risk":7,"arthritis_risk":5,"migraine_risk":4,"frizz_risk":1,"updated_at":"2026-05-19T15:21:22.561703+05:30"},{"city":"Haridwar","state":"Uttarakhand","latitude":29.9457,"longitude":78.1642,"temp":38.2,"humidity":36,"rain":0.0,"pressure":968.7,"uv_index":7.55,"wind_gusts":34.6,"aqi":147,"pm10":78.0,"pm2_5":36.4,"no2":1.6,"co":399.0,"o3":199.0,"so2":13.0,"mosquito_risk":0,"arthritis_risk":5,"migraine_risk":10,"frizz_risk":1,"updated_at":"2026-05-19T15:21:22.561712+05:30"},{"city":"Rishikesh","state":"Uttarakhand","latitude":30.0869,"longitude":78.2676,"temp":37.5,"humidity":36,"rain":0.0,"pressure":961.8,"uv_index":7.7,"wind_gusts":32.0,"aqi":156,"pm10":54.9,"pm2_5":27.4,"no2":0.9,"co":342.0,"o3":184.0,"so2":9.8,"mosquito_risk":0,"arthritis_risk":5,"migraine_risk":10,"frizz_risk":1,"updated_at":"2026-05-19T15:21:22.561721+05:30"},{"city":"Nainital","state":"Uttarakhand","latitude":29.3919,"longitude":79.4542,"temp":25.3,"humidity":45,"rain":0.0,"pressure":807.4,"uv_index":8.55,"wind_gusts":38.2,"aqi":151,"pm10":63.8,"pm2_5":29.6,"no2":1.2,"co":286.0,"o3":185.0,"so2":11.4,"mosquito_risk":4,"arthritis_risk":5,"migraine_risk":7,"frizz_risk":0,"updated_at":"2026-05-19T15:21:22.561731+05:30"},{"city":"Mussoorie","state":"Uttarakhand","latitude":30.4599,"longitude":78.0664,"temp":24.7,"humidity":45,"rain":0.0,"pressure":805.3,"uv_index":8.05,"wind_gusts":52.9,"aqi":150,"pm10":49.8,"pm2_5":30.5,"no2":1.7,"co":298.0,"o3":211.0,"so2":14.3,"mosquito_risk":0,"arthritis_risk":5,"migraine_risk":7,"frizz_risk":0,"updated_at":"2026-05-19T15:21:22.561740+05:30"},{"city":"Dharamshala","state":"Himachal Pradesh","latitude":32.219,"longitude":76.3234,"temp":29.7,"humidity":29,"rain":0.0,"pressure":869.6,"uv_index":8.45,"wind_gusts":44.3,"aqi":85,"pm10":37.4,"pm2_5":14.7,"no2":0.5,"co":227.0,"o3":139.0,"so2":3.2,"mosquito_risk":4,"arthritis_risk":5,"migraine_risk":7,"frizz_risk":0,"updated_at":"2026-05-19T15:21:22.561749+05:30"},{"city":"Dalhousie","state":"Himachal Pradesh","latitude":32.5387,"longitude":75.971,"temp":26.6,"humidity":23,"rain":0.0,"pressure":807.7,"uv_index":8.7,"wind_gusts":44.6,"aqi":108,"pm10":45.9,"pm2_5":19.3,"no2":1.3,"co":180.0,"o3":158.0,"so2":4.5,"mosquito_risk":4,"arthritis_risk":5,"migraine_risk":7,"frizz_risk":0,"updated_at":"2026-05-19T15:21:22.561758+05:30"},{"city":"Patiala","state":"Punjab","latitude":30.3398,"longitude":76.3869,"temp":43.2,"humidity":10,"rain":0.0,"pressure":972.3,"uv_index":7.65,"wind_gusts":36.4,"aqi":476,"pm10":769.3,"pm2_5":89.6,"no2":1.1,"co":159.0,"o3":135.0,"so2":4.3,"mosquito_risk":0,"arthritis_risk":5,"migraine_risk":10,"frizz_risk":0,"updated_at":"2026-05-19T15:21:22.561767+05:30"},{"city":"Bhatinda","state":"Punjab","latitude":30.211,"longitude":74.9455,"temp":42.5,"humidity":10,"rain":0.0,"pressure":977.4,"uv_index":8.3,"wind_gusts":28.1,"aqi":99,"pm10":51.2,"pm2_5":17.2,"no2":1.8,"co":157.0,"o3":137.0,"so2":5.8,"mosquito_risk":0,"arthritis_risk":5,"migraine_risk":10,"frizz_risk":0,"updated_at":"2026-05-19T15:21:22.561775+05:30"},{"city":"Rohtak","state":"Haryana","latitude":28.8955,"longitude":76.6066,"temp":42.7,"humidity":14,"rain":0.0,"pressure":975.9,"uv_index":7.8,"wind_gusts":31.7,"aqi":871,"pm10":603.5,"pm2_5":72.2,"no2":1.6,"co":169.0,"o3":129.0,"so2":2.2,"mosquito_risk":0,"arthritis_risk":5,"migraine_risk":10,"frizz_risk":0,"updated_at":"2026-05-19T15:21:22.561784+05:30"},{"city":"Panipat","state":"Haryana","latitude":29.3909,"longitude":76.9635,"temp":43.2,"humidity":11,"rain":0.0,"pressure":974.4,"uv_index":7.6,"wind_gusts":37.8,"aqi":1775,"pm10":1542.3,"pm2_5":167.6,"no2":2.0,"co":148.0,"o3":132.0,"so2":6.1,"mosquito_risk":0,"arthritis_risk":5,"migraine_risk":10,"frizz_risk":0,"updated_at":"2026-05-19T15:21:22.561792+05:30"},{"city":"Mathura","state":"Uttar Pradesh","latitude":27.4924,"longitude":77.6737,"temp":43.6,"humidity":12,"rain":0.0,"pressure":980.5,"uv_index":8.05,"wind_gusts":42.8,"aqi":922,"pm10":814.0,"pm2_5":107.1,"no2":1.5,"co":167.0,"o3":141.0,"so2":3.8,"mosquito_risk":0,"arthritis_risk":5,"migraine_risk":10,"frizz_risk":0,"updated_at":"2026-05-19T15:21:22.561801+05:30"},{"city":"Vrindavan","state":"Uttar Pradesh","latitude":27.5823,"longitude":77.7027,"temp":42.8,"humidity":14,"rain":0.0,"pressure":980.9,"uv_index":8.0,"wind_gusts":41.0,"aqi":922,"pm10":814.0,"pm2_5":107.1,"no2":1.5,"co":170.0,"o3":141.0,"so2":3.8,"mosquito_risk":0,"arthritis_risk":5,"migraine_risk":10,"frizz_risk":0,"updated_at":"2026-05-19T15:21:22.561809+05:30"},{"city":"Ayodhya","state":"Uttar Pradesh","latitude":26.7922,"longitude":82.1998,"temp":37.8,"humidity":44,"rain":0.0,"pressure":988.4,"uv_index":8.4,"wind_gusts":35.3,"aqi":156,"pm10":169.5,"pm2_5":61.9,"no2":1.3,"co":429.0,"o3":185.0,"so2":12.2,"mosquito_risk":0,"arthritis_risk":5,"migraine_risk":10,"frizz_risk":1,"updated_at":"2026-05-19T15:21:22.561818+05:30"},{"city":"Ratlam","state":"Madhya Pradesh","latitude":23.3315,"longitude":75.0367,"temp":40.1,"humidity":13,"rain":0.0,"pressure":951.6,"uv_index":8.55,"wind_gusts":39.6,"aqi":64,"pm10":37.7,"pm2_5":16.5,"no2":0.5,"co":136.0,"o3":118.0,"so2":2.3,"mosquito_risk":0,"arthritis_risk":5,"migraine_risk":10,"frizz_risk":0,"updated_at":"2026-05-19T15:21:22.561827+05:30"},{"city":"Sagar","state":"Madhya Pradesh","latitude":23.8388,"longitude":78.7378,"temp":42.1,"humidity":14,"rain":0.0,"pressure":945.8,"uv_index":8.75,"wind_gusts":31.7,"aqi":65,"pm10":62.2,"pm2_5":19.2,"no2":0.6,"co":155.0,"o3":131.0,"so2":3.9,"mosquito_risk":0,"arthritis_risk":5,"migraine_risk":10,"frizz_risk":0,"updated_at":"2026-05-19T15:21:22.561837+05:30"},{"city":"Satna","state":"Madhya Pradesh","latitude":24.6005,"longitude":80.8322,"temp":42.8,"humidity":13,"rain":0.0,"pressure":965.1,"uv_index":8.75,"wind_gusts":45.0,"aqi":117,"pm10":102.9,"pm2_5":24.1,"no2":0.6,"co":149.0,"o3":126.0,"so2":3.5,"mosquito_risk":0,"arthritis_risk":5,"migraine_risk":10,"frizz_risk":0,"updated_at":"2026-05-19T15:21:22.561845+05:30"},{"city":"Akola","state":"Maharashtra","latitude":20.7002,"longitude":77.0082,"temp":43.5,"humidity":14,"rain":0.0,"pressure":969.1,"uv_index":8.85,"wind_gusts":36.0,"aqi":82,"pm10":46.7,"pm2_5":21.3,"no2":1.5,"co":173.0,"o3":144.0,"so2":7.3,"mosquito_risk":0,"arthritis_risk":5,"migraine_risk":10,"frizz_risk":0,"updated_at":"2026-05-19T15:21:22.561855+05:30"},{"city":"Amravati","state":"Maharashtra","latitude":20.9374,"longitude":77.7796,"temp":43.4,"humidity":14,"rain":0.0,"pressure":961.4,"uv_index":8.9,"wind_gusts":44.3,"aqi":83,"pm10":47.0,"pm2_5":20.7,"no2":1.7,"co":183.0,"o3":145.0,"so2":7.6,"mosquito_risk":0,"arthritis_risk":5,"migraine_risk":10,"frizz_risk":0,"updated_at":"2026-05-19T15:21:22.561862+05:30"},{"city":"Latur","state":"Maharashtra","latitude":18.4088,"longitude":76.5604,"temp":39.9,"humidity":20,"rain":0.0,"pressure":935.8,"uv_index":7.55,"wind_gusts":37.4,"aqi":85,"pm10":43.5,"pm2_5":23.3,"no2":1.2,"co":176.0,"o3":159.0,"so2":7.7,"mosquito_risk":0,"arthritis_risk":5,"migraine_risk":10,"frizz_risk":0,"updated_at":"2026-05-19T15:21:22.561869+05:30"},{"city":"Nanded","state":"Maharashtra","latitude":19.1383,"longitude":77.3091,"temp":41.7,"humidity":18,"rain":0.0,"pressure":963.2,"uv_index":8.1,"wind_gusts":40.0,"aqi":102,"pm10":49.4,"pm2_5":24.6,"no2":1.3,"co":188.0,"o3":157.0,"so2":6.5,"mosquito_risk":0,"arthritis_risk":5,"migraine_risk":10,"frizz_risk":0,"updated_at":"2026-05-19T15:21:22.561875+05:30"},{"city":"Gulbarga","state":"Karnataka","latitude":17.3297,"longitude":76.8343,"temp":39.5,"humidity":29,"rain":0.0,"pressure":954.0,"uv_index":9.1,"wind_gusts":36.4,"aqi":84,"pm10":35.2,"pm2_5":25.6,"no2":1.7,"co":201.0,"o3":161.0,"so2":7.1,"mosquito_risk":0,"arthritis_risk":5,"migraine_risk":10,"frizz_risk":1,"updated_at":"2026-05-19T15:21:22.561881+05:30"},{"city":"Bidar","state":"Karnataka","latitude":17.9104,"longitude":77.5199,"temp":38.2,"humidity":29,"rain":0.0,"pressure":931.6,"uv_index":9.15,"wind_gusts":47.9,"aqi":86,"pm10":39.0,"pm2_5":28.6,"no2":1.5,"co":202.0,"o3":167.0,"so2":6.7,"mosquito_risk":0,"arthritis_risk":5,"migraine_risk":10,"frizz_risk":1,"updated_at":"2026-05-19T15:21:22.561887+05:30"},{"city":"Hospet","state":"Karnataka","latitude":15.2689,"longitude":76.3909,"temp":31.7,"humidity":58,"rain":0.0,"pressure":952.5,"uv_index":7.8,"wind_gusts":43.6,"aqi":61,"pm10":20.8,"pm2_5":15.1,"no2":1.9,"co":181.0,"o3":119.0,"so2":3.8,"mosquito_risk":0,"arthritis_risk":5,"migraine_risk":7,"frizz_risk":1,"updated_at":"2026-05-19T15:21:22.561894+05:30"},{"city":"Tirupur","state":"Tamil Nadu","latitude":11.1085,"longitude":77.3411,"temp":33.7,"humidity":49,"rain":0.0,"pressure":971.4,"uv_index":8.8,"wind_gusts":60.8,"aqi":40,"pm10":3.7,"pm2_5":3.4,"no2":2.1,"co":164.0,"o3":94.0,"so2":1.9,"mosquito_risk":0,"arthritis_risk":5,"migraine_risk":7,"frizz_risk":1,"updated_at":"2026-05-19T15:21:22.561900+05:30"},{"city":"Alappuzha","state":"Kerala","latitude":9.4981,"longitude":76.3388,"temp":27.8,"humidity":85,"rain":0.1,"pressure":1006.4,"uv_index":8.0,"wind_gusts":32.4,"aqi":30,"pm10":8.4,"pm2_5":5.8,"no2":2.3,"co":117.0,"o3":66.0,"so2":1.2,"mosquito_risk":10,"arthritis_risk":5,"migraine_risk":4,"frizz_risk":1,"updated_at":"2026-05-19T15:21:22.561906+05:30"},{"city":"Munnar","state":"Kerala","latitude":10.0889,"longitude":77.0595,"temp":19.6,"humidity":96,"rain":0.1,"pressure":855.5,"uv_index":7.4,"wind_gusts":41.0,"aqi":29,"pm10":3.3,"pm2_5":2.5,"no2":1.1,"co":141.0,"o3":66.0,"so2":0.8,"mosquito_risk":6,"arthritis_risk":10,"migraine_risk":7,"frizz_risk":1,"updated_at":"2026-05-19T15:21:22.561913+05:30"},{"city":"Silchar","state":"Assam","latitude":24.8333,"longitude":92.7789,"temp":31.6,"humidity":68,"rain":0.0,"pressure":998.3,"uv_index":8.9,"wind_gusts":30.2,"aqi":104,"pm10":47.4,"pm2_5":26.9,"no2":1.4,"co":207.0,"o3":123.0,"so2":4.8,"mosquito_risk":3,"arthritis_risk":5,"migraine_risk":7,"frizz_risk":1,"updated_at":"2026-05-19T15:21:22.561920+05:30"},{"city":"Dibrugarh","state":"Assam","latitude":27.4728,"longitude":94.912,"temp":30.9,"humidity":62,"rain":0.0,"pressure":988.4,"uv_index":8.85,"wind_gusts":14.4,"aqi":112,"pm10":26.3,"pm2_5":20.3,"no2":1.3,"co":246.0,"o3":138.0,"so2":2.1,"mosquito_risk":3,"arthritis_risk":5,"migraine_risk":7,"frizz_risk":1,"updated_at":"2026-05-19T15:21:22.561926+05:30"}]