[{"city":"Delhi","state":"Delhi","latitude":28.6139,"longitude":77.209,"temp":35.7,"humidity":23,"rain":0.0,"pressure":980.3,"uv_index":7.8,"wind_gusts":37.8,"aqi":554,"pm10":771.1,"pm2_5":156.0,"no2":25.9,"co":477.0,"o3":69.0,"so2":16.5,"mosquito_risk":0,"arthritis_risk":5,"migraine_risk":10,"frizz_risk":0,"updated_at":"2026-05-22T23:24:26.574575+05:30"},{"city":"Mumbai","state":"Maharashtra","latitude":19.076,"longitude":72.8777,"temp":30.3,"humidity":74,"rain":0.0,"pressure":1009.7,"uv_index":7.15,"wind_gusts":37.8,"aqi":63,"pm10":22.3,"pm2_5":15.4,"no2":13.4,"co":236.0,"o3":48.0,"so2":11.7,"mosquito_risk":3,"arthritis_risk":0,"migraine_risk":4,"frizz_risk":1,"updated_at":"2026-05-22T23:24:26.574623+05:30"},{"city":"Bangalore","state":"Karnataka","latitude":12.9716,"longitude":77.5946,"temp":21.1,"humidity":95,"rain":0.0,"pressure":914.3,"uv_index":7.45,"wind_gusts":36.4,"aqi":37,"pm10":17.2,"pm2_5":15.9,"no2":37.9,"co":580.0,"o3":37.0,"so2":8.3,"mosquito_risk":3,"arthritis_risk":5,"migraine_risk":7,"frizz_risk":1,"updated_at":"2026-05-22T23:24:26.574639+05:30"},{"city":"Hyderabad","state":"Telangana","latitude":17.385,"longitude":78.4867,"temp":31.4,"humidity":51,"rain":0.0,"pressure":953.3,"uv_index":7.45,"wind_gusts":49.3,"aqi":77,"pm10":41.0,"pm2_5":34.3,"no2":16.8,"co":334.0,"o3":95.0,"so2":9.8,"mosquito_risk":0,"arthritis_risk":5,"migraine_risk":7,"frizz_risk":1,"updated_at":"2026-05-22T23:24:26.574650+05:30"},{"city":"Chennai","state":"Tamil Nadu","latitude":13.0827,"longitude":80.2707,"temp":30.6,"humidity":85,"rain":0.0,"pressure":1006.9,"uv_index":9.05,"wind_gusts":41.8,"aqi":100,"pm10":25.7,"pm2_5":20.1,"no2":13.6,"co":219.0,"o3":101.0,"so2":8.2,"mosquito_risk":3,"arthritis_risk":5,"migraine_risk":4,"frizz_risk":1,"updated_at":"2026-05-22T23:24:26.574658+05:30"},{"city":"Kolkata","state":"West Bengal","latitude":22.5726,"longitude":88.3639,"temp":29.4,"humidity":89,"rain":0.0,"pressure":1002.7,"uv_index":8.95,"wind_gusts":36.4,"aqi":105,"pm10":31.9,"pm2_5":25.7,"no2":7.4,"co":347.0,"o3":69.0,"so2":6.1,"mosquito_risk":7,"arthritis_risk":5,"migraine_risk":4,"frizz_risk":1,"updated_at":"2026-05-22T23:24:26.574666+05:30"},{"city":"Pune","state":"Maharashtra","latitude":18.5204,"longitude":73.8567,"temp":26.0,"humidity":83,"rain":0.0,"pressure":949.9,"uv_index":8.45,"wind_gusts":41.0,"aqi":50,"pm10":11.7,"pm2_5":11.2,"no2":17.5,"co":219.0,"o3":48.0,"so2":9.4,"mosquito_risk":7,"arthritis_risk":5,"migraine_risk":7,"frizz_risk":1,"updated_at":"2026-05-22T23:24:26.574673+05:30"},{"city":"Ahmedabad","state":"Gujarat","latitude":23.0225,"longitude":72.5714,"temp":32.3,"humidity":64,"rain":0.0,"pressure":1001.5,"uv_index":8.15,"wind_gusts":36.4,"aqi":75,"pm10":40.7,"pm2_5":25.2,"no2":15.0,"co":198.0,"o3":54.0,"so2":6.2,"mosquito_risk":3,"arthritis_risk":5,"migraine_risk":4,"frizz_risk":1,"updated_at":"2026-05-22T23:24:26.574680+05:30"},{"city":"Jaipur","state":"Rajasthan","latitude":26.9124,"longitude":75.7873,"temp":34.0,"humidity":20,"rain":0.0,"pressure":958.4,"uv_index":8.25,"wind_gusts":42.1,"aqi":161,"pm10":281.3,"pm2_5":64.7,"no2":10.4,"co":226.0,"o3":66.0,"so2":5.4,"mosquito_risk":0,"arthritis_risk":5,"migraine_risk":7,"frizz_risk":0,"updated_at":"2026-05-22T23:24:26.574694+05:30"},{"city":"Lucknow","state":"Uttar Pradesh","latitude":26.8467,"longitude":80.9462,"temp":33.4,"humidity":56,"rain":0.0,"pressure":988.9,"uv_index":8.25,"wind_gusts":32.4,"aqi":161,"pm10":380.0,"pm2_5":93.6,"no2":31.1,"co":267.0,"o3":54.0,"so2":11.7,"mosquito_risk":0,"arthritis_risk":5,"migraine_risk":7,"frizz_risk":1,"updated_at":"2026-05-22T23:24:26.574701+05:30"},{"city":"Kanpur","state":"Uttar Pradesh","latitude":26.4499,"longitude":80.3319,"temp":34.3,"humidity":29,"rain":0.0,"pressure":987.5,"uv_index":8.25,"wind_gusts":38.2,"aqi":297,"pm10":473.1,"pm2_5":105.5,"no2":38.1,"co":464.0,"o3":40.0,"so2":13.7,"mosquito_risk":0,"arthritis_risk":5,"migraine_risk":7,"frizz_risk":0,"updated_at":"2026-05-22T23:24:26.574707+05:30"},{"city":"Chandigarh","state":"Chandigarh","latitude":30.7333,"longitude":76.7794,"temp":29.1,"humidity":36,"rain":0.0,"pressure":966.2,"uv_index":7.75,"wind_gusts":68.8,"aqi":91,"pm10":53.8,"pm2_5":30.3,"no2":17.7,"co":470.0,"o3":76.0,"so2":11.1,"mosquito_risk":4,"arthritis_risk":5,"migraine_risk":7,"frizz_risk":0,"updated_at":"2026-05-22T23:24:26.574714+05:30"},{"city":"Srinagar","state":"Jammu and Kashmir","latitude":34.0837,"longitude":74.7973,"temp":13.1,"humidity":92,"rain":0.0,"pressure":844.0,"uv_index":8.95,"wind_gusts":35.3,"aqi":60,"pm10":34.7,"pm2_5":26.1,"no2":29.5,"co":620.0,"o3":19.0,"so2":0.5,"mosquito_risk":3,"arthritis_risk":10,"migraine_risk":7,"frizz_risk":0,"updated_at":"2026-05-22T23:24:26.574722+05:30"},{"city":"Jammu","state":"Jammu and Kashmir","latitude":32.7266,"longitude":74.857,"temp":28.0,"humidity":39,"rain":0.0,"pressure":970.6,"uv_index":8.55,"wind_gusts":41.8,"aqi":79,"pm10":68.7,"pm2_5":30.0,"no2":16.6,"co":371.0,"o3":79.0,"so2":3.2,"mosquito_risk":4,"arthritis_risk":5,"migraine_risk":7,"frizz_risk":0,"updated_at":"2026-05-22T23:24:26.574729+05:30"},{"city":"Amritsar","state":"Punjab","latitude":31.634,"longitude":74.8723,"temp":31.0,"humidity":43,"rain":0.0,"pressure":978.5,"uv_index":8.45,"wind_gusts":56.2,"aqi":88,"pm10":99.4,"pm2_5":57.5,"no2":36.9,"co":605.0,"o3":50.0,"so2":10.3,"mosquito_risk":0,"arthritis_risk":5,"migraine_risk":7,"frizz_risk":1,"updated_at":"2026-05-22T23:24:26.574736+05:30"},{"city":"Ludhiana","state":"Punjab","latitude":30.901,"longitude":75.8573,"temp":30.7,"humidity":38,"rain":0.0,"pressure":976.4,"uv_index":8.05,"wind_gusts":45.7,"aqi":86,"pm10":65.9,"pm2_5":38.2,"no2":16.1,"co":409.0,"o3":73.0,"so2":5.7,"mosquito_risk":0,"arthritis_risk":5,"migraine_risk":7,"frizz_risk":0,"updated_at":"2026-05-22T23:24:26.574743+05:30"},{"city":"Jalandhar","state":"Punjab","latitude":31.326,"longitude":75.5762,"temp":30.5,"humidity":43,"rain":0.0,"pressure":977.5,"uv_index":8.2,"wind_gusts":47.5,"aqi":92,"pm10":83.8,"pm2_5":38.2,"no2":14.7,"co":632.0,"o3":73.0,"so2":5.1,"mosquito_risk":0,"arthritis_risk":5,"migraine_risk":7,"frizz_risk":1,"updated_at":"2026-05-22T23:24:26.574750+05:30"},{"city":"Dehradun","state":"Uttarakhand","latitude":30.6284,"longitude":78.0322,"temp":15.5,"humidity":68,"rain":0.0,"pressure":827.8,"uv_index":8.2,"wind_gusts":38.9,"aqi":78,"pm10":78.5,"pm2_5":30.5,"no2":38.5,"co":187.0,"o3":50.0,"so2":2.3,"mosquito_risk":3,"arthritis_risk":5,"migraine_risk":7,"frizz_risk":0,"updated_at":"2026-05-22T23:24:26.574756+05:30"},{"city":"Shimla","state":"Himachal Pradesh","latitude":31.1048,"longitude":77.1734,"temp":14.8,"humidity":52,"rain":0.0,"pressure":783.8,"uv_index":7.6,"wind_gusts":36.7,"aqi":77,"pm10":66.8,"pm2_5":26.1,"no2":25.0,"co":227.0,"o3":62.0,"so2":3.0,"mosquito_risk":0,"arthritis_risk":5,"migraine_risk":7,"frizz_risk":0,"updated_at":"2026-05-22T23:24:26.574765+05:30"},{"city":"Manali","state":"Himachal Pradesh","latitude":32.2396,"longitude":77.1887,"temp":13.0,"humidity":86,"rain":0.1,"pressure":818.4,"uv_index":8.05,"wind_gusts":51.8,"aqi":54,"pm10":8.4,"pm2_5":6.5,"no2":38.2,"co":225.0,"o3":75.0,"so2":0.2,"mosquito_risk":6,"arthritis_risk":10,"migraine_risk":7,"frizz_risk":0,"updated_at":"2026-05-22T23:24:26.574772+05:30"},{"city":"Gurgaon","state":"Haryana","latitude":28.4595,"longitude":77.0266,"temp":32.4,"humidity":31,"rain":0.0,"pressure":978.7,"uv_index":7.85,"wind_gusts":35.3,"aqi":1493,"pm10":1169.7,"pm2_5":215.1,"no2":39.1,"co":589.0,"o3":53.0,"so2":22.0,"mosquito_risk":0,"arthritis_risk":5,"migraine_risk":7,"frizz_risk":0,"updated_at":"2026-05-22T23:24:26.574778+05:30"},{"city":"Noida","state":"Uttar Pradesh","latitude":28.5355,"longitude":77.391,"temp":33.8,"humidity":28,"rain":0.0,"pressure":981.5,"uv_index":7.8,"wind_gusts":30.2,"aqi":1493,"pm10":1169.7,"pm2_5":215.1,"no2":39.1,"co":704.0,"o3":53.0,"so2":22.0,"mosquito_risk":0,"arthritis_risk":5,"migraine_risk":7,"frizz_risk":0,"updated_at":"2026-05-22T23:24:26.574787+05:30"},{"city":"Ghaziabad","state":"Uttar Pradesh","latitude":28.6692,"longitude":77.4538,"temp":32.5,"humidity":31,"rain":0.0,"pressure":979.6,"uv_index":7.8,"wind_gusts":38.5,"aqi":395,"pm10":467.5,"pm2_5":111.1,"no2":21.6,"co":458.0,"o3":74.0,"so2":17.4,"mosquito_risk":0,"arthritis_risk":5,"migraine_risk":7,"frizz_risk":0,"updated_at":"2026-05-22T23:24:26.574794+05:30"},{"city":"Faridabad","state":"Haryana","latitude":28.4089,"longitude":77.3178,"temp":35.3,"humidity":24,"rain":0.0,"pressure":980.8,"uv_index":7.85,"wind_gusts":36.7,"aqi":1493,"pm10":1169.7,"pm2_5":215.1,"no2":39.1,"co":705.0,"o3":53.0,"so2":22.0,"mosquito_risk":0,"arthritis_risk":5,"migraine_risk":10,"frizz_risk":0,"updated_at":"2026-05-22T23:24:26.574800+05:30"},{"city":"Meerut","state":"Uttar Pradesh","latitude":28.9845,"longitude":77.7064,"temp":32.8,"humidity":29,"rain":0.0,"pressure":978.5,"uv_index":7.7,"wind_gusts":33.5,"aqi":395,"pm10":467.5,"pm2_5":111.1,"no2":21.6,"co":312.0,"o3":74.0,"so2":17.4,"mosquito_risk":0,"arthritis_risk":5,"migraine_risk":7,"frizz_risk":0,"updated_at":"2026-05-22T23:24:26.574806+05:30"},{"city":"Agra","state":"Uttar Pradesh","latitude":27.1767,"longitude":78.0081,"temp":34.3,"humidity":27,"rain":0.0,"pressure":984.2,"uv_index":8.1,"wind_gusts":41.4,"aqi":930,"pm10":717.1,"pm2_5":143.4,"no2":27.4,"co":330.0,"o3":51.0,"so2":10.9,"mosquito_risk":0,"arthritis_risk":5,"migraine_risk":7,"frizz_risk":0,"updated_at":"2026-05-22T23:24:26.574815+05:30"},{"city":"Varanasi","state":"Uttar Pradesh","latitude":25.3176,"longitude":82.9739,"temp":34.8,"humidity":46,"rain":0.0,"pressure":993.5,"uv_index":8.75,"wind_gusts":32.0,"aqi":154,"pm10":121.1,"pm2_5":57.5,"no2":28.6,"co":939.0,"o3":61.0,"so2":14.5,"mosquito_risk":0,"arthritis_risk":5,"migraine_risk":7,"frizz_risk":1,"updated_at":"2026-05-22T23:24:26.574822+05:30"},{"city":"Prayagraj","state":"Uttar Pradesh","latitude":25.4358,"longitude":81.8463,"temp":34.0,"humidity":30,"rain":0.0,"pressure":991.9,"uv_index":8.65,"wind_gusts":38.9,"aqi":142,"pm10":126.2,"pm2_5":57.0,"no2":30.3,"co":338.0,"o3":55.0,"so2":13.3,"mosquito_risk":0,"arthritis_risk":5,"migraine_risk":7,"frizz_risk":0,"updated_at":"2026-05-22T23:24:26.574829+05:30"},{"city":"Gorakhpur","state":"Uttar Pradesh","latitude":26.7606,"longitude":83.3732,"temp":30.0,"humidity":80,"rain":0.0,"pressure":993.5,"uv_index":8.6,"wind_gusts":31.3,"aqi":154,"pm10":90.8,"pm2_5":65.7,"no2":20.6,"co":475.0,"o3":93.0,"so2":13.5,"mosquito_risk":7,"arthritis_risk":5,"migraine_risk":7,"frizz_risk":1,"updated_at":"2026-05-22T23:24:26.574837+05:30"},{"city":"Bareilly","state":"Uttar Pradesh","latitude":28.367,"longitude":79.4304,"temp":31.1,"humidity":46,"rain":0.0,"pressure":982.4,"uv_index":8.05,"wind_gusts":29.9,"aqi":167,"pm10":158.8,"pm2_5":79.4,"no2":22.8,"co":354.0,"o3":90.0,"so2":16.5,"mosquito_risk":0,"arthritis_risk":5,"migraine_risk":7,"frizz_risk":1,"updated_at":"2026-05-22T23:24:26.574843+05:30"},{"city":"Aligarh","state":"Uttar Pradesh","latitude":27.8974,"longitude":78.088,"temp":32.7,"humidity":33,"rain":0.0,"pressure":982.2,"uv_index":7.95,"wind_gusts":37.8,"aqi":834,"pm10":868.0,"pm2_5":184.9,"no2":26.8,"co":424.0,"o3":70.0,"so2":15.7,"mosquito_risk":0,"arthritis_risk":5,"migraine_risk":7,"frizz_risk":0,"updated_at":"2026-05-22T23:24:26.574850+05:30"},{"city":"Moradabad","state":"Uttar Pradesh","latitude":28.8386,"longitude":78.7733,"temp":31.7,"humidity":34,"rain":0.0,"pressure":979.8,"uv_index":7.9,"wind_gusts":32.4,"aqi":183,"pm10":171.4,"pm2_5":93.8,"no2":31.9,"co":377.0,"o3":63.0,"so2":12.6,"mosquito_risk":0,"arthritis_risk":5,"migraine_risk":7,"frizz_risk":0,"updated_at":"2026-05-22T23:24:26.574856+05:30"},{"city":"Saharanpur","state":"Uttar Pradesh","latitude":29.9637,"longitude":77.546,"temp":31.3,"humidity":33,"rain":0.0,"pressure":972.9,"uv_index":7.5,"wind_gusts":42.1,"aqi":165,"pm10":142.5,"pm2_5":52.5,"no2":19.0,"co":297.0,"o3":79.0,"so2":11.3,"mosquito_risk":0,"arthritis_risk":5,"migraine_risk":7,"frizz_risk":0,"updated_at":"2026-05-22T23:24:26.574862+05:30"},{"city":"Jhansi","state":"Uttar Pradesh","latitude":25.4484,"longitude":78.5685,"temp":32.8,"humidity":22,"rain":0.0,"pressure":975.4,"uv_index":8.5,"wind_gusts":42.1,"aqi":68,"pm10":43.4,"pm2_5":22.6,"no2":4.8,"co":161.0,"o3":70.0,"so2":2.5,"mosquito_risk":0,"arthritis_risk":5,"migraine_risk":7,"frizz_risk":0,"updated_at":"2026-05-22T23:24:29.834912+05:30"},{"city":"Surat","state":"Gujarat","latitude":21.1702,"longitude":72.8311,"temp":29.9,"humidity":79,"rain":0.0,"pressure":1007.5,"uv_index":7.75,"wind_gusts":42.1,"aqi":72,"pm10":23.0,"pm2_5":17.9,"no2":21.4,"co":217.0,"o3":33.0,"so2":34.7,"mosquito_risk":7,"arthritis_risk":5,"migraine_risk":4,"frizz_risk":1,"updated_at":"2026-05-22T23:24:29.834946+05:30"},{"city":"Vadodara","state":"Gujarat","latitude":22.3072,"longitude":73.1812,"temp":30.5,"humidity":73,"rain":0.0,"pressure":1004.5,"uv_index":8.15,"wind_gusts":41.4,"aqi":74,"pm10":24.6,"pm2_5":18.5,"no2":20.7,"co":199.0,"o3":38.0,"so2":23.6,"mosquito_risk":3,"arthritis_risk":5,"migraine_risk":4,"frizz_risk":1,"updated_at":"2026-05-22T23:24:29.834955+05:30"},{"city":"Rajkot","state":"Gujarat","latitude":22.3039,"longitude":70.8022,"temp":30.5,"humidity":62,"rain":0.0,"pressure":995.0,"uv_index":7.8,"wind_gusts":45.7,"aqi":75,"pm10":30.7,"pm2_5":18.7,"no2":5.2,"co":136.0,"o3":62.0,"so2":5.4,"mosquito_risk":3,"arthritis_risk":5,"migraine_risk":7,"frizz_risk":1,"updated_at":"2026-05-22T23:24:29.834964+05:30"},{"city":"Thane","state":"Maharashtra","latitude":19.2183,"longitude":72.9781,"temp":29.5,"humidity":82,"rain":0.0,"pressure":1009.1,"uv_index":7.15,"wind_gusts":32.8,"aqi":63,"pm10":22.3,"pm2_5":15.4,"no2":13.4,"co":317.0,"o3":48.0,"so2":11.7,"mosquito_risk":7,"arthritis_risk":0,"migraine_risk":4,"frizz_risk":1,"updated_at":"2026-05-22T23:24:29.834972+05:30"},{"city":"Nagpur","state":"Maharashtra","latitude":21.1458,"longitude":79.0882,"temp":37.8,"humidity":18,"rain":0.0,"pressure":970.9,"uv_index":8.75,"wind_gusts":42.8,"aqi":80,"pm10":23.9,"pm2_5":19.4,"no2":10.5,"co":252.0,"o3":91.0,"so2":9.4,"mosquito_risk":0,"arthritis_risk":5,"migraine_risk":10,"frizz_risk":0,"updated_at":"2026-05-22T23:24:29.834980+05:30"},{"city":"Nashik","state":"Maharashtra","latitude":19.9975,"longitude":73.7898,"temp":26.1,"humidity":83,"rain":0.0,"pressure":947.3,"uv_index":8.15,"wind_gusts":41.0,"aqi":51,"pm10":17.2,"pm2_5":12.2,"no2":6.5,"co":173.0,"o3":56.0,"so2":3.9,"mosquito_risk":7,"arthritis_risk":5,"migraine_risk":7,"frizz_risk":1,"updated_at":"2026-05-22T23:24:29.834986+05:30"},{"city":"Aurangabad","state":"Maharashtra","latitude":19.8762,"longitude":75.3433,"temp":29.6,"humidity":62,"rain":0.0,"pressure":946.0,"uv_index":3.15,"wind_gusts":38.5,"aqi":62,"pm10":22.4,"pm2_5":17.5,"no2":7.7,"co":194.0,"o3":75.0,"so2":5.4,"mosquito_risk":7,"arthritis_risk":5,"migraine_risk":3,"frizz_risk":1,"updated_at":"2026-05-22T23:24:29.834994+05:30"},{"city":"Solapur","state":"Maharashtra","latitude":17.6599,"longitude":75.9064,"temp":28.8,"humidity":62,"rain":0.0,"pressure":959.2,"uv_index":8.95,"wind_gusts":37.8,"aqi":73,"pm10":25.1,"pm2_5":20.9,"no2":7.8,"co":224.0,"o3":91.0,"so2":3.7,"mosquito_risk":7,"arthritis_risk":5,"migraine_risk":7,"frizz_risk":1,"updated_at":"2026-05-22T23:24:29.835001+05:30"},{"city":"Kolhapur","state":"Maharashtra","latitude":16.705,"longitude":74.2433,"temp":24.9,"humidity":91,"rain":0.0,"pressure":950.3,"uv_index":7.95,"wind_gusts":40.0,"aqi":38,"pm10":11.0,"pm2_5":9.2,"no2":7.5,"co":201.0,"o3":51.0,"so2":2.9,"mosquito_risk":3,"arthritis_risk":5,"migraine_risk":7,"frizz_risk":1,"updated_at":"2026-05-22T23:24:29.835008+05:30"},{"city":"Goa","state":"Goa","latitude":15.2993,"longitude":74.124,"temp":26.5,"humidity":93,"rain":0.0,"pressure":1000.6,"uv_index":6.55,"wind_gusts":32.8,"aqi":35,"pm10":15.0,"pm2_5":12.9,"no2":7.1,"co":313.0,"o3":45.0,"so2":1.3,"mosquito_risk":7,"arthritis_risk":5,"migraine_risk":4,"frizz_risk":1,"updated_at":"2026-05-22T23:24:29.835016+05:30"},{"city":"Jodhpur","state":"Rajasthan","latitude":26.2389,"longitude":73.0243,"temp":33.7,"humidity":31,"rain":0.0,"pressure":981.4,"uv_index":8.45,"wind_gusts":34.9,"aqi":156,"pm10":274.7,"pm2_5":65.0,"no2":13.2,"co":249.0,"o3":56.0,"so2":4.3,"mosquito_risk":0,"arthritis_risk":5,"migraine_risk":7,"frizz_risk":0,"updated_at":"2026-05-22T23:24:29.835022+05:30"},{"city":"Udaipur","state":"Rajasthan","latitude":24.5854,"longitude":73.7125,"temp":30.9,"humidity":27,"rain":0.0,"pressure":946.6,"uv_index":8.9,"wind_gusts":40.3,"aqi":69,"pm10":79.6,"pm2_5":29.7,"no2":3.5,"co":185.0,"o3":75.0,"so2":2.3,"mosquito_risk":0,"arthritis_risk":5,"migraine_risk":7,"frizz_risk":0,"updated_at":"2026-05-22T23:24:29.835030+05:30"},{"city":"Kota","state":"Rajasthan","latitude":25.2138,"longitude":75.8648,"temp":33.5,"humidity":19,"rain":0.0,"pressure":977.4,"uv_index":8.4,"wind_gusts":40.3,"aqi":66,"pm10":71.7,"pm2_5":34.2,"no2":10.5,"co":217.0,"o3":62.0,"so2":3.6,"mosquito_risk":0,"arthritis_risk":5,"migraine_risk":7,"frizz_risk":0,"updated_at":"2026-05-22T23:24:29.835038+05:30"},{"city":"Bikaner","state":"Rajasthan","latitude":28.0229,"longitude":73.3119,"temp":34.9,"humidity":23,"rain":0.0,"pressure":979.3,"uv_index":8.4,"wind_gusts":25.9,"aqi":164,"pm10":96.6,"pm2_5":41.9,"no2":3.8,"co":170.0,"o3":66.0,"so2":2.3,"mosquito_risk":0,"arthritis_risk":5,"migraine_risk":7,"frizz_risk":0,"updated_at":"2026-05-22T23:24:29.835044+05:30"},{"city":"Ajmer","state":"Rajasthan","latitude":26.4499,"longitude":74.6399,"temp":31.5,"humidity":25,"rain":0.0,"pressure":953.8,"uv_index":8.4,"wind_gusts":44.3,"aqi":84,"pm10":157.9,"pm2_5":49.1,"no2":6.2,"co":192.0,"o3":78.0,"so2":5.0,"mosquito_risk":0,"arthritis_risk":5,"migraine_risk":7,"frizz_risk":0,"updated_at":"2026-05-22T23:24:29.835051+05:30"},{"city":"Gwalior","state":"Madhya Pradesh","latitude":26.2183,"longitude":78.1828,"temp":35.0,"humidity":17,"rain":0.0,"pressure":980.2,"uv_index":8.3,"wind_gusts":44.6,"aqi":90,"pm10":53.4,"pm2_5":25.3,"no2":5.5,"co":168.0,"o3":72.0,"so2":3.1,"mosquito_risk":0,"arthritis_risk":5,"migraine_risk":7,"frizz_risk":0,"updated_at":"2026-05-22T23:24:29.835058+05:30"},{"city":"Indore","state":"Madhya Pradesh","latitude":22.7196,"longitude":75.8577,"temp":33.3,"humidity":28,"rain":0.0,"pressure":948.3,"uv_index":8.7,"wind_gusts":42.5,"aqi":65,"pm10":35.7,"pm2_5":24.2,"no2":5.0,"co":265.0,"o3":91.0,"so2":4.8,"mosquito_risk":0,"arthritis_risk":5,"migraine_risk":7,"frizz_risk":0,"updated_at":"2026-05-22T23:24:29.835064+05:30"},{"city":"Bhopal","state":"Madhya Pradesh","latitude":23.2599,"longitude":77.4126,"temp":34.0,"humidity":23,"rain":0.0,"pressure":952.7,"uv_index":8.7,"wind_gusts":40.7,"aqi":58,"pm10":27.0,"pm2_5":21.0,"no2":9.8,"co":358.0,"o3":65.0,"so2":4.7,"mosquito_risk":0,"arthritis_risk":5,"migraine_risk":7,"frizz_risk":0,"updated_at":"2026-05-22T23:24:29.835071+05:30"},{"city":"Jabalpur","state":"Madhya Pradesh","latitude":23.1815,"longitude":79.9864,"temp":33.6,"humidity":22,"rain":0.0,"pressure":959.8,"uv_index":8.9,"wind_gusts":40.0,"aqi":55,"pm10":44.9,"pm2_5":20.6,"no2":15.3,"co":278.0,"o3":69.0,"so2":4.1,"mosquito_risk":0,"arthritis_risk":5,"migraine_risk":7,"frizz_risk":0,"updated_at":"2026-05-22T23:24:29.835078+05:30"},{"city":"Ujjain","state":"Madhya Pradesh","latitude":23.1765,"longitude":75.7885,"temp":33.7,"humidity":27,"rain":0.0,"pressure":953.6,"uv_index":8.65,"wind_gusts":40.0,"aqi":68,"pm10":39.9,"pm2_5":26.0,"no2":3.4,"co":217.0,"o3":94.0,"so2":4.6,"mosquito_risk":0,"arthritis_risk":5,"migraine_risk":7,"frizz_risk":0,"updated_at":"2026-05-22T23:24:29.835085+05:30"},{"city":"Visakhapatnam","state":"Andhra Pradesh","latitude":17.6868,"longitude":83.2185,"temp":32.3,"humidity":72,"rain":0.0,"pressure":1000.1,"uv_index":9.0,"wind_gusts":45.0,"aqi":127,"pm10":76.1,"pm2_5":63.3,"no2":45.6,"co":670.0,"o3":81.0,"so2":53.5,"mosquito_risk":3,"arthritis_risk":5,"migraine_risk":4,"frizz_risk":1,"updated_at":"2026-05-22T23:24:29.835092+05:30"},{"city":"Vijayawada","state":"Andhra Pradesh","latitude":16.5062,"longitude":80.648,"temp":34.8,"humidity":44,"rain":0.0,"pressure":999.9,"uv_index":9.1,"wind_gusts":52.9,"aqi":87,"pm10":34.1,"pm2_5":31.0,"no2":12.3,"co":349.0,"o3":91.0,"so2":7.0,"mosquito_risk":0,"arthritis_risk":5,"migraine_risk":7,"frizz_risk":1,"updated_at":"2026-05-22T23:24:29.835099+05:30"},{"city":"Guntur","state":"Andhra Pradesh","latitude":16.3067,"longitude":80.4365,"temp":34.5,"humidity":46,"rain":0.0,"pressure":1001.3,"uv_index":9.1,"wind_gusts":52.2,"aqi":91,"pm10":32.1,"pm2_5":28.5,"no2":10.5,"co":314.0,"o3":99.0,"so2":6.9,"mosquito_risk":0,"arthritis_risk":5,"migraine_risk":4,"frizz_risk":1,"updated_at":"2026-05-22T23:24:29.835105+05:30"},{"city":"Nellore","state":"Andhra Pradesh","latitude":14.4426,"longitude":79.9865,"temp":32.8,"humidity":47,"rain":0.0,"pressure":1004.9,"uv_index":8.2,"wind_gusts":50.0,"aqi":77,"pm10":46.3,"pm2_5":36.9,"no2":9.4,"co":346.0,"o3":96.0,"so2":10.2,"mosquito_risk":0,"arthritis_risk":5,"migraine_risk":4,"frizz_risk":1,"updated_at":"2026-05-22T23:24:29.835113+05:30"},{"city":"Kurnool","state":"Andhra Pradesh","latitude":15.8281,"longitude":78.0373,"temp":31.6,"humidity":52,"rain":0.0,"pressure":977.5,"uv_index":9.0,"wind_gusts":46.8,"aqi":85,"pm10":23.0,"pm2_5":18.9,"no2":8.5,"co":235.0,"o3":91.0,"so2":5.1,"mosquito_risk":0,"arthritis_risk":5,"migraine_risk":7,"frizz_risk":1,"updated_at":"2026-05-22T23:24:29.835120+05:30"},{"city":"Kakinada","state":"Andhra Pradesh","latitude":16.9891,"longitude":82.2475,"temp":32.0,"humidity":66,"rain":0.0,"pressure":1004.3,"uv_index":9.05,"wind_gusts":42.5,"aqi":113,"pm10":43.8,"pm2_5":34.2,"no2":10.1,"co":426.0,"o3":102.0,"so2":5.5,"mosquito_risk":3,"arthritis_risk":5,"migraine_risk":4,"frizz_risk":1,"updated_at":"2026-05-22T23:24:29.835126+05:30"},{"city":"Tirupati","state":"Andhra Pradesh","latitude":13.6288,"longitude":79.4192,"temp":31.2,"humidity":52,"rain":0.0,"pressure":991.4,"uv_index":7.75,"wind_gusts":32.0,"aqi":64,"pm10":25.1,"pm2_5":20.3,"no2":13.5,"co":276.0,"o3":71.0,"so2":3.6,"mosquito_risk":0,"arthritis_risk":5,"migraine_risk":7,"frizz_risk":1,"updated_at":"2026-05-22T23:24:29.835132+05:30"},{"city":"Warangal","state":"Telangana","latitude":17.9689,"longitude":79.5941,"temp":33.3,"humidity":39,"rain":0.0,"pressure":976.6,"uv_index":9.1,"wind_gusts":45.4,"aqi":110,"pm10":43.1,"pm2_5":37.5,"no2":14.5,"co":571.0,"o3":89.0,"so2":7.7,"mosquito_risk":0,"arthritis_risk":5,"migraine_risk":7,"frizz_risk":1,"updated_at":"2026-05-22T23:24:29.835139+05:30"},{"city":"Nizamabad","state":"Telangana","latitude":18.6725,"longitude":78.0941,"temp":33.2,"humidity":43,"rain":0.0,"pressure":964.2,"uv_index":9.05,"wind_gusts":41.8,"aqi":82,"pm10":46.8,"pm2_5":37.5,"no2":14.2,"co":213.0,"o3":75.0,"so2":7.0,"mosquito_risk":0,"arthritis_risk":5,"migraine_risk":7,"frizz_risk":1,"updated_at":"2026-05-22T23:24:29.835145+05:30"},{"city":"Mysore","state":"Karnataka","latitude":12.2958,"longitude":76.6396,"temp":23.1,"humidity":87,"rain":0.0,"pressure":931.8,"uv_index":8.65,"wind_gusts":46.8,"aqi":35,"pm10":8.2,"pm2_5":7.4,"no2":11.5,"co":177.0,"o3":49.0,"so2":2.6,"mosquito_risk":3,"arthritis_risk":5,"migraine_risk":7,"frizz_risk":1,"updated_at":"2026-05-22T23:24:29.835152+05:30"},{"city":"Mangalore","state":"Karnataka","latitude":12.9141,"longitude":74.856,"temp":25.0,"humidity":96,"rain":0.0,"pressure":1010.4,"uv_index":8.1,"wind_gusts":30.6,"aqi":36,"pm10":13.0,"pm2_5":10.7,"no2":10.7,"co":360.0,"o3":43.0,"so2":3.0,"mosquito_risk":7,"arthritis_risk":0,"migraine_risk":4,"frizz_risk":1,"updated_at":"2026-05-22T23:24:29.835158+05:30"},{"city":"Hubli-Dharwad","state":"Karnataka","latitude":15.3647,"longitude":75.124,"temp":24.2,"humidity":90,"rain":0.0,"pressure":943.5,"uv_index":8.25,"wind_gusts":34.9,"aqi":30,"pm10":5.7,"pm2_5":5.1,"no2":8.1,"co":159.0,"o3":45.0,"so2":1.3,"mosquito_risk":3,"arthritis_risk":5,"migraine_risk":7,"frizz_risk":1,"updated_at":"2026-05-22T23:24:29.835165+05:30"},{"city":"Belgaum","state":"Karnataka","latitude":15.8497,"longitude":74.4977,"temp":23.1,"humidity":93,"rain":0.0,"pressure":928.2,"uv_index":8.6,"wind_gusts":38.5,"aqi":31,"pm10":12.0,"pm2_5":10.7,"no2":13.4,"co":159.0,"o3":35.0,"so2":2.6,"mosquito_risk":3,"arthritis_risk":5,"migraine_risk":7,"frizz_risk":1,"updated_at":"2026-05-22T23:24:33.120740+05:30"},{"city":"Coimbatore","state":"Tamil Nadu","latitude":11.0168,"longitude":76.9558,"temp":24.6,"humidity":89,"rain":0.0,"pressure":964.6,"uv_index":8.25,"wind_gusts":52.9,"aqi":33,"pm10":7.1,"pm2_5":6.2,"no2":8.1,"co":177.0,"o3":47.0,"so2":3.0,"mosquito_risk":3,"arthritis_risk":5,"migraine_risk":7,"frizz_risk":1,"updated_at":"2026-05-22T23:24:33.120776+05:30"},{"city":"Madurai","state":"Tamil Nadu","latitude":9.9252,"longitude":78.1198,"temp":29.5,"humidity":60,"rain":0.0,"pressure":994.5,"uv_index":8.85,"wind_gusts":52.2,"aqi":57,"pm10":15.9,"pm2_5":14.5,"no2":23.2,"co":155.0,"o3":33.0,"so2":5.8,"mosquito_risk":4,"arthritis_risk":5,"migraine_risk":7,"frizz_risk":1,"updated_at":"2026-05-22T23:24:33.120787+05:30"},{"city":"Trichy","state":"Tamil Nadu","latitude":10.7905,"longitude":78.7047,"temp":29.0,"humidity":67,"rain":0.0,"pressure":1000.8,"uv_index":8.9,"wind_gusts":54.4,"aqi":39,"pm10":7.3,"pm2_5":6.5,"no2":9.5,"co":151.0,"o3":56.0,"so2":3.4,"mosquito_risk":7,"arthritis_risk":5,"migraine_risk":4,"frizz_risk":1,"updated_at":"2026-05-22T23:24:33.120796+05:30"},{"city":"Salem","state":"Tamil Nadu","latitude":11.6643,"longitude":78.146,"temp":27.5,"humidity":71,"rain":0.0,"pressure":979.8,"uv_index":8.85,"wind_gusts":37.4,"aqi":52,"pm10":22.5,"pm2_5":16.8,"no2":19.5,"co":181.0,"o3":48.0,"so2":6.3,"mosquito_risk":7,"arthritis_risk":5,"migraine_risk":7,"frizz_risk":1,"updated_at":"2026-05-22T23:24:33.120804+05:30"},{"city":"Tirunelveli","state":"Tamil Nadu","latitude":8.7139,"longitude":77.7567,"temp":28.6,"humidity":69,"rain":0.0,"pressure":1004.7,"uv_index":8.3,"wind_gusts":50.4,"aqi":31,"pm10":7.8,"pm2_5":6.4,"no2":6.4,"co":177.0,"o3":47.0,"so2":1.7,"mosquito_risk":7,"arthritis_risk":5,"migraine_risk":4,"frizz_risk":1,"updated_at":"2026-05-22T23:24:33.120812+05:30"},{"city":"Vellore","state":"Tamil Nadu","latitude":12.9165,"longitude":79.1325,"temp":28.8,"humidity":62,"rain":0.0,"pressure":985.7,"uv_index":8.4,"wind_gusts":46.8,"aqi":60,"pm10":31.5,"pm2_5":25.1,"no2":13.6,"co":228.0,"o3":62.0,"so2":4.0,"mosquito_risk":7,"arthritis_risk":5,"migraine_risk":7,"frizz_risk":1,"updated_at":"2026-05-22T23:24:33.120820+05:30"},{"city":"Erode","state":"Tamil Nadu","latitude":11.341,"longitude":77.7172,"temp":28.0,"humidity":74,"rain":0.0,"pressure":991.5,"uv_index":8.75,"wind_gusts":46.1,"aqi":39,"pm10":11.8,"pm2_5":10.1,"no2":14.3,"co":212.0,"o3":43.0,"so2":3.5,"mosquito_risk":7,"arthritis_risk":5,"migraine_risk":7,"frizz_risk":1,"updated_at":"2026-05-22T23:24:33.120828+05:30"},{"city":"Kochi","state":"Kerala","latitude":9.9312,"longitude":76.2673,"temp":25.5,"humidity":96,"rain":0.0,"pressure":1012.4,"uv_index":8.15,"wind_gusts":35.3,"aqi":49,"pm10":24.0,"pm2_5":22.4,"no2":33.2,"co":320.0,"o3":12.0,"so2":8.1,"mosquito_risk":7,"arthritis_risk":0,"migraine_risk":4,"frizz_risk":1,"updated_at":"2026-05-22T23:24:33.120835+05:30"},{"city":"Thiruvananthapuram","state":"Kerala","latitude":8.5241,"longitude":76.9366,"temp":24.5,"humidity":96,"rain":0.0,"pressure":1011.6,"uv_index":7.95,"wind_gusts":45.4,"aqi":31,"pm10":11.9,"pm2_5":7.5,"no2":2.1,"co":249.0,"o3":62.0,"so2":0.8,"mosquito_risk":3,"arthritis_risk":0,"migraine_risk":4,"frizz_risk":1,"updated_at":"2026-05-22T23:24:33.120842+05:30"},{"city":"Kozhikode","state":"Kerala","latitude":11.2588,"longitude":75.7804,"temp":25.0,"humidity":99,"rain":0.0,"pressure":1011.5,"uv_index":7.6,"wind_gusts":31.7,"aqi":29,"pm10":8.7,"pm2_5":6.0,"no2":2.0,"co":469.0,"o3":65.0,"so2":0.7,"mosquito_risk":7,"arthritis_risk":0,"migraine_risk":4,"frizz_risk":1,"updated_at":"2026-05-22T23:24:33.120849+05:30"},{"city":"Thrissur","state":"Kerala","latitude":10.5276,"longitude":76.2144,"temp":24.9,"humidity":97,"rain":0.0,"pressure":1010.8,"uv_index":8.05,"wind_gusts":37.4,"aqi":46,"pm10":26.7,"pm2_5":25.6,"no2":24.8,"co":417.0,"o3":16.0,"so2":5.9,"mosquito_risk":3,"arthritis_risk":0,"migraine_risk":4,"frizz_risk":1,"updated_at":"2026-05-22T23:24:33.120857+05:30"},{"city":"Kannur","state":"Kerala","latitude":11.8745,"longitude":75.3704,"temp":25.1,"humidity":96,"rain":0.0,"pressure":1010.8,"uv_index":7.9,"wind_gusts":32.4,"aqi":31,"pm10":12.5,"pm2_5":10.2,"no2":15.2,"co":363.0,"o3":34.0,"so2":3.0,"mosquito_risk":7,"arthritis_risk":0,"migraine_risk":4,"frizz_risk":1,"updated_at":"2026-05-22T23:24:33.120865+05:30"},{"city":"Patna","state":"Bihar","latitude":25.5941,"longitude":85.1376,"temp":30.2,"humidity":82,"rain":0.0,"pressure":996.7,"uv_index":8.85,"wind_gusts":28.8,"aqi":176,"pm10":62.9,"pm2_5":55.1,"no2":14.3,"co":495.0,"o3":127.0,"so2":20.6,"mosquito_risk":3,"arthritis_risk":5,"migraine_risk":7,"frizz_risk":1,"updated_at":"2026-05-22T23:24:33.120871+05:30"},{"city":"Gaya","state":"Bihar","latitude":24.7914,"longitude":85.0002,"temp":30.5,"humidity":79,"rain":0.0,"pressure":989.8,"uv_index":8.9,"wind_gusts":27.4,"aqi":156,"pm10":80.6,"pm2_5":66.4,"no2":19.0,"co":547.0,"o3":115.0,"so2":21.2,"mosquito_risk":3,"arthritis_risk":5,"migraine_risk":7,"frizz_risk":1,"updated_at":"2026-05-22T23:24:33.120877+05:30"},{"city":"Muzaffarpur","state":"Bihar","latitude":26.1209,"longitude":85.3647,"temp":28.6,"humidity":85,"rain":0.0,"pressure":996.9,"uv_index":8.85,"wind_gusts":33.5,"aqi":150,"pm10":70.1,"pm2_5":61.5,"no2":17.7,"co":486.0,"o3":106.0,"so2":19.2,"mosquito_risk":7,"arthritis_risk":5,"migraine_risk":7,"frizz_risk":1,"updated_at":"2026-05-22T23:24:33.120883+05:30"},{"city":"Bhagalpur","state":"Bihar","latitude":25.2425,"longitude":87.0117,"temp":29.4,"humidity":85,"rain":0.0,"pressure":997.8,"uv_index":8.8,"wind_gusts":37.1,"aqi":159,"pm10":55.2,"pm2_5":48.3,"no2":13.1,"co":483.0,"o3":111.0,"so2":15.6,"mosquito_risk":7,"arthritis_risk":5,"migraine_risk":7,"frizz_risk":1,"updated_at":"2026-05-22T23:24:33.120889+05:30"},{"city":"Ranchi","state":"Jharkhand","latitude":23.3441,"longitude":85.3096,"temp":26.8,"humidity":47,"rain":0.0,"pressure":935.0,"uv_index":9.3,"wind_gusts":27.7,"aqi":150,"pm10":186.7,"pm2_5":53.4,"no2":23.4,"co":346.0,"o3":69.0,"so2":7.1,"mosquito_risk":4,"arthritis_risk":5,"migraine_risk":7,"frizz_risk":0,"updated_at":"2026-05-22T23:24:33.120896+05:30"},{"city":"Jamshedpur","state":"Jharkhand","latitude":22.8046,"longitude":86.2029,"temp":31.2,"humidity":73,"rain":0.0,"pressure":987.5,"uv_index":9.1,"wind_gusts":34.6,"aqi":152,"pm10":73.8,"pm2_5":61.7,"no2":20.1,"co":634.0,"o3":91.0,"so2":28.3,"mosquito_risk":3,"arthritis_risk":5,"migraine_risk":7,"frizz_risk":1,"updated_at":"2026-05-22T23:24:33.120902+05:30"},{"city":"Dhanbad","state":"Jharkhand","latitude":23.7957,"longitude":86.4304,"temp":30.4,"humidity":85,"rain":0.0,"pressure":976.6,"uv_index":9.05,"wind_gusts":36.7,"aqi":162,"pm10":100.4,"pm2_5":88.9,"no2":59.7,"co":568.0,"o3":50.0,"so2":125.3,"mosquito_risk":3,"arthritis_risk":5,"migraine_risk":7,"frizz_risk":1,"updated_at":"2026-05-22T23:24:33.120909+05:30"},{"city":"Bokaro","state":"Jharkhand","latitude":23.6693,"longitude":86.1511,"temp":30.0,"humidity":85,"rain":0.0,"pressure":980.3,"uv_index":9.1,"wind_gusts":27.4,"aqi":159,"pm10":124.8,"pm2_5":77.5,"no2":50.5,"co":792.0,"o3":47.0,"so2":102.8,"mosquito_risk":7,"arthritis_risk":5,"migraine_risk":7,"frizz_risk":1,"updated_at":"2026-05-22T23:24:33.120915+05:30"},{"city":"Bhubaneswar","state":"Odisha","latitude":20.2961,"longitude":85.8245,"temp":30.0,"humidity":89,"rain":0.0,"pressure":999.0,"uv_index":9.15,"wind_gusts":42.5,"aqi":99,"pm10":42.0,"pm2_5":33.3,"no2":8.0,"co":400.0,"o3":93.0,"so2":5.7,"mosquito_risk":7,"arthritis_risk":5,"migraine_risk":7,"frizz_risk":1,"updated_at":"2026-05-22T23:24:33.120922+05:30"},{"city":"Cuttack","state":"Odisha","latitude":20.4625,"longitude":85.8828,"temp":30.1,"humidity":88,"rain":0.0,"pressure":1000.9,"uv_index":9.2,"wind_gusts":35.3,"aqi":99,"pm10":42.0,"pm2_5":33.3,"no2":8.0,"co":424.0,"o3":93.0,"so2":5.7,"mosquito_risk":3,"arthritis_risk":5,"migraine_risk":4,"frizz_risk":1,"updated_at":"2026-05-22T23:24:33.120929+05:30"},{"city":"Rourkela","state":"Odisha","latitude":22.2604,"longitude":84.8536,"temp":30.5,"humidity":73,"rain":0.0,"pressure":981.7,"uv_index":9.0,"wind_gusts":35.3,"aqi":163,"pm10":110.4,"pm2_5":82.2,"no2":35.3,"co":563.0,"o3":67.0,"so2":19.3,"mosquito_risk":3,"arthritis_risk":5,"migraine_risk":7,"frizz_risk":1,"updated_at":"2026-05-22T23:24:33.120935+05:30"},{"city":"Raipur","state":"Chhattisgarh","latitude":21.2514,"longitude":81.6296,"temp":34.6,"humidity":25,"rain":0.0,"pressure":971.7,"uv_index":9.0,"wind_gusts":41.4,"aqi":141,"pm10":65.4,"pm2_5":60.3,"no2":62.4,"co":410.0,"o3":25.0,"so2":47.1,"mosquito_risk":0,"arthritis_risk":5,"migraine_risk":7,"frizz_risk":0,"updated_at":"2026-05-22T23:24:33.120942+05:30"},{"city":"Bhilai","state":"Chhattisgarh","latitude":21.1938,"longitude":81.3509,"temp":33.9,"humidity":28,"rain":0.0,"pressure":971.8,"uv_index":8.7,"wind_gusts":37.8,"aqi":93,"pm10":26.8,"pm2_5":23.7,"no2":29.1,"co":386.0,"o3":66.0,"so2":37.6,"mosquito_risk":0,"arthritis_risk":5,"migraine_risk":7,"frizz_risk":0,"updated_at":"2026-05-22T23:24:33.120948+05:30"},{"city":"Guwahati","state":"Assam","latitude":26.1158,"longitude":91.7086,"temp":23.8,"humidity":99,"rain":0.2,"pressure":999.9,"uv_index":8.8,"wind_gusts":27.4,"aqi":83,"pm10":25.3,"pm2_5":22.4,"no2":11.2,"co":368.0,"o3":52.0,"so2":2.6,"mosquito_risk":6,"arthritis_risk":5,"migraine_risk":7,"frizz_risk":1,"updated_at":"2026-05-22T23:24:33.120954+05:30"},{"city":"Agartala","state":"Tripura","latitude":23.8315,"longitude":91.2868,"temp":26.6,"humidity":91,"rain":0.0,"pressure":1004.1,"uv_index":8.85,"wind_gusts":31.3,"aqi":84,"pm10":39.3,"pm2_5":34.1,"no2":13.0,"co":256.0,"o3":50.0,"so2":2.9,"mosquito_risk":7,"arthritis_risk":5,"migraine_risk":4,"frizz_risk":1,"updated_at":"2026-05-22T23:24:33.120961+05:30"},{"city":"Shillong","state":"Meghalaya","latitude":25.5788,"longitude":91.8933,"temp":20.0,"humidity":92,"rain":0.0,"pressure":856.3,"uv_index":7.25,"wind_gusts":29.2,"aqi":62,"pm10":17.3,"pm2_5":13.3,"no2":7.6,"co":298.0,"o3":72.0,"so2":2.9,"mosquito_risk":3,"arthritis_risk":5,"migraine_risk":7,"frizz_risk":1,"updated_at":"2026-05-22T23:24:33.120967+05:30"},{"city":"Imphal","state":"Manipur","latitude":24.817,"longitude":93.9368,"temp":23.1,"humidity":98,"rain":0.0,"pressure":922.1,"uv_index":9.3,"wind_gusts":30.6,"aqi":79,"pm10":14.2,"pm2_5":12.1,"no2":10.7,"co":406.0,"o3":53.0,"so2":2.9,"mosquito_risk":3,"arthritis_risk":5,"migraine_risk":7,"frizz_risk":1,"updated_at":"2026-05-22T23:24:33.120974+05:30"},{"city":"Aizawl","state":"Mizoram","latitude":23.7271,"longitude":92.7176,"temp":19.3,"humidity":97,"rain":0.0,"pressure":891.3,"uv_index":8.35,"wind_gusts":31.0,"aqi":62,"pm10":14.4,"pm2_5":10.5,"no2":5.9,"co":216.0,"o3":56.0,"so2":1.4,"mosquito_risk":3,"arthritis_risk":10,"migraine_risk":7,"frizz_risk":1,"updated_at":"2026-05-22T23:24:33.120980+05:30"},{"city":"Kohima","state":"Nagaland","latitude":25.6701,"longitude":94.1077,"temp":17.7,"humidity":97,"rain":0.1,"pressure":853.5,"uv_index":9.2,"wind_gusts":27.0,"aqi":75,"pm10":25.3,"pm2_5":20.3,"no2":10.7,"co":385.0,"o3":49.0,"so2":1.9,"mosquito_risk":6,"arthritis_risk":10,"migraine_risk":7,"frizz_risk":1,"updated_at":"2026-05-22T23:24:33.120987+05:30"},{"city":"Gangtok","state":"Sikkim","latitude":27.3314,"longitude":88.6138,"temp":16.1,"humidity":95,"rain":0.2,"pressure":836.0,"uv_index":9.15,"wind_gusts":32.0,"aqi":67,"pm10":19.1,"pm2_5":15.7,"no2":12.0,"co":563.0,"o3":104.0,"so2":2.7,"mosquito_risk":6,"arthritis_risk":10,"migraine_risk":7,"frizz_risk":0,"updated_at":"2026-05-22T23:24:33.120993+05:30"},{"city":"Siliguri","state":"West Bengal","latitude":26.7271,"longitude":88.3953,"temp":25.6,"humidity":94,"rain":0.0,"pressure":990.4,"uv_index":8.7,"wind_gusts":21.2,"aqi":89,"pm10":46.8,"pm2_5":33.1,"no2":11.8,"co":661.0,"o3":111.0,"so2":5.0,"mosquito_risk":7,"arthritis_risk":5,"migraine_risk":7,"frizz_risk":1,"updated_at":"2026-05-22T23:24:36.392599+05:30"},{"city":"Durgapur","state":"West Bengal","latitude":23.5204,"longitude":87.3119,"temp":29.8,"humidity":91,"rain":0.0,"pressure":991.7,"uv_index":9.0,"wind_gusts":36.4,"aqi":155,"pm10":68.7,"pm2_5":60.5,"no2":26.3,"co":473.0,"o3":61.0,"so2":31.6,"mosquito_risk":7,"arthritis_risk":5,"migraine_risk":7,"frizz_risk":1,"updated_at":"2026-05-22T23:24:36.392636+05:30"},{"city":"Asansol","state":"West Bengal","latitude":23.6739,"longitude":86.9524,"temp":29.9,"humidity":93,"rain":0.0,"pressure":990.1,"uv_index":9.05,"wind_gusts":31.3,"aqi":154,"pm10":62.4,"pm2_5":55.5,"no2":29.1,"co":512.0,"o3":58.0,"so2":40.0,"mosquito_risk":7,"arthritis_risk":5,"migraine_risk":7,"frizz_risk":1,"updated_at":"2026-05-22T23:24:36.392648+05:30"},{"city":"Pondicherry","state":"Puducherry","latitude":11.9139,"longitude":79.8145,"temp":29.4,"humidity":83,"rain":0.0,"pressure":1008.6,"uv_index":8.95,"wind_gusts":43.9,"aqi":93,"pm10":27.4,"pm2_5":20.1,"no2":14.1,"co":235.0,"o3":73.0,"so2":5.1,"mosquito_risk":7,"arthritis_risk":0,"migraine_risk":4,"frizz_risk":1,"updated_at":"2026-05-22T23:24:36.392658+05:30"},{"city":"Port Blair","state":"Andaman and Nicobar Islands","latitude":11.6234,"longitude":92.7265,"temp":26.2,"humidity":94,"rain":0.0,"pressure":1007.5,"uv_index":1.35,"wind_gusts":35.6,"aqi":28,"pm10":4.2,"pm2_5":2.7,"no2":0.3,"co":108.0,"o3":68.0,"so2":0.3,"mosquito_risk":7,"arthritis_risk":5,"migraine_risk":0,"frizz_risk":1,"updated_at":"2026-05-22T23:24:36.392667+05:30"},{"city":"Haridwar","state":"Uttarakhand","latitude":29.9457,"longitude":78.1642,"temp":27.6,"humidity":52,"rain":0.0,"pressure":970.4,"uv_index":7.55,"wind_gusts":34.6,"aqi":153,"pm10":92.4,"pm2_5":45.1,"no2":19.2,"co":417.0,"o3":81.0,"so2":10.9,"mosquito_risk":4,"arthritis_risk":5,"migraine_risk":7,"frizz_risk":1,"updated_at":"2026-05-22T23:24:36.392674+05:30"},{"city":"Rishikesh","state":"Uttarakhand","latitude":30.0869,"longitude":78.2676,"temp":24.9,"humidity":50,"rain":0.0,"pressure":963.0,"uv_index":7.7,"wind_gusts":38.2,"aqi":134,"pm10":125.3,"pm2_5":40.6,"no2":10.1,"co":483.0,"o3":105.0,"so2":8.0,"mosquito_risk":0,"arthritis_risk":5,"migraine_risk":7,"frizz_risk":0,"updated_at":"2026-05-22T23:24:36.392682+05:30"},{"city":"Nainital","state":"Uttarakhand","latitude":29.3919,"longitude":79.4542,"temp":17.4,"humidity":61,"rain":0.0,"pressure":804.7,"uv_index":8.5,"wind_gusts":46.1,"aqi":157,"pm10":183.0,"pm2_5":69.4,"no2":13.4,"co":324.0,"o3":109.0,"so2":7.4,"mosquito_risk":3,"arthritis_risk":5,"migraine_risk":7,"frizz_risk":0,"updated_at":"2026-05-22T23:24:36.392690+05:30"},{"city":"Mussoorie","state":"Uttarakhand","latitude":30.4599,"longitude":78.0664,"temp":16.9,"humidity":51,"rain":0.0,"pressure":802.2,"uv_index":8.1,"wind_gusts":52.6,"aqi":111,"pm10":110.6,"pm2_5":38.8,"no2":23.2,"co":247.0,"o3":81.0,"so2":7.9,"mosquito_risk":0,"arthritis_risk":5,"migraine_risk":7,"frizz_risk":0,"updated_at":"2026-05-22T23:24:36.392698+05:30"},{"city":"Dharamshala","state":"Himachal Pradesh","latitude":32.219,"longitude":76.3234,"temp":21.6,"humidity":50,"rain":0.0,"pressure":868.7,"uv_index":8.25,"wind_gusts":40.0,"aqi":50,"pm10":24.7,"pm2_5":13.6,"no2":16.1,"co":220.0,"o3":34.0,"so2":0.7,"mosquito_risk":0,"arthritis_risk":5,"migraine_risk":7,"frizz_risk":0,"updated_at":"2026-05-22T23:24:36.392705+05:30"},{"city":"Dalhousie","state":"Himachal Pradesh","latitude":32.5387,"longitude":75.971,"temp":12.4,"humidity":74,"rain":0.0,"pressure":802.1,"uv_index":8.45,"wind_gusts":45.0,"aqi":65,"pm10":48.0,"pm2_5":25.3,"no2":34.6,"co":283.0,"o3":39.0,"so2":2.2,"mosquito_risk":3,"arthritis_risk":5,"migraine_risk":7,"frizz_risk":0,"updated_at":"2026-05-22T23:24:36.392713+05:30"},{"city":"Patiala","state":"Punjab","latitude":30.3398,"longitude":76.3869,"temp":31.3,"humidity":35,"rain":0.0,"pressure":975.7,"uv_index":7.65,"wind_gusts":52.9,"aqi":654,"pm10":756.2,"pm2_5":122.0,"no2":10.8,"co":302.0,"o3":79.0,"so2":5.6,"mosquito_risk":0,"arthritis_risk":5,"migraine_risk":7,"frizz_risk":0,"updated_at":"2026-05-22T23:24:36.392722+05:30"},{"city":"Bhatinda","state":"Punjab","latitude":30.211,"longitude":74.9455,"temp":32.7,"humidity":34,"rain":0.0,"pressure":981.2,"uv_index":8.3,"wind_gusts":40.0,"aqi":91,"pm10":68.7,"pm2_5":36.9,"no2":15.0,"co":291.0,"o3":78.0,"so2":7.2,"mosquito_risk":0,"arthritis_risk":5,"migraine_risk":7,"frizz_risk":0,"updated_at":"2026-05-22T23:24:36.392729+05:30"},{"city":"Rohtak","state":"Haryana","latitude":28.8955,"longitude":76.6066,"temp":32.5,"humidity":30,"rain":0.0,"pressure":979.0,"uv_index":7.8,"wind_gusts":35.6,"aqi":788,"pm10":897.8,"pm2_5":176.0,"no2":25.7,"co":315.0,"o3":61.0,"so2":8.8,"mosquito_risk":0,"arthritis_risk":5,"migraine_risk":7,"frizz_risk":0,"updated_at":"2026-05-22T23:24:36.392735+05:30"},{"city":"Panipat","state":"Haryana","latitude":29.3909,"longitude":76.9635,"temp":32.7,"humidity":30,"rain":0.0,"pressure":977.7,"uv_index":7.65,"wind_gusts":36.4,"aqi":1693,"pm10":2019.1,"pm2_5":302.7,"no2":13.9,"co":327.0,"o3":80.0,"so2":6.8,"mosquito_risk":0,"arthritis_risk":5,"migraine_risk":7,"frizz_risk":0,"updated_at":"2026-05-22T23:24:36.392742+05:30"},{"city":"Mathura","state":"Uttar Pradesh","latitude":27.4924,"longitude":77.6737,"temp":34.9,"humidity":25,"rain":0.0,"pressure":983.5,"uv_index":8.05,"wind_gusts":37.8,"aqi":816,"pm10":1136.2,"pm2_5":204.0,"no2":21.7,"co":249.0,"o3":73.0,"so2":9.4,"mosquito_risk":0,"arthritis_risk":5,"migraine_risk":7,"frizz_risk":0,"updated_at":"2026-05-22T23:24:36.392748+05:30"},{"city":"Vrindavan","state":"Uttar Pradesh","latitude":27.5823,"longitude":77.7027,"temp":34.0,"humidity":27,"rain":0.0,"pressure":984.0,"uv_index":8.0,"wind_gusts":39.2,"aqi":816,"pm10":1136.2,"pm2_5":204.0,"no2":21.7,"co":267.0,"o3":73.0,"so2":9.4,"mosquito_risk":0,"arthritis_risk":5,"migraine_risk":7,"frizz_risk":0,"updated_at":"2026-05-22T23:24:36.392754+05:30"},{"city":"Ayodhya","state":"Uttar Pradesh","latitude":26.7922,"longitude":82.1998,"temp":31.1,"humidity":69,"rain":0.0,"pressure":990.9,"uv_index":8.4,"wind_gusts":29.5,"aqi":153,"pm10":124.8,"pm2_5":65.9,"no2":19.4,"co":734.0,"o3":91.0,"so2":12.4,"mosquito_risk":3,"arthritis_risk":5,"migraine_risk":7,"frizz_risk":1,"updated_at":"2026-05-22T23:24:36.392761+05:30"},{"city":"Ratlam","state":"Madhya Pradesh","latitude":23.3315,"longitude":75.0367,"temp":32.5,"humidity":30,"rain":0.0,"pressure":954.6,"uv_index":8.6,"wind_gusts":37.8,"aqi":70,"pm10":41.8,"pm2_5":27.1,"no2":3.1,"co":182.0,"o3":94.0,"so2":4.5,"mosquito_risk":0,"arthritis_risk":5,"migraine_risk":7,"frizz_risk":0,"updated_at":"2026-05-22T23:24:36.392769+05:30"},{"city":"Sagar","state":"Madhya Pradesh","latitude":23.8388,"longitude":78.7378,"temp":32.8,"humidity":23,"rain":0.0,"pressure":948.9,"uv_index":8.75,"wind_gusts":39.6,"aqi":49,"pm10":27.4,"pm2_5":17.7,"no2":10.5,"co":202.0,"o3":65.0,"so2":3.7,"mosquito_risk":0,"arthritis_risk":5,"migraine_risk":7,"frizz_risk":0,"updated_at":"2026-05-22T23:24:36.392775+05:30"},{"city":"Satna","state":"Madhya Pradesh","latitude":24.6005,"longitude":80.8322,"temp":32.6,"humidity":22,"rain":0.0,"pressure":968.6,"uv_index":8.8,"wind_gusts":40.7,"aqi":52,"pm10":46.2,"pm2_5":21.2,"no2":17.1,"co":208.0,"o3":62.0,"so2":3.3,"mosquito_risk":0,"arthritis_risk":5,"migraine_risk":7,"frizz_risk":0,"updated_at":"2026-05-22T23:24:36.392783+05:30"},{"city":"Akola","state":"Maharashtra","latitude":20.7002,"longitude":77.0082,"temp":36.2,"humidity":34,"rain":0.0,"pressure":974.0,"uv_index":8.9,"wind_gusts":49.7,"aqi":71,"pm10":31.4,"pm2_5":24.1,"no2":11.6,"co":188.0,"o3":78.0,"so2":7.1,"mosquito_risk":0,"arthritis_risk":5,"migraine_risk":10,"frizz_risk":1,"updated_at":"2026-05-22T23:24:36.392790+05:30"},{"city":"Amravati","state":"Maharashtra","latitude":20.9374,"longitude":77.7796,"temp":36.3,"humidity":25,"rain":0.0,"pressure":966.2,"uv_index":8.85,"wind_gusts":45.4,"aqi":69,"pm10":30.6,"pm2_5":24.0,"no2":12.7,"co":204.0,"o3":77.0,"so2":7.0,"mosquito_risk":0,"arthritis_risk":5,"migraine_risk":10,"frizz_risk":0,"updated_at":"2026-05-22T23:24:36.392798+05:30"},{"city":"Latur","state":"Maharashtra","latitude":18.4088,"longitude":76.5604,"temp":28.5,"humidity":65,"rain":0.0,"pressure":940.9,"uv_index":9.0,"wind_gusts":45.0,"aqi":75,"pm10":32.7,"pm2_5":26.3,"no2":8.4,"co":220.0,"o3":93.0,"so2":3.2,"mosquito_risk":7,"arthritis_risk":5,"migraine_risk":7,"frizz_risk":1,"updated_at":"2026-05-22T23:24:36.392806+05:30"},{"city":"Nanded","state":"Maharashtra","latitude":19.1383,"longitude":77.3091,"temp":32.5,"humidity":44,"rain":0.0,"pressure":968.7,"uv_index":8.95,"wind_gusts":45.4,"aqi":86,"pm10":44.1,"pm2_5":33.1,"no2":7.3,"co":207.0,"o3":103.0,"so2":5.2,"mosquito_risk":0,"arthritis_risk":5,"migraine_risk":7,"frizz_risk":1,"updated_at":"2026-05-22T23:24:36.392813+05:30"},{"city":"Gulbarga","state":"Karnataka","latitude":17.3297,"longitude":76.8343,"temp":29.2,"humidity":61,"rain":0.0,"pressure":960.0,"uv_index":8.95,"wind_gusts":46.4,"aqi":78,"pm10":31.1,"pm2_5":25.6,"no2":8.9,"co":248.0,"o3":96.0,"so2":3.9,"mosquito_risk":7,"arthritis_risk":5,"migraine_risk":7,"frizz_risk":1,"updated_at":"2026-05-22T23:24:36.392819+05:30"},{"city":"Bidar","state":"Karnataka","latitude":17.9104,"longitude":77.5199,"temp":29.0,"humidity":58,"rain":0.0,"pressure":936.1,"uv_index":9.0,"wind_gusts":46.1,"aqi":81,"pm10":45.6,"pm2_5":38.2,"no2":12.5,"co":231.0,"o3":100.0,"so2":6.1,"mosquito_risk":4,"arthritis_risk":5,"migraine_risk":7,"frizz_risk":1,"updated_at":"2026-05-22T23:24:36.392825+05:30"},{"city":"Hospet","state":"Karnataka","latitude":15.2689,"longitude":76.3909,"temp":26.4,"humidity":79,"rain":0.0,"pressure":958.4,"uv_index":9.05,"wind_gusts":41.0,"aqi":40,"pm10":7.4,"pm2_5":6.7,"no2":10.0,"co":189.0,"o3":51.0,"so2":1.7,"mosquito_risk":7,"arthritis_risk":5,"migraine_risk":7,"frizz_risk":1,"updated_at":"2026-05-22T23:24:36.392832+05:30"},{"city":"Tirupur","state":"Tamil Nadu","latitude":11.1085,"longitude":77.3411,"temp":25.6,"humidity":85,"rain":0.0,"pressure":977.9,"uv_index":8.35,"wind_gusts":57.6,"aqi":36,"pm10":13.9,"pm2_5":12.0,"no2":16.3,"co":171.0,"o3":40.0,"so2":4.2,"mosquito_risk":7,"arthritis_risk":5,"migraine_risk":7,"frizz_risk":1,"updated_at":"2026-05-22T23:24:36.392838+05:30"},{"city":"Alappuzha","state":"Kerala","latitude":9.4981,"longitude":76.3388,"temp":25.4,"humidity":98,"rain":0.0,"pressure":1012.5,"uv_index":7.95,"wind_gusts":31.7,"aqi":34,"pm10":17.9,"pm2_5":14.3,"no2":12.7,"co":151.0,"o3":48.0,"so2":3.1,"mosquito_risk":7,"arthritis_risk":0,"migraine_risk":4,"frizz_risk":1,"updated_at":"2026-05-22T23:24:36.392844+05:30"},{"city":"Munnar","state":"Kerala","latitude":10.0889,"longitude":77.0595,"temp":16.9,"humidity":98,"rain":0.0,"pressure":859.0,"uv_index":5.1,"wind_gusts":32.0,"aqi":31,"pm10":7.3,"pm2_5":6.6,"no2":8.8,"co":125.0,"o3":43.0,"so2":2.1,"mosquito_risk":3,"arthritis_risk":10,"migraine_risk":3,"frizz_risk":1,"updated_at":"2026-05-22T23:24:36.392851+05:30"},{"city":"Silchar","state":"Assam","latitude":24.8333,"longitude":92.7789,"temp":25.2,"humidity":96,"rain":0.2,"pressure":1004.2,"uv_index":8.95,"wind_gusts":26.6,"aqi":80,"pm10":29.0,"pm2_5":20.5,"no2":6.3,"co":314.0,"o3":86.0,"so2":3.9,"mosquito_risk":10,"arthritis_risk":5,"migraine_risk":4,"frizz_risk":1,"updated_at":"2026-05-22T23:24:36.392857+05:30"},{"city":"Dibrugarh","state":"Assam","latitude":27.4728,"longitude":94.912,"temp":25.4,"humidity":97,"rain":0.1,"pressure":993.3,"uv_index":8.95,"wind_gusts":27.4,"aqi":86,"pm10":35.9,"pm2_5":32.6,"no2":15.6,"co":285.0,"o3":49.0,"so2":1.9,"mosquito_risk":10,"arthritis_risk":5,"migraine_risk":7,"frizz_risk":1,"updated_at":"2026-05-22T23:24:36.392864+05:30"}]