[{"city":"Delhi","state":"Delhi","latitude":28.6139,"longitude":77.209,"temp":22.5,"humidity":63,"rain":0.0,"pressure":986.1,"uv_index":6.35,"wind_gusts":19.4,"aqi":154,"pm10":326.9,"pm2_5":78.9,"mosquito_risk":3,"arthritis_risk":5,"migraine_risk":7,"frizz_risk":0,"updated_at":"2026-03-26T02:12:33.709193+05:30"},{"city":"Mumbai","state":"Maharashtra","latitude":19.076,"longitude":72.8777,"temp":28.1,"humidity":82,"rain":0.0,"pressure":1009.0,"uv_index":7.95,"wind_gusts":28.4,"aqi":78,"pm10":32.5,"pm2_5":19.4,"mosquito_risk":7,"arthritis_risk":0,"migraine_risk":4,"frizz_risk":1,"updated_at":"2026-03-26T02:12:33.709244+05:30"},{"city":"Bangalore","state":"Karnataka","latitude":12.9716,"longitude":77.5946,"temp":22.3,"humidity":73,"rain":0.0,"pressure":911.7,"uv_index":9.45,"wind_gusts":33.1,"aqi":74,"pm10":29.0,"pm2_5":26.2,"mosquito_risk":3,"arthritis_risk":5,"migraine_risk":7,"frizz_risk":1,"updated_at":"2026-03-26T02:12:33.709261+05:30"},{"city":"Hyderabad","state":"Telangana","latitude":17.385,"longitude":78.4867,"temp":24.3,"humidity":74,"rain":0.0,"pressure":953.9,"uv_index":9.0,"wind_gusts":13.0,"aqi":101,"pm10":48.8,"pm2_5":40.7,"mosquito_risk":3,"arthritis_risk":5,"migraine_risk":7,"frizz_risk":1,"updated_at":"2026-03-26T02:12:33.709270+05:30"},{"city":"Chennai","state":"Tamil Nadu","latitude":13.0827,"longitude":80.2707,"temp":26.2,"humidity":83,"rain":0.0,"pressure":1008.5,"uv_index":9.2,"wind_gusts":30.6,"aqi":53,"pm10":28.9,"pm2_5":18.7,"mosquito_risk":7,"arthritis_risk":0,"migraine_risk":4,"frizz_risk":1,"updated_at":"2026-03-26T02:12:33.709279+05:30"},{"city":"Kolkata","state":"West Bengal","latitude":22.5726,"longitude":88.3639,"temp":25.0,"humidity":95,"rain":0.0,"pressure":1008.4,"uv_index":8.45,"wind_gusts":21.2,"aqi":85,"pm10":33.5,"pm2_5":27.5,"mosquito_risk":7,"arthritis_risk":0,"migraine_risk":4,"frizz_risk":1,"updated_at":"2026-03-26T02:12:33.709289+05:30"},{"city":"Pune","state":"Maharashtra","latitude":18.5204,"longitude":73.8567,"temp":24.8,"humidity":85,"rain":0.0,"pressure":949.3,"uv_index":8.5,"wind_gusts":31.3,"aqi":92,"pm10":51.0,"pm2_5":44.5,"mosquito_risk":3,"arthritis_risk":5,"migraine_risk":7,"frizz_risk":1,"updated_at":"2026-03-26T02:12:33.709302+05:30"},{"city":"Ahmedabad","state":"Gujarat","latitude":23.0225,"longitude":72.5714,"temp":25.6,"humidity":56,"rain":0.0,"pressure":1003.2,"uv_index":7.9,"wind_gusts":23.4,"aqi":70,"pm10":56.2,"pm2_5":44.1,"mosquito_risk":4,"arthritis_risk":5,"migraine_risk":4,"frizz_risk":1,"updated_at":"2026-03-26T02:12:33.709310+05:30"},{"city":"Jaipur","state":"Rajasthan","latitude":26.9124,"longitude":75.7873,"temp":22.7,"humidity":56,"rain":0.0,"pressure":962.1,"uv_index":7.35,"wind_gusts":28.4,"aqi":108,"pm10":129.5,"pm2_5":34.9,"mosquito_risk":0,"arthritis_risk":5,"migraine_risk":7,"frizz_risk":0,"updated_at":"2026-03-26T02:12:33.709318+05:30"},{"city":"Lucknow","state":"Uttar Pradesh","latitude":26.8467,"longitude":80.9462,"temp":21.8,"humidity":59,"rain":0.0,"pressure":996.3,"uv_index":7.15,"wind_gusts":33.5,"aqi":123,"pm10":350.2,"pm2_5":70.1,"mosquito_risk":0,"arthritis_risk":5,"migraine_risk":7,"frizz_risk":0,"updated_at":"2026-03-26T02:12:33.709326+05:30"},{"city":"Kanpur","state":"Uttar Pradesh","latitude":26.4499,"longitude":80.3319,"temp":21.3,"humidity":70,"rain":0.0,"pressure":994.5,"uv_index":7.15,"wind_gusts":26.3,"aqi":172,"pm10":393.0,"pm2_5":78.7,"mosquito_risk":3,"arthritis_risk":5,"migraine_risk":7,"frizz_risk":0,"updated_at":"2026-03-26T02:12:33.709333+05:30"},{"city":"Chandigarh","state":"Chandigarh","latitude":30.7333,"longitude":76.7794,"temp":19.9,"humidity":68,"rain":0.0,"pressure":971.9,"uv_index":6.5,"wind_gusts":35.6,"aqi":78,"pm10":34.1,"pm2_5":27.1,"mosquito_risk":3,"arthritis_risk":5,"migraine_risk":7,"frizz_risk":0,"updated_at":"2026-03-26T02:12:33.709341+05:30"},{"city":"Srinagar","state":"Jammu and Kashmir","latitude":34.0837,"longitude":74.7973,"temp":11.1,"humidity":76,"rain":0.0,"pressure":842.3,"uv_index":7.55,"wind_gusts":18.0,"aqi":91,"pm10":41.6,"pm2_5":34.3,"mosquito_risk":3,"arthritis_risk":5,"migraine_risk":7,"frizz_risk":0,"updated_at":"2026-03-26T02:12:33.709348+05:30"},{"city":"Jammu","state":"Jammu and Kashmir","latitude":32.7266,"longitude":74.857,"temp":21.0,"humidity":77,"rain":0.0,"pressure":976.7,"uv_index":6.8,"wind_gusts":30.6,"aqi":86,"pm10":44.0,"pm2_5":38.1,"mosquito_risk":3,"arthritis_risk":5,"migraine_risk":7,"frizz_risk":1,"updated_at":"2026-03-26T02:12:33.709355+05:30"},{"city":"Amritsar","state":"Punjab","latitude":31.634,"longitude":74.8723,"temp":19.7,"humidity":86,"rain":0.0,"pressure":985.4,"uv_index":6.15,"wind_gusts":30.2,"aqi":115,"pm10":38.5,"pm2_5":31.5,"mosquito_risk":3,"arthritis_risk":10,"migraine_risk":7,"frizz_risk":1,"updated_at":"2026-03-26T02:12:33.709363+05:30"},{"city":"Ludhiana","state":"Punjab","latitude":30.901,"longitude":75.8573,"temp":20.9,"humidity":77,"rain":0.0,"pressure":982.7,"uv_index":5.95,"wind_gusts":36.0,"aqi":126,"pm10":57.2,"pm2_5":50.2,"mosquito_risk":3,"arthritis_risk":5,"migraine_risk":3,"frizz_risk":1,"updated_at":"2026-03-26T02:12:33.709371+05:30"},{"city":"Jalandhar","state":"Punjab","latitude":31.326,"longitude":75.5762,"temp":20.5,"humidity":81,"rain":0.0,"pressure":984.1,"uv_index":6.4,"wind_gusts":36.7,"aqi":120,"pm10":58.1,"pm2_5":44.9,"mosquito_risk":3,"arthritis_risk":5,"migraine_risk":7,"frizz_risk":1,"updated_at":"2026-03-26T02:12:33.709380+05:30"},{"city":"Dehradun","state":"Uttarakhand","latitude":30.6284,"longitude":78.0322,"temp":12.9,"humidity":85,"rain":0.0,"pressure":831.2,"uv_index":6.85,"wind_gusts":37.4,"aqi":80,"pm10":28.1,"pm2_5":23.4,"mosquito_risk":3,"arthritis_risk":10,"migraine_risk":7,"frizz_risk":0,"updated_at":"2026-03-26T02:12:33.709388+05:30"},{"city":"Shimla","state":"Himachal Pradesh","latitude":31.1048,"longitude":77.1734,"temp":11.1,"humidity":81,"rain":0.0,"pressure":785.1,"uv_index":6.95,"wind_gusts":51.1,"aqi":84,"pm10":39.0,"pm2_5":26.1,"mosquito_risk":3,"arthritis_risk":10,"migraine_risk":7,"frizz_risk":0,"updated_at":"2026-03-26T02:12:33.709395+05:30"},{"city":"Manali","state":"Himachal Pradesh","latitude":32.2396,"longitude":77.1887,"temp":13.9,"humidity":55,"rain":0.0,"pressure":820.7,"uv_index":8.45,"wind_gusts":28.1,"aqi":82,"pm10":28.3,"pm2_5":17.3,"mosquito_risk":0,"arthritis_risk":5,"migraine_risk":7,"frizz_risk":0,"updated_at":"2026-03-26T02:12:33.709403+05:30"},{"city":"Gurgaon","state":"Haryana","latitude":28.4595,"longitude":77.0266,"temp":20.3,"humidity":73,"rain":0.0,"pressure":984.4,"uv_index":6.7,"wind_gusts":18.7,"aqi":411,"pm10":282.2,"pm2_5":95.0,"mosquito_risk":3,"arthritis_risk":5,"migraine_risk":7,"frizz_risk":0,"updated_at":"2026-03-26T02:12:33.709412+05:30"},{"city":"Noida","state":"Uttar Pradesh","latitude":28.5355,"longitude":77.391,"temp":21.9,"humidity":66,"rain":0.0,"pressure":987.6,"uv_index":6.4,"wind_gusts":19.1,"aqi":411,"pm10":282.2,"pm2_5":95.0,"mosquito_risk":3,"arthritis_risk":5,"migraine_risk":7,"frizz_risk":0,"updated_at":"2026-03-26T02:12:33.709419+05:30"},{"city":"Ghaziabad","state":"Uttar Pradesh","latitude":28.6692,"longitude":77.4538,"temp":20.4,"humidity":71,"rain":0.0,"pressure":985.7,"uv_index":6.5,"wind_gusts":20.9,"aqi":147,"pm10":304.5,"pm2_5":71.0,"mosquito_risk":3,"arthritis_risk":5,"migraine_risk":7,"frizz_risk":0,"updated_at":"2026-03-26T02:12:33.709427+05:30"},{"city":"Faridabad","state":"Haryana","latitude":28.4089,"longitude":77.3178,"temp":20.7,"humidity":66,"rain":0.0,"pressure":986.6,"uv_index":6.45,"wind_gusts":24.8,"aqi":411,"pm10":282.2,"pm2_5":95.0,"mosquito_risk":3,"arthritis_risk":5,"migraine_risk":7,"frizz_risk":0,"updated_at":"2026-03-26T02:12:33.709433+05:30"},{"city":"Meerut","state":"Uttar Pradesh","latitude":28.9845,"longitude":77.7064,"temp":19.8,"humidity":69,"rain":0.0,"pressure":984.6,"uv_index":6.45,"wind_gusts":27.4,"aqi":147,"pm10":304.5,"pm2_5":71.0,"mosquito_risk":3,"arthritis_risk":5,"migraine_risk":7,"frizz_risk":0,"updated_at":"2026-03-26T02:12:33.709440+05:30"},{"city":"Agra","state":"Uttar Pradesh","latitude":27.1767,"longitude":78.0081,"temp":20.8,"humidity":61,"rain":0.0,"pressure":990.5,"uv_index":6.95,"wind_gusts":24.8,"aqi":382,"pm10":322.2,"pm2_5":109.4,"mosquito_risk":3,"arthritis_risk":5,"migraine_risk":7,"frizz_risk":0,"updated_at":"2026-03-26T02:12:33.709446+05:30"},{"city":"Varanasi","state":"Uttar Pradesh","latitude":25.3176,"longitude":82.9739,"temp":19.5,"humidity":59,"rain":0.0,"pressure":1000.3,"uv_index":7.8,"wind_gusts":29.5,"aqi":101,"pm10":109.9,"pm2_5":41.7,"mosquito_risk":0,"arthritis_risk":5,"migraine_risk":4,"frizz_risk":0,"updated_at":"2026-03-26T02:12:33.709456+05:30"},{"city":"Prayagraj","state":"Uttar Pradesh","latitude":25.4358,"longitude":81.8463,"temp":22.9,"humidity":50,"rain":0.0,"pressure":998.9,"uv_index":7.65,"wind_gusts":28.8,"aqi":102,"pm10":150.9,"pm2_5":44.6,"mosquito_risk":0,"arthritis_risk":5,"migraine_risk":7,"frizz_risk":0,"updated_at":"2026-03-26T02:12:33.709463+05:30"},{"city":"Gorakhpur","state":"Uttar Pradesh","latitude":26.7606,"longitude":83.3732,"temp":18.8,"humidity":62,"rain":0.0,"pressure":999.7,"uv_index":7.55,"wind_gusts":18.0,"aqi":97,"pm10":49.6,"pm2_5":34.5,"mosquito_risk":3,"arthritis_risk":5,"migraine_risk":7,"frizz_risk":0,"updated_at":"2026-03-26T02:12:33.709472+05:30"},{"city":"Bareilly","state":"Uttar Pradesh","latitude":28.367,"longitude":79.4304,"temp":19.5,"humidity":77,"rain":0.0,"pressure":989.4,"uv_index":6.8,"wind_gusts":24.1,"aqi":103,"pm10":177.0,"pm2_5":69.4,"mosquito_risk":3,"arthritis_risk":5,"migraine_risk":7,"frizz_risk":0,"updated_at":"2026-03-26T02:12:33.709478+05:30"},{"city":"Aligarh","state":"Uttar Pradesh","latitude":27.8974,"longitude":78.088,"temp":19.7,"humidity":68,"rain":0.0,"pressure":988.3,"uv_index":6.75,"wind_gusts":20.9,"aqi":351,"pm10":466.6,"pm2_5":114.1,"mosquito_risk":3,"arthritis_risk":5,"migraine_risk":7,"frizz_risk":0,"updated_at":"2026-03-26T02:12:33.709485+05:30"},{"city":"Moradabad","state":"Uttar Pradesh","latitude":28.8386,"longitude":78.7733,"temp":19.3,"humidity":74,"rain":0.0,"pressure":986.5,"uv_index":6.65,"wind_gusts":29.2,"aqi":109,"pm10":123.4,"pm2_5":64.3,"mosquito_risk":3,"arthritis_risk":5,"migraine_risk":7,"frizz_risk":0,"updated_at":"2026-03-26T02:12:33.709492+05:30"},{"city":"Saharanpur","state":"Uttar Pradesh","latitude":29.9637,"longitude":77.546,"temp":19.1,"humidity":72,"rain":0.0,"pressure":978.2,"uv_index":6.25,"wind_gusts":38.2,"aqi":132,"pm10":139.7,"pm2_5":72.6,"mosquito_risk":3,"arthritis_risk":5,"migraine_risk":7,"frizz_risk":0,"updated_at":"2026-03-26T02:12:33.709498+05:30"},{"city":"Jhansi","state":"Uttar Pradesh","latitude":25.4484,"longitude":78.5685,"temp":24.2,"humidity":41,"rain":0.0,"pressure":980.4,"uv_index":7.6,"wind_gusts":27.7,"aqi":110,"pm10":122.0,"pm2_5":34.5,"mosquito_risk":0,"arthritis_risk":5,"migraine_risk":7,"frizz_risk":0,"updated_at":"2026-03-26T02:12:37.011111+05:30"},{"city":"Surat","state":"Gujarat","latitude":21.1702,"longitude":72.8311,"temp":26.1,"humidity":84,"rain":0.0,"pressure":1007.3,"uv_index":7.75,"wind_gusts":24.8,"aqi":93,"pm10":33.9,"pm2_5":24.2,"mosquito_risk":7,"arthritis_risk":5,"migraine_risk":4,"frizz_risk":1,"updated_at":"2026-03-26T02:12:37.011143+05:30"},{"city":"Vadodara","state":"Gujarat","latitude":22.3072,"longitude":73.1812,"temp":26.6,"humidity":67,"rain":0.0,"pressure":1005.3,"uv_index":7.9,"wind_gusts":25.6,"aqi":89,"pm10":55.3,"pm2_5":46.6,"mosquito_risk":7,"arthritis_risk":5,"migraine_risk":4,"frizz_risk":1,"updated_at":"2026-03-26T02:12:37.011153+05:30"},{"city":"Rajkot","state":"Gujarat","latitude":22.3039,"longitude":70.8022,"temp":23.5,"humidity":79,"rain":0.0,"pressure":996.1,"uv_index":7.75,"wind_gusts":33.1,"aqi":47,"pm10":30.5,"pm2_5":11.8,"mosquito_risk":3,"arthritis_risk":5,"migraine_risk":7,"frizz_risk":1,"updated_at":"2026-03-26T02:12:37.011161+05:30"},{"city":"Thane","state":"Maharashtra","latitude":19.2183,"longitude":72.9781,"temp":26.8,"humidity":79,"rain":0.0,"pressure":1008.5,"uv_index":7.95,"wind_gusts":40.3,"aqi":78,"pm10":32.5,"pm2_5":19.4,"mosquito_risk":7,"arthritis_risk":0,"migraine_risk":4,"frizz_risk":1,"updated_at":"2026-03-26T02:12:37.011170+05:30"},{"city":"Nagpur","state":"Maharashtra","latitude":21.1458,"longitude":79.0882,"temp":26.7,"humidity":58,"rain":0.0,"pressure":974.5,"uv_index":8.45,"wind_gusts":27.0,"aqi":85,"pm10":29.6,"pm2_5":22.9,"mosquito_risk":4,"arthritis_risk":5,"migraine_risk":7,"frizz_risk":1,"updated_at":"2026-03-26T02:12:37.011177+05:30"},{"city":"Nashik","state":"Maharashtra","latitude":19.9975,"longitude":73.7898,"temp":24.5,"humidity":61,"rain":0.0,"pressure":946.5,"uv_index":8.15,"wind_gusts":21.2,"aqi":77,"pm10":47.5,"pm2_5":35.5,"mosquito_risk":3,"arthritis_risk":5,"migraine_risk":7,"frizz_risk":1,"updated_at":"2026-03-26T02:12:37.011185+05:30"},{"city":"Aurangabad","state":"Maharashtra","latitude":19.8762,"longitude":75.3433,"temp":25.3,"humidity":51,"rain":0.0,"pressure":944.7,"uv_index":8.7,"wind_gusts":23.4,"aqi":60,"pm10":35.9,"pm2_5":28.5,"mosquito_risk":4,"arthritis_risk":5,"migraine_risk":7,"frizz_risk":0,"updated_at":"2026-03-26T02:12:37.011192+05:30"},{"city":"Solapur","state":"Maharashtra","latitude":17.6599,"longitude":75.9064,"temp":25.5,"humidity":74,"rain":0.0,"pressure":958.0,"uv_index":8.8,"wind_gusts":24.1,"aqi":95,"pm10":45.8,"pm2_5":39.7,"mosquito_risk":7,"arthritis_risk":5,"migraine_risk":7,"frizz_risk":1,"updated_at":"2026-03-26T02:12:37.011200+05:30"},{"city":"Kolhapur","state":"Maharashtra","latitude":16.705,"longitude":74.2433,"temp":23.4,"humidity":88,"rain":0.0,"pressure":948.5,"uv_index":8.95,"wind_gusts":27.0,"aqi":139,"pm10":92.0,"pm2_5":86.1,"mosquito_risk":3,"arthritis_risk":5,"migraine_risk":7,"frizz_risk":1,"updated_at":"2026-03-26T02:12:37.011208+05:30"},{"city":"Goa","state":"Goa","latitude":15.2993,"longitude":74.124,"temp":27.3,"humidity":85,"rain":0.0,"pressure":997.8,"uv_index":8.75,"wind_gusts":28.1,"aqi":97,"pm10":44.7,"pm2_5":34.9,"mosquito_risk":7,"arthritis_risk":5,"migraine_risk":7,"frizz_risk":1,"updated_at":"2026-03-26T02:12:37.011216+05:30"},{"city":"Jodhpur","state":"Rajasthan","latitude":26.2389,"longitude":73.0243,"temp":25.5,"humidity":45,"rain":0.0,"pressure":984.8,"uv_index":7.45,"wind_gusts":33.5,"aqi":67,"pm10":164.4,"pm2_5":27.9,"mosquito_risk":4,"arthritis_risk":5,"migraine_risk":7,"frizz_risk":0,"updated_at":"2026-03-26T02:12:37.011224+05:30"},{"city":"Udaipur","state":"Rajasthan","latitude":24.5854,"longitude":73.7125,"temp":21.9,"humidity":55,"rain":0.0,"pressure":948.3,"uv_index":8.3,"wind_gusts":36.7,"aqi":47,"pm10":20.4,"pm2_5":11.6,"mosquito_risk":0,"arthritis_risk":5,"migraine_risk":7,"frizz_risk":0,"updated_at":"2026-03-26T02:12:37.011231+05:30"},{"city":"Kota","state":"Rajasthan","latitude":25.2138,"longitude":75.8648,"temp":21.2,"humidity":79,"rain":0.0,"pressure":980.5,"uv_index":7.65,"wind_gusts":20.9,"aqi":79,"pm10":54.9,"pm2_5":42.3,"mosquito_risk":3,"arthritis_risk":5,"migraine_risk":7,"frizz_risk":1,"updated_at":"2026-03-26T02:12:37.011238+05:30"},{"city":"Bikaner","state":"Rajasthan","latitude":28.0229,"longitude":73.3119,"temp":24.9,"humidity":43,"rain":0.0,"pressure":983.6,"uv_index":6.45,"wind_gusts":30.6,"aqi":50,"pm10":98.5,"pm2_5":23.3,"mosquito_risk":0,"arthritis_risk":5,"migraine_risk":7,"frizz_risk":0,"updated_at":"2026-03-26T02:12:37.011246+05:30"},{"city":"Ajmer","state":"Rajasthan","latitude":26.4499,"longitude":74.6399,"temp":24.7,"humidity":48,"rain":0.0,"pressure":956.6,"uv_index":7.5,"wind_gusts":31.7,"aqi":68,"pm10":64.7,"pm2_5":32.4,"mosquito_risk":0,"arthritis_risk":5,"migraine_risk":7,"frizz_risk":0,"updated_at":"2026-03-26T02:12:37.011253+05:30"},{"city":"Gwalior","state":"Madhya Pradesh","latitude":26.2183,"longitude":78.1828,"temp":24.5,"humidity":52,"rain":0.0,"pressure":985.8,"uv_index":7.3,"wind_gusts":19.8,"aqi":155,"pm10":61.5,"pm2_5":20.3,"mosquito_risk":0,"arthritis_risk":5,"migraine_risk":7,"frizz_risk":0,"updated_at":"2026-03-26T02:12:37.011259+05:30"},{"city":"Indore","state":"Madhya Pradesh","latitude":22.7196,"longitude":75.8577,"temp":22.7,"humidity":61,"rain":0.0,"pressure":949.4,"uv_index":8.2,"wind_gusts":22.0,"aqi":83,"pm10":56.2,"pm2_5":48.0,"mosquito_risk":3,"arthritis_risk":5,"migraine_risk":7,"frizz_risk":0,"updated_at":"2026-03-26T02:12:37.011266+05:30"},{"city":"Bhopal","state":"Madhya Pradesh","latitude":23.2599,"longitude":77.4126,"temp":24.2,"humidity":54,"rain":0.0,"pressure":955.1,"uv_index":8.05,"wind_gusts":26.3,"aqi":61,"pm10":31.9,"pm2_5":20.3,"mosquito_risk":0,"arthritis_risk":5,"migraine_risk":7,"frizz_risk":0,"updated_at":"2026-03-26T02:12:37.011273+05:30"},{"city":"Jabalpur","state":"Madhya Pradesh","latitude":23.1815,"longitude":79.9864,"temp":24.9,"humidity":46,"rain":0.0,"pressure":963.2,"uv_index":8.2,"wind_gusts":22.7,"aqi":62,"pm10":47.0,"pm2_5":20.9,"mosquito_risk":0,"arthritis_risk":5,"migraine_risk":7,"frizz_risk":0,"updated_at":"2026-03-26T02:12:37.011281+05:30"},{"city":"Ujjain","state":"Madhya Pradesh","latitude":23.1765,"longitude":75.7885,"temp":22.9,"humidity":57,"rain":0.0,"pressure":955.1,"uv_index":8.1,"wind_gusts":20.2,"aqi":87,"pm10":38.2,"pm2_5":31.5,"mosquito_risk":0,"arthritis_risk":5,"migraine_risk":7,"frizz_risk":0,"updated_at":"2026-03-26T02:12:37.011289+05:30"},{"city":"Visakhapatnam","state":"Andhra Pradesh","latitude":17.6868,"longitude":83.2185,"temp":25.7,"humidity":89,"rain":0.0,"pressure":1005.9,"uv_index":8.95,"wind_gusts":32.8,"aqi":70,"pm10":34.2,"pm2_5":25.3,"mosquito_risk":7,"arthritis_risk":5,"migraine_risk":4,"frizz_risk":1,"updated_at":"2026-03-26T02:12:37.011296+05:30"},{"city":"Vijayawada","state":"Andhra Pradesh","latitude":16.5062,"longitude":80.648,"temp":24.5,"humidity":92,"rain":0.0,"pressure":1004.4,"uv_index":8.95,"wind_gusts":21.2,"aqi":60,"pm10":24.2,"pm2_5":18.4,"mosquito_risk":3,"arthritis_risk":5,"migraine_risk":4,"frizz_risk":1,"updated_at":"2026-03-26T02:12:37.011303+05:30"},{"city":"Guntur","state":"Andhra Pradesh","latitude":16.3067,"longitude":80.4365,"temp":24.4,"humidity":95,"rain":0.0,"pressure":1005.7,"uv_index":9.0,"wind_gusts":26.6,"aqi":56,"pm10":21.8,"pm2_5":17.0,"mosquito_risk":3,"arthritis_risk":5,"migraine_risk":4,"frizz_risk":1,"updated_at":"2026-03-26T02:12:37.011310+05:30"},{"city":"Nellore","state":"Andhra Pradesh","latitude":14.4426,"longitude":79.9865,"temp":24.9,"humidity":90,"rain":0.0,"pressure":1007.6,"uv_index":9.1,"wind_gusts":30.6,"aqi":50,"pm10":21.8,"pm2_5":14.8,"mosquito_risk":3,"arthritis_risk":5,"migraine_risk":4,"frizz_risk":1,"updated_at":"2026-03-26T02:12:37.011318+05:30"},{"city":"Kurnool","state":"Andhra Pradesh","latitude":15.8281,"longitude":78.0373,"temp":27.8,"humidity":57,"rain":0.0,"pressure":977.7,"uv_index":9.0,"wind_gusts":22.7,"aqi":91,"pm10":42.5,"pm2_5":34.7,"mosquito_risk":4,"arthritis_risk":5,"migraine_risk":7,"frizz_risk":1,"updated_at":"2026-03-26T02:12:37.011326+05:30"},{"city":"Kakinada","state":"Andhra Pradesh","latitude":16.9891,"longitude":82.2475,"temp":24.2,"humidity":92,"rain":0.0,"pressure":1009.7,"uv_index":8.95,"wind_gusts":23.4,"aqi":56,"pm10":29.2,"pm2_5":18.0,"mosquito_risk":3,"arthritis_risk":0,"migraine_risk":4,"frizz_risk":1,"updated_at":"2026-03-26T02:12:37.011333+05:30"},{"city":"Tirupati","state":"Andhra Pradesh","latitude":13.6288,"longitude":79.4192,"temp":22.9,"humidity":89,"rain":0.0,"pressure":993.4,"uv_index":9.2,"wind_gusts":30.6,"aqi":59,"pm10":32.5,"pm2_5":27.8,"mosquito_risk":3,"arthritis_risk":5,"migraine_risk":7,"frizz_risk":1,"updated_at":"2026-03-26T02:12:37.011339+05:30"},{"city":"Warangal","state":"Telangana","latitude":17.9689,"longitude":79.5941,"temp":26.1,"humidity":78,"rain":0.0,"pressure":979.6,"uv_index":8.8,"wind_gusts":25.6,"aqi":80,"pm10":26.0,"pm2_5":23.0,"mosquito_risk":7,"arthritis_risk":5,"migraine_risk":7,"frizz_risk":1,"updated_at":"2026-03-26T02:12:37.011347+05:30"},{"city":"Nizamabad","state":"Telangana","latitude":18.6725,"longitude":78.0941,"temp":26.1,"humidity":68,"rain":0.0,"pressure":965.9,"uv_index":8.7,"wind_gusts":20.5,"aqi":96,"pm10":44.6,"pm2_5":40.3,"mosquito_risk":7,"arthritis_risk":5,"migraine_risk":7,"frizz_risk":1,"updated_at":"2026-03-26T02:12:37.011354+05:30"},{"city":"Mysore","state":"Karnataka","latitude":12.2958,"longitude":76.6396,"temp":23.6,"humidity":89,"rain":0.0,"pressure":928.3,"uv_index":9.45,"wind_gusts":37.1,"aqi":81,"pm10":26.2,"pm2_5":23.3,"mosquito_risk":3,"arthritis_risk":5,"migraine_risk":7,"frizz_risk":1,"updated_at":"2026-03-26T02:12:37.011361+05:30"},{"city":"Mangalore","state":"Karnataka","latitude":12.9141,"longitude":74.856,"temp":29.3,"humidity":81,"rain":0.0,"pressure":1006.1,"uv_index":9.05,"wind_gusts":29.5,"aqi":101,"pm10":43.4,"pm2_5":38.9,"mosquito_risk":7,"arthritis_risk":5,"migraine_risk":4,"frizz_risk":1,"updated_at":"2026-03-26T02:12:37.011368+05:30"},{"city":"Hubli-Dharwad","state":"Karnataka","latitude":15.3647,"longitude":75.124,"temp":22.7,"humidity":90,"rain":0.0,"pressure":940.8,"uv_index":9.1,"wind_gusts":28.4,"aqi":117,"pm10":57.6,"pm2_5":51.3,"mosquito_risk":3,"arthritis_risk":5,"migraine_risk":7,"frizz_risk":1,"updated_at":"2026-03-26T02:12:37.011375+05:30"},{"city":"Belgaum","state":"Karnataka","latitude":15.8497,"longitude":74.4977,"temp":21.7,"humidity":94,"rain":0.0,"pressure":925.9,"uv_index":9.0,"wind_gusts":27.7,"aqi":113,"pm10":60.3,"pm2_5":52.2,"mosquito_risk":3,"arthritis_risk":5,"migraine_risk":7,"frizz_risk":1,"updated_at":"2026-03-26T02:12:40.321070+05:30"},{"city":"Coimbatore","state":"Tamil Nadu","latitude":11.0168,"longitude":76.9558,"temp":24.9,"humidity":71,"rain":0.0,"pressure":962.4,"uv_index":9.4,"wind_gusts":43.9,"aqi":56,"pm10":20.0,"pm2_5":17.9,"mosquito_risk":3,"arthritis_risk":5,"migraine_risk":7,"frizz_risk":1,"updated_at":"2026-03-26T02:12:40.321106+05:30"},{"city":"Madurai","state":"Tamil Nadu","latitude":9.9252,"longitude":78.1198,"temp":25.1,"humidity":85,"rain":0.0,"pressure":993.7,"uv_index":9.35,"wind_gusts":25.2,"aqi":58,"pm10":23.6,"pm2_5":21.4,"mosquito_risk":7,"arthritis_risk":5,"migraine_risk":7,"frizz_risk":1,"updated_at":"2026-03-26T02:12:40.321119+05:30"},{"city":"Trichy","state":"Tamil Nadu","latitude":10.7905,"longitude":78.7047,"temp":23.5,"humidity":93,"rain":0.0,"pressure":1000.8,"uv_index":9.3,"wind_gusts":24.8,"aqi":59,"pm10":21.0,"pm2_5":16.9,"mosquito_risk":3,"arthritis_risk":5,"migraine_risk":4,"frizz_risk":1,"updated_at":"2026-03-26T02:12:40.321129+05:30"},{"city":"Salem","state":"Tamil Nadu","latitude":11.6643,"longitude":78.146,"temp":24.4,"humidity":81,"rain":0.0,"pressure":978.1,"uv_index":9.35,"wind_gusts":31.7,"aqi":73,"pm10":36.8,"pm2_5":33.5,"mosquito_risk":3,"arthritis_risk":5,"migraine_risk":7,"frizz_risk":1,"updated_at":"2026-03-26T02:12:40.321139+05:30"},{"city":"Tirunelveli","state":"Tamil Nadu","latitude":8.7139,"longitude":77.7567,"temp":26.1,"humidity":76,"rain":0.0,"pressure":1003.8,"uv_index":9.35,"wind_gusts":34.9,"aqi":46,"pm10":17.1,"pm2_5":14.5,"mosquito_risk":7,"arthritis_risk":5,"migraine_risk":4,"frizz_risk":1,"updated_at":"2026-03-26T02:12:40.321149+05:30"},{"city":"Vellore","state":"Tamil Nadu","latitude":12.9165,"longitude":79.1325,"temp":22.6,"humidity":91,"rain":0.0,"pressure":986.1,"uv_index":9.3,"wind_gusts":31.3,"aqi":70,"pm10":40.2,"pm2_5":35.0,"mosquito_risk":3,"arthritis_risk":5,"migraine_risk":7,"frizz_risk":1,"updated_at":"2026-03-26T02:12:40.321158+05:30"},{"city":"Erode","state":"Tamil Nadu","latitude":11.341,"longitude":77.7172,"temp":25.4,"humidity":84,"rain":0.0,"pressure":990.0,"uv_index":9.35,"wind_gusts":19.4,"aqi":53,"pm10":18.8,"pm2_5":16.8,"mosquito_risk":7,"arthritis_risk":5,"migraine_risk":7,"frizz_risk":1,"updated_at":"2026-03-26T02:12:40.321167+05:30"},{"city":"Kochi","state":"Kerala","latitude":9.9312,"longitude":76.2673,"temp":28.4,"humidity":81,"rain":0.0,"pressure":1008.1,"uv_index":9.2,"wind_gusts":36.4,"aqi":83,"pm10":43.0,"pm2_5":40.6,"mosquito_risk":7,"arthritis_risk":0,"migraine_risk":4,"frizz_risk":1,"updated_at":"2026-03-26T02:12:40.321177+05:30"},{"city":"Thiruvananthapuram","state":"Kerala","latitude":8.5241,"longitude":76.9366,"temp":29.0,"humidity":76,"rain":0.0,"pressure":1007.0,"uv_index":9.2,"wind_gusts":31.3,"aqi":94,"pm10":14.8,"pm2_5":11.0,"mosquito_risk":7,"arthritis_risk":5,"migraine_risk":4,"frizz_risk":1,"updated_at":"2026-03-26T02:12:40.321186+05:30"},{"city":"Kozhikode","state":"Kerala","latitude":11.2588,"longitude":75.7804,"temp":29.1,"humidity":81,"rain":0.0,"pressure":1007.2,"uv_index":9.1,"wind_gusts":31.3,"aqi":97,"pm10":37.4,"pm2_5":28.3,"mosquito_risk":7,"arthritis_risk":5,"migraine_risk":4,"frizz_risk":1,"updated_at":"2026-03-26T02:12:40.321196+05:30"},{"city":"Thrissur","state":"Kerala","latitude":10.5276,"longitude":76.2144,"temp":27.4,"humidity":91,"rain":0.0,"pressure":1006.5,"uv_index":9.15,"wind_gusts":37.8,"aqi":85,"pm10":48.4,"pm2_5":42.7,"mosquito_risk":7,"arthritis_risk":5,"migraine_risk":4,"frizz_risk":1,"updated_at":"2026-03-26T02:12:40.321204+05:30"},{"city":"Kannur","state":"Kerala","latitude":11.8745,"longitude":75.3704,"temp":28.8,"humidity":82,"rain":0.0,"pressure":1006.5,"uv_index":9.1,"wind_gusts":34.2,"aqi":100,"pm10":40.9,"pm2_5":35.3,"mosquito_risk":7,"arthritis_risk":5,"migraine_risk":4,"frizz_risk":1,"updated_at":"2026-03-26T02:12:40.321212+05:30"},{"city":"Patna","state":"Bihar","latitude":25.5941,"longitude":85.1376,"temp":21.4,"humidity":67,"rain":0.0,"pressure":1003.3,"uv_index":8.0,"wind_gusts":23.8,"aqi":117,"pm10":122.9,"pm2_5":83.4,"mosquito_risk":3,"arthritis_risk":5,"migraine_risk":4,"frizz_risk":0,"updated_at":"2026-03-26T02:12:40.321219+05:30"},{"city":"Gaya","state":"Bihar","latitude":24.7914,"longitude":85.0002,"temp":22.5,"humidity":55,"rain":0.0,"pressure":996.8,"uv_index":8.1,"wind_gusts":23.0,"aqi":105,"pm10":77.5,"pm2_5":47.0,"mosquito_risk":0,"arthritis_risk":5,"migraine_risk":7,"frizz_risk":0,"updated_at":"2026-03-26T02:12:40.321227+05:30"},{"city":"Muzaffarpur","state":"Bihar","latitude":26.1209,"longitude":85.3647,"temp":21.7,"humidity":58,"rain":0.0,"pressure":1003.0,"uv_index":7.95,"wind_gusts":16.6,"aqi":127,"pm10":127.1,"pm2_5":97.8,"mosquito_risk":0,"arthritis_risk":5,"migraine_risk":4,"frizz_risk":0,"updated_at":"2026-03-26T02:12:40.321234+05:30"},{"city":"Bhagalpur","state":"Bihar","latitude":25.2425,"longitude":87.0117,"temp":23.0,"humidity":60,"rain":0.0,"pressure":1004.1,"uv_index":8.0,"wind_gusts":11.9,"aqi":144,"pm10":92.4,"pm2_5":64.3,"mosquito_risk":0,"arthritis_risk":5,"migraine_risk":4,"frizz_risk":0,"updated_at":"2026-03-26T02:12:40.321242+05:30"},{"city":"Ranchi","state":"Jharkhand","latitude":23.3441,"longitude":85.3096,"temp":21.9,"humidity":55,"rain":0.0,"pressure":940.1,"uv_index":8.7,"wind_gusts":34.6,"aqi":77,"pm10":50.3,"pm2_5":28.3,"mosquito_risk":0,"arthritis_risk":5,"migraine_risk":7,"frizz_risk":0,"updated_at":"2026-03-26T02:12:40.321249+05:30"},{"city":"Jamshedpur","state":"Jharkhand","latitude":22.8046,"longitude":86.2029,"temp":24.8,"humidity":82,"rain":0.0,"pressure":993.2,"uv_index":8.55,"wind_gusts":29.9,"aqi":151,"pm10":105.0,"pm2_5":88.0,"mosquito_risk":3,"arthritis_risk":5,"migraine_risk":7,"frizz_risk":1,"updated_at":"2026-03-26T02:12:40.321257+05:30"},{"city":"Dhanbad","state":"Jharkhand","latitude":23.7957,"longitude":86.4304,"temp":23.8,"humidity":60,"rain":0.0,"pressure":982.6,"uv_index":8.45,"wind_gusts":25.9,"aqi":150,"pm10":110.4,"pm2_5":91.5,"mosquito_risk":0,"arthritis_risk":5,"migraine_risk":7,"frizz_risk":0,"updated_at":"2026-03-26T02:12:40.321264+05:30"},{"city":"Bokaro","state":"Jharkhand","latitude":23.6693,"longitude":86.1511,"temp":23.8,"humidity":57,"rain":0.0,"pressure":986.7,"uv_index":8.45,"wind_gusts":23.0,"aqi":141,"pm10":105.9,"pm2_5":82.9,"mosquito_risk":0,"arthritis_risk":5,"migraine_risk":7,"frizz_risk":0,"updated_at":"2026-03-26T02:12:40.321271+05:30"},{"city":"Bhubaneswar","state":"Odisha","latitude":20.2961,"longitude":85.8245,"temp":25.3,"humidity":95,"rain":0.0,"pressure":1004.5,"uv_index":8.75,"wind_gusts":17.6,"aqi":77,"pm10":34.1,"pm2_5":27.6,"mosquito_risk":7,"arthritis_risk":5,"migraine_risk":4,"frizz_risk":1,"updated_at":"2026-03-26T02:12:40.321278+05:30"},{"city":"Cuttack","state":"Odisha","latitude":20.4625,"longitude":85.8828,"temp":25.3,"humidity":94,"rain":0.0,"pressure":1006.6,"uv_index":8.8,"wind_gusts":15.8,"aqi":77,"pm10":34.1,"pm2_5":27.6,"mosquito_risk":7,"arthritis_risk":5,"migraine_risk":4,"frizz_risk":1,"updated_at":"2026-03-26T02:12:40.321285+05:30"},{"city":"Rourkela","state":"Odisha","latitude":22.2604,"longitude":84.8536,"temp":24.8,"humidity":87,"rain":0.0,"pressure":987.3,"uv_index":8.45,"wind_gusts":28.1,"aqi":120,"pm10":48.8,"pm2_5":38.1,"mosquito_risk":3,"arthritis_risk":5,"migraine_risk":7,"frizz_risk":1,"updated_at":"2026-03-26T02:12:40.321292+05:30"},{"city":"Raipur","state":"Chhattisgarh","latitude":21.2514,"longitude":81.6296,"temp":24.2,"humidity":73,"rain":0.0,"pressure":976.0,"uv_index":8.5,"wind_gusts":30.6,"aqi":132,"pm10":67.1,"pm2_5":60.3,"mosquito_risk":3,"arthritis_risk":5,"migraine_risk":7,"frizz_risk":1,"updated_at":"2026-03-26T02:12:40.321299+05:30"},{"city":"Bhilai","state":"Chhattisgarh","latitude":21.1938,"longitude":81.3509,"temp":24.0,"humidity":72,"rain":0.0,"pressure":976.5,"uv_index":8.5,"wind_gusts":24.5,"aqi":120,"pm10":74.7,"pm2_5":67.5,"mosquito_risk":3,"arthritis_risk":5,"migraine_risk":7,"frizz_risk":1,"updated_at":"2026-03-26T02:12:40.321306+05:30"},{"city":"Guwahati","state":"Assam","latitude":26.1158,"longitude":91.7086,"temp":21.9,"humidity":88,"rain":0.0,"pressure":1005.9,"uv_index":7.9,"wind_gusts":23.4,"aqi":112,"pm10":54.6,"pm2_5":44.4,"mosquito_risk":3,"arthritis_risk":5,"migraine_risk":4,"frizz_risk":1,"updated_at":"2026-03-26T02:12:40.321313+05:30"},{"city":"Agartala","state":"Tripura","latitude":23.8315,"longitude":91.2868,"temp":21.4,"humidity":97,"rain":0.0,"pressure":1009.0,"uv_index":8.2,"wind_gusts":22.3,"aqi":147,"pm10":71.5,"pm2_5":66.1,"mosquito_risk":3,"arthritis_risk":0,"migraine_risk":4,"frizz_risk":1,"updated_at":"2026-03-26T02:12:40.321321+05:30"},{"city":"Shillong","state":"Meghalaya","latitude":25.5788,"longitude":91.8933,"temp":9.3,"humidity":82,"rain":0.0,"pressure":855.3,"uv_index":8.3,"wind_gusts":28.8,"aqi":100,"pm10":48.8,"pm2_5":40.5,"mosquito_risk":3,"arthritis_risk":10,"migraine_risk":7,"frizz_risk":0,"updated_at":"2026-03-26T02:12:40.321329+05:30"},{"city":"Imphal","state":"Manipur","latitude":24.817,"longitude":93.9368,"temp":16.2,"humidity":83,"rain":0.0,"pressure":925.1,"uv_index":8.55,"wind_gusts":47.2,"aqi":122,"pm10":70.1,"pm2_5":53.0,"mosquito_risk":3,"arthritis_risk":10,"migraine_risk":7,"frizz_risk":0,"updated_at":"2026-03-26T02:12:40.321336+05:30"},{"city":"Aizawl","state":"Mizoram","latitude":23.7271,"longitude":92.7176,"temp":17.2,"humidity":79,"rain":0.0,"pressure":894.2,"uv_index":8.45,"wind_gusts":33.1,"aqi":115,"pm10":63.6,"pm2_5":46.3,"mosquito_risk":3,"arthritis_risk":5,"migraine_risk":7,"frizz_risk":0,"updated_at":"2026-03-26T02:12:40.321344+05:30"},{"city":"Kohima","state":"Nagaland","latitude":25.6701,"longitude":94.1077,"temp":12.6,"humidity":74,"rain":0.0,"pressure":855.7,"uv_index":8.45,"wind_gusts":52.2,"aqi":102,"pm10":58.4,"pm2_5":44.7,"mosquito_risk":3,"arthritis_risk":5,"migraine_risk":7,"frizz_risk":0,"updated_at":"2026-03-26T02:12:40.321351+05:30"},{"city":"Gangtok","state":"Sikkim","latitude":27.3314,"longitude":88.6138,"temp":12.1,"humidity":87,"rain":0.0,"pressure":838.0,"uv_index":8.0,"wind_gusts":16.6,"aqi":74,"pm10":39.1,"pm2_5":33.2,"mosquito_risk":3,"arthritis_risk":10,"migraine_risk":7,"frizz_risk":0,"updated_at":"2026-03-26T02:12:40.321358+05:30"},{"city":"Siliguri","state":"West Bengal","latitude":26.7271,"longitude":88.3953,"temp":19.7,"humidity":67,"rain":0.0,"pressure":997.6,"uv_index":7.9,"wind_gusts":20.5,"aqi":147,"pm10":80.6,"pm2_5":65.9,"mosquito_risk":3,"arthritis_risk":5,"migraine_risk":7,"frizz_risk":0,"updated_at":"2026-03-26T02:12:43.623941+05:30"},{"city":"Durgapur","state":"West Bengal","latitude":23.5204,"longitude":87.3119,"temp":23.4,"humidity":86,"rain":0.0,"pressure":997.9,"uv_index":8.4,"wind_gusts":24.8,"aqi":152,"pm10":102.4,"pm2_5":88.2,"mosquito_risk":3,"arthritis_risk":5,"migraine_risk":7,"frizz_risk":1,"updated_at":"2026-03-26T02:12:43.623972+05:30"},{"city":"Asansol","state":"West Bengal","latitude":23.6739,"longitude":86.9524,"temp":24.2,"humidity":82,"rain":0.0,"pressure":996.5,"uv_index":8.4,"wind_gusts":16.9,"aqi":126,"pm10":80.1,"pm2_5":65.2,"mosquito_risk":3,"arthritis_risk":5,"migraine_risk":7,"frizz_risk":1,"updated_at":"2026-03-26T02:12:43.623981+05:30"},{"city":"Pondicherry","state":"Puducherry","latitude":11.9139,"longitude":79.8145,"temp":23.5,"humidity":94,"rain":0.0,"pressure":1009.8,"uv_index":9.2,"wind_gusts":27.0,"aqi":45,"pm10":26.6,"pm2_5":16.5,"mosquito_risk":3,"arthritis_risk":0,"migraine_risk":4,"frizz_risk":1,"updated_at":"2026-03-26T02:12:43.623989+05:30"},{"city":"Port Blair","state":"Andaman and Nicobar Islands","latitude":11.6234,"longitude":92.7265,"temp":27.8,"humidity":73,"rain":0.0,"pressure":1006.7,"uv_index":9.15,"wind_gusts":26.3,"aqi":58,"pm10":16.7,"pm2_5":11.1,"mosquito_risk":7,"arthritis_risk":5,"migraine_risk":4,"frizz_risk":1,"updated_at":"2026-03-26T02:12:43.623997+05:30"},{"city":"Haridwar","state":"Uttarakhand","latitude":29.9457,"longitude":78.1642,"temp":19.8,"humidity":76,"rain":0.0,"pressure":977.2,"uv_index":6.4,"wind_gusts":42.5,"aqi":97,"pm10":71.9,"pm2_5":49.2,"mosquito_risk":3,"arthritis_risk":5,"migraine_risk":7,"frizz_risk":0,"updated_at":"2026-03-26T02:12:43.624004+05:30"},{"city":"Rishikesh","state":"Uttarakhand","latitude":30.0869,"longitude":78.2676,"temp":20.0,"humidity":72,"rain":0.0,"pressure":970.1,"uv_index":6.45,"wind_gusts":40.0,"aqi":95,"pm10":56.3,"pm2_5":34.8,"mosquito_risk":3,"arthritis_risk":5,"migraine_risk":7,"frizz_risk":0,"updated_at":"2026-03-26T02:12:43.624012+05:30"},{"city":"Nainital","state":"Uttarakhand","latitude":29.3919,"longitude":79.4542,"temp":16.5,"humidity":61,"rain":0.0,"pressure":807.1,"uv_index":7.3,"wind_gusts":59.8,"aqi":79,"pm10":32.5,"pm2_5":27.1,"mosquito_risk":3,"arthritis_risk":5,"migraine_risk":7,"frizz_risk":0,"updated_at":"2026-03-26T02:12:43.624019+05:30"},{"city":"Mussoorie","state":"Uttarakhand","latitude":30.4599,"longitude":78.0664,"temp":14.5,"humidity":74,"rain":0.0,"pressure":803.9,"uv_index":6.8,"wind_gusts":53.3,"aqi":84,"pm10":55.1,"pm2_5":40.9,"mosquito_risk":3,"arthritis_risk":5,"migraine_risk":7,"frizz_risk":0,"updated_at":"2026-03-26T02:12:43.624026+05:30"},{"city":"Dharamshala","state":"Himachal Pradesh","latitude":32.219,"longitude":76.3234,"temp":17.9,"humidity":65,"rain":0.0,"pressure":871.3,"uv_index":7.05,"wind_gusts":24.1,"aqi":76,"pm10":27.6,"pm2_5":17.4,"mosquito_risk":3,"arthritis_risk":5,"migraine_risk":7,"frizz_risk":0,"updated_at":"2026-03-26T02:12:43.624033+05:30"},{"city":"Dalhousie","state":"Himachal Pradesh","latitude":32.5387,"longitude":75.971,"temp":15.2,"humidity":72,"rain":0.0,"pressure":805.6,"uv_index":7.25,"wind_gusts":23.0,"aqi":71,"pm10":38.0,"pm2_5":32.2,"mosquito_risk":3,"arthritis_risk":5,"migraine_risk":7,"frizz_risk":0,"updated_at":"2026-03-26T02:12:43.624041+05:30"},{"city":"Patiala","state":"Punjab","latitude":30.3398,"longitude":76.3869,"temp":19.9,"humidity":76,"rain":0.0,"pressure":981.5,"uv_index":6.05,"wind_gusts":32.8,"aqi":134,"pm10":475.9,"pm2_5":72.4,"mosquito_risk":3,"arthritis_risk":5,"migraine_risk":7,"frizz_risk":0,"updated_at":"2026-03-26T02:12:43.624047+05:30"},{"city":"Bhatinda","state":"Punjab","latitude":30.211,"longitude":74.9455,"temp":20.7,"humidity":80,"rain":0.0,"pressure":987.2,"uv_index":6.25,"wind_gusts":29.9,"aqi":125,"pm10":59.5,"pm2_5":25.1,"mosquito_risk":3,"arthritis_risk":5,"migraine_risk":7,"frizz_risk":1,"updated_at":"2026-03-26T02:12:43.624054+05:30"},{"city":"Rohtak","state":"Haryana","latitude":28.8955,"longitude":76.6066,"temp":20.1,"humidity":75,"rain":0.0,"pressure":985.0,"uv_index":6.5,"wind_gusts":15.1,"aqi":166,"pm10":344.6,"pm2_5":85.0,"mosquito_risk":3,"arthritis_risk":5,"migraine_risk":7,"frizz_risk":0,"updated_at":"2026-03-26T02:12:43.624061+05:30"},{"city":"Panipat","state":"Haryana","latitude":29.3909,"longitude":76.9635,"temp":19.8,"humidity":76,"rain":0.0,"pressure":983.6,"uv_index":6.2,"wind_gusts":25.9,"aqi":331,"pm10":416.3,"pm2_5":86.4,"mosquito_risk":3,"arthritis_risk":5,"migraine_risk":7,"frizz_risk":0,"updated_at":"2026-03-26T02:12:43.624068+05:30"},{"city":"Mathura","state":"Uttar Pradesh","latitude":27.4924,"longitude":77.6737,"temp":20.3,"humidity":67,"rain":0.0,"pressure":989.5,"uv_index":6.9,"wind_gusts":21.2,"aqi":330,"pm10":322.2,"pm2_5":91.5,"mosquito_risk":3,"arthritis_risk":5,"migraine_risk":7,"frizz_risk":0,"updated_at":"2026-03-26T02:12:43.624075+05:30"},{"city":"Vrindavan","state":"Uttar Pradesh","latitude":27.5823,"longitude":77.7027,"temp":20.4,"humidity":64,"rain":0.0,"pressure":990.1,"uv_index":6.85,"wind_gusts":22.7,"aqi":330,"pm10":322.2,"pm2_5":91.5,"mosquito_risk":3,"arthritis_risk":5,"migraine_risk":7,"frizz_risk":0,"updated_at":"2026-03-26T02:12:43.624081+05:30"},{"city":"Ayodhya","state":"Uttar Pradesh","latitude":26.7922,"longitude":82.1998,"temp":19.4,"humidity":58,"rain":0.0,"pressure":998.0,"uv_index":7.3,"wind_gusts":31.3,"aqi":99,"pm10":146.2,"pm2_5":46.3,"mosquito_risk":0,"arthritis_risk":5,"migraine_risk":7,"frizz_risk":0,"updated_at":"2026-03-26T02:12:43.624088+05:30"},{"city":"Ratlam","state":"Madhya Pradesh","latitude":23.3315,"longitude":75.0367,"temp":25.2,"humidity":48,"rain":0.0,"pressure":955.9,"uv_index":8.05,"wind_gusts":20.9,"aqi":68,"pm10":20.2,"pm2_5":15.0,"mosquito_risk":4,"arthritis_risk":5,"migraine_risk":7,"frizz_risk":0,"updated_at":"2026-03-26T02:12:43.624095+05:30"},{"city":"Sagar","state":"Madhya Pradesh","latitude":23.8388,"longitude":78.7378,"temp":24.9,"humidity":44,"rain":0.0,"pressure":951.9,"uv_index":8.05,"wind_gusts":22.3,"aqi":57,"pm10":45.5,"pm2_5":15.3,"mosquito_risk":0,"arthritis_risk":5,"migraine_risk":7,"frizz_risk":0,"updated_at":"2026-03-26T02:12:43.624101+05:30"},{"city":"Satna","state":"Madhya Pradesh","latitude":24.6005,"longitude":80.8322,"temp":24.3,"humidity":44,"rain":0.0,"pressure":973.8,"uv_index":8.05,"wind_gusts":25.9,"aqi":86,"pm10":92.9,"pm2_5":26.9,"mosquito_risk":0,"arthritis_risk":5,"migraine_risk":7,"frizz_risk":0,"updated_at":"2026-03-26T02:12:43.624108+05:30"},{"city":"Akola","state":"Maharashtra","latitude":20.7002,"longitude":77.0082,"temp":25.5,"humidity":64,"rain":0.0,"pressure":975.6,"uv_index":8.4,"wind_gusts":22.7,"aqi":52,"pm10":24.8,"pm2_5":19.6,"mosquito_risk":7,"arthritis_risk":5,"migraine_risk":7,"frizz_risk":1,"updated_at":"2026-03-26T02:12:43.624115+05:30"},{"city":"Amravati","state":"Maharashtra","latitude":20.9374,"longitude":77.7796,"temp":24.9,"humidity":56,"rain":0.0,"pressure":967.9,"uv_index":8.4,"wind_gusts":28.4,"aqi":59,"pm10":29.5,"pm2_5":24.0,"mosquito_risk":0,"arthritis_risk":5,"migraine_risk":7,"frizz_risk":0,"updated_at":"2026-03-26T02:12:43.624122+05:30"},{"city":"Latur","state":"Maharashtra","latitude":18.4088,"longitude":76.5604,"temp":23.5,"humidity":78,"rain":0.0,"pressure":940.6,"uv_index":8.75,"wind_gusts":24.5,"aqi":93,"pm10":50.5,"pm2_5":41.9,"mosquito_risk":3,"arthritis_risk":5,"migraine_risk":7,"frizz_risk":1,"updated_at":"2026-03-26T02:12:43.624128+05:30"},{"city":"Nanded","state":"Maharashtra","latitude":19.1383,"longitude":77.3091,"temp":26.3,"humidity":67,"rain":0.0,"pressure":969.4,"uv_index":8.6,"wind_gusts":19.8,"aqi":93,"pm10":44.1,"pm2_5":34.9,"mosquito_risk":7,"arthritis_risk":5,"migraine_risk":7,"frizz_risk":1,"updated_at":"2026-03-26T02:12:43.624135+05:30"},{"city":"Gulbarga","state":"Karnataka","latitude":17.3297,"longitude":76.8343,"temp":25.7,"humidity":72,"rain":0.0,"pressure":959.5,"uv_index":8.85,"wind_gusts":14.0,"aqi":96,"pm10":54.2,"pm2_5":46.8,"mosquito_risk":7,"arthritis_risk":5,"migraine_risk":7,"frizz_risk":1,"updated_at":"2026-03-26T02:12:43.624141+05:30"},{"city":"Bidar","state":"Karnataka","latitude":17.9104,"longitude":77.5199,"temp":24.6,"humidity":74,"rain":0.0,"pressure":936.2,"uv_index":8.85,"wind_gusts":20.5,"aqi":89,"pm10":42.6,"pm2_5":37.8,"mosquito_risk":3,"arthritis_risk":5,"migraine_risk":7,"frizz_risk":1,"updated_at":"2026-03-26T02:12:43.624147+05:30"},{"city":"Hospet","state":"Karnataka","latitude":15.2689,"longitude":76.3909,"temp":26.5,"humidity":76,"rain":0.0,"pressure":956.6,"uv_index":9.05,"wind_gusts":24.8,"aqi":113,"pm10":45.3,"pm2_5":38.0,"mosquito_risk":7,"arthritis_risk":5,"migraine_risk":7,"frizz_risk":1,"updated_at":"2026-03-26T02:12:43.624153+05:30"},{"city":"Tirupur","state":"Tamil Nadu","latitude":11.1085,"longitude":77.3411,"temp":25.4,"humidity":78,"rain":0.0,"pressure":976.2,"uv_index":9.4,"wind_gusts":29.5,"aqi":54,"pm10":21.4,"pm2_5":19.0,"mosquito_risk":7,"arthritis_risk":5,"migraine_risk":7,"frizz_risk":1,"updated_at":"2026-03-26T02:12:43.624160+05:30"},{"city":"Alappuzha","state":"Kerala","latitude":9.4981,"longitude":76.3388,"temp":28.5,"humidity":81,"rain":0.0,"pressure":1008.2,"uv_index":9.15,"wind_gusts":31.7,"aqi":78,"pm10":36.3,"pm2_5":30.7,"mosquito_risk":7,"arthritis_risk":0,"migraine_risk":4,"frizz_risk":1,"updated_at":"2026-03-26T02:12:43.624166+05:30"},{"city":"Munnar","state":"Kerala","latitude":10.0889,"longitude":77.0595,"temp":18.4,"humidity":79,"rain":0.0,"pressure":855.2,"uv_index":9.7,"wind_gusts":26.6,"aqi":58,"pm10":27.4,"pm2_5":23.3,"mosquito_risk":3,"arthritis_risk":5,"migraine_risk":7,"frizz_risk":0,"updated_at":"2026-03-26T02:12:43.624173+05:30"},{"city":"Silchar","state":"Assam","latitude":24.8333,"longitude":92.7789,"temp":21.7,"humidity":90,"rain":0.0,"pressure":1008.5,"uv_index":8.25,"wind_gusts":20.2,"aqi":159,"pm10":78.5,"pm2_5":62.2,"mosquito_risk":3,"arthritis_risk":0,"migraine_risk":4,"frizz_risk":1,"updated_at":"2026-03-26T02:12:43.624179+05:30"},{"city":"Dibrugarh","state":"Assam","latitude":27.4728,"longitude":94.912,"temp":20.3,"humidity":81,"rain":0.0,"pressure":1000.5,"uv_index":8.05,"wind_gusts":7.9,"aqi":72,"pm10":14.6,"pm2_5":14.1,"mosquito_risk":3,"arthritis_risk":5,"migraine_risk":4,"frizz_risk":1,"updated_at":"2026-03-26T02:12:43.624186+05:30"}]