[{"city":"Delhi","state":"Delhi","latitude":28.6139,"longitude":77.209,"temp":19.9,"humidity":53,"rain":0.0,"pressure":987.9,"uv_index":5.5,"aqi":165,"mosquito_risk":0,"arthritis_risk":5,"migraine_risk":3,"frizz_risk":0,"updated_at":"2026-02-24T23:27:29.933238+05:30"},{"city":"Mumbai","state":"Maharashtra","latitude":19.076,"longitude":72.8777,"temp":26.6,"humidity":78,"rain":0.0,"pressure":1009.8,"uv_index":7.25,"aqi":154,"mosquito_risk":7,"arthritis_risk":0,"migraine_risk":4,"frizz_risk":1,"updated_at":"2026-02-24T23:27:29.933283+05:30"},{"city":"Bangalore","state":"Karnataka","latitude":12.9716,"longitude":77.5946,"temp":22.6,"humidity":61,"rain":0.0,"pressure":912.6,"uv_index":8.8,"aqi":77,"mosquito_risk":3,"arthritis_risk":5,"migraine_risk":7,"frizz_risk":0,"updated_at":"2026-02-24T23:27:29.933298+05:30"},{"city":"Hyderabad","state":"Telangana","latitude":17.385,"longitude":78.4867,"temp":23.4,"humidity":69,"rain":0.0,"pressure":955.1,"uv_index":7.95,"aqi":124,"mosquito_risk":3,"arthritis_risk":5,"migraine_risk":7,"frizz_risk":1,"updated_at":"2026-02-24T23:27:29.933308+05:30"},{"city":"Chennai","state":"Tamil Nadu","latitude":13.0827,"longitude":80.2707,"temp":25.9,"humidity":84,"rain":0.0,"pressure":1009.5,"uv_index":7.55,"aqi":42,"mosquito_risk":7,"arthritis_risk":0,"migraine_risk":4,"frizz_risk":1,"updated_at":"2026-02-24T23:27:29.933317+05:30"},{"city":"Kolkata","state":"West Bengal","latitude":22.5726,"longitude":88.3639,"temp":21.6,"humidity":90,"rain":0.0,"pressure":1009.6,"uv_index":6.7,"aqi":173,"mosquito_risk":3,"arthritis_risk":0,"migraine_risk":4,"frizz_risk":1,"updated_at":"2026-02-24T23:27:29.933325+05:30"},{"city":"Pune","state":"Maharashtra","latitude":18.5204,"longitude":73.8567,"temp":23.1,"humidity":60,"rain":0.0,"pressure":949.7,"uv_index":7.75,"aqi":151,"mosquito_risk":0,"arthritis_risk":5,"migraine_risk":7,"frizz_risk":0,"updated_at":"2026-02-24T23:27:29.933332+05:30"},{"city":"Ahmedabad","state":"Gujarat","latitude":23.0225,"longitude":72.5714,"temp":24.6,"humidity":41,"rain":0.0,"pressure":1003.9,"uv_index":6.95,"aqi":86,"mosquito_risk":0,"arthritis_risk":5,"migraine_risk":4,"frizz_risk":0,"updated_at":"2026-02-24T23:27:29.933343+05:30"},{"city":"Jaipur","state":"Rajasthan","latitude":26.9124,"longitude":75.7873,"temp":20.0,"humidity":51,"rain":0.0,"pressure":963.0,"uv_index":6.3,"aqi":140,"mosquito_risk":0,"arthritis_risk":5,"migraine_risk":7,"frizz_risk":0,"updated_at":"2026-02-24T23:27:29.933350+05:30"},{"city":"Lucknow","state":"Uttar Pradesh","latitude":26.8467,"longitude":80.9462,"temp":20.8,"humidity":55,"rain":0.0,"pressure":998.4,"uv_index":5.9,"aqi":165,"mosquito_risk":0,"arthritis_risk":5,"migraine_risk":3,"frizz_risk":0,"updated_at":"2026-02-24T23:27:29.933360+05:30"},{"city":"Kanpur","state":"Uttar Pradesh","latitude":26.4499,"longitude":80.3319,"temp":20.3,"humidity":60,"rain":0.0,"pressure":996.6,"uv_index":5.9,"aqi":159,"mosquito_risk":0,"arthritis_risk":5,"migraine_risk":3,"frizz_risk":0,"updated_at":"2026-02-24T23:27:29.933367+05:30"},{"city":"Chandigarh","state":"Chandigarh","latitude":30.7333,"longitude":76.7794,"temp":17.0,"humidity":77,"rain":0.0,"pressure":973.2,"uv_index":5.4,"aqi":152,"mosquito_risk":3,"arthritis_risk":5,"migraine_risk":3,"frizz_risk":0,"updated_at":"2026-02-24T23:27:29.933374+05:30"},{"city":"Srinagar","state":"Jammu and Kashmir","latitude":34.0837,"longitude":74.7973,"temp":4.0,"humidity":81,"rain":0.0,"pressure":838.6,"uv_index":6.25,"aqi":154,"mosquito_risk":3,"arthritis_risk":10,"migraine_risk":7,"frizz_risk":0,"updated_at":"2026-02-24T23:27:29.933382+05:30"},{"city":"Jammu","state":"Jammu and Kashmir","latitude":32.7266,"longitude":74.857,"temp":16.9,"humidity":88,"rain":0.0,"pressure":977.3,"uv_index":5.95,"aqi":152,"mosquito_risk":3,"arthritis_risk":10,"migraine_risk":3,"frizz_risk":0,"updated_at":"2026-02-24T23:27:29.933389+05:30"},{"city":"Amritsar","state":"Punjab","latitude":31.634,"longitude":74.8723,"temp":17.1,"humidity":78,"rain":0.0,"pressure":985.5,"uv_index":5.9,"aqi":183,"mosquito_risk":3,"arthritis_risk":5,"migraine_risk":3,"frizz_risk":0,"updated_at":"2026-02-24T23:27:29.933395+05:30"},{"city":"Ludhiana","state":"Punjab","latitude":30.901,"longitude":75.8573,"temp":18.3,"humidity":70,"rain":0.0,"pressure":983.7,"uv_index":5.6,"aqi":184,"mosquito_risk":3,"arthritis_risk":5,"migraine_risk":3,"frizz_risk":0,"updated_at":"2026-02-24T23:27:29.933401+05:30"},{"city":"Jalandhar","state":"Punjab","latitude":31.326,"longitude":75.5762,"temp":17.6,"humidity":77,"rain":0.0,"pressure":984.8,"uv_index":5.75,"aqi":183,"mosquito_risk":3,"arthritis_risk":5,"migraine_risk":3,"frizz_risk":0,"updated_at":"2026-02-24T23:27:29.933408+05:30"},{"city":"Dehradun","state":"Uttarakhand","latitude":30.6284,"longitude":78.0322,"temp":9.4,"humidity":89,"rain":0.0,"pressure":830.1,"uv_index":5.7,"aqi":111,"mosquito_risk":3,"arthritis_risk":10,"migraine_risk":3,"frizz_risk":0,"updated_at":"2026-02-24T23:27:29.933417+05:30"},{"city":"Shimla","state":"Himachal Pradesh","latitude":31.1048,"longitude":77.1734,"temp":8.2,"humidity":88,"rain":0.0,"pressure":783.5,"uv_index":5.75,"aqi":123,"mosquito_risk":3,"arthritis_risk":10,"migraine_risk":3,"frizz_risk":0,"updated_at":"2026-02-24T23:27:29.933424+05:30"},{"city":"Manali","state":"Himachal Pradesh","latitude":32.2396,"longitude":77.1887,"temp":11.3,"humidity":40,"rain":0.0,"pressure":818.2,"uv_index":7.35,"aqi":86,"mosquito_risk":0,"arthritis_risk":5,"migraine_risk":7,"frizz_risk":1,"updated_at":"2026-02-24T23:27:29.933433+05:30"},{"city":"Gurgaon","state":"Haryana","latitude":28.4595,"longitude":77.0266,"temp":16.5,"humidity":69,"rain":0.0,"pressure":986.1,"uv_index":5.6,"aqi":165,"mosquito_risk":3,"arthritis_risk":5,"migraine_risk":3,"frizz_risk":0,"updated_at":"2026-02-24T23:27:29.933440+05:30"},{"city":"Noida","state":"Uttar Pradesh","latitude":28.5355,"longitude":77.391,"temp":19.5,"humidity":56,"rain":0.0,"pressure":989.5,"uv_index":5.5,"aqi":165,"mosquito_risk":0,"arthritis_risk":5,"migraine_risk":3,"frizz_risk":0,"updated_at":"2026-02-24T23:27:29.933447+05:30"},{"city":"Ghaziabad","state":"Uttar Pradesh","latitude":28.6692,"longitude":77.4538,"temp":17.5,"humidity":67,"rain":0.0,"pressure":987.6,"uv_index":5.45,"aqi":163,"mosquito_risk":3,"arthritis_risk":5,"migraine_risk":3,"frizz_risk":0,"updated_at":"2026-02-24T23:27:29.933453+05:30"},{"city":"Faridabad","state":"Haryana","latitude":28.4089,"longitude":77.3178,"temp":17.1,"humidity":60,"rain":0.0,"pressure":988.5,"uv_index":5.5,"aqi":165,"mosquito_risk":0,"arthritis_risk":5,"migraine_risk":3,"frizz_risk":0,"updated_at":"2026-02-24T23:27:29.933460+05:30"},{"city":"Meerut","state":"Uttar Pradesh","latitude":28.9845,"longitude":77.7064,"temp":16.0,"humidity":67,"rain":0.0,"pressure":986.3,"uv_index":5.3,"aqi":163,"mosquito_risk":3,"arthritis_risk":5,"migraine_risk":3,"frizz_risk":0,"updated_at":"2026-02-24T23:27:29.933467+05:30"},{"city":"Agra","state":"Uttar Pradesh","latitude":27.1767,"longitude":78.0081,"temp":19.0,"humidity":58,"rain":0.0,"pressure":992.4,"uv_index":5.8,"aqi":174,"mosquito_risk":0,"arthritis_risk":5,"migraine_risk":3,"frizz_risk":0,"updated_at":"2026-02-24T23:27:29.933475+05:30"},{"city":"Varanasi","state":"Uttar Pradesh","latitude":25.3176,"longitude":82.9739,"temp":18.0,"humidity":67,"rain":0.0,"pressure":1002.6,"uv_index":6.55,"aqi":161,"mosquito_risk":3,"arthritis_risk":5,"migraine_risk":4,"frizz_risk":0,"updated_at":"2026-02-24T23:27:29.933483+05:30"},{"city":"Prayagraj","state":"Uttar Pradesh","latitude":25.4358,"longitude":81.8463,"temp":19.5,"humidity":59,"rain":0.0,"pressure":1001.0,"uv_index":6.45,"aqi":164,"mosquito_risk":0,"arthritis_risk":5,"migraine_risk":4,"frizz_risk":0,"updated_at":"2026-02-24T23:27:29.933490+05:30"},{"city":"Gorakhpur","state":"Uttar Pradesh","latitude":26.7606,"longitude":83.3732,"temp":17.3,"humidity":74,"rain":0.0,"pressure":1002.2,"uv_index":6.25,"aqi":164,"mosquito_risk":3,"arthritis_risk":5,"migraine_risk":4,"frizz_risk":0,"updated_at":"2026-02-24T23:27:29.933496+05:30"},{"city":"Bareilly","state":"Uttar Pradesh","latitude":28.367,"longitude":79.4304,"temp":18.1,"humidity":84,"rain":0.0,"pressure":991.5,"uv_index":5.6,"aqi":169,"mosquito_risk":3,"arthritis_risk":10,"migraine_risk":3,"frizz_risk":0,"updated_at":"2026-02-24T23:27:29.933505+05:30"},{"city":"Aligarh","state":"Uttar Pradesh","latitude":27.8974,"longitude":78.088,"temp":16.2,"humidity":69,"rain":0.0,"pressure":990.2,"uv_index":5.55,"aqi":170,"mosquito_risk":3,"arthritis_risk":5,"migraine_risk":3,"frizz_risk":0,"updated_at":"2026-02-24T23:27:29.933512+05:30"},{"city":"Moradabad","state":"Uttar Pradesh","latitude":28.8386,"longitude":78.7733,"temp":17.8,"humidity":86,"rain":0.0,"pressure":988.6,"uv_index":5.45,"aqi":175,"mosquito_risk":3,"arthritis_risk":10,"migraine_risk":3,"frizz_risk":0,"updated_at":"2026-02-24T23:27:29.933518+05:30"},{"city":"Saharanpur","state":"Uttar Pradesh","latitude":29.9637,"longitude":77.546,"temp":16.3,"humidity":72,"rain":0.0,"pressure":980.4,"uv_index":5.1,"aqi":165,"mosquito_risk":3,"arthritis_risk":5,"migraine_risk":3,"frizz_risk":0,"updated_at":"2026-02-24T23:27:29.933539+05:30"},{"city":"Jhansi","state":"Uttar Pradesh","latitude":25.4484,"longitude":78.5685,"temp":19.2,"humidity":58,"rain":0.0,"pressure":981.9,"uv_index":6.4,"aqi":148,"mosquito_risk":0,"arthritis_risk":5,"migraine_risk":7,"frizz_risk":0,"updated_at":"2026-02-24T23:27:33.275511+05:30"},{"city":"Surat","state":"Gujarat","latitude":21.1702,"longitude":72.8311,"temp":24.4,"humidity":70,"rain":0.0,"pressure":1008.1,"uv_index":6.95,"aqi":159,"mosquito_risk":3,"arthritis_risk":0,"migraine_risk":4,"frizz_risk":1,"updated_at":"2026-02-24T23:27:33.275580+05:30"},{"city":"Vadodara","state":"Gujarat","latitude":22.3072,"longitude":73.1812,"temp":24.0,"humidity":49,"rain":0.0,"pressure":1005.9,"uv_index":7.0,"aqi":97,"mosquito_risk":0,"arthritis_risk":5,"migraine_risk":4,"frizz_risk":0,"updated_at":"2026-02-24T23:27:33.275594+05:30"},{"city":"Rajkot","state":"Gujarat","latitude":22.3039,"longitude":70.8022,"temp":25.4,"humidity":49,"rain":0.0,"pressure":996.1,"uv_index":6.9,"aqi":101,"mosquito_risk":4,"arthritis_risk":5,"migraine_risk":7,"frizz_risk":0,"updated_at":"2026-02-24T23:27:33.275603+05:30"},{"city":"Thane","state":"Maharashtra","latitude":19.2183,"longitude":72.9781,"temp":25.1,"humidity":73,"rain":0.0,"pressure":1009.3,"uv_index":7.25,"aqi":154,"mosquito_risk":7,"arthritis_risk":0,"migraine_risk":4,"frizz_risk":1,"updated_at":"2026-02-24T23:27:33.275612+05:30"},{"city":"Nagpur","state":"Maharashtra","latitude":21.1458,"longitude":79.0882,"temp":20.9,"humidity":81,"rain":0.0,"pressure":975.8,"uv_index":7.35,"aqi":159,"mosquito_risk":3,"arthritis_risk":5,"migraine_risk":7,"frizz_risk":1,"updated_at":"2026-02-24T23:27:33.275620+05:30"},{"city":"Nashik","state":"Maharashtra","latitude":19.9975,"longitude":73.7898,"temp":22.9,"humidity":50,"rain":0.0,"pressure":946.8,"uv_index":7.4,"aqi":89,"mosquito_risk":0,"arthritis_risk":5,"migraine_risk":7,"frizz_risk":0,"updated_at":"2026-02-24T23:27:33.275628+05:30"},{"city":"Aurangabad","state":"Maharashtra","latitude":19.8762,"longitude":75.3433,"temp":22.0,"humidity":62,"rain":0.0,"pressure":945.2,"uv_index":7.7,"aqi":104,"mosquito_risk":3,"arthritis_risk":5,"migraine_risk":7,"frizz_risk":0,"updated_at":"2026-02-24T23:27:33.275636+05:30"},{"city":"Solapur","state":"Maharashtra","latitude":17.6599,"longitude":75.9064,"temp":23.1,"humidity":65,"rain":0.0,"pressure":958.3,"uv_index":7.95,"aqi":123,"mosquito_risk":3,"arthritis_risk":5,"migraine_risk":7,"frizz_risk":1,"updated_at":"2026-02-24T23:27:33.275644+05:30"},{"city":"Kolhapur","state":"Maharashtra","latitude":16.705,"longitude":74.2433,"temp":21.9,"humidity":82,"rain":0.0,"pressure":948.9,"uv_index":8.15,"aqi":150,"mosquito_risk":3,"arthritis_risk":5,"migraine_risk":7,"frizz_risk":1,"updated_at":"2026-02-24T23:27:33.275652+05:30"},{"city":"Goa","state":"Goa","latitude":15.2993,"longitude":74.124,"temp":26.9,"humidity":86,"rain":0.0,"pressure":999.0,"uv_index":8.2,"aqi":150,"mosquito_risk":7,"arthritis_risk":5,"migraine_risk":7,"frizz_risk":1,"updated_at":"2026-02-24T23:27:33.275660+05:30"},{"city":"Jodhpur","state":"Rajasthan","latitude":26.2389,"longitude":73.0243,"temp":24.3,"humidity":34,"rain":0.0,"pressure":985.6,"uv_index":6.55,"aqi":76,"mosquito_risk":0,"arthritis_risk":5,"migraine_risk":7,"frizz_risk":0,"updated_at":"2026-02-24T23:27:33.275668+05:30"},{"city":"Udaipur","state":"Rajasthan","latitude":24.5854,"longitude":73.7125,"temp":18.5,"humidity":49,"rain":0.0,"pressure":948.7,"uv_index":7.2,"aqi":43,"mosquito_risk":0,"arthritis_risk":5,"migraine_risk":7,"frizz_risk":0,"updated_at":"2026-02-24T23:27:33.275676+05:30"},{"city":"Kota","state":"Rajasthan","latitude":25.2138,"longitude":75.8648,"temp":21.6,"humidity":49,"rain":0.0,"pressure":982.1,"uv_index":6.6,"aqi":123,"mosquito_risk":0,"arthritis_risk":5,"migraine_risk":7,"frizz_risk":0,"updated_at":"2026-02-24T23:27:33.275684+05:30"},{"city":"Bikaner","state":"Rajasthan","latitude":28.0229,"longitude":73.3119,"temp":23.3,"humidity":39,"rain":0.0,"pressure":985.0,"uv_index":6.2,"aqi":93,"mosquito_risk":0,"arthritis_risk":5,"migraine_risk":7,"frizz_risk":0,"updated_at":"2026-02-24T23:27:33.275691+05:30"},{"city":"Ajmer","state":"Rajasthan","latitude":26.4499,"longitude":74.6399,"temp":20.6,"humidity":42,"rain":0.0,"pressure":957.3,"uv_index":6.55,"aqi":98,"mosquito_risk":0,"arthritis_risk":5,"migraine_risk":7,"frizz_risk":0,"updated_at":"2026-02-24T23:27:33.275699+05:30"},{"city":"Gwalior","state":"Madhya Pradesh","latitude":26.2183,"longitude":78.1828,"temp":22.1,"humidity":44,"rain":0.0,"pressure":987.5,"uv_index":6.1,"aqi":129,"mosquito_risk":0,"arthritis_risk":5,"migraine_risk":7,"frizz_risk":0,"updated_at":"2026-02-24T23:27:33.275707+05:30"},{"city":"Indore","state":"Madhya Pradesh","latitude":22.7196,"longitude":75.8577,"temp":20.5,"humidity":59,"rain":0.0,"pressure":949.7,"uv_index":7.0,"aqi":99,"mosquito_risk":0,"arthritis_risk":5,"migraine_risk":7,"frizz_risk":0,"updated_at":"2026-02-24T23:27:33.275714+05:30"},{"city":"Bhopal","state":"Madhya Pradesh","latitude":23.2599,"longitude":77.4126,"temp":21.7,"humidity":52,"rain":0.0,"pressure":955.9,"uv_index":7.0,"aqi":90,"mosquito_risk":0,"arthritis_risk":5,"migraine_risk":7,"frizz_risk":0,"updated_at":"2026-02-24T23:27:33.275722+05:30"},{"city":"Jabalpur","state":"Madhya Pradesh","latitude":23.1815,"longitude":79.9864,"temp":22.1,"humidity":47,"rain":0.0,"pressure":964.2,"uv_index":7.05,"aqi":91,"mosquito_risk":0,"arthritis_risk":5,"migraine_risk":7,"frizz_risk":0,"updated_at":"2026-02-24T23:27:33.275729+05:30"},{"city":"Ujjain","state":"Madhya Pradesh","latitude":23.1765,"longitude":75.7885,"temp":21.1,"humidity":59,"rain":0.0,"pressure":955.8,"uv_index":6.9,"aqi":111,"mosquito_risk":0,"arthritis_risk":5,"migraine_risk":7,"frizz_risk":0,"updated_at":"2026-02-24T23:27:33.275737+05:30"},{"city":"Visakhapatnam","state":"Andhra Pradesh","latitude":17.6868,"longitude":83.2185,"temp":23.9,"humidity":87,"rain":0.0,"pressure":1006.6,"uv_index":8.0,"aqi":115,"mosquito_risk":3,"arthritis_risk":5,"migraine_risk":4,"frizz_risk":1,"updated_at":"2026-02-24T23:27:33.275745+05:30"},{"city":"Vijayawada","state":"Andhra Pradesh","latitude":16.5062,"longitude":80.648,"temp":24.6,"humidity":88,"rain":0.0,"pressure":1005.4,"uv_index":7.4,"aqi":114,"mosquito_risk":3,"arthritis_risk":5,"migraine_risk":4,"frizz_risk":1,"updated_at":"2026-02-24T23:27:33.275753+05:30"},{"city":"Guntur","state":"Andhra Pradesh","latitude":16.3067,"longitude":80.4365,"temp":24.5,"humidity":87,"rain":0.0,"pressure":1006.6,"uv_index":5.8,"aqi":108,"mosquito_risk":3,"arthritis_risk":5,"migraine_risk":0,"frizz_risk":1,"updated_at":"2026-02-24T23:27:33.275761+05:30"},{"city":"Nellore","state":"Andhra Pradesh","latitude":14.4426,"longitude":79.9865,"temp":24.3,"humidity":85,"rain":0.0,"pressure":1008.5,"uv_index":8.35,"aqi":41,"mosquito_risk":3,"arthritis_risk":0,"migraine_risk":4,"frizz_risk":1,"updated_at":"2026-02-24T23:27:33.275769+05:30"},{"city":"Kurnool","state":"Andhra Pradesh","latitude":15.8281,"longitude":78.0373,"temp":24.9,"humidity":64,"rain":0.0,"pressure":978.3,"uv_index":8.15,"aqi":99,"mosquito_risk":3,"arthritis_risk":5,"migraine_risk":7,"frizz_risk":1,"updated_at":"2026-02-24T23:27:33.275778+05:30"},{"city":"Kakinada","state":"Andhra Pradesh","latitude":16.9891,"longitude":82.2475,"temp":22.4,"humidity":89,"rain":0.0,"pressure":1010.2,"uv_index":8.05,"aqi":61,"mosquito_risk":3,"arthritis_risk":0,"migraine_risk":4,"frizz_risk":1,"updated_at":"2026-02-24T23:27:33.275786+05:30"},{"city":"Tirupati","state":"Andhra Pradesh","latitude":13.6288,"longitude":79.4192,"temp":22.2,"humidity":84,"rain":0.0,"pressure":994.1,"uv_index":8.45,"aqi":55,"mosquito_risk":3,"arthritis_risk":5,"migraine_risk":7,"frizz_risk":1,"updated_at":"2026-02-24T23:27:33.275793+05:30"},{"city":"Warangal","state":"Telangana","latitude":17.9689,"longitude":79.5941,"temp":23.7,"humidity":77,"rain":0.0,"pressure":981.0,"uv_index":7.85,"aqi":154,"mosquito_risk":3,"arthritis_risk":5,"migraine_risk":7,"frizz_risk":1,"updated_at":"2026-02-24T23:27:33.275801+05:30"},{"city":"Nizamabad","state":"Telangana","latitude":18.6725,"longitude":78.0941,"temp":23.3,"humidity":78,"rain":0.0,"pressure":967.0,"uv_index":7.75,"aqi":152,"mosquito_risk":3,"arthritis_risk":5,"migraine_risk":7,"frizz_risk":1,"updated_at":"2026-02-24T23:27:33.275808+05:30"},{"city":"Mysore","state":"Karnataka","latitude":12.2958,"longitude":76.6396,"temp":22.7,"humidity":84,"rain":0.0,"pressure":929.3,"uv_index":8.85,"aqi":96,"mosquito_risk":3,"arthritis_risk":5,"migraine_risk":7,"frizz_risk":1,"updated_at":"2026-02-24T23:27:33.275815+05:30"},{"city":"Mangalore","state":"Karnataka","latitude":12.9141,"longitude":74.856,"temp":29.1,"humidity":77,"rain":0.0,"pressure":1007.6,"uv_index":8.45,"aqi":136,"mosquito_risk":7,"arthritis_risk":5,"migraine_risk":4,"frizz_risk":1,"updated_at":"2026-02-24T23:27:33.275822+05:30"},{"city":"Hubli-Dharwad","state":"Karnataka","latitude":15.3647,"longitude":75.124,"temp":24.0,"humidity":80,"rain":0.0,"pressure":941.5,"uv_index":8.3,"aqi":108,"mosquito_risk":3,"arthritis_risk":5,"migraine_risk":7,"frizz_risk":1,"updated_at":"2026-02-24T23:27:33.275830+05:30"},{"city":"Belgaum","state":"Karnataka","latitude":15.8497,"longitude":74.4977,"temp":22.2,"humidity":90,"rain":0.0,"pressure":926.5,"uv_index":8.4,"aqi":138,"mosquito_risk":3,"arthritis_risk":5,"migraine_risk":7,"frizz_risk":1,"updated_at":"2026-02-24T23:27:36.619589+05:30"},{"city":"Coimbatore","state":"Tamil Nadu","latitude":11.0168,"longitude":76.9558,"temp":23.3,"humidity":78,"rain":0.0,"pressure":963.3,"uv_index":8.9,"aqi":98,"mosquito_risk":3,"arthritis_risk":5,"migraine_risk":7,"frizz_risk":1,"updated_at":"2026-02-24T23:27:36.619621+05:30"},{"city":"Madurai","state":"Tamil Nadu","latitude":9.9252,"longitude":78.1198,"temp":25.8,"humidity":80,"rain":0.0,"pressure":995.2,"uv_index":8.9,"aqi":72,"mosquito_risk":7,"arthritis_risk":5,"migraine_risk":7,"frizz_risk":1,"updated_at":"2026-02-24T23:27:36.619631+05:30"},{"city":"Trichy","state":"Tamil Nadu","latitude":10.7905,"longitude":78.7047,"temp":24.7,"humidity":86,"rain":0.0,"pressure":1001.8,"uv_index":8.75,"aqi":60,"mosquito_risk":3,"arthritis_risk":5,"migraine_risk":4,"frizz_risk":1,"updated_at":"2026-02-24T23:27:36.619639+05:30"},{"city":"Salem","state":"Tamil Nadu","latitude":11.6643,"longitude":78.146,"temp":25.9,"humidity":71,"rain":0.0,"pressure":979.0,"uv_index":8.75,"aqi":81,"mosquito_risk":7,"arthritis_risk":5,"migraine_risk":7,"frizz_risk":1,"updated_at":"2026-02-24T23:27:36.619646+05:30"},{"city":"Tirunelveli","state":"Tamil Nadu","latitude":8.7139,"longitude":77.7567,"temp":25.9,"humidity":83,"rain":0.0,"pressure":1005.2,"uv_index":8.95,"aqi":74,"mosquito_risk":7,"arthritis_risk":5,"migraine_risk":4,"frizz_risk":1,"updated_at":"2026-02-24T23:27:36.619653+05:30"},{"city":"Vellore","state":"Tamil Nadu","latitude":12.9165,"longitude":79.1325,"temp":23.7,"humidity":82,"rain":0.0,"pressure":987.0,"uv_index":8.6,"aqi":71,"mosquito_risk":3,"arthritis_risk":5,"migraine_risk":7,"frizz_risk":1,"updated_at":"2026-02-24T23:27:36.619660+05:30"},{"city":"Erode","state":"Tamil Nadu","latitude":11.341,"longitude":77.7172,"temp":26.7,"humidity":71,"rain":0.0,"pressure":991.0,"uv_index":8.8,"aqi":78,"mosquito_risk":7,"arthritis_risk":5,"migraine_risk":7,"frizz_risk":1,"updated_at":"2026-02-24T23:27:36.619667+05:30"},{"city":"Kochi","state":"Kerala","latitude":9.9312,"longitude":76.2673,"temp":26.8,"humidity":84,"rain":0.0,"pressure":1010.4,"uv_index":8.65,"aqi":106,"mosquito_risk":7,"arthritis_risk":0,"migraine_risk":4,"frizz_risk":1,"updated_at":"2026-02-24T23:27:36.619674+05:30"},{"city":"Thiruvananthapuram","state":"Kerala","latitude":8.5241,"longitude":76.9366,"temp":28.0,"humidity":81,"rain":0.0,"pressure":1009.3,"uv_index":8.15,"aqi":95,"mosquito_risk":7,"arthritis_risk":0,"migraine_risk":4,"frizz_risk":1,"updated_at":"2026-02-24T23:27:36.619681+05:30"},{"city":"Kozhikode","state":"Kerala","latitude":11.2588,"longitude":75.7804,"temp":27.8,"humidity":83,"rain":0.0,"pressure":1009.2,"uv_index":8.6,"aqi":78,"mosquito_risk":7,"arthritis_risk":0,"migraine_risk":4,"frizz_risk":1,"updated_at":"2026-02-24T23:27:36.619688+05:30"},{"city":"Thrissur","state":"Kerala","latitude":10.5276,"longitude":76.2144,"temp":25.7,"humidity":87,"rain":0.0,"pressure":1008.8,"uv_index":8.7,"aqi":99,"mosquito_risk":7,"arthritis_risk":0,"migraine_risk":4,"frizz_risk":1,"updated_at":"2026-02-24T23:27:36.619697+05:30"},{"city":"Kannur","state":"Kerala","latitude":11.8745,"longitude":75.3704,"temp":28.2,"humidity":80,"rain":0.0,"pressure":1008.1,"uv_index":8.55,"aqi":111,"mosquito_risk":7,"arthritis_risk":0,"migraine_risk":4,"frizz_risk":1,"updated_at":"2026-02-24T23:27:36.619704+05:30"},{"city":"Patna","state":"Bihar","latitude":25.5941,"longitude":85.1376,"temp":20.1,"humidity":67,"rain":0.0,"pressure":1005.4,"uv_index":6.7,"aqi":166,"mosquito_risk":3,"arthritis_risk":5,"migraine_risk":4,"frizz_risk":0,"updated_at":"2026-02-24T23:27:36.619710+05:30"},{"city":"Gaya","state":"Bihar","latitude":24.7914,"longitude":85.0002,"temp":19.3,"humidity":64,"rain":0.0,"pressure":998.7,"uv_index":6.8,"aqi":155,"mosquito_risk":3,"arthritis_risk":5,"migraine_risk":7,"frizz_risk":0,"updated_at":"2026-02-24T23:27:36.619717+05:30"},{"city":"Muzaffarpur","state":"Bihar","latitude":26.1209,"longitude":85.3647,"temp":17.9,"humidity":72,"rain":0.0,"pressure":1005.3,"uv_index":6.65,"aqi":168,"mosquito_risk":3,"arthritis_risk":5,"migraine_risk":4,"frizz_risk":0,"updated_at":"2026-02-24T23:27:36.619723+05:30"},{"city":"Bhagalpur","state":"Bihar","latitude":25.2425,"longitude":87.0117,"temp":19.9,"humidity":69,"rain":0.0,"pressure":1005.6,"uv_index":6.75,"aqi":158,"mosquito_risk":3,"arthritis_risk":5,"migraine_risk":4,"frizz_risk":0,"updated_at":"2026-02-24T23:27:36.619729+05:30"},{"city":"Ranchi","state":"Jharkhand","latitude":23.3441,"longitude":85.3096,"temp":15.5,"humidity":64,"rain":0.0,"pressure":940.2,"uv_index":7.45,"aqi":137,"mosquito_risk":3,"arthritis_risk":5,"migraine_risk":7,"frizz_risk":0,"updated_at":"2026-02-24T23:27:36.619736+05:30"},{"city":"Jamshedpur","state":"Jharkhand","latitude":22.8046,"longitude":86.2029,"temp":22.2,"humidity":76,"rain":0.0,"pressure":995.0,"uv_index":7.35,"aqi":166,"mosquito_risk":3,"arthritis_risk":5,"migraine_risk":7,"frizz_risk":1,"updated_at":"2026-02-24T23:27:36.619742+05:30"},{"city":"Dhanbad","state":"Jharkhand","latitude":23.7957,"longitude":86.4304,"temp":21.1,"humidity":49,"rain":0.0,"pressure":984.0,"uv_index":7.25,"aqi":158,"mosquito_risk":0,"arthritis_risk":5,"migraine_risk":7,"frizz_risk":0,"updated_at":"2026-02-24T23:27:36.619749+05:30"},{"city":"Bokaro","state":"Jharkhand","latitude":23.6693,"longitude":86.1511,"temp":20.7,"humidity":53,"rain":0.0,"pressure":988.2,"uv_index":7.25,"aqi":156,"mosquito_risk":0,"arthritis_risk":5,"migraine_risk":7,"frizz_risk":0,"updated_at":"2026-02-24T23:27:36.619755+05:30"},{"city":"Bhubaneswar","state":"Odisha","latitude":20.2961,"longitude":85.8245,"temp":24.0,"humidity":91,"rain":0.0,"pressure":1006.7,"uv_index":7.7,"aqi":109,"mosquito_risk":3,"arthritis_risk":5,"migraine_risk":4,"frizz_risk":1,"updated_at":"2026-02-24T23:27:36.619761+05:30"},{"city":"Cuttack","state":"Odisha","latitude":20.4625,"longitude":85.8828,"temp":22.4,"humidity":87,"rain":0.0,"pressure":1009.1,"uv_index":7.75,"aqi":109,"mosquito_risk":3,"arthritis_risk":0,"migraine_risk":4,"frizz_risk":1,"updated_at":"2026-02-24T23:27:36.619767+05:30"},{"city":"Rourkela","state":"Odisha","latitude":22.2604,"longitude":84.8536,"temp":22.2,"humidity":64,"rain":0.0,"pressure":988.5,"uv_index":7.3,"aqi":137,"mosquito_risk":3,"arthritis_risk":5,"migraine_risk":7,"frizz_risk":0,"updated_at":"2026-02-24T23:27:36.619774+05:30"},{"city":"Raipur","state":"Chhattisgarh","latitude":21.2514,"longitude":81.6296,"temp":22.5,"humidity":67,"rain":0.0,"pressure":977.2,"uv_index":7.45,"aqi":167,"mosquito_risk":3,"arthritis_risk":5,"migraine_risk":7,"frizz_risk":1,"updated_at":"2026-02-24T23:27:36.619780+05:30"},{"city":"Bhilai","state":"Chhattisgarh","latitude":21.1938,"longitude":81.3509,"temp":20.9,"humidity":78,"rain":0.0,"pressure":977.5,"uv_index":7.45,"aqi":168,"mosquito_risk":3,"arthritis_risk":5,"migraine_risk":7,"frizz_risk":1,"updated_at":"2026-02-24T23:27:36.619786+05:30"},{"city":"Guwahati","state":"Assam","latitude":26.1158,"longitude":91.7086,"temp":20.9,"humidity":83,"rain":0.0,"pressure":1004.9,"uv_index":6.7,"aqi":159,"mosquito_risk":3,"arthritis_risk":5,"migraine_risk":4,"frizz_risk":1,"updated_at":"2026-02-24T23:27:36.619793+05:30"},{"city":"Agartala","state":"Tripura","latitude":23.8315,"longitude":91.2868,"temp":20.7,"humidity":77,"rain":0.0,"pressure":1009.4,"uv_index":6.65,"aqi":163,"mosquito_risk":3,"arthritis_risk":0,"migraine_risk":4,"frizz_risk":1,"updated_at":"2026-02-24T23:27:36.619799+05:30"},{"city":"Shillong","state":"Meghalaya","latitude":25.5788,"longitude":91.8933,"temp":7.7,"humidity":88,"rain":0.0,"pressure":854.4,"uv_index":7.0,"aqi":155,"mosquito_risk":3,"arthritis_risk":10,"migraine_risk":7,"frizz_risk":0,"updated_at":"2026-02-24T23:27:36.619806+05:30"},{"city":"Imphal","state":"Manipur","latitude":24.817,"longitude":93.9368,"temp":14.8,"humidity":67,"rain":0.0,"pressure":924.6,"uv_index":6.9,"aqi":164,"mosquito_risk":3,"arthritis_risk":5,"migraine_risk":7,"frizz_risk":0,"updated_at":"2026-02-24T23:27:36.619813+05:30"},{"city":"Aizawl","state":"Mizoram","latitude":23.7271,"longitude":92.7176,"temp":14.9,"humidity":49,"rain":0.0,"pressure":893.3,"uv_index":6.85,"aqi":156,"mosquito_risk":0,"arthritis_risk":5,"migraine_risk":7,"frizz_risk":0,"updated_at":"2026-02-24T23:27:36.619819+05:30"},{"city":"Kohima","state":"Nagaland","latitude":25.6701,"longitude":94.1077,"temp":13.0,"humidity":58,"rain":0.0,"pressure":855.0,"uv_index":6.55,"aqi":153,"mosquito_risk":0,"arthritis_risk":5,"migraine_risk":7,"frizz_risk":0,"updated_at":"2026-02-24T23:27:36.619825+05:30"},{"city":"Gangtok","state":"Sikkim","latitude":27.3314,"longitude":88.6138,"temp":8.8,"humidity":77,"rain":0.0,"pressure":836.4,"uv_index":6.95,"aqi":149,"mosquito_risk":3,"arthritis_risk":5,"migraine_risk":7,"frizz_risk":0,"updated_at":"2026-02-24T23:27:36.619832+05:30"},{"city":"Siliguri","state":"West Bengal","latitude":26.7271,"longitude":88.3953,"temp":18.4,"humidity":60,"rain":0.0,"pressure":998.0,"uv_index":6.65,"aqi":169,"mosquito_risk":0,"arthritis_risk":5,"migraine_risk":7,"frizz_risk":0,"updated_at":"2026-02-24T23:27:39.966157+05:30"},{"city":"Durgapur","state":"West Bengal","latitude":23.5204,"longitude":87.3119,"temp":21.1,"humidity":82,"rain":0.0,"pressure":999.0,"uv_index":6.85,"aqi":170,"mosquito_risk":3,"arthritis_risk":5,"migraine_risk":7,"frizz_risk":1,"updated_at":"2026-02-24T23:27:39.966192+05:30"},{"city":"Asansol","state":"West Bengal","latitude":23.6739,"longitude":86.9524,"temp":21.9,"humidity":73,"rain":0.0,"pressure":997.8,"uv_index":7.25,"aqi":160,"mosquito_risk":3,"arthritis_risk":5,"migraine_risk":7,"frizz_risk":1,"updated_at":"2026-02-24T23:27:39.966204+05:30"},{"city":"Pondicherry","state":"Puducherry","latitude":11.9139,"longitude":79.8145,"temp":24.5,"humidity":95,"rain":0.0,"pressure":1010.6,"uv_index":5.8,"aqi":39,"mosquito_risk":3,"arthritis_risk":0,"migraine_risk":0,"frizz_risk":1,"updated_at":"2026-02-24T23:27:39.966213+05:30"},{"city":"Port Blair","state":"Andaman and Nicobar Islands","latitude":11.6234,"longitude":92.7265,"temp":26.8,"humidity":85,"rain":0.0,"pressure":1007.1,"uv_index":4.8,"aqi":40,"mosquito_risk":7,"arthritis_risk":5,"migraine_risk":0,"frizz_risk":1,"updated_at":"2026-02-24T23:27:39.966222+05:30"},{"city":"Haridwar","state":"Uttarakhand","latitude":29.9457,"longitude":78.1642,"temp":17.5,"humidity":86,"rain":0.0,"pressure":979.1,"uv_index":5.25,"aqi":137,"mosquito_risk":3,"arthritis_risk":10,"migraine_risk":3,"frizz_risk":0,"updated_at":"2026-02-24T23:27:39.966231+05:30"},{"city":"Rishikesh","state":"Uttarakhand","latitude":30.0869,"longitude":78.2676,"temp":16.9,"humidity":83,"rain":0.0,"pressure":971.6,"uv_index":5.25,"aqi":132,"mosquito_risk":3,"arthritis_risk":10,"migraine_risk":3,"frizz_risk":0,"updated_at":"2026-02-24T23:27:39.966239+05:30"},{"city":"Nainital","state":"Uttarakhand","latitude":29.3919,"longitude":79.4542,"temp":13.0,"humidity":70,"rain":0.0,"pressure":806.5,"uv_index":6.05,"aqi":140,"mosquito_risk":3,"arthritis_risk":5,"migraine_risk":7,"frizz_risk":0,"updated_at":"2026-02-24T23:27:39.966247+05:30"},{"city":"Mussoorie","state":"Uttarakhand","latitude":30.4599,"longitude":78.0664,"temp":11.3,"humidity":77,"rain":0.0,"pressure":802.8,"uv_index":5.6,"aqi":140,"mosquito_risk":3,"arthritis_risk":5,"migraine_risk":3,"frizz_risk":0,"updated_at":"2026-02-24T23:27:39.966255+05:30"},{"city":"Dharamshala","state":"Himachal Pradesh","latitude":32.219,"longitude":76.3234,"temp":14.9,"humidity":58,"rain":0.0,"pressure":870.6,"uv_index":5.85,"aqi":115,"mosquito_risk":0,"arthritis_risk":5,"migraine_risk":3,"frizz_risk":0,"updated_at":"2026-02-24T23:27:39.966263+05:30"},{"city":"Dalhousie","state":"Himachal Pradesh","latitude":32.5387,"longitude":75.971,"temp":11.3,"humidity":68,"rain":0.0,"pressure":803.7,"uv_index":6.05,"aqi":131,"mosquito_risk":3,"arthritis_risk":5,"migraine_risk":7,"frizz_risk":0,"updated_at":"2026-02-24T23:27:39.966272+05:30"},{"city":"Patiala","state":"Punjab","latitude":30.3398,"longitude":76.3869,"temp":15.6,"humidity":77,"rain":0.0,"pressure":982.9,"uv_index":5.3,"aqi":181,"mosquito_risk":3,"arthritis_risk":5,"migraine_risk":3,"frizz_risk":0,"updated_at":"2026-02-24T23:27:39.966280+05:30"},{"city":"Bhatinda","state":"Punjab","latitude":30.211,"longitude":74.9455,"temp":17.2,"humidity":71,"rain":0.0,"pressure":988.4,"uv_index":5.95,"aqi":165,"mosquito_risk":3,"arthritis_risk":5,"migraine_risk":3,"frizz_risk":0,"updated_at":"2026-02-24T23:27:39.966288+05:30"},{"city":"Rohtak","state":"Haryana","latitude":28.8955,"longitude":76.6066,"temp":15.9,"humidity":67,"rain":0.0,"pressure":986.5,"uv_index":5.5,"aqi":167,"mosquito_risk":3,"arthritis_risk":5,"migraine_risk":3,"frizz_risk":0,"updated_at":"2026-02-24T23:27:39.966296+05:30"},{"city":"Panipat","state":"Haryana","latitude":29.3909,"longitude":76.9635,"temp":15.4,"humidity":65,"rain":0.0,"pressure":985.2,"uv_index":5.3,"aqi":169,"mosquito_risk":3,"arthritis_risk":5,"migraine_risk":3,"frizz_risk":0,"updated_at":"2026-02-24T23:27:39.966304+05:30"},{"city":"Mathura","state":"Uttar Pradesh","latitude":27.4924,"longitude":77.6737,"temp":16.0,"humidity":65,"rain":0.0,"pressure":991.4,"uv_index":5.75,"aqi":170,"mosquito_risk":3,"arthritis_risk":5,"migraine_risk":3,"frizz_risk":0,"updated_at":"2026-02-24T23:27:39.966311+05:30"},{"city":"Vrindavan","state":"Uttar Pradesh","latitude":27.5823,"longitude":77.7027,"temp":16.9,"humidity":69,"rain":0.0,"pressure":992.0,"uv_index":5.7,"aqi":170,"mosquito_risk":3,"arthritis_risk":5,"migraine_risk":3,"frizz_risk":0,"updated_at":"2026-02-24T23:27:39.966318+05:30"},{"city":"Ayodhya","state":"Uttar Pradesh","latitude":26.7922,"longitude":82.1998,"temp":19.4,"humidity":63,"rain":0.0,"pressure":1000.3,"uv_index":6.05,"aqi":168,"mosquito_risk":3,"arthritis_risk":5,"migraine_risk":4,"frizz_risk":0,"updated_at":"2026-02-24T23:27:39.966325+05:30"},{"city":"Ratlam","state":"Madhya Pradesh","latitude":23.3315,"longitude":75.0367,"temp":17.8,"humidity":84,"rain":0.0,"pressure":956.0,"uv_index":6.4,"aqi":88,"mosquito_risk":3,"arthritis_risk":10,"migraine_risk":7,"frizz_risk":0,"updated_at":"2026-02-24T23:27:39.966334+05:30"},{"city":"Sagar","state":"Madhya Pradesh","latitude":23.8388,"longitude":78.7378,"temp":20.6,"humidity":53,"rain":0.0,"pressure":952.6,"uv_index":6.9,"aqi":92,"mosquito_risk":0,"arthritis_risk":5,"migraine_risk":7,"frizz_risk":0,"updated_at":"2026-02-24T23:27:39.966342+05:30"},{"city":"Satna","state":"Madhya Pradesh","latitude":24.6005,"longitude":80.8322,"temp":19.1,"humidity":54,"rain":0.0,"pressure":975.6,"uv_index":6.85,"aqi":121,"mosquito_risk":0,"arthritis_risk":5,"migraine_risk":7,"frizz_risk":0,"updated_at":"2026-02-24T23:27:39.966350+05:30"},{"city":"Akola","state":"Maharashtra","latitude":20.7002,"longitude":77.0082,"temp":23.6,"humidity":70,"rain":0.0,"pressure":977.0,"uv_index":7.35,"aqi":128,"mosquito_risk":3,"arthritis_risk":5,"migraine_risk":7,"frizz_risk":1,"updated_at":"2026-02-24T23:27:39.966359+05:30"},{"city":"Amravati","state":"Maharashtra","latitude":20.9374,"longitude":77.7796,"temp":23.2,"humidity":69,"rain":0.0,"pressure":969.8,"uv_index":7.4,"aqi":146,"mosquito_risk":3,"arthritis_risk":5,"migraine_risk":7,"frizz_risk":1,"updated_at":"2026-02-24T23:27:39.966367+05:30"},{"city":"Latur","state":"Maharashtra","latitude":18.4088,"longitude":76.5604,"temp":21.5,"humidity":74,"rain":0.0,"pressure":941.2,"uv_index":7.75,"aqi":143,"mosquito_risk":3,"arthritis_risk":5,"migraine_risk":7,"frizz_risk":1,"updated_at":"2026-02-24T23:27:39.966375+05:30"},{"city":"Nanded","state":"Maharashtra","latitude":19.1383,"longitude":77.3091,"temp":22.7,"humidity":76,"rain":0.0,"pressure":970.8,"uv_index":7.65,"aqi":151,"mosquito_risk":3,"arthritis_risk":5,"migraine_risk":7,"frizz_risk":1,"updated_at":"2026-02-24T23:27:39.966383+05:30"},{"city":"Gulbarga","state":"Karnataka","latitude":17.3297,"longitude":76.8343,"temp":23.2,"humidity":79,"rain":0.0,"pressure":960.3,"uv_index":8.0,"aqi":123,"mosquito_risk":3,"arthritis_risk":5,"migraine_risk":7,"frizz_risk":1,"updated_at":"2026-02-24T23:27:39.966391+05:30"},{"city":"Bidar","state":"Karnataka","latitude":17.9104,"longitude":77.5199,"temp":21.5,"humidity":78,"rain":0.0,"pressure":936.8,"uv_index":7.85,"aqi":149,"mosquito_risk":3,"arthritis_risk":5,"migraine_risk":7,"frizz_risk":1,"updated_at":"2026-02-24T23:27:39.966398+05:30"},{"city":"Hospet","state":"Karnataka","latitude":15.2689,"longitude":76.3909,"temp":26.6,"humidity":51,"rain":0.0,"pressure":956.8,"uv_index":8.3,"aqi":99,"mosquito_risk":4,"arthritis_risk":5,"migraine_risk":7,"frizz_risk":0,"updated_at":"2026-02-24T23:27:39.966406+05:30"},{"city":"Tirupur","state":"Tamil Nadu","latitude":11.1085,"longitude":77.3411,"temp":24.9,"humidity":77,"rain":0.0,"pressure":977.2,"uv_index":8.9,"aqi":84,"mosquito_risk":3,"arthritis_risk":5,"migraine_risk":7,"frizz_risk":1,"updated_at":"2026-02-24T23:27:39.966414+05:30"},{"city":"Alappuzha","state":"Kerala","latitude":9.4981,"longitude":76.3388,"temp":27.0,"humidity":84,"rain":0.0,"pressure":1010.5,"uv_index":8.65,"aqi":100,"mosquito_risk":7,"arthritis_risk":0,"migraine_risk":4,"frizz_risk":1,"updated_at":"2026-02-24T23:27:39.966422+05:30"},{"city":"Munnar","state":"Kerala","latitude":10.0889,"longitude":77.0595,"temp":19.9,"humidity":92,"rain":0.0,"pressure":857.5,"uv_index":8.15,"aqi":74,"mosquito_risk":3,"arthritis_risk":10,"migraine_risk":7,"frizz_risk":1,"updated_at":"2026-02-24T23:27:39.966430+05:30"},{"city":"Silchar","state":"Assam","latitude":24.8333,"longitude":92.7789,"temp":20.3,"humidity":70,"rain":0.0,"pressure":1008.1,"uv_index":6.35,"aqi":161,"mosquito_risk":3,"arthritis_risk":0,"migraine_risk":4,"frizz_risk":0,"updated_at":"2026-02-24T23:27:39.966438+05:30"},{"city":"Dibrugarh","state":"Assam","latitude":27.4728,"longitude":94.912,"temp":22.5,"humidity":73,"rain":0.0,"pressure":998.3,"uv_index":6.75,"aqi":130,"mosquito_risk":3,"arthritis_risk":5,"migraine_risk":7,"frizz_risk":1,"updated_at":"2026-02-24T23:27:39.966446+05:30"}]