[{"city":"Delhi","state":"Delhi","latitude":28.6139,"longitude":77.209,"temp":30.3,"humidity":75,"rain":0.0,"pressure":973.1,"uv_index":7.65,"wind_gusts":25.9,"aqi":641,"pm10":666.8,"pm2_5":151.8,"no2":21.1,"co":260.0,"o3":51.0,"so2":12.1,"mosquito_risk":3,"arthritis_risk":5,"migraine_risk":7,"frizz_risk":1,"updated_at":"2026-07-13T00:48:41.547505+05:30"},{"city":"Mumbai","state":"Maharashtra","latitude":19.076,"longitude":72.8777,"temp":27.9,"humidity":81,"rain":0.0,"pressure":1005.7,"uv_index":4.35,"wind_gusts":49.7,"aqi":52,"pm10":31.0,"pm2_5":13.5,"no2":4.4,"co":129.0,"o3":45.0,"so2":4.2,"mosquito_risk":7,"arthritis_risk":5,"migraine_risk":0,"frizz_risk":1,"updated_at":"2026-07-13T00:48:41.547570+05:30"},{"city":"Bangalore","state":"Karnataka","latitude":12.9716,"longitude":77.5946,"temp":21.5,"humidity":86,"rain":0.0,"pressure":910.5,"uv_index":8.9,"wind_gusts":48.6,"aqi":46,"pm10":12.5,"pm2_5":7.9,"no2":8.9,"co":201.0,"o3":40.0,"so2":4.0,"mosquito_risk":3,"arthritis_risk":5,"migraine_risk":7,"frizz_risk":1,"updated_at":"2026-07-13T00:48:41.547586+05:30"},{"city":"Hyderabad","state":"Telangana","latitude":17.385,"longitude":78.4867,"temp":28.2,"humidity":59,"rain":0.0,"pressure":949.7,"uv_index":8.95,"wind_gusts":47.5,"aqi":57,"pm10":22.8,"pm2_5":14.2,"no2":8.1,"co":152.0,"o3":48.0,"so2":4.4,"mosquito_risk":4,"arthritis_risk":5,"migraine_risk":7,"frizz_risk":1,"updated_at":"2026-07-13T00:48:41.547596+05:30"},{"city":"Chennai","state":"Tamil Nadu","latitude":13.0827,"longitude":80.2707,"temp":30.1,"humidity":77,"rain":0.0,"pressure":1002.6,"uv_index":7.5,"wind_gusts":40.7,"aqi":72,"pm10":29.3,"pm2_5":18.3,"no2":9.7,"co":173.0,"o3":71.0,"so2":6.9,"mosquito_risk":3,"arthritis_risk":5,"migraine_risk":4,"frizz_risk":1,"updated_at":"2026-07-13T00:48:41.547604+05:30"},{"city":"Kolkata","state":"West Bengal","latitude":22.5726,"longitude":88.3639,"temp":28.5,"humidity":88,"rain":0.0,"pressure":997.3,"uv_index":5.7,"wind_gusts":22.0,"aqi":145,"pm10":66.4,"pm2_5":53.8,"no2":12.9,"co":414.0,"o3":81.0,"so2":11.6,"mosquito_risk":7,"arthritis_risk":5,"migraine_risk":3,"frizz_risk":1,"updated_at":"2026-07-13T00:48:41.547612+05:30"},{"city":"Pune","state":"Maharashtra","latitude":18.5204,"longitude":73.8567,"temp":23.3,"humidity":86,"rain":0.0,"pressure":944.8,"uv_index":8.4,"wind_gusts":53.3,"aqi":34,"pm10":13.2,"pm2_5":6.6,"no2":5.8,"co":111.0,"o3":36.0,"so2":5.0,"mosquito_risk":3,"arthritis_risk":5,"migraine_risk":7,"frizz_risk":1,"updated_at":"2026-07-13T00:48:41.547619+05:30"},{"city":"Ahmedabad","state":"Gujarat","latitude":23.0225,"longitude":72.5714,"temp":28.9,"humidity":72,"rain":0.0,"pressure":995.9,"uv_index":8.15,"wind_gusts":48.6,"aqi":65,"pm10":34.9,"pm2_5":17.2,"no2":5.0,"co":119.0,"o3":42.0,"so2":3.8,"mosquito_risk":7,"arthritis_risk":5,"migraine_risk":7,"frizz_risk":1,"updated_at":"2026-07-13T00:48:41.547625+05:30"},{"city":"Jaipur","state":"Rajasthan","latitude":26.9124,"longitude":75.7873,"temp":28.9,"humidity":66,"rain":0.0,"pressure":951.9,"uv_index":8.2,"wind_gusts":36.7,"aqi":366,"pm10":393.0,"pm2_5":80.3,"no2":11.9,"co":156.0,"o3":51.0,"so2":5.3,"mosquito_risk":7,"arthritis_risk":5,"migraine_risk":7,"frizz_risk":1,"updated_at":"2026-07-13T00:48:41.547632+05:30"},{"city":"Lucknow","state":"Uttar Pradesh","latitude":26.8467,"longitude":80.9462,"temp":29.7,"humidity":70,"rain":0.0,"pressure":983.6,"uv_index":8.2,"wind_gusts":36.4,"aqi":122,"pm10":78.2,"pm2_5":40.0,"no2":11.5,"co":180.0,"o3":65.0,"so2":7.2,"mosquito_risk":7,"arthritis_risk":5,"migraine_risk":7,"frizz_risk":1,"updated_at":"2026-07-13T00:48:41.547654+05:30"},{"city":"Kanpur","state":"Uttar Pradesh","latitude":26.4499,"longitude":80.3319,"temp":29.9,"humidity":69,"rain":0.0,"pressure":982.3,"uv_index":8.2,"wind_gusts":37.8,"aqi":109,"pm10":87.8,"pm2_5":38.1,"no2":12.1,"co":177.0,"o3":63.0,"so2":7.7,"mosquito_risk":7,"arthritis_risk":5,"migraine_risk":7,"frizz_risk":1,"updated_at":"2026-07-13T00:48:41.547663+05:30"},{"city":"Chandigarh","state":"Chandigarh","latitude":30.7333,"longitude":76.7794,"temp":27.1,"humidity":78,"rain":0.0,"pressure":958.9,"uv_index":7.7,"wind_gusts":24.8,"aqi":160,"pm10":178.8,"pm2_5":95.7,"no2":37.9,"co":755.0,"o3":64.0,"so2":19.7,"mosquito_risk":7,"arthritis_risk":5,"migraine_risk":7,"frizz_risk":1,"updated_at":"2026-07-13T00:48:41.547670+05:30"},{"city":"Srinagar","state":"Jammu and Kashmir","latitude":34.0837,"longitude":74.7973,"temp":16.9,"humidity":98,"rain":0.0,"pressure":836.8,"uv_index":8.9,"wind_gusts":22.0,"aqi":48,"pm10":43.9,"pm2_5":42.1,"no2":40.0,"co":512.0,"o3":24.0,"so2":3.1,"mosquito_risk":3,"arthritis_risk":10,"migraine_risk":7,"frizz_risk":1,"updated_at":"2026-07-13T00:48:41.547677+05:30"},{"city":"Jammu","state":"Jammu and Kashmir","latitude":32.7266,"longitude":74.857,"temp":26.0,"humidity":88,"rain":0.0,"pressure":962.9,"uv_index":8.55,"wind_gusts":24.1,"aqi":140,"pm10":106.9,"pm2_5":73.6,"no2":54.4,"co":744.0,"o3":29.0,"so2":9.1,"mosquito_risk":7,"arthritis_risk":5,"migraine_risk":7,"frizz_risk":1,"updated_at":"2026-07-13T00:48:41.547686+05:30"},{"city":"Amritsar","state":"Punjab","latitude":31.634,"longitude":74.8723,"temp":26.6,"humidity":88,"rain":0.0,"pressure":970.9,"uv_index":8.45,"wind_gusts":18.4,"aqi":159,"pm10":180.7,"pm2_5":107.1,"no2":40.1,"co":1010.0,"o3":44.0,"so2":8.3,"mosquito_risk":7,"arthritis_risk":5,"migraine_risk":7,"frizz_risk":1,"updated_at":"2026-07-13T00:48:41.547693+05:30"},{"city":"Ludhiana","state":"Punjab","latitude":30.901,"longitude":75.8573,"temp":27.3,"humidity":90,"rain":0.0,"pressure":968.7,"uv_index":7.9,"wind_gusts":23.0,"aqi":170,"pm10":177.4,"pm2_5":107.3,"no2":48.2,"co":393.0,"o3":26.0,"so2":9.0,"mosquito_risk":7,"arthritis_risk":5,"migraine_risk":7,"frizz_risk":1,"updated_at":"2026-07-13T00:48:41.547699+05:30"},{"city":"Jalandhar","state":"Punjab","latitude":31.326,"longitude":75.5762,"temp":26.8,"humidity":85,"rain":0.0,"pressure":969.8,"uv_index":8.15,"wind_gusts":20.9,"aqi":161,"pm10":186.7,"pm2_5":120.1,"no2":64.4,"co":395.0,"o3":14.0,"so2":9.2,"mosquito_risk":7,"arthritis_risk":5,"migraine_risk":7,"frizz_risk":1,"updated_at":"2026-07-13T00:48:41.547707+05:30"},{"city":"Dehradun","state":"Uttarakhand","latitude":30.6284,"longitude":78.0322,"temp":18.4,"humidity":100,"rain":0.0,"pressure":823.5,"uv_index":8.15,"wind_gusts":28.8,"aqi":81,"pm10":99.0,"pm2_5":50.4,"no2":25.1,"co":260.0,"o3":69.0,"so2":5.4,"mosquito_risk":3,"arthritis_risk":10,"migraine_risk":7,"frizz_risk":1,"updated_at":"2026-07-13T00:48:41.547716+05:30"},{"city":"Shimla","state":"Himachal Pradesh","latitude":31.1048,"longitude":77.1734,"temp":17.0,"humidity":58,"rain":0.0,"pressure":778.9,"uv_index":8.25,"wind_gusts":35.6,"aqi":101,"pm10":90.3,"pm2_5":49.7,"no2":16.0,"co":272.0,"o3":84.0,"so2":6.6,"mosquito_risk":0,"arthritis_risk":5,"migraine_risk":7,"frizz_risk":0,"updated_at":"2026-07-13T00:48:41.547722+05:30"},{"city":"Manali","state":"Himachal Pradesh","latitude":32.2396,"longitude":77.1887,"temp":17.6,"humidity":85,"rain":0.0,"pressure":813.4,"uv_index":9.35,"wind_gusts":32.4,"aqi":89,"pm10":9.1,"pm2_5":8.3,"no2":11.9,"co":291.0,"o3":120.0,"so2":0.0,"mosquito_risk":3,"arthritis_risk":10,"migraine_risk":7,"frizz_risk":0,"updated_at":"2026-07-13T00:48:41.547731+05:30"},{"city":"Gurgaon","state":"Haryana","latitude":28.4595,"longitude":77.0266,"temp":30.5,"humidity":71,"rain":0.0,"pressure":971.7,"uv_index":7.6,"wind_gusts":30.2,"aqi":829,"pm10":1024.5,"pm2_5":210.0,"no2":16.1,"co":257.0,"o3":56.0,"so2":7.7,"mosquito_risk":3,"arthritis_risk":5,"migraine_risk":7,"frizz_risk":1,"updated_at":"2026-07-13T00:48:41.547740+05:30"},{"city":"Noida","state":"Uttar Pradesh","latitude":28.5355,"longitude":77.391,"temp":30.6,"humidity":75,"rain":0.0,"pressure":974.5,"uv_index":7.65,"wind_gusts":24.8,"aqi":829,"pm10":1024.5,"pm2_5":210.0,"no2":16.1,"co":255.0,"o3":56.0,"so2":7.7,"mosquito_risk":3,"arthritis_risk":5,"migraine_risk":7,"frizz_risk":1,"updated_at":"2026-07-13T00:48:41.547747+05:30"},{"city":"Ghaziabad","state":"Uttar Pradesh","latitude":28.6692,"longitude":77.4538,"temp":30.6,"humidity":74,"rain":0.0,"pressure":972.5,"uv_index":7.6,"wind_gusts":26.6,"aqi":524,"pm10":434.0,"pm2_5":132.2,"no2":30.2,"co":357.0,"o3":41.0,"so2":17.5,"mosquito_risk":3,"arthritis_risk":5,"migraine_risk":7,"frizz_risk":1,"updated_at":"2026-07-13T00:48:41.547753+05:30"},{"city":"Faridabad","state":"Haryana","latitude":28.4089,"longitude":77.3178,"temp":30.3,"humidity":77,"rain":0.0,"pressure":973.9,"uv_index":7.65,"wind_gusts":27.7,"aqi":829,"pm10":1024.5,"pm2_5":210.0,"no2":16.1,"co":244.0,"o3":56.0,"so2":7.7,"mosquito_risk":3,"arthritis_risk":5,"migraine_risk":7,"frizz_risk":1,"updated_at":"2026-07-13T00:48:41.547759+05:30"},{"city":"Meerut","state":"Uttar Pradesh","latitude":28.9845,"longitude":77.7064,"temp":29.6,"humidity":75,"rain":0.0,"pressure":971.5,"uv_index":7.25,"wind_gusts":28.1,"aqi":524,"pm10":434.0,"pm2_5":132.2,"no2":30.2,"co":510.0,"o3":41.0,"so2":17.5,"mosquito_risk":7,"arthritis_risk":5,"migraine_risk":7,"frizz_risk":1,"updated_at":"2026-07-13T00:48:41.547765+05:30"},{"city":"Agra","state":"Uttar Pradesh","latitude":27.1767,"longitude":78.0081,"temp":30.5,"humidity":66,"rain":0.0,"pressure":978.4,"uv_index":8.0,"wind_gusts":38.9,"aqi":137,"pm10":147.6,"pm2_5":43.0,"no2":16.2,"co":224.0,"o3":50.0,"so2":5.8,"mosquito_risk":3,"arthritis_risk":5,"migraine_risk":7,"frizz_risk":1,"updated_at":"2026-07-13T00:48:41.547771+05:30"},{"city":"Varanasi","state":"Uttar Pradesh","latitude":25.3176,"longitude":82.9739,"temp":29.5,"humidity":75,"rain":0.0,"pressure":988.5,"uv_index":8.7,"wind_gusts":36.0,"aqi":93,"pm10":44.7,"pm2_5":30.4,"no2":13.4,"co":224.0,"o3":57.0,"so2":8.0,"mosquito_risk":7,"arthritis_risk":5,"migraine_risk":7,"frizz_risk":1,"updated_at":"2026-07-13T00:48:41.547778+05:30"},{"city":"Prayagraj","state":"Uttar Pradesh","latitude":25.4358,"longitude":81.8463,"temp":30.0,"humidity":66,"rain":0.0,"pressure":987.3,"uv_index":8.55,"wind_gusts":40.7,"aqi":91,"pm10":45.9,"pm2_5":28.7,"no2":9.3,"co":165.0,"o3":68.0,"so2":6.2,"mosquito_risk":7,"arthritis_risk":5,"migraine_risk":7,"frizz_risk":1,"updated_at":"2026-07-13T00:48:41.547785+05:30"},{"city":"Gorakhpur","state":"Uttar Pradesh","latitude":26.7606,"longitude":83.3732,"temp":26.4,"humidity":97,"rain":0.0,"pressure":987.4,"uv_index":8.45,"wind_gusts":28.8,"aqi":131,"pm10":83.4,"pm2_5":56.6,"no2":25.1,"co":319.0,"o3":50.0,"so2":6.3,"mosquito_risk":7,"arthritis_risk":5,"migraine_risk":7,"frizz_risk":1,"updated_at":"2026-07-13T00:48:41.547791+05:30"},{"city":"Bareilly","state":"Uttar Pradesh","latitude":28.367,"longitude":79.4304,"temp":29.9,"humidity":79,"rain":0.0,"pressure":976.6,"uv_index":8.0,"wind_gusts":29.2,"aqi":173,"pm10":220.3,"pm2_5":84.1,"no2":18.7,"co":274.0,"o3":49.0,"so2":6.6,"mosquito_risk":7,"arthritis_risk":5,"migraine_risk":7,"frizz_risk":1,"updated_at":"2026-07-13T00:48:41.547799+05:30"},{"city":"Aligarh","state":"Uttar Pradesh","latitude":27.8974,"longitude":78.088,"temp":30.4,"humidity":69,"rain":0.0,"pressure":975.9,"uv_index":7.85,"wind_gusts":32.8,"aqi":608,"pm10":704.1,"pm2_5":157.4,"no2":12.0,"co":198.0,"o3":63.0,"so2":5.1,"mosquito_risk":3,"arthritis_risk":5,"migraine_risk":7,"frizz_risk":1,"updated_at":"2026-07-13T00:48:41.547807+05:30"},{"city":"Moradabad","state":"Uttar Pradesh","latitude":28.8386,"longitude":78.7733,"temp":28.9,"humidity":82,"rain":0.0,"pressure":973.6,"uv_index":7.85,"wind_gusts":38.2,"aqi":296,"pm10":542.0,"pm2_5":156.0,"no2":31.7,"co":438.0,"o3":43.0,"so2":13.4,"mosquito_risk":7,"arthritis_risk":5,"migraine_risk":7,"frizz_risk":1,"updated_at":"2026-07-13T00:48:41.547813+05:30"},{"city":"Saharanpur","state":"Uttar Pradesh","latitude":29.9637,"longitude":77.546,"temp":26.8,"humidity":78,"rain":0.0,"pressure":965.7,"uv_index":7.35,"wind_gusts":28.1,"aqi":176,"pm10":219.3,"pm2_5":145.8,"no2":65.1,"co":417.0,"o3":17.0,"so2":21.8,"mosquito_risk":7,"arthritis_risk":5,"migraine_risk":7,"frizz_risk":1,"updated_at":"2026-07-13T00:48:41.547819+05:30"},{"city":"Jhansi","state":"Uttar Pradesh","latitude":25.4484,"longitude":78.5685,"temp":30.0,"humidity":64,"rain":0.0,"pressure":969.9,"uv_index":8.45,"wind_gusts":43.6,"aqi":83,"pm10":44.5,"pm2_5":25.6,"no2":7.1,"co":143.0,"o3":70.0,"so2":8.0,"mosquito_risk":7,"arthritis_risk":5,"migraine_risk":7,"frizz_risk":1,"updated_at":"2026-07-13T00:48:44.794496+05:30"},{"city":"Surat","state":"Gujarat","latitude":21.1702,"longitude":72.8311,"temp":28.4,"humidity":81,"rain":0.0,"pressure":1002.2,"uv_index":7.05,"wind_gusts":61.2,"aqi":59,"pm10":27.6,"pm2_5":15.3,"no2":11.6,"co":183.0,"o3":38.0,"so2":20.2,"mosquito_risk":7,"arthritis_risk":5,"migraine_risk":4,"frizz_risk":1,"updated_at":"2026-07-13T00:48:44.794583+05:30"},{"city":"Vadodara","state":"Gujarat","latitude":22.3072,"longitude":73.1812,"temp":28.1,"humidity":81,"rain":0.0,"pressure":998.8,"uv_index":7.9,"wind_gusts":56.5,"aqi":59,"pm10":32.1,"pm2_5":16.9,"no2":6.6,"co":107.0,"o3":40.0,"so2":6.4,"mosquito_risk":7,"arthritis_risk":5,"migraine_risk":7,"frizz_risk":1,"updated_at":"2026-07-13T00:48:44.794608+05:30"},{"city":"Rajkot","state":"Gujarat","latitude":22.3039,"longitude":70.8022,"temp":27.3,"humidity":82,"rain":0.0,"pressure":988.0,"uv_index":7.7,"wind_gusts":56.9,"aqi":58,"pm10":30.9,"pm2_5":15.1,"no2":2.8,"co":94.0,"o3":45.0,"so2":2.4,"mosquito_risk":7,"arthritis_risk":5,"migraine_risk":7,"frizz_risk":1,"updated_at":"2026-07-13T00:48:44.794625+05:30"},{"city":"Thane","state":"Maharashtra","latitude":19.2183,"longitude":72.9781,"temp":27.1,"humidity":85,"rain":0.0,"pressure":1004.9,"uv_index":5.1,"wind_gusts":45.4,"aqi":52,"pm10":31.0,"pm2_5":13.5,"no2":4.4,"co":149.0,"o3":45.0,"so2":4.2,"mosquito_risk":7,"arthritis_risk":5,"migraine_risk":0,"frizz_risk":1,"updated_at":"2026-07-13T00:48:44.794642+05:30"},{"city":"Nagpur","state":"Maharashtra","latitude":21.1458,"longitude":79.0882,"temp":27.5,"humidity":77,"rain":0.0,"pressure":967.8,"uv_index":8.7,"wind_gusts":41.4,"aqi":72,"pm10":43.0,"pm2_5":25.1,"no2":12.7,"co":242.0,"o3":46.0,"so2":9.4,"mosquito_risk":7,"arthritis_risk":5,"migraine_risk":7,"frizz_risk":1,"updated_at":"2026-07-13T00:48:44.794660+05:30"},{"city":"Nashik","state":"Maharashtra","latitude":19.9975,"longitude":73.7898,"temp":23.4,"humidity":93,"rain":0.0,"pressure":941.5,"uv_index":8.1,"wind_gusts":57.2,"aqi":37,"pm10":11.8,"pm2_5":7.0,"no2":8.2,"co":120.0,"o3":32.0,"so2":6.3,"mosquito_risk":3,"arthritis_risk":5,"migraine_risk":7,"frizz_risk":1,"updated_at":"2026-07-13T00:48:44.794675+05:30"},{"city":"Aurangabad","state":"Maharashtra","latitude":19.8762,"longitude":75.3433,"temp":23.9,"humidity":85,"rain":0.0,"pressure":940.1,"uv_index":8.95,"wind_gusts":50.0,"aqi":53,"pm10":23.1,"pm2_5":11.0,"no2":8.5,"co":127.0,"o3":37.0,"so2":9.5,"mosquito_risk":3,"arthritis_risk":5,"migraine_risk":7,"frizz_risk":1,"updated_at":"2026-07-13T00:48:44.794697+05:30"},{"city":"Solapur","state":"Maharashtra","latitude":17.6599,"longitude":75.9064,"temp":25.1,"humidity":78,"rain":0.0,"pressure":954.4,"uv_index":8.9,"wind_gusts":44.6,"aqi":46,"pm10":17.3,"pm2_5":9.3,"no2":5.0,"co":123.0,"o3":36.0,"so2":2.4,"mosquito_risk":7,"arthritis_risk":5,"migraine_risk":7,"frizz_risk":1,"updated_at":"2026-07-13T00:48:44.794718+05:30"},{"city":"Kolhapur","state":"Maharashtra","latitude":16.705,"longitude":74.2433,"temp":22.9,"humidity":93,"rain":0.0,"pressure":946.1,"uv_index":8.9,"wind_gusts":50.4,"aqi":32,"pm10":13.1,"pm2_5":7.4,"no2":4.5,"co":114.0,"o3":36.0,"so2":2.4,"mosquito_risk":3,"arthritis_risk":5,"migraine_risk":7,"frizz_risk":1,"updated_at":"2026-07-13T00:48:44.794740+05:30"},{"city":"Goa","state":"Goa","latitude":15.2993,"longitude":74.124,"temp":25.8,"humidity":95,"rain":0.0,"pressure":997.4,"uv_index":6.1,"wind_gusts":39.6,"aqi":54,"pm10":30.3,"pm2_5":17.6,"no2":4.5,"co":307.0,"o3":37.0,"so2":1.5,"mosquito_risk":7,"arthritis_risk":5,"migraine_risk":7,"frizz_risk":1,"updated_at":"2026-07-13T00:48:44.794758+05:30"},{"city":"Jodhpur","state":"Rajasthan","latitude":26.2389,"longitude":73.0243,"temp":30.4,"humidity":63,"rain":0.0,"pressure":974.4,"uv_index":8.45,"wind_gusts":47.2,"aqi":165,"pm10":287.8,"pm2_5":62.6,"no2":2.9,"co":99.0,"o3":60.0,"so2":2.6,"mosquito_risk":3,"arthritis_risk":5,"migraine_risk":7,"frizz_risk":1,"updated_at":"2026-07-13T00:48:44.794775+05:30"},{"city":"Udaipur","state":"Rajasthan","latitude":24.5854,"longitude":73.7125,"temp":26.0,"humidity":84,"rain":0.0,"pressure":939.5,"uv_index":8.45,"wind_gusts":48.6,"aqi":71,"pm10":36.3,"pm2_5":19.6,"no2":5.1,"co":125.0,"o3":53.0,"so2":5.3,"mosquito_risk":7,"arthritis_risk":5,"migraine_risk":7,"frizz_risk":1,"updated_at":"2026-07-13T00:48:44.794789+05:30"},{"city":"Kota","state":"Rajasthan","latitude":25.2138,"longitude":75.8648,"temp":29.2,"humidity":70,"rain":0.0,"pressure":971.3,"uv_index":8.3,"wind_gusts":42.8,"aqi":82,"pm10":43.1,"pm2_5":26.1,"no2":6.6,"co":149.0,"o3":70.0,"so2":7.1,"mosquito_risk":7,"arthritis_risk":5,"migraine_risk":7,"frizz_risk":1,"updated_at":"2026-07-13T00:48:44.794806+05:30"},{"city":"Bikaner","state":"Rajasthan","latitude":28.0229,"longitude":73.3119,"temp":31.8,"humidity":55,"rain":0.0,"pressure":972.0,"uv_index":8.45,"wind_gusts":36.7,"aqi":159,"pm10":312.9,"pm2_5":87.1,"no2":2.7,"co":125.0,"o3":57.0,"so2":2.9,"mosquito_risk":0,"arthritis_risk":5,"migraine_risk":7,"frizz_risk":1,"updated_at":"2026-07-13T00:48:44.794828+05:30"},{"city":"Ajmer","state":"Rajasthan","latitude":26.4499,"longitude":74.6399,"temp":28.5,"humidity":65,"rain":0.0,"pressure":947.0,"uv_index":8.35,"wind_gusts":52.6,"aqi":79,"pm10":42.5,"pm2_5":24.3,"no2":5.6,"co":118.0,"o3":62.0,"so2":4.0,"mosquito_risk":7,"arthritis_risk":5,"migraine_risk":7,"frizz_risk":1,"updated_at":"2026-07-13T00:48:44.794847+05:30"},{"city":"Gwalior","state":"Madhya Pradesh","latitude":26.2183,"longitude":78.1828,"temp":29.6,"humidity":67,"rain":0.0,"pressure":974.4,"uv_index":8.2,"wind_gusts":43.2,"aqi":83,"pm10":42.8,"pm2_5":25.8,"no2":8.6,"co":149.0,"o3":67.0,"so2":7.4,"mosquito_risk":7,"arthritis_risk":5,"migraine_risk":7,"frizz_risk":1,"updated_at":"2026-07-13T00:48:44.794866+05:30"},{"city":"Indore","state":"Madhya Pradesh","latitude":22.7196,"longitude":75.8577,"temp":24.9,"humidity":87,"rain":0.0,"pressure":943.0,"uv_index":8.6,"wind_gusts":55.4,"aqi":66,"pm10":27.1,"pm2_5":14.0,"no2":5.9,"co":158.0,"o3":46.0,"so2":6.9,"mosquito_risk":3,"arthritis_risk":5,"migraine_risk":7,"frizz_risk":1,"updated_at":"2026-07-13T00:48:44.794887+05:30"},{"city":"Bhopal","state":"Madhya Pradesh","latitude":23.2599,"longitude":77.4126,"temp":26.5,"humidity":79,"rain":0.0,"pressure":948.0,"uv_index":7.9,"wind_gusts":44.3,"aqi":72,"pm10":43.7,"pm2_5":27.2,"no2":5.9,"co":175.0,"o3":66.0,"so2":6.2,"mosquito_risk":7,"arthritis_risk":5,"migraine_risk":7,"frizz_risk":1,"updated_at":"2026-07-13T00:48:44.794911+05:30"},{"city":"Jabalpur","state":"Madhya Pradesh","latitude":23.1815,"longitude":79.9864,"temp":26.7,"humidity":80,"rain":0.0,"pressure":955.4,"uv_index":6.7,"wind_gusts":36.4,"aqi":72,"pm10":43.9,"pm2_5":24.3,"no2":5.8,"co":223.0,"o3":63.0,"so2":4.7,"mosquito_risk":7,"arthritis_risk":5,"migraine_risk":7,"frizz_risk":1,"updated_at":"2026-07-13T00:48:44.794931+05:30"},{"city":"Ujjain","state":"Madhya Pradesh","latitude":23.1765,"longitude":75.7885,"temp":25.6,"humidity":86,"rain":0.0,"pressure":948.4,"uv_index":7.95,"wind_gusts":52.9,"aqi":66,"pm10":27.4,"pm2_5":14.1,"no2":5.9,"co":152.0,"o3":45.0,"so2":7.8,"mosquito_risk":7,"arthritis_risk":5,"migraine_risk":7,"frizz_risk":1,"updated_at":"2026-07-13T00:48:44.794953+05:30"},{"city":"Visakhapatnam","state":"Andhra Pradesh","latitude":17.6868,"longitude":83.2185,"temp":29.7,"humidity":63,"rain":0.0,"pressure":996.5,"uv_index":8.2,"wind_gusts":31.7,"aqi":94,"pm10":42.1,"pm2_5":26.2,"no2":20.0,"co":271.0,"o3":47.0,"so2":32.5,"mosquito_risk":7,"arthritis_risk":5,"migraine_risk":7,"frizz_risk":1,"updated_at":"2026-07-13T00:48:44.794968+05:30"},{"city":"Vijayawada","state":"Andhra Pradesh","latitude":16.5062,"longitude":80.648,"temp":31.2,"humidity":60,"rain":0.0,"pressure":996.9,"uv_index":8.7,"wind_gusts":49.7,"aqi":82,"pm10":47.5,"pm2_5":33.9,"no2":18.6,"co":484.0,"o3":37.0,"so2":6.1,"mosquito_risk":0,"arthritis_risk":5,"migraine_risk":7,"frizz_risk":1,"updated_at":"2026-07-13T00:48:44.794985+05:30"},{"city":"Guntur","state":"Andhra Pradesh","latitude":16.3067,"longitude":80.4365,"temp":31.9,"humidity":49,"rain":0.0,"pressure":998.1,"uv_index":8.25,"wind_gusts":47.9,"aqi":76,"pm10":43.2,"pm2_5":29.9,"no2":18.4,"co":313.0,"o3":36.0,"so2":6.1,"mosquito_risk":0,"arthritis_risk":5,"migraine_risk":7,"frizz_risk":1,"updated_at":"2026-07-13T00:48:44.795006+05:30"},{"city":"Nellore","state":"Andhra Pradesh","latitude":14.4426,"longitude":79.9865,"temp":29.7,"humidity":73,"rain":0.0,"pressure":1001.2,"uv_index":8.7,"wind_gusts":49.7,"aqi":67,"pm10":36.3,"pm2_5":25.0,"no2":12.6,"co":209.0,"o3":61.0,"so2":7.6,"mosquito_risk":7,"arthritis_risk":5,"migraine_risk":4,"frizz_risk":1,"updated_at":"2026-07-13T00:48:44.795025+05:30"},{"city":"Kurnool","state":"Andhra Pradesh","latitude":15.8281,"longitude":78.0373,"temp":29.4,"humidity":56,"rain":0.0,"pressure":973.9,"uv_index":8.9,"wind_gusts":49.3,"aqi":53,"pm10":17.5,"pm2_5":9.8,"no2":5.6,"co":134.0,"o3":47.0,"so2":3.9,"mosquito_risk":4,"arthritis_risk":5,"migraine_risk":7,"frizz_risk":1,"updated_at":"2026-07-13T00:48:44.795050+05:30"},{"city":"Kakinada","state":"Andhra Pradesh","latitude":16.9891,"longitude":82.2475,"temp":29.2,"humidity":70,"rain":0.0,"pressure":1001.2,"uv_index":6.45,"wind_gusts":44.6,"aqi":84,"pm10":44.9,"pm2_5":28.0,"no2":9.1,"co":302.0,"o3":66.0,"so2":5.1,"mosquito_risk":7,"arthritis_risk":5,"migraine_risk":4,"frizz_risk":1,"updated_at":"2026-07-13T00:48:44.795067+05:30"},{"city":"Tirupati","state":"Andhra Pradesh","latitude":13.6288,"longitude":79.4192,"temp":26.9,"humidity":88,"rain":0.0,"pressure":987.0,"uv_index":8.3,"wind_gusts":39.6,"aqi":78,"pm10":56.8,"pm2_5":37.3,"no2":35.1,"co":175.0,"o3":21.0,"so2":6.3,"mosquito_risk":7,"arthritis_risk":5,"migraine_risk":7,"frizz_risk":1,"updated_at":"2026-07-13T00:48:44.795084+05:30"},{"city":"Warangal","state":"Telangana","latitude":17.9689,"longitude":79.5941,"temp":27.4,"humidity":80,"rain":0.0,"pressure":973.7,"uv_index":8.75,"wind_gusts":45.0,"aqi":73,"pm10":46.8,"pm2_5":33.5,"no2":20.1,"co":365.0,"o3":26.0,"so2":5.2,"mosquito_risk":7,"arthritis_risk":5,"migraine_risk":7,"frizz_risk":1,"updated_at":"2026-07-13T00:48:44.795099+05:30"},{"city":"Nizamabad","state":"Telangana","latitude":18.6725,"longitude":78.0941,"temp":28.3,"humidity":63,"rain":0.0,"pressure":960.6,"uv_index":8.8,"wind_gusts":46.1,"aqi":62,"pm10":29.2,"pm2_5":18.2,"no2":8.2,"co":140.0,"o3":50.0,"so2":6.4,"mosquito_risk":7,"arthritis_risk":5,"migraine_risk":7,"frizz_risk":1,"updated_at":"2026-07-13T00:48:44.795113+05:30"},{"city":"Mysore","state":"Karnataka","latitude":12.2958,"longitude":76.6396,"temp":21.8,"humidity":92,"rain":0.0,"pressure":927.8,"uv_index":9.0,"wind_gusts":44.6,"aqi":40,"pm10":12.1,"pm2_5":7.2,"no2":7.3,"co":128.0,"o3":34.0,"so2":2.4,"mosquito_risk":3,"arthritis_risk":5,"migraine_risk":7,"frizz_risk":1,"updated_at":"2026-07-13T00:48:44.795149+05:30"},{"city":"Mangalore","state":"Karnataka","latitude":12.9141,"longitude":74.856,"temp":26.3,"humidity":91,"rain":0.0,"pressure":1006.9,"uv_index":8.7,"wind_gusts":47.2,"aqi":42,"pm10":20.7,"pm2_5":11.2,"no2":5.0,"co":136.0,"o3":34.0,"so2":2.4,"mosquito_risk":7,"arthritis_risk":5,"migraine_risk":4,"frizz_risk":1,"updated_at":"2026-07-13T00:48:44.795162+05:30"},{"city":"Hubli-Dharwad","state":"Karnataka","latitude":15.3647,"longitude":75.124,"temp":22.4,"humidity":94,"rain":0.0,"pressure":939.6,"uv_index":8.95,"wind_gusts":50.8,"aqi":30,"pm10":11.2,"pm2_5":5.9,"no2":4.1,"co":107.0,"o3":37.0,"so2":1.7,"mosquito_risk":3,"arthritis_risk":5,"migraine_risk":7,"frizz_risk":1,"updated_at":"2026-07-13T00:48:44.795172+05:30"},{"city":"Belgaum","state":"Karnataka","latitude":15.8497,"longitude":74.4977,"temp":20.9,"humidity":96,"rain":0.0,"pressure":924.0,"uv_index":9.0,"wind_gusts":50.8,"aqi":29,"pm10":10.9,"pm2_5":5.5,"no2":3.9,"co":106.0,"o3":37.0,"so2":1.5,"mosquito_risk":3,"arthritis_risk":5,"migraine_risk":7,"frizz_risk":1,"updated_at":"2026-07-13T00:48:48.069411+05:30"},{"city":"Coimbatore","state":"Tamil Nadu","latitude":11.0168,"longitude":76.9558,"temp":23.5,"humidity":95,"rain":0.0,"pressure":960.5,"uv_index":8.45,"wind_gusts":54.4,"aqi":40,"pm10":10.9,"pm2_5":8.1,"no2":8.6,"co":168.0,"o3":26.0,"so2":3.2,"mosquito_risk":3,"arthritis_risk":5,"migraine_risk":7,"frizz_risk":1,"updated_at":"2026-07-13T00:48:48.069442+05:30"},{"city":"Madurai","state":"Tamil Nadu","latitude":9.9252,"longitude":78.1198,"temp":28.6,"humidity":61,"rain":0.0,"pressure":990.8,"uv_index":8.65,"wind_gusts":43.2,"aqi":62,"pm10":12.7,"pm2_5":10.1,"no2":11.2,"co":126.0,"o3":30.0,"so2":4.3,"mosquito_risk":7,"arthritis_risk":5,"migraine_risk":7,"frizz_risk":1,"updated_at":"2026-07-13T00:48:48.069453+05:30"},{"city":"Trichy","state":"Tamil Nadu","latitude":10.7905,"longitude":78.7047,"temp":28.6,"humidity":60,"rain":0.0,"pressure":997.3,"uv_index":8.25,"wind_gusts":52.6,"aqi":52,"pm10":13.5,"pm2_5":7.0,"no2":4.3,"co":110.0,"o3":41.0,"so2":2.5,"mosquito_risk":4,"arthritis_risk":5,"migraine_risk":7,"frizz_risk":1,"updated_at":"2026-07-13T00:48:48.069462+05:30"},{"city":"Salem","state":"Tamil Nadu","latitude":11.6643,"longitude":78.146,"temp":25.4,"humidity":82,"rain":0.0,"pressure":975.9,"uv_index":8.75,"wind_gusts":34.6,"aqi":61,"pm10":17.8,"pm2_5":11.6,"no2":11.3,"co":252.0,"o3":34.0,"so2":5.5,"mosquito_risk":7,"arthritis_risk":5,"migraine_risk":7,"frizz_risk":1,"updated_at":"2026-07-13T00:48:48.069471+05:30"},{"city":"Tirunelveli","state":"Tamil Nadu","latitude":8.7139,"longitude":77.7567,"temp":28.7,"humidity":64,"rain":0.0,"pressure":1001.0,"uv_index":8.2,"wind_gusts":50.8,"aqi":30,"pm10":9.8,"pm2_5":6.3,"no2":5.3,"co":133.0,"o3":35.0,"so2":2.3,"mosquito_risk":7,"arthritis_risk":5,"migraine_risk":4,"frizz_risk":1,"updated_at":"2026-07-13T00:48:48.069479+05:30"},{"city":"Vellore","state":"Tamil Nadu","latitude":12.9165,"longitude":79.1325,"temp":30.8,"humidity":48,"rain":0.0,"pressure":981.0,"uv_index":8.05,"wind_gusts":47.2,"aqi":62,"pm10":20.4,"pm2_5":13.1,"no2":7.4,"co":146.0,"o3":52.0,"so2":3.7,"mosquito_risk":0,"arthritis_risk":5,"migraine_risk":7,"frizz_risk":1,"updated_at":"2026-07-13T00:48:48.069487+05:30"},{"city":"Erode","state":"Tamil Nadu","latitude":11.341,"longitude":77.7172,"temp":26.2,"humidity":78,"rain":0.0,"pressure":987.7,"uv_index":8.45,"wind_gusts":52.6,"aqi":53,"pm10":20.6,"pm2_5":14.0,"no2":14.7,"co":158.0,"o3":28.0,"so2":4.0,"mosquito_risk":7,"arthritis_risk":5,"migraine_risk":7,"frizz_risk":1,"updated_at":"2026-07-13T00:48:48.069495+05:30"},{"city":"Kochi","state":"Kerala","latitude":9.9312,"longitude":76.2673,"temp":27.3,"humidity":84,"rain":0.0,"pressure":1009.1,"uv_index":8.1,"wind_gusts":46.1,"aqi":46,"pm10":15.8,"pm2_5":11.6,"no2":10.2,"co":107.0,"o3":24.0,"so2":3.6,"mosquito_risk":7,"arthritis_risk":0,"migraine_risk":4,"frizz_risk":1,"updated_at":"2026-07-13T00:48:48.069502+05:30"},{"city":"Thiruvananthapuram","state":"Kerala","latitude":8.5241,"longitude":76.9366,"temp":25.4,"humidity":90,"rain":0.0,"pressure":1008.5,"uv_index":8.0,"wind_gusts":51.5,"aqi":35,"pm10":14.2,"pm2_5":8.3,"no2":3.5,"co":122.0,"o3":41.0,"so2":1.6,"mosquito_risk":7,"arthritis_risk":0,"migraine_risk":4,"frizz_risk":1,"updated_at":"2026-07-13T00:48:48.069510+05:30"},{"city":"Kozhikode","state":"Kerala","latitude":11.2588,"longitude":75.7804,"temp":25.3,"humidity":97,"rain":0.0,"pressure":1008.4,"uv_index":8.35,"wind_gusts":45.4,"aqi":35,"pm10":20.8,"pm2_5":9.7,"no2":1.9,"co":142.0,"o3":46.0,"so2":1.3,"mosquito_risk":7,"arthritis_risk":0,"migraine_risk":4,"frizz_risk":1,"updated_at":"2026-07-13T00:48:48.069517+05:30"},{"city":"Thrissur","state":"Kerala","latitude":10.5276,"longitude":76.2144,"temp":25.8,"humidity":90,"rain":0.0,"pressure":1007.5,"uv_index":7.8,"wind_gusts":46.4,"aqi":41,"pm10":18.7,"pm2_5":12.8,"no2":8.3,"co":142.0,"o3":29.0,"so2":3.4,"mosquito_risk":7,"arthritis_risk":5,"migraine_risk":4,"frizz_risk":1,"updated_at":"2026-07-13T00:48:48.069548+05:30"},{"city":"Kannur","state":"Kerala","latitude":11.8745,"longitude":75.3704,"temp":25.9,"humidity":94,"rain":0.0,"pressure":1007.5,"uv_index":8.75,"wind_gusts":46.4,"aqi":39,"pm10":17.0,"pm2_5":8.8,"no2":4.9,"co":147.0,"o3":34.0,"so2":1.9,"mosquito_risk":7,"arthritis_risk":5,"migraine_risk":4,"frizz_risk":1,"updated_at":"2026-07-13T00:48:48.069558+05:30"},{"city":"Patna","state":"Bihar","latitude":25.5941,"longitude":85.1376,"temp":27.0,"humidity":92,"rain":0.5,"pressure":991.3,"uv_index":8.0,"wind_gusts":21.2,"aqi":143,"pm10":85.2,"pm2_5":57.5,"no2":20.9,"co":211.0,"o3":56.0,"so2":8.1,"mosquito_risk":10,"arthritis_risk":5,"migraine_risk":7,"frizz_risk":1,"updated_at":"2026-07-13T00:48:48.069566+05:30"},{"city":"Gaya","state":"Bihar","latitude":24.7914,"longitude":85.0002,"temp":28.6,"humidity":79,"rain":0.0,"pressure":984.8,"uv_index":4.85,"wind_gusts":28.1,"aqi":120,"pm10":76.6,"pm2_5":52.7,"no2":20.4,"co":383.0,"o3":41.0,"so2":7.8,"mosquito_risk":7,"arthritis_risk":5,"migraine_risk":3,"frizz_risk":1,"updated_at":"2026-07-13T00:48:48.069574+05:30"},{"city":"Muzaffarpur","state":"Bihar","latitude":26.1209,"longitude":85.3647,"temp":27.1,"humidity":97,"rain":0.3,"pressure":991.3,"uv_index":8.2,"wind_gusts":26.3,"aqi":145,"pm10":81.3,"pm2_5":57.4,"no2":17.3,"co":526.0,"o3":70.0,"so2":6.1,"mosquito_risk":10,"arthritis_risk":5,"migraine_risk":7,"frizz_risk":1,"updated_at":"2026-07-13T00:48:48.069582+05:30"},{"city":"Bhagalpur","state":"Bihar","latitude":25.2425,"longitude":87.0117,"temp":28.5,"humidity":90,"rain":0.0,"pressure":991.5,"uv_index":3.8,"wind_gusts":25.6,"aqi":129,"pm10":77.5,"pm2_5":54.6,"no2":23.1,"co":505.0,"o3":48.0,"so2":10.0,"mosquito_risk":7,"arthritis_risk":5,"migraine_risk":3,"frizz_risk":1,"updated_at":"2026-07-13T00:48:48.069589+05:30"},{"city":"Ranchi","state":"Jharkhand","latitude":23.3441,"longitude":85.3096,"temp":25.6,"humidity":83,"rain":0.0,"pressure":930.1,"uv_index":8.0,"wind_gusts":31.0,"aqi":95,"pm10":50.1,"pm2_5":38.0,"no2":14.6,"co":184.0,"o3":57.0,"so2":9.1,"mosquito_risk":7,"arthritis_risk":5,"migraine_risk":7,"frizz_risk":1,"updated_at":"2026-07-13T00:48:48.069596+05:30"},{"city":"Jamshedpur","state":"Jharkhand","latitude":22.8046,"longitude":86.2029,"temp":28.2,"humidity":81,"rain":0.0,"pressure":982.0,"uv_index":7.7,"wind_gusts":27.4,"aqi":112,"pm10":45.4,"pm2_5":35.4,"no2":14.8,"co":201.0,"o3":76.0,"so2":25.3,"mosquito_risk":7,"arthritis_risk":5,"migraine_risk":7,"frizz_risk":1,"updated_at":"2026-07-13T00:48:48.069603+05:30"},{"city":"Dhanbad","state":"Jharkhand","latitude":23.7957,"longitude":86.4304,"temp":26.9,"humidity":93,"rain":0.0,"pressure":971.0,"uv_index":4.55,"wind_gusts":20.9,"aqi":155,"pm10":135.5,"pm2_5":111.8,"no2":71.7,"co":251.0,"o3":9.0,"so2":173.4,"mosquito_risk":7,"arthritis_risk":5,"migraine_risk":3,"frizz_risk":1,"updated_at":"2026-07-13T00:48:48.069611+05:30"},{"city":"Bokaro","state":"Jharkhand","latitude":23.6693,"longitude":86.1511,"temp":28.2,"humidity":83,"rain":0.0,"pressure":974.8,"uv_index":5.1,"wind_gusts":24.8,"aqi":153,"pm10":118.0,"pm2_5":96.9,"no2":48.5,"co":241.0,"o3":17.0,"so2":117.0,"mosquito_risk":7,"arthritis_risk":5,"migraine_risk":3,"frizz_risk":1,"updated_at":"2026-07-13T00:48:48.069618+05:30"},{"city":"Bhubaneswar","state":"Odisha","latitude":20.2961,"longitude":85.8245,"temp":28.6,"humidity":86,"rain":0.0,"pressure":994.4,"uv_index":7.5,"wind_gusts":26.6,"aqi":113,"pm10":43.7,"pm2_5":33.2,"no2":11.6,"co":349.0,"o3":76.0,"so2":7.3,"mosquito_risk":7,"arthritis_risk":5,"migraine_risk":7,"frizz_risk":1,"updated_at":"2026-07-13T00:48:48.069625+05:30"},{"city":"Cuttack","state":"Odisha","latitude":20.4625,"longitude":85.8828,"temp":29.1,"humidity":84,"rain":0.0,"pressure":996.1,"uv_index":7.8,"wind_gusts":27.7,"aqi":113,"pm10":43.7,"pm2_5":33.2,"no2":11.6,"co":366.0,"o3":76.0,"so2":7.3,"mosquito_risk":7,"arthritis_risk":5,"migraine_risk":7,"frizz_risk":1,"updated_at":"2026-07-13T00:48:48.069631+05:30"},{"city":"Rourkela","state":"Odisha","latitude":22.2604,"longitude":84.8536,"temp":28.1,"humidity":84,"rain":0.0,"pressure":977.0,"uv_index":8.9,"wind_gusts":23.4,"aqi":100,"pm10":36.0,"pm2_5":27.5,"no2":13.0,"co":417.0,"o3":72.0,"so2":20.3,"mosquito_risk":7,"arthritis_risk":5,"migraine_risk":7,"frizz_risk":1,"updated_at":"2026-07-13T00:48:48.069638+05:30"},{"city":"Raipur","state":"Chhattisgarh","latitude":21.2514,"longitude":81.6296,"temp":27.5,"humidity":72,"rain":0.0,"pressure":968.7,"uv_index":8.65,"wind_gusts":37.8,"aqi":92,"pm10":49.9,"pm2_5":31.9,"no2":20.9,"co":434.0,"o3":51.0,"so2":38.1,"mosquito_risk":7,"arthritis_risk":5,"migraine_risk":7,"frizz_risk":1,"updated_at":"2026-07-13T00:48:48.069645+05:30"},{"city":"Bhilai","state":"Chhattisgarh","latitude":21.1938,"longitude":81.3509,"temp":27.0,"humidity":75,"rain":0.0,"pressure":969.2,"uv_index":8.8,"wind_gusts":39.2,"aqi":87,"pm10":47.8,"pm2_5":29.3,"no2":16.5,"co":531.0,"o3":54.0,"so2":29.8,"mosquito_risk":7,"arthritis_risk":5,"migraine_risk":7,"frizz_risk":1,"updated_at":"2026-07-13T00:48:48.069653+05:30"},{"city":"Guwahati","state":"Assam","latitude":26.1158,"longitude":91.7086,"temp":25.6,"humidity":100,"rain":0.0,"pressure":992.6,"uv_index":1.75,"wind_gusts":23.8,"aqi":37,"pm10":9.9,"pm2_5":9.7,"no2":7.4,"co":301.0,"o3":67.0,"so2":2.1,"mosquito_risk":7,"arthritis_risk":5,"migraine_risk":3,"frizz_risk":1,"updated_at":"2026-07-13T00:48:48.069660+05:30"},{"city":"Agartala","state":"Tripura","latitude":23.8315,"longitude":91.2868,"temp":26.0,"humidity":98,"rain":0.0,"pressure":997.9,"uv_index":1.75,"wind_gusts":31.0,"aqi":83,"pm10":30.5,"pm2_5":26.8,"no2":10.5,"co":231.0,"o3":80.0,"so2":4.8,"mosquito_risk":7,"arthritis_risk":5,"migraine_risk":3,"frizz_risk":1,"updated_at":"2026-07-13T00:48:48.069667+05:30"},{"city":"Shillong","state":"Meghalaya","latitude":25.5788,"longitude":91.8933,"temp":20.6,"humidity":97,"rain":0.1,"pressure":850.7,"uv_index":0.9,"wind_gusts":26.3,"aqi":36,"pm10":1.2,"pm2_5":1.2,"no2":3.3,"co":255.0,"o3":85.0,"so2":2.9,"mosquito_risk":6,"arthritis_risk":5,"migraine_risk":3,"frizz_risk":1,"updated_at":"2026-07-13T00:48:48.069674+05:30"},{"city":"Imphal","state":"Manipur","latitude":24.817,"longitude":93.9368,"temp":23.0,"humidity":98,"rain":0.1,"pressure":916.7,"uv_index":2.6,"wind_gusts":20.2,"aqi":51,"pm10":14.2,"pm2_5":11.8,"no2":5.8,"co":225.0,"o3":57.0,"so2":2.6,"mosquito_risk":6,"arthritis_risk":5,"migraine_risk":3,"frizz_risk":1,"updated_at":"2026-07-13T00:48:48.069681+05:30"},{"city":"Aizawl","state":"Mizoram","latitude":23.7271,"longitude":92.7176,"temp":20.3,"humidity":93,"rain":0.0,"pressure":885.9,"uv_index":0.95,"wind_gusts":22.0,"aqi":49,"pm10":9.9,"pm2_5":6.3,"no2":2.2,"co":170.0,"o3":64.0,"so2":2.0,"mosquito_risk":3,"arthritis_risk":5,"migraine_risk":3,"frizz_risk":1,"updated_at":"2026-07-13T00:48:48.069689+05:30"},{"city":"Kohima","state":"Nagaland","latitude":25.6701,"longitude":94.1077,"temp":21.0,"humidity":95,"rain":0.1,"pressure":849.9,"uv_index":7.1,"wind_gusts":24.5,"aqi":26,"pm10":5.1,"pm2_5":4.2,"no2":5.0,"co":206.0,"o3":50.0,"so2":1.1,"mosquito_risk":6,"arthritis_risk":5,"migraine_risk":7,"frizz_risk":1,"updated_at":"2026-07-13T00:48:48.069695+05:30"},{"city":"Gangtok","state":"Sikkim","latitude":27.3314,"longitude":88.6138,"temp":19.4,"humidity":95,"rain":0.6,"pressure":831.3,"uv_index":1.8,"wind_gusts":25.2,"aqi":49,"pm10":2.6,"pm2_5":2.5,"no2":3.1,"co":301.0,"o3":110.0,"so2":1.1,"mosquito_risk":6,"arthritis_risk":10,"migraine_risk":3,"frizz_risk":1,"updated_at":"2026-07-13T00:48:48.069702+05:30"},{"city":"Siliguri","state":"West Bengal","latitude":26.7271,"longitude":88.3953,"temp":25.3,"humidity":99,"rain":0.3,"pressure":984.1,"uv_index":0.6,"wind_gusts":31.3,"aqi":47,"pm10":12.3,"pm2_5":11.7,"no2":7.7,"co":399.0,"o3":93.0,"so2":2.9,"mosquito_risk":10,"arthritis_risk":5,"migraine_risk":3,"frizz_risk":1,"updated_at":"2026-07-13T00:48:51.355504+05:30"},{"city":"Durgapur","state":"West Bengal","latitude":23.5204,"longitude":87.3119,"temp":27.5,"humidity":95,"rain":0.0,"pressure":986.2,"uv_index":4.1,"wind_gusts":27.4,"aqi":152,"pm10":69.6,"pm2_5":59.0,"no2":31.9,"co":563.0,"o3":46.0,"so2":44.7,"mosquito_risk":7,"arthritis_risk":5,"migraine_risk":3,"frizz_risk":1,"updated_at":"2026-07-13T00:48:51.355560+05:30"},{"city":"Asansol","state":"West Bengal","latitude":23.6739,"longitude":86.9524,"temp":27.1,"humidity":95,"rain":0.0,"pressure":984.7,"uv_index":2.55,"wind_gusts":24.8,"aqi":141,"pm10":73.3,"pm2_5":58.8,"no2":45.7,"co":389.0,"o3":31.0,"so2":63.3,"mosquito_risk":7,"arthritis_risk":5,"migraine_risk":3,"frizz_risk":1,"updated_at":"2026-07-13T00:48:51.355574+05:30"},{"city":"Pondicherry","state":"Puducherry","latitude":11.9139,"longitude":79.8145,"temp":29.5,"humidity":73,"rain":0.0,"pressure":1004.7,"uv_index":8.0,"wind_gusts":48.2,"aqi":66,"pm10":15.5,"pm2_5":10.9,"no2":9.9,"co":172.0,"o3":55.0,"so2":6.4,"mosquito_risk":7,"arthritis_risk":5,"migraine_risk":4,"frizz_risk":1,"updated_at":"2026-07-13T00:48:51.355584+05:30"},{"city":"Port Blair","state":"Andaman and Nicobar Islands","latitude":11.6234,"longitude":92.7265,"temp":28.1,"humidity":78,"rain":0.1,"pressure":1003.8,"uv_index":8.75,"wind_gusts":58.0,"aqi":50,"pm10":22.9,"pm2_5":10.0,"no2":0.2,"co":84.0,"o3":50.0,"so2":0.4,"mosquito_risk":10,"arthritis_risk":5,"migraine_risk":4,"frizz_risk":1,"updated_at":"2026-07-13T00:48:51.355592+05:30"},{"city":"Haridwar","state":"Uttarakhand","latitude":29.9457,"longitude":78.1642,"temp":26.9,"humidity":95,"rain":0.0,"pressure":964.0,"uv_index":7.5,"wind_gusts":23.8,"aqi":162,"pm10":139.7,"pm2_5":84.1,"no2":20.7,"co":297.0,"o3":58.0,"so2":8.8,"mosquito_risk":7,"arthritis_risk":5,"migraine_risk":7,"frizz_risk":1,"updated_at":"2026-07-13T00:48:51.355600+05:30"},{"city":"Rishikesh","state":"Uttarakhand","latitude":30.0869,"longitude":78.2676,"temp":25.4,"humidity":93,"rain":0.0,"pressure":956.8,"uv_index":7.6,"wind_gusts":27.7,"aqi":147,"pm10":70.5,"pm2_5":43.7,"no2":9.9,"co":244.0,"o3":90.0,"so2":5.8,"mosquito_risk":7,"arthritis_risk":5,"migraine_risk":7,"frizz_risk":1,"updated_at":"2026-07-13T00:48:51.355608+05:30"},{"city":"Nainital","state":"Uttarakhand","latitude":29.3919,"longitude":79.4542,"temp":16.8,"humidity":100,"rain":0.0,"pressure":799.3,"uv_index":8.5,"wind_gusts":35.6,"aqi":155,"pm10":204.9,"pm2_5":65.0,"no2":10.8,"co":287.0,"o3":93.0,"so2":4.7,"mosquito_risk":3,"arthritis_risk":10,"migraine_risk":7,"frizz_risk":1,"updated_at":"2026-07-13T00:48:51.355616+05:30"},{"city":"Mussoorie","state":"Uttarakhand","latitude":30.4599,"longitude":78.0664,"temp":17.7,"humidity":95,"rain":0.0,"pressure":797.1,"uv_index":8.0,"wind_gusts":43.2,"aqi":142,"pm10":110.6,"pm2_5":54.2,"no2":14.7,"co":272.0,"o3":91.0,"so2":8.8,"mosquito_risk":3,"arthritis_risk":10,"migraine_risk":7,"frizz_risk":1,"updated_at":"2026-07-13T00:48:51.355623+05:30"},{"city":"Dharamshala","state":"Himachal Pradesh","latitude":32.219,"longitude":76.3234,"temp":21.8,"humidity":74,"rain":0.0,"pressure":862.4,"uv_index":8.35,"wind_gusts":36.0,"aqi":56,"pm10":25.7,"pm2_5":18.6,"no2":15.7,"co":316.0,"o3":23.0,"so2":0.5,"mosquito_risk":3,"arthritis_risk":5,"migraine_risk":7,"frizz_risk":1,"updated_at":"2026-07-13T00:48:51.355631+05:30"},{"city":"Dalhousie","state":"Himachal Pradesh","latitude":32.5387,"longitude":75.971,"temp":18.0,"humidity":84,"rain":0.0,"pressure":798.8,"uv_index":8.65,"wind_gusts":31.7,"aqi":98,"pm10":64.7,"pm2_5":44.6,"no2":40.0,"co":496.0,"o3":39.0,"so2":3.5,"mosquito_risk":3,"arthritis_risk":10,"migraine_risk":7,"frizz_risk":0,"updated_at":"2026-07-13T00:48:51.355639+05:30"},{"city":"Patiala","state":"Punjab","latitude":30.3398,"longitude":76.3869,"temp":28.2,"humidity":87,"rain":0.0,"pressure":968.4,"uv_index":7.5,"wind_gusts":24.5,"aqi":172,"pm10":161.1,"pm2_5":102.9,"no2":33.8,"co":395.0,"o3":48.0,"so2":10.2,"mosquito_risk":7,"arthritis_risk":5,"migraine_risk":7,"frizz_risk":1,"updated_at":"2026-07-13T00:48:51.355646+05:30"},{"city":"Bhatinda","state":"Punjab","latitude":30.211,"longitude":74.9455,"temp":27.3,"humidity":92,"rain":0.0,"pressure":973.7,"uv_index":8.25,"wind_gusts":22.3,"aqi":355,"pm10":234.2,"pm2_5":122.5,"no2":19.0,"co":345.0,"o3":80.0,"so2":9.3,"mosquito_risk":7,"arthritis_risk":5,"migraine_risk":7,"frizz_risk":1,"updated_at":"2026-07-13T00:48:51.355653+05:30"},{"city":"Rohtak","state":"Haryana","latitude":28.8955,"longitude":76.6066,"temp":28.9,"humidity":73,"rain":0.0,"pressure":971.6,"uv_index":7.6,"wind_gusts":28.1,"aqi":1190,"pm10":1996.8,"pm2_5":296.2,"no2":9.6,"co":171.0,"o3":64.0,"so2":3.6,"mosquito_risk":7,"arthritis_risk":5,"migraine_risk":7,"frizz_risk":1,"updated_at":"2026-07-13T00:48:51.355660+05:30"},{"city":"Panipat","state":"Haryana","latitude":29.3909,"longitude":76.9635,"temp":28.4,"humidity":83,"rain":0.0,"pressure":970.3,"uv_index":7.45,"wind_gusts":25.2,"aqi":1646,"pm10":2890.8,"pm2_5":444.2,"no2":16.8,"co":587.0,"o3":47.0,"so2":3.8,"mosquito_risk":7,"arthritis_risk":5,"migraine_risk":7,"frizz_risk":1,"updated_at":"2026-07-13T00:48:51.355667+05:30"},{"city":"Mathura","state":"Uttar Pradesh","latitude":27.4924,"longitude":77.6737,"temp":31.3,"humidity":62,"rain":0.0,"pressure":977.4,"uv_index":7.9,"wind_gusts":34.2,"aqi":913,"pm10":812.1,"pm2_5":126.7,"no2":15.2,"co":183.0,"o3":55.0,"so2":4.5,"mosquito_risk":3,"arthritis_risk":5,"migraine_risk":7,"frizz_risk":1,"updated_at":"2026-07-13T00:48:51.355674+05:30"},{"city":"Vrindavan","state":"Uttar Pradesh","latitude":27.5823,"longitude":77.7027,"temp":31.5,"humidity":62,"rain":0.0,"pressure":977.9,"uv_index":7.85,"wind_gusts":33.1,"aqi":913,"pm10":812.1,"pm2_5":126.7,"no2":15.2,"co":180.0,"o3":55.0,"so2":4.5,"mosquito_risk":3,"arthritis_risk":5,"migraine_risk":7,"frizz_risk":1,"updated_at":"2026-07-13T00:48:51.355681+05:30"},{"city":"Ayodhya","state":"Uttar Pradesh","latitude":26.7922,"longitude":82.1998,"temp":27.9,"humidity":98,"rain":0.0,"pressure":985.4,"uv_index":8.35,"wind_gusts":33.8,"aqi":137,"pm10":103.4,"pm2_5":68.0,"no2":34.9,"co":561.0,"o3":30.0,"so2":9.9,"mosquito_risk":7,"arthritis_risk":5,"migraine_risk":7,"frizz_risk":1,"updated_at":"2026-07-13T00:48:51.355688+05:30"},{"city":"Ratlam","state":"Madhya Pradesh","latitude":23.3315,"longitude":75.0367,"temp":25.3,"humidity":89,"rain":0.0,"pressure":949.1,"uv_index":8.05,"wind_gusts":52.2,"aqi":64,"pm10":27.6,"pm2_5":13.8,"no2":6.3,"co":135.0,"o3":41.0,"so2":8.4,"mosquito_risk":7,"arthritis_risk":5,"migraine_risk":7,"frizz_risk":1,"updated_at":"2026-07-13T00:48:51.355695+05:30"},{"city":"Sagar","state":"Madhya Pradesh","latitude":23.8388,"longitude":78.7378,"temp":26.6,"humidity":77,"rain":0.0,"pressure":943.8,"uv_index":8.65,"wind_gusts":47.5,"aqi":74,"pm10":45.3,"pm2_5":27.5,"no2":5.3,"co":174.0,"o3":69.0,"so2":4.0,"mosquito_risk":7,"arthritis_risk":5,"migraine_risk":7,"frizz_risk":1,"updated_at":"2026-07-13T00:48:51.355701+05:30"},{"city":"Satna","state":"Madhya Pradesh","latitude":24.6005,"longitude":80.8322,"temp":28.2,"humidity":68,"rain":0.0,"pressure":964.0,"uv_index":8.7,"wind_gusts":41.8,"aqi":77,"pm10":44.1,"pm2_5":25.6,"no2":5.4,"co":167.0,"o3":65.0,"so2":3.7,"mosquito_risk":7,"arthritis_risk":5,"migraine_risk":7,"frizz_risk":1,"updated_at":"2026-07-13T00:48:51.355708+05:30"},{"city":"Akola","state":"Maharashtra","latitude":20.7002,"longitude":77.0082,"temp":28.3,"humidity":65,"rain":0.0,"pressure":970.6,"uv_index":8.75,"wind_gusts":48.2,"aqi":60,"pm10":28.8,"pm2_5":15.7,"no2":6.6,"co":114.0,"o3":46.0,"so2":7.2,"mosquito_risk":7,"arthritis_risk":5,"migraine_risk":7,"frizz_risk":1,"updated_at":"2026-07-13T00:48:51.355717+05:30"},{"city":"Amravati","state":"Maharashtra","latitude":20.9374,"longitude":77.7796,"temp":28.0,"humidity":69,"rain":0.0,"pressure":962.6,"uv_index":8.75,"wind_gusts":54.4,"aqi":61,"pm10":31.1,"pm2_5":17.1,"no2":7.4,"co":122.0,"o3":47.0,"so2":8.4,"mosquito_risk":7,"arthritis_risk":5,"migraine_risk":7,"frizz_risk":1,"updated_at":"2026-07-13T00:48:51.355725+05:30"},{"city":"Latur","state":"Maharashtra","latitude":18.4088,"longitude":76.5604,"temp":24.8,"humidity":73,"rain":0.0,"pressure":936.5,"uv_index":8.9,"wind_gusts":43.6,"aqi":51,"pm10":22.7,"pm2_5":10.3,"no2":4.2,"co":115.0,"o3":42.0,"so2":2.7,"mosquito_risk":3,"arthritis_risk":5,"migraine_risk":7,"frizz_risk":1,"updated_at":"2026-07-13T00:48:51.355732+05:30"},{"city":"Nanded","state":"Maharashtra","latitude":19.1383,"longitude":77.3091,"temp":27.8,"humidity":64,"rain":0.0,"pressure":964.6,"uv_index":8.85,"wind_gusts":41.4,"aqi":57,"pm10":30.9,"pm2_5":16.7,"no2":4.6,"co":135.0,"o3":57.0,"so2":3.9,"mosquito_risk":7,"arthritis_risk":5,"migraine_risk":7,"frizz_risk":1,"updated_at":"2026-07-13T00:48:51.355739+05:30"},{"city":"Gulbarga","state":"Karnataka","latitude":17.3297,"longitude":76.8343,"temp":25.7,"humidity":71,"rain":0.0,"pressure":955.7,"uv_index":8.8,"wind_gusts":49.3,"aqi":49,"pm10":18.0,"pm2_5":9.2,"no2":4.9,"co":113.0,"o3":39.0,"so2":2.7,"mosquito_risk":7,"arthritis_risk":5,"migraine_risk":7,"frizz_risk":1,"updated_at":"2026-07-13T00:48:51.355746+05:30"},{"city":"Bidar","state":"Karnataka","latitude":17.9104,"longitude":77.5199,"temp":25.9,"humidity":67,"rain":0.0,"pressure":932.1,"uv_index":8.95,"wind_gusts":45.4,"aqi":55,"pm10":23.5,"pm2_5":12.3,"no2":4.3,"co":126.0,"o3":51.0,"so2":2.2,"mosquito_risk":7,"arthritis_risk":5,"migraine_risk":7,"frizz_risk":1,"updated_at":"2026-07-13T00:48:51.355753+05:30"},{"city":"Hospet","state":"Karnataka","latitude":15.2689,"longitude":76.3909,"temp":23.9,"humidity":87,"rain":0.0,"pressure":954.4,"uv_index":8.9,"wind_gusts":50.8,"aqi":36,"pm10":12.3,"pm2_5":6.1,"no2":4.1,"co":121.0,"o3":37.0,"so2":1.8,"mosquito_risk":3,"arthritis_risk":5,"migraine_risk":7,"frizz_risk":1,"updated_at":"2026-07-13T00:48:51.355760+05:30"},{"city":"Tirupur","state":"Tamil Nadu","latitude":11.1085,"longitude":77.3411,"temp":24.7,"humidity":87,"rain":0.0,"pressure":974.2,"uv_index":8.35,"wind_gusts":59.4,"aqi":56,"pm10":24.2,"pm2_5":17.1,"no2":18.8,"co":147.0,"o3":21.0,"so2":5.2,"mosquito_risk":3,"arthritis_risk":5,"migraine_risk":7,"frizz_risk":1,"updated_at":"2026-07-13T00:48:51.355767+05:30"},{"city":"Alappuzha","state":"Kerala","latitude":9.4981,"longitude":76.3388,"temp":27.6,"humidity":82,"rain":0.0,"pressure":1009.2,"uv_index":7.95,"wind_gusts":46.1,"aqi":41,"pm10":17.7,"pm2_5":10.2,"no2":6.0,"co":80.0,"o3":37.0,"so2":2.7,"mosquito_risk":7,"arthritis_risk":0,"migraine_risk":4,"frizz_risk":1,"updated_at":"2026-07-13T00:48:51.355774+05:30"},{"city":"Munnar","state":"Kerala","latitude":10.0889,"longitude":77.0595,"temp":15.7,"humidity":99,"rain":0.0,"pressure":855.6,"uv_index":8.7,"wind_gusts":37.1,"aqi":32,"pm10":7.7,"pm2_5":5.5,"no2":6.1,"co":99.0,"o3":27.0,"so2":1.5,"mosquito_risk":3,"arthritis_risk":10,"migraine_risk":7,"frizz_risk":0,"updated_at":"2026-07-13T00:48:51.355782+05:30"},{"city":"Silchar","state":"Assam","latitude":24.8333,"longitude":92.7789,"temp":27.1,"humidity":94,"rain":0.1,"pressure":997.3,"uv_index":0.5,"wind_gusts":17.6,"aqi":73,"pm10":28.9,"pm2_5":19.7,"no2":5.6,"co":241.0,"o3":72.0,"so2":4.4,"mosquito_risk":10,"arthritis_risk":5,"migraine_risk":3,"frizz_risk":1,"updated_at":"2026-07-13T00:48:51.355789+05:30"},{"city":"Dibrugarh","state":"Assam","latitude":27.4728,"longitude":94.912,"temp":26.2,"humidity":99,"rain":0.3,"pressure":987.8,"uv_index":8.9,"wind_gusts":20.2,"aqi":39,"pm10":7.1,"pm2_5":7.0,"no2":14.0,"co":269.0,"o3":39.0,"so2":1.4,"mosquito_risk":10,"arthritis_risk":5,"migraine_risk":7,"frizz_risk":1,"updated_at":"2026-07-13T00:48:51.355795+05:30"}]