[{"city":"Delhi","state":"Delhi","latitude":28.6139,"longitude":77.209,"temp":24.1,"humidity":49,"rain":0.0,"pressure":983.5,"uv_index":5.55,"aqi":154,"mosquito_risk":0,"arthritis_risk":5,"migraine_risk":3,"frizz_risk":0,"updated_at":"2026-02-26T18:43:39.873302+05:30"},{"city":"Mumbai","state":"Maharashtra","latitude":19.076,"longitude":72.8777,"temp":26.3,"humidity":74,"rain":0.0,"pressure":1009.1,"uv_index":7.3,"aqi":95,"mosquito_risk":7,"arthritis_risk":0,"migraine_risk":4,"frizz_risk":1,"updated_at":"2026-02-26T18:43:39.873346+05:30"},{"city":"Bangalore","state":"Karnataka","latitude":12.9716,"longitude":77.5946,"temp":27.6,"humidity":39,"rain":0.0,"pressure":910.7,"uv_index":8.85,"aqi":146,"mosquito_risk":4,"arthritis_risk":5,"migraine_risk":7,"frizz_risk":0,"updated_at":"2026-02-26T18:43:39.873360+05:30"},{"city":"Hyderabad","state":"Telangana","latitude":17.385,"longitude":78.4867,"temp":28.7,"humidity":50,"rain":0.0,"pressure":952.9,"uv_index":8.05,"aqi":151,"mosquito_risk":4,"arthritis_risk":5,"migraine_risk":7,"frizz_risk":1,"updated_at":"2026-02-26T18:43:39.873370+05:30"},{"city":"Chennai","state":"Tamil Nadu","latitude":13.0827,"longitude":80.2707,"temp":27.1,"humidity":70,"rain":0.0,"pressure":1007.6,"uv_index":8.6,"aqi":86,"mosquito_risk":7,"arthritis_risk":5,"migraine_risk":4,"frizz_risk":1,"updated_at":"2026-02-26T18:43:39.873377+05:30"},{"city":"Kolkata","state":"West Bengal","latitude":22.5726,"longitude":88.3639,"temp":24.7,"humidity":49,"rain":0.0,"pressure":1006.7,"uv_index":7.4,"aqi":174,"mosquito_risk":0,"arthritis_risk":5,"migraine_risk":4,"frizz_risk":0,"updated_at":"2026-02-26T18:43:39.873384+05:30"},{"city":"Pune","state":"Maharashtra","latitude":18.5204,"longitude":73.8567,"temp":27.7,"humidity":44,"rain":0.0,"pressure":948.3,"uv_index":7.8,"aqi":82,"mosquito_risk":4,"arthritis_risk":5,"migraine_risk":7,"frizz_risk":0,"updated_at":"2026-02-26T18:43:39.873391+05:30"},{"city":"Ahmedabad","state":"Gujarat","latitude":23.0225,"longitude":72.5714,"temp":31.7,"humidity":26,"rain":0.0,"pressure":1001.7,"uv_index":7.05,"aqi":88,"mosquito_risk":0,"arthritis_risk":5,"migraine_risk":4,"frizz_risk":0,"updated_at":"2026-02-26T18:43:39.873397+05:30"},{"city":"Jaipur","state":"Rajasthan","latitude":26.9124,"longitude":75.7873,"temp":27.9,"humidity":25,"rain":0.0,"pressure":960.0,"uv_index":6.35,"aqi":102,"mosquito_risk":4,"arthritis_risk":5,"migraine_risk":7,"frizz_risk":0,"updated_at":"2026-02-26T18:43:39.873406+05:30"},{"city":"Lucknow","state":"Uttar Pradesh","latitude":26.8467,"longitude":80.9462,"temp":25.4,"humidity":41,"rain":0.0,"pressure":994.4,"uv_index":6.0,"aqi":143,"mosquito_risk":4,"arthritis_risk":5,"migraine_risk":3,"frizz_risk":0,"updated_at":"2026-02-26T18:43:39.873412+05:30"},{"city":"Kanpur","state":"Uttar Pradesh","latitude":26.4499,"longitude":80.3319,"temp":24.8,"humidity":50,"rain":0.0,"pressure":992.7,"uv_index":6.0,"aqi":148,"mosquito_risk":0,"arthritis_risk":5,"migraine_risk":3,"frizz_risk":0,"updated_at":"2026-02-26T18:43:39.873417+05:30"},{"city":"Chandigarh","state":"Chandigarh","latitude":30.7333,"longitude":76.7794,"temp":21.2,"humidity":67,"rain":0.0,"pressure":968.7,"uv_index":5.45,"aqi":140,"mosquito_risk":3,"arthritis_risk":5,"migraine_risk":3,"frizz_risk":0,"updated_at":"2026-02-26T18:43:39.873423+05:30"},{"city":"Srinagar","state":"Jammu and Kashmir","latitude":34.0837,"longitude":74.7973,"temp":12.5,"humidity":59,"rain":0.0,"pressure":838.2,"uv_index":6.35,"aqi":155,"mosquito_risk":0,"arthritis_risk":5,"migraine_risk":7,"frizz_risk":0,"updated_at":"2026-02-26T18:43:39.873429+05:30"},{"city":"Jammu","state":"Jammu and Kashmir","latitude":32.7266,"longitude":74.857,"temp":22.9,"humidity":72,"rain":0.0,"pressure":972.7,"uv_index":6.05,"aqi":135,"mosquito_risk":3,"arthritis_risk":5,"migraine_risk":7,"frizz_risk":1,"updated_at":"2026-02-26T18:43:39.873434+05:30"},{"city":"Amritsar","state":"Punjab","latitude":31.634,"longitude":74.8723,"temp":22.3,"humidity":73,"rain":0.0,"pressure":981.1,"uv_index":6.0,"aqi":172,"mosquito_risk":3,"arthritis_risk":5,"migraine_risk":3,"frizz_risk":1,"updated_at":"2026-02-26T18:43:39.873438+05:30"},{"city":"Ludhiana","state":"Punjab","latitude":30.901,"longitude":75.8573,"temp":22.8,"humidity":67,"rain":0.0,"pressure":979.2,"uv_index":5.7,"aqi":172,"mosquito_risk":3,"arthritis_risk":5,"migraine_risk":3,"frizz_risk":1,"updated_at":"2026-02-26T18:43:39.873443+05:30"},{"city":"Jalandhar","state":"Punjab","latitude":31.326,"longitude":75.5762,"temp":22.8,"humidity":69,"rain":0.0,"pressure":980.3,"uv_index":5.85,"aqi":176,"mosquito_risk":3,"arthritis_risk":5,"migraine_risk":3,"frizz_risk":1,"updated_at":"2026-02-26T18:43:39.873449+05:30"},{"city":"Dehradun","state":"Uttarakhand","latitude":30.6284,"longitude":78.0322,"temp":13.8,"humidity":60,"rain":0.0,"pressure":827.0,"uv_index":5.8,"aqi":128,"mosquito_risk":0,"arthritis_risk":5,"migraine_risk":3,"frizz_risk":0,"updated_at":"2026-02-26T18:43:39.873454+05:30"},{"city":"Shimla","state":"Himachal Pradesh","latitude":31.1048,"longitude":77.1734,"temp":11.7,"humidity":55,"rain":0.0,"pressure":781.8,"uv_index":5.85,"aqi":129,"mosquito_risk":0,"arthritis_risk":5,"migraine_risk":3,"frizz_risk":0,"updated_at":"2026-02-26T18:43:39.873461+05:30"},{"city":"Manali","state":"Himachal Pradesh","latitude":32.2396,"longitude":77.1887,"temp":14.0,"humidity":62,"rain":0.0,"pressure":816.4,"uv_index":7.55,"aqi":116,"mosquito_risk":3,"arthritis_risk":5,"migraine_risk":7,"frizz_risk":0,"updated_at":"2026-02-26T18:43:39.873466+05:30"},{"city":"Gurgaon","state":"Haryana","latitude":28.4595,"longitude":77.0266,"temp":22.1,"humidity":56,"rain":0.0,"pressure":981.8,"uv_index":5.65,"aqi":209,"mosquito_risk":0,"arthritis_risk":5,"migraine_risk":3,"frizz_risk":0,"updated_at":"2026-02-26T18:43:39.873471+05:30"},{"city":"Noida","state":"Uttar Pradesh","latitude":28.5355,"longitude":77.391,"temp":24.9,"humidity":43,"rain":0.0,"pressure":985.0,"uv_index":5.55,"aqi":209,"mosquito_risk":0,"arthritis_risk":5,"migraine_risk":3,"frizz_risk":0,"updated_at":"2026-02-26T18:43:39.873478+05:30"},{"city":"Ghaziabad","state":"Uttar Pradesh","latitude":28.6692,"longitude":77.4538,"temp":23.8,"humidity":54,"rain":0.0,"pressure":983.1,"uv_index":5.55,"aqi":153,"mosquito_risk":0,"arthritis_risk":5,"migraine_risk":3,"frizz_risk":0,"updated_at":"2026-02-26T18:43:39.873483+05:30"},{"city":"Faridabad","state":"Haryana","latitude":28.4089,"longitude":77.3178,"temp":23.8,"humidity":44,"rain":0.0,"pressure":984.3,"uv_index":5.6,"aqi":209,"mosquito_risk":0,"arthritis_risk":5,"migraine_risk":3,"frizz_risk":0,"updated_at":"2026-02-26T18:43:39.873488+05:30"},{"city":"Meerut","state":"Uttar Pradesh","latitude":28.9845,"longitude":77.7064,"temp":22.1,"humidity":64,"rain":0.0,"pressure":981.6,"uv_index":5.4,"aqi":153,"mosquito_risk":3,"arthritis_risk":5,"migraine_risk":3,"frizz_risk":0,"updated_at":"2026-02-26T18:43:39.873493+05:30"},{"city":"Agra","state":"Uttar Pradesh","latitude":27.1767,"longitude":78.0081,"temp":24.4,"humidity":47,"rain":0.0,"pressure":988.7,"uv_index":5.9,"aqi":157,"mosquito_risk":0,"arthritis_risk":5,"migraine_risk":3,"frizz_risk":0,"updated_at":"2026-02-26T18:43:39.873498+05:30"},{"city":"Varanasi","state":"Uttar Pradesh","latitude":25.3176,"longitude":82.9739,"temp":24.0,"humidity":55,"rain":0.0,"pressure":998.8,"uv_index":6.7,"aqi":133,"mosquito_risk":0,"arthritis_risk":5,"migraine_risk":7,"frizz_risk":0,"updated_at":"2026-02-26T18:43:39.873504+05:30"},{"city":"Prayagraj","state":"Uttar Pradesh","latitude":25.4358,"longitude":81.8463,"temp":24.3,"humidity":59,"rain":0.0,"pressure":997.1,"uv_index":6.55,"aqi":129,"mosquito_risk":0,"arthritis_risk":5,"migraine_risk":7,"frizz_risk":0,"updated_at":"2026-02-26T18:43:39.873509+05:30"},{"city":"Gorakhpur","state":"Uttar Pradesh","latitude":26.7606,"longitude":83.3732,"temp":21.9,"humidity":53,"rain":0.0,"pressure":997.9,"uv_index":6.4,"aqi":154,"mosquito_risk":0,"arthritis_risk":5,"migraine_risk":7,"frizz_risk":0,"updated_at":"2026-02-26T18:43:39.873515+05:30"},{"city":"Bareilly","state":"Uttar Pradesh","latitude":28.367,"longitude":79.4304,"temp":21.8,"humidity":53,"rain":0.0,"pressure":987.0,"uv_index":5.7,"aqi":153,"mosquito_risk":0,"arthritis_risk":5,"migraine_risk":3,"frizz_risk":0,"updated_at":"2026-02-26T18:43:39.873520+05:30"},{"city":"Aligarh","state":"Uttar Pradesh","latitude":27.8974,"longitude":78.088,"temp":23.0,"humidity":51,"rain":0.0,"pressure":986.2,"uv_index":5.65,"aqi":157,"mosquito_risk":0,"arthritis_risk":5,"migraine_risk":3,"frizz_risk":0,"updated_at":"2026-02-26T18:43:39.873526+05:30"},{"city":"Moradabad","state":"Uttar Pradesh","latitude":28.8386,"longitude":78.7733,"temp":21.5,"humidity":55,"rain":0.0,"pressure":983.7,"uv_index":5.55,"aqi":154,"mosquito_risk":0,"arthritis_risk":5,"migraine_risk":3,"frizz_risk":0,"updated_at":"2026-02-26T18:43:39.873531+05:30"},{"city":"Saharanpur","state":"Uttar Pradesh","latitude":29.9637,"longitude":77.546,"temp":21.7,"humidity":57,"rain":0.0,"pressure":975.3,"uv_index":5.2,"aqi":162,"mosquito_risk":0,"arthritis_risk":5,"migraine_risk":3,"frizz_risk":0,"updated_at":"2026-02-26T18:43:39.873536+05:30"},{"city":"Jhansi","state":"Uttar Pradesh","latitude":25.4484,"longitude":78.5685,"temp":25.7,"humidity":46,"rain":0.0,"pressure":978.6,"uv_index":6.5,"aqi":96,"mosquito_risk":4,"arthritis_risk":5,"migraine_risk":7,"frizz_risk":0,"updated_at":"2026-02-26T18:43:43.120404+05:30"},{"city":"Surat","state":"Gujarat","latitude":21.1702,"longitude":72.8311,"temp":25.1,"humidity":71,"rain":0.0,"pressure":1007.4,"uv_index":7.0,"aqi":85,"mosquito_risk":7,"arthritis_risk":5,"migraine_risk":4,"frizz_risk":1,"updated_at":"2026-02-26T18:43:43.120432+05:30"},{"city":"Vadodara","state":"Gujarat","latitude":22.3072,"longitude":73.1812,"temp":30.8,"humidity":24,"rain":0.0,"pressure":1004.3,"uv_index":7.1,"aqi":90,"mosquito_risk":0,"arthritis_risk":5,"migraine_risk":4,"frizz_risk":0,"updated_at":"2026-02-26T18:43:43.120440+05:30"},{"city":"Rajkot","state":"Gujarat","latitude":22.3039,"longitude":70.8022,"temp":30.8,"humidity":25,"rain":0.0,"pressure":993.6,"uv_index":7.0,"aqi":73,"mosquito_risk":0,"arthritis_risk":5,"migraine_risk":7,"frizz_risk":0,"updated_at":"2026-02-26T18:43:43.120449+05:30"},{"city":"Thane","state":"Maharashtra","latitude":19.2183,"longitude":72.9781,"temp":26.0,"humidity":72,"rain":0.0,"pressure":1008.5,"uv_index":7.3,"aqi":95,"mosquito_risk":7,"arthritis_risk":0,"migraine_risk":4,"frizz_risk":1,"updated_at":"2026-02-26T18:43:43.120456+05:30"},{"city":"Nagpur","state":"Maharashtra","latitude":21.1458,"longitude":79.0882,"temp":29.2,"humidity":36,"rain":0.0,"pressure":973.4,"uv_index":7.4,"aqi":113,"mosquito_risk":4,"arthritis_risk":5,"migraine_risk":7,"frizz_risk":0,"updated_at":"2026-02-26T18:43:43.120463+05:30"},{"city":"Nashik","state":"Maharashtra","latitude":19.9975,"longitude":73.7898,"temp":26.7,"humidity":49,"rain":0.0,"pressure":945.3,"uv_index":7.45,"aqi":49,"mosquito_risk":4,"arthritis_risk":5,"migraine_risk":7,"frizz_risk":0,"updated_at":"2026-02-26T18:43:43.120470+05:30"},{"city":"Aurangabad","state":"Maharashtra","latitude":19.8762,"longitude":75.3433,"temp":29.1,"humidity":31,"rain":0.0,"pressure":943.5,"uv_index":7.75,"aqi":104,"mosquito_risk":4,"arthritis_risk":5,"migraine_risk":7,"frizz_risk":0,"updated_at":"2026-02-26T18:43:43.120477+05:30"},{"city":"Solapur","state":"Maharashtra","latitude":17.6599,"longitude":75.9064,"temp":29.3,"humidity":37,"rain":0.0,"pressure":956.7,"uv_index":8.0,"aqi":110,"mosquito_risk":4,"arthritis_risk":5,"migraine_risk":7,"frizz_risk":0,"updated_at":"2026-02-26T18:43:43.120483+05:30"},{"city":"Kolhapur","state":"Maharashtra","latitude":16.705,"longitude":74.2433,"temp":27.0,"humidity":38,"rain":0.0,"pressure":947.7,"uv_index":8.2,"aqi":68,"mosquito_risk":4,"arthritis_risk":5,"migraine_risk":7,"frizz_risk":0,"updated_at":"2026-02-26T18:43:43.120490+05:30"},{"city":"Goa","state":"Goa","latitude":15.2993,"longitude":74.124,"temp":28.2,"humidity":63,"rain":0.0,"pressure":997.2,"uv_index":8.25,"aqi":59,"mosquito_risk":7,"arthritis_risk":5,"migraine_risk":7,"frizz_risk":1,"updated_at":"2026-02-26T18:43:43.120496+05:30"},{"city":"Jodhpur","state":"Rajasthan","latitude":26.2389,"longitude":73.0243,"temp":30.0,"humidity":26,"rain":0.0,"pressure":982.6,"uv_index":6.6,"aqi":91,"mosquito_risk":4,"arthritis_risk":5,"migraine_risk":7,"frizz_risk":0,"updated_at":"2026-02-26T18:43:43.120503+05:30"},{"city":"Udaipur","state":"Rajasthan","latitude":24.5854,"longitude":73.7125,"temp":27.4,"humidity":29,"rain":0.0,"pressure":946.6,"uv_index":7.3,"aqi":103,"mosquito_risk":4,"arthritis_risk":5,"migraine_risk":7,"frizz_risk":0,"updated_at":"2026-02-26T18:43:43.120509+05:30"},{"city":"Kota","state":"Rajasthan","latitude":25.2138,"longitude":75.8648,"temp":28.4,"humidity":40,"rain":0.0,"pressure":978.9,"uv_index":6.65,"aqi":92,"mosquito_risk":4,"arthritis_risk":5,"migraine_risk":7,"frizz_risk":0,"updated_at":"2026-02-26T18:43:43.120516+05:30"},{"city":"Bikaner","state":"Rajasthan","latitude":28.0229,"longitude":73.3119,"temp":29.7,"humidity":26,"rain":0.0,"pressure":981.5,"uv_index":6.3,"aqi":81,"mosquito_risk":4,"arthritis_risk":5,"migraine_risk":7,"frizz_risk":0,"updated_at":"2026-02-26T18:43:43.120522+05:30"},{"city":"Ajmer","state":"Rajasthan","latitude":26.4499,"longitude":74.6399,"temp":28.1,"humidity":29,"rain":0.0,"pressure":954.4,"uv_index":6.6,"aqi":93,"mosquito_risk":4,"arthritis_risk":5,"migraine_risk":7,"frizz_risk":0,"updated_at":"2026-02-26T18:43:43.120529+05:30"},{"city":"Gwalior","state":"Madhya Pradesh","latitude":26.2183,"longitude":78.1828,"temp":24.7,"humidity":55,"rain":0.0,"pressure":983.9,"uv_index":6.2,"aqi":117,"mosquito_risk":0,"arthritis_risk":5,"migraine_risk":7,"frizz_risk":0,"updated_at":"2026-02-26T18:43:43.120534+05:30"},{"city":"Indore","state":"Madhya Pradesh","latitude":22.7196,"longitude":75.8577,"temp":25.5,"humidity":49,"rain":0.0,"pressure":948.0,"uv_index":7.2,"aqi":88,"mosquito_risk":4,"arthritis_risk":5,"migraine_risk":7,"frizz_risk":0,"updated_at":"2026-02-26T18:43:43.120541+05:30"},{"city":"Bhopal","state":"Madhya Pradesh","latitude":23.2599,"longitude":77.4126,"temp":25.0,"humidity":52,"rain":0.0,"pressure":953.9,"uv_index":7.1,"aqi":75,"mosquito_risk":4,"arthritis_risk":5,"migraine_risk":7,"frizz_risk":0,"updated_at":"2026-02-26T18:43:43.120547+05:30"},{"city":"Jabalpur","state":"Madhya Pradesh","latitude":23.1815,"longitude":79.9864,"temp":26.7,"humidity":36,"rain":0.0,"pressure":962.3,"uv_index":7.1,"aqi":92,"mosquito_risk":4,"arthritis_risk":5,"migraine_risk":7,"frizz_risk":0,"updated_at":"2026-02-26T18:43:43.120553+05:30"},{"city":"Ujjain","state":"Madhya Pradesh","latitude":23.1765,"longitude":75.7885,"temp":26.7,"humidity":46,"rain":0.0,"pressure":954.0,"uv_index":7.1,"aqi":92,"mosquito_risk":4,"arthritis_risk":5,"migraine_risk":7,"frizz_risk":0,"updated_at":"2026-02-26T18:43:43.120560+05:30"},{"city":"Visakhapatnam","state":"Andhra Pradesh","latitude":17.6868,"longitude":83.2185,"temp":26.2,"humidity":76,"rain":0.0,"pressure":1003.9,"uv_index":8.1,"aqi":128,"mosquito_risk":7,"arthritis_risk":5,"migraine_risk":4,"frizz_risk":1,"updated_at":"2026-02-26T18:43:43.120566+05:30"},{"city":"Vijayawada","state":"Andhra Pradesh","latitude":16.5062,"longitude":80.648,"temp":30.3,"humidity":52,"rain":0.0,"pressure":1002.4,"uv_index":8.15,"aqi":107,"mosquito_risk":0,"arthritis_risk":5,"migraine_risk":4,"frizz_risk":1,"updated_at":"2026-02-26T18:43:43.120572+05:30"},{"city":"Guntur","state":"Andhra Pradesh","latitude":16.3067,"longitude":80.4365,"temp":29.1,"humidity":61,"rain":0.0,"pressure":1003.9,"uv_index":8.15,"aqi":113,"mosquito_risk":7,"arthritis_risk":5,"migraine_risk":4,"frizz_risk":1,"updated_at":"2026-02-26T18:43:43.120579+05:30"},{"city":"Nellore","state":"Andhra Pradesh","latitude":14.4426,"longitude":79.9865,"temp":27.8,"humidity":64,"rain":0.0,"pressure":1006.3,"uv_index":8.4,"aqi":116,"mosquito_risk":7,"arthritis_risk":5,"migraine_risk":4,"frizz_risk":1,"updated_at":"2026-02-26T18:43:43.120586+05:30"},{"city":"Kurnool","state":"Andhra Pradesh","latitude":15.8281,"longitude":78.0373,"temp":31.2,"humidity":38,"rain":0.0,"pressure":976.0,"uv_index":8.2,"aqi":109,"mosquito_risk":0,"arthritis_risk":5,"migraine_risk":7,"frizz_risk":0,"updated_at":"2026-02-26T18:43:43.120594+05:30"},{"city":"Kakinada","state":"Andhra Pradesh","latitude":16.9891,"longitude":82.2475,"temp":26.8,"humidity":76,"rain":0.0,"pressure":1007.8,"uv_index":8.1,"aqi":67,"mosquito_risk":7,"arthritis_risk":5,"migraine_risk":4,"frizz_risk":1,"updated_at":"2026-02-26T18:43:43.120600+05:30"},{"city":"Tirupati","state":"Andhra Pradesh","latitude":13.6288,"longitude":79.4192,"temp":28.7,"humidity":44,"rain":0.0,"pressure":991.2,"uv_index":8.5,"aqi":116,"mosquito_risk":4,"arthritis_risk":5,"migraine_risk":7,"frizz_risk":0,"updated_at":"2026-02-26T18:43:43.120607+05:30"},{"city":"Warangal","state":"Telangana","latitude":17.9689,"longitude":79.5941,"temp":29.5,"humidity":40,"rain":0.0,"pressure":978.5,"uv_index":7.9,"aqi":150,"mosquito_risk":4,"arthritis_risk":5,"migraine_risk":7,"frizz_risk":0,"updated_at":"2026-02-26T18:43:43.120613+05:30"},{"city":"Nizamabad","state":"Telangana","latitude":18.6725,"longitude":78.0941,"temp":29.0,"humidity":40,"rain":0.0,"pressure":964.5,"uv_index":7.8,"aqi":152,"mosquito_risk":4,"arthritis_risk":5,"migraine_risk":7,"frizz_risk":0,"updated_at":"2026-02-26T18:43:43.120619+05:30"},{"city":"Mysore","state":"Karnataka","latitude":12.2958,"longitude":76.6396,"temp":26.3,"humidity":64,"rain":0.0,"pressure":927.4,"uv_index":8.9,"aqi":142,"mosquito_risk":7,"arthritis_risk":5,"migraine_risk":7,"frizz_risk":1,"updated_at":"2026-02-26T18:43:43.120625+05:30"},{"city":"Mangalore","state":"Karnataka","latitude":12.9141,"longitude":74.856,"temp":28.6,"humidity":73,"rain":0.0,"pressure":1005.6,"uv_index":8.5,"aqi":100,"mosquito_risk":7,"arthritis_risk":5,"migraine_risk":4,"frizz_risk":1,"updated_at":"2026-02-26T18:43:43.120631+05:30"},{"city":"Hubli-Dharwad","state":"Karnataka","latitude":15.3647,"longitude":75.124,"temp":30.1,"humidity":28,"rain":0.0,"pressure":939.7,"uv_index":8.4,"aqi":101,"mosquito_risk":0,"arthritis_risk":5,"migraine_risk":7,"frizz_risk":0,"updated_at":"2026-02-26T18:43:43.120637+05:30"},{"city":"Belgaum","state":"Karnataka","latitude":15.8497,"longitude":74.4977,"temp":27.3,"humidity":35,"rain":0.0,"pressure":925.0,"uv_index":8.45,"aqi":60,"mosquito_risk":4,"arthritis_risk":5,"migraine_risk":7,"frizz_risk":0,"updated_at":"2026-02-26T18:43:46.365384+05:30"},{"city":"Coimbatore","state":"Tamil Nadu","latitude":11.0168,"longitude":76.9558,"temp":24.2,"humidity":75,"rain":0.1,"pressure":961.0,"uv_index":8.9,"aqi":115,"mosquito_risk":6,"arthritis_risk":5,"migraine_risk":7,"frizz_risk":1,"updated_at":"2026-02-26T18:43:46.365413+05:30"},{"city":"Madurai","state":"Tamil Nadu","latitude":9.9252,"longitude":78.1198,"temp":29.9,"humidity":54,"rain":0.0,"pressure":992.7,"uv_index":8.0,"aqi":136,"mosquito_risk":4,"arthritis_risk":5,"migraine_risk":7,"frizz_risk":1,"updated_at":"2026-02-26T18:43:46.365422+05:30"},{"city":"Trichy","state":"Tamil Nadu","latitude":10.7905,"longitude":78.7047,"temp":30.8,"humidity":48,"rain":0.0,"pressure":999.0,"uv_index":7.25,"aqi":112,"mosquito_risk":0,"arthritis_risk":5,"migraine_risk":7,"frizz_risk":1,"updated_at":"2026-02-26T18:43:46.365430+05:30"},{"city":"Salem","state":"Tamil Nadu","latitude":11.6643,"longitude":78.146,"temp":30.1,"humidity":51,"rain":0.0,"pressure":976.4,"uv_index":8.7,"aqi":148,"mosquito_risk":0,"arthritis_risk":5,"migraine_risk":7,"frizz_risk":1,"updated_at":"2026-02-26T18:43:46.365437+05:30"},{"city":"Tirunelveli","state":"Tamil Nadu","latitude":8.7139,"longitude":77.7567,"temp":28.6,"humidity":72,"rain":0.0,"pressure":1002.8,"uv_index":8.95,"aqi":126,"mosquito_risk":7,"arthritis_risk":5,"migraine_risk":4,"frizz_risk":1,"updated_at":"2026-02-26T18:43:46.365444+05:30"},{"city":"Vellore","state":"Tamil Nadu","latitude":12.9165,"longitude":79.1325,"temp":29.3,"humidity":40,"rain":0.0,"pressure":983.8,"uv_index":8.6,"aqi":113,"mosquito_risk":4,"arthritis_risk":5,"migraine_risk":7,"frizz_risk":0,"updated_at":"2026-02-26T18:43:46.365452+05:30"},{"city":"Erode","state":"Tamil Nadu","latitude":11.341,"longitude":77.7172,"temp":31.0,"humidity":47,"rain":0.0,"pressure":987.8,"uv_index":7.95,"aqi":148,"mosquito_risk":0,"arthritis_risk":5,"migraine_risk":7,"frizz_risk":1,"updated_at":"2026-02-26T18:43:46.365458+05:30"},{"city":"Kochi","state":"Kerala","latitude":9.9312,"longitude":76.2673,"temp":28.6,"humidity":78,"rain":0.0,"pressure":1007.6,"uv_index":8.7,"aqi":113,"mosquito_risk":7,"arthritis_risk":5,"migraine_risk":4,"frizz_risk":1,"updated_at":"2026-02-26T18:43:46.365465+05:30"},{"city":"Thiruvananthapuram","state":"Kerala","latitude":8.5241,"longitude":76.9366,"temp":28.4,"humidity":79,"rain":0.0,"pressure":1007.2,"uv_index":8.75,"aqi":89,"mosquito_risk":7,"arthritis_risk":5,"migraine_risk":4,"frizz_risk":1,"updated_at":"2026-02-26T18:43:46.365471+05:30"},{"city":"Kozhikode","state":"Kerala","latitude":11.2588,"longitude":75.7804,"temp":29.1,"humidity":70,"rain":0.0,"pressure":1006.7,"uv_index":8.6,"aqi":101,"mosquito_risk":7,"arthritis_risk":5,"migraine_risk":4,"frizz_risk":1,"updated_at":"2026-02-26T18:43:46.365477+05:30"},{"city":"Thrissur","state":"Kerala","latitude":10.5276,"longitude":76.2144,"temp":28.8,"humidity":74,"rain":0.0,"pressure":1006.0,"uv_index":8.7,"aqi":99,"mosquito_risk":7,"arthritis_risk":5,"migraine_risk":4,"frizz_risk":1,"updated_at":"2026-02-26T18:43:46.365485+05:30"},{"city":"Kannur","state":"Kerala","latitude":11.8745,"longitude":75.3704,"temp":29.0,"humidity":66,"rain":0.0,"pressure":1006.2,"uv_index":8.6,"aqi":109,"mosquito_risk":7,"arthritis_risk":5,"migraine_risk":4,"frizz_risk":1,"updated_at":"2026-02-26T18:43:46.365491+05:30"},{"city":"Patna","state":"Bihar","latitude":25.5941,"longitude":85.1376,"temp":24.1,"humidity":47,"rain":0.0,"pressure":1001.6,"uv_index":6.85,"aqi":155,"mosquito_risk":0,"arthritis_risk":5,"migraine_risk":4,"frizz_risk":0,"updated_at":"2026-02-26T18:43:46.365498+05:30"},{"city":"Gaya","state":"Bihar","latitude":24.7914,"longitude":85.0002,"temp":23.3,"humidity":51,"rain":0.0,"pressure":995.1,"uv_index":6.95,"aqi":141,"mosquito_risk":0,"arthritis_risk":5,"migraine_risk":7,"frizz_risk":0,"updated_at":"2026-02-26T18:43:46.365505+05:30"},{"city":"Muzaffarpur","state":"Bihar","latitude":26.1209,"longitude":85.3647,"temp":23.1,"humidity":49,"rain":0.0,"pressure":1001.3,"uv_index":6.8,"aqi":158,"mosquito_risk":0,"arthritis_risk":5,"migraine_risk":4,"frizz_risk":0,"updated_at":"2026-02-26T18:43:46.365510+05:30"},{"city":"Bhagalpur","state":"Bihar","latitude":25.2425,"longitude":87.0117,"temp":22.9,"humidity":56,"rain":0.0,"pressure":1002.2,"uv_index":6.9,"aqi":151,"mosquito_risk":0,"arthritis_risk":5,"migraine_risk":4,"frizz_risk":0,"updated_at":"2026-02-26T18:43:46.365517+05:30"},{"city":"Ranchi","state":"Jharkhand","latitude":23.3441,"longitude":85.3096,"temp":20.8,"humidity":32,"rain":0.0,"pressure":937.9,"uv_index":7.6,"aqi":119,"mosquito_risk":0,"arthritis_risk":5,"migraine_risk":7,"frizz_risk":0,"updated_at":"2026-02-26T18:43:46.365523+05:30"},{"city":"Jamshedpur","state":"Jharkhand","latitude":22.8046,"longitude":86.2029,"temp":26.0,"humidity":31,"rain":0.0,"pressure":991.4,"uv_index":7.5,"aqi":142,"mosquito_risk":4,"arthritis_risk":5,"migraine_risk":7,"frizz_risk":0,"updated_at":"2026-02-26T18:43:46.365529+05:30"},{"city":"Dhanbad","state":"Jharkhand","latitude":23.7957,"longitude":86.4304,"temp":26.0,"humidity":24,"rain":0.0,"pressure":980.5,"uv_index":7.35,"aqi":139,"mosquito_risk":4,"arthritis_risk":5,"migraine_risk":7,"frizz_risk":0,"updated_at":"2026-02-26T18:43:46.365536+05:30"},{"city":"Bokaro","state":"Jharkhand","latitude":23.6693,"longitude":86.1511,"temp":23.9,"humidity":28,"rain":0.0,"pressure":984.6,"uv_index":7.4,"aqi":141,"mosquito_risk":0,"arthritis_risk":5,"migraine_risk":7,"frizz_risk":0,"updated_at":"2026-02-26T18:43:46.365542+05:30"},{"city":"Bhubaneswar","state":"Odisha","latitude":20.2961,"longitude":85.8245,"temp":28.5,"humidity":36,"rain":0.0,"pressure":1002.6,"uv_index":7.8,"aqi":150,"mosquito_risk":4,"arthritis_risk":5,"migraine_risk":4,"frizz_risk":0,"updated_at":"2026-02-26T18:43:46.365548+05:30"},{"city":"Cuttack","state":"Odisha","latitude":20.4625,"longitude":85.8828,"temp":28.3,"humidity":33,"rain":0.0,"pressure":1004.2,"uv_index":7.85,"aqi":150,"mosquito_risk":4,"arthritis_risk":5,"migraine_risk":4,"frizz_risk":0,"updated_at":"2026-02-26T18:43:46.365555+05:30"},{"city":"Rourkela","state":"Odisha","latitude":22.2604,"longitude":84.8536,"temp":27.0,"humidity":33,"rain":0.0,"pressure":985.4,"uv_index":7.4,"aqi":119,"mosquito_risk":4,"arthritis_risk":5,"migraine_risk":7,"frizz_risk":0,"updated_at":"2026-02-26T18:43:46.365561+05:30"},{"city":"Raipur","state":"Chhattisgarh","latitude":21.2514,"longitude":81.6296,"temp":27.8,"humidity":35,"rain":0.0,"pressure":975.4,"uv_index":7.5,"aqi":145,"mosquito_risk":4,"arthritis_risk":5,"migraine_risk":7,"frizz_risk":0,"updated_at":"2026-02-26T18:43:46.365568+05:30"},{"city":"Bhilai","state":"Chhattisgarh","latitude":21.1938,"longitude":81.3509,"temp":27.6,"humidity":40,"rain":0.0,"pressure":975.6,"uv_index":7.5,"aqi":141,"mosquito_risk":4,"arthritis_risk":5,"migraine_risk":7,"frizz_risk":0,"updated_at":"2026-02-26T18:43:46.365574+05:30"},{"city":"Guwahati","state":"Assam","latitude":26.1158,"longitude":91.7086,"temp":24.3,"humidity":61,"rain":0.0,"pressure":1001.6,"uv_index":6.8,"aqi":151,"mosquito_risk":3,"arthritis_risk":5,"migraine_risk":4,"frizz_risk":1,"updated_at":"2026-02-26T18:43:46.365580+05:30"},{"city":"Agartala","state":"Tripura","latitude":23.8315,"longitude":91.2868,"temp":22.7,"humidity":60,"rain":0.0,"pressure":1006.3,"uv_index":7.2,"aqi":173,"mosquito_risk":0,"arthritis_risk":5,"migraine_risk":4,"frizz_risk":0,"updated_at":"2026-02-26T18:43:46.365587+05:30"},{"city":"Shillong","state":"Meghalaya","latitude":25.5788,"longitude":91.8933,"temp":10.4,"humidity":75,"rain":0.0,"pressure":853.0,"uv_index":4.7,"aqi":132,"mosquito_risk":3,"arthritis_risk":5,"migraine_risk":3,"frizz_risk":0,"updated_at":"2026-02-26T18:43:46.365593+05:30"},{"city":"Imphal","state":"Manipur","latitude":24.817,"longitude":93.9368,"temp":15.8,"humidity":59,"rain":0.0,"pressure":921.6,"uv_index":7.4,"aqi":150,"mosquito_risk":0,"arthritis_risk":5,"migraine_risk":7,"frizz_risk":0,"updated_at":"2026-02-26T18:43:46.365599+05:30"},{"city":"Aizawl","state":"Mizoram","latitude":23.7271,"longitude":92.7176,"temp":16.5,"humidity":61,"rain":0.0,"pressure":890.8,"uv_index":7.35,"aqi":149,"mosquito_risk":3,"arthritis_risk":5,"migraine_risk":7,"frizz_risk":0,"updated_at":"2026-02-26T18:43:46.365608+05:30"},{"city":"Kohima","state":"Nagaland","latitude":25.6701,"longitude":94.1077,"temp":11.5,"humidity":91,"rain":0.0,"pressure":852.1,"uv_index":7.25,"aqi":140,"mosquito_risk":3,"arthritis_risk":10,"migraine_risk":7,"frizz_risk":0,"updated_at":"2026-02-26T18:43:46.365615+05:30"},{"city":"Gangtok","state":"Sikkim","latitude":27.3314,"longitude":88.6138,"temp":12.2,"humidity":77,"rain":0.0,"pressure":834.6,"uv_index":5.05,"aqi":151,"mosquito_risk":3,"arthritis_risk":5,"migraine_risk":3,"frizz_risk":0,"updated_at":"2026-02-26T18:43:46.365622+05:30"},{"city":"Siliguri","state":"West Bengal","latitude":26.7271,"longitude":88.3953,"temp":18.7,"humidity":70,"rain":0.0,"pressure":994.3,"uv_index":6.85,"aqi":162,"mosquito_risk":3,"arthritis_risk":5,"migraine_risk":7,"frizz_risk":0,"updated_at":"2026-02-26T18:43:49.612602+05:30"},{"city":"Durgapur","state":"West Bengal","latitude":23.5204,"longitude":87.3119,"temp":26.6,"humidity":37,"rain":0.0,"pressure":995.5,"uv_index":7.35,"aqi":132,"mosquito_risk":4,"arthritis_risk":5,"migraine_risk":7,"frizz_risk":0,"updated_at":"2026-02-26T18:43:49.612632+05:30"},{"city":"Asansol","state":"West Bengal","latitude":23.6739,"longitude":86.9524,"temp":26.8,"humidity":32,"rain":0.0,"pressure":994.0,"uv_index":7.35,"aqi":121,"mosquito_risk":4,"arthritis_risk":5,"migraine_risk":7,"frizz_risk":0,"updated_at":"2026-02-26T18:43:49.612640+05:30"},{"city":"Pondicherry","state":"Puducherry","latitude":11.9139,"longitude":79.8145,"temp":27.1,"humidity":74,"rain":0.0,"pressure":1008.5,"uv_index":8.6,"aqi":75,"mosquito_risk":7,"arthritis_risk":0,"migraine_risk":4,"frizz_risk":1,"updated_at":"2026-02-26T18:43:49.612648+05:30"},{"city":"Port Blair","state":"Andaman and Nicobar Islands","latitude":11.6234,"longitude":92.7265,"temp":27.7,"humidity":78,"rain":0.0,"pressure":1005.2,"uv_index":8.65,"aqi":32,"mosquito_risk":7,"arthritis_risk":5,"migraine_risk":4,"frizz_risk":1,"updated_at":"2026-02-26T18:43:49.612655+05:30"},{"city":"Haridwar","state":"Uttarakhand","latitude":29.9457,"longitude":78.1642,"temp":22.6,"humidity":50,"rain":0.0,"pressure":973.8,"uv_index":5.3,"aqi":158,"mosquito_risk":0,"arthritis_risk":5,"migraine_risk":3,"frizz_risk":0,"updated_at":"2026-02-26T18:43:49.612662+05:30"},{"city":"Rishikesh","state":"Uttarakhand","latitude":30.0869,"longitude":78.2676,"temp":21.7,"humidity":50,"rain":0.0,"pressure":966.4,"uv_index":5.35,"aqi":159,"mosquito_risk":0,"arthritis_risk":5,"migraine_risk":3,"frizz_risk":0,"updated_at":"2026-02-26T18:43:49.612669+05:30"},{"city":"Nainital","state":"Uttarakhand","latitude":29.3919,"longitude":79.4542,"temp":15.4,"humidity":53,"rain":0.0,"pressure":803.6,"uv_index":6.15,"aqi":154,"mosquito_risk":0,"arthritis_risk":5,"migraine_risk":7,"frizz_risk":0,"updated_at":"2026-02-26T18:43:49.612675+05:30"},{"city":"Mussoorie","state":"Uttarakhand","latitude":30.4599,"longitude":78.0664,"temp":14.0,"humidity":59,"rain":0.0,"pressure":799.7,"uv_index":5.7,"aqi":160,"mosquito_risk":0,"arthritis_risk":5,"migraine_risk":3,"frizz_risk":0,"updated_at":"2026-02-26T18:43:49.612682+05:30"},{"city":"Dharamshala","state":"Himachal Pradesh","latitude":32.219,"longitude":76.3234,"temp":17.1,"humidity":66,"rain":0.0,"pressure":867.5,"uv_index":5.95,"aqi":135,"mosquito_risk":3,"arthritis_risk":5,"migraine_risk":3,"frizz_risk":0,"updated_at":"2026-02-26T18:43:49.612688+05:30"},{"city":"Dalhousie","state":"Himachal Pradesh","latitude":32.5387,"longitude":75.971,"temp":14.9,"humidity":59,"rain":0.0,"pressure":802.0,"uv_index":6.15,"aqi":136,"mosquito_risk":0,"arthritis_risk":5,"migraine_risk":7,"frizz_risk":0,"updated_at":"2026-02-26T18:43:49.612696+05:30"},{"city":"Patiala","state":"Punjab","latitude":30.3398,"longitude":76.3869,"temp":21.9,"humidity":68,"rain":0.0,"pressure":978.4,"uv_index":5.35,"aqi":164,"mosquito_risk":3,"arthritis_risk":5,"migraine_risk":3,"frizz_risk":0,"updated_at":"2026-02-26T18:43:49.612702+05:30"},{"city":"Bhatinda","state":"Punjab","latitude":30.211,"longitude":74.9455,"temp":24.3,"humidity":59,"rain":0.0,"pressure":984.0,"uv_index":6.05,"aqi":161,"mosquito_risk":0,"arthritis_risk":5,"migraine_risk":7,"frizz_risk":0,"updated_at":"2026-02-26T18:43:49.612708+05:30"},{"city":"Rohtak","state":"Haryana","latitude":28.8955,"longitude":76.6066,"temp":23.0,"humidity":54,"rain":0.0,"pressure":982.1,"uv_index":5.55,"aqi":156,"mosquito_risk":0,"arthritis_risk":5,"migraine_risk":3,"frizz_risk":0,"updated_at":"2026-02-26T18:43:49.612714+05:30"},{"city":"Panipat","state":"Haryana","latitude":29.3909,"longitude":76.9635,"temp":22.2,"humidity":64,"rain":0.0,"pressure":980.6,"uv_index":5.35,"aqi":159,"mosquito_risk":3,"arthritis_risk":5,"migraine_risk":3,"frizz_risk":0,"updated_at":"2026-02-26T18:43:49.612720+05:30"},{"city":"Mathura","state":"Uttar Pradesh","latitude":27.4924,"longitude":77.6737,"temp":25.3,"humidity":46,"rain":0.0,"pressure":987.5,"uv_index":5.8,"aqi":153,"mosquito_risk":4,"arthritis_risk":5,"migraine_risk":3,"frizz_risk":0,"updated_at":"2026-02-26T18:43:49.612726+05:30"},{"city":"Vrindavan","state":"Uttar Pradesh","latitude":27.5823,"longitude":77.7027,"temp":24.7,"humidity":51,"rain":0.0,"pressure":988.0,"uv_index":5.75,"aqi":153,"mosquito_risk":0,"arthritis_risk":5,"migraine_risk":3,"frizz_risk":0,"updated_at":"2026-02-26T18:43:49.612732+05:30"},{"city":"Ayodhya","state":"Uttar Pradesh","latitude":26.7922,"longitude":82.1998,"temp":23.6,"humidity":48,"rain":0.0,"pressure":996.1,"uv_index":6.15,"aqi":150,"mosquito_risk":0,"arthritis_risk":5,"migraine_risk":7,"frizz_risk":0,"updated_at":"2026-02-26T18:43:49.612738+05:30"},{"city":"Ratlam","state":"Madhya Pradesh","latitude":23.3315,"longitude":75.0367,"temp":26.8,"humidity":46,"rain":0.0,"pressure":954.7,"uv_index":7.1,"aqi":86,"mosquito_risk":4,"arthritis_risk":5,"migraine_risk":7,"frizz_risk":0,"updated_at":"2026-02-26T18:43:49.612745+05:30"},{"city":"Sagar","state":"Madhya Pradesh","latitude":23.8388,"longitude":78.7378,"temp":26.6,"humidity":46,"rain":0.0,"pressure":950.7,"uv_index":7.0,"aqi":85,"mosquito_risk":4,"arthritis_risk":5,"migraine_risk":7,"frizz_risk":0,"updated_at":"2026-02-26T18:43:49.612752+05:30"},{"city":"Satna","state":"Madhya Pradesh","latitude":24.6005,"longitude":80.8322,"temp":25.4,"humidity":30,"rain":0.0,"pressure":972.1,"uv_index":6.95,"aqi":109,"mosquito_risk":4,"arthritis_risk":5,"migraine_risk":7,"frizz_risk":0,"updated_at":"2026-02-26T18:43:49.612789+05:30"},{"city":"Akola","state":"Maharashtra","latitude":20.7002,"longitude":77.0082,"temp":31.4,"humidity":29,"rain":0.0,"pressure":974.6,"uv_index":7.5,"aqi":133,"mosquito_risk":0,"arthritis_risk":5,"migraine_risk":7,"frizz_risk":0,"updated_at":"2026-02-26T18:43:49.612797+05:30"},{"city":"Amravati","state":"Maharashtra","latitude":20.9374,"longitude":77.7796,"temp":30.5,"humidity":31,"rain":0.0,"pressure":967.0,"uv_index":7.45,"aqi":130,"mosquito_risk":0,"arthritis_risk":5,"migraine_risk":7,"frizz_risk":0,"updated_at":"2026-02-26T18:43:49.612805+05:30"},{"city":"Latur","state":"Maharashtra","latitude":18.4088,"longitude":76.5604,"temp":28.1,"humidity":37,"rain":0.0,"pressure":939.3,"uv_index":7.9,"aqi":120,"mosquito_risk":4,"arthritis_risk":5,"migraine_risk":7,"frizz_risk":0,"updated_at":"2026-02-26T18:43:49.612812+05:30"},{"city":"Nanded","state":"Maharashtra","latitude":19.1383,"longitude":77.3091,"temp":29.3,"humidity":42,"rain":0.0,"pressure":968.2,"uv_index":7.7,"aqi":154,"mosquito_risk":4,"arthritis_risk":5,"migraine_risk":7,"frizz_risk":0,"updated_at":"2026-02-26T18:43:49.612818+05:30"},{"city":"Gulbarga","state":"Karnataka","latitude":17.3297,"longitude":76.8343,"temp":29.9,"humidity":29,"rain":0.0,"pressure":958.0,"uv_index":8.0,"aqi":141,"mosquito_risk":4,"arthritis_risk":5,"migraine_risk":7,"frizz_risk":0,"updated_at":"2026-02-26T18:43:49.612824+05:30"},{"city":"Bidar","state":"Karnataka","latitude":17.9104,"longitude":77.5199,"temp":28.2,"humidity":41,"rain":0.0,"pressure":935.0,"uv_index":7.95,"aqi":153,"mosquito_risk":4,"arthritis_risk":5,"migraine_risk":7,"frizz_risk":0,"updated_at":"2026-02-26T18:43:49.612831+05:30"},{"city":"Hospet","state":"Karnataka","latitude":15.2689,"longitude":76.3909,"temp":31.7,"humidity":30,"rain":0.0,"pressure":954.9,"uv_index":8.35,"aqi":146,"mosquito_risk":0,"arthritis_risk":5,"migraine_risk":7,"frizz_risk":0,"updated_at":"2026-02-26T18:43:49.612838+05:30"},{"city":"Tirupur","state":"Tamil Nadu","latitude":11.1085,"longitude":77.3411,"temp":28.3,"humidity":56,"rain":0.0,"pressure":974.4,"uv_index":8.0,"aqi":141,"mosquito_risk":4,"arthritis_risk":5,"migraine_risk":7,"frizz_risk":1,"updated_at":"2026-02-26T18:43:49.612844+05:30"},{"city":"Alappuzha","state":"Kerala","latitude":9.4981,"longitude":76.3388,"temp":28.6,"humidity":78,"rain":0.0,"pressure":1007.7,"uv_index":8.8,"aqi":133,"mosquito_risk":7,"arthritis_risk":5,"migraine_risk":4,"frizz_risk":1,"updated_at":"2026-02-26T18:43:49.612851+05:30"},{"city":"Munnar","state":"Kerala","latitude":10.0889,"longitude":77.0595,"temp":21.8,"humidity":85,"rain":0.0,"pressure":856.5,"uv_index":7.5,"aqi":96,"mosquito_risk":3,"arthritis_risk":5,"migraine_risk":7,"frizz_risk":1,"updated_at":"2026-02-26T18:43:49.612857+05:30"},{"city":"Silchar","state":"Assam","latitude":24.8333,"longitude":92.7789,"temp":24.0,"humidity":59,"rain":0.0,"pressure":1004.7,"uv_index":7.15,"aqi":159,"mosquito_risk":0,"arthritis_risk":5,"migraine_risk":4,"frizz_risk":0,"updated_at":"2026-02-26T18:43:49.612863+05:30"},{"city":"Dibrugarh","state":"Assam","latitude":27.4728,"longitude":94.912,"temp":23.7,"humidity":70,"rain":0.0,"pressure":995.9,"uv_index":6.9,"aqi":128,"mosquito_risk":3,"arthritis_risk":5,"migraine_risk":7,"frizz_risk":1,"updated_at":"2026-02-26T18:43:49.612870+05:30"}]