[{"city":"Delhi","state":"Delhi","latitude":28.6139,"longitude":77.209,"temp":30.6,"humidity":54,"rain":0.0,"pressure":979.7,"uv_index":7.8,"wind_gusts":38.2,"aqi":609,"pm10":499.2,"pm2_5":139.2,"no2":28.4,"co":499.0,"o3":54.0,"so2":17.0,"mosquito_risk":0,"arthritis_risk":5,"migraine_risk":7,"frizz_risk":1,"updated_at":"2026-06-20T05:41:31.411268+05:30"},{"city":"Mumbai","state":"Maharashtra","latitude":19.076,"longitude":72.8777,"temp":29.4,"humidity":67,"rain":0.0,"pressure":1007.8,"uv_index":7.75,"wind_gusts":43.2,"aqi":54,"pm10":21.3,"pm2_5":11.7,"no2":9.1,"co":141.0,"o3":40.0,"so2":8.7,"mosquito_risk":7,"arthritis_risk":5,"migraine_risk":4,"frizz_risk":1,"updated_at":"2026-06-20T05:41:31.411305+05:30"},{"city":"Bangalore","state":"Karnataka","latitude":12.9716,"longitude":77.5946,"temp":20.4,"humidity":97,"rain":0.0,"pressure":910.9,"uv_index":8.05,"wind_gusts":34.9,"aqi":57,"pm10":22.0,"pm2_5":16.1,"no2":23.3,"co":422.0,"o3":28.0,"so2":7.3,"mosquito_risk":3,"arthritis_risk":5,"migraine_risk":7,"frizz_risk":1,"updated_at":"2026-06-20T05:41:31.411321+05:30"},{"city":"Hyderabad","state":"Telangana","latitude":17.385,"longitude":78.4867,"temp":28.4,"humidity":51,"rain":0.0,"pressure":952.5,"uv_index":8.25,"wind_gusts":37.1,"aqi":66,"pm10":23.5,"pm2_5":18.9,"no2":16.1,"co":345.0,"o3":51.0,"so2":9.9,"mosquito_risk":4,"arthritis_risk":5,"migraine_risk":7,"frizz_risk":1,"updated_at":"2026-06-20T05:41:31.411330+05:30"},{"city":"Chennai","state":"Tamil Nadu","latitude":13.0827,"longitude":80.2707,"temp":26.4,"humidity":83,"rain":0.0,"pressure":1005.9,"uv_index":7.7,"wind_gusts":42.5,"aqi":90,"pm10":32.6,"pm2_5":27.5,"no2":14.1,"co":257.0,"o3":71.0,"so2":13.0,"mosquito_risk":7,"arthritis_risk":5,"migraine_risk":4,"frizz_risk":1,"updated_at":"2026-06-20T05:41:31.411338+05:30"},{"city":"Kolkata","state":"West Bengal","latitude":22.5726,"longitude":88.3639,"temp":27.4,"humidity":90,"rain":0.0,"pressure":1003.4,"uv_index":8.25,"wind_gusts":32.4,"aqi":160,"pm10":109.4,"pm2_5":105.0,"no2":25.2,"co":402.0,"o3":50.0,"so2":14.4,"mosquito_risk":7,"arthritis_risk":5,"migraine_risk":4,"frizz_risk":1,"updated_at":"2026-06-20T05:41:31.411346+05:30"},{"city":"Pune","state":"Maharashtra","latitude":18.5204,"longitude":73.8567,"temp":23.3,"humidity":85,"rain":0.0,"pressure":947.7,"uv_index":8.2,"wind_gusts":43.9,"aqi":44,"pm10":11.9,"pm2_5":8.6,"no2":11.2,"co":134.0,"o3":30.0,"so2":9.3,"mosquito_risk":3,"arthritis_risk":5,"migraine_risk":7,"frizz_risk":1,"updated_at":"2026-06-20T05:41:31.411353+05:30"},{"city":"Ahmedabad","state":"Gujarat","latitude":23.0225,"longitude":72.5714,"temp":29.7,"humidity":67,"rain":0.0,"pressure":1000.7,"uv_index":8.05,"wind_gusts":40.3,"aqi":71,"pm10":36.4,"pm2_5":18.6,"no2":6.1,"co":131.0,"o3":37.0,"so2":4.9,"mosquito_risk":7,"arthritis_risk":5,"migraine_risk":4,"frizz_risk":1,"updated_at":"2026-06-20T05:41:31.411359+05:30"},{"city":"Jaipur","state":"Rajasthan","latitude":26.9124,"longitude":75.7873,"temp":27.1,"humidity":69,"rain":0.0,"pressure":957.2,"uv_index":8.25,"wind_gusts":35.6,"aqi":128,"pm10":161.1,"pm2_5":44.2,"no2":8.0,"co":147.0,"o3":43.0,"so2":4.0,"mosquito_risk":7,"arthritis_risk":5,"migraine_risk":7,"frizz_risk":1,"updated_at":"2026-06-20T05:41:31.411366+05:30"},{"city":"Lucknow","state":"Uttar Pradesh","latitude":26.8467,"longitude":80.9462,"temp":30.9,"humidity":51,"rain":0.0,"pressure":989.0,"uv_index":8.35,"wind_gusts":38.5,"aqi":153,"pm10":215.1,"pm2_5":83.4,"no2":19.6,"co":239.0,"o3":69.0,"so2":14.0,"mosquito_risk":0,"arthritis_risk":5,"migraine_risk":7,"frizz_risk":1,"updated_at":"2026-06-20T05:41:31.411378+05:30"},{"city":"Kanpur","state":"Uttar Pradesh","latitude":26.4499,"longitude":80.3319,"temp":32.1,"humidity":43,"rain":0.0,"pressure":987.7,"uv_index":8.35,"wind_gusts":38.5,"aqi":157,"pm10":448.0,"pm2_5":90.8,"no2":16.2,"co":202.0,"o3":48.0,"so2":6.8,"mosquito_risk":0,"arthritis_risk":5,"migraine_risk":7,"frizz_risk":1,"updated_at":"2026-06-20T05:41:31.411384+05:30"},{"city":"Chandigarh","state":"Chandigarh","latitude":30.7333,"longitude":76.7794,"temp":25.3,"humidity":70,"rain":0.0,"pressure":965.0,"uv_index":7.8,"wind_gusts":34.9,"aqi":140,"pm10":79.9,"pm2_5":72.2,"no2":38.1,"co":430.0,"o3":25.0,"so2":7.0,"mosquito_risk":7,"arthritis_risk":5,"migraine_risk":7,"frizz_risk":1,"updated_at":"2026-06-20T05:41:31.411391+05:30"},{"city":"Srinagar","state":"Jammu and Kashmir","latitude":34.0837,"longitude":74.7973,"temp":13.8,"humidity":100,"rain":0.0,"pressure":841.8,"uv_index":9.0,"wind_gusts":29.5,"aqi":73,"pm10":16.8,"pm2_5":15.0,"no2":18.5,"co":453.0,"o3":26.0,"so2":2.1,"mosquito_risk":3,"arthritis_risk":10,"migraine_risk":7,"frizz_risk":0,"updated_at":"2026-06-20T05:41:31.411398+05:30"},{"city":"Jammu","state":"Jammu and Kashmir","latitude":32.7266,"longitude":74.857,"temp":22.3,"humidity":77,"rain":0.0,"pressure":969.4,"uv_index":8.65,"wind_gusts":35.3,"aqi":106,"pm10":41.3,"pm2_5":38.5,"no2":38.1,"co":328.0,"o3":6.0,"so2":2.3,"mosquito_risk":3,"arthritis_risk":5,"migraine_risk":7,"frizz_risk":1,"updated_at":"2026-06-20T05:41:31.411405+05:30"},{"city":"Amritsar","state":"Punjab","latitude":31.634,"longitude":74.8723,"temp":25.5,"humidity":85,"rain":0.0,"pressure":977.4,"uv_index":8.45,"wind_gusts":28.1,"aqi":156,"pm10":149.5,"pm2_5":132.2,"no2":93.2,"co":514.0,"o3":2.0,"so2":15.4,"mosquito_risk":7,"arthritis_risk":5,"migraine_risk":7,"frizz_risk":1,"updated_at":"2026-06-20T05:41:31.411411+05:30"},{"city":"Ludhiana","state":"Punjab","latitude":30.901,"longitude":75.8573,"temp":26.8,"humidity":76,"rain":0.0,"pressure":975.5,"uv_index":8.05,"wind_gusts":36.7,"aqi":143,"pm10":73.8,"pm2_5":65.9,"no2":31.0,"co":684.0,"o3":44.0,"so2":8.4,"mosquito_risk":7,"arthritis_risk":5,"migraine_risk":7,"frizz_risk":1,"updated_at":"2026-06-20T05:41:31.411417+05:30"},{"city":"Jalandhar","state":"Punjab","latitude":31.326,"longitude":75.5762,"temp":26.1,"humidity":80,"rain":0.0,"pressure":976.4,"uv_index":8.2,"wind_gusts":35.3,"aqi":151,"pm10":97.6,"pm2_5":86.6,"no2":51.1,"co":757.0,"o3":22.0,"so2":8.2,"mosquito_risk":7,"arthritis_risk":5,"migraine_risk":7,"frizz_risk":1,"updated_at":"2026-06-20T05:41:31.411423+05:30"},{"city":"Dehradun","state":"Uttarakhand","latitude":30.6284,"longitude":78.0322,"temp":15.1,"humidity":97,"rain":0.0,"pressure":827.1,"uv_index":7.65,"wind_gusts":31.0,"aqi":75,"pm10":24.7,"pm2_5":18.9,"no2":24.4,"co":233.0,"o3":29.0,"so2":0.4,"mosquito_risk":3,"arthritis_risk":10,"migraine_risk":7,"frizz_risk":0,"updated_at":"2026-06-20T05:41:31.411430+05:30"},{"city":"Shimla","state":"Himachal Pradesh","latitude":31.1048,"longitude":77.1734,"temp":10.4,"humidity":96,"rain":0.0,"pressure":779.5,"uv_index":8.35,"wind_gusts":35.6,"aqi":87,"pm10":41.2,"pm2_5":30.9,"no2":20.0,"co":227.0,"o3":45.0,"so2":0.3,"mosquito_risk":3,"arthritis_risk":10,"migraine_risk":7,"frizz_risk":0,"updated_at":"2026-06-20T05:41:31.411437+05:30"},{"city":"Manali","state":"Himachal Pradesh","latitude":32.2396,"longitude":77.1887,"temp":13.7,"humidity":87,"rain":0.0,"pressure":816.7,"uv_index":9.6,"wind_gusts":41.0,"aqi":36,"pm10":2.0,"pm2_5":1.6,"no2":12.2,"co":155.0,"o3":94.0,"so2":0.0,"mosquito_risk":3,"arthritis_risk":10,"migraine_risk":7,"frizz_risk":0,"updated_at":"2026-06-20T05:41:31.411446+05:30"},{"city":"Gurgaon","state":"Haryana","latitude":28.4595,"longitude":77.0266,"temp":28.1,"humidity":66,"rain":0.0,"pressure":977.9,"uv_index":7.9,"wind_gusts":37.4,"aqi":780,"pm10":594.2,"pm2_5":134.6,"no2":42.0,"co":544.0,"o3":36.0,"so2":21.7,"mosquito_risk":7,"arthritis_risk":5,"migraine_risk":7,"frizz_risk":1,"updated_at":"2026-06-20T05:41:31.411452+05:30"},{"city":"Noida","state":"Uttar Pradesh","latitude":28.5355,"longitude":77.391,"temp":29.5,"humidity":63,"rain":0.0,"pressure":980.8,"uv_index":7.85,"wind_gusts":29.2,"aqi":780,"pm10":594.2,"pm2_5":134.6,"no2":42.0,"co":607.0,"o3":36.0,"so2":21.7,"mosquito_risk":7,"arthritis_risk":5,"migraine_risk":7,"frizz_risk":1,"updated_at":"2026-06-20T05:41:31.411459+05:30"},{"city":"Ghaziabad","state":"Uttar Pradesh","latitude":28.6692,"longitude":77.4538,"temp":27.8,"humidity":68,"rain":0.0,"pressure":979.1,"uv_index":7.8,"wind_gusts":35.3,"aqi":477,"pm10":452.6,"pm2_5":139.7,"no2":26.2,"co":532.0,"o3":57.0,"so2":16.6,"mosquito_risk":7,"arthritis_risk":5,"migraine_risk":7,"frizz_risk":1,"updated_at":"2026-06-20T05:41:31.411467+05:30"},{"city":"Faridabad","state":"Haryana","latitude":28.4089,"longitude":77.3178,"temp":30.4,"humidity":54,"rain":0.0,"pressure":980.2,"uv_index":7.85,"wind_gusts":38.9,"aqi":780,"pm10":594.2,"pm2_5":134.6,"no2":42.0,"co":636.0,"o3":36.0,"so2":21.7,"mosquito_risk":0,"arthritis_risk":5,"migraine_risk":7,"frizz_risk":1,"updated_at":"2026-06-20T05:41:31.411474+05:30"},{"city":"Meerut","state":"Uttar Pradesh","latitude":28.9845,"longitude":77.7064,"temp":27.8,"humidity":67,"rain":0.0,"pressure":977.6,"uv_index":7.75,"wind_gusts":36.7,"aqi":477,"pm10":452.6,"pm2_5":139.7,"no2":26.2,"co":609.0,"o3":57.0,"so2":16.6,"mosquito_risk":7,"arthritis_risk":5,"migraine_risk":7,"frizz_risk":1,"updated_at":"2026-06-20T05:41:31.411480+05:30"},{"city":"Agra","state":"Uttar Pradesh","latitude":27.1767,"longitude":78.0081,"temp":31.0,"humidity":52,"rain":0.0,"pressure":984.2,"uv_index":8.15,"wind_gusts":34.6,"aqi":592,"pm10":948.1,"pm2_5":129.0,"no2":13.1,"co":190.0,"o3":45.0,"so2":5.5,"mosquito_risk":0,"arthritis_risk":5,"migraine_risk":7,"frizz_risk":1,"updated_at":"2026-06-20T05:41:31.411486+05:30"},{"city":"Varanasi","state":"Uttar Pradesh","latitude":25.3176,"longitude":82.9739,"temp":30.4,"humidity":61,"rain":0.0,"pressure":993.1,"uv_index":8.8,"wind_gusts":37.1,"aqi":96,"pm10":38.0,"pm2_5":24.7,"no2":12.0,"co":253.0,"o3":68.0,"so2":7.5,"mosquito_risk":3,"arthritis_risk":5,"migraine_risk":7,"frizz_risk":1,"updated_at":"2026-06-20T05:41:31.411493+05:30"},{"city":"Prayagraj","state":"Uttar Pradesh","latitude":25.4358,"longitude":81.8463,"temp":32.6,"humidity":48,"rain":0.0,"pressure":991.5,"uv_index":8.75,"wind_gusts":37.1,"aqi":108,"pm10":46.7,"pm2_5":28.2,"no2":11.5,"co":198.0,"o3":60.0,"so2":7.2,"mosquito_risk":0,"arthritis_risk":5,"migraine_risk":7,"frizz_risk":1,"updated_at":"2026-06-20T05:41:31.411500+05:30"},{"city":"Gorakhpur","state":"Uttar Pradesh","latitude":26.7606,"longitude":83.3732,"temp":27.8,"humidity":85,"rain":0.0,"pressure":992.9,"uv_index":8.7,"wind_gusts":29.9,"aqi":159,"pm10":83.6,"pm2_5":71.7,"no2":16.2,"co":602.0,"o3":82.0,"so2":16.3,"mosquito_risk":7,"arthritis_risk":5,"migraine_risk":7,"frizz_risk":1,"updated_at":"2026-06-20T05:41:31.411506+05:30"},{"city":"Bareilly","state":"Uttar Pradesh","latitude":28.367,"longitude":79.4304,"temp":28.8,"humidity":64,"rain":0.0,"pressure":982.3,"uv_index":8.15,"wind_gusts":33.8,"aqi":153,"pm10":354.8,"pm2_5":120.6,"no2":24.8,"co":466.0,"o3":50.0,"so2":14.2,"mosquito_risk":7,"arthritis_risk":5,"migraine_risk":7,"frizz_risk":1,"updated_at":"2026-06-20T05:41:31.411515+05:30"},{"city":"Aligarh","state":"Uttar Pradesh","latitude":27.8974,"longitude":78.088,"temp":29.5,"humidity":58,"rain":0.0,"pressure":981.9,"uv_index":8.0,"wind_gusts":35.3,"aqi":481,"pm10":512.2,"pm2_5":139.7,"no2":39.7,"co":458.0,"o3":18.0,"so2":16.2,"mosquito_risk":4,"arthritis_risk":5,"migraine_risk":7,"frizz_risk":1,"updated_at":"2026-06-20T05:41:31.411521+05:30"},{"city":"Moradabad","state":"Uttar Pradesh","latitude":28.8386,"longitude":78.7733,"temp":28.8,"humidity":63,"rain":0.0,"pressure":979.5,"uv_index":7.95,"wind_gusts":39.2,"aqi":168,"pm10":403.3,"pm2_5":147.6,"no2":23.3,"co":580.0,"o3":51.0,"so2":12.8,"mosquito_risk":7,"arthritis_risk":5,"migraine_risk":7,"frizz_risk":1,"updated_at":"2026-06-20T05:41:31.411527+05:30"},{"city":"Saharanpur","state":"Uttar Pradesh","latitude":29.9637,"longitude":77.546,"temp":26.2,"humidity":76,"rain":0.0,"pressure":971.9,"uv_index":7.55,"wind_gusts":33.8,"aqi":162,"pm10":146.7,"pm2_5":95.7,"no2":46.9,"co":572.0,"o3":29.0,"so2":13.6,"mosquito_risk":7,"arthritis_risk":5,"migraine_risk":7,"frizz_risk":1,"updated_at":"2026-06-20T05:41:31.411533+05:30"},{"city":"Jhansi","state":"Uttar Pradesh","latitude":25.4484,"longitude":78.5685,"temp":29.7,"humidity":58,"rain":0.0,"pressure":975.1,"uv_index":8.4,"wind_gusts":38.2,"aqi":71,"pm10":31.3,"pm2_5":18.3,"no2":9.6,"co":170.0,"o3":55.0,"so2":12.8,"mosquito_risk":4,"arthritis_risk":5,"migraine_risk":7,"frizz_risk":1,"updated_at":"2026-06-20T05:41:34.646141+05:30"},{"city":"Surat","state":"Gujarat","latitude":21.1702,"longitude":72.8311,"temp":28.5,"humidity":77,"rain":0.0,"pressure":1005.8,"uv_index":7.6,"wind_gusts":46.4,"aqi":66,"pm10":27.9,"pm2_5":18.7,"no2":27.4,"co":355.0,"o3":21.0,"so2":45.1,"mosquito_risk":7,"arthritis_risk":5,"migraine_risk":4,"frizz_risk":1,"updated_at":"2026-06-20T05:41:34.646171+05:30"},{"city":"Vadodara","state":"Gujarat","latitude":22.3072,"longitude":73.1812,"temp":28.5,"humidity":77,"rain":0.0,"pressure":1003.1,"uv_index":8.05,"wind_gusts":39.6,"aqi":62,"pm10":25.4,"pm2_5":15.5,"no2":11.1,"co":128.0,"o3":30.0,"so2":9.3,"mosquito_risk":7,"arthritis_risk":5,"migraine_risk":4,"frizz_risk":1,"updated_at":"2026-06-20T05:41:34.646181+05:30"},{"city":"Rajkot","state":"Gujarat","latitude":22.3039,"longitude":70.8022,"temp":27.6,"humidity":75,"rain":0.0,"pressure":992.8,"uv_index":7.55,"wind_gusts":43.9,"aqi":63,"pm10":36.8,"pm2_5":15.9,"no2":5.1,"co":102.0,"o3":38.0,"so2":3.4,"mosquito_risk":7,"arthritis_risk":5,"migraine_risk":7,"frizz_risk":1,"updated_at":"2026-06-20T05:41:34.646189+05:30"},{"city":"Thane","state":"Maharashtra","latitude":19.2183,"longitude":72.9781,"temp":28.9,"humidity":69,"rain":0.0,"pressure":1007.1,"uv_index":7.7,"wind_gusts":41.0,"aqi":54,"pm10":21.3,"pm2_5":11.7,"no2":9.1,"co":161.0,"o3":40.0,"so2":8.7,"mosquito_risk":7,"arthritis_risk":5,"migraine_risk":4,"frizz_risk":1,"updated_at":"2026-06-20T05:41:34.646195+05:30"},{"city":"Nagpur","state":"Maharashtra","latitude":21.1458,"longitude":79.0882,"temp":30.4,"humidity":44,"rain":0.0,"pressure":971.6,"uv_index":8.9,"wind_gusts":43.2,"aqi":62,"pm10":23.4,"pm2_5":15.0,"no2":10.0,"co":194.0,"o3":64.0,"so2":9.5,"mosquito_risk":0,"arthritis_risk":5,"migraine_risk":7,"frizz_risk":1,"updated_at":"2026-06-20T05:41:34.646202+05:30"},{"city":"Nashik","state":"Maharashtra","latitude":19.9975,"longitude":73.7898,"temp":23.3,"humidity":88,"rain":0.0,"pressure":944.9,"uv_index":8.05,"wind_gusts":45.4,"aqi":45,"pm10":17.1,"pm2_5":11.4,"no2":12.7,"co":119.0,"o3":29.0,"so2":12.6,"mosquito_risk":3,"arthritis_risk":5,"migraine_risk":7,"frizz_risk":1,"updated_at":"2026-06-20T05:41:34.646209+05:30"},{"city":"Aurangabad","state":"Maharashtra","latitude":19.8762,"longitude":75.3433,"temp":25.7,"humidity":64,"rain":0.0,"pressure":944.1,"uv_index":9.0,"wind_gusts":39.6,"aqi":44,"pm10":13.6,"pm2_5":9.5,"no2":8.9,"co":123.0,"o3":39.0,"so2":7.3,"mosquito_risk":7,"arthritis_risk":5,"migraine_risk":7,"frizz_risk":1,"updated_at":"2026-06-20T05:41:34.646216+05:30"},{"city":"Solapur","state":"Maharashtra","latitude":17.6599,"longitude":75.9064,"temp":27.6,"humidity":59,"rain":0.0,"pressure":957.3,"uv_index":8.95,"wind_gusts":34.6,"aqi":53,"pm10":15.0,"pm2_5":10.4,"no2":6.9,"co":125.0,"o3":39.0,"so2":3.4,"mosquito_risk":4,"arthritis_risk":5,"migraine_risk":7,"frizz_risk":1,"updated_at":"2026-06-20T05:41:34.646223+05:30"},{"city":"Kolhapur","state":"Maharashtra","latitude":16.705,"longitude":74.2433,"temp":23.1,"humidity":89,"rain":0.0,"pressure":947.6,"uv_index":8.2,"wind_gusts":43.6,"aqi":49,"pm10":15.0,"pm2_5":10.7,"no2":8.2,"co":168.0,"o3":29.0,"so2":3.4,"mosquito_risk":3,"arthritis_risk":5,"migraine_risk":7,"frizz_risk":1,"updated_at":"2026-06-20T05:41:34.646230+05:30"},{"city":"Goa","state":"Goa","latitude":15.2993,"longitude":74.124,"temp":25.0,"humidity":88,"rain":0.0,"pressure":998.1,"uv_index":8.6,"wind_gusts":31.3,"aqi":60,"pm10":38.8,"pm2_5":31.2,"no2":15.1,"co":291.0,"o3":29.0,"so2":2.7,"mosquito_risk":7,"arthritis_risk":5,"migraine_risk":7,"frizz_risk":1,"updated_at":"2026-06-20T05:41:34.646237+05:30"},{"city":"Jodhpur","state":"Rajasthan","latitude":26.2389,"longitude":73.0243,"temp":29.4,"humidity":56,"rain":0.0,"pressure":980.5,"uv_index":8.4,"wind_gusts":36.7,"aqi":102,"pm10":162.5,"pm2_5":41.7,"no2":5.5,"co":109.0,"o3":47.0,"so2":2.6,"mosquito_risk":4,"arthritis_risk":5,"migraine_risk":7,"frizz_risk":1,"updated_at":"2026-06-20T05:41:34.646243+05:30"},{"city":"Udaipur","state":"Rajasthan","latitude":24.5854,"longitude":73.7125,"temp":25.1,"humidity":74,"rain":0.0,"pressure":944.6,"uv_index":8.85,"wind_gusts":30.6,"aqi":74,"pm10":35.2,"pm2_5":22.8,"no2":11.1,"co":126.0,"o3":36.0,"so2":9.3,"mosquito_risk":7,"arthritis_risk":5,"migraine_risk":7,"frizz_risk":1,"updated_at":"2026-06-20T05:41:34.646249+05:30"},{"city":"Kota","state":"Rajasthan","latitude":25.2138,"longitude":75.8648,"temp":28.2,"humidity":64,"rain":0.0,"pressure":976.3,"uv_index":8.4,"wind_gusts":29.5,"aqi":72,"pm10":33.1,"pm2_5":21.2,"no2":5.8,"co":156.0,"o3":66.0,"so2":4.5,"mosquito_risk":7,"arthritis_risk":5,"migraine_risk":7,"frizz_risk":1,"updated_at":"2026-06-20T05:41:34.646255+05:30"},{"city":"Bikaner","state":"Rajasthan","latitude":28.0229,"longitude":73.3119,"temp":29.0,"humidity":59,"rain":0.0,"pressure":978.5,"uv_index":8.5,"wind_gusts":30.2,"aqi":104,"pm10":71.0,"pm2_5":26.4,"no2":3.4,"co":110.0,"o3":48.0,"so2":2.2,"mosquito_risk":4,"arthritis_risk":5,"migraine_risk":7,"frizz_risk":1,"updated_at":"2026-06-20T05:41:34.646262+05:30"},{"city":"Ajmer","state":"Rajasthan","latitude":26.4499,"longitude":74.6399,"temp":27.0,"humidity":66,"rain":0.0,"pressure":952.3,"uv_index":8.4,"wind_gusts":41.8,"aqi":86,"pm10":38.8,"pm2_5":21.5,"no2":7.6,"co":149.0,"o3":48.0,"so2":4.3,"mosquito_risk":7,"arthritis_risk":5,"migraine_risk":7,"frizz_risk":1,"updated_at":"2026-06-20T05:41:34.646268+05:30"},{"city":"Gwalior","state":"Madhya Pradesh","latitude":26.2183,"longitude":78.1828,"temp":30.0,"humidity":57,"rain":0.0,"pressure":980.0,"uv_index":8.3,"wind_gusts":37.8,"aqi":87,"pm10":32.4,"pm2_5":20.1,"no2":7.1,"co":163.0,"o3":57.0,"so2":5.5,"mosquito_risk":4,"arthritis_risk":5,"migraine_risk":7,"frizz_risk":1,"updated_at":"2026-06-20T05:41:34.646274+05:30"},{"city":"Indore","state":"Madhya Pradesh","latitude":22.7196,"longitude":75.8577,"temp":26.1,"humidity":62,"rain":0.0,"pressure":947.4,"uv_index":7.9,"wind_gusts":40.0,"aqi":67,"pm10":26.1,"pm2_5":17.5,"no2":8.3,"co":210.0,"o3":48.0,"so2":11.2,"mosquito_risk":7,"arthritis_risk":5,"migraine_risk":7,"frizz_risk":1,"updated_at":"2026-06-20T05:41:34.646281+05:30"},{"city":"Bhopal","state":"Madhya Pradesh","latitude":23.2599,"longitude":77.4126,"temp":25.9,"humidity":70,"rain":0.0,"pressure":951.9,"uv_index":8.7,"wind_gusts":40.3,"aqi":66,"pm10":40.2,"pm2_5":26.4,"no2":7.8,"co":235.0,"o3":58.0,"so2":5.2,"mosquito_risk":7,"arthritis_risk":5,"migraine_risk":7,"frizz_risk":1,"updated_at":"2026-06-20T05:41:34.646287+05:30"},{"city":"Jabalpur","state":"Madhya Pradesh","latitude":23.1815,"longitude":79.9864,"temp":27.2,"humidity":64,"rain":0.0,"pressure":959.6,"uv_index":8.35,"wind_gusts":29.2,"aqi":62,"pm10":25.5,"pm2_5":20.4,"no2":10.1,"co":238.0,"o3":52.0,"so2":3.6,"mosquito_risk":7,"arthritis_risk":5,"migraine_risk":7,"frizz_risk":1,"updated_at":"2026-06-20T05:41:34.646293+05:30"},{"city":"Ujjain","state":"Madhya Pradesh","latitude":23.1765,"longitude":75.7885,"temp":24.7,"humidity":75,"rain":0.0,"pressure":952.8,"uv_index":7.85,"wind_gusts":36.0,"aqi":67,"pm10":25.8,"pm2_5":17.1,"no2":9.2,"co":192.0,"o3":39.0,"so2":12.1,"mosquito_risk":3,"arthritis_risk":5,"migraine_risk":7,"frizz_risk":1,"updated_at":"2026-06-20T05:41:34.646300+05:30"},{"city":"Visakhapatnam","state":"Andhra Pradesh","latitude":17.6868,"longitude":83.2185,"temp":28.0,"humidity":92,"rain":0.0,"pressure":1001.4,"uv_index":8.7,"wind_gusts":33.1,"aqi":100,"pm10":36.7,"pm2_5":31.5,"no2":34.3,"co":515.0,"o3":66.0,"so2":45.8,"mosquito_risk":7,"arthritis_risk":5,"migraine_risk":4,"frizz_risk":1,"updated_at":"2026-06-20T05:41:34.646306+05:30"},{"city":"Vijayawada","state":"Andhra Pradesh","latitude":16.5062,"longitude":80.648,"temp":29.0,"humidity":85,"rain":0.0,"pressure":1000.9,"uv_index":3.8,"wind_gusts":31.3,"aqi":82,"pm10":37.1,"pm2_5":32.6,"no2":14.5,"co":296.0,"o3":73.0,"so2":5.9,"mosquito_risk":7,"arthritis_risk":5,"migraine_risk":0,"frizz_risk":1,"updated_at":"2026-06-20T05:41:34.646313+05:30"},{"city":"Guntur","state":"Andhra Pradesh","latitude":16.3067,"longitude":80.4365,"temp":28.5,"humidity":65,"rain":0.0,"pressure":1002.4,"uv_index":4.2,"wind_gusts":31.7,"aqi":78,"pm10":29.7,"pm2_5":26.6,"no2":15.4,"co":295.0,"o3":59.0,"so2":5.5,"mosquito_risk":7,"arthritis_risk":5,"migraine_risk":0,"frizz_risk":1,"updated_at":"2026-06-20T05:41:34.646320+05:30"},{"city":"Nellore","state":"Andhra Pradesh","latitude":14.4426,"longitude":79.9865,"temp":26.9,"humidity":85,"rain":0.0,"pressure":1004.3,"uv_index":6.05,"wind_gusts":32.0,"aqi":70,"pm10":20.0,"pm2_5":16.3,"no2":9.4,"co":223.0,"o3":60.0,"so2":3.5,"mosquito_risk":7,"arthritis_risk":5,"migraine_risk":4,"frizz_risk":1,"updated_at":"2026-06-20T05:41:34.646327+05:30"},{"city":"Kurnool","state":"Andhra Pradesh","latitude":15.8281,"longitude":78.0373,"temp":27.7,"humidity":65,"rain":0.0,"pressure":976.4,"uv_index":7.85,"wind_gusts":41.4,"aqi":66,"pm10":18.5,"pm2_5":13.4,"no2":8.8,"co":188.0,"o3":45.0,"so2":3.0,"mosquito_risk":7,"arthritis_risk":5,"migraine_risk":7,"frizz_risk":1,"updated_at":"2026-06-20T05:41:34.646334+05:30"},{"city":"Kakinada","state":"Andhra Pradesh","latitude":16.9891,"longitude":82.2475,"temp":27.8,"humidity":87,"rain":0.0,"pressure":1005.8,"uv_index":6.0,"wind_gusts":34.6,"aqi":76,"pm10":28.5,"pm2_5":23.0,"no2":6.1,"co":306.0,"o3":109.0,"so2":5.0,"mosquito_risk":7,"arthritis_risk":5,"migraine_risk":0,"frizz_risk":1,"updated_at":"2026-06-20T05:41:34.646340+05:30"},{"city":"Tirupati","state":"Andhra Pradesh","latitude":13.6288,"longitude":79.4192,"temp":25.7,"humidity":79,"rain":0.0,"pressure":990.0,"uv_index":7.35,"wind_gusts":35.3,"aqi":66,"pm10":18.3,"pm2_5":16.6,"no2":16.6,"co":246.0,"o3":37.0,"so2":3.0,"mosquito_risk":7,"arthritis_risk":5,"migraine_risk":7,"frizz_risk":1,"updated_at":"2026-06-20T05:41:34.646346+05:30"},{"city":"Warangal","state":"Telangana","latitude":17.9689,"longitude":79.5941,"temp":27.9,"humidity":73,"rain":0.0,"pressure":977.1,"uv_index":8.0,"wind_gusts":25.6,"aqi":99,"pm10":52.0,"pm2_5":48.3,"no2":32.7,"co":287.0,"o3":34.0,"so2":10.1,"mosquito_risk":7,"arthritis_risk":5,"migraine_risk":7,"frizz_risk":1,"updated_at":"2026-06-20T05:41:34.646352+05:30"},{"city":"Nizamabad","state":"Telangana","latitude":18.6725,"longitude":78.0941,"temp":29.4,"humidity":51,"rain":0.0,"pressure":963.5,"uv_index":9.0,"wind_gusts":35.3,"aqi":68,"pm10":37.6,"pm2_5":34.1,"no2":30.4,"co":405.0,"o3":25.0,"so2":5.9,"mosquito_risk":4,"arthritis_risk":5,"migraine_risk":7,"frizz_risk":1,"updated_at":"2026-06-20T05:41:34.646358+05:30"},{"city":"Mysore","state":"Karnataka","latitude":12.2958,"longitude":76.6396,"temp":21.1,"humidity":97,"rain":0.0,"pressure":927.9,"uv_index":8.0,"wind_gusts":31.3,"aqi":50,"pm10":28.9,"pm2_5":19.8,"no2":19.6,"co":176.0,"o3":19.0,"so2":3.0,"mosquito_risk":3,"arthritis_risk":5,"migraine_risk":7,"frizz_risk":1,"updated_at":"2026-06-20T05:41:34.646364+05:30"},{"city":"Mangalore","state":"Karnataka","latitude":12.9141,"longitude":74.856,"temp":24.6,"humidity":94,"rain":0.0,"pressure":1007.0,"uv_index":7.75,"wind_gusts":35.3,"aqi":70,"pm10":43.3,"pm2_5":34.3,"no2":25.9,"co":779.0,"o3":15.0,"so2":6.1,"mosquito_risk":3,"arthritis_risk":5,"migraine_risk":4,"frizz_risk":1,"updated_at":"2026-06-20T05:41:34.646370+05:30"},{"city":"Hubli-Dharwad","state":"Karnataka","latitude":15.3647,"longitude":75.124,"temp":22.0,"humidity":96,"rain":0.0,"pressure":940.9,"uv_index":8.4,"wind_gusts":47.9,"aqi":49,"pm10":13.7,"pm2_5":8.8,"no2":6.2,"co":114.0,"o3":29.0,"so2":1.8,"mosquito_risk":3,"arthritis_risk":5,"migraine_risk":7,"frizz_risk":1,"updated_at":"2026-06-20T05:41:34.646376+05:30"},{"city":"Belgaum","state":"Karnataka","latitude":15.8497,"longitude":74.4977,"temp":20.6,"humidity":99,"rain":0.0,"pressure":925.3,"uv_index":8.15,"wind_gusts":38.5,"aqi":50,"pm10":21.3,"pm2_5":15.3,"no2":8.1,"co":103.0,"o3":28.0,"so2":0.6,"mosquito_risk":3,"arthritis_risk":5,"migraine_risk":7,"frizz_risk":1,"updated_at":"2026-06-20T05:41:37.872270+05:30"},{"city":"Coimbatore","state":"Tamil Nadu","latitude":11.0168,"longitude":76.9558,"temp":23.3,"humidity":95,"rain":0.0,"pressure":961.6,"uv_index":8.25,"wind_gusts":41.4,"aqi":45,"pm10":18.7,"pm2_5":13.4,"no2":13.1,"co":188.0,"o3":23.0,"so2":3.5,"mosquito_risk":3,"arthritis_risk":5,"migraine_risk":7,"frizz_risk":1,"updated_at":"2026-06-20T05:41:37.872299+05:30"},{"city":"Madurai","state":"Tamil Nadu","latitude":9.9252,"longitude":78.1198,"temp":26.7,"humidity":89,"rain":0.0,"pressure":992.9,"uv_index":8.6,"wind_gusts":29.2,"aqi":55,"pm10":26.5,"pm2_5":24.7,"no2":33.0,"co":388.0,"o3":2.0,"so2":5.9,"mosquito_risk":7,"arthritis_risk":5,"migraine_risk":7,"frizz_risk":1,"updated_at":"2026-06-20T05:41:37.872309+05:30"},{"city":"Trichy","state":"Tamil Nadu","latitude":10.7905,"longitude":78.7047,"temp":26.3,"humidity":85,"rain":0.0,"pressure":999.3,"uv_index":8.45,"wind_gusts":31.0,"aqi":49,"pm10":17.7,"pm2_5":14.1,"no2":18.8,"co":243.0,"o3":27.0,"so2":4.5,"mosquito_risk":7,"arthritis_risk":5,"migraine_risk":7,"frizz_risk":1,"updated_at":"2026-06-20T05:41:37.872317+05:30"},{"city":"Salem","state":"Tamil Nadu","latitude":11.6643,"longitude":78.146,"temp":24.0,"humidity":95,"rain":0.0,"pressure":977.2,"uv_index":8.25,"wind_gusts":20.5,"aqi":65,"pm10":36.4,"pm2_5":31.4,"no2":23.6,"co":444.0,"o3":46.0,"so2":13.0,"mosquito_risk":3,"arthritis_risk":5,"migraine_risk":7,"frizz_risk":1,"updated_at":"2026-06-20T05:41:37.872325+05:30"},{"city":"Tirunelveli","state":"Tamil Nadu","latitude":8.7139,"longitude":77.7567,"temp":25.8,"humidity":81,"rain":0.0,"pressure":1003.1,"uv_index":8.65,"wind_gusts":22.3,"aqi":55,"pm10":34.6,"pm2_5":22.9,"no2":9.3,"co":319.0,"o3":34.0,"so2":4.0,"mosquito_risk":7,"arthritis_risk":5,"migraine_risk":4,"frizz_risk":1,"updated_at":"2026-06-20T05:41:37.872332+05:30"},{"city":"Vellore","state":"Tamil Nadu","latitude":12.9165,"longitude":79.1325,"temp":25.6,"humidity":77,"rain":0.0,"pressure":983.5,"uv_index":7.5,"wind_gusts":34.9,"aqi":72,"pm10":35.3,"pm2_5":31.8,"no2":23.5,"co":231.0,"o3":28.0,"so2":4.9,"mosquito_risk":7,"arthritis_risk":5,"migraine_risk":7,"frizz_risk":1,"updated_at":"2026-06-20T05:41:37.872339+05:30"},{"city":"Erode","state":"Tamil Nadu","latitude":11.341,"longitude":77.7172,"temp":24.7,"humidity":97,"rain":0.0,"pressure":989.0,"uv_index":8.3,"wind_gusts":28.1,"aqi":57,"pm10":29.6,"pm2_5":23.9,"no2":28.4,"co":253.0,"o3":12.0,"so2":5.5,"mosquito_risk":3,"arthritis_risk":5,"migraine_risk":7,"frizz_risk":1,"updated_at":"2026-06-20T05:41:37.872346+05:30"},{"city":"Kochi","state":"Kerala","latitude":9.9312,"longitude":76.2673,"temp":24.9,"humidity":97,"rain":0.0,"pressure":1009.2,"uv_index":8.05,"wind_gusts":34.9,"aqi":92,"pm10":48.4,"pm2_5":41.9,"no2":36.3,"co":174.0,"o3":6.0,"so2":9.4,"mosquito_risk":3,"arthritis_risk":0,"migraine_risk":4,"frizz_risk":1,"updated_at":"2026-06-20T05:41:37.872352+05:30"},{"city":"Thiruvananthapuram","state":"Kerala","latitude":8.5241,"longitude":76.9366,"temp":23.7,"humidity":93,"rain":0.0,"pressure":1008.7,"uv_index":8.3,"wind_gusts":35.3,"aqi":59,"pm10":33.4,"pm2_5":17.2,"no2":7.3,"co":207.0,"o3":40.0,"so2":2.9,"mosquito_risk":3,"arthritis_risk":0,"migraine_risk":4,"frizz_risk":1,"updated_at":"2026-06-20T05:41:37.872359+05:30"},{"city":"Kozhikode","state":"Kerala","latitude":11.2588,"longitude":75.7804,"temp":24.0,"humidity":99,"rain":0.0,"pressure":1008.3,"uv_index":7.85,"wind_gusts":31.3,"aqi":53,"pm10":37.0,"pm2_5":16.6,"no2":2.5,"co":186.0,"o3":52.0,"so2":1.6,"mosquito_risk":3,"arthritis_risk":0,"migraine_risk":4,"frizz_risk":1,"updated_at":"2026-06-20T05:41:37.872365+05:30"},{"city":"Thrissur","state":"Kerala","latitude":10.5276,"longitude":76.2144,"temp":24.2,"humidity":94,"rain":0.0,"pressure":1007.6,"uv_index":8.15,"wind_gusts":34.2,"aqi":97,"pm10":53.8,"pm2_5":46.6,"no2":30.7,"co":289.0,"o3":4.0,"so2":5.8,"mosquito_risk":3,"arthritis_risk":5,"migraine_risk":4,"frizz_risk":1,"updated_at":"2026-06-20T05:41:37.872373+05:30"},{"city":"Kannur","state":"Kerala","latitude":11.8745,"longitude":75.3704,"temp":25.1,"humidity":93,"rain":0.0,"pressure":1007.4,"uv_index":7.6,"wind_gusts":32.0,"aqi":69,"pm10":37.0,"pm2_5":28.7,"no2":27.2,"co":316.0,"o3":14.0,"so2":3.9,"mosquito_risk":7,"arthritis_risk":5,"migraine_risk":4,"frizz_risk":1,"updated_at":"2026-06-20T05:41:37.872379+05:30"},{"city":"Patna","state":"Bihar","latitude":25.5941,"longitude":85.1376,"temp":29.1,"humidity":71,"rain":0.0,"pressure":996.3,"uv_index":8.9,"wind_gusts":30.6,"aqi":153,"pm10":59.8,"pm2_5":56.2,"no2":28.3,"co":314.0,"o3":48.0,"so2":16.3,"mosquito_risk":7,"arthritis_risk":5,"migraine_risk":7,"frizz_risk":1,"updated_at":"2026-06-20T05:41:37.872386+05:30"},{"city":"Gaya","state":"Bihar","latitude":24.7914,"longitude":85.0002,"temp":28.8,"humidity":69,"rain":0.0,"pressure":990.1,"uv_index":8.45,"wind_gusts":28.1,"aqi":103,"pm10":22.9,"pm2_5":19.6,"no2":13.5,"co":221.0,"o3":65.0,"so2":12.2,"mosquito_risk":7,"arthritis_risk":5,"migraine_risk":7,"frizz_risk":1,"updated_at":"2026-06-20T05:41:37.872392+05:30"},{"city":"Muzaffarpur","state":"Bihar","latitude":26.1209,"longitude":85.3647,"temp":26.8,"humidity":89,"rain":0.0,"pressure":996.8,"uv_index":8.9,"wind_gusts":34.9,"aqi":158,"pm10":67.5,"pm2_5":63.1,"no2":12.7,"co":446.0,"o3":100.0,"so2":18.1,"mosquito_risk":7,"arthritis_risk":5,"migraine_risk":7,"frizz_risk":1,"updated_at":"2026-06-20T05:41:37.872399+05:30"},{"city":"Bhagalpur","state":"Bihar","latitude":25.2425,"longitude":87.0117,"temp":27.6,"humidity":95,"rain":0.0,"pressure":997.8,"uv_index":8.7,"wind_gusts":22.7,"aqi":157,"pm10":81.3,"pm2_5":78.7,"no2":20.7,"co":288.0,"o3":48.0,"so2":34.1,"mosquito_risk":7,"arthritis_risk":5,"migraine_risk":7,"frizz_risk":1,"updated_at":"2026-06-20T05:41:37.872405+05:30"},{"city":"Ranchi","state":"Jharkhand","latitude":23.3441,"longitude":85.3096,"temp":24.1,"humidity":87,"rain":0.0,"pressure":934.9,"uv_index":8.4,"wind_gusts":39.6,"aqi":122,"pm10":37.6,"pm2_5":35.4,"no2":12.1,"co":324.0,"o3":78.0,"so2":8.4,"mosquito_risk":3,"arthritis_risk":5,"migraine_risk":7,"frizz_risk":1,"updated_at":"2026-06-20T05:41:37.872412+05:30"},{"city":"Jamshedpur","state":"Jharkhand","latitude":22.8046,"longitude":86.2029,"temp":26.8,"humidity":86,"rain":0.0,"pressure":988.6,"uv_index":9.05,"wind_gusts":32.0,"aqi":152,"pm10":63.1,"pm2_5":58.4,"no2":21.4,"co":429.0,"o3":62.0,"so2":32.8,"mosquito_risk":7,"arthritis_risk":5,"migraine_risk":7,"frizz_risk":1,"updated_at":"2026-06-20T05:41:37.872418+05:30"},{"city":"Dhanbad","state":"Jharkhand","latitude":23.7957,"longitude":86.4304,"temp":26.6,"humidity":93,"rain":0.0,"pressure":977.0,"uv_index":8.9,"wind_gusts":22.7,"aqi":161,"pm10":76.6,"pm2_5":74.3,"no2":51.2,"co":959.0,"o3":42.0,"so2":111.8,"mosquito_risk":7,"arthritis_risk":5,"migraine_risk":7,"frizz_risk":1,"updated_at":"2026-06-20T05:41:37.872424+05:30"},{"city":"Bokaro","state":"Jharkhand","latitude":23.6693,"longitude":86.1511,"temp":26.7,"humidity":91,"rain":0.0,"pressure":980.7,"uv_index":8.85,"wind_gusts":25.9,"aqi":154,"pm10":59.8,"pm2_5":57.6,"no2":36.3,"co":355.0,"o3":49.0,"so2":63.6,"mosquito_risk":7,"arthritis_risk":5,"migraine_risk":7,"frizz_risk":1,"updated_at":"2026-06-20T05:41:37.872430+05:30"},{"city":"Bhubaneswar","state":"Odisha","latitude":20.2961,"longitude":85.8245,"temp":26.8,"humidity":91,"rain":0.0,"pressure":1000.6,"uv_index":9.0,"wind_gusts":33.8,"aqi":90,"pm10":28.8,"pm2_5":25.0,"no2":7.6,"co":239.0,"o3":97.0,"so2":6.1,"mosquito_risk":7,"arthritis_risk":5,"migraine_risk":4,"frizz_risk":1,"updated_at":"2026-06-20T05:41:37.872437+05:30"},{"city":"Cuttack","state":"Odisha","latitude":20.4625,"longitude":85.8828,"temp":27.0,"humidity":91,"rain":0.0,"pressure":1002.4,"uv_index":9.15,"wind_gusts":28.1,"aqi":90,"pm10":28.8,"pm2_5":25.0,"no2":7.6,"co":252.0,"o3":97.0,"so2":6.1,"mosquito_risk":7,"arthritis_risk":5,"migraine_risk":4,"frizz_risk":1,"updated_at":"2026-06-20T05:41:37.872444+05:30"},{"city":"Rourkela","state":"Odisha","latitude":22.2604,"longitude":84.8536,"temp":25.5,"humidity":93,"rain":0.0,"pressure":982.9,"uv_index":8.7,"wind_gusts":38.5,"aqi":144,"pm10":62.2,"pm2_5":57.9,"no2":13.0,"co":330.0,"o3":83.0,"so2":12.8,"mosquito_risk":7,"arthritis_risk":5,"migraine_risk":7,"frizz_risk":1,"updated_at":"2026-06-20T05:41:37.872450+05:30"},{"city":"Raipur","state":"Chhattisgarh","latitude":21.2514,"longitude":81.6296,"temp":28.5,"humidity":79,"rain":0.0,"pressure":972.5,"uv_index":8.95,"wind_gusts":27.7,"aqi":96,"pm10":38.5,"pm2_5":34.3,"no2":34.7,"co":925.0,"o3":55.0,"so2":53.0,"mosquito_risk":7,"arthritis_risk":5,"migraine_risk":7,"frizz_risk":1,"updated_at":"2026-06-20T05:41:37.872456+05:30"},{"city":"Bhilai","state":"Chhattisgarh","latitude":21.1938,"longitude":81.3509,"temp":28.1,"humidity":81,"rain":0.0,"pressure":972.8,"uv_index":4.4,"wind_gusts":36.4,"aqi":96,"pm10":32.5,"pm2_5":29.0,"no2":30.6,"co":1128.0,"o3":44.0,"so2":44.6,"mosquito_risk":7,"arthritis_risk":5,"migraine_risk":3,"frizz_risk":1,"updated_at":"2026-06-20T05:41:37.872462+05:30"},{"city":"Guwahati","state":"Assam","latitude":26.1158,"longitude":91.7086,"temp":25.1,"humidity":94,"rain":0.0,"pressure":999.6,"uv_index":8.7,"wind_gusts":25.9,"aqi":121,"pm10":98.7,"pm2_5":76.8,"no2":17.0,"co":332.0,"o3":38.0,"so2":5.1,"mosquito_risk":7,"arthritis_risk":5,"migraine_risk":7,"frizz_risk":1,"updated_at":"2026-06-20T05:41:37.872469+05:30"},{"city":"Agartala","state":"Tripura","latitude":23.8315,"longitude":91.2868,"temp":24.5,"humidity":99,"rain":0.0,"pressure":1004.7,"uv_index":8.0,"wind_gusts":32.8,"aqi":92,"pm10":27.9,"pm2_5":24.0,"no2":10.3,"co":192.0,"o3":58.0,"so2":2.8,"mosquito_risk":3,"arthritis_risk":5,"migraine_risk":4,"frizz_risk":1,"updated_at":"2026-06-20T05:41:37.872475+05:30"},{"city":"Shillong","state":"Meghalaya","latitude":25.5788,"longitude":91.8933,"temp":19.4,"humidity":92,"rain":0.0,"pressure":856.0,"uv_index":6.0,"wind_gusts":31.0,"aqi":75,"pm10":41.9,"pm2_5":29.5,"no2":5.8,"co":245.0,"o3":71.0,"so2":3.6,"mosquito_risk":3,"arthritis_risk":10,"migraine_risk":3,"frizz_risk":1,"updated_at":"2026-06-20T05:41:37.872481+05:30"},{"city":"Imphal","state":"Manipur","latitude":24.817,"longitude":93.9368,"temp":22.8,"humidity":91,"rain":0.0,"pressure":922.1,"uv_index":9.05,"wind_gusts":37.1,"aqi":74,"pm10":35.2,"pm2_5":26.0,"no2":4.5,"co":375.0,"o3":72.0,"so2":3.0,"mosquito_risk":3,"arthritis_risk":5,"migraine_risk":7,"frizz_risk":1,"updated_at":"2026-06-20T05:41:37.872488+05:30"},{"city":"Aizawl","state":"Mizoram","latitude":23.7271,"longitude":92.7176,"temp":19.5,"humidity":97,"rain":0.0,"pressure":891.2,"uv_index":8.8,"wind_gusts":35.6,"aqi":59,"pm10":22.3,"pm2_5":15.7,"no2":3.7,"co":163.0,"o3":53.0,"so2":1.1,"mosquito_risk":3,"arthritis_risk":10,"migraine_risk":7,"frizz_risk":1,"updated_at":"2026-06-20T05:41:37.872494+05:30"},{"city":"Kohima","state":"Nagaland","latitude":25.6701,"longitude":94.1077,"temp":19.2,"humidity":97,"rain":0.0,"pressure":853.9,"uv_index":8.8,"wind_gusts":32.4,"aqi":59,"pm10":33.5,"pm2_5":22.2,"no2":3.6,"co":296.0,"o3":62.0,"so2":1.6,"mosquito_risk":3,"arthritis_risk":10,"migraine_risk":7,"frizz_risk":1,"updated_at":"2026-06-20T05:41:37.872500+05:30"},{"city":"Gangtok","state":"Sikkim","latitude":27.3314,"longitude":88.6138,"temp":18.0,"humidity":95,"rain":0.0,"pressure":835.9,"uv_index":8.45,"wind_gusts":33.1,"aqi":113,"pm10":16.2,"pm2_5":12.4,"no2":4.1,"co":442.0,"o3":134.0,"so2":9.3,"mosquito_risk":3,"arthritis_risk":10,"migraine_risk":7,"frizz_risk":1,"updated_at":"2026-06-20T05:41:37.872506+05:30"},{"city":"Siliguri","state":"West Bengal","latitude":26.7271,"longitude":88.3953,"temp":24.0,"humidity":99,"rain":0.0,"pressure":990.9,"uv_index":8.7,"wind_gusts":19.4,"aqi":152,"pm10":117.6,"pm2_5":88.2,"no2":9.3,"co":490.0,"o3":122.0,"so2":11.0,"mosquito_risk":3,"arthritis_risk":5,"migraine_risk":7,"frizz_risk":1,"updated_at":"2026-06-20T05:41:41.098348+05:30"},{"city":"Durgapur","state":"West Bengal","latitude":23.5204,"longitude":87.3119,"temp":26.2,"humidity":91,"rain":0.0,"pressure":992.3,"uv_index":8.75,"wind_gusts":32.0,"aqi":160,"pm10":88.5,"pm2_5":85.7,"no2":38.9,"co":917.0,"o3":33.0,"so2":51.9,"mosquito_risk":7,"arthritis_risk":5,"migraine_risk":7,"frizz_risk":1,"updated_at":"2026-06-20T05:41:41.098376+05:30"},{"city":"Asansol","state":"West Bengal","latitude":23.6739,"longitude":86.9524,"temp":26.8,"humidity":86,"rain":0.0,"pressure":990.9,"uv_index":9.0,"wind_gusts":25.6,"aqi":159,"pm10":80.8,"pm2_5":78.2,"no2":43.7,"co":718.0,"o3":35.0,"so2":71.7,"mosquito_risk":7,"arthritis_risk":5,"migraine_risk":7,"frizz_risk":1,"updated_at":"2026-06-20T05:41:41.098387+05:30"},{"city":"Pondicherry","state":"Puducherry","latitude":11.9139,"longitude":79.8145,"temp":25.8,"humidity":93,"rain":0.0,"pressure":1007.7,"uv_index":8.25,"wind_gusts":37.4,"aqi":76,"pm10":25.6,"pm2_5":21.4,"no2":13.3,"co":355.0,"o3":63.0,"so2":10.8,"mosquito_risk":7,"arthritis_risk":5,"migraine_risk":4,"frizz_risk":1,"updated_at":"2026-06-20T05:41:41.098395+05:30"},{"city":"Port Blair","state":"Andaman and Nicobar Islands","latitude":11.6234,"longitude":92.7265,"temp":27.0,"humidity":88,"rain":0.0,"pressure":1008.3,"uv_index":8.7,"wind_gusts":39.2,"aqi":28,"pm10":14.4,"pm2_5":6.9,"no2":0.3,"co":96.0,"o3":46.0,"so2":0.4,"mosquito_risk":7,"arthritis_risk":0,"migraine_risk":4,"frizz_risk":1,"updated_at":"2026-06-20T05:41:41.098402+05:30"},{"city":"Haridwar","state":"Uttarakhand","latitude":29.9457,"longitude":78.1642,"temp":24.7,"humidity":85,"rain":0.0,"pressure":969.8,"uv_index":7.65,"wind_gusts":25.9,"aqi":154,"pm10":106.9,"pm2_5":87.3,"no2":46.8,"co":368.0,"o3":32.0,"so2":11.4,"mosquito_risk":3,"arthritis_risk":5,"migraine_risk":7,"frizz_risk":1,"updated_at":"2026-06-20T05:41:41.098409+05:30"},{"city":"Rishikesh","state":"Uttarakhand","latitude":30.0869,"longitude":78.2676,"temp":22.7,"humidity":89,"rain":0.0,"pressure":962.5,"uv_index":7.75,"wind_gusts":29.2,"aqi":118,"pm10":36.7,"pm2_5":32.4,"no2":11.3,"co":377.0,"o3":74.0,"so2":2.2,"mosquito_risk":3,"arthritis_risk":5,"migraine_risk":7,"frizz_risk":1,"updated_at":"2026-06-20T05:41:41.098416+05:30"},{"city":"Nainital","state":"Uttarakhand","latitude":29.3919,"longitude":79.4542,"temp":15.4,"humidity":85,"rain":0.0,"pressure":802.8,"uv_index":6.85,"wind_gusts":31.3,"aqi":104,"pm10":49.2,"pm2_5":38.5,"no2":19.1,"co":311.0,"o3":59.0,"so2":2.4,"mosquito_risk":3,"arthritis_risk":10,"migraine_risk":7,"frizz_risk":0,"updated_at":"2026-06-20T05:41:41.098423+05:30"},{"city":"Mussoorie","state":"Uttarakhand","latitude":30.4599,"longitude":78.0664,"temp":13.7,"humidity":97,"rain":0.0,"pressure":799.5,"uv_index":8.0,"wind_gusts":42.1,"aqi":118,"pm10":56.5,"pm2_5":47.0,"no2":36.7,"co":264.0,"o3":36.0,"so2":5.2,"mosquito_risk":3,"arthritis_risk":10,"migraine_risk":7,"frizz_risk":0,"updated_at":"2026-06-20T05:41:41.098430+05:30"},{"city":"Dharamshala","state":"Himachal Pradesh","latitude":32.219,"longitude":76.3234,"temp":19.6,"humidity":80,"rain":0.0,"pressure":866.8,"uv_index":8.5,"wind_gusts":42.8,"aqi":49,"pm10":9.7,"pm2_5":5.3,"no2":7.6,"co":323.0,"o3":88.0,"so2":0.1,"mosquito_risk":3,"arthritis_risk":5,"migraine_risk":7,"frizz_risk":1,"updated_at":"2026-06-20T05:41:41.098437+05:30"},{"city":"Dalhousie","state":"Himachal Pradesh","latitude":32.5387,"longitude":75.971,"temp":13.0,"humidity":97,"rain":0.1,"pressure":800.8,"uv_index":8.75,"wind_gusts":31.7,"aqi":83,"pm10":20.8,"pm2_5":16.9,"no2":21.6,"co":273.0,"o3":36.0,"so2":0.6,"mosquito_risk":6,"arthritis_risk":10,"migraine_risk":7,"frizz_risk":0,"updated_at":"2026-06-20T05:41:41.098444+05:30"},{"city":"Patiala","state":"Punjab","latitude":30.3398,"longitude":76.3869,"temp":27.0,"humidity":72,"rain":0.0,"pressure":974.8,"uv_index":7.7,"wind_gusts":34.6,"aqi":298,"pm10":112.7,"pm2_5":61.2,"no2":19.3,"co":634.0,"o3":56.0,"so2":6.6,"mosquito_risk":7,"arthritis_risk":5,"migraine_risk":7,"frizz_risk":1,"updated_at":"2026-06-20T05:41:41.098451+05:30"},{"city":"Bhatinda","state":"Punjab","latitude":30.211,"longitude":74.9455,"temp":28.1,"humidity":69,"rain":0.0,"pressure":980.5,"uv_index":8.3,"wind_gusts":32.4,"aqi":136,"pm10":103.4,"pm2_5":76.8,"no2":64.2,"co":435.0,"o3":17.0,"so2":8.3,"mosquito_risk":7,"arthritis_risk":5,"migraine_risk":7,"frizz_risk":1,"updated_at":"2026-06-20T05:41:41.098457+05:30"},{"city":"Rohtak","state":"Haryana","latitude":28.8955,"longitude":76.6066,"temp":27.3,"humidity":66,"rain":0.0,"pressure":978.2,"uv_index":7.8,"wind_gusts":33.5,"aqi":722,"pm10":488.0,"pm2_5":125.7,"no2":34.1,"co":416.0,"o3":37.0,"so2":8.3,"mosquito_risk":7,"arthritis_risk":5,"migraine_risk":7,"frizz_risk":1,"updated_at":"2026-06-20T05:41:41.098464+05:30"},{"city":"Panipat","state":"Haryana","latitude":29.3909,"longitude":76.9635,"temp":27.2,"humidity":71,"rain":0.0,"pressure":976.7,"uv_index":7.65,"wind_gusts":32.0,"aqi":1297,"pm10":499.2,"pm2_5":137.8,"no2":23.5,"co":424.0,"o3":55.0,"so2":8.1,"mosquito_risk":7,"arthritis_risk":5,"migraine_risk":7,"frizz_risk":1,"updated_at":"2026-06-20T05:41:41.098470+05:30"},{"city":"Mathura","state":"Uttar Pradesh","latitude":27.4924,"longitude":77.6737,"temp":29.7,"humidity":58,"rain":0.0,"pressure":983.1,"uv_index":8.1,"wind_gusts":33.5,"aqi":261,"pm10":248.7,"pm2_5":56.2,"no2":30.1,"co":248.0,"o3":18.0,"so2":4.9,"mosquito_risk":4,"arthritis_risk":5,"migraine_risk":7,"frizz_risk":1,"updated_at":"2026-06-20T05:41:41.098476+05:30"},{"city":"Vrindavan","state":"Uttar Pradesh","latitude":27.5823,"longitude":77.7027,"temp":29.6,"humidity":59,"rain":0.0,"pressure":983.6,"uv_index":8.1,"wind_gusts":32.4,"aqi":261,"pm10":248.7,"pm2_5":56.2,"no2":30.1,"co":251.0,"o3":18.0,"so2":4.9,"mosquito_risk":4,"arthritis_risk":5,"migraine_risk":7,"frizz_risk":1,"updated_at":"2026-06-20T05:41:41.098482+05:30"},{"city":"Ayodhya","state":"Uttar Pradesh","latitude":26.7922,"longitude":82.1998,"temp":28.7,"humidity":78,"rain":0.0,"pressure":990.4,"uv_index":8.45,"wind_gusts":32.8,"aqi":152,"pm10":114.6,"pm2_5":61.2,"no2":23.9,"co":389.0,"o3":50.0,"so2":14.8,"mosquito_risk":7,"arthritis_risk":5,"migraine_risk":7,"frizz_risk":1,"updated_at":"2026-06-20T05:41:41.098489+05:30"},{"city":"Ratlam","state":"Madhya Pradesh","latitude":23.3315,"longitude":75.0367,"temp":25.3,"humidity":80,"rain":0.0,"pressure":953.7,"uv_index":8.45,"wind_gusts":40.0,"aqi":65,"pm10":24.8,"pm2_5":15.7,"no2":10.1,"co":158.0,"o3":33.0,"so2":13.1,"mosquito_risk":7,"arthritis_risk":5,"migraine_risk":7,"frizz_risk":1,"updated_at":"2026-06-20T05:41:41.098495+05:30"},{"city":"Sagar","state":"Madhya Pradesh","latitude":23.8388,"longitude":78.7378,"temp":25.9,"humidity":74,"rain":0.0,"pressure":948.3,"uv_index":8.75,"wind_gusts":39.2,"aqi":57,"pm10":27.2,"pm2_5":18.4,"no2":6.6,"co":197.0,"o3":61.0,"so2":3.1,"mosquito_risk":7,"arthritis_risk":5,"migraine_risk":7,"frizz_risk":1,"updated_at":"2026-06-20T05:41:41.098501+05:30"},{"city":"Satna","state":"Madhya Pradesh","latitude":24.6005,"longitude":80.8322,"temp":29.4,"humidity":57,"rain":0.0,"pressure":968.5,"uv_index":8.85,"wind_gusts":34.9,"aqi":71,"pm10":18.6,"pm2_5":12.5,"no2":6.2,"co":170.0,"o3":76.0,"so2":3.3,"mosquito_risk":4,"arthritis_risk":5,"migraine_risk":7,"frizz_risk":1,"updated_at":"2026-06-20T05:41:41.098507+05:30"},{"city":"Akola","state":"Maharashtra","latitude":20.7002,"longitude":77.0082,"temp":29.7,"humidity":48,"rain":0.0,"pressure":974.6,"uv_index":8.85,"wind_gusts":40.0,"aqi":52,"pm10":21.0,"pm2_5":15.1,"no2":9.2,"co":123.0,"o3":58.0,"so2":8.5,"mosquito_risk":4,"arthritis_risk":5,"migraine_risk":7,"frizz_risk":1,"updated_at":"2026-06-20T05:41:41.098515+05:30"},{"city":"Amravati","state":"Maharashtra","latitude":20.9374,"longitude":77.7796,"temp":29.2,"humidity":53,"rain":0.0,"pressure":966.3,"uv_index":8.85,"wind_gusts":40.0,"aqi":53,"pm10":22.6,"pm2_5":15.5,"no2":10.0,"co":196.0,"o3":56.0,"so2":6.2,"mosquito_risk":4,"arthritis_risk":5,"migraine_risk":7,"frizz_risk":1,"updated_at":"2026-06-20T05:41:41.098522+05:30"},{"city":"Latur","state":"Maharashtra","latitude":18.4088,"longitude":76.5604,"temp":27.3,"humidity":54,"rain":0.0,"pressure":939.6,"uv_index":8.85,"wind_gusts":32.4,"aqi":56,"pm10":15.0,"pm2_5":11.7,"no2":6.8,"co":162.0,"o3":64.0,"so2":7.7,"mosquito_risk":4,"arthritis_risk":5,"migraine_risk":7,"frizz_risk":1,"updated_at":"2026-06-20T05:41:41.098528+05:30"},{"city":"Nanded","state":"Maharashtra","latitude":19.1383,"longitude":77.3091,"temp":30.3,"humidity":47,"rain":0.0,"pressure":967.9,"uv_index":8.9,"wind_gusts":31.7,"aqi":62,"pm10":17.9,"pm2_5":14.7,"no2":13.4,"co":190.0,"o3":50.0,"so2":6.6,"mosquito_risk":0,"arthritis_risk":5,"migraine_risk":7,"frizz_risk":1,"updated_at":"2026-06-20T05:41:41.098535+05:30"},{"city":"Gulbarga","state":"Karnataka","latitude":17.3297,"longitude":76.8343,"temp":28.0,"humidity":55,"rain":0.0,"pressure":958.5,"uv_index":8.55,"wind_gusts":35.3,"aqi":57,"pm10":14.4,"pm2_5":10.7,"no2":7.5,"co":148.0,"o3":39.0,"so2":3.4,"mosquito_risk":4,"arthritis_risk":5,"migraine_risk":7,"frizz_risk":1,"updated_at":"2026-06-20T05:41:41.098541+05:30"},{"city":"Bidar","state":"Karnataka","latitude":17.9104,"longitude":77.5199,"temp":27.6,"humidity":52,"rain":0.0,"pressure":934.9,"uv_index":8.35,"wind_gusts":34.9,"aqi":69,"pm10":18.7,"pm2_5":15.1,"no2":11.8,"co":170.0,"o3":51.0,"so2":4.1,"mosquito_risk":4,"arthritis_risk":5,"migraine_risk":7,"frizz_risk":1,"updated_at":"2026-06-20T05:41:41.098547+05:30"},{"city":"Hospet","state":"Karnataka","latitude":15.2689,"longitude":76.3909,"temp":23.8,"humidity":86,"rain":0.0,"pressure":955.8,"uv_index":8.5,"wind_gusts":40.0,"aqi":52,"pm10":15.2,"pm2_5":9.4,"no2":6.6,"co":127.0,"o3":33.0,"so2":2.0,"mosquito_risk":3,"arthritis_risk":5,"migraine_risk":7,"frizz_risk":1,"updated_at":"2026-06-20T05:41:41.098553+05:30"},{"city":"Tirupur","state":"Tamil Nadu","latitude":11.1085,"longitude":77.3411,"temp":24.1,"humidity":91,"rain":0.0,"pressure":975.1,"uv_index":8.4,"wind_gusts":41.8,"aqi":58,"pm10":26.2,"pm2_5":21.7,"no2":26.4,"co":163.0,"o3":11.0,"so2":4.9,"mosquito_risk":3,"arthritis_risk":5,"migraine_risk":7,"frizz_risk":1,"updated_at":"2026-06-20T05:41:41.098559+05:30"},{"city":"Alappuzha","state":"Kerala","latitude":9.4981,"longitude":76.3388,"temp":25.2,"humidity":99,"rain":0.0,"pressure":1009.3,"uv_index":8.3,"wind_gusts":34.2,"aqi":68,"pm10":38.9,"pm2_5":26.5,"no2":20.7,"co":88.0,"o3":23.0,"so2":4.2,"mosquito_risk":7,"arthritis_risk":0,"migraine_risk":4,"frizz_risk":1,"updated_at":"2026-06-20T05:41:41.098565+05:30"},{"city":"Munnar","state":"Kerala","latitude":10.0889,"longitude":77.0595,"temp":14.9,"humidity":90,"rain":0.0,"pressure":855.0,"uv_index":8.5,"wind_gusts":32.4,"aqi":28,"pm10":20.7,"pm2_5":13.2,"no2":8.6,"co":139.0,"o3":23.0,"so2":1.7,"mosquito_risk":3,"arthritis_risk":10,"migraine_risk":7,"frizz_risk":0,"updated_at":"2026-06-20T05:41:41.098572+05:30"},{"city":"Silchar","state":"Assam","latitude":24.8333,"longitude":92.7789,"temp":25.5,"humidity":93,"rain":0.1,"pressure":1004.0,"uv_index":8.15,"wind_gusts":30.6,"aqi":97,"pm10":43.4,"pm2_5":34.0,"no2":8.7,"co":289.0,"o3":76.0,"so2":4.5,"mosquito_risk":10,"arthritis_risk":5,"migraine_risk":4,"frizz_risk":1,"updated_at":"2026-06-20T05:41:41.098579+05:30"},{"city":"Dibrugarh","state":"Assam","latitude":27.4728,"longitude":94.912,"temp":24.4,"humidity":99,"rain":0.2,"pressure":993.7,"uv_index":7.5,"wind_gusts":21.6,"aqi":66,"pm10":24.1,"pm2_5":21.1,"no2":7.3,"co":285.0,"o3":82.0,"so2":2.5,"mosquito_risk":6,"arthritis_risk":5,"migraine_risk":7,"frizz_risk":1,"updated_at":"2026-06-20T05:41:41.098585+05:30"}]