[{"city":"Delhi","state":"Delhi","latitude":28.6139,"longitude":77.209,"temp":30.0,"humidity":80,"rain":0.0,"pressure":976.2,"uv_index":7.0,"wind_gusts":26.6,"aqi":136,"pm10":120.6,"pm2_5":62.2,"no2":32.8,"co":561.0,"o3":116.0,"so2":32.8,"mosquito_risk":7,"arthritis_risk":5,"migraine_risk":7,"frizz_risk":1,"updated_at":"2026-07-07T10:24:09.713802+05:30"},{"city":"Mumbai","state":"Maharashtra","latitude":19.076,"longitude":72.8777,"temp":27.0,"humidity":89,"rain":0.4,"pressure":1002.1,"uv_index":0.95,"wind_gusts":61.9,"aqi":42,"pm10":28.5,"pm2_5":14.1,"no2":7.5,"co":231.0,"o3":49.0,"so2":4.1,"mosquito_risk":10,"arthritis_risk":5,"migraine_risk":0,"frizz_risk":1,"updated_at":"2026-07-07T10:24:09.713863+05:30"},{"city":"Bangalore","state":"Karnataka","latitude":12.9716,"longitude":77.5946,"temp":26.2,"humidity":60,"rain":0.0,"pressure":912.1,"uv_index":7.75,"wind_gusts":72.4,"aqi":23,"pm10":3.2,"pm2_5":2.5,"no2":5.9,"co":270.0,"o3":55.0,"so2":3.1,"mosquito_risk":4,"arthritis_risk":5,"migraine_risk":7,"frizz_risk":1,"updated_at":"2026-07-07T10:24:09.713881+05:30"},{"city":"Hyderabad","state":"Telangana","latitude":17.385,"longitude":78.4867,"temp":26.2,"humidity":79,"rain":0.1,"pressure":948.7,"uv_index":7.3,"wind_gusts":64.1,"aqi":23,"pm10":5.3,"pm2_5":3.4,"no2":3.0,"co":220.0,"o3":56.0,"so2":4.1,"mosquito_risk":10,"arthritis_risk":5,"migraine_risk":7,"frizz_risk":1,"updated_at":"2026-07-07T10:24:09.713891+05:30"},{"city":"Chennai","state":"Tamil Nadu","latitude":13.0827,"longitude":80.2707,"temp":34.4,"humidity":44,"rain":0.0,"pressure":1005.9,"uv_index":8.35,"wind_gusts":58.0,"aqi":59,"pm10":17.8,"pm2_5":10.7,"no2":6.8,"co":207.0,"o3":67.0,"so2":8.5,"mosquito_risk":0,"arthritis_risk":5,"migraine_risk":4,"frizz_risk":1,"updated_at":"2026-07-07T10:24:09.713899+05:30"},{"city":"Kolkata","state":"West Bengal","latitude":22.5726,"longitude":88.3639,"temp":29.1,"humidity":82,"rain":0.0,"pressure":1001.1,"uv_index":8.3,"wind_gusts":46.4,"aqi":62,"pm10":18.1,"pm2_5":13.7,"no2":3.9,"co":343.0,"o3":84.0,"so2":7.1,"mosquito_risk":7,"arthritis_risk":5,"migraine_risk":4,"frizz_risk":1,"updated_at":"2026-07-07T10:24:09.713906+05:30"},{"city":"Pune","state":"Maharashtra","latitude":18.5204,"longitude":73.8567,"temp":24.6,"humidity":91,"rain":0.1,"pressure":941.6,"uv_index":1.55,"wind_gusts":51.8,"aqi":22,"pm10":2.7,"pm2_5":2.6,"no2":11.2,"co":171.0,"o3":36.0,"so2":3.1,"mosquito_risk":6,"arthritis_risk":5,"migraine_risk":3,"frizz_risk":1,"updated_at":"2026-07-07T10:24:09.713913+05:30"},{"city":"Ahmedabad","state":"Gujarat","latitude":23.0225,"longitude":72.5714,"temp":28.8,"humidity":86,"rain":0.0,"pressure":993.6,"uv_index":1.7,"wind_gusts":30.6,"aqi":104,"pm10":54.7,"pm2_5":26.8,"no2":10.2,"co":252.0,"o3":43.0,"so2":5.4,"mosquito_risk":7,"arthritis_risk":5,"migraine_risk":3,"frizz_risk":1,"updated_at":"2026-07-07T10:24:09.713920+05:30"},{"city":"Jaipur","state":"Rajasthan","latitude":26.9124,"longitude":75.7873,"temp":28.6,"humidity":78,"rain":0.0,"pressure":953.4,"uv_index":7.4,"wind_gusts":22.3,"aqi":66,"pm10":33.5,"pm2_5":21.2,"no2":7.7,"co":333.0,"o3":105.0,"so2":6.6,"mosquito_risk":7,"arthritis_risk":5,"migraine_risk":7,"frizz_risk":1,"updated_at":"2026-07-07T10:24:09.713926+05:30"},{"city":"Lucknow","state":"Uttar Pradesh","latitude":26.8467,"longitude":80.9462,"temp":30.1,"humidity":75,"rain":0.1,"pressure":985.5,"uv_index":7.45,"wind_gusts":51.8,"aqi":58,"pm10":11.3,"pm2_5":11.1,"no2":4.2,"co":279.0,"o3":100.0,"so2":4.6,"mosquito_risk":6,"arthritis_risk":5,"migraine_risk":7,"frizz_risk":1,"updated_at":"2026-07-07T10:24:09.713937+05:30"},{"city":"Kanpur","state":"Uttar Pradesh","latitude":26.4499,"longitude":80.3319,"temp":29.0,"humidity":82,"rain":0.1,"pressure":983.2,"uv_index":4.15,"wind_gusts":47.2,"aqi":63,"pm10":98.0,"pm2_5":21.3,"no2":4.1,"co":259.0,"o3":103.0,"so2":5.1,"mosquito_risk":10,"arthritis_risk":5,"migraine_risk":3,"frizz_risk":1,"updated_at":"2026-07-07T10:24:09.713943+05:30"},{"city":"Chandigarh","state":"Chandigarh","latitude":30.7333,"longitude":76.7794,"temp":29.0,"humidity":83,"rain":0.1,"pressure":963.0,"uv_index":7.75,"wind_gusts":21.2,"aqi":125,"pm10":35.7,"pm2_5":33.6,"no2":6.1,"co":503.0,"o3":157.0,"so2":16.6,"mosquito_risk":10,"arthritis_risk":5,"migraine_risk":7,"frizz_risk":1,"updated_at":"2026-07-07T10:24:09.713951+05:30"},{"city":"Srinagar","state":"Jammu and Kashmir","latitude":34.0837,"longitude":74.7973,"temp":24.2,"humidity":69,"rain":0.0,"pressure":839.9,"uv_index":9.1,"wind_gusts":18.0,"aqi":79,"pm10":32.5,"pm2_5":26.3,"no2":5.7,"co":429.0,"o3":137.0,"so2":5.2,"mosquito_risk":3,"arthritis_risk":5,"migraine_risk":7,"frizz_risk":1,"updated_at":"2026-07-07T10:24:09.713958+05:30"},{"city":"Jammu","state":"Jammu and Kashmir","latitude":32.7266,"longitude":74.857,"temp":32.8,"humidity":60,"rain":0.0,"pressure":965.8,"uv_index":8.65,"wind_gusts":24.1,"aqi":97,"pm10":25.8,"pm2_5":21.8,"no2":7.2,"co":391.0,"o3":141.0,"so2":4.1,"mosquito_risk":0,"arthritis_risk":5,"migraine_risk":7,"frizz_risk":1,"updated_at":"2026-07-07T10:24:09.713964+05:30"},{"city":"Amritsar","state":"Punjab","latitude":31.634,"longitude":74.8723,"temp":31.7,"humidity":74,"rain":0.0,"pressure":973.7,"uv_index":8.4,"wind_gusts":24.8,"aqi":152,"pm10":65.0,"pm2_5":52.4,"no2":7.2,"co":556.0,"o3":141.0,"so2":14.5,"mosquito_risk":3,"arthritis_risk":5,"migraine_risk":7,"frizz_risk":1,"updated_at":"2026-07-07T10:24:09.713973+05:30"},{"city":"Ludhiana","state":"Punjab","latitude":30.901,"longitude":75.8573,"temp":31.6,"humidity":74,"rain":0.0,"pressure":971.9,"uv_index":7.15,"wind_gusts":24.8,"aqi":150,"pm10":72.2,"pm2_5":53.7,"no2":10.5,"co":391.0,"o3":143.0,"so2":18.4,"mosquito_risk":3,"arthritis_risk":5,"migraine_risk":7,"frizz_risk":1,"updated_at":"2026-07-07T10:24:09.713981+05:30"},{"city":"Jalandhar","state":"Punjab","latitude":31.326,"longitude":75.5762,"temp":30.1,"humidity":79,"rain":0.0,"pressure":973.1,"uv_index":7.75,"wind_gusts":28.1,"aqi":151,"pm10":51.7,"pm2_5":47.0,"no2":9.6,"co":343.0,"o3":134.0,"so2":16.3,"mosquito_risk":3,"arthritis_risk":5,"migraine_risk":7,"frizz_risk":1,"updated_at":"2026-07-07T10:24:09.713987+05:30"},{"city":"Dehradun","state":"Uttarakhand","latitude":30.6284,"longitude":78.0322,"temp":24.4,"humidity":69,"rain":0.1,"pressure":828.6,"uv_index":5.85,"wind_gusts":29.2,"aqi":47,"pm10":8.6,"pm2_5":8.5,"no2":2.6,"co":232.0,"o3":127.0,"so2":1.6,"mosquito_risk":6,"arthritis_risk":5,"migraine_risk":3,"frizz_risk":1,"updated_at":"2026-07-07T10:24:09.713993+05:30"},{"city":"Shimla","state":"Himachal Pradesh","latitude":31.1048,"longitude":77.1734,"temp":20.9,"humidity":72,"rain":0.1,"pressure":783.6,"uv_index":5.95,"wind_gusts":28.4,"aqi":51,"pm10":14.8,"pm2_5":13.9,"no2":2.2,"co":256.0,"o3":130.0,"so2":3.6,"mosquito_risk":6,"arthritis_risk":5,"migraine_risk":3,"frizz_risk":0,"updated_at":"2026-07-07T10:24:09.713999+05:30"},{"city":"Manali","state":"Himachal Pradesh","latitude":32.2396,"longitude":77.1887,"temp":25.9,"humidity":61,"rain":0.0,"pressure":818.0,"uv_index":9.25,"wind_gusts":32.8,"aqi":40,"pm10":4.0,"pm2_5":3.7,"no2":8.2,"co":207.0,"o3":98.0,"so2":1.0,"mosquito_risk":7,"arthritis_risk":5,"migraine_risk":7,"frizz_risk":1,"updated_at":"2026-07-07T10:24:09.714007+05:30"},{"city":"Gurgaon","state":"Haryana","latitude":28.4595,"longitude":77.0266,"temp":30.2,"humidity":76,"rain":0.0,"pressure":974.7,"uv_index":7.7,"wind_gusts":28.4,"aqi":129,"pm10":293.4,"pm2_5":70.8,"no2":21.4,"co":476.0,"o3":111.0,"so2":16.9,"mosquito_risk":3,"arthritis_risk":5,"migraine_risk":7,"frizz_risk":1,"updated_at":"2026-07-07T10:24:09.714014+05:30"},{"city":"Noida","state":"Uttar Pradesh","latitude":28.5355,"longitude":77.391,"temp":30.3,"humidity":79,"rain":0.0,"pressure":977.7,"uv_index":6.95,"wind_gusts":27.0,"aqi":129,"pm10":293.4,"pm2_5":70.8,"no2":21.4,"co":435.0,"o3":111.0,"so2":16.9,"mosquito_risk":3,"arthritis_risk":5,"migraine_risk":7,"frizz_risk":1,"updated_at":"2026-07-07T10:24:09.714020+05:30"},{"city":"Ghaziabad","state":"Uttar Pradesh","latitude":28.6692,"longitude":77.4538,"temp":29.7,"humidity":83,"rain":0.0,"pressure":976.0,"uv_index":5.85,"wind_gusts":22.7,"aqi":136,"pm10":151.3,"pm2_5":65.2,"no2":11.8,"co":288.0,"o3":152.0,"so2":15.4,"mosquito_risk":7,"arthritis_risk":5,"migraine_risk":3,"frizz_risk":1,"updated_at":"2026-07-07T10:24:09.714026+05:30"},{"city":"Faridabad","state":"Haryana","latitude":28.4089,"longitude":77.3178,"temp":30.1,"humidity":78,"rain":0.0,"pressure":977.0,"uv_index":6.35,"wind_gusts":24.5,"aqi":129,"pm10":293.4,"pm2_5":70.8,"no2":21.4,"co":372.0,"o3":111.0,"so2":16.9,"mosquito_risk":3,"arthritis_risk":5,"migraine_risk":7,"frizz_risk":1,"updated_at":"2026-07-07T10:24:09.714032+05:30"},{"city":"Meerut","state":"Uttar Pradesh","latitude":28.9845,"longitude":77.7064,"temp":29.8,"humidity":83,"rain":0.0,"pressure":974.8,"uv_index":5.8,"wind_gusts":23.4,"aqi":136,"pm10":151.3,"pm2_5":65.2,"no2":11.8,"co":261.0,"o3":152.0,"so2":15.4,"mosquito_risk":7,"arthritis_risk":5,"migraine_risk":3,"frizz_risk":1,"updated_at":"2026-07-07T10:24:09.714038+05:30"},{"city":"Agra","state":"Uttar Pradesh","latitude":27.1767,"longitude":78.0081,"temp":29.4,"humidity":85,"rain":0.1,"pressure":980.2,"uv_index":3.0,"wind_gusts":34.6,"aqi":110,"pm10":39.2,"pm2_5":28.1,"no2":12.7,"co":326.0,"o3":94.0,"so2":10.1,"mosquito_risk":10,"arthritis_risk":5,"migraine_risk":3,"frizz_risk":1,"updated_at":"2026-07-07T10:24:09.714044+05:30"},{"city":"Varanasi","state":"Uttar Pradesh","latitude":25.3176,"longitude":82.9739,"temp":28.0,"humidity":89,"rain":0.0,"pressure":989.2,"uv_index":6.25,"wind_gusts":36.7,"aqi":59,"pm10":12.9,"pm2_5":12.9,"no2":8.2,"co":483.0,"o3":91.0,"so2":18.0,"mosquito_risk":7,"arthritis_risk":5,"migraine_risk":7,"frizz_risk":1,"updated_at":"2026-07-07T10:24:09.714050+05:30"},{"city":"Prayagraj","state":"Uttar Pradesh","latitude":25.4358,"longitude":81.8463,"temp":28.5,"humidity":87,"rain":0.1,"pressure":987.1,"uv_index":6.6,"wind_gusts":31.7,"aqi":55,"pm10":13.3,"pm2_5":13.3,"no2":5.7,"co":349.0,"o3":102.0,"so2":12.5,"mosquito_risk":10,"arthritis_risk":5,"migraine_risk":7,"frizz_risk":1,"updated_at":"2026-07-07T10:24:09.714057+05:30"},{"city":"Gorakhpur","state":"Uttar Pradesh","latitude":26.7606,"longitude":83.3732,"temp":31.8,"humidity":69,"rain":0.0,"pressure":989.8,"uv_index":6.45,"wind_gusts":50.4,"aqi":46,"pm10":8.8,"pm2_5":8.8,"no2":4.1,"co":235.0,"o3":96.0,"so2":7.2,"mosquito_risk":3,"arthritis_risk":5,"migraine_risk":7,"frizz_risk":1,"updated_at":"2026-07-07T10:24:09.714062+05:30"},{"city":"Bareilly","state":"Uttar Pradesh","latitude":28.367,"longitude":79.4304,"temp":29.0,"humidity":84,"rain":0.1,"pressure":980.5,"uv_index":7.4,"wind_gusts":24.5,"aqi":137,"pm10":27.6,"pm2_5":25.9,"no2":10.1,"co":274.0,"o3":111.0,"so2":19.2,"mosquito_risk":10,"arthritis_risk":5,"migraine_risk":7,"frizz_risk":1,"updated_at":"2026-07-07T10:24:09.714070+05:30"},{"city":"Aligarh","state":"Uttar Pradesh","latitude":27.8974,"longitude":78.088,"temp":30.0,"humidity":79,"rain":0.0,"pressure":978.2,"uv_index":4.3,"wind_gusts":34.9,"aqi":110,"pm10":103.4,"pm2_5":35.9,"no2":6.1,"co":307.0,"o3":120.0,"so2":8.9,"mosquito_risk":7,"arthritis_risk":5,"migraine_risk":3,"frizz_risk":1,"updated_at":"2026-07-07T10:24:09.714077+05:30"},{"city":"Moradabad","state":"Uttar Pradesh","latitude":28.8386,"longitude":78.7733,"temp":31.8,"humidity":73,"rain":0.0,"pressure":976.7,"uv_index":5.75,"wind_gusts":21.6,"aqi":155,"pm10":50.4,"pm2_5":46.8,"no2":8.8,"co":279.0,"o3":140.0,"so2":16.0,"mosquito_risk":3,"arthritis_risk":5,"migraine_risk":3,"frizz_risk":1,"updated_at":"2026-07-07T10:24:09.714083+05:30"},{"city":"Saharanpur","state":"Uttar Pradesh","latitude":29.9637,"longitude":77.546,"temp":32.2,"humidity":69,"rain":0.0,"pressure":969.1,"uv_index":6.75,"wind_gusts":28.4,"aqi":143,"pm10":34.3,"pm2_5":33.5,"no2":6.6,"co":419.0,"o3":163.0,"so2":10.8,"mosquito_risk":3,"arthritis_risk":5,"migraine_risk":7,"frizz_risk":1,"updated_at":"2026-07-07T10:24:09.714089+05:30"},{"city":"Jhansi","state":"Uttar Pradesh","latitude":25.4484,"longitude":78.5685,"temp":26.2,"humidity":94,"rain":0.6,"pressure":969.2,"uv_index":6.45,"wind_gusts":35.6,"aqi":60,"pm10":12.7,"pm2_5":12.3,"no2":6.4,"co":232.0,"o3":101.0,"so2":7.2,"mosquito_risk":10,"arthritis_risk":5,"migraine_risk":7,"frizz_risk":1,"updated_at":"2026-07-07T10:24:13.112091+05:30"},{"city":"Surat","state":"Gujarat","latitude":21.1702,"longitude":72.8311,"temp":27.0,"humidity":95,"rain":0.1,"pressure":998.3,"uv_index":2.2,"wind_gusts":33.1,"aqi":101,"pm10":34.5,"pm2_5":24.4,"no2":26.2,"co":295.0,"o3":24.0,"so2":46.2,"mosquito_risk":10,"arthritis_risk":5,"migraine_risk":3,"frizz_risk":1,"updated_at":"2026-07-07T10:24:13.112126+05:30"},{"city":"Vadodara","state":"Gujarat","latitude":22.3072,"longitude":73.1812,"temp":29.0,"humidity":84,"rain":0.1,"pressure":995.9,"uv_index":1.15,"wind_gusts":30.6,"aqi":80,"pm10":34.6,"pm2_5":20.6,"no2":16.4,"co":347.0,"o3":43.0,"so2":7.5,"mosquito_risk":10,"arthritis_risk":5,"migraine_risk":3,"frizz_risk":1,"updated_at":"2026-07-07T10:24:13.112137+05:30"},{"city":"Rajkot","state":"Gujarat","latitude":22.3039,"longitude":70.8022,"temp":27.4,"humidity":95,"rain":0.1,"pressure":986.4,"uv_index":1.0,"wind_gusts":32.0,"aqi":84,"pm10":35.5,"pm2_5":16.8,"no2":5.9,"co":121.0,"o3":53.0,"so2":6.3,"mosquito_risk":10,"arthritis_risk":5,"migraine_risk":3,"frizz_risk":1,"updated_at":"2026-07-07T10:24:13.112146+05:30"},{"city":"Thane","state":"Maharashtra","latitude":19.2183,"longitude":72.9781,"temp":26.1,"humidity":96,"rain":0.3,"pressure":1001.3,"uv_index":0.8,"wind_gusts":43.2,"aqi":42,"pm10":28.5,"pm2_5":14.1,"no2":7.5,"co":217.0,"o3":49.0,"so2":4.1,"mosquito_risk":10,"arthritis_risk":5,"migraine_risk":0,"frizz_risk":1,"updated_at":"2026-07-07T10:24:13.112154+05:30"},{"city":"Nagpur","state":"Maharashtra","latitude":21.1458,"longitude":79.0882,"temp":29.0,"humidity":70,"rain":0.1,"pressure":964.8,"uv_index":6.5,"wind_gusts":56.2,"aqi":41,"pm10":21.0,"pm2_5":15.7,"no2":12.9,"co":192.0,"o3":33.0,"so2":16.3,"mosquito_risk":10,"arthritis_risk":5,"migraine_risk":7,"frizz_risk":1,"updated_at":"2026-07-07T10:24:13.112162+05:30"},{"city":"Nashik","state":"Maharashtra","latitude":19.9975,"longitude":73.7898,"temp":24.4,"humidity":96,"rain":0.3,"pressure":937.1,"uv_index":2.55,"wind_gusts":49.3,"aqi":28,"pm10":5.6,"pm2_5":4.3,"no2":5.5,"co":176.0,"o3":52.0,"so2":0.8,"mosquito_risk":6,"arthritis_risk":5,"migraine_risk":3,"frizz_risk":1,"updated_at":"2026-07-07T10:24:13.112170+05:30"},{"city":"Aurangabad","state":"Maharashtra","latitude":19.8762,"longitude":75.3433,"temp":24.0,"humidity":95,"rain":0.7,"pressure":935.6,"uv_index":2.7,"wind_gusts":63.4,"aqi":24,"pm10":2.9,"pm2_5":2.9,"no2":5.6,"co":209.0,"o3":71.0,"so2":3.5,"mosquito_risk":6,"arthritis_risk":5,"migraine_risk":3,"frizz_risk":1,"updated_at":"2026-07-07T10:24:13.112178+05:30"},{"city":"Solapur","state":"Maharashtra","latitude":17.6599,"longitude":75.9064,"temp":27.6,"humidity":77,"rain":0.1,"pressure":952.3,"uv_index":1.85,"wind_gusts":73.8,"aqi":22,"pm10":2.3,"pm2_5":1.8,"no2":2.2,"co":122.0,"o3":53.0,"so2":1.7,"mosquito_risk":10,"arthritis_risk":5,"migraine_risk":3,"frizz_risk":1,"updated_at":"2026-07-07T10:24:13.112186+05:30"},{"city":"Kolhapur","state":"Maharashtra","latitude":16.705,"longitude":74.2433,"temp":24.0,"humidity":94,"rain":0.2,"pressure":944.0,"uv_index":3.15,"wind_gusts":57.6,"aqi":22,"pm10":4.0,"pm2_5":3.2,"no2":3.9,"co":141.0,"o3":47.0,"so2":1.4,"mosquito_risk":6,"arthritis_risk":5,"migraine_risk":3,"frizz_risk":1,"updated_at":"2026-07-07T10:24:13.112194+05:30"},{"city":"Goa","state":"Goa","latitude":15.2993,"longitude":74.124,"temp":25.1,"humidity":96,"rain":0.2,"pressure":996.9,"uv_index":7.1,"wind_gusts":47.5,"aqi":58,"pm10":53.8,"pm2_5":21.5,"no2":1.8,"co":182.0,"o3":54.0,"so2":0.7,"mosquito_risk":10,"arthritis_risk":5,"migraine_risk":7,"frizz_risk":1,"updated_at":"2026-07-07T10:24:13.112202+05:30"},{"city":"Jodhpur","state":"Rajasthan","latitude":26.2389,"longitude":73.0243,"temp":31.7,"humidity":58,"rain":0.0,"pressure":975.5,"uv_index":7.65,"wind_gusts":19.8,"aqi":93,"pm10":52.4,"pm2_5":22.9,"no2":3.4,"co":160.0,"o3":99.0,"so2":2.9,"mosquito_risk":0,"arthritis_risk":5,"migraine_risk":7,"frizz_risk":1,"updated_at":"2026-07-07T10:24:13.112210+05:30"},{"city":"Udaipur","state":"Rajasthan","latitude":24.5854,"longitude":73.7125,"temp":29.4,"humidity":69,"rain":0.0,"pressure":939.2,"uv_index":8.75,"wind_gusts":35.6,"aqi":61,"pm10":16.5,"pm2_5":14.0,"no2":4.5,"co":201.0,"o3":94.0,"so2":5.6,"mosquito_risk":7,"arthritis_risk":5,"migraine_risk":7,"frizz_risk":1,"updated_at":"2026-07-07T10:24:13.112218+05:30"},{"city":"Kota","state":"Rajasthan","latitude":25.2138,"longitude":75.8648,"temp":30.5,"humidity":73,"rain":0.0,"pressure":970.7,"uv_index":8.25,"wind_gusts":40.3,"aqi":72,"pm10":20.6,"pm2_5":19.2,"no2":6.6,"co":358.0,"o3":94.0,"so2":6.5,"mosquito_risk":3,"arthritis_risk":5,"migraine_risk":7,"frizz_risk":1,"updated_at":"2026-07-07T10:24:13.112226+05:30"},{"city":"Bikaner","state":"Rajasthan","latitude":28.0229,"longitude":73.3119,"temp":35.0,"humidity":46,"rain":0.0,"pressure":974.5,"uv_index":8.45,"wind_gusts":28.1,"aqi":91,"pm10":92.0,"pm2_5":32.1,"no2":2.1,"co":164.0,"o3":88.0,"so2":3.7,"mosquito_risk":0,"arthritis_risk":5,"migraine_risk":7,"frizz_risk":1,"updated_at":"2026-07-07T10:24:13.112234+05:30"},{"city":"Ajmer","state":"Rajasthan","latitude":26.4499,"longitude":74.6399,"temp":30.3,"humidity":66,"rain":0.0,"pressure":948.3,"uv_index":7.5,"wind_gusts":24.1,"aqi":60,"pm10":18.9,"pm2_5":14.3,"no2":4.3,"co":277.0,"o3":106.0,"so2":3.9,"mosquito_risk":3,"arthritis_risk":5,"migraine_risk":7,"frizz_risk":1,"updated_at":"2026-07-07T10:24:13.112242+05:30"},{"city":"Gwalior","state":"Madhya Pradesh","latitude":26.2183,"longitude":78.1828,"temp":27.2,"humidity":92,"rain":0.5,"pressure":975.1,"uv_index":7.5,"wind_gusts":52.9,"aqi":72,"pm10":46.1,"pm2_5":28.1,"no2":11.2,"co":258.0,"o3":77.0,"so2":7.3,"mosquito_risk":10,"arthritis_risk":5,"migraine_risk":7,"frizz_risk":1,"updated_at":"2026-07-07T10:24:13.112250+05:30"},{"city":"Indore","state":"Madhya Pradesh","latitude":22.7196,"longitude":75.8577,"temp":27.1,"humidity":80,"rain":0.1,"pressure":938.9,"uv_index":7.95,"wind_gusts":30.6,"aqi":85,"pm10":10.3,"pm2_5":10.2,"no2":6.7,"co":366.0,"o3":80.0,"so2":3.6,"mosquito_risk":10,"arthritis_risk":5,"migraine_risk":7,"frizz_risk":1,"updated_at":"2026-07-07T10:24:13.112257+05:30"},{"city":"Bhopal","state":"Madhya Pradesh","latitude":23.2599,"longitude":77.4126,"temp":27.7,"humidity":80,"rain":0.0,"pressure":944.2,"uv_index":2.9,"wind_gusts":19.4,"aqi":55,"pm10":5.8,"pm2_5":5.8,"no2":5.4,"co":262.0,"o3":86.0,"so2":2.1,"mosquito_risk":7,"arthritis_risk":5,"migraine_risk":3,"frizz_risk":1,"updated_at":"2026-07-07T10:24:13.112265+05:30"},{"city":"Jabalpur","state":"Madhya Pradesh","latitude":23.1815,"longitude":79.9864,"temp":27.3,"humidity":84,"rain":0.0,"pressure":952.6,"uv_index":5.85,"wind_gusts":39.2,"aqi":48,"pm10":8.4,"pm2_5":7.5,"no2":6.4,"co":226.0,"o3":54.0,"so2":6.4,"mosquito_risk":7,"arthritis_risk":5,"migraine_risk":3,"frizz_risk":1,"updated_at":"2026-07-07T10:24:13.112272+05:30"},{"city":"Ujjain","state":"Madhya Pradesh","latitude":23.1765,"longitude":75.7885,"temp":27.5,"humidity":77,"rain":0.1,"pressure":944.5,"uv_index":6.55,"wind_gusts":37.1,"aqi":88,"pm10":17.1,"pm2_5":17.1,"no2":6.3,"co":297.0,"o3":81.0,"so2":5.1,"mosquito_risk":10,"arthritis_risk":5,"migraine_risk":7,"frizz_risk":1,"updated_at":"2026-07-07T10:24:13.112280+05:30"},{"city":"Visakhapatnam","state":"Andhra Pradesh","latitude":17.6868,"longitude":83.2185,"temp":32.0,"humidity":58,"rain":0.0,"pressure":999.9,"uv_index":9.0,"wind_gusts":59.4,"aqi":68,"pm10":24.7,"pm2_5":16.6,"no2":11.7,"co":303.0,"o3":67.0,"so2":29.9,"mosquito_risk":0,"arthritis_risk":5,"migraine_risk":7,"frizz_risk":1,"updated_at":"2026-07-07T10:24:13.112288+05:30"},{"city":"Vijayawada","state":"Andhra Pradesh","latitude":16.5062,"longitude":80.648,"temp":34.0,"humidity":49,"rain":0.0,"pressure":998.9,"uv_index":6.5,"wind_gusts":52.9,"aqi":46,"pm10":15.7,"pm2_5":8.9,"no2":3.0,"co":125.0,"o3":56.0,"so2":4.2,"mosquito_risk":0,"arthritis_risk":5,"migraine_risk":7,"frizz_risk":1,"updated_at":"2026-07-07T10:24:13.112295+05:30"},{"city":"Guntur","state":"Andhra Pradesh","latitude":16.3067,"longitude":80.4365,"temp":34.7,"humidity":45,"rain":0.0,"pressure":1000.2,"uv_index":6.5,"wind_gusts":56.9,"aqi":37,"pm10":13.7,"pm2_5":7.9,"no2":2.6,"co":119.0,"o3":56.0,"so2":3.7,"mosquito_risk":0,"arthritis_risk":5,"migraine_risk":4,"frizz_risk":1,"updated_at":"2026-07-07T10:24:13.112303+05:30"},{"city":"Nellore","state":"Andhra Pradesh","latitude":14.4426,"longitude":79.9865,"temp":34.5,"humidity":43,"rain":0.0,"pressure":1003.4,"uv_index":8.7,"wind_gusts":52.6,"aqi":30,"pm10":15.1,"pm2_5":7.2,"no2":3.0,"co":111.0,"o3":59.0,"so2":2.6,"mosquito_risk":0,"arthritis_risk":5,"migraine_risk":4,"frizz_risk":1,"updated_at":"2026-07-07T10:24:13.112311+05:30"},{"city":"Kurnool","state":"Andhra Pradesh","latitude":15.8281,"longitude":78.0373,"temp":31.2,"humidity":54,"rain":0.0,"pressure":974.1,"uv_index":4.6,"wind_gusts":70.2,"aqi":21,"pm10":2.9,"pm2_5":2.0,"no2":2.1,"co":109.0,"o3":59.0,"so2":3.7,"mosquito_risk":0,"arthritis_risk":5,"migraine_risk":3,"frizz_risk":1,"updated_at":"2026-07-07T10:24:13.112320+05:30"},{"city":"Kakinada","state":"Andhra Pradesh","latitude":16.9891,"longitude":82.2475,"temp":32.6,"humidity":57,"rain":0.0,"pressure":1004.0,"uv_index":8.25,"wind_gusts":55.1,"aqi":62,"pm10":19.4,"pm2_5":10.7,"no2":3.5,"co":170.0,"o3":58.0,"so2":3.8,"mosquito_risk":0,"arthritis_risk":5,"migraine_risk":4,"frizz_risk":1,"updated_at":"2026-07-07T10:24:13.112327+05:30"},{"city":"Tirupati","state":"Andhra Pradesh","latitude":13.6288,"longitude":79.4192,"temp":33.8,"humidity":44,"rain":0.0,"pressure":989.7,"uv_index":8.45,"wind_gusts":55.1,"aqi":32,"pm10":9.6,"pm2_5":5.4,"no2":2.7,"co":124.0,"o3":62.0,"so2":2.0,"mosquito_risk":0,"arthritis_risk":5,"migraine_risk":7,"frizz_risk":1,"updated_at":"2026-07-07T10:24:13.112335+05:30"},{"city":"Warangal","state":"Telangana","latitude":17.9689,"longitude":79.5941,"temp":28.5,"humidity":72,"rain":0.1,"pressure":974.1,"uv_index":5.9,"wind_gusts":56.2,"aqi":32,"pm10":8.5,"pm2_5":5.5,"no2":3.1,"co":145.0,"o3":52.0,"so2":3.7,"mosquito_risk":10,"arthritis_risk":5,"migraine_risk":3,"frizz_risk":1,"updated_at":"2026-07-07T10:24:13.112342+05:30"},{"city":"Nizamabad","state":"Telangana","latitude":18.6725,"longitude":78.0941,"temp":27.0,"humidity":78,"rain":0.0,"pressure":958.8,"uv_index":5.35,"wind_gusts":63.4,"aqi":26,"pm10":3.0,"pm2_5":2.6,"no2":2.0,"co":134.0,"o3":52.0,"so2":1.9,"mosquito_risk":7,"arthritis_risk":5,"migraine_risk":3,"frizz_risk":1,"updated_at":"2026-07-07T10:24:13.112350+05:30"},{"city":"Mysore","state":"Karnataka","latitude":12.2958,"longitude":76.6396,"temp":26.2,"humidity":65,"rain":0.0,"pressure":929.7,"uv_index":7.55,"wind_gusts":72.0,"aqi":24,"pm10":2.7,"pm2_5":1.9,"no2":3.7,"co":120.0,"o3":55.0,"so2":1.6,"mosquito_risk":7,"arthritis_risk":5,"migraine_risk":7,"frizz_risk":1,"updated_at":"2026-07-07T10:24:13.112357+05:30"},{"city":"Mangalore","state":"Karnataka","latitude":12.9141,"longitude":74.856,"temp":25.5,"humidity":94,"rain":0.4,"pressure":1008.5,"uv_index":8.15,"wind_gusts":62.3,"aqi":62,"pm10":35.2,"pm2_5":17.5,"no2":4.1,"co":134.0,"o3":50.0,"so2":1.6,"mosquito_risk":10,"arthritis_risk":0,"migraine_risk":4,"frizz_risk":1,"updated_at":"2026-07-07T10:24:13.112364+05:30"},{"city":"Hubli-Dharwad","state":"Karnataka","latitude":15.3647,"longitude":75.124,"temp":23.0,"humidity":93,"rain":0.2,"pressure":938.7,"uv_index":7.0,"wind_gusts":64.4,"aqi":24,"pm10":10.2,"pm2_5":5.3,"no2":2.8,"co":119.0,"o3":52.0,"so2":0.9,"mosquito_risk":6,"arthritis_risk":5,"migraine_risk":7,"frizz_risk":1,"updated_at":"2026-07-07T10:24:13.112372+05:30"},{"city":"Belgaum","state":"Karnataka","latitude":15.8497,"longitude":74.4977,"temp":23.1,"humidity":91,"rain":0.1,"pressure":923.0,"uv_index":3.1,"wind_gusts":62.6,"aqi":22,"pm10":4.1,"pm2_5":3.0,"no2":3.4,"co":119.0,"o3":47.0,"so2":1.0,"mosquito_risk":6,"arthritis_risk":5,"migraine_risk":3,"frizz_risk":1,"updated_at":"2026-07-07T10:24:16.496415+05:30"},{"city":"Coimbatore","state":"Tamil Nadu","latitude":11.0168,"longitude":76.9558,"temp":28.1,"humidity":64,"rain":0.0,"pressure":963.4,"uv_index":8.75,"wind_gusts":75.2,"aqi":26,"pm10":14.6,"pm2_5":7.7,"no2":3.5,"co":165.0,"o3":58.0,"so2":2.3,"mosquito_risk":7,"arthritis_risk":5,"migraine_risk":7,"frizz_risk":1,"updated_at":"2026-07-07T10:24:16.496458+05:30"},{"city":"Madurai","state":"Tamil Nadu","latitude":9.9252,"longitude":78.1198,"temp":34.4,"humidity":38,"rain":0.0,"pressure":993.6,"uv_index":8.7,"wind_gusts":63.4,"aqi":54,"pm10":20.4,"pm2_5":11.8,"no2":3.7,"co":135.0,"o3":68.0,"so2":3.6,"mosquito_risk":0,"arthritis_risk":5,"migraine_risk":7,"frizz_risk":1,"updated_at":"2026-07-07T10:24:16.496473+05:30"},{"city":"Trichy","state":"Tamil Nadu","latitude":10.7905,"longitude":78.7047,"temp":35.3,"humidity":37,"rain":0.0,"pressure":1000.0,"uv_index":8.65,"wind_gusts":75.2,"aqi":44,"pm10":20.9,"pm2_5":11.4,"no2":3.1,"co":122.0,"o3":65.0,"so2":2.7,"mosquito_risk":0,"arthritis_risk":5,"migraine_risk":7,"frizz_risk":1,"updated_at":"2026-07-07T10:24:16.496484+05:30"},{"city":"Salem","state":"Tamil Nadu","latitude":11.6643,"longitude":78.146,"temp":30.3,"humidity":59,"rain":0.0,"pressure":978.3,"uv_index":8.35,"wind_gusts":36.0,"aqi":50,"pm10":18.1,"pm2_5":11.1,"no2":5.4,"co":168.0,"o3":65.0,"so2":7.6,"mosquito_risk":0,"arthritis_risk":5,"migraine_risk":7,"frizz_risk":1,"updated_at":"2026-07-07T10:24:16.496494+05:30"},{"city":"Tirunelveli","state":"Tamil Nadu","latitude":8.7139,"longitude":77.7567,"temp":34.4,"humidity":40,"rain":0.0,"pressure":1004.7,"uv_index":8.45,"wind_gusts":49.7,"aqi":48,"pm10":19.1,"pm2_5":10.9,"no2":2.7,"co":125.0,"o3":59.0,"so2":1.5,"mosquito_risk":0,"arthritis_risk":5,"migraine_risk":4,"frizz_risk":1,"updated_at":"2026-07-07T10:24:16.496503+05:30"},{"city":"Vellore","state":"Tamil Nadu","latitude":12.9165,"longitude":79.1325,"temp":33.3,"humidity":43,"rain":0.0,"pressure":983.8,"uv_index":7.95,"wind_gusts":58.7,"aqi":32,"pm10":14.5,"pm2_5":7.8,"no2":2.7,"co":115.0,"o3":64.0,"so2":2.4,"mosquito_risk":0,"arthritis_risk":5,"migraine_risk":7,"frizz_risk":1,"updated_at":"2026-07-07T10:24:16.496513+05:30"},{"city":"Erode","state":"Tamil Nadu","latitude":11.341,"longitude":77.7172,"temp":31.7,"humidity":50,"rain":0.0,"pressure":989.9,"uv_index":8.4,"wind_gusts":61.2,"aqi":46,"pm10":15.3,"pm2_5":8.9,"no2":3.9,"co":156.0,"o3":62.0,"so2":2.8,"mosquito_risk":0,"arthritis_risk":5,"migraine_risk":7,"frizz_risk":1,"updated_at":"2026-07-07T10:24:16.496523+05:30"},{"city":"Kochi","state":"Kerala","latitude":9.9312,"longitude":76.2673,"temp":29.3,"humidity":74,"rain":0.0,"pressure":1012.1,"uv_index":8.25,"wind_gusts":42.8,"aqi":62,"pm10":32.7,"pm2_5":18.7,"no2":6.8,"co":170.0,"o3":59.0,"so2":4.2,"mosquito_risk":7,"arthritis_risk":0,"migraine_risk":4,"frizz_risk":1,"updated_at":"2026-07-07T10:24:16.496532+05:30"},{"city":"Thiruvananthapuram","state":"Kerala","latitude":8.5241,"longitude":76.9366,"temp":28.8,"humidity":78,"rain":0.0,"pressure":1011.2,"uv_index":8.25,"wind_gusts":48.2,"aqi":55,"pm10":23.3,"pm2_5":13.2,"no2":2.2,"co":115.0,"o3":53.0,"so2":0.9,"mosquito_risk":7,"arthritis_risk":0,"migraine_risk":4,"frizz_risk":1,"updated_at":"2026-07-07T10:24:16.496541+05:30"},{"city":"Kozhikode","state":"Kerala","latitude":11.2588,"longitude":75.7804,"temp":26.2,"humidity":94,"rain":0.2,"pressure":1011.6,"uv_index":8.3,"wind_gusts":37.1,"aqi":61,"pm10":42.1,"pm2_5":17.9,"no2":0.9,"co":202.0,"o3":59.0,"so2":0.7,"mosquito_risk":10,"arthritis_risk":0,"migraine_risk":4,"frizz_risk":1,"updated_at":"2026-07-07T10:24:16.496550+05:30"},{"city":"Thrissur","state":"Kerala","latitude":10.5276,"longitude":76.2144,"temp":26.5,"humidity":92,"rain":0.2,"pressure":1010.9,"uv_index":8.55,"wind_gusts":49.3,"aqi":57,"pm10":28.8,"pm2_5":16.8,"no2":4.3,"co":195.0,"o3":55.0,"so2":2.4,"mosquito_risk":10,"arthritis_risk":0,"migraine_risk":4,"frizz_risk":1,"updated_at":"2026-07-07T10:24:16.496560+05:30"},{"city":"Kannur","state":"Kerala","latitude":11.8745,"longitude":75.3704,"temp":25.3,"humidity":94,"rain":0.4,"pressure":1010.0,"uv_index":7.3,"wind_gusts":51.5,"aqi":57,"pm10":26.3,"pm2_5":12.8,"no2":4.2,"co":155.0,"o3":52.0,"so2":1.6,"mosquito_risk":10,"arthritis_risk":0,"migraine_risk":4,"frizz_risk":1,"updated_at":"2026-07-07T10:24:16.496569+05:30"},{"city":"Patna","state":"Bihar","latitude":25.5941,"longitude":85.1376,"temp":30.5,"humidity":73,"rain":0.0,"pressure":993.1,"uv_index":7.95,"wind_gusts":39.6,"aqi":51,"pm10":10.3,"pm2_5":10.3,"no2":15.1,"co":305.0,"o3":52.0,"so2":20.2,"mosquito_risk":3,"arthritis_risk":5,"migraine_risk":7,"frizz_risk":1,"updated_at":"2026-07-07T10:24:16.496577+05:30"},{"city":"Gaya","state":"Bihar","latitude":24.7914,"longitude":85.0002,"temp":28.1,"humidity":87,"rain":0.1,"pressure":986.5,"uv_index":8.2,"wind_gusts":35.6,"aqi":52,"pm10":5.9,"pm2_5":5.7,"no2":9.4,"co":238.0,"o3":48.0,"so2":8.2,"mosquito_risk":10,"arthritis_risk":5,"migraine_risk":7,"frizz_risk":1,"updated_at":"2026-07-07T10:24:16.496587+05:30"},{"city":"Muzaffarpur","state":"Bihar","latitude":26.1209,"longitude":85.3647,"temp":29.5,"humidity":79,"rain":0.1,"pressure":993.7,"uv_index":6.25,"wind_gusts":48.2,"aqi":47,"pm10":10.4,"pm2_5":10.4,"no2":11.6,"co":256.0,"o3":62.0,"so2":18.0,"mosquito_risk":10,"arthritis_risk":5,"migraine_risk":7,"frizz_risk":1,"updated_at":"2026-07-07T10:24:16.496596+05:30"},{"city":"Bhagalpur","state":"Bihar","latitude":25.2425,"longitude":87.0117,"temp":31.0,"humidity":72,"rain":0.2,"pressure":994.5,"uv_index":8.25,"wind_gusts":42.1,"aqi":52,"pm10":19.8,"pm2_5":19.6,"no2":10.9,"co":304.0,"o3":75.0,"so2":16.2,"mosquito_risk":6,"arthritis_risk":5,"migraine_risk":7,"frizz_risk":1,"updated_at":"2026-07-07T10:24:16.496604+05:30"},{"city":"Ranchi","state":"Jharkhand","latitude":23.3441,"longitude":85.3096,"temp":25.2,"humidity":87,"rain":0.1,"pressure":931.8,"uv_index":7.2,"wind_gusts":51.8,"aqi":26,"pm10":5.4,"pm2_5":5.1,"no2":5.2,"co":168.0,"o3":61.0,"so2":7.2,"mosquito_risk":10,"arthritis_risk":5,"migraine_risk":7,"frizz_risk":1,"updated_at":"2026-07-07T10:24:16.496614+05:30"},{"city":"Jamshedpur","state":"Jharkhand","latitude":22.8046,"longitude":86.2029,"temp":29.7,"humidity":72,"rain":0.1,"pressure":985.2,"uv_index":7.85,"wind_gusts":49.3,"aqi":52,"pm10":20.0,"pm2_5":18.6,"no2":12.1,"co":202.0,"o3":70.0,"so2":24.9,"mosquito_risk":10,"arthritis_risk":5,"migraine_risk":7,"frizz_risk":1,"updated_at":"2026-07-07T10:24:16.496622+05:30"},{"city":"Dhanbad","state":"Jharkhand","latitude":23.7957,"longitude":86.4304,"temp":28.0,"humidity":83,"rain":0.1,"pressure":973.5,"uv_index":7.95,"wind_gusts":47.2,"aqi":72,"pm10":28.9,"pm2_5":27.9,"no2":31.6,"co":701.0,"o3":30.0,"so2":80.4,"mosquito_risk":10,"arthritis_risk":5,"migraine_risk":7,"frizz_risk":1,"updated_at":"2026-07-07T10:24:16.496631+05:30"},{"city":"Bokaro","state":"Jharkhand","latitude":23.6693,"longitude":86.1511,"temp":29.9,"humidity":73,"rain":0.0,"pressure":977.2,"uv_index":8.5,"wind_gusts":48.6,"aqi":68,"pm10":17.1,"pm2_5":16.4,"no2":22.6,"co":232.0,"o3":36.0,"so2":57.2,"mosquito_risk":7,"arthritis_risk":5,"migraine_risk":7,"frizz_risk":1,"updated_at":"2026-07-07T10:24:16.496640+05:30"},{"city":"Bhubaneswar","state":"Odisha","latitude":20.2961,"longitude":85.8245,"temp":31.3,"humidity":73,"rain":0.0,"pressure":998.0,"uv_index":8.85,"wind_gusts":58.7,"aqi":58,"pm10":31.8,"pm2_5":21.8,"no2":2.2,"co":143.0,"o3":95.0,"so2":3.8,"mosquito_risk":3,"arthritis_risk":5,"migraine_risk":7,"frizz_risk":1,"updated_at":"2026-07-07T10:24:16.496649+05:30"},{"city":"Cuttack","state":"Odisha","latitude":20.4625,"longitude":85.8828,"temp":31.3,"humidity":72,"rain":0.0,"pressure":999.6,"uv_index":8.75,"wind_gusts":50.4,"aqi":58,"pm10":31.8,"pm2_5":21.8,"no2":2.2,"co":174.0,"o3":95.0,"so2":3.8,"mosquito_risk":3,"arthritis_risk":5,"migraine_risk":7,"frizz_risk":1,"updated_at":"2026-07-07T10:24:16.496658+05:30"},{"city":"Rourkela","state":"Odisha","latitude":22.2604,"longitude":84.8536,"temp":29.0,"humidity":77,"rain":0.1,"pressure":979.5,"uv_index":5.5,"wind_gusts":47.9,"aqi":31,"pm10":13.0,"pm2_5":11.6,"no2":5.0,"co":251.0,"o3":67.0,"so2":5.2,"mosquito_risk":10,"arthritis_risk":5,"migraine_risk":3,"frizz_risk":1,"updated_at":"2026-07-07T10:24:16.496666+05:30"},{"city":"Raipur","state":"Chhattisgarh","latitude":21.2514,"longitude":81.6296,"temp":29.8,"humidity":64,"rain":0.0,"pressure":967.8,"uv_index":7.05,"wind_gusts":51.1,"aqi":53,"pm10":17.0,"pm2_5":13.8,"no2":11.5,"co":173.0,"o3":54.0,"so2":30.8,"mosquito_risk":7,"arthritis_risk":5,"migraine_risk":7,"frizz_risk":1,"updated_at":"2026-07-07T10:24:16.496674+05:30"},{"city":"Bhilai","state":"Chhattisgarh","latitude":21.1938,"longitude":81.3509,"temp":29.5,"humidity":66,"rain":0.0,"pressure":968.0,"uv_index":7.7,"wind_gusts":51.8,"aqi":52,"pm10":15.6,"pm2_5":12.8,"no2":11.8,"co":289.0,"o3":52.0,"so2":32.8,"mosquito_risk":7,"arthritis_risk":5,"migraine_risk":7,"frizz_risk":1,"updated_at":"2026-07-07T10:24:16.496683+05:30"},{"city":"Guwahati","state":"Assam","latitude":26.1158,"longitude":91.7086,"temp":28.0,"humidity":88,"rain":0.2,"pressure":997.6,"uv_index":4.45,"wind_gusts":21.6,"aqi":31,"pm10":7.0,"pm2_5":6.7,"no2":2.5,"co":180.0,"o3":80.0,"so2":2.2,"mosquito_risk":10,"arthritis_risk":5,"migraine_risk":3,"frizz_risk":1,"updated_at":"2026-07-07T10:24:16.496691+05:30"},{"city":"Agartala","state":"Tripura","latitude":23.8315,"longitude":91.2868,"temp":27.3,"humidity":95,"rain":0.1,"pressure":1003.2,"uv_index":5.6,"wind_gusts":36.4,"aqi":31,"pm10":10.9,"pm2_5":8.6,"no2":4.9,"co":139.0,"o3":68.0,"so2":2.0,"mosquito_risk":10,"arthritis_risk":5,"migraine_risk":0,"frizz_risk":1,"updated_at":"2026-07-07T10:24:16.496701+05:30"},{"city":"Shillong","state":"Meghalaya","latitude":25.5788,"longitude":91.8933,"temp":23.5,"humidity":77,"rain":0.0,"pressure":856.0,"uv_index":3.4,"wind_gusts":36.0,"aqi":25,"pm10":3.7,"pm2_5":3.5,"no2":3.5,"co":133.0,"o3":64.0,"so2":2.5,"mosquito_risk":3,"arthritis_risk":5,"migraine_risk":3,"frizz_risk":1,"updated_at":"2026-07-07T10:24:16.496709+05:30"},{"city":"Imphal","state":"Manipur","latitude":24.817,"longitude":93.9368,"temp":26.0,"humidity":81,"rain":0.0,"pressure":921.6,"uv_index":7.45,"wind_gusts":32.0,"aqi":19,"pm10":4.8,"pm2_5":3.2,"no2":1.7,"co":130.0,"o3":61.0,"so2":1.3,"mosquito_risk":7,"arthritis_risk":5,"migraine_risk":7,"frizz_risk":1,"updated_at":"2026-07-07T10:24:16.496718+05:30"},{"city":"Aizawl","state":"Mizoram","latitude":23.7271,"longitude":92.7176,"temp":23.0,"humidity":84,"rain":0.0,"pressure":891.4,"uv_index":2.6,"wind_gusts":48.2,"aqi":24,"pm10":5.3,"pm2_5":3.0,"no2":1.4,"co":109.0,"o3":60.0,"so2":0.8,"mosquito_risk":3,"arthritis_risk":5,"migraine_risk":3,"frizz_risk":1,"updated_at":"2026-07-07T10:24:16.496727+05:30"},{"city":"Kohima","state":"Nagaland","latitude":25.6701,"longitude":94.1077,"temp":22.7,"humidity":90,"rain":0.1,"pressure":854.2,"uv_index":3.35,"wind_gusts":20.2,"aqi":20,"pm10":4.9,"pm2_5":3.2,"no2":0.8,"co":141.0,"o3":69.0,"so2":1.0,"mosquito_risk":6,"arthritis_risk":5,"migraine_risk":3,"frizz_risk":1,"updated_at":"2026-07-07T10:24:16.496736+05:30"},{"city":"Gangtok","state":"Sikkim","latitude":27.3314,"longitude":88.6138,"temp":19.7,"humidity":97,"rain":0.1,"pressure":836.1,"uv_index":1.9,"wind_gusts":25.6,"aqi":30,"pm10":2.1,"pm2_5":2.1,"no2":1.9,"co":160.0,"o3":74.0,"so2":1.1,"mosquito_risk":6,"arthritis_risk":10,"migraine_risk":3,"frizz_risk":1,"updated_at":"2026-07-07T10:24:16.496745+05:30"},{"city":"Siliguri","state":"West Bengal","latitude":26.7271,"longitude":88.3953,"temp":27.4,"humidity":95,"rain":0.2,"pressure":989.2,"uv_index":8.2,"wind_gusts":31.7,"aqi":30,"pm10":7.5,"pm2_5":7.3,"no2":5.4,"co":278.0,"o3":73.0,"so2":2.8,"mosquito_risk":10,"arthritis_risk":5,"migraine_risk":7,"frizz_risk":1,"updated_at":"2026-07-07T10:24:19.880636+05:30"},{"city":"Durgapur","state":"West Bengal","latitude":23.5204,"longitude":87.3119,"temp":28.3,"humidity":87,"rain":0.0,"pressure":989.1,"uv_index":8.7,"wind_gusts":47.2,"aqi":69,"pm10":30.6,"pm2_5":29.4,"no2":18.8,"co":441.0,"o3":59.0,"so2":37.8,"mosquito_risk":7,"arthritis_risk":5,"migraine_risk":7,"frizz_risk":1,"updated_at":"2026-07-07T10:24:19.880671+05:30"},{"city":"Asansol","state":"West Bengal","latitude":23.6739,"longitude":86.9524,"temp":28.6,"humidity":81,"rain":0.1,"pressure":987.5,"uv_index":6.6,"wind_gusts":47.2,"aqi":63,"pm10":26.3,"pm2_5":25.3,"no2":21.2,"co":293.0,"o3":47.0,"so2":39.2,"mosquito_risk":10,"arthritis_risk":5,"migraine_risk":7,"frizz_risk":1,"updated_at":"2026-07-07T10:24:19.880682+05:30"},{"city":"Pondicherry","state":"Puducherry","latitude":11.9139,"longitude":79.8145,"temp":33.3,"humidity":51,"rain":0.0,"pressure":1008.0,"uv_index":8.7,"wind_gusts":43.6,"aqi":61,"pm10":22.6,"pm2_5":15.4,"no2":7.9,"co":194.0,"o3":62.0,"so2":10.8,"mosquito_risk":0,"arthritis_risk":0,"migraine_risk":4,"frizz_risk":1,"updated_at":"2026-07-07T10:24:19.880692+05:30"},{"city":"Port Blair","state":"Andaman and Nicobar Islands","latitude":11.6234,"longitude":92.7265,"temp":30.9,"humidity":66,"rain":0.0,"pressure":1008.9,"uv_index":7.85,"wind_gusts":41.4,"aqi":54,"pm10":27.6,"pm2_5":15.8,"no2":0.3,"co":96.0,"o3":71.0,"so2":0.6,"mosquito_risk":3,"arthritis_risk":0,"migraine_risk":4,"frizz_risk":1,"updated_at":"2026-07-07T10:24:19.880701+05:30"},{"city":"Haridwar","state":"Uttarakhand","latitude":29.9457,"longitude":78.1642,"temp":32.6,"humidity":63,"rain":0.0,"pressure":967.3,"uv_index":6.4,"wind_gusts":31.3,"aqi":103,"pm10":23.1,"pm2_5":22.7,"no2":0.7,"co":261.0,"o3":151.0,"so2":7.0,"mosquito_risk":3,"arthritis_risk":5,"migraine_risk":7,"frizz_risk":1,"updated_at":"2026-07-07T10:24:19.880709+05:30"},{"city":"Rishikesh","state":"Uttarakhand","latitude":30.0869,"longitude":78.2676,"temp":32.0,"humidity":61,"rain":0.0,"pressure":960.2,"uv_index":6.75,"wind_gusts":30.6,"aqi":65,"pm10":17.9,"pm2_5":17.7,"no2":1.4,"co":273.0,"o3":136.0,"so2":5.5,"mosquito_risk":3,"arthritis_risk":5,"migraine_risk":7,"frizz_risk":1,"updated_at":"2026-07-07T10:24:19.880717+05:30"},{"city":"Nainital","state":"Uttarakhand","latitude":29.3919,"longitude":79.4542,"temp":22.7,"humidity":66,"rain":0.0,"pressure":804.3,"uv_index":6.05,"wind_gusts":29.9,"aqi":69,"pm10":20.1,"pm2_5":19.5,"no2":0.3,"co":250.0,"o3":134.0,"so2":6.3,"mosquito_risk":3,"arthritis_risk":5,"migraine_risk":7,"frizz_risk":0,"updated_at":"2026-07-07T10:24:19.880725+05:30"},{"city":"Mussoorie","state":"Uttarakhand","latitude":30.4599,"longitude":78.0664,"temp":22.9,"humidity":69,"rain":0.0,"pressure":802.1,"uv_index":5.85,"wind_gusts":32.8,"aqi":73,"pm10":19.8,"pm2_5":19.7,"no2":2.2,"co":261.0,"o3":154.0,"so2":6.6,"mosquito_risk":3,"arthritis_risk":5,"migraine_risk":3,"frizz_risk":1,"updated_at":"2026-07-07T10:24:19.880733+05:30"},{"city":"Dharamshala","state":"Himachal Pradesh","latitude":32.219,"longitude":76.3234,"temp":24.3,"humidity":83,"rain":0.0,"pressure":865.9,"uv_index":8.45,"wind_gusts":32.8,"aqi":35,"pm10":7.5,"pm2_5":6.7,"no2":1.2,"co":316.0,"o3":118.0,"so2":1.0,"mosquito_risk":3,"arthritis_risk":5,"migraine_risk":7,"frizz_risk":1,"updated_at":"2026-07-07T10:24:19.880740+05:30"},{"city":"Dalhousie","state":"Himachal Pradesh","latitude":32.5387,"longitude":75.971,"temp":22.1,"humidity":78,"rain":0.0,"pressure":803.3,"uv_index":8.7,"wind_gusts":26.3,"aqi":58,"pm10":14.2,"pm2_5":13.1,"no2":4.1,"co":326.0,"o3":152.0,"so2":3.3,"mosquito_risk":3,"arthritis_risk":5,"migraine_risk":7,"frizz_risk":1,"updated_at":"2026-07-07T10:24:19.880748+05:30"},{"city":"Patiala","state":"Punjab","latitude":30.3398,"longitude":76.3869,"temp":32.2,"humidity":71,"rain":0.0,"pressure":971.5,"uv_index":7.55,"wind_gusts":24.1,"aqi":137,"pm10":44.0,"pm2_5":39.9,"no2":7.6,"co":432.0,"o3":133.0,"so2":12.3,"mosquito_risk":3,"arthritis_risk":5,"migraine_risk":7,"frizz_risk":1,"updated_at":"2026-07-07T10:24:19.880756+05:30"},{"city":"Bhatinda","state":"Punjab","latitude":30.211,"longitude":74.9455,"temp":34.4,"humidity":58,"rain":0.0,"pressure":976.2,"uv_index":8.1,"wind_gusts":22.7,"aqi":150,"pm10":237.0,"pm2_5":81.7,"no2":11.5,"co":454.0,"o3":133.0,"so2":20.2,"mosquito_risk":0,"arthritis_risk":5,"migraine_risk":7,"frizz_risk":1,"updated_at":"2026-07-07T10:24:19.880762+05:30"},{"city":"Rohtak","state":"Haryana","latitude":28.8955,"longitude":76.6066,"temp":31.7,"humidity":73,"rain":0.0,"pressure":974.8,"uv_index":5.35,"wind_gusts":23.0,"aqi":138,"pm10":111.8,"pm2_5":49.5,"no2":25.6,"co":268.0,"o3":117.0,"so2":23.6,"mosquito_risk":3,"arthritis_risk":5,"migraine_risk":3,"frizz_risk":1,"updated_at":"2026-07-07T10:24:19.880770+05:30"},{"city":"Panipat","state":"Haryana","latitude":29.3909,"longitude":76.9635,"temp":31.3,"humidity":77,"rain":0.1,"pressure":973.4,"uv_index":5.55,"wind_gusts":26.3,"aqi":135,"pm10":70.3,"pm2_5":44.2,"no2":21.7,"co":267.0,"o3":110.0,"so2":23.3,"mosquito_risk":6,"arthritis_risk":5,"migraine_risk":3,"frizz_risk":1,"updated_at":"2026-07-07T10:24:19.880778+05:30"},{"city":"Mathura","state":"Uttar Pradesh","latitude":27.4924,"longitude":77.6737,"temp":28.4,"humidity":92,"rain":0.1,"pressure":979.5,"uv_index":4.35,"wind_gusts":24.8,"aqi":106,"pm10":177.4,"pm2_5":41.0,"no2":4.7,"co":326.0,"o3":124.0,"so2":6.2,"mosquito_risk":10,"arthritis_risk":5,"migraine_risk":3,"frizz_risk":1,"updated_at":"2026-07-07T10:24:19.880785+05:30"},{"city":"Vrindavan","state":"Uttar Pradesh","latitude":27.5823,"longitude":77.7027,"temp":28.4,"humidity":92,"rain":0.2,"pressure":979.9,"uv_index":4.3,"wind_gusts":25.9,"aqi":106,"pm10":177.4,"pm2_5":41.0,"no2":4.7,"co":322.0,"o3":124.0,"so2":6.2,"mosquito_risk":10,"arthritis_risk":5,"migraine_risk":3,"frizz_risk":1,"updated_at":"2026-07-07T10:24:19.880793+05:30"},{"city":"Ayodhya","state":"Uttar Pradesh","latitude":26.7922,"longitude":82.1998,"temp":31.8,"humidity":69,"rain":0.0,"pressure":987.6,"uv_index":4.65,"wind_gusts":46.8,"aqi":53,"pm10":11.2,"pm2_5":11.1,"no2":4.2,"co":238.0,"o3":98.0,"so2":5.2,"mosquito_risk":3,"arthritis_risk":5,"migraine_risk":3,"frizz_risk":1,"updated_at":"2026-07-07T10:24:19.880800+05:30"},{"city":"Ratlam","state":"Madhya Pradesh","latitude":23.3315,"longitude":75.0367,"temp":27.8,"humidity":78,"rain":0.0,"pressure":945.8,"uv_index":7.1,"wind_gusts":35.3,"aqi":84,"pm10":16.4,"pm2_5":16.4,"no2":4.7,"co":234.0,"o3":94.0,"so2":7.1,"mosquito_risk":7,"arthritis_risk":5,"migraine_risk":7,"frizz_risk":1,"updated_at":"2026-07-07T10:24:19.880807+05:30"},{"city":"Sagar","state":"Madhya Pradesh","latitude":23.8388,"longitude":78.7378,"temp":28.7,"humidity":75,"rain":0.1,"pressure":940.9,"uv_index":4.0,"wind_gusts":24.1,"aqi":41,"pm10":3.6,"pm2_5":3.5,"no2":4.1,"co":235.0,"o3":92.0,"so2":1.7,"mosquito_risk":10,"arthritis_risk":5,"migraine_risk":3,"frizz_risk":1,"updated_at":"2026-07-07T10:24:19.880814+05:30"},{"city":"Satna","state":"Madhya Pradesh","latitude":24.6005,"longitude":80.8322,"temp":26.4,"humidity":93,"rain":0.1,"pressure":961.9,"uv_index":3.8,"wind_gusts":40.3,"aqi":50,"pm10":18.6,"pm2_5":18.5,"no2":8.8,"co":244.0,"o3":81.0,"so2":10.6,"mosquito_risk":10,"arthritis_risk":5,"migraine_risk":3,"frizz_risk":1,"updated_at":"2026-07-07T10:24:19.880821+05:30"},{"city":"Akola","state":"Maharashtra","latitude":20.7002,"longitude":77.0082,"temp":27.9,"humidity":82,"rain":0.0,"pressure":966.4,"uv_index":6.75,"wind_gusts":48.6,"aqi":27,"pm10":7.3,"pm2_5":6.7,"no2":6.5,"co":219.0,"o3":56.0,"so2":9.0,"mosquito_risk":7,"arthritis_risk":5,"migraine_risk":7,"frizz_risk":1,"updated_at":"2026-07-07T10:24:19.880828+05:30"},{"city":"Amravati","state":"Maharashtra","latitude":20.9374,"longitude":77.7796,"temp":27.2,"humidity":84,"rain":0.0,"pressure":958.5,"uv_index":7.25,"wind_gusts":48.6,"aqi":30,"pm10":9.0,"pm2_5":7.8,"no2":7.0,"co":192.0,"o3":46.0,"so2":7.0,"mosquito_risk":7,"arthritis_risk":5,"migraine_risk":7,"frizz_risk":1,"updated_at":"2026-07-07T10:24:19.880836+05:30"},{"city":"Latur","state":"Maharashtra","latitude":18.4088,"longitude":76.5604,"temp":28.6,"humidity":65,"rain":0.0,"pressure":934.0,"uv_index":2.95,"wind_gusts":67.0,"aqi":24,"pm10":2.2,"pm2_5":2.1,"no2":2.7,"co":134.0,"o3":45.0,"so2":0.9,"mosquito_risk":7,"arthritis_risk":5,"migraine_risk":3,"frizz_risk":1,"updated_at":"2026-07-07T10:24:19.880866+05:30"},{"city":"Nanded","state":"Maharashtra","latitude":19.1383,"longitude":77.3091,"temp":29.1,"humidity":68,"rain":0.0,"pressure":961.9,"uv_index":5.6,"wind_gusts":65.5,"aqi":30,"pm10":2.7,"pm2_5":2.6,"no2":4.5,"co":153.0,"o3":46.0,"so2":3.3,"mosquito_risk":7,"arthritis_risk":5,"migraine_risk":3,"frizz_risk":1,"updated_at":"2026-07-07T10:24:19.880874+05:30"},{"city":"Gulbarga","state":"Karnataka","latitude":17.3297,"longitude":76.8343,"temp":28.2,"humidity":68,"rain":0.0,"pressure":954.4,"uv_index":5.0,"wind_gusts":72.0,"aqi":21,"pm10":3.4,"pm2_5":2.3,"no2":2.3,"co":116.0,"o3":56.0,"so2":1.9,"mosquito_risk":7,"arthritis_risk":5,"migraine_risk":3,"frizz_risk":1,"updated_at":"2026-07-07T10:24:19.880881+05:30"},{"city":"Bidar","state":"Karnataka","latitude":17.9104,"longitude":77.5199,"temp":26.5,"humidity":75,"rain":0.0,"pressure":930.7,"uv_index":5.8,"wind_gusts":69.8,"aqi":23,"pm10":3.8,"pm2_5":2.7,"no2":2.3,"co":117.0,"o3":55.0,"so2":1.9,"mosquito_risk":7,"arthritis_risk":5,"migraine_risk":3,"frizz_risk":1,"updated_at":"2026-07-07T10:24:19.880889+05:30"},{"city":"Hospet","state":"Karnataka","latitude":15.2689,"longitude":76.3909,"temp":27.5,"humidity":68,"rain":0.0,"pressure":954.0,"uv_index":6.3,"wind_gusts":77.8,"aqi":23,"pm10":2.8,"pm2_5":1.8,"no2":2.7,"co":108.0,"o3":57.0,"so2":1.5,"mosquito_risk":7,"arthritis_risk":5,"migraine_risk":7,"frizz_risk":1,"updated_at":"2026-07-07T10:24:19.880896+05:30"},{"city":"Tirupur","state":"Tamil Nadu","latitude":11.1085,"longitude":77.3411,"temp":29.7,"humidity":57,"rain":0.0,"pressure":976.2,"uv_index":8.45,"wind_gusts":74.5,"aqi":48,"pm10":18.3,"pm2_5":10.7,"no2":4.4,"co":144.0,"o3":62.0,"so2":3.8,"mosquito_risk":4,"arthritis_risk":5,"migraine_risk":7,"frizz_risk":1,"updated_at":"2026-07-07T10:24:19.880904+05:30"},{"city":"Alappuzha","state":"Kerala","latitude":9.4981,"longitude":76.3388,"temp":29.2,"humidity":75,"rain":0.0,"pressure":1012.0,"uv_index":8.5,"wind_gusts":42.8,"aqi":64,"pm10":32.9,"pm2_5":17.7,"no2":5.2,"co":91.0,"o3":59.0,"so2":2.4,"mosquito_risk":7,"arthritis_risk":0,"migraine_risk":4,"frizz_risk":1,"updated_at":"2026-07-07T10:24:19.880911+05:30"},{"city":"Munnar","state":"Kerala","latitude":10.0889,"longitude":77.0595,"temp":17.4,"humidity":90,"rain":0.0,"pressure":859.0,"uv_index":5.25,"wind_gusts":62.3,"aqi":32,"pm10":6.9,"pm2_5":4.0,"no2":2.4,"co":99.0,"o3":55.0,"so2":1.5,"mosquito_risk":3,"arthritis_risk":10,"migraine_risk":3,"frizz_risk":0,"updated_at":"2026-07-07T10:24:19.880919+05:30"},{"city":"Silchar","state":"Assam","latitude":24.8333,"longitude":92.7789,"temp":28.1,"humidity":88,"rain":0.0,"pressure":1002.7,"uv_index":3.5,"wind_gusts":31.0,"aqi":38,"pm10":13.5,"pm2_5":10.2,"no2":2.9,"co":172.0,"o3":70.0,"so2":3.6,"mosquito_risk":7,"arthritis_risk":5,"migraine_risk":0,"frizz_risk":1,"updated_at":"2026-07-07T10:24:19.880927+05:30"},{"city":"Dibrugarh","state":"Assam","latitude":27.4728,"longitude":94.912,"temp":31.4,"humidity":71,"rain":0.0,"pressure":990.6,"uv_index":1.25,"wind_gusts":42.1,"aqi":40,"pm10":6.4,"pm2_5":5.6,"no2":2.0,"co":164.0,"o3":79.0,"so2":1.8,"mosquito_risk":3,"arthritis_risk":5,"migraine_risk":3,"frizz_risk":1,"updated_at":"2026-07-07T10:24:19.880934+05:30"}]