[{"city":"Delhi","state":"Delhi","latitude":28.6139,"longitude":77.209,"temp":38.5,"humidity":33,"rain":0.0,"pressure":976.0,"uv_index":7.75,"wind_gusts":27.7,"aqi":192,"pm10":289.6,"pm2_5":82.4,"no2":5.5,"co":254.0,"o3":187.0,"so2":16.5,"mosquito_risk":0,"arthritis_risk":5,"migraine_risk":10,"frizz_risk":1,"updated_at":"2026-06-25T16:15:04.402796+05:30"},{"city":"Mumbai","state":"Maharashtra","latitude":19.076,"longitude":72.8777,"temp":28.2,"humidity":81,"rain":0.0,"pressure":1004.8,"uv_index":4.6,"wind_gusts":37.1,"aqi":55,"pm10":24.9,"pm2_5":14.8,"no2":7.5,"co":181.0,"o3":90.0,"so2":10.3,"mosquito_risk":7,"arthritis_risk":5,"migraine_risk":0,"frizz_risk":1,"updated_at":"2026-06-25T16:15:04.402840+05:30"},{"city":"Bangalore","state":"Karnataka","latitude":12.9716,"longitude":77.5946,"temp":26.9,"humidity":65,"rain":0.0,"pressure":909.1,"uv_index":8.55,"wind_gusts":52.9,"aqi":26,"pm10":12.6,"pm2_5":6.9,"no2":6.8,"co":271.0,"o3":68.0,"so2":2.4,"mosquito_risk":7,"arthritis_risk":5,"migraine_risk":7,"frizz_risk":1,"updated_at":"2026-06-25T16:15:04.402856+05:30"},{"city":"Hyderabad","state":"Telangana","latitude":17.385,"longitude":78.4867,"temp":30.9,"humidity":53,"rain":0.0,"pressure":948.0,"uv_index":7.6,"wind_gusts":41.4,"aqi":37,"pm10":21.5,"pm2_5":12.2,"no2":6.9,"co":277.0,"o3":88.0,"so2":3.5,"mosquito_risk":0,"arthritis_risk":5,"migraine_risk":7,"frizz_risk":1,"updated_at":"2026-06-25T16:15:04.402866+05:30"},{"city":"Chennai","state":"Tamil Nadu","latitude":13.0827,"longitude":80.2707,"temp":32.8,"humidity":62,"rain":0.1,"pressure":1001.0,"uv_index":7.7,"wind_gusts":38.9,"aqi":59,"pm10":26.5,"pm2_5":18.5,"no2":3.5,"co":240.0,"o3":131.0,"so2":4.6,"mosquito_risk":6,"arthritis_risk":5,"migraine_risk":4,"frizz_risk":1,"updated_at":"2026-06-25T16:15:04.402874+05:30"},{"city":"Kolkata","state":"West Bengal","latitude":22.5726,"longitude":88.3639,"temp":30.5,"humidity":83,"rain":0.0,"pressure":999.4,"uv_index":8.7,"wind_gusts":35.3,"aqi":125,"pm10":26.6,"pm2_5":24.7,"no2":4.2,"co":513.0,"o3":144.0,"so2":10.2,"mosquito_risk":3,"arthritis_risk":5,"migraine_risk":7,"frizz_risk":1,"updated_at":"2026-06-25T16:15:04.402881+05:30"},{"city":"Pune","state":"Maharashtra","latitude":18.5204,"longitude":73.8567,"temp":27.2,"humidity":69,"rain":0.0,"pressure":944.3,"uv_index":8.2,"wind_gusts":40.3,"aqi":32,"pm10":15.7,"pm2_5":7.9,"no2":3.2,"co":142.0,"o3":70.0,"so2":3.8,"mosquito_risk":7,"arthritis_risk":5,"migraine_risk":7,"frizz_risk":1,"updated_at":"2026-06-25T16:15:04.402888+05:30"},{"city":"Ahmedabad","state":"Gujarat","latitude":23.0225,"longitude":72.5714,"temp":38.1,"humidity":37,"rain":0.0,"pressure":994.7,"uv_index":8.0,"wind_gusts":37.8,"aqi":71,"pm10":69.2,"pm2_5":24.6,"no2":1.6,"co":135.0,"o3":94.0,"so2":2.8,"mosquito_risk":0,"arthritis_risk":5,"migraine_risk":10,"frizz_risk":1,"updated_at":"2026-06-25T16:15:04.402895+05:30"},{"city":"Jaipur","state":"Rajasthan","latitude":26.9124,"longitude":75.7873,"temp":36.1,"humidity":36,"rain":0.0,"pressure":954.0,"uv_index":8.2,"wind_gusts":31.3,"aqi":133,"pm10":156.5,"pm2_5":41.4,"no2":1.2,"co":153.0,"o3":99.0,"so2":2.7,"mosquito_risk":0,"arthritis_risk":5,"migraine_risk":10,"frizz_risk":1,"updated_at":"2026-06-25T16:15:04.402902+05:30"},{"city":"Lucknow","state":"Uttar Pradesh","latitude":26.8467,"longitude":80.9462,"temp":39.3,"humidity":31,"rain":0.0,"pressure":985.4,"uv_index":8.3,"wind_gusts":34.2,"aqi":157,"pm10":263.6,"pm2_5":63.6,"no2":1.1,"co":181.0,"o3":152.0,"so2":5.0,"mosquito_risk":0,"arthritis_risk":5,"migraine_risk":10,"frizz_risk":1,"updated_at":"2026-06-25T16:15:04.402913+05:30"},{"city":"Kanpur","state":"Uttar Pradesh","latitude":26.4499,"longitude":80.3319,"temp":39.5,"humidity":27,"rain":0.0,"pressure":983.8,"uv_index":8.3,"wind_gusts":45.0,"aqi":151,"pm10":228.6,"pm2_5":53.4,"no2":1.1,"co":173.0,"o3":142.0,"so2":4.6,"mosquito_risk":0,"arthritis_risk":5,"migraine_risk":10,"frizz_risk":1,"updated_at":"2026-06-25T16:15:04.402920+05:30"},{"city":"Chandigarh","state":"Chandigarh","latitude":30.7333,"longitude":76.7794,"temp":35.6,"humidity":43,"rain":0.0,"pressure":963.2,"uv_index":7.8,"wind_gusts":26.6,"aqi":187,"pm10":115.7,"pm2_5":48.4,"no2":2.0,"co":289.0,"o3":207.0,"so2":13.2,"mosquito_risk":0,"arthritis_risk":5,"migraine_risk":10,"frizz_risk":1,"updated_at":"2026-06-25T16:15:04.402927+05:30"},{"city":"Srinagar","state":"Jammu and Kashmir","latitude":34.0837,"longitude":74.7973,"temp":29.9,"humidity":35,"rain":0.0,"pressure":840.7,"uv_index":9.1,"wind_gusts":26.6,"aqi":97,"pm10":16.2,"pm2_5":13.4,"no2":1.1,"co":231.0,"o3":158.0,"so2":2.1,"mosquito_risk":4,"arthritis_risk":5,"migraine_risk":7,"frizz_risk":0,"updated_at":"2026-06-25T16:15:04.402934+05:30"},{"city":"Jammu","state":"Jammu and Kashmir","latitude":32.7266,"longitude":74.857,"temp":34.4,"humidity":38,"rain":0.0,"pressure":967.3,"uv_index":8.65,"wind_gusts":32.0,"aqi":117,"pm10":55.3,"pm2_5":30.4,"no2":0.8,"co":263.0,"o3":153.0,"so2":4.6,"mosquito_risk":0,"arthritis_risk":5,"migraine_risk":7,"frizz_risk":1,"updated_at":"2026-06-25T16:15:04.402940+05:30"},{"city":"Amritsar","state":"Punjab","latitude":31.634,"longitude":74.8723,"temp":32.8,"humidity":54,"rain":0.0,"pressure":974.9,"uv_index":8.45,"wind_gusts":31.3,"aqi":137,"pm10":64.0,"pm2_5":37.4,"no2":0.5,"co":238.0,"o3":186.0,"so2":6.4,"mosquito_risk":0,"arthritis_risk":5,"migraine_risk":7,"frizz_risk":1,"updated_at":"2026-06-25T16:15:04.402947+05:30"},{"city":"Ludhiana","state":"Punjab","latitude":30.901,"longitude":75.8573,"temp":37.5,"humidity":35,"rain":0.0,"pressure":972.4,"uv_index":8.05,"wind_gusts":34.6,"aqi":165,"pm10":165.8,"pm2_5":57.0,"no2":0.9,"co":245.0,"o3":186.0,"so2":6.3,"mosquito_risk":0,"arthritis_risk":5,"migraine_risk":10,"frizz_risk":1,"updated_at":"2026-06-25T16:15:04.402953+05:30"},{"city":"Jalandhar","state":"Punjab","latitude":31.326,"longitude":75.5762,"temp":36.4,"humidity":36,"rain":0.0,"pressure":973.7,"uv_index":8.25,"wind_gusts":30.6,"aqi":151,"pm10":90.3,"pm2_5":43.1,"no2":0.5,"co":285.0,"o3":184.0,"so2":7.4,"mosquito_risk":0,"arthritis_risk":5,"migraine_risk":10,"frizz_risk":1,"updated_at":"2026-06-25T16:15:04.402959+05:30"},{"city":"Dehradun","state":"Uttarakhand","latitude":30.6284,"longitude":78.0322,"temp":23.0,"humidity":66,"rain":0.0,"pressure":829.6,"uv_index":7.65,"wind_gusts":30.2,"aqi":129,"pm10":33.8,"pm2_5":24.7,"no2":1.9,"co":238.0,"o3":169.0,"so2":4.3,"mosquito_risk":3,"arthritis_risk":5,"migraine_risk":7,"frizz_risk":1,"updated_at":"2026-06-25T16:15:04.402965+05:30"},{"city":"Shimla","state":"Himachal Pradesh","latitude":31.1048,"longitude":77.1734,"temp":18.3,"humidity":82,"rain":0.1,"pressure":783.9,"uv_index":6.5,"wind_gusts":32.8,"aqi":135,"pm10":53.0,"pm2_5":36.4,"no2":3.4,"co":273.0,"o3":175.0,"so2":9.3,"mosquito_risk":6,"arthritis_risk":10,"migraine_risk":7,"frizz_risk":0,"updated_at":"2026-06-25T16:15:04.402975+05:30"},{"city":"Manali","state":"Himachal Pradesh","latitude":32.2396,"longitude":77.1887,"temp":23.3,"humidity":64,"rain":0.0,"pressure":818.6,"uv_index":9.0,"wind_gusts":31.7,"aqi":42,"pm10":20.5,"pm2_5":19.4,"no2":21.2,"co":171.0,"o3":95.0,"so2":0.4,"mosquito_risk":3,"arthritis_risk":5,"migraine_risk":7,"frizz_risk":1,"updated_at":"2026-06-25T16:15:04.402984+05:30"},{"city":"Gurgaon","state":"Haryana","latitude":28.4595,"longitude":77.0266,"temp":37.0,"humidity":37,"rain":0.0,"pressure":974.6,"uv_index":7.85,"wind_gusts":26.3,"aqi":250,"pm10":323.2,"pm2_5":77.3,"no2":3.4,"co":174.0,"o3":157.0,"so2":10.2,"mosquito_risk":0,"arthritis_risk":5,"migraine_risk":10,"frizz_risk":1,"updated_at":"2026-06-25T16:15:04.402991+05:30"},{"city":"Noida","state":"Uttar Pradesh","latitude":28.5355,"longitude":77.391,"temp":38.0,"humidity":35,"rain":0.0,"pressure":977.2,"uv_index":7.8,"wind_gusts":20.9,"aqi":250,"pm10":323.2,"pm2_5":77.3,"no2":3.4,"co":265.0,"o3":157.0,"so2":10.2,"mosquito_risk":0,"arthritis_risk":5,"migraine_risk":10,"frizz_risk":1,"updated_at":"2026-06-25T16:15:04.402998+05:30"},{"city":"Ghaziabad","state":"Uttar Pradesh","latitude":28.6692,"longitude":77.4538,"temp":36.9,"humidity":38,"rain":0.0,"pressure":975.8,"uv_index":7.2,"wind_gusts":28.8,"aqi":198,"pm10":296.2,"pm2_5":90.6,"no2":4.4,"co":213.0,"o3":230.0,"so2":23.4,"mosquito_risk":0,"arthritis_risk":5,"migraine_risk":10,"frizz_risk":1,"updated_at":"2026-06-25T16:15:04.403004+05:30"},{"city":"Faridabad","state":"Haryana","latitude":28.4089,"longitude":77.3178,"temp":37.8,"humidity":33,"rain":0.0,"pressure":976.7,"uv_index":7.8,"wind_gusts":28.4,"aqi":250,"pm10":323.2,"pm2_5":77.3,"no2":3.4,"co":186.0,"o3":157.0,"so2":10.2,"mosquito_risk":0,"arthritis_risk":5,"migraine_risk":10,"frizz_risk":1,"updated_at":"2026-06-25T16:15:04.403010+05:30"},{"city":"Meerut","state":"Uttar Pradesh","latitude":28.9845,"longitude":77.7064,"temp":36.0,"humidity":41,"rain":0.0,"pressure":975.0,"uv_index":4.45,"wind_gusts":35.6,"aqi":198,"pm10":296.2,"pm2_5":90.6,"no2":4.4,"co":202.0,"o3":230.0,"so2":23.4,"mosquito_risk":0,"arthritis_risk":5,"migraine_risk":6,"frizz_risk":1,"updated_at":"2026-06-25T16:15:04.403016+05:30"},{"city":"Agra","state":"Uttar Pradesh","latitude":27.1767,"longitude":78.0081,"temp":38.6,"humidity":32,"rain":0.0,"pressure":980.3,"uv_index":8.1,"wind_gusts":31.0,"aqi":174,"pm10":389.3,"pm2_5":68.2,"no2":0.6,"co":155.0,"o3":125.0,"so2":2.5,"mosquito_risk":0,"arthritis_risk":5,"migraine_risk":10,"frizz_risk":1,"updated_at":"2026-06-25T16:15:04.403022+05:30"},{"city":"Varanasi","state":"Uttar Pradesh","latitude":25.3176,"longitude":82.9739,"temp":39.9,"humidity":33,"rain":0.0,"pressure":988.9,"uv_index":8.8,"wind_gusts":37.4,"aqi":116,"pm10":113.2,"pm2_5":43.1,"no2":0.7,"co":225.0,"o3":147.0,"so2":6.6,"mosquito_risk":0,"arthritis_risk":5,"migraine_risk":10,"frizz_risk":1,"updated_at":"2026-06-25T16:15:04.403029+05:30"},{"city":"Prayagraj","state":"Uttar Pradesh","latitude":25.4358,"longitude":81.8463,"temp":39.8,"humidity":31,"rain":0.0,"pressure":987.4,"uv_index":8.65,"wind_gusts":34.6,"aqi":130,"pm10":145.3,"pm2_5":50.6,"no2":0.7,"co":171.0,"o3":154.0,"so2":6.5,"mosquito_risk":0,"arthritis_risk":5,"migraine_risk":10,"frizz_risk":1,"updated_at":"2026-06-25T16:15:04.403036+05:30"},{"city":"Gorakhpur","state":"Uttar Pradesh","latitude":26.7606,"longitude":83.3732,"temp":38.0,"humidity":36,"rain":0.0,"pressure":989.2,"uv_index":8.65,"wind_gusts":25.6,"aqi":174,"pm10":164.4,"pm2_5":63.6,"no2":0.9,"co":219.0,"o3":180.0,"so2":7.4,"mosquito_risk":0,"arthritis_risk":5,"migraine_risk":10,"frizz_risk":1,"updated_at":"2026-06-25T16:15:04.403044+05:30"},{"city":"Bareilly","state":"Uttar Pradesh","latitude":28.367,"longitude":79.4304,"temp":37.5,"humidity":34,"rain":0.0,"pressure":979.6,"uv_index":8.1,"wind_gusts":23.4,"aqi":169,"pm10":214.7,"pm2_5":66.8,"no2":1.6,"co":194.0,"o3":182.0,"so2":10.4,"mosquito_risk":0,"arthritis_risk":5,"migraine_risk":10,"frizz_risk":1,"updated_at":"2026-06-25T16:15:04.403052+05:30"},{"city":"Aligarh","state":"Uttar Pradesh","latitude":27.8974,"longitude":78.088,"temp":37.6,"humidity":34,"rain":0.0,"pressure":978.5,"uv_index":7.85,"wind_gusts":23.0,"aqi":306,"pm10":377.2,"pm2_5":82.2,"no2":1.3,"co":158.0,"o3":145.0,"so2":6.9,"mosquito_risk":0,"arthritis_risk":5,"migraine_risk":10,"frizz_risk":1,"updated_at":"2026-06-25T16:15:04.403058+05:30"},{"city":"Moradabad","state":"Uttar Pradesh","latitude":28.8386,"longitude":78.7733,"temp":37.1,"humidity":38,"rain":0.0,"pressure":977.0,"uv_index":7.9,"wind_gusts":24.8,"aqi":177,"pm10":243.1,"pm2_5":67.5,"no2":1.9,"co":179.0,"o3":174.0,"so2":9.9,"mosquito_risk":0,"arthritis_risk":5,"migraine_risk":10,"frizz_risk":1,"updated_at":"2026-06-25T16:15:04.403065+05:30"},{"city":"Saharanpur","state":"Uttar Pradesh","latitude":29.9637,"longitude":77.546,"temp":35.1,"humidity":42,"rain":0.0,"pressure":969.8,"uv_index":7.45,"wind_gusts":37.8,"aqi":180,"pm10":181.6,"pm2_5":58.0,"no2":2.3,"co":217.0,"o3":195.0,"so2":16.9,"mosquito_risk":0,"arthritis_risk":5,"migraine_risk":10,"frizz_risk":1,"updated_at":"2026-06-25T16:15:04.403070+05:30"},{"city":"Jhansi","state":"Uttar Pradesh","latitude":25.4484,"longitude":78.5685,"temp":37.6,"humidity":33,"rain":0.0,"pressure":971.0,"uv_index":8.2,"wind_gusts":39.2,"aqi":81,"pm10":85.7,"pm2_5":31.2,"no2":1.1,"co":136.0,"o3":115.0,"so2":6.1,"mosquito_risk":0,"arthritis_risk":5,"migraine_risk":10,"frizz_risk":1,"updated_at":"2026-06-25T16:15:07.653800+05:30"},{"city":"Surat","state":"Gujarat","latitude":21.1702,"longitude":72.8311,"temp":31.9,"humidity":66,"rain":0.0,"pressure":1001.1,"uv_index":7.6,"wind_gusts":45.7,"aqi":73,"pm10":43.0,"pm2_5":23.5,"no2":13.0,"co":207.0,"o3":57.0,"so2":39.0,"mosquito_risk":3,"arthritis_risk":5,"migraine_risk":4,"frizz_risk":1,"updated_at":"2026-06-25T16:15:07.653833+05:30"},{"city":"Vadodara","state":"Gujarat","latitude":22.3072,"longitude":73.1812,"temp":38.2,"humidity":33,"rain":0.0,"pressure":996.9,"uv_index":8.0,"wind_gusts":48.2,"aqi":74,"pm10":87.8,"pm2_5":28.5,"no2":1.4,"co":138.0,"o3":98.0,"so2":2.6,"mosquito_risk":0,"arthritis_risk":5,"migraine_risk":10,"frizz_risk":1,"updated_at":"2026-06-25T16:15:07.653843+05:30"},{"city":"Rajkot","state":"Gujarat","latitude":22.3039,"longitude":70.8022,"temp":34.2,"humidity":48,"rain":0.2,"pressure":987.9,"uv_index":7.55,"wind_gusts":41.4,"aqi":68,"pm10":74.3,"pm2_5":25.0,"no2":1.2,"co":104.0,"o3":96.0,"so2":4.0,"mosquito_risk":3,"arthritis_risk":5,"migraine_risk":7,"frizz_risk":1,"updated_at":"2026-06-25T16:15:07.653852+05:30"},{"city":"Thane","state":"Maharashtra","latitude":19.2183,"longitude":72.9781,"temp":29.4,"humidity":73,"rain":0.1,"pressure":1004.0,"uv_index":6.6,"wind_gusts":33.8,"aqi":55,"pm10":24.9,"pm2_5":14.8,"no2":7.5,"co":197.0,"o3":90.0,"so2":10.3,"mosquito_risk":10,"arthritis_risk":5,"migraine_risk":4,"frizz_risk":1,"updated_at":"2026-06-25T16:15:07.653860+05:30"},{"city":"Nagpur","state":"Maharashtra","latitude":21.1458,"longitude":79.0882,"temp":30.8,"humidity":64,"rain":0.0,"pressure":966.9,"uv_index":8.0,"wind_gusts":27.0,"aqi":61,"pm10":47.7,"pm2_5":31.2,"no2":8.2,"co":203.0,"o3":139.0,"so2":28.5,"mosquito_risk":3,"arthritis_risk":5,"migraine_risk":7,"frizz_risk":1,"updated_at":"2026-06-25T16:15:07.653868+05:30"},{"city":"Nashik","state":"Maharashtra","latitude":19.9975,"longitude":73.7898,"temp":28.2,"humidity":67,"rain":0.0,"pressure":941.2,"uv_index":6.6,"wind_gusts":45.7,"aqi":47,"pm10":21.0,"pm2_5":9.6,"no2":2.0,"co":128.0,"o3":82.0,"so2":3.2,"mosquito_risk":7,"arthritis_risk":5,"migraine_risk":7,"frizz_risk":1,"updated_at":"2026-06-25T16:15:07.653876+05:30"},{"city":"Aurangabad","state":"Maharashtra","latitude":19.8762,"longitude":75.3433,"temp":29.8,"humidity":58,"rain":0.0,"pressure":939.3,"uv_index":1.8,"wind_gusts":38.9,"aqi":59,"pm10":43.5,"pm2_5":16.9,"no2":1.6,"co":149.0,"o3":88.0,"so2":2.8,"mosquito_risk":4,"arthritis_risk":5,"migraine_risk":3,"frizz_risk":1,"updated_at":"2026-06-25T16:15:07.653883+05:30"},{"city":"Solapur","state":"Maharashtra","latitude":17.6599,"longitude":75.9064,"temp":32.3,"humidity":45,"rain":0.0,"pressure":952.3,"uv_index":7.1,"wind_gusts":38.9,"aqi":33,"pm10":39.3,"pm2_5":14.8,"no2":1.4,"co":116.0,"o3":88.0,"so2":1.9,"mosquito_risk":0,"arthritis_risk":5,"migraine_risk":7,"frizz_risk":1,"updated_at":"2026-06-25T16:15:07.653891+05:30"},{"city":"Kolhapur","state":"Maharashtra","latitude":16.705,"longitude":74.2433,"temp":27.4,"humidity":68,"rain":0.0,"pressure":944.7,"uv_index":3.1,"wind_gusts":47.5,"aqi":27,"pm10":10.6,"pm2_5":6.0,"no2":2.2,"co":126.0,"o3":67.0,"so2":1.4,"mosquito_risk":7,"arthritis_risk":5,"migraine_risk":3,"frizz_risk":1,"updated_at":"2026-06-25T16:15:07.653900+05:30"},{"city":"Goa","state":"Goa","latitude":15.2993,"longitude":74.124,"temp":28.0,"humidity":84,"rain":0.1,"pressure":995.9,"uv_index":7.0,"wind_gusts":31.7,"aqi":45,"pm10":12.0,"pm2_5":6.1,"no2":1.7,"co":127.0,"o3":56.0,"so2":1.0,"mosquito_risk":10,"arthritis_risk":5,"migraine_risk":7,"frizz_risk":1,"updated_at":"2026-06-25T16:15:07.653908+05:30"},{"city":"Jodhpur","state":"Rajasthan","latitude":26.2389,"longitude":73.0243,"temp":37.0,"humidity":40,"rain":0.0,"pressure":976.1,"uv_index":8.35,"wind_gusts":36.4,"aqi":148,"pm10":207.7,"pm2_5":45.8,"no2":0.5,"co":109.0,"o3":83.0,"so2":1.5,"mosquito_risk":0,"arthritis_risk":5,"migraine_risk":10,"frizz_risk":1,"updated_at":"2026-06-25T16:15:07.653915+05:30"},{"city":"Udaipur","state":"Rajasthan","latitude":24.5854,"longitude":73.7125,"temp":34.5,"humidity":36,"rain":0.0,"pressure":941.1,"uv_index":8.75,"wind_gusts":35.6,"aqi":71,"pm10":70.1,"pm2_5":23.2,"no2":0.5,"co":110.0,"o3":82.0,"so2":1.7,"mosquito_risk":0,"arthritis_risk":5,"migraine_risk":7,"frizz_risk":1,"updated_at":"2026-06-25T16:15:07.653922+05:30"},{"city":"Kota","state":"Rajasthan","latitude":25.2138,"longitude":75.8648,"temp":36.8,"humidity":39,"rain":0.0,"pressure":972.1,"uv_index":8.3,"wind_gusts":43.9,"aqi":87,"pm10":75.7,"pm2_5":29.1,"no2":0.8,"co":137.0,"o3":107.0,"so2":4.4,"mosquito_risk":0,"arthritis_risk":5,"migraine_risk":10,"frizz_risk":1,"updated_at":"2026-06-25T16:15:07.653930+05:30"},{"city":"Bikaner","state":"Rajasthan","latitude":28.0229,"longitude":73.3119,"temp":39.4,"humidity":32,"rain":0.0,"pressure":974.5,"uv_index":8.45,"wind_gusts":31.7,"aqi":153,"pm10":296.2,"pm2_5":71.0,"no2":0.4,"co":123.0,"o3":87.0,"so2":2.3,"mosquito_risk":0,"arthritis_risk":5,"migraine_risk":10,"frizz_risk":1,"updated_at":"2026-06-25T16:15:07.653938+05:30"},{"city":"Ajmer","state":"Rajasthan","latitude":26.4499,"longitude":74.6399,"temp":33.9,"humidity":47,"rain":0.0,"pressure":949.0,"uv_index":8.3,"wind_gusts":42.1,"aqi":99,"pm10":149.0,"pm2_5":40.4,"no2":0.4,"co":111.0,"o3":86.0,"so2":1.7,"mosquito_risk":0,"arthritis_risk":5,"migraine_risk":7,"frizz_risk":1,"updated_at":"2026-06-25T16:15:07.653946+05:30"},{"city":"Gwalior","state":"Madhya Pradesh","latitude":26.2183,"longitude":78.1828,"temp":38.5,"humidity":30,"rain":0.0,"pressure":975.9,"uv_index":8.25,"wind_gusts":34.6,"aqi":86,"pm10":105.9,"pm2_5":33.6,"no2":0.5,"co":138.0,"o3":108.0,"so2":2.1,"mosquito_risk":0,"arthritis_risk":5,"migraine_risk":10,"frizz_risk":1,"updated_at":"2026-06-25T16:15:07.653953+05:30"},{"city":"Indore","state":"Madhya Pradesh","latitude":22.7196,"longitude":75.8577,"temp":27.7,"humidity":76,"rain":0.1,"pressure":943.2,"uv_index":3.15,"wind_gusts":41.0,"aqi":74,"pm10":62.2,"pm2_5":27.8,"no2":0.9,"co":327.0,"o3":104.0,"so2":3.2,"mosquito_risk":10,"arthritis_risk":5,"migraine_risk":3,"frizz_risk":1,"updated_at":"2026-06-25T16:15:07.653961+05:30"},{"city":"Bhopal","state":"Madhya Pradesh","latitude":23.2599,"longitude":77.4126,"temp":30.9,"humidity":59,"rain":0.1,"pressure":947.8,"uv_index":8.3,"wind_gusts":31.3,"aqi":77,"pm10":57.5,"pm2_5":29.4,"no2":1.9,"co":187.0,"o3":101.0,"so2":6.5,"mosquito_risk":3,"arthritis_risk":5,"migraine_risk":7,"frizz_risk":1,"updated_at":"2026-06-25T16:15:07.653968+05:30"},{"city":"Jabalpur","state":"Madhya Pradesh","latitude":23.1815,"longitude":79.9864,"temp":29.7,"humidity":74,"rain":0.1,"pressure":955.1,"uv_index":8.85,"wind_gusts":28.1,"aqi":68,"pm10":50.4,"pm2_5":25.5,"no2":1.5,"co":178.0,"o3":111.0,"so2":2.9,"mosquito_risk":10,"arthritis_risk":5,"migraine_risk":7,"frizz_risk":1,"updated_at":"2026-06-25T16:15:07.653976+05:30"},{"city":"Ujjain","state":"Madhya Pradesh","latitude":23.1765,"longitude":75.7885,"temp":26.3,"humidity":86,"rain":0.3,"pressure":948.9,"uv_index":7.6,"wind_gusts":41.8,"aqi":78,"pm10":64.5,"pm2_5":26.5,"no2":0.7,"co":153.0,"o3":101.0,"so2":3.6,"mosquito_risk":10,"arthritis_risk":5,"migraine_risk":7,"frizz_risk":1,"updated_at":"2026-06-25T16:15:07.653984+05:30"},{"city":"Visakhapatnam","state":"Andhra Pradesh","latitude":17.6868,"longitude":83.2185,"temp":33.5,"humidity":58,"rain":0.2,"pressure":996.8,"uv_index":8.45,"wind_gusts":32.4,"aqi":70,"pm10":30.9,"pm2_5":26.3,"no2":10.3,"co":454.0,"o3":157.0,"so2":35.5,"mosquito_risk":3,"arthritis_risk":5,"migraine_risk":7,"frizz_risk":1,"updated_at":"2026-06-25T16:15:07.653991+05:30"},{"city":"Vijayawada","state":"Andhra Pradesh","latitude":16.5062,"longitude":80.648,"temp":34.8,"humidity":47,"rain":0.0,"pressure":995.6,"uv_index":8.65,"wind_gusts":40.0,"aqi":58,"pm10":21.1,"pm2_5":13.5,"no2":2.4,"co":150.0,"o3":109.0,"so2":4.0,"mosquito_risk":0,"arthritis_risk":5,"migraine_risk":7,"frizz_risk":1,"updated_at":"2026-06-25T16:15:07.653998+05:30"},{"city":"Guntur","state":"Andhra Pradesh","latitude":16.3067,"longitude":80.4365,"temp":35.3,"humidity":44,"rain":0.0,"pressure":996.8,"uv_index":8.35,"wind_gusts":38.5,"aqi":53,"pm10":21.3,"pm2_5":12.5,"no2":2.3,"co":150.0,"o3":103.0,"so2":3.5,"mosquito_risk":0,"arthritis_risk":5,"migraine_risk":10,"frizz_risk":1,"updated_at":"2026-06-25T16:15:07.654005+05:30"},{"city":"Nellore","state":"Andhra Pradesh","latitude":14.4426,"longitude":79.9865,"temp":36.7,"humidity":41,"rain":0.0,"pressure":999.0,"uv_index":8.2,"wind_gusts":46.8,"aqi":34,"pm10":17.5,"pm2_5":9.8,"no2":3.0,"co":115.0,"o3":101.0,"so2":4.2,"mosquito_risk":0,"arthritis_risk":5,"migraine_risk":10,"frizz_risk":1,"updated_at":"2026-06-25T16:15:07.654014+05:30"},{"city":"Kurnool","state":"Andhra Pradesh","latitude":15.8281,"longitude":78.0373,"temp":34.2,"humidity":41,"rain":0.0,"pressure":971.2,"uv_index":6.5,"wind_gusts":42.8,"aqi":33,"pm10":38.1,"pm2_5":15.1,"no2":1.7,"co":119.0,"o3":91.0,"so2":4.8,"mosquito_risk":0,"arthritis_risk":5,"migraine_risk":7,"frizz_risk":1,"updated_at":"2026-06-25T16:15:07.654022+05:30"},{"city":"Kakinada","state":"Andhra Pradesh","latitude":16.9891,"longitude":82.2475,"temp":34.0,"humidity":51,"rain":0.0,"pressure":1000.4,"uv_index":8.7,"wind_gusts":41.0,"aqi":63,"pm10":19.2,"pm2_5":14.2,"no2":2.2,"co":183.0,"o3":136.0,"so2":4.6,"mosquito_risk":0,"arthritis_risk":5,"migraine_risk":4,"frizz_risk":1,"updated_at":"2026-06-25T16:15:07.654030+05:30"},{"city":"Tirupati","state":"Andhra Pradesh","latitude":13.6288,"longitude":79.4192,"temp":37.5,"humidity":35,"rain":0.0,"pressure":984.6,"uv_index":8.2,"wind_gusts":41.4,"aqi":38,"pm10":12.5,"pm2_5":6.3,"no2":4.5,"co":115.0,"o3":74.0,"so2":1.2,"mosquito_risk":0,"arthritis_risk":5,"migraine_risk":10,"frizz_risk":1,"updated_at":"2026-06-25T16:15:07.654037+05:30"},{"city":"Warangal","state":"Telangana","latitude":17.9689,"longitude":79.5941,"temp":31.8,"humidity":56,"rain":0.0,"pressure":972.4,"uv_index":5.7,"wind_gusts":36.4,"aqi":55,"pm10":18.9,"pm2_5":13.3,"no2":2.4,"co":163.0,"o3":105.0,"so2":3.6,"mosquito_risk":0,"arthritis_risk":5,"migraine_risk":3,"frizz_risk":1,"updated_at":"2026-06-25T16:15:07.654044+05:30"},{"city":"Nizamabad","state":"Telangana","latitude":18.6725,"longitude":78.0941,"temp":27.3,"humidity":81,"rain":0.2,"pressure":959.7,"uv_index":6.65,"wind_gusts":47.9,"aqi":61,"pm10":26.0,"pm2_5":15.8,"no2":1.7,"co":158.0,"o3":108.0,"so2":3.0,"mosquito_risk":10,"arthritis_risk":5,"migraine_risk":7,"frizz_risk":1,"updated_at":"2026-06-25T16:15:07.654051+05:30"},{"city":"Mysore","state":"Karnataka","latitude":12.2958,"longitude":76.6396,"temp":27.9,"humidity":61,"rain":0.1,"pressure":925.9,"uv_index":8.2,"wind_gusts":47.2,"aqi":28,"pm10":9.9,"pm2_5":5.7,"no2":1.9,"co":125.0,"o3":74.0,"so2":1.2,"mosquito_risk":10,"arthritis_risk":5,"migraine_risk":7,"frizz_risk":1,"updated_at":"2026-06-25T16:15:07.654058+05:30"},{"city":"Mangalore","state":"Karnataka","latitude":12.9141,"longitude":74.856,"temp":28.5,"humidity":78,"rain":0.0,"pressure":1005.0,"uv_index":8.6,"wind_gusts":32.0,"aqi":43,"pm10":13.4,"pm2_5":8.2,"no2":1.5,"co":102.0,"o3":62.0,"so2":1.8,"mosquito_risk":7,"arthritis_risk":5,"migraine_risk":4,"frizz_risk":1,"updated_at":"2026-06-25T16:15:07.654065+05:30"},{"city":"Hubli-Dharwad","state":"Karnataka","latitude":15.3647,"longitude":75.124,"temp":27.5,"humidity":65,"rain":0.0,"pressure":937.9,"uv_index":8.75,"wind_gusts":52.6,"aqi":24,"pm10":2.9,"pm2_5":2.2,"no2":3.6,"co":117.0,"o3":52.0,"so2":1.0,"mosquito_risk":7,"arthritis_risk":5,"migraine_risk":7,"frizz_risk":1,"updated_at":"2026-06-25T16:15:07.654072+05:30"},{"city":"Belgaum","state":"Karnataka","latitude":15.8497,"longitude":74.4977,"temp":25.9,"humidity":68,"rain":0.0,"pressure":923.2,"uv_index":6.2,"wind_gusts":51.1,"aqi":23,"pm10":6.9,"pm2_5":4.1,"no2":2.2,"co":115.0,"o3":56.0,"so2":1.1,"mosquito_risk":7,"arthritis_risk":5,"migraine_risk":7,"frizz_risk":1,"updated_at":"2026-06-25T16:15:10.898800+05:30"},{"city":"Coimbatore","state":"Tamil Nadu","latitude":11.0168,"longitude":76.9558,"temp":31.5,"humidity":52,"rain":0.0,"pressure":958.7,"uv_index":8.2,"wind_gusts":55.4,"aqi":28,"pm10":6.7,"pm2_5":5.1,"no2":1.8,"co":138.0,"o3":72.0,"so2":2.0,"mosquito_risk":0,"arthritis_risk":5,"migraine_risk":7,"frizz_risk":1,"updated_at":"2026-06-25T16:15:10.898832+05:30"},{"city":"Madurai","state":"Tamil Nadu","latitude":9.9252,"longitude":78.1198,"temp":34.7,"humidity":45,"rain":0.0,"pressure":989.1,"uv_index":8.6,"wind_gusts":33.5,"aqi":68,"pm10":9.8,"pm2_5":7.5,"no2":1.5,"co":170.0,"o3":105.0,"so2":2.2,"mosquito_risk":0,"arthritis_risk":5,"migraine_risk":7,"frizz_risk":1,"updated_at":"2026-06-25T16:15:10.898843+05:30"},{"city":"Trichy","state":"Tamil Nadu","latitude":10.7905,"longitude":78.7047,"temp":36.1,"humidity":37,"rain":0.0,"pressure":994.5,"uv_index":8.35,"wind_gusts":45.0,"aqi":35,"pm10":9.2,"pm2_5":6.1,"no2":1.5,"co":130.0,"o3":83.0,"so2":1.7,"mosquito_risk":0,"arthritis_risk":5,"migraine_risk":10,"frizz_risk":1,"updated_at":"2026-06-25T16:15:10.898852+05:30"},{"city":"Salem","state":"Tamil Nadu","latitude":11.6643,"longitude":78.146,"temp":33.6,"humidity":46,"rain":0.0,"pressure":973.3,"uv_index":8.8,"wind_gusts":29.2,"aqi":53,"pm10":12.1,"pm2_5":8.1,"no2":2.2,"co":169.0,"o3":98.0,"so2":4.1,"mosquito_risk":0,"arthritis_risk":5,"migraine_risk":7,"frizz_risk":1,"updated_at":"2026-06-25T16:15:10.898860+05:30"},{"city":"Tirunelveli","state":"Tamil Nadu","latitude":8.7139,"longitude":77.7567,"temp":35.9,"humidity":40,"rain":0.0,"pressure":999.5,"uv_index":8.55,"wind_gusts":44.3,"aqi":27,"pm10":6.5,"pm2_5":5.0,"no2":1.7,"co":112.0,"o3":73.0,"so2":1.3,"mosquito_risk":0,"arthritis_risk":5,"migraine_risk":10,"frizz_risk":1,"updated_at":"2026-06-25T16:15:10.898867+05:30"},{"city":"Vellore","state":"Tamil Nadu","latitude":12.9165,"longitude":79.1325,"temp":34.8,"humidity":44,"rain":0.0,"pressure":978.8,"uv_index":8.1,"wind_gusts":43.9,"aqi":43,"pm10":16.5,"pm2_5":8.8,"no2":3.4,"co":151.0,"o3":81.0,"so2":1.6,"mosquito_risk":0,"arthritis_risk":5,"migraine_risk":7,"frizz_risk":1,"updated_at":"2026-06-25T16:15:10.898874+05:30"},{"city":"Erode","state":"Tamil Nadu","latitude":11.341,"longitude":77.7172,"temp":34.2,"humidity":44,"rain":0.1,"pressure":984.7,"uv_index":8.8,"wind_gusts":42.8,"aqi":39,"pm10":9.4,"pm2_5":6.6,"no2":2.4,"co":157.0,"o3":87.0,"so2":1.8,"mosquito_risk":3,"arthritis_risk":5,"migraine_risk":7,"frizz_risk":1,"updated_at":"2026-06-25T16:15:10.898882+05:30"},{"city":"Kochi","state":"Kerala","latitude":9.9312,"longitude":76.2673,"temp":28.3,"humidity":83,"rain":0.0,"pressure":1007.3,"uv_index":8.35,"wind_gusts":37.4,"aqi":36,"pm10":8.4,"pm2_5":6.2,"no2":4.1,"co":113.0,"o3":56.0,"so2":2.7,"mosquito_risk":7,"arthritis_risk":5,"migraine_risk":4,"frizz_risk":1,"updated_at":"2026-06-25T16:15:10.898889+05:30"},{"city":"Thiruvananthapuram","state":"Kerala","latitude":8.5241,"longitude":76.9366,"temp":28.9,"humidity":76,"rain":0.0,"pressure":1006.4,"uv_index":8.3,"wind_gusts":44.6,"aqi":27,"pm10":9.5,"pm2_5":6.1,"no2":1.5,"co":101.0,"o3":66.0,"so2":1.1,"mosquito_risk":7,"arthritis_risk":5,"migraine_risk":4,"frizz_risk":1,"updated_at":"2026-06-25T16:15:10.898897+05:30"},{"city":"Kozhikode","state":"Kerala","latitude":11.2588,"longitude":75.7804,"temp":28.9,"humidity":76,"rain":0.0,"pressure":1006.2,"uv_index":8.5,"wind_gusts":37.4,"aqi":26,"pm10":8.0,"pm2_5":4.9,"no2":0.6,"co":98.0,"o3":62.0,"so2":1.0,"mosquito_risk":7,"arthritis_risk":5,"migraine_risk":4,"frizz_risk":1,"updated_at":"2026-06-25T16:15:10.898904+05:30"},{"city":"Thrissur","state":"Kerala","latitude":10.5276,"longitude":76.2144,"temp":29.2,"humidity":75,"rain":0.0,"pressure":1005.4,"uv_index":8.4,"wind_gusts":34.2,"aqi":39,"pm10":7.5,"pm2_5":6.0,"no2":3.0,"co":97.0,"o3":59.0,"so2":2.1,"mosquito_risk":7,"arthritis_risk":5,"migraine_risk":4,"frizz_risk":1,"updated_at":"2026-06-25T16:15:10.898912+05:30"},{"city":"Kannur","state":"Kerala","latitude":11.8745,"longitude":75.3704,"temp":29.4,"humidity":73,"rain":0.0,"pressure":1005.5,"uv_index":8.35,"wind_gusts":28.8,"aqi":26,"pm10":10.2,"pm2_5":6.3,"no2":1.6,"co":98.0,"o3":60.0,"so2":1.2,"mosquito_risk":7,"arthritis_risk":5,"migraine_risk":4,"frizz_risk":1,"updated_at":"2026-06-25T16:15:10.898919+05:30"},{"city":"Patna","state":"Bihar","latitude":25.5941,"longitude":85.1376,"temp":38.1,"humidity":40,"rain":0.0,"pressure":992.1,"uv_index":8.85,"wind_gusts":26.6,"aqi":151,"pm10":118.7,"pm2_5":46.0,"no2":3.7,"co":243.0,"o3":179.0,"so2":10.4,"mosquito_risk":0,"arthritis_risk":5,"migraine_risk":10,"frizz_risk":1,"updated_at":"2026-06-25T16:15:10.898926+05:30"},{"city":"Gaya","state":"Bihar","latitude":24.7914,"longitude":85.0002,"temp":38.0,"humidity":38,"rain":0.0,"pressure":985.9,"uv_index":8.95,"wind_gusts":23.0,"aqi":113,"pm10":101.0,"pm2_5":39.7,"no2":2.5,"co":199.0,"o3":159.0,"so2":9.6,"mosquito_risk":0,"arthritis_risk":5,"migraine_risk":10,"frizz_risk":1,"updated_at":"2026-06-25T16:15:10.898933+05:30"},{"city":"Muzaffarpur","state":"Bihar","latitude":26.1209,"longitude":85.3647,"temp":35.7,"humidity":54,"rain":0.0,"pressure":992.3,"uv_index":8.85,"wind_gusts":33.5,"aqi":176,"pm10":129.0,"pm2_5":55.8,"no2":4.9,"co":339.0,"o3":199.0,"so2":12.9,"mosquito_risk":0,"arthritis_risk":5,"migraine_risk":10,"frizz_risk":1,"updated_at":"2026-06-25T16:15:10.898940+05:30"},{"city":"Bhagalpur","state":"Bihar","latitude":25.2425,"longitude":87.0117,"temp":36.0,"humidity":50,"rain":0.0,"pressure":993.2,"uv_index":8.85,"wind_gusts":21.2,"aqi":178,"pm10":87.3,"pm2_5":46.3,"no2":4.1,"co":223.0,"o3":197.0,"so2":13.7,"mosquito_risk":0,"arthritis_risk":5,"migraine_risk":10,"frizz_risk":1,"updated_at":"2026-06-25T16:15:10.898947+05:30"},{"city":"Ranchi","state":"Jharkhand","latitude":23.3441,"longitude":85.3096,"temp":27.7,"humidity":78,"rain":0.1,"pressure":933.1,"uv_index":9.15,"wind_gusts":27.4,"aqi":100,"pm10":27.0,"pm2_5":26.2,"no2":2.0,"co":190.0,"o3":136.0,"so2":7.8,"mosquito_risk":10,"arthritis_risk":5,"migraine_risk":7,"frizz_risk":1,"updated_at":"2026-06-25T16:15:10.898954+05:30"},{"city":"Jamshedpur","state":"Jharkhand","latitude":22.8046,"longitude":86.2029,"temp":31.5,"humidity":66,"rain":0.0,"pressure":984.8,"uv_index":9.05,"wind_gusts":32.8,"aqi":124,"pm10":31.4,"pm2_5":30.6,"no2":3.6,"co":276.0,"o3":177.0,"so2":17.7,"mosquito_risk":3,"arthritis_risk":5,"migraine_risk":7,"frizz_risk":1,"updated_at":"2026-06-25T16:15:10.898961+05:30"},{"city":"Dhanbad","state":"Jharkhand","latitude":23.7957,"longitude":86.4304,"temp":34.9,"humidity":46,"rain":0.1,"pressure":973.3,"uv_index":9.05,"wind_gusts":32.4,"aqi":142,"pm10":56.5,"pm2_5":56.0,"no2":12.1,"co":467.0,"o3":212.0,"so2":59.0,"mosquito_risk":3,"arthritis_risk":5,"migraine_risk":7,"frizz_risk":1,"updated_at":"2026-06-25T16:15:10.898968+05:30"},{"city":"Bokaro","state":"Jharkhand","latitude":23.6693,"longitude":86.1511,"temp":33.7,"humidity":56,"rain":0.1,"pressure":977.1,"uv_index":9.1,"wind_gusts":45.7,"aqi":132,"pm10":50.3,"pm2_5":48.9,"no2":11.0,"co":396.0,"o3":198.0,"so2":54.3,"mosquito_risk":3,"arthritis_risk":5,"migraine_risk":7,"frizz_risk":1,"updated_at":"2026-06-25T16:15:10.898975+05:30"},{"city":"Bhubaneswar","state":"Odisha","latitude":20.2961,"longitude":85.8245,"temp":31.9,"humidity":71,"rain":0.0,"pressure":996.3,"uv_index":9.05,"wind_gusts":34.2,"aqi":111,"pm10":21.7,"pm2_5":20.3,"no2":3.4,"co":275.0,"o3":147.0,"so2":7.6,"mosquito_risk":3,"arthritis_risk":5,"migraine_risk":7,"frizz_risk":1,"updated_at":"2026-06-25T16:15:10.898981+05:30"},{"city":"Cuttack","state":"Odisha","latitude":20.4625,"longitude":85.8828,"temp":32.2,"humidity":71,"rain":0.0,"pressure":997.9,"uv_index":9.15,"wind_gusts":29.5,"aqi":111,"pm10":21.7,"pm2_5":20.3,"no2":3.4,"co":255.0,"o3":147.0,"so2":7.6,"mosquito_risk":3,"arthritis_risk":5,"migraine_risk":7,"frizz_risk":1,"updated_at":"2026-06-25T16:15:10.898988+05:30"},{"city":"Rourkela","state":"Odisha","latitude":22.2604,"longitude":84.8536,"temp":29.6,"humidity":71,"rain":0.2,"pressure":979.4,"uv_index":9.0,"wind_gusts":52.9,"aqi":90,"pm10":23.8,"pm2_5":23.7,"no2":1.7,"co":254.0,"o3":152.0,"so2":9.6,"mosquito_risk":10,"arthritis_risk":5,"migraine_risk":7,"frizz_risk":1,"updated_at":"2026-06-25T16:15:10.898995+05:30"},{"city":"Raipur","state":"Chhattisgarh","latitude":21.2514,"longitude":81.6296,"temp":34.1,"humidity":48,"rain":0.0,"pressure":968.8,"uv_index":8.85,"wind_gusts":31.3,"aqi":76,"pm10":30.3,"pm2_5":30.2,"no2":8.8,"co":284.0,"o3":138.0,"so2":37.2,"mosquito_risk":0,"arthritis_risk":5,"migraine_risk":7,"frizz_risk":1,"updated_at":"2026-06-25T16:15:10.899002+05:30"},{"city":"Bhilai","state":"Chhattisgarh","latitude":21.1938,"longitude":81.3509,"temp":32.0,"humidity":56,"rain":0.0,"pressure":969.1,"uv_index":8.9,"wind_gusts":34.2,"aqi":70,"pm10":27.8,"pm2_5":27.6,"no2":10.8,"co":539.0,"o3":125.0,"so2":41.3,"mosquito_risk":0,"arthritis_risk":5,"migraine_risk":7,"frizz_risk":1,"updated_at":"2026-06-25T16:15:10.899009+05:30"},{"city":"Guwahati","state":"Assam","latitude":26.1158,"longitude":91.7086,"temp":32.4,"humidity":64,"rain":0.0,"pressure":993.8,"uv_index":8.8,"wind_gusts":24.1,"aqi":96,"pm10":27.3,"pm2_5":20.1,"no2":2.2,"co":321.0,"o3":131.0,"so2":6.6,"mosquito_risk":3,"arthritis_risk":5,"migraine_risk":7,"frizz_risk":1,"updated_at":"2026-06-25T16:15:10.899016+05:30"},{"city":"Agartala","state":"Tripura","latitude":23.8315,"longitude":91.2868,"temp":31.0,"humidity":72,"rain":0.0,"pressure":999.6,"uv_index":8.55,"wind_gusts":31.7,"aqi":91,"pm10":41.0,"pm2_5":33.5,"no2":6.1,"co":205.0,"o3":139.0,"so2":6.4,"mosquito_risk":3,"arthritis_risk":5,"migraine_risk":7,"frizz_risk":1,"updated_at":"2026-06-25T16:15:10.899022+05:30"},{"city":"Shillong","state":"Meghalaya","latitude":25.5788,"longitude":91.8933,"temp":24.2,"humidity":71,"rain":0.0,"pressure":854.0,"uv_index":7.05,"wind_gusts":18.7,"aqi":83,"pm10":9.4,"pm2_5":7.0,"no2":2.8,"co":275.0,"o3":126.0,"so2":3.2,"mosquito_risk":3,"arthritis_risk":5,"migraine_risk":7,"frizz_risk":1,"updated_at":"2026-06-25T16:15:10.899029+05:30"},{"city":"Imphal","state":"Manipur","latitude":24.817,"longitude":93.9368,"temp":28.9,"humidity":63,"rain":0.0,"pressure":917.6,"uv_index":8.5,"wind_gusts":25.2,"aqi":53,"pm10":28.3,"pm2_5":15.7,"no2":2.6,"co":213.0,"o3":106.0,"so2":3.1,"mosquito_risk":7,"arthritis_risk":5,"migraine_risk":7,"frizz_risk":1,"updated_at":"2026-06-25T16:15:10.899036+05:30"},{"city":"Aizawl","state":"Mizoram","latitude":23.7271,"longitude":92.7176,"temp":23.8,"humidity":79,"rain":0.0,"pressure":888.1,"uv_index":8.55,"wind_gusts":20.5,"aqi":54,"pm10":46.0,"pm2_5":22.1,"no2":1.6,"co":182.0,"o3":99.0,"so2":2.3,"mosquito_risk":3,"arthritis_risk":5,"migraine_risk":7,"frizz_risk":1,"updated_at":"2026-06-25T16:15:10.899043+05:30"},{"city":"Kohima","state":"Nagaland","latitude":25.6701,"longitude":94.1077,"temp":23.5,"humidity":89,"rain":0.2,"pressure":851.7,"uv_index":9.25,"wind_gusts":23.4,"aqi":57,"pm10":14.6,"pm2_5":8.9,"no2":1.7,"co":214.0,"o3":102.0,"so2":2.8,"mosquito_risk":6,"arthritis_risk":5,"migraine_risk":7,"frizz_risk":1,"updated_at":"2026-06-25T16:15:10.899050+05:30"},{"city":"Gangtok","state":"Sikkim","latitude":27.3314,"longitude":88.6138,"temp":21.8,"humidity":88,"rain":0.1,"pressure":835.1,"uv_index":8.8,"wind_gusts":35.6,"aqi":104,"pm10":12.0,"pm2_5":9.2,"no2":2.4,"co":315.0,"o3":143.0,"so2":2.6,"mosquito_risk":6,"arthritis_risk":5,"migraine_risk":7,"frizz_risk":1,"updated_at":"2026-06-25T16:15:10.899057+05:30"},{"city":"Siliguri","state":"West Bengal","latitude":26.7271,"longitude":88.3953,"temp":31.7,"humidity":69,"rain":0.1,"pressure":985.5,"uv_index":8.4,"wind_gusts":21.2,"aqi":150,"pm10":43.9,"pm2_5":32.0,"no2":3.8,"co":495.0,"o3":163.0,"so2":8.3,"mosquito_risk":6,"arthritis_risk":5,"migraine_risk":7,"frizz_risk":1,"updated_at":"2026-06-25T16:15:14.153906+05:30"},{"city":"Durgapur","state":"West Bengal","latitude":23.5204,"longitude":87.3119,"temp":32.9,"humidity":63,"rain":0.0,"pressure":988.1,"uv_index":8.9,"wind_gusts":29.5,"aqi":154,"pm10":60.5,"pm2_5":59.8,"no2":10.9,"co":559.0,"o3":219.0,"so2":49.9,"mosquito_risk":3,"arthritis_risk":5,"migraine_risk":7,"frizz_risk":1,"updated_at":"2026-06-25T16:15:14.153939+05:30"},{"city":"Asansol","state":"West Bengal","latitude":23.6739,"longitude":86.9524,"temp":33.7,"humidity":56,"rain":0.0,"pressure":986.7,"uv_index":8.85,"wind_gusts":29.5,"aqi":146,"pm10":53.0,"pm2_5":52.6,"no2":9.5,"co":325.0,"o3":207.0,"so2":41.5,"mosquito_risk":0,"arthritis_risk":5,"migraine_risk":7,"frizz_risk":1,"updated_at":"2026-06-25T16:15:14.153950+05:30"},{"city":"Pondicherry","state":"Puducherry","latitude":11.9139,"longitude":79.8145,"temp":31.5,"humidity":66,"rain":0.0,"pressure":1003.0,"uv_index":7.75,"wind_gusts":40.7,"aqi":63,"pm10":27.8,"pm2_5":21.4,"no2":4.8,"co":251.0,"o3":143.0,"so2":8.9,"mosquito_risk":3,"arthritis_risk":5,"migraine_risk":4,"frizz_risk":1,"updated_at":"2026-06-25T16:15:14.153959+05:30"},{"city":"Port Blair","state":"Andaman and Nicobar Islands","latitude":11.6234,"longitude":92.7265,"temp":27.6,"humidity":84,"rain":0.0,"pressure":1005.0,"uv_index":7.1,"wind_gusts":40.0,"aqi":27,"pm10":4.3,"pm2_5":2.7,"no2":0.4,"co":106.0,"o3":55.0,"so2":0.4,"mosquito_risk":7,"arthritis_risk":5,"migraine_risk":4,"frizz_risk":1,"updated_at":"2026-06-25T16:15:14.153968+05:30"},{"city":"Haridwar","state":"Uttarakhand","latitude":29.9457,"longitude":78.1642,"temp":34.9,"humidity":46,"rain":0.0,"pressure":968.1,"uv_index":7.05,"wind_gusts":31.0,"aqi":174,"pm10":108.5,"pm2_5":43.0,"no2":1.5,"co":251.0,"o3":190.0,"so2":10.2,"mosquito_risk":0,"arthritis_risk":5,"migraine_risk":7,"frizz_risk":1,"updated_at":"2026-06-25T16:15:14.153975+05:30"},{"city":"Rishikesh","state":"Uttarakhand","latitude":30.0869,"longitude":78.2676,"temp":34.3,"humidity":45,"rain":0.0,"pressure":961.3,"uv_index":7.15,"wind_gusts":22.0,"aqi":162,"pm10":70.8,"pm2_5":32.8,"no2":0.5,"co":269.0,"o3":176.0,"so2":6.1,"mosquito_risk":0,"arthritis_risk":5,"migraine_risk":7,"frizz_risk":1,"updated_at":"2026-06-25T16:15:14.153983+05:30"},{"city":"Nainital","state":"Uttarakhand","latitude":29.3919,"longitude":79.4542,"temp":21.2,"humidity":75,"rain":0.0,"pressure":805.1,"uv_index":6.85,"wind_gusts":27.4,"aqi":154,"pm10":102.0,"pm2_5":38.8,"no2":1.3,"co":230.0,"o3":183.0,"so2":8.3,"mosquito_risk":3,"arthritis_risk":5,"migraine_risk":7,"frizz_risk":1,"updated_at":"2026-06-25T16:15:14.153991+05:30"},{"city":"Mussoorie","state":"Uttarakhand","latitude":30.4599,"longitude":78.0664,"temp":19.3,"humidity":83,"rain":0.1,"pressure":802.1,"uv_index":7.15,"wind_gusts":35.6,"aqi":167,"pm10":65.9,"pm2_5":38.0,"no2":1.4,"co":236.0,"o3":196.0,"so2":10.0,"mosquito_risk":6,"arthritis_risk":10,"migraine_risk":7,"frizz_risk":1,"updated_at":"2026-06-25T16:15:14.153999+05:30"},{"city":"Dharamshala","state":"Himachal Pradesh","latitude":32.219,"longitude":76.3234,"temp":26.5,"humidity":56,"rain":0.0,"pressure":867.5,"uv_index":8.55,"wind_gusts":32.0,"aqi":99,"pm10":21.5,"pm2_5":15.5,"no2":1.6,"co":264.0,"o3":145.0,"so2":1.5,"mosquito_risk":4,"arthritis_risk":5,"migraine_risk":7,"frizz_risk":1,"updated_at":"2026-06-25T16:15:14.154006+05:30"},{"city":"Dalhousie","state":"Himachal Pradesh","latitude":32.5387,"longitude":75.971,"temp":21.2,"humidity":71,"rain":0.1,"pressure":804.5,"uv_index":8.05,"wind_gusts":28.8,"aqi":139,"pm10":42.8,"pm2_5":28.3,"no2":1.5,"co":265.0,"o3":170.0,"so2":3.4,"mosquito_risk":6,"arthritis_risk":5,"migraine_risk":7,"frizz_risk":0,"updated_at":"2026-06-25T16:15:14.154014+05:30"},{"city":"Patiala","state":"Punjab","latitude":30.3398,"longitude":76.3869,"temp":36.5,"humidity":42,"rain":0.0,"pressure":972.0,"uv_index":7.7,"wind_gusts":25.2,"aqi":179,"pm10":330.6,"pm2_5":75.7,"no2":1.1,"co":246.0,"o3":193.0,"so2":10.1,"mosquito_risk":0,"arthritis_risk":5,"migraine_risk":10,"frizz_risk":1,"updated_at":"2026-06-25T16:15:14.154022+05:30"},{"city":"Bhatinda","state":"Punjab","latitude":30.211,"longitude":74.9455,"temp":36.7,"humidity":40,"rain":0.0,"pressure":977.1,"uv_index":8.3,"wind_gusts":39.2,"aqi":158,"pm10":197.0,"pm2_5":63.3,"no2":1.6,"co":180.0,"o3":185.0,"so2":15.1,"mosquito_risk":0,"arthritis_risk":5,"migraine_risk":10,"frizz_risk":1,"updated_at":"2026-06-25T16:15:14.154029+05:30"},{"city":"Rohtak","state":"Haryana","latitude":28.8955,"longitude":76.6066,"temp":36.7,"humidity":38,"rain":0.0,"pressure":975.0,"uv_index":7.75,"wind_gusts":21.2,"aqi":188,"pm10":294.3,"pm2_5":65.4,"no2":0.4,"co":144.0,"o3":122.0,"so2":1.9,"mosquito_risk":0,"arthritis_risk":5,"migraine_risk":10,"frizz_risk":1,"updated_at":"2026-06-25T16:15:14.154035+05:30"},{"city":"Panipat","state":"Haryana","latitude":29.3909,"longitude":76.9635,"temp":36.8,"humidity":40,"rain":0.0,"pressure":973.7,"uv_index":7.65,"wind_gusts":29.5,"aqi":326,"pm10":383.7,"pm2_5":87.8,"no2":1.9,"co":152.0,"o3":167.0,"so2":15.1,"mosquito_risk":0,"arthritis_risk":5,"migraine_risk":10,"frizz_risk":1,"updated_at":"2026-06-25T16:15:14.154042+05:30"},{"city":"Mathura","state":"Uttar Pradesh","latitude":27.4924,"longitude":77.6737,"temp":37.5,"humidity":36,"rain":0.0,"pressure":979.6,"uv_index":8.05,"wind_gusts":24.8,"aqi":251,"pm10":434.0,"pm2_5":73.3,"no2":0.0,"co":153.0,"o3":113.0,"so2":1.5,"mosquito_risk":0,"arthritis_risk":5,"migraine_risk":10,"frizz_risk":1,"updated_at":"2026-06-25T16:15:14.154049+05:30"},{"city":"Vrindavan","state":"Uttar Pradesh","latitude":27.5823,"longitude":77.7027,"temp":37.1,"humidity":39,"rain":0.0,"pressure":980.0,"uv_index":8.0,"wind_gusts":22.7,"aqi":251,"pm10":434.0,"pm2_5":73.3,"no2":0.0,"co":158.0,"o3":113.0,"so2":1.5,"mosquito_risk":0,"arthritis_risk":5,"migraine_risk":10,"frizz_risk":1,"updated_at":"2026-06-25T16:15:14.154056+05:30"},{"city":"Ayodhya","state":"Uttar Pradesh","latitude":26.7922,"longitude":82.1998,"temp":37.9,"humidity":38,"rain":0.0,"pressure":987.1,"uv_index":8.4,"wind_gusts":26.6,"aqi":164,"pm10":218.4,"pm2_5":58.1,"no2":0.7,"co":196.0,"o3":150.0,"so2":5.1,"mosquito_risk":0,"arthritis_risk":5,"migraine_risk":10,"frizz_risk":1,"updated_at":"2026-06-25T16:15:14.154062+05:30"},{"city":"Ratlam","state":"Madhya Pradesh","latitude":23.3315,"longitude":75.0367,"temp":30.1,"humidity":66,"rain":0.1,"pressure":949.3,"uv_index":6.2,"wind_gusts":40.0,"aqi":74,"pm10":67.5,"pm2_5":26.9,"no2":0.6,"co":116.0,"o3":99.0,"so2":3.4,"mosquito_risk":6,"arthritis_risk":5,"migraine_risk":7,"frizz_risk":1,"updated_at":"2026-06-25T16:15:14.154070+05:30"},{"city":"Sagar","state":"Madhya Pradesh","latitude":23.8388,"longitude":78.7378,"temp":32.9,"humidity":50,"rain":0.0,"pressure":944.5,"uv_index":8.35,"wind_gusts":31.7,"aqi":77,"pm10":68.7,"pm2_5":28.9,"no2":0.7,"co":164.0,"o3":116.0,"so2":4.4,"mosquito_risk":0,"arthritis_risk":5,"migraine_risk":7,"frizz_risk":1,"updated_at":"2026-06-25T16:15:14.154076+05:30"},{"city":"Satna","state":"Madhya Pradesh","latitude":24.6005,"longitude":80.8322,"temp":36.8,"humidity":38,"rain":0.0,"pressure":964.6,"uv_index":7.05,"wind_gusts":25.9,"aqi":81,"pm10":83.8,"pm2_5":29.7,"no2":0.5,"co":149.0,"o3":118.0,"so2":2.3,"mosquito_risk":0,"arthritis_risk":5,"migraine_risk":10,"frizz_risk":1,"updated_at":"2026-06-25T16:15:14.154084+05:30"},{"city":"Akola","state":"Maharashtra","latitude":20.7002,"longitude":77.0082,"temp":26.8,"humidity":89,"rain":0.5,"pressure":970.0,"uv_index":5.55,"wind_gusts":39.2,"aqi":63,"pm10":40.0,"pm2_5":20.8,"no2":2.6,"co":143.0,"o3":92.0,"so2":6.3,"mosquito_risk":10,"arthritis_risk":5,"migraine_risk":3,"frizz_risk":1,"updated_at":"2026-06-25T16:15:14.154091+05:30"},{"city":"Amravati","state":"Maharashtra","latitude":20.9374,"longitude":77.7796,"temp":28.1,"humidity":80,"rain":0.2,"pressure":962.0,"uv_index":7.65,"wind_gusts":37.1,"aqi":61,"pm10":36.1,"pm2_5":18.9,"no2":4.1,"co":167.0,"o3":90.0,"so2":5.2,"mosquito_risk":10,"arthritis_risk":5,"migraine_risk":7,"frizz_risk":1,"updated_at":"2026-06-25T16:15:14.154099+05:30"},{"city":"Latur","state":"Maharashtra","latitude":18.4088,"longitude":76.5604,"temp":25.6,"humidity":86,"rain":0.2,"pressure":935.2,"uv_index":7.05,"wind_gusts":40.7,"aqi":43,"pm10":27.4,"pm2_5":14.4,"no2":2.7,"co":132.0,"o3":80.0,"so2":1.8,"mosquito_risk":10,"arthritis_risk":5,"migraine_risk":7,"frizz_risk":1,"updated_at":"2026-06-25T16:15:14.154106+05:30"},{"city":"Nanded","state":"Maharashtra","latitude":19.1383,"longitude":77.3091,"temp":27.5,"humidity":80,"rain":0.1,"pressure":963.6,"uv_index":8.05,"wind_gusts":44.6,"aqi":61,"pm10":29.3,"pm2_5":15.0,"no2":2.0,"co":175.0,"o3":96.0,"so2":1.7,"mosquito_risk":10,"arthritis_risk":5,"migraine_risk":7,"frizz_risk":1,"updated_at":"2026-06-25T16:15:14.154112+05:30"},{"city":"Gulbarga","state":"Karnataka","latitude":17.3297,"longitude":76.8343,"temp":31.9,"humidity":49,"rain":0.0,"pressure":953.7,"uv_index":6.25,"wind_gusts":50.0,"aqi":32,"pm10":36.0,"pm2_5":14.3,"no2":1.7,"co":136.0,"o3":90.0,"so2":1.8,"mosquito_risk":0,"arthritis_risk":5,"migraine_risk":7,"frizz_risk":1,"updated_at":"2026-06-25T16:15:14.154119+05:30"},{"city":"Bidar","state":"Karnataka","latitude":17.9104,"longitude":77.5199,"temp":25.5,"humidity":88,"rain":0.5,"pressure":931.0,"uv_index":6.95,"wind_gusts":42.1,"aqi":43,"pm10":26.5,"pm2_5":14.9,"no2":3.8,"co":137.0,"o3":95.0,"so2":3.7,"mosquito_risk":10,"arthritis_risk":5,"migraine_risk":7,"frizz_risk":1,"updated_at":"2026-06-25T16:15:14.154125+05:30"},{"city":"Hospet","state":"Karnataka","latitude":15.2689,"longitude":76.3909,"temp":30.8,"humidity":52,"rain":0.1,"pressure":951.5,"uv_index":8.1,"wind_gusts":45.7,"aqi":28,"pm10":6.4,"pm2_5":3.7,"no2":2.5,"co":131.0,"o3":62.0,"so2":1.5,"mosquito_risk":3,"arthritis_risk":5,"migraine_risk":7,"frizz_risk":1,"updated_at":"2026-06-25T16:15:14.154132+05:30"},{"city":"Tirupur","state":"Tamil Nadu","latitude":11.1085,"longitude":77.3411,"temp":33.3,"humidity":48,"rain":0.0,"pressure":971.4,"uv_index":8.05,"wind_gusts":50.8,"aqi":45,"pm10":8.7,"pm2_5":6.4,"no2":2.3,"co":136.0,"o3":83.0,"so2":2.2,"mosquito_risk":0,"arthritis_risk":5,"migraine_risk":7,"frizz_risk":1,"updated_at":"2026-06-25T16:15:14.154138+05:30"},{"city":"Alappuzha","state":"Kerala","latitude":9.4981,"longitude":76.3388,"temp":28.3,"humidity":81,"rain":0.0,"pressure":1007.3,"uv_index":8.0,"wind_gusts":43.6,"aqi":31,"pm10":9.7,"pm2_5":7.0,"no2":3.9,"co":86.0,"o3":66.0,"so2":2.9,"mosquito_risk":7,"arthritis_risk":5,"migraine_risk":4,"frizz_risk":1,"updated_at":"2026-06-25T16:15:14.154145+05:30"},{"city":"Munnar","state":"Kerala","latitude":10.0889,"longitude":77.0595,"temp":19.0,"humidity":91,"rain":0.1,"pressure":855.8,"uv_index":9.0,"wind_gusts":38.9,"aqi":24,"pm10":5.1,"pm2_5":3.7,"no2":1.9,"co":92.0,"o3":55.0,"so2":0.9,"mosquito_risk":6,"arthritis_risk":10,"migraine_risk":7,"frizz_risk":1,"updated_at":"2026-06-25T16:15:14.154152+05:30"},{"city":"Silchar","state":"Assam","latitude":24.8333,"longitude":92.7789,"temp":32.9,"humidity":64,"rain":0.0,"pressure":997.4,"uv_index":8.7,"wind_gusts":19.1,"aqi":68,"pm10":46.1,"pm2_5":24.9,"no2":2.2,"co":246.0,"o3":127.0,"so2":5.3,"mosquito_risk":3,"arthritis_risk":5,"migraine_risk":7,"frizz_risk":1,"updated_at":"2026-06-25T16:15:14.154158+05:30"},{"city":"Dibrugarh","state":"Assam","latitude":27.4728,"longitude":94.912,"temp":32.8,"humidity":65,"rain":0.0,"pressure":986.9,"uv_index":8.55,"wind_gusts":23.4,"aqi":84,"pm10":10.1,"pm2_5":7.8,"no2":2.3,"co":254.0,"o3":124.0,"so2":2.1,"mosquito_risk":3,"arthritis_risk":5,"migraine_risk":7,"frizz_risk":1,"updated_at":"2026-06-25T16:15:14.154165+05:30"}]