[{"city":"Delhi","state":"Delhi","latitude":28.6139,"longitude":77.209,"temp":32.1,"humidity":39,"rain":0.0,"pressure":978.1,"uv_index":7.6,"wind_gusts":43.6,"aqi":491,"pm10":504.8,"pm2_5":79.4,"no2":13.6,"co":691.0,"o3":157.0,"so2":18.6,"mosquito_risk":0,"arthritis_risk":5,"migraine_risk":7,"frizz_risk":1,"updated_at":"2026-05-03T18:47:37.102217+05:30"},{"city":"Mumbai","state":"Maharashtra","latitude":19.076,"longitude":72.8777,"temp":29.6,"humidity":75,"rain":0.0,"pressure":1005.4,"uv_index":7.85,"wind_gusts":41.0,"aqi":70,"pm10":37.1,"pm2_5":17.6,"no2":9.3,"co":245.0,"o3":72.0,"so2":16.6,"mosquito_risk":7,"arthritis_risk":5,"migraine_risk":4,"frizz_risk":1,"updated_at":"2026-05-03T18:47:37.102267+05:30"},{"city":"Bangalore","state":"Karnataka","latitude":12.9716,"longitude":77.5946,"temp":29.2,"humidity":51,"rain":0.0,"pressure":909.8,"uv_index":7.85,"wind_gusts":29.2,"aqi":99,"pm10":65.7,"pm2_5":36.2,"no2":44.3,"co":462.0,"o3":92.0,"so2":12.2,"mosquito_risk":4,"arthritis_risk":5,"migraine_risk":7,"frizz_risk":1,"updated_at":"2026-05-03T18:47:37.102289+05:30"},{"city":"Hyderabad","state":"Telangana","latitude":17.385,"longitude":78.4867,"temp":36.7,"humidity":18,"rain":0.0,"pressure":949.7,"uv_index":9.25,"wind_gusts":33.8,"aqi":87,"pm10":46.0,"pm2_5":21.8,"no2":20.5,"co":409.0,"o3":100.0,"so2":8.0,"mosquito_risk":0,"arthritis_risk":5,"migraine_risk":10,"frizz_risk":0,"updated_at":"2026-05-03T18:47:37.102301+05:30"},{"city":"Chennai","state":"Tamil Nadu","latitude":13.0827,"longitude":80.2707,"temp":32.2,"humidity":64,"rain":0.0,"pressure":1003.4,"uv_index":8.65,"wind_gusts":51.1,"aqi":163,"pm10":36.7,"pm2_5":29.9,"no2":7.1,"co":268.0,"o3":169.0,"so2":7.3,"mosquito_risk":3,"arthritis_risk":5,"migraine_risk":4,"frizz_risk":1,"updated_at":"2026-05-03T18:47:37.102312+05:30"},{"city":"Kolkata","state":"West Bengal","latitude":22.5726,"longitude":88.3639,"temp":24.3,"humidity":92,"rain":0.0,"pressure":1003.9,"uv_index":8.95,"wind_gusts":42.8,"aqi":176,"pm10":88.7,"pm2_5":70.3,"no2":18.5,"co":576.0,"o3":134.0,"so2":20.6,"mosquito_risk":3,"arthritis_risk":5,"migraine_risk":4,"frizz_risk":1,"updated_at":"2026-05-03T18:47:37.102321+05:30"},{"city":"Pune","state":"Maharashtra","latitude":18.5204,"longitude":73.8567,"temp":31.0,"humidity":40,"rain":0.0,"pressure":945.9,"uv_index":8.5,"wind_gusts":47.9,"aqi":64,"pm10":41.4,"pm2_5":13.1,"no2":4.3,"co":200.0,"o3":99.0,"so2":3.7,"mosquito_risk":0,"arthritis_risk":5,"migraine_risk":7,"frizz_risk":0,"updated_at":"2026-05-03T18:47:37.102329+05:30"},{"city":"Ahmedabad","state":"Gujarat","latitude":23.0225,"longitude":72.5714,"temp":34.7,"humidity":48,"rain":0.0,"pressure":994.8,"uv_index":8.1,"wind_gusts":47.5,"aqi":80,"pm10":52.9,"pm2_5":15.2,"no2":4.3,"co":191.0,"o3":114.0,"so2":3.9,"mosquito_risk":0,"arthritis_risk":5,"migraine_risk":7,"frizz_risk":1,"updated_at":"2026-05-03T18:47:37.102340+05:30"},{"city":"Jaipur","state":"Rajasthan","latitude":26.9124,"longitude":75.7873,"temp":35.6,"humidity":19,"rain":0.0,"pressure":953.3,"uv_index":8.15,"wind_gusts":43.2,"aqi":115,"pm10":89.4,"pm2_5":23.8,"no2":12.2,"co":227.0,"o3":113.0,"so2":4.6,"mosquito_risk":0,"arthritis_risk":5,"migraine_risk":10,"frizz_risk":0,"updated_at":"2026-05-03T18:47:37.102349+05:30"},{"city":"Lucknow","state":"Uttar Pradesh","latitude":26.8467,"longitude":80.9462,"temp":28.8,"humidity":63,"rain":0.0,"pressure":990.6,"uv_index":8.1,"wind_gusts":36.4,"aqi":164,"pm10":48.5,"pm2_5":35.4,"no2":5.6,"co":353.0,"o3":160.0,"so2":9.8,"mosquito_risk":7,"arthritis_risk":5,"migraine_risk":7,"frizz_risk":1,"updated_at":"2026-05-03T18:47:37.102357+05:30"},{"city":"Kanpur","state":"Uttar Pradesh","latitude":26.4499,"longitude":80.3319,"temp":32.2,"humidity":43,"rain":0.0,"pressure":988.1,"uv_index":8.1,"wind_gusts":38.2,"aqi":176,"pm10":139.2,"pm2_5":39.7,"no2":5.1,"co":324.0,"o3":165.0,"so2":9.7,"mosquito_risk":0,"arthritis_risk":5,"migraine_risk":7,"frizz_risk":1,"updated_at":"2026-05-03T18:47:37.102365+05:30"},{"city":"Chandigarh","state":"Chandigarh","latitude":30.7333,"longitude":76.7794,"temp":28.0,"humidity":45,"rain":0.0,"pressure":965.5,"uv_index":7.6,"wind_gusts":62.3,"aqi":167,"pm10":116.4,"pm2_5":34.1,"no2":7.8,"co":407.0,"o3":150.0,"so2":8.4,"mosquito_risk":4,"arthritis_risk":5,"migraine_risk":7,"frizz_risk":0,"updated_at":"2026-05-03T18:47:37.102373+05:30"},{"city":"Srinagar","state":"Jammu and Kashmir","latitude":34.0837,"longitude":74.7973,"temp":13.1,"humidity":92,"rain":0.0,"pressure":839.9,"uv_index":8.75,"wind_gusts":38.9,"aqi":89,"pm10":27.5,"pm2_5":14.9,"no2":9.1,"co":434.0,"o3":110.0,"so2":3.4,"mosquito_risk":3,"arthritis_risk":10,"migraine_risk":7,"frizz_risk":0,"updated_at":"2026-05-03T18:47:37.102384+05:30"},{"city":"Jammu","state":"Jammu and Kashmir","latitude":32.7266,"longitude":74.857,"temp":29.8,"humidity":33,"rain":0.0,"pressure":968.9,"uv_index":8.25,"wind_gusts":32.4,"aqi":151,"pm10":44.8,"pm2_5":20.1,"no2":4.7,"co":336.0,"o3":153.0,"so2":4.1,"mosquito_risk":4,"arthritis_risk":5,"migraine_risk":7,"frizz_risk":0,"updated_at":"2026-05-03T18:47:37.102392+05:30"},{"city":"Amritsar","state":"Punjab","latitude":31.634,"longitude":74.8723,"temp":29.0,"humidity":42,"rain":0.0,"pressure":977.5,"uv_index":8.1,"wind_gusts":51.5,"aqi":165,"pm10":159.7,"pm2_5":45.3,"no2":2.7,"co":367.0,"o3":160.0,"so2":7.4,"mosquito_risk":4,"arthritis_risk":5,"migraine_risk":7,"frizz_risk":0,"updated_at":"2026-05-03T18:47:37.102400+05:30"},{"city":"Ludhiana","state":"Punjab","latitude":30.901,"longitude":75.8573,"temp":30.4,"humidity":33,"rain":0.0,"pressure":974.7,"uv_index":7.85,"wind_gusts":47.9,"aqi":165,"pm10":347.4,"pm2_5":66.1,"no2":6.3,"co":455.0,"o3":149.0,"so2":8.9,"mosquito_risk":0,"arthritis_risk":5,"migraine_risk":7,"frizz_risk":0,"updated_at":"2026-05-03T18:47:37.102408+05:30"},{"city":"Jalandhar","state":"Punjab","latitude":31.326,"longitude":75.5762,"temp":29.5,"humidity":35,"rain":0.0,"pressure":976.2,"uv_index":8.05,"wind_gusts":49.7,"aqi":171,"pm10":197.4,"pm2_5":50.2,"no2":5.7,"co":475.0,"o3":154.0,"so2":8.6,"mosquito_risk":4,"arthritis_risk":5,"migraine_risk":7,"frizz_risk":0,"updated_at":"2026-05-03T18:47:37.102415+05:30"},{"city":"Dehradun","state":"Uttarakhand","latitude":30.6284,"longitude":78.0322,"temp":17.0,"humidity":70,"rain":0.0,"pressure":828.1,"uv_index":7.45,"wind_gusts":42.5,"aqi":121,"pm10":64.5,"pm2_5":25.9,"no2":8.9,"co":241.0,"o3":130.0,"so2":2.9,"mosquito_risk":3,"arthritis_risk":5,"migraine_risk":7,"frizz_risk":0,"updated_at":"2026-05-03T18:47:37.102425+05:30"},{"city":"Shimla","state":"Himachal Pradesh","latitude":31.1048,"longitude":77.1734,"temp":14.2,"humidity":60,"rain":0.0,"pressure":782.2,"uv_index":7.65,"wind_gusts":42.1,"aqi":140,"pm10":78.9,"pm2_5":25.2,"no2":6.7,"co":261.0,"o3":156.0,"so2":10.8,"mosquito_risk":0,"arthritis_risk":5,"migraine_risk":7,"frizz_risk":0,"updated_at":"2026-05-03T18:47:37.102433+05:30"},{"city":"Manali","state":"Himachal Pradesh","latitude":32.2396,"longitude":77.1887,"temp":10.1,"humidity":90,"rain":0.0,"pressure":814.3,"uv_index":9.7,"wind_gusts":40.7,"aqi":137,"pm10":23.4,"pm2_5":11.3,"no2":8.3,"co":219.0,"o3":144.0,"so2":0.9,"mosquito_risk":3,"arthritis_risk":10,"migraine_risk":7,"frizz_risk":0,"updated_at":"2026-05-03T18:47:37.102441+05:30"},{"city":"Gurgaon","state":"Haryana","latitude":28.4595,"longitude":77.0266,"temp":31.6,"humidity":39,"rain":0.0,"pressure":976.2,"uv_index":7.7,"wind_gusts":45.7,"aqi":1353,"pm10":1747.2,"pm2_5":188.6,"no2":12.5,"co":575.0,"o3":144.0,"so2":14.5,"mosquito_risk":0,"arthritis_risk":5,"migraine_risk":7,"frizz_risk":0,"updated_at":"2026-05-03T18:47:37.102448+05:30"},{"city":"Noida","state":"Uttar Pradesh","latitude":28.5355,"longitude":77.391,"temp":30.7,"humidity":46,"rain":0.0,"pressure":979.5,"uv_index":7.6,"wind_gusts":45.4,"aqi":1353,"pm10":1747.2,"pm2_5":188.6,"no2":12.5,"co":531.0,"o3":144.0,"so2":14.5,"mosquito_risk":0,"arthritis_risk":5,"migraine_risk":7,"frizz_risk":1,"updated_at":"2026-05-03T18:47:37.102455+05:30"},{"city":"Ghaziabad","state":"Uttar Pradesh","latitude":28.6692,"longitude":77.4538,"temp":30.5,"humidity":47,"rain":0.0,"pressure":978.1,"uv_index":7.6,"wind_gusts":50.4,"aqi":324,"pm10":376.3,"pm2_5":65.4,"no2":6.1,"co":343.0,"o3":155.0,"so2":9.3,"mosquito_risk":0,"arthritis_risk":5,"migraine_risk":7,"frizz_risk":1,"updated_at":"2026-05-03T18:47:37.102462+05:30"},{"city":"Faridabad","state":"Haryana","latitude":28.4089,"longitude":77.3178,"temp":31.5,"humidity":41,"rain":0.0,"pressure":978.8,"uv_index":7.65,"wind_gusts":49.0,"aqi":1353,"pm10":1747.2,"pm2_5":188.6,"no2":12.5,"co":548.0,"o3":144.0,"so2":14.5,"mosquito_risk":0,"arthritis_risk":5,"migraine_risk":7,"frizz_risk":1,"updated_at":"2026-05-03T18:47:37.102469+05:30"},{"city":"Meerut","state":"Uttar Pradesh","latitude":28.9845,"longitude":77.7064,"temp":29.0,"humidity":55,"rain":0.0,"pressure":977.3,"uv_index":7.45,"wind_gusts":47.5,"aqi":324,"pm10":376.3,"pm2_5":65.4,"no2":6.1,"co":373.0,"o3":155.0,"so2":9.3,"mosquito_risk":4,"arthritis_risk":5,"migraine_risk":7,"frizz_risk":1,"updated_at":"2026-05-03T18:47:37.102476+05:30"},{"city":"Agra","state":"Uttar Pradesh","latitude":27.1767,"longitude":78.0081,"temp":30.2,"humidity":48,"rain":0.0,"pressure":982.7,"uv_index":7.95,"wind_gusts":69.8,"aqi":824,"pm10":278.5,"pm2_5":56.6,"no2":11.2,"co":279.0,"o3":129.0,"so2":10.5,"mosquito_risk":0,"arthritis_risk":5,"migraine_risk":7,"frizz_risk":1,"updated_at":"2026-05-03T18:47:37.102483+05:30"},{"city":"Varanasi","state":"Uttar Pradesh","latitude":25.3176,"longitude":82.9739,"temp":31.3,"humidity":51,"rain":0.0,"pressure":994.2,"uv_index":8.65,"wind_gusts":36.4,"aqi":203,"pm10":71.0,"pm2_5":53.1,"no2":7.4,"co":451.0,"o3":195.0,"so2":19.0,"mosquito_risk":0,"arthritis_risk":5,"migraine_risk":7,"frizz_risk":1,"updated_at":"2026-05-03T18:47:37.102491+05:30"},{"city":"Prayagraj","state":"Uttar Pradesh","latitude":25.4358,"longitude":81.8463,"temp":31.2,"humidity":50,"rain":0.0,"pressure":992.2,"uv_index":8.5,"wind_gusts":36.0,"aqi":201,"pm10":58.1,"pm2_5":43.4,"no2":6.5,"co":342.0,"o3":183.0,"so2":13.2,"mosquito_risk":0,"arthritis_risk":5,"migraine_risk":7,"frizz_risk":1,"updated_at":"2026-05-03T18:47:37.102500+05:30"},{"city":"Gorakhpur","state":"Uttar Pradesh","latitude":26.7606,"longitude":83.3732,"temp":27.2,"humidity":61,"rain":0.0,"pressure":995.4,"uv_index":7.95,"wind_gusts":37.8,"aqi":159,"pm10":56.9,"pm2_5":36.0,"no2":4.6,"co":350.0,"o3":161.0,"so2":3.8,"mosquito_risk":7,"arthritis_risk":5,"migraine_risk":7,"frizz_risk":1,"updated_at":"2026-05-03T18:47:37.102507+05:30"},{"city":"Bareilly","state":"Uttar Pradesh","latitude":28.367,"longitude":79.4304,"temp":29.8,"humidity":49,"rain":0.0,"pressure":983.1,"uv_index":7.9,"wind_gusts":42.1,"aqi":171,"pm10":256.1,"pm2_5":55.6,"no2":6.4,"co":332.0,"o3":159.0,"so2":13.2,"mosquito_risk":4,"arthritis_risk":5,"migraine_risk":7,"frizz_risk":1,"updated_at":"2026-05-03T18:47:37.102514+05:30"},{"city":"Aligarh","state":"Uttar Pradesh","latitude":27.8974,"longitude":78.088,"temp":29.7,"humidity":51,"rain":0.0,"pressure":980.7,"uv_index":7.75,"wind_gusts":50.4,"aqi":746,"pm10":575.6,"pm2_5":86.4,"no2":5.1,"co":276.0,"o3":149.0,"so2":10.6,"mosquito_risk":4,"arthritis_risk":5,"migraine_risk":7,"frizz_risk":1,"updated_at":"2026-05-03T18:47:37.102521+05:30"},{"city":"Moradabad","state":"Uttar Pradesh","latitude":28.8386,"longitude":78.7733,"temp":29.2,"humidity":53,"rain":0.0,"pressure":979.9,"uv_index":7.7,"wind_gusts":46.8,"aqi":174,"pm10":158.3,"pm2_5":48.8,"no2":9.6,"co":344.0,"o3":148.0,"so2":14.3,"mosquito_risk":4,"arthritis_risk":5,"migraine_risk":7,"frizz_risk":1,"updated_at":"2026-05-03T18:47:37.102527+05:30"},{"city":"Saharanpur","state":"Uttar Pradesh","latitude":29.9637,"longitude":77.546,"temp":27.4,"humidity":63,"rain":0.0,"pressure":972.2,"uv_index":7.3,"wind_gusts":45.4,"aqi":155,"pm10":117.1,"pm2_5":42.4,"no2":12.5,"co":415.0,"o3":128.0,"so2":10.6,"mosquito_risk":7,"arthritis_risk":5,"migraine_risk":7,"frizz_risk":1,"updated_at":"2026-05-03T18:47:37.102533+05:30"},{"city":"Jhansi","state":"Uttar Pradesh","latitude":25.4484,"longitude":78.5685,"temp":34.8,"humidity":29,"rain":0.0,"pressure":972.5,"uv_index":8.4,"wind_gusts":29.5,"aqi":136,"pm10":87.5,"pm2_5":28.8,"no2":3.5,"co":214.0,"o3":142.0,"so2":19.1,"mosquito_risk":0,"arthritis_risk":5,"migraine_risk":7,"frizz_risk":0,"updated_at":"2026-05-03T18:47:40.489719+05:30"},{"city":"Surat","state":"Gujarat","latitude":21.1702,"longitude":72.8311,"temp":29.8,"humidity":74,"rain":0.0,"pressure":1001.6,"uv_index":7.7,"wind_gusts":55.8,"aqi":62,"pm10":25.0,"pm2_5":15.3,"no2":14.1,"co":230.0,"o3":62.0,"so2":27.4,"mosquito_risk":7,"arthritis_risk":5,"migraine_risk":4,"frizz_risk":1,"updated_at":"2026-05-03T18:47:40.489755+05:30"},{"city":"Vadodara","state":"Gujarat","latitude":22.3072,"longitude":73.1812,"temp":32.9,"humidity":49,"rain":0.0,"pressure":998.0,"uv_index":8.05,"wind_gusts":51.8,"aqi":71,"pm10":20.3,"pm2_5":12.1,"no2":6.3,"co":212.0,"o3":101.0,"so2":9.4,"mosquito_risk":0,"arthritis_risk":5,"migraine_risk":7,"frizz_risk":1,"updated_at":"2026-05-03T18:47:40.489766+05:30"},{"city":"Rajkot","state":"Gujarat","latitude":22.3039,"longitude":70.8022,"temp":35.5,"humidity":36,"rain":0.0,"pressure":987.6,"uv_index":7.7,"wind_gusts":51.1,"aqi":62,"pm10":39.5,"pm2_5":13.5,"no2":2.7,"co":152.0,"o3":104.0,"so2":5.3,"mosquito_risk":0,"arthritis_risk":5,"migraine_risk":10,"frizz_risk":1,"updated_at":"2026-05-03T18:47:40.489774+05:30"},{"city":"Thane","state":"Maharashtra","latitude":19.2183,"longitude":72.9781,"temp":30.6,"humidity":64,"rain":0.0,"pressure":1004.7,"uv_index":7.9,"wind_gusts":39.6,"aqi":70,"pm10":37.1,"pm2_5":17.6,"no2":9.3,"co":245.0,"o3":72.0,"so2":16.6,"mosquito_risk":3,"arthritis_risk":5,"migraine_risk":4,"frizz_risk":1,"updated_at":"2026-05-03T18:47:40.489782+05:30"},{"city":"Nagpur","state":"Maharashtra","latitude":21.1458,"longitude":79.0882,"temp":37.8,"humidity":16,"rain":0.0,"pressure":967.8,"uv_index":8.9,"wind_gusts":37.1,"aqi":102,"pm10":69.4,"pm2_5":22.1,"no2":10.8,"co":201.0,"o3":109.0,"so2":13.1,"mosquito_risk":0,"arthritis_risk":5,"migraine_risk":10,"frizz_risk":0,"updated_at":"2026-05-03T18:47:40.489790+05:30"},{"city":"Nashik","state":"Maharashtra","latitude":19.9975,"longitude":73.7898,"temp":30.6,"humidity":34,"rain":0.0,"pressure":942.6,"uv_index":8.15,"wind_gusts":49.0,"aqi":67,"pm10":32.0,"pm2_5":11.4,"no2":2.9,"co":166.0,"o3":93.0,"so2":4.0,"mosquito_risk":0,"arthritis_risk":5,"migraine_risk":7,"frizz_risk":0,"updated_at":"2026-05-03T18:47:40.489796+05:30"},{"city":"Aurangabad","state":"Maharashtra","latitude":19.8762,"longitude":75.3433,"temp":35.0,"humidity":16,"rain":0.0,"pressure":940.3,"uv_index":9.05,"wind_gusts":50.8,"aqi":72,"pm10":43.2,"pm2_5":13.9,"no2":2.2,"co":164.0,"o3":114.0,"so2":3.3,"mosquito_risk":0,"arthritis_risk":5,"migraine_risk":7,"frizz_risk":0,"updated_at":"2026-05-03T18:47:40.489804+05:30"},{"city":"Solapur","state":"Maharashtra","latitude":17.6599,"longitude":75.9064,"temp":37.2,"humidity":11,"rain":0.0,"pressure":952.8,"uv_index":9.1,"wind_gusts":40.7,"aqi":64,"pm10":41.8,"pm2_5":12.6,"no2":4.0,"co":207.0,"o3":107.0,"so2":1.8,"mosquito_risk":0,"arthritis_risk":5,"migraine_risk":10,"frizz_risk":0,"updated_at":"2026-05-03T18:47:40.489812+05:30"},{"city":"Kolhapur","state":"Maharashtra","latitude":16.705,"longitude":74.2433,"temp":29.4,"humidity":54,"rain":0.0,"pressure":946.0,"uv_index":8.95,"wind_gusts":47.2,"aqi":62,"pm10":38.9,"pm2_5":15.9,"no2":4.7,"co":175.0,"o3":94.0,"so2":2.2,"mosquito_risk":4,"arthritis_risk":5,"migraine_risk":7,"frizz_risk":1,"updated_at":"2026-05-03T18:47:40.489819+05:30"},{"city":"Goa","state":"Goa","latitude":15.2993,"longitude":74.124,"temp":30.8,"humidity":65,"rain":0.0,"pressure":996.4,"uv_index":8.9,"wind_gusts":36.7,"aqi":67,"pm10":46.8,"pm2_5":14.7,"no2":2.0,"co":156.0,"o3":71.0,"so2":1.0,"mosquito_risk":3,"arthritis_risk":5,"migraine_risk":7,"frizz_risk":1,"updated_at":"2026-05-03T18:47:40.489827+05:30"},{"city":"Jodhpur","state":"Rajasthan","latitude":26.2389,"longitude":73.0243,"temp":31.3,"humidity":45,"rain":0.0,"pressure":976.7,"uv_index":8.3,"wind_gusts":69.8,"aqi":123,"pm10":181.1,"pm2_5":29.4,"no2":2.6,"co":197.0,"o3":125.0,"so2":3.2,"mosquito_risk":0,"arthritis_risk":5,"migraine_risk":7,"frizz_risk":1,"updated_at":"2026-05-03T18:47:40.489834+05:30"},{"city":"Udaipur","state":"Rajasthan","latitude":24.5854,"longitude":73.7125,"temp":33.0,"humidity":27,"rain":0.0,"pressure":941.1,"uv_index":8.8,"wind_gusts":39.2,"aqi":85,"pm10":34.9,"pm2_5":12.3,"no2":1.5,"co":159.0,"o3":128.0,"so2":3.7,"mosquito_risk":0,"arthritis_risk":5,"migraine_risk":7,"frizz_risk":0,"updated_at":"2026-05-03T18:47:40.489841+05:30"},{"city":"Kota","state":"Rajasthan","latitude":25.2138,"longitude":75.8648,"temp":35.7,"humidity":23,"rain":0.0,"pressure":971.5,"uv_index":8.35,"wind_gusts":37.8,"aqi":94,"pm10":86.6,"pm2_5":24.4,"no2":4.4,"co":180.0,"o3":114.0,"so2":3.8,"mosquito_risk":0,"arthritis_risk":5,"migraine_risk":10,"frizz_risk":0,"updated_at":"2026-05-03T18:47:40.489848+05:30"},{"city":"Bikaner","state":"Rajasthan","latitude":28.0229,"longitude":73.3119,"temp":37.0,"humidity":15,"rain":0.0,"pressure":974.8,"uv_index":8.25,"wind_gusts":44.3,"aqi":99,"pm10":147.6,"pm2_5":27.7,"no2":1.4,"co":178.0,"o3":126.0,"so2":4.5,"mosquito_risk":0,"arthritis_risk":5,"migraine_risk":10,"frizz_risk":0,"updated_at":"2026-05-03T18:47:40.489855+05:30"},{"city":"Ajmer","state":"Rajasthan","latitude":26.4499,"longitude":74.6399,"temp":36.2,"humidity":14,"rain":0.0,"pressure":948.7,"uv_index":8.3,"wind_gusts":45.4,"aqi":96,"pm10":53.0,"pm2_5":16.3,"no2":3.9,"co":166.0,"o3":118.0,"so2":3.2,"mosquito_risk":0,"arthritis_risk":5,"migraine_risk":10,"frizz_risk":0,"updated_at":"2026-05-03T18:47:40.489861+05:30"},{"city":"Gwalior","state":"Madhya Pradesh","latitude":26.2183,"longitude":78.1828,"temp":35.6,"humidity":25,"rain":0.0,"pressure":977.4,"uv_index":8.15,"wind_gusts":42.8,"aqi":112,"pm10":87.8,"pm2_5":25.4,"no2":3.2,"co":213.0,"o3":124.0,"so2":5.0,"mosquito_risk":0,"arthritis_risk":5,"migraine_risk":10,"frizz_risk":0,"updated_at":"2026-05-03T18:47:40.489868+05:30"},{"city":"Indore","state":"Madhya Pradesh","latitude":22.7196,"longitude":75.8577,"temp":35.5,"humidity":16,"rain":0.0,"pressure":943.4,"uv_index":8.7,"wind_gusts":41.8,"aqi":79,"pm10":18.3,"pm2_5":9.5,"no2":3.7,"co":214.0,"o3":124.0,"so2":4.2,"mosquito_risk":0,"arthritis_risk":5,"migraine_risk":10,"frizz_risk":0,"updated_at":"2026-05-03T18:47:40.489874+05:30"},{"city":"Bhopal","state":"Madhya Pradesh","latitude":23.2599,"longitude":77.4126,"temp":36.4,"humidity":17,"rain":0.0,"pressure":948.2,"uv_index":8.65,"wind_gusts":32.4,"aqi":78,"pm10":68.0,"pm2_5":18.9,"no2":3.8,"co":206.0,"o3":108.0,"so2":3.1,"mosquito_risk":0,"arthritis_risk":5,"migraine_risk":10,"frizz_risk":0,"updated_at":"2026-05-03T18:47:40.489881+05:30"},{"city":"Jabalpur","state":"Madhya Pradesh","latitude":23.1815,"longitude":79.9864,"temp":34.0,"humidity":18,"rain":0.0,"pressure":955.9,"uv_index":8.85,"wind_gusts":29.2,"aqi":91,"pm10":70.1,"pm2_5":22.5,"no2":9.6,"co":181.0,"o3":104.0,"so2":4.2,"mosquito_risk":0,"arthritis_risk":5,"migraine_risk":7,"frizz_risk":0,"updated_at":"2026-05-03T18:47:40.489887+05:30"},{"city":"Ujjain","state":"Madhya Pradesh","latitude":23.1765,"longitude":75.7885,"temp":35.5,"humidity":20,"rain":0.0,"pressure":948.6,"uv_index":8.6,"wind_gusts":42.5,"aqi":78,"pm10":17.9,"pm2_5":10.2,"no2":2.1,"co":178.0,"o3":125.0,"so2":4.1,"mosquito_risk":0,"arthritis_risk":5,"migraine_risk":10,"frizz_risk":0,"updated_at":"2026-05-03T18:47:40.489895+05:30"},{"city":"Visakhapatnam","state":"Andhra Pradesh","latitude":17.6868,"longitude":83.2185,"temp":28.8,"humidity":85,"rain":0.0,"pressure":1001.1,"uv_index":9.15,"wind_gusts":47.5,"aqi":65,"pm10":29.5,"pm2_5":23.9,"no2":19.3,"co":334.0,"o3":83.0,"so2":9.5,"mosquito_risk":7,"arthritis_risk":5,"migraine_risk":4,"frizz_risk":1,"updated_at":"2026-05-03T18:47:40.489902+05:30"},{"city":"Vijayawada","state":"Andhra Pradesh","latitude":16.5062,"longitude":80.648,"temp":34.2,"humidity":53,"rain":0.0,"pressure":998.5,"uv_index":9.15,"wind_gusts":29.2,"aqi":167,"pm10":44.6,"pm2_5":36.3,"no2":7.8,"co":281.0,"o3":156.0,"so2":8.5,"mosquito_risk":0,"arthritis_risk":5,"migraine_risk":7,"frizz_risk":1,"updated_at":"2026-05-03T18:47:40.489909+05:30"},{"city":"Guntur","state":"Andhra Pradesh","latitude":16.3067,"longitude":80.4365,"temp":35.2,"humidity":45,"rain":0.0,"pressure":999.5,"uv_index":9.2,"wind_gusts":34.6,"aqi":152,"pm10":48.5,"pm2_5":34.0,"no2":9.6,"co":300.0,"o3":131.0,"so2":7.1,"mosquito_risk":0,"arthritis_risk":5,"migraine_risk":10,"frizz_risk":1,"updated_at":"2026-05-03T18:47:40.489917+05:30"},{"city":"Nellore","state":"Andhra Pradesh","latitude":14.4426,"longitude":79.9865,"temp":32.0,"humidity":67,"rain":0.0,"pressure":1001.3,"uv_index":9.2,"wind_gusts":37.1,"aqi":156,"pm10":36.1,"pm2_5":25.6,"no2":3.3,"co":249.0,"o3":163.0,"so2":5.0,"mosquito_risk":3,"arthritis_risk":5,"migraine_risk":4,"frizz_risk":1,"updated_at":"2026-05-03T18:47:40.489925+05:30"},{"city":"Kurnool","state":"Andhra Pradesh","latitude":15.8281,"longitude":78.0373,"temp":36.8,"humidity":20,"rain":0.0,"pressure":972.6,"uv_index":9.15,"wind_gusts":41.4,"aqi":100,"pm10":44.4,"pm2_5":18.9,"no2":7.4,"co":218.0,"o3":118.0,"so2":5.6,"mosquito_risk":0,"arthritis_risk":5,"migraine_risk":10,"frizz_risk":0,"updated_at":"2026-05-03T18:47:40.489933+05:30"},{"city":"Kakinada","state":"Andhra Pradesh","latitude":16.9891,"longitude":82.2475,"temp":30.4,"humidity":77,"rain":0.0,"pressure":1004.1,"uv_index":9.15,"wind_gusts":33.1,"aqi":59,"pm10":30.7,"pm2_5":22.1,"no2":2.1,"co":244.0,"o3":112.0,"so2":2.7,"mosquito_risk":3,"arthritis_risk":5,"migraine_risk":4,"frizz_risk":1,"updated_at":"2026-05-03T18:47:40.489940+05:30"},{"city":"Tirupati","state":"Andhra Pradesh","latitude":13.6288,"longitude":79.4192,"temp":34.2,"humidity":36,"rain":0.0,"pressure":987.4,"uv_index":7.25,"wind_gusts":27.4,"aqi":115,"pm10":41.2,"pm2_5":22.0,"no2":10.3,"co":229.0,"o3":125.0,"so2":4.2,"mosquito_risk":0,"arthritis_risk":5,"migraine_risk":7,"frizz_risk":1,"updated_at":"2026-05-03T18:47:40.489947+05:30"},{"city":"Warangal","state":"Telangana","latitude":17.9689,"longitude":79.5941,"temp":35.3,"humidity":28,"rain":0.0,"pressure":974.6,"uv_index":9.15,"wind_gusts":38.9,"aqi":121,"pm10":57.6,"pm2_5":27.6,"no2":10.9,"co":291.0,"o3":114.0,"so2":10.7,"mosquito_risk":0,"arthritis_risk":5,"migraine_risk":10,"frizz_risk":0,"updated_at":"2026-05-03T18:47:40.489954+05:30"},{"city":"Nizamabad","state":"Telangana","latitude":18.6725,"longitude":78.0941,"temp":36.0,"humidity":18,"rain":0.0,"pressure":960.0,"uv_index":9.1,"wind_gusts":44.6,"aqi":73,"pm10":71.9,"pm2_5":23.1,"no2":6.7,"co":230.0,"o3":111.0,"so2":3.3,"mosquito_risk":0,"arthritis_risk":5,"migraine_risk":10,"frizz_risk":0,"updated_at":"2026-05-03T18:47:40.489960+05:30"},{"city":"Mysore","state":"Karnataka","latitude":12.2958,"longitude":76.6396,"temp":28.5,"humidity":55,"rain":0.0,"pressure":926.9,"uv_index":8.95,"wind_gusts":36.7,"aqi":79,"pm10":45.2,"pm2_5":20.9,"no2":10.2,"co":206.0,"o3":111.0,"so2":2.5,"mosquito_risk":4,"arthritis_risk":5,"migraine_risk":7,"frizz_risk":1,"updated_at":"2026-05-03T18:47:40.489967+05:30"},{"city":"Mangalore","state":"Karnataka","latitude":12.9141,"longitude":74.856,"temp":30.3,"humidity":65,"rain":0.0,"pressure":1005.2,"uv_index":9.0,"wind_gusts":42.8,"aqi":69,"pm10":60.1,"pm2_5":17.0,"no2":2.0,"co":150.0,"o3":71.0,"so2":1.1,"mosquito_risk":3,"arthritis_risk":5,"migraine_risk":4,"frizz_risk":1,"updated_at":"2026-05-03T18:47:40.489974+05:30"},{"city":"Hubli-Dharwad","state":"Karnataka","latitude":15.3647,"longitude":75.124,"temp":29.6,"humidity":57,"rain":0.0,"pressure":939.0,"uv_index":9.15,"wind_gusts":44.6,"aqi":58,"pm10":37.5,"pm2_5":15.7,"no2":3.9,"co":180.0,"o3":103.0,"so2":1.6,"mosquito_risk":4,"arthritis_risk":5,"migraine_risk":7,"frizz_risk":1,"updated_at":"2026-05-03T18:47:40.489981+05:30"},{"city":"Belgaum","state":"Karnataka","latitude":15.8497,"longitude":74.4977,"temp":27.2,"humidity":67,"rain":0.0,"pressure":924.5,"uv_index":9.15,"wind_gusts":45.0,"aqi":59,"pm10":33.4,"pm2_5":13.5,"no2":4.2,"co":165.0,"o3":80.0,"so2":1.9,"mosquito_risk":7,"arthritis_risk":5,"migraine_risk":7,"frizz_risk":1,"updated_at":"2026-05-03T18:47:43.860719+05:30"},{"city":"Coimbatore","state":"Tamil Nadu","latitude":11.0168,"longitude":76.9558,"temp":29.4,"humidity":62,"rain":0.0,"pressure":959.9,"uv_index":9.25,"wind_gusts":49.0,"aqi":65,"pm10":24.3,"pm2_5":15.5,"no2":5.7,"co":206.0,"o3":91.0,"so2":2.7,"mosquito_risk":7,"arthritis_risk":5,"migraine_risk":7,"frizz_risk":1,"updated_at":"2026-05-03T18:47:43.860755+05:30"},{"city":"Madurai","state":"Tamil Nadu","latitude":9.9252,"longitude":78.1198,"temp":33.5,"humidity":43,"rain":0.0,"pressure":990.5,"uv_index":8.9,"wind_gusts":33.1,"aqi":144,"pm10":29.7,"pm2_5":24.9,"no2":7.8,"co":372.0,"o3":136.0,"so2":3.2,"mosquito_risk":0,"arthritis_risk":5,"migraine_risk":7,"frizz_risk":1,"updated_at":"2026-05-03T18:47:43.860767+05:30"},{"city":"Trichy","state":"Tamil Nadu","latitude":10.7905,"longitude":78.7047,"temp":35.5,"humidity":37,"rain":0.0,"pressure":996.1,"uv_index":9.2,"wind_gusts":40.0,"aqi":129,"pm10":30.7,"pm2_5":26.4,"no2":6.2,"co":255.0,"o3":145.0,"so2":3.2,"mosquito_risk":0,"arthritis_risk":5,"migraine_risk":10,"frizz_risk":1,"updated_at":"2026-05-03T18:47:43.860776+05:30"},{"city":"Salem","state":"Tamil Nadu","latitude":11.6643,"longitude":78.146,"temp":36.0,"humidity":27,"rain":0.0,"pressure":974.0,"uv_index":9.25,"wind_gusts":42.1,"aqi":163,"pm10":31.0,"pm2_5":21.7,"no2":10.2,"co":200.0,"o3":153.0,"so2":11.7,"mosquito_risk":0,"arthritis_risk":5,"migraine_risk":10,"frizz_risk":0,"updated_at":"2026-05-03T18:47:43.860784+05:30"},{"city":"Tirunelveli","state":"Tamil Nadu","latitude":8.7139,"longitude":77.7567,"temp":34.0,"humidity":47,"rain":0.0,"pressure":1000.5,"uv_index":8.15,"wind_gusts":36.0,"aqi":73,"pm10":20.8,"pm2_5":17.4,"no2":4.6,"co":243.0,"o3":92.0,"so2":1.6,"mosquito_risk":0,"arthritis_risk":5,"migraine_risk":4,"frizz_risk":1,"updated_at":"2026-05-03T18:47:43.860792+05:30"},{"city":"Vellore","state":"Tamil Nadu","latitude":12.9165,"longitude":79.1325,"temp":36.8,"humidity":25,"rain":0.0,"pressure":980.6,"uv_index":9.3,"wind_gusts":38.9,"aqi":110,"pm10":32.9,"pm2_5":21.5,"no2":8.7,"co":224.0,"o3":127.0,"so2":3.4,"mosquito_risk":0,"arthritis_risk":5,"migraine_risk":10,"frizz_risk":0,"updated_at":"2026-05-03T18:47:43.860799+05:30"},{"city":"Erode","state":"Tamil Nadu","latitude":11.341,"longitude":77.7172,"temp":35.8,"humidity":28,"rain":0.0,"pressure":985.7,"uv_index":9.25,"wind_gusts":46.1,"aqi":111,"pm10":26.7,"pm2_5":17.7,"no2":6.8,"co":234.0,"o3":125.0,"so2":1.7,"mosquito_risk":0,"arthritis_risk":5,"migraine_risk":10,"frizz_risk":0,"updated_at":"2026-05-03T18:47:43.860806+05:30"},{"city":"Kochi","state":"Kerala","latitude":9.9312,"longitude":76.2673,"temp":29.4,"humidity":79,"rain":0.0,"pressure":1007.4,"uv_index":9.05,"wind_gusts":32.0,"aqi":95,"pm10":37.8,"pm2_5":23.1,"no2":17.1,"co":165.0,"o3":65.0,"so2":3.4,"mosquito_risk":7,"arthritis_risk":5,"migraine_risk":4,"frizz_risk":1,"updated_at":"2026-05-03T18:47:43.860814+05:30"},{"city":"Thiruvananthapuram","state":"Kerala","latitude":8.5241,"longitude":76.9366,"temp":28.6,"humidity":78,"rain":0.0,"pressure":1006.8,"uv_index":8.65,"wind_gusts":36.0,"aqi":56,"pm10":22.0,"pm2_5":14.2,"no2":2.0,"co":258.0,"o3":75.0,"so2":0.7,"mosquito_risk":7,"arthritis_risk":5,"migraine_risk":4,"frizz_risk":1,"updated_at":"2026-05-03T18:47:43.860821+05:30"},{"city":"Kozhikode","state":"Kerala","latitude":11.2588,"longitude":75.7804,"temp":29.2,"humidity":75,"rain":0.0,"pressure":1006.3,"uv_index":9.0,"wind_gusts":42.1,"aqi":65,"pm10":61.7,"pm2_5":18.5,"no2":0.9,"co":154.0,"o3":73.0,"so2":0.4,"mosquito_risk":7,"arthritis_risk":5,"migraine_risk":4,"frizz_risk":1,"updated_at":"2026-05-03T18:47:43.860828+05:30"},{"city":"Thrissur","state":"Kerala","latitude":10.5276,"longitude":76.2144,"temp":29.2,"humidity":70,"rain":0.0,"pressure":1005.9,"uv_index":8.75,"wind_gusts":36.7,"aqi":94,"pm10":36.0,"pm2_5":19.6,"no2":8.0,"co":183.0,"o3":70.0,"so2":1.9,"mosquito_risk":7,"arthritis_risk":5,"migraine_risk":4,"frizz_risk":1,"updated_at":"2026-05-03T18:47:43.860836+05:30"},{"city":"Kannur","state":"Kerala","latitude":11.8745,"longitude":75.3704,"temp":30.2,"humidity":64,"rain":0.0,"pressure":1005.6,"uv_index":9.0,"wind_gusts":46.8,"aqi":67,"pm10":59.8,"pm2_5":18.5,"no2":2.2,"co":151.0,"o3":73.0,"so2":0.8,"mosquito_risk":3,"arthritis_risk":5,"migraine_risk":4,"frizz_risk":1,"updated_at":"2026-05-03T18:47:43.860842+05:30"},{"city":"Patna","state":"Bihar","latitude":25.5941,"longitude":85.1376,"temp":27.2,"humidity":75,"rain":0.0,"pressure":998.2,"uv_index":8.55,"wind_gusts":41.8,"aqi":187,"pm10":72.2,"pm2_5":60.8,"no2":9.2,"co":406.0,"o3":175.0,"so2":8.7,"mosquito_risk":7,"arthritis_risk":5,"migraine_risk":7,"frizz_risk":1,"updated_at":"2026-05-03T18:47:43.860849+05:30"},{"city":"Gaya","state":"Bihar","latitude":24.7914,"longitude":85.0002,"temp":29.0,"humidity":64,"rain":0.0,"pressure":990.8,"uv_index":8.7,"wind_gusts":41.0,"aqi":206,"pm10":71.9,"pm2_5":57.7,"no2":5.8,"co":398.0,"o3":188.0,"so2":11.5,"mosquito_risk":7,"arthritis_risk":5,"migraine_risk":7,"frizz_risk":1,"updated_at":"2026-05-03T18:47:43.860855+05:30"},{"city":"Muzaffarpur","state":"Bihar","latitude":26.1209,"longitude":85.3647,"temp":26.5,"humidity":75,"rain":0.0,"pressure":998.7,"uv_index":8.7,"wind_gusts":41.4,"aqi":153,"pm10":58.9,"pm2_5":48.7,"no2":11.1,"co":431.0,"o3":145.0,"so2":7.1,"mosquito_risk":7,"arthritis_risk":5,"migraine_risk":7,"frizz_risk":1,"updated_at":"2026-05-03T18:47:43.860861+05:30"},{"city":"Bhagalpur","state":"Bihar","latitude":25.2425,"longitude":87.0117,"temp":25.1,"humidity":78,"rain":0.0,"pressure":999.8,"uv_index":8.65,"wind_gusts":41.8,"aqi":161,"pm10":70.8,"pm2_5":54.8,"no2":10.6,"co":361.0,"o3":154.0,"so2":8.8,"mosquito_risk":7,"arthritis_risk":5,"migraine_risk":7,"frizz_risk":1,"updated_at":"2026-05-03T18:47:43.860867+05:30"},{"city":"Ranchi","state":"Jharkhand","latitude":23.3441,"longitude":85.3096,"temp":26.9,"humidity":52,"rain":0.0,"pressure":934.5,"uv_index":9.25,"wind_gusts":29.2,"aqi":125,"pm10":54.5,"pm2_5":27.0,"no2":6.4,"co":658.0,"o3":134.0,"so2":10.6,"mosquito_risk":4,"arthritis_risk":5,"migraine_risk":7,"frizz_risk":1,"updated_at":"2026-05-03T18:47:43.860874+05:30"},{"city":"Jamshedpur","state":"Jharkhand","latitude":22.8046,"longitude":86.2029,"temp":27.6,"humidity":68,"rain":0.0,"pressure":988.3,"uv_index":9.05,"wind_gusts":38.5,"aqi":206,"pm10":60.5,"pm2_5":43.8,"no2":7.6,"co":471.0,"o3":168.0,"so2":16.7,"mosquito_risk":7,"arthritis_risk":5,"migraine_risk":7,"frizz_risk":1,"updated_at":"2026-05-03T18:47:43.860880+05:30"},{"city":"Dhanbad","state":"Jharkhand","latitude":23.7957,"longitude":86.4304,"temp":25.5,"humidity":81,"rain":0.0,"pressure":977.5,"uv_index":9.0,"wind_gusts":30.2,"aqi":200,"pm10":89.2,"pm2_5":75.4,"no2":28.5,"co":339.0,"o3":174.0,"so2":63.5,"mosquito_risk":7,"arthritis_risk":5,"migraine_risk":7,"frizz_risk":1,"updated_at":"2026-05-03T18:47:43.860887+05:30"},{"city":"Bokaro","state":"Jharkhand","latitude":23.6693,"longitude":86.1511,"temp":25.4,"humidity":78,"rain":0.0,"pressure":981.1,"uv_index":9.0,"wind_gusts":39.2,"aqi":218,"pm10":94.1,"pm2_5":79.4,"no2":28.1,"co":394.0,"o3":211.0,"so2":77.4,"mosquito_risk":7,"arthritis_risk":5,"migraine_risk":7,"frizz_risk":1,"updated_at":"2026-05-03T18:47:43.860893+05:30"},{"city":"Bhubaneswar","state":"Odisha","latitude":20.2961,"longitude":85.8245,"temp":28.1,"humidity":81,"rain":0.0,"pressure":999.9,"uv_index":9.1,"wind_gusts":41.4,"aqi":108,"pm10":26.8,"pm2_5":22.0,"no2":6.9,"co":256.0,"o3":108.0,"so2":5.4,"mosquito_risk":7,"arthritis_risk":5,"migraine_risk":7,"frizz_risk":1,"updated_at":"2026-05-03T18:47:43.860900+05:30"},{"city":"Cuttack","state":"Odisha","latitude":20.4625,"longitude":85.8828,"temp":28.6,"humidity":77,"rain":0.0,"pressure":1001.7,"uv_index":9.15,"wind_gusts":41.0,"aqi":108,"pm10":26.8,"pm2_5":22.0,"no2":6.9,"co":316.0,"o3":108.0,"so2":5.4,"mosquito_risk":7,"arthritis_risk":5,"migraine_risk":4,"frizz_risk":1,"updated_at":"2026-05-03T18:47:43.860906+05:30"},{"city":"Rourkela","state":"Odisha","latitude":22.2604,"longitude":84.8536,"temp":31.1,"humidity":45,"rain":0.0,"pressure":981.5,"uv_index":8.95,"wind_gusts":38.5,"aqi":167,"pm10":78.7,"pm2_5":44.8,"no2":16.3,"co":340.0,"o3":143.0,"so2":27.1,"mosquito_risk":0,"arthritis_risk":5,"migraine_risk":7,"frizz_risk":1,"updated_at":"2026-05-03T18:47:43.860913+05:30"},{"city":"Raipur","state":"Chhattisgarh","latitude":21.2514,"longitude":81.6296,"temp":36.3,"humidity":19,"rain":0.0,"pressure":970.0,"uv_index":9.0,"wind_gusts":32.4,"aqi":173,"pm10":60.3,"pm2_5":35.7,"no2":23.2,"co":318.0,"o3":122.0,"so2":8.5,"mosquito_risk":0,"arthritis_risk":5,"migraine_risk":10,"frizz_risk":0,"updated_at":"2026-05-03T18:47:43.860919+05:30"},{"city":"Bhilai","state":"Chhattisgarh","latitude":21.1938,"longitude":81.3509,"temp":35.7,"humidity":21,"rain":0.0,"pressure":970.3,"uv_index":9.0,"wind_gusts":35.6,"aqi":137,"pm10":52.7,"pm2_5":27.4,"no2":19.4,"co":634.0,"o3":113.0,"so2":6.4,"mosquito_risk":0,"arthritis_risk":5,"migraine_risk":10,"frizz_risk":0,"updated_at":"2026-05-03T18:47:43.860925+05:30"},{"city":"Guwahati","state":"Assam","latitude":26.1158,"longitude":91.7086,"temp":21.1,"humidity":100,"rain":0.1,"pressure":1002.7,"uv_index":7.2,"wind_gusts":19.1,"aqi":66,"pm10":13.5,"pm2_5":11.5,"no2":6.5,"co":290.0,"o3":88.0,"so2":1.5,"mosquito_risk":6,"arthritis_risk":5,"migraine_risk":4,"frizz_risk":1,"updated_at":"2026-05-03T18:47:43.860931+05:30"},{"city":"Agartala","state":"Tripura","latitude":23.8315,"longitude":91.2868,"temp":24.8,"humidity":93,"rain":0.0,"pressure":1005.7,"uv_index":8.7,"wind_gusts":36.7,"aqi":61,"pm10":23.4,"pm2_5":21.7,"no2":13.1,"co":228.0,"o3":77.0,"so2":2.5,"mosquito_risk":3,"arthritis_risk":5,"migraine_risk":4,"frizz_risk":1,"updated_at":"2026-05-03T18:47:43.860938+05:30"},{"city":"Shillong","state":"Meghalaya","latitude":25.5788,"longitude":91.8933,"temp":15.2,"humidity":92,"rain":0.0,"pressure":855.7,"uv_index":6.5,"wind_gusts":24.8,"aqi":68,"pm10":14.3,"pm2_5":11.4,"no2":7.6,"co":423.0,"o3":95.0,"so2":1.5,"mosquito_risk":3,"arthritis_risk":10,"migraine_risk":7,"frizz_risk":0,"updated_at":"2026-05-03T18:47:43.860944+05:30"},{"city":"Imphal","state":"Manipur","latitude":24.817,"longitude":93.9368,"temp":19.5,"humidity":93,"rain":0.0,"pressure":923.4,"uv_index":9.15,"wind_gusts":37.8,"aqi":63,"pm10":31.1,"pm2_5":21.1,"no2":10.8,"co":437.0,"o3":77.0,"so2":2.8,"mosquito_risk":3,"arthritis_risk":10,"migraine_risk":7,"frizz_risk":1,"updated_at":"2026-05-03T18:47:43.860951+05:30"},{"city":"Aizawl","state":"Mizoram","latitude":23.7271,"longitude":92.7176,"temp":18.3,"humidity":89,"rain":0.0,"pressure":892.2,"uv_index":8.5,"wind_gusts":55.1,"aqi":42,"pm10":15.4,"pm2_5":11.3,"no2":4.6,"co":211.0,"o3":66.0,"so2":0.7,"mosquito_risk":3,"arthritis_risk":10,"migraine_risk":7,"frizz_risk":1,"updated_at":"2026-05-03T18:47:43.860957+05:30"},{"city":"Kohima","state":"Nagaland","latitude":25.6701,"longitude":94.1077,"temp":15.1,"humidity":96,"rain":0.0,"pressure":854.4,"uv_index":4.25,"wind_gusts":24.8,"aqi":48,"pm10":14.1,"pm2_5":10.5,"no2":5.9,"co":313.0,"o3":84.0,"so2":0.7,"mosquito_risk":3,"arthritis_risk":10,"migraine_risk":3,"frizz_risk":0,"updated_at":"2026-05-03T18:47:43.860964+05:30"},{"city":"Gangtok","state":"Sikkim","latitude":27.3314,"longitude":88.6138,"temp":14.2,"humidity":90,"rain":0.1,"pressure":836.1,"uv_index":7.95,"wind_gusts":42.1,"aqi":89,"pm10":13.0,"pm2_5":11.8,"no2":6.1,"co":343.0,"o3":122.0,"so2":1.3,"mosquito_risk":6,"arthritis_risk":10,"migraine_risk":7,"frizz_risk":0,"updated_at":"2026-05-03T18:47:43.860970+05:30"},{"city":"Siliguri","state":"West Bengal","latitude":26.7271,"longitude":88.3953,"temp":23.1,"humidity":85,"rain":0.0,"pressure":992.8,"uv_index":8.15,"wind_gusts":28.1,"aqi":105,"pm10":20.4,"pm2_5":17.6,"no2":10.8,"co":561.0,"o3":118.0,"so2":2.6,"mosquito_risk":3,"arthritis_risk":5,"migraine_risk":7,"frizz_risk":1,"updated_at":"2026-05-03T18:47:47.187176+05:30"},{"city":"Durgapur","state":"West Bengal","latitude":23.5204,"longitude":87.3119,"temp":26.1,"humidity":86,"rain":0.1,"pressure":993.5,"uv_index":8.9,"wind_gusts":32.8,"aqi":145,"pm10":70.3,"pm2_5":59.5,"no2":22.7,"co":376.0,"o3":134.0,"so2":38.1,"mosquito_risk":10,"arthritis_risk":5,"migraine_risk":7,"frizz_risk":1,"updated_at":"2026-05-03T18:47:47.187214+05:30"},{"city":"Asansol","state":"West Bengal","latitude":23.6739,"longitude":86.9524,"temp":26.1,"humidity":84,"rain":0.0,"pressure":991.5,"uv_index":8.95,"wind_gusts":29.2,"aqi":162,"pm10":77.5,"pm2_5":65.9,"no2":25.7,"co":357.0,"o3":149.0,"so2":50.4,"mosquito_risk":7,"arthritis_risk":5,"migraine_risk":7,"frizz_risk":1,"updated_at":"2026-05-03T18:47:47.187227+05:30"},{"city":"Pondicherry","state":"Puducherry","latitude":11.9139,"longitude":79.8145,"temp":30.7,"humidity":83,"rain":0.0,"pressure":1004.5,"uv_index":8.55,"wind_gusts":44.3,"aqi":187,"pm10":32.9,"pm2_5":25.9,"no2":5.3,"co":230.0,"o3":155.0,"so2":2.3,"mosquito_risk":3,"arthritis_risk":5,"migraine_risk":4,"frizz_risk":1,"updated_at":"2026-05-03T18:47:47.187236+05:30"},{"city":"Port Blair","state":"Andaman and Nicobar Islands","latitude":11.6234,"longitude":92.7265,"temp":29.3,"humidity":70,"rain":0.0,"pressure":1006.8,"uv_index":8.9,"wind_gusts":25.6,"aqi":28,"pm10":5.4,"pm2_5":3.8,"no2":0.7,"co":173.0,"o3":55.0,"so2":0.4,"mosquito_risk":7,"arthritis_risk":5,"migraine_risk":4,"frizz_risk":1,"updated_at":"2026-05-03T18:47:47.187244+05:30"},{"city":"Haridwar","state":"Uttarakhand","latitude":29.9457,"longitude":78.1642,"temp":27.0,"humidity":60,"rain":0.0,"pressure":970.8,"uv_index":7.35,"wind_gusts":40.0,"aqi":157,"pm10":128.1,"pm2_5":40.7,"no2":8.5,"co":334.0,"o3":136.0,"so2":8.2,"mosquito_risk":4,"arthritis_risk":5,"migraine_risk":7,"frizz_risk":1,"updated_at":"2026-05-03T18:47:47.187252+05:30"},{"city":"Rishikesh","state":"Uttarakhand","latitude":30.0869,"longitude":78.2676,"temp":25.6,"humidity":67,"rain":0.0,"pressure":963.6,"uv_index":7.45,"wind_gusts":37.4,"aqi":152,"pm10":145.8,"pm2_5":37.8,"no2":4.8,"co":324.0,"o3":145.0,"so2":6.4,"mosquito_risk":7,"arthritis_risk":5,"migraine_risk":7,"frizz_risk":1,"updated_at":"2026-05-03T18:47:47.187260+05:30"},{"city":"Nainital","state":"Uttarakhand","latitude":29.3919,"longitude":79.4542,"temp":14.1,"humidity":90,"rain":0.0,"pressure":802.9,"uv_index":8.4,"wind_gusts":34.9,"aqi":149,"pm10":126.2,"pm2_5":37.1,"no2":3.1,"co":263.0,"o3":148.0,"so2":4.2,"mosquito_risk":3,"arthritis_risk":10,"migraine_risk":7,"frizz_risk":0,"updated_at":"2026-05-03T18:47:47.187267+05:30"},{"city":"Mussoorie","state":"Uttarakhand","latitude":30.4599,"longitude":78.0664,"temp":14.9,"humidity":72,"rain":0.0,"pressure":800.3,"uv_index":7.3,"wind_gusts":53.3,"aqi":152,"pm10":121.1,"pm2_5":36.2,"no2":9.7,"co":293.0,"o3":140.0,"so2":8.3,"mosquito_risk":3,"arthritis_risk":5,"migraine_risk":7,"frizz_risk":0,"updated_at":"2026-05-03T18:47:47.187275+05:30"},{"city":"Dharamshala","state":"Himachal Pradesh","latitude":32.219,"longitude":76.3234,"temp":17.4,"humidity":70,"rain":0.0,"pressure":867.1,"uv_index":6.85,"wind_gusts":41.4,"aqi":125,"pm10":47.8,"pm2_5":18.9,"no2":4.1,"co":221.0,"o3":146.0,"so2":4.1,"mosquito_risk":3,"arthritis_risk":5,"migraine_risk":7,"frizz_risk":0,"updated_at":"2026-05-03T18:47:47.187282+05:30"},{"city":"Dalhousie","state":"Himachal Pradesh","latitude":32.5387,"longitude":75.971,"temp":14.7,"humidity":65,"rain":0.0,"pressure":801.7,"uv_index":7.95,"wind_gusts":48.2,"aqi":141,"pm10":55.5,"pm2_5":21.4,"no2":8.7,"co":287.0,"o3":148.0,"so2":4.5,"mosquito_risk":3,"arthritis_risk":5,"migraine_risk":7,"frizz_risk":0,"updated_at":"2026-05-03T18:47:47.187290+05:30"},{"city":"Patiala","state":"Punjab","latitude":30.3398,"longitude":76.3869,"temp":31.1,"humidity":41,"rain":0.0,"pressure":974.5,"uv_index":7.5,"wind_gusts":63.0,"aqi":740,"pm10":743.2,"pm2_5":97.3,"no2":5.5,"co":350.0,"o3":152.0,"so2":9.5,"mosquito_risk":0,"arthritis_risk":5,"migraine_risk":7,"frizz_risk":1,"updated_at":"2026-05-03T18:47:47.187297+05:30"},{"city":"Bhatinda","state":"Punjab","latitude":30.211,"longitude":74.9455,"temp":26.1,"humidity":58,"rain":0.0,"pressure":978.4,"uv_index":8.15,"wind_gusts":56.5,"aqi":309,"pm10":717.1,"pm2_5":113.2,"no2":5.0,"co":300.0,"o3":153.0,"so2":13.0,"mosquito_risk":4,"arthritis_risk":5,"migraine_risk":7,"frizz_risk":1,"updated_at":"2026-05-03T18:47:47.187304+05:30"},{"city":"Rohtak","state":"Haryana","latitude":28.8955,"longitude":76.6066,"temp":31.4,"humidity":42,"rain":0.0,"pressure":976.8,"uv_index":7.65,"wind_gusts":52.6,"aqi":760,"pm10":610.9,"pm2_5":103.4,"no2":8.0,"co":353.0,"o3":166.0,"so2":14.3,"mosquito_risk":0,"arthritis_risk":5,"migraine_risk":7,"frizz_risk":1,"updated_at":"2026-05-03T18:47:47.187310+05:30"},{"city":"Panipat","state":"Haryana","latitude":29.3909,"longitude":76.9635,"temp":29.4,"humidity":54,"rain":0.0,"pressure":976.5,"uv_index":7.45,"wind_gusts":54.0,"aqi":1223,"pm10":1274.0,"pm2_5":150.4,"no2":8.1,"co":361.0,"o3":172.0,"so2":17.0,"mosquito_risk":4,"arthritis_risk":5,"migraine_risk":7,"frizz_risk":1,"updated_at":"2026-05-03T18:47:47.187317+05:30"},{"city":"Mathura","state":"Uttar Pradesh","latitude":27.4924,"longitude":77.6737,"temp":29.3,"humidity":54,"rain":0.0,"pressure":981.7,"uv_index":7.9,"wind_gusts":60.8,"aqi":860,"pm10":408.9,"pm2_5":66.8,"no2":9.7,"co":286.0,"o3":130.0,"so2":6.8,"mosquito_risk":4,"arthritis_risk":5,"migraine_risk":7,"frizz_risk":1,"updated_at":"2026-05-03T18:47:47.187324+05:30"},{"city":"Vrindavan","state":"Uttar Pradesh","latitude":27.5823,"longitude":77.7027,"temp":29.1,"humidity":55,"rain":0.0,"pressure":982.1,"uv_index":7.9,"wind_gusts":59.4,"aqi":860,"pm10":408.9,"pm2_5":66.8,"no2":9.7,"co":278.0,"o3":130.0,"so2":6.8,"mosquito_risk":4,"arthritis_risk":5,"migraine_risk":7,"frizz_risk":1,"updated_at":"2026-05-03T18:47:47.187330+05:30"},{"city":"Ayodhya","state":"Uttar Pradesh","latitude":26.7922,"longitude":82.1998,"temp":28.7,"humidity":55,"rain":0.0,"pressure":993.3,"uv_index":8.25,"wind_gusts":40.7,"aqi":161,"pm10":48.4,"pm2_5":38.0,"no2":5.2,"co":333.0,"o3":163.0,"so2":5.0,"mosquito_risk":4,"arthritis_risk":5,"migraine_risk":7,"frizz_risk":1,"updated_at":"2026-05-03T18:47:47.187337+05:30"},{"city":"Ratlam","state":"Madhya Pradesh","latitude":23.3315,"longitude":75.0367,"temp":34.5,"humidity":24,"rain":0.0,"pressure":949.5,"uv_index":8.5,"wind_gusts":47.2,"aqi":87,"pm10":16.4,"pm2_5":9.1,"no2":1.2,"co":164.0,"o3":130.0,"so2":4.1,"mosquito_risk":0,"arthritis_risk":5,"migraine_risk":7,"frizz_risk":0,"updated_at":"2026-05-03T18:47:47.187344+05:30"},{"city":"Sagar","state":"Madhya Pradesh","latitude":23.8388,"longitude":78.7378,"temp":31.7,"humidity":30,"rain":0.0,"pressure":945.3,"uv_index":8.7,"wind_gusts":39.6,"aqi":78,"pm10":83.8,"pm2_5":22.2,"no2":2.5,"co":193.0,"o3":110.0,"so2":2.6,"mosquito_risk":0,"arthritis_risk":5,"migraine_risk":7,"frizz_risk":0,"updated_at":"2026-05-03T18:47:47.187350+05:30"},{"city":"Satna","state":"Madhya Pradesh","latitude":24.6005,"longitude":80.8322,"temp":32.5,"humidity":38,"rain":0.0,"pressure":966.7,"uv_index":8.7,"wind_gusts":27.7,"aqi":120,"pm10":53.2,"pm2_5":21.5,"no2":3.8,"co":206.0,"o3":135.0,"so2":5.1,"mosquito_risk":0,"arthritis_risk":5,"migraine_risk":7,"frizz_risk":1,"updated_at":"2026-05-03T18:47:47.187357+05:30"},{"city":"Akola","state":"Maharashtra","latitude":20.7002,"longitude":77.0082,"temp":36.8,"humidity":13,"rain":0.0,"pressure":969.6,"uv_index":8.85,"wind_gusts":41.4,"aqi":72,"pm10":38.1,"pm2_5":12.9,"no2":3.7,"co":219.0,"o3":120.0,"so2":8.5,"mosquito_risk":0,"arthritis_risk":5,"migraine_risk":10,"frizz_risk":0,"updated_at":"2026-05-03T18:47:47.187364+05:30"},{"city":"Amravati","state":"Maharashtra","latitude":20.9374,"longitude":77.7796,"temp":36.9,"humidity":12,"rain":0.0,"pressure":962.3,"uv_index":8.85,"wind_gusts":42.1,"aqi":74,"pm10":43.0,"pm2_5":13.8,"no2":4.0,"co":152.0,"o3":116.0,"so2":7.4,"mosquito_risk":0,"arthritis_risk":5,"migraine_risk":10,"frizz_risk":0,"updated_at":"2026-05-03T18:47:47.187372+05:30"},{"city":"Latur","state":"Maharashtra","latitude":18.4088,"longitude":76.5604,"temp":36.0,"humidity":13,"rain":0.0,"pressure":935.6,"uv_index":9.05,"wind_gusts":40.0,"aqi":63,"pm10":46.1,"pm2_5":14.0,"no2":5.1,"co":159.0,"o3":103.0,"so2":4.0,"mosquito_risk":0,"arthritis_risk":5,"migraine_risk":10,"frizz_risk":0,"updated_at":"2026-05-03T18:47:47.187379+05:30"},{"city":"Nanded","state":"Maharashtra","latitude":19.1383,"longitude":77.3091,"temp":37.0,"humidity":11,"rain":0.0,"pressure":963.2,"uv_index":9.0,"wind_gusts":36.0,"aqi":71,"pm10":53.0,"pm2_5":15.5,"no2":5.3,"co":199.0,"o3":104.0,"so2":1.9,"mosquito_risk":0,"arthritis_risk":5,"migraine_risk":10,"frizz_risk":0,"updated_at":"2026-05-03T18:47:47.187385+05:30"},{"city":"Gulbarga","state":"Karnataka","latitude":17.3297,"longitude":76.8343,"temp":37.5,"humidity":13,"rain":0.0,"pressure":954.1,"uv_index":9.1,"wind_gusts":41.4,"aqi":78,"pm10":63.6,"pm2_5":17.3,"no2":9.5,"co":178.0,"o3":105.0,"so2":3.0,"mosquito_risk":0,"arthritis_risk":5,"migraine_risk":10,"frizz_risk":0,"updated_at":"2026-05-03T18:47:47.187391+05:30"},{"city":"Bidar","state":"Karnataka","latitude":17.9104,"longitude":77.5199,"temp":35.0,"humidity":17,"rain":0.0,"pressure":931.7,"uv_index":9.15,"wind_gusts":37.4,"aqi":77,"pm10":75.7,"pm2_5":25.0,"no2":8.8,"co":331.0,"o3":108.0,"so2":4.6,"mosquito_risk":0,"arthritis_risk":5,"migraine_risk":7,"frizz_risk":0,"updated_at":"2026-05-03T18:47:47.187398+05:30"},{"city":"Hospet","state":"Karnataka","latitude":15.2689,"longitude":76.3909,"temp":32.3,"humidity":30,"rain":0.0,"pressure":951.9,"uv_index":9.2,"wind_gusts":36.7,"aqi":70,"pm10":58.6,"pm2_5":23.6,"no2":15.4,"co":255.0,"o3":103.0,"so2":2.9,"mosquito_risk":0,"arthritis_risk":5,"migraine_risk":7,"frizz_risk":0,"updated_at":"2026-05-03T18:47:47.187404+05:30"},{"city":"Tirupur","state":"Tamil Nadu","latitude":11.1085,"longitude":77.3411,"temp":30.8,"humidity":58,"rain":0.0,"pressure":972.6,"uv_index":9.35,"wind_gusts":51.8,"aqi":92,"pm10":27.9,"pm2_5":18.3,"no2":7.4,"co":204.0,"o3":110.0,"so2":2.8,"mosquito_risk":0,"arthritis_risk":5,"migraine_risk":7,"frizz_risk":1,"updated_at":"2026-05-03T18:47:47.187410+05:30"},{"city":"Alappuzha","state":"Kerala","latitude":9.4981,"longitude":76.3388,"temp":29.2,"humidity":79,"rain":0.0,"pressure":1007.5,"uv_index":9.0,"wind_gusts":36.0,"aqi":83,"pm10":38.2,"pm2_5":22.4,"no2":8.8,"co":127.0,"o3":70.0,"so2":2.4,"mosquito_risk":7,"arthritis_risk":5,"migraine_risk":4,"frizz_risk":1,"updated_at":"2026-05-03T18:47:47.187416+05:30"},{"city":"Munnar","state":"Kerala","latitude":10.0889,"longitude":77.0595,"temp":18.5,"humidity":97,"rain":0.0,"pressure":856.2,"uv_index":9.3,"wind_gusts":28.1,"aqi":69,"pm10":24.9,"pm2_5":17.9,"no2":5.2,"co":206.0,"o3":92.0,"so2":1.5,"mosquito_risk":3,"arthritis_risk":10,"migraine_risk":7,"frizz_risk":1,"updated_at":"2026-05-03T18:47:47.187423+05:30"},{"city":"Silchar","state":"Assam","latitude":24.8333,"longitude":92.7789,"temp":22.1,"humidity":96,"rain":0.0,"pressure":1006.5,"uv_index":8.35,"wind_gusts":36.4,"aqi":55,"pm10":42.0,"pm2_5":28.2,"no2":7.2,"co":282.0,"o3":89.0,"so2":4.7,"mosquito_risk":3,"arthritis_risk":5,"migraine_risk":4,"frizz_risk":1,"updated_at":"2026-05-03T18:47:47.187429+05:30"},{"city":"Dibrugarh","state":"Assam","latitude":27.4728,"longitude":94.912,"temp":23.5,"humidity":84,"rain":0.0,"pressure":997.1,"uv_index":8.2,"wind_gusts":21.6,"aqi":60,"pm10":16.5,"pm2_5":15.8,"no2":9.4,"co":313.0,"o3":73.0,"so2":1.5,"mosquito_risk":3,"arthritis_risk":5,"migraine_risk":7,"frizz_risk":1,"updated_at":"2026-05-03T18:47:47.187435+05:30"}]