[{"city":"Delhi","state":"Delhi","latitude":28.6139,"longitude":77.209,"temp":38.5,"humidity":16,"rain":0.0,"pressure":979.0,"uv_index":7.25,"wind_gusts":31.7,"aqi":338,"pm10":493.6,"pm2_5":53.3,"mosquito_risk":0,"arthritis_risk":5,"migraine_risk":10,"frizz_risk":0,"updated_at":"2026-04-20T16:21:39.558851+05:30"},{"city":"Mumbai","state":"Maharashtra","latitude":19.076,"longitude":72.8777,"temp":28.6,"humidity":82,"rain":0.0,"pressure":1005.4,"uv_index":8.05,"wind_gusts":22.3,"aqi":99,"pm10":37.5,"pm2_5":23.2,"mosquito_risk":7,"arthritis_risk":5,"migraine_risk":4,"frizz_risk":1,"updated_at":"2026-04-20T16:21:39.558896+05:30"},{"city":"Bangalore","state":"Karnataka","latitude":12.9716,"longitude":77.5946,"temp":34.8,"humidity":25,"rain":0.0,"pressure":909.3,"uv_index":9.55,"wind_gusts":22.0,"aqi":147,"pm10":29.0,"pm2_5":23.9,"mosquito_risk":0,"arthritis_risk":5,"migraine_risk":7,"frizz_risk":0,"updated_at":"2026-04-20T16:21:39.558912+05:30"},{"city":"Hyderabad","state":"Telangana","latitude":17.385,"longitude":78.4867,"temp":38.2,"humidity":23,"rain":0.0,"pressure":950.1,"uv_index":9.3,"wind_gusts":47.2,"aqi":154,"pm10":49.4,"pm2_5":40.2,"mosquito_risk":0,"arthritis_risk":5,"migraine_risk":10,"frizz_risk":0,"updated_at":"2026-04-20T16:21:39.558923+05:30"},{"city":"Chennai","state":"Tamil Nadu","latitude":13.0827,"longitude":80.2707,"temp":33.6,"humidity":56,"rain":0.0,"pressure":1004.1,"uv_index":9.25,"wind_gusts":35.6,"aqi":36,"pm10":14.4,"pm2_5":10.4,"mosquito_risk":0,"arthritis_risk":5,"migraine_risk":4,"frizz_risk":1,"updated_at":"2026-04-20T16:21:39.558932+05:30"},{"city":"Kolkata","state":"West Bengal","latitude":22.5726,"longitude":88.3639,"temp":31.7,"humidity":76,"rain":0.0,"pressure":1001.0,"uv_index":8.9,"wind_gusts":32.4,"aqi":115,"pm10":38.8,"pm2_5":31.9,"mosquito_risk":3,"arthritis_risk":5,"migraine_risk":4,"frizz_risk":1,"updated_at":"2026-04-20T16:21:39.558945+05:30"},{"city":"Pune","state":"Maharashtra","latitude":18.5204,"longitude":73.8567,"temp":36.2,"humidity":32,"rain":0.0,"pressure":946.3,"uv_index":8.55,"wind_gusts":43.9,"aqi":126,"pm10":41.0,"pm2_5":34.6,"mosquito_risk":0,"arthritis_risk":5,"migraine_risk":10,"frizz_risk":1,"updated_at":"2026-04-20T16:21:39.558953+05:30"},{"city":"Ahmedabad","state":"Gujarat","latitude":23.0225,"longitude":72.5714,"temp":39.7,"humidity":22,"rain":0.0,"pressure":998.8,"uv_index":8.15,"wind_gusts":24.8,"aqi":64,"pm10":32.6,"pm2_5":11.5,"mosquito_risk":0,"arthritis_risk":5,"migraine_risk":10,"frizz_risk":0,"updated_at":"2026-04-20T16:21:39.558961+05:30"},{"city":"Jaipur","state":"Rajasthan","latitude":26.9124,"longitude":75.7873,"temp":39.3,"humidity":13,"rain":0.0,"pressure":956.4,"uv_index":7.95,"wind_gusts":30.6,"aqi":143,"pm10":183.0,"pm2_5":23.9,"mosquito_risk":0,"arthritis_risk":5,"migraine_risk":10,"frizz_risk":0,"updated_at":"2026-04-20T16:21:39.558969+05:30"},{"city":"Lucknow","state":"Uttar Pradesh","latitude":26.8467,"longitude":80.9462,"temp":40.9,"humidity":12,"rain":0.0,"pressure":987.7,"uv_index":7.9,"wind_gusts":38.5,"aqi":129,"pm10":179.3,"pm2_5":27.8,"mosquito_risk":0,"arthritis_risk":5,"migraine_risk":10,"frizz_risk":0,"updated_at":"2026-04-20T16:21:39.558976+05:30"},{"city":"Kanpur","state":"Uttar Pradesh","latitude":26.4499,"longitude":80.3319,"temp":39.8,"humidity":16,"rain":0.0,"pressure":986.5,"uv_index":7.9,"wind_gusts":32.8,"aqi":184,"pm10":418.2,"pm2_5":46.4,"mosquito_risk":0,"arthritis_risk":5,"migraine_risk":10,"frizz_risk":0,"updated_at":"2026-04-20T16:21:39.558984+05:30"},{"city":"Chandigarh","state":"Chandigarh","latitude":30.7333,"longitude":76.7794,"temp":37.6,"humidity":14,"rain":0.0,"pressure":965.6,"uv_index":7.25,"wind_gusts":32.8,"aqi":102,"pm10":35.5,"pm2_5":12.8,"mosquito_risk":0,"arthritis_risk":5,"migraine_risk":10,"frizz_risk":0,"updated_at":"2026-04-20T16:21:39.558992+05:30"},{"city":"Srinagar","state":"Jammu and Kashmir","latitude":34.0837,"longitude":74.7973,"temp":20.0,"humidity":51,"rain":0.0,"pressure":843.5,"uv_index":8.25,"wind_gusts":26.6,"aqi":97,"pm10":27.4,"pm2_5":9.9,"mosquito_risk":0,"arthritis_risk":5,"migraine_risk":7,"frizz_risk":0,"updated_at":"2026-04-20T16:21:39.558999+05:30"},{"city":"Jammu","state":"Jammu and Kashmir","latitude":32.7266,"longitude":74.857,"temp":36.7,"humidity":15,"rain":0.0,"pressure":970.2,"uv_index":7.9,"wind_gusts":27.4,"aqi":63,"pm10":27.7,"pm2_5":9.3,"mosquito_risk":0,"arthritis_risk":5,"migraine_risk":10,"frizz_risk":0,"updated_at":"2026-04-20T16:21:39.559007+05:30"},{"city":"Amritsar","state":"Punjab","latitude":31.634,"longitude":74.8723,"temp":36.3,"humidity":18,"rain":0.0,"pressure":978.2,"uv_index":7.9,"wind_gusts":31.0,"aqi":81,"pm10":27.2,"pm2_5":10.0,"mosquito_risk":0,"arthritis_risk":5,"migraine_risk":10,"frizz_risk":0,"updated_at":"2026-04-20T16:21:39.559014+05:30"},{"city":"Ludhiana","state":"Punjab","latitude":30.901,"longitude":75.8573,"temp":38.3,"humidity":13,"rain":0.0,"pressure":975.4,"uv_index":7.5,"wind_gusts":32.8,"aqi":80,"pm10":54.7,"pm2_5":13.9,"mosquito_risk":0,"arthritis_risk":5,"migraine_risk":10,"frizz_risk":0,"updated_at":"2026-04-20T16:21:39.559023+05:30"},{"city":"Jalandhar","state":"Punjab","latitude":31.326,"longitude":75.5762,"temp":37.6,"humidity":13,"rain":0.0,"pressure":976.8,"uv_index":7.65,"wind_gusts":31.3,"aqi":81,"pm10":55.5,"pm2_5":13.3,"mosquito_risk":0,"arthritis_risk":5,"migraine_risk":10,"frizz_risk":0,"updated_at":"2026-04-20T16:21:39.559030+05:30"},{"city":"Dehradun","state":"Uttarakhand","latitude":30.6284,"longitude":78.0322,"temp":25.3,"humidity":32,"rain":0.0,"pressure":831.5,"uv_index":7.7,"wind_gusts":42.8,"aqi":89,"pm10":23.8,"pm2_5":8.1,"mosquito_risk":4,"arthritis_risk":5,"migraine_risk":7,"frizz_risk":0,"updated_at":"2026-04-20T16:21:39.559037+05:30"},{"city":"Shimla","state":"Himachal Pradesh","latitude":31.1048,"longitude":77.1734,"temp":24.1,"humidity":23,"rain":0.0,"pressure":787.6,"uv_index":7.75,"wind_gusts":46.8,"aqi":87,"pm10":28.5,"pm2_5":11.1,"mosquito_risk":0,"arthritis_risk":5,"migraine_risk":7,"frizz_risk":0,"updated_at":"2026-04-20T16:21:39.559044+05:30"},{"city":"Manali","state":"Himachal Pradesh","latitude":32.2396,"longitude":77.1887,"temp":23.1,"humidity":31,"rain":0.0,"pressure":822.4,"uv_index":9.85,"wind_gusts":29.2,"aqi":96,"pm10":18.6,"pm2_5":6.1,"mosquito_risk":0,"arthritis_risk":5,"migraine_risk":7,"frizz_risk":0,"updated_at":"2026-04-20T16:21:39.559050+05:30"},{"city":"Gurgaon","state":"Haryana","latitude":28.4595,"longitude":77.0266,"temp":39.0,"humidity":15,"rain":0.0,"pressure":977.6,"uv_index":7.4,"wind_gusts":30.6,"aqi":1053,"pm10":1743.4,"pm2_5":156.9,"mosquito_risk":0,"arthritis_risk":5,"migraine_risk":10,"frizz_risk":0,"updated_at":"2026-04-20T16:21:39.559057+05:30"},{"city":"Noida","state":"Uttar Pradesh","latitude":28.5355,"longitude":77.391,"temp":38.9,"humidity":15,"rain":0.0,"pressure":980.4,"uv_index":7.3,"wind_gusts":31.3,"aqi":1053,"pm10":1743.4,"pm2_5":156.9,"mosquito_risk":0,"arthritis_risk":5,"migraine_risk":10,"frizz_risk":0,"updated_at":"2026-04-20T16:21:39.559064+05:30"},{"city":"Ghaziabad","state":"Uttar Pradesh","latitude":28.6692,"longitude":77.4538,"temp":38.6,"humidity":16,"rain":0.0,"pressure":978.6,"uv_index":7.3,"wind_gusts":31.0,"aqi":168,"pm10":346.5,"pm2_5":44.9,"mosquito_risk":0,"arthritis_risk":5,"migraine_risk":10,"frizz_risk":0,"updated_at":"2026-04-20T16:21:39.559070+05:30"},{"city":"Faridabad","state":"Haryana","latitude":28.4089,"longitude":77.3178,"temp":39.1,"humidity":15,"rain":0.0,"pressure":979.7,"uv_index":7.35,"wind_gusts":32.8,"aqi":1053,"pm10":1743.4,"pm2_5":156.9,"mosquito_risk":0,"arthritis_risk":5,"migraine_risk":10,"frizz_risk":0,"updated_at":"2026-04-20T16:21:39.559079+05:30"},{"city":"Meerut","state":"Uttar Pradesh","latitude":28.9845,"longitude":77.7064,"temp":38.8,"humidity":14,"rain":0.0,"pressure":977.3,"uv_index":7.2,"wind_gusts":34.2,"aqi":168,"pm10":346.5,"pm2_5":44.9,"mosquito_risk":0,"arthritis_risk":5,"migraine_risk":10,"frizz_risk":0,"updated_at":"2026-04-20T16:21:39.559085+05:30"},{"city":"Agra","state":"Uttar Pradesh","latitude":27.1767,"longitude":78.0081,"temp":40.2,"humidity":14,"rain":0.0,"pressure":983.2,"uv_index":7.7,"wind_gusts":26.3,"aqi":659,"pm10":691.0,"pm2_5":72.9,"mosquito_risk":0,"arthritis_risk":5,"migraine_risk":10,"frizz_risk":0,"updated_at":"2026-04-20T16:21:39.559094+05:30"},{"city":"Varanasi","state":"Uttar Pradesh","latitude":25.3176,"longitude":82.9739,"temp":41.7,"humidity":14,"rain":0.0,"pressure":991.1,"uv_index":8.4,"wind_gusts":31.7,"aqi":128,"pm10":27.2,"pm2_5":11.0,"mosquito_risk":0,"arthritis_risk":5,"migraine_risk":10,"frizz_risk":0,"updated_at":"2026-04-20T16:21:39.559103+05:30"},{"city":"Prayagraj","state":"Uttar Pradesh","latitude":25.4358,"longitude":81.8463,"temp":41.0,"humidity":16,"rain":0.0,"pressure":989.9,"uv_index":7.8,"wind_gusts":25.9,"aqi":118,"pm10":34.7,"pm2_5":11.4,"mosquito_risk":0,"arthritis_risk":5,"migraine_risk":10,"frizz_risk":0,"updated_at":"2026-04-20T16:21:39.559111+05:30"},{"city":"Gorakhpur","state":"Uttar Pradesh","latitude":26.7606,"longitude":83.3732,"temp":40.8,"humidity":19,"rain":0.0,"pressure":990.4,"uv_index":8.35,"wind_gusts":36.0,"aqi":155,"pm10":136.0,"pm2_5":28.8,"mosquito_risk":0,"arthritis_risk":5,"migraine_risk":10,"frizz_risk":0,"updated_at":"2026-04-20T16:21:39.559117+05:30"},{"city":"Bareilly","state":"Uttar Pradesh","latitude":28.367,"longitude":79.4304,"temp":39.9,"humidity":14,"rain":0.0,"pressure":981.6,"uv_index":7.55,"wind_gusts":34.6,"aqi":118,"pm10":56.7,"pm2_5":14.8,"mosquito_risk":0,"arthritis_risk":5,"migraine_risk":10,"frizz_risk":0,"updated_at":"2026-04-20T16:21:39.559123+05:30"},{"city":"Aligarh","state":"Uttar Pradesh","latitude":27.8974,"longitude":78.088,"temp":40.2,"humidity":14,"rain":0.0,"pressure":980.8,"uv_index":7.45,"wind_gusts":34.9,"aqi":513,"pm10":709.7,"pm2_5":77.5,"mosquito_risk":0,"arthritis_risk":5,"migraine_risk":10,"frizz_risk":0,"updated_at":"2026-04-20T16:21:39.559129+05:30"},{"city":"Moradabad","state":"Uttar Pradesh","latitude":28.8386,"longitude":78.7733,"temp":39.2,"humidity":14,"rain":0.0,"pressure":978.9,"uv_index":7.4,"wind_gusts":38.9,"aqi":108,"pm10":61.0,"pm2_5":17.6,"mosquito_risk":0,"arthritis_risk":5,"migraine_risk":10,"frizz_risk":0,"updated_at":"2026-04-20T16:21:39.559135+05:30"},{"city":"Saharanpur","state":"Uttar Pradesh","latitude":29.9637,"longitude":77.546,"temp":37.5,"humidity":15,"rain":0.0,"pressure":971.9,"uv_index":6.95,"wind_gusts":29.5,"aqi":96,"pm10":130.9,"pm2_5":23.7,"mosquito_risk":0,"arthritis_risk":5,"migraine_risk":10,"frizz_risk":0,"updated_at":"2026-04-20T16:21:39.559141+05:30"},{"city":"Jhansi","state":"Uttar Pradesh","latitude":25.4484,"longitude":78.5685,"temp":42.3,"humidity":9,"rain":0.0,"pressure":972.6,"uv_index":8.05,"wind_gusts":32.4,"aqi":101,"pm10":73.1,"pm2_5":18.6,"mosquito_risk":0,"arthritis_risk":5,"migraine_risk":10,"frizz_risk":0,"updated_at":"2026-04-20T16:21:42.862841+05:30"},{"city":"Surat","state":"Gujarat","latitude":21.1702,"longitude":72.8311,"temp":32.5,"humidity":48,"rain":0.0,"pressure":1004.3,"uv_index":7.85,"wind_gusts":24.5,"aqi":99,"pm10":36.2,"pm2_5":30.3,"mosquito_risk":0,"arthritis_risk":5,"migraine_risk":4,"frizz_risk":1,"updated_at":"2026-04-20T16:21:42.862877+05:30"},{"city":"Vadodara","state":"Gujarat","latitude":22.3072,"longitude":73.1812,"temp":39.8,"humidity":19,"rain":0.0,"pressure":1001.1,"uv_index":8.1,"wind_gusts":27.7,"aqi":86,"pm10":21.1,"pm2_5":13.4,"mosquito_risk":0,"arthritis_risk":5,"migraine_risk":7,"frizz_risk":0,"updated_at":"2026-04-20T16:21:42.862888+05:30"},{"city":"Rajkot","state":"Gujarat","latitude":22.3039,"longitude":70.8022,"temp":37.8,"humidity":24,"rain":0.0,"pressure":991.9,"uv_index":7.85,"wind_gusts":31.3,"aqi":59,"pm10":23.9,"pm2_5":10.7,"mosquito_risk":0,"arthritis_risk":5,"migraine_risk":10,"frizz_risk":0,"updated_at":"2026-04-20T16:21:42.862896+05:30"},{"city":"Thane","state":"Maharashtra","latitude":19.2183,"longitude":72.9781,"temp":31.2,"humidity":67,"rain":0.0,"pressure":1005.1,"uv_index":8.05,"wind_gusts":33.8,"aqi":99,"pm10":37.5,"pm2_5":23.2,"mosquito_risk":3,"arthritis_risk":5,"migraine_risk":4,"frizz_risk":1,"updated_at":"2026-04-20T16:21:42.862903+05:30"},{"city":"Nagpur","state":"Maharashtra","latitude":21.1458,"longitude":79.0882,"temp":39.7,"humidity":17,"rain":0.0,"pressure":969.1,"uv_index":8.6,"wind_gusts":37.4,"aqi":108,"pm10":27.9,"pm2_5":23.8,"mosquito_risk":0,"arthritis_risk":5,"migraine_risk":10,"frizz_risk":0,"updated_at":"2026-04-20T16:21:42.862911+05:30"},{"city":"Nashik","state":"Maharashtra","latitude":19.9975,"longitude":73.7898,"temp":35.9,"humidity":27,"rain":0.0,"pressure":943.7,"uv_index":8.3,"wind_gusts":34.9,"aqi":117,"pm10":24.2,"pm2_5":17.3,"mosquito_risk":0,"arthritis_risk":5,"migraine_risk":10,"frizz_risk":0,"updated_at":"2026-04-20T16:21:42.862917+05:30"},{"city":"Aurangabad","state":"Maharashtra","latitude":19.8762,"longitude":75.3433,"temp":38.0,"humidity":18,"rain":0.0,"pressure":941.7,"uv_index":8.85,"wind_gusts":23.8,"aqi":114,"pm10":32.1,"pm2_5":26.6,"mosquito_risk":0,"arthritis_risk":5,"migraine_risk":10,"frizz_risk":0,"updated_at":"2026-04-20T16:21:42.862924+05:30"},{"city":"Solapur","state":"Maharashtra","latitude":17.6599,"longitude":75.9064,"temp":38.0,"humidity":23,"rain":0.0,"pressure":953.9,"uv_index":8.75,"wind_gusts":20.2,"aqi":134,"pm10":38.2,"pm2_5":30.7,"mosquito_risk":0,"arthritis_risk":5,"migraine_risk":10,"frizz_risk":0,"updated_at":"2026-04-20T16:21:42.862931+05:30"},{"city":"Kolhapur","state":"Maharashtra","latitude":16.705,"longitude":74.2433,"temp":32.2,"humidity":52,"rain":0.0,"pressure":945.8,"uv_index":9.05,"wind_gusts":39.2,"aqi":120,"pm10":40.7,"pm2_5":35.2,"mosquito_risk":0,"arthritis_risk":5,"migraine_risk":7,"frizz_risk":1,"updated_at":"2026-04-20T16:21:42.862938+05:30"},{"city":"Goa","state":"Goa","latitude":15.2993,"longitude":74.124,"temp":31.8,"humidity":65,"rain":0.0,"pressure":994.8,"uv_index":9.0,"wind_gusts":30.2,"aqi":86,"pm10":37.1,"pm2_5":26.6,"mosquito_risk":3,"arthritis_risk":5,"migraine_risk":7,"frizz_risk":1,"updated_at":"2026-04-20T16:21:42.862945+05:30"},{"city":"Jodhpur","state":"Rajasthan","latitude":26.2389,"longitude":73.0243,"temp":39.1,"humidity":17,"rain":0.0,"pressure":980.2,"uv_index":8.15,"wind_gusts":27.0,"aqi":95,"pm10":219.8,"pm2_5":27.8,"mosquito_risk":0,"arthritis_risk":5,"migraine_risk":10,"frizz_risk":0,"updated_at":"2026-04-20T16:21:42.862952+05:30"},{"city":"Udaipur","state":"Rajasthan","latitude":24.5854,"longitude":73.7125,"temp":36.5,"humidity":16,"rain":0.0,"pressure":945.2,"uv_index":8.7,"wind_gusts":31.3,"aqi":57,"pm10":18.3,"pm2_5":6.9,"mosquito_risk":0,"arthritis_risk":5,"migraine_risk":10,"frizz_risk":0,"updated_at":"2026-04-20T16:21:42.862959+05:30"},{"city":"Kota","state":"Rajasthan","latitude":25.2138,"longitude":75.8648,"temp":41.0,"humidity":11,"rain":0.0,"pressure":974.6,"uv_index":8.25,"wind_gusts":28.8,"aqi":72,"pm10":49.5,"pm2_5":10.3,"mosquito_risk":0,"arthritis_risk":5,"migraine_risk":10,"frizz_risk":0,"updated_at":"2026-04-20T16:21:42.862966+05:30"},{"city":"Bikaner","state":"Rajasthan","latitude":28.0229,"longitude":73.3119,"temp":38.8,"humidity":17,"rain":0.0,"pressure":979.0,"uv_index":8.0,"wind_gusts":35.3,"aqi":96,"pm10":54.5,"pm2_5":13.2,"mosquito_risk":0,"arthritis_risk":5,"migraine_risk":10,"frizz_risk":0,"updated_at":"2026-04-20T16:21:42.862973+05:30"},{"city":"Ajmer","state":"Rajasthan","latitude":26.4499,"longitude":74.6399,"temp":37.7,"humidity":14,"rain":0.0,"pressure":952.4,"uv_index":8.1,"wind_gusts":26.3,"aqi":87,"pm10":85.7,"pm2_5":14.1,"mosquito_risk":0,"arthritis_risk":5,"migraine_risk":10,"frizz_risk":0,"updated_at":"2026-04-20T16:21:42.862979+05:30"},{"city":"Gwalior","state":"Madhya Pradesh","latitude":26.2183,"longitude":78.1828,"temp":39.5,"humidity":14,"rain":0.0,"pressure":979.0,"uv_index":8.0,"wind_gusts":38.2,"aqi":107,"pm10":140.6,"pm2_5":27.2,"mosquito_risk":0,"arthritis_risk":5,"migraine_risk":10,"frizz_risk":0,"updated_at":"2026-04-20T16:21:42.862985+05:30"},{"city":"Indore","state":"Madhya Pradesh","latitude":22.7196,"longitude":75.8577,"temp":37.5,"humidity":16,"rain":0.0,"pressure":946.1,"uv_index":8.6,"wind_gusts":37.8,"aqi":100,"pm10":19.7,"pm2_5":13.9,"mosquito_risk":0,"arthritis_risk":5,"migraine_risk":10,"frizz_risk":0,"updated_at":"2026-04-20T16:21:42.862992+05:30"},{"city":"Bhopal","state":"Madhya Pradesh","latitude":23.2599,"longitude":77.4126,"temp":39.6,"humidity":14,"rain":0.0,"pressure":950.6,"uv_index":7.1,"wind_gusts":34.9,"aqi":97,"pm10":18.2,"pm2_5":15.1,"mosquito_risk":0,"arthritis_risk":5,"migraine_risk":10,"frizz_risk":0,"updated_at":"2026-04-20T16:21:42.862998+05:30"},{"city":"Jabalpur","state":"Madhya Pradesh","latitude":23.1815,"longitude":79.9864,"temp":38.2,"humidity":21,"rain":0.0,"pressure":958.1,"uv_index":8.45,"wind_gusts":35.6,"aqi":94,"pm10":16.8,"pm2_5":13.7,"mosquito_risk":0,"arthritis_risk":5,"migraine_risk":10,"frizz_risk":0,"updated_at":"2026-04-20T16:21:42.863004+05:30"},{"city":"Ujjain","state":"Madhya Pradesh","latitude":23.1765,"longitude":75.7885,"temp":37.4,"humidity":17,"rain":0.0,"pressure":951.8,"uv_index":8.55,"wind_gusts":36.0,"aqi":85,"pm10":17.3,"pm2_5":12.0,"mosquito_risk":0,"arthritis_risk":5,"migraine_risk":10,"frizz_risk":0,"updated_at":"2026-04-20T16:21:42.863011+05:30"},{"city":"Visakhapatnam","state":"Andhra Pradesh","latitude":17.6868,"longitude":83.2185,"temp":32.1,"humidity":65,"rain":0.0,"pressure":1000.5,"uv_index":9.2,"wind_gusts":41.8,"aqi":53,"pm10":19.7,"pm2_5":15.1,"mosquito_risk":3,"arthritis_risk":5,"migraine_risk":4,"frizz_risk":1,"updated_at":"2026-04-20T16:21:42.863017+05:30"},{"city":"Vijayawada","state":"Andhra Pradesh","latitude":16.5062,"longitude":80.648,"temp":37.3,"humidity":43,"rain":0.0,"pressure":998.4,"uv_index":9.2,"wind_gusts":27.0,"aqi":54,"pm10":25.2,"pm2_5":21.2,"mosquito_risk":0,"arthritis_risk":5,"migraine_risk":10,"frizz_risk":1,"updated_at":"2026-04-20T16:21:42.863023+05:30"},{"city":"Guntur","state":"Andhra Pradesh","latitude":16.3067,"longitude":80.4365,"temp":35.9,"humidity":51,"rain":0.0,"pressure":999.9,"uv_index":9.25,"wind_gusts":30.2,"aqi":57,"pm10":28.6,"pm2_5":24.0,"mosquito_risk":0,"arthritis_risk":5,"migraine_risk":10,"frizz_risk":1,"updated_at":"2026-04-20T16:21:42.863029+05:30"},{"city":"Nellore","state":"Andhra Pradesh","latitude":14.4426,"longitude":79.9865,"temp":35.1,"humidity":54,"rain":0.0,"pressure":1001.8,"uv_index":9.25,"wind_gusts":38.9,"aqi":50,"pm10":25.0,"pm2_5":20.1,"mosquito_risk":0,"arthritis_risk":5,"migraine_risk":7,"frizz_risk":1,"updated_at":"2026-04-20T16:21:42.863036+05:30"},{"city":"Kurnool","state":"Andhra Pradesh","latitude":15.8281,"longitude":78.0373,"temp":40.0,"humidity":24,"rain":0.0,"pressure":972.6,"uv_index":9.2,"wind_gusts":43.2,"aqi":128,"pm10":47.6,"pm2_5":37.5,"mosquito_risk":0,"arthritis_risk":5,"migraine_risk":10,"frizz_risk":0,"updated_at":"2026-04-20T16:21:42.863044+05:30"},{"city":"Kakinada","state":"Andhra Pradesh","latitude":16.9891,"longitude":82.2475,"temp":36.1,"humidity":47,"rain":0.0,"pressure":1003.4,"uv_index":9.2,"wind_gusts":33.1,"aqi":38,"pm10":18.0,"pm2_5":12.2,"mosquito_risk":0,"arthritis_risk":5,"migraine_risk":7,"frizz_risk":1,"updated_at":"2026-04-20T16:21:42.863050+05:30"},{"city":"Tirupati","state":"Andhra Pradesh","latitude":13.6288,"longitude":79.4192,"temp":37.4,"humidity":31,"rain":0.0,"pressure":987.4,"uv_index":9.3,"wind_gusts":32.4,"aqi":64,"pm10":23.6,"pm2_5":20.1,"mosquito_risk":0,"arthritis_risk":5,"migraine_risk":10,"frizz_risk":1,"updated_at":"2026-04-20T16:21:42.863056+05:30"},{"city":"Warangal","state":"Telangana","latitude":17.9689,"longitude":79.5941,"temp":39.6,"humidity":25,"rain":0.0,"pressure":974.7,"uv_index":9.15,"wind_gusts":27.7,"aqi":140,"pm10":49.8,"pm2_5":43.2,"mosquito_risk":0,"arthritis_risk":5,"migraine_risk":10,"frizz_risk":0,"updated_at":"2026-04-20T16:21:42.863063+05:30"},{"city":"Nizamabad","state":"Telangana","latitude":18.6725,"longitude":78.0941,"temp":38.8,"humidity":24,"rain":0.0,"pressure":961.3,"uv_index":9.15,"wind_gusts":33.8,"aqi":113,"pm10":40.3,"pm2_5":33.5,"mosquito_risk":0,"arthritis_risk":5,"migraine_risk":10,"frizz_risk":0,"updated_at":"2026-04-20T16:21:42.863069+05:30"},{"city":"Mysore","state":"Karnataka","latitude":12.2958,"longitude":76.6396,"temp":35.2,"humidity":28,"rain":0.0,"pressure":925.4,"uv_index":9.45,"wind_gusts":40.7,"aqi":133,"pm10":29.3,"pm2_5":24.1,"mosquito_risk":0,"arthritis_risk":5,"migraine_risk":10,"frizz_risk":0,"updated_at":"2026-04-20T16:21:42.863076+05:30"},{"city":"Mangalore","state":"Karnataka","latitude":12.9141,"longitude":74.856,"temp":30.2,"humidity":82,"rain":0.0,"pressure":1003.1,"uv_index":9.1,"wind_gusts":23.8,"aqi":80,"pm10":34.5,"pm2_5":22.5,"mosquito_risk":3,"arthritis_risk":5,"migraine_risk":4,"frizz_risk":1,"updated_at":"2026-04-20T16:21:42.863082+05:30"},{"city":"Hubli-Dharwad","state":"Karnataka","latitude":15.3647,"longitude":75.124,"temp":30.0,"humidity":60,"rain":0.0,"pressure":938.9,"uv_index":9.25,"wind_gusts":33.8,"aqi":142,"pm10":49.4,"pm2_5":38.5,"mosquito_risk":4,"arthritis_risk":5,"migraine_risk":7,"frizz_risk":1,"updated_at":"2026-04-20T16:21:42.863089+05:30"},{"city":"Belgaum","state":"Karnataka","latitude":15.8497,"longitude":74.4977,"temp":31.3,"humidity":51,"rain":0.0,"pressure":924.0,"uv_index":9.25,"wind_gusts":30.2,"aqi":159,"pm10":42.0,"pm2_5":35.4,"mosquito_risk":0,"arthritis_risk":5,"migraine_risk":7,"frizz_risk":1,"updated_at":"2026-04-20T16:21:46.163572+05:30"},{"city":"Coimbatore","state":"Tamil Nadu","latitude":11.0168,"longitude":76.9558,"temp":36.4,"humidity":28,"rain":0.0,"pressure":957.9,"uv_index":9.4,"wind_gusts":47.2,"aqi":124,"pm10":28.8,"pm2_5":25.6,"mosquito_risk":0,"arthritis_risk":5,"migraine_risk":10,"frizz_risk":0,"updated_at":"2026-04-20T16:21:46.163607+05:30"},{"city":"Madurai","state":"Tamil Nadu","latitude":9.9252,"longitude":78.1198,"temp":36.4,"humidity":37,"rain":0.0,"pressure":988.8,"uv_index":9.3,"wind_gusts":45.0,"aqi":88,"pm10":16.1,"pm2_5":13.2,"mosquito_risk":0,"arthritis_risk":5,"migraine_risk":10,"frizz_risk":1,"updated_at":"2026-04-20T16:21:46.163658+05:30"},{"city":"Trichy","state":"Tamil Nadu","latitude":10.7905,"longitude":78.7047,"temp":38.1,"humidity":30,"rain":0.0,"pressure":995.1,"uv_index":9.3,"wind_gusts":29.2,"aqi":64,"pm10":15.4,"pm2_5":12.7,"mosquito_risk":0,"arthritis_risk":5,"migraine_risk":10,"frizz_risk":1,"updated_at":"2026-04-20T16:21:46.163667+05:30"},{"city":"Salem","state":"Tamil Nadu","latitude":11.6643,"longitude":78.146,"temp":38.1,"humidity":28,"rain":0.0,"pressure":973.0,"uv_index":9.35,"wind_gusts":21.2,"aqi":90,"pm10":19.6,"pm2_5":16.2,"mosquito_risk":0,"arthritis_risk":5,"migraine_risk":10,"frizz_risk":1,"updated_at":"2026-04-20T16:21:46.163675+05:30"},{"city":"Tirunelveli","state":"Tamil Nadu","latitude":8.7139,"longitude":77.7567,"temp":35.3,"humidity":45,"rain":0.0,"pressure":999.2,"uv_index":9.2,"wind_gusts":56.2,"aqi":70,"pm10":17.3,"pm2_5":14.4,"mosquito_risk":0,"arthritis_risk":5,"migraine_risk":10,"frizz_risk":1,"updated_at":"2026-04-20T16:21:46.163683+05:30"},{"city":"Vellore","state":"Tamil Nadu","latitude":12.9165,"longitude":79.1325,"temp":36.7,"humidity":32,"rain":0.0,"pressure":980.7,"uv_index":9.35,"wind_gusts":34.2,"aqi":74,"pm10":20.1,"pm2_5":16.9,"mosquito_risk":0,"arthritis_risk":5,"migraine_risk":10,"frizz_risk":1,"updated_at":"2026-04-20T16:21:46.163690+05:30"},{"city":"Erode","state":"Tamil Nadu","latitude":11.341,"longitude":77.7172,"temp":39.3,"humidity":27,"rain":0.0,"pressure":984.1,"uv_index":9.35,"wind_gusts":31.7,"aqi":109,"pm10":18.8,"pm2_5":15.6,"mosquito_risk":0,"arthritis_risk":5,"migraine_risk":10,"frizz_risk":1,"updated_at":"2026-04-20T16:21:46.163697+05:30"},{"city":"Kochi","state":"Kerala","latitude":9.9312,"longitude":76.2673,"temp":29.7,"humidity":82,"rain":0.0,"pressure":1004.6,"uv_index":9.05,"wind_gusts":31.3,"aqi":62,"pm10":20.3,"pm2_5":16.1,"mosquito_risk":7,"arthritis_risk":5,"migraine_risk":4,"frizz_risk":1,"updated_at":"2026-04-20T16:21:46.163704+05:30"},{"city":"Thiruvananthapuram","state":"Kerala","latitude":8.5241,"longitude":76.9366,"temp":29.5,"humidity":80,"rain":0.0,"pressure":1004.5,"uv_index":8.9,"wind_gusts":31.7,"aqi":61,"pm10":19.2,"pm2_5":13.8,"mosquito_risk":7,"arthritis_risk":5,"migraine_risk":4,"frizz_risk":1,"updated_at":"2026-04-20T16:21:46.163712+05:30"},{"city":"Kozhikode","state":"Kerala","latitude":11.2588,"longitude":75.7804,"temp":31.1,"humidity":74,"rain":0.0,"pressure":1004.2,"uv_index":9.1,"wind_gusts":30.6,"aqi":63,"pm10":32.6,"pm2_5":20.8,"mosquito_risk":3,"arthritis_risk":5,"migraine_risk":4,"frizz_risk":1,"updated_at":"2026-04-20T16:21:46.163718+05:30"},{"city":"Thrissur","state":"Kerala","latitude":10.5276,"longitude":76.2144,"temp":32.9,"humidity":64,"rain":0.0,"pressure":1003.0,"uv_index":9.05,"wind_gusts":36.4,"aqi":65,"pm10":22.1,"pm2_5":17.2,"mosquito_risk":3,"arthritis_risk":5,"migraine_risk":4,"frizz_risk":1,"updated_at":"2026-04-20T16:21:46.163726+05:30"},{"city":"Kannur","state":"Kerala","latitude":11.8745,"longitude":75.3704,"temp":31.7,"humidity":67,"rain":0.0,"pressure":1003.9,"uv_index":9.1,"wind_gusts":31.3,"aqi":73,"pm10":30.9,"pm2_5":20.2,"mosquito_risk":3,"arthritis_risk":5,"migraine_risk":4,"frizz_risk":1,"updated_at":"2026-04-20T16:21:46.163734+05:30"},{"city":"Patna","state":"Bihar","latitude":25.5941,"longitude":85.1376,"temp":39.3,"humidity":29,"rain":0.0,"pressure":993.5,"uv_index":8.15,"wind_gusts":28.8,"aqi":175,"pm10":90.6,"pm2_5":25.6,"mosquito_risk":0,"arthritis_risk":5,"migraine_risk":10,"frizz_risk":1,"updated_at":"2026-04-20T16:21:46.163740+05:30"},{"city":"Gaya","state":"Bihar","latitude":24.7914,"longitude":85.0002,"temp":41.2,"humidity":14,"rain":0.0,"pressure":987.5,"uv_index":8.6,"wind_gusts":34.2,"aqi":157,"pm10":83.6,"pm2_5":24.2,"mosquito_risk":0,"arthritis_risk":5,"migraine_risk":10,"frizz_risk":0,"updated_at":"2026-04-20T16:21:46.163747+05:30"},{"city":"Muzaffarpur","state":"Bihar","latitude":26.1209,"longitude":85.3647,"temp":37.8,"humidity":36,"rain":0.0,"pressure":993.7,"uv_index":8.3,"wind_gusts":27.4,"aqi":163,"pm10":86.8,"pm2_5":31.3,"mosquito_risk":0,"arthritis_risk":5,"migraine_risk":10,"frizz_risk":1,"updated_at":"2026-04-20T16:21:46.163754+05:30"},{"city":"Bhagalpur","state":"Bihar","latitude":25.2425,"longitude":87.0117,"temp":36.4,"humidity":45,"rain":0.0,"pressure":994.5,"uv_index":8.65,"wind_gusts":19.1,"aqi":169,"pm10":95.2,"pm2_5":43.7,"mosquito_risk":0,"arthritis_risk":5,"migraine_risk":10,"frizz_risk":1,"updated_at":"2026-04-20T16:21:46.163761+05:30"},{"city":"Ranchi","state":"Jharkhand","latitude":23.3441,"longitude":85.3096,"temp":33.8,"humidity":36,"rain":0.0,"pressure":934.7,"uv_index":9.25,"wind_gusts":35.3,"aqi":144,"pm10":49.1,"pm2_5":13.5,"mosquito_risk":0,"arthritis_risk":5,"migraine_risk":7,"frizz_risk":1,"updated_at":"2026-04-20T16:21:46.163767+05:30"},{"city":"Jamshedpur","state":"Jharkhand","latitude":22.8046,"longitude":86.2029,"temp":35.0,"humidity":46,"rain":0.0,"pressure":986.6,"uv_index":9.05,"wind_gusts":42.8,"aqi":189,"pm10":67.1,"pm2_5":26.3,"mosquito_risk":0,"arthritis_risk":5,"migraine_risk":7,"frizz_risk":1,"updated_at":"2026-04-20T16:21:46.163774+05:30"},{"city":"Dhanbad","state":"Jharkhand","latitude":23.7957,"longitude":86.4304,"temp":40.6,"humidity":16,"rain":0.0,"pressure":973.7,"uv_index":9.0,"wind_gusts":29.5,"aqi":155,"pm10":63.1,"pm2_5":19.6,"mosquito_risk":0,"arthritis_risk":5,"migraine_risk":10,"frizz_risk":0,"updated_at":"2026-04-20T16:21:46.163781+05:30"},{"city":"Bokaro","state":"Jharkhand","latitude":23.6693,"longitude":86.1511,"temp":37.6,"humidity":29,"rain":0.0,"pressure":978.1,"uv_index":9.0,"wind_gusts":36.7,"aqi":149,"pm10":58.6,"pm2_5":18.5,"mosquito_risk":0,"arthritis_risk":5,"migraine_risk":10,"frizz_risk":1,"updated_at":"2026-04-20T16:21:46.163787+05:30"},{"city":"Bhubaneswar","state":"Odisha","latitude":20.2961,"longitude":85.8245,"temp":32.3,"humidity":68,"rain":0.0,"pressure":998.5,"uv_index":9.1,"wind_gusts":34.9,"aqi":94,"pm10":32.5,"pm2_5":26.3,"mosquito_risk":3,"arthritis_risk":5,"migraine_risk":7,"frizz_risk":1,"updated_at":"2026-04-20T16:21:46.163795+05:30"},{"city":"Cuttack","state":"Odisha","latitude":20.4625,"longitude":85.8828,"temp":35.5,"humidity":55,"rain":0.0,"pressure":999.9,"uv_index":9.15,"wind_gusts":32.4,"aqi":94,"pm10":32.5,"pm2_5":26.3,"mosquito_risk":0,"arthritis_risk":5,"migraine_risk":10,"frizz_risk":1,"updated_at":"2026-04-20T16:21:46.163801+05:30"},{"city":"Rourkela","state":"Odisha","latitude":22.2604,"longitude":84.8536,"temp":36.6,"humidity":40,"rain":0.0,"pressure":980.8,"uv_index":8.95,"wind_gusts":52.2,"aqi":189,"pm10":52.4,"pm2_5":25.8,"mosquito_risk":0,"arthritis_risk":5,"migraine_risk":10,"frizz_risk":1,"updated_at":"2026-04-20T16:21:46.163808+05:30"},{"city":"Raipur","state":"Chhattisgarh","latitude":21.2514,"longitude":81.6296,"temp":41.0,"humidity":17,"rain":0.0,"pressure":969.8,"uv_index":8.65,"wind_gusts":40.3,"aqi":140,"pm10":35.5,"pm2_5":19.8,"mosquito_risk":0,"arthritis_risk":5,"migraine_risk":10,"frizz_risk":0,"updated_at":"2026-04-20T16:21:46.163815+05:30"},{"city":"Bhilai","state":"Chhattisgarh","latitude":21.1938,"longitude":81.3509,"temp":40.5,"humidity":19,"rain":0.0,"pressure":970.3,"uv_index":8.25,"wind_gusts":38.2,"aqi":130,"pm10":26.0,"pm2_5":19.3,"mosquito_risk":0,"arthritis_risk":5,"migraine_risk":10,"frizz_risk":0,"updated_at":"2026-04-20T16:21:46.163821+05:30"},{"city":"Guwahati","state":"Assam","latitude":26.1158,"longitude":91.7086,"temp":29.5,"humidity":76,"rain":0.0,"pressure":996.1,"uv_index":8.5,"wind_gusts":36.4,"aqi":93,"pm10":21.2,"pm2_5":14.6,"mosquito_risk":7,"arthritis_risk":5,"migraine_risk":7,"frizz_risk":1,"updated_at":"2026-04-20T16:21:46.163827+05:30"},{"city":"Agartala","state":"Tripura","latitude":23.8315,"longitude":91.2868,"temp":33.1,"humidity":60,"rain":0.0,"pressure":1001.4,"uv_index":8.6,"wind_gusts":33.1,"aqi":105,"pm10":48.4,"pm2_5":40.2,"mosquito_risk":0,"arthritis_risk":5,"migraine_risk":4,"frizz_risk":1,"updated_at":"2026-04-20T16:21:46.163834+05:30"},{"city":"Shillong","state":"Meghalaya","latitude":25.5788,"longitude":91.8933,"temp":20.2,"humidity":72,"rain":0.0,"pressure":854.5,"uv_index":7.2,"wind_gusts":72.0,"aqi":66,"pm10":25.8,"pm2_5":18.5,"mosquito_risk":3,"arthritis_risk":5,"migraine_risk":7,"frizz_risk":0,"updated_at":"2026-04-20T16:21:46.163841+05:30"},{"city":"Imphal","state":"Manipur","latitude":24.817,"longitude":93.9368,"temp":22.5,"humidity":78,"rain":0.0,"pressure":920.4,"uv_index":9.15,"wind_gusts":68.4,"aqi":106,"pm10":46.8,"pm2_5":32.7,"mosquito_risk":3,"arthritis_risk":5,"migraine_risk":7,"frizz_risk":1,"updated_at":"2026-04-20T16:21:46.163847+05:30"},{"city":"Aizawl","state":"Mizoram","latitude":23.7271,"longitude":92.7176,"temp":24.9,"humidity":72,"rain":0.0,"pressure":891.4,"uv_index":8.95,"wind_gusts":69.8,"aqi":132,"pm10":53.6,"pm2_5":43.3,"mosquito_risk":3,"arthritis_risk":5,"migraine_risk":7,"frizz_risk":1,"updated_at":"2026-04-20T16:21:46.163853+05:30"},{"city":"Kohima","state":"Nagaland","latitude":25.6701,"longitude":94.1077,"temp":20.3,"humidity":76,"rain":0.0,"pressure":853.0,"uv_index":7.75,"wind_gusts":102.6,"aqi":82,"pm10":35.7,"pm2_5":22.5,"mosquito_risk":3,"arthritis_risk":5,"migraine_risk":7,"frizz_risk":0,"updated_at":"2026-04-20T16:21:46.163859+05:30"},{"city":"Gangtok","state":"Sikkim","latitude":27.3314,"longitude":88.6138,"temp":20.7,"humidity":76,"rain":0.0,"pressure":836.0,"uv_index":8.8,"wind_gusts":19.1,"aqi":95,"pm10":14.8,"pm2_5":11.4,"mosquito_risk":3,"arthritis_risk":5,"migraine_risk":7,"frizz_risk":1,"updated_at":"2026-04-20T16:21:46.163866+05:30"},{"city":"Siliguri","state":"West Bengal","latitude":26.7271,"longitude":88.3953,"temp":27.6,"humidity":69,"rain":0.0,"pressure":988.8,"uv_index":8.45,"wind_gusts":23.0,"aqi":106,"pm10":34.2,"pm2_5":27.5,"mosquito_risk":7,"arthritis_risk":5,"migraine_risk":7,"frizz_risk":1,"updated_at":"2026-04-20T16:21:49.471656+05:30"},{"city":"Durgapur","state":"West Bengal","latitude":23.5204,"longitude":87.3119,"temp":29.5,"humidity":69,"rain":0.0,"pressure":990.1,"uv_index":8.9,"wind_gusts":44.3,"aqi":200,"pm10":78.2,"pm2_5":25.9,"mosquito_risk":7,"arthritis_risk":5,"migraine_risk":7,"frizz_risk":1,"updated_at":"2026-04-20T16:21:49.471692+05:30"},{"city":"Asansol","state":"West Bengal","latitude":23.6739,"longitude":86.9524,"temp":30.8,"humidity":62,"rain":0.0,"pressure":988.4,"uv_index":8.95,"wind_gusts":48.2,"aqi":165,"pm10":68.7,"pm2_5":23.0,"mosquito_risk":3,"arthritis_risk":5,"migraine_risk":7,"frizz_risk":1,"updated_at":"2026-04-20T16:21:49.471703+05:30"},{"city":"Pondicherry","state":"Puducherry","latitude":11.9139,"longitude":79.8145,"temp":34.8,"humidity":55,"rain":0.0,"pressure":1004.6,"uv_index":9.25,"wind_gusts":33.1,"aqi":32,"pm10":11.7,"pm2_5":8.1,"mosquito_risk":0,"arthritis_risk":5,"migraine_risk":4,"frizz_risk":1,"updated_at":"2026-04-20T16:21:49.471711+05:30"},{"city":"Port Blair","state":"Andaman and Nicobar Islands","latitude":11.6234,"longitude":92.7265,"temp":29.9,"humidity":72,"rain":0.0,"pressure":1005.5,"uv_index":9.05,"wind_gusts":17.3,"aqi":64,"pm10":20.4,"pm2_5":16.6,"mosquito_risk":7,"arthritis_risk":5,"migraine_risk":4,"frizz_risk":1,"updated_at":"2026-04-20T16:21:49.471719+05:30"},{"city":"Haridwar","state":"Uttarakhand","latitude":29.9457,"longitude":78.1642,"temp":37.5,"humidity":15,"rain":0.0,"pressure":970.5,"uv_index":7.05,"wind_gusts":33.8,"aqi":83,"pm10":58.9,"pm2_5":15.7,"mosquito_risk":0,"arthritis_risk":5,"migraine_risk":10,"frizz_risk":0,"updated_at":"2026-04-20T16:21:49.471727+05:30"},{"city":"Rishikesh","state":"Uttarakhand","latitude":30.0869,"longitude":78.2676,"temp":35.7,"humidity":18,"rain":0.0,"pressure":963.7,"uv_index":7.2,"wind_gusts":36.7,"aqi":76,"pm10":38.4,"pm2_5":11.4,"mosquito_risk":0,"arthritis_risk":5,"migraine_risk":10,"frizz_risk":0,"updated_at":"2026-04-20T16:21:49.471734+05:30"},{"city":"Nainital","state":"Uttarakhand","latitude":29.3919,"longitude":79.4542,"temp":28.8,"humidity":15,"rain":0.0,"pressure":808.1,"uv_index":8.05,"wind_gusts":60.1,"aqi":108,"pm10":49.1,"pm2_5":13.0,"mosquito_risk":4,"arthritis_risk":5,"migraine_risk":7,"frizz_risk":1,"updated_at":"2026-04-20T16:21:49.471742+05:30"},{"city":"Mussoorie","state":"Uttarakhand","latitude":30.4599,"longitude":78.0664,"temp":26.0,"humidity":28,"rain":0.0,"pressure":804.7,"uv_index":7.55,"wind_gusts":46.4,"aqi":80,"pm10":31.1,"pm2_5":9.9,"mosquito_risk":4,"arthritis_risk":5,"migraine_risk":7,"frizz_risk":0,"updated_at":"2026-04-20T16:21:49.471750+05:30"},{"city":"Dharamshala","state":"Himachal Pradesh","latitude":32.219,"longitude":76.3234,"temp":29.1,"humidity":23,"rain":0.0,"pressure":869.6,"uv_index":7.8,"wind_gusts":31.7,"aqi":79,"pm10":28.3,"pm2_5":8.2,"mosquito_risk":4,"arthritis_risk":5,"migraine_risk":7,"frizz_risk":0,"updated_at":"2026-04-20T16:21:49.471757+05:30"},{"city":"Dalhousie","state":"Himachal Pradesh","latitude":32.5387,"longitude":75.971,"temp":27.7,"humidity":17,"rain":0.0,"pressure":806.2,"uv_index":8.05,"wind_gusts":31.0,"aqi":73,"pm10":33.9,"pm2_5":10.0,"mosquito_risk":4,"arthritis_risk":5,"migraine_risk":7,"frizz_risk":0,"updated_at":"2026-04-20T16:21:49.471765+05:30"},{"city":"Patiala","state":"Punjab","latitude":30.3398,"longitude":76.3869,"temp":38.3,"humidity":12,"rain":0.0,"pressure":974.7,"uv_index":7.15,"wind_gusts":28.4,"aqi":349,"pm10":488.0,"pm2_5":46.9,"mosquito_risk":0,"arthritis_risk":5,"migraine_risk":10,"frizz_risk":0,"updated_at":"2026-04-20T16:21:49.471772+05:30"},{"city":"Bhatinda","state":"Punjab","latitude":30.211,"longitude":74.9455,"temp":39.1,"humidity":12,"rain":0.0,"pressure":980.4,"uv_index":7.8,"wind_gusts":31.3,"aqi":96,"pm10":41.3,"pm2_5":11.9,"mosquito_risk":0,"arthritis_risk":5,"migraine_risk":10,"frizz_risk":0,"updated_at":"2026-04-20T16:21:49.471778+05:30"},{"city":"Rohtak","state":"Haryana","latitude":28.8955,"longitude":76.6066,"temp":38.6,"humidity":14,"rain":0.0,"pressure":978.1,"uv_index":7.3,"wind_gusts":32.0,"aqi":635,"pm10":771.1,"pm2_5":70.5,"mosquito_risk":0,"arthritis_risk":5,"migraine_risk":10,"frizz_risk":0,"updated_at":"2026-04-20T16:21:49.471784+05:30"},{"city":"Panipat","state":"Haryana","latitude":29.3909,"longitude":76.9635,"temp":38.7,"humidity":15,"rain":0.0,"pressure":976.6,"uv_index":7.1,"wind_gusts":26.6,"aqi":1138,"pm10":1311.3,"pm2_5":111.1,"mosquito_risk":0,"arthritis_risk":5,"migraine_risk":10,"frizz_risk":0,"updated_at":"2026-04-20T16:21:49.471791+05:30"},{"city":"Mathura","state":"Uttar Pradesh","latitude":27.4924,"longitude":77.6737,"temp":39.9,"humidity":14,"rain":0.0,"pressure":982.4,"uv_index":7.6,"wind_gusts":26.6,"aqi":715,"pm10":692.9,"pm2_5":68.0,"mosquito_risk":0,"arthritis_risk":5,"migraine_risk":10,"frizz_risk":0,"updated_at":"2026-04-20T16:21:49.471797+05:30"},{"city":"Vrindavan","state":"Uttar Pradesh","latitude":27.5823,"longitude":77.7027,"temp":40.3,"humidity":14,"rain":0.0,"pressure":982.6,"uv_index":7.55,"wind_gusts":26.3,"aqi":715,"pm10":692.9,"pm2_5":68.0,"mosquito_risk":0,"arthritis_risk":5,"migraine_risk":10,"frizz_risk":0,"updated_at":"2026-04-20T16:21:49.471804+05:30"},{"city":"Ayodhya","state":"Uttar Pradesh","latitude":26.7922,"longitude":82.1998,"temp":41.5,"humidity":12,"rain":0.0,"pressure":988.9,"uv_index":8.1,"wind_gusts":37.1,"aqi":141,"pm10":165.8,"pm2_5":30.7,"mosquito_risk":0,"arthritis_risk":5,"migraine_risk":10,"frizz_risk":0,"updated_at":"2026-04-20T16:21:49.471810+05:30"},{"city":"Ratlam","state":"Madhya Pradesh","latitude":23.3315,"longitude":75.0367,"temp":35.0,"humidity":26,"rain":0.0,"pressure":952.9,"uv_index":8.45,"wind_gusts":29.9,"aqi":92,"pm10":16.6,"pm2_5":11.4,"mosquito_risk":0,"arthritis_risk":5,"migraine_risk":7,"frizz_risk":0,"updated_at":"2026-04-20T16:21:49.471816+05:30"},{"city":"Sagar","state":"Madhya Pradesh","latitude":23.8388,"longitude":78.7378,"temp":39.5,"humidity":14,"rain":0.0,"pressure":946.9,"uv_index":8.35,"wind_gusts":36.0,"aqi":95,"pm10":13.4,"pm2_5":11.1,"mosquito_risk":0,"arthritis_risk":5,"migraine_risk":10,"frizz_risk":0,"updated_at":"2026-04-20T16:21:49.471823+05:30"},{"city":"Satna","state":"Madhya Pradesh","latitude":24.6005,"longitude":80.8322,"temp":39.0,"humidity":18,"rain":0.0,"pressure":967.3,"uv_index":7.75,"wind_gusts":41.8,"aqi":108,"pm10":12.3,"pm2_5":9.0,"mosquito_risk":0,"arthritis_risk":5,"migraine_risk":10,"frizz_risk":0,"updated_at":"2026-04-20T16:21:49.471829+05:30"},{"city":"Akola","state":"Maharashtra","latitude":20.7002,"longitude":77.0082,"temp":40.3,"humidity":18,"rain":0.0,"pressure":971.4,"uv_index":8.9,"wind_gusts":29.5,"aqi":118,"pm10":24.5,"pm2_5":20.7,"mosquito_risk":0,"arthritis_risk":5,"migraine_risk":10,"frizz_risk":0,"updated_at":"2026-04-20T16:21:49.471836+05:30"},{"city":"Amravati","state":"Maharashtra","latitude":20.9374,"longitude":77.7796,"temp":39.4,"humidity":19,"rain":0.0,"pressure":963.7,"uv_index":8.85,"wind_gusts":27.0,"aqi":114,"pm10":19.8,"pm2_5":16.9,"mosquito_risk":0,"arthritis_risk":5,"migraine_risk":10,"frizz_risk":0,"updated_at":"2026-04-20T16:21:49.471843+05:30"},{"city":"Latur","state":"Maharashtra","latitude":18.4088,"longitude":76.5604,"temp":35.4,"humidity":26,"rain":0.0,"pressure":937.6,"uv_index":8.9,"wind_gusts":24.5,"aqi":124,"pm10":40.5,"pm2_5":32.2,"mosquito_risk":0,"arthritis_risk":5,"migraine_risk":10,"frizz_risk":0,"updated_at":"2026-04-20T16:21:49.471850+05:30"},{"city":"Nanded","state":"Maharashtra","latitude":19.1383,"longitude":77.3091,"temp":39.2,"humidity":23,"rain":0.0,"pressure":965.2,"uv_index":8.85,"wind_gusts":21.2,"aqi":121,"pm10":38.6,"pm2_5":30.6,"mosquito_risk":0,"arthritis_risk":5,"migraine_risk":10,"frizz_risk":0,"updated_at":"2026-04-20T16:21:49.471857+05:30"},{"city":"Gulbarga","state":"Karnataka","latitude":17.3297,"longitude":76.8343,"temp":38.4,"humidity":22,"rain":0.0,"pressure":955.3,"uv_index":9.1,"wind_gusts":39.2,"aqi":144,"pm10":44.2,"pm2_5":34.1,"mosquito_risk":0,"arthritis_risk":5,"migraine_risk":10,"frizz_risk":0,"updated_at":"2026-04-20T16:21:49.471863+05:30"},{"city":"Bidar","state":"Karnataka","latitude":17.9104,"longitude":77.5199,"temp":36.6,"humidity":25,"rain":0.0,"pressure":933.3,"uv_index":8.65,"wind_gusts":42.5,"aqi":122,"pm10":44.5,"pm2_5":33.3,"mosquito_risk":0,"arthritis_risk":5,"migraine_risk":10,"frizz_risk":0,"updated_at":"2026-04-20T16:21:49.471869+05:30"},{"city":"Hospet","state":"Karnataka","latitude":15.2689,"longitude":76.3909,"temp":37.1,"humidity":28,"rain":0.0,"pressure":952.3,"uv_index":9.25,"wind_gusts":22.7,"aqi":153,"pm10":54.1,"pm2_5":42.3,"mosquito_risk":0,"arthritis_risk":5,"migraine_risk":10,"frizz_risk":0,"updated_at":"2026-04-20T16:21:49.471875+05:30"},{"city":"Tirupur","state":"Tamil Nadu","latitude":11.1085,"longitude":77.3411,"temp":38.5,"humidity":25,"rain":0.0,"pressure":970.8,"uv_index":9.4,"wind_gusts":29.2,"aqi":130,"pm10":21.2,"pm2_5":17.8,"mosquito_risk":0,"arthritis_risk":5,"migraine_risk":10,"frizz_risk":0,"updated_at":"2026-04-20T16:21:49.471881+05:30"},{"city":"Alappuzha","state":"Kerala","latitude":9.4981,"longitude":76.3388,"temp":29.6,"humidity":82,"rain":0.0,"pressure":1004.8,"uv_index":8.6,"wind_gusts":29.2,"aqi":65,"pm10":23.3,"pm2_5":17.1,"mosquito_risk":7,"arthritis_risk":5,"migraine_risk":4,"frizz_risk":1,"updated_at":"2026-04-20T16:21:49.471887+05:30"},{"city":"Munnar","state":"Kerala","latitude":10.0889,"longitude":77.0595,"temp":29.6,"humidity":52,"rain":0.0,"pressure":856.6,"uv_index":9.65,"wind_gusts":32.0,"aqi":76,"pm10":13.6,"pm2_5":10.6,"mosquito_risk":4,"arthritis_risk":5,"migraine_risk":7,"frizz_risk":1,"updated_at":"2026-04-20T16:21:49.471894+05:30"},{"city":"Silchar","state":"Assam","latitude":24.8333,"longitude":92.7789,"temp":29.6,"humidity":72,"rain":0.0,"pressure":1001.0,"uv_index":8.1,"wind_gusts":42.5,"aqi":114,"pm10":43.1,"pm2_5":33.1,"mosquito_risk":7,"arthritis_risk":5,"migraine_risk":4,"frizz_risk":1,"updated_at":"2026-04-20T16:21:49.471901+05:30"},{"city":"Dibrugarh","state":"Assam","latitude":27.4728,"longitude":94.912,"temp":27.4,"humidity":76,"rain":0.0,"pressure":991.1,"uv_index":8.75,"wind_gusts":16.6,"aqi":115,"pm10":20.5,"pm2_5":15.9,"mosquito_risk":7,"arthritis_risk":5,"migraine_risk":7,"frizz_risk":1,"updated_at":"2026-04-20T16:21:49.471907+05:30"}]