[{"city":"Delhi","state":"Delhi","latitude":28.6139,"longitude":77.209,"temp":28.5,"humidity":82,"rain":0.0,"pressure":978.5,"uv_index":5.85,"wind_gusts":28.1,"aqi":114,"pm10":14.2,"pm2_5":13.5,"no2":12.9,"co":458.0,"o3":111.0,"so2":20.7,"mosquito_risk":7,"arthritis_risk":5,"migraine_risk":3,"frizz_risk":1,"updated_at":"2026-07-21T12:00:17.840555+05:30"},{"city":"Mumbai","state":"Maharashtra","latitude":19.076,"longitude":72.8777,"temp":29.0,"humidity":79,"rain":0.1,"pressure":1006.4,"uv_index":6.95,"wind_gusts":50.4,"aqi":63,"pm10":43.5,"pm2_5":21.1,"no2":7.6,"co":224.0,"o3":61.0,"so2":8.4,"mosquito_risk":10,"arthritis_risk":5,"migraine_risk":4,"frizz_risk":1,"updated_at":"2026-07-21T12:00:17.840596+05:30"},{"city":"Bangalore","state":"Karnataka","latitude":12.9716,"longitude":77.5946,"temp":27.8,"humidity":54,"rain":0.0,"pressure":913.0,"uv_index":8.4,"wind_gusts":45.7,"aqi":37,"pm10":15.7,"pm2_5":9.0,"no2":5.4,"co":227.0,"o3":50.0,"so2":3.4,"mosquito_risk":4,"arthritis_risk":5,"migraine_risk":7,"frizz_risk":1,"updated_at":"2026-07-21T12:00:17.840611+05:30"},{"city":"Hyderabad","state":"Telangana","latitude":17.385,"longitude":78.4867,"temp":27.2,"humidity":65,"rain":0.0,"pressure":952.3,"uv_index":4.0,"wind_gusts":46.1,"aqi":36,"pm10":21.9,"pm2_5":11.1,"no2":2.4,"co":249.0,"o3":62.0,"so2":3.4,"mosquito_risk":7,"arthritis_risk":5,"migraine_risk":3,"frizz_risk":1,"updated_at":"2026-07-21T12:00:17.840620+05:30"},{"city":"Chennai","state":"Tamil Nadu","latitude":13.0827,"longitude":80.2707,"temp":32.6,"humidity":56,"rain":0.0,"pressure":1006.7,"uv_index":7.9,"wind_gusts":30.2,"aqi":68,"pm10":29.4,"pm2_5":20.6,"no2":11.3,"co":215.0,"o3":95.0,"so2":11.8,"mosquito_risk":0,"arthritis_risk":5,"migraine_risk":4,"frizz_risk":1,"updated_at":"2026-07-21T12:00:17.840628+05:30"},{"city":"Kolkata","state":"West Bengal","latitude":22.5726,"longitude":88.3639,"temp":25.8,"humidity":95,"rain":0.4,"pressure":1002.3,"uv_index":6.65,"wind_gusts":25.9,"aqi":65,"pm10":14.2,"pm2_5":13.5,"no2":7.7,"co":242.0,"o3":84.0,"so2":9.9,"mosquito_risk":10,"arthritis_risk":5,"migraine_risk":4,"frizz_risk":1,"updated_at":"2026-07-21T12:00:17.840636+05:30"},{"city":"Pune","state":"Maharashtra","latitude":18.5204,"longitude":73.8567,"temp":25.4,"humidity":78,"rain":0.1,"pressure":946.3,"uv_index":4.7,"wind_gusts":53.6,"aqi":24,"pm10":15.3,"pm2_5":7.9,"no2":2.7,"co":146.0,"o3":59.0,"so2":3.8,"mosquito_risk":10,"arthritis_risk":5,"migraine_risk":3,"frizz_risk":1,"updated_at":"2026-07-21T12:00:17.840643+05:30"},{"city":"Ahmedabad","state":"Gujarat","latitude":23.0225,"longitude":72.5714,"temp":29.9,"humidity":69,"rain":0.0,"pressure":997.6,"uv_index":4.85,"wind_gusts":38.5,"aqi":62,"pm10":32.1,"pm2_5":15.0,"no2":5.7,"co":163.0,"o3":56.0,"so2":6.2,"mosquito_risk":7,"arthritis_risk":5,"migraine_risk":3,"frizz_risk":1,"updated_at":"2026-07-21T12:00:17.840651+05:30"},{"city":"Jaipur","state":"Rajasthan","latitude":26.9124,"longitude":75.7873,"temp":27.9,"humidity":87,"rain":0.2,"pressure":955.0,"uv_index":1.1,"wind_gusts":23.4,"aqi":73,"pm10":20.7,"pm2_5":12.8,"no2":8.6,"co":184.0,"o3":74.0,"so2":5.3,"mosquito_risk":10,"arthritis_risk":5,"migraine_risk":3,"frizz_risk":1,"updated_at":"2026-07-21T12:00:17.840657+05:30"},{"city":"Lucknow","state":"Uttar Pradesh","latitude":26.8467,"longitude":80.9462,"temp":30.4,"humidity":72,"rain":0.0,"pressure":989.3,"uv_index":6.95,"wind_gusts":33.1,"aqi":68,"pm10":6.1,"pm2_5":6.1,"no2":4.3,"co":338.0,"o3":108.0,"so2":7.6,"mosquito_risk":3,"arthritis_risk":5,"migraine_risk":7,"frizz_risk":1,"updated_at":"2026-07-21T12:00:17.840668+05:30"},{"city":"Kanpur","state":"Uttar Pradesh","latitude":26.4499,"longitude":80.3319,"temp":30.9,"humidity":72,"rain":0.0,"pressure":987.3,"uv_index":6.95,"wind_gusts":32.0,"aqi":71,"pm10":8.3,"pm2_5":7.4,"no2":4.4,"co":206.0,"o3":118.0,"so2":6.4,"mosquito_risk":3,"arthritis_risk":5,"migraine_risk":7,"frizz_risk":1,"updated_at":"2026-07-21T12:00:17.840674+05:30"},{"city":"Chandigarh","state":"Chandigarh","latitude":30.7333,"longitude":76.7794,"temp":26.4,"humidity":94,"rain":0.2,"pressure":965.7,"uv_index":6.5,"wind_gusts":33.1,"aqi":76,"pm10":14.1,"pm2_5":13.9,"no2":11.5,"co":338.0,"o3":94.0,"so2":5.0,"mosquito_risk":10,"arthritis_risk":5,"migraine_risk":7,"frizz_risk":1,"updated_at":"2026-07-21T12:00:17.840682+05:30"},{"city":"Srinagar","state":"Jammu and Kashmir","latitude":34.0837,"longitude":74.7973,"temp":21.5,"humidity":99,"rain":0.4,"pressure":840.2,"uv_index":8.15,"wind_gusts":20.9,"aqi":53,"pm10":8.8,"pm2_5":8.2,"no2":9.6,"co":430.0,"o3":94.0,"so2":3.9,"mosquito_risk":6,"arthritis_risk":5,"migraine_risk":7,"frizz_risk":1,"updated_at":"2026-07-21T12:00:17.840691+05:30"},{"city":"Jammu","state":"Jammu and Kashmir","latitude":32.7266,"longitude":74.857,"temp":25.9,"humidity":93,"rain":0.2,"pressure":970.0,"uv_index":6.8,"wind_gusts":34.9,"aqi":97,"pm10":16.2,"pm2_5":12.1,"no2":14.5,"co":325.0,"o3":65.0,"so2":5.4,"mosquito_risk":10,"arthritis_risk":5,"migraine_risk":7,"frizz_risk":1,"updated_at":"2026-07-21T12:00:17.840698+05:30"},{"city":"Amritsar","state":"Punjab","latitude":31.634,"longitude":74.8723,"temp":26.6,"humidity":97,"rain":1.1,"pressure":977.2,"uv_index":8.05,"wind_gusts":33.5,"aqi":141,"pm10":56.1,"pm2_5":27.4,"no2":5.5,"co":337.0,"o3":96.0,"so2":5.9,"mosquito_risk":10,"arthritis_risk":5,"migraine_risk":7,"frizz_risk":1,"updated_at":"2026-07-21T12:00:17.840704+05:30"},{"city":"Ludhiana","state":"Punjab","latitude":30.901,"longitude":75.8573,"temp":27.9,"humidity":87,"rain":0.0,"pressure":975.2,"uv_index":3.75,"wind_gusts":36.4,"aqi":93,"pm10":17.8,"pm2_5":17.2,"no2":8.4,"co":385.0,"o3":96.0,"so2":7.2,"mosquito_risk":7,"arthritis_risk":5,"migraine_risk":3,"frizz_risk":1,"updated_at":"2026-07-21T12:00:17.840710+05:30"},{"city":"Jalandhar","state":"Punjab","latitude":31.326,"longitude":75.5762,"temp":28.4,"humidity":82,"rain":0.1,"pressure":976.2,"uv_index":5.1,"wind_gusts":37.8,"aqi":104,"pm10":18.9,"pm2_5":14.5,"no2":6.2,"co":385.0,"o3":105.0,"so2":6.5,"mosquito_risk":10,"arthritis_risk":5,"migraine_risk":3,"frizz_risk":1,"updated_at":"2026-07-21T12:00:17.840737+05:30"},{"city":"Dehradun","state":"Uttarakhand","latitude":30.6284,"longitude":78.0322,"temp":22.4,"humidity":80,"rain":0.0,"pressure":830.5,"uv_index":2.35,"wind_gusts":24.8,"aqi":57,"pm10":2.9,"pm2_5":2.8,"no2":3.3,"co":224.0,"o3":113.0,"so2":1.1,"mosquito_risk":3,"arthritis_risk":5,"migraine_risk":3,"frizz_risk":1,"updated_at":"2026-07-21T12:00:17.840744+05:30"},{"city":"Shimla","state":"Himachal Pradesh","latitude":31.1048,"longitude":77.1734,"temp":17.2,"humidity":97,"rain":0.4,"pressure":783.9,"uv_index":3.8,"wind_gusts":21.2,"aqi":54,"pm10":2.9,"pm2_5":2.7,"no2":4.4,"co":262.0,"o3":112.0,"so2":0.7,"mosquito_risk":6,"arthritis_risk":10,"migraine_risk":3,"frizz_risk":1,"updated_at":"2026-07-21T12:00:17.840751+05:30"},{"city":"Manali","state":"Himachal Pradesh","latitude":32.2396,"longitude":77.1887,"temp":23.0,"humidity":85,"rain":0.2,"pressure":820.3,"uv_index":5.8,"wind_gusts":22.7,"aqi":33,"pm10":1.4,"pm2_5":1.1,"no2":4.0,"co":220.0,"o3":104.0,"so2":0.8,"mosquito_risk":6,"arthritis_risk":5,"migraine_risk":3,"frizz_risk":1,"updated_at":"2026-07-21T12:00:17.840759+05:30"},{"city":"Gurgaon","state":"Haryana","latitude":28.4595,"longitude":77.0266,"temp":27.3,"humidity":87,"rain":0.0,"pressure":976.8,"uv_index":4.7,"wind_gusts":23.8,"aqi":103,"pm10":13.1,"pm2_5":12.2,"no2":11.8,"co":717.0,"o3":100.0,"so2":16.1,"mosquito_risk":7,"arthritis_risk":5,"migraine_risk":3,"frizz_risk":1,"updated_at":"2026-07-21T12:00:17.840766+05:30"},{"city":"Noida","state":"Uttar Pradesh","latitude":28.5355,"longitude":77.391,"temp":30.1,"humidity":72,"rain":0.1,"pressure":979.9,"uv_index":3.45,"wind_gusts":27.0,"aqi":103,"pm10":13.1,"pm2_5":12.2,"no2":11.8,"co":351.0,"o3":100.0,"so2":16.1,"mosquito_risk":6,"arthritis_risk":5,"migraine_risk":3,"frizz_risk":1,"updated_at":"2026-07-21T12:00:17.840772+05:30"},{"city":"Ghaziabad","state":"Uttar Pradesh","latitude":28.6692,"longitude":77.4538,"temp":29.5,"humidity":76,"rain":0.0,"pressure":978.2,"uv_index":2.6,"wind_gusts":33.1,"aqi":96,"pm10":9.8,"pm2_5":9.5,"no2":5.3,"co":303.0,"o3":113.0,"so2":9.3,"mosquito_risk":7,"arthritis_risk":5,"migraine_risk":3,"frizz_risk":1,"updated_at":"2026-07-21T12:00:17.840778+05:30"},{"city":"Faridabad","state":"Haryana","latitude":28.4089,"longitude":77.3178,"temp":29.9,"humidity":73,"rain":0.0,"pressure":979.1,"uv_index":3.6,"wind_gusts":28.8,"aqi":103,"pm10":13.1,"pm2_5":12.2,"no2":11.8,"co":399.0,"o3":100.0,"so2":16.1,"mosquito_risk":7,"arthritis_risk":5,"migraine_risk":3,"frizz_risk":1,"updated_at":"2026-07-21T12:00:17.840784+05:30"},{"city":"Meerut","state":"Uttar Pradesh","latitude":28.9845,"longitude":77.7064,"temp":28.8,"humidity":79,"rain":0.0,"pressure":977.4,"uv_index":2.25,"wind_gusts":42.8,"aqi":96,"pm10":9.8,"pm2_5":9.5,"no2":5.3,"co":271.0,"o3":113.0,"so2":9.3,"mosquito_risk":7,"arthritis_risk":5,"migraine_risk":3,"frizz_risk":1,"updated_at":"2026-07-21T12:00:17.840792+05:30"},{"city":"Agra","state":"Uttar Pradesh","latitude":27.1767,"longitude":78.0081,"temp":29.4,"humidity":73,"rain":0.0,"pressure":983.5,"uv_index":7.05,"wind_gusts":21.6,"aqi":69,"pm10":25.3,"pm2_5":14.7,"no2":4.3,"co":294.0,"o3":115.0,"so2":5.1,"mosquito_risk":7,"arthritis_risk":5,"migraine_risk":7,"frizz_risk":1,"updated_at":"2026-07-21T12:00:17.840798+05:30"},{"city":"Varanasi","state":"Uttar Pradesh","latitude":25.3176,"longitude":82.9739,"temp":27.8,"humidity":89,"rain":0.0,"pressure":993.1,"uv_index":8.25,"wind_gusts":35.3,"aqi":72,"pm10":22.5,"pm2_5":21.5,"no2":3.9,"co":996.0,"o3":137.0,"so2":18.6,"mosquito_risk":7,"arthritis_risk":5,"migraine_risk":7,"frizz_risk":1,"updated_at":"2026-07-21T12:00:17.840805+05:30"},{"city":"Prayagraj","state":"Uttar Pradesh","latitude":25.4358,"longitude":81.8463,"temp":27.6,"humidity":87,"rain":0.3,"pressure":991.5,"uv_index":7.35,"wind_gusts":35.3,"aqi":67,"pm10":17.5,"pm2_5":17.2,"no2":4.7,"co":355.0,"o3":134.0,"so2":14.4,"mosquito_risk":10,"arthritis_risk":5,"migraine_risk":7,"frizz_risk":1,"updated_at":"2026-07-21T12:00:17.840811+05:30"},{"city":"Gorakhpur","state":"Uttar Pradesh","latitude":26.7606,"longitude":83.3732,"temp":29.5,"humidity":78,"rain":0.1,"pressure":994.0,"uv_index":7.65,"wind_gusts":40.0,"aqi":64,"pm10":17.4,"pm2_5":16.6,"no2":2.1,"co":280.0,"o3":128.0,"so2":6.2,"mosquito_risk":10,"arthritis_risk":5,"migraine_risk":7,"frizz_risk":1,"updated_at":"2026-07-21T12:00:17.840817+05:30"},{"city":"Bareilly","state":"Uttar Pradesh","latitude":28.367,"longitude":79.4304,"temp":28.5,"humidity":84,"rain":0.1,"pressure":983.0,"uv_index":3.85,"wind_gusts":38.5,"aqi":62,"pm10":10.5,"pm2_5":10.4,"no2":4.1,"co":294.0,"o3":105.0,"so2":8.6,"mosquito_risk":10,"arthritis_risk":5,"migraine_risk":3,"frizz_risk":1,"updated_at":"2026-07-21T12:00:17.840825+05:30"},{"city":"Aligarh","state":"Uttar Pradesh","latitude":27.8974,"longitude":78.088,"temp":30.4,"humidity":72,"rain":0.0,"pressure":981.1,"uv_index":6.85,"wind_gusts":25.9,"aqi":91,"pm10":10.3,"pm2_5":8.8,"no2":5.3,"co":232.0,"o3":103.0,"so2":8.3,"mosquito_risk":3,"arthritis_risk":5,"migraine_risk":7,"frizz_risk":1,"updated_at":"2026-07-21T12:00:17.840831+05:30"},{"city":"Moradabad","state":"Uttar Pradesh","latitude":28.8386,"longitude":78.7733,"temp":28.2,"humidity":85,"rain":0.1,"pressure":980.0,"uv_index":3.8,"wind_gusts":45.4,"aqi":65,"pm10":11.0,"pm2_5":11.0,"no2":3.9,"co":295.0,"o3":114.0,"so2":8.5,"mosquito_risk":10,"arthritis_risk":5,"migraine_risk":3,"frizz_risk":1,"updated_at":"2026-07-21T12:00:17.840837+05:30"},{"city":"Saharanpur","state":"Uttar Pradesh","latitude":29.9637,"longitude":77.546,"temp":29.7,"humidity":77,"rain":0.0,"pressure":972.3,"uv_index":6.4,"wind_gusts":50.8,"aqi":81,"pm10":12.1,"pm2_5":12.1,"no2":2.3,"co":308.0,"o3":131.0,"so2":4.0,"mosquito_risk":7,"arthritis_risk":5,"migraine_risk":7,"frizz_risk":1,"updated_at":"2026-07-21T12:00:17.840843+05:30"},{"city":"Jhansi","state":"Uttar Pradesh","latitude":25.4484,"longitude":78.5685,"temp":30.8,"humidity":63,"rain":0.1,"pressure":973.5,"uv_index":3.8,"wind_gusts":15.1,"aqi":65,"pm10":31.4,"pm2_5":15.2,"no2":3.3,"co":161.0,"o3":108.0,"so2":10.4,"mosquito_risk":6,"arthritis_risk":5,"migraine_risk":3,"frizz_risk":1,"updated_at":"2026-07-21T12:00:21.123182+05:30"},{"city":"Surat","state":"Gujarat","latitude":21.1702,"longitude":72.8311,"temp":29.2,"humidity":78,"rain":0.1,"pressure":1002.8,"uv_index":4.7,"wind_gusts":48.2,"aqi":67,"pm10":34.9,"pm2_5":23.1,"no2":19.3,"co":409.0,"o3":32.0,"so2":53.1,"mosquito_risk":10,"arthritis_risk":5,"migraine_risk":0,"frizz_risk":1,"updated_at":"2026-07-21T12:00:21.123216+05:30"},{"city":"Vadodara","state":"Gujarat","latitude":22.3072,"longitude":73.1812,"temp":27.2,"humidity":89,"rain":0.1,"pressure":1000.1,"uv_index":6.3,"wind_gusts":33.1,"aqi":58,"pm10":23.3,"pm2_5":13.4,"no2":5.9,"co":166.0,"o3":57.0,"so2":7.0,"mosquito_risk":10,"arthritis_risk":5,"migraine_risk":4,"frizz_risk":1,"updated_at":"2026-07-21T12:00:21.123229+05:30"},{"city":"Rajkot","state":"Gujarat","latitude":22.3039,"longitude":70.8022,"temp":29.8,"humidity":70,"rain":0.0,"pressure":989.4,"uv_index":4.9,"wind_gusts":45.0,"aqi":61,"pm10":33.2,"pm2_5":14.6,"no2":1.6,"co":110.0,"o3":72.0,"so2":4.1,"mosquito_risk":7,"arthritis_risk":5,"migraine_risk":3,"frizz_risk":1,"updated_at":"2026-07-21T12:00:21.123239+05:30"},{"city":"Thane","state":"Maharashtra","latitude":19.2183,"longitude":72.9781,"temp":27.0,"humidity":87,"rain":0.1,"pressure":1005.8,"uv_index":6.35,"wind_gusts":41.0,"aqi":63,"pm10":43.5,"pm2_5":21.1,"no2":7.6,"co":287.0,"o3":61.0,"so2":8.4,"mosquito_risk":10,"arthritis_risk":5,"migraine_risk":4,"frizz_risk":1,"updated_at":"2026-07-21T12:00:21.123248+05:30"},{"city":"Nagpur","state":"Maharashtra","latitude":21.1458,"longitude":79.0882,"temp":27.7,"humidity":82,"rain":0.0,"pressure":969.6,"uv_index":0.95,"wind_gusts":33.8,"aqi":55,"pm10":9.4,"pm2_5":7.2,"no2":8.1,"co":184.0,"o3":59.0,"so2":16.2,"mosquito_risk":7,"arthritis_risk":5,"migraine_risk":3,"frizz_risk":1,"updated_at":"2026-07-21T12:00:21.123257+05:30"},{"city":"Nashik","state":"Maharashtra","latitude":19.9975,"longitude":73.7898,"temp":24.0,"humidity":90,"rain":0.0,"pressure":942.6,"uv_index":3.5,"wind_gusts":50.4,"aqi":22,"pm10":13.1,"pm2_5":6.3,"no2":2.2,"co":130.0,"o3":52.0,"so2":2.0,"mosquito_risk":3,"arthritis_risk":5,"migraine_risk":3,"frizz_risk":1,"updated_at":"2026-07-21T12:00:21.123266+05:30"},{"city":"Aurangabad","state":"Maharashtra","latitude":19.8762,"longitude":75.3433,"temp":26.3,"humidity":77,"rain":0.1,"pressure":941.7,"uv_index":2.95,"wind_gusts":54.0,"aqi":28,"pm10":12.1,"pm2_5":6.5,"no2":2.0,"co":126.0,"o3":64.0,"so2":5.1,"mosquito_risk":10,"arthritis_risk":5,"migraine_risk":3,"frizz_risk":1,"updated_at":"2026-07-21T12:00:21.123274+05:30"},{"city":"Solapur","state":"Maharashtra","latitude":17.6599,"longitude":75.9064,"temp":31.1,"humidity":54,"rain":0.0,"pressure":956.3,"uv_index":4.65,"wind_gusts":57.2,"aqi":29,"pm10":18.8,"pm2_5":8.1,"no2":1.2,"co":110.0,"o3":64.0,"so2":1.7,"mosquito_risk":0,"arthritis_risk":5,"migraine_risk":3,"frizz_risk":1,"updated_at":"2026-07-21T12:00:21.123283+05:30"},{"city":"Kolhapur","state":"Maharashtra","latitude":16.705,"longitude":74.2433,"temp":26.7,"humidity":72,"rain":0.0,"pressure":947.7,"uv_index":6.65,"wind_gusts":59.8,"aqi":28,"pm10":13.1,"pm2_5":7.5,"no2":1.8,"co":116.0,"o3":59.0,"so2":1.8,"mosquito_risk":7,"arthritis_risk":5,"migraine_risk":7,"frizz_risk":1,"updated_at":"2026-07-21T12:00:21.123292+05:30"},{"city":"Goa","state":"Goa","latitude":15.2993,"longitude":74.124,"temp":28.5,"humidity":79,"rain":0.1,"pressure":999.6,"uv_index":7.65,"wind_gusts":36.4,"aqi":58,"pm10":19.6,"pm2_5":10.5,"no2":1.0,"co":169.0,"o3":53.0,"so2":1.3,"mosquito_risk":10,"arthritis_risk":5,"migraine_risk":7,"frizz_risk":1,"updated_at":"2026-07-21T12:00:21.123301+05:30"},{"city":"Jodhpur","state":"Rajasthan","latitude":26.2389,"longitude":73.0243,"temp":34.8,"humidity":48,"rain":0.1,"pressure":977.5,"uv_index":7.15,"wind_gusts":35.6,"aqi":84,"pm10":174.2,"pm2_5":43.9,"no2":1.1,"co":118.0,"o3":82.0,"so2":2.5,"mosquito_risk":3,"arthritis_risk":5,"migraine_risk":7,"frizz_risk":1,"updated_at":"2026-07-21T12:00:21.123309+05:30"},{"city":"Udaipur","state":"Rajasthan","latitude":24.5854,"longitude":73.7125,"temp":26.4,"humidity":82,"rain":0.0,"pressure":942.3,"uv_index":3.0,"wind_gusts":28.4,"aqi":57,"pm10":33.4,"pm2_5":13.8,"no2":1.9,"co":112.0,"o3":69.0,"so2":3.9,"mosquito_risk":7,"arthritis_risk":5,"migraine_risk":3,"frizz_risk":1,"updated_at":"2026-07-21T12:00:21.123318+05:30"},{"city":"Kota","state":"Rajasthan","latitude":25.2138,"longitude":75.8648,"temp":30.8,"humidity":68,"rain":0.0,"pressure":973.9,"uv_index":2.7,"wind_gusts":30.6,"aqi":66,"pm10":14.7,"pm2_5":11.3,"no2":5.0,"co":158.0,"o3":85.0,"so2":8.1,"mosquito_risk":3,"arthritis_risk":5,"migraine_risk":3,"frizz_risk":1,"updated_at":"2026-07-21T12:00:21.123327+05:30"},{"city":"Bikaner","state":"Rajasthan","latitude":28.0229,"longitude":73.3119,"temp":37.4,"humidity":42,"rain":0.0,"pressure":975.9,"uv_index":8.15,"wind_gusts":45.0,"aqi":85,"pm10":102.0,"pm2_5":30.3,"no2":0.6,"co":118.0,"o3":82.0,"so2":3.6,"mosquito_risk":0,"arthritis_risk":5,"migraine_risk":10,"frizz_risk":1,"updated_at":"2026-07-21T12:00:21.123336+05:30"},{"city":"Ajmer","state":"Rajasthan","latitude":26.4499,"longitude":74.6399,"temp":29.6,"humidity":70,"rain":0.0,"pressure":950.2,"uv_index":4.55,"wind_gusts":27.4,"aqi":58,"pm10":34.6,"pm2_5":18.2,"no2":3.0,"co":128.0,"o3":86.0,"so2":3.8,"mosquito_risk":7,"arthritis_risk":5,"migraine_risk":3,"frizz_risk":1,"updated_at":"2026-07-21T12:00:21.123344+05:30"},{"city":"Gwalior","state":"Madhya Pradesh","latitude":26.2183,"longitude":78.1828,"temp":30.8,"humidity":61,"rain":0.1,"pressure":978.7,"uv_index":5.45,"wind_gusts":27.4,"aqi":62,"pm10":31.9,"pm2_5":17.5,"no2":1.8,"co":201.0,"o3":110.0,"so2":4.1,"mosquito_risk":6,"arthritis_risk":5,"migraine_risk":3,"frizz_risk":1,"updated_at":"2026-07-21T12:00:21.123352+05:30"},{"city":"Indore","state":"Madhya Pradesh","latitude":22.7196,"longitude":75.8577,"temp":24.9,"humidity":94,"rain":0.1,"pressure":944.0,"uv_index":5.65,"wind_gusts":33.1,"aqi":52,"pm10":11.6,"pm2_5":8.7,"no2":7.5,"co":199.0,"o3":46.0,"so2":8.0,"mosquito_risk":6,"arthritis_risk":5,"migraine_risk":3,"frizz_risk":1,"updated_at":"2026-07-21T12:00:21.123360+05:30"},{"city":"Bhopal","state":"Madhya Pradesh","latitude":23.2599,"longitude":77.4126,"temp":24.9,"humidity":95,"rain":0.2,"pressure":949.3,"uv_index":1.15,"wind_gusts":27.4,"aqi":60,"pm10":7.5,"pm2_5":7.1,"no2":5.8,"co":240.0,"o3":58.0,"so2":3.2,"mosquito_risk":6,"arthritis_risk":5,"migraine_risk":3,"frizz_risk":1,"updated_at":"2026-07-21T12:00:21.123369+05:30"},{"city":"Jabalpur","state":"Madhya Pradesh","latitude":23.1815,"longitude":79.9864,"temp":26.5,"humidity":84,"rain":0.1,"pressure":957.1,"uv_index":5.2,"wind_gusts":31.7,"aqi":54,"pm10":4.1,"pm2_5":3.9,"no2":3.7,"co":213.0,"o3":78.0,"so2":2.5,"mosquito_risk":10,"arthritis_risk":5,"migraine_risk":3,"frizz_risk":1,"updated_at":"2026-07-21T12:00:21.123377+05:30"},{"city":"Ujjain","state":"Madhya Pradesh","latitude":23.1765,"longitude":75.7885,"temp":25.4,"humidity":94,"rain":0.1,"pressure":949.7,"uv_index":1.8,"wind_gusts":29.5,"aqi":52,"pm10":14.6,"pm2_5":10.0,"no2":5.6,"co":218.0,"o3":46.0,"so2":6.7,"mosquito_risk":10,"arthritis_risk":5,"migraine_risk":3,"frizz_risk":1,"updated_at":"2026-07-21T12:00:21.123386+05:30"},{"city":"Visakhapatnam","state":"Andhra Pradesh","latitude":17.6868,"longitude":83.2185,"temp":30.3,"humidity":69,"rain":0.0,"pressure":1000.0,"uv_index":8.35,"wind_gusts":41.4,"aqi":70,"pm10":15.4,"pm2_5":13.5,"no2":12.0,"co":310.0,"o3":97.0,"so2":33.4,"mosquito_risk":3,"arthritis_risk":5,"migraine_risk":4,"frizz_risk":1,"updated_at":"2026-07-21T12:00:21.123395+05:30"},{"city":"Vijayawada","state":"Andhra Pradesh","latitude":16.5062,"longitude":80.648,"temp":32.3,"humidity":53,"rain":0.0,"pressure":1001.5,"uv_index":5.0,"wind_gusts":47.2,"aqi":56,"pm10":25.0,"pm2_5":13.9,"no2":2.2,"co":145.0,"o3":80.0,"so2":5.4,"mosquito_risk":0,"arthritis_risk":5,"migraine_risk":0,"frizz_risk":1,"updated_at":"2026-07-21T12:00:21.123403+05:30"},{"city":"Guntur","state":"Andhra Pradesh","latitude":16.3067,"longitude":80.4365,"temp":34.4,"humidity":46,"rain":0.0,"pressure":1002.5,"uv_index":4.75,"wind_gusts":47.2,"aqi":53,"pm10":25.8,"pm2_5":14.2,"no2":1.9,"co":140.0,"o3":79.0,"so2":4.9,"mosquito_risk":0,"arthritis_risk":5,"migraine_risk":0,"frizz_risk":1,"updated_at":"2026-07-21T12:00:21.123412+05:30"},{"city":"Nellore","state":"Andhra Pradesh","latitude":14.4426,"longitude":79.9865,"temp":34.0,"humidity":48,"rain":0.0,"pressure":1005.3,"uv_index":6.7,"wind_gusts":46.8,"aqi":54,"pm10":25.8,"pm2_5":12.7,"no2":2.4,"co":117.0,"o3":73.0,"so2":5.7,"mosquito_risk":0,"arthritis_risk":5,"migraine_risk":4,"frizz_risk":1,"updated_at":"2026-07-21T12:00:21.123421+05:30"},{"city":"Kurnool","state":"Andhra Pradesh","latitude":15.8281,"longitude":78.0373,"temp":30.8,"humidity":55,"rain":0.0,"pressure":977.0,"uv_index":4.55,"wind_gusts":51.8,"aqi":43,"pm10":17.5,"pm2_5":8.5,"no2":2.4,"co":127.0,"o3":58.0,"so2":3.8,"mosquito_risk":0,"arthritis_risk":5,"migraine_risk":3,"frizz_risk":1,"updated_at":"2026-07-21T12:00:21.123429+05:30"},{"city":"Kakinada","state":"Andhra Pradesh","latitude":16.9891,"longitude":82.2475,"temp":29.5,"humidity":70,"rain":0.1,"pressure":1005.4,"uv_index":6.85,"wind_gusts":52.2,"aqi":58,"pm10":12.6,"pm2_5":8.3,"no2":2.2,"co":194.0,"o3":95.0,"so2":4.2,"mosquito_risk":10,"arthritis_risk":5,"migraine_risk":4,"frizz_risk":1,"updated_at":"2026-07-21T12:00:21.123436+05:30"},{"city":"Tirupati","state":"Andhra Pradesh","latitude":13.6288,"longitude":79.4192,"temp":33.0,"humidity":50,"rain":0.0,"pressure":991.0,"uv_index":8.35,"wind_gusts":31.7,"aqi":54,"pm10":25.8,"pm2_5":12.5,"no2":1.5,"co":123.0,"o3":74.0,"so2":1.6,"mosquito_risk":0,"arthritis_risk":5,"migraine_risk":7,"frizz_risk":1,"updated_at":"2026-07-21T12:00:21.123443+05:30"},{"city":"Warangal","state":"Telangana","latitude":17.9689,"longitude":79.5941,"temp":26.2,"humidity":89,"rain":0.2,"pressure":977.4,"uv_index":3.8,"wind_gusts":28.8,"aqi":40,"pm10":14.3,"pm2_5":8.5,"no2":2.2,"co":134.0,"o3":60.0,"so2":2.6,"mosquito_risk":10,"arthritis_risk":5,"migraine_risk":3,"frizz_risk":1,"updated_at":"2026-07-21T12:00:21.123449+05:30"},{"city":"Nizamabad","state":"Telangana","latitude":18.6725,"longitude":78.0941,"temp":26.8,"humidity":78,"rain":0.1,"pressure":963.1,"uv_index":2.55,"wind_gusts":34.9,"aqi":38,"pm10":12.1,"pm2_5":8.2,"no2":4.6,"co":136.0,"o3":49.0,"so2":6.2,"mosquito_risk":10,"arthritis_risk":5,"migraine_risk":3,"frizz_risk":1,"updated_at":"2026-07-21T12:00:21.123456+05:30"},{"city":"Mysore","state":"Karnataka","latitude":12.2958,"longitude":76.6396,"temp":27.6,"humidity":60,"rain":0.1,"pressure":930.1,"uv_index":7.95,"wind_gusts":45.0,"aqi":28,"pm10":12.9,"pm2_5":6.6,"no2":1.9,"co":121.0,"o3":60.0,"so2":1.7,"mosquito_risk":7,"arthritis_risk":5,"migraine_risk":7,"frizz_risk":1,"updated_at":"2026-07-21T12:00:21.123462+05:30"},{"city":"Mangalore","state":"Karnataka","latitude":12.9141,"longitude":74.856,"temp":27.7,"humidity":80,"rain":0.1,"pressure":1009.2,"uv_index":7.75,"wind_gusts":31.0,"aqi":52,"pm10":17.4,"pm2_5":9.0,"no2":1.7,"co":118.0,"o3":50.0,"so2":1.8,"mosquito_risk":10,"arthritis_risk":0,"migraine_risk":4,"frizz_risk":1,"updated_at":"2026-07-21T12:00:21.123469+05:30"},{"city":"Hubli-Dharwad","state":"Karnataka","latitude":15.3647,"longitude":75.124,"temp":28.0,"humidity":61,"rain":0.0,"pressure":941.7,"uv_index":5.55,"wind_gusts":58.0,"aqi":18,"pm10":11.6,"pm2_5":5.5,"no2":1.5,"co":102.0,"o3":53.0,"so2":1.0,"mosquito_risk":7,"arthritis_risk":5,"migraine_risk":3,"frizz_risk":1,"updated_at":"2026-07-21T12:00:21.123475+05:30"},{"city":"Belgaum","state":"Karnataka","latitude":15.8497,"longitude":74.4977,"temp":25.6,"humidity":72,"rain":0.0,"pressure":926.4,"uv_index":8.15,"wind_gusts":58.7,"aqi":21,"pm10":11.5,"pm2_5":6.2,"no2":1.4,"co":99.0,"o3":57.0,"so2":1.8,"mosquito_risk":7,"arthritis_risk":5,"migraine_risk":7,"frizz_risk":1,"updated_at":"2026-07-21T12:00:24.395226+05:30"},{"city":"Coimbatore","state":"Tamil Nadu","latitude":11.0168,"longitude":76.9558,"temp":31.6,"humidity":50,"rain":0.1,"pressure":963.0,"uv_index":8.8,"wind_gusts":51.1,"aqi":35,"pm10":16.9,"pm2_5":8.6,"no2":1.4,"co":134.0,"o3":71.0,"so2":2.4,"mosquito_risk":3,"arthritis_risk":5,"migraine_risk":7,"frizz_risk":1,"updated_at":"2026-07-21T12:00:24.395260+05:30"},{"city":"Madurai","state":"Tamil Nadu","latitude":9.9252,"longitude":78.1198,"temp":36.5,"humidity":35,"rain":0.0,"pressure":993.3,"uv_index":8.45,"wind_gusts":26.3,"aqi":56,"pm10":22.8,"pm2_5":12.1,"no2":3.5,"co":142.0,"o3":88.0,"so2":4.3,"mosquito_risk":0,"arthritis_risk":5,"migraine_risk":10,"frizz_risk":1,"updated_at":"2026-07-21T12:00:24.395274+05:30"},{"city":"Trichy","state":"Tamil Nadu","latitude":10.7905,"longitude":78.7047,"temp":36.2,"humidity":39,"rain":0.0,"pressure":999.7,"uv_index":8.75,"wind_gusts":45.0,"aqi":40,"pm10":15.7,"pm2_5":8.4,"no2":2.3,"co":118.0,"o3":61.0,"so2":2.8,"mosquito_risk":0,"arthritis_risk":5,"migraine_risk":10,"frizz_risk":1,"updated_at":"2026-07-21T12:00:24.395285+05:30"},{"city":"Salem","state":"Tamil Nadu","latitude":11.6643,"longitude":78.146,"temp":31.7,"humidity":57,"rain":0.0,"pressure":978.3,"uv_index":8.15,"wind_gusts":27.7,"aqi":57,"pm10":23.3,"pm2_5":14.8,"no2":3.4,"co":185.0,"o3":104.0,"so2":9.1,"mosquito_risk":0,"arthritis_risk":5,"migraine_risk":7,"frizz_risk":1,"updated_at":"2026-07-21T12:00:24.395295+05:30"},{"city":"Tirunelveli","state":"Tamil Nadu","latitude":8.7139,"longitude":77.7567,"temp":37.5,"humidity":33,"rain":0.0,"pressure":1003.6,"uv_index":8.6,"wind_gusts":42.8,"aqi":38,"pm10":11.3,"pm2_5":6.8,"no2":1.4,"co":118.0,"o3":66.0,"so2":1.5,"mosquito_risk":0,"arthritis_risk":5,"migraine_risk":7,"frizz_risk":1,"updated_at":"2026-07-21T12:00:24.395303+05:30"},{"city":"Vellore","state":"Tamil Nadu","latitude":12.9165,"longitude":79.1325,"temp":34.4,"humidity":45,"rain":0.0,"pressure":984.4,"uv_index":8.0,"wind_gusts":34.9,"aqi":59,"pm10":19.5,"pm2_5":11.2,"no2":2.4,"co":137.0,"o3":82.0,"so2":3.7,"mosquito_risk":0,"arthritis_risk":5,"migraine_risk":7,"frizz_risk":1,"updated_at":"2026-07-21T12:00:24.395313+05:30"},{"city":"Erode","state":"Tamil Nadu","latitude":11.341,"longitude":77.7172,"temp":34.8,"humidity":41,"rain":0.0,"pressure":989.6,"uv_index":8.55,"wind_gusts":36.4,"aqi":51,"pm10":20.0,"pm2_5":11.9,"no2":2.5,"co":158.0,"o3":86.0,"so2":3.1,"mosquito_risk":0,"arthritis_risk":5,"migraine_risk":7,"frizz_risk":1,"updated_at":"2026-07-21T12:00:24.395321+05:30"},{"city":"Kochi","state":"Kerala","latitude":9.9312,"longitude":76.2673,"temp":29.1,"humidity":78,"rain":0.0,"pressure":1011.1,"uv_index":8.65,"wind_gusts":30.6,"aqi":56,"pm10":11.7,"pm2_5":7.9,"no2":4.0,"co":152.0,"o3":54.0,"so2":4.0,"mosquito_risk":7,"arthritis_risk":0,"migraine_risk":4,"frizz_risk":1,"updated_at":"2026-07-21T12:00:24.395330+05:30"},{"city":"Thiruvananthapuram","state":"Kerala","latitude":8.5241,"longitude":76.9366,"temp":29.8,"humidity":70,"rain":0.0,"pressure":1010.2,"uv_index":7.9,"wind_gusts":37.4,"aqi":52,"pm10":18.6,"pm2_5":13.7,"no2":4.3,"co":133.0,"o3":79.0,"so2":3.5,"mosquito_risk":7,"arthritis_risk":0,"migraine_risk":4,"frizz_risk":1,"updated_at":"2026-07-21T12:00:24.395338+05:30"},{"city":"Kozhikode","state":"Kerala","latitude":11.2588,"longitude":75.7804,"temp":28.7,"humidity":76,"rain":0.0,"pressure":1010.4,"uv_index":8.2,"wind_gusts":31.0,"aqi":34,"pm10":9.0,"pm2_5":5.0,"no2":0.8,"co":138.0,"o3":53.0,"so2":1.7,"mosquito_risk":7,"arthritis_risk":0,"migraine_risk":4,"frizz_risk":1,"updated_at":"2026-07-21T12:00:24.395347+05:30"},{"city":"Thrissur","state":"Kerala","latitude":10.5276,"longitude":76.2144,"temp":30.1,"humidity":73,"rain":0.0,"pressure":1009.4,"uv_index":8.3,"wind_gusts":33.5,"aqi":52,"pm10":11.4,"pm2_5":7.6,"no2":1.8,"co":138.0,"o3":61.0,"so2":2.4,"mosquito_risk":3,"arthritis_risk":0,"migraine_risk":4,"frizz_risk":1,"updated_at":"2026-07-21T12:00:24.395356+05:30"},{"city":"Kannur","state":"Kerala","latitude":11.8745,"longitude":75.3704,"temp":28.2,"humidity":77,"rain":0.0,"pressure":1009.8,"uv_index":8.05,"wind_gusts":34.2,"aqi":42,"pm10":13.6,"pm2_5":7.8,"no2":1.6,"co":130.0,"o3":58.0,"so2":2.1,"mosquito_risk":7,"arthritis_risk":0,"migraine_risk":4,"frizz_risk":1,"updated_at":"2026-07-21T12:00:24.395365+05:30"},{"city":"Patna","state":"Bihar","latitude":25.5941,"longitude":85.1376,"temp":31.1,"humidity":71,"rain":0.0,"pressure":996.8,"uv_index":8.1,"wind_gusts":42.1,"aqi":72,"pm10":14.8,"pm2_5":14.1,"no2":6.2,"co":236.0,"o3":100.0,"so2":11.7,"mosquito_risk":3,"arthritis_risk":5,"migraine_risk":7,"frizz_risk":1,"updated_at":"2026-07-21T12:00:24.395373+05:30"},{"city":"Gaya","state":"Bihar","latitude":24.7914,"longitude":85.0002,"temp":29.5,"humidity":74,"rain":0.0,"pressure":989.9,"uv_index":8.25,"wind_gusts":33.5,"aqi":70,"pm10":10.1,"pm2_5":9.3,"no2":3.4,"co":419.0,"o3":99.0,"so2":8.2,"mosquito_risk":7,"arthritis_risk":5,"migraine_risk":7,"frizz_risk":1,"updated_at":"2026-07-21T12:00:24.395381+05:30"},{"city":"Muzaffarpur","state":"Bihar","latitude":26.1209,"longitude":85.3647,"temp":30.7,"humidity":72,"rain":0.0,"pressure":997.2,"uv_index":8.75,"wind_gusts":45.0,"aqi":70,"pm10":16.1,"pm2_5":15.6,"no2":3.4,"co":234.0,"o3":120.0,"so2":7.5,"mosquito_risk":3,"arthritis_risk":5,"migraine_risk":7,"frizz_risk":1,"updated_at":"2026-07-21T12:00:24.395389+05:30"},{"city":"Bhagalpur","state":"Bihar","latitude":25.2425,"longitude":87.0117,"temp":27.9,"humidity":84,"rain":0.1,"pressure":998.3,"uv_index":7.4,"wind_gusts":37.4,"aqi":61,"pm10":9.3,"pm2_5":9.2,"no2":8.1,"co":222.0,"o3":71.0,"so2":8.6,"mosquito_risk":10,"arthritis_risk":5,"migraine_risk":7,"frizz_risk":1,"updated_at":"2026-07-21T12:00:24.395398+05:30"},{"city":"Ranchi","state":"Jharkhand","latitude":23.3441,"longitude":85.3096,"temp":24.1,"humidity":94,"rain":0.1,"pressure":933.7,"uv_index":7.6,"wind_gusts":31.7,"aqi":68,"pm10":7.7,"pm2_5":7.3,"no2":10.9,"co":289.0,"o3":79.0,"so2":18.2,"mosquito_risk":6,"arthritis_risk":5,"migraine_risk":7,"frizz_risk":1,"updated_at":"2026-07-21T12:00:24.395408+05:30"},{"city":"Jamshedpur","state":"Jharkhand","latitude":22.8046,"longitude":86.2029,"temp":25.7,"humidity":93,"rain":0.4,"pressure":986.8,"uv_index":7.8,"wind_gusts":27.0,"aqi":76,"pm10":8.1,"pm2_5":7.8,"no2":4.1,"co":262.0,"o3":99.0,"so2":11.1,"mosquito_risk":10,"arthritis_risk":5,"migraine_risk":7,"frizz_risk":1,"updated_at":"2026-07-21T12:00:24.395416+05:30"},{"city":"Dhanbad","state":"Jharkhand","latitude":23.7957,"longitude":86.4304,"temp":28.8,"humidity":77,"rain":0.0,"pressure":976.1,"uv_index":5.8,"wind_gusts":35.3,"aqi":113,"pm10":20.3,"pm2_5":19.8,"no2":22.7,"co":420.0,"o3":65.0,"so2":68.1,"mosquito_risk":7,"arthritis_risk":5,"migraine_risk":3,"frizz_risk":1,"updated_at":"2026-07-21T12:00:24.395425+05:30"},{"city":"Bokaro","state":"Jharkhand","latitude":23.6693,"longitude":86.1511,"temp":28.6,"humidity":78,"rain":0.0,"pressure":979.9,"uv_index":6.15,"wind_gusts":38.9,"aqi":116,"pm10":19.7,"pm2_5":19.2,"no2":24.9,"co":336.0,"o3":60.0,"so2":74.6,"mosquito_risk":7,"arthritis_risk":5,"migraine_risk":7,"frizz_risk":1,"updated_at":"2026-07-21T12:00:24.395433+05:30"},{"city":"Bhubaneswar","state":"Odisha","latitude":20.2961,"longitude":85.8245,"temp":28.8,"humidity":85,"rain":0.1,"pressure":998.2,"uv_index":8.25,"wind_gusts":32.8,"aqi":83,"pm10":18.7,"pm2_5":16.4,"no2":3.1,"co":202.0,"o3":136.0,"so2":9.8,"mosquito_risk":10,"arthritis_risk":5,"migraine_risk":7,"frizz_risk":1,"updated_at":"2026-07-21T12:00:24.395441+05:30"},{"city":"Cuttack","state":"Odisha","latitude":20.4625,"longitude":85.8828,"temp":28.5,"humidity":82,"rain":0.0,"pressure":1000.0,"uv_index":8.55,"wind_gusts":31.3,"aqi":83,"pm10":18.7,"pm2_5":16.4,"no2":3.1,"co":216.0,"o3":136.0,"so2":9.8,"mosquito_risk":7,"arthritis_risk":5,"migraine_risk":4,"frizz_risk":1,"updated_at":"2026-07-21T12:00:24.395449+05:30"},{"city":"Rourkela","state":"Odisha","latitude":22.2604,"longitude":84.8536,"temp":25.8,"humidity":94,"rain":0.5,"pressure":980.9,"uv_index":1.1,"wind_gusts":19.1,"aqi":98,"pm10":8.8,"pm2_5":8.3,"no2":10.6,"co":274.0,"o3":83.0,"so2":16.0,"mosquito_risk":10,"arthritis_risk":5,"migraine_risk":3,"frizz_risk":1,"updated_at":"2026-07-21T12:00:24.395457+05:30"},{"city":"Raipur","state":"Chhattisgarh","latitude":21.2514,"longitude":81.6296,"temp":26.2,"humidity":93,"rain":0.0,"pressure":970.5,"uv_index":1.55,"wind_gusts":34.6,"aqi":84,"pm10":20.4,"pm2_5":19.3,"no2":24.0,"co":287.0,"o3":41.0,"so2":55.0,"mosquito_risk":7,"arthritis_risk":5,"migraine_risk":3,"frizz_risk":1,"updated_at":"2026-07-21T12:00:24.395465+05:30"},{"city":"Bhilai","state":"Chhattisgarh","latitude":21.1938,"longitude":81.3509,"temp":26.7,"humidity":91,"rain":0.0,"pressure":971.0,"uv_index":1.75,"wind_gusts":35.6,"aqi":77,"pm10":16.3,"pm2_5":15.1,"no2":17.9,"co":660.0,"o3":50.0,"so2":45.4,"mosquito_risk":7,"arthritis_risk":5,"migraine_risk":3,"frizz_risk":1,"updated_at":"2026-07-21T12:00:24.395473+05:30"},{"city":"Guwahati","state":"Assam","latitude":26.1158,"longitude":91.7086,"temp":30.7,"humidity":72,"rain":0.0,"pressure":999.0,"uv_index":7.25,"wind_gusts":25.2,"aqi":44,"pm10":7.6,"pm2_5":7.4,"no2":1.8,"co":264.0,"o3":85.0,"so2":2.2,"mosquito_risk":3,"arthritis_risk":5,"migraine_risk":7,"frizz_risk":1,"updated_at":"2026-07-21T12:00:24.395481+05:30"},{"city":"Agartala","state":"Tripura","latitude":23.8315,"longitude":91.2868,"temp":30.9,"humidity":70,"rain":0.1,"pressure":1003.0,"uv_index":7.5,"wind_gusts":29.9,"aqi":51,"pm10":9.5,"pm2_5":8.8,"no2":3.3,"co":149.0,"o3":88.0,"so2":1.7,"mosquito_risk":6,"arthritis_risk":5,"migraine_risk":4,"frizz_risk":1,"updated_at":"2026-07-21T12:00:24.395490+05:30"},{"city":"Shillong","state":"Meghalaya","latitude":25.5788,"longitude":91.8933,"temp":22.9,"humidity":77,"rain":0.0,"pressure":857.3,"uv_index":6.95,"wind_gusts":19.4,"aqi":23,"pm10":3.0,"pm2_5":2.9,"no2":2.4,"co":203.0,"o3":66.0,"so2":1.5,"mosquito_risk":3,"arthritis_risk":5,"migraine_risk":7,"frizz_risk":1,"updated_at":"2026-07-21T12:00:24.395499+05:30"},{"city":"Imphal","state":"Manipur","latitude":24.817,"longitude":93.9368,"temp":28.0,"humidity":73,"rain":0.0,"pressure":921.8,"uv_index":8.8,"wind_gusts":20.5,"aqi":57,"pm10":4.6,"pm2_5":4.1,"no2":1.2,"co":175.0,"o3":74.0,"so2":0.9,"mosquito_risk":7,"arthritis_risk":5,"migraine_risk":7,"frizz_risk":1,"updated_at":"2026-07-21T12:00:24.395507+05:30"},{"city":"Aizawl","state":"Mizoram","latitude":23.7271,"longitude":92.7176,"temp":25.4,"humidity":70,"rain":0.0,"pressure":891.4,"uv_index":7.85,"wind_gusts":21.6,"aqi":25,"pm10":4.2,"pm2_5":3.6,"no2":0.7,"co":121.0,"o3":81.0,"so2":0.6,"mosquito_risk":7,"arthritis_risk":5,"migraine_risk":7,"frizz_risk":1,"updated_at":"2026-07-21T12:00:24.395515+05:30"},{"city":"Kohima","state":"Nagaland","latitude":25.6701,"longitude":94.1077,"temp":24.2,"humidity":77,"rain":0.1,"pressure":855.4,"uv_index":8.6,"wind_gusts":22.3,"aqi":24,"pm10":3.9,"pm2_5":3.6,"no2":0.8,"co":144.0,"o3":75.0,"so2":0.4,"mosquito_risk":6,"arthritis_risk":5,"migraine_risk":7,"frizz_risk":1,"updated_at":"2026-07-21T12:00:24.395523+05:30"},{"city":"Gangtok","state":"Sikkim","latitude":27.3314,"longitude":88.6138,"temp":19.3,"humidity":95,"rain":0.1,"pressure":838.2,"uv_index":6.8,"wind_gusts":25.6,"aqi":31,"pm10":1.6,"pm2_5":1.6,"no2":2.0,"co":188.0,"o3":75.0,"so2":0.8,"mosquito_risk":6,"arthritis_risk":10,"migraine_risk":7,"frizz_risk":1,"updated_at":"2026-07-21T12:00:24.395532+05:30"},{"city":"Siliguri","state":"West Bengal","latitude":26.7271,"longitude":88.3953,"temp":29.0,"humidity":77,"rain":0.0,"pressure":991.7,"uv_index":6.9,"wind_gusts":32.8,"aqi":48,"pm10":4.2,"pm2_5":4.1,"no2":1.9,"co":210.0,"o3":84.0,"so2":1.4,"mosquito_risk":7,"arthritis_risk":5,"migraine_risk":7,"frizz_risk":1,"updated_at":"2026-07-21T12:00:27.656390+05:30"},{"city":"Durgapur","state":"West Bengal","latitude":23.5204,"longitude":87.3119,"temp":26.9,"humidity":89,"rain":0.1,"pressure":991.1,"uv_index":6.35,"wind_gusts":32.0,"aqi":90,"pm10":11.3,"pm2_5":11.1,"no2":14.5,"co":241.0,"o3":70.0,"so2":32.9,"mosquito_risk":10,"arthritis_risk":5,"migraine_risk":7,"frizz_risk":1,"updated_at":"2026-07-21T12:00:27.656424+05:30"},{"city":"Asansol","state":"West Bengal","latitude":23.6739,"longitude":86.9524,"temp":28.5,"humidity":80,"rain":0.0,"pressure":989.5,"uv_index":7.95,"wind_gusts":37.4,"aqi":91,"pm10":11.8,"pm2_5":11.6,"no2":15.9,"co":232.0,"o3":73.0,"so2":37.9,"mosquito_risk":7,"arthritis_risk":5,"migraine_risk":7,"frizz_risk":1,"updated_at":"2026-07-21T12:00:27.656436+05:30"},{"city":"Pondicherry","state":"Puducherry","latitude":11.9139,"longitude":79.8145,"temp":33.6,"humidity":50,"rain":0.0,"pressure":1008.2,"uv_index":8.2,"wind_gusts":36.0,"aqi":84,"pm10":31.9,"pm2_5":23.8,"no2":8.4,"co":255.0,"o3":106.0,"so2":8.0,"mosquito_risk":0,"arthritis_risk":0,"migraine_risk":4,"frizz_risk":1,"updated_at":"2026-07-21T12:00:27.656446+05:30"},{"city":"Port Blair","state":"Andaman and Nicobar Islands","latitude":11.6234,"longitude":92.7265,"temp":30.5,"humidity":72,"rain":0.1,"pressure":1007.4,"uv_index":8.55,"wind_gusts":43.2,"aqi":59,"pm10":18.0,"pm2_5":10.7,"no2":0.2,"co":92.0,"o3":50.0,"so2":0.6,"mosquito_risk":6,"arthritis_risk":5,"migraine_risk":4,"frizz_risk":1,"updated_at":"2026-07-21T12:00:27.656456+05:30"},{"city":"Haridwar","state":"Uttarakhand","latitude":29.9457,"longitude":78.1642,"temp":30.1,"humidity":72,"rain":0.1,"pressure":970.9,"uv_index":6.65,"wind_gusts":35.3,"aqi":81,"pm10":8.6,"pm2_5":8.5,"no2":1.8,"co":285.0,"o3":117.0,"so2":3.3,"mosquito_risk":6,"arthritis_risk":5,"migraine_risk":7,"frizz_risk":1,"updated_at":"2026-07-21T12:00:27.656465+05:30"},{"city":"Rishikesh","state":"Uttarakhand","latitude":30.0869,"longitude":78.2676,"temp":28.9,"humidity":82,"rain":0.0,"pressure":963.8,"uv_index":4.6,"wind_gusts":17.6,"aqi":57,"pm10":6.1,"pm2_5":6.1,"no2":1.3,"co":266.0,"o3":110.0,"so2":2.1,"mosquito_risk":7,"arthritis_risk":5,"migraine_risk":3,"frizz_risk":1,"updated_at":"2026-07-21T12:00:27.656474+05:30"},{"city":"Nainital","state":"Uttarakhand","latitude":29.3919,"longitude":79.4542,"temp":21.5,"humidity":71,"rain":0.1,"pressure":806.2,"uv_index":5.45,"wind_gusts":37.8,"aqi":43,"pm10":5.3,"pm2_5":5.2,"no2":1.0,"co":202.0,"o3":92.0,"so2":1.2,"mosquito_risk":6,"arthritis_risk":5,"migraine_risk":3,"frizz_risk":1,"updated_at":"2026-07-21T12:00:27.656482+05:30"},{"city":"Mussoorie","state":"Uttarakhand","latitude":30.4599,"longitude":78.0664,"temp":22.4,"humidity":73,"rain":0.1,"pressure":804.0,"uv_index":3.45,"wind_gusts":31.7,"aqi":55,"pm10":5.7,"pm2_5":5.5,"no2":2.4,"co":254.0,"o3":116.0,"so2":2.6,"mosquito_risk":6,"arthritis_risk":5,"migraine_risk":3,"frizz_risk":1,"updated_at":"2026-07-21T12:00:27.656490+05:30"},{"city":"Dharamshala","state":"Himachal Pradesh","latitude":32.219,"longitude":76.3234,"temp":21.7,"humidity":96,"rain":0.4,"pressure":868.2,"uv_index":1.95,"wind_gusts":25.6,"aqi":35,"pm10":1.8,"pm2_5":1.5,"no2":4.4,"co":251.0,"o3":81.0,"so2":0.9,"mosquito_risk":6,"arthritis_risk":5,"migraine_risk":3,"frizz_risk":1,"updated_at":"2026-07-21T12:00:27.656498+05:30"},{"city":"Dalhousie","state":"Himachal Pradesh","latitude":32.5387,"longitude":75.971,"temp":18.2,"humidity":98,"rain":0.0,"pressure":804.3,"uv_index":1.95,"wind_gusts":24.5,"aqi":75,"pm10":7.0,"pm2_5":4.6,"no2":6.1,"co":338.0,"o3":101.0,"so2":4.1,"mosquito_risk":3,"arthritis_risk":10,"migraine_risk":3,"frizz_risk":1,"updated_at":"2026-07-21T12:00:27.656507+05:30"},{"city":"Patiala","state":"Punjab","latitude":30.3398,"longitude":76.3869,"temp":27.2,"humidity":89,"rain":0.0,"pressure":974.6,"uv_index":4.95,"wind_gusts":32.8,"aqi":87,"pm10":18.8,"pm2_5":18.5,"no2":10.7,"co":374.0,"o3":80.0,"so2":5.8,"mosquito_risk":7,"arthritis_risk":5,"migraine_risk":3,"frizz_risk":1,"updated_at":"2026-07-21T12:00:27.656515+05:30"},{"city":"Bhatinda","state":"Punjab","latitude":30.211,"longitude":74.9455,"temp":32.3,"humidity":62,"rain":0.0,"pressure":979.3,"uv_index":8.05,"wind_gusts":40.0,"aqi":185,"pm10":126.7,"pm2_5":41.6,"no2":3.2,"co":211.0,"o3":124.0,"so2":8.0,"mosquito_risk":3,"arthritis_risk":5,"migraine_risk":7,"frizz_risk":1,"updated_at":"2026-07-21T12:00:27.656524+05:30"},{"city":"Rohtak","state":"Haryana","latitude":28.8955,"longitude":76.6066,"temp":28.6,"humidity":80,"rain":0.1,"pressure":977.2,"uv_index":1.85,"wind_gusts":27.7,"aqi":124,"pm10":14.5,"pm2_5":14.2,"no2":13.2,"co":330.0,"o3":113.0,"so2":23.5,"mosquito_risk":10,"arthritis_risk":5,"migraine_risk":3,"frizz_risk":1,"updated_at":"2026-07-21T12:00:27.656531+05:30"},{"city":"Panipat","state":"Haryana","latitude":29.3909,"longitude":76.9635,"temp":29.8,"humidity":75,"rain":0.0,"pressure":976.3,"uv_index":1.3,"wind_gusts":35.6,"aqi":132,"pm10":14.6,"pm2_5":14.1,"no2":8.1,"co":306.0,"o3":120.0,"so2":16.4,"mosquito_risk":7,"arthritis_risk":5,"migraine_risk":3,"frizz_risk":1,"updated_at":"2026-07-21T12:00:27.656539+05:30"},{"city":"Mathura","state":"Uttar Pradesh","latitude":27.4924,"longitude":77.6737,"temp":29.7,"humidity":72,"rain":0.1,"pressure":982.3,"uv_index":6.65,"wind_gusts":30.2,"aqi":80,"pm10":19.2,"pm2_5":13.0,"no2":8.2,"co":335.0,"o3":83.0,"so2":3.8,"mosquito_risk":10,"arthritis_risk":5,"migraine_risk":7,"frizz_risk":1,"updated_at":"2026-07-21T12:00:27.656547+05:30"},{"city":"Vrindavan","state":"Uttar Pradesh","latitude":27.5823,"longitude":77.7027,"temp":29.8,"humidity":73,"rain":0.1,"pressure":982.7,"uv_index":6.75,"wind_gusts":29.5,"aqi":80,"pm10":19.2,"pm2_5":13.0,"no2":8.2,"co":324.0,"o3":83.0,"so2":3.8,"mosquito_risk":10,"arthritis_risk":5,"migraine_risk":7,"frizz_risk":1,"updated_at":"2026-07-21T12:00:27.656554+05:30"},{"city":"Ayodhya","state":"Uttar Pradesh","latitude":26.7922,"longitude":82.1998,"temp":29.7,"humidity":76,"rain":0.1,"pressure":991.6,"uv_index":7.15,"wind_gusts":38.5,"aqi":65,"pm10":17.8,"pm2_5":17.3,"no2":3.1,"co":309.0,"o3":124.0,"so2":9.5,"mosquito_risk":10,"arthritis_risk":5,"migraine_risk":7,"frizz_risk":1,"updated_at":"2026-07-21T12:00:27.656562+05:30"},{"city":"Ratlam","state":"Madhya Pradesh","latitude":23.3315,"longitude":75.0367,"temp":25.3,"humidity":92,"rain":0.0,"pressure":950.5,"uv_index":1.1,"wind_gusts":32.0,"aqi":51,"pm10":18.6,"pm2_5":11.2,"no2":4.7,"co":131.0,"o3":49.0,"so2":6.3,"mosquito_risk":7,"arthritis_risk":5,"migraine_risk":3,"frizz_risk":1,"updated_at":"2026-07-21T12:00:27.656570+05:30"},{"city":"Sagar","state":"Madhya Pradesh","latitude":23.8388,"longitude":78.7378,"temp":27.3,"humidity":80,"rain":0.0,"pressure":945.7,"uv_index":1.0,"wind_gusts":18.4,"aqi":51,"pm10":8.0,"pm2_5":6.4,"no2":3.5,"co":162.0,"o3":76.0,"so2":2.7,"mosquito_risk":7,"arthritis_risk":5,"migraine_risk":3,"frizz_risk":1,"updated_at":"2026-07-21T12:00:27.656578+05:30"},{"city":"Satna","state":"Madhya Pradesh","latitude":24.6005,"longitude":80.8322,"temp":25.7,"humidity":92,"rain":0.1,"pressure":967.0,"uv_index":5.75,"wind_gusts":19.8,"aqi":55,"pm10":10.0,"pm2_5":9.0,"no2":4.6,"co":200.0,"o3":91.0,"so2":4.0,"mosquito_risk":10,"arthritis_risk":5,"migraine_risk":3,"frizz_risk":1,"updated_at":"2026-07-21T12:00:27.656586+05:30"},{"city":"Akola","state":"Maharashtra","latitude":20.7002,"longitude":77.0082,"temp":26.0,"humidity":93,"rain":0.2,"pressure":971.9,"uv_index":1.5,"wind_gusts":40.0,"aqi":36,"pm10":10.2,"pm2_5":6.0,"no2":3.6,"co":116.0,"o3":58.0,"so2":7.4,"mosquito_risk":10,"arthritis_risk":5,"migraine_risk":3,"frizz_risk":1,"updated_at":"2026-07-21T12:00:27.656596+05:30"},{"city":"Amravati","state":"Maharashtra","latitude":20.9374,"longitude":77.7796,"temp":28.5,"humidity":73,"rain":0.0,"pressure":963.7,"uv_index":1.2,"wind_gusts":52.6,"aqi":39,"pm10":12.5,"pm2_5":7.0,"no2":3.4,"co":133.0,"o3":61.0,"so2":8.2,"mosquito_risk":7,"arthritis_risk":5,"migraine_risk":3,"frizz_risk":1,"updated_at":"2026-07-21T12:00:27.656605+05:30"},{"city":"Latur","state":"Maharashtra","latitude":18.4088,"longitude":76.5604,"temp":28.4,"humidity":61,"rain":0.0,"pressure":938.4,"uv_index":3.8,"wind_gusts":52.2,"aqi":31,"pm10":8.2,"pm2_5":4.8,"no2":1.6,"co":116.0,"o3":56.0,"so2":1.9,"mosquito_risk":7,"arthritis_risk":5,"migraine_risk":3,"frizz_risk":1,"updated_at":"2026-07-21T12:00:27.656613+05:30"},{"city":"Nanded","state":"Maharashtra","latitude":19.1383,"longitude":77.3091,"temp":27.0,"humidity":75,"rain":0.0,"pressure":966.7,"uv_index":1.35,"wind_gusts":43.6,"aqi":37,"pm10":10.1,"pm2_5":7.2,"no2":3.2,"co":122.0,"o3":56.0,"so2":3.6,"mosquito_risk":7,"arthritis_risk":5,"migraine_risk":3,"frizz_risk":1,"updated_at":"2026-07-21T12:00:27.656620+05:30"},{"city":"Gulbarga","state":"Karnataka","latitude":17.3297,"longitude":76.8343,"temp":30.4,"humidity":57,"rain":0.0,"pressure":957.9,"uv_index":3.5,"wind_gusts":55.1,"aqi":31,"pm10":21.1,"pm2_5":9.2,"no2":1.4,"co":121.0,"o3":68.0,"so2":2.1,"mosquito_risk":0,"arthritis_risk":5,"migraine_risk":3,"frizz_risk":1,"updated_at":"2026-07-21T12:00:27.656628+05:30"},{"city":"Bidar","state":"Karnataka","latitude":17.9104,"longitude":77.5199,"temp":28.3,"humidity":60,"rain":0.0,"pressure":934.4,"uv_index":4.3,"wind_gusts":50.8,"aqi":32,"pm10":13.9,"pm2_5":7.3,"no2":1.8,"co":125.0,"o3":62.0,"so2":1.6,"mosquito_risk":4,"arthritis_risk":5,"migraine_risk":3,"frizz_risk":1,"updated_at":"2026-07-21T12:00:27.656636+05:30"},{"city":"Hospet","state":"Karnataka","latitude":15.2689,"longitude":76.3909,"temp":29.3,"humidity":58,"rain":0.0,"pressure":956.3,"uv_index":4.7,"wind_gusts":50.8,"aqi":22,"pm10":6.7,"pm2_5":3.5,"no2":1.7,"co":107.0,"o3":59.0,"so2":1.9,"mosquito_risk":4,"arthritis_risk":5,"migraine_risk":3,"frizz_risk":1,"updated_at":"2026-07-21T12:00:27.656643+05:30"},{"city":"Tirupur","state":"Tamil Nadu","latitude":11.1085,"longitude":77.3411,"temp":33.8,"humidity":44,"rain":0.0,"pressure":976.2,"uv_index":8.8,"wind_gusts":51.1,"aqi":53,"pm10":20.0,"pm2_5":12.4,"no2":2.4,"co":160.0,"o3":93.0,"so2":3.8,"mosquito_risk":0,"arthritis_risk":5,"migraine_risk":7,"frizz_risk":1,"updated_at":"2026-07-21T12:00:27.656650+05:30"},{"city":"Alappuzha","state":"Kerala","latitude":9.4981,"longitude":76.3388,"temp":29.3,"humidity":75,"rain":0.0,"pressure":1011.0,"uv_index":8.6,"wind_gusts":31.0,"aqi":53,"pm10":13.6,"pm2_5":9.9,"no2":5.5,"co":96.0,"o3":56.0,"so2":5.4,"mosquito_risk":7,"arthritis_risk":0,"migraine_risk":4,"frizz_risk":1,"updated_at":"2026-07-21T12:00:27.656658+05:30"},{"city":"Munnar","state":"Kerala","latitude":10.0889,"longitude":77.0595,"temp":22.1,"humidity":70,"rain":0.0,"pressure":860.1,"uv_index":9.05,"wind_gusts":33.5,"aqi":32,"pm10":11.9,"pm2_5":5.8,"no2":1.2,"co":95.0,"o3":51.0,"so2":1.0,"mosquito_risk":3,"arthritis_risk":5,"migraine_risk":7,"frizz_risk":1,"updated_at":"2026-07-21T12:00:27.656666+05:30"},{"city":"Silchar","state":"Assam","latitude":24.8333,"longitude":92.7789,"temp":32.7,"humidity":62,"rain":0.0,"pressure":1001.7,"uv_index":8.1,"wind_gusts":22.0,"aqi":65,"pm10":7.9,"pm2_5":7.1,"no2":1.6,"co":154.0,"o3":78.0,"so2":2.8,"mosquito_risk":3,"arthritis_risk":5,"migraine_risk":4,"frizz_risk":1,"updated_at":"2026-07-21T12:00:27.656673+05:30"},{"city":"Dibrugarh","state":"Assam","latitude":27.4728,"longitude":94.912,"temp":32.9,"humidity":66,"rain":0.0,"pressure":991.2,"uv_index":8.6,"wind_gusts":22.0,"aqi":74,"pm10":13.5,"pm2_5":12.7,"no2":1.2,"co":156.0,"o3":123.0,"so2":1.6,"mosquito_risk":3,"arthritis_risk":5,"migraine_risk":7,"frizz_risk":1,"updated_at":"2026-07-21T12:00:27.656681+05:30"}]