[{"city":"Delhi","state":"Delhi","latitude":28.6139,"longitude":77.209,"temp":31.1,"humidity":71,"rain":0.0,"pressure":976.4,"uv_index":6.2,"wind_gusts":33.8,"aqi":458,"pm10":637.0,"pm2_5":195.6,"no2":65.9,"co":345.0,"o3":2.0,"so2":24.7,"mosquito_risk":3,"arthritis_risk":5,"migraine_risk":7,"frizz_risk":1,"updated_at":"2026-07-17T02:32:41.988535+05:30"},{"city":"Mumbai","state":"Maharashtra","latitude":19.076,"longitude":72.8777,"temp":26.1,"humidity":93,"rain":0.2,"pressure":1006.5,"uv_index":7.65,"wind_gusts":40.0,"aqi":68,"pm10":23.2,"pm2_5":11.1,"no2":7.5,"co":157.0,"o3":43.0,"so2":6.7,"mosquito_risk":10,"arthritis_risk":5,"migraine_risk":4,"frizz_risk":1,"updated_at":"2026-07-17T02:32:41.988584+05:30"},{"city":"Bangalore","state":"Karnataka","latitude":12.9716,"longitude":77.5946,"temp":21.7,"humidity":82,"rain":0.0,"pressure":911.5,"uv_index":8.45,"wind_gusts":50.8,"aqi":66,"pm10":11.2,"pm2_5":7.3,"no2":8.6,"co":163.0,"o3":39.0,"so2":4.0,"mosquito_risk":3,"arthritis_risk":5,"migraine_risk":7,"frizz_risk":1,"updated_at":"2026-07-17T02:32:41.988600+05:30"},{"city":"Hyderabad","state":"Telangana","latitude":17.385,"longitude":78.4867,"temp":26.6,"humidity":67,"rain":0.0,"pressure":951.0,"uv_index":1.7,"wind_gusts":42.5,"aqi":65,"pm10":27.4,"pm2_5":15.5,"no2":8.9,"co":186.0,"o3":47.0,"so2":5.3,"mosquito_risk":7,"arthritis_risk":5,"migraine_risk":3,"frizz_risk":1,"updated_at":"2026-07-17T02:32:41.988611+05:30"},{"city":"Chennai","state":"Tamil Nadu","latitude":13.0827,"longitude":80.2707,"temp":30.0,"humidity":67,"rain":0.0,"pressure":1004.8,"uv_index":8.3,"wind_gusts":41.8,"aqi":79,"pm10":28.4,"pm2_5":21.6,"no2":14.3,"co":228.0,"o3":60.0,"so2":10.6,"mosquito_risk":7,"arthritis_risk":5,"migraine_risk":4,"frizz_risk":1,"updated_at":"2026-07-17T02:32:41.988621+05:30"},{"city":"Kolkata","state":"West Bengal","latitude":22.5726,"longitude":88.3639,"temp":27.3,"humidity":89,"rain":0.0,"pressure":997.5,"uv_index":7.2,"wind_gusts":37.8,"aqi":62,"pm10":24.1,"pm2_5":20.0,"no2":9.4,"co":406.0,"o3":79.0,"so2":7.7,"mosquito_risk":7,"arthritis_risk":5,"migraine_risk":7,"frizz_risk":1,"updated_at":"2026-07-17T02:32:41.988630+05:30"},{"city":"Pune","state":"Maharashtra","latitude":18.5204,"longitude":73.8567,"temp":23.6,"humidity":89,"rain":0.0,"pressure":946.2,"uv_index":7.6,"wind_gusts":48.2,"aqi":47,"pm10":5.7,"pm2_5":4.4,"no2":8.5,"co":148.0,"o3":32.0,"so2":7.1,"mosquito_risk":3,"arthritis_risk":5,"migraine_risk":7,"frizz_risk":1,"updated_at":"2026-07-17T02:32:41.988649+05:30"},{"city":"Ahmedabad","state":"Gujarat","latitude":23.0225,"longitude":72.5714,"temp":28.7,"humidity":75,"rain":0.0,"pressure":998.3,"uv_index":5.9,"wind_gusts":37.4,"aqi":79,"pm10":25.0,"pm2_5":16.3,"no2":11.6,"co":177.0,"o3":35.0,"so2":4.3,"mosquito_risk":7,"arthritis_risk":5,"migraine_risk":3,"frizz_risk":1,"updated_at":"2026-07-17T02:32:41.988659+05:30"},{"city":"Jaipur","state":"Rajasthan","latitude":26.9124,"longitude":75.7873,"temp":30.2,"humidity":55,"rain":0.0,"pressure":954.8,"uv_index":8.05,"wind_gusts":40.0,"aqi":285,"pm10":674.3,"pm2_5":120.6,"no2":8.9,"co":196.0,"o3":55.0,"so2":4.3,"mosquito_risk":0,"arthritis_risk":5,"migraine_risk":7,"frizz_risk":1,"updated_at":"2026-07-17T02:32:41.988667+05:30"},{"city":"Lucknow","state":"Uttar Pradesh","latitude":26.8467,"longitude":80.9462,"temp":28.9,"humidity":91,"rain":0.0,"pressure":987.3,"uv_index":6.65,"wind_gusts":28.4,"aqi":159,"pm10":64.0,"pm2_5":46.7,"no2":14.3,"co":494.0,"o3":77.0,"so2":7.5,"mosquito_risk":7,"arthritis_risk":5,"migraine_risk":7,"frizz_risk":1,"updated_at":"2026-07-17T02:32:41.988675+05:30"},{"city":"Kanpur","state":"Uttar Pradesh","latitude":26.4499,"longitude":80.3319,"temp":29.4,"humidity":86,"rain":0.0,"pressure":985.2,"uv_index":8.05,"wind_gusts":20.2,"aqi":163,"pm10":87.3,"pm2_5":51.2,"no2":13.3,"co":267.0,"o3":76.0,"so2":5.8,"mosquito_risk":7,"arthritis_risk":5,"migraine_risk":7,"frizz_risk":1,"updated_at":"2026-07-17T02:32:41.988683+05:30"},{"city":"Chandigarh","state":"Chandigarh","latitude":30.7333,"longitude":76.7794,"temp":27.3,"humidity":84,"rain":0.0,"pressure":962.3,"uv_index":6.85,"wind_gusts":34.6,"aqi":154,"pm10":76.6,"pm2_5":69.6,"no2":41.0,"co":930.0,"o3":42.0,"so2":12.7,"mosquito_risk":7,"arthritis_risk":5,"migraine_risk":7,"frizz_risk":1,"updated_at":"2026-07-17T02:32:41.988691+05:30"},{"city":"Srinagar","state":"Jammu and Kashmir","latitude":34.0837,"longitude":74.7973,"temp":21.5,"humidity":83,"rain":0.0,"pressure":837.3,"uv_index":9.05,"wind_gusts":23.4,"aqi":92,"pm10":46.1,"pm2_5":43.2,"no2":34.8,"co":640.0,"o3":8.0,"so2":2.5,"mosquito_risk":3,"arthritis_risk":5,"migraine_risk":7,"frizz_risk":1,"updated_at":"2026-07-17T02:32:41.988699+05:30"},{"city":"Jammu","state":"Jammu and Kashmir","latitude":32.7266,"longitude":74.857,"temp":27.8,"humidity":88,"rain":0.2,"pressure":966.2,"uv_index":8.6,"wind_gusts":23.8,"aqi":148,"pm10":65.0,"pm2_5":57.3,"no2":41.0,"co":415.0,"o3":30.0,"so2":5.0,"mosquito_risk":10,"arthritis_risk":5,"migraine_risk":7,"frizz_risk":1,"updated_at":"2026-07-17T02:32:41.988706+05:30"},{"city":"Amritsar","state":"Punjab","latitude":31.634,"longitude":74.8723,"temp":29.0,"humidity":83,"rain":0.0,"pressure":973.9,"uv_index":8.3,"wind_gusts":22.3,"aqi":173,"pm10":157.4,"pm2_5":131.3,"no2":81.6,"co":748.0,"o3":8.0,"so2":13.0,"mosquito_risk":7,"arthritis_risk":5,"migraine_risk":7,"frizz_risk":1,"updated_at":"2026-07-17T02:32:41.988714+05:30"},{"city":"Ludhiana","state":"Punjab","latitude":30.901,"longitude":75.8573,"temp":29.5,"humidity":86,"rain":0.0,"pressure":972.0,"uv_index":7.95,"wind_gusts":30.6,"aqi":171,"pm10":163.9,"pm2_5":116.2,"no2":63.7,"co":1612.0,"o3":18.0,"so2":10.7,"mosquito_risk":7,"arthritis_risk":5,"migraine_risk":7,"frizz_risk":1,"updated_at":"2026-07-17T02:32:41.988737+05:30"},{"city":"Jalandhar","state":"Punjab","latitude":31.326,"longitude":75.5762,"temp":28.2,"humidity":90,"rain":0.0,"pressure":973.0,"uv_index":8.25,"wind_gusts":24.8,"aqi":180,"pm10":176.0,"pm2_5":142.0,"no2":89.5,"co":1468.0,"o3":1.0,"so2":11.3,"mosquito_risk":7,"arthritis_risk":5,"migraine_risk":7,"frizz_risk":1,"updated_at":"2026-07-17T02:32:41.988747+05:30"},{"city":"Dehradun","state":"Uttarakhand","latitude":30.6284,"longitude":78.0322,"temp":18.1,"humidity":100,"rain":0.0,"pressure":826.7,"uv_index":6.6,"wind_gusts":27.0,"aqi":87,"pm10":54.8,"pm2_5":43.2,"no2":24.8,"co":338.0,"o3":67.0,"so2":5.1,"mosquito_risk":3,"arthritis_risk":10,"migraine_risk":7,"frizz_risk":1,"updated_at":"2026-07-17T02:32:41.988755+05:30"},{"city":"Shimla","state":"Himachal Pradesh","latitude":31.1048,"longitude":77.1734,"temp":14.3,"humidity":99,"rain":0.0,"pressure":780.4,"uv_index":6.65,"wind_gusts":39.6,"aqi":99,"pm10":56.8,"pm2_5":42.6,"no2":12.3,"co":368.0,"o3":87.0,"so2":4.5,"mosquito_risk":3,"arthritis_risk":10,"migraine_risk":7,"frizz_risk":0,"updated_at":"2026-07-17T02:32:41.988763+05:30"},{"city":"Manali","state":"Himachal Pradesh","latitude":32.2396,"longitude":77.1887,"temp":19.4,"humidity":82,"rain":0.0,"pressure":816.6,"uv_index":5.25,"wind_gusts":32.8,"aqi":44,"pm10":15.5,"pm2_5":11.2,"no2":21.0,"co":327.0,"o3":70.0,"so2":0.0,"mosquito_risk":3,"arthritis_risk":10,"migraine_risk":3,"frizz_risk":1,"updated_at":"2026-07-17T02:32:41.988770+05:30"},{"city":"Gurgaon","state":"Haryana","latitude":28.4595,"longitude":77.0266,"temp":30.8,"humidity":60,"rain":0.0,"pressure":975.0,"uv_index":6.15,"wind_gusts":35.6,"aqi":435,"pm10":674.3,"pm2_5":168.1,"no2":34.5,"co":257.0,"o3":27.0,"so2":12.5,"mosquito_risk":0,"arthritis_risk":5,"migraine_risk":7,"frizz_risk":1,"updated_at":"2026-07-17T02:32:41.988777+05:30"},{"city":"Noida","state":"Uttar Pradesh","latitude":28.5355,"longitude":77.391,"temp":30.0,"humidity":83,"rain":0.0,"pressure":977.7,"uv_index":6.35,"wind_gusts":25.9,"aqi":435,"pm10":674.3,"pm2_5":168.1,"no2":34.5,"co":392.0,"o3":27.0,"so2":12.5,"mosquito_risk":7,"arthritis_risk":5,"migraine_risk":7,"frizz_risk":1,"updated_at":"2026-07-17T02:32:41.988784+05:30"},{"city":"Ghaziabad","state":"Uttar Pradesh","latitude":28.6692,"longitude":77.4538,"temp":28.8,"humidity":83,"rain":0.0,"pressure":975.9,"uv_index":5.8,"wind_gusts":30.2,"aqi":335,"pm10":694.8,"pm2_5":207.7,"no2":76.4,"co":756.0,"o3":0.0,"so2":29.9,"mosquito_risk":7,"arthritis_risk":5,"migraine_risk":3,"frizz_risk":1,"updated_at":"2026-07-17T02:32:41.988791+05:30"},{"city":"Faridabad","state":"Haryana","latitude":28.4089,"longitude":77.3178,"temp":30.9,"humidity":70,"rain":0.0,"pressure":977.1,"uv_index":6.35,"wind_gusts":33.5,"aqi":435,"pm10":674.3,"pm2_5":168.1,"no2":34.5,"co":268.0,"o3":27.0,"so2":12.5,"mosquito_risk":3,"arthritis_risk":5,"migraine_risk":7,"frizz_risk":1,"updated_at":"2026-07-17T02:32:41.988798+05:30"},{"city":"Meerut","state":"Uttar Pradesh","latitude":28.9845,"longitude":77.7064,"temp":29.8,"humidity":80,"rain":0.0,"pressure":974.8,"uv_index":7.6,"wind_gusts":29.9,"aqi":335,"pm10":694.8,"pm2_5":207.7,"no2":76.4,"co":1222.0,"o3":0.0,"so2":29.9,"mosquito_risk":7,"arthritis_risk":5,"migraine_risk":7,"frizz_risk":1,"updated_at":"2026-07-17T02:32:41.988805+05:30"},{"city":"Agra","state":"Uttar Pradesh","latitude":27.1767,"longitude":78.0081,"temp":31.6,"humidity":56,"rain":0.0,"pressure":981.4,"uv_index":6.8,"wind_gusts":34.9,"aqi":150,"pm10":76.4,"pm2_5":40.7,"no2":15.2,"co":200.0,"o3":53.0,"so2":5.6,"mosquito_risk":0,"arthritis_risk":5,"migraine_risk":7,"frizz_risk":1,"updated_at":"2026-07-17T02:32:41.988812+05:30"},{"city":"Varanasi","state":"Uttar Pradesh","latitude":25.3176,"longitude":82.9739,"temp":26.9,"humidity":96,"rain":0.1,"pressure":991.5,"uv_index":5.2,"wind_gusts":18.0,"aqi":172,"pm10":57.3,"pm2_5":35.9,"no2":9.8,"co":658.0,"o3":105.0,"so2":7.5,"mosquito_risk":10,"arthritis_risk":5,"migraine_risk":3,"frizz_risk":1,"updated_at":"2026-07-17T02:32:41.988824+05:30"},{"city":"Prayagraj","state":"Uttar Pradesh","latitude":25.4358,"longitude":81.8463,"temp":28.9,"humidity":92,"rain":0.0,"pressure":989.7,"uv_index":7.9,"wind_gusts":29.9,"aqi":163,"pm10":74.7,"pm2_5":45.5,"no2":12.0,"co":268.0,"o3":90.0,"so2":7.8,"mosquito_risk":7,"arthritis_risk":5,"migraine_risk":7,"frizz_risk":1,"updated_at":"2026-07-17T02:32:41.988832+05:30"},{"city":"Gorakhpur","state":"Uttar Pradesh","latitude":26.7606,"longitude":83.3732,"temp":26.9,"humidity":95,"rain":0.1,"pressure":991.8,"uv_index":7.2,"wind_gusts":28.4,"aqi":110,"pm10":24.8,"pm2_5":24.2,"no2":13.3,"co":667.0,"o3":80.0,"so2":3.9,"mosquito_risk":10,"arthritis_risk":5,"migraine_risk":7,"frizz_risk":1,"updated_at":"2026-07-17T02:32:41.988839+05:30"},{"city":"Bareilly","state":"Uttar Pradesh","latitude":28.367,"longitude":79.4304,"temp":28.3,"humidity":93,"rain":0.0,"pressure":980.6,"uv_index":6.8,"wind_gusts":28.8,"aqi":170,"pm10":79.2,"pm2_5":56.2,"no2":12.8,"co":446.0,"o3":86.0,"so2":12.1,"mosquito_risk":7,"arthritis_risk":5,"migraine_risk":7,"frizz_risk":1,"updated_at":"2026-07-17T02:32:41.988846+05:30"},{"city":"Aligarh","state":"Uttar Pradesh","latitude":27.8974,"longitude":78.088,"temp":29.8,"humidity":71,"rain":0.0,"pressure":978.8,"uv_index":7.35,"wind_gusts":27.4,"aqi":260,"pm10":504.8,"pm2_5":130.9,"no2":23.0,"co":282.0,"o3":38.0,"so2":5.8,"mosquito_risk":7,"arthritis_risk":5,"migraine_risk":7,"frizz_risk":1,"updated_at":"2026-07-17T02:32:41.988853+05:30"},{"city":"Moradabad","state":"Uttar Pradesh","latitude":28.8386,"longitude":78.7733,"temp":28.4,"humidity":92,"rain":0.0,"pressure":977.4,"uv_index":7.15,"wind_gusts":31.0,"aqi":188,"pm10":249.6,"pm2_5":129.5,"no2":49.3,"co":489.0,"o3":24.0,"so2":14.2,"mosquito_risk":7,"arthritis_risk":5,"migraine_risk":7,"frizz_risk":1,"updated_at":"2026-07-17T02:32:41.988860+05:30"},{"city":"Saharanpur","state":"Uttar Pradesh","latitude":29.9637,"longitude":77.546,"temp":28.3,"humidity":83,"rain":0.0,"pressure":969.2,"uv_index":7.3,"wind_gusts":32.8,"aqi":168,"pm10":220.7,"pm2_5":115.7,"no2":50.7,"co":714.0,"o3":39.0,"so2":17.4,"mosquito_risk":7,"arthritis_risk":5,"migraine_risk":7,"frizz_risk":1,"updated_at":"2026-07-17T02:32:41.988867+05:30"},{"city":"Jhansi","state":"Uttar Pradesh","latitude":25.4484,"longitude":78.5685,"temp":29.7,"humidity":67,"rain":0.0,"pressure":972.3,"uv_index":7.25,"wind_gusts":42.8,"aqi":87,"pm10":46.4,"pm2_5":26.4,"no2":9.7,"co":174.0,"o3":63.0,"so2":6.5,"mosquito_risk":7,"arthritis_risk":5,"migraine_risk":7,"frizz_risk":1,"updated_at":"2026-07-17T02:32:45.574006+05:30"},{"city":"Surat","state":"Gujarat","latitude":21.1702,"longitude":72.8311,"temp":26.8,"humidity":91,"rain":0.1,"pressure":1003.5,"uv_index":7.7,"wind_gusts":48.2,"aqi":74,"pm10":23.5,"pm2_5":16.8,"no2":24.7,"co":282.0,"o3":20.0,"so2":37.8,"mosquito_risk":10,"arthritis_risk":5,"migraine_risk":4,"frizz_risk":1,"updated_at":"2026-07-17T02:32:45.574040+05:30"},{"city":"Vadodara","state":"Gujarat","latitude":22.3072,"longitude":73.1812,"temp":28.1,"humidity":85,"rain":0.0,"pressure":1000.7,"uv_index":5.5,"wind_gusts":40.0,"aqi":70,"pm10":18.7,"pm2_5":13.9,"no2":19.0,"co":132.0,"o3":25.0,"so2":18.9,"mosquito_risk":7,"arthritis_risk":5,"migraine_risk":0,"frizz_risk":1,"updated_at":"2026-07-17T02:32:45.574051+05:30"},{"city":"Rajkot","state":"Gujarat","latitude":22.3039,"longitude":70.8022,"temp":26.6,"humidity":87,"rain":0.0,"pressure":990.5,"uv_index":6.4,"wind_gusts":44.3,"aqi":62,"pm10":14.3,"pm2_5":8.4,"no2":7.4,"co":103.0,"o3":31.0,"so2":4.4,"mosquito_risk":7,"arthritis_risk":5,"migraine_risk":7,"frizz_risk":1,"updated_at":"2026-07-17T02:32:45.574059+05:30"},{"city":"Thane","state":"Maharashtra","latitude":19.2183,"longitude":72.9781,"temp":24.9,"humidity":98,"rain":0.1,"pressure":1005.9,"uv_index":7.0,"wind_gusts":37.4,"aqi":68,"pm10":23.2,"pm2_5":11.1,"no2":7.5,"co":161.0,"o3":43.0,"so2":6.7,"mosquito_risk":6,"arthritis_risk":5,"migraine_risk":4,"frizz_risk":1,"updated_at":"2026-07-17T02:32:45.574068+05:30"},{"city":"Nagpur","state":"Maharashtra","latitude":21.1458,"longitude":79.0882,"temp":29.0,"humidity":66,"rain":0.0,"pressure":969.2,"uv_index":0.85,"wind_gusts":35.6,"aqi":80,"pm10":31.9,"pm2_5":20.8,"no2":11.1,"co":222.0,"o3":52.0,"so2":9.3,"mosquito_risk":7,"arthritis_risk":5,"migraine_risk":3,"frizz_risk":1,"updated_at":"2026-07-17T02:32:45.574076+05:30"},{"city":"Nashik","state":"Maharashtra","latitude":19.9975,"longitude":73.7898,"temp":23.2,"humidity":94,"rain":0.0,"pressure":943.0,"uv_index":7.4,"wind_gusts":47.5,"aqi":55,"pm10":9.3,"pm2_5":6.2,"no2":12.8,"co":133.0,"o3":28.0,"so2":15.2,"mosquito_risk":3,"arthritis_risk":5,"migraine_risk":7,"frizz_risk":1,"updated_at":"2026-07-17T02:32:45.574083+05:30"},{"city":"Aurangabad","state":"Maharashtra","latitude":19.8762,"longitude":75.3433,"temp":23.5,"humidity":89,"rain":0.0,"pressure":942.0,"uv_index":8.15,"wind_gusts":51.8,"aqi":57,"pm10":13.0,"pm2_5":9.1,"no2":9.4,"co":169.0,"o3":46.0,"so2":13.2,"mosquito_risk":3,"arthritis_risk":5,"migraine_risk":7,"frizz_risk":1,"updated_at":"2026-07-17T02:32:45.574091+05:30"},{"city":"Solapur","state":"Maharashtra","latitude":17.6599,"longitude":75.9064,"temp":26.6,"humidity":69,"rain":0.0,"pressure":955.8,"uv_index":6.7,"wind_gusts":42.8,"aqi":51,"pm10":10.9,"pm2_5":7.2,"no2":6.0,"co":151.0,"o3":38.0,"so2":2.5,"mosquito_risk":7,"arthritis_risk":5,"migraine_risk":7,"frizz_risk":1,"updated_at":"2026-07-17T02:32:45.574099+05:30"},{"city":"Kolhapur","state":"Maharashtra","latitude":16.705,"longitude":74.2433,"temp":23.0,"humidity":90,"rain":0.0,"pressure":946.8,"uv_index":7.6,"wind_gusts":49.7,"aqi":49,"pm10":5.5,"pm2_5":4.2,"no2":5.0,"co":115.0,"o3":38.0,"so2":2.5,"mosquito_risk":3,"arthritis_risk":5,"migraine_risk":7,"frizz_risk":1,"updated_at":"2026-07-17T02:32:45.574106+05:30"},{"city":"Goa","state":"Goa","latitude":15.2993,"longitude":74.124,"temp":24.3,"humidity":98,"rain":0.1,"pressure":998.3,"uv_index":7.1,"wind_gusts":34.6,"aqi":66,"pm10":24.7,"pm2_5":13.0,"no2":3.2,"co":319.0,"o3":45.0,"so2":1.1,"mosquito_risk":6,"arthritis_risk":5,"migraine_risk":7,"frizz_risk":1,"updated_at":"2026-07-17T02:32:45.574113+05:30"},{"city":"Jodhpur","state":"Rajasthan","latitude":26.2389,"longitude":73.0243,"temp":30.4,"humidity":59,"rain":0.0,"pressure":978.1,"uv_index":8.4,"wind_gusts":42.1,"aqi":142,"pm10":119.2,"pm2_5":31.8,"no2":6.0,"co":127.0,"o3":54.0,"so2":2.1,"mosquito_risk":0,"arthritis_risk":5,"migraine_risk":7,"frizz_risk":1,"updated_at":"2026-07-17T02:32:45.574120+05:30"},{"city":"Udaipur","state":"Rajasthan","latitude":24.5854,"longitude":73.7125,"temp":24.9,"humidity":81,"rain":0.0,"pressure":942.6,"uv_index":8.65,"wind_gusts":39.2,"aqi":82,"pm10":36.7,"pm2_5":21.8,"no2":12.5,"co":161.0,"o3":45.0,"so2":11.9,"mosquito_risk":3,"arthritis_risk":5,"migraine_risk":7,"frizz_risk":1,"updated_at":"2026-07-17T02:32:45.574128+05:30"},{"city":"Kota","state":"Rajasthan","latitude":25.2138,"longitude":75.8648,"temp":30.3,"humidity":57,"rain":0.0,"pressure":974.3,"uv_index":8.2,"wind_gusts":33.1,"aqi":84,"pm10":44.9,"pm2_5":27.1,"no2":7.6,"co":180.0,"o3":72.0,"so2":7.2,"mosquito_risk":0,"arthritis_risk":5,"migraine_risk":7,"frizz_risk":1,"updated_at":"2026-07-17T02:32:45.574135+05:30"},{"city":"Bikaner","state":"Rajasthan","latitude":28.0229,"longitude":73.3119,"temp":32.4,"humidity":46,"rain":0.0,"pressure":976.0,"uv_index":8.45,"wind_gusts":37.8,"aqi":145,"pm10":200.7,"pm2_5":65.2,"no2":2.7,"co":115.0,"o3":62.0,"so2":4.1,"mosquito_risk":0,"arthritis_risk":5,"migraine_risk":7,"frizz_risk":1,"updated_at":"2026-07-17T02:32:45.574142+05:30"},{"city":"Ajmer","state":"Rajasthan","latitude":26.4499,"longitude":74.6399,"temp":28.1,"humidity":61,"rain":0.0,"pressure":950.3,"uv_index":8.15,"wind_gusts":45.4,"aqi":91,"pm10":48.7,"pm2_5":24.9,"no2":8.9,"co":134.0,"o3":53.0,"so2":4.4,"mosquito_risk":7,"arthritis_risk":5,"migraine_risk":7,"frizz_risk":1,"updated_at":"2026-07-17T02:32:45.574150+05:30"},{"city":"Gwalior","state":"Madhya Pradesh","latitude":26.2183,"longitude":78.1828,"temp":29.8,"humidity":67,"rain":0.0,"pressure":977.2,"uv_index":5.95,"wind_gusts":41.8,"aqi":101,"pm10":52.7,"pm2_5":27.6,"no2":10.3,"co":135.0,"o3":54.0,"so2":2.8,"mosquito_risk":7,"arthritis_risk":5,"migraine_risk":3,"frizz_risk":1,"updated_at":"2026-07-17T02:32:45.574157+05:30"},{"city":"Indore","state":"Madhya Pradesh","latitude":22.7196,"longitude":75.8577,"temp":25.2,"humidity":82,"rain":0.0,"pressure":945.0,"uv_index":8.55,"wind_gusts":43.6,"aqi":71,"pm10":22.8,"pm2_5":19.0,"no2":8.5,"co":188.0,"o3":72.0,"so2":12.1,"mosquito_risk":7,"arthritis_risk":5,"migraine_risk":7,"frizz_risk":1,"updated_at":"2026-07-17T02:32:45.574164+05:30"},{"city":"Bhopal","state":"Madhya Pradesh","latitude":23.2599,"longitude":77.4126,"temp":27.6,"humidity":67,"rain":0.0,"pressure":949.7,"uv_index":7.65,"wind_gusts":36.0,"aqi":78,"pm10":38.9,"pm2_5":26.5,"no2":8.7,"co":287.0,"o3":61.0,"so2":5.0,"mosquito_risk":7,"arthritis_risk":5,"migraine_risk":7,"frizz_risk":1,"updated_at":"2026-07-17T02:32:45.574171+05:30"},{"city":"Jabalpur","state":"Madhya Pradesh","latitude":23.1815,"longitude":79.9864,"temp":25.5,"humidity":96,"rain":0.1,"pressure":956.7,"uv_index":6.05,"wind_gusts":34.9,"aqi":90,"pm10":42.3,"pm2_5":24.7,"no2":8.4,"co":284.0,"o3":63.0,"so2":4.0,"mosquito_risk":10,"arthritis_risk":5,"migraine_risk":7,"frizz_risk":1,"updated_at":"2026-07-17T02:32:45.574178+05:30"},{"city":"Ujjain","state":"Madhya Pradesh","latitude":23.1765,"longitude":75.7885,"temp":25.4,"humidity":82,"rain":0.0,"pressure":950.6,"uv_index":8.45,"wind_gusts":38.5,"aqi":74,"pm10":22.2,"pm2_5":18.3,"no2":8.2,"co":231.0,"o3":67.0,"so2":12.5,"mosquito_risk":7,"arthritis_risk":5,"migraine_risk":7,"frizz_risk":1,"updated_at":"2026-07-17T02:32:45.574186+05:30"},{"city":"Visakhapatnam","state":"Andhra Pradesh","latitude":17.6868,"longitude":83.2185,"temp":28.8,"humidity":74,"rain":0.0,"pressure":998.7,"uv_index":8.35,"wind_gusts":52.2,"aqi":86,"pm10":33.2,"pm2_5":23.6,"no2":19.6,"co":256.0,"o3":63.0,"so2":36.1,"mosquito_risk":7,"arthritis_risk":5,"migraine_risk":7,"frizz_risk":1,"updated_at":"2026-07-17T02:32:45.574193+05:30"},{"city":"Vijayawada","state":"Andhra Pradesh","latitude":16.5062,"longitude":80.648,"temp":28.5,"humidity":77,"rain":0.0,"pressure":999.4,"uv_index":3.2,"wind_gusts":42.8,"aqi":72,"pm10":31.8,"pm2_5":21.5,"no2":9.5,"co":200.0,"o3":59.0,"so2":4.0,"mosquito_risk":7,"arthritis_risk":5,"migraine_risk":3,"frizz_risk":1,"updated_at":"2026-07-17T02:32:45.574200+05:30"},{"city":"Guntur","state":"Andhra Pradesh","latitude":16.3067,"longitude":80.4365,"temp":29.2,"humidity":68,"rain":0.0,"pressure":1000.9,"uv_index":3.5,"wind_gusts":42.8,"aqi":71,"pm10":32.5,"pm2_5":22.8,"no2":13.3,"co":179.0,"o3":50.0,"so2":4.9,"mosquito_risk":7,"arthritis_risk":5,"migraine_risk":0,"frizz_risk":1,"updated_at":"2026-07-17T02:32:45.574207+05:30"},{"city":"Nellore","state":"Andhra Pradesh","latitude":14.4426,"longitude":79.9865,"temp":29.8,"humidity":64,"rain":0.0,"pressure":1003.9,"uv_index":6.8,"wind_gusts":49.3,"aqi":72,"pm10":39.5,"pm2_5":21.9,"no2":9.0,"co":143.0,"o3":53.0,"so2":6.9,"mosquito_risk":7,"arthritis_risk":5,"migraine_risk":4,"frizz_risk":1,"updated_at":"2026-07-17T02:32:45.574215+05:30"},{"city":"Kurnool","state":"Andhra Pradesh","latitude":15.8281,"longitude":78.0373,"temp":25.0,"humidity":89,"rain":0.1,"pressure":975.7,"uv_index":8.3,"wind_gusts":47.2,"aqi":63,"pm10":18.4,"pm2_5":11.6,"no2":8.1,"co":137.0,"o3":46.0,"so2":2.6,"mosquito_risk":10,"arthritis_risk":5,"migraine_risk":7,"frizz_risk":1,"updated_at":"2026-07-17T02:32:45.574223+05:30"},{"city":"Kakinada","state":"Andhra Pradesh","latitude":16.9891,"longitude":82.2475,"temp":28.0,"humidity":75,"rain":0.0,"pressure":1003.5,"uv_index":8.7,"wind_gusts":46.8,"aqi":77,"pm10":33.1,"pm2_5":22.2,"no2":7.6,"co":281.0,"o3":78.0,"so2":7.0,"mosquito_risk":7,"arthritis_risk":5,"migraine_risk":4,"frizz_risk":1,"updated_at":"2026-07-17T02:32:45.574231+05:30"},{"city":"Tirupati","state":"Andhra Pradesh","latitude":13.6288,"longitude":79.4192,"temp":29.8,"humidity":49,"rain":0.0,"pressure":989.5,"uv_index":8.35,"wind_gusts":37.8,"aqi":81,"pm10":38.5,"pm2_5":27.1,"no2":24.2,"co":218.0,"o3":29.0,"so2":2.8,"mosquito_risk":4,"arthritis_risk":5,"migraine_risk":7,"frizz_risk":1,"updated_at":"2026-07-17T02:32:45.574238+05:30"},{"city":"Warangal","state":"Telangana","latitude":17.9689,"longitude":79.5941,"temp":27.7,"humidity":74,"rain":0.0,"pressure":975.5,"uv_index":7.0,"wind_gusts":37.8,"aqi":67,"pm10":34.5,"pm2_5":22.1,"no2":12.9,"co":217.0,"o3":44.0,"so2":5.2,"mosquito_risk":7,"arthritis_risk":5,"migraine_risk":7,"frizz_risk":1,"updated_at":"2026-07-17T02:32:45.574245+05:30"},{"city":"Nizamabad","state":"Telangana","latitude":18.6725,"longitude":78.0941,"temp":26.8,"humidity":68,"rain":0.0,"pressure":962.1,"uv_index":3.2,"wind_gusts":40.0,"aqi":65,"pm10":32.8,"pm2_5":18.7,"no2":8.3,"co":163.0,"o3":52.0,"so2":7.1,"mosquito_risk":7,"arthritis_risk":5,"migraine_risk":3,"frizz_risk":1,"updated_at":"2026-07-17T02:32:45.574252+05:30"},{"city":"Mysore","state":"Karnataka","latitude":12.2958,"longitude":76.6396,"temp":21.2,"humidity":91,"rain":0.0,"pressure":928.4,"uv_index":3.75,"wind_gusts":46.4,"aqi":60,"pm10":8.3,"pm2_5":5.4,"no2":6.2,"co":103.0,"o3":38.0,"so2":2.1,"mosquito_risk":3,"arthritis_risk":5,"migraine_risk":3,"frizz_risk":1,"updated_at":"2026-07-17T02:32:45.574259+05:30"},{"city":"Mangalore","state":"Karnataka","latitude":12.9141,"longitude":74.856,"temp":24.4,"humidity":94,"rain":0.1,"pressure":1008.3,"uv_index":0.95,"wind_gusts":37.8,"aqi":66,"pm10":27.3,"pm2_5":13.9,"no2":6.9,"co":135.0,"o3":39.0,"so2":2.4,"mosquito_risk":6,"arthritis_risk":0,"migraine_risk":0,"frizz_risk":1,"updated_at":"2026-07-17T02:32:45.574266+05:30"},{"city":"Hubli-Dharwad","state":"Karnataka","latitude":15.3647,"longitude":75.124,"temp":22.2,"humidity":93,"rain":0.0,"pressure":940.3,"uv_index":8.1,"wind_gusts":52.6,"aqi":48,"pm10":3.1,"pm2_5":1.7,"no2":2.3,"co":104.0,"o3":45.0,"so2":1.2,"mosquito_risk":3,"arthritis_risk":5,"migraine_risk":7,"frizz_risk":1,"updated_at":"2026-07-17T02:32:45.574274+05:30"},{"city":"Belgaum","state":"Karnataka","latitude":15.8497,"longitude":74.4977,"temp":21.2,"humidity":95,"rain":0.0,"pressure":924.8,"uv_index":8.7,"wind_gusts":50.8,"aqi":44,"pm10":5.7,"pm2_5":3.5,"no2":3.6,"co":122.0,"o3":42.0,"so2":2.3,"mosquito_risk":3,"arthritis_risk":5,"migraine_risk":7,"frizz_risk":1,"updated_at":"2026-07-17T02:32:48.844982+05:30"},{"city":"Coimbatore","state":"Tamil Nadu","latitude":11.0168,"longitude":76.9558,"temp":23.5,"humidity":87,"rain":0.0,"pressure":961.3,"uv_index":8.75,"wind_gusts":51.5,"aqi":58,"pm10":18.2,"pm2_5":10.3,"no2":6.9,"co":181.0,"o3":34.0,"so2":3.1,"mosquito_risk":3,"arthritis_risk":5,"migraine_risk":7,"frizz_risk":1,"updated_at":"2026-07-17T02:32:48.845015+05:30"},{"city":"Madurai","state":"Tamil Nadu","latitude":9.9252,"longitude":78.1198,"temp":28.0,"humidity":64,"rain":0.0,"pressure":992.6,"uv_index":8.55,"wind_gusts":43.6,"aqi":80,"pm10":27.5,"pm2_5":23.0,"no2":34.3,"co":135.0,"o3":7.0,"so2":6.1,"mosquito_risk":7,"arthritis_risk":5,"migraine_risk":7,"frizz_risk":1,"updated_at":"2026-07-17T02:32:48.845025+05:30"},{"city":"Trichy","state":"Tamil Nadu","latitude":10.7905,"longitude":78.7047,"temp":28.1,"humidity":64,"rain":0.0,"pressure":999.3,"uv_index":8.8,"wind_gusts":56.9,"aqi":67,"pm10":22.6,"pm2_5":13.5,"no2":10.2,"co":115.0,"o3":34.0,"so2":3.9,"mosquito_risk":7,"arthritis_risk":5,"migraine_risk":7,"frizz_risk":1,"updated_at":"2026-07-17T02:32:48.845034+05:30"},{"city":"Salem","state":"Tamil Nadu","latitude":11.6643,"longitude":78.146,"temp":25.1,"humidity":81,"rain":0.0,"pressure":977.2,"uv_index":8.9,"wind_gusts":31.7,"aqi":76,"pm10":32.1,"pm2_5":22.9,"no2":24.3,"co":144.0,"o3":25.0,"so2":7.1,"mosquito_risk":7,"arthritis_risk":5,"migraine_risk":7,"frizz_risk":1,"updated_at":"2026-07-17T02:32:48.845042+05:30"},{"city":"Tirunelveli","state":"Tamil Nadu","latitude":8.7139,"longitude":77.7567,"temp":27.8,"humidity":67,"rain":0.0,"pressure":1003.1,"uv_index":7.85,"wind_gusts":50.0,"aqi":59,"pm10":19.3,"pm2_5":11.4,"no2":7.1,"co":135.0,"o3":36.0,"so2":2.7,"mosquito_risk":7,"arthritis_risk":5,"migraine_risk":4,"frizz_risk":1,"updated_at":"2026-07-17T02:32:48.845049+05:30"},{"city":"Vellore","state":"Tamil Nadu","latitude":12.9165,"longitude":79.1325,"temp":29.4,"humidity":52,"rain":0.0,"pressure":983.0,"uv_index":8.1,"wind_gusts":41.8,"aqi":78,"pm10":21.9,"pm2_5":14.4,"no2":11.3,"co":161.0,"o3":47.0,"so2":4.6,"mosquito_risk":4,"arthritis_risk":5,"migraine_risk":7,"frizz_risk":1,"updated_at":"2026-07-17T02:32:48.845057+05:30"},{"city":"Erode","state":"Tamil Nadu","latitude":11.341,"longitude":77.7172,"temp":26.3,"humidity":73,"rain":0.0,"pressure":988.9,"uv_index":8.85,"wind_gusts":34.2,"aqi":65,"pm10":22.8,"pm2_5":15.2,"no2":14.6,"co":162.0,"o3":32.0,"so2":4.0,"mosquito_risk":7,"arthritis_risk":5,"migraine_risk":7,"frizz_risk":1,"updated_at":"2026-07-17T02:32:48.845063+05:30"},{"city":"Kochi","state":"Kerala","latitude":9.9312,"longitude":76.2673,"temp":26.5,"humidity":90,"rain":0.0,"pressure":1009.9,"uv_index":8.0,"wind_gusts":37.8,"aqi":72,"pm10":17.1,"pm2_5":10.6,"no2":9.8,"co":99.0,"o3":31.0,"so2":3.8,"mosquito_risk":7,"arthritis_risk":0,"migraine_risk":4,"frizz_risk":1,"updated_at":"2026-07-17T02:32:48.845071+05:30"},{"city":"Thiruvananthapuram","state":"Kerala","latitude":8.5241,"longitude":76.9366,"temp":24.6,"humidity":94,"rain":0.0,"pressure":1009.6,"uv_index":8.1,"wind_gusts":47.9,"aqi":66,"pm10":26.0,"pm2_5":12.2,"no2":3.8,"co":129.0,"o3":48.0,"so2":1.8,"mosquito_risk":3,"arthritis_risk":0,"migraine_risk":4,"frizz_risk":1,"updated_at":"2026-07-17T02:32:48.845079+05:30"},{"city":"Kozhikode","state":"Kerala","latitude":11.2588,"longitude":75.7804,"temp":24.6,"humidity":95,"rain":0.2,"pressure":1009.5,"uv_index":7.9,"wind_gusts":37.8,"aqi":59,"pm10":20.4,"pm2_5":8.3,"no2":1.5,"co":145.0,"o3":53.0,"so2":1.1,"mosquito_risk":6,"arthritis_risk":0,"migraine_risk":4,"frizz_risk":1,"updated_at":"2026-07-17T02:32:48.845085+05:30"},{"city":"Thrissur","state":"Kerala","latitude":10.5276,"longitude":76.2144,"temp":25.5,"humidity":88,"rain":0.0,"pressure":1008.3,"uv_index":7.7,"wind_gusts":38.2,"aqi":67,"pm10":12.6,"pm2_5":8.0,"no2":7.3,"co":162.0,"o3":34.0,"so2":2.7,"mosquito_risk":7,"arthritis_risk":0,"migraine_risk":4,"frizz_risk":1,"updated_at":"2026-07-17T02:32:48.845093+05:30"},{"city":"Kannur","state":"Kerala","latitude":11.8745,"longitude":75.3704,"temp":24.0,"humidity":98,"rain":0.3,"pressure":1008.7,"uv_index":2.2,"wind_gusts":31.7,"aqi":63,"pm10":22.2,"pm2_5":10.6,"no2":6.6,"co":209.0,"o3":38.0,"so2":1.6,"mosquito_risk":6,"arthritis_risk":0,"migraine_risk":0,"frizz_risk":1,"updated_at":"2026-07-17T02:32:48.845101+05:30"},{"city":"Patna","state":"Bihar","latitude":25.5941,"longitude":85.1376,"temp":27.7,"humidity":93,"rain":0.0,"pressure":994.1,"uv_index":8.25,"wind_gusts":30.6,"aqi":101,"pm10":40.7,"pm2_5":39.7,"no2":19.5,"co":400.0,"o3":60.0,"so2":8.8,"mosquito_risk":7,"arthritis_risk":5,"migraine_risk":7,"frizz_risk":1,"updated_at":"2026-07-17T02:32:48.845108+05:30"},{"city":"Gaya","state":"Bihar","latitude":24.7914,"longitude":85.0002,"temp":26.8,"humidity":98,"rain":0.0,"pressure":987.4,"uv_index":8.7,"wind_gusts":27.4,"aqi":90,"pm10":25.5,"pm2_5":24.9,"no2":11.7,"co":340.0,"o3":71.0,"so2":4.9,"mosquito_risk":7,"arthritis_risk":5,"migraine_risk":7,"frizz_risk":1,"updated_at":"2026-07-17T02:32:48.845114+05:30"},{"city":"Muzaffarpur","state":"Bihar","latitude":26.1209,"longitude":85.3647,"temp":27.3,"humidity":94,"rain":0.0,"pressure":994.4,"uv_index":7.2,"wind_gusts":38.2,"aqi":97,"pm10":48.8,"pm2_5":47.6,"no2":25.5,"co":634.0,"o3":44.0,"so2":8.8,"mosquito_risk":7,"arthritis_risk":5,"migraine_risk":7,"frizz_risk":1,"updated_at":"2026-07-17T02:32:48.845121+05:30"},{"city":"Bhagalpur","state":"Bihar","latitude":25.2425,"longitude":87.0117,"temp":28.3,"humidity":85,"rain":0.0,"pressure":994.7,"uv_index":7.55,"wind_gusts":33.1,"aqi":78,"pm10":24.9,"pm2_5":23.7,"no2":11.8,"co":259.0,"o3":73.0,"so2":5.5,"mosquito_risk":7,"arthritis_risk":5,"migraine_risk":7,"frizz_risk":1,"updated_at":"2026-07-17T02:32:48.845127+05:30"},{"city":"Ranchi","state":"Jharkhand","latitude":23.3441,"longitude":85.3096,"temp":23.4,"humidity":99,"rain":0.0,"pressure":931.1,"uv_index":7.75,"wind_gusts":29.9,"aqi":60,"pm10":14.4,"pm2_5":14.0,"no2":9.2,"co":255.0,"o3":79.0,"so2":7.2,"mosquito_risk":3,"arthritis_risk":5,"migraine_risk":7,"frizz_risk":1,"updated_at":"2026-07-17T02:32:48.845134+05:30"},{"city":"Jamshedpur","state":"Jharkhand","latitude":22.8046,"longitude":86.2029,"temp":25.8,"humidity":98,"rain":0.0,"pressure":983.1,"uv_index":8.35,"wind_gusts":23.4,"aqi":88,"pm10":41.9,"pm2_5":40.7,"no2":40.8,"co":214.0,"o3":39.0,"so2":58.1,"mosquito_risk":7,"arthritis_risk":5,"migraine_risk":7,"frizz_risk":1,"updated_at":"2026-07-17T02:32:48.845141+05:30"},{"city":"Dhanbad","state":"Jharkhand","latitude":23.7957,"longitude":86.4304,"temp":26.7,"humidity":90,"rain":0.0,"pressure":972.7,"uv_index":7.85,"wind_gusts":25.6,"aqi":97,"pm10":41.6,"pm2_5":40.5,"no2":37.4,"co":206.0,"o3":43.0,"so2":94.1,"mosquito_risk":7,"arthritis_risk":5,"migraine_risk":7,"frizz_risk":1,"updated_at":"2026-07-17T02:32:48.845147+05:30"},{"city":"Bokaro","state":"Jharkhand","latitude":23.6693,"longitude":86.1511,"temp":26.3,"humidity":94,"rain":0.0,"pressure":976.6,"uv_index":7.35,"wind_gusts":19.4,"aqi":94,"pm10":44.9,"pm2_5":43.2,"no2":36.6,"co":225.0,"o3":48.0,"so2":92.7,"mosquito_risk":7,"arthritis_risk":5,"migraine_risk":7,"frizz_risk":1,"updated_at":"2026-07-17T02:32:48.845155+05:30"},{"city":"Bhubaneswar","state":"Odisha","latitude":20.2961,"longitude":85.8245,"temp":25.0,"humidity":96,"rain":0.1,"pressure":996.1,"uv_index":7.0,"wind_gusts":40.0,"aqi":69,"pm10":18.0,"pm2_5":13.4,"no2":7.6,"co":250.0,"o3":77.0,"so2":5.7,"mosquito_risk":10,"arthritis_risk":5,"migraine_risk":7,"frizz_risk":1,"updated_at":"2026-07-17T02:32:48.845162+05:30"},{"city":"Cuttack","state":"Odisha","latitude":20.4625,"longitude":85.8828,"temp":25.4,"humidity":96,"rain":0.0,"pressure":997.7,"uv_index":7.85,"wind_gusts":37.4,"aqi":69,"pm10":18.0,"pm2_5":13.4,"no2":7.6,"co":275.0,"o3":77.0,"so2":5.7,"mosquito_risk":7,"arthritis_risk":5,"migraine_risk":7,"frizz_risk":1,"updated_at":"2026-07-17T02:32:48.845169+05:30"},{"city":"Rourkela","state":"Odisha","latitude":22.2604,"longitude":84.8536,"temp":24.7,"humidity":99,"rain":0.1,"pressure":978.7,"uv_index":5.85,"wind_gusts":32.8,"aqi":69,"pm10":28.6,"pm2_5":19.6,"no2":7.0,"co":260.0,"o3":75.0,"so2":2.0,"mosquito_risk":6,"arthritis_risk":5,"migraine_risk":3,"frizz_risk":1,"updated_at":"2026-07-17T02:32:48.845176+05:30"},{"city":"Raipur","state":"Chhattisgarh","latitude":21.2514,"longitude":81.6296,"temp":24.9,"humidity":98,"rain":0.1,"pressure":970.2,"uv_index":1.95,"wind_gusts":38.9,"aqi":123,"pm10":51.2,"pm2_5":38.9,"no2":35.2,"co":421.0,"o3":37.0,"so2":58.1,"mosquito_risk":6,"arthritis_risk":5,"migraine_risk":3,"frizz_risk":1,"updated_at":"2026-07-17T02:32:48.845182+05:30"},{"city":"Bhilai","state":"Chhattisgarh","latitude":21.1938,"longitude":81.3509,"temp":25.0,"humidity":98,"rain":0.3,"pressure":970.6,"uv_index":1.75,"wind_gusts":41.0,"aqi":110,"pm10":49.2,"pm2_5":35.4,"no2":26.0,"co":605.0,"o3":41.0,"so2":41.0,"mosquito_risk":10,"arthritis_risk":5,"migraine_risk":3,"frizz_risk":1,"updated_at":"2026-07-17T02:32:48.845189+05:30"},{"city":"Guwahati","state":"Assam","latitude":26.1158,"longitude":91.7086,"temp":26.4,"humidity":94,"rain":0.0,"pressure":997.0,"uv_index":7.8,"wind_gusts":21.6,"aqi":55,"pm10":4.5,"pm2_5":4.0,"no2":9.0,"co":258.0,"o3":37.0,"so2":1.2,"mosquito_risk":7,"arthritis_risk":5,"migraine_risk":7,"frizz_risk":1,"updated_at":"2026-07-17T02:32:48.845196+05:30"},{"city":"Agartala","state":"Tripura","latitude":23.8315,"longitude":91.2868,"temp":26.2,"humidity":89,"rain":0.0,"pressure":1001.8,"uv_index":8.25,"wind_gusts":51.8,"aqi":60,"pm10":15.0,"pm2_5":11.7,"no2":6.6,"co":162.0,"o3":67.0,"so2":3.3,"mosquito_risk":7,"arthritis_risk":5,"migraine_risk":4,"frizz_risk":1,"updated_at":"2026-07-17T02:32:48.845202+05:30"},{"city":"Shillong","state":"Meghalaya","latitude":25.5788,"longitude":91.8933,"temp":20.3,"humidity":98,"rain":0.1,"pressure":854.5,"uv_index":8.4,"wind_gusts":41.4,"aqi":36,"pm10":1.7,"pm2_5":1.3,"no2":4.2,"co":155.0,"o3":63.0,"so2":2.0,"mosquito_risk":6,"arthritis_risk":5,"migraine_risk":7,"frizz_risk":1,"updated_at":"2026-07-17T02:32:48.845209+05:30"},{"city":"Imphal","state":"Manipur","latitude":24.817,"longitude":93.9368,"temp":22.5,"humidity":96,"rain":0.3,"pressure":920.1,"uv_index":7.6,"wind_gusts":32.8,"aqi":54,"pm10":12.5,"pm2_5":8.6,"no2":3.9,"co":465.0,"o3":54.0,"so2":1.9,"mosquito_risk":6,"arthritis_risk":5,"migraine_risk":7,"frizz_risk":1,"updated_at":"2026-07-17T02:32:48.845215+05:30"},{"city":"Aizawl","state":"Mizoram","latitude":23.7271,"longitude":92.7176,"temp":19.4,"humidity":91,"rain":0.0,"pressure":889.3,"uv_index":7.7,"wind_gusts":52.2,"aqi":52,"pm10":13.8,"pm2_5":8.6,"no2":1.9,"co":143.0,"o3":63.0,"so2":1.8,"mosquito_risk":3,"arthritis_risk":10,"migraine_risk":7,"frizz_risk":1,"updated_at":"2026-07-17T02:32:48.845222+05:30"},{"city":"Kohima","state":"Nagaland","latitude":25.6701,"longitude":94.1077,"temp":19.5,"humidity":94,"rain":0.0,"pressure":852.7,"uv_index":4.55,"wind_gusts":23.8,"aqi":40,"pm10":4.5,"pm2_5":3.3,"no2":2.8,"co":214.0,"o3":56.0,"so2":0.9,"mosquito_risk":3,"arthritis_risk":10,"migraine_risk":3,"frizz_risk":1,"updated_at":"2026-07-17T02:32:48.845229+05:30"},{"city":"Gangtok","state":"Sikkim","latitude":27.3314,"longitude":88.6138,"temp":18.2,"humidity":99,"rain":0.1,"pressure":835.2,"uv_index":7.5,"wind_gusts":31.3,"aqi":43,"pm10":7.0,"pm2_5":6.2,"no2":4.6,"co":367.0,"o3":84.0,"so2":2.0,"mosquito_risk":6,"arthritis_risk":10,"migraine_risk":7,"frizz_risk":1,"updated_at":"2026-07-17T02:32:48.845236+05:30"},{"city":"Siliguri","state":"West Bengal","latitude":26.7271,"longitude":88.3953,"temp":27.0,"humidity":82,"rain":0.0,"pressure":987.8,"uv_index":6.65,"wind_gusts":29.5,"aqi":58,"pm10":22.5,"pm2_5":19.7,"no2":8.9,"co":218.0,"o3":86.0,"so2":4.3,"mosquito_risk":7,"arthritis_risk":5,"migraine_risk":7,"frizz_risk":1,"updated_at":"2026-07-17T02:32:52.111203+05:30"},{"city":"Durgapur","state":"West Bengal","latitude":23.5204,"longitude":87.3119,"temp":26.5,"humidity":97,"rain":0.0,"pressure":987.4,"uv_index":8.55,"wind_gusts":32.0,"aqi":81,"pm10":31.5,"pm2_5":29.8,"no2":30.6,"co":281.0,"o3":42.0,"so2":31.6,"mosquito_risk":7,"arthritis_risk":5,"migraine_risk":7,"frizz_risk":1,"updated_at":"2026-07-17T02:32:52.111235+05:30"},{"city":"Asansol","state":"West Bengal","latitude":23.6739,"longitude":86.9524,"temp":26.8,"humidity":93,"rain":0.0,"pressure":986.0,"uv_index":8.3,"wind_gusts":35.3,"aqi":80,"pm10":27.6,"pm2_5":27.0,"no2":28.5,"co":210.0,"o3":43.0,"so2":29.6,"mosquito_risk":7,"arthritis_risk":5,"migraine_risk":7,"frizz_risk":1,"updated_at":"2026-07-17T02:32:52.111246+05:30"},{"city":"Pondicherry","state":"Puducherry","latitude":11.9139,"longitude":79.8145,"temp":28.4,"humidity":72,"rain":0.0,"pressure":1007.0,"uv_index":8.65,"wind_gusts":41.0,"aqi":77,"pm10":19.5,"pm2_5":13.5,"no2":9.0,"co":208.0,"o3":53.0,"so2":7.1,"mosquito_risk":7,"arthritis_risk":5,"migraine_risk":4,"frizz_risk":1,"updated_at":"2026-07-17T02:32:52.111255+05:30"},{"city":"Port Blair","state":"Andaman and Nicobar Islands","latitude":11.6234,"longitude":92.7265,"temp":27.0,"humidity":87,"rain":0.0,"pressure":1007.1,"uv_index":7.8,"wind_gusts":39.2,"aqi":46,"pm10":13.2,"pm2_5":6.9,"no2":0.1,"co":86.0,"o3":44.0,"so2":0.4,"mosquito_risk":7,"arthritis_risk":5,"migraine_risk":4,"frizz_risk":1,"updated_at":"2026-07-17T02:32:52.111264+05:30"},{"city":"Haridwar","state":"Uttarakhand","latitude":29.9457,"longitude":78.1642,"temp":28.5,"humidity":83,"rain":0.0,"pressure":967.5,"uv_index":7.5,"wind_gusts":27.4,"aqi":144,"pm10":126.2,"pm2_5":95.7,"no2":38.6,"co":441.0,"o3":51.0,"so2":15.1,"mosquito_risk":7,"arthritis_risk":5,"migraine_risk":7,"frizz_risk":1,"updated_at":"2026-07-17T02:32:52.111272+05:30"},{"city":"Rishikesh","state":"Uttarakhand","latitude":30.0869,"longitude":78.2676,"temp":26.5,"humidity":86,"rain":0.0,"pressure":960.3,"uv_index":7.4,"wind_gusts":25.9,"aqi":113,"pm10":83.4,"pm2_5":63.6,"no2":14.2,"co":380.0,"o3":111.0,"so2":11.2,"mosquito_risk":7,"arthritis_risk":5,"migraine_risk":7,"frizz_risk":1,"updated_at":"2026-07-17T02:32:52.111280+05:30"},{"city":"Nainital","state":"Uttarakhand","latitude":29.3919,"longitude":79.4542,"temp":17.3,"humidity":98,"rain":0.1,"pressure":802.6,"uv_index":6.35,"wind_gusts":28.4,"aqi":120,"pm10":60.1,"pm2_5":33.3,"no2":6.0,"co":290.0,"o3":118.0,"so2":5.9,"mosquito_risk":6,"arthritis_risk":10,"migraine_risk":7,"frizz_risk":1,"updated_at":"2026-07-17T02:32:52.111288+05:30"},{"city":"Mussoorie","state":"Uttarakhand","latitude":30.4599,"longitude":78.0664,"temp":17.5,"humidity":100,"rain":0.0,"pressure":800.2,"uv_index":6.65,"wind_gusts":39.2,"aqi":115,"pm10":67.1,"pm2_5":59.3,"no2":18.1,"co":370.0,"o3":112.0,"so2":13.3,"mosquito_risk":3,"arthritis_risk":10,"migraine_risk":7,"frizz_risk":1,"updated_at":"2026-07-17T02:32:52.111295+05:30"},{"city":"Dharamshala","state":"Himachal Pradesh","latitude":32.219,"longitude":76.3234,"temp":22.2,"humidity":82,"rain":0.0,"pressure":865.6,"uv_index":7.9,"wind_gusts":23.4,"aqi":70,"pm10":31.0,"pm2_5":26.1,"no2":17.7,"co":286.0,"o3":28.0,"so2":0.5,"mosquito_risk":3,"arthritis_risk":5,"migraine_risk":7,"frizz_risk":1,"updated_at":"2026-07-17T02:32:52.111303+05:30"},{"city":"Dalhousie","state":"Himachal Pradesh","latitude":32.5387,"longitude":75.971,"temp":16.1,"humidity":98,"rain":0.0,"pressure":800.9,"uv_index":7.55,"wind_gusts":24.1,"aqi":112,"pm10":51.0,"pm2_5":40.9,"no2":20.1,"co":652.0,"o3":103.0,"so2":3.8,"mosquito_risk":3,"arthritis_risk":10,"migraine_risk":7,"frizz_risk":0,"updated_at":"2026-07-17T02:32:52.111312+05:30"},{"city":"Patiala","state":"Punjab","latitude":30.3398,"longitude":76.3869,"temp":28.5,"humidity":85,"rain":0.0,"pressure":971.5,"uv_index":6.8,"wind_gusts":29.9,"aqi":185,"pm10":389.3,"pm2_5":164.4,"no2":69.9,"co":1239.0,"o3":3.0,"so2":10.6,"mosquito_risk":7,"arthritis_risk":5,"migraine_risk":7,"frizz_risk":1,"updated_at":"2026-07-17T02:32:52.111319+05:30"},{"city":"Bhatinda","state":"Punjab","latitude":30.211,"longitude":74.9455,"temp":31.8,"humidity":65,"rain":0.0,"pressure":977.0,"uv_index":8.15,"wind_gusts":29.2,"aqi":171,"pm10":164.4,"pm2_5":81.3,"no2":37.4,"co":707.0,"o3":28.0,"so2":4.2,"mosquito_risk":3,"arthritis_risk":5,"migraine_risk":7,"frizz_risk":1,"updated_at":"2026-07-17T02:32:52.111326+05:30"},{"city":"Rohtak","state":"Haryana","latitude":28.8955,"longitude":76.6066,"temp":29.7,"humidity":81,"rain":0.0,"pressure":975.3,"uv_index":6.55,"wind_gusts":30.6,"aqi":653,"pm10":510.4,"pm2_5":153.7,"no2":48.2,"co":335.0,"o3":6.0,"so2":6.1,"mosquito_risk":7,"arthritis_risk":5,"migraine_risk":7,"frizz_risk":1,"updated_at":"2026-07-17T02:32:52.111333+05:30"},{"city":"Panipat","state":"Haryana","latitude":29.3909,"longitude":76.9635,"temp":28.9,"humidity":80,"rain":0.0,"pressure":973.9,"uv_index":6.8,"wind_gusts":29.9,"aqi":1176,"pm10":784.2,"pm2_5":213.7,"no2":64.9,"co":1019.0,"o3":0.0,"so2":9.9,"mosquito_risk":7,"arthritis_risk":5,"migraine_risk":7,"frizz_risk":1,"updated_at":"2026-07-17T02:32:52.111340+05:30"},{"city":"Mathura","state":"Uttar Pradesh","latitude":27.4924,"longitude":77.6737,"temp":30.6,"humidity":61,"rain":0.0,"pressure":980.4,"uv_index":7.1,"wind_gusts":29.5,"aqi":493,"pm10":1020.7,"pm2_5":162.5,"no2":17.9,"co":239.0,"o3":47.0,"so2":5.1,"mosquito_risk":3,"arthritis_risk":5,"migraine_risk":7,"frizz_risk":1,"updated_at":"2026-07-17T02:32:52.111347+05:30"},{"city":"Vrindavan","state":"Uttar Pradesh","latitude":27.5823,"longitude":77.7027,"temp":30.5,"humidity":63,"rain":0.0,"pressure":980.8,"uv_index":7.2,"wind_gusts":29.2,"aqi":493,"pm10":1020.7,"pm2_5":162.5,"no2":17.9,"co":239.0,"o3":47.0,"so2":5.1,"mosquito_risk":3,"arthritis_risk":5,"migraine_risk":7,"frizz_risk":1,"updated_at":"2026-07-17T02:32:52.111353+05:30"},{"city":"Ayodhya","state":"Uttar Pradesh","latitude":26.7922,"longitude":82.1998,"temp":27.6,"humidity":95,"rain":0.0,"pressure":989.5,"uv_index":7.8,"wind_gusts":24.8,"aqi":166,"pm10":62.9,"pm2_5":53.7,"no2":17.1,"co":601.0,"o3":67.0,"so2":6.5,"mosquito_risk":7,"arthritis_risk":5,"migraine_risk":7,"frizz_risk":1,"updated_at":"2026-07-17T02:32:52.111360+05:30"},{"city":"Ratlam","state":"Madhya Pradesh","latitude":23.3315,"longitude":75.0367,"temp":25.0,"humidity":86,"rain":0.0,"pressure":951.5,"uv_index":8.45,"wind_gusts":38.2,"aqi":73,"pm10":18.9,"pm2_5":15.4,"no2":9.5,"co":202.0,"o3":57.0,"so2":15.5,"mosquito_risk":7,"arthritis_risk":5,"migraine_risk":7,"frizz_risk":1,"updated_at":"2026-07-17T02:32:52.111367+05:30"},{"city":"Sagar","state":"Madhya Pradesh","latitude":23.8388,"longitude":78.7378,"temp":24.6,"humidity":94,"rain":0.0,"pressure":945.6,"uv_index":6.8,"wind_gusts":36.7,"aqi":80,"pm10":35.4,"pm2_5":23.7,"no2":8.8,"co":251.0,"o3":62.0,"so2":5.2,"mosquito_risk":3,"arthritis_risk":5,"migraine_risk":7,"frizz_risk":1,"updated_at":"2026-07-17T02:32:52.111374+05:30"},{"city":"Satna","state":"Madhya Pradesh","latitude":24.6005,"longitude":80.8322,"temp":27.3,"humidity":84,"rain":0.0,"pressure":965.7,"uv_index":7.15,"wind_gusts":36.0,"aqi":125,"pm10":38.3,"pm2_5":27.6,"no2":13.0,"co":196.0,"o3":46.0,"so2":3.7,"mosquito_risk":7,"arthritis_risk":5,"migraine_risk":7,"frizz_risk":1,"updated_at":"2026-07-17T02:32:52.111382+05:30"},{"city":"Akola","state":"Maharashtra","latitude":20.7002,"longitude":77.0082,"temp":28.7,"humidity":66,"rain":0.0,"pressure":972.2,"uv_index":8.65,"wind_gusts":41.4,"aqi":62,"pm10":18.1,"pm2_5":12.0,"no2":8.8,"co":148.0,"o3":47.0,"so2":9.6,"mosquito_risk":7,"arthritis_risk":5,"migraine_risk":7,"frizz_risk":1,"updated_at":"2026-07-17T02:32:52.111390+05:30"},{"city":"Amravati","state":"Maharashtra","latitude":20.9374,"longitude":77.7796,"temp":28.9,"humidity":64,"rain":0.0,"pressure":963.9,"uv_index":7.4,"wind_gusts":45.0,"aqi":63,"pm10":18.7,"pm2_5":12.4,"no2":9.0,"co":143.0,"o3":54.0,"so2":10.9,"mosquito_risk":7,"arthritis_risk":5,"migraine_risk":7,"frizz_risk":1,"updated_at":"2026-07-17T02:32:52.111397+05:30"},{"city":"Latur","state":"Maharashtra","latitude":18.4088,"longitude":76.5604,"temp":24.4,"humidity":83,"rain":0.0,"pressure":937.7,"uv_index":8.25,"wind_gusts":38.9,"aqi":56,"pm10":11.7,"pm2_5":8.2,"no2":7.2,"co":160.0,"o3":40.0,"so2":3.4,"mosquito_risk":3,"arthritis_risk":5,"migraine_risk":7,"frizz_risk":1,"updated_at":"2026-07-17T02:32:52.111405+05:30"},{"city":"Nanded","state":"Maharashtra","latitude":19.1383,"longitude":77.3091,"temp":26.9,"humidity":72,"rain":0.0,"pressure":966.2,"uv_index":3.1,"wind_gusts":37.1,"aqi":63,"pm10":22.5,"pm2_5":15.0,"no2":6.4,"co":176.0,"o3":55.0,"so2":4.0,"mosquito_risk":7,"arthritis_risk":5,"migraine_risk":3,"frizz_risk":1,"updated_at":"2026-07-17T02:32:52.111412+05:30"},{"city":"Gulbarga","state":"Karnataka","latitude":17.3297,"longitude":76.8343,"temp":24.9,"humidity":90,"rain":0.1,"pressure":956.9,"uv_index":7.7,"wind_gusts":45.7,"aqi":53,"pm10":11.2,"pm2_5":7.5,"no2":7.1,"co":132.0,"o3":41.0,"so2":3.2,"mosquito_risk":6,"arthritis_risk":5,"migraine_risk":7,"frizz_risk":1,"updated_at":"2026-07-17T02:32:52.111418+05:30"},{"city":"Bidar","state":"Karnataka","latitude":17.9104,"longitude":77.5199,"temp":24.8,"humidity":78,"rain":0.0,"pressure":933.3,"uv_index":1.8,"wind_gusts":38.2,"aqi":61,"pm10":21.3,"pm2_5":13.1,"no2":7.1,"co":140.0,"o3":49.0,"so2":2.6,"mosquito_risk":3,"arthritis_risk":5,"migraine_risk":3,"frizz_risk":1,"updated_at":"2026-07-17T02:32:52.111424+05:30"},{"city":"Hospet","state":"Karnataka","latitude":15.2689,"longitude":76.3909,"temp":24.0,"humidity":84,"rain":0.0,"pressure":955.3,"uv_index":8.6,"wind_gusts":51.8,"aqi":52,"pm10":8.0,"pm2_5":4.5,"no2":3.5,"co":106.0,"o3":41.0,"so2":1.6,"mosquito_risk":3,"arthritis_risk":5,"migraine_risk":7,"frizz_risk":1,"updated_at":"2026-07-17T02:32:52.111431+05:30"},{"city":"Tirupur","state":"Tamil Nadu","latitude":11.1085,"longitude":77.3411,"temp":24.8,"humidity":82,"rain":0.0,"pressure":975.1,"uv_index":8.85,"wind_gusts":42.5,"aqi":67,"pm10":26.4,"pm2_5":17.8,"no2":17.9,"co":142.0,"o3":26.0,"so2":4.9,"mosquito_risk":3,"arthritis_risk":5,"migraine_risk":7,"frizz_risk":1,"updated_at":"2026-07-17T02:32:52.111438+05:30"},{"city":"Alappuzha","state":"Kerala","latitude":9.4981,"longitude":76.3388,"temp":27.0,"humidity":85,"rain":0.0,"pressure":1010.0,"uv_index":8.55,"wind_gusts":40.0,"aqi":69,"pm10":24.3,"pm2_5":12.7,"no2":6.5,"co":87.0,"o3":43.0,"so2":3.3,"mosquito_risk":7,"arthritis_risk":0,"migraine_risk":4,"frizz_risk":1,"updated_at":"2026-07-17T02:32:52.111444+05:30"},{"city":"Munnar","state":"Kerala","latitude":10.0889,"longitude":77.0595,"temp":14.9,"humidity":88,"rain":0.0,"pressure":855.9,"uv_index":8.85,"wind_gusts":41.4,"aqi":55,"pm10":13.2,"pm2_5":8.5,"no2":7.8,"co":102.0,"o3":27.0,"so2":2.0,"mosquito_risk":3,"arthritis_risk":10,"migraine_risk":7,"frizz_risk":0,"updated_at":"2026-07-17T02:32:52.111451+05:30"},{"city":"Silchar","state":"Assam","latitude":24.8333,"longitude":92.7789,"temp":25.9,"humidity":98,"rain":0.0,"pressure":1001.7,"uv_index":8.75,"wind_gusts":33.5,"aqi":60,"pm10":22.7,"pm2_5":14.9,"no2":6.9,"co":278.0,"o3":58.0,"so2":4.0,"mosquito_risk":7,"arthritis_risk":5,"migraine_risk":4,"frizz_risk":1,"updated_at":"2026-07-17T02:32:52.111458+05:30"},{"city":"Dibrugarh","state":"Assam","latitude":27.4728,"longitude":94.912,"temp":25.8,"humidity":98,"rain":0.1,"pressure":990.5,"uv_index":6.8,"wind_gusts":33.5,"aqi":47,"pm10":5.6,"pm2_5":5.3,"no2":4.8,"co":172.0,"o3":78.0,"so2":1.1,"mosquito_risk":10,"arthritis_risk":5,"migraine_risk":7,"frizz_risk":1,"updated_at":"2026-07-17T02:32:52.111465+05:30"}]