[{"city":"Delhi","state":"Delhi","latitude":28.6139,"longitude":77.209,"temp":32.5,"humidity":42,"rain":0.0,"pressure":981.3,"uv_index":5.95,"wind_gusts":32.4,"aqi":152,"pm10":562.5,"pm2_5":78.0,"mosquito_risk":0,"arthritis_risk":5,"migraine_risk":3,"frizz_risk":1,"updated_at":"2026-03-29T14:15:06.080499+05:30"},{"city":"Mumbai","state":"Maharashtra","latitude":19.076,"longitude":72.8777,"temp":28.3,"humidity":78,"rain":0.0,"pressure":1007.5,"uv_index":8.0,"wind_gusts":24.5,"aqi":59,"pm10":47.0,"pm2_5":22.9,"mosquito_risk":7,"arthritis_risk":5,"migraine_risk":4,"frizz_risk":1,"updated_at":"2026-03-29T14:15:06.080540+05:30"},{"city":"Bangalore","state":"Karnataka","latitude":12.9716,"longitude":77.5946,"temp":31.2,"humidity":44,"rain":0.0,"pressure":910.6,"uv_index":9.55,"wind_gusts":28.8,"aqi":138,"pm10":60.3,"pm2_5":49.9,"mosquito_risk":0,"arthritis_risk":5,"migraine_risk":7,"frizz_risk":1,"updated_at":"2026-03-29T14:15:06.080555+05:30"},{"city":"Hyderabad","state":"Telangana","latitude":17.385,"longitude":78.4867,"temp":36.9,"humidity":26,"rain":0.0,"pressure":951.2,"uv_index":9.05,"wind_gusts":31.0,"aqi":105,"pm10":30.7,"pm2_5":25.7,"mosquito_risk":0,"arthritis_risk":5,"migraine_risk":10,"frizz_risk":0,"updated_at":"2026-03-29T14:15:06.080565+05:30"},{"city":"Chennai","state":"Tamil Nadu","latitude":13.0827,"longitude":80.2707,"temp":33.0,"humidity":62,"rain":0.0,"pressure":1005.3,"uv_index":9.25,"wind_gusts":37.4,"aqi":59,"pm10":23.0,"pm2_5":17.3,"mosquito_risk":3,"arthritis_risk":5,"migraine_risk":4,"frizz_risk":1,"updated_at":"2026-03-29T14:15:06.080575+05:30"},{"city":"Kolkata","state":"West Bengal","latitude":22.5726,"longitude":88.3639,"temp":31.6,"humidity":69,"rain":0.0,"pressure":1003.9,"uv_index":8.45,"wind_gusts":27.7,"aqi":115,"pm10":45.6,"pm2_5":32.9,"mosquito_risk":3,"arthritis_risk":5,"migraine_risk":4,"frizz_risk":1,"updated_at":"2026-03-29T14:15:06.080584+05:30"},{"city":"Pune","state":"Maharashtra","latitude":18.5204,"longitude":73.8567,"temp":35.9,"humidity":28,"rain":0.0,"pressure":947.5,"uv_index":8.55,"wind_gusts":33.8,"aqi":67,"pm10":32.4,"pm2_5":13.0,"mosquito_risk":0,"arthritis_risk":5,"migraine_risk":10,"frizz_risk":0,"updated_at":"2026-03-29T14:15:06.080595+05:30"},{"city":"Ahmedabad","state":"Gujarat","latitude":23.0225,"longitude":72.5714,"temp":35.7,"humidity":35,"rain":0.0,"pressure":1000.5,"uv_index":7.85,"wind_gusts":30.6,"aqi":36,"pm10":58.0,"pm2_5":14.9,"mosquito_risk":0,"arthritis_risk":5,"migraine_risk":7,"frizz_risk":1,"updated_at":"2026-03-29T14:15:06.080603+05:30"},{"city":"Jaipur","state":"Rajasthan","latitude":26.9124,"longitude":75.7873,"temp":35.9,"humidity":24,"rain":0.0,"pressure":957.4,"uv_index":7.2,"wind_gusts":38.2,"aqi":73,"pm10":161.6,"pm2_5":21.5,"mosquito_risk":0,"arthritis_risk":5,"migraine_risk":10,"frizz_risk":0,"updated_at":"2026-03-29T14:15:06.080611+05:30"},{"city":"Lucknow","state":"Uttar Pradesh","latitude":26.8467,"longitude":80.9462,"temp":34.1,"humidity":34,"rain":0.0,"pressure":991.9,"uv_index":7.25,"wind_gusts":16.6,"aqi":120,"pm10":129.9,"pm2_5":29.9,"mosquito_risk":0,"arthritis_risk":5,"migraine_risk":7,"frizz_risk":0,"updated_at":"2026-03-29T14:15:06.080618+05:30"},{"city":"Kanpur","state":"Uttar Pradesh","latitude":26.4499,"longitude":80.3319,"temp":33.6,"humidity":39,"rain":0.0,"pressure":990.0,"uv_index":7.25,"wind_gusts":16.9,"aqi":128,"pm10":127.6,"pm2_5":27.5,"mosquito_risk":0,"arthritis_risk":5,"migraine_risk":7,"frizz_risk":1,"updated_at":"2026-03-29T14:15:06.080625+05:30"},{"city":"Chandigarh","state":"Chandigarh","latitude":30.7333,"longitude":76.7794,"temp":25.0,"humidity":64,"rain":0.0,"pressure":969.0,"uv_index":6.5,"wind_gusts":28.1,"aqi":86,"pm10":60.8,"pm2_5":16.5,"mosquito_risk":7,"arthritis_risk":5,"migraine_risk":7,"frizz_risk":1,"updated_at":"2026-03-29T14:15:06.080633+05:30"},{"city":"Srinagar","state":"Jammu and Kashmir","latitude":34.0837,"longitude":74.7973,"temp":14.9,"humidity":67,"rain":0.0,"pressure":841.6,"uv_index":7.35,"wind_gusts":22.3,"aqi":84,"pm10":7.6,"pm2_5":4.6,"mosquito_risk":3,"arthritis_risk":5,"migraine_risk":7,"frizz_risk":0,"updated_at":"2026-03-29T14:15:06.080641+05:30"},{"city":"Jammu","state":"Jammu and Kashmir","latitude":32.7266,"longitude":74.857,"temp":23.9,"humidity":63,"rain":0.0,"pressure":973.7,"uv_index":6.75,"wind_gusts":28.1,"aqi":85,"pm10":37.6,"pm2_5":12.0,"mosquito_risk":3,"arthritis_risk":5,"migraine_risk":7,"frizz_risk":1,"updated_at":"2026-03-29T14:15:06.080649+05:30"},{"city":"Amritsar","state":"Punjab","latitude":31.634,"longitude":74.8723,"temp":26.2,"humidity":62,"rain":0.0,"pressure":980.7,"uv_index":7.3,"wind_gusts":35.3,"aqi":72,"pm10":56.8,"pm2_5":15.9,"mosquito_risk":7,"arthritis_risk":5,"migraine_risk":7,"frizz_risk":1,"updated_at":"2026-03-29T14:15:06.080656+05:30"},{"city":"Ludhiana","state":"Punjab","latitude":30.901,"longitude":75.8573,"temp":27.5,"humidity":52,"rain":0.0,"pressure":978.6,"uv_index":6.95,"wind_gusts":31.7,"aqi":98,"pm10":77.8,"pm2_5":24.4,"mosquito_risk":4,"arthritis_risk":5,"migraine_risk":7,"frizz_risk":1,"updated_at":"2026-03-29T14:15:06.080663+05:30"},{"city":"Jalandhar","state":"Punjab","latitude":31.326,"longitude":75.5762,"temp":24.3,"humidity":75,"rain":0.0,"pressure":980.1,"uv_index":7.1,"wind_gusts":29.2,"aqi":91,"pm10":73.8,"pm2_5":22.9,"mosquito_risk":3,"arthritis_risk":5,"migraine_risk":7,"frizz_risk":1,"updated_at":"2026-03-29T14:15:06.080671+05:30"},{"city":"Dehradun","state":"Uttarakhand","latitude":30.6284,"longitude":78.0322,"temp":16.9,"humidity":85,"rain":0.0,"pressure":830.2,"uv_index":3.05,"wind_gusts":19.4,"aqi":72,"pm10":59.4,"pm2_5":21.9,"mosquito_risk":3,"arthritis_risk":10,"migraine_risk":3,"frizz_risk":0,"updated_at":"2026-03-29T14:15:06.080678+05:30"},{"city":"Shimla","state":"Himachal Pradesh","latitude":31.1048,"longitude":77.1734,"temp":16.6,"humidity":78,"rain":0.0,"pressure":784.9,"uv_index":1.8,"wind_gusts":22.3,"aqi":81,"pm10":54.0,"pm2_5":17.2,"mosquito_risk":3,"arthritis_risk":5,"migraine_risk":3,"frizz_risk":0,"updated_at":"2026-03-29T14:15:06.080685+05:30"},{"city":"Manali","state":"Himachal Pradesh","latitude":32.2396,"longitude":77.1887,"temp":15.7,"humidity":87,"rain":0.4,"pressure":819.6,"uv_index":7.45,"wind_gusts":28.1,"aqi":69,"pm10":2.4,"pm2_5":1.7,"mosquito_risk":6,"arthritis_risk":10,"migraine_risk":7,"frizz_risk":0,"updated_at":"2026-03-29T14:15:06.080692+05:30"},{"city":"Gurgaon","state":"Haryana","latitude":28.4595,"longitude":77.0266,"temp":32.5,"humidity":43,"rain":0.0,"pressure":979.6,"uv_index":5.7,"wind_gusts":27.0,"aqi":453,"pm10":1441.7,"pm2_5":143.4,"mosquito_risk":0,"arthritis_risk":5,"migraine_risk":3,"frizz_risk":1,"updated_at":"2026-03-29T14:15:06.080701+05:30"},{"city":"Noida","state":"Uttar Pradesh","latitude":28.5355,"longitude":77.391,"temp":32.9,"humidity":40,"rain":0.0,"pressure":982.8,"uv_index":6.05,"wind_gusts":24.8,"aqi":453,"pm10":1441.7,"pm2_5":143.4,"mosquito_risk":0,"arthritis_risk":5,"migraine_risk":7,"frizz_risk":1,"updated_at":"2026-03-29T14:15:06.080707+05:30"},{"city":"Ghaziabad","state":"Uttar Pradesh","latitude":28.6692,"longitude":77.4538,"temp":32.1,"humidity":43,"rain":0.0,"pressure":981.2,"uv_index":6.1,"wind_gusts":24.1,"aqi":152,"pm10":312.9,"pm2_5":49.5,"mosquito_risk":0,"arthritis_risk":5,"migraine_risk":7,"frizz_risk":1,"updated_at":"2026-03-29T14:15:06.080713+05:30"},{"city":"Faridabad","state":"Haryana","latitude":28.4089,"longitude":77.3178,"temp":33.4,"humidity":38,"rain":0.0,"pressure":981.7,"uv_index":6.15,"wind_gusts":28.8,"aqi":453,"pm10":1441.7,"pm2_5":143.4,"mosquito_risk":0,"arthritis_risk":5,"migraine_risk":7,"frizz_risk":1,"updated_at":"2026-03-29T14:15:06.080719+05:30"},{"city":"Meerut","state":"Uttar Pradesh","latitude":28.9845,"longitude":77.7064,"temp":31.2,"humidity":41,"rain":0.0,"pressure":980.4,"uv_index":5.6,"wind_gusts":20.5,"aqi":152,"pm10":312.9,"pm2_5":49.5,"mosquito_risk":0,"arthritis_risk":5,"migraine_risk":3,"frizz_risk":1,"updated_at":"2026-03-29T14:15:06.080725+05:30"},{"city":"Agra","state":"Uttar Pradesh","latitude":27.1767,"longitude":78.0081,"temp":37.7,"humidity":24,"rain":0.0,"pressure":984.9,"uv_index":7.1,"wind_gusts":36.0,"aqi":395,"pm10":474.0,"pm2_5":52.7,"mosquito_risk":0,"arthritis_risk":5,"migraine_risk":10,"frizz_risk":0,"updated_at":"2026-03-29T14:15:06.080731+05:30"},{"city":"Varanasi","state":"Uttar Pradesh","latitude":25.3176,"longitude":82.9739,"temp":36.3,"humidity":27,"rain":0.0,"pressure":995.6,"uv_index":7.95,"wind_gusts":26.6,"aqi":90,"pm10":58.1,"pm2_5":19.0,"mosquito_risk":0,"arthritis_risk":5,"migraine_risk":10,"frizz_risk":0,"updated_at":"2026-03-29T14:15:06.080740+05:30"},{"city":"Prayagraj","state":"Uttar Pradesh","latitude":25.4358,"longitude":81.8463,"temp":35.3,"humidity":34,"rain":0.0,"pressure":993.9,"uv_index":7.8,"wind_gusts":22.7,"aqi":110,"pm10":66.6,"pm2_5":21.7,"mosquito_risk":0,"arthritis_risk":5,"migraine_risk":10,"frizz_risk":1,"updated_at":"2026-03-29T14:15:06.080749+05:30"},{"city":"Gorakhpur","state":"Uttar Pradesh","latitude":26.7606,"longitude":83.3732,"temp":32.8,"humidity":38,"rain":0.0,"pressure":995.9,"uv_index":7.65,"wind_gusts":26.3,"aqi":126,"pm10":87.8,"pm2_5":36.6,"mosquito_risk":0,"arthritis_risk":5,"migraine_risk":7,"frizz_risk":1,"updated_at":"2026-03-29T14:15:06.080755+05:30"},{"city":"Bareilly","state":"Uttar Pradesh","latitude":28.367,"longitude":79.4304,"temp":32.8,"humidity":39,"rain":0.0,"pressure":985.7,"uv_index":7.0,"wind_gusts":15.8,"aqi":97,"pm10":58.9,"pm2_5":27.4,"mosquito_risk":0,"arthritis_risk":5,"migraine_risk":7,"frizz_risk":1,"updated_at":"2026-03-29T14:15:06.080762+05:30"},{"city":"Aligarh","state":"Uttar Pradesh","latitude":27.8974,"longitude":78.088,"temp":34.2,"humidity":37,"rain":0.0,"pressure":983.5,"uv_index":6.9,"wind_gusts":26.3,"aqi":187,"pm10":407.9,"pm2_5":52.4,"mosquito_risk":0,"arthritis_risk":5,"migraine_risk":7,"frizz_risk":1,"updated_at":"2026-03-29T14:15:06.080768+05:30"},{"city":"Moradabad","state":"Uttar Pradesh","latitude":28.8386,"longitude":78.7733,"temp":31.9,"humidity":40,"rain":0.0,"pressure":982.7,"uv_index":6.6,"wind_gusts":18.0,"aqi":142,"pm10":65.4,"pm2_5":32.2,"mosquito_risk":0,"arthritis_risk":5,"migraine_risk":7,"frizz_risk":1,"updated_at":"2026-03-29T14:15:06.080774+05:30"},{"city":"Saharanpur","state":"Uttar Pradesh","latitude":29.9637,"longitude":77.546,"temp":26.7,"humidity":55,"rain":0.0,"pressure":975.9,"uv_index":5.4,"wind_gusts":25.6,"aqi":108,"pm10":80.3,"pm2_5":23.2,"mosquito_risk":4,"arthritis_risk":5,"migraine_risk":3,"frizz_risk":1,"updated_at":"2026-03-29T14:15:06.080780+05:30"},{"city":"Jhansi","state":"Uttar Pradesh","latitude":25.4484,"longitude":78.5685,"temp":38.6,"humidity":21,"rain":0.0,"pressure":975.0,"uv_index":7.8,"wind_gusts":27.4,"aqi":64,"pm10":25.5,"pm2_5":12.5,"mosquito_risk":0,"arthritis_risk":5,"migraine_risk":10,"frizz_risk":0,"updated_at":"2026-03-29T14:15:09.354581+05:30"},{"city":"Surat","state":"Gujarat","latitude":21.1702,"longitude":72.8311,"temp":30.7,"humidity":62,"rain":0.0,"pressure":1006.2,"uv_index":7.75,"wind_gusts":25.9,"aqi":71,"pm10":54.8,"pm2_5":31.9,"mosquito_risk":3,"arthritis_risk":5,"migraine_risk":4,"frizz_risk":1,"updated_at":"2026-03-29T14:15:09.354612+05:30"},{"city":"Vadodara","state":"Gujarat","latitude":22.3072,"longitude":73.1812,"temp":35.1,"humidity":46,"rain":0.0,"pressure":1003.1,"uv_index":7.85,"wind_gusts":31.3,"aqi":54,"pm10":69.2,"pm2_5":23.6,"mosquito_risk":0,"arthritis_risk":5,"migraine_risk":7,"frizz_risk":1,"updated_at":"2026-03-29T14:15:09.354622+05:30"},{"city":"Rajkot","state":"Gujarat","latitude":22.3039,"longitude":70.8022,"temp":32.5,"humidity":52,"rain":0.0,"pressure":993.7,"uv_index":7.6,"wind_gusts":32.8,"aqi":37,"pm10":54.9,"pm2_5":17.6,"mosquito_risk":0,"arthritis_risk":5,"migraine_risk":7,"frizz_risk":1,"updated_at":"2026-03-29T14:15:09.354630+05:30"},{"city":"Thane","state":"Maharashtra","latitude":19.2183,"longitude":72.9781,"temp":31.5,"humidity":59,"rain":0.0,"pressure":1007.2,"uv_index":8.0,"wind_gusts":35.3,"aqi":59,"pm10":47.0,"pm2_5":22.9,"mosquito_risk":0,"arthritis_risk":5,"migraine_risk":4,"frizz_risk":1,"updated_at":"2026-03-29T14:15:09.354637+05:30"},{"city":"Nagpur","state":"Maharashtra","latitude":21.1458,"longitude":79.0882,"temp":37.8,"humidity":21,"rain":0.0,"pressure":970.7,"uv_index":8.55,"wind_gusts":25.2,"aqi":64,"pm10":15.9,"pm2_5":12.6,"mosquito_risk":0,"arthritis_risk":5,"migraine_risk":10,"frizz_risk":0,"updated_at":"2026-03-29T14:15:09.354645+05:30"},{"city":"Nashik","state":"Maharashtra","latitude":19.9975,"longitude":73.7898,"temp":32.3,"humidity":44,"rain":0.0,"pressure":945.1,"uv_index":8.25,"wind_gusts":28.8,"aqi":50,"pm10":13.4,"pm2_5":6.7,"mosquito_risk":0,"arthritis_risk":5,"migraine_risk":7,"frizz_risk":1,"updated_at":"2026-03-29T14:15:09.354651+05:30"},{"city":"Aurangabad","state":"Maharashtra","latitude":19.8762,"longitude":75.3433,"temp":35.6,"humidity":29,"rain":0.0,"pressure":943.1,"uv_index":8.75,"wind_gusts":31.0,"aqi":41,"pm10":20.1,"pm2_5":7.7,"mosquito_risk":0,"arthritis_risk":5,"migraine_risk":10,"frizz_risk":0,"updated_at":"2026-03-29T14:15:09.354658+05:30"},{"city":"Solapur","state":"Maharashtra","latitude":17.6599,"longitude":75.9064,"temp":38.1,"humidity":18,"rain":0.0,"pressure":955.7,"uv_index":8.9,"wind_gusts":23.0,"aqi":56,"pm10":17.5,"pm2_5":10.7,"mosquito_risk":0,"arthritis_risk":5,"migraine_risk":10,"frizz_risk":0,"updated_at":"2026-03-29T14:15:09.354665+05:30"},{"city":"Kolhapur","state":"Maharashtra","latitude":16.705,"longitude":74.2433,"temp":34.0,"humidity":27,"rain":0.0,"pressure":947.2,"uv_index":9.0,"wind_gusts":36.7,"aqi":76,"pm10":23.6,"pm2_5":10.7,"mosquito_risk":0,"arthritis_risk":5,"migraine_risk":7,"frizz_risk":0,"updated_at":"2026-03-29T14:15:09.354672+05:30"},{"city":"Goa","state":"Goa","latitude":15.2993,"longitude":74.124,"temp":31.9,"humidity":57,"rain":0.0,"pressure":996.5,"uv_index":8.95,"wind_gusts":36.4,"aqi":89,"pm10":41.6,"pm2_5":14.4,"mosquito_risk":0,"arthritis_risk":5,"migraine_risk":7,"frizz_risk":1,"updated_at":"2026-03-29T14:15:09.354679+05:30"},{"city":"Jodhpur","state":"Rajasthan","latitude":26.2389,"longitude":73.0243,"temp":35.2,"humidity":23,"rain":0.0,"pressure":980.5,"uv_index":7.4,"wind_gusts":43.2,"aqi":116,"pm10":208.2,"pm2_5":23.9,"mosquito_risk":0,"arthritis_risk":5,"migraine_risk":10,"frizz_risk":0,"updated_at":"2026-03-29T14:15:09.354686+05:30"},{"city":"Udaipur","state":"Rajasthan","latitude":24.5854,"longitude":73.7125,"temp":33.7,"humidity":27,"rain":0.0,"pressure":945.7,"uv_index":8.2,"wind_gusts":35.3,"aqi":30,"pm10":19.8,"pm2_5":6.4,"mosquito_risk":0,"arthritis_risk":5,"migraine_risk":7,"frizz_risk":0,"updated_at":"2026-03-29T14:15:09.354693+05:30"},{"city":"Kota","state":"Rajasthan","latitude":25.2138,"longitude":75.8648,"temp":38.4,"humidity":21,"rain":0.0,"pressure":975.8,"uv_index":7.5,"wind_gusts":34.9,"aqi":54,"pm10":29.0,"pm2_5":8.8,"mosquito_risk":0,"arthritis_risk":5,"migraine_risk":10,"frizz_risk":0,"updated_at":"2026-03-29T14:15:09.354699+05:30"},{"city":"Bikaner","state":"Rajasthan","latitude":28.0229,"longitude":73.3119,"temp":35.1,"humidity":26,"rain":0.0,"pressure":978.6,"uv_index":7.55,"wind_gusts":34.6,"aqi":92,"pm10":113.2,"pm2_5":28.9,"mosquito_risk":0,"arthritis_risk":5,"migraine_risk":10,"frizz_risk":0,"updated_at":"2026-03-29T14:15:09.354706+05:30"},{"city":"Ajmer","state":"Rajasthan","latitude":26.4499,"longitude":74.6399,"temp":34.7,"humidity":23,"rain":0.0,"pressure":952.6,"uv_index":7.55,"wind_gusts":42.8,"aqi":33,"pm10":30.3,"pm2_5":8.5,"mosquito_risk":0,"arthritis_risk":5,"migraine_risk":7,"frizz_risk":0,"updated_at":"2026-03-29T14:15:09.354712+05:30"},{"city":"Gwalior","state":"Madhya Pradesh","latitude":26.2183,"longitude":78.1828,"temp":36.9,"humidity":26,"rain":0.0,"pressure":980.7,"uv_index":7.35,"wind_gusts":30.6,"aqi":83,"pm10":38.4,"pm2_5":10.6,"mosquito_risk":0,"arthritis_risk":5,"migraine_risk":10,"frizz_risk":0,"updated_at":"2026-03-29T14:15:09.354719+05:30"},{"city":"Indore","state":"Madhya Pradesh","latitude":22.7196,"longitude":75.8577,"temp":34.2,"humidity":34,"rain":0.0,"pressure":947.1,"uv_index":8.25,"wind_gusts":32.0,"aqi":39,"pm10":16.2,"pm2_5":7.0,"mosquito_risk":0,"arthritis_risk":5,"migraine_risk":7,"frizz_risk":1,"updated_at":"2026-03-29T14:15:09.354726+05:30"},{"city":"Bhopal","state":"Madhya Pradesh","latitude":23.2599,"longitude":77.4126,"temp":35.3,"humidity":29,"rain":0.0,"pressure":952.4,"uv_index":8.2,"wind_gusts":35.6,"aqi":38,"pm10":32.5,"pm2_5":10.4,"mosquito_risk":0,"arthritis_risk":5,"migraine_risk":10,"frizz_risk":0,"updated_at":"2026-03-29T14:15:09.354732+05:30"},{"city":"Jabalpur","state":"Madhya Pradesh","latitude":23.1815,"longitude":79.9864,"temp":36.5,"humidity":23,"rain":0.0,"pressure":959.6,"uv_index":8.3,"wind_gusts":33.8,"aqi":61,"pm10":7.9,"pm2_5":5.0,"mosquito_risk":0,"arthritis_risk":5,"migraine_risk":10,"frizz_risk":0,"updated_at":"2026-03-29T14:15:09.354739+05:30"},{"city":"Ujjain","state":"Madhya Pradesh","latitude":23.1765,"longitude":75.7885,"temp":33.9,"humidity":36,"rain":0.0,"pressure":952.8,"uv_index":8.15,"wind_gusts":34.9,"aqi":38,"pm10":17.3,"pm2_5":6.8,"mosquito_risk":0,"arthritis_risk":5,"migraine_risk":7,"frizz_risk":1,"updated_at":"2026-03-29T14:15:09.354746+05:30"},{"city":"Visakhapatnam","state":"Andhra Pradesh","latitude":17.6868,"longitude":83.2185,"temp":34.2,"humidity":52,"rain":0.0,"pressure":1001.1,"uv_index":9.0,"wind_gusts":40.3,"aqi":75,"pm10":34.5,"pm2_5":25.5,"mosquito_risk":0,"arthritis_risk":5,"migraine_risk":4,"frizz_risk":1,"updated_at":"2026-03-29T14:15:09.354752+05:30"},{"city":"Vijayawada","state":"Andhra Pradesh","latitude":16.5062,"longitude":80.648,"temp":37.0,"humidity":40,"rain":0.0,"pressure":999.5,"uv_index":9.05,"wind_gusts":29.9,"aqi":74,"pm10":35.0,"pm2_5":27.1,"mosquito_risk":0,"arthritis_risk":5,"migraine_risk":10,"frizz_risk":1,"updated_at":"2026-03-29T14:15:09.354759+05:30"},{"city":"Guntur","state":"Andhra Pradesh","latitude":16.3067,"longitude":80.4365,"temp":35.8,"humidity":41,"rain":0.0,"pressure":1000.9,"uv_index":9.05,"wind_gusts":31.3,"aqi":80,"pm10":43.1,"pm2_5":34.8,"mosquito_risk":0,"arthritis_risk":5,"migraine_risk":7,"frizz_risk":1,"updated_at":"2026-03-29T14:15:09.354766+05:30"},{"city":"Nellore","state":"Andhra Pradesh","latitude":14.4426,"longitude":79.9865,"temp":37.9,"humidity":34,"rain":0.0,"pressure":1002.6,"uv_index":8.75,"wind_gusts":33.8,"aqi":70,"pm10":34.5,"pm2_5":28.8,"mosquito_risk":0,"arthritis_risk":5,"migraine_risk":7,"frizz_risk":1,"updated_at":"2026-03-29T14:15:09.354773+05:30"},{"city":"Kurnool","state":"Andhra Pradesh","latitude":15.8281,"longitude":78.0373,"temp":38.6,"humidity":23,"rain":0.0,"pressure":974.2,"uv_index":9.1,"wind_gusts":29.2,"aqi":113,"pm10":26.5,"pm2_5":22.6,"mosquito_risk":0,"arthritis_risk":5,"migraine_risk":10,"frizz_risk":0,"updated_at":"2026-03-29T14:15:09.354781+05:30"},{"city":"Kakinada","state":"Andhra Pradesh","latitude":16.9891,"longitude":82.2475,"temp":36.7,"humidity":44,"rain":0.0,"pressure":1004.6,"uv_index":9.0,"wind_gusts":30.2,"aqi":61,"pm10":27.0,"pm2_5":16.8,"mosquito_risk":0,"arthritis_risk":5,"migraine_risk":7,"frizz_risk":1,"updated_at":"2026-03-29T14:15:09.354788+05:30"},{"city":"Tirupati","state":"Andhra Pradesh","latitude":13.6288,"longitude":79.4192,"temp":36.1,"humidity":38,"rain":0.0,"pressure":988.8,"uv_index":9.2,"wind_gusts":34.6,"aqi":94,"pm10":37.6,"pm2_5":31.4,"mosquito_risk":0,"arthritis_risk":5,"migraine_risk":10,"frizz_risk":1,"updated_at":"2026-03-29T14:15:09.354793+05:30"},{"city":"Warangal","state":"Telangana","latitude":17.9689,"longitude":79.5941,"temp":37.0,"humidity":40,"rain":0.0,"pressure":976.2,"uv_index":8.9,"wind_gusts":28.4,"aqi":109,"pm10":43.8,"pm2_5":38.0,"mosquito_risk":0,"arthritis_risk":5,"migraine_risk":10,"frizz_risk":1,"updated_at":"2026-03-29T14:15:09.354800+05:30"},{"city":"Nizamabad","state":"Telangana","latitude":18.6725,"longitude":78.0941,"temp":37.0,"humidity":25,"rain":0.0,"pressure":963.1,"uv_index":8.8,"wind_gusts":29.2,"aqi":73,"pm10":14.9,"pm2_5":13.2,"mosquito_risk":0,"arthritis_risk":5,"migraine_risk":10,"frizz_risk":0,"updated_at":"2026-03-29T14:15:09.354806+05:30"},{"city":"Mysore","state":"Karnataka","latitude":12.2958,"longitude":76.6396,"temp":33.0,"humidity":40,"rain":0.0,"pressure":926.7,"uv_index":8.55,"wind_gusts":36.0,"aqi":112,"pm10":58.3,"pm2_5":47.4,"mosquito_risk":0,"arthritis_risk":5,"migraine_risk":7,"frizz_risk":1,"updated_at":"2026-03-29T14:15:09.354835+05:30"},{"city":"Mangalore","state":"Karnataka","latitude":12.9141,"longitude":74.856,"temp":29.2,"humidity":87,"rain":0.0,"pressure":1003.9,"uv_index":9.1,"wind_gusts":29.2,"aqi":101,"pm10":39.9,"pm2_5":32.8,"mosquito_risk":7,"arthritis_risk":5,"migraine_risk":4,"frizz_risk":1,"updated_at":"2026-03-29T14:15:09.354843+05:30"},{"city":"Hubli-Dharwad","state":"Karnataka","latitude":15.3647,"longitude":75.124,"temp":35.9,"humidity":20,"rain":0.0,"pressure":939.6,"uv_index":9.15,"wind_gusts":27.7,"aqi":95,"pm10":11.4,"pm2_5":9.3,"mosquito_risk":0,"arthritis_risk":5,"migraine_risk":10,"frizz_risk":0,"updated_at":"2026-03-29T14:15:09.354850+05:30"},{"city":"Belgaum","state":"Karnataka","latitude":15.8497,"longitude":74.4977,"temp":33.2,"humidity":28,"rain":0.0,"pressure":925.1,"uv_index":9.2,"wind_gusts":36.4,"aqi":80,"pm10":19.0,"pm2_5":7.9,"mosquito_risk":0,"arthritis_risk":5,"migraine_risk":7,"frizz_risk":0,"updated_at":"2026-03-29T14:15:12.626500+05:30"},{"city":"Coimbatore","state":"Tamil Nadu","latitude":11.0168,"longitude":76.9558,"temp":37.3,"humidity":25,"rain":0.0,"pressure":959.0,"uv_index":9.4,"wind_gusts":53.6,"aqi":97,"pm10":45.6,"pm2_5":37.1,"mosquito_risk":0,"arthritis_risk":5,"migraine_risk":10,"frizz_risk":0,"updated_at":"2026-03-29T14:15:12.626533+05:30"},{"city":"Madurai","state":"Tamil Nadu","latitude":9.9252,"longitude":78.1198,"temp":35.7,"humidity":37,"rain":0.0,"pressure":990.2,"uv_index":9.0,"wind_gusts":26.3,"aqi":83,"pm10":23.5,"pm2_5":19.4,"mosquito_risk":0,"arthritis_risk":5,"migraine_risk":10,"frizz_risk":1,"updated_at":"2026-03-29T14:15:12.626546+05:30"},{"city":"Trichy","state":"Tamil Nadu","latitude":10.7905,"longitude":78.7047,"temp":36.7,"humidity":39,"rain":0.0,"pressure":996.8,"uv_index":8.85,"wind_gusts":29.5,"aqi":69,"pm10":20.8,"pm2_5":16.9,"mosquito_risk":0,"arthritis_risk":5,"migraine_risk":10,"frizz_risk":1,"updated_at":"2026-03-29T14:15:12.626556+05:30"},{"city":"Salem","state":"Tamil Nadu","latitude":11.6643,"longitude":78.146,"temp":37.3,"humidity":30,"rain":0.0,"pressure":974.3,"uv_index":9.4,"wind_gusts":35.6,"aqi":80,"pm10":37.0,"pm2_5":29.6,"mosquito_risk":0,"arthritis_risk":5,"migraine_risk":10,"frizz_risk":1,"updated_at":"2026-03-29T14:15:12.626565+05:30"},{"city":"Tirunelveli","state":"Tamil Nadu","latitude":8.7139,"longitude":77.7567,"temp":38.2,"humidity":29,"rain":0.0,"pressure":1000.1,"uv_index":9.4,"wind_gusts":43.9,"aqi":73,"pm10":21.2,"pm2_5":17.7,"mosquito_risk":0,"arthritis_risk":5,"migraine_risk":7,"frizz_risk":1,"updated_at":"2026-03-29T14:15:12.626575+05:30"},{"city":"Vellore","state":"Tamil Nadu","latitude":12.9165,"longitude":79.1325,"temp":37.0,"humidity":29,"rain":0.0,"pressure":981.7,"uv_index":9.35,"wind_gusts":37.4,"aqi":123,"pm10":37.4,"pm2_5":31.5,"mosquito_risk":0,"arthritis_risk":5,"migraine_risk":10,"frizz_risk":0,"updated_at":"2026-03-29T14:15:12.626584+05:30"},{"city":"Erode","state":"Tamil Nadu","latitude":11.341,"longitude":77.7172,"temp":39.1,"humidity":26,"rain":0.0,"pressure":985.4,"uv_index":9.35,"wind_gusts":38.9,"aqi":97,"pm10":35.3,"pm2_5":28.6,"mosquito_risk":0,"arthritis_risk":5,"migraine_risk":10,"frizz_risk":1,"updated_at":"2026-03-29T14:15:12.626592+05:30"},{"city":"Kochi","state":"Kerala","latitude":9.9312,"longitude":76.2673,"temp":29.6,"humidity":78,"rain":0.0,"pressure":1005.6,"uv_index":8.8,"wind_gusts":27.4,"aqi":91,"pm10":34.1,"pm2_5":29.6,"mosquito_risk":7,"arthritis_risk":5,"migraine_risk":4,"frizz_risk":1,"updated_at":"2026-03-29T14:15:12.626602+05:30"},{"city":"Thiruvananthapuram","state":"Kerala","latitude":8.5241,"longitude":76.9366,"temp":29.5,"humidity":79,"rain":0.0,"pressure":1005.2,"uv_index":9.2,"wind_gusts":31.3,"aqi":76,"pm10":26.8,"pm2_5":22.9,"mosquito_risk":7,"arthritis_risk":5,"migraine_risk":4,"frizz_risk":1,"updated_at":"2026-03-29T14:15:12.626611+05:30"},{"city":"Kozhikode","state":"Kerala","latitude":11.2588,"longitude":75.7804,"temp":30.5,"humidity":78,"rain":0.0,"pressure":1004.9,"uv_index":9.1,"wind_gusts":28.4,"aqi":79,"pm10":31.0,"pm2_5":25.8,"mosquito_risk":3,"arthritis_risk":5,"migraine_risk":4,"frizz_risk":1,"updated_at":"2026-03-29T14:15:12.626620+05:30"},{"city":"Thrissur","state":"Kerala","latitude":10.5276,"longitude":76.2144,"temp":33.4,"humidity":61,"rain":0.0,"pressure":1003.8,"uv_index":9.15,"wind_gusts":34.6,"aqi":90,"pm10":36.1,"pm2_5":30.7,"mosquito_risk":3,"arthritis_risk":5,"migraine_risk":4,"frizz_risk":1,"updated_at":"2026-03-29T14:15:12.626629+05:30"},{"city":"Kannur","state":"Kerala","latitude":11.8745,"longitude":75.3704,"temp":31.7,"humidity":68,"rain":0.0,"pressure":1004.2,"uv_index":9.15,"wind_gusts":34.6,"aqi":91,"pm10":41.6,"pm2_5":35.2,"mosquito_risk":3,"arthritis_risk":5,"migraine_risk":4,"frizz_risk":1,"updated_at":"2026-03-29T14:15:12.626638+05:30"},{"city":"Patna","state":"Bihar","latitude":25.5941,"longitude":85.1376,"temp":32.2,"humidity":46,"rain":0.0,"pressure":999.1,"uv_index":8.05,"wind_gusts":23.8,"aqi":117,"pm10":77.3,"pm2_5":41.8,"mosquito_risk":0,"arthritis_risk":5,"migraine_risk":7,"frizz_risk":1,"updated_at":"2026-03-29T14:15:12.626647+05:30"},{"city":"Gaya","state":"Bihar","latitude":24.7914,"longitude":85.0002,"temp":33.6,"humidity":43,"rain":0.0,"pressure":992.0,"uv_index":8.15,"wind_gusts":17.6,"aqi":98,"pm10":68.9,"pm2_5":27.2,"mosquito_risk":0,"arthritis_risk":5,"migraine_risk":7,"frizz_risk":1,"updated_at":"2026-03-29T14:15:12.626655+05:30"},{"city":"Muzaffarpur","state":"Bihar","latitude":26.1209,"longitude":85.3647,"temp":31.6,"humidity":48,"rain":0.0,"pressure":999.3,"uv_index":8.05,"wind_gusts":28.1,"aqi":123,"pm10":72.9,"pm2_5":45.4,"mosquito_risk":0,"arthritis_risk":5,"migraine_risk":7,"frizz_risk":1,"updated_at":"2026-03-29T14:15:12.626663+05:30"},{"city":"Bhagalpur","state":"Bihar","latitude":25.2425,"longitude":87.0117,"temp":30.0,"humidity":61,"rain":0.0,"pressure":1000.2,"uv_index":7.85,"wind_gusts":19.8,"aqi":120,"pm10":70.1,"pm2_5":52.9,"mosquito_risk":7,"arthritis_risk":5,"migraine_risk":4,"frizz_risk":1,"updated_at":"2026-03-29T14:15:12.626672+05:30"},{"city":"Ranchi","state":"Jharkhand","latitude":23.3441,"longitude":85.3096,"temp":32.7,"humidity":34,"rain":0.0,"pressure":936.4,"uv_index":8.75,"wind_gusts":33.5,"aqi":109,"pm10":34.9,"pm2_5":17.2,"mosquito_risk":0,"arthritis_risk":5,"migraine_risk":7,"frizz_risk":0,"updated_at":"2026-03-29T14:15:12.626680+05:30"},{"city":"Jamshedpur","state":"Jharkhand","latitude":22.8046,"longitude":86.2029,"temp":36.2,"humidity":37,"rain":0.0,"pressure":988.0,"uv_index":8.55,"wind_gusts":33.8,"aqi":127,"pm10":54.4,"pm2_5":41.8,"mosquito_risk":0,"arthritis_risk":5,"migraine_risk":10,"frizz_risk":1,"updated_at":"2026-03-29T14:15:12.626688+05:30"},{"city":"Dhanbad","state":"Jharkhand","latitude":23.7957,"longitude":86.4304,"temp":34.1,"humidity":38,"rain":0.0,"pressure":977.9,"uv_index":8.5,"wind_gusts":18.7,"aqi":155,"pm10":75.4,"pm2_5":58.0,"mosquito_risk":0,"arthritis_risk":5,"migraine_risk":7,"frizz_risk":1,"updated_at":"2026-03-29T14:15:12.626697+05:30"},{"city":"Bokaro","state":"Jharkhand","latitude":23.6693,"longitude":86.1511,"temp":33.4,"humidity":44,"rain":0.0,"pressure":981.8,"uv_index":8.5,"wind_gusts":23.0,"aqi":155,"pm10":65.4,"pm2_5":44.9,"mosquito_risk":0,"arthritis_risk":5,"migraine_risk":7,"frizz_risk":1,"updated_at":"2026-03-29T14:15:12.626705+05:30"},{"city":"Bhubaneswar","state":"Odisha","latitude":20.2961,"longitude":85.8245,"temp":34.6,"humidity":53,"rain":0.0,"pressure":999.8,"uv_index":8.8,"wind_gusts":31.3,"aqi":77,"pm10":31.3,"pm2_5":24.9,"mosquito_risk":0,"arthritis_risk":5,"migraine_risk":7,"frizz_risk":1,"updated_at":"2026-03-29T14:15:12.626714+05:30"},{"city":"Cuttack","state":"Odisha","latitude":20.4625,"longitude":85.8828,"temp":36.7,"humidity":47,"rain":0.0,"pressure":1001.0,"uv_index":8.85,"wind_gusts":34.6,"aqi":77,"pm10":31.3,"pm2_5":24.9,"mosquito_risk":0,"arthritis_risk":5,"migraine_risk":7,"frizz_risk":1,"updated_at":"2026-03-29T14:15:12.626721+05:30"},{"city":"Rourkela","state":"Odisha","latitude":22.2604,"longitude":84.8536,"temp":38.1,"humidity":24,"rain":0.0,"pressure":982.1,"uv_index":8.5,"wind_gusts":32.4,"aqi":120,"pm10":38.4,"pm2_5":27.2,"mosquito_risk":0,"arthritis_risk":5,"migraine_risk":10,"frizz_risk":0,"updated_at":"2026-03-29T14:15:12.626728+05:30"},{"city":"Raipur","state":"Chhattisgarh","latitude":21.2514,"longitude":81.6296,"temp":39.2,"humidity":19,"rain":0.0,"pressure":971.9,"uv_index":8.6,"wind_gusts":29.9,"aqi":103,"pm10":22.5,"pm2_5":19.3,"mosquito_risk":0,"arthritis_risk":5,"migraine_risk":10,"frizz_risk":0,"updated_at":"2026-03-29T14:15:12.626735+05:30"},{"city":"Bhilai","state":"Chhattisgarh","latitude":21.1938,"longitude":81.3509,"temp":39.3,"humidity":20,"rain":0.0,"pressure":972.2,"uv_index":8.6,"wind_gusts":32.8,"aqi":83,"pm10":18.9,"pm2_5":16.4,"mosquito_risk":0,"arthritis_risk":5,"migraine_risk":10,"frizz_risk":0,"updated_at":"2026-03-29T14:15:12.626741+05:30"},{"city":"Guwahati","state":"Assam","latitude":26.1158,"longitude":91.7086,"temp":26.8,"humidity":64,"rain":0.0,"pressure":1001.4,"uv_index":7.15,"wind_gusts":14.4,"aqi":102,"pm10":56.5,"pm2_5":30.9,"mosquito_risk":7,"arthritis_risk":5,"migraine_risk":4,"frizz_risk":1,"updated_at":"2026-03-29T14:15:12.626748+05:30"},{"city":"Agartala","state":"Tripura","latitude":23.8315,"longitude":91.2868,"temp":26.5,"humidity":76,"rain":0.0,"pressure":1005.7,"uv_index":8.2,"wind_gusts":37.4,"aqi":121,"pm10":58.7,"pm2_5":44.1,"mosquito_risk":7,"arthritis_risk":5,"migraine_risk":4,"frizz_risk":1,"updated_at":"2026-03-29T14:15:12.626755+05:30"},{"city":"Shillong","state":"Meghalaya","latitude":25.5788,"longitude":91.8933,"temp":16.6,"humidity":68,"rain":0.0,"pressure":855.2,"uv_index":5.65,"wind_gusts":43.9,"aqi":73,"pm10":45.3,"pm2_5":27.6,"mosquito_risk":3,"arthritis_risk":5,"migraine_risk":3,"frizz_risk":0,"updated_at":"2026-03-29T14:15:12.626762+05:30"},{"city":"Imphal","state":"Manipur","latitude":24.817,"longitude":93.9368,"temp":19.8,"humidity":78,"rain":0.0,"pressure":922.5,"uv_index":7.35,"wind_gusts":61.9,"aqi":121,"pm10":60.8,"pm2_5":42.0,"mosquito_risk":3,"arthritis_risk":5,"migraine_risk":7,"frizz_risk":0,"updated_at":"2026-03-29T14:15:12.626770+05:30"},{"city":"Aizawl","state":"Mizoram","latitude":23.7271,"longitude":92.7176,"temp":23.1,"humidity":69,"rain":0.0,"pressure":892.6,"uv_index":6.95,"wind_gusts":52.9,"aqi":129,"pm10":66.1,"pm2_5":47.8,"mosquito_risk":3,"arthritis_risk":5,"migraine_risk":7,"frizz_risk":1,"updated_at":"2026-03-29T14:15:12.626776+05:30"},{"city":"Kohima","state":"Nagaland","latitude":25.6701,"longitude":94.1077,"temp":16.8,"humidity":85,"rain":0.0,"pressure":854.1,"uv_index":7.15,"wind_gusts":86.4,"aqi":102,"pm10":54.4,"pm2_5":31.9,"mosquito_risk":3,"arthritis_risk":10,"migraine_risk":7,"frizz_risk":0,"updated_at":"2026-03-29T14:15:12.626782+05:30"},{"city":"Gangtok","state":"Sikkim","latitude":27.3314,"longitude":88.6138,"temp":18.2,"humidity":61,"rain":0.0,"pressure":836.4,"uv_index":8.1,"wind_gusts":19.8,"aqi":65,"pm10":23.4,"pm2_5":18.0,"mosquito_risk":3,"arthritis_risk":5,"migraine_risk":7,"frizz_risk":0,"updated_at":"2026-03-29T14:15:12.626789+05:30"},{"city":"Siliguri","state":"West Bengal","latitude":26.7271,"longitude":88.3953,"temp":20.9,"humidity":84,"rain":0.0,"pressure":994.2,"uv_index":6.7,"wind_gusts":12.6,"aqi":124,"pm10":51.0,"pm2_5":34.5,"mosquito_risk":3,"arthritis_risk":5,"migraine_risk":7,"frizz_risk":1,"updated_at":"2026-03-29T14:15:15.904089+05:30"},{"city":"Durgapur","state":"West Bengal","latitude":23.5204,"longitude":87.3119,"temp":33.5,"humidity":51,"rain":0.0,"pressure":992.7,"uv_index":8.45,"wind_gusts":22.3,"aqi":150,"pm10":79.9,"pm2_5":70.1,"mosquito_risk":0,"arthritis_risk":5,"migraine_risk":7,"frizz_risk":1,"updated_at":"2026-03-29T14:15:15.904120+05:30"},{"city":"Asansol","state":"West Bengal","latitude":23.6739,"longitude":86.9524,"temp":33.4,"humidity":51,"rain":0.0,"pressure":991.4,"uv_index":8.45,"wind_gusts":23.4,"aqi":150,"pm10":79.9,"pm2_5":67.5,"mosquito_risk":0,"arthritis_risk":5,"migraine_risk":7,"frizz_risk":1,"updated_at":"2026-03-29T14:15:15.904130+05:30"},{"city":"Pondicherry","state":"Puducherry","latitude":11.9139,"longitude":79.8145,"temp":35.0,"humidity":51,"rain":0.0,"pressure":1005.8,"uv_index":9.0,"wind_gusts":32.4,"aqi":57,"pm10":19.4,"pm2_5":14.6,"mosquito_risk":0,"arthritis_risk":5,"migraine_risk":4,"frizz_risk":1,"updated_at":"2026-03-29T14:15:15.904137+05:30"},{"city":"Port Blair","state":"Andaman and Nicobar Islands","latitude":11.6234,"longitude":92.7265,"temp":28.2,"humidity":79,"rain":0.0,"pressure":1005.2,"uv_index":8.85,"wind_gusts":15.5,"aqi":63,"pm10":23.9,"pm2_5":19.1,"mosquito_risk":7,"arthritis_risk":5,"migraine_risk":4,"frizz_risk":1,"updated_at":"2026-03-29T14:15:15.904144+05:30"},{"city":"Haridwar","state":"Uttarakhand","latitude":29.9457,"longitude":78.1642,"temp":27.2,"humidity":52,"rain":0.0,"pressure":974.7,"uv_index":6.05,"wind_gusts":34.6,"aqi":89,"pm10":82.4,"pm2_5":21.0,"mosquito_risk":4,"arthritis_risk":5,"migraine_risk":7,"frizz_risk":1,"updated_at":"2026-03-29T14:15:15.904151+05:30"},{"city":"Rishikesh","state":"Uttarakhand","latitude":30.0869,"longitude":78.2676,"temp":28.3,"humidity":50,"rain":0.0,"pressure":967.4,"uv_index":4.45,"wind_gusts":29.5,"aqi":75,"pm10":48.5,"pm2_5":15.0,"mosquito_risk":4,"arthritis_risk":5,"migraine_risk":3,"frizz_risk":1,"updated_at":"2026-03-29T14:15:15.904158+05:30"},{"city":"Nainital","state":"Uttarakhand","latitude":29.3919,"longitude":79.4542,"temp":21.5,"humidity":67,"rain":0.0,"pressure":807.1,"uv_index":7.1,"wind_gusts":58.7,"aqi":78,"pm10":36.3,"pm2_5":16.4,"mosquito_risk":3,"arthritis_risk":5,"migraine_risk":7,"frizz_risk":0,"updated_at":"2026-03-29T14:15:15.904165+05:30"},{"city":"Mussoorie","state":"Uttarakhand","latitude":30.4599,"longitude":78.0664,"temp":17.9,"humidity":80,"rain":0.0,"pressure":803.1,"uv_index":4.4,"wind_gusts":23.8,"aqi":89,"pm10":38.3,"pm2_5":20.8,"mosquito_risk":3,"arthritis_risk":5,"migraine_risk":3,"frizz_risk":0,"updated_at":"2026-03-29T14:15:15.904173+05:30"},{"city":"Dharamshala","state":"Himachal Pradesh","latitude":32.219,"longitude":76.3234,"temp":19.8,"humidity":72,"rain":0.0,"pressure":868.9,"uv_index":6.95,"wind_gusts":26.6,"aqi":53,"pm10":8.5,"pm2_5":2.6,"mosquito_risk":3,"arthritis_risk":5,"migraine_risk":7,"frizz_risk":0,"updated_at":"2026-03-29T14:15:15.904180+05:30"},{"city":"Dalhousie","state":"Himachal Pradesh","latitude":32.5387,"longitude":75.971,"temp":17.3,"humidity":62,"rain":0.0,"pressure":803.5,"uv_index":7.4,"wind_gusts":27.0,"aqi":80,"pm10":22.6,"pm2_5":7.3,"mosquito_risk":3,"arthritis_risk":5,"migraine_risk":7,"frizz_risk":0,"updated_at":"2026-03-29T14:15:15.904187+05:30"},{"city":"Patiala","state":"Punjab","latitude":30.3398,"longitude":76.3869,"temp":27.3,"humidity":55,"rain":0.0,"pressure":977.9,"uv_index":6.6,"wind_gusts":35.6,"aqi":113,"pm10":186.7,"pm2_5":37.8,"mosquito_risk":4,"arthritis_risk":5,"migraine_risk":7,"frizz_risk":1,"updated_at":"2026-03-29T14:15:15.904194+05:30"},{"city":"Bhatinda","state":"Punjab","latitude":30.211,"longitude":74.9455,"temp":31.7,"humidity":44,"rain":0.0,"pressure":981.5,"uv_index":7.25,"wind_gusts":38.5,"aqi":89,"pm10":239.3,"pm2_5":49.0,"mosquito_risk":0,"arthritis_risk":5,"migraine_risk":7,"frizz_risk":1,"updated_at":"2026-03-29T14:15:15.904201+05:30"},{"city":"Rohtak","state":"Haryana","latitude":28.8955,"longitude":76.6066,"temp":31.5,"humidity":45,"rain":0.0,"pressure":980.1,"uv_index":6.25,"wind_gusts":31.7,"aqi":171,"pm10":597.9,"pm2_5":76.6,"mosquito_risk":0,"arthritis_risk":5,"migraine_risk":7,"frizz_risk":1,"updated_at":"2026-03-29T14:15:15.904207+05:30"},{"city":"Panipat","state":"Haryana","latitude":29.3909,"longitude":76.9635,"temp":29.6,"humidity":47,"rain":0.0,"pressure":979.3,"uv_index":6.1,"wind_gusts":30.2,"aqi":294,"pm10":730.2,"pm2_5":88.7,"mosquito_risk":4,"arthritis_risk":5,"migraine_risk":7,"frizz_risk":1,"updated_at":"2026-03-29T14:15:15.904214+05:30"},{"city":"Mathura","state":"Uttar Pradesh","latitude":27.4924,"longitude":77.6737,"temp":36.1,"humidity":28,"rain":0.0,"pressure":984.1,"uv_index":7.0,"wind_gusts":26.6,"aqi":301,"pm10":562.5,"pm2_5":65.2,"mosquito_risk":0,"arthritis_risk":5,"migraine_risk":10,"frizz_risk":0,"updated_at":"2026-03-29T14:15:15.904220+05:30"},{"city":"Vrindavan","state":"Uttar Pradesh","latitude":27.5823,"longitude":77.7027,"temp":35.7,"humidity":31,"rain":0.0,"pressure":984.5,"uv_index":6.9,"wind_gusts":29.5,"aqi":301,"pm10":562.5,"pm2_5":65.2,"mosquito_risk":0,"arthritis_risk":5,"migraine_risk":10,"frizz_risk":0,"updated_at":"2026-03-29T14:15:15.904227+05:30"},{"city":"Ayodhya","state":"Uttar Pradesh","latitude":26.7922,"longitude":82.1998,"temp":33.7,"humidity":35,"rain":0.0,"pressure":994.1,"uv_index":7.35,"wind_gusts":20.9,"aqi":139,"pm10":100.1,"pm2_5":33.8,"mosquito_risk":0,"arthritis_risk":5,"migraine_risk":7,"frizz_risk":1,"updated_at":"2026-03-29T14:15:15.904234+05:30"},{"city":"Ratlam","state":"Madhya Pradesh","latitude":23.3315,"longitude":75.0367,"temp":32.8,"humidity":39,"rain":0.0,"pressure":953.9,"uv_index":8.1,"wind_gusts":33.8,"aqi":36,"pm10":20.2,"pm2_5":6.9,"mosquito_risk":0,"arthritis_risk":5,"migraine_risk":7,"frizz_risk":1,"updated_at":"2026-03-29T14:15:15.904240+05:30"},{"city":"Sagar","state":"Madhya Pradesh","latitude":23.8388,"longitude":78.7378,"temp":36.4,"humidity":23,"rain":0.0,"pressure":948.6,"uv_index":8.2,"wind_gusts":33.1,"aqi":42,"pm10":15.3,"pm2_5":4.7,"mosquito_risk":0,"arthritis_risk":5,"migraine_risk":10,"frizz_risk":0,"updated_at":"2026-03-29T14:15:15.904247+05:30"},{"city":"Satna","state":"Madhya Pradesh","latitude":24.6005,"longitude":80.8322,"temp":37.7,"humidity":22,"rain":0.0,"pressure":968.8,"uv_index":8.15,"wind_gusts":36.0,"aqi":64,"pm10":35.6,"pm2_5":11.5,"mosquito_risk":0,"arthritis_risk":5,"migraine_risk":10,"frizz_risk":0,"updated_at":"2026-03-29T14:15:15.904254+05:30"},{"city":"Akola","state":"Maharashtra","latitude":20.7002,"longitude":77.0082,"temp":37.3,"humidity":30,"rain":0.0,"pressure":973.4,"uv_index":8.5,"wind_gusts":27.4,"aqi":45,"pm10":26.5,"pm2_5":9.9,"mosquito_risk":0,"arthritis_risk":5,"migraine_risk":10,"frizz_risk":1,"updated_at":"2026-03-29T14:15:15.904261+05:30"},{"city":"Amravati","state":"Maharashtra","latitude":20.9374,"longitude":77.7796,"temp":37.7,"humidity":26,"rain":0.0,"pressure":965.5,"uv_index":8.5,"wind_gusts":27.4,"aqi":41,"pm10":23.1,"pm2_5":10.2,"mosquito_risk":0,"arthritis_risk":5,"migraine_risk":10,"frizz_risk":0,"updated_at":"2026-03-29T14:15:15.904267+05:30"},{"city":"Latur","state":"Maharashtra","latitude":18.4088,"longitude":76.5604,"temp":35.6,"humidity":21,"rain":0.0,"pressure":938.6,"uv_index":8.85,"wind_gusts":28.4,"aqi":54,"pm10":20.6,"pm2_5":13.8,"mosquito_risk":0,"arthritis_risk":5,"migraine_risk":10,"frizz_risk":0,"updated_at":"2026-03-29T14:15:15.904274+05:30"},{"city":"Nanded","state":"Maharashtra","latitude":19.1383,"longitude":77.3091,"temp":38.8,"humidity":19,"rain":0.0,"pressure":966.8,"uv_index":8.7,"wind_gusts":18.4,"aqi":58,"pm10":18.9,"pm2_5":13.2,"mosquito_risk":0,"arthritis_risk":5,"migraine_risk":10,"frizz_risk":0,"updated_at":"2026-03-29T14:15:15.904281+05:30"},{"city":"Gulbarga","state":"Karnataka","latitude":17.3297,"longitude":76.8343,"temp":38.3,"humidity":18,"rain":0.0,"pressure":956.7,"uv_index":8.9,"wind_gusts":32.0,"aqi":65,"pm10":24.6,"pm2_5":19.6,"mosquito_risk":0,"arthritis_risk":5,"migraine_risk":10,"frizz_risk":0,"updated_at":"2026-03-29T14:15:15.904287+05:30"},{"city":"Bidar","state":"Karnataka","latitude":17.9104,"longitude":77.5199,"temp":36.5,"humidity":20,"rain":0.0,"pressure":934.2,"uv_index":8.9,"wind_gusts":30.2,"aqi":78,"pm10":24.8,"pm2_5":20.5,"mosquito_risk":0,"arthritis_risk":5,"migraine_risk":10,"frizz_risk":0,"updated_at":"2026-03-29T14:15:15.904293+05:30"},{"city":"Hospet","state":"Karnataka","latitude":15.2689,"longitude":76.3909,"temp":35.7,"humidity":23,"rain":0.0,"pressure":954.3,"uv_index":9.1,"wind_gusts":18.7,"aqi":98,"pm10":15.6,"pm2_5":11.7,"mosquito_risk":0,"arthritis_risk":5,"migraine_risk":10,"frizz_risk":0,"updated_at":"2026-03-29T14:15:15.904299+05:30"},{"city":"Tirupur","state":"Tamil Nadu","latitude":11.1085,"longitude":77.3411,"temp":38.5,"humidity":23,"rain":0.0,"pressure":972.2,"uv_index":9.45,"wind_gusts":39.2,"aqi":108,"pm10":42.1,"pm2_5":34.7,"mosquito_risk":0,"arthritis_risk":5,"migraine_risk":10,"frizz_risk":0,"updated_at":"2026-03-29T14:15:15.904306+05:30"},{"city":"Alappuzha","state":"Kerala","latitude":9.4981,"longitude":76.3388,"temp":29.5,"humidity":80,"rain":0.0,"pressure":1005.9,"uv_index":8.85,"wind_gusts":25.6,"aqi":87,"pm10":32.0,"pm2_5":27.7,"mosquito_risk":7,"arthritis_risk":5,"migraine_risk":4,"frizz_risk":1,"updated_at":"2026-03-29T14:15:15.904312+05:30"},{"city":"Munnar","state":"Kerala","latitude":10.0889,"longitude":77.0595,"temp":27.0,"humidity":60,"rain":0.0,"pressure":856.9,"uv_index":8.8,"wind_gusts":33.1,"aqi":87,"pm10":27.9,"pm2_5":22.1,"mosquito_risk":4,"arthritis_risk":5,"migraine_risk":7,"frizz_risk":1,"updated_at":"2026-03-29T14:15:15.904319+05:30"},{"city":"Silchar","state":"Assam","latitude":24.8333,"longitude":92.7789,"temp":24.7,"humidity":80,"rain":0.0,"pressure":1005.3,"uv_index":8.2,"wind_gusts":34.9,"aqi":145,"pm10":72.2,"pm2_5":44.8,"mosquito_risk":3,"arthritis_risk":5,"migraine_risk":4,"frizz_risk":1,"updated_at":"2026-03-29T14:15:15.904325+05:30"},{"city":"Dibrugarh","state":"Assam","latitude":27.4728,"longitude":94.912,"temp":23.3,"humidity":75,"rain":0.0,"pressure":996.4,"uv_index":7.45,"wind_gusts":16.9,"aqi":84,"pm10":29.6,"pm2_5":21.8,"mosquito_risk":3,"arthritis_risk":5,"migraine_risk":7,"frizz_risk":1,"updated_at":"2026-03-29T14:15:15.904332+05:30"}]