[{"city":"Delhi","state":"Delhi","latitude":28.6139,"longitude":77.209,"temp":36.2,"humidity":20,"rain":0.0,"pressure":981.3,"uv_index":7.3,"wind_gusts":28.4,"aqi":154,"pm10":193.7,"pm2_5":32.2,"mosquito_risk":0,"arthritis_risk":5,"migraine_risk":10,"frizz_risk":0,"updated_at":"2026-04-15T13:22:25.469440+05:30"},{"city":"Mumbai","state":"Maharashtra","latitude":19.076,"longitude":72.8777,"temp":29.2,"humidity":79,"rain":0.0,"pressure":1007.3,"uv_index":8.0,"wind_gusts":18.0,"aqi":93,"pm10":86.1,"pm2_5":46.0,"mosquito_risk":7,"arthritis_risk":5,"migraine_risk":4,"frizz_risk":1,"updated_at":"2026-04-15T13:22:25.469487+05:30"},{"city":"Bangalore","state":"Karnataka","latitude":12.9716,"longitude":77.5946,"temp":34.5,"humidity":30,"rain":0.0,"pressure":912.0,"uv_index":9.65,"wind_gusts":28.1,"aqi":66,"pm10":32.7,"pm2_5":24.8,"mosquito_risk":0,"arthritis_risk":5,"migraine_risk":7,"frizz_risk":0,"updated_at":"2026-04-15T13:22:25.469502+05:30"},{"city":"Hyderabad","state":"Telangana","latitude":17.385,"longitude":78.4867,"temp":39.6,"humidity":19,"rain":0.0,"pressure":951.8,"uv_index":9.25,"wind_gusts":31.3,"aqi":89,"pm10":33.5,"pm2_5":26.0,"mosquito_risk":0,"arthritis_risk":5,"migraine_risk":10,"frizz_risk":0,"updated_at":"2026-04-15T13:22:25.469512+05:30"},{"city":"Chennai","state":"Tamil Nadu","latitude":13.0827,"longitude":80.2707,"temp":36.9,"humidity":47,"rain":0.0,"pressure":1005.2,"uv_index":9.35,"wind_gusts":32.8,"aqi":31,"pm10":16.2,"pm2_5":12.6,"mosquito_risk":0,"arthritis_risk":5,"migraine_risk":7,"frizz_risk":1,"updated_at":"2026-04-15T13:22:25.469520+05:30"},{"city":"Kolkata","state":"West Bengal","latitude":22.5726,"longitude":88.3639,"temp":35.9,"humidity":54,"rain":0.0,"pressure":1002.7,"uv_index":8.85,"wind_gusts":28.1,"aqi":94,"pm10":57.5,"pm2_5":38.2,"mosquito_risk":0,"arthritis_risk":5,"migraine_risk":7,"frizz_risk":1,"updated_at":"2026-04-15T13:22:25.469529+05:30"},{"city":"Pune","state":"Maharashtra","latitude":18.5204,"longitude":73.8567,"temp":39.6,"humidity":12,"rain":0.0,"pressure":948.1,"uv_index":8.6,"wind_gusts":42.5,"aqi":70,"pm10":18.0,"pm2_5":8.8,"mosquito_risk":0,"arthritis_risk":5,"migraine_risk":10,"frizz_risk":0,"updated_at":"2026-04-15T13:22:25.469541+05:30"},{"city":"Ahmedabad","state":"Gujarat","latitude":23.0225,"longitude":72.5714,"temp":39.4,"humidity":29,"rain":0.0,"pressure":999.5,"uv_index":8.15,"wind_gusts":19.4,"aqi":67,"pm10":133.6,"pm2_5":33.6,"mosquito_risk":0,"arthritis_risk":5,"migraine_risk":10,"frizz_risk":1,"updated_at":"2026-04-15T13:22:25.469549+05:30"},{"city":"Jaipur","state":"Rajasthan","latitude":26.9124,"longitude":75.7873,"temp":38.4,"humidity":15,"rain":0.0,"pressure":958.2,"uv_index":7.95,"wind_gusts":34.9,"aqi":182,"pm10":293.4,"pm2_5":40.5,"mosquito_risk":0,"arthritis_risk":5,"migraine_risk":10,"frizz_risk":0,"updated_at":"2026-04-15T13:22:25.469558+05:30"},{"city":"Lucknow","state":"Uttar Pradesh","latitude":26.8467,"longitude":80.9462,"temp":38.6,"humidity":15,"rain":0.0,"pressure":990.3,"uv_index":7.8,"wind_gusts":29.2,"aqi":94,"pm10":215.6,"pm2_5":30.5,"mosquito_risk":0,"arthritis_risk":5,"migraine_risk":10,"frizz_risk":0,"updated_at":"2026-04-15T13:22:25.469566+05:30"},{"city":"Kanpur","state":"Uttar Pradesh","latitude":26.4499,"longitude":80.3319,"temp":36.8,"humidity":26,"rain":0.0,"pressure":989.1,"uv_index":7.8,"wind_gusts":24.8,"aqi":147,"pm10":285.0,"pm2_5":38.3,"mosquito_risk":0,"arthritis_risk":5,"migraine_risk":10,"frizz_risk":0,"updated_at":"2026-04-15T13:22:25.469573+05:30"},{"city":"Chandigarh","state":"Chandigarh","latitude":30.7333,"longitude":76.7794,"temp":34.8,"humidity":22,"rain":0.0,"pressure":967.3,"uv_index":7.25,"wind_gusts":30.2,"aqi":50,"pm10":9.6,"pm2_5":8.4,"mosquito_risk":0,"arthritis_risk":5,"migraine_risk":7,"frizz_risk":0,"updated_at":"2026-04-15T13:22:25.469581+05:30"},{"city":"Srinagar","state":"Jammu and Kashmir","latitude":34.0837,"longitude":74.7973,"temp":23.0,"humidity":26,"rain":0.0,"pressure":843.2,"uv_index":7.75,"wind_gusts":15.8,"aqi":75,"pm10":19.5,"pm2_5":7.8,"mosquito_risk":0,"arthritis_risk":5,"migraine_risk":7,"frizz_risk":0,"updated_at":"2026-04-15T13:22:25.469589+05:30"},{"city":"Jammu","state":"Jammu and Kashmir","latitude":32.7266,"longitude":74.857,"temp":33.7,"humidity":30,"rain":0.0,"pressure":971.0,"uv_index":7.95,"wind_gusts":32.0,"aqi":59,"pm10":14.2,"pm2_5":9.1,"mosquito_risk":0,"arthritis_risk":5,"migraine_risk":7,"frizz_risk":0,"updated_at":"2026-04-15T13:22:25.469596+05:30"},{"city":"Amritsar","state":"Punjab","latitude":31.634,"longitude":74.8723,"temp":34.2,"humidity":30,"rain":0.0,"pressure":979.6,"uv_index":7.6,"wind_gusts":27.7,"aqi":87,"pm10":16.4,"pm2_5":8.2,"mosquito_risk":0,"arthritis_risk":5,"migraine_risk":7,"frizz_risk":0,"updated_at":"2026-04-15T13:22:25.469603+05:30"},{"city":"Ludhiana","state":"Punjab","latitude":30.901,"longitude":75.8573,"temp":35.3,"humidity":21,"rain":0.0,"pressure":977.3,"uv_index":7.35,"wind_gusts":27.4,"aqi":68,"pm10":10.7,"pm2_5":6.6,"mosquito_risk":0,"arthritis_risk":5,"migraine_risk":10,"frizz_risk":0,"updated_at":"2026-04-15T13:22:25.469610+05:30"},{"city":"Jalandhar","state":"Punjab","latitude":31.326,"longitude":75.5762,"temp":34.6,"humidity":24,"rain":0.0,"pressure":978.4,"uv_index":7.55,"wind_gusts":26.3,"aqi":61,"pm10":25.1,"pm2_5":8.4,"mosquito_risk":0,"arthritis_risk":5,"migraine_risk":7,"frizz_risk":0,"updated_at":"2026-04-15T13:22:25.469619+05:30"},{"city":"Dehradun","state":"Uttarakhand","latitude":30.6284,"longitude":78.0322,"temp":23.7,"humidity":42,"rain":0.0,"pressure":831.4,"uv_index":7.7,"wind_gusts":31.3,"aqi":47,"pm10":11.1,"pm2_5":5.0,"mosquito_risk":0,"arthritis_risk":5,"migraine_risk":7,"frizz_risk":0,"updated_at":"2026-04-15T13:22:25.469626+05:30"},{"city":"Shimla","state":"Himachal Pradesh","latitude":31.1048,"longitude":77.1734,"temp":21.9,"humidity":39,"rain":0.0,"pressure":787.0,"uv_index":7.75,"wind_gusts":47.2,"aqi":48,"pm10":9.4,"pm2_5":3.8,"mosquito_risk":0,"arthritis_risk":5,"migraine_risk":7,"frizz_risk":0,"updated_at":"2026-04-15T13:22:25.469633+05:30"},{"city":"Manali","state":"Himachal Pradesh","latitude":32.2396,"longitude":77.1887,"temp":25.6,"humidity":31,"rain":0.0,"pressure":821.7,"uv_index":9.7,"wind_gusts":31.0,"aqi":116,"pm10":14.1,"pm2_5":6.9,"mosquito_risk":4,"arthritis_risk":5,"migraine_risk":7,"frizz_risk":0,"updated_at":"2026-04-15T13:22:25.469641+05:30"},{"city":"Gurgaon","state":"Haryana","latitude":28.4595,"longitude":77.0266,"temp":36.7,"humidity":20,"rain":0.0,"pressure":979.8,"uv_index":7.4,"wind_gusts":25.9,"aqi":417,"pm10":558.8,"pm2_5":63.8,"mosquito_risk":0,"arthritis_risk":5,"migraine_risk":10,"frizz_risk":0,"updated_at":"2026-04-15T13:22:25.469649+05:30"},{"city":"Noida","state":"Uttar Pradesh","latitude":28.5355,"longitude":77.391,"temp":36.7,"humidity":19,"rain":0.0,"pressure":982.7,"uv_index":7.35,"wind_gusts":29.2,"aqi":417,"pm10":558.8,"pm2_5":63.8,"mosquito_risk":0,"arthritis_risk":5,"migraine_risk":10,"frizz_risk":0,"updated_at":"2026-04-15T13:22:25.469656+05:30"},{"city":"Ghaziabad","state":"Uttar Pradesh","latitude":28.6692,"longitude":77.4538,"temp":36.1,"humidity":21,"rain":0.0,"pressure":981.0,"uv_index":7.3,"wind_gusts":27.4,"aqi":112,"pm10":120.6,"pm2_5":25.3,"mosquito_risk":0,"arthritis_risk":5,"migraine_risk":10,"frizz_risk":0,"updated_at":"2026-04-15T13:22:25.469663+05:30"},{"city":"Faridabad","state":"Haryana","latitude":28.4089,"longitude":77.3178,"temp":37.0,"humidity":17,"rain":0.0,"pressure":982.0,"uv_index":7.35,"wind_gusts":28.8,"aqi":417,"pm10":558.8,"pm2_5":63.8,"mosquito_risk":0,"arthritis_risk":5,"migraine_risk":10,"frizz_risk":0,"updated_at":"2026-04-15T13:22:25.469671+05:30"},{"city":"Meerut","state":"Uttar Pradesh","latitude":28.9845,"longitude":77.7064,"temp":36.2,"humidity":18,"rain":0.0,"pressure":979.6,"uv_index":7.2,"wind_gusts":29.5,"aqi":112,"pm10":120.6,"pm2_5":25.3,"mosquito_risk":0,"arthritis_risk":5,"migraine_risk":10,"frizz_risk":0,"updated_at":"2026-04-15T13:22:25.469678+05:30"},{"city":"Agra","state":"Uttar Pradesh","latitude":27.1767,"longitude":78.0081,"temp":38.5,"humidity":18,"rain":0.0,"pressure":985.5,"uv_index":7.65,"wind_gusts":25.9,"aqi":244,"pm10":364.1,"pm2_5":42.5,"mosquito_risk":0,"arthritis_risk":5,"migraine_risk":10,"frizz_risk":0,"updated_at":"2026-04-15T13:22:25.469687+05:30"},{"city":"Varanasi","state":"Uttar Pradesh","latitude":25.3176,"longitude":82.9739,"temp":40.5,"humidity":14,"rain":0.0,"pressure":994.0,"uv_index":8.4,"wind_gusts":24.1,"aqi":92,"pm10":88.9,"pm2_5":19.2,"mosquito_risk":0,"arthritis_risk":5,"migraine_risk":10,"frizz_risk":0,"updated_at":"2026-04-15T13:22:25.469697+05:30"},{"city":"Prayagraj","state":"Uttar Pradesh","latitude":25.4358,"longitude":81.8463,"temp":39.5,"humidity":16,"rain":0.0,"pressure":992.6,"uv_index":8.25,"wind_gusts":24.1,"aqi":103,"pm10":112.2,"pm2_5":23.1,"mosquito_risk":0,"arthritis_risk":5,"migraine_risk":10,"frizz_risk":0,"updated_at":"2026-04-15T13:22:25.469704+05:30"},{"city":"Gorakhpur","state":"Uttar Pradesh","latitude":26.7606,"longitude":83.3732,"temp":38.2,"humidity":18,"rain":0.0,"pressure":994.0,"uv_index":8.2,"wind_gusts":27.0,"aqi":85,"pm10":126.2,"pm2_5":28.4,"mosquito_risk":0,"arthritis_risk":5,"migraine_risk":10,"frizz_risk":0,"updated_at":"2026-04-15T13:22:25.469711+05:30"},{"city":"Bareilly","state":"Uttar Pradesh","latitude":28.367,"longitude":79.4304,"temp":36.3,"humidity":18,"rain":0.0,"pressure":984.5,"uv_index":7.55,"wind_gusts":27.7,"aqi":63,"pm10":18.0,"pm2_5":9.3,"mosquito_risk":0,"arthritis_risk":5,"migraine_risk":10,"frizz_risk":0,"updated_at":"2026-04-15T13:22:25.469717+05:30"},{"city":"Aligarh","state":"Uttar Pradesh","latitude":27.8974,"longitude":78.088,"temp":38.8,"humidity":12,"rain":0.0,"pressure":983.4,"uv_index":7.45,"wind_gusts":30.6,"aqi":159,"pm10":212.8,"pm2_5":31.1,"mosquito_risk":0,"arthritis_risk":5,"migraine_risk":10,"frizz_risk":0,"updated_at":"2026-04-15T13:22:25.469723+05:30"},{"city":"Moradabad","state":"Uttar Pradesh","latitude":28.8386,"longitude":78.7733,"temp":36.1,"humidity":19,"rain":0.0,"pressure":981.6,"uv_index":7.4,"wind_gusts":30.2,"aqi":73,"pm10":19.2,"pm2_5":12.0,"mosquito_risk":0,"arthritis_risk":5,"migraine_risk":10,"frizz_risk":0,"updated_at":"2026-04-15T13:22:25.469729+05:30"},{"city":"Saharanpur","state":"Uttar Pradesh","latitude":29.9637,"longitude":77.546,"temp":34.4,"humidity":26,"rain":0.0,"pressure":973.9,"uv_index":7.0,"wind_gusts":32.0,"aqi":74,"pm10":22.1,"pm2_5":10.0,"mosquito_risk":0,"arthritis_risk":5,"migraine_risk":7,"frizz_risk":0,"updated_at":"2026-04-15T13:22:25.469735+05:30"},{"city":"Jhansi","state":"Uttar Pradesh","latitude":25.4484,"longitude":78.5685,"temp":41.7,"humidity":13,"rain":0.0,"pressure":974.5,"uv_index":8.2,"wind_gusts":40.7,"aqi":64,"pm10":94.3,"pm2_5":19.5,"mosquito_risk":0,"arthritis_risk":5,"migraine_risk":10,"frizz_risk":0,"updated_at":"2026-04-15T13:22:28.722302+05:30"},{"city":"Surat","state":"Gujarat","latitude":21.1702,"longitude":72.8311,"temp":33.0,"humidity":56,"rain":0.0,"pressure":1005.5,"uv_index":7.8,"wind_gusts":31.0,"aqi":100,"pm10":116.2,"pm2_5":51.6,"mosquito_risk":0,"arthritis_risk":5,"migraine_risk":4,"frizz_risk":1,"updated_at":"2026-04-15T13:22:28.722339+05:30"},{"city":"Vadodara","state":"Gujarat","latitude":22.3072,"longitude":73.1812,"temp":39.0,"humidity":31,"rain":0.0,"pressure":1002.0,"uv_index":8.1,"wind_gusts":28.1,"aqi":74,"pm10":120.1,"pm2_5":38.0,"mosquito_risk":0,"arthritis_risk":5,"migraine_risk":7,"frizz_risk":1,"updated_at":"2026-04-15T13:22:28.722351+05:30"},{"city":"Rajkot","state":"Gujarat","latitude":22.3039,"longitude":70.8022,"temp":36.4,"humidity":29,"rain":0.0,"pressure":992.7,"uv_index":7.85,"wind_gusts":30.6,"aqi":66,"pm10":82.7,"pm2_5":23.6,"mosquito_risk":0,"arthritis_risk":5,"migraine_risk":10,"frizz_risk":0,"updated_at":"2026-04-15T13:22:28.722362+05:30"},{"city":"Thane","state":"Maharashtra","latitude":19.2183,"longitude":72.9781,"temp":34.3,"humidity":47,"rain":0.0,"pressure":1006.9,"uv_index":8.0,"wind_gusts":32.0,"aqi":93,"pm10":86.1,"pm2_5":46.0,"mosquito_risk":0,"arthritis_risk":5,"migraine_risk":4,"frizz_risk":1,"updated_at":"2026-04-15T13:22:28.722371+05:30"},{"city":"Nagpur","state":"Maharashtra","latitude":21.1458,"longitude":79.0882,"temp":38.7,"humidity":26,"rain":0.0,"pressure":970.9,"uv_index":8.85,"wind_gusts":34.2,"aqi":78,"pm10":26.0,"pm2_5":22.1,"mosquito_risk":0,"arthritis_risk":5,"migraine_risk":10,"frizz_risk":0,"updated_at":"2026-04-15T13:22:28.722381+05:30"},{"city":"Nashik","state":"Maharashtra","latitude":19.9975,"longitude":73.7898,"temp":36.9,"humidity":19,"rain":0.0,"pressure":945.5,"uv_index":8.3,"wind_gusts":37.4,"aqi":62,"pm10":30.9,"pm2_5":10.2,"mosquito_risk":0,"arthritis_risk":5,"migraine_risk":10,"frizz_risk":0,"updated_at":"2026-04-15T13:22:28.722390+05:30"},{"city":"Aurangabad","state":"Maharashtra","latitude":19.8762,"longitude":75.3433,"temp":39.4,"humidity":10,"rain":0.0,"pressure":943.5,"uv_index":8.95,"wind_gusts":36.4,"aqi":56,"pm10":13.0,"pm2_5":5.9,"mosquito_risk":0,"arthritis_risk":5,"migraine_risk":10,"frizz_risk":0,"updated_at":"2026-04-15T13:22:28.722399+05:30"},{"city":"Solapur","state":"Maharashtra","latitude":17.6599,"longitude":75.9064,"temp":40.8,"humidity":14,"rain":0.0,"pressure":956.0,"uv_index":9.05,"wind_gusts":28.8,"aqi":64,"pm10":33.1,"pm2_5":25.3,"mosquito_risk":0,"arthritis_risk":5,"migraine_risk":10,"frizz_risk":0,"updated_at":"2026-04-15T13:22:28.722408+05:30"},{"city":"Kolhapur","state":"Maharashtra","latitude":16.705,"longitude":74.2433,"temp":34.9,"humidity":38,"rain":0.0,"pressure":948.0,"uv_index":9.05,"wind_gusts":42.8,"aqi":89,"pm10":40.9,"pm2_5":16.9,"mosquito_risk":0,"arthritis_risk":5,"migraine_risk":7,"frizz_risk":1,"updated_at":"2026-04-15T13:22:28.722417+05:30"},{"city":"Goa","state":"Goa","latitude":15.2993,"longitude":74.124,"temp":32.8,"humidity":64,"rain":0.0,"pressure":997.2,"uv_index":9.0,"wind_gusts":31.0,"aqi":88,"pm10":57.4,"pm2_5":21.0,"mosquito_risk":3,"arthritis_risk":5,"migraine_risk":7,"frizz_risk":1,"updated_at":"2026-04-15T13:22:28.722427+05:30"},{"city":"Jodhpur","state":"Rajasthan","latitude":26.2389,"longitude":73.0243,"temp":39.8,"humidity":15,"rain":0.0,"pressure":981.0,"uv_index":8.15,"wind_gusts":26.3,"aqi":77,"pm10":95.7,"pm2_5":20.2,"mosquito_risk":0,"arthritis_risk":5,"migraine_risk":10,"frizz_risk":0,"updated_at":"2026-04-15T13:22:28.722436+05:30"},{"city":"Udaipur","state":"Rajasthan","latitude":24.5854,"longitude":73.7125,"temp":37.7,"humidity":18,"rain":0.0,"pressure":945.7,"uv_index":8.75,"wind_gusts":25.6,"aqi":63,"pm10":96.4,"pm2_5":19.0,"mosquito_risk":0,"arthritis_risk":5,"migraine_risk":10,"frizz_risk":0,"updated_at":"2026-04-15T13:22:28.722444+05:30"},{"city":"Kota","state":"Rajasthan","latitude":25.2138,"longitude":75.8648,"temp":40.0,"humidity":19,"rain":0.0,"pressure":976.0,"uv_index":8.2,"wind_gusts":26.6,"aqi":55,"pm10":65.9,"pm2_5":21.2,"mosquito_risk":0,"arthritis_risk":5,"migraine_risk":10,"frizz_risk":0,"updated_at":"2026-04-15T13:22:28.722453+05:30"},{"city":"Bikaner","state":"Rajasthan","latitude":28.0229,"longitude":73.3119,"temp":38.5,"humidity":15,"rain":0.0,"pressure":980.7,"uv_index":8.0,"wind_gusts":12.6,"aqi":72,"pm10":143.0,"pm2_5":20.5,"mosquito_risk":0,"arthritis_risk":5,"migraine_risk":10,"frizz_risk":0,"updated_at":"2026-04-15T13:22:28.722462+05:30"},{"city":"Ajmer","state":"Rajasthan","latitude":26.4499,"longitude":74.6399,"temp":38.4,"humidity":15,"rain":0.0,"pressure":953.1,"uv_index":8.15,"wind_gusts":26.3,"aqi":70,"pm10":157.4,"pm2_5":28.5,"mosquito_risk":0,"arthritis_risk":5,"migraine_risk":10,"frizz_risk":0,"updated_at":"2026-04-15T13:22:28.722470+05:30"},{"city":"Gwalior","state":"Madhya Pradesh","latitude":26.2183,"longitude":78.1828,"temp":39.7,"humidity":16,"rain":0.0,"pressure":980.5,"uv_index":7.95,"wind_gusts":36.0,"aqi":91,"pm10":235.2,"pm2_5":35.4,"mosquito_risk":0,"arthritis_risk":5,"migraine_risk":10,"frizz_risk":0,"updated_at":"2026-04-15T13:22:28.722479+05:30"},{"city":"Indore","state":"Madhya Pradesh","latitude":22.7196,"longitude":75.8577,"temp":37.0,"humidity":22,"rain":0.0,"pressure":947.0,"uv_index":8.55,"wind_gusts":31.7,"aqi":55,"pm10":48.3,"pm2_5":15.8,"mosquito_risk":0,"arthritis_risk":5,"migraine_risk":10,"frizz_risk":0,"updated_at":"2026-04-15T13:22:28.722488+05:30"},{"city":"Bhopal","state":"Madhya Pradesh","latitude":23.2599,"longitude":77.4126,"temp":38.9,"humidity":15,"rain":0.0,"pressure":952.0,"uv_index":8.55,"wind_gusts":32.4,"aqi":56,"pm10":48.2,"pm2_5":14.1,"mosquito_risk":0,"arthritis_risk":5,"migraine_risk":10,"frizz_risk":0,"updated_at":"2026-04-15T13:22:28.722497+05:30"},{"city":"Jabalpur","state":"Madhya Pradesh","latitude":23.1815,"longitude":79.9864,"temp":38.6,"humidity":20,"rain":0.0,"pressure":959.2,"uv_index":8.7,"wind_gusts":36.4,"aqi":66,"pm10":16.9,"pm2_5":8.9,"mosquito_risk":0,"arthritis_risk":5,"migraine_risk":10,"frizz_risk":0,"updated_at":"2026-04-15T13:22:28.722506+05:30"},{"city":"Ujjain","state":"Madhya Pradesh","latitude":23.1765,"longitude":75.7885,"temp":37.2,"humidity":24,"rain":0.0,"pressure":952.5,"uv_index":8.5,"wind_gusts":29.9,"aqi":59,"pm10":68.0,"pm2_5":19.1,"mosquito_risk":0,"arthritis_risk":5,"migraine_risk":10,"frizz_risk":0,"updated_at":"2026-04-15T13:22:28.722516+05:30"},{"city":"Visakhapatnam","state":"Andhra Pradesh","latitude":17.6868,"longitude":83.2185,"temp":33.7,"humidity":52,"rain":0.0,"pressure":1002.0,"uv_index":9.15,"wind_gusts":42.8,"aqi":67,"pm10":21.1,"pm2_5":14.9,"mosquito_risk":0,"arthritis_risk":5,"migraine_risk":4,"frizz_risk":1,"updated_at":"2026-04-15T13:22:28.722525+05:30"},{"city":"Vijayawada","state":"Andhra Pradesh","latitude":16.5062,"longitude":80.648,"temp":37.5,"humidity":41,"rain":0.0,"pressure":1000.5,"uv_index":9.2,"wind_gusts":31.7,"aqi":51,"pm10":15.6,"pm2_5":12.4,"mosquito_risk":0,"arthritis_risk":5,"migraine_risk":7,"frizz_risk":1,"updated_at":"2026-04-15T13:22:28.722532+05:30"},{"city":"Guntur","state":"Andhra Pradesh","latitude":16.3067,"longitude":80.4365,"temp":37.6,"humidity":41,"rain":0.0,"pressure":1001.7,"uv_index":9.2,"wind_gusts":31.7,"aqi":52,"pm10":19.4,"pm2_5":16.0,"mosquito_risk":0,"arthritis_risk":5,"migraine_risk":7,"frizz_risk":1,"updated_at":"2026-04-15T13:22:28.722539+05:30"},{"city":"Nellore","state":"Andhra Pradesh","latitude":14.4426,"longitude":79.9865,"temp":39.1,"humidity":36,"rain":0.0,"pressure":1003.3,"uv_index":9.3,"wind_gusts":34.2,"aqi":48,"pm10":25.1,"pm2_5":22.2,"mosquito_risk":0,"arthritis_risk":5,"migraine_risk":7,"frizz_risk":1,"updated_at":"2026-04-15T13:22:28.722547+05:30"},{"city":"Kurnool","state":"Andhra Pradesh","latitude":15.8281,"longitude":78.0373,"temp":40.7,"humidity":25,"rain":0.0,"pressure":974.6,"uv_index":9.2,"wind_gusts":25.2,"aqi":85,"pm10":36.0,"pm2_5":27.0,"mosquito_risk":0,"arthritis_risk":5,"migraine_risk":10,"frizz_risk":1,"updated_at":"2026-04-15T13:22:28.722555+05:30"},{"city":"Kakinada","state":"Andhra Pradesh","latitude":16.9891,"longitude":82.2475,"temp":37.3,"humidity":45,"rain":0.0,"pressure":1005.3,"uv_index":9.2,"wind_gusts":36.4,"aqi":52,"pm10":14.7,"pm2_5":9.3,"mosquito_risk":0,"arthritis_risk":5,"migraine_risk":7,"frizz_risk":1,"updated_at":"2026-04-15T13:22:28.722562+05:30"},{"city":"Tirupati","state":"Andhra Pradesh","latitude":13.6288,"longitude":79.4192,"temp":38.1,"humidity":32,"rain":0.0,"pressure":989.9,"uv_index":9.4,"wind_gusts":32.0,"aqi":69,"pm10":20.0,"pm2_5":17.3,"mosquito_risk":0,"arthritis_risk":5,"migraine_risk":10,"frizz_risk":1,"updated_at":"2026-04-15T13:22:28.722570+05:30"},{"city":"Warangal","state":"Telangana","latitude":17.9689,"longitude":79.5941,"temp":38.4,"humidity":37,"rain":0.0,"pressure":976.8,"uv_index":9.1,"wind_gusts":29.2,"aqi":71,"pm10":28.8,"pm2_5":22.6,"mosquito_risk":0,"arthritis_risk":5,"migraine_risk":10,"frizz_risk":1,"updated_at":"2026-04-15T13:22:28.722577+05:30"},{"city":"Nizamabad","state":"Telangana","latitude":18.6725,"longitude":78.0941,"temp":39.9,"humidity":21,"rain":0.0,"pressure":963.5,"uv_index":9.05,"wind_gusts":25.2,"aqi":78,"pm10":22.6,"pm2_5":13.2,"mosquito_risk":0,"arthritis_risk":5,"migraine_risk":10,"frizz_risk":0,"updated_at":"2026-04-15T13:22:28.722584+05:30"},{"city":"Mysore","state":"Karnataka","latitude":12.2958,"longitude":76.6396,"temp":36.7,"humidity":25,"rain":0.0,"pressure":928.2,"uv_index":9.55,"wind_gusts":46.1,"aqi":65,"pm10":26.7,"pm2_5":18.9,"mosquito_risk":0,"arthritis_risk":5,"migraine_risk":10,"frizz_risk":0,"updated_at":"2026-04-15T13:22:28.722591+05:30"},{"city":"Mangalore","state":"Karnataka","latitude":12.9141,"longitude":74.856,"temp":29.7,"humidity":83,"rain":0.0,"pressure":1005.6,"uv_index":9.15,"wind_gusts":23.8,"aqi":67,"pm10":32.9,"pm2_5":22.2,"mosquito_risk":7,"arthritis_risk":5,"migraine_risk":4,"frizz_risk":1,"updated_at":"2026-04-15T13:22:28.722599+05:30"},{"city":"Hubli-Dharwad","state":"Karnataka","latitude":15.3647,"longitude":75.124,"temp":34.8,"humidity":43,"rain":0.0,"pressure":940.8,"uv_index":9.2,"wind_gusts":43.6,"aqi":67,"pm10":29.4,"pm2_5":17.1,"mosquito_risk":0,"arthritis_risk":5,"migraine_risk":7,"frizz_risk":1,"updated_at":"2026-04-15T13:22:28.722607+05:30"},{"city":"Belgaum","state":"Karnataka","latitude":15.8497,"longitude":74.4977,"temp":33.2,"humidity":46,"rain":0.0,"pressure":926.2,"uv_index":9.25,"wind_gusts":38.2,"aqi":76,"pm10":42.5,"pm2_5":16.5,"mosquito_risk":0,"arthritis_risk":5,"migraine_risk":7,"frizz_risk":1,"updated_at":"2026-04-15T13:22:31.971690+05:30"},{"city":"Coimbatore","state":"Tamil Nadu","latitude":11.0168,"longitude":76.9558,"temp":37.2,"humidity":35,"rain":0.0,"pressure":960.9,"uv_index":9.45,"wind_gusts":48.2,"aqi":73,"pm10":30.6,"pm2_5":21.9,"mosquito_risk":0,"arthritis_risk":5,"migraine_risk":10,"frizz_risk":1,"updated_at":"2026-04-15T13:22:31.971722+05:30"},{"city":"Madurai","state":"Tamil Nadu","latitude":9.9252,"longitude":78.1198,"temp":37.9,"humidity":33,"rain":0.0,"pressure":991.2,"uv_index":9.4,"wind_gusts":39.6,"aqi":63,"pm10":15.1,"pm2_5":11.1,"mosquito_risk":0,"arthritis_risk":5,"migraine_risk":10,"frizz_risk":1,"updated_at":"2026-04-15T13:22:31.971733+05:30"},{"city":"Trichy","state":"Tamil Nadu","latitude":10.7905,"longitude":78.7047,"temp":37.6,"humidity":36,"rain":0.0,"pressure":997.6,"uv_index":9.4,"wind_gusts":22.7,"aqi":52,"pm10":10.9,"pm2_5":7.9,"mosquito_risk":0,"arthritis_risk":5,"migraine_risk":10,"frizz_risk":1,"updated_at":"2026-04-15T13:22:31.971742+05:30"},{"city":"Salem","state":"Tamil Nadu","latitude":11.6643,"longitude":78.146,"temp":37.0,"humidity":37,"rain":0.0,"pressure":975.8,"uv_index":9.45,"wind_gusts":19.8,"aqi":60,"pm10":22.7,"pm2_5":17.5,"mosquito_risk":0,"arthritis_risk":5,"migraine_risk":10,"frizz_risk":1,"updated_at":"2026-04-15T13:22:31.971751+05:30"},{"city":"Tirunelveli","state":"Tamil Nadu","latitude":8.7139,"longitude":77.7567,"temp":39.6,"humidity":27,"rain":0.0,"pressure":1000.8,"uv_index":9.3,"wind_gusts":53.6,"aqi":69,"pm10":18.6,"pm2_5":12.5,"mosquito_risk":0,"arthritis_risk":5,"migraine_risk":7,"frizz_risk":1,"updated_at":"2026-04-15T13:22:31.971759+05:30"},{"city":"Vellore","state":"Tamil Nadu","latitude":12.9165,"longitude":79.1325,"temp":37.4,"humidity":35,"rain":0.0,"pressure":982.9,"uv_index":9.45,"wind_gusts":29.5,"aqi":96,"pm10":18.7,"pm2_5":15.1,"mosquito_risk":0,"arthritis_risk":5,"migraine_risk":10,"frizz_risk":1,"updated_at":"2026-04-15T13:22:31.971768+05:30"},{"city":"Erode","state":"Tamil Nadu","latitude":11.341,"longitude":77.7172,"temp":39.2,"humidity":33,"rain":0.0,"pressure":986.8,"uv_index":9.4,"wind_gusts":28.1,"aqi":57,"pm10":28.3,"pm2_5":21.0,"mosquito_risk":0,"arthritis_risk":5,"migraine_risk":10,"frizz_risk":1,"updated_at":"2026-04-15T13:22:31.971775+05:30"},{"city":"Kochi","state":"Kerala","latitude":9.9312,"longitude":76.2673,"temp":29.7,"humidity":80,"rain":0.0,"pressure":1007.3,"uv_index":9.2,"wind_gusts":30.2,"aqi":95,"pm10":32.2,"pm2_5":24.2,"mosquito_risk":7,"arthritis_risk":5,"migraine_risk":4,"frizz_risk":1,"updated_at":"2026-04-15T13:22:31.971784+05:30"},{"city":"Thiruvananthapuram","state":"Kerala","latitude":8.5241,"longitude":76.9366,"temp":29.5,"humidity":80,"rain":0.0,"pressure":1006.2,"uv_index":9.15,"wind_gusts":30.6,"aqi":70,"pm10":31.8,"pm2_5":22.2,"mosquito_risk":7,"arthritis_risk":5,"migraine_risk":4,"frizz_risk":1,"updated_at":"2026-04-15T13:22:31.971792+05:30"},{"city":"Kozhikode","state":"Kerala","latitude":11.2588,"longitude":75.7804,"temp":31.3,"humidity":74,"rain":0.0,"pressure":1006.4,"uv_index":9.15,"wind_gusts":29.9,"aqi":77,"pm10":30.9,"pm2_5":18.9,"mosquito_risk":3,"arthritis_risk":5,"migraine_risk":4,"frizz_risk":1,"updated_at":"2026-04-15T13:22:31.971800+05:30"},{"city":"Thrissur","state":"Kerala","latitude":10.5276,"longitude":76.2144,"temp":34.5,"humidity":58,"rain":0.0,"pressure":1005.6,"uv_index":9.2,"wind_gusts":35.3,"aqi":97,"pm10":29.8,"pm2_5":21.9,"mosquito_risk":0,"arthritis_risk":5,"migraine_risk":4,"frizz_risk":1,"updated_at":"2026-04-15T13:22:31.971809+05:30"},{"city":"Kannur","state":"Kerala","latitude":11.8745,"longitude":75.3704,"temp":32.8,"humidity":65,"rain":0.0,"pressure":1005.8,"uv_index":9.15,"wind_gusts":32.8,"aqi":73,"pm10":35.0,"pm2_5":21.9,"mosquito_risk":3,"arthritis_risk":5,"migraine_risk":4,"frizz_risk":1,"updated_at":"2026-04-15T13:22:31.971817+05:30"},{"city":"Patna","state":"Bihar","latitude":25.5941,"longitude":85.1376,"temp":37.2,"humidity":23,"rain":0.0,"pressure":997.1,"uv_index":8.55,"wind_gusts":22.0,"aqi":131,"pm10":100.6,"pm2_5":32.5,"mosquito_risk":0,"arthritis_risk":5,"migraine_risk":10,"frizz_risk":0,"updated_at":"2026-04-15T13:22:31.971825+05:30"},{"city":"Gaya","state":"Bihar","latitude":24.7914,"longitude":85.0002,"temp":38.8,"humidity":18,"rain":0.0,"pressure":990.5,"uv_index":8.6,"wind_gusts":20.2,"aqi":85,"pm10":74.0,"pm2_5":17.3,"mosquito_risk":0,"arthritis_risk":5,"migraine_risk":10,"frizz_risk":0,"updated_at":"2026-04-15T13:22:31.971833+05:30"},{"city":"Muzaffarpur","state":"Bihar","latitude":26.1209,"longitude":85.3647,"temp":35.2,"humidity":38,"rain":0.0,"pressure":997.3,"uv_index":8.5,"wind_gusts":21.2,"aqi":150,"pm10":85.9,"pm2_5":38.6,"mosquito_risk":0,"arthritis_risk":5,"migraine_risk":10,"frizz_risk":1,"updated_at":"2026-04-15T13:22:31.971841+05:30"},{"city":"Bhagalpur","state":"Bihar","latitude":25.2425,"longitude":87.0117,"temp":33.3,"humidity":52,"rain":0.0,"pressure":998.3,"uv_index":8.5,"wind_gusts":17.3,"aqi":148,"pm10":85.7,"pm2_5":42.5,"mosquito_risk":0,"arthritis_risk":5,"migraine_risk":7,"frizz_risk":1,"updated_at":"2026-04-15T13:22:31.971848+05:30"},{"city":"Ranchi","state":"Jharkhand","latitude":23.3441,"longitude":85.3096,"temp":34.6,"humidity":21,"rain":0.0,"pressure":937.1,"uv_index":9.15,"wind_gusts":30.2,"aqi":101,"pm10":38.5,"pm2_5":10.4,"mosquito_risk":0,"arthritis_risk":5,"migraine_risk":7,"frizz_risk":0,"updated_at":"2026-04-15T13:22:31.971856+05:30"},{"city":"Jamshedpur","state":"Jharkhand","latitude":22.8046,"longitude":86.2029,"temp":37.9,"humidity":28,"rain":0.0,"pressure":987.9,"uv_index":8.95,"wind_gusts":21.2,"aqi":111,"pm10":64.7,"pm2_5":22.5,"mosquito_risk":0,"arthritis_risk":5,"migraine_risk":10,"frizz_risk":1,"updated_at":"2026-04-15T13:22:31.971864+05:30"},{"city":"Dhanbad","state":"Jharkhand","latitude":23.7957,"longitude":86.4304,"temp":39.5,"humidity":13,"rain":0.0,"pressure":977.1,"uv_index":8.9,"wind_gusts":25.2,"aqi":151,"pm10":76.4,"pm2_5":26.9,"mosquito_risk":0,"arthritis_risk":5,"migraine_risk":10,"frizz_risk":0,"updated_at":"2026-04-15T13:22:31.971872+05:30"},{"city":"Bokaro","state":"Jharkhand","latitude":23.6693,"longitude":86.1511,"temp":38.4,"humidity":18,"rain":0.0,"pressure":981.0,"uv_index":8.9,"wind_gusts":37.1,"aqi":133,"pm10":68.7,"pm2_5":20.5,"mosquito_risk":0,"arthritis_risk":5,"migraine_risk":10,"frizz_risk":0,"updated_at":"2026-04-15T13:22:31.971879+05:30"},{"city":"Bhubaneswar","state":"Odisha","latitude":20.2961,"longitude":85.8245,"temp":35.0,"humidity":59,"rain":0.0,"pressure":999.8,"uv_index":9.1,"wind_gusts":32.4,"aqi":81,"pm10":35.9,"pm2_5":27.3,"mosquito_risk":0,"arthritis_risk":5,"migraine_risk":7,"frizz_risk":1,"updated_at":"2026-04-15T13:22:31.971887+05:30"},{"city":"Cuttack","state":"Odisha","latitude":20.4625,"longitude":85.8828,"temp":36.5,"humidity":56,"rain":0.0,"pressure":1001.4,"uv_index":9.15,"wind_gusts":27.4,"aqi":81,"pm10":35.9,"pm2_5":27.3,"mosquito_risk":0,"arthritis_risk":5,"migraine_risk":7,"frizz_risk":1,"updated_at":"2026-04-15T13:22:31.971895+05:30"},{"city":"Rourkela","state":"Odisha","latitude":22.2604,"longitude":84.8536,"temp":39.6,"humidity":26,"rain":0.0,"pressure":982.2,"uv_index":8.9,"wind_gusts":32.0,"aqi":105,"pm10":82.0,"pm2_5":39.7,"mosquito_risk":0,"arthritis_risk":5,"migraine_risk":10,"frizz_risk":1,"updated_at":"2026-04-15T13:22:31.971902+05:30"},{"city":"Raipur","state":"Chhattisgarh","latitude":21.2514,"longitude":81.6296,"temp":39.9,"humidity":28,"rain":0.0,"pressure":972.0,"uv_index":8.95,"wind_gusts":41.4,"aqi":137,"pm10":31.2,"pm2_5":26.1,"mosquito_risk":0,"arthritis_risk":5,"migraine_risk":10,"frizz_risk":1,"updated_at":"2026-04-15T13:22:31.971910+05:30"},{"city":"Bhilai","state":"Chhattisgarh","latitude":21.1938,"longitude":81.3509,"temp":39.4,"humidity":31,"rain":0.0,"pressure":972.2,"uv_index":8.95,"wind_gusts":41.8,"aqi":143,"pm10":28.5,"pm2_5":22.6,"mosquito_risk":0,"arthritis_risk":5,"migraine_risk":10,"frizz_risk":1,"updated_at":"2026-04-15T13:22:31.971917+05:30"},{"city":"Guwahati","state":"Assam","latitude":26.1158,"longitude":91.7086,"temp":27.3,"humidity":75,"rain":0.0,"pressure":1000.3,"uv_index":8.45,"wind_gusts":33.5,"aqi":129,"pm10":58.8,"pm2_5":38.5,"mosquito_risk":7,"arthritis_risk":5,"migraine_risk":4,"frizz_risk":1,"updated_at":"2026-04-15T13:22:31.971925+05:30"},{"city":"Agartala","state":"Tripura","latitude":23.8315,"longitude":91.2868,"temp":32.6,"humidity":64,"rain":0.0,"pressure":1003.8,"uv_index":8.7,"wind_gusts":43.6,"aqi":104,"pm10":65.4,"pm2_5":39.8,"mosquito_risk":3,"arthritis_risk":5,"migraine_risk":4,"frizz_risk":1,"updated_at":"2026-04-15T13:22:31.971933+05:30"},{"city":"Shillong","state":"Meghalaya","latitude":25.5788,"longitude":91.8933,"temp":19.4,"humidity":63,"rain":0.0,"pressure":856.1,"uv_index":8.6,"wind_gusts":58.0,"aqi":107,"pm10":60.5,"pm2_5":32.4,"mosquito_risk":3,"arthritis_risk":5,"migraine_risk":7,"frizz_risk":0,"updated_at":"2026-04-15T13:22:31.971941+05:30"},{"city":"Imphal","state":"Manipur","latitude":24.817,"longitude":93.9368,"temp":22.6,"humidity":74,"rain":0.0,"pressure":922.7,"uv_index":9.05,"wind_gusts":68.0,"aqi":132,"pm10":54.9,"pm2_5":31.8,"mosquito_risk":3,"arthritis_risk":5,"migraine_risk":7,"frizz_risk":1,"updated_at":"2026-04-15T13:22:31.971949+05:30"},{"city":"Aizawl","state":"Mizoram","latitude":23.7271,"longitude":92.7176,"temp":26.9,"humidity":51,"rain":0.0,"pressure":893.0,"uv_index":8.95,"wind_gusts":49.7,"aqi":119,"pm10":68.9,"pm2_5":29.6,"mosquito_risk":4,"arthritis_risk":5,"migraine_risk":7,"frizz_risk":0,"updated_at":"2026-04-15T13:22:31.971957+05:30"},{"city":"Kohima","state":"Nagaland","latitude":25.6701,"longitude":94.1077,"temp":18.9,"humidity":79,"rain":0.0,"pressure":854.7,"uv_index":8.95,"wind_gusts":68.8,"aqi":111,"pm10":46.6,"pm2_5":27.1,"mosquito_risk":3,"arthritis_risk":5,"migraine_risk":7,"frizz_risk":0,"updated_at":"2026-04-15T13:22:31.971964+05:30"},{"city":"Gangtok","state":"Sikkim","latitude":27.3314,"longitude":88.6138,"temp":19.1,"humidity":74,"rain":0.0,"pressure":836.6,"uv_index":8.1,"wind_gusts":19.4,"aqi":118,"pm10":64.5,"pm2_5":40.3,"mosquito_risk":3,"arthritis_risk":5,"migraine_risk":7,"frizz_risk":0,"updated_at":"2026-04-15T13:22:31.971972+05:30"},{"city":"Siliguri","state":"West Bengal","latitude":26.7271,"longitude":88.3953,"temp":24.0,"humidity":81,"rain":0.0,"pressure":992.4,"uv_index":8.4,"wind_gusts":29.2,"aqi":157,"pm10":103.6,"pm2_5":59.4,"mosquito_risk":3,"arthritis_risk":5,"migraine_risk":7,"frizz_risk":1,"updated_at":"2026-04-15T13:22:35.227010+05:30"},{"city":"Durgapur","state":"West Bengal","latitude":23.5204,"longitude":87.3119,"temp":38.7,"humidity":28,"rain":0.0,"pressure":991.7,"uv_index":8.85,"wind_gusts":23.0,"aqi":134,"pm10":82.2,"pm2_5":37.7,"mosquito_risk":0,"arthritis_risk":5,"migraine_risk":10,"frizz_risk":1,"updated_at":"2026-04-15T13:22:35.227071+05:30"},{"city":"Asansol","state":"West Bengal","latitude":23.6739,"longitude":86.9524,"temp":38.8,"humidity":24,"rain":0.0,"pressure":990.3,"uv_index":8.85,"wind_gusts":19.8,"aqi":123,"pm10":80.1,"pm2_5":30.7,"mosquito_risk":0,"arthritis_risk":5,"migraine_risk":10,"frizz_risk":0,"updated_at":"2026-04-15T13:22:35.227086+05:30"},{"city":"Pondicherry","state":"Puducherry","latitude":11.9139,"longitude":79.8145,"temp":37.2,"humidity":46,"rain":0.0,"pressure":1006.0,"uv_index":9.3,"wind_gusts":25.2,"aqi":32,"pm10":17.6,"pm2_5":15.8,"mosquito_risk":0,"arthritis_risk":5,"migraine_risk":7,"frizz_risk":1,"updated_at":"2026-04-15T13:22:35.227098+05:30"},{"city":"Port Blair","state":"Andaman and Nicobar Islands","latitude":11.6234,"longitude":92.7265,"temp":29.8,"humidity":67,"rain":0.0,"pressure":1006.1,"uv_index":9.2,"wind_gusts":20.2,"aqi":73,"pm10":28.1,"pm2_5":19.6,"mosquito_risk":7,"arthritis_risk":5,"migraine_risk":4,"frizz_risk":1,"updated_at":"2026-04-15T13:22:35.227108+05:30"},{"city":"Haridwar","state":"Uttarakhand","latitude":29.9457,"longitude":78.1642,"temp":34.2,"humidity":27,"rain":0.0,"pressure":972.3,"uv_index":7.05,"wind_gusts":31.3,"aqi":55,"pm10":8.0,"pm2_5":5.7,"mosquito_risk":0,"arthritis_risk":5,"migraine_risk":7,"frizz_risk":0,"updated_at":"2026-04-15T13:22:35.227116+05:30"},{"city":"Rishikesh","state":"Uttarakhand","latitude":30.0869,"longitude":78.2676,"temp":33.4,"humidity":30,"rain":0.0,"pressure":965.1,"uv_index":7.15,"wind_gusts":30.6,"aqi":44,"pm10":8.8,"pm2_5":4.9,"mosquito_risk":0,"arthritis_risk":5,"migraine_risk":7,"frizz_risk":0,"updated_at":"2026-04-15T13:22:35.227125+05:30"},{"city":"Nainital","state":"Uttarakhand","latitude":29.3919,"longitude":79.4542,"temp":27.0,"humidity":30,"rain":0.0,"pressure":808.4,"uv_index":8.05,"wind_gusts":45.7,"aqi":62,"pm10":15.3,"pm2_5":6.6,"mosquito_risk":4,"arthritis_risk":5,"migraine_risk":7,"frizz_risk":0,"updated_at":"2026-04-15T13:22:35.227133+05:30"},{"city":"Mussoorie","state":"Uttarakhand","latitude":30.4599,"longitude":78.0664,"temp":24.4,"humidity":37,"rain":0.0,"pressure":804.7,"uv_index":7.55,"wind_gusts":35.6,"aqi":53,"pm10":7.4,"pm2_5":5.7,"mosquito_risk":0,"arthritis_risk":5,"migraine_risk":7,"frizz_risk":0,"updated_at":"2026-04-15T13:22:35.227142+05:30"},{"city":"Dharamshala","state":"Himachal Pradesh","latitude":32.219,"longitude":76.3234,"temp":26.4,"humidity":37,"rain":0.0,"pressure":869.8,"uv_index":7.8,"wind_gusts":22.7,"aqi":72,"pm10":10.8,"pm2_5":4.2,"mosquito_risk":4,"arthritis_risk":5,"migraine_risk":7,"frizz_risk":0,"updated_at":"2026-04-15T13:22:35.227150+05:30"},{"city":"Dalhousie","state":"Himachal Pradesh","latitude":32.5387,"longitude":75.971,"temp":25.1,"humidity":33,"rain":0.0,"pressure":805.8,"uv_index":8.0,"wind_gusts":21.6,"aqi":51,"pm10":11.5,"pm2_5":7.1,"mosquito_risk":4,"arthritis_risk":5,"migraine_risk":7,"frizz_risk":0,"updated_at":"2026-04-15T13:22:35.227159+05:30"},{"city":"Patiala","state":"Punjab","latitude":30.3398,"longitude":76.3869,"temp":35.9,"humidity":19,"rain":0.0,"pressure":976.6,"uv_index":7.15,"wind_gusts":28.1,"aqi":165,"pm10":502.9,"pm2_5":46.3,"mosquito_risk":0,"arthritis_risk":5,"migraine_risk":10,"frizz_risk":0,"updated_at":"2026-04-15T13:22:35.227167+05:30"},{"city":"Bhatinda","state":"Punjab","latitude":30.211,"longitude":74.9455,"temp":37.7,"humidity":21,"rain":0.0,"pressure":982.1,"uv_index":7.85,"wind_gusts":32.8,"aqi":55,"pm10":28.4,"pm2_5":9.6,"mosquito_risk":0,"arthritis_risk":5,"migraine_risk":10,"frizz_risk":0,"updated_at":"2026-04-15T13:22:35.227174+05:30"},{"city":"Rohtak","state":"Haryana","latitude":28.8955,"longitude":76.6066,"temp":37.6,"humidity":16,"rain":0.0,"pressure":980.2,"uv_index":7.3,"wind_gusts":30.2,"aqi":296,"pm10":290.6,"pm2_5":35.4,"mosquito_risk":0,"arthritis_risk":5,"migraine_risk":10,"frizz_risk":0,"updated_at":"2026-04-15T13:22:35.227182+05:30"},{"city":"Panipat","state":"Haryana","latitude":29.3909,"longitude":76.9635,"temp":36.5,"humidity":18,"rain":0.0,"pressure":978.8,"uv_index":7.15,"wind_gusts":27.7,"aqi":675,"pm10":683.6,"pm2_5":63.8,"mosquito_risk":0,"arthritis_risk":5,"migraine_risk":10,"frizz_risk":0,"updated_at":"2026-04-15T13:22:35.227190+05:30"},{"city":"Mathura","state":"Uttar Pradesh","latitude":27.4924,"longitude":77.6737,"temp":38.1,"humidity":19,"rain":0.0,"pressure":984.9,"uv_index":7.6,"wind_gusts":26.3,"aqi":177,"pm10":159.7,"pm2_5":27.4,"mosquito_risk":0,"arthritis_risk":5,"migraine_risk":10,"frizz_risk":0,"updated_at":"2026-04-15T13:22:35.227198+05:30"},{"city":"Vrindavan","state":"Uttar Pradesh","latitude":27.5823,"longitude":77.7027,"temp":38.4,"humidity":16,"rain":0.0,"pressure":985.1,"uv_index":7.6,"wind_gusts":28.1,"aqi":177,"pm10":159.7,"pm2_5":27.4,"mosquito_risk":0,"arthritis_risk":5,"migraine_risk":10,"frizz_risk":0,"updated_at":"2026-04-15T13:22:35.227205+05:30"},{"city":"Ayodhya","state":"Uttar Pradesh","latitude":26.7922,"longitude":82.1998,"temp":39.9,"humidity":16,"rain":0.0,"pressure":991.8,"uv_index":7.95,"wind_gusts":33.5,"aqi":75,"pm10":178.3,"pm2_5":26.7,"mosquito_risk":0,"arthritis_risk":5,"migraine_risk":10,"frizz_risk":0,"updated_at":"2026-04-15T13:22:35.227213+05:30"},{"city":"Ratlam","state":"Madhya Pradesh","latitude":23.3315,"longitude":75.0367,"temp":35.7,"humidity":33,"rain":0.0,"pressure":953.4,"uv_index":8.4,"wind_gusts":24.8,"aqi":56,"pm10":66.6,"pm2_5":17.9,"mosquito_risk":0,"arthritis_risk":5,"migraine_risk":10,"frizz_risk":1,"updated_at":"2026-04-15T13:22:35.227222+05:30"},{"city":"Sagar","state":"Madhya Pradesh","latitude":23.8388,"longitude":78.7378,"temp":38.9,"humidity":16,"rain":0.0,"pressure":948.3,"uv_index":8.6,"wind_gusts":29.2,"aqi":53,"pm10":19.7,"pm2_5":7.2,"mosquito_risk":0,"arthritis_risk":5,"migraine_risk":10,"frizz_risk":0,"updated_at":"2026-04-15T13:22:35.227230+05:30"},{"city":"Satna","state":"Madhya Pradesh","latitude":24.6005,"longitude":80.8322,"temp":40.5,"humidity":14,"rain":0.0,"pressure":968.4,"uv_index":8.6,"wind_gusts":27.0,"aqi":66,"pm10":34.1,"pm2_5":12.0,"mosquito_risk":0,"arthritis_risk":5,"migraine_risk":10,"frizz_risk":0,"updated_at":"2026-04-15T13:22:35.227237+05:30"},{"city":"Akola","state":"Maharashtra","latitude":20.7002,"longitude":77.0082,"temp":40.7,"humidity":17,"rain":0.0,"pressure":973.1,"uv_index":8.75,"wind_gusts":34.6,"aqi":52,"pm10":21.6,"pm2_5":11.1,"mosquito_risk":0,"arthritis_risk":5,"migraine_risk":10,"frizz_risk":0,"updated_at":"2026-04-15T13:22:35.227245+05:30"},{"city":"Amravati","state":"Maharashtra","latitude":20.9374,"longitude":77.7796,"temp":39.5,"humidity":21,"rain":0.0,"pressure":965.6,"uv_index":8.8,"wind_gusts":31.3,"aqi":52,"pm10":18.5,"pm2_5":9.3,"mosquito_risk":0,"arthritis_risk":5,"migraine_risk":10,"frizz_risk":0,"updated_at":"2026-04-15T13:22:35.227254+05:30"},{"city":"Latur","state":"Maharashtra","latitude":18.4088,"longitude":76.5604,"temp":37.1,"humidity":22,"rain":0.0,"pressure":939.6,"uv_index":9.05,"wind_gusts":25.2,"aqi":61,"pm10":31.8,"pm2_5":21.5,"mosquito_risk":0,"arthritis_risk":5,"migraine_risk":10,"frizz_risk":0,"updated_at":"2026-04-15T13:22:35.227261+05:30"},{"city":"Nanded","state":"Maharashtra","latitude":19.1383,"longitude":77.3091,"temp":38.7,"humidity":25,"rain":0.0,"pressure":967.5,"uv_index":8.95,"wind_gusts":14.8,"aqi":60,"pm10":26.6,"pm2_5":12.0,"mosquito_risk":0,"arthritis_risk":5,"migraine_risk":10,"frizz_risk":0,"updated_at":"2026-04-15T13:22:35.227269+05:30"},{"city":"Gulbarga","state":"Karnataka","latitude":17.3297,"longitude":76.8343,"temp":41.3,"humidity":18,"rain":0.0,"pressure":956.9,"uv_index":9.1,"wind_gusts":24.1,"aqi":98,"pm10":35.3,"pm2_5":28.3,"mosquito_risk":0,"arthritis_risk":5,"migraine_risk":10,"frizz_risk":0,"updated_at":"2026-04-15T13:22:35.227276+05:30"},{"city":"Bidar","state":"Karnataka","latitude":17.9104,"longitude":77.5199,"temp":39.1,"humidity":19,"rain":0.0,"pressure":934.9,"uv_index":9.1,"wind_gusts":23.4,"aqi":95,"pm10":38.9,"pm2_5":31.3,"mosquito_risk":0,"arthritis_risk":5,"migraine_risk":10,"frizz_risk":0,"updated_at":"2026-04-15T13:22:35.227284+05:30"},{"city":"Hospet","state":"Karnataka","latitude":15.2689,"longitude":76.3909,"temp":34.7,"humidity":45,"rain":0.0,"pressure":954.9,"uv_index":9.3,"wind_gusts":28.4,"aqi":98,"pm10":27.0,"pm2_5":20.3,"mosquito_risk":0,"arthritis_risk":5,"migraine_risk":7,"frizz_risk":1,"updated_at":"2026-04-15T13:22:35.227291+05:30"},{"city":"Tirupur","state":"Tamil Nadu","latitude":11.1085,"longitude":77.3411,"temp":38.6,"humidity":29,"rain":0.0,"pressure":973.7,"uv_index":9.5,"wind_gusts":32.8,"aqi":70,"pm10":29.8,"pm2_5":22.0,"mosquito_risk":0,"arthritis_risk":5,"migraine_risk":10,"frizz_risk":1,"updated_at":"2026-04-15T13:22:35.227298+05:30"},{"city":"Alappuzha","state":"Kerala","latitude":9.4981,"longitude":76.3388,"temp":29.6,"humidity":80,"rain":0.0,"pressure":1007.4,"uv_index":9.2,"wind_gusts":29.5,"aqi":95,"pm10":36.4,"pm2_5":27.4,"mosquito_risk":7,"arthritis_risk":5,"migraine_risk":4,"frizz_risk":1,"updated_at":"2026-04-15T13:22:35.227306+05:30"},{"city":"Munnar","state":"Kerala","latitude":10.0889,"longitude":77.0595,"temp":31.7,"humidity":42,"rain":0.0,"pressure":859.0,"uv_index":9.75,"wind_gusts":35.3,"aqi":77,"pm10":21.8,"pm2_5":14.2,"mosquito_risk":0,"arthritis_risk":5,"migraine_risk":7,"frizz_risk":1,"updated_at":"2026-04-15T13:22:35.227314+05:30"},{"city":"Silchar","state":"Assam","latitude":24.8333,"longitude":92.7789,"temp":28.0,"humidity":72,"rain":0.0,"pressure":1004.3,"uv_index":8.7,"wind_gusts":32.0,"aqi":146,"pm10":52.2,"pm2_5":34.1,"mosquito_risk":7,"arthritis_risk":5,"migraine_risk":4,"frizz_risk":1,"updated_at":"2026-04-15T13:22:35.227322+05:30"},{"city":"Dibrugarh","state":"Assam","latitude":27.4728,"longitude":94.912,"temp":23.2,"humidity":71,"rain":0.0,"pressure":996.5,"uv_index":7.95,"wind_gusts":30.6,"aqi":101,"pm10":101.3,"pm2_5":47.7,"mosquito_risk":3,"arthritis_risk":5,"migraine_risk":7,"frizz_risk":1,"updated_at":"2026-04-15T13:22:35.227330+05:30"}]