[{"city":"Delhi","state":"Delhi","latitude":28.6139,"longitude":77.209,"temp":30.9,"humidity":25,"rain":0.0,"pressure":986.0,"uv_index":7.15,"wind_gusts":38.5,"aqi":417,"pm10":1408.2,"pm2_5":160.7,"mosquito_risk":0,"arthritis_risk":5,"migraine_risk":7,"frizz_risk":0,"updated_at":"2026-04-10T17:25:27.804130+05:30"},{"city":"Mumbai","state":"Maharashtra","latitude":19.076,"longitude":72.8777,"temp":28.4,"humidity":75,"rain":0.0,"pressure":1008.6,"uv_index":7.95,"wind_gusts":25.2,"aqi":96,"pm10":79.9,"pm2_5":31.7,"mosquito_risk":7,"arthritis_risk":0,"migraine_risk":4,"frizz_risk":1,"updated_at":"2026-04-10T17:25:27.804179+05:30"},{"city":"Bangalore","state":"Karnataka","latitude":12.9716,"longitude":77.5946,"temp":32.2,"humidity":40,"rain":0.0,"pressure":912.2,"uv_index":9.65,"wind_gusts":42.8,"aqi":159,"pm10":37.7,"pm2_5":30.0,"mosquito_risk":0,"arthritis_risk":5,"migraine_risk":7,"frizz_risk":1,"updated_at":"2026-04-10T17:25:27.804195+05:30"},{"city":"Hyderabad","state":"Telangana","latitude":17.385,"longitude":78.4867,"temp":37.2,"humidity":22,"rain":0.0,"pressure":953.3,"uv_index":9.15,"wind_gusts":19.4,"aqi":128,"pm10":60.5,"pm2_5":25.7,"mosquito_risk":0,"arthritis_risk":5,"migraine_risk":10,"frizz_risk":0,"updated_at":"2026-04-10T17:25:27.804205+05:30"},{"city":"Chennai","state":"Tamil Nadu","latitude":13.0827,"longitude":80.2707,"temp":31.6,"humidity":69,"rain":0.0,"pressure":1007.3,"uv_index":9.4,"wind_gusts":36.4,"aqi":67,"pm10":24.3,"pm2_5":18.0,"mosquito_risk":3,"arthritis_risk":5,"migraine_risk":4,"frizz_risk":1,"updated_at":"2026-04-10T17:25:27.804214+05:30"},{"city":"Kolkata","state":"West Bengal","latitude":22.5726,"longitude":88.3639,"temp":29.4,"humidity":62,"rain":0.0,"pressure":1006.7,"uv_index":8.7,"wind_gusts":21.2,"aqi":163,"pm10":77.8,"pm2_5":47.3,"mosquito_risk":7,"arthritis_risk":5,"migraine_risk":4,"frizz_risk":1,"updated_at":"2026-04-10T17:25:27.804222+05:30"},{"city":"Pune","state":"Maharashtra","latitude":18.5204,"longitude":73.8567,"temp":36.6,"humidity":27,"rain":0.0,"pressure":948.7,"uv_index":8.5,"wind_gusts":31.3,"aqi":99,"pm10":37.5,"pm2_5":17.0,"mosquito_risk":0,"arthritis_risk":5,"migraine_risk":10,"frizz_risk":0,"updated_at":"2026-04-10T17:25:27.804234+05:30"},{"city":"Ahmedabad","state":"Gujarat","latitude":23.0225,"longitude":72.5714,"temp":37.5,"humidity":14,"rain":0.0,"pressure":1004.0,"uv_index":8.0,"wind_gusts":36.7,"aqi":112,"pm10":38.2,"pm2_5":12.7,"mosquito_risk":0,"arthritis_risk":5,"migraine_risk":7,"frizz_risk":0,"updated_at":"2026-04-10T17:25:27.804242+05:30"},{"city":"Jaipur","state":"Rajasthan","latitude":26.9124,"longitude":75.7873,"temp":32.4,"humidity":18,"rain":0.0,"pressure":963.9,"uv_index":7.75,"wind_gusts":28.4,"aqi":154,"pm10":252.4,"pm2_5":32.5,"mosquito_risk":0,"arthritis_risk":5,"migraine_risk":7,"frizz_risk":0,"updated_at":"2026-04-10T17:25:27.804250+05:30"},{"city":"Lucknow","state":"Uttar Pradesh","latitude":26.8467,"longitude":80.9462,"temp":31.0,"humidity":24,"rain":0.0,"pressure":995.4,"uv_index":7.65,"wind_gusts":40.0,"aqi":118,"pm10":460.1,"pm2_5":58.9,"mosquito_risk":0,"arthritis_risk":5,"migraine_risk":7,"frizz_risk":0,"updated_at":"2026-04-10T17:25:27.804258+05:30"},{"city":"Kanpur","state":"Uttar Pradesh","latitude":26.4499,"longitude":80.3319,"temp":29.8,"humidity":36,"rain":0.0,"pressure":994.4,"uv_index":7.65,"wind_gusts":35.3,"aqi":183,"pm10":894.1,"pm2_5":93.1,"mosquito_risk":4,"arthritis_risk":5,"migraine_risk":7,"frizz_risk":0,"updated_at":"2026-04-10T17:25:27.804265+05:30"},{"city":"Chandigarh","state":"Chandigarh","latitude":30.7333,"longitude":76.7794,"temp":28.4,"humidity":30,"rain":0.0,"pressure":972.0,"uv_index":7.15,"wind_gusts":42.1,"aqi":123,"pm10":11.2,"pm2_5":9.3,"mosquito_risk":4,"arthritis_risk":5,"migraine_risk":7,"frizz_risk":0,"updated_at":"2026-04-10T17:25:27.804273+05:30"},{"city":"Srinagar","state":"Jammu and Kashmir","latitude":34.0837,"longitude":74.7973,"temp":17.5,"humidity":41,"rain":0.0,"pressure":843.9,"uv_index":8.1,"wind_gusts":12.6,"aqi":106,"pm10":26.2,"pm2_5":9.5,"mosquito_risk":0,"arthritis_risk":5,"migraine_risk":7,"frizz_risk":0,"updated_at":"2026-04-10T17:25:27.804280+05:30"},{"city":"Jammu","state":"Jammu and Kashmir","latitude":32.7266,"longitude":74.857,"temp":28.2,"humidity":30,"rain":0.0,"pressure":976.7,"uv_index":7.75,"wind_gusts":34.2,"aqi":85,"pm10":20.1,"pm2_5":9.7,"mosquito_risk":4,"arthritis_risk":5,"migraine_risk":7,"frizz_risk":0,"updated_at":"2026-04-10T17:25:27.804287+05:30"},{"city":"Amritsar","state":"Punjab","latitude":31.634,"longitude":74.8723,"temp":28.0,"humidity":34,"rain":0.0,"pressure":985.2,"uv_index":7.7,"wind_gusts":29.2,"aqi":118,"pm10":19.8,"pm2_5":13.5,"mosquito_risk":4,"arthritis_risk":5,"migraine_risk":7,"frizz_risk":0,"updated_at":"2026-04-10T17:25:27.804294+05:30"},{"city":"Ludhiana","state":"Punjab","latitude":30.901,"longitude":75.8573,"temp":29.6,"humidity":27,"rain":0.0,"pressure":982.5,"uv_index":7.3,"wind_gusts":32.8,"aqi":97,"pm10":49.9,"pm2_5":13.9,"mosquito_risk":4,"arthritis_risk":5,"migraine_risk":7,"frizz_risk":0,"updated_at":"2026-04-10T17:25:27.804300+05:30"},{"city":"Jalandhar","state":"Punjab","latitude":31.326,"longitude":75.5762,"temp":29.1,"humidity":28,"rain":0.0,"pressure":983.8,"uv_index":7.5,"wind_gusts":29.9,"aqi":105,"pm10":66.6,"pm2_5":17.2,"mosquito_risk":4,"arthritis_risk":5,"migraine_risk":7,"frizz_risk":0,"updated_at":"2026-04-10T17:25:27.804309+05:30"},{"city":"Dehradun","state":"Uttarakhand","latitude":30.6284,"longitude":78.0322,"temp":18.2,"humidity":48,"rain":0.0,"pressure":831.3,"uv_index":7.55,"wind_gusts":29.5,"aqi":135,"pm10":8.6,"pm2_5":3.9,"mosquito_risk":0,"arthritis_risk":5,"migraine_risk":7,"frizz_risk":0,"updated_at":"2026-04-10T17:25:27.804316+05:30"},{"city":"Shimla","state":"Himachal Pradesh","latitude":31.1048,"longitude":77.1734,"temp":15.0,"humidity":46,"rain":0.0,"pressure":786.5,"uv_index":7.6,"wind_gusts":50.8,"aqi":121,"pm10":9.0,"pm2_5":5.6,"mosquito_risk":0,"arthritis_risk":5,"migraine_risk":7,"frizz_risk":0,"updated_at":"2026-04-10T17:25:27.804322+05:30"},{"city":"Manali","state":"Himachal Pradesh","latitude":32.2396,"longitude":77.1887,"temp":17.6,"humidity":60,"rain":0.0,"pressure":821.5,"uv_index":9.9,"wind_gusts":32.4,"aqi":163,"pm10":10.7,"pm2_5":4.9,"mosquito_risk":0,"arthritis_risk":5,"migraine_risk":7,"frizz_risk":0,"updated_at":"2026-04-10T17:25:27.804329+05:30"},{"city":"Gurgaon","state":"Haryana","latitude":28.4595,"longitude":77.0266,"temp":30.5,"humidity":27,"rain":0.0,"pressure":984.6,"uv_index":7.25,"wind_gusts":35.6,"aqi":1354,"pm10":3270.8,"pm2_5":334.3,"mosquito_risk":0,"arthritis_risk":5,"migraine_risk":7,"frizz_risk":0,"updated_at":"2026-04-10T17:25:27.804336+05:30"},{"city":"Noida","state":"Uttar Pradesh","latitude":28.5355,"longitude":77.391,"temp":30.9,"humidity":25,"rain":0.0,"pressure":987.4,"uv_index":7.15,"wind_gusts":37.8,"aqi":1354,"pm10":3270.8,"pm2_5":334.3,"mosquito_risk":0,"arthritis_risk":5,"migraine_risk":7,"frizz_risk":0,"updated_at":"2026-04-10T17:25:27.804342+05:30"},{"city":"Ghaziabad","state":"Uttar Pradesh","latitude":28.6692,"longitude":77.4538,"temp":30.5,"humidity":27,"rain":0.0,"pressure":985.4,"uv_index":7.15,"wind_gusts":37.8,"aqi":203,"pm10":1210.7,"pm2_5":145.8,"mosquito_risk":0,"arthritis_risk":5,"migraine_risk":7,"frizz_risk":0,"updated_at":"2026-04-10T17:25:27.804349+05:30"},{"city":"Faridabad","state":"Haryana","latitude":28.4089,"longitude":77.3178,"temp":30.6,"humidity":26,"rain":0.0,"pressure":986.9,"uv_index":7.2,"wind_gusts":36.4,"aqi":1354,"pm10":3270.8,"pm2_5":334.3,"mosquito_risk":0,"arthritis_risk":5,"migraine_risk":7,"frizz_risk":0,"updated_at":"2026-04-10T17:25:27.804356+05:30"},{"city":"Meerut","state":"Uttar Pradesh","latitude":28.9845,"longitude":77.7064,"temp":29.9,"humidity":27,"rain":0.0,"pressure":984.0,"uv_index":7.05,"wind_gusts":42.5,"aqi":203,"pm10":1210.7,"pm2_5":145.8,"mosquito_risk":4,"arthritis_risk":5,"migraine_risk":7,"frizz_risk":0,"updated_at":"2026-04-10T17:25:27.804362+05:30"},{"city":"Agra","state":"Uttar Pradesh","latitude":27.1767,"longitude":78.0081,"temp":31.5,"humidity":24,"rain":0.0,"pressure":991.3,"uv_index":7.5,"wind_gusts":36.0,"aqi":751,"pm10":1840.3,"pm2_5":163.4,"mosquito_risk":0,"arthritis_risk":5,"migraine_risk":7,"frizz_risk":0,"updated_at":"2026-04-10T17:25:27.804368+05:30"},{"city":"Varanasi","state":"Uttar Pradesh","latitude":25.3176,"longitude":82.9739,"temp":31.8,"humidity":22,"rain":0.0,"pressure":999.2,"uv_index":8.2,"wind_gusts":39.2,"aqi":150,"pm10":79.4,"pm2_5":21.7,"mosquito_risk":0,"arthritis_risk":5,"migraine_risk":7,"frizz_risk":0,"updated_at":"2026-04-10T17:25:27.804377+05:30"},{"city":"Prayagraj","state":"Uttar Pradesh","latitude":25.4358,"longitude":81.8463,"temp":32.0,"humidity":26,"rain":0.0,"pressure":997.9,"uv_index":8.05,"wind_gusts":31.7,"aqi":140,"pm10":106.4,"pm2_5":26.0,"mosquito_risk":0,"arthritis_risk":5,"migraine_risk":7,"frizz_risk":0,"updated_at":"2026-04-10T17:25:27.804391+05:30"},{"city":"Gorakhpur","state":"Uttar Pradesh","latitude":26.7606,"longitude":83.3732,"temp":31.8,"humidity":16,"rain":0.0,"pressure":997.7,"uv_index":8.05,"wind_gusts":43.2,"aqi":126,"pm10":38.2,"pm2_5":13.7,"mosquito_risk":0,"arthritis_risk":5,"migraine_risk":7,"frizz_risk":0,"updated_at":"2026-04-10T17:25:27.804398+05:30"},{"city":"Bareilly","state":"Uttar Pradesh","latitude":28.367,"longitude":79.4304,"temp":29.5,"humidity":30,"rain":0.0,"pressure":988.8,"uv_index":7.4,"wind_gusts":38.2,"aqi":115,"pm10":80.6,"pm2_5":24.9,"mosquito_risk":4,"arthritis_risk":5,"migraine_risk":7,"frizz_risk":0,"updated_at":"2026-04-10T17:25:27.804406+05:30"},{"city":"Aligarh","state":"Uttar Pradesh","latitude":27.8974,"longitude":78.088,"temp":30.7,"humidity":26,"rain":0.0,"pressure":988.5,"uv_index":7.3,"wind_gusts":38.9,"aqi":611,"pm10":2130.9,"pm2_5":223.5,"mosquito_risk":0,"arthritis_risk":5,"migraine_risk":7,"frizz_risk":0,"updated_at":"2026-04-10T17:25:27.804413+05:30"},{"city":"Moradabad","state":"Uttar Pradesh","latitude":28.8386,"longitude":78.7733,"temp":29.2,"humidity":29,"rain":0.0,"pressure":985.6,"uv_index":7.25,"wind_gusts":38.2,"aqi":104,"pm10":265.4,"pm2_5":47.7,"mosquito_risk":4,"arthritis_risk":5,"migraine_risk":7,"frizz_risk":0,"updated_at":"2026-04-10T17:25:27.804419+05:30"},{"city":"Saharanpur","state":"Uttar Pradesh","latitude":29.9637,"longitude":77.546,"temp":28.6,"humidity":28,"rain":0.0,"pressure":977.9,"uv_index":6.85,"wind_gusts":50.4,"aqi":107,"pm10":201.2,"pm2_5":31.8,"mosquito_risk":4,"arthritis_risk":5,"migraine_risk":7,"frizz_risk":0,"updated_at":"2026-04-10T17:25:27.804425+05:30"},{"city":"Jhansi","state":"Uttar Pradesh","latitude":25.4484,"longitude":78.5685,"temp":32.5,"humidity":16,"rain":0.0,"pressure":981.6,"uv_index":8.0,"wind_gusts":33.5,"aqi":120,"pm10":37.1,"pm2_5":13.4,"mosquito_risk":0,"arthritis_risk":5,"migraine_risk":7,"frizz_risk":0,"updated_at":"2026-04-10T17:25:31.155124+05:30"},{"city":"Surat","state":"Gujarat","latitude":21.1702,"longitude":72.8311,"temp":34.8,"humidity":42,"rain":0.0,"pressure":1007.4,"uv_index":7.75,"wind_gusts":19.4,"aqi":136,"pm10":68.7,"pm2_5":44.6,"mosquito_risk":0,"arthritis_risk":5,"migraine_risk":4,"frizz_risk":1,"updated_at":"2026-04-10T17:25:31.155156+05:30"},{"city":"Vadodara","state":"Gujarat","latitude":22.3072,"longitude":73.1812,"temp":37.9,"humidity":17,"rain":0.0,"pressure":1005.4,"uv_index":8.0,"wind_gusts":31.7,"aqi":107,"pm10":33.5,"pm2_5":12.9,"mosquito_risk":0,"arthritis_risk":5,"migraine_risk":7,"frizz_risk":0,"updated_at":"2026-04-10T17:25:31.155166+05:30"},{"city":"Rajkot","state":"Gujarat","latitude":22.3039,"longitude":70.8022,"temp":37.4,"humidity":20,"rain":0.0,"pressure":995.8,"uv_index":7.7,"wind_gusts":25.9,"aqi":114,"pm10":37.0,"pm2_5":17.2,"mosquito_risk":0,"arthritis_risk":5,"migraine_risk":10,"frizz_risk":0,"updated_at":"2026-04-10T17:25:31.155174+05:30"},{"city":"Thane","state":"Maharashtra","latitude":19.2183,"longitude":72.9781,"temp":30.2,"humidity":60,"rain":0.0,"pressure":1008.1,"uv_index":7.95,"wind_gusts":37.8,"aqi":96,"pm10":79.9,"pm2_5":31.7,"mosquito_risk":0,"arthritis_risk":0,"migraine_risk":4,"frizz_risk":1,"updated_at":"2026-04-10T17:25:31.155181+05:30"},{"city":"Nagpur","state":"Maharashtra","latitude":21.1458,"longitude":79.0882,"temp":34.0,"humidity":34,"rain":0.0,"pressure":974.1,"uv_index":8.75,"wind_gusts":24.1,"aqi":141,"pm10":58.3,"pm2_5":24.9,"mosquito_risk":0,"arthritis_risk":5,"migraine_risk":7,"frizz_risk":0,"updated_at":"2026-04-10T17:25:31.155188+05:30"},{"city":"Nashik","state":"Maharashtra","latitude":19.9975,"longitude":73.7898,"temp":34.3,"humidity":25,"rain":0.0,"pressure":946.7,"uv_index":8.2,"wind_gusts":28.1,"aqi":133,"pm10":33.9,"pm2_5":19.7,"mosquito_risk":0,"arthritis_risk":5,"migraine_risk":7,"frizz_risk":0,"updated_at":"2026-04-10T17:25:31.155195+05:30"},{"city":"Aurangabad","state":"Maharashtra","latitude":19.8762,"longitude":75.3433,"temp":36.2,"humidity":21,"rain":0.0,"pressure":945.1,"uv_index":8.85,"wind_gusts":28.4,"aqi":135,"pm10":34.6,"pm2_5":18.8,"mosquito_risk":0,"arthritis_risk":5,"migraine_risk":10,"frizz_risk":0,"updated_at":"2026-04-10T17:25:31.155202+05:30"},{"city":"Solapur","state":"Maharashtra","latitude":17.6599,"longitude":75.9064,"temp":38.3,"humidity":21,"rain":0.0,"pressure":956.7,"uv_index":9.0,"wind_gusts":23.4,"aqi":112,"pm10":41.9,"pm2_5":18.2,"mosquito_risk":0,"arthritis_risk":5,"migraine_risk":10,"frizz_risk":0,"updated_at":"2026-04-10T17:25:31.155208+05:30"},{"city":"Kolhapur","state":"Maharashtra","latitude":16.705,"longitude":74.2433,"temp":34.7,"humidity":34,"rain":0.0,"pressure":948.1,"uv_index":9.0,"wind_gusts":34.6,"aqi":87,"pm10":40.5,"pm2_5":18.2,"mosquito_risk":0,"arthritis_risk":5,"migraine_risk":7,"frizz_risk":1,"updated_at":"2026-04-10T17:25:31.155215+05:30"},{"city":"Goa","state":"Goa","latitude":15.2993,"longitude":74.124,"temp":30.4,"humidity":66,"rain":0.0,"pressure":997.3,"uv_index":9.0,"wind_gusts":37.1,"aqi":72,"pm10":102.2,"pm2_5":36.0,"mosquito_risk":3,"arthritis_risk":5,"migraine_risk":7,"frizz_risk":1,"updated_at":"2026-04-10T17:25:31.155223+05:30"},{"city":"Jodhpur","state":"Rajasthan","latitude":26.2389,"longitude":73.0243,"temp":34.3,"humidity":18,"rain":0.0,"pressure":986.7,"uv_index":8.0,"wind_gusts":22.7,"aqi":94,"pm10":76.1,"pm2_5":14.2,"mosquito_risk":0,"arthritis_risk":5,"migraine_risk":7,"frizz_risk":0,"updated_at":"2026-04-10T17:25:31.155230+05:30"},{"city":"Udaipur","state":"Rajasthan","latitude":24.5854,"longitude":73.7125,"temp":32.5,"humidity":15,"rain":0.0,"pressure":950.4,"uv_index":8.55,"wind_gusts":29.9,"aqi":102,"pm10":27.1,"pm2_5":8.3,"mosquito_risk":0,"arthritis_risk":5,"migraine_risk":7,"frizz_risk":0,"updated_at":"2026-04-10T17:25:31.155236+05:30"},{"city":"Kota","state":"Rajasthan","latitude":25.2138,"longitude":75.8648,"temp":32.3,"humidity":21,"rain":0.0,"pressure":983.0,"uv_index":8.0,"wind_gusts":23.8,"aqi":103,"pm10":49.5,"pm2_5":15.1,"mosquito_risk":0,"arthritis_risk":5,"migraine_risk":7,"frizz_risk":0,"updated_at":"2026-04-10T17:25:31.155243+05:30"},{"city":"Bikaner","state":"Rajasthan","latitude":28.0229,"longitude":73.3119,"temp":33.8,"humidity":18,"rain":0.0,"pressure":985.9,"uv_index":7.8,"wind_gusts":19.8,"aqi":120,"pm10":51.7,"pm2_5":13.0,"mosquito_risk":0,"arthritis_risk":5,"migraine_risk":7,"frizz_risk":0,"updated_at":"2026-04-10T17:25:31.155249+05:30"},{"city":"Ajmer","state":"Rajasthan","latitude":26.4499,"longitude":74.6399,"temp":32.2,"humidity":19,"rain":0.0,"pressure":958.8,"uv_index":7.95,"wind_gusts":20.2,"aqi":99,"pm10":42.3,"pm2_5":11.6,"mosquito_risk":0,"arthritis_risk":5,"migraine_risk":7,"frizz_risk":0,"updated_at":"2026-04-10T17:25:31.155255+05:30"},{"city":"Gwalior","state":"Madhya Pradesh","latitude":26.2183,"longitude":78.1828,"temp":31.0,"humidity":25,"rain":0.0,"pressure":987.2,"uv_index":7.75,"wind_gusts":33.1,"aqi":114,"pm10":36.8,"pm2_5":11.0,"mosquito_risk":0,"arthritis_risk":5,"migraine_risk":7,"frizz_risk":0,"updated_at":"2026-04-10T17:25:31.155261+05:30"},{"city":"Indore","state":"Madhya Pradesh","latitude":22.7196,"longitude":75.8577,"temp":33.0,"humidity":20,"rain":0.0,"pressure":950.9,"uv_index":8.45,"wind_gusts":31.0,"aqi":124,"pm10":21.4,"pm2_5":9.6,"mosquito_risk":0,"arthritis_risk":5,"migraine_risk":7,"frizz_risk":0,"updated_at":"2026-04-10T17:25:31.155267+05:30"},{"city":"Bhopal","state":"Madhya Pradesh","latitude":23.2599,"longitude":77.4126,"temp":34.2,"humidity":15,"rain":0.0,"pressure":956.5,"uv_index":8.45,"wind_gusts":30.2,"aqi":111,"pm10":24.9,"pm2_5":8.6,"mosquito_risk":0,"arthritis_risk":5,"migraine_risk":7,"frizz_risk":0,"updated_at":"2026-04-10T17:25:31.155274+05:30"},{"city":"Jabalpur","state":"Madhya Pradesh","latitude":23.1815,"longitude":79.9864,"temp":33.4,"humidity":18,"rain":0.0,"pressure":963.7,"uv_index":8.55,"wind_gusts":24.5,"aqi":118,"pm10":67.1,"pm2_5":19.4,"mosquito_risk":0,"arthritis_risk":5,"migraine_risk":7,"frizz_risk":0,"updated_at":"2026-04-10T17:25:31.155280+05:30"},{"city":"Ujjain","state":"Madhya Pradesh","latitude":23.1765,"longitude":75.7885,"temp":33.4,"humidity":21,"rain":0.0,"pressure":956.8,"uv_index":8.35,"wind_gusts":29.5,"aqi":113,"pm10":27.2,"pm2_5":10.0,"mosquito_risk":0,"arthritis_risk":5,"migraine_risk":7,"frizz_risk":0,"updated_at":"2026-04-10T17:25:31.155287+05:30"},{"city":"Visakhapatnam","state":"Andhra Pradesh","latitude":17.6868,"longitude":83.2185,"temp":30.5,"humidity":73,"rain":0.0,"pressure":1004.2,"uv_index":9.1,"wind_gusts":37.1,"aqi":98,"pm10":36.1,"pm2_5":30.3,"mosquito_risk":3,"arthritis_risk":5,"migraine_risk":4,"frizz_risk":1,"updated_at":"2026-04-10T17:25:31.155294+05:30"},{"city":"Vijayawada","state":"Andhra Pradesh","latitude":16.5062,"longitude":80.648,"temp":37.4,"humidity":37,"rain":0.0,"pressure":1001.4,"uv_index":9.2,"wind_gusts":35.6,"aqi":90,"pm10":41.4,"pm2_5":29.8,"mosquito_risk":0,"arthritis_risk":5,"migraine_risk":7,"frizz_risk":1,"updated_at":"2026-04-10T17:25:31.155300+05:30"},{"city":"Guntur","state":"Andhra Pradesh","latitude":16.3067,"longitude":80.4365,"temp":33.9,"humidity":55,"rain":0.0,"pressure":1003.1,"uv_index":9.2,"wind_gusts":33.8,"aqi":90,"pm10":41.4,"pm2_5":26.8,"mosquito_risk":0,"arthritis_risk":5,"migraine_risk":4,"frizz_risk":1,"updated_at":"2026-04-10T17:25:31.155306+05:30"},{"city":"Nellore","state":"Andhra Pradesh","latitude":14.4426,"longitude":79.9865,"temp":32.7,"humidity":63,"rain":0.0,"pressure":1005.5,"uv_index":9.3,"wind_gusts":34.9,"aqi":99,"pm10":30.0,"pm2_5":23.4,"mosquito_risk":3,"arthritis_risk":5,"migraine_risk":4,"frizz_risk":1,"updated_at":"2026-04-10T17:25:31.155313+05:30"},{"city":"Kurnool","state":"Andhra Pradesh","latitude":15.8281,"longitude":78.0373,"temp":39.0,"humidity":28,"rain":0.0,"pressure":975.4,"uv_index":9.15,"wind_gusts":25.2,"aqi":116,"pm10":44.0,"pm2_5":25.7,"mosquito_risk":0,"arthritis_risk":5,"migraine_risk":10,"frizz_risk":1,"updated_at":"2026-04-10T17:25:31.155320+05:30"},{"city":"Kakinada","state":"Andhra Pradesh","latitude":16.9891,"longitude":82.2475,"temp":32.9,"humidity":60,"rain":0.0,"pressure":1006.9,"uv_index":9.15,"wind_gusts":37.1,"aqi":76,"pm10":26.5,"pm2_5":18.7,"mosquito_risk":0,"arthritis_risk":5,"migraine_risk":4,"frizz_risk":1,"updated_at":"2026-04-10T17:25:31.155328+05:30"},{"city":"Tirupati","state":"Andhra Pradesh","latitude":13.6288,"longitude":79.4192,"temp":35.0,"humidity":44,"rain":0.0,"pressure":990.9,"uv_index":9.05,"wind_gusts":30.6,"aqi":114,"pm10":39.5,"pm2_5":32.6,"mosquito_risk":0,"arthritis_risk":5,"migraine_risk":7,"frizz_risk":1,"updated_at":"2026-04-10T17:25:31.155334+05:30"},{"city":"Warangal","state":"Telangana","latitude":17.9689,"longitude":79.5941,"temp":37.5,"humidity":29,"rain":0.0,"pressure":978.1,"uv_index":9.0,"wind_gusts":23.4,"aqi":115,"pm10":56.5,"pm2_5":25.5,"mosquito_risk":0,"arthritis_risk":5,"migraine_risk":10,"frizz_risk":1,"updated_at":"2026-04-10T17:25:31.155341+05:30"},{"city":"Nizamabad","state":"Telangana","latitude":18.6725,"longitude":78.0941,"temp":35.9,"humidity":29,"rain":0.0,"pressure":965.1,"uv_index":8.95,"wind_gusts":29.5,"aqi":125,"pm10":36.9,"pm2_5":18.3,"mosquito_risk":0,"arthritis_risk":5,"migraine_risk":10,"frizz_risk":0,"updated_at":"2026-04-10T17:25:31.155347+05:30"},{"city":"Mysore","state":"Karnataka","latitude":12.2958,"longitude":76.6396,"temp":35.4,"humidity":28,"rain":0.0,"pressure":927.7,"uv_index":9.55,"wind_gusts":37.4,"aqi":121,"pm10":38.1,"pm2_5":25.9,"mosquito_risk":0,"arthritis_risk":5,"migraine_risk":10,"frizz_risk":0,"updated_at":"2026-04-10T17:25:31.155354+05:30"},{"city":"Mangalore","state":"Karnataka","latitude":12.9141,"longitude":74.856,"temp":29.4,"humidity":79,"rain":0.0,"pressure":1005.7,"uv_index":9.15,"wind_gusts":32.4,"aqi":66,"pm10":61.9,"pm2_5":20.5,"mosquito_risk":7,"arthritis_risk":5,"migraine_risk":4,"frizz_risk":1,"updated_at":"2026-04-10T17:25:31.155360+05:30"},{"city":"Hubli-Dharwad","state":"Karnataka","latitude":15.3647,"longitude":75.124,"temp":36.8,"humidity":23,"rain":0.0,"pressure":940.4,"uv_index":9.2,"wind_gusts":36.0,"aqi":97,"pm10":51.5,"pm2_5":21.4,"mosquito_risk":0,"arthritis_risk":5,"migraine_risk":10,"frizz_risk":0,"updated_at":"2026-04-10T17:25:31.155367+05:30"},{"city":"Belgaum","state":"Karnataka","latitude":15.8497,"longitude":74.4977,"temp":34.8,"humidity":28,"rain":0.0,"pressure":926.1,"uv_index":9.25,"wind_gusts":35.3,"aqi":98,"pm10":50.2,"pm2_5":21.4,"mosquito_risk":0,"arthritis_risk":5,"migraine_risk":7,"frizz_risk":0,"updated_at":"2026-04-10T17:25:34.509999+05:30"},{"city":"Coimbatore","state":"Tamil Nadu","latitude":11.0168,"longitude":76.9558,"temp":33.3,"humidity":47,"rain":0.0,"pressure":961.1,"uv_index":9.5,"wind_gusts":36.7,"aqi":131,"pm10":28.8,"pm2_5":19.8,"mosquito_risk":0,"arthritis_risk":5,"migraine_risk":7,"frizz_risk":1,"updated_at":"2026-04-10T17:25:34.510030+05:30"},{"city":"Madurai","state":"Tamil Nadu","latitude":9.9252,"longitude":78.1198,"temp":36.7,"humidity":36,"rain":0.0,"pressure":991.6,"uv_index":9.4,"wind_gusts":41.0,"aqi":129,"pm10":27.6,"pm2_5":24.1,"mosquito_risk":0,"arthritis_risk":5,"migraine_risk":10,"frizz_risk":1,"updated_at":"2026-04-10T17:25:34.510040+05:30"},{"city":"Trichy","state":"Tamil Nadu","latitude":10.7905,"longitude":78.7047,"temp":36.8,"humidity":37,"rain":0.0,"pressure":998.3,"uv_index":9.4,"wind_gusts":31.7,"aqi":96,"pm10":24.6,"pm2_5":20.2,"mosquito_risk":0,"arthritis_risk":5,"migraine_risk":10,"frizz_risk":1,"updated_at":"2026-04-10T17:25:34.510048+05:30"},{"city":"Salem","state":"Tamil Nadu","latitude":11.6643,"longitude":78.146,"temp":35.3,"humidity":46,"rain":0.0,"pressure":976.3,"uv_index":9.3,"wind_gusts":24.1,"aqi":140,"pm10":33.1,"pm2_5":28.8,"mosquito_risk":0,"arthritis_risk":5,"migraine_risk":10,"frizz_risk":1,"updated_at":"2026-04-10T17:25:34.510055+05:30"},{"city":"Tirunelveli","state":"Tamil Nadu","latitude":8.7139,"longitude":77.7567,"temp":32.8,"humidity":58,"rain":0.0,"pressure":1002.7,"uv_index":9.35,"wind_gusts":38.2,"aqi":129,"pm10":29.4,"pm2_5":26.1,"mosquito_risk":0,"arthritis_risk":5,"migraine_risk":4,"frizz_risk":1,"updated_at":"2026-04-10T17:25:34.510062+05:30"},{"city":"Vellore","state":"Tamil Nadu","latitude":12.9165,"longitude":79.1325,"temp":34.3,"humidity":43,"rain":0.0,"pressure":984.2,"uv_index":9.45,"wind_gusts":35.3,"aqi":117,"pm10":36.7,"pm2_5":31.8,"mosquito_risk":0,"arthritis_risk":5,"migraine_risk":7,"frizz_risk":1,"updated_at":"2026-04-10T17:25:34.510069+05:30"},{"city":"Erode","state":"Tamil Nadu","latitude":11.341,"longitude":77.7172,"temp":36.9,"humidity":38,"rain":0.0,"pressure":987.4,"uv_index":9.45,"wind_gusts":34.9,"aqi":130,"pm10":29.1,"pm2_5":24.1,"mosquito_risk":0,"arthritis_risk":5,"migraine_risk":10,"frizz_risk":1,"updated_at":"2026-04-10T17:25:34.510076+05:30"},{"city":"Kochi","state":"Kerala","latitude":9.9312,"longitude":76.2673,"temp":30.1,"humidity":80,"rain":0.0,"pressure":1007.7,"uv_index":9.25,"wind_gusts":31.7,"aqi":82,"pm10":40.6,"pm2_5":21.9,"mosquito_risk":3,"arthritis_risk":5,"migraine_risk":4,"frizz_risk":1,"updated_at":"2026-04-10T17:25:34.510083+05:30"},{"city":"Thiruvananthapuram","state":"Kerala","latitude":8.5241,"longitude":76.9366,"temp":28.9,"humidity":82,"rain":0.0,"pressure":1007.8,"uv_index":9.2,"wind_gusts":28.1,"aqi":79,"pm10":39.1,"pm2_5":19.1,"mosquito_risk":7,"arthritis_risk":5,"migraine_risk":4,"frizz_risk":1,"updated_at":"2026-04-10T17:25:34.510090+05:30"},{"city":"Kozhikode","state":"Kerala","latitude":11.2588,"longitude":75.7804,"temp":30.4,"humidity":76,"rain":0.0,"pressure":1006.8,"uv_index":9.15,"wind_gusts":30.2,"aqi":68,"pm10":50.8,"pm2_5":16.2,"mosquito_risk":3,"arthritis_risk":5,"migraine_risk":4,"frizz_risk":1,"updated_at":"2026-04-10T17:25:34.510097+05:30"},{"city":"Thrissur","state":"Kerala","latitude":10.5276,"longitude":76.2144,"temp":31.7,"humidity":70,"rain":0.0,"pressure":1006.0,"uv_index":9.2,"wind_gusts":36.0,"aqi":86,"pm10":37.4,"pm2_5":21.5,"mosquito_risk":3,"arthritis_risk":5,"migraine_risk":4,"frizz_risk":1,"updated_at":"2026-04-10T17:25:34.510104+05:30"},{"city":"Kannur","state":"Kerala","latitude":11.8745,"longitude":75.3704,"temp":30.7,"humidity":71,"rain":0.0,"pressure":1006.4,"uv_index":9.15,"wind_gusts":36.4,"aqi":68,"pm10":53.3,"pm2_5":18.6,"mosquito_risk":3,"arthritis_risk":5,"migraine_risk":4,"frizz_risk":1,"updated_at":"2026-04-10T17:25:34.510110+05:30"},{"city":"Patna","state":"Bihar","latitude":25.5941,"longitude":85.1376,"temp":32.1,"humidity":21,"rain":0.0,"pressure":1000.7,"uv_index":8.35,"wind_gusts":38.9,"aqi":131,"pm10":47.3,"pm2_5":15.8,"mosquito_risk":0,"arthritis_risk":5,"migraine_risk":4,"frizz_risk":0,"updated_at":"2026-04-10T17:25:34.510116+05:30"},{"city":"Gaya","state":"Bihar","latitude":24.7914,"longitude":85.0002,"temp":30.9,"humidity":25,"rain":0.0,"pressure":994.9,"uv_index":8.45,"wind_gusts":37.8,"aqi":139,"pm10":48.8,"pm2_5":16.5,"mosquito_risk":0,"arthritis_risk":5,"migraine_risk":7,"frizz_risk":0,"updated_at":"2026-04-10T17:25:34.510123+05:30"},{"city":"Muzaffarpur","state":"Bihar","latitude":26.1209,"longitude":85.3647,"temp":31.4,"humidity":23,"rain":0.0,"pressure":1000.5,"uv_index":8.35,"wind_gusts":36.0,"aqi":126,"pm10":36.9,"pm2_5":14.1,"mosquito_risk":0,"arthritis_risk":5,"migraine_risk":4,"frizz_risk":0,"updated_at":"2026-04-10T17:25:34.510129+05:30"},{"city":"Bhagalpur","state":"Bihar","latitude":25.2425,"longitude":87.0117,"temp":29.2,"humidity":37,"rain":0.0,"pressure":1001.8,"uv_index":8.35,"wind_gusts":34.2,"aqi":143,"pm10":27.1,"pm2_5":12.9,"mosquito_risk":4,"arthritis_risk":5,"migraine_risk":4,"frizz_risk":0,"updated_at":"2026-04-10T17:25:34.510136+05:30"},{"city":"Ranchi","state":"Jharkhand","latitude":23.3441,"longitude":85.3096,"temp":29.0,"humidity":26,"rain":0.0,"pressure":939.1,"uv_index":9.0,"wind_gusts":37.4,"aqi":118,"pm10":50.6,"pm2_5":16.5,"mosquito_risk":4,"arthritis_risk":5,"migraine_risk":7,"frizz_risk":0,"updated_at":"2026-04-10T17:25:34.510142+05:30"},{"city":"Jamshedpur","state":"Jharkhand","latitude":22.8046,"longitude":86.2029,"temp":31.1,"humidity":41,"rain":0.0,"pressure":991.5,"uv_index":8.85,"wind_gusts":16.9,"aqi":144,"pm10":58.2,"pm2_5":19.9,"mosquito_risk":0,"arthritis_risk":5,"migraine_risk":7,"frizz_risk":1,"updated_at":"2026-04-10T17:25:34.510148+05:30"},{"city":"Dhanbad","state":"Jharkhand","latitude":23.7957,"longitude":86.4304,"temp":31.6,"humidity":23,"rain":0.0,"pressure":980.5,"uv_index":8.75,"wind_gusts":31.0,"aqi":150,"pm10":40.9,"pm2_5":16.1,"mosquito_risk":0,"arthritis_risk":5,"migraine_risk":7,"frizz_risk":0,"updated_at":"2026-04-10T17:25:34.510154+05:30"},{"city":"Bokaro","state":"Jharkhand","latitude":23.6693,"longitude":86.1511,"temp":31.1,"humidity":23,"rain":0.0,"pressure":984.6,"uv_index":8.8,"wind_gusts":32.8,"aqi":132,"pm10":43.8,"pm2_5":16.2,"mosquito_risk":0,"arthritis_risk":5,"migraine_risk":7,"frizz_risk":0,"updated_at":"2026-04-10T17:25:34.510161+05:30"},{"city":"Bhubaneswar","state":"Odisha","latitude":20.2961,"longitude":85.8245,"temp":32.0,"humidity":61,"rain":0.0,"pressure":1003.1,"uv_index":9.0,"wind_gusts":24.5,"aqi":138,"pm10":77.5,"pm2_5":49.9,"mosquito_risk":3,"arthritis_risk":5,"migraine_risk":4,"frizz_risk":1,"updated_at":"2026-04-10T17:25:34.510168+05:30"},{"city":"Cuttack","state":"Odisha","latitude":20.4625,"longitude":85.8828,"temp":33.8,"humidity":46,"rain":0.0,"pressure":1004.8,"uv_index":9.0,"wind_gusts":22.7,"aqi":138,"pm10":77.5,"pm2_5":49.9,"mosquito_risk":0,"arthritis_risk":5,"migraine_risk":4,"frizz_risk":1,"updated_at":"2026-04-10T17:25:34.510175+05:30"},{"city":"Rourkela","state":"Odisha","latitude":22.2604,"longitude":84.8536,"temp":32.9,"humidity":32,"rain":0.0,"pressure":985.8,"uv_index":8.75,"wind_gusts":20.2,"aqi":119,"pm10":57.5,"pm2_5":20.0,"mosquito_risk":0,"arthritis_risk":5,"migraine_risk":7,"frizz_risk":0,"updated_at":"2026-04-10T17:25:34.510181+05:30"},{"city":"Raipur","state":"Chhattisgarh","latitude":21.2514,"longitude":81.6296,"temp":36.0,"humidity":24,"rain":0.0,"pressure":975.1,"uv_index":8.8,"wind_gusts":24.1,"aqi":147,"pm10":71.5,"pm2_5":35.7,"mosquito_risk":0,"arthritis_risk":5,"migraine_risk":10,"frizz_risk":0,"updated_at":"2026-04-10T17:25:34.510187+05:30"},{"city":"Bhilai","state":"Chhattisgarh","latitude":21.1938,"longitude":81.3509,"temp":36.1,"humidity":25,"rain":0.0,"pressure":975.2,"uv_index":8.8,"wind_gusts":22.3,"aqi":136,"pm10":71.7,"pm2_5":35.3,"mosquito_risk":0,"arthritis_risk":5,"migraine_risk":10,"frizz_risk":0,"updated_at":"2026-04-10T17:25:34.510193+05:30"},{"city":"Guwahati","state":"Assam","latitude":26.1158,"longitude":91.7086,"temp":25.2,"humidity":69,"rain":0.0,"pressure":1002.2,"uv_index":8.2,"wind_gusts":32.4,"aqi":115,"pm10":36.7,"pm2_5":27.9,"mosquito_risk":7,"arthritis_risk":5,"migraine_risk":4,"frizz_risk":1,"updated_at":"2026-04-10T17:25:34.510199+05:30"},{"city":"Agartala","state":"Tripura","latitude":23.8315,"longitude":91.2868,"temp":27.4,"humidity":70,"rain":0.0,"pressure":1006.5,"uv_index":8.55,"wind_gusts":28.8,"aqi":167,"pm10":65.0,"pm2_5":44.0,"mosquito_risk":7,"arthritis_risk":5,"migraine_risk":4,"frizz_risk":1,"updated_at":"2026-04-10T17:25:34.510206+05:30"},{"city":"Shillong","state":"Meghalaya","latitude":25.5788,"longitude":91.8933,"temp":13.8,"humidity":69,"rain":0.0,"pressure":854.8,"uv_index":7.05,"wind_gusts":50.4,"aqi":115,"pm10":32.1,"pm2_5":23.7,"mosquito_risk":3,"arthritis_risk":5,"migraine_risk":7,"frizz_risk":0,"updated_at":"2026-04-10T17:25:34.510212+05:30"},{"city":"Imphal","state":"Manipur","latitude":24.817,"longitude":93.9368,"temp":17.2,"humidity":70,"rain":0.0,"pressure":922.8,"uv_index":8.9,"wind_gusts":57.6,"aqi":102,"pm10":31.4,"pm2_5":19.5,"mosquito_risk":3,"arthritis_risk":5,"migraine_risk":7,"frizz_risk":0,"updated_at":"2026-04-10T17:25:34.510218+05:30"},{"city":"Aizawl","state":"Mizoram","latitude":23.7271,"longitude":92.7176,"temp":20.6,"humidity":61,"rain":0.0,"pressure":893.0,"uv_index":8.8,"wind_gusts":58.0,"aqi":78,"pm10":46.1,"pm2_5":21.7,"mosquito_risk":3,"arthritis_risk":5,"migraine_risk":7,"frizz_risk":0,"updated_at":"2026-04-10T17:25:34.510224+05:30"},{"city":"Kohima","state":"Nagaland","latitude":25.6701,"longitude":94.1077,"temp":13.4,"humidity":88,"rain":0.0,"pressure":853.3,"uv_index":8.4,"wind_gusts":72.0,"aqi":94,"pm10":25.8,"pm2_5":16.8,"mosquito_risk":3,"arthritis_risk":10,"migraine_risk":7,"frizz_risk":0,"updated_at":"2026-04-10T17:25:34.510231+05:30"},{"city":"Gangtok","state":"Sikkim","latitude":27.3314,"longitude":88.6138,"temp":14.5,"humidity":77,"rain":0.0,"pressure":835.9,"uv_index":8.5,"wind_gusts":15.1,"aqi":106,"pm10":37.5,"pm2_5":26.5,"mosquito_risk":3,"arthritis_risk":5,"migraine_risk":7,"frizz_risk":0,"updated_at":"2026-04-10T17:25:34.510237+05:30"},{"city":"Siliguri","state":"West Bengal","latitude":26.7271,"longitude":88.3953,"temp":22.1,"humidity":61,"rain":0.0,"pressure":994.2,"uv_index":8.2,"wind_gusts":26.6,"aqi":122,"pm10":38.3,"pm2_5":26.3,"mosquito_risk":3,"arthritis_risk":5,"migraine_risk":7,"frizz_risk":0,"updated_at":"2026-04-10T17:25:37.865625+05:30"},{"city":"Durgapur","state":"West Bengal","latitude":23.5204,"longitude":87.3119,"temp":30.0,"humidity":43,"rain":0.0,"pressure":995.7,"uv_index":8.7,"wind_gusts":20.9,"aqi":151,"pm10":37.8,"pm2_5":16.1,"mosquito_risk":4,"arthritis_risk":5,"migraine_risk":7,"frizz_risk":1,"updated_at":"2026-04-10T17:25:37.865658+05:30"},{"city":"Asansol","state":"West Bengal","latitude":23.6739,"longitude":86.9524,"temp":30.9,"humidity":33,"rain":0.0,"pressure":994.2,"uv_index":8.75,"wind_gusts":23.0,"aqi":130,"pm10":39.7,"pm2_5":16.4,"mosquito_risk":0,"arthritis_risk":5,"migraine_risk":7,"frizz_risk":0,"updated_at":"2026-04-10T17:25:37.865709+05:30"},{"city":"Pondicherry","state":"Puducherry","latitude":11.9139,"longitude":79.8145,"temp":32.4,"humidity":66,"rain":0.0,"pressure":1008.1,"uv_index":8.85,"wind_gusts":33.8,"aqi":64,"pm10":21.5,"pm2_5":15.5,"mosquito_risk":3,"arthritis_risk":0,"migraine_risk":4,"frizz_risk":1,"updated_at":"2026-04-10T17:25:37.865720+05:30"},{"city":"Port Blair","state":"Andaman and Nicobar Islands","latitude":11.6234,"longitude":92.7265,"temp":28.7,"humidity":78,"rain":0.0,"pressure":1008.3,"uv_index":9.15,"wind_gusts":16.6,"aqi":38,"pm10":2.1,"pm2_5":2.0,"mosquito_risk":7,"arthritis_risk":0,"migraine_risk":4,"frizz_risk":1,"updated_at":"2026-04-10T17:25:37.865730+05:30"},{"city":"Haridwar","state":"Uttarakhand","latitude":29.9457,"longitude":78.1642,"temp":28.5,"humidity":28,"rain":0.0,"pressure":976.0,"uv_index":6.95,"wind_gusts":45.4,"aqi":129,"pm10":50.6,"pm2_5":13.5,"mosquito_risk":4,"arthritis_risk":5,"migraine_risk":7,"frizz_risk":0,"updated_at":"2026-04-10T17:25:37.865739+05:30"},{"city":"Rishikesh","state":"Uttarakhand","latitude":30.0869,"longitude":78.2676,"temp":27.8,"humidity":31,"rain":0.0,"pressure":968.6,"uv_index":7.0,"wind_gusts":37.1,"aqi":140,"pm10":12.6,"pm2_5":11.1,"mosquito_risk":4,"arthritis_risk":5,"migraine_risk":7,"frizz_risk":0,"updated_at":"2026-04-10T17:25:37.865748+05:30"},{"city":"Nainital","state":"Uttarakhand","latitude":29.3919,"longitude":79.4542,"temp":19.4,"humidity":43,"rain":0.0,"pressure":807.4,"uv_index":7.9,"wind_gusts":57.2,"aqi":129,"pm10":30.7,"pm2_5":14.9,"mosquito_risk":0,"arthritis_risk":5,"migraine_risk":7,"frizz_risk":0,"updated_at":"2026-04-10T17:25:37.865757+05:30"},{"city":"Mussoorie","state":"Uttarakhand","latitude":30.4599,"longitude":78.0664,"temp":18.6,"humidity":47,"rain":0.0,"pressure":804.1,"uv_index":7.4,"wind_gusts":37.8,"aqi":138,"pm10":9.1,"pm2_5":8.6,"mosquito_risk":0,"arthritis_risk":5,"migraine_risk":7,"frizz_risk":0,"updated_at":"2026-04-10T17:25:37.865765+05:30"},{"city":"Dharamshala","state":"Himachal Pradesh","latitude":32.219,"longitude":76.3234,"temp":20.7,"humidity":51,"rain":0.0,"pressure":872.0,"uv_index":7.6,"wind_gusts":24.8,"aqi":152,"pm10":10.9,"pm2_5":6.0,"mosquito_risk":0,"arthritis_risk":5,"migraine_risk":7,"frizz_risk":0,"updated_at":"2026-04-10T17:25:37.865774+05:30"},{"city":"Dalhousie","state":"Himachal Pradesh","latitude":32.5387,"longitude":75.971,"temp":19.1,"humidity":42,"rain":0.0,"pressure":806.7,"uv_index":7.85,"wind_gusts":19.4,"aqi":120,"pm10":11.3,"pm2_5":7.6,"mosquito_risk":0,"arthritis_risk":5,"migraine_risk":7,"frizz_risk":0,"updated_at":"2026-04-10T17:25:37.865783+05:30"},{"city":"Patiala","state":"Punjab","latitude":30.3398,"longitude":76.3869,"temp":29.7,"humidity":26,"rain":0.0,"pressure":981.5,"uv_index":7.0,"wind_gusts":38.5,"aqi":565,"pm10":1192.1,"pm2_5":108.0,"mosquito_risk":4,"arthritis_risk":5,"migraine_risk":7,"frizz_risk":0,"updated_at":"2026-04-10T17:25:37.865791+05:30"},{"city":"Bhatinda","state":"Punjab","latitude":30.211,"longitude":74.9455,"temp":30.4,"humidity":28,"rain":0.0,"pressure":988.0,"uv_index":7.65,"wind_gusts":31.7,"aqi":121,"pm10":47.0,"pm2_5":14.3,"mosquito_risk":0,"arthritis_risk":5,"migraine_risk":7,"frizz_risk":0,"updated_at":"2026-04-10T17:25:37.865800+05:30"},{"city":"Rohtak","state":"Haryana","latitude":28.8955,"longitude":76.6066,"temp":31.2,"humidity":24,"rain":0.0,"pressure":985.1,"uv_index":7.15,"wind_gusts":38.5,"aqi":722,"pm10":1892.4,"pm2_5":188.1,"mosquito_risk":0,"arthritis_risk":5,"migraine_risk":7,"frizz_risk":0,"updated_at":"2026-04-10T17:25:37.865808+05:30"},{"city":"Panipat","state":"Haryana","latitude":29.3909,"longitude":76.9635,"temp":30.4,"humidity":25,"rain":0.0,"pressure":983.4,"uv_index":7.0,"wind_gusts":41.0,"aqi":1464,"pm10":3129.2,"pm2_5":294.3,"mosquito_risk":0,"arthritis_risk":5,"migraine_risk":7,"frizz_risk":0,"updated_at":"2026-04-10T17:25:37.865816+05:30"},{"city":"Mathura","state":"Uttar Pradesh","latitude":27.4924,"longitude":77.6737,"temp":31.7,"humidity":23,"rain":0.0,"pressure":990.3,"uv_index":7.45,"wind_gusts":34.2,"aqi":774,"pm10":2123.4,"pm2_5":194.6,"mosquito_risk":0,"arthritis_risk":5,"migraine_risk":7,"frizz_risk":0,"updated_at":"2026-04-10T17:25:37.865824+05:30"},{"city":"Vrindavan","state":"Uttar Pradesh","latitude":27.5823,"longitude":77.7027,"temp":31.1,"humidity":25,"rain":0.0,"pressure":990.5,"uv_index":7.4,"wind_gusts":37.4,"aqi":774,"pm10":2123.4,"pm2_5":194.6,"mosquito_risk":0,"arthritis_risk":5,"migraine_risk":7,"frizz_risk":0,"updated_at":"2026-04-10T17:25:37.865831+05:30"},{"city":"Ayodhya","state":"Uttar Pradesh","latitude":26.7922,"longitude":82.1998,"temp":31.4,"humidity":22,"rain":0.0,"pressure":996.5,"uv_index":7.8,"wind_gusts":49.7,"aqi":118,"pm10":99.0,"pm2_5":21.7,"mosquito_risk":0,"arthritis_risk":5,"migraine_risk":7,"frizz_risk":0,"updated_at":"2026-04-10T17:25:37.865837+05:30"},{"city":"Ratlam","state":"Madhya Pradesh","latitude":23.3315,"longitude":75.0367,"temp":33.0,"humidity":25,"rain":0.0,"pressure":957.7,"uv_index":8.3,"wind_gusts":32.4,"aqi":112,"pm10":23.8,"pm2_5":8.5,"mosquito_risk":0,"arthritis_risk":5,"migraine_risk":7,"frizz_risk":0,"updated_at":"2026-04-10T17:25:37.865844+05:30"},{"city":"Sagar","state":"Madhya Pradesh","latitude":23.8388,"longitude":78.7378,"temp":33.2,"humidity":17,"rain":0.0,"pressure":953.1,"uv_index":8.4,"wind_gusts":29.9,"aqi":115,"pm10":31.9,"pm2_5":10.0,"mosquito_risk":0,"arthritis_risk":5,"migraine_risk":7,"frizz_risk":0,"updated_at":"2026-04-10T17:25:37.865850+05:30"},{"city":"Satna","state":"Madhya Pradesh","latitude":24.6005,"longitude":80.8322,"temp":32.7,"humidity":19,"rain":0.0,"pressure":973.7,"uv_index":8.45,"wind_gusts":34.6,"aqi":122,"pm10":43.4,"pm2_5":13.6,"mosquito_risk":0,"arthritis_risk":5,"migraine_risk":7,"frizz_risk":0,"updated_at":"2026-04-10T17:25:37.865857+05:30"},{"city":"Akola","state":"Maharashtra","latitude":20.7002,"longitude":77.0082,"temp":38.6,"humidity":19,"rain":0.0,"pressure":975.1,"uv_index":8.7,"wind_gusts":24.5,"aqi":129,"pm10":52.7,"pm2_5":22.9,"mosquito_risk":0,"arthritis_risk":5,"migraine_risk":10,"frizz_risk":0,"updated_at":"2026-04-10T17:25:37.865865+05:30"},{"city":"Amravati","state":"Maharashtra","latitude":20.9374,"longitude":77.7796,"temp":36.5,"humidity":24,"rain":0.0,"pressure":968.0,"uv_index":8.7,"wind_gusts":28.4,"aqi":125,"pm10":51.6,"pm2_5":21.3,"mosquito_risk":0,"arthritis_risk":5,"migraine_risk":10,"frizz_risk":0,"updated_at":"2026-04-10T17:25:37.865872+05:30"},{"city":"Latur","state":"Maharashtra","latitude":18.4088,"longitude":76.5604,"temp":34.5,"humidity":30,"rain":0.0,"pressure":940.7,"uv_index":8.95,"wind_gusts":30.2,"aqi":116,"pm10":41.1,"pm2_5":21.7,"mosquito_risk":0,"arthritis_risk":5,"migraine_risk":7,"frizz_risk":0,"updated_at":"2026-04-10T17:25:37.865879+05:30"},{"city":"Nanded","state":"Maharashtra","latitude":19.1383,"longitude":77.3091,"temp":36.7,"humidity":24,"rain":0.0,"pressure":969.0,"uv_index":8.85,"wind_gusts":19.4,"aqi":117,"pm10":36.1,"pm2_5":17.8,"mosquito_risk":0,"arthritis_risk":5,"migraine_risk":10,"frizz_risk":0,"updated_at":"2026-04-10T17:25:37.865886+05:30"},{"city":"Gulbarga","state":"Karnataka","latitude":17.3297,"longitude":76.8343,"temp":38.1,"humidity":22,"rain":0.0,"pressure":958.5,"uv_index":9.05,"wind_gusts":26.3,"aqi":110,"pm10":41.7,"pm2_5":18.7,"mosquito_risk":0,"arthritis_risk":5,"migraine_risk":10,"frizz_risk":0,"updated_at":"2026-04-10T17:25:37.865892+05:30"},{"city":"Bidar","state":"Karnataka","latitude":17.9104,"longitude":77.5199,"temp":35.7,"humidity":25,"rain":0.0,"pressure":936.3,"uv_index":9.05,"wind_gusts":28.8,"aqi":115,"pm10":38.4,"pm2_5":19.1,"mosquito_risk":0,"arthritis_risk":5,"migraine_risk":10,"frizz_risk":0,"updated_at":"2026-04-10T17:25:37.865898+05:30"},{"city":"Hospet","state":"Karnataka","latitude":15.2689,"longitude":76.3909,"temp":37.5,"humidity":26,"rain":0.0,"pressure":954.9,"uv_index":9.25,"wind_gusts":23.4,"aqi":137,"pm10":40.3,"pm2_5":24.4,"mosquito_risk":0,"arthritis_risk":5,"migraine_risk":10,"frizz_risk":0,"updated_at":"2026-04-10T17:25:37.865903+05:30"},{"city":"Tirupur","state":"Tamil Nadu","latitude":11.1085,"longitude":77.3411,"temp":37.3,"humidity":31,"rain":0.0,"pressure":973.8,"uv_index":9.5,"wind_gusts":30.2,"aqi":152,"pm10":29.3,"pm2_5":21.4,"mosquito_risk":0,"arthritis_risk":5,"migraine_risk":10,"frizz_risk":1,"updated_at":"2026-04-10T17:25:37.865909+05:30"},{"city":"Alappuzha","state":"Kerala","latitude":9.4981,"longitude":76.3388,"temp":30.4,"humidity":79,"rain":0.0,"pressure":1007.7,"uv_index":9.2,"wind_gusts":26.6,"aqi":75,"pm10":48.7,"pm2_5":23.5,"mosquito_risk":3,"arthritis_risk":5,"migraine_risk":4,"frizz_risk":1,"updated_at":"2026-04-10T17:25:37.865916+05:30"},{"city":"Munnar","state":"Kerala","latitude":10.0889,"longitude":77.0595,"temp":27.3,"humidity":63,"rain":0.0,"pressure":858.7,"uv_index":8.1,"wind_gusts":31.3,"aqi":114,"pm10":30.3,"pm2_5":26.5,"mosquito_risk":7,"arthritis_risk":5,"migraine_risk":7,"frizz_risk":1,"updated_at":"2026-04-10T17:25:37.865923+05:30"},{"city":"Silchar","state":"Assam","latitude":24.8333,"longitude":92.7789,"temp":26.3,"humidity":62,"rain":0.0,"pressure":1005.6,"uv_index":8.55,"wind_gusts":25.9,"aqi":129,"pm10":46.2,"pm2_5":33.9,"mosquito_risk":7,"arthritis_risk":5,"migraine_risk":4,"frizz_risk":1,"updated_at":"2026-04-10T17:25:37.865929+05:30"},{"city":"Dibrugarh","state":"Assam","latitude":27.4728,"longitude":94.912,"temp":21.6,"humidity":81,"rain":0.0,"pressure":997.2,"uv_index":8.35,"wind_gusts":16.2,"aqi":98,"pm10":25.4,"pm2_5":18.0,"mosquito_risk":3,"arthritis_risk":5,"migraine_risk":7,"frizz_risk":1,"updated_at":"2026-04-10T17:25:37.865936+05:30"}]