[{"city":"Delhi","state":"Delhi","latitude":28.6139,"longitude":77.209,"temp":31.2,"humidity":73,"rain":0.0,"pressure":972.7,"uv_index":6.3,"wind_gusts":34.2,"aqi":88,"pm10":16.2,"pm2_5":16.1,"no2":10.9,"co":415.0,"o3":137.0,"so2":19.0,"mosquito_risk":3,"arthritis_risk":5,"migraine_risk":7,"frizz_risk":1,"updated_at":"2026-07-24T15:50:56.442663+05:30"},{"city":"Mumbai","state":"Maharashtra","latitude":19.076,"longitude":72.8777,"temp":27.9,"humidity":83,"rain":0.1,"pressure":1002.4,"uv_index":7.55,"wind_gusts":64.8,"aqi":61,"pm10":29.5,"pm2_5":15.1,"no2":6.1,"co":167.0,"o3":55.0,"so2":5.6,"mosquito_risk":10,"arthritis_risk":5,"migraine_risk":4,"frizz_risk":1,"updated_at":"2026-07-24T15:50:56.442712+05:30"},{"city":"Bangalore","state":"Karnataka","latitude":12.9716,"longitude":77.5946,"temp":28.0,"humidity":53,"rain":0.1,"pressure":909.8,"uv_index":8.7,"wind_gusts":61.2,"aqi":49,"pm10":51.7,"pm2_5":20.7,"no2":5.6,"co":296.0,"o3":77.0,"so2":1.9,"mosquito_risk":7,"arthritis_risk":5,"migraine_risk":7,"frizz_risk":1,"updated_at":"2026-07-24T15:50:56.442728+05:30"},{"city":"Hyderabad","state":"Telangana","latitude":17.385,"longitude":78.4867,"temp":30.0,"humidity":58,"rain":0.1,"pressure":948.0,"uv_index":5.55,"wind_gusts":63.7,"aqi":66,"pm10":31.0,"pm2_5":13.9,"no2":2.3,"co":229.0,"o3":80.0,"so2":2.4,"mosquito_risk":7,"arthritis_risk":5,"migraine_risk":3,"frizz_risk":1,"updated_at":"2026-07-24T15:50:56.442738+05:30"},{"city":"Chennai","state":"Tamil Nadu","latitude":13.0827,"longitude":80.2707,"temp":31.9,"humidity":72,"rain":0.1,"pressure":1002.5,"uv_index":8.1,"wind_gusts":35.3,"aqi":71,"pm10":33.9,"pm2_5":22.1,"no2":3.4,"co":238.0,"o3":143.0,"so2":5.6,"mosquito_risk":6,"arthritis_risk":5,"migraine_risk":4,"frizz_risk":1,"updated_at":"2026-07-24T15:50:56.442746+05:30"},{"city":"Kolkata","state":"West Bengal","latitude":22.5726,"longitude":88.3639,"temp":27.6,"humidity":89,"rain":0.3,"pressure":996.9,"uv_index":4.75,"wind_gusts":28.4,"aqi":67,"pm10":30.0,"pm2_5":26.9,"no2":7.7,"co":415.0,"o3":100.0,"so2":8.8,"mosquito_risk":10,"arthritis_risk":5,"migraine_risk":3,"frizz_risk":1,"updated_at":"2026-07-24T15:50:56.442755+05:30"},{"city":"Pune","state":"Maharashtra","latitude":18.5204,"longitude":73.8567,"temp":25.0,"humidity":82,"rain":0.2,"pressure":942.4,"uv_index":6.2,"wind_gusts":65.2,"aqi":22,"pm10":7.3,"pm2_5":4.0,"no2":2.9,"co":135.0,"o3":50.0,"so2":2.6,"mosquito_risk":10,"arthritis_risk":5,"migraine_risk":7,"frizz_risk":1,"updated_at":"2026-07-24T15:50:56.442762+05:30"},{"city":"Ahmedabad","state":"Gujarat","latitude":23.0225,"longitude":72.5714,"temp":27.7,"humidity":81,"rain":0.0,"pressure":991.9,"uv_index":1.8,"wind_gusts":42.5,"aqi":50,"pm10":6.0,"pm2_5":4.1,"no2":10.1,"co":199.0,"o3":39.0,"so2":2.2,"mosquito_risk":7,"arthritis_risk":5,"migraine_risk":3,"frizz_risk":1,"updated_at":"2026-07-24T15:50:56.442769+05:30"},{"city":"Jaipur","state":"Rajasthan","latitude":26.9124,"longitude":75.7873,"temp":31.0,"humidity":66,"rain":0.0,"pressure":949.1,"uv_index":7.25,"wind_gusts":27.0,"aqi":72,"pm10":10.4,"pm2_5":10.2,"no2":2.9,"co":261.0,"o3":109.0,"so2":5.2,"mosquito_risk":3,"arthritis_risk":5,"migraine_risk":7,"frizz_risk":1,"updated_at":"2026-07-24T15:50:56.442776+05:30"},{"city":"Lucknow","state":"Uttar Pradesh","latitude":26.8467,"longitude":80.9462,"temp":31.7,"humidity":72,"rain":0.0,"pressure":984.1,"uv_index":7.55,"wind_gusts":24.5,"aqi":72,"pm10":14.3,"pm2_5":13.6,"no2":3.6,"co":203.0,"o3":105.0,"so2":5.1,"mosquito_risk":3,"arthritis_risk":5,"migraine_risk":7,"frizz_risk":1,"updated_at":"2026-07-24T15:50:56.442787+05:30"},{"city":"Kanpur","state":"Uttar Pradesh","latitude":26.4499,"longitude":80.3319,"temp":32.8,"humidity":62,"rain":0.0,"pressure":982.0,"uv_index":7.2,"wind_gusts":27.0,"aqi":62,"pm10":10.6,"pm2_5":9.7,"no2":2.4,"co":161.0,"o3":107.0,"so2":4.5,"mosquito_risk":3,"arthritis_risk":5,"migraine_risk":7,"frizz_risk":1,"updated_at":"2026-07-24T15:50:56.442794+05:30"},{"city":"Chandigarh","state":"Chandigarh","latitude":30.7333,"longitude":76.7794,"temp":32.2,"humidity":62,"rain":0.1,"pressure":960.4,"uv_index":7.6,"wind_gusts":26.6,"aqi":118,"pm10":21.0,"pm2_5":20.9,"no2":3.5,"co":331.0,"o3":170.0,"so2":7.6,"mosquito_risk":6,"arthritis_risk":5,"migraine_risk":7,"frizz_risk":1,"updated_at":"2026-07-24T15:50:56.442801+05:30"},{"city":"Srinagar","state":"Jammu and Kashmir","latitude":34.0837,"longitude":74.7973,"temp":21.3,"humidity":77,"rain":0.0,"pressure":839.0,"uv_index":5.35,"wind_gusts":17.6,"aqi":76,"pm10":16.3,"pm2_5":16.2,"no2":10.6,"co":296.0,"o3":73.0,"so2":2.8,"mosquito_risk":3,"arthritis_risk":5,"migraine_risk":3,"frizz_risk":1,"updated_at":"2026-07-24T15:50:56.442809+05:30"},{"city":"Jammu","state":"Jammu and Kashmir","latitude":32.7266,"longitude":74.857,"temp":32.2,"humidity":61,"rain":0.0,"pressure":964.6,"uv_index":8.25,"wind_gusts":31.7,"aqi":97,"pm10":13.7,"pm2_5":13.2,"no2":1.0,"co":218.0,"o3":116.0,"so2":1.7,"mosquito_risk":3,"arthritis_risk":5,"migraine_risk":7,"frizz_risk":1,"updated_at":"2026-07-24T15:50:56.442815+05:30"},{"city":"Amritsar","state":"Punjab","latitude":31.634,"longitude":74.8723,"temp":32.2,"humidity":65,"rain":0.0,"pressure":972.1,"uv_index":8.35,"wind_gusts":29.5,"aqi":96,"pm10":24.9,"pm2_5":24.6,"no2":2.1,"co":321.0,"o3":153.0,"so2":5.5,"mosquito_risk":3,"arthritis_risk":5,"migraine_risk":7,"frizz_risk":1,"updated_at":"2026-07-24T15:50:56.442822+05:30"},{"city":"Ludhiana","state":"Punjab","latitude":30.901,"longitude":75.8573,"temp":33.1,"humidity":60,"rain":0.1,"pressure":969.5,"uv_index":7.85,"wind_gusts":31.3,"aqi":112,"pm10":22.7,"pm2_5":22.6,"no2":3.7,"co":298.0,"o3":160.0,"so2":7.2,"mosquito_risk":3,"arthritis_risk":5,"migraine_risk":7,"frizz_risk":1,"updated_at":"2026-07-24T15:50:56.442829+05:30"},{"city":"Jalandhar","state":"Punjab","latitude":31.326,"longitude":75.5762,"temp":32.3,"humidity":69,"rain":0.0,"pressure":970.8,"uv_index":8.05,"wind_gusts":23.0,"aqi":119,"pm10":25.0,"pm2_5":24.9,"no2":2.3,"co":325.0,"o3":172.0,"so2":7.3,"mosquito_risk":3,"arthritis_risk":5,"migraine_risk":7,"frizz_risk":1,"updated_at":"2026-07-24T15:50:56.442836+05:30"},{"city":"Dehradun","state":"Uttarakhand","latitude":30.6284,"longitude":78.0322,"temp":21.0,"humidity":98,"rain":0.0,"pressure":826.5,"uv_index":7.8,"wind_gusts":26.6,"aqi":54,"pm10":8.4,"pm2_5":8.3,"no2":2.0,"co":159.0,"o3":112.0,"so2":1.5,"mosquito_risk":3,"arthritis_risk":5,"migraine_risk":7,"frizz_risk":1,"updated_at":"2026-07-24T15:50:56.442846+05:30"},{"city":"Shimla","state":"Himachal Pradesh","latitude":31.1048,"longitude":77.1734,"temp":19.3,"humidity":90,"rain":0.0,"pressure":781.8,"uv_index":6.85,"wind_gusts":22.0,"aqi":52,"pm10":15.0,"pm2_5":14.8,"no2":3.8,"co":198.0,"o3":117.0,"so2":4.4,"mosquito_risk":3,"arthritis_risk":10,"migraine_risk":7,"frizz_risk":1,"updated_at":"2026-07-24T15:50:56.442853+05:30"},{"city":"Manali","state":"Himachal Pradesh","latitude":32.2396,"longitude":77.1887,"temp":24.9,"humidity":80,"rain":0.0,"pressure":816.5,"uv_index":9.4,"wind_gusts":29.5,"aqi":38,"pm10":3.0,"pm2_5":2.8,"no2":0.8,"co":153.0,"o3":101.0,"so2":0.8,"mosquito_risk":3,"arthritis_risk":5,"migraine_risk":7,"frizz_risk":1,"updated_at":"2026-07-24T15:50:56.442862+05:30"},{"city":"Gurgaon","state":"Haryana","latitude":28.4595,"longitude":77.0266,"temp":31.5,"humidity":71,"rain":0.1,"pressure":971.0,"uv_index":6.75,"wind_gusts":38.9,"aqi":90,"pm10":13.9,"pm2_5":13.8,"no2":7.1,"co":315.0,"o3":133.0,"so2":10.6,"mosquito_risk":6,"arthritis_risk":5,"migraine_risk":7,"frizz_risk":1,"updated_at":"2026-07-24T15:50:56.442869+05:30"},{"city":"Noida","state":"Uttar Pradesh","latitude":28.5355,"longitude":77.391,"temp":30.8,"humidity":77,"rain":0.1,"pressure":974.3,"uv_index":6.75,"wind_gusts":36.7,"aqi":90,"pm10":13.9,"pm2_5":13.8,"no2":7.1,"co":279.0,"o3":133.0,"so2":10.6,"mosquito_risk":6,"arthritis_risk":5,"migraine_risk":7,"frizz_risk":1,"updated_at":"2026-07-24T15:50:56.442875+05:30"},{"city":"Ghaziabad","state":"Uttar Pradesh","latitude":28.6692,"longitude":77.4538,"temp":30.5,"humidity":79,"rain":0.1,"pressure":972.6,"uv_index":6.95,"wind_gusts":39.2,"aqi":80,"pm10":12.8,"pm2_5":12.7,"no2":4.5,"co":237.0,"o3":124.0,"so2":9.1,"mosquito_risk":6,"arthritis_risk":5,"migraine_risk":7,"frizz_risk":1,"updated_at":"2026-07-24T15:50:56.442882+05:30"},{"city":"Faridabad","state":"Haryana","latitude":28.4089,"longitude":77.3178,"temp":30.9,"humidity":76,"rain":0.0,"pressure":973.5,"uv_index":6.85,"wind_gusts":38.9,"aqi":90,"pm10":13.9,"pm2_5":13.8,"no2":7.1,"co":262.0,"o3":133.0,"so2":10.6,"mosquito_risk":3,"arthritis_risk":5,"migraine_risk":7,"frizz_risk":1,"updated_at":"2026-07-24T15:50:56.442888+05:30"},{"city":"Meerut","state":"Uttar Pradesh","latitude":28.9845,"longitude":77.7064,"temp":30.4,"humidity":76,"rain":0.1,"pressure":972.0,"uv_index":6.25,"wind_gusts":44.3,"aqi":80,"pm10":12.8,"pm2_5":12.7,"no2":4.5,"co":249.0,"o3":124.0,"so2":9.1,"mosquito_risk":6,"arthritis_risk":5,"migraine_risk":7,"frizz_risk":1,"updated_at":"2026-07-24T15:50:56.442895+05:30"},{"city":"Agra","state":"Uttar Pradesh","latitude":27.1767,"longitude":78.0081,"temp":33.8,"humidity":58,"rain":0.0,"pressure":976.9,"uv_index":6.7,"wind_gusts":27.7,"aqi":85,"pm10":12.1,"pm2_5":11.6,"no2":2.1,"co":182.0,"o3":122.0,"so2":3.9,"mosquito_risk":0,"arthritis_risk":5,"migraine_risk":7,"frizz_risk":1,"updated_at":"2026-07-24T15:50:56.442902+05:30"},{"city":"Varanasi","state":"Uttar Pradesh","latitude":25.3176,"longitude":82.9739,"temp":32.2,"humidity":70,"rain":0.1,"pressure":988.6,"uv_index":7.5,"wind_gusts":21.2,"aqi":81,"pm10":17.1,"pm2_5":15.8,"no2":2.6,"co":299.0,"o3":129.0,"so2":7.9,"mosquito_risk":6,"arthritis_risk":5,"migraine_risk":7,"frizz_risk":1,"updated_at":"2026-07-24T15:50:56.442909+05:30"},{"city":"Prayagraj","state":"Uttar Pradesh","latitude":25.4358,"longitude":81.8463,"temp":32.5,"humidity":65,"rain":0.0,"pressure":986.7,"uv_index":8.5,"wind_gusts":19.8,"aqi":66,"pm10":18.3,"pm2_5":17.2,"no2":2.3,"co":168.0,"o3":133.0,"so2":7.8,"mosquito_risk":3,"arthritis_risk":5,"migraine_risk":7,"frizz_risk":1,"updated_at":"2026-07-24T15:50:56.442916+05:30"},{"city":"Gorakhpur","state":"Uttar Pradesh","latitude":26.7606,"longitude":83.3732,"temp":28.5,"humidity":87,"rain":0.0,"pressure":988.8,"uv_index":6.9,"wind_gusts":27.4,"aqi":97,"pm10":25.0,"pm2_5":24.9,"no2":4.4,"co":303.0,"o3":130.0,"so2":4.4,"mosquito_risk":7,"arthritis_risk":5,"migraine_risk":7,"frizz_risk":1,"updated_at":"2026-07-24T15:50:56.442922+05:30"},{"city":"Bareilly","state":"Uttar Pradesh","latitude":28.367,"longitude":79.4304,"temp":30.9,"humidity":78,"rain":0.0,"pressure":977.5,"uv_index":6.95,"wind_gusts":38.9,"aqi":79,"pm10":16.9,"pm2_5":16.8,"no2":4.4,"co":266.0,"o3":120.0,"so2":9.1,"mosquito_risk":3,"arthritis_risk":5,"migraine_risk":7,"frizz_risk":1,"updated_at":"2026-07-24T15:50:56.442931+05:30"},{"city":"Aligarh","state":"Uttar Pradesh","latitude":27.8974,"longitude":78.088,"temp":31.4,"humidity":74,"rain":0.0,"pressure":975.4,"uv_index":5.4,"wind_gusts":31.7,"aqi":85,"pm10":12.9,"pm2_5":12.5,"no2":2.5,"co":176.0,"o3":128.0,"so2":7.0,"mosquito_risk":3,"arthritis_risk":5,"migraine_risk":3,"frizz_risk":1,"updated_at":"2026-07-24T15:50:56.442938+05:30"},{"city":"Moradabad","state":"Uttar Pradesh","latitude":28.8386,"longitude":78.7733,"temp":30.5,"humidity":80,"rain":0.1,"pressure":974.5,"uv_index":7.1,"wind_gusts":44.6,"aqi":81,"pm10":18.5,"pm2_5":18.5,"no2":4.2,"co":282.0,"o3":134.0,"so2":8.9,"mosquito_risk":6,"arthritis_risk":5,"migraine_risk":7,"frizz_risk":1,"updated_at":"2026-07-24T15:50:56.442944+05:30"},{"city":"Saharanpur","state":"Uttar Pradesh","latitude":29.9637,"longitude":77.546,"temp":31.2,"humidity":71,"rain":0.0,"pressure":966.9,"uv_index":7.25,"wind_gusts":43.9,"aqi":84,"pm10":18.4,"pm2_5":18.3,"no2":2.9,"co":261.0,"o3":134.0,"so2":4.9,"mosquito_risk":3,"arthritis_risk":5,"migraine_risk":7,"frizz_risk":1,"updated_at":"2026-07-24T15:50:56.442951+05:30"},{"city":"Jhansi","state":"Uttar Pradesh","latitude":25.4484,"longitude":78.5685,"temp":32.9,"humidity":55,"rain":0.0,"pressure":968.0,"uv_index":7.3,"wind_gusts":32.4,"aqi":59,"pm10":6.6,"pm2_5":5.9,"no2":1.7,"co":138.0,"o3":101.0,"so2":6.0,"mosquito_risk":0,"arthritis_risk":5,"migraine_risk":7,"frizz_risk":1,"updated_at":"2026-07-24T15:50:59.902311+05:30"},{"city":"Surat","state":"Gujarat","latitude":21.1702,"longitude":72.8311,"temp":29.0,"humidity":77,"rain":0.0,"pressure":997.5,"uv_index":5.95,"wind_gusts":55.4,"aqi":62,"pm10":41.7,"pm2_5":22.2,"no2":16.1,"co":253.0,"o3":41.0,"so2":35.0,"mosquito_risk":7,"arthritis_risk":5,"migraine_risk":3,"frizz_risk":1,"updated_at":"2026-07-24T15:50:59.902345+05:30"},{"city":"Vadodara","state":"Gujarat","latitude":22.3072,"longitude":73.1812,"temp":28.4,"humidity":81,"rain":0.1,"pressure":994.4,"uv_index":2.7,"wind_gusts":50.4,"aqi":40,"pm10":11.9,"pm2_5":7.9,"no2":8.0,"co":196.0,"o3":45.0,"so2":3.7,"mosquito_risk":10,"arthritis_risk":5,"migraine_risk":3,"frizz_risk":1,"updated_at":"2026-07-24T15:50:59.902356+05:30"},{"city":"Rajkot","state":"Gujarat","latitude":22.3039,"longitude":70.8022,"temp":26.2,"humidity":92,"rain":0.3,"pressure":984.6,"uv_index":1.25,"wind_gusts":49.0,"aqi":46,"pm10":9.7,"pm2_5":5.8,"no2":6.9,"co":126.0,"o3":46.0,"so2":5.0,"mosquito_risk":10,"arthritis_risk":5,"migraine_risk":3,"frizz_risk":1,"updated_at":"2026-07-24T15:50:59.902365+05:30"},{"city":"Thane","state":"Maharashtra","latitude":19.2183,"longitude":72.9781,"temp":26.9,"humidity":89,"rain":0.1,"pressure":1001.6,"uv_index":7.6,"wind_gusts":52.9,"aqi":61,"pm10":29.5,"pm2_5":15.1,"no2":6.1,"co":162.0,"o3":55.0,"so2":5.6,"mosquito_risk":10,"arthritis_risk":5,"migraine_risk":4,"frizz_risk":1,"updated_at":"2026-07-24T15:50:59.902374+05:30"},{"city":"Nagpur","state":"Maharashtra","latitude":21.1458,"longitude":79.0882,"temp":28.2,"humidity":79,"rain":0.0,"pressure":966.1,"uv_index":8.2,"wind_gusts":47.5,"aqi":56,"pm10":17.6,"pm2_5":9.0,"no2":5.0,"co":135.0,"o3":85.0,"so2":14.8,"mosquito_risk":7,"arthritis_risk":5,"migraine_risk":7,"frizz_risk":1,"updated_at":"2026-07-24T15:50:59.902382+05:30"},{"city":"Nashik","state":"Maharashtra","latitude":19.9975,"longitude":73.7898,"temp":24.6,"humidity":89,"rain":0.1,"pressure":938.3,"uv_index":7.05,"wind_gusts":59.8,"aqi":21,"pm10":11.4,"pm2_5":6.3,"no2":2.6,"co":126.0,"o3":54.0,"so2":2.3,"mosquito_risk":6,"arthritis_risk":5,"migraine_risk":7,"frizz_risk":1,"updated_at":"2026-07-24T15:50:59.902390+05:30"},{"city":"Aurangabad","state":"Maharashtra","latitude":19.8762,"longitude":75.3433,"temp":28.5,"humidity":64,"rain":0.0,"pressure":937.0,"uv_index":7.25,"wind_gusts":62.3,"aqi":27,"pm10":11.4,"pm2_5":5.7,"no2":1.6,"co":111.0,"o3":77.0,"so2":3.9,"mosquito_risk":7,"arthritis_risk":5,"migraine_risk":7,"frizz_risk":1,"updated_at":"2026-07-24T15:50:59.902397+05:30"},{"city":"Solapur","state":"Maharashtra","latitude":17.6599,"longitude":75.9064,"temp":31.1,"humidity":52,"rain":0.1,"pressure":951.9,"uv_index":5.95,"wind_gusts":64.8,"aqi":49,"pm10":17.8,"pm2_5":7.2,"no2":0.9,"co":101.0,"o3":61.0,"so2":1.2,"mosquito_risk":3,"arthritis_risk":5,"migraine_risk":3,"frizz_risk":1,"updated_at":"2026-07-24T15:50:59.902405+05:30"},{"city":"Kolhapur","state":"Maharashtra","latitude":16.705,"longitude":74.2433,"temp":24.5,"humidity":86,"rain":0.1,"pressure":944.3,"uv_index":8.7,"wind_gusts":67.0,"aqi":36,"pm10":9.6,"pm2_5":5.8,"no2":1.9,"co":121.0,"o3":48.0,"so2":1.2,"mosquito_risk":6,"arthritis_risk":5,"migraine_risk":7,"frizz_risk":1,"updated_at":"2026-07-24T15:50:59.902412+05:30"},{"city":"Goa","state":"Goa","latitude":15.2993,"longitude":74.124,"temp":27.4,"humidity":84,"rain":0.2,"pressure":996.5,"uv_index":8.85,"wind_gusts":41.4,"aqi":86,"pm10":26.4,"pm2_5":11.9,"no2":1.1,"co":127.0,"o3":47.0,"so2":0.9,"mosquito_risk":10,"arthritis_risk":5,"migraine_risk":7,"frizz_risk":1,"updated_at":"2026-07-24T15:50:59.902450+05:30"},{"city":"Jodhpur","state":"Rajasthan","latitude":26.2389,"longitude":73.0243,"temp":28.7,"humidity":85,"rain":0.2,"pressure":971.4,"uv_index":7.35,"wind_gusts":26.3,"aqi":66,"pm10":22.9,"pm2_5":19.8,"no2":2.4,"co":312.0,"o3":146.0,"so2":2.6,"mosquito_risk":10,"arthritis_risk":5,"migraine_risk":7,"frizz_risk":1,"updated_at":"2026-07-24T15:50:59.902460+05:30"},{"city":"Udaipur","state":"Rajasthan","latitude":24.5854,"longitude":73.7125,"temp":26.1,"humidity":90,"rain":0.1,"pressure":935.5,"uv_index":7.2,"wind_gusts":32.0,"aqi":55,"pm10":4.6,"pm2_5":4.4,"no2":2.9,"co":242.0,"o3":85.0,"so2":3.6,"mosquito_risk":10,"arthritis_risk":5,"migraine_risk":7,"frizz_risk":1,"updated_at":"2026-07-24T15:50:59.902468+05:30"},{"city":"Kota","state":"Rajasthan","latitude":25.2138,"longitude":75.8648,"temp":32.0,"humidity":59,"rain":0.1,"pressure":967.3,"uv_index":7.05,"wind_gusts":38.5,"aqi":62,"pm10":6.0,"pm2_5":5.5,"no2":2.0,"co":194.0,"o3":97.0,"so2":5.2,"mosquito_risk":3,"arthritis_risk":5,"migraine_risk":7,"frizz_risk":1,"updated_at":"2026-07-24T15:50:59.902476+05:30"},{"city":"Bikaner","state":"Rajasthan","latitude":28.0229,"longitude":73.3119,"temp":32.8,"humidity":62,"rain":0.1,"pressure":970.4,"uv_index":7.95,"wind_gusts":27.0,"aqi":98,"pm10":29.6,"pm2_5":28.1,"no2":1.5,"co":273.0,"o3":147.0,"so2":5.0,"mosquito_risk":6,"arthritis_risk":5,"migraine_risk":7,"frizz_risk":1,"updated_at":"2026-07-24T15:50:59.902485+05:30"},{"city":"Ajmer","state":"Rajasthan","latitude":26.4499,"longitude":74.6399,"temp":30.1,"humidity":69,"rain":0.0,"pressure":943.7,"uv_index":7.8,"wind_gusts":25.2,"aqi":71,"pm10":17.1,"pm2_5":16.8,"no2":1.4,"co":223.0,"o3":128.0,"so2":3.8,"mosquito_risk":3,"arthritis_risk":5,"migraine_risk":7,"frizz_risk":1,"updated_at":"2026-07-24T15:50:59.902492+05:30"},{"city":"Gwalior","state":"Madhya Pradesh","latitude":26.2183,"longitude":78.1828,"temp":33.1,"humidity":58,"rain":0.0,"pressure":972.6,"uv_index":7.35,"wind_gusts":28.1,"aqi":68,"pm10":6.1,"pm2_5":5.8,"no2":1.1,"co":137.0,"o3":101.0,"so2":2.9,"mosquito_risk":0,"arthritis_risk":5,"migraine_risk":7,"frizz_risk":1,"updated_at":"2026-07-24T15:50:59.902499+05:30"},{"city":"Indore","state":"Madhya Pradesh","latitude":22.7196,"longitude":75.8577,"temp":28.9,"humidity":64,"rain":0.0,"pressure":938.9,"uv_index":6.35,"wind_gusts":51.1,"aqi":35,"pm10":28.9,"pm2_5":12.8,"no2":2.6,"co":154.0,"o3":79.0,"so2":4.1,"mosquito_risk":7,"arthritis_risk":5,"migraine_risk":7,"frizz_risk":1,"updated_at":"2026-07-24T15:50:59.902507+05:30"},{"city":"Bhopal","state":"Madhya Pradesh","latitude":23.2599,"longitude":77.4126,"temp":28.9,"humidity":72,"rain":0.0,"pressure":944.7,"uv_index":7.55,"wind_gusts":42.5,"aqi":38,"pm10":14.5,"pm2_5":6.9,"no2":1.2,"co":149.0,"o3":75.0,"so2":2.6,"mosquito_risk":7,"arthritis_risk":5,"migraine_risk":7,"frizz_risk":1,"updated_at":"2026-07-24T15:50:59.902514+05:30"},{"city":"Jabalpur","state":"Madhya Pradesh","latitude":23.1815,"longitude":79.9864,"temp":30.8,"humidity":62,"rain":0.0,"pressure":953.0,"uv_index":7.7,"wind_gusts":30.6,"aqi":52,"pm10":11.0,"pm2_5":6.1,"no2":1.4,"co":132.0,"o3":89.0,"so2":3.1,"mosquito_risk":3,"arthritis_risk":5,"migraine_risk":7,"frizz_risk":1,"updated_at":"2026-07-24T15:50:59.902521+05:30"},{"city":"Ujjain","state":"Madhya Pradesh","latitude":23.1765,"longitude":75.7885,"temp":26.1,"humidity":82,"rain":0.0,"pressure":944.3,"uv_index":4.95,"wind_gusts":58.3,"aqi":34,"pm10":14.1,"pm2_5":7.1,"no2":1.5,"co":137.0,"o3":78.0,"so2":2.7,"mosquito_risk":7,"arthritis_risk":5,"migraine_risk":3,"frizz_risk":1,"updated_at":"2026-07-24T15:50:59.902530+05:30"},{"city":"Visakhapatnam","state":"Andhra Pradesh","latitude":17.6868,"longitude":83.2185,"temp":32.2,"humidity":66,"rain":0.0,"pressure":996.1,"uv_index":9.05,"wind_gusts":43.6,"aqi":76,"pm10":38.8,"pm2_5":23.3,"no2":8.1,"co":272.0,"o3":106.0,"so2":22.0,"mosquito_risk":3,"arthritis_risk":5,"migraine_risk":7,"frizz_risk":1,"updated_at":"2026-07-24T15:50:59.902540+05:30"},{"city":"Vijayawada","state":"Andhra Pradesh","latitude":16.5062,"longitude":80.648,"temp":34.4,"humidity":50,"rain":0.0,"pressure":996.4,"uv_index":8.8,"wind_gusts":42.1,"aqi":74,"pm10":33.6,"pm2_5":16.8,"no2":1.9,"co":113.0,"o3":80.0,"so2":4.3,"mosquito_risk":0,"arthritis_risk":5,"migraine_risk":7,"frizz_risk":1,"updated_at":"2026-07-24T15:50:59.902548+05:30"},{"city":"Guntur","state":"Andhra Pradesh","latitude":16.3067,"longitude":80.4365,"temp":35.8,"humidity":43,"rain":0.0,"pressure":997.8,"uv_index":8.35,"wind_gusts":47.5,"aqi":74,"pm10":30.5,"pm2_5":15.2,"no2":2.0,"co":109.0,"o3":72.0,"so2":4.4,"mosquito_risk":0,"arthritis_risk":5,"migraine_risk":10,"frizz_risk":1,"updated_at":"2026-07-24T15:50:59.902555+05:30"},{"city":"Nellore","state":"Andhra Pradesh","latitude":14.4426,"longitude":79.9865,"temp":36.5,"humidity":40,"rain":0.1,"pressure":1000.3,"uv_index":8.4,"wind_gusts":42.8,"aqi":71,"pm10":53.1,"pm2_5":24.6,"no2":2.6,"co":117.0,"o3":115.0,"so2":3.4,"mosquito_risk":3,"arthritis_risk":5,"migraine_risk":7,"frizz_risk":1,"updated_at":"2026-07-24T15:50:59.902564+05:30"},{"city":"Kurnool","state":"Andhra Pradesh","latitude":15.8281,"longitude":78.0373,"temp":31.9,"humidity":51,"rain":0.0,"pressure":972.5,"uv_index":7.6,"wind_gusts":51.1,"aqi":65,"pm10":21.4,"pm2_5":9.4,"no2":1.4,"co":110.0,"o3":67.0,"so2":1.4,"mosquito_risk":0,"arthritis_risk":5,"migraine_risk":7,"frizz_risk":1,"updated_at":"2026-07-24T15:50:59.902572+05:30"},{"city":"Kakinada","state":"Andhra Pradesh","latitude":16.9891,"longitude":82.2475,"temp":34.2,"humidity":49,"rain":0.0,"pressure":1000.8,"uv_index":8.95,"wind_gusts":57.2,"aqi":70,"pm10":42.0,"pm2_5":21.2,"no2":1.9,"co":140.0,"o3":95.0,"so2":3.3,"mosquito_risk":0,"arthritis_risk":5,"migraine_risk":4,"frizz_risk":1,"updated_at":"2026-07-24T15:50:59.902579+05:30"},{"city":"Tirupati","state":"Andhra Pradesh","latitude":13.6288,"longitude":79.4192,"temp":35.3,"humidity":40,"rain":0.0,"pressure":986.1,"uv_index":7.9,"wind_gusts":33.5,"aqi":66,"pm10":62.2,"pm2_5":22.1,"no2":4.8,"co":130.0,"o3":78.0,"so2":1.2,"mosquito_risk":0,"arthritis_risk":5,"migraine_risk":10,"frizz_risk":1,"updated_at":"2026-07-24T15:50:59.902587+05:30"},{"city":"Warangal","state":"Telangana","latitude":17.9689,"longitude":79.5941,"temp":32.5,"humidity":53,"rain":0.0,"pressure":972.7,"uv_index":6.0,"wind_gusts":46.1,"aqi":72,"pm10":22.6,"pm2_5":10.7,"no2":1.7,"co":125.0,"o3":85.0,"so2":2.4,"mosquito_risk":0,"arthritis_risk":5,"migraine_risk":3,"frizz_risk":1,"updated_at":"2026-07-24T15:50:59.902594+05:30"},{"city":"Nizamabad","state":"Telangana","latitude":18.6725,"longitude":78.0941,"temp":31.9,"humidity":55,"rain":0.0,"pressure":958.3,"uv_index":7.85,"wind_gusts":52.6,"aqi":58,"pm10":22.5,"pm2_5":9.5,"no2":1.5,"co":122.0,"o3":73.0,"so2":2.4,"mosquito_risk":0,"arthritis_risk":5,"migraine_risk":7,"frizz_risk":1,"updated_at":"2026-07-24T15:50:59.902601+05:30"},{"city":"Mysore","state":"Karnataka","latitude":12.2958,"longitude":76.6396,"temp":27.5,"humidity":62,"rain":0.1,"pressure":926.3,"uv_index":8.5,"wind_gusts":45.7,"aqi":43,"pm10":75.2,"pm2_5":27.2,"no2":2.2,"co":148.0,"o3":81.0,"so2":1.1,"mosquito_risk":10,"arthritis_risk":5,"migraine_risk":7,"frizz_risk":1,"updated_at":"2026-07-24T15:50:59.902608+05:30"},{"city":"Mangalore","state":"Karnataka","latitude":12.9141,"longitude":74.856,"temp":27.2,"humidity":83,"rain":0.0,"pressure":1006.2,"uv_index":8.7,"wind_gusts":41.0,"aqi":55,"pm10":21.8,"pm2_5":10.2,"no2":1.8,"co":114.0,"o3":54.0,"so2":1.5,"mosquito_risk":7,"arthritis_risk":5,"migraine_risk":4,"frizz_risk":1,"updated_at":"2026-07-24T15:50:59.902615+05:30"},{"city":"Hubli-Dharwad","state":"Karnataka","latitude":15.3647,"longitude":75.124,"temp":26.2,"humidity":71,"rain":0.0,"pressure":938.5,"uv_index":8.85,"wind_gusts":64.8,"aqi":58,"pm10":7.7,"pm2_5":4.5,"no2":2.5,"co":102.0,"o3":46.0,"so2":0.9,"mosquito_risk":7,"arthritis_risk":5,"migraine_risk":7,"frizz_risk":1,"updated_at":"2026-07-24T15:50:59.902622+05:30"},{"city":"Belgaum","state":"Karnataka","latitude":15.8497,"longitude":74.4977,"temp":23.0,"humidity":93,"rain":0.1,"pressure":922.8,"uv_index":9.05,"wind_gusts":63.4,"aqi":52,"pm10":8.8,"pm2_5":4.9,"no2":1.4,"co":99.0,"o3":45.0,"so2":1.2,"mosquito_risk":6,"arthritis_risk":5,"migraine_risk":7,"frizz_risk":1,"updated_at":"2026-07-24T15:51:03.305668+05:30"},{"city":"Coimbatore","state":"Tamil Nadu","latitude":11.0168,"longitude":76.9558,"temp":32.5,"humidity":46,"rain":0.1,"pressure":959.3,"uv_index":8.9,"wind_gusts":48.6,"aqi":37,"pm10":24.2,"pm2_5":9.9,"no2":1.6,"co":135.0,"o3":66.0,"so2":1.6,"mosquito_risk":3,"arthritis_risk":5,"migraine_risk":7,"frizz_risk":1,"updated_at":"2026-07-24T15:51:03.305702+05:30"},{"city":"Madurai","state":"Tamil Nadu","latitude":9.9252,"longitude":78.1198,"temp":38.0,"humidity":30,"rain":0.0,"pressure":988.9,"uv_index":8.85,"wind_gusts":28.4,"aqi":64,"pm10":24.0,"pm2_5":11.3,"no2":1.6,"co":148.0,"o3":107.0,"so2":2.1,"mosquito_risk":0,"arthritis_risk":5,"migraine_risk":10,"frizz_risk":1,"updated_at":"2026-07-24T15:51:03.305713+05:30"},{"city":"Trichy","state":"Tamil Nadu","latitude":10.7905,"longitude":78.7047,"temp":38.4,"humidity":32,"rain":0.0,"pressure":995.0,"uv_index":8.75,"wind_gusts":44.3,"aqi":51,"pm10":12.0,"pm2_5":6.7,"no2":0.9,"co":116.0,"o3":80.0,"so2":1.6,"mosquito_risk":0,"arthritis_risk":5,"migraine_risk":10,"frizz_risk":1,"updated_at":"2026-07-24T15:51:03.305723+05:30"},{"city":"Salem","state":"Tamil Nadu","latitude":11.6643,"longitude":78.146,"temp":34.3,"humidity":48,"rain":0.0,"pressure":973.7,"uv_index":8.3,"wind_gusts":29.9,"aqi":60,"pm10":19.5,"pm2_5":10.2,"no2":2.9,"co":136.0,"o3":90.0,"so2":4.7,"mosquito_risk":0,"arthritis_risk":5,"migraine_risk":7,"frizz_risk":1,"updated_at":"2026-07-24T15:51:03.305731+05:30"},{"city":"Tirunelveli","state":"Tamil Nadu","latitude":8.7139,"longitude":77.7567,"temp":37.2,"humidity":33,"rain":0.0,"pressure":999.3,"uv_index":8.75,"wind_gusts":46.4,"aqi":40,"pm10":7.4,"pm2_5":5.4,"no2":1.4,"co":121.0,"o3":75.0,"so2":1.4,"mosquito_risk":0,"arthritis_risk":5,"migraine_risk":10,"frizz_risk":1,"updated_at":"2026-07-24T15:51:03.305739+05:30"},{"city":"Vellore","state":"Tamil Nadu","latitude":12.9165,"longitude":79.1325,"temp":36.0,"humidity":39,"rain":0.1,"pressure":979.7,"uv_index":7.4,"wind_gusts":40.3,"aqi":73,"pm10":55.2,"pm2_5":21.7,"no2":3.2,"co":212.0,"o3":90.0,"so2":2.0,"mosquito_risk":3,"arthritis_risk":5,"migraine_risk":10,"frizz_risk":1,"updated_at":"2026-07-24T15:51:03.305747+05:30"},{"city":"Erode","state":"Tamil Nadu","latitude":11.341,"longitude":77.7172,"temp":36.4,"humidity":37,"rain":0.0,"pressure":985.3,"uv_index":8.45,"wind_gusts":38.9,"aqi":51,"pm10":14.1,"pm2_5":7.9,"no2":2.2,"co":151.0,"o3":86.0,"so2":1.7,"mosquito_risk":0,"arthritis_risk":5,"migraine_risk":10,"frizz_risk":1,"updated_at":"2026-07-24T15:51:03.305754+05:30"},{"city":"Kochi","state":"Kerala","latitude":9.9312,"longitude":76.2673,"temp":28.9,"humidity":77,"rain":0.0,"pressure":1007.5,"uv_index":8.5,"wind_gusts":29.5,"aqi":57,"pm10":11.4,"pm2_5":7.5,"no2":1.9,"co":123.0,"o3":71.0,"so2":2.7,"mosquito_risk":7,"arthritis_risk":5,"migraine_risk":4,"frizz_risk":1,"updated_at":"2026-07-24T15:51:03.305763+05:30"},{"city":"Thiruvananthapuram","state":"Kerala","latitude":8.5241,"longitude":76.9366,"temp":29.2,"humidity":73,"rain":0.0,"pressure":1006.7,"uv_index":8.55,"wind_gusts":42.8,"aqi":52,"pm10":14.6,"pm2_5":9.3,"no2":2.1,"co":103.0,"o3":67.0,"so2":1.3,"mosquito_risk":7,"arthritis_risk":5,"migraine_risk":4,"frizz_risk":1,"updated_at":"2026-07-24T15:51:03.305770+05:30"},{"city":"Kozhikode","state":"Kerala","latitude":11.2588,"longitude":75.7804,"temp":29.1,"humidity":74,"rain":0.0,"pressure":1006.8,"uv_index":8.5,"wind_gusts":34.6,"aqi":38,"pm10":14.9,"pm2_5":7.6,"no2":0.5,"co":105.0,"o3":56.0,"so2":1.1,"mosquito_risk":7,"arthritis_risk":5,"migraine_risk":4,"frizz_risk":1,"updated_at":"2026-07-24T15:51:03.305777+05:30"},{"city":"Thrissur","state":"Kerala","latitude":10.5276,"longitude":76.2144,"temp":29.7,"humidity":72,"rain":0.0,"pressure":1005.8,"uv_index":8.55,"wind_gusts":36.4,"aqi":53,"pm10":12.2,"pm2_5":7.3,"no2":1.2,"co":101.0,"o3":61.0,"so2":1.6,"mosquito_risk":7,"arthritis_risk":5,"migraine_risk":4,"frizz_risk":1,"updated_at":"2026-07-24T15:51:03.305785+05:30"},{"city":"Kannur","state":"Kerala","latitude":11.8745,"longitude":75.3704,"temp":28.6,"humidity":78,"rain":0.0,"pressure":1006.6,"uv_index":8.65,"wind_gusts":35.6,"aqi":49,"pm10":31.0,"pm2_5":12.0,"no2":1.0,"co":105.0,"o3":60.0,"so2":1.2,"mosquito_risk":7,"arthritis_risk":5,"migraine_risk":4,"frizz_risk":1,"updated_at":"2026-07-24T15:51:03.305792+05:30"},{"city":"Patna","state":"Bihar","latitude":25.5941,"longitude":85.1376,"temp":29.2,"humidity":85,"rain":0.2,"pressure":991.8,"uv_index":5.7,"wind_gusts":19.1,"aqi":95,"pm10":28.3,"pm2_5":28.2,"no2":4.7,"co":296.0,"o3":154.0,"so2":14.0,"mosquito_risk":10,"arthritis_risk":5,"migraine_risk":3,"frizz_risk":1,"updated_at":"2026-07-24T15:51:03.305799+05:30"},{"city":"Gaya","state":"Bihar","latitude":24.7914,"longitude":85.0002,"temp":30.1,"humidity":81,"rain":0.1,"pressure":985.0,"uv_index":8.15,"wind_gusts":24.5,"aqi":84,"pm10":28.3,"pm2_5":28.1,"no2":2.5,"co":194.0,"o3":154.0,"so2":10.4,"mosquito_risk":6,"arthritis_risk":5,"migraine_risk":7,"frizz_risk":1,"updated_at":"2026-07-24T15:51:03.305807+05:30"},{"city":"Muzaffarpur","state":"Bihar","latitude":26.1209,"longitude":85.3647,"temp":31.4,"humidity":76,"rain":0.0,"pressure":991.7,"uv_index":6.65,"wind_gusts":25.2,"aqi":92,"pm10":28.5,"pm2_5":28.2,"no2":4.9,"co":294.0,"o3":141.0,"so2":10.0,"mosquito_risk":3,"arthritis_risk":5,"migraine_risk":7,"frizz_risk":1,"updated_at":"2026-07-24T15:51:03.305814+05:30"},{"city":"Bhagalpur","state":"Bihar","latitude":25.2425,"longitude":87.0117,"temp":30.8,"humidity":76,"rain":0.1,"pressure":992.0,"uv_index":6.35,"wind_gusts":30.2,"aqi":83,"pm10":18.7,"pm2_5":18.3,"no2":5.7,"co":283.0,"o3":124.0,"so2":11.0,"mosquito_risk":6,"arthritis_risk":5,"migraine_risk":7,"frizz_risk":1,"updated_at":"2026-07-24T15:51:03.305822+05:30"},{"city":"Ranchi","state":"Jharkhand","latitude":23.3441,"longitude":85.3096,"temp":25.6,"humidity":87,"rain":0.1,"pressure":930.2,"uv_index":6.65,"wind_gusts":31.7,"aqi":57,"pm10":9.2,"pm2_5":8.7,"no2":3.1,"co":173.0,"o3":93.0,"so2":6.4,"mosquito_risk":10,"arthritis_risk":5,"migraine_risk":7,"frizz_risk":1,"updated_at":"2026-07-24T15:51:03.305830+05:30"},{"city":"Jamshedpur","state":"Jharkhand","latitude":22.8046,"longitude":86.2029,"temp":28.4,"humidity":78,"rain":0.0,"pressure":982.3,"uv_index":6.3,"wind_gusts":31.7,"aqi":69,"pm10":22.5,"pm2_5":20.3,"no2":4.3,"co":226.0,"o3":130.0,"so2":13.3,"mosquito_risk":7,"arthritis_risk":5,"migraine_risk":7,"frizz_risk":1,"updated_at":"2026-07-24T15:51:03.305837+05:30"},{"city":"Dhanbad","state":"Jharkhand","latitude":23.7957,"longitude":86.4304,"temp":29.0,"humidity":82,"rain":0.0,"pressure":971.0,"uv_index":6.75,"wind_gusts":27.0,"aqi":87,"pm10":28.0,"pm2_5":27.8,"no2":18.9,"co":194.0,"o3":124.0,"so2":56.0,"mosquito_risk":7,"arthritis_risk":5,"migraine_risk":7,"frizz_risk":1,"updated_at":"2026-07-24T15:51:03.305845+05:30"},{"city":"Bokaro","state":"Jharkhand","latitude":23.6693,"longitude":86.1511,"temp":29.4,"humidity":78,"rain":0.0,"pressure":975.0,"uv_index":8.5,"wind_gusts":27.0,"aqi":77,"pm10":27.4,"pm2_5":27.1,"no2":20.8,"co":172.0,"o3":104.0,"so2":65.4,"mosquito_risk":7,"arthritis_risk":5,"migraine_risk":7,"frizz_risk":1,"updated_at":"2026-07-24T15:51:03.305852+05:30"},{"city":"Bhubaneswar","state":"Odisha","latitude":20.2961,"longitude":85.8245,"temp":27.7,"humidity":92,"rain":0.1,"pressure":995.0,"uv_index":8.75,"wind_gusts":37.4,"aqi":71,"pm10":28.5,"pm2_5":20.7,"no2":6.0,"co":239.0,"o3":92.0,"so2":5.7,"mosquito_risk":10,"arthritis_risk":5,"migraine_risk":7,"frizz_risk":1,"updated_at":"2026-07-24T15:51:03.305860+05:30"},{"city":"Cuttack","state":"Odisha","latitude":20.4625,"longitude":85.8828,"temp":27.0,"humidity":93,"rain":0.2,"pressure":996.9,"uv_index":8.7,"wind_gusts":41.4,"aqi":71,"pm10":28.5,"pm2_5":20.7,"no2":6.0,"co":274.0,"o3":92.0,"so2":5.7,"mosquito_risk":10,"arthritis_risk":5,"migraine_risk":7,"frizz_risk":1,"updated_at":"2026-07-24T15:51:03.305867+05:30"},{"city":"Rourkela","state":"Odisha","latitude":22.2604,"longitude":84.8536,"temp":29.0,"humidity":82,"rain":0.1,"pressure":976.8,"uv_index":7.8,"wind_gusts":42.8,"aqi":66,"pm10":24.1,"pm2_5":21.2,"no2":3.8,"co":204.0,"o3":111.0,"so2":14.2,"mosquito_risk":10,"arthritis_risk":5,"migraine_risk":7,"frizz_risk":1,"updated_at":"2026-07-24T15:51:03.305875+05:30"},{"city":"Raipur","state":"Chhattisgarh","latitude":21.2514,"longitude":81.6296,"temp":31.1,"humidity":65,"rain":0.1,"pressure":966.7,"uv_index":7.65,"wind_gusts":44.3,"aqi":74,"pm10":22.2,"pm2_5":16.3,"no2":8.7,"co":304.0,"o3":84.0,"so2":25.0,"mosquito_risk":6,"arthritis_risk":5,"migraine_risk":7,"frizz_risk":1,"updated_at":"2026-07-24T15:51:03.305882+05:30"},{"city":"Bhilai","state":"Chhattisgarh","latitude":21.1938,"longitude":81.3509,"temp":30.2,"humidity":67,"rain":0.0,"pressure":967.3,"uv_index":7.55,"wind_gusts":49.3,"aqi":71,"pm10":21.3,"pm2_5":14.2,"no2":8.5,"co":462.0,"o3":77.0,"so2":22.2,"mosquito_risk":3,"arthritis_risk":5,"migraine_risk":7,"frizz_risk":1,"updated_at":"2026-07-24T15:51:03.305889+05:30"},{"city":"Guwahati","state":"Assam","latitude":26.1158,"longitude":91.7086,"temp":28.8,"humidity":89,"rain":0.1,"pressure":993.0,"uv_index":8.35,"wind_gusts":19.8,"aqi":52,"pm10":7.9,"pm2_5":7.6,"no2":2.7,"co":233.0,"o3":91.0,"so2":1.5,"mosquito_risk":10,"arthritis_risk":5,"migraine_risk":7,"frizz_risk":1,"updated_at":"2026-07-24T15:51:03.305896+05:30"},{"city":"Agartala","state":"Tripura","latitude":23.8315,"longitude":91.2868,"temp":29.6,"humidity":76,"rain":0.0,"pressure":997.5,"uv_index":6.5,"wind_gusts":37.8,"aqi":51,"pm10":9.0,"pm2_5":7.3,"no2":3.6,"co":161.0,"o3":88.0,"so2":1.4,"mosquito_risk":7,"arthritis_risk":5,"migraine_risk":7,"frizz_risk":1,"updated_at":"2026-07-24T15:51:03.305903+05:30"},{"city":"Shillong","state":"Meghalaya","latitude":25.5788,"longitude":91.8933,"temp":25.2,"humidity":65,"rain":0.0,"pressure":853.0,"uv_index":6.25,"wind_gusts":28.8,"aqi":36,"pm10":5.2,"pm2_5":4.9,"no2":3.1,"co":159.0,"o3":73.0,"so2":1.3,"mosquito_risk":7,"arthritis_risk":5,"migraine_risk":7,"frizz_risk":1,"updated_at":"2026-07-24T15:51:03.305909+05:30"},{"city":"Imphal","state":"Manipur","latitude":24.817,"longitude":93.9368,"temp":27.0,"humidity":75,"rain":0.0,"pressure":916.7,"uv_index":9.05,"wind_gusts":20.2,"aqi":40,"pm10":4.2,"pm2_5":3.8,"no2":4.0,"co":184.0,"o3":72.0,"so2":1.5,"mosquito_risk":7,"arthritis_risk":5,"migraine_risk":7,"frizz_risk":1,"updated_at":"2026-07-24T15:51:03.305916+05:30"},{"city":"Aizawl","state":"Mizoram","latitude":23.7271,"longitude":92.7176,"temp":24.2,"humidity":74,"rain":0.0,"pressure":886.7,"uv_index":8.7,"wind_gusts":34.9,"aqi":30,"pm10":4.2,"pm2_5":2.9,"no2":1.6,"co":119.0,"o3":59.0,"so2":0.6,"mosquito_risk":3,"arthritis_risk":5,"migraine_risk":7,"frizz_risk":1,"updated_at":"2026-07-24T15:51:03.305923+05:30"},{"city":"Kohima","state":"Nagaland","latitude":25.6701,"longitude":94.1077,"temp":23.6,"humidity":85,"rain":0.1,"pressure":851.0,"uv_index":8.65,"wind_gusts":22.7,"aqi":33,"pm10":3.0,"pm2_5":2.7,"no2":2.0,"co":144.0,"o3":70.0,"so2":0.7,"mosquito_risk":6,"arthritis_risk":5,"migraine_risk":7,"frizz_risk":1,"updated_at":"2026-07-24T15:51:03.305930+05:30"},{"city":"Gangtok","state":"Sikkim","latitude":27.3314,"longitude":88.6138,"temp":22.0,"humidity":78,"rain":0.0,"pressure":834.2,"uv_index":7.5,"wind_gusts":34.6,"aqi":43,"pm10":4.0,"pm2_5":3.8,"no2":2.9,"co":184.0,"o3":99.0,"so2":1.0,"mosquito_risk":3,"arthritis_risk":5,"migraine_risk":7,"frizz_risk":1,"updated_at":"2026-07-24T15:51:03.305937+05:30"},{"city":"Siliguri","state":"West Bengal","latitude":26.7271,"longitude":88.3953,"temp":30.7,"humidity":72,"rain":0.0,"pressure":984.8,"uv_index":7.65,"wind_gusts":28.8,"aqi":63,"pm10":12.2,"pm2_5":11.4,"no2":3.0,"co":312.0,"o3":104.0,"so2":2.6,"mosquito_risk":3,"arthritis_risk":5,"migraine_risk":7,"frizz_risk":1,"updated_at":"2026-07-24T15:51:06.724026+05:30"},{"city":"Durgapur","state":"West Bengal","latitude":23.5204,"longitude":87.3119,"temp":26.7,"humidity":93,"rain":0.3,"pressure":986.1,"uv_index":7.15,"wind_gusts":24.8,"aqi":98,"pm10":47.0,"pm2_5":46.6,"no2":19.2,"co":623.0,"o3":171.0,"so2":63.1,"mosquito_risk":10,"arthritis_risk":5,"migraine_risk":7,"frizz_risk":1,"updated_at":"2026-07-24T15:51:06.724064+05:30"},{"city":"Asansol","state":"West Bengal","latitude":23.6739,"longitude":86.9524,"temp":29.2,"humidity":83,"rain":0.0,"pressure":984.5,"uv_index":8.3,"wind_gusts":29.5,"aqi":85,"pm10":30.7,"pm2_5":30.6,"no2":16.4,"co":204.0,"o3":141.0,"so2":43.0,"mosquito_risk":7,"arthritis_risk":5,"migraine_risk":7,"frizz_risk":1,"updated_at":"2026-07-24T15:51:06.724079+05:30"},{"city":"Pondicherry","state":"Puducherry","latitude":11.9139,"longitude":79.8145,"temp":32.7,"humidity":61,"rain":0.1,"pressure":1003.8,"uv_index":7.9,"wind_gusts":41.4,"aqi":66,"pm10":37.1,"pm2_5":26.5,"no2":4.7,"co":203.0,"o3":145.0,"so2":6.9,"mosquito_risk":6,"arthritis_risk":5,"migraine_risk":4,"frizz_risk":1,"updated_at":"2026-07-24T15:51:06.724089+05:30"},{"city":"Port Blair","state":"Andaman and Nicobar Islands","latitude":11.6234,"longitude":92.7265,"temp":29.6,"humidity":69,"rain":0.0,"pressure":1004.5,"uv_index":8.55,"wind_gusts":44.3,"aqi":39,"pm10":12.5,"pm2_5":7.5,"no2":0.4,"co":97.0,"o3":45.0,"so2":0.5,"mosquito_risk":7,"arthritis_risk":5,"migraine_risk":4,"frizz_risk":1,"updated_at":"2026-07-24T15:51:06.724097+05:30"},{"city":"Haridwar","state":"Uttarakhand","latitude":29.9457,"longitude":78.1642,"temp":32.1,"humidity":65,"rain":0.1,"pressure":965.4,"uv_index":6.3,"wind_gusts":36.7,"aqi":82,"pm10":16.4,"pm2_5":16.3,"no2":2.2,"co":222.0,"o3":130.0,"so2":4.8,"mosquito_risk":6,"arthritis_risk":5,"migraine_risk":7,"frizz_risk":1,"updated_at":"2026-07-24T15:51:06.724105+05:30"},{"city":"Rishikesh","state":"Uttarakhand","latitude":30.0869,"longitude":78.2676,"temp":29.4,"humidity":82,"rain":0.1,"pressure":958.6,"uv_index":6.0,"wind_gusts":26.3,"aqi":73,"pm10":13.2,"pm2_5":13.1,"no2":1.6,"co":200.0,"o3":122.0,"so2":3.3,"mosquito_risk":10,"arthritis_risk":5,"migraine_risk":3,"frizz_risk":1,"updated_at":"2026-07-24T15:51:06.724113+05:30"},{"city":"Nainital","state":"Uttarakhand","latitude":29.3919,"longitude":79.4542,"temp":22.0,"humidity":69,"rain":0.0,"pressure":802.4,"uv_index":8.0,"wind_gusts":42.1,"aqi":59,"pm10":13.8,"pm2_5":13.8,"no2":1.3,"co":180.0,"o3":118.0,"so2":2.5,"mosquito_risk":3,"arthritis_risk":5,"migraine_risk":7,"frizz_risk":1,"updated_at":"2026-07-24T15:51:06.724120+05:30"},{"city":"Mussoorie","state":"Uttarakhand","latitude":30.4599,"longitude":78.0664,"temp":20.0,"humidity":91,"rain":0.0,"pressure":799.6,"uv_index":6.1,"wind_gusts":31.7,"aqi":94,"pm10":12.6,"pm2_5":12.5,"no2":3.2,"co":186.0,"o3":121.0,"so2":3.0,"mosquito_risk":3,"arthritis_risk":5,"migraine_risk":7,"frizz_risk":1,"updated_at":"2026-07-24T15:51:06.724129+05:30"},{"city":"Dharamshala","state":"Himachal Pradesh","latitude":32.219,"longitude":76.3234,"temp":23.9,"humidity":85,"rain":0.2,"pressure":864.1,"uv_index":6.55,"wind_gusts":32.4,"aqi":42,"pm10":5.2,"pm2_5":5.1,"no2":0.7,"co":246.0,"o3":107.0,"so2":0.8,"mosquito_risk":6,"arthritis_risk":5,"migraine_risk":7,"frizz_risk":1,"updated_at":"2026-07-24T15:51:06.724137+05:30"},{"city":"Dalhousie","state":"Himachal Pradesh","latitude":32.5387,"longitude":75.971,"temp":21.6,"humidity":82,"rain":0.0,"pressure":802.0,"uv_index":8.55,"wind_gusts":28.8,"aqi":76,"pm10":11.4,"pm2_5":11.1,"no2":1.4,"co":197.0,"o3":130.0,"so2":1.5,"mosquito_risk":3,"arthritis_risk":5,"migraine_risk":7,"frizz_risk":1,"updated_at":"2026-07-24T15:51:06.724144+05:30"},{"city":"Patiala","state":"Punjab","latitude":30.3398,"longitude":76.3869,"temp":31.9,"humidity":69,"rain":0.1,"pressure":969.1,"uv_index":7.2,"wind_gusts":36.4,"aqi":92,"pm10":21.4,"pm2_5":21.3,"no2":3.4,"co":271.0,"o3":147.0,"so2":6.8,"mosquito_risk":6,"arthritis_risk":5,"migraine_risk":7,"frizz_risk":1,"updated_at":"2026-07-24T15:51:06.724152+05:30"},{"city":"Bhatinda","state":"Punjab","latitude":30.211,"longitude":74.9455,"temp":31.6,"humidity":72,"rain":0.0,"pressure":974.0,"uv_index":7.35,"wind_gusts":32.0,"aqi":117,"pm10":33.1,"pm2_5":32.9,"no2":4.9,"co":298.0,"o3":176.0,"so2":14.6,"mosquito_risk":3,"arthritis_risk":5,"migraine_risk":7,"frizz_risk":1,"updated_at":"2026-07-24T15:51:06.724158+05:30"},{"city":"Rohtak","state":"Haryana","latitude":28.8955,"longitude":76.6066,"temp":31.2,"humidity":74,"rain":0.0,"pressure":971.6,"uv_index":6.2,"wind_gusts":34.6,"aqi":102,"pm10":17.4,"pm2_5":17.3,"no2":6.9,"co":306.0,"o3":153.0,"so2":13.8,"mosquito_risk":3,"arthritis_risk":5,"migraine_risk":7,"frizz_risk":1,"updated_at":"2026-07-24T15:51:06.724166+05:30"},{"city":"Panipat","state":"Haryana","latitude":29.3909,"longitude":76.9635,"temp":30.2,"humidity":79,"rain":0.0,"pressure":970.7,"uv_index":6.15,"wind_gusts":42.8,"aqi":102,"pm10":20.4,"pm2_5":20.4,"no2":6.3,"co":281.0,"o3":153.0,"so2":14.3,"mosquito_risk":3,"arthritis_risk":5,"migraine_risk":7,"frizz_risk":1,"updated_at":"2026-07-24T15:51:06.724173+05:30"},{"city":"Mathura","state":"Uttar Pradesh","latitude":27.4924,"longitude":77.6737,"temp":32.7,"humidity":65,"rain":0.0,"pressure":976.2,"uv_index":6.5,"wind_gusts":28.4,"aqi":84,"pm10":11.4,"pm2_5":10.9,"no2":1.9,"co":196.0,"o3":128.0,"so2":3.1,"mosquito_risk":3,"arthritis_risk":5,"migraine_risk":7,"frizz_risk":1,"updated_at":"2026-07-24T15:51:06.724180+05:30"},{"city":"Vrindavan","state":"Uttar Pradesh","latitude":27.5823,"longitude":77.7027,"temp":32.4,"humidity":67,"rain":0.0,"pressure":976.6,"uv_index":6.5,"wind_gusts":28.4,"aqi":84,"pm10":11.4,"pm2_5":10.9,"no2":1.9,"co":195.0,"o3":128.0,"so2":3.1,"mosquito_risk":3,"arthritis_risk":5,"migraine_risk":7,"frizz_risk":1,"updated_at":"2026-07-24T15:51:06.724187+05:30"},{"city":"Ayodhya","state":"Uttar Pradesh","latitude":26.7922,"longitude":82.1998,"temp":29.7,"humidity":82,"rain":0.1,"pressure":986.8,"uv_index":7.1,"wind_gusts":22.7,"aqi":94,"pm10":21.0,"pm2_5":20.9,"no2":2.7,"co":235.0,"o3":129.0,"so2":5.6,"mosquito_risk":10,"arthritis_risk":5,"migraine_risk":7,"frizz_risk":1,"updated_at":"2026-07-24T15:51:06.724194+05:30"},{"city":"Ratlam","state":"Madhya Pradesh","latitude":23.3315,"longitude":75.0367,"temp":27.6,"humidity":68,"rain":0.0,"pressure":945.0,"uv_index":7.4,"wind_gusts":54.0,"aqi":28,"pm10":12.0,"pm2_5":6.4,"no2":1.3,"co":127.0,"o3":77.0,"so2":2.4,"mosquito_risk":7,"arthritis_risk":5,"migraine_risk":7,"frizz_risk":1,"updated_at":"2026-07-24T15:51:06.724201+05:30"},{"city":"Sagar","state":"Madhya Pradesh","latitude":23.8388,"longitude":78.7378,"temp":30.6,"humidity":60,"rain":0.1,"pressure":941.5,"uv_index":7.5,"wind_gusts":36.0,"aqi":35,"pm10":10.2,"pm2_5":5.3,"no2":1.0,"co":122.0,"o3":79.0,"so2":2.0,"mosquito_risk":3,"arthritis_risk":5,"migraine_risk":7,"frizz_risk":1,"updated_at":"2026-07-24T15:51:06.724208+05:30"},{"city":"Satna","state":"Madhya Pradesh","latitude":24.6005,"longitude":80.8322,"temp":32.0,"humidity":58,"rain":0.0,"pressure":962.3,"uv_index":7.25,"wind_gusts":29.5,"aqi":47,"pm10":5.9,"pm2_5":5.2,"no2":0.9,"co":124.0,"o3":93.0,"so2":3.4,"mosquito_risk":0,"arthritis_risk":5,"migraine_risk":7,"frizz_risk":1,"updated_at":"2026-07-24T15:51:06.724216+05:30"},{"city":"Akola","state":"Maharashtra","latitude":20.7002,"longitude":77.0082,"temp":26.9,"humidity":90,"rain":0.0,"pressure":967.5,"uv_index":8.55,"wind_gusts":54.4,"aqi":36,"pm10":13.9,"pm2_5":6.6,"no2":2.4,"co":116.0,"o3":74.0,"so2":4.4,"mosquito_risk":7,"arthritis_risk":5,"migraine_risk":7,"frizz_risk":1,"updated_at":"2026-07-24T15:51:06.724224+05:30"},{"city":"Amravati","state":"Maharashtra","latitude":20.9374,"longitude":77.7796,"temp":29.1,"humidity":74,"rain":0.4,"pressure":959.8,"uv_index":8.45,"wind_gusts":49.7,"aqi":42,"pm10":13.9,"pm2_5":6.6,"no2":2.4,"co":123.0,"o3":71.0,"so2":4.4,"mosquito_risk":10,"arthritis_risk":5,"migraine_risk":7,"frizz_risk":1,"updated_at":"2026-07-24T15:51:06.724232+05:30"},{"city":"Latur","state":"Maharashtra","latitude":18.4088,"longitude":76.5604,"temp":30.1,"humidity":55,"rain":0.1,"pressure":934.1,"uv_index":5.95,"wind_gusts":58.7,"aqi":39,"pm10":21.9,"pm2_5":6.7,"no2":0.8,"co":109.0,"o3":60.0,"so2":1.0,"mosquito_risk":3,"arthritis_risk":5,"migraine_risk":3,"frizz_risk":1,"updated_at":"2026-07-24T15:51:06.724239+05:30"},{"city":"Nanded","state":"Maharashtra","latitude":19.1383,"longitude":77.3091,"temp":27.1,"humidity":89,"rain":0.1,"pressure":962.3,"uv_index":7.85,"wind_gusts":52.6,"aqi":49,"pm10":15.8,"pm2_5":6.7,"no2":2.2,"co":134.0,"o3":68.0,"so2":2.3,"mosquito_risk":10,"arthritis_risk":5,"migraine_risk":7,"frizz_risk":1,"updated_at":"2026-07-24T15:51:06.724247+05:30"},{"city":"Gulbarga","state":"Karnataka","latitude":17.3297,"longitude":76.8343,"temp":30.5,"humidity":55,"rain":0.1,"pressure":953.4,"uv_index":5.55,"wind_gusts":62.6,"aqi":60,"pm10":27.6,"pm2_5":11.3,"no2":1.5,"co":115.0,"o3":72.0,"so2":1.6,"mosquito_risk":3,"arthritis_risk":5,"migraine_risk":3,"frizz_risk":1,"updated_at":"2026-07-24T15:51:06.724254+05:30"},{"city":"Bidar","state":"Karnataka","latitude":17.9104,"longitude":77.5199,"temp":30.4,"humidity":56,"rain":0.1,"pressure":930.2,"uv_index":6.9,"wind_gusts":61.2,"aqi":58,"pm10":23.1,"pm2_5":9.3,"no2":2.0,"co":124.0,"o3":72.0,"so2":1.2,"mosquito_risk":3,"arthritis_risk":5,"migraine_risk":7,"frizz_risk":1,"updated_at":"2026-07-24T15:51:06.724261+05:30"},{"city":"Hospet","state":"Karnataka","latitude":15.2689,"longitude":76.3909,"temp":29.7,"humidity":54,"rain":0.1,"pressure":952.7,"uv_index":8.95,"wind_gusts":59.0,"aqi":55,"pm10":15.8,"pm2_5":7.0,"no2":1.5,"co":103.0,"o3":57.0,"so2":1.3,"mosquito_risk":7,"arthritis_risk":5,"migraine_risk":7,"frizz_risk":1,"updated_at":"2026-07-24T15:51:06.724268+05:30"},{"city":"Tirupur","state":"Tamil Nadu","latitude":11.1085,"longitude":77.3411,"temp":34.0,"humidity":45,"rain":0.0,"pressure":972.0,"uv_index":8.75,"wind_gusts":52.6,"aqi":53,"pm10":17.9,"pm2_5":9.2,"no2":2.1,"co":135.0,"o3":82.0,"so2":2.1,"mosquito_risk":0,"arthritis_risk":5,"migraine_risk":7,"frizz_risk":1,"updated_at":"2026-07-24T15:51:06.724275+05:30"},{"city":"Alappuzha","state":"Kerala","latitude":9.4981,"longitude":76.3388,"temp":28.7,"humidity":80,"rain":0.0,"pressure":1007.6,"uv_index":8.65,"wind_gusts":30.6,"aqi":57,"pm10":17.2,"pm2_5":12.1,"no2":3.2,"co":93.0,"o3":80.0,"so2":3.3,"mosquito_risk":7,"arthritis_risk":5,"migraine_risk":4,"frizz_risk":1,"updated_at":"2026-07-24T15:51:06.724282+05:30"},{"city":"Munnar","state":"Kerala","latitude":10.0889,"longitude":77.0595,"temp":19.9,"humidity":86,"rain":0.1,"pressure":856.4,"uv_index":9.05,"wind_gusts":36.4,"aqi":35,"pm10":8.1,"pm2_5":4.5,"no2":0.9,"co":103.0,"o3":61.0,"so2":1.2,"mosquito_risk":6,"arthritis_risk":10,"migraine_risk":7,"frizz_risk":1,"updated_at":"2026-07-24T15:51:06.724290+05:30"},{"city":"Silchar","state":"Assam","latitude":24.8333,"longitude":92.7789,"temp":31.8,"humidity":67,"rain":0.3,"pressure":996.2,"uv_index":8.4,"wind_gusts":23.4,"aqi":55,"pm10":10.1,"pm2_5":8.5,"no2":2.1,"co":160.0,"o3":93.0,"so2":3.4,"mosquito_risk":6,"arthritis_risk":5,"migraine_risk":7,"frizz_risk":1,"updated_at":"2026-07-24T15:51:06.724297+05:30"},{"city":"Dibrugarh","state":"Assam","latitude":27.4728,"longitude":94.912,"temp":33.2,"humidity":64,"rain":0.0,"pressure":985.9,"uv_index":8.4,"wind_gusts":24.1,"aqi":55,"pm10":7.6,"pm2_5":7.0,"no2":2.4,"co":173.0,"o3":103.0,"so2":1.4,"mosquito_risk":3,"arthritis_risk":5,"migraine_risk":7,"frizz_risk":1,"updated_at":"2026-07-24T15:51:06.724304+05:30"}]