[{"city":"Delhi","state":"Delhi","latitude":28.6139,"longitude":77.209,"temp":33.7,"humidity":58,"rain":0.0,"pressure":975.1,"uv_index":7.7,"wind_gusts":28.4,"aqi":167,"pm10":397.7,"pm2_5":111.1,"no2":9.0,"co":303.0,"o3":199.0,"so2":22.0,"mosquito_risk":0,"arthritis_risk":5,"migraine_risk":7,"frizz_risk":1,"updated_at":"2026-07-11T11:46:10.322930+05:30"},{"city":"Mumbai","state":"Maharashtra","latitude":19.076,"longitude":72.8777,"temp":28.6,"humidity":82,"rain":0.0,"pressure":1008.9,"uv_index":6.15,"wind_gusts":52.9,"aqi":57,"pm10":32.9,"pm2_5":14.5,"no2":3.8,"co":148.0,"o3":65.0,"so2":5.1,"mosquito_risk":7,"arthritis_risk":0,"migraine_risk":4,"frizz_risk":1,"updated_at":"2026-07-11T11:46:10.322973+05:30"},{"city":"Bangalore","state":"Karnataka","latitude":12.9716,"longitude":77.5946,"temp":28.1,"humidity":50,"rain":0.0,"pressure":913.8,"uv_index":7.2,"wind_gusts":46.8,"aqi":40,"pm10":23.2,"pm2_5":9.5,"no2":4.8,"co":202.0,"o3":56.0,"so2":3.1,"mosquito_risk":4,"arthritis_risk":5,"migraine_risk":7,"frizz_risk":1,"updated_at":"2026-07-11T11:46:10.322989+05:30"},{"city":"Hyderabad","state":"Telangana","latitude":17.385,"longitude":78.4867,"temp":31.3,"humidity":48,"rain":0.0,"pressure":953.0,"uv_index":8.2,"wind_gusts":47.2,"aqi":66,"pm10":35.4,"pm2_5":12.9,"no2":2.0,"co":168.0,"o3":70.0,"so2":2.8,"mosquito_risk":0,"arthritis_risk":5,"migraine_risk":7,"frizz_risk":1,"updated_at":"2026-07-11T11:46:10.322998+05:30"},{"city":"Chennai","state":"Tamil Nadu","latitude":13.0827,"longitude":80.2707,"temp":35.1,"humidity":47,"rain":0.1,"pressure":1006.2,"uv_index":8.0,"wind_gusts":33.8,"aqi":67,"pm10":45.9,"pm2_5":24.4,"no2":6.5,"co":197.0,"o3":115.0,"so2":11.7,"mosquito_risk":3,"arthritis_risk":5,"migraine_risk":7,"frizz_risk":1,"updated_at":"2026-07-11T11:46:10.323007+05:30"},{"city":"Kolkata","state":"West Bengal","latitude":22.5726,"longitude":88.3639,"temp":32.3,"humidity":67,"rain":0.0,"pressure":999.6,"uv_index":3.05,"wind_gusts":33.8,"aqi":97,"pm10":70.5,"pm2_5":43.2,"no2":4.3,"co":353.0,"o3":145.0,"so2":19.2,"mosquito_risk":3,"arthritis_risk":5,"migraine_risk":3,"frizz_risk":1,"updated_at":"2026-07-11T11:46:10.323019+05:30"},{"city":"Pune","state":"Maharashtra","latitude":18.5204,"longitude":73.8567,"temp":28.0,"humidity":65,"rain":0.0,"pressure":948.5,"uv_index":7.8,"wind_gusts":57.2,"aqi":35,"pm10":31.8,"pm2_5":11.2,"no2":1.7,"co":117.0,"o3":63.0,"so2":3.6,"mosquito_risk":7,"arthritis_risk":5,"migraine_risk":7,"frizz_risk":1,"updated_at":"2026-07-11T11:46:10.323027+05:30"},{"city":"Ahmedabad","state":"Gujarat","latitude":23.0225,"longitude":72.5714,"temp":32.9,"humidity":56,"rain":0.0,"pressure":998.0,"uv_index":5.65,"wind_gusts":50.8,"aqi":70,"pm10":43.7,"pm2_5":16.4,"no2":2.0,"co":119.0,"o3":68.0,"so2":3.3,"mosquito_risk":0,"arthritis_risk":5,"migraine_risk":3,"frizz_risk":1,"updated_at":"2026-07-11T11:46:10.323033+05:30"},{"city":"Jaipur","state":"Rajasthan","latitude":26.9124,"longitude":75.7873,"temp":31.2,"humidity":60,"rain":0.0,"pressure":953.7,"uv_index":7.8,"wind_gusts":36.0,"aqi":459,"pm10":540.2,"pm2_5":92.7,"no2":1.5,"co":141.0,"o3":88.0,"so2":3.7,"mosquito_risk":0,"arthritis_risk":5,"migraine_risk":7,"frizz_risk":1,"updated_at":"2026-07-11T11:46:10.323040+05:30"},{"city":"Lucknow","state":"Uttar Pradesh","latitude":26.8467,"longitude":80.9462,"temp":33.6,"humidity":60,"rain":0.0,"pressure":985.1,"uv_index":2.9,"wind_gusts":52.2,"aqi":140,"pm10":169.5,"pm2_5":62.6,"no2":2.3,"co":191.0,"o3":144.0,"so2":6.4,"mosquito_risk":0,"arthritis_risk":5,"migraine_risk":3,"frizz_risk":1,"updated_at":"2026-07-11T11:46:10.323049+05:30"},{"city":"Kanpur","state":"Uttar Pradesh","latitude":26.4499,"longitude":80.3319,"temp":33.8,"humidity":56,"rain":0.0,"pressure":984.0,"uv_index":8.15,"wind_gusts":46.8,"aqi":121,"pm10":201.6,"pm2_5":54.9,"no2":1.9,"co":147.0,"o3":119.0,"so2":5.1,"mosquito_risk":0,"arthritis_risk":5,"migraine_risk":7,"frizz_risk":1,"updated_at":"2026-07-11T11:46:10.323055+05:30"},{"city":"Chandigarh","state":"Chandigarh","latitude":30.7333,"longitude":76.7794,"temp":30.7,"humidity":73,"rain":0.0,"pressure":960.7,"uv_index":7.7,"wind_gusts":25.2,"aqi":125,"pm10":54.0,"pm2_5":30.5,"no2":3.3,"co":401.0,"o3":179.0,"so2":11.8,"mosquito_risk":3,"arthritis_risk":5,"migraine_risk":7,"frizz_risk":1,"updated_at":"2026-07-11T11:46:10.323061+05:30"},{"city":"Srinagar","state":"Jammu and Kashmir","latitude":34.0837,"longitude":74.7973,"temp":30.1,"humidity":41,"rain":0.0,"pressure":837.3,"uv_index":9.05,"wind_gusts":32.0,"aqi":88,"pm10":30.2,"pm2_5":23.5,"no2":1.6,"co":377.0,"o3":172.0,"so2":3.9,"mosquito_risk":0,"arthritis_risk":5,"migraine_risk":7,"frizz_risk":0,"updated_at":"2026-07-11T11:46:10.323068+05:30"},{"city":"Jammu","state":"Jammu and Kashmir","latitude":32.7266,"longitude":74.857,"temp":31.9,"humidity":63,"rain":0.0,"pressure":964.0,"uv_index":8.55,"wind_gusts":22.7,"aqi":155,"pm10":50.1,"pm2_5":41.0,"no2":2.9,"co":376.0,"o3":186.0,"so2":4.5,"mosquito_risk":3,"arthritis_risk":5,"migraine_risk":7,"frizz_risk":1,"updated_at":"2026-07-11T11:46:10.323074+05:30"},{"city":"Amritsar","state":"Punjab","latitude":31.634,"longitude":74.8723,"temp":32.4,"humidity":65,"rain":0.0,"pressure":971.8,"uv_index":8.4,"wind_gusts":28.4,"aqi":156,"pm10":88.5,"pm2_5":41.9,"no2":2.6,"co":348.0,"o3":150.0,"so2":3.3,"mosquito_risk":3,"arthritis_risk":5,"migraine_risk":7,"frizz_risk":1,"updated_at":"2026-07-11T11:46:10.323080+05:30"},{"city":"Ludhiana","state":"Punjab","latitude":30.901,"longitude":75.8573,"temp":31.9,"humidity":67,"rain":0.0,"pressure":970.2,"uv_index":7.95,"wind_gusts":31.0,"aqi":147,"pm10":149.5,"pm2_5":55.6,"no2":3.0,"co":394.0,"o3":143.0,"so2":7.3,"mosquito_risk":3,"arthritis_risk":5,"migraine_risk":7,"frizz_risk":1,"updated_at":"2026-07-11T11:46:10.323087+05:30"},{"city":"Jalandhar","state":"Punjab","latitude":31.326,"longitude":75.5762,"temp":29.5,"humidity":78,"rain":0.0,"pressure":971.3,"uv_index":8.1,"wind_gusts":23.8,"aqi":156,"pm10":97.1,"pm2_5":43.0,"no2":2.9,"co":355.0,"o3":155.0,"so2":5.3,"mosquito_risk":7,"arthritis_risk":5,"migraine_risk":7,"frizz_risk":1,"updated_at":"2026-07-11T11:46:10.323093+05:30"},{"city":"Dehradun","state":"Uttarakhand","latitude":30.6284,"longitude":78.0322,"temp":20.9,"humidity":91,"rain":0.1,"pressure":825.9,"uv_index":7.8,"wind_gusts":24.8,"aqi":35,"pm10":9.1,"pm2_5":8.4,"no2":1.1,"co":230.0,"o3":115.0,"so2":0.7,"mosquito_risk":6,"arthritis_risk":5,"migraine_risk":7,"frizz_risk":1,"updated_at":"2026-07-11T11:46:10.323100+05:30"},{"city":"Shimla","state":"Himachal Pradesh","latitude":31.1048,"longitude":77.1734,"temp":22.3,"humidity":61,"rain":0.0,"pressure":782.6,"uv_index":3.85,"wind_gusts":33.8,"aqi":60,"pm10":30.9,"pm2_5":24.4,"no2":1.3,"co":262.0,"o3":164.0,"so2":8.2,"mosquito_risk":3,"arthritis_risk":5,"migraine_risk":3,"frizz_risk":0,"updated_at":"2026-07-11T11:46:10.323107+05:30"},{"city":"Manali","state":"Himachal Pradesh","latitude":32.2396,"longitude":77.1887,"temp":24.0,"humidity":79,"rain":0.0,"pressure":816.2,"uv_index":7.8,"wind_gusts":28.1,"aqi":60,"pm10":21.2,"pm2_5":20.4,"no2":13.8,"co":206.0,"o3":104.0,"so2":1.4,"mosquito_risk":3,"arthritis_risk":5,"migraine_risk":7,"frizz_risk":1,"updated_at":"2026-07-11T11:46:10.323117+05:30"},{"city":"Gurgaon","state":"Haryana","latitude":28.4595,"longitude":77.0266,"temp":34.2,"humidity":54,"rain":0.0,"pressure":973.7,"uv_index":7.5,"wind_gusts":30.6,"aqi":218,"pm10":778.6,"pm2_5":151.8,"no2":7.0,"co":190.0,"o3":151.0,"so2":15.1,"mosquito_risk":0,"arthritis_risk":5,"migraine_risk":7,"frizz_risk":1,"updated_at":"2026-07-11T11:46:10.323124+05:30"},{"city":"Noida","state":"Uttar Pradesh","latitude":28.5355,"longitude":77.391,"temp":34.2,"humidity":57,"rain":0.0,"pressure":976.5,"uv_index":7.7,"wind_gusts":28.1,"aqi":218,"pm10":778.6,"pm2_5":151.8,"no2":7.0,"co":325.0,"o3":151.0,"so2":15.1,"mosquito_risk":0,"arthritis_risk":5,"migraine_risk":7,"frizz_risk":1,"updated_at":"2026-07-11T11:46:10.323130+05:30"},{"city":"Ghaziabad","state":"Uttar Pradesh","latitude":28.6692,"longitude":77.4538,"temp":33.7,"humidity":60,"rain":0.0,"pressure":974.7,"uv_index":7.7,"wind_gusts":30.6,"aqi":140,"pm10":297.1,"pm2_5":98.5,"no2":8.7,"co":509.0,"o3":222.0,"so2":31.0,"mosquito_risk":0,"arthritis_risk":5,"migraine_risk":7,"frizz_risk":1,"updated_at":"2026-07-11T11:46:10.323136+05:30"},{"city":"Faridabad","state":"Haryana","latitude":28.4089,"longitude":77.3178,"temp":34.0,"humidity":58,"rain":0.0,"pressure":975.8,"uv_index":7.7,"wind_gusts":29.2,"aqi":218,"pm10":778.6,"pm2_5":151.8,"no2":7.0,"co":217.0,"o3":151.0,"so2":15.1,"mosquito_risk":0,"arthritis_risk":5,"migraine_risk":7,"frizz_risk":1,"updated_at":"2026-07-11T11:46:10.323142+05:30"},{"city":"Meerut","state":"Uttar Pradesh","latitude":28.9845,"longitude":77.7064,"temp":32.7,"humidity":68,"rain":0.0,"pressure":973.6,"uv_index":7.65,"wind_gusts":31.3,"aqi":140,"pm10":297.1,"pm2_5":98.5,"no2":8.7,"co":320.0,"o3":222.0,"so2":31.0,"mosquito_risk":3,"arthritis_risk":5,"migraine_risk":7,"frizz_risk":1,"updated_at":"2026-07-11T11:46:10.323148+05:30"},{"city":"Agra","state":"Uttar Pradesh","latitude":27.1767,"longitude":78.0081,"temp":34.2,"humidity":55,"rain":0.0,"pressure":980.4,"uv_index":8.05,"wind_gusts":35.6,"aqi":161,"pm10":380.9,"pm2_5":74.7,"no2":2.2,"co":144.0,"o3":111.0,"so2":4.3,"mosquito_risk":0,"arthritis_risk":5,"migraine_risk":7,"frizz_risk":1,"updated_at":"2026-07-11T11:46:10.323154+05:30"},{"city":"Varanasi","state":"Uttar Pradesh","latitude":25.3176,"longitude":82.9739,"temp":33.3,"humidity":61,"rain":0.0,"pressure":990.1,"uv_index":7.6,"wind_gusts":47.5,"aqi":107,"pm10":65.2,"pm2_5":38.8,"no2":2.5,"co":227.0,"o3":122.0,"so2":8.3,"mosquito_risk":3,"arthritis_risk":5,"migraine_risk":7,"frizz_risk":1,"updated_at":"2026-07-11T11:46:10.323160+05:30"},{"city":"Prayagraj","state":"Uttar Pradesh","latitude":25.4358,"longitude":81.8463,"temp":34.2,"humidity":56,"rain":0.0,"pressure":988.7,"uv_index":8.45,"wind_gusts":45.7,"aqi":112,"pm10":67.1,"pm2_5":38.6,"no2":2.2,"co":168.0,"o3":122.0,"so2":8.6,"mosquito_risk":0,"arthritis_risk":5,"migraine_risk":7,"frizz_risk":1,"updated_at":"2026-07-11T11:46:10.323167+05:30"},{"city":"Gorakhpur","state":"Uttar Pradesh","latitude":26.7606,"longitude":83.3732,"temp":31.8,"humidity":73,"rain":0.0,"pressure":989.2,"uv_index":6.05,"wind_gusts":35.6,"aqi":95,"pm10":149.5,"pm2_5":58.0,"no2":2.4,"co":247.0,"o3":147.0,"so2":6.8,"mosquito_risk":3,"arthritis_risk":5,"migraine_risk":7,"frizz_risk":1,"updated_at":"2026-07-11T11:46:10.323173+05:30"},{"city":"Bareilly","state":"Uttar Pradesh","latitude":28.367,"longitude":79.4304,"temp":32.2,"humidity":68,"rain":0.0,"pressure":978.6,"uv_index":7.85,"wind_gusts":29.2,"aqi":101,"pm10":49.0,"pm2_5":24.9,"no2":2.5,"co":309.0,"o3":171.0,"so2":11.6,"mosquito_risk":3,"arthritis_risk":5,"migraine_risk":7,"frizz_risk":1,"updated_at":"2026-07-11T11:46:10.323180+05:30"},{"city":"Aligarh","state":"Uttar Pradesh","latitude":27.8974,"longitude":78.088,"temp":34.0,"humidity":58,"rain":0.0,"pressure":977.8,"uv_index":7.75,"wind_gusts":33.5,"aqi":162,"pm10":431.2,"pm2_5":105.0,"no2":3.4,"co":183.0,"o3":142.0,"so2":9.5,"mosquito_risk":0,"arthritis_risk":5,"migraine_risk":7,"frizz_risk":1,"updated_at":"2026-07-11T11:46:10.323187+05:30"},{"city":"Moradabad","state":"Uttar Pradesh","latitude":28.8386,"longitude":78.7733,"temp":32.6,"humidity":66,"rain":0.0,"pressure":975.4,"uv_index":7.8,"wind_gusts":32.4,"aqi":102,"pm10":76.4,"pm2_5":36.9,"no2":3.9,"co":335.0,"o3":186.0,"so2":21.4,"mosquito_risk":3,"arthritis_risk":5,"migraine_risk":7,"frizz_risk":1,"updated_at":"2026-07-11T11:46:10.323194+05:30"},{"city":"Saharanpur","state":"Uttar Pradesh","latitude":29.9637,"longitude":77.546,"temp":31.1,"humidity":72,"rain":0.0,"pressure":967.9,"uv_index":7.35,"wind_gusts":52.2,"aqi":82,"pm10":25.0,"pm2_5":19.3,"no2":2.7,"co":354.0,"o3":167.0,"so2":6.8,"mosquito_risk":3,"arthritis_risk":5,"migraine_risk":7,"frizz_risk":1,"updated_at":"2026-07-11T11:46:10.323200+05:30"},{"city":"Jhansi","state":"Uttar Pradesh","latitude":25.4484,"longitude":78.5685,"temp":33.3,"humidity":55,"rain":0.0,"pressure":972.2,"uv_index":8.4,"wind_gusts":43.9,"aqi":97,"pm10":78.0,"pm2_5":35.0,"no2":2.0,"co":134.0,"o3":104.0,"so2":8.4,"mosquito_risk":0,"arthritis_risk":5,"migraine_risk":7,"frizz_risk":1,"updated_at":"2026-07-11T11:46:13.704918+05:30"},{"city":"Surat","state":"Gujarat","latitude":21.1702,"longitude":72.8311,"temp":30.8,"humidity":72,"rain":0.0,"pressure":1004.6,"uv_index":5.4,"wind_gusts":65.9,"aqi":63,"pm10":31.5,"pm2_5":16.5,"no2":6.7,"co":207.0,"o3":49.0,"so2":22.3,"mosquito_risk":3,"arthritis_risk":5,"migraine_risk":0,"frizz_risk":1,"updated_at":"2026-07-11T11:46:13.704949+05:30"},{"city":"Vadodara","state":"Gujarat","latitude":22.3072,"longitude":73.1812,"temp":31.7,"humidity":62,"rain":0.0,"pressure":1001.2,"uv_index":7.85,"wind_gusts":55.1,"aqi":64,"pm10":39.3,"pm2_5":15.0,"no2":2.0,"co":126.0,"o3":64.0,"so2":3.0,"mosquito_risk":3,"arthritis_risk":5,"migraine_risk":4,"frizz_risk":1,"updated_at":"2026-07-11T11:46:13.704959+05:30"},{"city":"Rajkot","state":"Gujarat","latitude":22.3039,"longitude":70.8022,"temp":33.4,"humidity":52,"rain":0.0,"pressure":990.4,"uv_index":7.2,"wind_gusts":59.8,"aqi":61,"pm10":49.7,"pm2_5":19.6,"no2":1.2,"co":96.0,"o3":68.0,"so2":3.2,"mosquito_risk":0,"arthritis_risk":5,"migraine_risk":7,"frizz_risk":1,"updated_at":"2026-07-11T11:46:13.704968+05:30"},{"city":"Thane","state":"Maharashtra","latitude":19.2183,"longitude":72.9781,"temp":30.3,"humidity":71,"rain":0.1,"pressure":1008.0,"uv_index":6.55,"wind_gusts":46.4,"aqi":57,"pm10":32.9,"pm2_5":14.5,"no2":3.8,"co":140.0,"o3":65.0,"so2":5.1,"mosquito_risk":6,"arthritis_risk":0,"migraine_risk":4,"frizz_risk":1,"updated_at":"2026-07-11T11:46:13.704976+05:30"},{"city":"Nagpur","state":"Maharashtra","latitude":21.1458,"longitude":79.0882,"temp":31.2,"humidity":56,"rain":0.0,"pressure":971.0,"uv_index":6.8,"wind_gusts":52.2,"aqi":88,"pm10":65.7,"pm2_5":24.4,"no2":4.7,"co":129.0,"o3":72.0,"so2":14.8,"mosquito_risk":0,"arthritis_risk":5,"migraine_risk":7,"frizz_risk":1,"updated_at":"2026-07-11T11:46:13.704983+05:30"},{"city":"Nashik","state":"Maharashtra","latitude":19.9975,"longitude":73.7898,"temp":28.0,"humidity":64,"rain":0.0,"pressure":944.7,"uv_index":7.75,"wind_gusts":63.7,"aqi":41,"pm10":31.3,"pm2_5":12.1,"no2":1.3,"co":105.0,"o3":62.0,"so2":1.7,"mosquito_risk":7,"arthritis_risk":5,"migraine_risk":7,"frizz_risk":1,"updated_at":"2026-07-11T11:46:13.704991+05:30"},{"city":"Aurangabad","state":"Maharashtra","latitude":19.8762,"longitude":75.3433,"temp":29.3,"humidity":58,"rain":0.0,"pressure":943.5,"uv_index":8.85,"wind_gusts":60.1,"aqi":52,"pm10":46.9,"pm2_5":15.5,"no2":1.6,"co":109.0,"o3":72.0,"so2":5.0,"mosquito_risk":4,"arthritis_risk":5,"migraine_risk":7,"frizz_risk":1,"updated_at":"2026-07-11T11:46:13.704999+05:30"},{"city":"Solapur","state":"Maharashtra","latitude":17.6599,"longitude":75.9064,"temp":30.9,"humidity":55,"rain":0.0,"pressure":957.5,"uv_index":7.65,"wind_gusts":50.0,"aqi":48,"pm10":38.5,"pm2_5":12.8,"no2":1.1,"co":104.0,"o3":67.0,"so2":1.7,"mosquito_risk":0,"arthritis_risk":5,"migraine_risk":7,"frizz_risk":1,"updated_at":"2026-07-11T11:46:13.705007+05:30"},{"city":"Kolhapur","state":"Maharashtra","latitude":16.705,"longitude":74.2433,"temp":27.3,"humidity":71,"rain":0.0,"pressure":949.1,"uv_index":7.55,"wind_gusts":53.6,"aqi":36,"pm10":33.2,"pm2_5":12.1,"no2":1.4,"co":111.0,"o3":58.0,"so2":1.7,"mosquito_risk":7,"arthritis_risk":5,"migraine_risk":7,"frizz_risk":1,"updated_at":"2026-07-11T11:46:13.705015+05:30"},{"city":"Goa","state":"Goa","latitude":15.2993,"longitude":74.124,"temp":29.8,"humidity":74,"rain":0.1,"pressure":1000.3,"uv_index":8.15,"wind_gusts":36.4,"aqi":57,"pm10":25.0,"pm2_5":10.9,"no2":0.9,"co":104.0,"o3":53.0,"so2":1.3,"mosquito_risk":10,"arthritis_risk":5,"migraine_risk":4,"frizz_risk":1,"updated_at":"2026-07-11T11:46:13.705022+05:30"},{"city":"Jodhpur","state":"Rajasthan","latitude":26.2389,"longitude":73.0243,"temp":32.7,"humidity":51,"rain":0.0,"pressure":975.8,"uv_index":8.45,"wind_gusts":57.2,"aqi":196,"pm10":206.8,"pm2_5":46.7,"no2":0.9,"co":107.0,"o3":71.0,"so2":2.3,"mosquito_risk":0,"arthritis_risk":5,"migraine_risk":7,"frizz_risk":1,"updated_at":"2026-07-11T11:46:13.705030+05:30"},{"city":"Udaipur","state":"Rajasthan","latitude":24.5854,"longitude":73.7125,"temp":29.3,"humidity":60,"rain":0.0,"pressure":941.9,"uv_index":8.4,"wind_gusts":56.9,"aqi":76,"pm10":48.2,"pm2_5":18.3,"no2":1.3,"co":104.0,"o3":66.0,"so2":2.8,"mosquito_risk":4,"arthritis_risk":5,"migraine_risk":7,"frizz_risk":1,"updated_at":"2026-07-11T11:46:13.705037+05:30"},{"city":"Kota","state":"Rajasthan","latitude":25.2138,"longitude":75.8648,"temp":32.9,"humidity":51,"rain":0.0,"pressure":973.4,"uv_index":8.3,"wind_gusts":41.4,"aqi":92,"pm10":69.4,"pm2_5":28.3,"no2":1.5,"co":120.0,"o3":85.0,"so2":5.4,"mosquito_risk":0,"arthritis_risk":5,"migraine_risk":7,"frizz_risk":1,"updated_at":"2026-07-11T11:46:13.705043+05:30"},{"city":"Bikaner","state":"Rajasthan","latitude":28.0229,"longitude":73.3119,"temp":34.0,"humidity":49,"rain":0.0,"pressure":973.3,"uv_index":8.45,"wind_gusts":41.0,"aqi":158,"pm10":203.5,"pm2_5":68.9,"no2":0.6,"co":105.0,"o3":78.0,"so2":4.0,"mosquito_risk":0,"arthritis_risk":5,"migraine_risk":7,"frizz_risk":1,"updated_at":"2026-07-11T11:46:13.705050+05:30"},{"city":"Ajmer","state":"Rajasthan","latitude":26.4499,"longitude":74.6399,"temp":30.0,"humidity":60,"rain":0.0,"pressure":948.6,"uv_index":8.15,"wind_gusts":52.2,"aqi":88,"pm10":79.6,"pm2_5":30.5,"no2":1.1,"co":111.0,"o3":77.0,"so2":3.0,"mosquito_risk":4,"arthritis_risk":5,"migraine_risk":7,"frizz_risk":1,"updated_at":"2026-07-11T11:46:13.705057+05:30"},{"city":"Gwalior","state":"Madhya Pradesh","latitude":26.2183,"longitude":78.1828,"temp":32.7,"humidity":58,"rain":0.0,"pressure":976.7,"uv_index":8.15,"wind_gusts":42.1,"aqi":93,"pm10":84.5,"pm2_5":34.3,"no2":1.3,"co":124.0,"o3":98.0,"so2":3.3,"mosquito_risk":0,"arthritis_risk":5,"migraine_risk":7,"frizz_risk":1,"updated_at":"2026-07-11T11:46:13.705063+05:30"},{"city":"Indore","state":"Madhya Pradesh","latitude":22.7196,"longitude":75.8577,"temp":29.0,"humidity":61,"rain":0.0,"pressure":945.4,"uv_index":8.55,"wind_gusts":57.6,"aqi":74,"pm10":60.5,"pm2_5":22.7,"no2":1.9,"co":147.0,"o3":73.0,"so2":3.5,"mosquito_risk":7,"arthritis_risk":5,"migraine_risk":7,"frizz_risk":1,"updated_at":"2026-07-11T11:46:13.705071+05:30"},{"city":"Bhopal","state":"Madhya Pradesh","latitude":23.2599,"longitude":77.4126,"temp":29.9,"humidity":60,"rain":0.0,"pressure":950.4,"uv_index":8.6,"wind_gusts":47.2,"aqi":82,"pm10":71.9,"pm2_5":25.3,"no2":1.3,"co":153.0,"o3":80.0,"so2":3.8,"mosquito_risk":4,"arthritis_risk":5,"migraine_risk":7,"frizz_risk":1,"updated_at":"2026-07-11T11:46:13.705079+05:30"},{"city":"Jabalpur","state":"Madhya Pradesh","latitude":23.1815,"longitude":79.9864,"temp":29.5,"humidity":68,"rain":0.0,"pressure":957.9,"uv_index":7.15,"wind_gusts":38.9,"aqi":89,"pm10":41.8,"pm2_5":22.2,"no2":2.1,"co":149.0,"o3":77.0,"so2":6.3,"mosquito_risk":7,"arthritis_risk":5,"migraine_risk":7,"frizz_risk":1,"updated_at":"2026-07-11T11:46:13.705086+05:30"},{"city":"Ujjain","state":"Madhya Pradesh","latitude":23.1765,"longitude":75.7885,"temp":29.5,"humidity":60,"rain":0.0,"pressure":950.7,"uv_index":8.25,"wind_gusts":56.9,"aqi":75,"pm10":55.2,"pm2_5":21.0,"no2":1.4,"co":126.0,"o3":72.0,"so2":3.6,"mosquito_risk":4,"arthritis_risk":5,"migraine_risk":7,"frizz_risk":1,"updated_at":"2026-07-11T11:46:13.705093+05:30"},{"city":"Visakhapatnam","state":"Andhra Pradesh","latitude":17.6868,"longitude":83.2185,"temp":33.5,"humidity":61,"rain":0.0,"pressure":999.9,"uv_index":7.7,"wind_gusts":38.5,"aqi":91,"pm10":65.0,"pm2_5":37.0,"no2":6.3,"co":307.0,"o3":147.0,"so2":23.8,"mosquito_risk":3,"arthritis_risk":5,"migraine_risk":7,"frizz_risk":1,"updated_at":"2026-07-11T11:46:13.705100+05:30"},{"city":"Vijayawada","state":"Andhra Pradesh","latitude":16.5062,"longitude":80.648,"temp":35.4,"humidity":47,"rain":0.0,"pressure":1000.6,"uv_index":5.25,"wind_gusts":42.5,"aqi":92,"pm10":32.4,"pm2_5":17.8,"no2":2.1,"co":131.0,"o3":93.0,"so2":4.9,"mosquito_risk":0,"arthritis_risk":5,"migraine_risk":3,"frizz_risk":1,"updated_at":"2026-07-11T11:46:13.705107+05:30"},{"city":"Guntur","state":"Andhra Pradesh","latitude":16.3067,"longitude":80.4365,"temp":36.1,"humidity":42,"rain":0.0,"pressure":1001.9,"uv_index":4.85,"wind_gusts":45.4,"aqi":88,"pm10":33.5,"pm2_5":16.2,"no2":1.9,"co":140.0,"o3":82.0,"so2":4.1,"mosquito_risk":0,"arthritis_risk":5,"migraine_risk":3,"frizz_risk":1,"updated_at":"2026-07-11T11:46:13.705115+05:30"},{"city":"Nellore","state":"Andhra Pradesh","latitude":14.4426,"longitude":79.9865,"temp":34.7,"humidity":49,"rain":0.0,"pressure":1004.8,"uv_index":7.7,"wind_gusts":41.4,"aqi":64,"pm10":40.4,"pm2_5":16.9,"no2":2.0,"co":112.0,"o3":84.0,"so2":6.0,"mosquito_risk":0,"arthritis_risk":5,"migraine_risk":4,"frizz_risk":1,"updated_at":"2026-07-11T11:46:13.705123+05:30"},{"city":"Kurnool","state":"Andhra Pradesh","latitude":15.8281,"longitude":78.0373,"temp":34.0,"humidity":44,"rain":0.0,"pressure":977.0,"uv_index":7.4,"wind_gusts":48.6,"aqi":60,"pm10":28.9,"pm2_5":11.7,"no2":2.8,"co":110.0,"o3":61.0,"so2":5.2,"mosquito_risk":0,"arthritis_risk":5,"migraine_risk":7,"frizz_risk":1,"updated_at":"2026-07-11T11:46:13.705131+05:30"},{"city":"Kakinada","state":"Andhra Pradesh","latitude":16.9891,"longitude":82.2475,"temp":34.4,"humidity":54,"rain":0.0,"pressure":1004.1,"uv_index":5.7,"wind_gusts":41.0,"aqi":78,"pm10":50.2,"pm2_5":29.3,"no2":3.1,"co":221.0,"o3":129.0,"so2":6.2,"mosquito_risk":0,"arthritis_risk":5,"migraine_risk":0,"frizz_risk":1,"updated_at":"2026-07-11T11:46:13.705138+05:30"},{"city":"Tirupati","state":"Andhra Pradesh","latitude":13.6288,"longitude":79.4192,"temp":36.3,"humidity":39,"rain":0.0,"pressure":990.3,"uv_index":8.2,"wind_gusts":36.4,"aqi":61,"pm10":39.3,"pm2_5":13.2,"no2":1.2,"co":105.0,"o3":73.0,"so2":1.3,"mosquito_risk":0,"arthritis_risk":5,"migraine_risk":10,"frizz_risk":1,"updated_at":"2026-07-11T11:46:13.705145+05:30"},{"city":"Warangal","state":"Telangana","latitude":17.9689,"longitude":79.5941,"temp":31.5,"humidity":58,"rain":0.0,"pressure":977.4,"uv_index":5.2,"wind_gusts":37.4,"aqi":80,"pm10":41.7,"pm2_5":16.2,"no2":1.4,"co":124.0,"o3":79.0,"so2":2.8,"mosquito_risk":0,"arthritis_risk":5,"migraine_risk":3,"frizz_risk":1,"updated_at":"2026-07-11T11:46:13.705152+05:30"},{"city":"Nizamabad","state":"Telangana","latitude":18.6725,"longitude":78.0941,"temp":30.5,"humidity":55,"rain":0.0,"pressure":964.2,"uv_index":8.55,"wind_gusts":46.1,"aqi":72,"pm10":37.4,"pm2_5":15.5,"no2":2.1,"co":118.0,"o3":67.0,"so2":5.5,"mosquito_risk":0,"arthritis_risk":5,"migraine_risk":7,"frizz_risk":1,"updated_at":"2026-07-11T11:46:13.705159+05:30"},{"city":"Mysore","state":"Karnataka","latitude":12.2958,"longitude":76.6396,"temp":27.7,"humidity":62,"rain":0.1,"pressure":930.3,"uv_index":6.0,"wind_gusts":47.2,"aqi":30,"pm10":14.2,"pm2_5":5.7,"no2":1.9,"co":117.0,"o3":65.0,"so2":1.8,"mosquito_risk":10,"arthritis_risk":5,"migraine_risk":3,"frizz_risk":1,"updated_at":"2026-07-11T11:46:13.705165+05:30"},{"city":"Mangalore","state":"Karnataka","latitude":12.9141,"longitude":74.856,"temp":28.1,"humidity":81,"rain":0.0,"pressure":1009.6,"uv_index":8.3,"wind_gusts":46.1,"aqi":52,"pm10":28.2,"pm2_5":11.6,"no2":1.1,"co":94.0,"o3":52.0,"so2":1.6,"mosquito_risk":7,"arthritis_risk":0,"migraine_risk":4,"frizz_risk":1,"updated_at":"2026-07-11T11:46:13.705172+05:30"},{"city":"Hubli-Dharwad","state":"Karnataka","latitude":15.3647,"longitude":75.124,"temp":28.8,"humidity":61,"rain":0.0,"pressure":942.5,"uv_index":7.4,"wind_gusts":53.3,"aqi":33,"pm10":20.7,"pm2_5":8.5,"no2":1.5,"co":100.0,"o3":56.0,"so2":1.3,"mosquito_risk":7,"arthritis_risk":5,"migraine_risk":7,"frizz_risk":1,"updated_at":"2026-07-11T11:46:13.705179+05:30"},{"city":"Belgaum","state":"Karnataka","latitude":15.8497,"longitude":74.4977,"temp":26.6,"humidity":69,"rain":0.0,"pressure":927.4,"uv_index":7.8,"wind_gusts":52.9,"aqi":30,"pm10":22.8,"pm2_5":8.7,"no2":1.2,"co":100.0,"o3":54.0,"so2":1.4,"mosquito_risk":7,"arthritis_risk":5,"migraine_risk":7,"frizz_risk":1,"updated_at":"2026-07-11T11:46:17.095420+05:30"},{"city":"Coimbatore","state":"Tamil Nadu","latitude":11.0168,"longitude":76.9558,"temp":30.9,"humidity":56,"rain":0.0,"pressure":963.2,"uv_index":7.95,"wind_gusts":48.6,"aqi":30,"pm10":12.4,"pm2_5":5.6,"no2":1.4,"co":128.0,"o3":67.0,"so2":2.0,"mosquito_risk":0,"arthritis_risk":5,"migraine_risk":7,"frizz_risk":1,"updated_at":"2026-07-11T11:46:17.095451+05:30"},{"city":"Madurai","state":"Tamil Nadu","latitude":9.9252,"longitude":78.1198,"temp":34.5,"humidity":45,"rain":0.0,"pressure":993.5,"uv_index":8.2,"wind_gusts":26.6,"aqi":55,"pm10":32.7,"pm2_5":13.9,"no2":2.2,"co":147.0,"o3":101.0,"so2":2.9,"mosquito_risk":0,"arthritis_risk":5,"migraine_risk":7,"frizz_risk":1,"updated_at":"2026-07-11T11:46:17.095462+05:30"},{"city":"Trichy","state":"Tamil Nadu","latitude":10.7905,"longitude":78.7047,"temp":35.7,"humidity":43,"rain":0.0,"pressure":999.7,"uv_index":7.85,"wind_gusts":49.0,"aqi":43,"pm10":19.3,"pm2_5":8.4,"no2":1.4,"co":115.0,"o3":74.0,"so2":2.1,"mosquito_risk":0,"arthritis_risk":5,"migraine_risk":10,"frizz_risk":1,"updated_at":"2026-07-11T11:46:17.095471+05:30"},{"city":"Salem","state":"Tamil Nadu","latitude":11.6643,"longitude":78.146,"temp":31.0,"humidity":60,"rain":0.0,"pressure":978.6,"uv_index":7.95,"wind_gusts":32.8,"aqi":57,"pm10":28.6,"pm2_5":14.2,"no2":2.8,"co":167.0,"o3":98.0,"so2":7.8,"mosquito_risk":0,"arthritis_risk":5,"migraine_risk":7,"frizz_risk":1,"updated_at":"2026-07-11T11:46:17.095479+05:30"},{"city":"Tirunelveli","state":"Tamil Nadu","latitude":8.7139,"longitude":77.7567,"temp":36.7,"humidity":39,"rain":0.0,"pressure":1003.6,"uv_index":8.4,"wind_gusts":48.2,"aqi":28,"pm10":5.7,"pm2_5":3.5,"no2":1.1,"co":115.0,"o3":71.0,"so2":1.4,"mosquito_risk":0,"arthritis_risk":5,"migraine_risk":7,"frizz_risk":1,"updated_at":"2026-07-11T11:46:17.095486+05:30"},{"city":"Vellore","state":"Tamil Nadu","latitude":12.9165,"longitude":79.1325,"temp":35.7,"humidity":40,"rain":0.0,"pressure":984.0,"uv_index":8.65,"wind_gusts":41.4,"aqi":52,"pm10":35.3,"pm2_5":14.9,"no2":1.8,"co":151.0,"o3":90.0,"so2":2.7,"mosquito_risk":0,"arthritis_risk":5,"migraine_risk":10,"frizz_risk":1,"updated_at":"2026-07-11T11:46:17.095494+05:30"},{"city":"Erode","state":"Tamil Nadu","latitude":11.341,"longitude":77.7172,"temp":34.8,"humidity":44,"rain":0.0,"pressure":989.8,"uv_index":7.85,"wind_gusts":38.2,"aqi":45,"pm10":21.1,"pm2_5":10.2,"no2":2.1,"co":143.0,"o3":87.0,"so2":2.4,"mosquito_risk":0,"arthritis_risk":5,"migraine_risk":7,"frizz_risk":1,"updated_at":"2026-07-11T11:46:17.095501+05:30"},{"city":"Kochi","state":"Kerala","latitude":9.9312,"longitude":76.2673,"temp":28.6,"humidity":79,"rain":0.0,"pressure":1011.7,"uv_index":7.45,"wind_gusts":38.2,"aqi":50,"pm10":13.2,"pm2_5":6.4,"no2":2.8,"co":110.0,"o3":52.0,"so2":2.2,"mosquito_risk":7,"arthritis_risk":0,"migraine_risk":4,"frizz_risk":1,"updated_at":"2026-07-11T11:46:17.095509+05:30"},{"city":"Thiruvananthapuram","state":"Kerala","latitude":8.5241,"longitude":76.9366,"temp":28.9,"humidity":77,"rain":0.0,"pressure":1010.3,"uv_index":8.0,"wind_gusts":49.3,"aqi":38,"pm10":15.3,"pm2_5":9.0,"no2":1.6,"co":108.0,"o3":76.0,"so2":1.5,"mosquito_risk":7,"arthritis_risk":0,"migraine_risk":4,"frizz_risk":1,"updated_at":"2026-07-11T11:46:17.095515+05:30"},{"city":"Kozhikode","state":"Kerala","latitude":11.2588,"longitude":75.7804,"temp":28.7,"humidity":79,"rain":0.0,"pressure":1010.7,"uv_index":7.5,"wind_gusts":40.3,"aqi":39,"pm10":23.3,"pm2_5":9.3,"no2":0.6,"co":125.0,"o3":56.0,"so2":1.0,"mosquito_risk":7,"arthritis_risk":0,"migraine_risk":4,"frizz_risk":1,"updated_at":"2026-07-11T11:46:17.095522+05:30"},{"city":"Thrissur","state":"Kerala","latitude":10.5276,"longitude":76.2144,"temp":29.0,"humidity":76,"rain":0.1,"pressure":1009.8,"uv_index":7.75,"wind_gusts":39.6,"aqi":53,"pm10":13.2,"pm2_5":6.4,"no2":1.6,"co":101.0,"o3":54.0,"so2":1.4,"mosquito_risk":10,"arthritis_risk":0,"migraine_risk":4,"frizz_risk":1,"updated_at":"2026-07-11T11:46:17.095530+05:30"},{"city":"Kannur","state":"Kerala","latitude":11.8745,"longitude":75.3704,"temp":28.9,"humidity":77,"rain":0.0,"pressure":1010.0,"uv_index":8.2,"wind_gusts":45.0,"aqi":49,"pm10":23.9,"pm2_5":10.1,"no2":1.1,"co":104.0,"o3":58.0,"so2":1.4,"mosquito_risk":7,"arthritis_risk":0,"migraine_risk":4,"frizz_risk":1,"updated_at":"2026-07-11T11:46:17.095537+05:30"},{"city":"Patna","state":"Bihar","latitude":25.5941,"longitude":85.1376,"temp":28.6,"humidity":92,"rain":0.0,"pressure":992.9,"uv_index":6.25,"wind_gusts":34.6,"aqi":93,"pm10":61.5,"pm2_5":32.4,"no2":3.7,"co":217.0,"o3":114.0,"so2":6.3,"mosquito_risk":7,"arthritis_risk":5,"migraine_risk":7,"frizz_risk":1,"updated_at":"2026-07-11T11:46:17.095545+05:30"},{"city":"Gaya","state":"Bihar","latitude":24.7914,"longitude":85.0002,"temp":32.0,"humidity":69,"rain":0.0,"pressure":986.9,"uv_index":7.2,"wind_gusts":45.4,"aqi":98,"pm10":87.1,"pm2_5":43.3,"no2":3.0,"co":182.0,"o3":109.0,"so2":9.4,"mosquito_risk":3,"arthritis_risk":5,"migraine_risk":7,"frizz_risk":1,"updated_at":"2026-07-11T11:46:17.095552+05:30"},{"city":"Muzaffarpur","state":"Bihar","latitude":26.1209,"longitude":85.3647,"temp":31.4,"humidity":72,"rain":0.0,"pressure":992.1,"uv_index":4.85,"wind_gusts":35.3,"aqi":99,"pm10":50.1,"pm2_5":27.1,"no2":3.9,"co":255.0,"o3":118.0,"so2":6.2,"mosquito_risk":3,"arthritis_risk":5,"migraine_risk":3,"frizz_risk":1,"updated_at":"2026-07-11T11:46:17.095558+05:30"},{"city":"Bhagalpur","state":"Bihar","latitude":25.2425,"longitude":87.0117,"temp":32.1,"humidity":71,"rain":0.0,"pressure":993.0,"uv_index":7.25,"wind_gusts":34.6,"aqi":79,"pm10":54.9,"pm2_5":33.5,"no2":5.2,"co":218.0,"o3":122.0,"so2":11.6,"mosquito_risk":3,"arthritis_risk":5,"migraine_risk":7,"frizz_risk":1,"updated_at":"2026-07-11T11:46:17.095565+05:30"},{"city":"Ranchi","state":"Jharkhand","latitude":23.3441,"longitude":85.3096,"temp":29.2,"humidity":64,"rain":0.0,"pressure":932.8,"uv_index":7.55,"wind_gusts":39.6,"aqi":91,"pm10":79.6,"pm2_5":36.1,"no2":1.6,"co":165.0,"o3":114.0,"so2":8.4,"mosquito_risk":7,"arthritis_risk":5,"migraine_risk":7,"frizz_risk":1,"updated_at":"2026-07-11T11:46:17.095572+05:30"},{"city":"Jamshedpur","state":"Jharkhand","latitude":22.8046,"longitude":86.2029,"temp":30.8,"humidity":72,"rain":0.0,"pressure":985.1,"uv_index":8.55,"wind_gusts":34.2,"aqi":101,"pm10":80.8,"pm2_5":45.5,"no2":5.0,"co":223.0,"o3":135.0,"so2":23.0,"mosquito_risk":3,"arthritis_risk":5,"migraine_risk":7,"frizz_risk":1,"updated_at":"2026-07-11T11:46:17.095579+05:30"},{"city":"Dhanbad","state":"Jharkhand","latitude":23.7957,"longitude":86.4304,"temp":31.0,"humidity":70,"rain":0.2,"pressure":973.6,"uv_index":8.3,"wind_gusts":36.4,"aqi":130,"pm10":74.5,"pm2_5":40.9,"no2":8.5,"co":181.0,"o3":123.0,"so2":35.1,"mosquito_risk":6,"arthritis_risk":5,"migraine_risk":7,"frizz_risk":1,"updated_at":"2026-07-11T11:46:17.095586+05:30"},{"city":"Bokaro","state":"Jharkhand","latitude":23.6693,"longitude":86.1511,"temp":29.5,"humidity":80,"rain":0.1,"pressure":977.6,"uv_index":8.1,"wind_gusts":38.5,"aqi":120,"pm10":85.9,"pm2_5":44.9,"no2":9.0,"co":176.0,"o3":123.0,"so2":39.1,"mosquito_risk":10,"arthritis_risk":5,"migraine_risk":7,"frizz_risk":1,"updated_at":"2026-07-11T11:46:17.095593+05:30"},{"city":"Bhubaneswar","state":"Odisha","latitude":20.2961,"longitude":85.8245,"temp":33.3,"humidity":60,"rain":0.0,"pressure":997.6,"uv_index":8.25,"wind_gusts":36.4,"aqi":78,"pm10":70.5,"pm2_5":34.6,"no2":3.5,"co":168.0,"o3":113.0,"so2":8.9,"mosquito_risk":0,"arthritis_risk":5,"migraine_risk":7,"frizz_risk":1,"updated_at":"2026-07-11T11:46:17.095600+05:30"},{"city":"Cuttack","state":"Odisha","latitude":20.4625,"longitude":85.8828,"temp":33.3,"humidity":60,"rain":0.0,"pressure":999.4,"uv_index":8.4,"wind_gusts":36.0,"aqi":78,"pm10":70.5,"pm2_5":34.6,"no2":3.5,"co":208.0,"o3":113.0,"so2":8.9,"mosquito_risk":0,"arthritis_risk":5,"migraine_risk":7,"frizz_risk":1,"updated_at":"2026-07-11T11:46:17.095607+05:30"},{"city":"Rourkela","state":"Odisha","latitude":22.2604,"longitude":84.8536,"temp":29.4,"humidity":74,"rain":0.0,"pressure":980.2,"uv_index":8.1,"wind_gusts":33.5,"aqi":127,"pm10":84.8,"pm2_5":41.3,"no2":3.3,"co":219.0,"o3":117.0,"so2":11.8,"mosquito_risk":7,"arthritis_risk":5,"migraine_risk":7,"frizz_risk":1,"updated_at":"2026-07-11T11:46:17.095614+05:30"},{"city":"Raipur","state":"Chhattisgarh","latitude":21.2514,"longitude":81.6296,"temp":30.9,"humidity":60,"rain":0.0,"pressure":971.3,"uv_index":7.6,"wind_gusts":40.3,"aqi":120,"pm10":76.8,"pm2_5":39.1,"no2":6.5,"co":143.0,"o3":114.0,"so2":26.7,"mosquito_risk":0,"arthritis_risk":5,"migraine_risk":7,"frizz_risk":1,"updated_at":"2026-07-11T11:46:17.095622+05:30"},{"city":"Bhilai","state":"Chhattisgarh","latitude":21.1938,"longitude":81.3509,"temp":31.1,"humidity":57,"rain":0.0,"pressure":971.7,"uv_index":7.4,"wind_gusts":42.8,"aqi":113,"pm10":65.9,"pm2_5":33.5,"no2":5.9,"co":290.0,"o3":107.0,"so2":22.0,"mosquito_risk":0,"arthritis_risk":5,"migraine_risk":7,"frizz_risk":1,"updated_at":"2026-07-11T11:46:17.095628+05:30"},{"city":"Guwahati","state":"Assam","latitude":26.1158,"longitude":91.7086,"temp":28.3,"humidity":91,"rain":0.1,"pressure":993.0,"uv_index":8.55,"wind_gusts":25.2,"aqi":44,"pm10":9.1,"pm2_5":9.0,"no2":2.5,"co":267.0,"o3":108.0,"so2":2.5,"mosquito_risk":10,"arthritis_risk":5,"migraine_risk":7,"frizz_risk":1,"updated_at":"2026-07-11T11:46:17.095635+05:30"},{"city":"Agartala","state":"Tripura","latitude":23.8315,"longitude":91.2868,"temp":28.4,"humidity":91,"rain":0.0,"pressure":998.8,"uv_index":7.8,"wind_gusts":36.4,"aqi":59,"pm10":26.8,"pm2_5":22.3,"no2":3.9,"co":246.0,"o3":116.0,"so2":6.4,"mosquito_risk":7,"arthritis_risk":5,"migraine_risk":7,"frizz_risk":1,"updated_at":"2026-07-11T11:46:17.095642+05:30"},{"city":"Shillong","state":"Meghalaya","latitude":25.5788,"longitude":91.8933,"temp":24.6,"humidity":74,"rain":0.1,"pressure":852.8,"uv_index":3.95,"wind_gusts":24.5,"aqi":34,"pm10":6.3,"pm2_5":6.0,"no2":2.1,"co":215.0,"o3":109.0,"so2":5.3,"mosquito_risk":6,"arthritis_risk":5,"migraine_risk":3,"frizz_risk":1,"updated_at":"2026-07-11T11:46:17.095649+05:30"},{"city":"Imphal","state":"Manipur","latitude":24.817,"longitude":93.9368,"temp":28.5,"humidity":75,"rain":0.1,"pressure":917.1,"uv_index":8.5,"wind_gusts":29.5,"aqi":34,"pm10":3.8,"pm2_5":3.6,"no2":0.9,"co":215.0,"o3":99.0,"so2":2.7,"mosquito_risk":10,"arthritis_risk":5,"migraine_risk":7,"frizz_risk":1,"updated_at":"2026-07-11T11:46:17.095676+05:30"},{"city":"Aizawl","state":"Mizoram","latitude":23.7271,"longitude":92.7176,"temp":24.3,"humidity":74,"rain":0.1,"pressure":887.8,"uv_index":8.5,"wind_gusts":43.6,"aqi":33,"pm10":1.9,"pm2_5":1.6,"no2":0.7,"co":143.0,"o3":94.0,"so2":2.0,"mosquito_risk":6,"arthritis_risk":5,"migraine_risk":7,"frizz_risk":1,"updated_at":"2026-07-11T11:46:17.095685+05:30"},{"city":"Kohima","state":"Nagaland","latitude":25.6701,"longitude":94.1077,"temp":22.5,"humidity":97,"rain":0.4,"pressure":850.6,"uv_index":6.4,"wind_gusts":26.6,"aqi":33,"pm10":3.5,"pm2_5":3.3,"no2":0.7,"co":166.0,"o3":97.0,"so2":2.4,"mosquito_risk":6,"arthritis_risk":5,"migraine_risk":7,"frizz_risk":1,"updated_at":"2026-07-11T11:46:17.095692+05:30"},{"city":"Gangtok","state":"Sikkim","latitude":27.3314,"longitude":88.6138,"temp":24.0,"humidity":74,"rain":0.0,"pressure":834.1,"uv_index":8.5,"wind_gusts":28.4,"aqi":44,"pm10":5.4,"pm2_5":5.3,"no2":2.1,"co":234.0,"o3":107.0,"so2":1.8,"mosquito_risk":3,"arthritis_risk":5,"migraine_risk":7,"frizz_risk":1,"updated_at":"2026-07-11T11:46:17.095699+05:30"},{"city":"Siliguri","state":"West Bengal","latitude":26.7271,"longitude":88.3953,"temp":29.1,"humidity":86,"rain":0.1,"pressure":984.8,"uv_index":5.0,"wind_gusts":19.4,"aqi":98,"pm10":19.3,"pm2_5":18.8,"no2":2.8,"co":346.0,"o3":123.0,"so2":4.4,"mosquito_risk":10,"arthritis_risk":5,"migraine_risk":3,"frizz_risk":1,"updated_at":"2026-07-11T11:46:20.486724+05:30"},{"city":"Durgapur","state":"West Bengal","latitude":23.5204,"longitude":87.3119,"temp":32.1,"humidity":66,"rain":0.0,"pressure":988.0,"uv_index":6.75,"wind_gusts":39.6,"aqi":133,"pm10":72.9,"pm2_5":49.7,"no2":17.0,"co":720.0,"o3":124.0,"so2":51.7,"mosquito_risk":3,"arthritis_risk":5,"migraine_risk":7,"frizz_risk":1,"updated_at":"2026-07-11T11:46:20.486759+05:30"},{"city":"Asansol","state":"West Bengal","latitude":23.6739,"longitude":86.9524,"temp":32.4,"humidity":63,"rain":0.0,"pressure":986.7,"uv_index":7.3,"wind_gusts":38.9,"aqi":120,"pm10":69.8,"pm2_5":41.3,"no2":11.8,"co":241.0,"o3":119.0,"so2":37.6,"mosquito_risk":3,"arthritis_risk":5,"migraine_risk":7,"frizz_risk":1,"updated_at":"2026-07-11T11:46:20.486770+05:30"},{"city":"Pondicherry","state":"Puducherry","latitude":11.9139,"longitude":79.8145,"temp":35.1,"humidity":47,"rain":0.0,"pressure":1007.7,"uv_index":8.15,"wind_gusts":41.4,"aqi":65,"pm10":40.5,"pm2_5":23.7,"no2":3.9,"co":164.0,"o3":120.0,"so2":9.4,"mosquito_risk":0,"arthritis_risk":5,"migraine_risk":7,"frizz_risk":1,"updated_at":"2026-07-11T11:46:20.486779+05:30"},{"city":"Port Blair","state":"Andaman and Nicobar Islands","latitude":11.6234,"longitude":92.7265,"temp":30.1,"humidity":73,"rain":0.0,"pressure":1006.9,"uv_index":8.8,"wind_gusts":57.6,"aqi":37,"pm10":20.3,"pm2_5":9.6,"no2":0.2,"co":85.0,"o3":44.0,"so2":0.4,"mosquito_risk":3,"arthritis_risk":5,"migraine_risk":4,"frizz_risk":1,"updated_at":"2026-07-11T11:46:20.486786+05:30"},{"city":"Haridwar","state":"Uttarakhand","latitude":29.9457,"longitude":78.1642,"temp":31.3,"humidity":67,"rain":0.1,"pressure":966.3,"uv_index":7.5,"wind_gusts":28.4,"aqi":63,"pm10":10.6,"pm2_5":9.8,"no2":1.6,"co":275.0,"o3":147.0,"so2":4.1,"mosquito_risk":6,"arthritis_risk":5,"migraine_risk":7,"frizz_risk":1,"updated_at":"2026-07-11T11:46:20.486794+05:30"},{"city":"Rishikesh","state":"Uttarakhand","latitude":30.0869,"longitude":78.2676,"temp":29.9,"humidity":71,"rain":0.0,"pressure":959.3,"uv_index":7.15,"wind_gusts":23.4,"aqi":45,"pm10":4.5,"pm2_5":4.3,"no2":1.1,"co":254.0,"o3":131.0,"so2":3.6,"mosquito_risk":7,"arthritis_risk":5,"migraine_risk":7,"frizz_risk":1,"updated_at":"2026-07-11T11:46:20.486802+05:30"},{"city":"Nainital","state":"Uttarakhand","latitude":29.3919,"longitude":79.4542,"temp":22.8,"humidity":73,"rain":0.0,"pressure":802.8,"uv_index":3.75,"wind_gusts":23.4,"aqi":44,"pm10":11.1,"pm2_5":8.8,"no2":1.6,"co":241.0,"o3":137.0,"so2":3.3,"mosquito_risk":3,"arthritis_risk":5,"migraine_risk":3,"frizz_risk":1,"updated_at":"2026-07-11T11:46:20.486810+05:30"},{"city":"Mussoorie","state":"Uttarakhand","latitude":30.4599,"longitude":78.0664,"temp":21.4,"humidity":81,"rain":0.1,"pressure":799.6,"uv_index":7.85,"wind_gusts":29.5,"aqi":50,"pm10":8.9,"pm2_5":8.3,"no2":1.5,"co":246.0,"o3":141.0,"so2":2.5,"mosquito_risk":6,"arthritis_risk":5,"migraine_risk":7,"frizz_risk":1,"updated_at":"2026-07-11T11:46:20.486818+05:30"},{"city":"Dharamshala","state":"Himachal Pradesh","latitude":32.219,"longitude":76.3234,"temp":24.9,"humidity":76,"rain":0.0,"pressure":864.1,"uv_index":8.4,"wind_gusts":34.9,"aqi":46,"pm10":10.6,"pm2_5":8.6,"no2":1.0,"co":306.0,"o3":144.0,"so2":1.9,"mosquito_risk":3,"arthritis_risk":5,"migraine_risk":7,"frizz_risk":1,"updated_at":"2026-07-11T11:46:20.486826+05:30"},{"city":"Dalhousie","state":"Himachal Pradesh","latitude":32.5387,"longitude":75.971,"temp":22.1,"humidity":81,"rain":0.1,"pressure":801.6,"uv_index":8.6,"wind_gusts":25.9,"aqi":94,"pm10":31.3,"pm2_5":23.8,"no2":2.0,"co":364.0,"o3":182.0,"so2":3.8,"mosquito_risk":6,"arthritis_risk":5,"migraine_risk":7,"frizz_risk":1,"updated_at":"2026-07-11T11:46:20.486833+05:30"},{"city":"Patiala","state":"Punjab","latitude":30.3398,"longitude":76.3869,"temp":31.7,"humidity":67,"rain":0.0,"pressure":969.9,"uv_index":7.5,"wind_gusts":30.6,"aqi":122,"pm10":120.1,"pm2_5":47.3,"no2":4.4,"co":317.0,"o3":136.0,"so2":10.1,"mosquito_risk":3,"arthritis_risk":5,"migraine_risk":7,"frizz_risk":1,"updated_at":"2026-07-11T11:46:20.486840+05:30"},{"city":"Bhatinda","state":"Punjab","latitude":30.211,"longitude":74.9455,"temp":35.4,"humidity":52,"rain":0.0,"pressure":974.7,"uv_index":8.25,"wind_gusts":24.8,"aqi":165,"pm10":389.3,"pm2_5":112.2,"no2":3.8,"co":183.0,"o3":143.0,"so2":11.8,"mosquito_risk":0,"arthritis_risk":5,"migraine_risk":10,"frizz_risk":1,"updated_at":"2026-07-11T11:46:20.486846+05:30"},{"city":"Rohtak","state":"Haryana","latitude":28.8955,"longitude":76.6066,"temp":34.3,"humidity":56,"rain":0.0,"pressure":973.8,"uv_index":7.65,"wind_gusts":28.4,"aqi":441,"pm10":879.2,"pm2_5":144.4,"no2":2.5,"co":164.0,"o3":121.0,"so2":4.2,"mosquito_risk":0,"arthritis_risk":5,"migraine_risk":7,"frizz_risk":1,"updated_at":"2026-07-11T11:46:20.486853+05:30"},{"city":"Panipat","state":"Haryana","latitude":29.3909,"longitude":76.9635,"temp":32.9,"humidity":65,"rain":0.0,"pressure":972.5,"uv_index":7.55,"wind_gusts":23.0,"aqi":504,"pm10":1095.2,"pm2_5":165.3,"no2":6.8,"co":268.0,"o3":149.0,"so2":24.4,"mosquito_risk":3,"arthritis_risk":5,"migraine_risk":7,"frizz_risk":1,"updated_at":"2026-07-11T11:46:20.486860+05:30"},{"city":"Mathura","state":"Uttar Pradesh","latitude":27.4924,"longitude":77.6737,"temp":34.4,"humidity":55,"rain":0.0,"pressure":979.2,"uv_index":7.85,"wind_gusts":30.6,"aqi":257,"pm10":1121.3,"pm2_5":152.7,"no2":2.3,"co":152.0,"o3":108.0,"so2":3.7,"mosquito_risk":0,"arthritis_risk":5,"migraine_risk":7,"frizz_risk":1,"updated_at":"2026-07-11T11:46:20.486868+05:30"},{"city":"Vrindavan","state":"Uttar Pradesh","latitude":27.5823,"longitude":77.7027,"temp":34.7,"humidity":54,"rain":0.0,"pressure":979.6,"uv_index":7.9,"wind_gusts":30.6,"aqi":257,"pm10":1121.3,"pm2_5":152.7,"no2":2.3,"co":147.0,"o3":108.0,"so2":3.7,"mosquito_risk":0,"arthritis_risk":5,"migraine_risk":7,"frizz_risk":1,"updated_at":"2026-07-11T11:46:20.486874+05:30"},{"city":"Ayodhya","state":"Uttar Pradesh","latitude":26.7922,"longitude":82.1998,"temp":32.6,"humidity":67,"rain":0.0,"pressure":987.1,"uv_index":6.95,"wind_gusts":35.6,"aqi":123,"pm10":160.2,"pm2_5":58.2,"no2":2.1,"co":245.0,"o3":126.0,"so2":6.1,"mosquito_risk":3,"arthritis_risk":5,"migraine_risk":7,"frizz_risk":1,"updated_at":"2026-07-11T11:46:20.486881+05:30"},{"city":"Ratlam","state":"Madhya Pradesh","latitude":23.3315,"longitude":75.0367,"temp":29.9,"humidity":58,"rain":0.0,"pressure":951.6,"uv_index":5.6,"wind_gusts":55.4,"aqi":72,"pm10":52.9,"pm2_5":19.8,"no2":1.3,"co":108.0,"o3":71.0,"so2":3.7,"mosquito_risk":4,"arthritis_risk":5,"migraine_risk":3,"frizz_risk":1,"updated_at":"2026-07-11T11:46:20.486889+05:30"},{"city":"Sagar","state":"Madhya Pradesh","latitude":23.8388,"longitude":78.7378,"temp":30.7,"humidity":59,"rain":0.0,"pressure":946.4,"uv_index":7.9,"wind_gusts":47.9,"aqi":88,"pm10":65.9,"pm2_5":26.0,"no2":1.2,"co":135.0,"o3":89.0,"so2":5.5,"mosquito_risk":0,"arthritis_risk":5,"migraine_risk":7,"frizz_risk":1,"updated_at":"2026-07-11T11:46:20.486895+05:30"},{"city":"Satna","state":"Madhya Pradesh","latitude":24.6005,"longitude":80.8322,"temp":32.9,"humidity":55,"rain":0.0,"pressure":965.9,"uv_index":8.15,"wind_gusts":45.4,"aqi":102,"pm10":61.7,"pm2_5":34.2,"no2":1.2,"co":141.0,"o3":112.0,"so2":5.7,"mosquito_risk":0,"arthritis_risk":5,"migraine_risk":7,"frizz_risk":1,"updated_at":"2026-07-11T11:46:20.486902+05:30"},{"city":"Akola","state":"Maharashtra","latitude":20.7002,"longitude":77.0082,"temp":31.3,"humidity":54,"rain":0.0,"pressure":973.8,"uv_index":8.75,"wind_gusts":51.8,"aqi":68,"pm10":40.3,"pm2_5":15.7,"no2":2.1,"co":108.0,"o3":69.0,"so2":6.9,"mosquito_risk":0,"arthritis_risk":5,"migraine_risk":7,"frizz_risk":1,"updated_at":"2026-07-11T11:46:20.486909+05:30"},{"city":"Amravati","state":"Maharashtra","latitude":20.9374,"longitude":77.7796,"temp":29.8,"humidity":60,"rain":0.0,"pressure":966.0,"uv_index":8.2,"wind_gusts":52.2,"aqi":70,"pm10":43.3,"pm2_5":17.4,"no2":2.6,"co":111.0,"o3":68.0,"so2":8.5,"mosquito_risk":4,"arthritis_risk":5,"migraine_risk":7,"frizz_risk":1,"updated_at":"2026-07-11T11:46:20.486917+05:30"},{"city":"Latur","state":"Maharashtra","latitude":18.4088,"longitude":76.5604,"temp":30.0,"humidity":56,"rain":0.0,"pressure":939.9,"uv_index":8.6,"wind_gusts":45.4,"aqi":52,"pm10":43.5,"pm2_5":13.6,"no2":0.9,"co":105.0,"o3":65.0,"so2":1.9,"mosquito_risk":4,"arthritis_risk":5,"migraine_risk":7,"frizz_risk":1,"updated_at":"2026-07-11T11:46:20.486924+05:30"},{"city":"Nanded","state":"Maharashtra","latitude":19.1383,"longitude":77.3091,"temp":30.7,"humidity":55,"rain":0.0,"pressure":968.0,"uv_index":8.2,"wind_gusts":46.1,"aqi":62,"pm10":36.4,"pm2_5":14.2,"no2":1.7,"co":113.0,"o3":65.0,"so2":3.3,"mosquito_risk":0,"arthritis_risk":5,"migraine_risk":7,"frizz_risk":1,"updated_at":"2026-07-11T11:46:20.486930+05:30"},{"city":"Gulbarga","state":"Karnataka","latitude":17.3297,"longitude":76.8343,"temp":30.8,"humidity":55,"rain":0.0,"pressure":959.0,"uv_index":7.75,"wind_gusts":50.8,"aqi":54,"pm10":32.4,"pm2_5":11.8,"no2":1.6,"co":110.0,"o3":67.0,"so2":2.2,"mosquito_risk":0,"arthritis_risk":5,"migraine_risk":7,"frizz_risk":1,"updated_at":"2026-07-11T11:46:20.486937+05:30"},{"city":"Bidar","state":"Karnataka","latitude":17.9104,"longitude":77.5199,"temp":30.0,"humidity":57,"rain":0.0,"pressure":935.6,"uv_index":6.2,"wind_gusts":46.4,"aqi":60,"pm10":34.5,"pm2_5":12.2,"no2":1.5,"co":110.0,"o3":69.0,"so2":1.8,"mosquito_risk":4,"arthritis_risk":5,"migraine_risk":7,"frizz_risk":1,"updated_at":"2026-07-11T11:46:20.486944+05:30"},{"city":"Hospet","state":"Karnataka","latitude":15.2689,"longitude":76.3909,"temp":31.7,"humidity":46,"rain":0.0,"pressure":956.9,"uv_index":8.3,"wind_gusts":51.8,"aqi":41,"pm10":28.3,"pm2_5":10.8,"no2":1.9,"co":108.0,"o3":57.0,"so2":1.9,"mosquito_risk":0,"arthritis_risk":5,"migraine_risk":7,"frizz_risk":1,"updated_at":"2026-07-11T11:46:20.486951+05:30"},{"city":"Tirupur","state":"Tamil Nadu","latitude":11.1085,"longitude":77.3411,"temp":33.1,"humidity":47,"rain":0.0,"pressure":976.7,"uv_index":8.05,"wind_gusts":54.0,"aqi":50,"pm10":19.6,"pm2_5":9.7,"no2":2.1,"co":145.0,"o3":85.0,"so2":2.8,"mosquito_risk":0,"arthritis_risk":5,"migraine_risk":7,"frizz_risk":1,"updated_at":"2026-07-11T11:46:20.486957+05:30"},{"city":"Alappuzha","state":"Kerala","latitude":9.4981,"longitude":76.3388,"temp":28.6,"humidity":79,"rain":0.0,"pressure":1011.7,"uv_index":8.0,"wind_gusts":39.6,"aqi":46,"pm10":15.3,"pm2_5":8.1,"no2":2.4,"co":86.0,"o3":64.0,"so2":2.3,"mosquito_risk":7,"arthritis_risk":0,"migraine_risk":4,"frizz_risk":1,"updated_at":"2026-07-11T11:46:20.486964+05:30"},{"city":"Munnar","state":"Kerala","latitude":10.0889,"longitude":77.0595,"temp":19.6,"humidity":88,"rain":0.2,"pressure":859.3,"uv_index":8.15,"wind_gusts":38.2,"aqi":20,"pm10":4.8,"pm2_5":2.5,"no2":1.1,"co":92.0,"o3":54.0,"so2":1.3,"mosquito_risk":6,"arthritis_risk":10,"migraine_risk":7,"frizz_risk":1,"updated_at":"2026-07-11T11:46:20.486972+05:30"},{"city":"Silchar","state":"Assam","latitude":24.8333,"longitude":92.7789,"temp":31.2,"humidity":73,"rain":0.0,"pressure":997.2,"uv_index":7.95,"wind_gusts":30.2,"aqi":33,"pm10":9.2,"pm2_5":7.6,"no2":1.3,"co":213.0,"o3":100.0,"so2":4.7,"mosquito_risk":3,"arthritis_risk":5,"migraine_risk":7,"frizz_risk":1,"updated_at":"2026-07-11T11:46:20.486980+05:30"},{"city":"Dibrugarh","state":"Assam","latitude":27.4728,"longitude":94.912,"temp":32.0,"humidity":70,"rain":0.0,"pressure":986.5,"uv_index":6.55,"wind_gusts":30.2,"aqi":52,"pm10":6.4,"pm2_5":5.9,"no2":1.3,"co":161.0,"o3":100.0,"so2":1.7,"mosquito_risk":3,"arthritis_risk":5,"migraine_risk":7,"frizz_risk":1,"updated_at":"2026-07-11T11:46:20.486986+05:30"}]