[{"city":"Delhi","state":"Delhi","latitude":28.6139,"longitude":77.209,"temp":29.4,"humidity":80,"rain":0.0,"pressure":974.6,"uv_index":6.7,"wind_gusts":38.5,"aqi":360,"pm10":247.7,"pm2_5":96.6,"no2":40.8,"co":534.0,"o3":30.0,"so2":14.6,"mosquito_risk":7,"arthritis_risk":5,"migraine_risk":7,"frizz_risk":1,"updated_at":"2026-07-14T01:47:23.704532+05:30"},{"city":"Mumbai","state":"Maharashtra","latitude":19.076,"longitude":72.8777,"temp":27.7,"humidity":82,"rain":0.0,"pressure":1006.8,"uv_index":7.75,"wind_gusts":45.0,"aqi":59,"pm10":29.0,"pm2_5":15.1,"no2":4.2,"co":128.0,"o3":47.0,"so2":3.9,"mosquito_risk":7,"arthritis_risk":5,"migraine_risk":4,"frizz_risk":1,"updated_at":"2026-07-14T01:47:23.704578+05:30"},{"city":"Bangalore","state":"Karnataka","latitude":12.9716,"longitude":77.5946,"temp":21.5,"humidity":81,"rain":0.0,"pressure":910.5,"uv_index":8.45,"wind_gusts":42.1,"aqi":56,"pm10":10.1,"pm2_5":7.6,"no2":12.0,"co":221.0,"o3":38.0,"so2":4.4,"mosquito_risk":3,"arthritis_risk":5,"migraine_risk":7,"frizz_risk":1,"updated_at":"2026-07-14T01:47:23.704594+05:30"},{"city":"Hyderabad","state":"Telangana","latitude":17.385,"longitude":78.4867,"temp":28.2,"humidity":57,"rain":0.0,"pressure":949.6,"uv_index":8.7,"wind_gusts":45.4,"aqi":57,"pm10":13.9,"pm2_5":10.7,"no2":8.0,"co":190.0,"o3":54.0,"so2":4.5,"mosquito_risk":4,"arthritis_risk":5,"migraine_risk":7,"frizz_risk":1,"updated_at":"2026-07-14T01:47:23.704603+05:30"},{"city":"Chennai","state":"Tamil Nadu","latitude":13.0827,"longitude":80.2707,"temp":30.0,"humidity":75,"rain":0.0,"pressure":1002.5,"uv_index":8.45,"wind_gusts":35.6,"aqi":76,"pm10":36.4,"pm2_5":22.7,"no2":14.3,"co":240.0,"o3":67.0,"so2":8.8,"mosquito_risk":7,"arthritis_risk":5,"migraine_risk":4,"frizz_risk":1,"updated_at":"2026-07-14T01:47:23.704611+05:30"},{"city":"Kolkata","state":"West Bengal","latitude":22.5726,"longitude":88.3639,"temp":25.9,"humidity":97,"rain":0.3,"pressure":998.8,"uv_index":8.35,"wind_gusts":25.9,"aqi":152,"pm10":61.0,"pm2_5":46.7,"no2":12.4,"co":538.0,"o3":84.0,"so2":11.0,"mosquito_risk":10,"arthritis_risk":5,"migraine_risk":7,"frizz_risk":1,"updated_at":"2026-07-14T01:47:23.704620+05:30"},{"city":"Pune","state":"Maharashtra","latitude":18.5204,"longitude":73.8567,"temp":23.0,"humidity":89,"rain":0.0,"pressure":946.1,"uv_index":8.15,"wind_gusts":50.4,"aqi":46,"pm10":8.5,"pm2_5":5.9,"no2":6.7,"co":119.0,"o3":37.0,"so2":5.6,"mosquito_risk":3,"arthritis_risk":5,"migraine_risk":7,"frizz_risk":1,"updated_at":"2026-07-14T01:47:23.704631+05:30"},{"city":"Ahmedabad","state":"Gujarat","latitude":23.0225,"longitude":72.5714,"temp":28.4,"humidity":71,"rain":0.0,"pressure":998.2,"uv_index":6.85,"wind_gusts":42.5,"aqi":62,"pm10":28.1,"pm2_5":15.5,"no2":6.2,"co":124.0,"o3":39.0,"so2":3.7,"mosquito_risk":7,"arthritis_risk":5,"migraine_risk":7,"frizz_risk":1,"updated_at":"2026-07-14T01:47:23.704638+05:30"},{"city":"Jaipur","state":"Rajasthan","latitude":26.9124,"longitude":75.7873,"temp":29.1,"humidity":63,"rain":0.0,"pressure":952.9,"uv_index":7.85,"wind_gusts":39.2,"aqi":370,"pm10":388.4,"pm2_5":76.6,"no2":12.5,"co":182.0,"o3":47.0,"so2":5.1,"mosquito_risk":7,"arthritis_risk":5,"migraine_risk":7,"frizz_risk":1,"updated_at":"2026-07-14T01:47:23.704644+05:30"},{"city":"Lucknow","state":"Uttar Pradesh","latitude":26.8467,"longitude":80.9462,"temp":29.2,"humidity":71,"rain":0.0,"pressure":985.4,"uv_index":8.2,"wind_gusts":40.3,"aqi":125,"pm10":78.0,"pm2_5":40.3,"no2":12.8,"co":200.0,"o3":60.0,"so2":8.0,"mosquito_risk":7,"arthritis_risk":5,"migraine_risk":7,"frizz_risk":1,"updated_at":"2026-07-14T01:47:23.704655+05:30"},{"city":"Kanpur","state":"Uttar Pradesh","latitude":26.4499,"longitude":80.3319,"temp":29.3,"humidity":73,"rain":0.0,"pressure":983.9,"uv_index":8.0,"wind_gusts":31.7,"aqi":113,"pm10":102.7,"pm2_5":43.1,"no2":12.7,"co":198.0,"o3":62.0,"so2":8.9,"mosquito_risk":7,"arthritis_risk":5,"migraine_risk":7,"frizz_risk":1,"updated_at":"2026-07-14T01:47:23.704661+05:30"},{"city":"Chandigarh","state":"Chandigarh","latitude":30.7333,"longitude":76.7794,"temp":28.1,"humidity":78,"rain":0.0,"pressure":960.4,"uv_index":7.4,"wind_gusts":22.0,"aqi":166,"pm10":195.1,"pm2_5":122.5,"no2":50.5,"co":792.0,"o3":51.0,"so2":20.0,"mosquito_risk":7,"arthritis_risk":5,"migraine_risk":7,"frizz_risk":1,"updated_at":"2026-07-14T01:47:23.704667+05:30"},{"city":"Srinagar","state":"Jammu and Kashmir","latitude":34.0837,"longitude":74.7973,"temp":17.9,"humidity":91,"rain":0.0,"pressure":836.1,"uv_index":8.95,"wind_gusts":23.8,"aqi":79,"pm10":42.6,"pm2_5":38.8,"no2":33.4,"co":983.0,"o3":26.0,"so2":2.7,"mosquito_risk":3,"arthritis_risk":10,"migraine_risk":7,"frizz_risk":1,"updated_at":"2026-07-14T01:47:23.704674+05:30"},{"city":"Jammu","state":"Jammu and Kashmir","latitude":32.7266,"longitude":74.857,"temp":25.1,"humidity":94,"rain":0.0,"pressure":964.4,"uv_index":8.45,"wind_gusts":30.2,"aqi":153,"pm10":103.1,"pm2_5":83.4,"no2":58.5,"co":763.0,"o3":18.0,"so2":7.4,"mosquito_risk":7,"arthritis_risk":5,"migraine_risk":7,"frizz_risk":1,"updated_at":"2026-07-14T01:47:23.704680+05:30"},{"city":"Amritsar","state":"Punjab","latitude":31.634,"longitude":74.8723,"temp":26.8,"humidity":92,"rain":0.0,"pressure":972.2,"uv_index":8.35,"wind_gusts":19.4,"aqi":185,"pm10":232.8,"pm2_5":162.1,"no2":81.1,"co":1137.0,"o3":27.0,"so2":18.1,"mosquito_risk":7,"arthritis_risk":5,"migraine_risk":7,"frizz_risk":1,"updated_at":"2026-07-14T01:47:23.704686+05:30"},{"city":"Ludhiana","state":"Punjab","latitude":30.901,"longitude":75.8573,"temp":28.2,"humidity":90,"rain":0.0,"pressure":970.1,"uv_index":7.9,"wind_gusts":24.8,"aqi":171,"pm10":158.8,"pm2_5":122.5,"no2":52.7,"co":1825.0,"o3":29.0,"so2":10.8,"mosquito_risk":7,"arthritis_risk":5,"migraine_risk":7,"frizz_risk":1,"updated_at":"2026-07-14T01:47:23.704692+05:30"},{"city":"Jalandhar","state":"Punjab","latitude":31.326,"longitude":75.5762,"temp":26.9,"humidity":92,"rain":0.0,"pressure":971.1,"uv_index":8.15,"wind_gusts":18.0,"aqi":174,"pm10":166.2,"pm2_5":128.5,"no2":53.5,"co":1343.0,"o3":26.0,"so2":10.6,"mosquito_risk":7,"arthritis_risk":5,"migraine_risk":7,"frizz_risk":1,"updated_at":"2026-07-14T01:47:23.704700+05:30"},{"city":"Dehradun","state":"Uttarakhand","latitude":30.6284,"longitude":78.0322,"temp":17.7,"humidity":99,"rain":0.0,"pressure":825.8,"uv_index":8.1,"wind_gusts":26.3,"aqi":101,"pm10":114.1,"pm2_5":50.9,"no2":14.7,"co":225.0,"o3":115.0,"so2":5.5,"mosquito_risk":3,"arthritis_risk":10,"migraine_risk":7,"frizz_risk":1,"updated_at":"2026-07-14T01:47:23.704706+05:30"},{"city":"Shimla","state":"Himachal Pradesh","latitude":31.1048,"longitude":77.1734,"temp":15.3,"humidity":94,"rain":0.0,"pressure":779.8,"uv_index":8.1,"wind_gusts":36.7,"aqi":122,"pm10":157.9,"pm2_5":85.0,"no2":13.0,"co":406.0,"o3":124.0,"so2":3.1,"mosquito_risk":3,"arthritis_risk":10,"migraine_risk":7,"frizz_risk":0,"updated_at":"2026-07-14T01:47:23.704713+05:30"},{"city":"Manali","state":"Himachal Pradesh","latitude":32.2396,"longitude":77.1887,"temp":18.1,"humidity":91,"rain":0.0,"pressure":814.9,"uv_index":9.45,"wind_gusts":32.4,"aqi":52,"pm10":14.7,"pm2_5":12.0,"no2":62.3,"co":242.0,"o3":33.0,"so2":0.1,"mosquito_risk":3,"arthritis_risk":10,"migraine_risk":7,"frizz_risk":1,"updated_at":"2026-07-14T01:47:23.704721+05:30"},{"city":"Gurgaon","state":"Haryana","latitude":28.4595,"longitude":77.0266,"temp":29.0,"humidity":82,"rain":0.0,"pressure":973.1,"uv_index":6.7,"wind_gusts":31.3,"aqi":582,"pm10":758.1,"pm2_5":184.9,"no2":28.8,"co":351.0,"o3":37.0,"so2":11.3,"mosquito_risk":7,"arthritis_risk":5,"migraine_risk":7,"frizz_risk":1,"updated_at":"2026-07-14T01:47:23.704729+05:30"},{"city":"Noida","state":"Uttar Pradesh","latitude":28.5355,"longitude":77.391,"temp":29.7,"humidity":80,"rain":0.0,"pressure":976.0,"uv_index":7.2,"wind_gusts":32.0,"aqi":582,"pm10":758.1,"pm2_5":184.9,"no2":28.8,"co":639.0,"o3":37.0,"so2":11.3,"mosquito_risk":7,"arthritis_risk":5,"migraine_risk":7,"frizz_risk":1,"updated_at":"2026-07-14T01:47:23.704735+05:30"},{"city":"Ghaziabad","state":"Uttar Pradesh","latitude":28.6692,"longitude":77.4538,"temp":29.1,"humidity":84,"rain":0.0,"pressure":974.3,"uv_index":7.45,"wind_gusts":26.3,"aqi":275,"pm10":232.4,"pm2_5":98.5,"no2":47.7,"co":755.0,"o3":31.0,"so2":19.0,"mosquito_risk":7,"arthritis_risk":5,"migraine_risk":7,"frizz_risk":1,"updated_at":"2026-07-14T01:47:23.704741+05:30"},{"city":"Faridabad","state":"Haryana","latitude":28.4089,"longitude":77.3178,"temp":29.6,"humidity":80,"rain":0.0,"pressure":975.3,"uv_index":7.25,"wind_gusts":36.7,"aqi":582,"pm10":758.1,"pm2_5":184.9,"no2":28.8,"co":440.0,"o3":37.0,"so2":11.3,"mosquito_risk":7,"arthritis_risk":5,"migraine_risk":7,"frizz_risk":1,"updated_at":"2026-07-14T01:47:23.704747+05:30"},{"city":"Meerut","state":"Uttar Pradesh","latitude":28.9845,"longitude":77.7064,"temp":29.9,"humidity":84,"rain":0.0,"pressure":973.0,"uv_index":7.3,"wind_gusts":25.2,"aqi":275,"pm10":232.4,"pm2_5":98.5,"no2":47.7,"co":649.0,"o3":31.0,"so2":19.0,"mosquito_risk":7,"arthritis_risk":5,"migraine_risk":7,"frizz_risk":1,"updated_at":"2026-07-14T01:47:23.704754+05:30"},{"city":"Agra","state":"Uttar Pradesh","latitude":27.1767,"longitude":78.0081,"temp":30.1,"humidity":63,"rain":0.0,"pressure":979.6,"uv_index":8.0,"wind_gusts":36.0,"aqi":140,"pm10":188.6,"pm2_5":61.7,"no2":16.4,"co":204.0,"o3":48.0,"so2":5.6,"mosquito_risk":3,"arthritis_risk":5,"migraine_risk":7,"frizz_risk":1,"updated_at":"2026-07-14T01:47:23.704760+05:30"},{"city":"Varanasi","state":"Uttar Pradesh","latitude":25.3176,"longitude":82.9739,"temp":29.8,"humidity":73,"rain":0.0,"pressure":989.8,"uv_index":8.5,"wind_gusts":20.9,"aqi":116,"pm10":63.8,"pm2_5":39.6,"no2":16.1,"co":422.0,"o3":51.0,"so2":9.3,"mosquito_risk":7,"arthritis_risk":5,"migraine_risk":7,"frizz_risk":1,"updated_at":"2026-07-14T01:47:23.704766+05:30"},{"city":"Prayagraj","state":"Uttar Pradesh","latitude":25.4358,"longitude":81.8463,"temp":29.7,"humidity":72,"rain":0.0,"pressure":988.4,"uv_index":8.6,"wind_gusts":29.2,"aqi":107,"pm10":60.1,"pm2_5":34.9,"no2":12.6,"co":208.0,"o3":60.0,"so2":8.1,"mosquito_risk":7,"arthritis_risk":5,"migraine_risk":7,"frizz_risk":1,"updated_at":"2026-07-14T01:47:23.704772+05:30"},{"city":"Gorakhpur","state":"Uttar Pradesh","latitude":26.7606,"longitude":83.3732,"temp":26.2,"humidity":97,"rain":0.3,"pressure":990.1,"uv_index":6.9,"wind_gusts":29.5,"aqi":152,"pm10":88.7,"pm2_5":58.0,"no2":19.1,"co":308.0,"o3":62.0,"so2":7.2,"mosquito_risk":10,"arthritis_risk":5,"migraine_risk":7,"frizz_risk":1,"updated_at":"2026-07-14T01:47:23.704778+05:30"},{"city":"Bareilly","state":"Uttar Pradesh","latitude":28.367,"longitude":79.4304,"temp":28.5,"humidity":90,"rain":0.0,"pressure":978.2,"uv_index":7.95,"wind_gusts":26.6,"aqi":176,"pm10":179.7,"pm2_5":73.8,"no2":21.1,"co":298.0,"o3":48.0,"so2":7.7,"mosquito_risk":7,"arthritis_risk":5,"migraine_risk":7,"frizz_risk":1,"updated_at":"2026-07-14T01:47:23.704786+05:30"},{"city":"Aligarh","state":"Uttar Pradesh","latitude":27.8974,"longitude":78.088,"temp":29.7,"humidity":68,"rain":0.0,"pressure":977.2,"uv_index":7.8,"wind_gusts":32.8,"aqi":524,"pm10":810.3,"pm2_5":181.6,"no2":13.8,"co":219.0,"o3":56.0,"so2":5.2,"mosquito_risk":7,"arthritis_risk":5,"migraine_risk":7,"frizz_risk":1,"updated_at":"2026-07-14T01:47:23.704792+05:30"},{"city":"Moradabad","state":"Uttar Pradesh","latitude":28.8386,"longitude":78.7733,"temp":29.1,"humidity":83,"rain":0.0,"pressure":975.1,"uv_index":7.75,"wind_gusts":24.1,"aqi":193,"pm10":238.4,"pm2_5":108.0,"no2":40.0,"co":481.0,"o3":29.0,"so2":11.4,"mosquito_risk":7,"arthritis_risk":5,"migraine_risk":7,"frizz_risk":1,"updated_at":"2026-07-14T01:47:23.704798+05:30"},{"city":"Saharanpur","state":"Uttar Pradesh","latitude":29.9637,"longitude":77.546,"temp":28.3,"humidity":87,"rain":0.0,"pressure":967.6,"uv_index":7.35,"wind_gusts":22.0,"aqi":191,"pm10":344.6,"pm2_5":160.2,"no2":74.3,"co":587.0,"o3":10.0,"so2":21.5,"mosquito_risk":7,"arthritis_risk":5,"migraine_risk":7,"frizz_risk":1,"updated_at":"2026-07-14T01:47:23.704804+05:30"},{"city":"Jhansi","state":"Uttar Pradesh","latitude":25.4484,"longitude":78.5685,"temp":29.7,"humidity":64,"rain":0.0,"pressure":971.1,"uv_index":8.4,"wind_gusts":41.8,"aqi":102,"pm10":46.9,"pm2_5":27.7,"no2":9.1,"co":167.0,"o3":66.0,"so2":9.4,"mosquito_risk":7,"arthritis_risk":5,"migraine_risk":7,"frizz_risk":1,"updated_at":"2026-07-14T01:47:26.992330+05:30"},{"city":"Surat","state":"Gujarat","latitude":21.1702,"longitude":72.8311,"temp":28.1,"humidity":80,"rain":0.0,"pressure":1003.9,"uv_index":7.05,"wind_gusts":53.6,"aqi":65,"pm10":26.5,"pm2_5":16.5,"no2":14.9,"co":238.0,"o3":34.0,"so2":25.8,"mosquito_risk":7,"arthritis_risk":5,"migraine_risk":4,"frizz_risk":1,"updated_at":"2026-07-14T01:47:26.992367+05:30"},{"city":"Vadodara","state":"Gujarat","latitude":22.3072,"longitude":73.1812,"temp":27.7,"humidity":80,"rain":0.0,"pressure":1000.7,"uv_index":8.0,"wind_gusts":46.4,"aqi":59,"pm10":27.4,"pm2_5":16.1,"no2":6.8,"co":115.0,"o3":39.0,"so2":5.0,"mosquito_risk":7,"arthritis_risk":5,"migraine_risk":4,"frizz_risk":1,"updated_at":"2026-07-14T01:47:26.992378+05:30"},{"city":"Rajkot","state":"Gujarat","latitude":22.3039,"longitude":70.8022,"temp":26.9,"humidity":84,"rain":0.0,"pressure":990.4,"uv_index":6.7,"wind_gusts":48.6,"aqi":59,"pm10":22.9,"pm2_5":11.8,"no2":3.7,"co":96.0,"o3":41.0,"so2":3.0,"mosquito_risk":7,"arthritis_risk":5,"migraine_risk":7,"frizz_risk":1,"updated_at":"2026-07-14T01:47:26.992387+05:30"},{"city":"Thane","state":"Maharashtra","latitude":19.2183,"longitude":72.9781,"temp":26.9,"humidity":86,"rain":0.0,"pressure":1006.1,"uv_index":7.45,"wind_gusts":37.8,"aqi":59,"pm10":29.0,"pm2_5":15.1,"no2":4.2,"co":151.0,"o3":47.0,"so2":3.9,"mosquito_risk":7,"arthritis_risk":5,"migraine_risk":4,"frizz_risk":1,"updated_at":"2026-07-14T01:47:26.992394+05:30"},{"city":"Nagpur","state":"Maharashtra","latitude":21.1458,"longitude":79.0882,"temp":27.5,"humidity":72,"rain":0.0,"pressure":968.3,"uv_index":8.55,"wind_gusts":55.1,"aqi":87,"pm10":39.8,"pm2_5":26.3,"no2":15.3,"co":225.0,"o3":38.0,"so2":8.1,"mosquito_risk":7,"arthritis_risk":5,"migraine_risk":7,"frizz_risk":1,"updated_at":"2026-07-14T01:47:26.992401+05:30"},{"city":"Nashik","state":"Maharashtra","latitude":19.9975,"longitude":73.7898,"temp":22.9,"humidity":93,"rain":0.0,"pressure":942.9,"uv_index":6.9,"wind_gusts":55.1,"aqi":49,"pm10":9.1,"pm2_5":6.5,"no2":8.2,"co":134.0,"o3":34.0,"so2":6.0,"mosquito_risk":3,"arthritis_risk":5,"migraine_risk":7,"frizz_risk":1,"updated_at":"2026-07-14T01:47:26.992409+05:30"},{"city":"Aurangabad","state":"Maharashtra","latitude":19.8762,"longitude":75.3433,"temp":23.1,"humidity":86,"rain":0.0,"pressure":941.4,"uv_index":9.0,"wind_gusts":50.8,"aqi":54,"pm10":12.0,"pm2_5":8.9,"no2":10.6,"co":154.0,"o3":38.0,"so2":11.6,"mosquito_risk":3,"arthritis_risk":5,"migraine_risk":7,"frizz_risk":1,"updated_at":"2026-07-14T01:47:26.992432+05:30"},{"city":"Solapur","state":"Maharashtra","latitude":17.6599,"longitude":75.9064,"temp":24.6,"humidity":77,"rain":0.0,"pressure":955.6,"uv_index":8.95,"wind_gusts":41.4,"aqi":49,"pm10":13.6,"pm2_5":9.8,"no2":6.4,"co":142.0,"o3":38.0,"so2":2.6,"mosquito_risk":3,"arthritis_risk":5,"migraine_risk":7,"frizz_risk":1,"updated_at":"2026-07-14T01:47:26.992439+05:30"},{"city":"Kolhapur","state":"Maharashtra","latitude":16.705,"longitude":74.2433,"temp":22.8,"humidity":92,"rain":0.0,"pressure":946.9,"uv_index":8.75,"wind_gusts":49.0,"aqi":45,"pm10":9.6,"pm2_5":6.8,"no2":4.8,"co":126.0,"o3":38.0,"so2":2.5,"mosquito_risk":3,"arthritis_risk":5,"migraine_risk":7,"frizz_risk":1,"updated_at":"2026-07-14T01:47:26.992447+05:30"},{"city":"Goa","state":"Goa","latitude":15.2993,"longitude":74.124,"temp":24.8,"humidity":98,"rain":0.0,"pressure":997.8,"uv_index":8.4,"wind_gusts":35.3,"aqi":59,"pm10":36.0,"pm2_5":25.9,"no2":9.1,"co":327.0,"o3":35.0,"so2":2.2,"mosquito_risk":3,"arthritis_risk":5,"migraine_risk":7,"frizz_risk":1,"updated_at":"2026-07-14T01:47:26.992454+05:30"},{"city":"Jodhpur","state":"Rajasthan","latitude":26.2389,"longitude":73.0243,"temp":30.4,"humidity":58,"rain":0.0,"pressure":976.5,"uv_index":8.4,"wind_gusts":51.1,"aqi":190,"pm10":441.4,"pm2_5":99.9,"no2":3.1,"co":101.0,"o3":52.0,"so2":2.6,"mosquito_risk":0,"arthritis_risk":5,"migraine_risk":7,"frizz_risk":1,"updated_at":"2026-07-14T01:47:26.992460+05:30"},{"city":"Udaipur","state":"Rajasthan","latitude":24.5854,"longitude":73.7125,"temp":24.6,"humidity":74,"rain":0.0,"pressure":941.2,"uv_index":7.3,"wind_gusts":47.5,"aqi":68,"pm10":33.4,"pm2_5":17.8,"no2":3.7,"co":99.0,"o3":54.0,"so2":3.3,"mosquito_risk":3,"arthritis_risk":5,"migraine_risk":7,"frizz_risk":1,"updated_at":"2026-07-14T01:47:26.992467+05:30"},{"city":"Kota","state":"Rajasthan","latitude":25.2138,"longitude":75.8648,"temp":28.9,"humidity":68,"rain":0.0,"pressure":972.7,"uv_index":8.3,"wind_gusts":38.9,"aqi":90,"pm10":30.9,"pm2_5":20.0,"no2":7.5,"co":162.0,"o3":68.0,"so2":6.8,"mosquito_risk":7,"arthritis_risk":5,"migraine_risk":7,"frizz_risk":1,"updated_at":"2026-07-14T01:47:26.992474+05:30"},{"city":"Bikaner","state":"Rajasthan","latitude":28.0229,"longitude":73.3119,"temp":32.0,"humidity":52,"rain":0.0,"pressure":973.2,"uv_index":8.4,"wind_gusts":40.0,"aqi":163,"pm10":299.0,"pm2_5":80.3,"no2":3.3,"co":112.0,"o3":60.0,"so2":3.9,"mosquito_risk":0,"arthritis_risk":5,"migraine_risk":7,"frizz_risk":1,"updated_at":"2026-07-14T01:47:26.992482+05:30"},{"city":"Ajmer","state":"Rajasthan","latitude":26.4499,"longitude":74.6399,"temp":27.9,"humidity":67,"rain":0.0,"pressure":948.4,"uv_index":7.85,"wind_gusts":56.5,"aqi":99,"pm10":45.1,"pm2_5":22.9,"no2":5.8,"co":123.0,"o3":56.0,"so2":3.6,"mosquito_risk":7,"arthritis_risk":5,"migraine_risk":7,"frizz_risk":1,"updated_at":"2026-07-14T01:47:26.992489+05:30"},{"city":"Gwalior","state":"Madhya Pradesh","latitude":26.2183,"longitude":78.1828,"temp":29.1,"humidity":67,"rain":0.0,"pressure":975.8,"uv_index":8.2,"wind_gusts":42.8,"aqi":106,"pm10":91.0,"pm2_5":44.1,"no2":11.1,"co":148.0,"o3":53.0,"so2":5.6,"mosquito_risk":7,"arthritis_risk":5,"migraine_risk":7,"frizz_risk":1,"updated_at":"2026-07-14T01:47:26.992495+05:30"},{"city":"Indore","state":"Madhya Pradesh","latitude":22.7196,"longitude":75.8577,"temp":24.5,"humidity":87,"rain":0.0,"pressure":944.0,"uv_index":8.25,"wind_gusts":51.1,"aqi":66,"pm10":19.2,"pm2_5":13.1,"no2":7.2,"co":154.0,"o3":45.0,"so2":8.4,"mosquito_risk":3,"arthritis_risk":5,"migraine_risk":7,"frizz_risk":1,"updated_at":"2026-07-14T01:47:26.992501+05:30"},{"city":"Bhopal","state":"Madhya Pradesh","latitude":23.2599,"longitude":77.4126,"temp":25.8,"humidity":78,"rain":0.0,"pressure":948.8,"uv_index":8.6,"wind_gusts":42.8,"aqi":75,"pm10":29.8,"pm2_5":21.2,"no2":7.1,"co":206.0,"o3":64.0,"so2":6.5,"mosquito_risk":7,"arthritis_risk":5,"migraine_risk":7,"frizz_risk":1,"updated_at":"2026-07-14T01:47:26.992508+05:30"},{"city":"Jabalpur","state":"Madhya Pradesh","latitude":23.1815,"longitude":79.9864,"temp":26.7,"humidity":76,"rain":0.0,"pressure":956.1,"uv_index":7.1,"wind_gusts":39.6,"aqi":89,"pm10":46.6,"pm2_5":27.4,"no2":7.3,"co":207.0,"o3":58.0,"so2":4.6,"mosquito_risk":7,"arthritis_risk":5,"migraine_risk":7,"frizz_risk":1,"updated_at":"2026-07-14T01:47:26.992514+05:30"},{"city":"Ujjain","state":"Madhya Pradesh","latitude":23.1765,"longitude":75.7885,"temp":25.3,"humidity":85,"rain":0.0,"pressure":949.6,"uv_index":8.4,"wind_gusts":49.0,"aqi":65,"pm10":20.3,"pm2_5":13.6,"no2":7.3,"co":174.0,"o3":44.0,"so2":9.2,"mosquito_risk":7,"arthritis_risk":5,"migraine_risk":7,"frizz_risk":1,"updated_at":"2026-07-14T01:47:26.992522+05:30"},{"city":"Visakhapatnam","state":"Andhra Pradesh","latitude":17.6868,"longitude":83.2185,"temp":30.0,"humidity":65,"rain":0.0,"pressure":996.6,"uv_index":7.65,"wind_gusts":23.0,"aqi":110,"pm10":57.9,"pm2_5":34.6,"no2":28.7,"co":299.0,"o3":40.0,"so2":41.8,"mosquito_risk":7,"arthritis_risk":5,"migraine_risk":7,"frizz_risk":1,"updated_at":"2026-07-14T01:47:26.992529+05:30"},{"city":"Vijayawada","state":"Andhra Pradesh","latitude":16.5062,"longitude":80.648,"temp":31.2,"humidity":64,"rain":0.0,"pressure":996.7,"uv_index":6.45,"wind_gusts":46.1,"aqi":81,"pm10":39.1,"pm2_5":31.5,"no2":21.5,"co":320.0,"o3":33.0,"so2":8.0,"mosquito_risk":3,"arthritis_risk":5,"migraine_risk":7,"frizz_risk":1,"updated_at":"2026-07-14T01:47:26.992536+05:30"},{"city":"Guntur","state":"Andhra Pradesh","latitude":16.3067,"longitude":80.4365,"temp":32.0,"humidity":54,"rain":0.0,"pressure":998.0,"uv_index":6.55,"wind_gusts":47.2,"aqi":77,"pm10":28.4,"pm2_5":23.8,"no2":18.2,"co":230.0,"o3":40.0,"so2":7.2,"mosquito_risk":0,"arthritis_risk":5,"migraine_risk":7,"frizz_risk":1,"updated_at":"2026-07-14T01:47:26.992543+05:30"},{"city":"Nellore","state":"Andhra Pradesh","latitude":14.4426,"longitude":79.9865,"temp":30.6,"humidity":57,"rain":0.0,"pressure":1001.0,"uv_index":8.8,"wind_gusts":46.8,"aqi":71,"pm10":28.9,"pm2_5":20.4,"no2":12.0,"co":144.0,"o3":54.0,"so2":6.5,"mosquito_risk":0,"arthritis_risk":5,"migraine_risk":4,"frizz_risk":1,"updated_at":"2026-07-14T01:47:26.992550+05:30"},{"city":"Kurnool","state":"Andhra Pradesh","latitude":15.8281,"longitude":78.0373,"temp":29.0,"humidity":53,"rain":0.0,"pressure":974.1,"uv_index":7.45,"wind_gusts":42.5,"aqi":56,"pm10":13.6,"pm2_5":9.8,"no2":7.2,"co":140.0,"o3":53.0,"so2":4.3,"mosquito_risk":4,"arthritis_risk":5,"migraine_risk":7,"frizz_risk":1,"updated_at":"2026-07-14T01:47:26.992558+05:30"},{"city":"Kakinada","state":"Andhra Pradesh","latitude":16.9891,"longitude":82.2475,"temp":29.8,"humidity":67,"rain":0.0,"pressure":1000.8,"uv_index":8.45,"wind_gusts":48.2,"aqi":82,"pm10":48.8,"pm2_5":27.9,"no2":11.2,"co":225.0,"o3":57.0,"so2":7.0,"mosquito_risk":7,"arthritis_risk":5,"migraine_risk":4,"frizz_risk":1,"updated_at":"2026-07-14T01:47:26.992564+05:30"},{"city":"Tirupati","state":"Andhra Pradesh","latitude":13.6288,"longitude":79.4192,"temp":30.2,"humidity":48,"rain":0.0,"pressure":987.2,"uv_index":8.55,"wind_gusts":38.9,"aqi":84,"pm10":29.6,"pm2_5":20.8,"no2":22.3,"co":121.0,"o3":35.0,"so2":2.7,"mosquito_risk":0,"arthritis_risk":5,"migraine_risk":7,"frizz_risk":1,"updated_at":"2026-07-14T01:47:26.992571+05:30"},{"city":"Warangal","state":"Telangana","latitude":17.9689,"longitude":79.5941,"temp":28.7,"humidity":68,"rain":0.0,"pressure":973.8,"uv_index":7.7,"wind_gusts":40.0,"aqi":69,"pm10":21.1,"pm2_5":17.4,"no2":10.7,"co":228.0,"o3":51.0,"so2":4.5,"mosquito_risk":7,"arthritis_risk":5,"migraine_risk":7,"frizz_risk":1,"updated_at":"2026-07-14T01:47:26.992577+05:30"},{"city":"Nizamabad","state":"Telangana","latitude":18.6725,"longitude":78.0941,"temp":27.9,"humidity":65,"rain":0.0,"pressure":961.2,"uv_index":8.6,"wind_gusts":42.1,"aqi":59,"pm10":19.2,"pm2_5":14.8,"no2":7.4,"co":158.0,"o3":63.0,"so2":7.0,"mosquito_risk":7,"arthritis_risk":5,"migraine_risk":7,"frizz_risk":1,"updated_at":"2026-07-14T01:47:26.992583+05:30"},{"city":"Mysore","state":"Karnataka","latitude":12.2958,"longitude":76.6396,"temp":20.6,"humidity":95,"rain":0.0,"pressure":927.5,"uv_index":8.3,"wind_gusts":42.1,"aqi":51,"pm10":11.4,"pm2_5":8.7,"no2":11.1,"co":156.0,"o3":32.0,"so2":2.7,"mosquito_risk":3,"arthritis_risk":5,"migraine_risk":7,"frizz_risk":1,"updated_at":"2026-07-14T01:47:26.992589+05:30"},{"city":"Mangalore","state":"Karnataka","latitude":12.9141,"longitude":74.856,"temp":26.2,"humidity":87,"rain":0.0,"pressure":1006.9,"uv_index":8.0,"wind_gusts":37.8,"aqi":56,"pm10":19.9,"pm2_5":13.2,"no2":8.0,"co":177.0,"o3":30.0,"so2":2.8,"mosquito_risk":7,"arthritis_risk":5,"migraine_risk":4,"frizz_risk":1,"updated_at":"2026-07-14T01:47:26.992596+05:30"},{"city":"Hubli-Dharwad","state":"Karnataka","latitude":15.3647,"longitude":75.124,"temp":21.1,"humidity":98,"rain":0.0,"pressure":939.9,"uv_index":8.5,"wind_gusts":52.2,"aqi":42,"pm10":10.3,"pm2_5":6.9,"no2":5.2,"co":131.0,"o3":37.0,"so2":2.0,"mosquito_risk":3,"arthritis_risk":5,"migraine_risk":7,"frizz_risk":1,"updated_at":"2026-07-14T01:47:26.992603+05:30"},{"city":"Belgaum","state":"Karnataka","latitude":15.8497,"longitude":74.4977,"temp":20.6,"humidity":98,"rain":0.0,"pressure":924.5,"uv_index":8.7,"wind_gusts":45.7,"aqi":40,"pm10":9.2,"pm2_5":6.2,"no2":4.3,"co":103.0,"o3":38.0,"so2":1.9,"mosquito_risk":3,"arthritis_risk":5,"migraine_risk":7,"frizz_risk":1,"updated_at":"2026-07-14T01:47:30.297433+05:30"},{"city":"Coimbatore","state":"Tamil Nadu","latitude":11.0168,"longitude":76.9558,"temp":24.1,"humidity":93,"rain":0.0,"pressure":960.5,"uv_index":8.9,"wind_gusts":54.4,"aqi":52,"pm10":12.7,"pm2_5":10.3,"no2":10.6,"co":170.0,"o3":25.0,"so2":3.5,"mosquito_risk":3,"arthritis_risk":5,"migraine_risk":7,"frizz_risk":1,"updated_at":"2026-07-14T01:47:30.297470+05:30"},{"city":"Madurai","state":"Tamil Nadu","latitude":9.9252,"longitude":78.1198,"temp":28.4,"humidity":63,"rain":0.0,"pressure":991.1,"uv_index":8.2,"wind_gusts":41.0,"aqi":65,"pm10":24.1,"pm2_5":19.3,"no2":26.5,"co":131.0,"o3":16.0,"so2":6.3,"mosquito_risk":7,"arthritis_risk":5,"migraine_risk":7,"frizz_risk":1,"updated_at":"2026-07-14T01:47:30.297481+05:30"},{"city":"Trichy","state":"Tamil Nadu","latitude":10.7905,"longitude":78.7047,"temp":28.8,"humidity":63,"rain":0.0,"pressure":997.7,"uv_index":8.75,"wind_gusts":46.4,"aqi":64,"pm10":12.6,"pm2_5":9.3,"no2":11.3,"co":116.0,"o3":35.0,"so2":4.0,"mosquito_risk":7,"arthritis_risk":5,"migraine_risk":7,"frizz_risk":1,"updated_at":"2026-07-14T01:47:30.297490+05:30"},{"city":"Salem","state":"Tamil Nadu","latitude":11.6643,"longitude":78.146,"temp":25.4,"humidity":86,"rain":0.0,"pressure":976.0,"uv_index":7.7,"wind_gusts":26.3,"aqi":68,"pm10":20.8,"pm2_5":15.6,"no2":17.2,"co":298.0,"o3":30.0,"so2":6.2,"mosquito_risk":7,"arthritis_risk":5,"migraine_risk":7,"frizz_risk":1,"updated_at":"2026-07-14T01:47:30.297498+05:30"},{"city":"Tirunelveli","state":"Tamil Nadu","latitude":8.7139,"longitude":77.7567,"temp":28.7,"humidity":65,"rain":0.0,"pressure":1001.2,"uv_index":8.45,"wind_gusts":47.2,"aqi":46,"pm10":11.6,"pm2_5":7.7,"no2":6.0,"co":139.0,"o3":37.0,"so2":2.3,"mosquito_risk":7,"arthritis_risk":5,"migraine_risk":4,"frizz_risk":1,"updated_at":"2026-07-14T01:47:30.297506+05:30"},{"city":"Vellore","state":"Tamil Nadu","latitude":12.9165,"longitude":79.1325,"temp":30.2,"humidity":49,"rain":0.0,"pressure":981.3,"uv_index":8.65,"wind_gusts":41.0,"aqi":72,"pm10":18.7,"pm2_5":12.6,"no2":9.9,"co":136.0,"o3":48.0,"so2":4.1,"mosquito_risk":0,"arthritis_risk":5,"migraine_risk":7,"frizz_risk":1,"updated_at":"2026-07-14T01:47:30.297513+05:30"},{"city":"Erode","state":"Tamil Nadu","latitude":11.341,"longitude":77.7172,"temp":26.5,"humidity":78,"rain":0.0,"pressure":987.7,"uv_index":8.25,"wind_gusts":55.1,"aqi":60,"pm10":20.7,"pm2_5":15.1,"no2":16.6,"co":163.0,"o3":26.0,"so2":4.3,"mosquito_risk":7,"arthritis_risk":5,"migraine_risk":7,"frizz_risk":1,"updated_at":"2026-07-14T01:47:30.297520+05:30"},{"city":"Kochi","state":"Kerala","latitude":9.9312,"longitude":76.2673,"temp":27.3,"humidity":87,"rain":0.0,"pressure":1008.9,"uv_index":8.4,"wind_gusts":45.4,"aqi":55,"pm10":19.8,"pm2_5":14.6,"no2":11.9,"co":100.0,"o3":23.0,"so2":3.8,"mosquito_risk":7,"arthritis_risk":0,"migraine_risk":4,"frizz_risk":1,"updated_at":"2026-07-14T01:47:30.297527+05:30"},{"city":"Thiruvananthapuram","state":"Kerala","latitude":8.5241,"longitude":76.9366,"temp":25.6,"humidity":95,"rain":0.1,"pressure":1008.3,"uv_index":8.1,"wind_gusts":52.6,"aqi":52,"pm10":17.9,"pm2_5":10.2,"no2":4.4,"co":120.0,"o3":41.0,"so2":1.9,"mosquito_risk":10,"arthritis_risk":0,"migraine_risk":4,"frizz_risk":1,"updated_at":"2026-07-14T01:47:30.297534+05:30"},{"city":"Kozhikode","state":"Kerala","latitude":11.2588,"longitude":75.7804,"temp":25.4,"humidity":95,"rain":0.0,"pressure":1007.9,"uv_index":8.65,"wind_gusts":46.1,"aqi":52,"pm10":20.9,"pm2_5":10.9,"no2":2.8,"co":178.0,"o3":46.0,"so2":1.7,"mosquito_risk":7,"arthritis_risk":5,"migraine_risk":4,"frizz_risk":1,"updated_at":"2026-07-14T01:47:30.297540+05:30"},{"city":"Thrissur","state":"Kerala","latitude":10.5276,"longitude":76.2144,"temp":26.0,"humidity":91,"rain":0.0,"pressure":1007.2,"uv_index":8.5,"wind_gusts":43.9,"aqi":54,"pm10":20.4,"pm2_5":14.1,"no2":8.8,"co":132.0,"o3":27.0,"so2":3.3,"mosquito_risk":7,"arthritis_risk":5,"migraine_risk":4,"frizz_risk":1,"updated_at":"2026-07-14T01:47:30.297548+05:30"},{"city":"Kannur","state":"Kerala","latitude":11.8745,"longitude":75.3704,"temp":25.7,"humidity":94,"rain":0.0,"pressure":1007.2,"uv_index":8.7,"wind_gusts":45.0,"aqi":52,"pm10":16.8,"pm2_5":10.7,"no2":8.0,"co":194.0,"o3":28.0,"so2":2.5,"mosquito_risk":7,"arthritis_risk":5,"migraine_risk":4,"frizz_risk":1,"updated_at":"2026-07-14T01:47:30.297555+05:30"},{"city":"Patna","state":"Bihar","latitude":25.5941,"longitude":85.1376,"temp":27.1,"humidity":96,"rain":0.1,"pressure":993.7,"uv_index":8.55,"wind_gusts":25.6,"aqi":149,"pm10":75.2,"pm2_5":49.1,"no2":21.3,"co":331.0,"o3":56.0,"so2":9.7,"mosquito_risk":10,"arthritis_risk":5,"migraine_risk":7,"frizz_risk":1,"updated_at":"2026-07-14T01:47:30.297562+05:30"},{"city":"Gaya","state":"Bihar","latitude":24.7914,"longitude":85.0002,"temp":28.6,"humidity":82,"rain":0.0,"pressure":986.6,"uv_index":8.7,"wind_gusts":26.6,"aqi":127,"pm10":80.8,"pm2_5":56.1,"no2":20.8,"co":363.0,"o3":43.0,"so2":8.0,"mosquito_risk":7,"arthritis_risk":5,"migraine_risk":7,"frizz_risk":1,"updated_at":"2026-07-14T01:47:30.297569+05:30"},{"city":"Muzaffarpur","state":"Bihar","latitude":26.1209,"longitude":85.3647,"temp":26.9,"humidity":97,"rain":0.0,"pressure":993.8,"uv_index":8.4,"wind_gusts":29.5,"aqi":150,"pm10":81.7,"pm2_5":54.0,"no2":21.2,"co":456.0,"o3":59.0,"so2":10.5,"mosquito_risk":7,"arthritis_risk":5,"migraine_risk":7,"frizz_risk":1,"updated_at":"2026-07-14T01:47:30.297576+05:30"},{"city":"Bhagalpur","state":"Bihar","latitude":25.2425,"longitude":87.0117,"temp":27.0,"humidity":97,"rain":0.0,"pressure":993.9,"uv_index":8.45,"wind_gusts":24.1,"aqi":150,"pm10":75.9,"pm2_5":58.1,"no2":24.1,"co":295.0,"o3":38.0,"so2":14.8,"mosquito_risk":7,"arthritis_risk":5,"migraine_risk":7,"frizz_risk":1,"updated_at":"2026-07-14T01:47:30.297582+05:30"},{"city":"Ranchi","state":"Jharkhand","latitude":23.3441,"longitude":85.3096,"temp":24.8,"humidity":87,"rain":0.0,"pressure":931.3,"uv_index":7.85,"wind_gusts":33.8,"aqi":126,"pm10":117.1,"pm2_5":67.8,"no2":27.9,"co":475.0,"o3":34.0,"so2":8.7,"mosquito_risk":3,"arthritis_risk":5,"migraine_risk":7,"frizz_risk":1,"updated_at":"2026-07-14T01:47:30.297589+05:30"},{"city":"Jamshedpur","state":"Jharkhand","latitude":22.8046,"longitude":86.2029,"temp":27.0,"humidity":93,"rain":0.0,"pressure":983.9,"uv_index":8.45,"wind_gusts":29.2,"aqi":142,"pm10":111.3,"pm2_5":68.7,"no2":33.4,"co":493.0,"o3":38.0,"so2":39.9,"mosquito_risk":7,"arthritis_risk":5,"migraine_risk":7,"frizz_risk":1,"updated_at":"2026-07-14T01:47:30.297595+05:30"},{"city":"Dhanbad","state":"Jharkhand","latitude":23.7957,"longitude":86.4304,"temp":26.5,"humidity":94,"rain":0.0,"pressure":973.1,"uv_index":6.15,"wind_gusts":26.6,"aqi":159,"pm10":146.2,"pm2_5":116.2,"no2":70.1,"co":1855.0,"o3":7.0,"so2":199.0,"mosquito_risk":7,"arthritis_risk":5,"migraine_risk":7,"frizz_risk":1,"updated_at":"2026-07-14T01:47:30.297602+05:30"},{"city":"Bokaro","state":"Jharkhand","latitude":23.6693,"longitude":86.1511,"temp":26.8,"humidity":95,"rain":0.0,"pressure":976.9,"uv_index":8.5,"wind_gusts":29.9,"aqi":158,"pm10":145.8,"pm2_5":107.8,"no2":51.7,"co":1549.0,"o3":15.0,"so2":157.3,"mosquito_risk":7,"arthritis_risk":5,"migraine_risk":7,"frizz_risk":1,"updated_at":"2026-07-14T01:47:30.297610+05:30"},{"city":"Bhubaneswar","state":"Odisha","latitude":20.2961,"longitude":85.8245,"temp":27.8,"humidity":94,"rain":0.0,"pressure":995.2,"uv_index":1.2,"wind_gusts":30.2,"aqi":127,"pm10":102.4,"pm2_5":73.1,"no2":38.0,"co":368.0,"o3":19.0,"so2":15.6,"mosquito_risk":7,"arthritis_risk":5,"migraine_risk":3,"frizz_risk":1,"updated_at":"2026-07-14T01:47:30.297616+05:30"},{"city":"Cuttack","state":"Odisha","latitude":20.4625,"longitude":85.8828,"temp":27.7,"humidity":90,"rain":0.0,"pressure":997.0,"uv_index":1.35,"wind_gusts":24.8,"aqi":127,"pm10":102.4,"pm2_5":73.1,"no2":38.0,"co":534.0,"o3":19.0,"so2":15.6,"mosquito_risk":7,"arthritis_risk":5,"migraine_risk":3,"frizz_risk":1,"updated_at":"2026-07-14T01:47:30.297623+05:30"},{"city":"Rourkela","state":"Odisha","latitude":22.2604,"longitude":84.8536,"temp":28.5,"humidity":85,"rain":0.0,"pressure":977.7,"uv_index":6.6,"wind_gusts":35.6,"aqi":114,"pm10":93.4,"pm2_5":52.0,"no2":15.4,"co":439.0,"o3":62.0,"so2":16.0,"mosquito_risk":7,"arthritis_risk":5,"migraine_risk":7,"frizz_risk":1,"updated_at":"2026-07-14T01:47:30.297629+05:30"},{"city":"Raipur","state":"Chhattisgarh","latitude":21.2514,"longitude":81.6296,"temp":27.8,"humidity":73,"rain":0.0,"pressure":969.0,"uv_index":8.65,"wind_gusts":30.2,"aqi":119,"pm10":68.7,"pm2_5":41.8,"no2":31.1,"co":384.0,"o3":42.0,"so2":54.0,"mosquito_risk":7,"arthritis_risk":5,"migraine_risk":7,"frizz_risk":1,"updated_at":"2026-07-14T01:47:30.297636+05:30"},{"city":"Bhilai","state":"Chhattisgarh","latitude":21.1938,"longitude":81.3509,"temp":27.6,"humidity":73,"rain":0.0,"pressure":969.5,"uv_index":8.5,"wind_gusts":34.2,"aqi":111,"pm10":65.0,"pm2_5":38.6,"no2":23.8,"co":641.0,"o3":45.0,"so2":39.6,"mosquito_risk":7,"arthritis_risk":5,"migraine_risk":7,"frizz_risk":1,"updated_at":"2026-07-14T01:47:30.297642+05:30"},{"city":"Guwahati","state":"Assam","latitude":26.1158,"longitude":91.7086,"temp":25.5,"humidity":98,"rain":0.0,"pressure":995.0,"uv_index":7.8,"wind_gusts":25.2,"aqi":57,"pm10":6.0,"pm2_5":5.7,"no2":7.8,"co":335.0,"o3":39.0,"so2":1.2,"mosquito_risk":7,"arthritis_risk":5,"migraine_risk":7,"frizz_risk":1,"updated_at":"2026-07-14T01:47:30.297649+05:30"},{"city":"Agartala","state":"Tripura","latitude":23.8315,"longitude":91.2868,"temp":26.0,"humidity":96,"rain":0.0,"pressure":999.0,"uv_index":8.0,"wind_gusts":22.0,"aqi":56,"pm10":7.9,"pm2_5":7.6,"no2":8.1,"co":223.0,"o3":61.0,"so2":3.2,"mosquito_risk":7,"arthritis_risk":5,"migraine_risk":7,"frizz_risk":1,"updated_at":"2026-07-14T01:47:30.297655+05:30"},{"city":"Shillong","state":"Meghalaya","latitude":25.5788,"longitude":91.8933,"temp":19.1,"humidity":97,"rain":0.0,"pressure":852.0,"uv_index":7.9,"wind_gusts":27.4,"aqi":40,"pm10":10.3,"pm2_5":8.4,"no2":6.6,"co":261.0,"o3":62.0,"so2":3.9,"mosquito_risk":3,"arthritis_risk":10,"migraine_risk":7,"frizz_risk":1,"updated_at":"2026-07-14T01:47:30.297661+05:30"},{"city":"Imphal","state":"Manipur","latitude":24.817,"longitude":93.9368,"temp":22.8,"humidity":99,"rain":0.0,"pressure":917.7,"uv_index":9.1,"wind_gusts":25.9,"aqi":53,"pm10":21.9,"pm2_5":21.0,"no2":16.8,"co":387.0,"o3":37.0,"so2":3.7,"mosquito_risk":3,"arthritis_risk":5,"migraine_risk":7,"frizz_risk":1,"updated_at":"2026-07-14T01:47:30.297668+05:30"},{"city":"Aizawl","state":"Mizoram","latitude":23.7271,"longitude":92.7176,"temp":20.0,"humidity":98,"rain":0.0,"pressure":886.4,"uv_index":8.95,"wind_gusts":18.0,"aqi":53,"pm10":7.1,"pm2_5":6.8,"no2":7.6,"co":202.0,"o3":23.0,"so2":0.7,"mosquito_risk":3,"arthritis_risk":5,"migraine_risk":7,"frizz_risk":1,"updated_at":"2026-07-14T01:47:30.297674+05:30"},{"city":"Kohima","state":"Nagaland","latitude":25.6701,"longitude":94.1077,"temp":18.6,"humidity":96,"rain":0.0,"pressure":849.8,"uv_index":8.15,"wind_gusts":25.9,"aqi":33,"pm10":7.7,"pm2_5":7.5,"no2":9.9,"co":225.0,"o3":25.0,"so2":1.0,"mosquito_risk":3,"arthritis_risk":10,"migraine_risk":7,"frizz_risk":1,"updated_at":"2026-07-14T01:47:30.297681+05:30"},{"city":"Gangtok","state":"Sikkim","latitude":27.3314,"longitude":88.6138,"temp":18.7,"humidity":100,"rain":0.0,"pressure":833.8,"uv_index":5.45,"wind_gusts":25.2,"aqi":45,"pm10":5.9,"pm2_5":5.8,"no2":8.1,"co":295.0,"o3":90.0,"so2":1.5,"mosquito_risk":3,"arthritis_risk":10,"migraine_risk":3,"frizz_risk":1,"updated_at":"2026-07-14T01:47:30.297687+05:30"},{"city":"Siliguri","state":"West Bengal","latitude":26.7271,"longitude":88.3953,"temp":25.3,"humidity":97,"rain":1.0,"pressure":986.5,"uv_index":3.9,"wind_gusts":25.2,"aqi":53,"pm10":14.7,"pm2_5":14.3,"no2":16.3,"co":397.0,"o3":76.0,"so2":3.6,"mosquito_risk":10,"arthritis_risk":5,"migraine_risk":3,"frizz_risk":1,"updated_at":"2026-07-14T01:47:33.597240+05:30"},{"city":"Durgapur","state":"West Bengal","latitude":23.5204,"longitude":87.3119,"temp":26.5,"humidity":97,"rain":0.0,"pressure":987.8,"uv_index":5.15,"wind_gusts":28.1,"aqi":153,"pm10":113.9,"pm2_5":90.1,"no2":56.1,"co":1125.0,"o3":12.0,"so2":57.7,"mosquito_risk":7,"arthritis_risk":5,"migraine_risk":3,"frizz_risk":1,"updated_at":"2026-07-14T01:47:33.597277+05:30"},{"city":"Asansol","state":"West Bengal","latitude":23.6739,"longitude":86.9524,"temp":26.8,"humidity":96,"rain":0.0,"pressure":986.4,"uv_index":8.0,"wind_gusts":25.2,"aqi":144,"pm10":103.8,"pm2_5":78.7,"no2":57.5,"co":430.0,"o3":13.0,"so2":64.9,"mosquito_risk":7,"arthritis_risk":5,"migraine_risk":7,"frizz_risk":1,"updated_at":"2026-07-14T01:47:33.597288+05:30"},{"city":"Pondicherry","state":"Puducherry","latitude":11.9139,"longitude":79.8145,"temp":29.2,"humidity":71,"rain":0.0,"pressure":1004.7,"uv_index":8.3,"wind_gusts":42.5,"aqi":70,"pm10":23.1,"pm2_5":14.6,"no2":11.7,"co":187.0,"o3":55.0,"so2":6.7,"mosquito_risk":7,"arthritis_risk":5,"migraine_risk":4,"frizz_risk":1,"updated_at":"2026-07-14T01:47:33.597297+05:30"},{"city":"Port Blair","state":"Andaman and Nicobar Islands","latitude":11.6234,"longitude":92.7265,"temp":26.8,"humidity":85,"rain":0.0,"pressure":1003.4,"uv_index":8.35,"wind_gusts":60.1,"aqi":48,"pm10":24.3,"pm2_5":10.1,"no2":0.1,"co":84.0,"o3":48.0,"so2":0.4,"mosquito_risk":7,"arthritis_risk":5,"migraine_risk":4,"frizz_risk":1,"updated_at":"2026-07-14T01:47:33.597305+05:30"},{"city":"Haridwar","state":"Uttarakhand","latitude":29.9457,"longitude":78.1642,"temp":26.8,"humidity":87,"rain":0.0,"pressure":965.9,"uv_index":7.5,"wind_gusts":20.9,"aqi":190,"pm10":240.3,"pm2_5":121.1,"no2":41.1,"co":371.0,"o3":48.0,"so2":17.0,"mosquito_risk":7,"arthritis_risk":5,"migraine_risk":7,"frizz_risk":1,"updated_at":"2026-07-14T01:47:33.597312+05:30"},{"city":"Rishikesh","state":"Uttarakhand","latitude":30.0869,"longitude":78.2676,"temp":24.9,"humidity":90,"rain":0.0,"pressure":958.8,"uv_index":7.6,"wind_gusts":22.0,"aqi":168,"pm10":223.1,"pm2_5":86.6,"no2":10.5,"co":313.0,"o3":116.0,"so2":12.0,"mosquito_risk":3,"arthritis_risk":5,"migraine_risk":7,"frizz_risk":1,"updated_at":"2026-07-14T01:47:33.597319+05:30"},{"city":"Nainital","state":"Uttarakhand","latitude":29.3919,"longitude":79.4542,"temp":15.4,"humidity":99,"rain":0.0,"pressure":799.8,"uv_index":8.5,"wind_gusts":27.7,"aqi":162,"pm10":153.7,"pm2_5":71.0,"no2":14.3,"co":232.0,"o3":80.0,"so2":7.2,"mosquito_risk":3,"arthritis_risk":10,"migraine_risk":7,"frizz_risk":0,"updated_at":"2026-07-14T01:47:33.597327+05:30"},{"city":"Mussoorie","state":"Uttarakhand","latitude":30.4599,"longitude":78.0664,"temp":15.7,"humidity":99,"rain":0.0,"pressure":797.9,"uv_index":8.0,"wind_gusts":39.6,"aqi":166,"pm10":174.2,"pm2_5":78.9,"no2":18.5,"co":293.0,"o3":98.0,"so2":11.4,"mosquito_risk":3,"arthritis_risk":10,"migraine_risk":7,"frizz_risk":0,"updated_at":"2026-07-14T01:47:33.597334+05:30"},{"city":"Dharamshala","state":"Himachal Pradesh","latitude":32.219,"longitude":76.3234,"temp":22.0,"humidity":76,"rain":0.0,"pressure":863.6,"uv_index":8.4,"wind_gusts":34.9,"aqi":75,"pm10":49.4,"pm2_5":26.5,"no2":17.3,"co":309.0,"o3":58.0,"so2":1.4,"mosquito_risk":3,"arthritis_risk":5,"migraine_risk":7,"frizz_risk":1,"updated_at":"2026-07-14T01:47:33.597342+05:30"},{"city":"Dalhousie","state":"Himachal Pradesh","latitude":32.5387,"longitude":75.971,"temp":15.5,"humidity":97,"rain":0.0,"pressure":798.7,"uv_index":8.55,"wind_gusts":27.7,"aqi":124,"pm10":117.6,"pm2_5":71.9,"no2":57.3,"co":446.0,"o3":50.0,"so2":6.4,"mosquito_risk":3,"arthritis_risk":10,"migraine_risk":7,"frizz_risk":0,"updated_at":"2026-07-14T01:47:33.597349+05:30"},{"city":"Patiala","state":"Punjab","latitude":30.3398,"longitude":76.3869,"temp":28.9,"humidity":90,"rain":0.0,"pressure":969.6,"uv_index":7.5,"wind_gusts":22.3,"aqi":179,"pm10":205.8,"pm2_5":129.0,"no2":57.7,"co":746.0,"o3":18.0,"so2":9.1,"mosquito_risk":7,"arthritis_risk":5,"migraine_risk":7,"frizz_risk":1,"updated_at":"2026-07-14T01:47:33.597356+05:30"},{"city":"Bhatinda","state":"Punjab","latitude":30.211,"longitude":74.9455,"temp":31.1,"humidity":63,"rain":0.0,"pressure":974.7,"uv_index":8.25,"wind_gusts":23.4,"aqi":179,"pm10":333.4,"pm2_5":151.8,"no2":68.4,"co":312.0,"o3":18.0,"so2":16.1,"mosquito_risk":3,"arthritis_risk":5,"migraine_risk":7,"frizz_risk":1,"updated_at":"2026-07-14T01:47:33.597363+05:30"},{"city":"Rohtak","state":"Haryana","latitude":28.8955,"longitude":76.6066,"temp":29.6,"humidity":72,"rain":0.0,"pressure":973.2,"uv_index":7.65,"wind_gusts":31.3,"aqi":508,"pm10":258.9,"pm2_5":81.7,"no2":14.8,"co":224.0,"o3":54.0,"so2":3.3,"mosquito_risk":7,"arthritis_risk":5,"migraine_risk":7,"frizz_risk":1,"updated_at":"2026-07-14T01:47:33.597369+05:30"},{"city":"Panipat","state":"Haryana","latitude":29.3909,"longitude":76.9635,"temp":29.1,"humidity":82,"rain":0.0,"pressure":972.1,"uv_index":7.55,"wind_gusts":22.7,"aqi":492,"pm10":659.4,"pm2_5":140.2,"no2":22.5,"co":466.0,"o3":47.0,"so2":5.1,"mosquito_risk":7,"arthritis_risk":5,"migraine_risk":7,"frizz_risk":1,"updated_at":"2026-07-14T01:47:33.597376+05:30"},{"city":"Mathura","state":"Uttar Pradesh","latitude":27.4924,"longitude":77.6737,"temp":30.4,"humidity":63,"rain":0.0,"pressure":978.4,"uv_index":7.9,"wind_gusts":32.0,"aqi":759,"pm10":994.7,"pm2_5":170.0,"no2":15.6,"co":207.0,"o3":52.0,"so2":4.8,"mosquito_risk":3,"arthritis_risk":5,"migraine_risk":7,"frizz_risk":1,"updated_at":"2026-07-14T01:47:33.597383+05:30"},{"city":"Vrindavan","state":"Uttar Pradesh","latitude":27.5823,"longitude":77.7027,"temp":30.5,"humidity":62,"rain":0.0,"pressure":978.8,"uv_index":7.9,"wind_gusts":32.8,"aqi":759,"pm10":994.7,"pm2_5":170.0,"no2":15.6,"co":200.0,"o3":52.0,"so2":4.8,"mosquito_risk":3,"arthritis_risk":5,"migraine_risk":7,"frizz_risk":1,"updated_at":"2026-07-14T01:47:33.597389+05:30"},{"city":"Ayodhya","state":"Uttar Pradesh","latitude":26.7922,"longitude":82.1998,"temp":27.0,"humidity":95,"rain":0.0,"pressure":987.9,"uv_index":8.05,"wind_gusts":31.0,"aqi":142,"pm10":79.6,"pm2_5":59.8,"no2":26.1,"co":447.0,"o3":36.0,"so2":6.1,"mosquito_risk":7,"arthritis_risk":5,"migraine_risk":7,"frizz_risk":1,"updated_at":"2026-07-14T01:47:33.597395+05:30"},{"city":"Ratlam","state":"Madhya Pradesh","latitude":23.3315,"longitude":75.0367,"temp":24.8,"humidity":89,"rain":0.0,"pressure":950.5,"uv_index":8.2,"wind_gusts":48.6,"aqi":63,"pm10":18.5,"pm2_5":12.5,"no2":7.8,"co":146.0,"o3":41.0,"so2":9.8,"mosquito_risk":3,"arthritis_risk":5,"migraine_risk":7,"frizz_risk":1,"updated_at":"2026-07-14T01:47:33.597402+05:30"},{"city":"Sagar","state":"Madhya Pradesh","latitude":23.8388,"longitude":78.7378,"temp":26.8,"humidity":69,"rain":0.0,"pressure":944.8,"uv_index":8.25,"wind_gusts":49.7,"aqi":88,"pm10":44.5,"pm2_5":25.3,"no2":6.3,"co":173.0,"o3":65.0,"so2":4.5,"mosquito_risk":7,"arthritis_risk":5,"migraine_risk":7,"frizz_risk":1,"updated_at":"2026-07-14T01:47:33.597408+05:30"},{"city":"Satna","state":"Madhya Pradesh","latitude":24.6005,"longitude":80.8322,"temp":28.2,"humidity":67,"rain":0.0,"pressure":964.7,"uv_index":8.7,"wind_gusts":41.4,"aqi":95,"pm10":85.4,"pm2_5":38.0,"no2":6.5,"co":181.0,"o3":64.0,"so2":4.2,"mosquito_risk":7,"arthritis_risk":5,"migraine_risk":7,"frizz_risk":1,"updated_at":"2026-07-14T01:47:33.597430+05:30"},{"city":"Akola","state":"Maharashtra","latitude":20.7002,"longitude":77.0082,"temp":27.8,"humidity":67,"rain":0.0,"pressure":971.7,"uv_index":8.5,"wind_gusts":50.0,"aqi":58,"pm10":17.3,"pm2_5":12.0,"no2":7.5,"co":132.0,"o3":45.0,"so2":7.4,"mosquito_risk":7,"arthritis_risk":5,"migraine_risk":7,"frizz_risk":1,"updated_at":"2026-07-14T01:47:33.597438+05:30"},{"city":"Amravati","state":"Maharashtra","latitude":20.9374,"longitude":77.7796,"temp":27.4,"humidity":68,"rain":0.0,"pressure":963.3,"uv_index":8.6,"wind_gusts":51.8,"aqi":60,"pm10":17.5,"pm2_5":12.0,"no2":8.0,"co":123.0,"o3":45.0,"so2":8.5,"mosquito_risk":7,"arthritis_risk":5,"migraine_risk":7,"frizz_risk":1,"updated_at":"2026-07-14T01:47:33.597445+05:30"},{"city":"Latur","state":"Maharashtra","latitude":18.4088,"longitude":76.5604,"temp":24.1,"humidity":75,"rain":0.0,"pressure":937.3,"uv_index":8.25,"wind_gusts":45.4,"aqi":52,"pm10":14.7,"pm2_5":10.3,"no2":5.6,"co":137.0,"o3":46.0,"so2":3.1,"mosquito_risk":3,"arthritis_risk":5,"migraine_risk":7,"frizz_risk":1,"updated_at":"2026-07-14T01:47:33.597452+05:30"},{"city":"Nanded","state":"Maharashtra","latitude":19.1383,"longitude":77.3091,"temp":27.2,"humidity":64,"rain":0.0,"pressure":965.4,"uv_index":8.1,"wind_gusts":43.6,"aqi":57,"pm10":19.1,"pm2_5":14.1,"no2":5.5,"co":148.0,"o3":66.0,"so2":5.0,"mosquito_risk":7,"arthritis_risk":5,"migraine_risk":7,"frizz_risk":1,"updated_at":"2026-07-14T01:47:33.597458+05:30"},{"city":"Gulbarga","state":"Karnataka","latitude":17.3297,"longitude":76.8343,"temp":25.2,"humidity":71,"rain":0.0,"pressure":956.6,"uv_index":8.05,"wind_gusts":47.2,"aqi":51,"pm10":13.2,"pm2_5":9.4,"no2":6.2,"co":117.0,"o3":44.0,"so2":2.9,"mosquito_risk":7,"arthritis_risk":5,"migraine_risk":7,"frizz_risk":1,"updated_at":"2026-07-14T01:47:33.597465+05:30"},{"city":"Bidar","state":"Karnataka","latitude":17.9104,"longitude":77.5199,"temp":25.3,"humidity":66,"rain":0.0,"pressure":932.7,"uv_index":7.9,"wind_gusts":41.0,"aqi":55,"pm10":14.8,"pm2_5":10.7,"no2":5.3,"co":121.0,"o3":56.0,"so2":2.5,"mosquito_risk":7,"arthritis_risk":5,"migraine_risk":7,"frizz_risk":1,"updated_at":"2026-07-14T01:47:33.597472+05:30"},{"city":"Hospet","state":"Karnataka","latitude":15.2689,"longitude":76.3909,"temp":23.3,"humidity":85,"rain":0.0,"pressure":955.0,"uv_index":7.4,"wind_gusts":47.9,"aqi":48,"pm10":10.1,"pm2_5":7.1,"no2":5.7,"co":134.0,"o3":39.0,"so2":2.0,"mosquito_risk":3,"arthritis_risk":5,"migraine_risk":7,"frizz_risk":1,"updated_at":"2026-07-14T01:47:33.597478+05:30"},{"city":"Tirupur","state":"Tamil Nadu","latitude":11.1085,"longitude":77.3411,"temp":24.8,"humidity":89,"rain":0.0,"pressure":974.1,"uv_index":8.9,"wind_gusts":59.0,"aqi":62,"pm10":23.8,"pm2_5":18.0,"no2":21.2,"co":149.0,"o3":18.0,"so2":5.2,"mosquito_risk":3,"arthritis_risk":5,"migraine_risk":7,"frizz_risk":1,"updated_at":"2026-07-14T01:47:33.597484+05:30"},{"city":"Alappuzha","state":"Kerala","latitude":9.4981,"longitude":76.3388,"temp":27.5,"humidity":86,"rain":0.0,"pressure":1009.0,"uv_index":7.75,"wind_gusts":45.7,"aqi":55,"pm10":20.8,"pm2_5":12.1,"no2":7.0,"co":83.0,"o3":37.0,"so2":3.0,"mosquito_risk":7,"arthritis_risk":0,"migraine_risk":4,"frizz_risk":1,"updated_at":"2026-07-14T01:47:33.597490+05:30"},{"city":"Munnar","state":"Kerala","latitude":10.0889,"longitude":77.0595,"temp":16.1,"humidity":92,"rain":0.0,"pressure":855.4,"uv_index":8.6,"wind_gusts":35.6,"aqi":40,"pm10":9.8,"pm2_5":7.4,"no2":8.7,"co":98.0,"o3":23.0,"so2":1.8,"mosquito_risk":3,"arthritis_risk":10,"migraine_risk":7,"frizz_risk":0,"updated_at":"2026-07-14T01:47:33.597497+05:30"},{"city":"Silchar","state":"Assam","latitude":24.8333,"longitude":92.7789,"temp":26.9,"humidity":95,"rain":0.1,"pressure":998.3,"uv_index":8.8,"wind_gusts":23.4,"aqi":72,"pm10":15.1,"pm2_5":12.9,"no2":5.8,"co":192.0,"o3":69.0,"so2":3.0,"mosquito_risk":10,"arthritis_risk":5,"migraine_risk":7,"frizz_risk":1,"updated_at":"2026-07-14T01:47:33.597503+05:30"},{"city":"Dibrugarh","state":"Assam","latitude":27.4728,"longitude":94.912,"temp":27.4,"humidity":88,"rain":0.0,"pressure":988.0,"uv_index":8.45,"wind_gusts":25.6,"aqi":56,"pm10":25.4,"pm2_5":24.9,"no2":23.7,"co":352.0,"o3":26.0,"so2":2.7,"mosquito_risk":7,"arthritis_risk":5,"migraine_risk":7,"frizz_risk":1,"updated_at":"2026-07-14T01:47:33.597509+05:30"}]