[{"city":"Delhi","state":"Delhi","latitude":28.6139,"longitude":77.209,"temp":29.5,"humidity":67,"rain":0.0,"pressure":978.2,"uv_index":7.55,"wind_gusts":30.2,"aqi":165,"pm10":239.3,"pm2_5":103.6,"no2":71.8,"co":812.0,"o3":40.0,"so2":36.5,"mosquito_risk":7,"arthritis_risk":5,"migraine_risk":7,"frizz_risk":1,"updated_at":"2026-06-05T23:29:15.957859+05:30"},{"city":"Mumbai","state":"Maharashtra","latitude":19.076,"longitude":72.8777,"temp":29.4,"humidity":82,"rain":0.0,"pressure":1005.5,"uv_index":7.55,"wind_gusts":40.3,"aqi":72,"pm10":38.4,"pm2_5":18.8,"no2":9.0,"co":175.0,"o3":45.0,"so2":6.8,"mosquito_risk":7,"arthritis_risk":5,"migraine_risk":4,"frizz_risk":1,"updated_at":"2026-06-05T23:29:15.957913+05:30"},{"city":"Bangalore","state":"Karnataka","latitude":12.9716,"longitude":77.5946,"temp":21.5,"humidity":90,"rain":0.0,"pressure":910.7,"uv_index":8.9,"wind_gusts":54.0,"aqi":25,"pm10":5.2,"pm2_5":4.8,"no2":14.6,"co":378.0,"o3":34.0,"so2":4.6,"mosquito_risk":3,"arthritis_risk":5,"migraine_risk":7,"frizz_risk":1,"updated_at":"2026-06-05T23:29:15.957930+05:30"},{"city":"Hyderabad","state":"Telangana","latitude":17.385,"longitude":78.4867,"temp":28.4,"humidity":62,"rain":0.0,"pressure":950.8,"uv_index":7.65,"wind_gusts":37.8,"aqi":69,"pm10":41.4,"pm2_5":31.9,"no2":18.8,"co":427.0,"o3":73.0,"so2":6.1,"mosquito_risk":7,"arthritis_risk":5,"migraine_risk":7,"frizz_risk":1,"updated_at":"2026-06-05T23:29:15.957941+05:30"},{"city":"Chennai","state":"Tamil Nadu","latitude":13.0827,"longitude":80.2707,"temp":30.8,"humidity":68,"rain":0.0,"pressure":1004.8,"uv_index":8.55,"wind_gusts":46.8,"aqi":54,"pm10":11.0,"pm2_5":10.0,"no2":21.2,"co":453.0,"o3":48.0,"so2":10.1,"mosquito_risk":3,"arthritis_risk":5,"migraine_risk":4,"frizz_risk":1,"updated_at":"2026-06-05T23:29:15.957951+05:30"},{"city":"Kolkata","state":"West Bengal","latitude":22.5726,"longitude":88.3639,"temp":29.2,"humidity":88,"rain":0.0,"pressure":1001.3,"uv_index":8.65,"wind_gusts":31.3,"aqi":135,"pm10":57.7,"pm2_5":54.1,"no2":17.0,"co":648.0,"o3":74.0,"so2":11.2,"mosquito_risk":7,"arthritis_risk":5,"migraine_risk":4,"frizz_risk":1,"updated_at":"2026-06-05T23:29:15.957962+05:30"},{"city":"Pune","state":"Maharashtra","latitude":18.5204,"longitude":73.8567,"temp":25.6,"humidity":83,"rain":0.0,"pressure":946.0,"uv_index":8.25,"wind_gusts":42.8,"aqi":42,"pm10":18.2,"pm2_5":11.0,"no2":10.6,"co":180.0,"o3":40.0,"so2":6.8,"mosquito_risk":7,"arthritis_risk":5,"migraine_risk":7,"frizz_risk":1,"updated_at":"2026-06-05T23:29:15.957970+05:30"},{"city":"Ahmedabad","state":"Gujarat","latitude":23.0225,"longitude":72.5714,"temp":32.4,"humidity":68,"rain":0.0,"pressure":997.1,"uv_index":8.1,"wind_gusts":36.0,"aqi":83,"pm10":54.2,"pm2_5":30.2,"no2":12.6,"co":184.0,"o3":58.0,"so2":7.4,"mosquito_risk":3,"arthritis_risk":5,"migraine_risk":7,"frizz_risk":1,"updated_at":"2026-06-05T23:29:15.957979+05:30"},{"city":"Jaipur","state":"Rajasthan","latitude":26.9124,"longitude":75.7873,"temp":28.1,"humidity":57,"rain":0.0,"pressure":955.5,"uv_index":8.2,"wind_gusts":34.9,"aqi":108,"pm10":116.9,"pm2_5":52.4,"no2":32.8,"co":569.0,"o3":38.0,"so2":12.9,"mosquito_risk":4,"arthritis_risk":5,"migraine_risk":7,"frizz_risk":1,"updated_at":"2026-06-05T23:29:15.957994+05:30"},{"city":"Lucknow","state":"Uttar Pradesh","latitude":26.8467,"longitude":80.9462,"temp":30.6,"humidity":62,"rain":0.0,"pressure":988.6,"uv_index":8.35,"wind_gusts":34.2,"aqi":155,"pm10":183.0,"pm2_5":83.4,"no2":22.3,"co":413.0,"o3":89.0,"so2":16.4,"mosquito_risk":3,"arthritis_risk":5,"migraine_risk":7,"frizz_risk":1,"updated_at":"2026-06-05T23:29:15.958003+05:30"},{"city":"Kanpur","state":"Uttar Pradesh","latitude":26.4499,"longitude":80.3319,"temp":30.3,"humidity":56,"rain":0.0,"pressure":987.2,"uv_index":8.35,"wind_gusts":58.0,"aqi":159,"pm10":258.9,"pm2_5":85.9,"no2":26.4,"co":450.0,"o3":60.0,"so2":11.4,"mosquito_risk":0,"arthritis_risk":5,"migraine_risk":7,"frizz_risk":1,"updated_at":"2026-06-05T23:29:15.958011+05:30"},{"city":"Chandigarh","state":"Chandigarh","latitude":30.7333,"longitude":76.7794,"temp":25.3,"humidity":79,"rain":0.0,"pressure":963.5,"uv_index":7.7,"wind_gusts":27.0,"aqi":122,"pm10":121.1,"pm2_5":79.9,"no2":61.1,"co":1500.0,"o3":50.0,"so2":16.5,"mosquito_risk":7,"arthritis_risk":5,"migraine_risk":7,"frizz_risk":1,"updated_at":"2026-06-05T23:29:15.958020+05:30"},{"city":"Srinagar","state":"Jammu and Kashmir","latitude":34.0837,"longitude":74.7973,"temp":14.6,"humidity":94,"rain":0.0,"pressure":840.3,"uv_index":9.0,"wind_gusts":32.8,"aqi":74,"pm10":55.9,"pm2_5":52.3,"no2":43.1,"co":1059.0,"o3":28.0,"so2":1.5,"mosquito_risk":3,"arthritis_risk":10,"migraine_risk":7,"frizz_risk":0,"updated_at":"2026-06-05T23:29:15.958031+05:30"},{"city":"Jammu","state":"Jammu and Kashmir","latitude":32.7266,"longitude":74.857,"temp":25.4,"humidity":64,"rain":0.0,"pressure":967.1,"uv_index":8.55,"wind_gusts":29.9,"aqi":115,"pm10":63.6,"pm2_5":50.2,"no2":54.3,"co":646.0,"o3":29.0,"so2":6.6,"mosquito_risk":7,"arthritis_risk":5,"migraine_risk":7,"frizz_risk":1,"updated_at":"2026-06-05T23:29:15.958039+05:30"},{"city":"Amritsar","state":"Punjab","latitude":31.634,"longitude":74.8723,"temp":29.7,"humidity":50,"rain":0.0,"pressure":975.3,"uv_index":8.45,"wind_gusts":28.1,"aqi":125,"pm10":99.0,"pm2_5":79.9,"no2":66.8,"co":796.0,"o3":44.0,"so2":13.7,"mosquito_risk":4,"arthritis_risk":5,"migraine_risk":7,"frizz_risk":1,"updated_at":"2026-06-05T23:29:15.958068+05:30"},{"city":"Ludhiana","state":"Punjab","latitude":30.901,"longitude":75.8573,"temp":29.7,"humidity":56,"rain":0.0,"pressure":973.3,"uv_index":8.0,"wind_gusts":37.8,"aqi":142,"pm10":106.4,"pm2_5":72.6,"no2":45.1,"co":767.0,"o3":73.0,"so2":13.1,"mosquito_risk":4,"arthritis_risk":5,"migraine_risk":7,"frizz_risk":1,"updated_at":"2026-06-05T23:29:15.958077+05:30"},{"city":"Jalandhar","state":"Punjab","latitude":31.326,"longitude":75.5762,"temp":29.2,"humidity":54,"rain":0.0,"pressure":974.3,"uv_index":8.2,"wind_gusts":27.7,"aqi":129,"pm10":100.6,"pm2_5":78.2,"no2":59.5,"co":1216.0,"o3":48.0,"so2":11.7,"mosquito_risk":4,"arthritis_risk":5,"migraine_risk":7,"frizz_risk":1,"updated_at":"2026-06-05T23:29:15.958086+05:30"},{"city":"Dehradun","state":"Uttarakhand","latitude":30.6284,"longitude":78.0322,"temp":14.3,"humidity":86,"rain":0.0,"pressure":825.5,"uv_index":4.45,"wind_gusts":25.6,"aqi":90,"pm10":45.8,"pm2_5":27.8,"no2":26.3,"co":258.0,"o3":73.0,"so2":1.6,"mosquito_risk":3,"arthritis_risk":10,"migraine_risk":3,"frizz_risk":0,"updated_at":"2026-06-05T23:29:15.958094+05:30"},{"city":"Shimla","state":"Himachal Pradesh","latitude":31.1048,"longitude":77.1734,"temp":13.6,"humidity":71,"rain":0.0,"pressure":781.0,"uv_index":6.55,"wind_gusts":33.1,"aqi":121,"pm10":91.0,"pm2_5":46.4,"no2":27.5,"co":350.0,"o3":92.0,"so2":5.8,"mosquito_risk":3,"arthritis_risk":5,"migraine_risk":7,"frizz_risk":0,"updated_at":"2026-06-05T23:29:15.958105+05:30"},{"city":"Manali","state":"Himachal Pradesh","latitude":32.2396,"longitude":77.1887,"temp":14.5,"humidity":82,"rain":0.0,"pressure":815.1,"uv_index":7.45,"wind_gusts":42.5,"aqi":84,"pm10":6.4,"pm2_5":5.4,"no2":33.6,"co":283.0,"o3":99.0,"so2":0.1,"mosquito_risk":3,"arthritis_risk":10,"migraine_risk":7,"frizz_risk":0,"updated_at":"2026-06-05T23:29:15.958115+05:30"},{"city":"Gurgaon","state":"Haryana","latitude":28.4595,"longitude":77.0266,"temp":28.1,"humidity":72,"rain":0.0,"pressure":976.7,"uv_index":7.8,"wind_gusts":32.8,"aqi":583,"pm10":188.6,"pm2_5":92.7,"no2":81.6,"co":1670.0,"o3":29.0,"so2":25.2,"mosquito_risk":7,"arthritis_risk":5,"migraine_risk":7,"frizz_risk":1,"updated_at":"2026-06-05T23:29:15.958122+05:30"},{"city":"Noida","state":"Uttar Pradesh","latitude":28.5355,"longitude":77.391,"temp":27.2,"humidity":80,"rain":0.0,"pressure":979.6,"uv_index":7.35,"wind_gusts":29.9,"aqi":583,"pm10":188.6,"pm2_5":92.7,"no2":81.6,"co":1487.0,"o3":29.0,"so2":25.2,"mosquito_risk":7,"arthritis_risk":5,"migraine_risk":7,"frizz_risk":1,"updated_at":"2026-06-05T23:29:15.958130+05:30"},{"city":"Ghaziabad","state":"Uttar Pradesh","latitude":28.6692,"longitude":77.4538,"temp":26.5,"humidity":85,"rain":0.0,"pressure":977.9,"uv_index":6.9,"wind_gusts":35.3,"aqi":162,"pm10":199.8,"pm2_5":96.9,"no2":42.8,"co":803.0,"o3":67.0,"so2":20.8,"mosquito_risk":7,"arthritis_risk":5,"migraine_risk":7,"frizz_risk":1,"updated_at":"2026-06-05T23:29:15.958138+05:30"},{"city":"Faridabad","state":"Haryana","latitude":28.4089,"longitude":77.3178,"temp":28.1,"humidity":75,"rain":0.0,"pressure":979.0,"uv_index":7.0,"wind_gusts":34.2,"aqi":583,"pm10":188.6,"pm2_5":92.7,"no2":81.6,"co":1150.0,"o3":29.0,"so2":25.2,"mosquito_risk":7,"arthritis_risk":5,"migraine_risk":7,"frizz_risk":1,"updated_at":"2026-06-05T23:29:15.958144+05:30"},{"city":"Meerut","state":"Uttar Pradesh","latitude":28.9845,"longitude":77.7064,"temp":26.3,"humidity":86,"rain":0.0,"pressure":976.5,"uv_index":7.3,"wind_gusts":31.7,"aqi":162,"pm10":199.8,"pm2_5":96.9,"no2":42.8,"co":719.0,"o3":67.0,"so2":20.8,"mosquito_risk":7,"arthritis_risk":5,"migraine_risk":7,"frizz_risk":1,"updated_at":"2026-06-05T23:29:15.958152+05:30"},{"city":"Agra","state":"Uttar Pradesh","latitude":27.1767,"longitude":78.0081,"temp":28.9,"humidity":67,"rain":0.0,"pressure":983.2,"uv_index":7.75,"wind_gusts":32.0,"aqi":151,"pm10":392.1,"pm2_5":123.9,"no2":71.7,"co":905.0,"o3":31.0,"so2":28.6,"mosquito_risk":7,"arthritis_risk":5,"migraine_risk":7,"frizz_risk":1,"updated_at":"2026-06-05T23:29:15.958159+05:30"},{"city":"Varanasi","state":"Uttar Pradesh","latitude":25.3176,"longitude":82.9739,"temp":33.4,"humidity":51,"rain":0.0,"pressure":992.0,"uv_index":8.8,"wind_gusts":25.9,"aqi":145,"pm10":95.2,"pm2_5":68.9,"no2":30.6,"co":1192.0,"o3":79.0,"so2":18.3,"mosquito_risk":0,"arthritis_risk":5,"migraine_risk":7,"frizz_risk":1,"updated_at":"2026-06-05T23:29:15.958167+05:30"},{"city":"Prayagraj","state":"Uttar Pradesh","latitude":25.4358,"longitude":81.8463,"temp":31.7,"humidity":52,"rain":0.0,"pressure":991.0,"uv_index":8.35,"wind_gusts":36.0,"aqi":150,"pm10":88.2,"pm2_5":48.5,"no2":12.0,"co":343.0,"o3":109.0,"so2":11.6,"mosquito_risk":0,"arthritis_risk":5,"migraine_risk":7,"frizz_risk":1,"updated_at":"2026-06-05T23:29:15.958175+05:30"},{"city":"Gorakhpur","state":"Uttar Pradesh","latitude":26.7606,"longitude":83.3732,"temp":29.9,"humidity":69,"rain":0.0,"pressure":992.1,"uv_index":8.7,"wind_gusts":23.8,"aqi":160,"pm10":101.3,"pm2_5":71.9,"no2":29.9,"co":542.0,"o3":75.0,"so2":14.1,"mosquito_risk":7,"arthritis_risk":5,"migraine_risk":7,"frizz_risk":1,"updated_at":"2026-06-05T23:29:15.958184+05:30"},{"city":"Bareilly","state":"Uttar Pradesh","latitude":28.367,"longitude":79.4304,"temp":27.6,"humidity":71,"rain":0.0,"pressure":982.2,"uv_index":4.7,"wind_gusts":34.6,"aqi":132,"pm10":59.8,"pm2_5":49.4,"no2":19.9,"co":393.0,"o3":103.0,"so2":17.1,"mosquito_risk":7,"arthritis_risk":5,"migraine_risk":3,"frizz_risk":1,"updated_at":"2026-06-05T23:29:15.958191+05:30"},{"city":"Aligarh","state":"Uttar Pradesh","latitude":27.8974,"longitude":78.088,"temp":27.6,"humidity":77,"rain":0.0,"pressure":980.9,"uv_index":7.4,"wind_gusts":40.7,"aqi":314,"pm10":364.1,"pm2_5":140.2,"no2":61.7,"co":631.0,"o3":56.0,"so2":29.9,"mosquito_risk":7,"arthritis_risk":5,"migraine_risk":7,"frizz_risk":1,"updated_at":"2026-06-05T23:29:15.958199+05:30"},{"city":"Moradabad","state":"Uttar Pradesh","latitude":28.8386,"longitude":78.7733,"temp":27.1,"humidity":73,"rain":0.0,"pressure":979.1,"uv_index":5.65,"wind_gusts":34.6,"aqi":153,"pm10":139.2,"pm2_5":109.0,"no2":53.2,"co":537.0,"o3":79.0,"so2":26.4,"mosquito_risk":7,"arthritis_risk":5,"migraine_risk":3,"frizz_risk":1,"updated_at":"2026-06-05T23:29:15.958206+05:30"},{"city":"Saharanpur","state":"Uttar Pradesh","latitude":29.9637,"longitude":77.546,"temp":26.1,"humidity":74,"rain":0.0,"pressure":970.7,"uv_index":6.95,"wind_gusts":35.6,"aqi":151,"pm10":128.1,"pm2_5":79.2,"no2":35.4,"co":689.0,"o3":77.0,"so2":14.6,"mosquito_risk":7,"arthritis_risk":5,"migraine_risk":7,"frizz_risk":1,"updated_at":"2026-06-05T23:29:15.958213+05:30"},{"city":"Jhansi","state":"Uttar Pradesh","latitude":25.4484,"longitude":78.5685,"temp":29.5,"humidity":57,"rain":0.0,"pressure":974.1,"uv_index":8.5,"wind_gusts":34.6,"aqi":72,"pm10":60.5,"pm2_5":30.4,"no2":17.6,"co":193.0,"o3":54.0,"so2":6.7,"mosquito_risk":4,"arthritis_risk":5,"migraine_risk":7,"frizz_risk":1,"updated_at":"2026-06-05T23:29:19.249028+05:30"},{"city":"Surat","state":"Gujarat","latitude":21.1702,"longitude":72.8311,"temp":30.2,"humidity":80,"rain":0.0,"pressure":1002.9,"uv_index":7.55,"wind_gusts":47.5,"aqi":89,"pm10":45.1,"pm2_5":26.0,"no2":18.4,"co":243.0,"o3":35.0,"so2":30.6,"mosquito_risk":3,"arthritis_risk":5,"migraine_risk":4,"frizz_risk":1,"updated_at":"2026-06-05T23:29:19.249090+05:30"},{"city":"Vadodara","state":"Gujarat","latitude":22.3072,"longitude":73.1812,"temp":30.4,"humidity":78,"rain":0.0,"pressure":999.9,"uv_index":8.0,"wind_gusts":45.7,"aqi":81,"pm10":37.5,"pm2_5":24.9,"no2":20.9,"co":189.0,"o3":33.0,"so2":22.0,"mosquito_risk":3,"arthritis_risk":5,"migraine_risk":7,"frizz_risk":1,"updated_at":"2026-06-05T23:29:19.249102+05:30"},{"city":"Rajkot","state":"Gujarat","latitude":22.3039,"longitude":70.8022,"temp":30.3,"humidity":67,"rain":0.0,"pressure":989.9,"uv_index":7.55,"wind_gusts":44.6,"aqi":80,"pm10":49.9,"pm2_5":22.8,"no2":4.5,"co":116.0,"o3":52.0,"so2":4.5,"mosquito_risk":3,"arthritis_risk":5,"migraine_risk":7,"frizz_risk":1,"updated_at":"2026-06-05T23:29:19.249111+05:30"},{"city":"Thane","state":"Maharashtra","latitude":19.2183,"longitude":72.9781,"temp":29.6,"humidity":79,"rain":0.0,"pressure":1005.0,"uv_index":7.35,"wind_gusts":39.2,"aqi":72,"pm10":38.4,"pm2_5":18.8,"no2":9.0,"co":188.0,"o3":45.0,"so2":6.8,"mosquito_risk":7,"arthritis_risk":5,"migraine_risk":4,"frizz_risk":1,"updated_at":"2026-06-05T23:29:19.249119+05:30"},{"city":"Nagpur","state":"Maharashtra","latitude":21.1458,"longitude":79.0882,"temp":32.7,"humidity":41,"rain":0.0,"pressure":969.5,"uv_index":8.9,"wind_gusts":43.6,"aqi":91,"pm10":66.4,"pm2_5":42.7,"no2":26.8,"co":276.0,"o3":45.0,"so2":14.3,"mosquito_risk":0,"arthritis_risk":5,"migraine_risk":7,"frizz_risk":1,"updated_at":"2026-06-05T23:29:19.249126+05:30"},{"city":"Nashik","state":"Maharashtra","latitude":19.9975,"longitude":73.7898,"temp":25.9,"humidity":85,"rain":0.0,"pressure":943.1,"uv_index":8.0,"wind_gusts":46.4,"aqi":57,"pm10":29.2,"pm2_5":15.8,"no2":5.5,"co":144.0,"o3":45.0,"so2":1.8,"mosquito_risk":7,"arthritis_risk":5,"migraine_risk":7,"frizz_risk":1,"updated_at":"2026-06-05T23:29:19.249134+05:30"},{"city":"Aurangabad","state":"Maharashtra","latitude":19.8762,"longitude":75.3433,"temp":29.7,"humidity":59,"rain":0.0,"pressure":941.6,"uv_index":8.95,"wind_gusts":39.2,"aqi":65,"pm10":28.5,"pm2_5":17.1,"no2":4.7,"co":152.0,"o3":65.0,"so2":3.6,"mosquito_risk":4,"arthritis_risk":5,"migraine_risk":7,"frizz_risk":1,"updated_at":"2026-06-05T23:29:19.249142+05:30"},{"city":"Solapur","state":"Maharashtra","latitude":17.6599,"longitude":75.9064,"temp":27.9,"humidity":71,"rain":0.0,"pressure":955.1,"uv_index":8.95,"wind_gusts":43.6,"aqi":53,"pm10":23.7,"pm2_5":16.5,"no2":10.0,"co":259.0,"o3":66.0,"so2":3.3,"mosquito_risk":7,"arthritis_risk":5,"migraine_risk":7,"frizz_risk":1,"updated_at":"2026-06-05T23:29:19.249151+05:30"},{"city":"Kolhapur","state":"Maharashtra","latitude":16.705,"longitude":74.2433,"temp":24.5,"humidity":88,"rain":0.0,"pressure":946.2,"uv_index":8.3,"wind_gusts":48.6,"aqi":35,"pm10":9.7,"pm2_5":8.1,"no2":8.9,"co":141.0,"o3":43.0,"so2":3.0,"mosquito_risk":3,"arthritis_risk":5,"migraine_risk":7,"frizz_risk":1,"updated_at":"2026-06-05T23:29:19.249159+05:30"},{"city":"Goa","state":"Goa","latitude":15.2993,"longitude":74.124,"temp":26.8,"humidity":86,"rain":0.0,"pressure":996.5,"uv_index":7.15,"wind_gusts":25.2,"aqi":29,"pm10":13.6,"pm2_5":9.4,"no2":5.7,"co":529.0,"o3":50.0,"so2":1.4,"mosquito_risk":7,"arthritis_risk":5,"migraine_risk":7,"frizz_risk":1,"updated_at":"2026-06-05T23:29:19.249166+05:30"},{"city":"Jodhpur","state":"Rajasthan","latitude":26.2389,"longitude":73.0243,"temp":33.2,"humidity":48,"rain":0.0,"pressure":977.4,"uv_index":8.45,"wind_gusts":38.2,"aqi":150,"pm10":172.3,"pm2_5":46.3,"no2":9.9,"co":168.0,"o3":56.0,"so2":3.0,"mosquito_risk":0,"arthritis_risk":5,"migraine_risk":7,"frizz_risk":1,"updated_at":"2026-06-05T23:29:19.249173+05:30"},{"city":"Udaipur","state":"Rajasthan","latitude":24.5854,"longitude":73.7125,"temp":29.2,"humidity":60,"rain":0.0,"pressure":942.7,"uv_index":8.85,"wind_gusts":41.0,"aqi":80,"pm10":55.4,"pm2_5":27.6,"no2":4.6,"co":240.0,"o3":69.0,"so2":3.1,"mosquito_risk":4,"arthritis_risk":5,"migraine_risk":7,"frizz_risk":1,"updated_at":"2026-06-05T23:29:19.249181+05:30"},{"city":"Kota","state":"Rajasthan","latitude":25.2138,"longitude":75.8648,"temp":29.1,"humidity":55,"rain":0.0,"pressure":974.8,"uv_index":8.2,"wind_gusts":33.1,"aqi":94,"pm10":101.5,"pm2_5":49.4,"no2":21.6,"co":436.0,"o3":55.0,"so2":6.7,"mosquito_risk":4,"arthritis_risk":5,"migraine_risk":7,"frizz_risk":1,"updated_at":"2026-06-05T23:29:19.249188+05:30"},{"city":"Bikaner","state":"Rajasthan","latitude":28.0229,"longitude":73.3119,"temp":30.6,"humidity":52,"rain":0.0,"pressure":975.7,"uv_index":8.45,"wind_gusts":42.8,"aqi":151,"pm10":113.4,"pm2_5":44.2,"no2":6.3,"co":287.0,"o3":62.0,"so2":4.0,"mosquito_risk":0,"arthritis_risk":5,"migraine_risk":7,"frizz_risk":1,"updated_at":"2026-06-05T23:29:19.249195+05:30"},{"city":"Ajmer","state":"Rajasthan","latitude":26.4499,"longitude":74.6399,"temp":29.5,"humidity":58,"rain":0.0,"pressure":950.2,"uv_index":8.35,"wind_gusts":47.9,"aqi":91,"pm10":94.3,"pm2_5":42.8,"no2":14.2,"co":321.0,"o3":50.0,"so2":4.1,"mosquito_risk":4,"arthritis_risk":5,"migraine_risk":7,"frizz_risk":1,"updated_at":"2026-06-05T23:29:19.249202+05:30"},{"city":"Gwalior","state":"Madhya Pradesh","latitude":26.2183,"longitude":78.1828,"temp":28.6,"humidity":60,"rain":0.0,"pressure":979.0,"uv_index":8.35,"wind_gusts":41.4,"aqi":79,"pm10":111.3,"pm2_5":43.2,"no2":22.5,"co":249.0,"o3":68.0,"so2":8.3,"mosquito_risk":4,"arthritis_risk":5,"migraine_risk":7,"frizz_risk":1,"updated_at":"2026-06-05T23:29:19.249209+05:30"},{"city":"Indore","state":"Madhya Pradesh","latitude":22.7196,"longitude":75.8577,"temp":27.9,"humidity":65,"rain":0.0,"pressure":944.7,"uv_index":8.65,"wind_gusts":45.7,"aqi":92,"pm10":58.0,"pm2_5":39.6,"no2":18.0,"co":703.0,"o3":52.0,"so2":8.5,"mosquito_risk":7,"arthritis_risk":5,"migraine_risk":7,"frizz_risk":1,"updated_at":"2026-06-05T23:29:19.249216+05:30"},{"city":"Bhopal","state":"Madhya Pradesh","latitude":23.2599,"longitude":77.4126,"temp":27.8,"humidity":67,"rain":0.0,"pressure":950.2,"uv_index":8.7,"wind_gusts":45.4,"aqi":92,"pm10":53.6,"pm2_5":35.0,"no2":13.6,"co":296.0,"o3":52.0,"so2":4.5,"mosquito_risk":7,"arthritis_risk":5,"migraine_risk":7,"frizz_risk":1,"updated_at":"2026-06-05T23:29:19.249223+05:30"},{"city":"Jabalpur","state":"Madhya Pradesh","latitude":23.1815,"longitude":79.9864,"temp":27.7,"humidity":71,"rain":0.0,"pressure":957.6,"uv_index":8.9,"wind_gusts":33.5,"aqi":85,"pm10":88.9,"pm2_5":37.8,"no2":11.1,"co":227.0,"o3":62.0,"so2":3.3,"mosquito_risk":7,"arthritis_risk":5,"migraine_risk":7,"frizz_risk":1,"updated_at":"2026-06-05T23:29:19.249230+05:30"},{"city":"Ujjain","state":"Madhya Pradesh","latitude":23.1765,"longitude":75.7885,"temp":27.8,"humidity":65,"rain":0.0,"pressure":950.2,"uv_index":8.6,"wind_gusts":44.3,"aqi":89,"pm10":58.9,"pm2_5":38.6,"no2":8.0,"co":302.0,"o3":71.0,"so2":6.6,"mosquito_risk":7,"arthritis_risk":5,"migraine_risk":7,"frizz_risk":1,"updated_at":"2026-06-05T23:29:19.249238+05:30"},{"city":"Visakhapatnam","state":"Andhra Pradesh","latitude":17.6868,"longitude":83.2185,"temp":31.1,"humidity":75,"rain":0.0,"pressure":999.0,"uv_index":8.7,"wind_gusts":42.1,"aqi":92,"pm10":46.0,"pm2_5":39.9,"no2":38.5,"co":827.0,"o3":73.0,"so2":39.6,"mosquito_risk":3,"arthritis_risk":5,"migraine_risk":7,"frizz_risk":1,"updated_at":"2026-06-05T23:29:19.249246+05:30"},{"city":"Vijayawada","state":"Andhra Pradesh","latitude":16.5062,"longitude":80.648,"temp":31.6,"humidity":60,"rain":0.0,"pressure":998.5,"uv_index":8.95,"wind_gusts":47.2,"aqi":62,"pm10":27.0,"pm2_5":25.0,"no2":13.5,"co":314.0,"o3":67.0,"so2":5.1,"mosquito_risk":0,"arthritis_risk":5,"migraine_risk":7,"frizz_risk":1,"updated_at":"2026-06-05T23:29:19.249253+05:30"},{"city":"Guntur","state":"Andhra Pradesh","latitude":16.3067,"longitude":80.4365,"temp":30.7,"humidity":61,"rain":0.0,"pressure":1000.0,"uv_index":9.0,"wind_gusts":45.7,"aqi":57,"pm10":22.6,"pm2_5":20.2,"no2":13.3,"co":303.0,"o3":68.0,"so2":4.9,"mosquito_risk":3,"arthritis_risk":5,"migraine_risk":4,"frizz_risk":1,"updated_at":"2026-06-05T23:29:19.249260+05:30"},{"city":"Nellore","state":"Andhra Pradesh","latitude":14.4426,"longitude":79.9865,"temp":29.2,"humidity":69,"rain":0.0,"pressure":1003.2,"uv_index":8.55,"wind_gusts":44.6,"aqi":45,"pm10":8.4,"pm2_5":6.2,"no2":6.1,"co":189.0,"o3":54.0,"so2":1.6,"mosquito_risk":7,"arthritis_risk":5,"migraine_risk":4,"frizz_risk":1,"updated_at":"2026-06-05T23:29:19.249268+05:30"},{"city":"Kurnool","state":"Andhra Pradesh","latitude":15.8281,"longitude":78.0373,"temp":29.1,"humidity":69,"rain":0.0,"pressure":974.7,"uv_index":9.0,"wind_gusts":41.0,"aqi":47,"pm10":7.0,"pm2_5":6.0,"no2":9.5,"co":199.0,"o3":65.0,"so2":5.0,"mosquito_risk":7,"arthritis_risk":5,"migraine_risk":7,"frizz_risk":1,"updated_at":"2026-06-05T23:29:19.249276+05:30"},{"city":"Kakinada","state":"Andhra Pradesh","latitude":16.9891,"longitude":82.2475,"temp":31.0,"humidity":65,"rain":0.0,"pressure":1003.0,"uv_index":9.05,"wind_gusts":46.4,"aqi":94,"pm10":21.5,"pm2_5":17.1,"no2":5.4,"co":589.0,"o3":103.0,"so2":4.7,"mosquito_risk":3,"arthritis_risk":5,"migraine_risk":4,"frizz_risk":1,"updated_at":"2026-06-05T23:29:19.249283+05:30"},{"city":"Tirupati","state":"Andhra Pradesh","latitude":13.6288,"longitude":79.4192,"temp":28.7,"humidity":68,"rain":0.0,"pressure":989.2,"uv_index":8.5,"wind_gusts":43.9,"aqi":50,"pm10":16.3,"pm2_5":14.6,"no2":22.0,"co":434.0,"o3":26.0,"so2":2.9,"mosquito_risk":7,"arthritis_risk":5,"migraine_risk":7,"frizz_risk":1,"updated_at":"2026-06-05T23:29:19.249290+05:30"},{"city":"Warangal","state":"Telangana","latitude":17.9689,"longitude":79.5941,"temp":30.5,"humidity":64,"rain":0.0,"pressure":974.9,"uv_index":7.6,"wind_gusts":31.3,"aqi":91,"pm10":65.9,"pm2_5":47.4,"no2":20.7,"co":450.0,"o3":61.0,"so2":7.3,"mosquito_risk":3,"arthritis_risk":5,"migraine_risk":7,"frizz_risk":1,"updated_at":"2026-06-05T23:29:19.249296+05:30"},{"city":"Nizamabad","state":"Telangana","latitude":18.6725,"longitude":78.0941,"temp":30.2,"humidity":55,"rain":0.0,"pressure":961.1,"uv_index":8.7,"wind_gusts":37.1,"aqi":89,"pm10":96.6,"pm2_5":59.4,"no2":20.0,"co":278.0,"o3":64.0,"so2":6.2,"mosquito_risk":0,"arthritis_risk":5,"migraine_risk":7,"frizz_risk":1,"updated_at":"2026-06-05T23:29:19.249303+05:30"},{"city":"Mysore","state":"Karnataka","latitude":12.2958,"longitude":76.6396,"temp":22.2,"humidity":89,"rain":0.0,"pressure":927.9,"uv_index":8.3,"wind_gusts":62.6,"aqi":25,"pm10":3.8,"pm2_5":3.1,"no2":6.3,"co":163.0,"o3":40.0,"so2":1.7,"mosquito_risk":3,"arthritis_risk":5,"migraine_risk":7,"frizz_risk":1,"updated_at":"2026-06-05T23:29:19.249310+05:30"},{"city":"Mangalore","state":"Karnataka","latitude":12.9141,"longitude":74.856,"temp":24.9,"humidity":96,"rain":0.5,"pressure":1006.5,"uv_index":2.1,"wind_gusts":33.5,"aqi":25,"pm10":8.0,"pm2_5":5.7,"no2":4.3,"co":222.0,"o3":50.0,"so2":1.5,"mosquito_risk":6,"arthritis_risk":5,"migraine_risk":0,"frizz_risk":1,"updated_at":"2026-06-05T23:29:19.249318+05:30"},{"city":"Hubli-Dharwad","state":"Karnataka","latitude":15.3647,"longitude":75.124,"temp":23.5,"humidity":90,"rain":0.0,"pressure":939.3,"uv_index":8.4,"wind_gusts":42.5,"aqi":26,"pm10":3.7,"pm2_5":2.8,"no2":5.0,"co":141.0,"o3":46.0,"so2":0.9,"mosquito_risk":3,"arthritis_risk":5,"migraine_risk":7,"frizz_risk":1,"updated_at":"2026-06-05T23:29:19.249325+05:30"},{"city":"Belgaum","state":"Karnataka","latitude":15.8497,"longitude":74.4977,"temp":23.3,"humidity":89,"rain":0.0,"pressure":924.1,"uv_index":8.85,"wind_gusts":36.0,"aqi":29,"pm10":5.8,"pm2_5":4.4,"no2":5.9,"co":133.0,"o3":48.0,"so2":2.2,"mosquito_risk":3,"arthritis_risk":5,"migraine_risk":7,"frizz_risk":1,"updated_at":"2026-06-05T23:29:22.527982+05:30"},{"city":"Coimbatore","state":"Tamil Nadu","latitude":11.0168,"longitude":76.9558,"temp":23.7,"humidity":93,"rain":0.0,"pressure":961.3,"uv_index":6.45,"wind_gusts":56.5,"aqi":20,"pm10":4.6,"pm2_5":3.9,"no2":7.4,"co":212.0,"o3":32.0,"so2":2.3,"mosquito_risk":3,"arthritis_risk":5,"migraine_risk":7,"frizz_risk":1,"updated_at":"2026-06-05T23:29:22.528013+05:30"},{"city":"Madurai","state":"Tamil Nadu","latitude":9.9252,"longitude":78.1198,"temp":29.4,"humidity":57,"rain":0.0,"pressure":992.7,"uv_index":8.25,"wind_gusts":62.3,"aqi":26,"pm10":4.4,"pm2_5":4.0,"no2":8.6,"co":145.0,"o3":32.0,"so2":3.0,"mosquito_risk":4,"arthritis_risk":5,"migraine_risk":7,"frizz_risk":1,"updated_at":"2026-06-05T23:29:22.528025+05:30"},{"city":"Trichy","state":"Tamil Nadu","latitude":10.7905,"longitude":78.7047,"temp":29.7,"humidity":57,"rain":0.0,"pressure":999.2,"uv_index":8.35,"wind_gusts":62.3,"aqi":26,"pm10":6.0,"pm2_5":4.6,"no2":8.4,"co":140.0,"o3":31.0,"so2":3.0,"mosquito_risk":4,"arthritis_risk":5,"migraine_risk":7,"frizz_risk":1,"updated_at":"2026-06-05T23:29:22.528034+05:30"},{"city":"Salem","state":"Tamil Nadu","latitude":11.6643,"longitude":78.146,"temp":27.5,"humidity":66,"rain":0.0,"pressure":977.2,"uv_index":7.85,"wind_gusts":39.2,"aqi":31,"pm10":10.8,"pm2_5":10.1,"no2":17.9,"co":215.0,"o3":30.0,"so2":5.3,"mosquito_risk":7,"arthritis_risk":5,"migraine_risk":7,"frizz_risk":1,"updated_at":"2026-06-05T23:29:22.528042+05:30"},{"city":"Tirunelveli","state":"Tamil Nadu","latitude":8.7139,"longitude":77.7567,"temp":29.2,"humidity":63,"rain":0.0,"pressure":1003.8,"uv_index":8.5,"wind_gusts":42.8,"aqi":18,"pm10":6.0,"pm2_5":5.2,"no2":8.3,"co":140.0,"o3":30.0,"so2":1.7,"mosquito_risk":7,"arthritis_risk":5,"migraine_risk":4,"frizz_risk":1,"updated_at":"2026-06-05T23:29:22.528071+05:30"},{"city":"Vellore","state":"Tamil Nadu","latitude":12.9165,"longitude":79.1325,"temp":29.6,"humidity":58,"rain":0.0,"pressure":983.1,"uv_index":8.5,"wind_gusts":60.1,"aqi":36,"pm10":23.8,"pm2_5":22.5,"no2":28.8,"co":171.0,"o3":18.0,"so2":6.1,"mosquito_risk":4,"arthritis_risk":5,"migraine_risk":7,"frizz_risk":1,"updated_at":"2026-06-05T23:29:22.528082+05:30"},{"city":"Erode","state":"Tamil Nadu","latitude":11.341,"longitude":77.7172,"temp":26.5,"humidity":76,"rain":0.0,"pressure":988.8,"uv_index":8.6,"wind_gusts":54.7,"aqi":25,"pm10":6.5,"pm2_5":5.8,"no2":11.1,"co":193.0,"o3":32.0,"so2":3.2,"mosquito_risk":7,"arthritis_risk":5,"migraine_risk":7,"frizz_risk":1,"updated_at":"2026-06-05T23:29:22.528090+05:30"},{"city":"Kochi","state":"Kerala","latitude":9.9312,"longitude":76.2673,"temp":25.3,"humidity":94,"rain":0.0,"pressure":1010.0,"uv_index":3.6,"wind_gusts":25.2,"aqi":39,"pm10":20.7,"pm2_5":16.4,"no2":24.4,"co":201.0,"o3":10.0,"so2":5.0,"mosquito_risk":7,"arthritis_risk":0,"migraine_risk":0,"frizz_risk":1,"updated_at":"2026-06-05T23:29:22.528098+05:30"},{"city":"Thiruvananthapuram","state":"Kerala","latitude":8.5241,"longitude":76.9366,"temp":24.2,"humidity":99,"rain":0.3,"pressure":1010.1,"uv_index":4.7,"wind_gusts":48.2,"aqi":25,"pm10":14.3,"pm2_5":6.5,"no2":1.4,"co":106.0,"o3":44.0,"so2":0.4,"mosquito_risk":6,"arthritis_risk":0,"migraine_risk":0,"frizz_risk":1,"updated_at":"2026-06-05T23:29:22.528106+05:30"},{"city":"Kozhikode","state":"Kerala","latitude":11.2588,"longitude":75.7804,"temp":24.7,"humidity":98,"rain":0.2,"pressure":1009.0,"uv_index":8.45,"wind_gusts":27.0,"aqi":24,"pm10":17.9,"pm2_5":7.5,"no2":1.1,"co":347.0,"o3":52.0,"so2":0.5,"mosquito_risk":6,"arthritis_risk":0,"migraine_risk":4,"frizz_risk":1,"updated_at":"2026-06-05T23:29:22.528113+05:30"},{"city":"Thrissur","state":"Kerala","latitude":10.5276,"longitude":76.2144,"temp":24.6,"humidity":99,"rain":0.1,"pressure":1008.1,"uv_index":7.35,"wind_gusts":27.0,"aqi":35,"pm10":19.2,"pm2_5":15.1,"no2":17.4,"co":364.0,"o3":18.0,"so2":4.0,"mosquito_risk":6,"arthritis_risk":0,"migraine_risk":4,"frizz_risk":1,"updated_at":"2026-06-05T23:29:22.528122+05:30"},{"city":"Kannur","state":"Kerala","latitude":11.8745,"longitude":75.3704,"temp":24.5,"humidity":98,"rain":0.0,"pressure":1007.7,"uv_index":5.7,"wind_gusts":41.0,"aqi":25,"pm10":13.8,"pm2_5":8.3,"no2":8.1,"co":384.0,"o3":41.0,"so2":1.8,"mosquito_risk":3,"arthritis_risk":5,"migraine_risk":0,"frizz_risk":1,"updated_at":"2026-06-05T23:29:22.528129+05:30"},{"city":"Patna","state":"Bihar","latitude":25.5941,"longitude":85.1376,"temp":30.2,"humidity":76,"rain":0.0,"pressure":995.5,"uv_index":8.9,"wind_gusts":37.4,"aqi":172,"pm10":114.8,"pm2_5":99.7,"no2":31.8,"co":502.0,"o3":95.0,"so2":20.8,"mosquito_risk":3,"arthritis_risk":5,"migraine_risk":7,"frizz_risk":1,"updated_at":"2026-06-05T23:29:22.528136+05:30"},{"city":"Gaya","state":"Bihar","latitude":24.7914,"longitude":85.0002,"temp":30.0,"humidity":66,"rain":0.0,"pressure":988.7,"uv_index":8.95,"wind_gusts":59.0,"aqi":161,"pm10":103.6,"pm2_5":86.4,"no2":30.5,"co":738.0,"o3":76.0,"so2":15.4,"mosquito_risk":7,"arthritis_risk":5,"migraine_risk":7,"frizz_risk":1,"updated_at":"2026-06-05T23:29:22.528143+05:30"},{"city":"Muzaffarpur","state":"Bihar","latitude":26.1209,"longitude":85.3647,"temp":27.5,"humidity":82,"rain":0.0,"pressure":996.1,"uv_index":8.85,"wind_gusts":36.0,"aqi":168,"pm10":98.3,"pm2_5":89.6,"no2":21.8,"co":548.0,"o3":106.0,"so2":17.3,"mosquito_risk":7,"arthritis_risk":5,"migraine_risk":7,"frizz_risk":1,"updated_at":"2026-06-05T23:29:22.528150+05:30"},{"city":"Bhagalpur","state":"Bihar","latitude":25.2425,"longitude":87.0117,"temp":25.9,"humidity":97,"rain":0.0,"pressure":997.1,"uv_index":8.85,"wind_gusts":35.3,"aqi":167,"pm10":77.8,"pm2_5":73.6,"no2":21.3,"co":386.0,"o3":94.0,"so2":15.7,"mosquito_risk":7,"arthritis_risk":5,"migraine_risk":7,"frizz_risk":1,"updated_at":"2026-06-05T23:29:22.528157+05:30"},{"city":"Ranchi","state":"Jharkhand","latitude":23.3441,"longitude":85.3096,"temp":24.6,"humidity":84,"rain":0.0,"pressure":933.7,"uv_index":9.2,"wind_gusts":36.0,"aqi":112,"pm10":60.3,"pm2_5":47.7,"no2":16.1,"co":347.0,"o3":76.0,"so2":5.4,"mosquito_risk":3,"arthritis_risk":5,"migraine_risk":7,"frizz_risk":1,"updated_at":"2026-06-05T23:29:22.528164+05:30"},{"city":"Jamshedpur","state":"Jharkhand","latitude":22.8046,"longitude":86.2029,"temp":28.2,"humidity":87,"rain":0.0,"pressure":986.4,"uv_index":8.95,"wind_gusts":29.9,"aqi":152,"pm10":79.9,"pm2_5":70.1,"no2":24.8,"co":451.0,"o3":99.0,"so2":19.8,"mosquito_risk":7,"arthritis_risk":5,"migraine_risk":7,"frizz_risk":1,"updated_at":"2026-06-05T23:29:22.528171+05:30"},{"city":"Dhanbad","state":"Jharkhand","latitude":23.7957,"longitude":86.4304,"temp":27.4,"humidity":88,"rain":0.0,"pressure":975.6,"uv_index":9.05,"wind_gusts":50.0,"aqi":166,"pm10":105.9,"pm2_5":98.0,"no2":59.7,"co":629.0,"o3":53.0,"so2":152.9,"mosquito_risk":7,"arthritis_risk":5,"migraine_risk":7,"frizz_risk":1,"updated_at":"2026-06-05T23:29:22.528179+05:30"},{"city":"Bokaro","state":"Jharkhand","latitude":23.6693,"longitude":86.1511,"temp":27.0,"humidity":98,"rain":0.0,"pressure":979.5,"uv_index":9.1,"wind_gusts":43.9,"aqi":161,"pm10":94.8,"pm2_5":81.7,"no2":48.4,"co":350.0,"o3":66.0,"so2":117.2,"mosquito_risk":7,"arthritis_risk":5,"migraine_risk":7,"frizz_risk":1,"updated_at":"2026-06-05T23:29:22.528186+05:30"},{"city":"Bhubaneswar","state":"Odisha","latitude":20.2961,"longitude":85.8245,"temp":29.7,"humidity":92,"rain":0.0,"pressure":997.7,"uv_index":9.05,"wind_gusts":23.8,"aqi":119,"pm10":40.0,"pm2_5":37.1,"no2":10.0,"co":473.0,"o3":121.0,"so2":8.2,"mosquito_risk":7,"arthritis_risk":5,"migraine_risk":7,"frizz_risk":1,"updated_at":"2026-06-05T23:29:22.528194+05:30"},{"city":"Cuttack","state":"Odisha","latitude":20.4625,"longitude":85.8828,"temp":29.8,"humidity":88,"rain":0.0,"pressure":999.4,"uv_index":9.1,"wind_gusts":25.2,"aqi":119,"pm10":40.0,"pm2_5":37.1,"no2":10.0,"co":502.0,"o3":121.0,"so2":8.2,"mosquito_risk":7,"arthritis_risk":5,"migraine_risk":7,"frizz_risk":1,"updated_at":"2026-06-05T23:29:22.528201+05:30"},{"city":"Rourkela","state":"Odisha","latitude":22.2604,"longitude":84.8536,"temp":27.1,"humidity":92,"rain":0.0,"pressure":980.4,"uv_index":9.0,"wind_gusts":34.2,"aqi":127,"pm10":94.8,"pm2_5":77.1,"no2":29.6,"co":380.0,"o3":82.0,"so2":18.4,"mosquito_risk":7,"arthritis_risk":5,"migraine_risk":7,"frizz_risk":1,"updated_at":"2026-06-05T23:29:22.528208+05:30"},{"city":"Raipur","state":"Chhattisgarh","latitude":21.2514,"longitude":81.6296,"temp":33.3,"humidity":39,"rain":0.0,"pressure":969.9,"uv_index":9.0,"wind_gusts":34.9,"aqi":111,"pm10":65.0,"pm2_5":49.5,"no2":51.4,"co":730.0,"o3":39.0,"so2":75.1,"mosquito_risk":0,"arthritis_risk":5,"migraine_risk":7,"frizz_risk":1,"updated_at":"2026-06-05T23:29:22.528215+05:30"},{"city":"Bhilai","state":"Chhattisgarh","latitude":21.1938,"longitude":81.3509,"temp":32.0,"humidity":46,"rain":0.0,"pressure":970.2,"uv_index":9.0,"wind_gusts":34.9,"aqi":108,"pm10":70.1,"pm2_5":52.2,"no2":42.2,"co":1121.0,"o3":39.0,"so2":49.0,"mosquito_risk":0,"arthritis_risk":5,"migraine_risk":7,"frizz_risk":1,"updated_at":"2026-06-05T23:29:22.528222+05:30"},{"city":"Guwahati","state":"Assam","latitude":26.1158,"longitude":91.7086,"temp":25.5,"humidity":99,"rain":0.1,"pressure":998.2,"uv_index":8.8,"wind_gusts":28.1,"aqi":96,"pm10":42.8,"pm2_5":39.7,"no2":12.3,"co":520.0,"o3":62.0,"so2":3.4,"mosquito_risk":10,"arthritis_risk":5,"migraine_risk":7,"frizz_risk":1,"updated_at":"2026-06-05T23:29:22.528230+05:30"},{"city":"Agartala","state":"Tripura","latitude":23.8315,"longitude":91.2868,"temp":27.4,"humidity":92,"rain":0.0,"pressure":1002.2,"uv_index":8.9,"wind_gusts":36.0,"aqi":107,"pm10":73.8,"pm2_5":70.3,"no2":45.0,"co":635.0,"o3":39.0,"so2":6.4,"mosquito_risk":7,"arthritis_risk":5,"migraine_risk":4,"frizz_risk":1,"updated_at":"2026-06-05T23:29:22.528237+05:30"},{"city":"Shillong","state":"Meghalaya","latitude":25.5788,"longitude":91.8933,"temp":18.5,"humidity":96,"rain":0.0,"pressure":854.4,"uv_index":8.45,"wind_gusts":23.4,"aqi":69,"pm10":25.1,"pm2_5":23.5,"no2":10.6,"co":532.0,"o3":63.0,"so2":2.3,"mosquito_risk":3,"arthritis_risk":10,"migraine_risk":7,"frizz_risk":1,"updated_at":"2026-06-05T23:29:22.528244+05:30"},{"city":"Imphal","state":"Manipur","latitude":24.817,"longitude":93.9368,"temp":22.6,"humidity":96,"rain":0.0,"pressure":920.1,"uv_index":8.75,"wind_gusts":27.4,"aqi":126,"pm10":70.5,"pm2_5":66.8,"no2":34.2,"co":999.0,"o3":25.0,"so2":4.4,"mosquito_risk":3,"arthritis_risk":5,"migraine_risk":7,"frizz_risk":1,"updated_at":"2026-06-05T23:29:22.528251+05:30"},{"city":"Aizawl","state":"Mizoram","latitude":23.7271,"longitude":92.7176,"temp":20.4,"humidity":97,"rain":0.0,"pressure":889.4,"uv_index":9.1,"wind_gusts":22.3,"aqi":104,"pm10":40.0,"pm2_5":34.5,"no2":10.4,"co":403.0,"o3":41.0,"so2":2.2,"mosquito_risk":3,"arthritis_risk":5,"migraine_risk":7,"frizz_risk":1,"updated_at":"2026-06-05T23:29:22.528258+05:30"},{"city":"Kohima","state":"Nagaland","latitude":25.6701,"longitude":94.1077,"temp":17.7,"humidity":96,"rain":0.0,"pressure":852.0,"uv_index":8.95,"wind_gusts":23.8,"aqi":64,"pm10":26.3,"pm2_5":24.9,"no2":15.8,"co":418.0,"o3":30.0,"so2":1.0,"mosquito_risk":3,"arthritis_risk":10,"migraine_risk":7,"frizz_risk":1,"updated_at":"2026-06-05T23:29:22.528266+05:30"},{"city":"Gangtok","state":"Sikkim","latitude":27.3314,"longitude":88.6138,"temp":17.7,"humidity":95,"rain":0.4,"pressure":835.7,"uv_index":9.2,"wind_gusts":38.2,"aqi":84,"pm10":13.0,"pm2_5":12.2,"no2":11.8,"co":434.0,"o3":102.0,"so2":2.6,"mosquito_risk":6,"arthritis_risk":10,"migraine_risk":7,"frizz_risk":1,"updated_at":"2026-06-05T23:29:22.528273+05:30"},{"city":"Siliguri","state":"West Bengal","latitude":26.7271,"longitude":88.3953,"temp":24.2,"humidity":98,"rain":0.3,"pressure":989.8,"uv_index":8.8,"wind_gusts":24.5,"aqi":130,"pm10":51.1,"pm2_5":44.5,"no2":14.4,"co":550.0,"o3":111.0,"so2":5.3,"mosquito_risk":6,"arthritis_risk":5,"migraine_risk":7,"frizz_risk":1,"updated_at":"2026-06-05T23:29:25.830699+05:30"},{"city":"Durgapur","state":"West Bengal","latitude":23.5204,"longitude":87.3119,"temp":27.2,"humidity":96,"rain":0.0,"pressure":990.8,"uv_index":8.95,"wind_gusts":40.0,"aqi":166,"pm10":79.4,"pm2_5":76.6,"no2":27.4,"co":760.0,"o3":91.0,"so2":37.4,"mosquito_risk":7,"arthritis_risk":5,"migraine_risk":7,"frizz_risk":1,"updated_at":"2026-06-05T23:29:25.830731+05:30"},{"city":"Asansol","state":"West Bengal","latitude":23.6739,"longitude":86.9524,"temp":27.1,"humidity":93,"rain":0.0,"pressure":989.3,"uv_index":9.0,"wind_gusts":55.4,"aqi":164,"pm10":70.5,"pm2_5":67.8,"no2":27.0,"co":544.0,"o3":95.0,"so2":45.2,"mosquito_risk":7,"arthritis_risk":5,"migraine_risk":7,"frizz_risk":1,"updated_at":"2026-06-05T23:29:25.830742+05:30"},{"city":"Pondicherry","state":"Puducherry","latitude":11.9139,"longitude":79.8145,"temp":29.7,"humidity":76,"rain":0.0,"pressure":1006.5,"uv_index":8.4,"wind_gusts":45.0,"aqi":51,"pm10":9.5,"pm2_5":8.8,"no2":11.4,"co":439.0,"o3":63.0,"so2":2.3,"mosquito_risk":7,"arthritis_risk":5,"migraine_risk":4,"frizz_risk":1,"updated_at":"2026-06-05T23:29:25.830752+05:30"},{"city":"Port Blair","state":"Andaman and Nicobar Islands","latitude":11.6234,"longitude":92.7265,"temp":25.1,"humidity":97,"rain":0.2,"pressure":1006.2,"uv_index":1.85,"wind_gusts":47.2,"aqi":26,"pm10":7.7,"pm2_5":5.0,"no2":0.3,"co":96.0,"o3":58.0,"so2":0.3,"mosquito_risk":10,"arthritis_risk":5,"migraine_risk":0,"frizz_risk":1,"updated_at":"2026-06-05T23:29:25.830761+05:30"},{"city":"Haridwar","state":"Uttarakhand","latitude":29.9457,"longitude":78.1642,"temp":24.9,"humidity":76,"rain":0.0,"pressure":969.2,"uv_index":6.75,"wind_gusts":33.1,"aqi":146,"pm10":136.4,"pm2_5":77.1,"no2":30.7,"co":458.0,"o3":102.0,"so2":13.1,"mosquito_risk":3,"arthritis_risk":5,"migraine_risk":7,"frizz_risk":1,"updated_at":"2026-06-05T23:29:25.830770+05:30"},{"city":"Rishikesh","state":"Uttarakhand","latitude":30.0869,"longitude":78.2676,"temp":22.7,"humidity":85,"rain":0.0,"pressure":962.0,"uv_index":6.85,"wind_gusts":33.1,"aqi":142,"pm10":101.3,"pm2_5":47.7,"no2":13.1,"co":493.0,"o3":134.0,"so2":6.8,"mosquito_risk":3,"arthritis_risk":5,"migraine_risk":7,"frizz_risk":1,"updated_at":"2026-06-05T23:29:25.830778+05:30"},{"city":"Nainital","state":"Uttarakhand","latitude":29.3919,"longitude":79.4542,"temp":14.5,"humidity":92,"rain":0.0,"pressure":801.9,"uv_index":5.05,"wind_gusts":27.0,"aqi":89,"pm10":51.2,"pm2_5":38.1,"no2":22.3,"co":346.0,"o3":72.0,"so2":6.4,"mosquito_risk":3,"arthritis_risk":10,"migraine_risk":3,"frizz_risk":0,"updated_at":"2026-06-05T23:29:25.830786+05:30"},{"city":"Mussoorie","state":"Uttarakhand","latitude":30.4599,"longitude":78.0664,"temp":13.3,"humidity":82,"rain":0.0,"pressure":797.9,"uv_index":4.55,"wind_gusts":26.3,"aqi":123,"pm10":80.6,"pm2_5":48.0,"no2":39.2,"co":332.0,"o3":76.0,"so2":9.8,"mosquito_risk":3,"arthritis_risk":10,"migraine_risk":3,"frizz_risk":0,"updated_at":"2026-06-05T23:29:25.830794+05:30"},{"city":"Dharamshala","state":"Himachal Pradesh","latitude":32.219,"longitude":76.3234,"temp":20.4,"humidity":62,"rain":0.0,"pressure":865.6,"uv_index":8.45,"wind_gusts":38.2,"aqi":77,"pm10":22.6,"pm2_5":19.3,"no2":17.6,"co":252.0,"o3":42.0,"so2":0.6,"mosquito_risk":3,"arthritis_risk":5,"migraine_risk":7,"frizz_risk":0,"updated_at":"2026-06-05T23:29:25.830802+05:30"},{"city":"Dalhousie","state":"Himachal Pradesh","latitude":32.5387,"longitude":75.971,"temp":12.1,"humidity":92,"rain":0.0,"pressure":799.2,"uv_index":7.0,"wind_gusts":34.9,"aqi":105,"pm10":49.6,"pm2_5":39.1,"no2":42.0,"co":562.0,"o3":47.0,"so2":1.8,"mosquito_risk":3,"arthritis_risk":10,"migraine_risk":7,"frizz_risk":0,"updated_at":"2026-06-05T23:29:25.830810+05:30"},{"city":"Patiala","state":"Punjab","latitude":30.3398,"longitude":76.3869,"temp":28.6,"humidity":64,"rain":0.0,"pressure":972.8,"uv_index":7.7,"wind_gusts":29.2,"aqi":152,"pm10":135.5,"pm2_5":82.4,"no2":36.1,"co":749.0,"o3":60.0,"so2":12.4,"mosquito_risk":7,"arthritis_risk":5,"migraine_risk":7,"frizz_risk":1,"updated_at":"2026-06-05T23:29:25.830817+05:30"},{"city":"Bhatinda","state":"Punjab","latitude":30.211,"longitude":74.9455,"temp":31.1,"humidity":49,"rain":0.0,"pressure":978.2,"uv_index":8.3,"wind_gusts":22.7,"aqi":159,"pm10":109.7,"pm2_5":66.8,"no2":43.4,"co":447.0,"o3":60.0,"so2":12.8,"mosquito_risk":0,"arthritis_risk":5,"migraine_risk":7,"frizz_risk":1,"updated_at":"2026-06-05T23:29:25.830824+05:30"},{"city":"Rohtak","state":"Haryana","latitude":28.8955,"longitude":76.6066,"temp":28.0,"humidity":74,"rain":0.0,"pressure":976.7,"uv_index":7.7,"wind_gusts":27.0,"aqi":194,"pm10":171.8,"pm2_5":73.8,"no2":66.6,"co":688.0,"o3":26.0,"so2":16.5,"mosquito_risk":7,"arthritis_risk":5,"migraine_risk":7,"frizz_risk":1,"updated_at":"2026-06-05T23:29:25.830832+05:30"},{"city":"Panipat","state":"Haryana","latitude":29.3909,"longitude":76.9635,"temp":26.8,"humidity":82,"rain":0.0,"pressure":975.3,"uv_index":7.55,"wind_gusts":29.9,"aqi":457,"pm10":276.6,"pm2_5":105.5,"no2":57.2,"co":840.0,"o3":26.0,"so2":14.6,"mosquito_risk":7,"arthritis_risk":5,"migraine_risk":7,"frizz_risk":1,"updated_at":"2026-06-05T23:29:25.830840+05:30"},{"city":"Mathura","state":"Uttar Pradesh","latitude":27.4924,"longitude":77.6737,"temp":27.6,"humidity":73,"rain":0.0,"pressure":982.4,"uv_index":7.65,"wind_gusts":29.2,"aqi":292,"pm10":345.5,"pm2_5":106.2,"no2":86.7,"co":801.0,"o3":13.0,"so2":15.7,"mosquito_risk":7,"arthritis_risk":5,"migraine_risk":7,"frizz_risk":1,"updated_at":"2026-06-05T23:29:25.830846+05:30"},{"city":"Vrindavan","state":"Uttar Pradesh","latitude":27.5823,"longitude":77.7027,"temp":27.7,"humidity":73,"rain":0.0,"pressure":982.7,"uv_index":7.8,"wind_gusts":28.1,"aqi":292,"pm10":345.5,"pm2_5":106.2,"no2":86.7,"co":828.0,"o3":13.0,"so2":15.7,"mosquito_risk":7,"arthritis_risk":5,"migraine_risk":7,"frizz_risk":1,"updated_at":"2026-06-05T23:29:25.830854+05:30"},{"city":"Ayodhya","state":"Uttar Pradesh","latitude":26.7922,"longitude":82.1998,"temp":29.7,"humidity":70,"rain":0.0,"pressure":990.1,"uv_index":8.45,"wind_gusts":29.5,"aqi":159,"pm10":69.6,"pm2_5":51.3,"no2":13.6,"co":557.0,"o3":104.0,"so2":8.9,"mosquito_risk":7,"arthritis_risk":5,"migraine_risk":7,"frizz_risk":1,"updated_at":"2026-06-05T23:29:25.830861+05:30"},{"city":"Ratlam","state":"Madhya Pradesh","latitude":23.3315,"longitude":75.0367,"temp":28.9,"humidity":62,"rain":0.0,"pressure":951.1,"uv_index":8.45,"wind_gusts":41.0,"aqi":86,"pm10":55.5,"pm2_5":35.0,"no2":5.2,"co":258.0,"o3":73.0,"so2":5.7,"mosquito_risk":7,"arthritis_risk":5,"migraine_risk":7,"frizz_risk":1,"updated_at":"2026-06-05T23:29:25.830869+05:30"},{"city":"Sagar","state":"Madhya Pradesh","latitude":23.8388,"longitude":78.7378,"temp":27.7,"humidity":53,"rain":0.0,"pressure":946.7,"uv_index":8.65,"wind_gusts":39.6,"aqi":84,"pm10":44.2,"pm2_5":24.9,"no2":10.3,"co":190.0,"o3":61.0,"so2":2.7,"mosquito_risk":4,"arthritis_risk":5,"migraine_risk":7,"frizz_risk":1,"updated_at":"2026-06-05T23:29:25.830876+05:30"},{"city":"Satna","state":"Madhya Pradesh","latitude":24.6005,"longitude":80.8322,"temp":30.5,"humidity":52,"rain":0.0,"pressure":967.3,"uv_index":8.85,"wind_gusts":37.8,"aqi":105,"pm10":66.8,"pm2_5":36.1,"no2":8.7,"co":187.0,"o3":77.0,"so2":3.1,"mosquito_risk":0,"arthritis_risk":5,"migraine_risk":7,"frizz_risk":1,"updated_at":"2026-06-05T23:29:25.830883+05:30"},{"city":"Akola","state":"Maharashtra","latitude":20.7002,"longitude":77.0082,"temp":30.8,"humidity":56,"rain":0.0,"pressure":971.2,"uv_index":8.8,"wind_gusts":45.7,"aqi":85,"pm10":43.3,"pm2_5":25.2,"no2":11.8,"co":258.0,"o3":67.0,"so2":5.7,"mosquito_risk":0,"arthritis_risk":5,"migraine_risk":7,"frizz_risk":1,"updated_at":"2026-06-05T23:29:25.830891+05:30"},{"city":"Amravati","state":"Maharashtra","latitude":20.9374,"longitude":77.7796,"temp":30.9,"humidity":46,"rain":0.0,"pressure":963.8,"uv_index":8.85,"wind_gusts":51.1,"aqi":91,"pm10":56.1,"pm2_5":33.2,"no2":21.9,"co":291.0,"o3":46.0,"so2":6.7,"mosquito_risk":0,"arthritis_risk":5,"migraine_risk":7,"frizz_risk":1,"updated_at":"2026-06-05T23:29:25.830899+05:30"},{"city":"Latur","state":"Maharashtra","latitude":18.4088,"longitude":76.5604,"temp":25.5,"humidity":84,"rain":0.4,"pressure":938.0,"uv_index":8.95,"wind_gusts":31.7,"aqi":65,"pm10":40.2,"pm2_5":23.2,"no2":9.4,"co":319.0,"o3":77.0,"so2":3.6,"mosquito_risk":10,"arthritis_risk":5,"migraine_risk":7,"frizz_risk":1,"updated_at":"2026-06-05T23:29:25.830906+05:30"},{"city":"Nanded","state":"Maharashtra","latitude":19.1383,"longitude":77.3091,"temp":31.6,"humidity":50,"rain":0.0,"pressure":965.0,"uv_index":8.95,"wind_gusts":31.0,"aqi":87,"pm10":60.5,"pm2_5":37.0,"no2":15.5,"co":243.0,"o3":71.0,"so2":6.6,"mosquito_risk":0,"arthritis_risk":5,"migraine_risk":7,"frizz_risk":1,"updated_at":"2026-06-05T23:29:25.830913+05:30"},{"city":"Gulbarga","state":"Karnataka","latitude":17.3297,"longitude":76.8343,"temp":26.8,"humidity":77,"rain":0.0,"pressure":956.6,"uv_index":7.25,"wind_gusts":32.8,"aqi":54,"pm10":31.9,"pm2_5":20.7,"no2":16.5,"co":223.0,"o3":64.0,"so2":3.9,"mosquito_risk":7,"arthritis_risk":5,"migraine_risk":7,"frizz_risk":1,"updated_at":"2026-06-05T23:29:25.830920+05:30"},{"city":"Bidar","state":"Karnataka","latitude":17.9104,"longitude":77.5199,"temp":24.8,"humidity":82,"rain":0.1,"pressure":933.8,"uv_index":7.3,"wind_gusts":40.0,"aqi":76,"pm10":46.4,"pm2_5":33.3,"no2":19.4,"co":243.0,"o3":62.0,"so2":3.6,"mosquito_risk":6,"arthritis_risk":5,"migraine_risk":7,"frizz_risk":1,"updated_at":"2026-06-05T23:29:25.830927+05:30"},{"city":"Hospet","state":"Karnataka","latitude":15.2689,"longitude":76.3909,"temp":24.7,"humidity":85,"rain":0.0,"pressure":954.2,"uv_index":8.05,"wind_gusts":47.5,"aqi":30,"pm10":4.7,"pm2_5":4.4,"no2":10.4,"co":172.0,"o3":39.0,"so2":1.7,"mosquito_risk":3,"arthritis_risk":5,"migraine_risk":7,"frizz_risk":1,"updated_at":"2026-06-05T23:29:25.830934+05:30"},{"city":"Tirupur","state":"Tamil Nadu","latitude":11.1085,"longitude":77.3411,"temp":24.8,"humidity":86,"rain":0.0,"pressure":974.8,"uv_index":8.55,"wind_gusts":63.7,"aqi":24,"pm10":7.8,"pm2_5":7.1,"no2":12.6,"co":159.0,"o3":29.0,"so2":4.2,"mosquito_risk":3,"arthritis_risk":5,"migraine_risk":7,"frizz_risk":1,"updated_at":"2026-06-05T23:29:25.830941+05:30"},{"city":"Alappuzha","state":"Kerala","latitude":9.4981,"longitude":76.3388,"temp":25.6,"humidity":94,"rain":0.2,"pressure":1010.2,"uv_index":7.25,"wind_gusts":37.1,"aqi":32,"pm10":20.2,"pm2_5":11.9,"no2":7.9,"co":87.0,"o3":37.0,"so2":1.7,"mosquito_risk":10,"arthritis_risk":0,"migraine_risk":4,"frizz_risk":1,"updated_at":"2026-06-05T23:29:25.830948+05:30"},{"city":"Munnar","state":"Kerala","latitude":10.0889,"longitude":77.0595,"temp":17.1,"humidity":99,"rain":0.1,"pressure":857.0,"uv_index":6.4,"wind_gusts":48.2,"aqi":18,"pm10":2.0,"pm2_5":2.0,"no2":7.6,"co":95.0,"o3":27.0,"so2":2.1,"mosquito_risk":6,"arthritis_risk":10,"migraine_risk":7,"frizz_risk":1,"updated_at":"2026-06-05T23:29:25.830956+05:30"},{"city":"Silchar","state":"Assam","latitude":24.8333,"longitude":92.7789,"temp":27.8,"humidity":89,"rain":0.0,"pressure":1001.0,"uv_index":8.7,"wind_gusts":31.0,"aqi":107,"pm10":61.2,"pm2_5":53.3,"no2":15.8,"co":1068.0,"o3":84.0,"so2":11.0,"mosquito_risk":7,"arthritis_risk":5,"migraine_risk":4,"frizz_risk":1,"updated_at":"2026-06-05T23:29:25.830963+05:30"},{"city":"Dibrugarh","state":"Assam","latitude":27.4728,"longitude":94.912,"temp":25.4,"humidity":87,"rain":0.0,"pressure":991.8,"uv_index":8.95,"wind_gusts":19.4,"aqi":102,"pm10":53.8,"pm2_5":51.2,"no2":33.1,"co":596.0,"o3":29.0,"so2":4.2,"mosquito_risk":7,"arthritis_risk":5,"migraine_risk":7,"frizz_risk":1,"updated_at":"2026-06-05T23:29:25.830971+05:30"}]