[{"city":"Delhi","state":"Delhi","latitude":28.6139,"longitude":77.209,"temp":34.3,"humidity":37,"rain":0.0,"pressure":981.2,"uv_index":7.8,"wind_gusts":25.6,"aqi":156,"pm10":133.6,"pm2_5":55.6,"no2":30.3,"co":573.0,"o3":140.0,"so2":61.1,"mosquito_risk":0,"arthritis_risk":5,"migraine_risk":7,"frizz_risk":1,"updated_at":"2026-06-03T09:54:25.089717+05:30"},{"city":"Mumbai","state":"Maharashtra","latitude":19.076,"longitude":72.8777,"temp":31.6,"humidity":61,"rain":0.0,"pressure":1007.3,"uv_index":7.7,"wind_gusts":43.2,"aqi":79,"pm10":68.0,"pm2_5":27.2,"no2":10.0,"co":230.0,"o3":62.0,"so2":14.8,"mosquito_risk":3,"arthritis_risk":5,"migraine_risk":4,"frizz_risk":1,"updated_at":"2026-06-03T09:54:25.089761+05:30"},{"city":"Bangalore","state":"Karnataka","latitude":12.9716,"longitude":77.5946,"temp":26.0,"humidity":69,"rain":0.1,"pressure":912.6,"uv_index":8.85,"wind_gusts":47.5,"aqi":57,"pm10":8.4,"pm2_5":7.1,"no2":10.2,"co":452.0,"o3":81.0,"so2":4.0,"mosquito_risk":10,"arthritis_risk":5,"migraine_risk":7,"frizz_risk":1,"updated_at":"2026-06-03T09:54:25.089777+05:30"},{"city":"Hyderabad","state":"Telangana","latitude":17.385,"longitude":78.4867,"temp":33.1,"humidity":38,"rain":0.0,"pressure":953.0,"uv_index":8.7,"wind_gusts":33.1,"aqi":101,"pm10":31.2,"pm2_5":18.9,"no2":6.2,"co":349.0,"o3":120.0,"so2":6.7,"mosquito_risk":0,"arthritis_risk":5,"migraine_risk":7,"frizz_risk":1,"updated_at":"2026-06-03T09:54:25.089786+05:30"},{"city":"Chennai","state":"Tamil Nadu","latitude":13.0827,"longitude":80.2707,"temp":34.9,"humidity":48,"rain":0.0,"pressure":1005.9,"uv_index":8.5,"wind_gusts":36.7,"aqi":57,"pm10":23.4,"pm2_5":18.5,"no2":12.5,"co":471.0,"o3":91.0,"so2":19.0,"mosquito_risk":0,"arthritis_risk":5,"migraine_risk":4,"frizz_risk":1,"updated_at":"2026-06-03T09:54:25.089794+05:30"},{"city":"Kolkata","state":"West Bengal","latitude":22.5726,"longitude":88.3639,"temp":34.5,"humidity":59,"rain":0.0,"pressure":1003.3,"uv_index":8.95,"wind_gusts":25.6,"aqi":109,"pm10":50.9,"pm2_5":43.0,"no2":4.5,"co":523.0,"o3":161.0,"so2":16.3,"mosquito_risk":0,"arthritis_risk":5,"migraine_risk":4,"frizz_risk":1,"updated_at":"2026-06-03T09:54:25.089802+05:30"},{"city":"Pune","state":"Maharashtra","latitude":18.5204,"longitude":73.8567,"temp":29.8,"humidity":54,"rain":0.0,"pressure":948.0,"uv_index":8.25,"wind_gusts":49.3,"aqi":67,"pm10":77.5,"pm2_5":26.7,"no2":4.4,"co":172.0,"o3":68.0,"so2":7.4,"mosquito_risk":4,"arthritis_risk":5,"migraine_risk":7,"frizz_risk":1,"updated_at":"2026-06-03T09:54:25.089809+05:30"},{"city":"Ahmedabad","state":"Gujarat","latitude":23.0225,"longitude":72.5714,"temp":34.1,"humidity":52,"rain":0.0,"pressure":1000.4,"uv_index":8.05,"wind_gusts":38.5,"aqi":92,"pm10":54.0,"pm2_5":27.0,"no2":4.2,"co":254.0,"o3":65.0,"so2":4.4,"mosquito_risk":0,"arthritis_risk":5,"migraine_risk":4,"frizz_risk":1,"updated_at":"2026-06-03T09:54:25.089816+05:30"},{"city":"Jaipur","state":"Rajasthan","latitude":26.9124,"longitude":75.7873,"temp":34.6,"humidity":33,"rain":0.0,"pressure":958.1,"uv_index":8.25,"wind_gusts":28.1,"aqi":119,"pm10":124.8,"pm2_5":43.4,"no2":6.8,"co":320.0,"o3":106.0,"so2":9.3,"mosquito_risk":0,"arthritis_risk":5,"migraine_risk":7,"frizz_risk":0,"updated_at":"2026-06-03T09:54:25.089827+05:30"},{"city":"Lucknow","state":"Uttar Pradesh","latitude":26.8467,"longitude":80.9462,"temp":32.7,"humidity":53,"rain":0.0,"pressure":991.7,"uv_index":8.3,"wind_gusts":20.2,"aqi":143,"pm10":93.4,"pm2_5":49.5,"no2":8.0,"co":356.0,"o3":133.0,"so2":17.2,"mosquito_risk":0,"arthritis_risk":5,"migraine_risk":7,"frizz_risk":1,"updated_at":"2026-06-03T09:54:25.089835+05:30"},{"city":"Kanpur","state":"Uttar Pradesh","latitude":26.4499,"longitude":80.3319,"temp":34.5,"humidity":44,"rain":0.0,"pressure":989.9,"uv_index":8.3,"wind_gusts":29.5,"aqi":151,"pm10":139.7,"pm2_5":54.0,"no2":7.7,"co":317.0,"o3":138.0,"so2":15.3,"mosquito_risk":0,"arthritis_risk":5,"migraine_risk":7,"frizz_risk":1,"updated_at":"2026-06-03T09:54:25.089842+05:30"},{"city":"Chandigarh","state":"Chandigarh","latitude":30.7333,"longitude":76.7794,"temp":33.0,"humidity":42,"rain":0.0,"pressure":967.3,"uv_index":7.8,"wind_gusts":33.1,"aqi":116,"pm10":85.2,"pm2_5":31.9,"no2":4.9,"co":462.0,"o3":174.0,"so2":21.2,"mosquito_risk":0,"arthritis_risk":5,"migraine_risk":7,"frizz_risk":1,"updated_at":"2026-06-03T09:54:25.089848+05:30"},{"city":"Srinagar","state":"Jammu and Kashmir","latitude":34.0837,"longitude":74.7973,"temp":19.5,"humidity":69,"rain":0.0,"pressure":843.8,"uv_index":6.6,"wind_gusts":31.3,"aqi":93,"pm10":57.0,"pm2_5":32.0,"no2":4.8,"co":438.0,"o3":120.0,"so2":3.7,"mosquito_risk":3,"arthritis_risk":5,"migraine_risk":7,"frizz_risk":0,"updated_at":"2026-06-03T09:54:25.089855+05:30"},{"city":"Jammu","state":"Jammu and Kashmir","latitude":32.7266,"longitude":74.857,"temp":33.2,"humidity":35,"rain":0.0,"pressure":971.1,"uv_index":8.6,"wind_gusts":30.6,"aqi":119,"pm10":70.5,"pm2_5":33.6,"no2":7.8,"co":343.0,"o3":130.0,"so2":3.9,"mosquito_risk":0,"arthritis_risk":5,"migraine_risk":7,"frizz_risk":0,"updated_at":"2026-06-03T09:54:25.089862+05:30"},{"city":"Amritsar","state":"Punjab","latitude":31.634,"longitude":74.8723,"temp":34.5,"humidity":35,"rain":0.0,"pressure":978.7,"uv_index":8.45,"wind_gusts":29.2,"aqi":147,"pm10":167.2,"pm2_5":48.2,"no2":4.1,"co":474.0,"o3":142.0,"so2":8.5,"mosquito_risk":0,"arthritis_risk":5,"migraine_risk":7,"frizz_risk":1,"updated_at":"2026-06-03T09:54:25.089868+05:30"},{"city":"Ludhiana","state":"Punjab","latitude":30.901,"longitude":75.8573,"temp":34.7,"humidity":35,"rain":0.0,"pressure":976.8,"uv_index":8.05,"wind_gusts":36.7,"aqi":148,"pm10":336.2,"pm2_5":75.9,"no2":7.6,"co":487.0,"o3":137.0,"so2":16.4,"mosquito_risk":0,"arthritis_risk":5,"migraine_risk":7,"frizz_risk":1,"updated_at":"2026-06-03T09:54:25.089874+05:30"},{"city":"Jalandhar","state":"Punjab","latitude":31.326,"longitude":75.5762,"temp":34.9,"humidity":36,"rain":0.0,"pressure":977.7,"uv_index":8.15,"wind_gusts":35.3,"aqi":147,"pm10":328.8,"pm2_5":81.0,"no2":10.4,"co":455.0,"o3":125.0,"so2":12.7,"mosquito_risk":0,"arthritis_risk":5,"migraine_risk":7,"frizz_risk":1,"updated_at":"2026-06-03T09:54:25.089883+05:30"},{"city":"Dehradun","state":"Uttarakhand","latitude":30.6284,"longitude":78.0322,"temp":23.5,"humidity":49,"rain":0.0,"pressure":832.3,"uv_index":8.25,"wind_gusts":29.2,"aqi":48,"pm10":10.1,"pm2_5":5.9,"no2":0.4,"co":200.0,"o3":141.0,"so2":1.0,"mosquito_risk":0,"arthritis_risk":5,"migraine_risk":7,"frizz_risk":0,"updated_at":"2026-06-03T09:54:25.089890+05:30"},{"city":"Shimla","state":"Himachal Pradesh","latitude":31.1048,"longitude":77.1734,"temp":20.6,"humidity":45,"rain":0.0,"pressure":787.1,"uv_index":7.75,"wind_gusts":42.8,"aqi":68,"pm10":59.4,"pm2_5":20.8,"no2":0.3,"co":200.0,"o3":155.0,"so2":5.3,"mosquito_risk":0,"arthritis_risk":5,"migraine_risk":7,"frizz_risk":0,"updated_at":"2026-06-03T09:54:25.089898+05:30"},{"city":"Manali","state":"Himachal Pradesh","latitude":32.2396,"longitude":77.1887,"temp":22.4,"humidity":47,"rain":0.0,"pressure":820.3,"uv_index":9.7,"wind_gusts":32.0,"aqi":49,"pm10":13.4,"pm2_5":4.4,"no2":6.8,"co":166.0,"o3":130.0,"so2":0.2,"mosquito_risk":0,"arthritis_risk":5,"migraine_risk":7,"frizz_risk":0,"updated_at":"2026-06-03T09:54:25.089904+05:30"},{"city":"Gurgaon","state":"Haryana","latitude":28.4595,"longitude":77.0266,"temp":34.2,"humidity":36,"rain":0.0,"pressure":979.6,"uv_index":7.9,"wind_gusts":27.0,"aqi":162,"pm10":231.9,"pm2_5":67.1,"no2":20.7,"co":489.0,"o3":140.0,"so2":37.8,"mosquito_risk":0,"arthritis_risk":5,"migraine_risk":7,"frizz_risk":1,"updated_at":"2026-06-03T09:54:25.089912+05:30"},{"city":"Noida","state":"Uttar Pradesh","latitude":28.5355,"longitude":77.391,"temp":34.5,"humidity":38,"rain":0.0,"pressure":982.7,"uv_index":7.85,"wind_gusts":25.2,"aqi":162,"pm10":231.9,"pm2_5":67.1,"no2":20.7,"co":514.0,"o3":140.0,"so2":37.8,"mosquito_risk":0,"arthritis_risk":5,"migraine_risk":7,"frizz_risk":1,"updated_at":"2026-06-03T09:54:25.089918+05:30"},{"city":"Ghaziabad","state":"Uttar Pradesh","latitude":28.6692,"longitude":77.4538,"temp":34.0,"humidity":41,"rain":0.0,"pressure":981.0,"uv_index":7.8,"wind_gusts":22.0,"aqi":151,"pm10":114.8,"pm2_5":50.1,"no2":8.8,"co":365.0,"o3":157.0,"so2":22.5,"mosquito_risk":0,"arthritis_risk":5,"migraine_risk":7,"frizz_risk":1,"updated_at":"2026-06-03T09:54:25.089924+05:30"},{"city":"Faridabad","state":"Haryana","latitude":28.4089,"longitude":77.3178,"temp":34.2,"humidity":37,"rain":0.0,"pressure":982.0,"uv_index":7.85,"wind_gusts":22.3,"aqi":162,"pm10":231.9,"pm2_5":67.1,"no2":20.7,"co":498.0,"o3":140.0,"so2":37.8,"mosquito_risk":0,"arthritis_risk":5,"migraine_risk":7,"frizz_risk":1,"updated_at":"2026-06-03T09:54:25.089930+05:30"},{"city":"Meerut","state":"Uttar Pradesh","latitude":28.9845,"longitude":77.7064,"temp":33.2,"humidity":45,"rain":0.0,"pressure":980.0,"uv_index":7.7,"wind_gusts":25.9,"aqi":151,"pm10":114.8,"pm2_5":50.1,"no2":8.8,"co":372.0,"o3":157.0,"so2":22.5,"mosquito_risk":0,"arthritis_risk":5,"migraine_risk":7,"frizz_risk":1,"updated_at":"2026-06-03T09:54:25.089936+05:30"},{"city":"Agra","state":"Uttar Pradesh","latitude":27.1767,"longitude":78.0081,"temp":34.8,"humidity":35,"rain":0.0,"pressure":985.7,"uv_index":8.15,"wind_gusts":22.3,"aqi":177,"pm10":238.4,"pm2_5":59.5,"no2":7.2,"co":291.0,"o3":138.0,"so2":10.7,"mosquito_risk":0,"arthritis_risk":5,"migraine_risk":7,"frizz_risk":1,"updated_at":"2026-06-03T09:54:25.089943+05:30"},{"city":"Varanasi","state":"Uttar Pradesh","latitude":25.3176,"longitude":82.9739,"temp":31.5,"humidity":55,"rain":0.0,"pressure":996.0,"uv_index":8.75,"wind_gusts":43.6,"aqi":151,"pm10":85.2,"pm2_5":55.4,"no2":18.9,"co":661.0,"o3":121.0,"so2":49.3,"mosquito_risk":0,"arthritis_risk":5,"migraine_risk":7,"frizz_risk":1,"updated_at":"2026-06-03T09:54:25.089949+05:30"},{"city":"Prayagraj","state":"Uttar Pradesh","latitude":25.4358,"longitude":81.8463,"temp":33.1,"humidity":49,"rain":0.0,"pressure":994.3,"uv_index":8.65,"wind_gusts":32.8,"aqi":150,"pm10":76.4,"pm2_5":48.8,"no2":8.5,"co":302.0,"o3":144.0,"so2":15.3,"mosquito_risk":0,"arthritis_risk":5,"migraine_risk":7,"frizz_risk":1,"updated_at":"2026-06-03T09:54:25.089955+05:30"},{"city":"Gorakhpur","state":"Uttar Pradesh","latitude":26.7606,"longitude":83.3732,"temp":34.8,"humidity":47,"rain":0.0,"pressure":994.9,"uv_index":8.5,"wind_gusts":28.8,"aqi":157,"pm10":83.6,"pm2_5":52.9,"no2":8.1,"co":335.0,"o3":164.0,"so2":11.1,"mosquito_risk":0,"arthritis_risk":5,"migraine_risk":7,"frizz_risk":1,"updated_at":"2026-06-03T09:54:25.089963+05:30"},{"city":"Bareilly","state":"Uttar Pradesh","latitude":28.367,"longitude":79.4304,"temp":31.0,"humidity":61,"rain":0.0,"pressure":984.9,"uv_index":8.1,"wind_gusts":27.0,"aqi":152,"pm10":136.0,"pm2_5":53.3,"no2":4.9,"co":321.0,"o3":149.0,"so2":9.9,"mosquito_risk":3,"arthritis_risk":5,"migraine_risk":7,"frizz_risk":1,"updated_at":"2026-06-03T09:54:25.089970+05:30"},{"city":"Aligarh","state":"Uttar Pradesh","latitude":27.8974,"longitude":78.088,"temp":33.4,"humidity":43,"rain":0.0,"pressure":983.7,"uv_index":7.95,"wind_gusts":19.8,"aqi":148,"pm10":202.1,"pm2_5":59.4,"no2":7.3,"co":340.0,"o3":141.0,"so2":17.8,"mosquito_risk":0,"arthritis_risk":5,"migraine_risk":7,"frizz_risk":1,"updated_at":"2026-06-03T09:54:25.089976+05:30"},{"city":"Moradabad","state":"Uttar Pradesh","latitude":28.8386,"longitude":78.7733,"temp":33.7,"humidity":42,"rain":0.0,"pressure":981.8,"uv_index":7.95,"wind_gusts":23.4,"aqi":159,"pm10":114.8,"pm2_5":62.2,"no2":8.7,"co":360.0,"o3":163.0,"so2":21.6,"mosquito_risk":0,"arthritis_risk":5,"migraine_risk":7,"frizz_risk":1,"updated_at":"2026-06-03T09:54:25.089982+05:30"},{"city":"Saharanpur","state":"Uttar Pradesh","latitude":29.9637,"longitude":77.546,"temp":31.9,"humidity":50,"rain":0.0,"pressure":974.3,"uv_index":7.55,"wind_gusts":21.2,"aqi":133,"pm10":51.9,"pm2_5":30.2,"no2":6.6,"co":436.0,"o3":178.0,"so2":15.0,"mosquito_risk":0,"arthritis_risk":5,"migraine_risk":7,"frizz_risk":1,"updated_at":"2026-06-03T09:54:25.089988+05:30"},{"city":"Jhansi","state":"Uttar Pradesh","latitude":25.4484,"longitude":78.5685,"temp":34.0,"humidity":39,"rain":0.0,"pressure":976.4,"uv_index":8.05,"wind_gusts":26.3,"aqi":75,"pm10":74.5,"pm2_5":30.2,"no2":3.7,"co":203.0,"o3":113.0,"so2":7.8,"mosquito_risk":0,"arthritis_risk":5,"migraine_risk":7,"frizz_risk":1,"updated_at":"2026-06-03T09:54:28.326159+05:30"},{"city":"Surat","state":"Gujarat","latitude":21.1702,"longitude":72.8311,"temp":32.1,"humidity":65,"rain":0.1,"pressure":1005.4,"uv_index":7.55,"wind_gusts":41.8,"aqi":83,"pm10":62.2,"pm2_5":30.3,"no2":17.9,"co":419.0,"o3":42.0,"so2":51.9,"mosquito_risk":6,"arthritis_risk":5,"migraine_risk":4,"frizz_risk":1,"updated_at":"2026-06-03T09:54:28.326190+05:30"},{"city":"Vadodara","state":"Gujarat","latitude":22.3072,"longitude":73.1812,"temp":33.7,"humidity":58,"rain":0.0,"pressure":1002.7,"uv_index":8.0,"wind_gusts":40.0,"aqi":86,"pm10":47.7,"pm2_5":27.6,"no2":7.0,"co":215.0,"o3":60.0,"so2":13.0,"mosquito_risk":0,"arthritis_risk":5,"migraine_risk":4,"frizz_risk":1,"updated_at":"2026-06-03T09:54:28.326201+05:30"},{"city":"Rajkot","state":"Gujarat","latitude":22.3039,"longitude":70.8022,"temp":32.8,"humidity":59,"rain":0.0,"pressure":992.6,"uv_index":7.55,"wind_gusts":34.6,"aqi":78,"pm10":57.3,"pm2_5":23.5,"no2":2.9,"co":123.0,"o3":68.0,"so2":5.8,"mosquito_risk":0,"arthritis_risk":5,"migraine_risk":7,"frizz_risk":1,"updated_at":"2026-06-03T09:54:28.326211+05:30"},{"city":"Thane","state":"Maharashtra","latitude":19.2183,"longitude":72.9781,"temp":32.8,"humidity":55,"rain":0.0,"pressure":1006.5,"uv_index":7.7,"wind_gusts":36.7,"aqi":79,"pm10":68.0,"pm2_5":27.2,"no2":10.0,"co":205.0,"o3":62.0,"so2":14.8,"mosquito_risk":0,"arthritis_risk":5,"migraine_risk":4,"frizz_risk":1,"updated_at":"2026-06-03T09:54:28.326219+05:30"},{"city":"Nagpur","state":"Maharashtra","latitude":21.1458,"longitude":79.0882,"temp":36.3,"humidity":29,"rain":0.0,"pressure":971.9,"uv_index":8.7,"wind_gusts":36.4,"aqi":71,"pm10":35.9,"pm2_5":19.5,"no2":8.2,"co":216.0,"o3":115.0,"so2":20.8,"mosquito_risk":0,"arthritis_risk":5,"migraine_risk":10,"frizz_risk":0,"updated_at":"2026-06-03T09:54:28.326228+05:30"},{"city":"Nashik","state":"Maharashtra","latitude":19.9975,"longitude":73.7898,"temp":29.5,"humidity":57,"rain":0.0,"pressure":945.1,"uv_index":8.0,"wind_gusts":37.8,"aqi":69,"pm10":54.2,"pm2_5":22.6,"no2":6.0,"co":169.0,"o3":61.0,"so2":13.3,"mosquito_risk":4,"arthritis_risk":5,"migraine_risk":7,"frizz_risk":1,"updated_at":"2026-06-03T09:54:28.326235+05:30"},{"city":"Aurangabad","state":"Maharashtra","latitude":19.8762,"longitude":75.3433,"temp":30.7,"humidity":48,"rain":0.0,"pressure":944.0,"uv_index":8.95,"wind_gusts":43.2,"aqi":67,"pm10":73.6,"pm2_5":26.7,"no2":4.3,"co":174.0,"o3":68.0,"so2":9.8,"mosquito_risk":0,"arthritis_risk":5,"migraine_risk":7,"frizz_risk":1,"updated_at":"2026-06-03T09:54:28.326244+05:30"},{"city":"Solapur","state":"Maharashtra","latitude":17.6599,"longitude":75.9064,"temp":30.4,"humidity":52,"rain":0.0,"pressure":957.7,"uv_index":7.25,"wind_gusts":64.4,"aqi":65,"pm10":53.0,"pm2_5":22.2,"no2":2.6,"co":143.0,"o3":74.0,"so2":3.6,"mosquito_risk":0,"arthritis_risk":5,"migraine_risk":7,"frizz_risk":1,"updated_at":"2026-06-03T09:54:28.326252+05:30"},{"city":"Kolhapur","state":"Maharashtra","latitude":16.705,"longitude":74.2433,"temp":28.8,"humidity":59,"rain":0.0,"pressure":948.5,"uv_index":2.05,"wind_gusts":41.8,"aqi":51,"pm10":34.9,"pm2_5":13.6,"no2":3.1,"co":144.0,"o3":63.0,"so2":2.3,"mosquito_risk":4,"arthritis_risk":5,"migraine_risk":3,"frizz_risk":1,"updated_at":"2026-06-03T09:54:28.326260+05:30"},{"city":"Goa","state":"Goa","latitude":15.2993,"longitude":74.124,"temp":26.5,"humidity":93,"rain":0.0,"pressure":999.2,"uv_index":2.15,"wind_gusts":28.1,"aqi":43,"pm10":7.7,"pm2_5":4.4,"no2":1.5,"co":175.0,"o3":66.0,"so2":0.9,"mosquito_risk":7,"arthritis_risk":5,"migraine_risk":3,"frizz_risk":1,"updated_at":"2026-06-03T09:54:28.326268+05:30"},{"city":"Jodhpur","state":"Rajasthan","latitude":26.2389,"longitude":73.0243,"temp":36.0,"humidity":38,"rain":0.0,"pressure":980.8,"uv_index":8.45,"wind_gusts":30.6,"aqi":109,"pm10":150.4,"pm2_5":42.3,"no2":3.0,"co":156.0,"o3":77.0,"so2":4.0,"mosquito_risk":0,"arthritis_risk":5,"migraine_risk":10,"frizz_risk":1,"updated_at":"2026-06-03T09:54:28.326275+05:30"},{"city":"Udaipur","state":"Rajasthan","latitude":24.5854,"longitude":73.7125,"temp":32.5,"humidity":45,"rain":0.0,"pressure":945.5,"uv_index":8.6,"wind_gusts":31.7,"aqi":80,"pm10":53.9,"pm2_5":29.9,"no2":6.4,"co":161.0,"o3":80.0,"so2":18.1,"mosquito_risk":0,"arthritis_risk":5,"migraine_risk":7,"frizz_risk":1,"updated_at":"2026-06-03T09:54:28.326283+05:30"},{"city":"Kota","state":"Rajasthan","latitude":25.2138,"longitude":75.8648,"temp":35.2,"humidity":38,"rain":0.0,"pressure":976.9,"uv_index":8.35,"wind_gusts":28.4,"aqi":102,"pm10":61.9,"pm2_5":27.1,"no2":3.3,"co":189.0,"o3":99.0,"so2":8.4,"mosquito_risk":0,"arthritis_risk":5,"migraine_risk":10,"frizz_risk":1,"updated_at":"2026-06-03T09:54:28.326291+05:30"},{"city":"Bikaner","state":"Rajasthan","latitude":28.0229,"longitude":73.3119,"temp":36.9,"humidity":27,"rain":0.0,"pressure":979.6,"uv_index":8.45,"wind_gusts":39.2,"aqi":121,"pm10":114.3,"pm2_5":33.5,"no2":2.5,"co":302.0,"o3":110.0,"so2":5.0,"mosquito_risk":0,"arthritis_risk":5,"migraine_risk":10,"frizz_risk":0,"updated_at":"2026-06-03T09:54:28.326300+05:30"},{"city":"Ajmer","state":"Rajasthan","latitude":26.4499,"longitude":74.6399,"temp":32.8,"humidity":45,"rain":0.0,"pressure":953.2,"uv_index":8.4,"wind_gusts":32.0,"aqi":96,"pm10":131.8,"pm2_5":38.1,"no2":3.6,"co":197.0,"o3":94.0,"so2":5.7,"mosquito_risk":0,"arthritis_risk":5,"migraine_risk":7,"frizz_risk":1,"updated_at":"2026-06-03T09:54:28.326307+05:30"},{"city":"Gwalior","state":"Madhya Pradesh","latitude":26.2183,"longitude":78.1828,"temp":33.3,"humidity":42,"rain":0.0,"pressure":981.4,"uv_index":8.3,"wind_gusts":30.2,"aqi":98,"pm10":99.4,"pm2_5":36.0,"no2":2.5,"co":215.0,"o3":119.0,"so2":5.6,"mosquito_risk":0,"arthritis_risk":5,"migraine_risk":7,"frizz_risk":1,"updated_at":"2026-06-03T09:54:28.326315+05:30"},{"city":"Indore","state":"Madhya Pradesh","latitude":22.7196,"longitude":75.8577,"temp":31.6,"humidity":47,"rain":0.0,"pressure":947.6,"uv_index":8.6,"wind_gusts":32.8,"aqi":82,"pm10":58.3,"pm2_5":30.0,"no2":3.9,"co":250.0,"o3":101.0,"so2":12.0,"mosquito_risk":0,"arthritis_risk":5,"migraine_risk":7,"frizz_risk":1,"updated_at":"2026-06-03T09:54:28.326322+05:30"},{"city":"Bhopal","state":"Madhya Pradesh","latitude":23.2599,"longitude":77.4126,"temp":33.2,"humidity":37,"rain":0.0,"pressure":952.8,"uv_index":6.6,"wind_gusts":33.1,"aqi":77,"pm10":62.2,"pm2_5":28.7,"no2":2.0,"co":219.0,"o3":105.0,"so2":6.4,"mosquito_risk":0,"arthritis_risk":5,"migraine_risk":7,"frizz_risk":1,"updated_at":"2026-06-03T09:54:28.326330+05:30"},{"city":"Jabalpur","state":"Madhya Pradesh","latitude":23.1815,"longitude":79.9864,"temp":34.5,"humidity":35,"rain":0.0,"pressure":960.3,"uv_index":8.35,"wind_gusts":31.3,"aqi":76,"pm10":34.7,"pm2_5":19.2,"no2":2.0,"co":215.0,"o3":117.0,"so2":4.9,"mosquito_risk":0,"arthritis_risk":5,"migraine_risk":7,"frizz_risk":1,"updated_at":"2026-06-03T09:54:28.326337+05:30"},{"city":"Ujjain","state":"Madhya Pradesh","latitude":23.1765,"longitude":75.7885,"temp":32.0,"humidity":47,"rain":0.0,"pressure":953.1,"uv_index":8.15,"wind_gusts":30.6,"aqi":81,"pm10":58.2,"pm2_5":29.8,"no2":3.1,"co":198.0,"o3":87.0,"so2":12.6,"mosquito_risk":0,"arthritis_risk":5,"migraine_risk":7,"frizz_risk":1,"updated_at":"2026-06-03T09:54:28.326346+05:30"},{"city":"Visakhapatnam","state":"Andhra Pradesh","latitude":17.6868,"longitude":83.2185,"temp":34.5,"humidity":55,"rain":0.0,"pressure":1001.3,"uv_index":9.05,"wind_gusts":42.1,"aqi":90,"pm10":31.4,"pm2_5":26.8,"no2":15.2,"co":386.0,"o3":133.0,"so2":43.8,"mosquito_risk":0,"arthritis_risk":5,"migraine_risk":4,"frizz_risk":1,"updated_at":"2026-06-03T09:54:28.326354+05:30"},{"city":"Vijayawada","state":"Andhra Pradesh","latitude":16.5062,"longitude":80.648,"temp":35.8,"humidity":44,"rain":0.0,"pressure":1000.6,"uv_index":8.9,"wind_gusts":30.2,"aqi":80,"pm10":28.8,"pm2_5":21.9,"no2":4.6,"co":220.0,"o3":125.0,"so2":10.2,"mosquito_risk":0,"arthritis_risk":5,"migraine_risk":7,"frizz_risk":1,"updated_at":"2026-06-03T09:54:28.326362+05:30"},{"city":"Guntur","state":"Andhra Pradesh","latitude":16.3067,"longitude":80.4365,"temp":35.6,"humidity":44,"rain":0.0,"pressure":1001.9,"uv_index":8.8,"wind_gusts":33.8,"aqi":84,"pm10":30.3,"pm2_5":21.9,"no2":4.7,"co":225.0,"o3":121.0,"so2":11.8,"mosquito_risk":0,"arthritis_risk":5,"migraine_risk":7,"frizz_risk":1,"updated_at":"2026-06-03T09:54:28.326369+05:30"},{"city":"Nellore","state":"Andhra Pradesh","latitude":14.4426,"longitude":79.9865,"temp":33.8,"humidity":51,"rain":0.0,"pressure":1004.5,"uv_index":9.0,"wind_gusts":34.9,"aqi":66,"pm10":15.3,"pm2_5":11.8,"no2":4.6,"co":189.0,"o3":108.0,"so2":6.6,"mosquito_risk":0,"arthritis_risk":5,"migraine_risk":4,"frizz_risk":1,"updated_at":"2026-06-03T09:54:28.326378+05:30"},{"city":"Kurnool","state":"Andhra Pradesh","latitude":15.8281,"longitude":78.0373,"temp":28.8,"humidity":68,"rain":0.0,"pressure":977.1,"uv_index":5.15,"wind_gusts":35.6,"aqi":69,"pm10":28.2,"pm2_5":17.7,"no2":5.0,"co":184.0,"o3":90.0,"so2":6.4,"mosquito_risk":7,"arthritis_risk":5,"migraine_risk":3,"frizz_risk":1,"updated_at":"2026-06-03T09:54:28.326386+05:30"},{"city":"Kakinada","state":"Andhra Pradesh","latitude":16.9891,"longitude":82.2475,"temp":34.4,"humidity":61,"rain":0.0,"pressure":1005.4,"uv_index":9.05,"wind_gusts":29.9,"aqi":71,"pm10":27.3,"pm2_5":20.4,"no2":3.5,"co":263.0,"o3":117.0,"so2":7.8,"mosquito_risk":3,"arthritis_risk":5,"migraine_risk":4,"frizz_risk":1,"updated_at":"2026-06-03T09:54:28.326394+05:30"},{"city":"Tirupati","state":"Andhra Pradesh","latitude":13.6288,"longitude":79.4192,"temp":34.0,"humidity":46,"rain":0.0,"pressure":990.2,"uv_index":9.0,"wind_gusts":36.0,"aqi":68,"pm10":18.2,"pm2_5":14.7,"no2":4.4,"co":217.0,"o3":130.0,"so2":4.6,"mosquito_risk":0,"arthritis_risk":5,"migraine_risk":7,"frizz_risk":1,"updated_at":"2026-06-03T09:54:28.326401+05:30"},{"city":"Warangal","state":"Telangana","latitude":17.9689,"longitude":79.5941,"temp":35.0,"humidity":37,"rain":0.0,"pressure":977.6,"uv_index":8.45,"wind_gusts":31.0,"aqi":115,"pm10":39.7,"pm2_5":25.7,"no2":6.4,"co":221.0,"o3":124.0,"so2":7.4,"mosquito_risk":0,"arthritis_risk":5,"migraine_risk":7,"frizz_risk":1,"updated_at":"2026-06-03T09:54:28.326408+05:30"},{"city":"Nizamabad","state":"Telangana","latitude":18.6725,"longitude":78.0941,"temp":33.9,"humidity":40,"rain":0.0,"pressure":964.4,"uv_index":9.0,"wind_gusts":39.6,"aqi":77,"pm10":23.5,"pm2_5":15.7,"no2":3.6,"co":195.0,"o3":102.0,"so2":8.0,"mosquito_risk":0,"arthritis_risk":5,"migraine_risk":7,"frizz_risk":1,"updated_at":"2026-06-03T09:54:28.326416+05:30"},{"city":"Mysore","state":"Karnataka","latitude":12.2958,"longitude":76.6396,"temp":26.4,"humidity":71,"rain":0.0,"pressure":929.8,"uv_index":8.35,"wind_gusts":47.2,"aqi":33,"pm10":5.5,"pm2_5":4.5,"no2":4.2,"co":180.0,"o3":82.0,"so2":2.0,"mosquito_risk":7,"arthritis_risk":5,"migraine_risk":7,"frizz_risk":1,"updated_at":"2026-06-03T09:54:28.326423+05:30"},{"city":"Mangalore","state":"Karnataka","latitude":12.9141,"longitude":74.856,"temp":25.1,"humidity":92,"rain":0.1,"pressure":1009.1,"uv_index":8.75,"wind_gusts":30.6,"aqi":39,"pm10":9.2,"pm2_5":6.3,"no2":4.4,"co":172.0,"o3":63.0,"so2":2.1,"mosquito_risk":10,"arthritis_risk":0,"migraine_risk":4,"frizz_risk":1,"updated_at":"2026-06-03T09:54:28.326431+05:30"},{"city":"Hubli-Dharwad","state":"Karnataka","latitude":15.3647,"longitude":75.124,"temp":27.5,"humidity":66,"rain":0.0,"pressure":942.0,"uv_index":6.8,"wind_gusts":44.6,"aqi":27,"pm10":7.6,"pm2_5":3.8,"no2":3.1,"co":128.0,"o3":61.0,"so2":1.2,"mosquito_risk":7,"arthritis_risk":5,"migraine_risk":7,"frizz_risk":1,"updated_at":"2026-06-03T09:54:28.326439+05:30"},{"city":"Belgaum","state":"Karnataka","latitude":15.8497,"longitude":74.4977,"temp":25.8,"humidity":73,"rain":0.0,"pressure":926.7,"uv_index":1.25,"wind_gusts":36.7,"aqi":41,"pm10":12.9,"pm2_5":5.9,"no2":3.0,"co":124.0,"o3":63.0,"so2":2.2,"mosquito_risk":7,"arthritis_risk":5,"migraine_risk":3,"frizz_risk":1,"updated_at":"2026-06-03T09:54:31.560385+05:30"},{"city":"Coimbatore","state":"Tamil Nadu","latitude":11.0168,"longitude":76.9558,"temp":28.0,"humidity":67,"rain":0.0,"pressure":962.6,"uv_index":8.95,"wind_gusts":55.8,"aqi":21,"pm10":2.1,"pm2_5":2.0,"no2":4.8,"co":203.0,"o3":61.0,"so2":2.7,"mosquito_risk":7,"arthritis_risk":5,"migraine_risk":7,"frizz_risk":1,"updated_at":"2026-06-03T09:54:31.560416+05:30"},{"city":"Madurai","state":"Tamil Nadu","latitude":9.9252,"longitude":78.1198,"temp":32.9,"humidity":50,"rain":0.0,"pressure":993.0,"uv_index":8.8,"wind_gusts":64.4,"aqi":73,"pm10":7.5,"pm2_5":7.1,"no2":6.0,"co":204.0,"o3":82.0,"so2":4.3,"mosquito_risk":0,"arthritis_risk":5,"migraine_risk":7,"frizz_risk":1,"updated_at":"2026-06-03T09:54:31.560428+05:30"},{"city":"Trichy","state":"Tamil Nadu","latitude":10.7905,"longitude":78.7047,"temp":32.2,"humidity":56,"rain":0.0,"pressure":999.5,"uv_index":8.85,"wind_gusts":50.4,"aqi":53,"pm10":7.5,"pm2_5":6.9,"no2":4.7,"co":166.0,"o3":77.0,"so2":4.5,"mosquito_risk":0,"arthritis_risk":5,"migraine_risk":7,"frizz_risk":1,"updated_at":"2026-06-03T09:54:31.560437+05:30"},{"city":"Salem","state":"Tamil Nadu","latitude":11.6643,"longitude":78.146,"temp":31.5,"humidity":55,"rain":0.0,"pressure":977.9,"uv_index":8.9,"wind_gusts":38.9,"aqi":60,"pm10":10.4,"pm2_5":9.5,"no2":7.7,"co":234.0,"o3":81.0,"so2":11.5,"mosquito_risk":0,"arthritis_risk":5,"migraine_risk":7,"frizz_risk":1,"updated_at":"2026-06-03T09:54:31.560446+05:30"},{"city":"Tirunelveli","state":"Tamil Nadu","latitude":8.7139,"longitude":77.7567,"temp":34.0,"humidity":46,"rain":0.0,"pressure":1003.6,"uv_index":8.65,"wind_gusts":51.5,"aqi":22,"pm10":7.9,"pm2_5":5.3,"no2":2.5,"co":134.0,"o3":72.0,"so2":1.3,"mosquito_risk":0,"arthritis_risk":5,"migraine_risk":4,"frizz_risk":1,"updated_at":"2026-06-03T09:54:31.560455+05:30"},{"city":"Vellore","state":"Tamil Nadu","latitude":12.9165,"longitude":79.1325,"temp":32.8,"humidity":51,"rain":0.0,"pressure":983.8,"uv_index":9.0,"wind_gusts":33.1,"aqi":79,"pm10":16.8,"pm2_5":14.6,"no2":5.7,"co":255.0,"o3":132.0,"so2":7.6,"mosquito_risk":0,"arthritis_risk":5,"migraine_risk":7,"frizz_risk":1,"updated_at":"2026-06-03T09:54:31.560463+05:30"},{"city":"Erode","state":"Tamil Nadu","latitude":11.341,"longitude":77.7172,"temp":31.8,"humidity":54,"rain":0.0,"pressure":989.4,"uv_index":8.85,"wind_gusts":47.9,"aqi":45,"pm10":4.3,"pm2_5":4.2,"no2":4.8,"co":216.0,"o3":68.0,"so2":3.6,"mosquito_risk":0,"arthritis_risk":5,"migraine_risk":7,"frizz_risk":1,"updated_at":"2026-06-03T09:54:31.560471+05:30"},{"city":"Kochi","state":"Kerala","latitude":9.9312,"longitude":76.2673,"temp":27.1,"humidity":85,"rain":0.0,"pressure":1011.0,"uv_index":8.1,"wind_gusts":38.2,"aqi":37,"pm10":12.3,"pm2_5":9.9,"no2":7.7,"co":210.0,"o3":63.0,"so2":4.4,"mosquito_risk":7,"arthritis_risk":0,"migraine_risk":4,"frizz_risk":1,"updated_at":"2026-06-03T09:54:31.560479+05:30"},{"city":"Thiruvananthapuram","state":"Kerala","latitude":8.5241,"longitude":76.9366,"temp":27.5,"humidity":89,"rain":0.2,"pressure":1010.2,"uv_index":8.2,"wind_gusts":41.4,"aqi":30,"pm10":10.8,"pm2_5":6.1,"no2":1.6,"co":171.0,"o3":60.0,"so2":0.5,"mosquito_risk":10,"arthritis_risk":0,"migraine_risk":4,"frizz_risk":1,"updated_at":"2026-06-03T09:54:31.560487+05:30"},{"city":"Kozhikode","state":"Kerala","latitude":11.2588,"longitude":75.7804,"temp":27.2,"humidity":86,"rain":0.0,"pressure":1010.0,"uv_index":8.65,"wind_gusts":31.3,"aqi":30,"pm10":6.0,"pm2_5":3.3,"no2":1.2,"co":211.0,"o3":65.0,"so2":0.7,"mosquito_risk":7,"arthritis_risk":0,"migraine_risk":4,"frizz_risk":1,"updated_at":"2026-06-03T09:54:31.560494+05:30"},{"city":"Thrissur","state":"Kerala","latitude":10.5276,"longitude":76.2144,"temp":26.5,"humidity":91,"rain":0.1,"pressure":1009.6,"uv_index":8.2,"wind_gusts":34.6,"aqi":33,"pm10":7.6,"pm2_5":5.5,"no2":5.5,"co":188.0,"o3":55.0,"so2":3.0,"mosquito_risk":10,"arthritis_risk":0,"migraine_risk":4,"frizz_risk":1,"updated_at":"2026-06-03T09:54:31.560503+05:30"},{"city":"Kannur","state":"Kerala","latitude":11.8745,"longitude":75.3704,"temp":27.0,"humidity":88,"rain":0.0,"pressure":1009.4,"uv_index":8.65,"wind_gusts":31.0,"aqi":30,"pm10":6.4,"pm2_5":5.0,"no2":3.1,"co":179.0,"o3":69.0,"so2":1.8,"mosquito_risk":7,"arthritis_risk":0,"migraine_risk":4,"frizz_risk":1,"updated_at":"2026-06-03T09:54:31.560511+05:30"},{"city":"Patna","state":"Bihar","latitude":25.5941,"longitude":85.1376,"temp":33.0,"humidity":54,"rain":0.0,"pressure":998.3,"uv_index":8.8,"wind_gusts":23.0,"aqi":165,"pm10":74.5,"pm2_5":57.2,"no2":5.3,"co":421.0,"o3":147.0,"so2":19.1,"mosquito_risk":0,"arthritis_risk":5,"migraine_risk":7,"frizz_risk":1,"updated_at":"2026-06-03T09:54:31.560518+05:30"},{"city":"Gaya","state":"Bihar","latitude":24.7914,"longitude":85.0002,"temp":34.0,"humidity":45,"rain":0.0,"pressure":992.0,"uv_index":8.8,"wind_gusts":35.3,"aqi":152,"pm10":73.8,"pm2_5":57.4,"no2":4.1,"co":348.0,"o3":160.0,"so2":12.2,"mosquito_risk":0,"arthritis_risk":5,"migraine_risk":7,"frizz_risk":1,"updated_at":"2026-06-03T09:54:31.560526+05:30"},{"city":"Muzaffarpur","state":"Bihar","latitude":26.1209,"longitude":85.3647,"temp":33.3,"humidity":55,"rain":0.0,"pressure":998.1,"uv_index":8.4,"wind_gusts":27.4,"aqi":169,"pm10":82.9,"pm2_5":66.6,"no2":10.1,"co":422.0,"o3":154.0,"so2":19.3,"mosquito_risk":0,"arthritis_risk":5,"migraine_risk":7,"frizz_risk":1,"updated_at":"2026-06-03T09:54:31.560534+05:30"},{"city":"Bhagalpur","state":"Bihar","latitude":25.2425,"longitude":87.0117,"temp":33.7,"humidity":56,"rain":0.0,"pressure":998.6,"uv_index":8.85,"wind_gusts":26.3,"aqi":156,"pm10":85.9,"pm2_5":68.5,"no2":6.6,"co":394.0,"o3":184.0,"so2":35.3,"mosquito_risk":0,"arthritis_risk":5,"migraine_risk":7,"frizz_risk":1,"updated_at":"2026-06-03T09:54:31.560541+05:30"},{"city":"Ranchi","state":"Jharkhand","latitude":23.3441,"longitude":85.3096,"temp":31.4,"humidity":47,"rain":0.0,"pressure":937.4,"uv_index":9.05,"wind_gusts":30.6,"aqi":151,"pm10":62.2,"pm2_5":46.7,"no2":2.5,"co":280.0,"o3":180.0,"so2":21.8,"mosquito_risk":0,"arthritis_risk":5,"migraine_risk":7,"frizz_risk":1,"updated_at":"2026-06-03T09:54:31.560549+05:30"},{"city":"Jamshedpur","state":"Jharkhand","latitude":22.8046,"longitude":86.2029,"temp":33.8,"humidity":52,"rain":0.0,"pressure":988.9,"uv_index":9.05,"wind_gusts":27.7,"aqi":154,"pm10":74.0,"pm2_5":63.3,"no2":8.3,"co":447.0,"o3":181.0,"so2":43.1,"mosquito_risk":0,"arthritis_risk":5,"migraine_risk":7,"frizz_risk":1,"updated_at":"2026-06-03T09:54:31.560556+05:30"},{"city":"Dhanbad","state":"Jharkhand","latitude":23.7957,"longitude":86.4304,"temp":35.2,"humidity":41,"rain":0.0,"pressure":978.2,"uv_index":9.05,"wind_gusts":27.7,"aqi":169,"pm10":84.3,"pm2_5":68.7,"no2":23.2,"co":393.0,"o3":168.0,"so2":69.5,"mosquito_risk":0,"arthritis_risk":5,"migraine_risk":10,"frizz_risk":1,"updated_at":"2026-06-03T09:54:31.560564+05:30"},{"city":"Bokaro","state":"Jharkhand","latitude":23.6693,"longitude":86.1511,"temp":34.2,"humidity":46,"rain":0.0,"pressure":981.9,"uv_index":9.1,"wind_gusts":22.3,"aqi":165,"pm10":82.0,"pm2_5":65.2,"no2":16.7,"co":389.0,"o3":171.0,"so2":55.9,"mosquito_risk":0,"arthritis_risk":5,"migraine_risk":7,"frizz_risk":1,"updated_at":"2026-06-03T09:54:31.560572+05:30"},{"city":"Bhubaneswar","state":"Odisha","latitude":20.2961,"longitude":85.8245,"temp":34.0,"humidity":61,"rain":0.0,"pressure":1000.1,"uv_index":9.05,"wind_gusts":30.2,"aqi":82,"pm10":40.6,"pm2_5":32.5,"no2":3.4,"co":306.0,"o3":150.0,"so2":13.1,"mosquito_risk":3,"arthritis_risk":5,"migraine_risk":4,"frizz_risk":1,"updated_at":"2026-06-03T09:54:31.560580+05:30"},{"city":"Cuttack","state":"Odisha","latitude":20.4625,"longitude":85.8828,"temp":33.3,"humidity":68,"rain":0.0,"pressure":1002.0,"uv_index":9.1,"wind_gusts":27.0,"aqi":82,"pm10":40.6,"pm2_5":32.5,"no2":3.4,"co":296.0,"o3":150.0,"so2":13.1,"mosquito_risk":3,"arthritis_risk":5,"migraine_risk":4,"frizz_risk":1,"updated_at":"2026-06-03T09:54:31.560587+05:30"},{"city":"Rourkela","state":"Odisha","latitude":22.2604,"longitude":84.8536,"temp":34.2,"humidity":50,"rain":0.0,"pressure":983.4,"uv_index":9.0,"wind_gusts":28.8,"aqi":159,"pm10":73.3,"pm2_5":51.6,"no2":3.2,"co":382.0,"o3":169.0,"so2":23.7,"mosquito_risk":0,"arthritis_risk":5,"migraine_risk":7,"frizz_risk":1,"updated_at":"2026-06-03T09:54:31.560594+05:30"},{"city":"Raipur","state":"Chhattisgarh","latitude":21.2514,"longitude":81.6296,"temp":36.1,"humidity":31,"rain":0.0,"pressure":973.2,"uv_index":8.95,"wind_gusts":37.8,"aqi":144,"pm10":53.0,"pm2_5":38.1,"no2":29.2,"co":490.0,"o3":106.0,"so2":69.5,"mosquito_risk":0,"arthritis_risk":5,"migraine_risk":10,"frizz_risk":1,"updated_at":"2026-06-03T09:54:31.560602+05:30"},{"city":"Bhilai","state":"Chhattisgarh","latitude":21.1938,"longitude":81.3509,"temp":34.8,"humidity":36,"rain":0.0,"pressure":973.6,"uv_index":8.95,"wind_gusts":38.5,"aqi":114,"pm10":48.3,"pm2_5":33.1,"no2":22.8,"co":742.0,"o3":110.0,"so2":59.7,"mosquito_risk":0,"arthritis_risk":5,"migraine_risk":7,"frizz_risk":1,"updated_at":"2026-06-03T09:54:31.560609+05:30"},{"city":"Guwahati","state":"Assam","latitude":26.1158,"longitude":91.7086,"temp":30.0,"humidity":72,"rain":0.1,"pressure":999.4,"uv_index":8.7,"wind_gusts":35.3,"aqi":127,"pm10":37.4,"pm2_5":29.8,"no2":1.6,"co":432.0,"o3":136.0,"so2":5.6,"mosquito_risk":10,"arthritis_risk":5,"migraine_risk":7,"frizz_risk":1,"updated_at":"2026-06-03T09:54:31.560616+05:30"},{"city":"Agartala","state":"Tripura","latitude":23.8315,"longitude":91.2868,"temp":32.4,"humidity":64,"rain":0.0,"pressure":1004.4,"uv_index":8.85,"wind_gusts":21.2,"aqi":119,"pm10":45.8,"pm2_5":31.7,"no2":4.9,"co":253.0,"o3":118.0,"so2":6.5,"mosquito_risk":3,"arthritis_risk":5,"migraine_risk":4,"frizz_risk":1,"updated_at":"2026-06-03T09:54:31.560624+05:30"},{"city":"Shillong","state":"Meghalaya","latitude":25.5788,"longitude":91.8933,"temp":24.0,"humidity":67,"rain":0.1,"pressure":858.1,"uv_index":6.5,"wind_gusts":28.1,"aqi":85,"pm10":26.8,"pm2_5":21.5,"no2":1.6,"co":301.0,"o3":143.0,"so2":6.5,"mosquito_risk":6,"arthritis_risk":5,"migraine_risk":7,"frizz_risk":1,"updated_at":"2026-06-03T09:54:31.560631+05:30"},{"city":"Imphal","state":"Manipur","latitude":24.817,"longitude":93.9368,"temp":27.8,"humidity":66,"rain":0.0,"pressure":922.6,"uv_index":9.25,"wind_gusts":33.1,"aqi":88,"pm10":17.8,"pm2_5":13.2,"no2":1.0,"co":247.0,"o3":129.0,"so2":2.7,"mosquito_risk":7,"arthritis_risk":5,"migraine_risk":7,"frizz_risk":1,"updated_at":"2026-06-03T09:54:31.560639+05:30"},{"city":"Aizawl","state":"Mizoram","latitude":23.7271,"longitude":92.7176,"temp":26.2,"humidity":62,"rain":0.0,"pressure":893.0,"uv_index":8.8,"wind_gusts":26.6,"aqi":86,"pm10":37.1,"pm2_5":21.5,"no2":0.7,"co":176.0,"o3":108.0,"so2":3.7,"mosquito_risk":7,"arthritis_risk":5,"migraine_risk":7,"frizz_risk":1,"updated_at":"2026-06-03T09:54:31.560646+05:30"},{"city":"Kohima","state":"Nagaland","latitude":25.6701,"longitude":94.1077,"temp":24.8,"humidity":67,"rain":0.2,"pressure":855.9,"uv_index":7.4,"wind_gusts":29.9,"aqi":77,"pm10":38.9,"pm2_5":28.2,"no2":0.7,"co":279.0,"o3":147.0,"so2":3.9,"mosquito_risk":6,"arthritis_risk":5,"migraine_risk":7,"frizz_risk":1,"updated_at":"2026-06-03T09:54:31.560654+05:30"},{"city":"Gangtok","state":"Sikkim","latitude":27.3314,"longitude":88.6138,"temp":24.0,"humidity":57,"rain":0.0,"pressure":838.5,"uv_index":9.2,"wind_gusts":38.9,"aqi":65,"pm10":17.5,"pm2_5":13.9,"no2":1.1,"co":255.0,"o3":154.0,"so2":2.3,"mosquito_risk":0,"arthritis_risk":5,"migraine_risk":7,"frizz_risk":0,"updated_at":"2026-06-03T09:54:31.560662+05:30"},{"city":"Siliguri","state":"West Bengal","latitude":26.7271,"longitude":88.3953,"temp":31.3,"humidity":62,"rain":0.0,"pressure":990.2,"uv_index":8.75,"wind_gusts":37.1,"aqi":127,"pm10":51.2,"pm2_5":43.7,"no2":2.0,"co":502.0,"o3":173.0,"so2":7.7,"mosquito_risk":3,"arthritis_risk":5,"migraine_risk":7,"frizz_risk":1,"updated_at":"2026-06-03T09:54:34.792923+05:30"},{"city":"Durgapur","state":"West Bengal","latitude":23.5204,"longitude":87.3119,"temp":34.1,"humidity":59,"rain":0.0,"pressure":992.5,"uv_index":9.0,"wind_gusts":22.0,"aqi":163,"pm10":98.5,"pm2_5":88.5,"no2":34.3,"co":662.0,"o3":153.0,"so2":97.3,"mosquito_risk":0,"arthritis_risk":5,"migraine_risk":7,"frizz_risk":1,"updated_at":"2026-06-03T09:54:34.792954+05:30"},{"city":"Asansol","state":"West Bengal","latitude":23.6739,"longitude":86.9524,"temp":34.2,"humidity":52,"rain":0.0,"pressure":991.2,"uv_index":9.0,"wind_gusts":20.9,"aqi":160,"pm10":91.0,"pm2_5":77.5,"no2":28.9,"co":709.0,"o3":157.0,"so2":81.0,"mosquito_risk":0,"arthritis_risk":5,"migraine_risk":7,"frizz_risk":1,"updated_at":"2026-06-03T09:54:34.792966+05:30"},{"city":"Pondicherry","state":"Puducherry","latitude":11.9139,"longitude":79.8145,"temp":33.0,"humidity":55,"rain":0.0,"pressure":1007.4,"uv_index":8.85,"wind_gusts":38.5,"aqi":52,"pm10":17.5,"pm2_5":14.5,"no2":10.1,"co":303.0,"o3":85.0,"so2":13.9,"mosquito_risk":0,"arthritis_risk":5,"migraine_risk":4,"frizz_risk":1,"updated_at":"2026-06-03T09:54:34.792975+05:30"},{"city":"Port Blair","state":"Andaman and Nicobar Islands","latitude":11.6234,"longitude":92.7265,"temp":27.0,"humidity":92,"rain":0.1,"pressure":1007.0,"uv_index":2.05,"wind_gusts":40.0,"aqi":36,"pm10":11.1,"pm2_5":6.4,"no2":0.6,"co":119.0,"o3":71.0,"so2":0.4,"mosquito_risk":10,"arthritis_risk":5,"migraine_risk":0,"frizz_risk":1,"updated_at":"2026-06-03T09:54:34.792984+05:30"},{"city":"Haridwar","state":"Uttarakhand","latitude":29.9457,"longitude":78.1642,"temp":32.9,"humidity":41,"rain":0.0,"pressure":972.7,"uv_index":7.6,"wind_gusts":24.1,"aqi":103,"pm10":33.5,"pm2_5":20.9,"no2":1.2,"co":277.0,"o3":175.0,"so2":8.1,"mosquito_risk":0,"arthritis_risk":5,"migraine_risk":7,"frizz_risk":1,"updated_at":"2026-06-03T09:54:34.792993+05:30"},{"city":"Rishikesh","state":"Uttarakhand","latitude":30.0869,"longitude":78.2676,"temp":31.9,"humidity":43,"rain":0.0,"pressure":965.5,"uv_index":7.7,"wind_gusts":21.6,"aqi":78,"pm10":22.8,"pm2_5":14.9,"no2":0.1,"co":288.0,"o3":159.0,"so2":4.2,"mosquito_risk":0,"arthritis_risk":5,"migraine_risk":7,"frizz_risk":1,"updated_at":"2026-06-03T09:54:34.793001+05:30"},{"city":"Nainital","state":"Uttarakhand","latitude":29.3919,"longitude":79.4542,"temp":21.8,"humidity":49,"rain":0.0,"pressure":807.8,"uv_index":6.9,"wind_gusts":25.9,"aqi":100,"pm10":66.4,"pm2_5":28.2,"no2":0.0,"co":200.0,"o3":152.0,"so2":6.0,"mosquito_risk":0,"arthritis_risk":5,"migraine_risk":7,"frizz_risk":0,"updated_at":"2026-06-03T09:54:34.793009+05:30"},{"city":"Mussoorie","state":"Uttarakhand","latitude":30.4599,"longitude":78.0664,"temp":21.3,"humidity":52,"rain":0.1,"pressure":805.1,"uv_index":8.15,"wind_gusts":33.5,"aqi":78,"pm10":22.3,"pm2_5":13.9,"no2":0.0,"co":219.0,"o3":169.0,"so2":5.3,"mosquito_risk":3,"arthritis_risk":5,"migraine_risk":7,"frizz_risk":0,"updated_at":"2026-06-03T09:54:34.793018+05:30"},{"city":"Dharamshala","state":"Himachal Pradesh","latitude":32.219,"longitude":76.3234,"temp":24.4,"humidity":55,"rain":0.0,"pressure":869.5,"uv_index":8.55,"wind_gusts":38.2,"aqi":48,"pm10":36.4,"pm2_5":13.7,"no2":0.8,"co":287.0,"o3":129.0,"so2":0.9,"mosquito_risk":0,"arthritis_risk":5,"migraine_risk":7,"frizz_risk":0,"updated_at":"2026-06-03T09:54:34.793026+05:30"},{"city":"Dalhousie","state":"Himachal Pradesh","latitude":32.5387,"longitude":75.971,"temp":22.0,"humidity":47,"rain":0.0,"pressure":806.8,"uv_index":8.3,"wind_gusts":34.9,"aqi":74,"pm10":71.5,"pm2_5":26.8,"no2":2.4,"co":269.0,"o3":149.0,"so2":2.1,"mosquito_risk":0,"arthritis_risk":5,"migraine_risk":7,"frizz_risk":0,"updated_at":"2026-06-03T09:54:34.793035+05:30"},{"city":"Patiala","state":"Punjab","latitude":30.3398,"longitude":76.3869,"temp":33.5,"humidity":42,"rain":0.0,"pressure":976.4,"uv_index":7.7,"wind_gusts":28.4,"aqi":155,"pm10":244.0,"pm2_5":58.1,"no2":5.6,"co":355.0,"o3":143.0,"so2":15.7,"mosquito_risk":0,"arthritis_risk":5,"migraine_risk":7,"frizz_risk":1,"updated_at":"2026-06-03T09:54:34.793043+05:30"},{"city":"Bhatinda","state":"Punjab","latitude":30.211,"longitude":74.9455,"temp":35.7,"humidity":33,"rain":0.0,"pressure":981.5,"uv_index":8.35,"wind_gusts":29.2,"aqi":170,"pm10":357.6,"pm2_5":72.4,"no2":8.4,"co":336.0,"o3":136.0,"so2":11.1,"mosquito_risk":0,"arthritis_risk":5,"migraine_risk":10,"frizz_risk":1,"updated_at":"2026-06-03T09:54:34.793050+05:30"},{"city":"Rohtak","state":"Haryana","latitude":28.8955,"longitude":76.6066,"temp":33.7,"humidity":41,"rain":0.0,"pressure":980.1,"uv_index":7.8,"wind_gusts":25.9,"aqi":157,"pm10":155.1,"pm2_5":54.4,"no2":14.9,"co":487.0,"o3":156.0,"so2":37.7,"mosquito_risk":0,"arthritis_risk":5,"migraine_risk":7,"frizz_risk":1,"updated_at":"2026-06-03T09:54:34.793059+05:30"},{"city":"Panipat","state":"Haryana","latitude":29.3909,"longitude":76.9635,"temp":33.3,"humidity":45,"rain":0.0,"pressure":978.8,"uv_index":7.65,"wind_gusts":23.4,"aqi":160,"pm10":207.7,"pm2_5":65.7,"no2":14.5,"co":401.0,"o3":158.0,"so2":37.3,"mosquito_risk":0,"arthritis_risk":5,"migraine_risk":7,"frizz_risk":1,"updated_at":"2026-06-03T09:54:34.793066+05:30"},{"city":"Mathura","state":"Uttar Pradesh","latitude":27.4924,"longitude":77.6737,"temp":33.8,"humidity":42,"rain":0.0,"pressure":984.8,"uv_index":8.1,"wind_gusts":18.7,"aqi":131,"pm10":181.1,"pm2_5":50.8,"no2":7.5,"co":355.0,"o3":132.0,"so2":8.0,"mosquito_risk":0,"arthritis_risk":5,"migraine_risk":7,"frizz_risk":1,"updated_at":"2026-06-03T09:54:34.793074+05:30"},{"city":"Vrindavan","state":"Uttar Pradesh","latitude":27.5823,"longitude":77.7027,"temp":33.9,"humidity":41,"rain":0.0,"pressure":985.2,"uv_index":8.05,"wind_gusts":18.7,"aqi":131,"pm10":181.1,"pm2_5":50.8,"no2":7.5,"co":361.0,"o3":132.0,"so2":8.0,"mosquito_risk":0,"arthritis_risk":5,"migraine_risk":7,"frizz_risk":1,"updated_at":"2026-06-03T09:54:34.793081+05:30"},{"city":"Ayodhya","state":"Uttar Pradesh","latitude":26.7922,"longitude":82.1998,"temp":33.3,"humidity":52,"rain":0.0,"pressure":993.4,"uv_index":8.4,"wind_gusts":23.0,"aqi":145,"pm10":97.1,"pm2_5":50.9,"no2":6.9,"co":338.0,"o3":136.0,"so2":13.3,"mosquito_risk":0,"arthritis_risk":5,"migraine_risk":7,"frizz_risk":1,"updated_at":"2026-06-03T09:54:34.793089+05:30"},{"city":"Ratlam","state":"Madhya Pradesh","latitude":23.3315,"longitude":75.0367,"temp":31.5,"humidity":53,"rain":0.0,"pressure":954.2,"uv_index":8.5,"wind_gusts":32.4,"aqi":82,"pm10":58.9,"pm2_5":29.0,"no2":3.5,"co":164.0,"o3":75.0,"so2":12.8,"mosquito_risk":0,"arthritis_risk":5,"migraine_risk":7,"frizz_risk":1,"updated_at":"2026-06-03T09:54:34.793097+05:30"},{"city":"Sagar","state":"Madhya Pradesh","latitude":23.8388,"longitude":78.7378,"temp":33.3,"humidity":37,"rain":0.0,"pressure":949.3,"uv_index":8.15,"wind_gusts":27.0,"aqi":68,"pm10":39.7,"pm2_5":18.2,"no2":3.0,"co":176.0,"o3":109.0,"so2":4.8,"mosquito_risk":0,"arthritis_risk":5,"migraine_risk":7,"frizz_risk":1,"updated_at":"2026-06-03T09:54:34.793104+05:30"},{"city":"Satna","state":"Madhya Pradesh","latitude":24.6005,"longitude":80.8322,"temp":34.6,"humidity":37,"rain":0.0,"pressure":969.8,"uv_index":8.75,"wind_gusts":23.4,"aqi":104,"pm10":37.1,"pm2_5":18.0,"no2":1.0,"co":241.0,"o3":132.0,"so2":5.3,"mosquito_risk":0,"arthritis_risk":5,"migraine_risk":7,"frizz_risk":1,"updated_at":"2026-06-03T09:54:34.793112+05:30"},{"city":"Akola","state":"Maharashtra","latitude":20.7002,"longitude":77.0082,"temp":33.3,"humidity":44,"rain":0.0,"pressure":974.5,"uv_index":8.8,"wind_gusts":34.6,"aqi":69,"pm10":41.4,"pm2_5":22.5,"no2":3.6,"co":153.0,"o3":102.0,"so2":11.3,"mosquito_risk":0,"arthritis_risk":5,"migraine_risk":7,"frizz_risk":1,"updated_at":"2026-06-03T09:54:34.793140+05:30"},{"city":"Amravati","state":"Maharashtra","latitude":20.9374,"longitude":77.7796,"temp":34.2,"humidity":39,"rain":0.0,"pressure":966.8,"uv_index":8.2,"wind_gusts":39.2,"aqi":74,"pm10":36.3,"pm2_5":21.8,"no2":3.8,"co":168.0,"o3":110.0,"so2":11.1,"mosquito_risk":0,"arthritis_risk":5,"migraine_risk":7,"frizz_risk":1,"updated_at":"2026-06-03T09:54:34.793150+05:30"},{"city":"Latur","state":"Maharashtra","latitude":18.4088,"longitude":76.5604,"temp":30.9,"humidity":43,"rain":0.0,"pressure":940.2,"uv_index":8.85,"wind_gusts":44.3,"aqi":65,"pm10":52.2,"pm2_5":26.0,"no2":2.5,"co":149.0,"o3":99.0,"so2":7.2,"mosquito_risk":0,"arthritis_risk":5,"migraine_risk":7,"frizz_risk":1,"updated_at":"2026-06-03T09:54:34.793158+05:30"},{"city":"Nanded","state":"Maharashtra","latitude":19.1383,"longitude":77.3091,"temp":32.8,"humidity":46,"rain":0.0,"pressure":968.4,"uv_index":8.75,"wind_gusts":32.4,"aqi":64,"pm10":20.9,"pm2_5":13.3,"no2":2.5,"co":165.0,"o3":99.0,"so2":6.0,"mosquito_risk":0,"arthritis_risk":5,"migraine_risk":7,"frizz_risk":1,"updated_at":"2026-06-03T09:54:34.793165+05:30"},{"city":"Gulbarga","state":"Karnataka","latitude":17.3297,"longitude":76.8343,"temp":31.5,"humidity":44,"rain":0.0,"pressure":959.0,"uv_index":8.9,"wind_gusts":40.7,"aqi":73,"pm10":34.7,"pm2_5":18.9,"no2":5.2,"co":171.0,"o3":75.0,"so2":4.4,"mosquito_risk":0,"arthritis_risk":5,"migraine_risk":7,"frizz_risk":1,"updated_at":"2026-06-03T09:54:34.793173+05:30"},{"city":"Bidar","state":"Karnataka","latitude":17.9104,"longitude":77.5199,"temp":30.4,"humidity":48,"rain":0.0,"pressure":935.7,"uv_index":8.7,"wind_gusts":30.2,"aqi":78,"pm10":33.9,"pm2_5":21.2,"no2":4.3,"co":185.0,"o3":110.0,"so2":7.7,"mosquito_risk":0,"arthritis_risk":5,"migraine_risk":7,"frizz_risk":1,"updated_at":"2026-06-03T09:54:34.793180+05:30"},{"city":"Hospet","state":"Karnataka","latitude":15.2689,"longitude":76.3909,"temp":26.6,"humidity":76,"rain":0.0,"pressure":956.7,"uv_index":7.35,"wind_gusts":38.2,"aqi":40,"pm10":13.1,"pm2_5":6.6,"no2":3.6,"co":139.0,"o3":57.0,"so2":2.3,"mosquito_risk":7,"arthritis_risk":5,"migraine_risk":7,"frizz_risk":1,"updated_at":"2026-06-03T09:54:34.793187+05:30"},{"city":"Tirupur","state":"Tamil Nadu","latitude":11.1085,"longitude":77.3411,"temp":29.5,"humidity":62,"rain":0.0,"pressure":975.9,"uv_index":8.4,"wind_gusts":63.0,"aqi":45,"pm10":4.4,"pm2_5":4.2,"no2":4.8,"co":191.0,"o3":68.0,"so2":4.1,"mosquito_risk":7,"arthritis_risk":5,"migraine_risk":7,"frizz_risk":1,"updated_at":"2026-06-03T09:54:34.793195+05:30"},{"city":"Alappuzha","state":"Kerala","latitude":9.4981,"longitude":76.3388,"temp":27.9,"humidity":85,"rain":0.0,"pressure":1010.8,"uv_index":7.6,"wind_gusts":40.3,"aqi":26,"pm10":14.1,"pm2_5":8.2,"no2":3.8,"co":108.0,"o3":71.0,"so2":2.2,"mosquito_risk":7,"arthritis_risk":0,"migraine_risk":4,"frizz_risk":1,"updated_at":"2026-06-03T09:54:34.793203+05:30"},{"city":"Munnar","state":"Kerala","latitude":10.0889,"longitude":77.0595,"temp":17.6,"humidity":93,"rain":0.1,"pressure":858.2,"uv_index":8.1,"wind_gusts":39.2,"aqi":23,"pm10":3.1,"pm2_5":2.5,"no2":2.2,"co":115.0,"o3":62.0,"so2":1.6,"mosquito_risk":6,"arthritis_risk":10,"migraine_risk":7,"frizz_risk":1,"updated_at":"2026-06-03T09:54:34.793211+05:30"},{"city":"Silchar","state":"Assam","latitude":24.8333,"longitude":92.7789,"temp":28.0,"humidity":82,"rain":0.1,"pressure":1004.2,"uv_index":8.95,"wind_gusts":26.6,"aqi":117,"pm10":27.6,"pm2_5":20.7,"no2":1.7,"co":234.0,"o3":124.0,"so2":4.9,"mosquito_risk":10,"arthritis_risk":5,"migraine_risk":4,"frizz_risk":1,"updated_at":"2026-06-03T09:54:34.793219+05:30"},{"city":"Dibrugarh","state":"Assam","latitude":27.4728,"longitude":94.912,"temp":27.2,"humidity":83,"rain":0.0,"pressure":993.6,"uv_index":8.9,"wind_gusts":31.7,"aqi":61,"pm10":21.7,"pm2_5":18.3,"no2":2.1,"co":326.0,"o3":132.0,"so2":2.8,"mosquito_risk":7,"arthritis_risk":5,"migraine_risk":7,"frizz_risk":1,"updated_at":"2026-06-03T09:54:34.793227+05:30"}]