[{"city":"Delhi","state":"Delhi","latitude":28.6139,"longitude":77.209,"temp":25.3,"humidity":57,"rain":0.0,"pressure":977.9,"uv_index":7.6,"wind_gusts":31.7,"aqi":257,"pm10":340.9,"pm2_5":71.7,"no2":15.6,"co":445.0,"o3":100.0,"so2":20.2,"mosquito_risk":4,"arthritis_risk":5,"migraine_risk":7,"frizz_risk":0,"updated_at":"2026-05-02T05:24:39.973563+05:30"},{"city":"Mumbai","state":"Maharashtra","latitude":19.076,"longitude":72.8777,"temp":27.2,"humidity":85,"rain":0.0,"pressure":1006.4,"uv_index":7.9,"wind_gusts":41.4,"aqi":68,"pm10":68.5,"pm2_5":22.2,"no2":12.7,"co":236.0,"o3":57.0,"so2":19.3,"mosquito_risk":7,"arthritis_risk":5,"migraine_risk":4,"frizz_risk":1,"updated_at":"2026-05-02T05:24:39.973602+05:30"},{"city":"Bangalore","state":"Karnataka","latitude":12.9716,"longitude":77.5946,"temp":21.3,"humidity":89,"rain":0.0,"pressure":909.7,"uv_index":9.5,"wind_gusts":40.0,"aqi":91,"pm10":32.2,"pm2_5":28.0,"no2":18.5,"co":412.0,"o3":58.0,"so2":10.2,"mosquito_risk":3,"arthritis_risk":5,"migraine_risk":7,"frizz_risk":1,"updated_at":"2026-05-02T05:24:39.973618+05:30"},{"city":"Hyderabad","state":"Telangana","latitude":17.385,"longitude":78.4867,"temp":28.0,"humidity":34,"rain":0.0,"pressure":950.7,"uv_index":9.25,"wind_gusts":33.1,"aqi":79,"pm10":34.3,"pm2_5":23.8,"no2":27.6,"co":230.0,"o3":35.0,"so2":9.7,"mosquito_risk":4,"arthritis_risk":5,"migraine_risk":7,"frizz_risk":0,"updated_at":"2026-05-02T05:24:39.973628+05:30"},{"city":"Chennai","state":"Tamil Nadu","latitude":13.0827,"longitude":80.2707,"temp":29.1,"humidity":77,"rain":0.0,"pressure":1004.7,"uv_index":9.25,"wind_gusts":56.9,"aqi":57,"pm10":12.3,"pm2_5":10.3,"no2":11.8,"co":259.0,"o3":57.0,"so2":10.4,"mosquito_risk":7,"arthritis_risk":5,"migraine_risk":4,"frizz_risk":1,"updated_at":"2026-05-02T05:24:39.973638+05:30"},{"city":"Kolkata","state":"West Bengal","latitude":22.5726,"longitude":88.3639,"temp":25.0,"humidity":90,"rain":0.0,"pressure":1002.2,"uv_index":8.9,"wind_gusts":46.1,"aqi":66,"pm10":19.6,"pm2_5":16.2,"no2":11.0,"co":292.0,"o3":79.0,"so2":6.8,"mosquito_risk":7,"arthritis_risk":5,"migraine_risk":4,"frizz_risk":1,"updated_at":"2026-05-02T05:24:39.973653+05:30"},{"city":"Pune","state":"Maharashtra","latitude":18.5204,"longitude":73.8567,"temp":22.2,"humidity":77,"rain":0.0,"pressure":945.5,"uv_index":8.5,"wind_gusts":47.5,"aqi":56,"pm10":48.3,"pm2_5":17.2,"no2":14.0,"co":181.0,"o3":41.0,"so2":11.8,"mosquito_risk":3,"arthritis_risk":5,"migraine_risk":7,"frizz_risk":1,"updated_at":"2026-05-02T05:24:39.973662+05:30"},{"city":"Ahmedabad","state":"Gujarat","latitude":23.0225,"longitude":72.5714,"temp":28.1,"humidity":70,"rain":0.0,"pressure":998.0,"uv_index":8.1,"wind_gusts":50.4,"aqi":53,"pm10":29.7,"pm2_5":13.2,"no2":5.3,"co":245.0,"o3":51.0,"so2":6.4,"mosquito_risk":7,"arthritis_risk":5,"migraine_risk":7,"frizz_risk":1,"updated_at":"2026-05-02T05:24:39.973672+05:30"},{"city":"Jaipur","state":"Rajasthan","latitude":26.9124,"longitude":75.7873,"temp":25.2,"humidity":52,"rain":0.0,"pressure":954.1,"uv_index":8.15,"wind_gusts":42.8,"aqi":129,"pm10":233.3,"pm2_5":49.6,"no2":14.1,"co":375.0,"o3":55.0,"so2":6.7,"mosquito_risk":4,"arthritis_risk":5,"migraine_risk":7,"frizz_risk":0,"updated_at":"2026-05-02T05:24:39.973680+05:30"},{"city":"Lucknow","state":"Uttar Pradesh","latitude":26.8467,"longitude":80.9462,"temp":22.9,"humidity":76,"rain":0.0,"pressure":990.2,"uv_index":8.1,"wind_gusts":30.6,"aqi":94,"pm10":40.6,"pm2_5":29.2,"no2":9.3,"co":376.0,"o3":90.0,"so2":7.3,"mosquito_risk":3,"arthritis_risk":5,"migraine_risk":7,"frizz_risk":1,"updated_at":"2026-05-02T05:24:39.973688+05:30"},{"city":"Kanpur","state":"Uttar Pradesh","latitude":26.4499,"longitude":80.3319,"temp":24.4,"humidity":68,"rain":0.0,"pressure":987.8,"uv_index":8.1,"wind_gusts":61.9,"aqi":126,"pm10":262.6,"pm2_5":50.2,"no2":8.3,"co":358.0,"o3":89.0,"so2":8.4,"mosquito_risk":3,"arthritis_risk":5,"migraine_risk":7,"frizz_risk":1,"updated_at":"2026-05-02T05:24:39.973695+05:30"},{"city":"Chandigarh","state":"Chandigarh","latitude":30.7333,"longitude":76.7794,"temp":22.2,"humidity":59,"rain":0.0,"pressure":963.7,"uv_index":7.6,"wind_gusts":43.2,"aqi":96,"pm10":52.3,"pm2_5":31.2,"no2":22.1,"co":324.0,"o3":43.0,"so2":9.3,"mosquito_risk":0,"arthritis_risk":5,"migraine_risk":7,"frizz_risk":0,"updated_at":"2026-05-02T05:24:39.973703+05:30"},{"city":"Srinagar","state":"Jammu and Kashmir","latitude":34.0837,"longitude":74.7973,"temp":8.0,"humidity":100,"rain":0.0,"pressure":836.3,"uv_index":8.75,"wind_gusts":29.9,"aqi":76,"pm10":39.2,"pm2_5":34.5,"no2":20.7,"co":398.0,"o3":23.0,"so2":1.0,"mosquito_risk":3,"arthritis_risk":10,"migraine_risk":7,"frizz_risk":0,"updated_at":"2026-05-02T05:24:39.973711+05:30"},{"city":"Jammu","state":"Jammu and Kashmir","latitude":32.7266,"longitude":74.857,"temp":18.6,"humidity":71,"rain":0.0,"pressure":966.3,"uv_index":8.4,"wind_gusts":31.3,"aqi":61,"pm10":20.3,"pm2_5":19.3,"no2":24.9,"co":242.0,"o3":18.0,"so2":1.8,"mosquito_risk":3,"arthritis_risk":5,"migraine_risk":7,"frizz_risk":0,"updated_at":"2026-05-02T05:24:39.973719+05:30"},{"city":"Amritsar","state":"Punjab","latitude":31.634,"longitude":74.8723,"temp":22.8,"humidity":62,"rain":0.0,"pressure":974.7,"uv_index":8.25,"wind_gusts":45.0,"aqi":130,"pm10":36.6,"pm2_5":27.9,"no2":8.8,"co":596.0,"o3":73.0,"so2":5.5,"mosquito_risk":3,"arthritis_risk":5,"migraine_risk":7,"frizz_risk":0,"updated_at":"2026-05-02T05:24:39.973726+05:30"},{"city":"Ludhiana","state":"Punjab","latitude":30.901,"longitude":75.8573,"temp":23.1,"humidity":65,"rain":0.0,"pressure":973.2,"uv_index":7.8,"wind_gusts":33.1,"aqi":157,"pm10":234.2,"pm2_5":71.9,"no2":18.6,"co":724.0,"o3":53.0,"so2":15.3,"mosquito_risk":3,"arthritis_risk":5,"migraine_risk":7,"frizz_risk":1,"updated_at":"2026-05-02T05:24:39.973734+05:30"},{"city":"Jalandhar","state":"Punjab","latitude":31.326,"longitude":75.5762,"temp":21.6,"humidity":68,"rain":0.0,"pressure":974.0,"uv_index":8.05,"wind_gusts":32.4,"aqi":154,"pm10":75.9,"pm2_5":49.9,"no2":23.1,"co":522.0,"o3":42.0,"so2":8.8,"mosquito_risk":3,"arthritis_risk":5,"migraine_risk":7,"frizz_risk":0,"updated_at":"2026-05-02T05:24:39.973743+05:30"},{"city":"Dehradun","state":"Uttarakhand","latitude":30.6284,"longitude":78.0322,"temp":9.5,"humidity":94,"rain":0.0,"pressure":823.0,"uv_index":8.05,"wind_gusts":46.1,"aqi":69,"pm10":13.8,"pm2_5":11.5,"no2":14.3,"co":289.0,"o3":49.0,"so2":0.0,"mosquito_risk":3,"arthritis_risk":10,"migraine_risk":7,"frizz_risk":0,"updated_at":"2026-05-02T05:24:39.973753+05:30"},{"city":"Shimla","state":"Himachal Pradesh","latitude":31.1048,"longitude":77.1734,"temp":7.7,"humidity":82,"rain":0.0,"pressure":776.1,"uv_index":8.1,"wind_gusts":49.3,"aqi":70,"pm10":32.1,"pm2_5":23.6,"no2":21.8,"co":233.0,"o3":41.0,"so2":2.0,"mosquito_risk":3,"arthritis_risk":10,"migraine_risk":7,"frizz_risk":0,"updated_at":"2026-05-02T05:24:39.973760+05:30"},{"city":"Manali","state":"Himachal Pradesh","latitude":32.2396,"longitude":77.1887,"temp":5.7,"humidity":62,"rain":0.0,"pressure":808.1,"uv_index":9.6,"wind_gusts":37.8,"aqi":43,"pm10":8.5,"pm2_5":6.8,"no2":20.3,"co":213.0,"o3":108.0,"so2":0.0,"mosquito_risk":3,"arthritis_risk":5,"migraine_risk":7,"frizz_risk":1,"updated_at":"2026-05-02T05:24:39.973767+05:30"},{"city":"Gurgaon","state":"Haryana","latitude":28.4595,"longitude":77.0266,"temp":24.3,"humidity":60,"rain":0.0,"pressure":976.1,"uv_index":7.7,"wind_gusts":30.6,"aqi":1115,"pm10":871.7,"pm2_5":125.7,"no2":11.0,"co":423.0,"o3":98.0,"so2":14.4,"mosquito_risk":0,"arthritis_risk":5,"migraine_risk":7,"frizz_risk":0,"updated_at":"2026-05-02T05:24:39.973774+05:30"},{"city":"Noida","state":"Uttar Pradesh","latitude":28.5355,"longitude":77.391,"temp":22.8,"humidity":68,"rain":0.0,"pressure":979.4,"uv_index":7.65,"wind_gusts":35.3,"aqi":1115,"pm10":871.7,"pm2_5":125.7,"no2":11.0,"co":423.0,"o3":98.0,"so2":14.4,"mosquito_risk":3,"arthritis_risk":5,"migraine_risk":7,"frizz_risk":1,"updated_at":"2026-05-02T05:24:39.973781+05:30"},{"city":"Ghaziabad","state":"Uttar Pradesh","latitude":28.6692,"longitude":77.4538,"temp":23.1,"humidity":67,"rain":0.0,"pressure":977.7,"uv_index":7.6,"wind_gusts":39.6,"aqi":161,"pm10":204.9,"pm2_5":54.9,"no2":8.9,"co":392.0,"o3":101.0,"so2":16.6,"mosquito_risk":3,"arthritis_risk":5,"migraine_risk":7,"frizz_risk":1,"updated_at":"2026-05-02T05:24:39.973788+05:30"},{"city":"Faridabad","state":"Haryana","latitude":28.4089,"longitude":77.3178,"temp":24.1,"humidity":62,"rain":0.0,"pressure":978.7,"uv_index":7.65,"wind_gusts":25.2,"aqi":1115,"pm10":871.7,"pm2_5":125.7,"no2":11.0,"co":426.0,"o3":98.0,"so2":14.4,"mosquito_risk":3,"arthritis_risk":5,"migraine_risk":7,"frizz_risk":1,"updated_at":"2026-05-02T05:24:39.973795+05:30"},{"city":"Meerut","state":"Uttar Pradesh","latitude":28.9845,"longitude":77.7064,"temp":22.5,"humidity":74,"rain":0.0,"pressure":976.9,"uv_index":7.5,"wind_gusts":34.2,"aqi":161,"pm10":204.9,"pm2_5":54.9,"no2":8.9,"co":377.0,"o3":101.0,"so2":16.6,"mosquito_risk":3,"arthritis_risk":5,"migraine_risk":7,"frizz_risk":1,"updated_at":"2026-05-02T05:24:39.973801+05:30"},{"city":"Agra","state":"Uttar Pradesh","latitude":27.1767,"longitude":78.0081,"temp":25.8,"humidity":62,"rain":0.0,"pressure":982.7,"uv_index":7.95,"wind_gusts":38.2,"aqi":730,"pm10":745.1,"pm2_5":106.4,"no2":7.2,"co":359.0,"o3":93.0,"so2":9.8,"mosquito_risk":7,"arthritis_risk":5,"migraine_risk":7,"frizz_risk":1,"updated_at":"2026-05-02T05:24:39.973809+05:30"},{"city":"Varanasi","state":"Uttar Pradesh","latitude":25.3176,"longitude":82.9739,"temp":22.8,"humidity":83,"rain":0.0,"pressure":994.4,"uv_index":8.6,"wind_gusts":29.2,"aqi":98,"pm10":54.4,"pm2_5":44.1,"no2":14.1,"co":448.0,"o3":79.0,"so2":14.6,"mosquito_risk":3,"arthritis_risk":5,"migraine_risk":7,"frizz_risk":1,"updated_at":"2026-05-02T05:24:39.973817+05:30"},{"city":"Prayagraj","state":"Uttar Pradesh","latitude":25.4358,"longitude":81.8463,"temp":23.6,"humidity":76,"rain":0.0,"pressure":992.4,"uv_index":8.5,"wind_gusts":28.8,"aqi":98,"pm10":53.1,"pm2_5":42.4,"no2":13.2,"co":466.0,"o3":84.0,"so2":11.9,"mosquito_risk":3,"arthritis_risk":5,"migraine_risk":7,"frizz_risk":1,"updated_at":"2026-05-02T05:24:39.973826+05:30"},{"city":"Gorakhpur","state":"Uttar Pradesh","latitude":26.7606,"longitude":83.3732,"temp":20.9,"humidity":95,"rain":0.0,"pressure":995.1,"uv_index":8.45,"wind_gusts":28.4,"aqi":76,"pm10":27.3,"pm2_5":25.1,"no2":11.6,"co":480.0,"o3":76.0,"so2":6.9,"mosquito_risk":3,"arthritis_risk":5,"migraine_risk":7,"frizz_risk":1,"updated_at":"2026-05-02T05:24:39.973833+05:30"},{"city":"Bareilly","state":"Uttar Pradesh","latitude":28.367,"longitude":79.4304,"temp":22.1,"humidity":78,"rain":0.0,"pressure":983.2,"uv_index":7.9,"wind_gusts":32.8,"aqi":101,"pm10":98.5,"pm2_5":39.5,"no2":9.0,"co":335.0,"o3":84.0,"so2":5.8,"mosquito_risk":3,"arthritis_risk":5,"migraine_risk":7,"frizz_risk":1,"updated_at":"2026-05-02T05:24:39.973840+05:30"},{"city":"Aligarh","state":"Uttar Pradesh","latitude":27.8974,"longitude":78.088,"temp":24.0,"humidity":69,"rain":0.0,"pressure":980.7,"uv_index":7.75,"wind_gusts":40.3,"aqi":565,"pm10":493.6,"pm2_5":79.6,"no2":7.8,"co":353.0,"o3":95.0,"so2":14.3,"mosquito_risk":3,"arthritis_risk":5,"migraine_risk":7,"frizz_risk":1,"updated_at":"2026-05-02T05:24:39.973847+05:30"},{"city":"Moradabad","state":"Uttar Pradesh","latitude":28.8386,"longitude":78.7733,"temp":22.2,"humidity":79,"rain":0.0,"pressure":979.8,"uv_index":7.7,"wind_gusts":39.6,"aqi":118,"pm10":75.0,"pm2_5":38.8,"no2":9.7,"co":341.0,"o3":86.0,"so2":8.4,"mosquito_risk":3,"arthritis_risk":5,"migraine_risk":7,"frizz_risk":1,"updated_at":"2026-05-02T05:24:39.973854+05:30"},{"city":"Saharanpur","state":"Uttar Pradesh","latitude":29.9637,"longitude":77.546,"temp":21.5,"humidity":78,"rain":0.0,"pressure":971.4,"uv_index":7.35,"wind_gusts":34.6,"aqi":120,"pm10":79.4,"pm2_5":48.2,"no2":17.1,"co":362.0,"o3":49.0,"so2":8.3,"mosquito_risk":3,"arthritis_risk":5,"migraine_risk":7,"frizz_risk":1,"updated_at":"2026-05-02T05:24:39.973860+05:30"},{"city":"Jhansi","state":"Uttar Pradesh","latitude":25.4484,"longitude":78.5685,"temp":24.4,"humidity":63,"rain":0.0,"pressure":972.6,"uv_index":8.4,"wind_gusts":41.0,"aqi":73,"pm10":63.8,"pm2_5":27.5,"no2":6.7,"co":280.0,"o3":60.0,"so2":4.8,"mosquito_risk":3,"arthritis_risk":5,"migraine_risk":7,"frizz_risk":1,"updated_at":"2026-05-02T05:24:43.311733+05:30"},{"city":"Surat","state":"Gujarat","latitude":21.1702,"longitude":72.8311,"temp":27.9,"humidity":84,"rain":0.0,"pressure":1003.4,"uv_index":7.7,"wind_gusts":54.0,"aqi":63,"pm10":35.7,"pm2_5":19.0,"no2":20.2,"co":262.0,"o3":51.0,"so2":33.9,"mosquito_risk":7,"arthritis_risk":5,"migraine_risk":4,"frizz_risk":1,"updated_at":"2026-05-02T05:24:43.311766+05:30"},{"city":"Vadodara","state":"Gujarat","latitude":22.3072,"longitude":73.1812,"temp":27.3,"humidity":88,"rain":0.0,"pressure":1000.7,"uv_index":8.05,"wind_gusts":49.7,"aqi":54,"pm10":23.3,"pm2_5":12.7,"no2":9.0,"co":173.0,"o3":53.0,"so2":11.3,"mosquito_risk":7,"arthritis_risk":5,"migraine_risk":4,"frizz_risk":1,"updated_at":"2026-05-02T05:24:43.311777+05:30"},{"city":"Rajkot","state":"Gujarat","latitude":22.3039,"longitude":70.8022,"temp":25.9,"humidity":87,"rain":0.0,"pressure":989.9,"uv_index":7.75,"wind_gusts":56.9,"aqi":49,"pm10":22.1,"pm2_5":10.2,"no2":3.1,"co":150.0,"o3":62.0,"so2":3.6,"mosquito_risk":7,"arthritis_risk":5,"migraine_risk":7,"frizz_risk":1,"updated_at":"2026-05-02T05:24:43.311786+05:30"},{"city":"Thane","state":"Maharashtra","latitude":19.2183,"longitude":72.9781,"temp":26.4,"humidity":88,"rain":0.0,"pressure":1005.8,"uv_index":7.95,"wind_gusts":38.9,"aqi":68,"pm10":68.5,"pm2_5":22.2,"no2":12.7,"co":228.0,"o3":57.0,"so2":19.3,"mosquito_risk":7,"arthritis_risk":5,"migraine_risk":4,"frizz_risk":1,"updated_at":"2026-05-02T05:24:43.311794+05:30"},{"city":"Nagpur","state":"Maharashtra","latitude":21.1458,"longitude":79.0882,"temp":29.1,"humidity":32,"rain":0.0,"pressure":969.2,"uv_index":8.95,"wind_gusts":41.8,"aqi":79,"pm10":24.9,"pm2_5":16.6,"no2":8.5,"co":240.0,"o3":70.0,"so2":12.4,"mosquito_risk":4,"arthritis_risk":5,"migraine_risk":7,"frizz_risk":0,"updated_at":"2026-05-02T05:24:43.311802+05:30"},{"city":"Nashik","state":"Maharashtra","latitude":19.9975,"longitude":73.7898,"temp":22.1,"humidity":93,"rain":0.0,"pressure":942.7,"uv_index":8.25,"wind_gusts":47.9,"aqi":61,"pm10":57.0,"pm2_5":21.7,"no2":12.9,"co":204.0,"o3":44.0,"so2":11.0,"mosquito_risk":3,"arthritis_risk":5,"migraine_risk":7,"frizz_risk":1,"updated_at":"2026-05-02T05:24:43.311810+05:30"},{"city":"Aurangabad","state":"Maharashtra","latitude":19.8762,"longitude":75.3433,"temp":24.1,"humidity":70,"rain":0.0,"pressure":941.7,"uv_index":9.05,"wind_gusts":44.3,"aqi":54,"pm10":38.2,"pm2_5":15.9,"no2":12.1,"co":195.0,"o3":47.0,"so2":11.2,"mosquito_risk":3,"arthritis_risk":5,"migraine_risk":7,"frizz_risk":1,"updated_at":"2026-05-02T05:24:43.311818+05:30"},{"city":"Solapur","state":"Maharashtra","latitude":17.6599,"longitude":75.9064,"temp":25.9,"humidity":53,"rain":0.0,"pressure":955.0,"uv_index":9.05,"wind_gusts":42.1,"aqi":51,"pm10":28.2,"pm2_5":12.3,"no2":7.7,"co":179.0,"o3":50.0,"so2":4.0,"mosquito_risk":4,"arthritis_risk":5,"migraine_risk":7,"frizz_risk":0,"updated_at":"2026-05-02T05:24:43.311826+05:30"},{"city":"Kolhapur","state":"Maharashtra","latitude":16.705,"longitude":74.2433,"temp":21.4,"humidity":80,"rain":0.0,"pressure":945.4,"uv_index":8.95,"wind_gusts":49.3,"aqi":60,"pm10":41.6,"pm2_5":19.6,"no2":12.7,"co":173.0,"o3":35.0,"so2":2.0,"mosquito_risk":3,"arthritis_risk":5,"migraine_risk":7,"frizz_risk":1,"updated_at":"2026-05-02T05:24:43.311833+05:30"},{"city":"Goa","state":"Goa","latitude":15.2993,"longitude":74.124,"temp":24.1,"humidity":98,"rain":0.0,"pressure":996.4,"uv_index":8.95,"wind_gusts":40.3,"aqi":65,"pm10":49.8,"pm2_5":28.3,"no2":13.8,"co":248.0,"o3":51.0,"so2":2.8,"mosquito_risk":3,"arthritis_risk":5,"migraine_risk":7,"frizz_risk":1,"updated_at":"2026-05-02T05:24:43.311841+05:30"},{"city":"Jodhpur","state":"Rajasthan","latitude":26.2389,"longitude":73.0243,"temp":29.2,"humidity":46,"rain":0.0,"pressure":976.2,"uv_index":8.35,"wind_gusts":40.7,"aqi":126,"pm10":186.3,"pm2_5":30.6,"no2":3.0,"co":168.0,"o3":65.0,"so2":3.0,"mosquito_risk":4,"arthritis_risk":5,"migraine_risk":7,"frizz_risk":1,"updated_at":"2026-05-02T05:24:43.311848+05:30"},{"city":"Udaipur","state":"Rajasthan","latitude":24.5854,"longitude":73.7125,"temp":25.0,"humidity":65,"rain":0.0,"pressure":941.4,"uv_index":8.8,"wind_gusts":40.7,"aqi":53,"pm10":23.2,"pm2_5":13.5,"no2":6.1,"co":180.0,"o3":57.0,"so2":8.5,"mosquito_risk":7,"arthritis_risk":5,"migraine_risk":7,"frizz_risk":1,"updated_at":"2026-05-02T05:24:43.311855+05:30"},{"city":"Kota","state":"Rajasthan","latitude":25.2138,"longitude":75.8648,"temp":29.0,"humidity":53,"rain":0.0,"pressure":973.1,"uv_index":8.35,"wind_gusts":40.3,"aqi":63,"pm10":25.0,"pm2_5":11.8,"no2":2.9,"co":237.0,"o3":86.0,"so2":6.7,"mosquito_risk":4,"arthritis_risk":5,"migraine_risk":7,"frizz_risk":1,"updated_at":"2026-05-02T05:24:43.311863+05:30"},{"city":"Bikaner","state":"Rajasthan","latitude":28.0229,"longitude":73.3119,"temp":27.6,"humidity":30,"rain":0.0,"pressure":973.8,"uv_index":8.3,"wind_gusts":34.6,"aqi":68,"pm10":59.8,"pm2_5":18.7,"no2":2.8,"co":185.0,"o3":83.0,"so2":3.7,"mosquito_risk":4,"arthritis_risk":5,"migraine_risk":7,"frizz_risk":0,"updated_at":"2026-05-02T05:24:43.311870+05:30"},{"city":"Ajmer","state":"Rajasthan","latitude":26.4499,"longitude":74.6399,"temp":28.2,"humidity":42,"rain":0.0,"pressure":948.8,"uv_index":8.3,"wind_gusts":47.2,"aqi":62,"pm10":48.2,"pm2_5":15.1,"no2":3.2,"co":194.0,"o3":71.0,"so2":3.7,"mosquito_risk":4,"arthritis_risk":5,"migraine_risk":7,"frizz_risk":0,"updated_at":"2026-05-02T05:24:43.311877+05:30"},{"city":"Gwalior","state":"Madhya Pradesh","latitude":26.2183,"longitude":78.1828,"temp":25.0,"humidity":58,"rain":0.0,"pressure":977.8,"uv_index":8.2,"wind_gusts":44.6,"aqi":86,"pm10":121.5,"pm2_5":39.0,"no2":4.9,"co":270.0,"o3":94.0,"so2":5.9,"mosquito_risk":4,"arthritis_risk":5,"migraine_risk":7,"frizz_risk":1,"updated_at":"2026-05-02T05:24:43.311885+05:30"},{"city":"Indore","state":"Madhya Pradesh","latitude":22.7196,"longitude":75.8577,"temp":25.2,"humidity":75,"rain":0.0,"pressure":944.5,"uv_index":8.4,"wind_gusts":49.3,"aqi":57,"pm10":19.8,"pm2_5":10.9,"no2":4.4,"co":171.0,"o3":67.0,"so2":10.0,"mosquito_risk":7,"arthritis_risk":5,"migraine_risk":7,"frizz_risk":1,"updated_at":"2026-05-02T05:24:43.311892+05:30"},{"city":"Bhopal","state":"Madhya Pradesh","latitude":23.2599,"longitude":77.4126,"temp":27.6,"humidity":52,"rain":0.0,"pressure":949.4,"uv_index":8.7,"wind_gusts":64.4,"aqi":70,"pm10":21.9,"pm2_5":15.4,"no2":3.9,"co":201.0,"o3":77.0,"so2":5.8,"mosquito_risk":4,"arthritis_risk":5,"migraine_risk":7,"frizz_risk":1,"updated_at":"2026-05-02T05:24:43.311900+05:30"},{"city":"Jabalpur","state":"Madhya Pradesh","latitude":23.1815,"longitude":79.9864,"temp":26.0,"humidity":48,"rain":0.0,"pressure":956.3,"uv_index":8.85,"wind_gusts":50.0,"aqi":81,"pm10":74.3,"pm2_5":27.4,"no2":17.5,"co":207.0,"o3":46.0,"so2":4.1,"mosquito_risk":4,"arthritis_risk":5,"migraine_risk":7,"frizz_risk":0,"updated_at":"2026-05-02T05:24:43.311907+05:30"},{"city":"Ujjain","state":"Madhya Pradesh","latitude":23.1765,"longitude":75.7885,"temp":25.2,"humidity":77,"rain":0.0,"pressure":950.1,"uv_index":8.6,"wind_gusts":47.5,"aqi":55,"pm10":20.4,"pm2_5":11.1,"no2":4.7,"co":169.0,"o3":63.0,"so2":9.8,"mosquito_risk":7,"arthritis_risk":5,"migraine_risk":7,"frizz_risk":1,"updated_at":"2026-05-02T05:24:43.311914+05:30"},{"city":"Visakhapatnam","state":"Andhra Pradesh","latitude":17.6868,"longitude":83.2185,"temp":26.7,"humidity":87,"rain":0.0,"pressure":1001.5,"uv_index":9.1,"wind_gusts":51.8,"aqi":60,"pm10":20.5,"pm2_5":15.9,"no2":18.0,"co":353.0,"o3":54.0,"so2":2.2,"mosquito_risk":7,"arthritis_risk":5,"migraine_risk":4,"frizz_risk":1,"updated_at":"2026-05-02T05:24:43.311922+05:30"},{"city":"Vijayawada","state":"Andhra Pradesh","latitude":16.5062,"longitude":80.648,"temp":28.2,"humidity":91,"rain":0.0,"pressure":999.2,"uv_index":9.15,"wind_gusts":36.7,"aqi":69,"pm10":16.4,"pm2_5":13.3,"no2":6.0,"co":202.0,"o3":82.0,"so2":7.0,"mosquito_risk":7,"arthritis_risk":5,"migraine_risk":7,"frizz_risk":1,"updated_at":"2026-05-02T05:24:43.311929+05:30"},{"city":"Guntur","state":"Andhra Pradesh","latitude":16.3067,"longitude":80.4365,"temp":28.9,"humidity":86,"rain":0.0,"pressure":1000.4,"uv_index":9.2,"wind_gusts":40.0,"aqi":71,"pm10":16.6,"pm2_5":14.9,"no2":8.1,"co":236.0,"o3":87.0,"so2":9.4,"mosquito_risk":7,"arthritis_risk":5,"migraine_risk":4,"frizz_risk":1,"updated_at":"2026-05-02T05:24:43.311936+05:30"},{"city":"Nellore","state":"Andhra Pradesh","latitude":14.4426,"longitude":79.9865,"temp":29.7,"humidity":67,"rain":0.0,"pressure":1002.4,"uv_index":9.2,"wind_gusts":49.0,"aqi":79,"pm10":26.9,"pm2_5":25.0,"no2":8.6,"co":296.0,"o3":101.0,"so2":11.9,"mosquito_risk":7,"arthritis_risk":5,"migraine_risk":4,"frizz_risk":1,"updated_at":"2026-05-02T05:24:43.311944+05:30"},{"city":"Kurnool","state":"Andhra Pradesh","latitude":15.8281,"longitude":78.0373,"temp":28.5,"humidity":48,"rain":0.0,"pressure":974.5,"uv_index":9.2,"wind_gusts":32.0,"aqi":60,"pm10":17.2,"pm2_5":11.3,"no2":10.2,"co":207.0,"o3":49.0,"so2":2.6,"mosquito_risk":4,"arthritis_risk":5,"migraine_risk":7,"frizz_risk":1,"updated_at":"2026-05-02T05:24:43.311952+05:30"},{"city":"Kakinada","state":"Andhra Pradesh","latitude":16.9891,"longitude":82.2475,"temp":27.6,"humidity":99,"rain":0.0,"pressure":1005.1,"uv_index":9.15,"wind_gusts":45.0,"aqi":51,"pm10":15.9,"pm2_5":10.8,"no2":3.0,"co":215.0,"o3":60.0,"so2":1.5,"mosquito_risk":7,"arthritis_risk":5,"migraine_risk":4,"frizz_risk":1,"updated_at":"2026-05-02T05:24:43.311959+05:30"},{"city":"Tirupati","state":"Andhra Pradesh","latitude":13.6288,"longitude":79.4192,"temp":27.8,"humidity":67,"rain":0.0,"pressure":988.6,"uv_index":9.3,"wind_gusts":47.9,"aqi":95,"pm10":35.4,"pm2_5":33.2,"no2":17.8,"co":340.0,"o3":61.0,"so2":10.3,"mosquito_risk":7,"arthritis_risk":5,"migraine_risk":7,"frizz_risk":1,"updated_at":"2026-05-02T05:24:43.311967+05:30"},{"city":"Warangal","state":"Telangana","latitude":17.9689,"longitude":79.5941,"temp":26.0,"humidity":86,"rain":0.0,"pressure":975.6,"uv_index":9.15,"wind_gusts":40.0,"aqi":83,"pm10":35.0,"pm2_5":32.0,"no2":18.9,"co":346.0,"o3":58.0,"so2":9.0,"mosquito_risk":7,"arthritis_risk":5,"migraine_risk":7,"frizz_risk":1,"updated_at":"2026-05-02T05:24:43.311974+05:30"},{"city":"Nizamabad","state":"Telangana","latitude":18.6725,"longitude":78.0941,"temp":28.1,"humidity":42,"rain":0.0,"pressure":962.0,"uv_index":9.1,"wind_gusts":32.0,"aqi":68,"pm10":22.3,"pm2_5":16.6,"no2":11.9,"co":201.0,"o3":57.0,"so2":6.5,"mosquito_risk":4,"arthritis_risk":5,"migraine_risk":7,"frizz_risk":0,"updated_at":"2026-05-02T05:24:43.311981+05:30"},{"city":"Mysore","state":"Karnataka","latitude":12.2958,"longitude":76.6396,"temp":21.6,"humidity":95,"rain":0.0,"pressure":927.0,"uv_index":9.4,"wind_gusts":43.9,"aqi":79,"pm10":32.6,"pm2_5":28.7,"no2":13.2,"co":265.0,"o3":50.0,"so2":1.6,"mosquito_risk":3,"arthritis_risk":5,"migraine_risk":7,"frizz_risk":1,"updated_at":"2026-05-02T05:24:43.311989+05:30"},{"city":"Mangalore","state":"Karnataka","latitude":12.9141,"longitude":74.856,"temp":27.2,"humidity":88,"rain":0.0,"pressure":1005.6,"uv_index":9.05,"wind_gusts":43.2,"aqi":69,"pm10":33.1,"pm2_5":25.7,"no2":16.7,"co":331.0,"o3":31.0,"so2":3.3,"mosquito_risk":7,"arthritis_risk":5,"migraine_risk":4,"frizz_risk":1,"updated_at":"2026-05-02T05:24:43.311996+05:30"},{"city":"Hubli-Dharwad","state":"Karnataka","latitude":15.3647,"longitude":75.124,"temp":21.1,"humidity":97,"rain":0.0,"pressure":938.8,"uv_index":9.2,"wind_gusts":48.6,"aqi":56,"pm10":24.2,"pm2_5":17.3,"no2":6.0,"co":189.0,"o3":54.0,"so2":1.0,"mosquito_risk":3,"arthritis_risk":5,"migraine_risk":7,"frizz_risk":1,"updated_at":"2026-05-02T05:24:43.312003+05:30"},{"city":"Belgaum","state":"Karnataka","latitude":15.8497,"longitude":74.4977,"temp":20.1,"humidity":84,"rain":0.0,"pressure":922.7,"uv_index":9.15,"wind_gusts":44.6,"aqi":56,"pm10":36.2,"pm2_5":18.2,"no2":11.4,"co":156.0,"o3":40.0,"so2":0.5,"mosquito_risk":3,"arthritis_risk":5,"migraine_risk":7,"frizz_risk":1,"updated_at":"2026-05-02T05:24:46.649427+05:30"},{"city":"Coimbatore","state":"Tamil Nadu","latitude":11.0168,"longitude":76.9558,"temp":25.2,"humidity":89,"rain":0.0,"pressure":960.1,"uv_index":9.0,"wind_gusts":53.3,"aqi":68,"pm10":25.3,"pm2_5":21.2,"no2":8.0,"co":242.0,"o3":60.0,"so2":3.6,"mosquito_risk":7,"arthritis_risk":5,"migraine_risk":7,"frizz_risk":1,"updated_at":"2026-05-02T05:24:46.649461+05:30"},{"city":"Madurai","state":"Tamil Nadu","latitude":9.9252,"longitude":78.1198,"temp":27.9,"humidity":87,"rain":0.0,"pressure":991.1,"uv_index":9.2,"wind_gusts":52.2,"aqi":71,"pm10":29.2,"pm2_5":27.2,"no2":37.9,"co":451.0,"o3":0.0,"so2":5.8,"mosquito_risk":7,"arthritis_risk":5,"migraine_risk":7,"frizz_risk":1,"updated_at":"2026-05-02T05:24:46.649475+05:30"},{"city":"Trichy","state":"Tamil Nadu","latitude":10.7905,"longitude":78.7047,"temp":28.2,"humidity":84,"rain":0.0,"pressure":997.9,"uv_index":9.2,"wind_gusts":45.7,"aqi":68,"pm10":19.3,"pm2_5":18.2,"no2":20.6,"co":322.0,"o3":39.0,"so2":5.4,"mosquito_risk":7,"arthritis_risk":5,"migraine_risk":7,"frizz_risk":1,"updated_at":"2026-05-02T05:24:46.649485+05:30"},{"city":"Salem","state":"Tamil Nadu","latitude":11.6643,"longitude":78.146,"temp":27.8,"humidity":67,"rain":0.0,"pressure":975.8,"uv_index":9.3,"wind_gusts":58.3,"aqi":93,"pm10":28.8,"pm2_5":26.8,"no2":22.1,"co":383.0,"o3":42.0,"so2":7.8,"mosquito_risk":7,"arthritis_risk":5,"migraine_risk":7,"frizz_risk":1,"updated_at":"2026-05-02T05:24:46.649495+05:30"},{"city":"Tirunelveli","state":"Tamil Nadu","latitude":8.7139,"longitude":77.7567,"temp":27.4,"humidity":77,"rain":0.0,"pressure":1001.3,"uv_index":9.1,"wind_gusts":36.4,"aqi":51,"pm10":23.4,"pm2_5":21.7,"no2":8.9,"co":392.0,"o3":48.0,"so2":1.7,"mosquito_risk":7,"arthritis_risk":5,"migraine_risk":4,"frizz_risk":1,"updated_at":"2026-05-02T05:24:46.649504+05:30"},{"city":"Vellore","state":"Tamil Nadu","latitude":12.9165,"longitude":79.1325,"temp":27.1,"humidity":80,"rain":0.0,"pressure":982.1,"uv_index":9.3,"wind_gusts":39.2,"aqi":99,"pm10":31.7,"pm2_5":29.1,"no2":11.7,"co":328.0,"o3":66.0,"so2":8.3,"mosquito_risk":7,"arthritis_risk":5,"migraine_risk":7,"frizz_risk":1,"updated_at":"2026-05-02T05:24:46.649513+05:30"},{"city":"Erode","state":"Tamil Nadu","latitude":11.341,"longitude":77.7172,"temp":27.2,"humidity":79,"rain":0.0,"pressure":987.6,"uv_index":9.25,"wind_gusts":51.8,"aqi":74,"pm10":25.4,"pm2_5":22.9,"no2":19.7,"co":259.0,"o3":38.0,"so2":3.9,"mosquito_risk":7,"arthritis_risk":5,"migraine_risk":7,"frizz_risk":1,"updated_at":"2026-05-02T05:24:46.649522+05:30"},{"city":"Kochi","state":"Kerala","latitude":9.9312,"longitude":76.2673,"temp":26.4,"humidity":97,"rain":0.0,"pressure":1007.5,"uv_index":8.4,"wind_gusts":31.7,"aqi":69,"pm10":33.2,"pm2_5":28.8,"no2":23.7,"co":442.0,"o3":19.0,"so2":4.3,"mosquito_risk":7,"arthritis_risk":5,"migraine_risk":4,"frizz_risk":1,"updated_at":"2026-05-02T05:24:46.649531+05:30"},{"city":"Thiruvananthapuram","state":"Kerala","latitude":8.5241,"longitude":76.9366,"temp":25.5,"humidity":97,"rain":0.0,"pressure":1006.7,"uv_index":8.05,"wind_gusts":35.3,"aqi":41,"pm10":18.2,"pm2_5":13.3,"no2":5.2,"co":393.0,"o3":73.0,"so2":2.8,"mosquito_risk":7,"arthritis_risk":5,"migraine_risk":4,"frizz_risk":1,"updated_at":"2026-05-02T05:24:46.649540+05:30"},{"city":"Kozhikode","state":"Kerala","latitude":11.2588,"longitude":75.7804,"temp":26.1,"humidity":95,"rain":0.0,"pressure":1006.8,"uv_index":8.85,"wind_gusts":44.6,"aqi":66,"pm10":29.2,"pm2_5":17.9,"no2":3.2,"co":708.0,"o3":76.0,"so2":1.2,"mosquito_risk":7,"arthritis_risk":5,"migraine_risk":4,"frizz_risk":1,"updated_at":"2026-05-02T05:24:46.649549+05:30"},{"city":"Thrissur","state":"Kerala","latitude":10.5276,"longitude":76.2144,"temp":25.6,"humidity":99,"rain":0.0,"pressure":1006.0,"uv_index":6.45,"wind_gusts":35.3,"aqi":72,"pm10":29.3,"pm2_5":24.2,"no2":15.5,"co":345.0,"o3":36.0,"so2":3.2,"mosquito_risk":7,"arthritis_risk":5,"migraine_risk":4,"frizz_risk":1,"updated_at":"2026-05-02T05:24:46.649558+05:30"},{"city":"Kannur","state":"Kerala","latitude":11.8745,"longitude":75.3704,"temp":26.6,"humidity":93,"rain":0.0,"pressure":1005.9,"uv_index":9.0,"wind_gusts":48.6,"aqi":76,"pm10":40.0,"pm2_5":31.7,"no2":23.5,"co":629.0,"o3":25.0,"so2":2.1,"mosquito_risk":7,"arthritis_risk":5,"migraine_risk":4,"frizz_risk":1,"updated_at":"2026-05-02T05:24:46.649567+05:30"},{"city":"Patna","state":"Bihar","latitude":25.5941,"longitude":85.1376,"temp":20.5,"humidity":96,"rain":0.0,"pressure":998.1,"uv_index":8.65,"wind_gusts":26.6,"aqi":93,"pm10":44.7,"pm2_5":38.2,"no2":16.0,"co":402.0,"o3":58.0,"so2":10.0,"mosquito_risk":3,"arthritis_risk":5,"migraine_risk":7,"frizz_risk":1,"updated_at":"2026-05-02T05:24:46.649576+05:30"},{"city":"Gaya","state":"Bihar","latitude":24.7914,"longitude":85.0002,"temp":21.1,"humidity":91,"rain":0.0,"pressure":990.8,"uv_index":8.75,"wind_gusts":27.7,"aqi":92,"pm10":49.8,"pm2_5":37.3,"no2":17.9,"co":388.0,"o3":70.0,"so2":9.8,"mosquito_risk":3,"arthritis_risk":5,"migraine_risk":7,"frizz_risk":1,"updated_at":"2026-05-02T05:24:46.649585+05:30"},{"city":"Muzaffarpur","state":"Bihar","latitude":26.1209,"longitude":85.3647,"temp":20.2,"humidity":98,"rain":0.0,"pressure":998.4,"uv_index":8.65,"wind_gusts":28.1,"aqi":84,"pm10":44.5,"pm2_5":39.6,"no2":12.8,"co":399.0,"o3":62.0,"so2":8.9,"mosquito_risk":3,"arthritis_risk":5,"migraine_risk":7,"frizz_risk":1,"updated_at":"2026-05-02T05:24:46.649593+05:30"},{"city":"Bhagalpur","state":"Bihar","latitude":25.2425,"longitude":87.0117,"temp":21.1,"humidity":89,"rain":0.0,"pressure":999.0,"uv_index":8.65,"wind_gusts":30.2,"aqi":90,"pm10":51.1,"pm2_5":44.7,"no2":11.9,"co":268.0,"o3":72.0,"so2":10.1,"mosquito_risk":3,"arthritis_risk":5,"migraine_risk":7,"frizz_risk":1,"updated_at":"2026-05-02T05:24:46.649601+05:30"},{"city":"Ranchi","state":"Jharkhand","latitude":23.3441,"longitude":85.3096,"temp":21.2,"humidity":65,"rain":0.0,"pressure":933.4,"uv_index":9.0,"wind_gusts":44.3,"aqi":96,"pm10":101.3,"pm2_5":50.4,"no2":41.8,"co":249.0,"o3":48.0,"so2":18.5,"mosquito_risk":3,"arthritis_risk":5,"migraine_risk":7,"frizz_risk":0,"updated_at":"2026-05-02T05:24:46.649610+05:30"},{"city":"Jamshedpur","state":"Jharkhand","latitude":22.8046,"longitude":86.2029,"temp":22.1,"humidity":92,"rain":0.0,"pressure":987.1,"uv_index":9.0,"wind_gusts":61.6,"aqi":96,"pm10":46.7,"pm2_5":41.7,"no2":32.9,"co":621.0,"o3":35.0,"so2":27.8,"mosquito_risk":3,"arthritis_risk":5,"migraine_risk":7,"frizz_risk":1,"updated_at":"2026-05-02T05:24:46.649619+05:30"},{"city":"Dhanbad","state":"Jharkhand","latitude":23.7957,"longitude":86.4304,"temp":21.4,"humidity":90,"rain":0.0,"pressure":976.4,"uv_index":9.0,"wind_gusts":29.9,"aqi":139,"pm10":64.7,"pm2_5":57.6,"no2":39.8,"co":1517.0,"o3":58.0,"so2":51.5,"mosquito_risk":3,"arthritis_risk":5,"migraine_risk":7,"frizz_risk":1,"updated_at":"2026-05-02T05:24:46.649627+05:30"},{"city":"Bokaro","state":"Jharkhand","latitude":23.6693,"longitude":86.1511,"temp":20.8,"humidity":100,"rain":0.0,"pressure":980.3,"uv_index":8.85,"wind_gusts":36.4,"aqi":131,"pm10":75.7,"pm2_5":68.5,"no2":45.5,"co":3307.0,"o3":43.0,"so2":68.4,"mosquito_risk":3,"arthritis_risk":5,"migraine_risk":7,"frizz_risk":1,"updated_at":"2026-05-02T05:24:46.649636+05:30"},{"city":"Bhubaneswar","state":"Odisha","latitude":20.2961,"longitude":85.8245,"temp":24.6,"humidity":96,"rain":0.0,"pressure":999.2,"uv_index":9.05,"wind_gusts":46.1,"aqi":56,"pm10":12.0,"pm2_5":9.7,"no2":5.6,"co":210.0,"o3":51.0,"so2":3.7,"mosquito_risk":3,"arthritis_risk":5,"migraine_risk":7,"frizz_risk":1,"updated_at":"2026-05-02T05:24:46.649644+05:30"},{"city":"Cuttack","state":"Odisha","latitude":20.4625,"longitude":85.8828,"temp":24.9,"humidity":95,"rain":0.0,"pressure":1001.0,"uv_index":9.1,"wind_gusts":51.8,"aqi":56,"pm10":12.0,"pm2_5":9.7,"no2":5.6,"co":231.0,"o3":51.0,"so2":3.7,"mosquito_risk":3,"arthritis_risk":5,"migraine_risk":4,"frizz_risk":1,"updated_at":"2026-05-02T05:24:46.649652+05:30"},{"city":"Rourkela","state":"Odisha","latitude":22.2604,"longitude":84.8536,"temp":21.6,"humidity":84,"rain":0.0,"pressure":981.4,"uv_index":8.95,"wind_gusts":47.5,"aqi":114,"pm10":99.7,"pm2_5":49.4,"no2":28.9,"co":439.0,"o3":62.0,"so2":45.3,"mosquito_risk":3,"arthritis_risk":5,"migraine_risk":7,"frizz_risk":1,"updated_at":"2026-05-02T05:24:46.649661+05:30"},{"city":"Raipur","state":"Chhattisgarh","latitude":21.2514,"longitude":81.6296,"temp":27.4,"humidity":39,"rain":0.0,"pressure":969.9,"uv_index":9.0,"wind_gusts":50.0,"aqi":128,"pm10":73.6,"pm2_5":43.9,"no2":36.0,"co":379.0,"o3":46.0,"so2":6.4,"mosquito_risk":4,"arthritis_risk":5,"migraine_risk":7,"frizz_risk":0,"updated_at":"2026-05-02T05:24:46.649670+05:30"},{"city":"Bhilai","state":"Chhattisgarh","latitude":21.1938,"longitude":81.3509,"temp":27.2,"humidity":43,"rain":0.0,"pressure":970.3,"uv_index":9.0,"wind_gusts":48.2,"aqi":120,"pm10":82.9,"pm2_5":47.5,"no2":42.6,"co":447.0,"o3":32.0,"so2":7.0,"mosquito_risk":4,"arthritis_risk":5,"migraine_risk":7,"frizz_risk":0,"updated_at":"2026-05-02T05:24:46.649678+05:30"},{"city":"Guwahati","state":"Assam","latitude":26.1158,"longitude":91.7086,"temp":19.8,"humidity":99,"rain":0.0,"pressure":1001.1,"uv_index":6.3,"wind_gusts":18.0,"aqi":61,"pm10":16.3,"pm2_5":15.0,"no2":8.5,"co":471.0,"o3":51.0,"so2":1.7,"mosquito_risk":3,"arthritis_risk":10,"migraine_risk":4,"frizz_risk":1,"updated_at":"2026-05-02T05:24:46.649687+05:30"},{"city":"Agartala","state":"Tripura","latitude":23.8315,"longitude":91.2868,"temp":21.1,"humidity":98,"rain":0.0,"pressure":1005.1,"uv_index":8.75,"wind_gusts":36.7,"aqi":59,"pm10":5.9,"pm2_5":4.9,"no2":7.9,"co":181.0,"o3":58.0,"so2":1.6,"mosquito_risk":3,"arthritis_risk":5,"migraine_risk":4,"frizz_risk":1,"updated_at":"2026-05-02T05:24:46.649695+05:30"},{"city":"Shillong","state":"Meghalaya","latitude":25.5788,"longitude":91.8933,"temp":13.9,"humidity":92,"rain":0.0,"pressure":852.9,"uv_index":5.75,"wind_gusts":34.9,"aqi":45,"pm10":7.5,"pm2_5":6.8,"no2":5.0,"co":265.0,"o3":76.0,"so2":1.1,"mosquito_risk":3,"arthritis_risk":10,"migraine_risk":3,"frizz_risk":0,"updated_at":"2026-05-02T05:24:46.649704+05:30"},{"city":"Imphal","state":"Manipur","latitude":24.817,"longitude":93.9368,"temp":16.5,"humidity":99,"rain":0.0,"pressure":921.4,"uv_index":6.75,"wind_gusts":33.1,"aqi":69,"pm10":20.2,"pm2_5":19.3,"no2":8.4,"co":386.0,"o3":51.0,"so2":1.7,"mosquito_risk":3,"arthritis_risk":10,"migraine_risk":7,"frizz_risk":1,"updated_at":"2026-05-02T05:24:46.649712+05:30"},{"city":"Aizawl","state":"Mizoram","latitude":23.7271,"longitude":92.7176,"temp":14.8,"humidity":97,"rain":0.0,"pressure":889.3,"uv_index":9.0,"wind_gusts":38.9,"aqi":31,"pm10":4.6,"pm2_5":3.3,"no2":3.4,"co":188.0,"o3":53.0,"so2":0.3,"mosquito_risk":3,"arthritis_risk":10,"migraine_risk":7,"frizz_risk":0,"updated_at":"2026-05-02T05:24:46.649721+05:30"},{"city":"Kohima","state":"Nagaland","latitude":25.6701,"longitude":94.1077,"temp":14.9,"humidity":94,"rain":0.0,"pressure":852.1,"uv_index":6.45,"wind_gusts":29.5,"aqi":53,"pm10":8.6,"pm2_5":7.6,"no2":5.6,"co":270.0,"o3":56.0,"so2":0.6,"mosquito_risk":3,"arthritis_risk":10,"migraine_risk":7,"frizz_risk":0,"updated_at":"2026-05-02T05:24:46.649730+05:30"},{"city":"Gangtok","state":"Sikkim","latitude":27.3314,"longitude":88.6138,"temp":11.1,"humidity":92,"rain":0.0,"pressure":832.5,"uv_index":2.95,"wind_gusts":31.0,"aqi":52,"pm10":19.6,"pm2_5":14.2,"no2":7.3,"co":410.0,"o3":96.0,"so2":0.7,"mosquito_risk":3,"arthritis_risk":10,"migraine_risk":3,"frizz_risk":0,"updated_at":"2026-05-02T05:24:46.649738+05:30"},{"city":"Siliguri","state":"West Bengal","latitude":26.7271,"longitude":88.3953,"temp":19.4,"humidity":98,"rain":0.4,"pressure":991.5,"uv_index":1.2,"wind_gusts":24.1,"aqi":70,"pm10":15.5,"pm2_5":12.3,"no2":9.5,"co":279.0,"o3":91.0,"so2":1.9,"mosquito_risk":6,"arthritis_risk":10,"migraine_risk":3,"frizz_risk":1,"updated_at":"2026-05-02T05:24:49.990754+05:30"},{"city":"Durgapur","state":"West Bengal","latitude":23.5204,"longitude":87.3119,"temp":22.5,"humidity":94,"rain":0.0,"pressure":991.5,"uv_index":8.9,"wind_gusts":31.0,"aqi":129,"pm10":54.7,"pm2_5":47.1,"no2":25.5,"co":585.0,"o3":75.0,"so2":30.8,"mosquito_risk":3,"arthritis_risk":5,"migraine_risk":7,"frizz_risk":1,"updated_at":"2026-05-02T05:24:49.990788+05:30"},{"city":"Asansol","state":"West Bengal","latitude":23.6739,"longitude":86.9524,"temp":22.0,"humidity":93,"rain":0.0,"pressure":990.7,"uv_index":8.95,"wind_gusts":29.5,"aqi":124,"pm10":51.9,"pm2_5":44.7,"no2":25.4,"co":834.0,"o3":78.0,"so2":34.3,"mosquito_risk":3,"arthritis_risk":5,"migraine_risk":7,"frizz_risk":1,"updated_at":"2026-05-02T05:24:49.990798+05:30"},{"city":"Pondicherry","state":"Puducherry","latitude":11.9139,"longitude":79.8145,"temp":28.5,"humidity":86,"rain":0.0,"pressure":1006.1,"uv_index":9.15,"wind_gusts":53.3,"aqi":54,"pm10":9.1,"pm2_5":7.5,"no2":7.9,"co":301.0,"o3":69.0,"so2":6.1,"mosquito_risk":7,"arthritis_risk":5,"migraine_risk":4,"frizz_risk":1,"updated_at":"2026-05-02T05:24:49.990808+05:30"},{"city":"Port Blair","state":"Andaman and Nicobar Islands","latitude":11.6234,"longitude":92.7265,"temp":24.5,"humidity":92,"rain":0.0,"pressure":1006.2,"uv_index":9.05,"wind_gusts":31.3,"aqi":28,"pm10":11.0,"pm2_5":7.6,"no2":0.5,"co":224.0,"o3":60.0,"so2":0.2,"mosquito_risk":3,"arthritis_risk":5,"migraine_risk":4,"frizz_risk":1,"updated_at":"2026-05-02T05:24:49.990817+05:30"},{"city":"Haridwar","state":"Uttarakhand","latitude":29.9457,"longitude":78.1642,"temp":19.0,"humidity":87,"rain":0.0,"pressure":969.9,"uv_index":7.4,"wind_gusts":30.6,"aqi":118,"pm10":68.2,"pm2_5":43.4,"no2":15.5,"co":290.0,"o3":46.0,"so2":5.3,"mosquito_risk":3,"arthritis_risk":10,"migraine_risk":7,"frizz_risk":1,"updated_at":"2026-05-02T05:24:49.990825+05:30"},{"city":"Rishikesh","state":"Uttarakhand","latitude":30.0869,"longitude":78.2676,"temp":17.0,"humidity":94,"rain":0.0,"pressure":962.2,"uv_index":7.5,"wind_gusts":24.8,"aqi":110,"pm10":67.8,"pm2_5":37.4,"no2":7.8,"co":313.0,"o3":73.0,"so2":2.8,"mosquito_risk":3,"arthritis_risk":10,"migraine_risk":7,"frizz_risk":0,"updated_at":"2026-05-02T05:24:49.990834+05:30"},{"city":"Nainital","state":"Uttarakhand","latitude":29.3919,"longitude":79.4542,"temp":10.2,"humidity":95,"rain":0.0,"pressure":799.4,"uv_index":8.25,"wind_gusts":42.1,"aqi":95,"pm10":78.7,"pm2_5":32.7,"no2":18.3,"co":268.0,"o3":51.0,"so2":2.9,"mosquito_risk":3,"arthritis_risk":10,"migraine_risk":7,"frizz_risk":0,"updated_at":"2026-05-02T05:24:49.990842+05:30"},{"city":"Mussoorie","state":"Uttarakhand","latitude":30.4599,"longitude":78.0664,"temp":11.0,"humidity":88,"rain":0.0,"pressure":796.8,"uv_index":7.9,"wind_gusts":52.9,"aqi":113,"pm10":56.1,"pm2_5":32.0,"no2":17.4,"co":282.0,"o3":52.0,"so2":5.4,"mosquito_risk":3,"arthritis_risk":10,"migraine_risk":7,"frizz_risk":0,"updated_at":"2026-05-02T05:24:49.990850+05:30"},{"city":"Dharamshala","state":"Himachal Pradesh","latitude":32.219,"longitude":76.3234,"temp":18.4,"humidity":52,"rain":0.0,"pressure":863.7,"uv_index":8.25,"wind_gusts":48.2,"aqi":38,"pm10":5.4,"pm2_5":3.7,"no2":10.0,"co":212.0,"o3":43.0,"so2":0.1,"mosquito_risk":0,"arthritis_risk":5,"migraine_risk":7,"frizz_risk":0,"updated_at":"2026-05-02T05:24:49.990858+05:30"},{"city":"Dalhousie","state":"Himachal Pradesh","latitude":32.5387,"longitude":75.971,"temp":7.5,"humidity":86,"rain":0.0,"pressure":795.4,"uv_index":8.5,"wind_gusts":42.5,"aqi":59,"pm10":17.1,"pm2_5":14.1,"no2":24.7,"co":270.0,"o3":19.0,"so2":0.8,"mosquito_risk":3,"arthritis_risk":10,"migraine_risk":7,"frizz_risk":0,"updated_at":"2026-05-02T05:24:49.990866+05:30"},{"city":"Patiala","state":"Punjab","latitude":30.3398,"longitude":76.3869,"temp":22.8,"humidity":72,"rain":0.0,"pressure":973.2,"uv_index":7.5,"wind_gusts":35.6,"aqi":432,"pm10":666.8,"pm2_5":101.5,"no2":8.1,"co":475.0,"o3":89.0,"so2":12.0,"mosquito_risk":3,"arthritis_risk":5,"migraine_risk":7,"frizz_risk":1,"updated_at":"2026-05-02T05:24:49.990874+05:30"},{"city":"Bhatinda","state":"Punjab","latitude":30.211,"longitude":74.9455,"temp":24.4,"humidity":47,"rain":0.0,"pressure":977.6,"uv_index":8.15,"wind_gusts":43.6,"aqi":173,"pm10":154.1,"pm2_5":67.5,"no2":16.5,"co":339.0,"o3":50.0,"so2":9.2,"mosquito_risk":0,"arthritis_risk":5,"migraine_risk":7,"frizz_risk":0,"updated_at":"2026-05-02T05:24:49.990881+05:30"},{"city":"Rohtak","state":"Haryana","latitude":28.8955,"longitude":76.6066,"temp":24.1,"humidity":61,"rain":0.0,"pressure":976.3,"uv_index":7.65,"wind_gusts":28.1,"aqi":505,"pm10":588.6,"pm2_5":108.0,"no2":14.4,"co":577.0,"o3":98.0,"so2":21.2,"mosquito_risk":3,"arthritis_risk":5,"migraine_risk":7,"frizz_risk":1,"updated_at":"2026-05-02T05:24:49.990888+05:30"},{"city":"Panipat","state":"Haryana","latitude":29.3909,"longitude":76.9635,"temp":22.4,"humidity":72,"rain":0.0,"pressure":975.4,"uv_index":7.45,"wind_gusts":29.2,"aqi":813,"pm10":659.4,"pm2_5":105.7,"no2":14.0,"co":411.0,"o3":86.0,"so2":17.7,"mosquito_risk":3,"arthritis_risk":5,"migraine_risk":7,"frizz_risk":1,"updated_at":"2026-05-02T05:24:49.990896+05:30"},{"city":"Mathura","state":"Uttar Pradesh","latitude":27.4924,"longitude":77.6737,"temp":24.9,"humidity":65,"rain":0.0,"pressure":981.6,"uv_index":7.9,"wind_gusts":29.2,"aqi":687,"pm10":858.7,"pm2_5":119.7,"no2":6.4,"co":355.0,"o3":100.0,"so2":10.2,"mosquito_risk":3,"arthritis_risk":5,"migraine_risk":7,"frizz_risk":1,"updated_at":"2026-05-02T05:24:49.990903+05:30"},{"city":"Vrindavan","state":"Uttar Pradesh","latitude":27.5823,"longitude":77.7027,"temp":24.9,"humidity":64,"rain":0.0,"pressure":982.0,"uv_index":7.85,"wind_gusts":28.8,"aqi":687,"pm10":858.7,"pm2_5":119.7,"no2":6.4,"co":350.0,"o3":100.0,"so2":10.2,"mosquito_risk":3,"arthritis_risk":5,"migraine_risk":7,"frizz_risk":1,"updated_at":"2026-05-02T05:24:49.990911+05:30"},{"city":"Ayodhya","state":"Uttar Pradesh","latitude":26.7922,"longitude":82.1998,"temp":21.6,"humidity":89,"rain":0.0,"pressure":992.6,"uv_index":8.25,"wind_gusts":27.4,"aqi":84,"pm10":26.1,"pm2_5":21.9,"no2":11.0,"co":381.0,"o3":80.0,"so2":6.1,"mosquito_risk":3,"arthritis_risk":5,"migraine_risk":7,"frizz_risk":1,"updated_at":"2026-05-02T05:24:49.990918+05:30"},{"city":"Ratlam","state":"Madhya Pradesh","latitude":23.3315,"longitude":75.0367,"temp":24.5,"humidity":88,"rain":0.0,"pressure":951.0,"uv_index":8.55,"wind_gusts":49.7,"aqi":54,"pm10":21.2,"pm2_5":11.4,"no2":5.1,"co":164.0,"o3":57.0,"so2":10.0,"mosquito_risk":3,"arthritis_risk":5,"migraine_risk":7,"frizz_risk":1,"updated_at":"2026-05-02T05:24:49.990926+05:30"},{"city":"Sagar","state":"Madhya Pradesh","latitude":23.8388,"longitude":78.7378,"temp":25.5,"humidity":33,"rain":0.0,"pressure":945.0,"uv_index":8.7,"wind_gusts":45.0,"aqi":64,"pm10":22.9,"pm2_5":15.0,"no2":12.1,"co":220.0,"o3":55.0,"so2":4.3,"mosquito_risk":4,"arthritis_risk":5,"migraine_risk":7,"frizz_risk":0,"updated_at":"2026-05-02T05:24:49.990933+05:30"},{"city":"Satna","state":"Madhya Pradesh","latitude":24.6005,"longitude":80.8322,"temp":23.0,"humidity":67,"rain":0.0,"pressure":966.2,"uv_index":8.75,"wind_gusts":60.1,"aqi":75,"pm10":47.0,"pm2_5":25.1,"no2":12.2,"co":333.0,"o3":94.0,"so2":9.2,"mosquito_risk":3,"arthritis_risk":5,"migraine_risk":7,"frizz_risk":1,"updated_at":"2026-05-02T05:24:49.990941+05:30"},{"city":"Akola","state":"Maharashtra","latitude":20.7002,"longitude":77.0082,"temp":28.4,"humidity":49,"rain":0.0,"pressure":972.1,"uv_index":8.9,"wind_gusts":45.0,"aqi":54,"pm10":17.8,"pm2_5":10.1,"no2":5.9,"co":187.0,"o3":63.0,"so2":13.7,"mosquito_risk":4,"arthritis_risk":5,"migraine_risk":7,"frizz_risk":1,"updated_at":"2026-05-02T05:24:49.990949+05:30"},{"city":"Amravati","state":"Maharashtra","latitude":20.9374,"longitude":77.7796,"temp":28.6,"humidity":50,"rain":0.0,"pressure":964.2,"uv_index":8.9,"wind_gusts":41.0,"aqi":54,"pm10":18.6,"pm2_5":10.8,"no2":6.3,"co":186.0,"o3":69.0,"so2":16.0,"mosquito_risk":4,"arthritis_risk":5,"migraine_risk":7,"frizz_risk":1,"updated_at":"2026-05-02T05:24:49.990957+05:30"},{"city":"Latur","state":"Maharashtra","latitude":18.4088,"longitude":76.5604,"temp":25.8,"humidity":48,"rain":0.0,"pressure":937.5,"uv_index":9.05,"wind_gusts":43.6,"aqi":57,"pm10":27.1,"pm2_5":12.8,"no2":7.6,"co":194.0,"o3":61.0,"so2":3.8,"mosquito_risk":4,"arthritis_risk":5,"migraine_risk":7,"frizz_risk":0,"updated_at":"2026-05-02T05:24:49.990964+05:30"},{"city":"Nanded","state":"Maharashtra","latitude":19.1383,"longitude":77.3091,"temp":28.6,"humidity":46,"rain":0.0,"pressure":966.0,"uv_index":8.95,"wind_gusts":36.0,"aqi":59,"pm10":20.7,"pm2_5":13.1,"no2":8.0,"co":188.0,"o3":66.0,"so2":7.4,"mosquito_risk":4,"arthritis_risk":5,"migraine_risk":7,"frizz_risk":0,"updated_at":"2026-05-02T05:24:49.990972+05:30"},{"city":"Gulbarga","state":"Karnataka","latitude":17.3297,"longitude":76.8343,"temp":27.1,"humidity":48,"rain":0.0,"pressure":956.4,"uv_index":9.1,"wind_gusts":42.1,"aqi":54,"pm10":21.8,"pm2_5":11.2,"no2":6.7,"co":176.0,"o3":59.0,"so2":3.9,"mosquito_risk":4,"arthritis_risk":5,"migraine_risk":7,"frizz_risk":0,"updated_at":"2026-05-02T05:24:49.990979+05:30"},{"city":"Bidar","state":"Karnataka","latitude":17.9104,"longitude":77.5199,"temp":26.7,"humidity":42,"rain":0.0,"pressure":933.1,"uv_index":9.1,"wind_gusts":30.2,"aqi":66,"pm10":26.1,"pm2_5":18.7,"no2":17.2,"co":187.0,"o3":51.0,"so2":5.9,"mosquito_risk":4,"arthritis_risk":5,"migraine_risk":7,"frizz_risk":0,"updated_at":"2026-05-02T05:24:49.990986+05:30"},{"city":"Hospet","state":"Karnataka","latitude":15.2689,"longitude":76.3909,"temp":23.9,"humidity":86,"rain":0.0,"pressure":954.1,"uv_index":9.25,"wind_gusts":46.8,"aqi":54,"pm10":21.5,"pm2_5":13.7,"no2":7.7,"co":180.0,"o3":53.0,"so2":2.4,"mosquito_risk":3,"arthritis_risk":5,"migraine_risk":7,"frizz_risk":1,"updated_at":"2026-05-02T05:24:49.990993+05:30"},{"city":"Tirupur","state":"Tamil Nadu","latitude":11.1085,"longitude":77.3411,"temp":26.1,"humidity":86,"rain":0.0,"pressure":973.5,"uv_index":9.3,"wind_gusts":61.6,"aqi":76,"pm10":27.7,"pm2_5":24.6,"no2":20.9,"co":204.0,"o3":35.0,"so2":4.8,"mosquito_risk":7,"arthritis_risk":5,"migraine_risk":7,"frizz_risk":1,"updated_at":"2026-05-02T05:24:49.991000+05:30"},{"city":"Alappuzha","state":"Kerala","latitude":9.4981,"longitude":76.3388,"temp":27.1,"humidity":89,"rain":0.1,"pressure":1007.4,"uv_index":8.9,"wind_gusts":38.2,"aqi":62,"pm10":32.8,"pm2_5":24.7,"no2":13.4,"co":332.0,"o3":51.0,"so2":4.5,"mosquito_risk":10,"arthritis_risk":5,"migraine_risk":4,"frizz_risk":1,"updated_at":"2026-05-02T05:24:49.991007+05:30"},{"city":"Munnar","state":"Kerala","latitude":10.0889,"longitude":77.0595,"temp":17.2,"humidity":83,"rain":0.0,"pressure":854.9,"uv_index":8.65,"wind_gusts":27.4,"aqi":49,"pm10":18.2,"pm2_5":16.2,"no2":11.7,"co":264.0,"o3":25.0,"so2":0.7,"mosquito_risk":3,"arthritis_risk":10,"migraine_risk":7,"frizz_risk":0,"updated_at":"2026-05-02T05:24:49.991015+05:30"},{"city":"Silchar","state":"Assam","latitude":24.8333,"longitude":92.7789,"temp":20.4,"humidity":96,"rain":0.1,"pressure":1005.1,"uv_index":4.95,"wind_gusts":26.6,"aqi":79,"pm10":16.9,"pm2_5":15.0,"no2":8.9,"co":233.0,"o3":49.0,"so2":3.2,"mosquito_risk":6,"arthritis_risk":5,"migraine_risk":0,"frizz_risk":1,"updated_at":"2026-05-02T05:24:49.991022+05:30"},{"city":"Dibrugarh","state":"Assam","latitude":27.4728,"longitude":94.912,"temp":19.9,"humidity":99,"rain":0.2,"pressure":995.0,"uv_index":8.4,"wind_gusts":20.9,"aqi":61,"pm10":22.6,"pm2_5":18.3,"no2":17.7,"co":340.0,"o3":24.0,"so2":1.5,"mosquito_risk":6,"arthritis_risk":10,"migraine_risk":7,"frizz_risk":1,"updated_at":"2026-05-02T05:24:49.991030+05:30"}]