[{"city":"Delhi","state":"Delhi","latitude":28.6139,"longitude":77.209,"temp":20.4,"humidity":86,"rain":0.0,"pressure":987.1,"uv_index":4.25,"wind_gusts":33.1,"aqi":128,"pm10":125.3,"pm2_5":44.0,"mosquito_risk":3,"arthritis_risk":5,"migraine_risk":3,"frizz_risk":1,"updated_at":"2026-03-19T21:27:40.593217+05:30"},{"city":"Mumbai","state":"Maharashtra","latitude":19.076,"longitude":72.8777,"temp":27.3,"humidity":71,"rain":0.0,"pressure":1012.5,"uv_index":7.75,"wind_gusts":20.2,"aqi":66,"pm10":41.7,"pm2_5":16.6,"mosquito_risk":7,"arthritis_risk":0,"migraine_risk":4,"frizz_risk":1,"updated_at":"2026-03-19T21:27:40.593258+05:30"},{"city":"Bangalore","state":"Karnataka","latitude":12.9716,"longitude":77.5946,"temp":23.1,"humidity":63,"rain":0.0,"pressure":913.4,"uv_index":9.35,"wind_gusts":24.1,"aqi":144,"pm10":72.2,"pm2_5":67.5,"mosquito_risk":3,"arthritis_risk":5,"migraine_risk":7,"frizz_risk":0,"updated_at":"2026-03-19T21:27:40.593274+05:30"},{"city":"Hyderabad","state":"Telangana","latitude":17.385,"longitude":78.4867,"temp":23.0,"humidity":76,"rain":0.0,"pressure":956.7,"uv_index":8.75,"wind_gusts":33.5,"aqi":92,"pm10":41.3,"pm2_5":33.4,"mosquito_risk":3,"arthritis_risk":5,"migraine_risk":7,"frizz_risk":1,"updated_at":"2026-03-19T21:27:40.593283+05:30"},{"city":"Chennai","state":"Tamil Nadu","latitude":13.0827,"longitude":80.2707,"temp":26.8,"humidity":82,"rain":0.0,"pressure":1011.3,"uv_index":9.1,"wind_gusts":28.8,"aqi":42,"pm10":6.0,"pm2_5":4.3,"mosquito_risk":7,"arthritis_risk":0,"migraine_risk":4,"frizz_risk":1,"updated_at":"2026-03-19T21:27:40.593292+05:30"},{"city":"Kolkata","state":"West Bengal","latitude":22.5726,"longitude":88.3639,"temp":25.6,"humidity":86,"rain":0.0,"pressure":1010.1,"uv_index":7.7,"wind_gusts":25.2,"aqi":86,"pm10":29.2,"pm2_5":26.0,"mosquito_risk":7,"arthritis_risk":0,"migraine_risk":4,"frizz_risk":1,"updated_at":"2026-03-19T21:27:40.593301+05:30"},{"city":"Pune","state":"Maharashtra","latitude":18.5204,"longitude":73.8567,"temp":23.6,"humidity":77,"rain":0.0,"pressure":951.5,"uv_index":8.3,"wind_gusts":34.9,"aqi":147,"pm10":25.4,"pm2_5":21.1,"mosquito_risk":3,"arthritis_risk":5,"migraine_risk":7,"frizz_risk":1,"updated_at":"2026-03-19T21:27:40.593313+05:30"},{"city":"Ahmedabad","state":"Gujarat","latitude":23.0225,"longitude":72.5714,"temp":26.1,"humidity":54,"rain":0.0,"pressure":1005.8,"uv_index":7.35,"wind_gusts":49.7,"aqi":64,"pm10":50.3,"pm2_5":21.4,"mosquito_risk":4,"arthritis_risk":5,"migraine_risk":4,"frizz_risk":0,"updated_at":"2026-03-19T21:27:40.593320+05:30"},{"city":"Jaipur","state":"Rajasthan","latitude":26.9124,"longitude":75.7873,"temp":19.9,"humidity":83,"rain":0.0,"pressure":962.8,"uv_index":7.05,"wind_gusts":34.2,"aqi":143,"pm10":162.1,"pm2_5":38.0,"mosquito_risk":3,"arthritis_risk":10,"migraine_risk":7,"frizz_risk":1,"updated_at":"2026-03-19T21:27:40.593328+05:30"},{"city":"Lucknow","state":"Uttar Pradesh","latitude":26.8467,"longitude":80.9462,"temp":25.9,"humidity":44,"rain":0.0,"pressure":995.7,"uv_index":6.8,"wind_gusts":28.1,"aqi":105,"pm10":55.4,"pm2_5":36.6,"mosquito_risk":4,"arthritis_risk":5,"migraine_risk":7,"frizz_risk":0,"updated_at":"2026-03-19T21:27:40.593336+05:30"},{"city":"Kanpur","state":"Uttar Pradesh","latitude":26.4499,"longitude":80.3319,"temp":25.1,"humidity":48,"rain":0.0,"pressure":993.7,"uv_index":6.85,"wind_gusts":26.6,"aqi":126,"pm10":229.6,"pm2_5":47.8,"mosquito_risk":4,"arthritis_risk":5,"migraine_risk":7,"frizz_risk":0,"updated_at":"2026-03-19T21:27:40.593343+05:30"},{"city":"Chandigarh","state":"Chandigarh","latitude":30.7333,"longitude":76.7794,"temp":16.8,"humidity":98,"rain":0.0,"pressure":972.5,"uv_index":3.9,"wind_gusts":15.8,"aqi":70,"pm10":58.4,"pm2_5":40.4,"mosquito_risk":3,"arthritis_risk":10,"migraine_risk":3,"frizz_risk":1,"updated_at":"2026-03-19T21:27:40.593351+05:30"},{"city":"Srinagar","state":"Jammu and Kashmir","latitude":34.0837,"longitude":74.7973,"temp":7.3,"humidity":95,"rain":0.1,"pressure":839.7,"uv_index":0.95,"wind_gusts":15.1,"aqi":100,"pm10":16.5,"pm2_5":16.4,"mosquito_risk":6,"arthritis_risk":10,"migraine_risk":3,"frizz_risk":0,"updated_at":"2026-03-19T21:27:40.593358+05:30"},{"city":"Jammu","state":"Jammu and Kashmir","latitude":32.7266,"longitude":74.857,"temp":17.2,"humidity":95,"rain":0.0,"pressure":976.6,"uv_index":2.55,"wind_gusts":35.3,"aqi":63,"pm10":51.5,"pm2_5":34.3,"mosquito_risk":3,"arthritis_risk":10,"migraine_risk":3,"frizz_risk":1,"updated_at":"2026-03-19T21:27:40.593365+05:30"},{"city":"Amritsar","state":"Punjab","latitude":31.634,"longitude":74.8723,"temp":15.8,"humidity":97,"rain":0.0,"pressure":984.7,"uv_index":2.25,"wind_gusts":24.8,"aqi":78,"pm10":39.0,"pm2_5":26.5,"mosquito_risk":3,"arthritis_risk":10,"migraine_risk":3,"frizz_risk":0,"updated_at":"2026-03-19T21:27:40.593372+05:30"},{"city":"Ludhiana","state":"Punjab","latitude":30.901,"longitude":75.8573,"temp":16.6,"humidity":95,"rain":0.1,"pressure":982.7,"uv_index":2.0,"wind_gusts":20.9,"aqi":86,"pm10":55.9,"pm2_5":37.4,"mosquito_risk":6,"arthritis_risk":10,"migraine_risk":3,"frizz_risk":0,"updated_at":"2026-03-19T21:27:40.593378+05:30"},{"city":"Jalandhar","state":"Punjab","latitude":31.326,"longitude":75.5762,"temp":16.6,"humidity":95,"rain":0.1,"pressure":983.9,"uv_index":2.7,"wind_gusts":20.2,"aqi":81,"pm10":54.5,"pm2_5":35.6,"mosquito_risk":6,"arthritis_risk":10,"migraine_risk":3,"frizz_risk":0,"updated_at":"2026-03-19T21:27:40.593388+05:30"},{"city":"Dehradun","state":"Uttarakhand","latitude":30.6284,"longitude":78.0322,"temp":10.9,"humidity":80,"rain":0.6,"pressure":830.2,"uv_index":5.35,"wind_gusts":28.8,"aqi":49,"pm10":25.1,"pm2_5":9.7,"mosquito_risk":6,"arthritis_risk":5,"migraine_risk":3,"frizz_risk":0,"updated_at":"2026-03-19T21:27:40.593395+05:30"},{"city":"Shimla","state":"Himachal Pradesh","latitude":31.1048,"longitude":77.1734,"temp":8.9,"humidity":85,"rain":0.2,"pressure":782.7,"uv_index":3.7,"wind_gusts":36.4,"aqi":47,"pm10":5.3,"pm2_5":4.8,"mosquito_risk":6,"arthritis_risk":10,"migraine_risk":3,"frizz_risk":0,"updated_at":"2026-03-19T21:27:40.593402+05:30"},{"city":"Manali","state":"Himachal Pradesh","latitude":32.2396,"longitude":77.1887,"temp":10.0,"humidity":98,"rain":0.5,"pressure":815.9,"uv_index":3.8,"wind_gusts":23.8,"aqi":52,"pm10":3.3,"pm2_5":3.2,"mosquito_risk":6,"arthritis_risk":10,"migraine_risk":3,"frizz_risk":0,"updated_at":"2026-03-19T21:27:40.593409+05:30"},{"city":"Gurgaon","state":"Haryana","latitude":28.4595,"longitude":77.0266,"temp":19.6,"humidity":91,"rain":0.0,"pressure":985.3,"uv_index":5.35,"wind_gusts":29.9,"aqi":140,"pm10":123.4,"pm2_5":53.2,"mosquito_risk":3,"arthritis_risk":10,"migraine_risk":3,"frizz_risk":1,"updated_at":"2026-03-19T21:27:40.593415+05:30"},{"city":"Noida","state":"Uttar Pradesh","latitude":28.5355,"longitude":77.391,"temp":20.3,"humidity":88,"rain":0.0,"pressure":988.7,"uv_index":4.5,"wind_gusts":32.8,"aqi":140,"pm10":123.4,"pm2_5":53.2,"mosquito_risk":3,"arthritis_risk":5,"migraine_risk":3,"frizz_risk":1,"updated_at":"2026-03-19T21:27:40.593422+05:30"},{"city":"Ghaziabad","state":"Uttar Pradesh","latitude":28.6692,"longitude":77.4538,"temp":19.8,"humidity":88,"rain":0.0,"pressure":986.5,"uv_index":4.15,"wind_gusts":34.2,"aqi":114,"pm10":44.7,"pm2_5":25.9,"mosquito_risk":3,"arthritis_risk":10,"migraine_risk":3,"frizz_risk":1,"updated_at":"2026-03-19T21:27:40.593428+05:30"},{"city":"Faridabad","state":"Haryana","latitude":28.4089,"longitude":77.3178,"temp":19.7,"humidity":90,"rain":0.0,"pressure":987.8,"uv_index":4.8,"wind_gusts":33.5,"aqi":140,"pm10":123.4,"pm2_5":53.2,"mosquito_risk":3,"arthritis_risk":10,"migraine_risk":3,"frizz_risk":1,"updated_at":"2026-03-19T21:27:40.593434+05:30"},{"city":"Meerut","state":"Uttar Pradesh","latitude":28.9845,"longitude":77.7064,"temp":19.1,"humidity":89,"rain":0.0,"pressure":984.9,"uv_index":3.9,"wind_gusts":34.6,"aqi":114,"pm10":44.7,"pm2_5":25.9,"mosquito_risk":3,"arthritis_risk":10,"migraine_risk":3,"frizz_risk":1,"updated_at":"2026-03-19T21:27:40.593440+05:30"},{"city":"Agra","state":"Uttar Pradesh","latitude":27.1767,"longitude":78.0081,"temp":22.2,"humidity":70,"rain":0.0,"pressure":991.0,"uv_index":6.65,"wind_gusts":37.8,"aqi":690,"pm10":273.8,"pm2_5":66.1,"mosquito_risk":3,"arthritis_risk":5,"migraine_risk":7,"frizz_risk":1,"updated_at":"2026-03-19T21:27:40.593447+05:30"},{"city":"Varanasi","state":"Uttar Pradesh","latitude":25.3176,"longitude":82.9739,"temp":24.4,"humidity":67,"rain":0.0,"pressure":999.9,"uv_index":7.5,"wind_gusts":19.8,"aqi":141,"pm10":52.0,"pm2_5":46.3,"mosquito_risk":3,"arthritis_risk":5,"migraine_risk":7,"frizz_risk":1,"updated_at":"2026-03-19T21:27:40.593456+05:30"},{"city":"Prayagraj","state":"Uttar Pradesh","latitude":25.4358,"longitude":81.8463,"temp":24.7,"humidity":67,"rain":0.0,"pressure":998.2,"uv_index":7.35,"wind_gusts":22.0,"aqi":135,"pm10":48.4,"pm2_5":35.9,"mosquito_risk":3,"arthritis_risk":5,"migraine_risk":7,"frizz_risk":1,"updated_at":"2026-03-19T21:27:40.593463+05:30"},{"city":"Gorakhpur","state":"Uttar Pradesh","latitude":26.7606,"longitude":83.3732,"temp":22.6,"humidity":59,"rain":0.0,"pressure":999.1,"uv_index":7.2,"wind_gusts":20.9,"aqi":119,"pm10":60.5,"pm2_5":44.0,"mosquito_risk":0,"arthritis_risk":5,"migraine_risk":7,"frizz_risk":0,"updated_at":"2026-03-19T21:27:40.593476+05:30"},{"city":"Bareilly","state":"Uttar Pradesh","latitude":28.367,"longitude":79.4304,"temp":20.7,"humidity":72,"rain":0.0,"pressure":989.8,"uv_index":6.45,"wind_gusts":34.9,"aqi":89,"pm10":37.0,"pm2_5":25.8,"mosquito_risk":3,"arthritis_risk":5,"migraine_risk":7,"frizz_risk":0,"updated_at":"2026-03-19T21:27:40.593485+05:30"},{"city":"Aligarh","state":"Uttar Pradesh","latitude":27.8974,"longitude":78.088,"temp":20.3,"humidity":84,"rain":0.0,"pressure":988.6,"uv_index":6.4,"wind_gusts":37.1,"aqi":159,"pm10":304.5,"pm2_5":55.4,"mosquito_risk":3,"arthritis_risk":5,"migraine_risk":7,"frizz_risk":1,"updated_at":"2026-03-19T21:27:40.593492+05:30"},{"city":"Moradabad","state":"Uttar Pradesh","latitude":28.8386,"longitude":78.7733,"temp":20.5,"humidity":70,"rain":0.0,"pressure":986.6,"uv_index":5.0,"wind_gusts":46.1,"aqi":105,"pm10":43.0,"pm2_5":25.8,"mosquito_risk":3,"arthritis_risk":5,"migraine_risk":3,"frizz_risk":0,"updated_at":"2026-03-19T21:27:40.593498+05:30"},{"city":"Saharanpur","state":"Uttar Pradesh","latitude":29.9637,"longitude":77.546,"temp":17.4,"humidity":87,"rain":0.0,"pressure":979.4,"uv_index":4.05,"wind_gusts":22.7,"aqi":81,"pm10":59.5,"pm2_5":36.4,"mosquito_risk":3,"arthritis_risk":10,"migraine_risk":3,"frizz_risk":0,"updated_at":"2026-03-19T21:27:40.593504+05:30"},{"city":"Jhansi","state":"Uttar Pradesh","latitude":25.4484,"longitude":78.5685,"temp":24.9,"humidity":59,"rain":0.0,"pressure":980.6,"uv_index":7.3,"wind_gusts":38.9,"aqi":115,"pm10":33.2,"pm2_5":24.3,"mosquito_risk":0,"arthritis_risk":5,"migraine_risk":7,"frizz_risk":1,"updated_at":"2026-03-19T21:27:43.868518+05:30"},{"city":"Surat","state":"Gujarat","latitude":21.1702,"longitude":72.8311,"temp":25.1,"humidity":79,"rain":0.0,"pressure":1010.4,"uv_index":7.45,"wind_gusts":28.1,"aqi":78,"pm10":28.4,"pm2_5":23.9,"mosquito_risk":7,"arthritis_risk":0,"migraine_risk":4,"frizz_risk":1,"updated_at":"2026-03-19T21:27:43.868549+05:30"},{"city":"Vadodara","state":"Gujarat","latitude":22.3072,"longitude":73.1812,"temp":25.7,"humidity":63,"rain":0.0,"pressure":1007.2,"uv_index":7.45,"wind_gusts":47.9,"aqi":78,"pm10":36.3,"pm2_5":18.3,"mosquito_risk":7,"arthritis_risk":5,"migraine_risk":4,"frizz_risk":1,"updated_at":"2026-03-19T21:27:43.868559+05:30"},{"city":"Rajkot","state":"Gujarat","latitude":22.3039,"longitude":70.8022,"temp":23.7,"humidity":75,"rain":0.0,"pressure":997.9,"uv_index":7.35,"wind_gusts":51.5,"aqi":57,"pm10":51.3,"pm2_5":23.5,"mosquito_risk":3,"arthritis_risk":5,"migraine_risk":7,"frizz_risk":1,"updated_at":"2026-03-19T21:27:43.868567+05:30"},{"city":"Thane","state":"Maharashtra","latitude":19.2183,"longitude":72.9781,"temp":26.1,"humidity":72,"rain":0.0,"pressure":1012.0,"uv_index":7.75,"wind_gusts":33.5,"aqi":66,"pm10":41.7,"pm2_5":16.6,"mosquito_risk":7,"arthritis_risk":0,"migraine_risk":4,"frizz_risk":1,"updated_at":"2026-03-19T21:27:43.868575+05:30"},{"city":"Nagpur","state":"Maharashtra","latitude":21.1458,"longitude":79.0882,"temp":24.1,"humidity":65,"rain":0.0,"pressure":976.5,"uv_index":7.85,"wind_gusts":26.3,"aqi":139,"pm10":57.7,"pm2_5":47.0,"mosquito_risk":3,"arthritis_risk":5,"migraine_risk":7,"frizz_risk":1,"updated_at":"2026-03-19T21:27:43.868581+05:30"},{"city":"Nashik","state":"Maharashtra","latitude":19.9975,"longitude":73.7898,"temp":22.2,"humidity":70,"rain":0.0,"pressure":948.6,"uv_index":7.95,"wind_gusts":28.8,"aqi":86,"pm10":13.2,"pm2_5":8.6,"mosquito_risk":3,"arthritis_risk":5,"migraine_risk":7,"frizz_risk":1,"updated_at":"2026-03-19T21:27:43.868588+05:30"},{"city":"Aurangabad","state":"Maharashtra","latitude":19.8762,"longitude":75.3433,"temp":25.4,"humidity":53,"rain":0.0,"pressure":947.2,"uv_index":8.45,"wind_gusts":41.8,"aqi":124,"pm10":37.7,"pm2_5":27.8,"mosquito_risk":4,"arthritis_risk":5,"migraine_risk":7,"frizz_risk":0,"updated_at":"2026-03-19T21:27:43.868596+05:30"},{"city":"Solapur","state":"Maharashtra","latitude":17.6599,"longitude":75.9064,"temp":25.0,"humidity":66,"rain":0.0,"pressure":959.6,"uv_index":8.65,"wind_gusts":39.6,"aqi":134,"pm10":31.8,"pm2_5":23.0,"mosquito_risk":7,"arthritis_risk":5,"migraine_risk":7,"frizz_risk":1,"updated_at":"2026-03-19T21:27:43.868603+05:30"},{"city":"Kolhapur","state":"Maharashtra","latitude":16.705,"longitude":74.2433,"temp":22.2,"humidity":76,"rain":0.0,"pressure":950.6,"uv_index":8.6,"wind_gusts":49.0,"aqi":102,"pm10":31.2,"pm2_5":26.8,"mosquito_risk":3,"arthritis_risk":5,"migraine_risk":7,"frizz_risk":1,"updated_at":"2026-03-19T21:27:43.868610+05:30"},{"city":"Goa","state":"Goa","latitude":15.2993,"longitude":74.124,"temp":27.5,"humidity":73,"rain":0.0,"pressure":1001.3,"uv_index":8.8,"wind_gusts":33.1,"aqi":72,"pm10":22.2,"pm2_5":13.8,"mosquito_risk":7,"arthritis_risk":5,"migraine_risk":4,"frizz_risk":1,"updated_at":"2026-03-19T21:27:43.868617+05:30"},{"city":"Jodhpur","state":"Rajasthan","latitude":26.2389,"longitude":73.0243,"temp":20.9,"humidity":85,"rain":0.0,"pressure":986.2,"uv_index":6.55,"wind_gusts":44.6,"aqi":71,"pm10":65.7,"pm2_5":20.7,"mosquito_risk":3,"arthritis_risk":5,"migraine_risk":7,"frizz_risk":1,"updated_at":"2026-03-19T21:27:43.868624+05:30"},{"city":"Udaipur","state":"Rajasthan","latitude":24.5854,"longitude":73.7125,"temp":19.6,"humidity":81,"rain":0.0,"pressure":949.1,"uv_index":6.65,"wind_gusts":49.3,"aqi":54,"pm10":44.6,"pm2_5":16.4,"mosquito_risk":3,"arthritis_risk":10,"migraine_risk":7,"frizz_risk":1,"updated_at":"2026-03-19T21:27:43.868631+05:30"},{"city":"Kota","state":"Rajasthan","latitude":25.2138,"longitude":75.8648,"temp":24.1,"humidity":58,"rain":0.0,"pressure":981.9,"uv_index":7.35,"wind_gusts":32.8,"aqi":123,"pm10":45.9,"pm2_5":24.7,"mosquito_risk":0,"arthritis_risk":5,"migraine_risk":7,"frizz_risk":0,"updated_at":"2026-03-19T21:27:43.868638+05:30"},{"city":"Bikaner","state":"Rajasthan","latitude":28.0229,"longitude":73.3119,"temp":20.5,"humidity":77,"rain":0.0,"pressure":985.5,"uv_index":5.1,"wind_gusts":31.0,"aqi":69,"pm10":56.9,"pm2_5":21.2,"mosquito_risk":3,"arthritis_risk":5,"migraine_risk":3,"frizz_risk":1,"updated_at":"2026-03-19T21:27:43.868645+05:30"},{"city":"Ajmer","state":"Rajasthan","latitude":26.4499,"longitude":74.6399,"temp":20.1,"humidity":83,"rain":0.0,"pressure":957.1,"uv_index":5.2,"wind_gusts":30.2,"aqi":73,"pm10":51.7,"pm2_5":18.2,"mosquito_risk":3,"arthritis_risk":5,"migraine_risk":3,"frizz_risk":1,"updated_at":"2026-03-19T21:27:43.868652+05:30"},{"city":"Gwalior","state":"Madhya Pradesh","latitude":26.2183,"longitude":78.1828,"temp":23.6,"humidity":66,"rain":0.0,"pressure":986.4,"uv_index":7.0,"wind_gusts":30.2,"aqi":133,"pm10":136.4,"pm2_5":42.4,"mosquito_risk":3,"arthritis_risk":5,"migraine_risk":7,"frizz_risk":1,"updated_at":"2026-03-19T21:27:43.868659+05:30"},{"city":"Indore","state":"Madhya Pradesh","latitude":22.7196,"longitude":75.8577,"temp":24.2,"humidity":48,"rain":0.0,"pressure":951.0,"uv_index":7.9,"wind_gusts":33.5,"aqi":93,"pm10":24.9,"pm2_5":20.0,"mosquito_risk":0,"arthritis_risk":5,"migraine_risk":7,"frizz_risk":0,"updated_at":"2026-03-19T21:27:43.868666+05:30"},{"city":"Bhopal","state":"Madhya Pradesh","latitude":23.2599,"longitude":77.4126,"temp":26.1,"humidity":39,"rain":0.0,"pressure":956.3,"uv_index":7.8,"wind_gusts":35.6,"aqi":120,"pm10":34.1,"pm2_5":27.2,"mosquito_risk":4,"arthritis_risk":5,"migraine_risk":7,"frizz_risk":0,"updated_at":"2026-03-19T21:27:43.868673+05:30"},{"city":"Jabalpur","state":"Madhya Pradesh","latitude":23.1815,"longitude":79.9864,"temp":25.2,"humidity":51,"rain":0.0,"pressure":964.0,"uv_index":7.9,"wind_gusts":34.6,"aqi":114,"pm10":25.7,"pm2_5":22.2,"mosquito_risk":4,"arthritis_risk":5,"migraine_risk":7,"frizz_risk":0,"updated_at":"2026-03-19T21:27:43.868680+05:30"},{"city":"Ujjain","state":"Madhya Pradesh","latitude":23.1765,"longitude":75.7885,"temp":22.9,"humidity":47,"rain":0.0,"pressure":956.3,"uv_index":7.8,"wind_gusts":29.2,"aqi":79,"pm10":18.6,"pm2_5":15.6,"mosquito_risk":0,"arthritis_risk":5,"migraine_risk":7,"frizz_risk":0,"updated_at":"2026-03-19T21:27:43.868687+05:30"},{"city":"Visakhapatnam","state":"Andhra Pradesh","latitude":17.6868,"longitude":83.2185,"temp":25.8,"humidity":83,"rain":0.0,"pressure":1008.2,"uv_index":8.2,"wind_gusts":32.8,"aqi":64,"pm10":15.1,"pm2_5":12.7,"mosquito_risk":7,"arthritis_risk":0,"migraine_risk":4,"frizz_risk":1,"updated_at":"2026-03-19T21:27:43.868694+05:30"},{"city":"Vijayawada","state":"Andhra Pradesh","latitude":16.5062,"longitude":80.648,"temp":24.3,"humidity":84,"rain":0.0,"pressure":1007.0,"uv_index":8.5,"wind_gusts":28.8,"aqi":60,"pm10":14.4,"pm2_5":13.1,"mosquito_risk":3,"arthritis_risk":5,"migraine_risk":4,"frizz_risk":1,"updated_at":"2026-03-19T21:27:43.868700+05:30"},{"city":"Guntur","state":"Andhra Pradesh","latitude":16.3067,"longitude":80.4365,"temp":24.3,"humidity":85,"rain":0.0,"pressure":1008.1,"uv_index":8.5,"wind_gusts":31.3,"aqi":59,"pm10":19.9,"pm2_5":18.0,"mosquito_risk":3,"arthritis_risk":0,"migraine_risk":4,"frizz_risk":1,"updated_at":"2026-03-19T21:27:43.868707+05:30"},{"city":"Nellore","state":"Andhra Pradesh","latitude":14.4426,"longitude":79.9865,"temp":25.9,"humidity":86,"rain":0.0,"pressure":1010.3,"uv_index":9.0,"wind_gusts":27.0,"aqi":40,"pm10":7.2,"pm2_5":5.1,"mosquito_risk":7,"arthritis_risk":0,"migraine_risk":4,"frizz_risk":1,"updated_at":"2026-03-19T21:27:43.868714+05:30"},{"city":"Kurnool","state":"Andhra Pradesh","latitude":15.8281,"longitude":78.0373,"temp":26.1,"humidity":64,"rain":0.0,"pressure":980.3,"uv_index":8.85,"wind_gusts":33.1,"aqi":91,"pm10":26.5,"pm2_5":21.1,"mosquito_risk":7,"arthritis_risk":5,"migraine_risk":7,"frizz_risk":1,"updated_at":"2026-03-19T21:27:43.868722+05:30"},{"city":"Kakinada","state":"Andhra Pradesh","latitude":16.9891,"longitude":82.2475,"temp":24.6,"humidity":88,"rain":0.0,"pressure":1012.1,"uv_index":8.7,"wind_gusts":23.0,"aqi":42,"pm10":9.1,"pm2_5":6.7,"mosquito_risk":3,"arthritis_risk":0,"migraine_risk":4,"frizz_risk":1,"updated_at":"2026-03-19T21:27:43.868728+05:30"},{"city":"Tirupati","state":"Andhra Pradesh","latitude":13.6288,"longitude":79.4192,"temp":23.7,"humidity":84,"rain":0.0,"pressure":995.8,"uv_index":9.1,"wind_gusts":21.6,"aqi":57,"pm10":15.3,"pm2_5":13.9,"mosquito_risk":3,"arthritis_risk":5,"migraine_risk":7,"frizz_risk":1,"updated_at":"2026-03-19T21:27:43.868734+05:30"},{"city":"Warangal","state":"Telangana","latitude":17.9689,"longitude":79.5941,"temp":24.8,"humidity":77,"rain":0.0,"pressure":982.4,"uv_index":8.1,"wind_gusts":19.8,"aqi":138,"pm10":50.1,"pm2_5":44.6,"mosquito_risk":3,"arthritis_risk":5,"migraine_risk":7,"frizz_risk":1,"updated_at":"2026-03-19T21:27:43.868740+05:30"},{"city":"Nizamabad","state":"Telangana","latitude":18.6725,"longitude":78.0941,"temp":23.9,"humidity":72,"rain":0.0,"pressure":968.4,"uv_index":8.5,"wind_gusts":19.4,"aqi":108,"pm10":47.3,"pm2_5":38.6,"mosquito_risk":3,"arthritis_risk":5,"migraine_risk":7,"frizz_risk":1,"updated_at":"2026-03-19T21:27:43.868747+05:30"},{"city":"Mysore","state":"Karnataka","latitude":12.2958,"longitude":76.6396,"temp":23.8,"humidity":72,"rain":0.0,"pressure":930.4,"uv_index":9.35,"wind_gusts":36.4,"aqi":122,"pm10":35.5,"pm2_5":32.7,"mosquito_risk":3,"arthritis_risk":5,"migraine_risk":7,"frizz_risk":1,"updated_at":"2026-03-19T21:27:43.868754+05:30"},{"city":"Mangalore","state":"Karnataka","latitude":12.9141,"longitude":74.856,"temp":28.5,"humidity":79,"rain":0.0,"pressure":1009.5,"uv_index":8.95,"wind_gusts":26.6,"aqi":114,"pm10":28.7,"pm2_5":18.7,"mosquito_risk":7,"arthritis_risk":0,"migraine_risk":4,"frizz_risk":1,"updated_at":"2026-03-19T21:27:43.868760+05:30"},{"city":"Hubli-Dharwad","state":"Karnataka","latitude":15.3647,"longitude":75.124,"temp":23.2,"humidity":72,"rain":0.0,"pressure":943.2,"uv_index":8.95,"wind_gusts":32.4,"aqi":120,"pm10":31.9,"pm2_5":25.7,"mosquito_risk":3,"arthritis_risk":5,"migraine_risk":7,"frizz_risk":1,"updated_at":"2026-03-19T21:27:43.868767+05:30"},{"city":"Belgaum","state":"Karnataka","latitude":15.8497,"longitude":74.4977,"temp":21.7,"humidity":82,"rain":0.0,"pressure":928.1,"uv_index":9.0,"wind_gusts":37.4,"aqi":100,"pm10":20.3,"pm2_5":16.2,"mosquito_risk":3,"arthritis_risk":5,"migraine_risk":7,"frizz_risk":1,"updated_at":"2026-03-19T21:27:47.146145+05:30"},{"city":"Coimbatore","state":"Tamil Nadu","latitude":11.0168,"longitude":76.9558,"temp":24.9,"humidity":75,"rain":0.0,"pressure":963.8,"uv_index":9.3,"wind_gusts":47.9,"aqi":102,"pm10":24.0,"pm2_5":21.7,"mosquito_risk":3,"arthritis_risk":5,"migraine_risk":7,"frizz_risk":1,"updated_at":"2026-03-19T21:27:47.146180+05:30"},{"city":"Madurai","state":"Tamil Nadu","latitude":9.9252,"longitude":78.1198,"temp":26.3,"humidity":81,"rain":0.0,"pressure":996.1,"uv_index":9.3,"wind_gusts":23.0,"aqi":115,"pm10":24.4,"pm2_5":21.6,"mosquito_risk":7,"arthritis_risk":5,"migraine_risk":7,"frizz_risk":1,"updated_at":"2026-03-19T21:27:47.146197+05:30"},{"city":"Trichy","state":"Tamil Nadu","latitude":10.7905,"longitude":78.7047,"temp":25.6,"humidity":81,"rain":0.0,"pressure":1003.1,"uv_index":9.2,"wind_gusts":29.5,"aqi":86,"pm10":26.3,"pm2_5":24.3,"mosquito_risk":7,"arthritis_risk":5,"migraine_risk":4,"frizz_risk":1,"updated_at":"2026-03-19T21:27:47.146207+05:30"},{"city":"Salem","state":"Tamil Nadu","latitude":11.6643,"longitude":78.146,"temp":27.4,"humidity":69,"rain":0.0,"pressure":979.7,"uv_index":9.25,"wind_gusts":25.6,"aqi":154,"pm10":25.7,"pm2_5":22.9,"mosquito_risk":7,"arthritis_risk":5,"migraine_risk":7,"frizz_risk":1,"updated_at":"2026-03-19T21:27:47.146216+05:30"},{"city":"Tirunelveli","state":"Tamil Nadu","latitude":8.7139,"longitude":77.7567,"temp":25.8,"humidity":88,"rain":0.0,"pressure":1006.1,"uv_index":9.15,"wind_gusts":23.0,"aqi":80,"pm10":23.1,"pm2_5":22.2,"mosquito_risk":7,"arthritis_risk":5,"migraine_risk":4,"frizz_risk":1,"updated_at":"2026-03-19T21:27:47.146225+05:30"},{"city":"Vellore","state":"Tamil Nadu","latitude":12.9165,"longitude":79.1325,"temp":23.4,"humidity":83,"rain":0.0,"pressure":988.6,"uv_index":9.15,"wind_gusts":28.1,"aqi":64,"pm10":47.7,"pm2_5":41.1,"mosquito_risk":3,"arthritis_risk":5,"migraine_risk":7,"frizz_risk":1,"updated_at":"2026-03-19T21:27:47.146234+05:30"},{"city":"Erode","state":"Tamil Nadu","latitude":11.341,"longitude":77.7172,"temp":29.8,"humidity":56,"rain":0.0,"pressure":990.7,"uv_index":9.25,"wind_gusts":36.7,"aqi":134,"pm10":34.5,"pm2_5":30.3,"mosquito_risk":4,"arthritis_risk":5,"migraine_risk":7,"frizz_risk":1,"updated_at":"2026-03-19T21:27:47.146244+05:30"},{"city":"Kochi","state":"Kerala","latitude":9.9312,"longitude":76.2673,"temp":28.6,"humidity":79,"rain":0.0,"pressure":1011.3,"uv_index":9.1,"wind_gusts":29.2,"aqi":59,"pm10":31.3,"pm2_5":28.1,"mosquito_risk":7,"arthritis_risk":0,"migraine_risk":4,"frizz_risk":1,"updated_at":"2026-03-19T21:27:47.146252+05:30"},{"city":"Thiruvananthapuram","state":"Kerala","latitude":8.5241,"longitude":76.9366,"temp":28.7,"humidity":78,"rain":0.0,"pressure":1010.6,"uv_index":8.6,"wind_gusts":27.7,"aqi":89,"pm10":13.5,"pm2_5":11.3,"mosquito_risk":7,"arthritis_risk":0,"migraine_risk":4,"frizz_risk":1,"updated_at":"2026-03-19T21:27:47.146259+05:30"},{"city":"Kozhikode","state":"Kerala","latitude":11.2588,"longitude":75.7804,"temp":28.5,"humidity":79,"rain":0.0,"pressure":1010.5,"uv_index":9.05,"wind_gusts":31.0,"aqi":63,"pm10":15.7,"pm2_5":10.2,"mosquito_risk":7,"arthritis_risk":0,"migraine_risk":4,"frizz_risk":1,"updated_at":"2026-03-19T21:27:47.146267+05:30"},{"city":"Thrissur","state":"Kerala","latitude":10.5276,"longitude":76.2144,"temp":27.3,"humidity":84,"rain":0.0,"pressure":1009.7,"uv_index":9.1,"wind_gusts":34.6,"aqi":54,"pm10":25.4,"pm2_5":23.1,"mosquito_risk":7,"arthritis_risk":0,"migraine_risk":4,"frizz_risk":1,"updated_at":"2026-03-19T21:27:47.146274+05:30"},{"city":"Kannur","state":"Kerala","latitude":11.8745,"longitude":75.3704,"temp":27.7,"humidity":80,"rain":0.0,"pressure":1010.0,"uv_index":9.0,"wind_gusts":35.3,"aqi":70,"pm10":24.3,"pm2_5":15.3,"mosquito_risk":7,"arthritis_risk":0,"migraine_risk":4,"frizz_risk":1,"updated_at":"2026-03-19T21:27:47.146281+05:30"},{"city":"Patna","state":"Bihar","latitude":25.5941,"longitude":85.1376,"temp":26.2,"humidity":67,"rain":0.0,"pressure":1003.3,"uv_index":7.2,"wind_gusts":21.6,"aqi":195,"pm10":82.4,"pm2_5":67.5,"mosquito_risk":7,"arthritis_risk":5,"migraine_risk":4,"frizz_risk":1,"updated_at":"2026-03-19T21:27:47.146288+05:30"},{"city":"Gaya","state":"Bihar","latitude":24.7914,"longitude":85.0002,"temp":24.6,"humidity":72,"rain":0.0,"pressure":996.9,"uv_index":7.1,"wind_gusts":20.5,"aqi":156,"pm10":61.2,"pm2_5":55.8,"mosquito_risk":3,"arthritis_risk":5,"migraine_risk":7,"frizz_risk":1,"updated_at":"2026-03-19T21:27:47.146295+05:30"},{"city":"Muzaffarpur","state":"Bihar","latitude":26.1209,"longitude":85.3647,"temp":23.9,"humidity":70,"rain":0.0,"pressure":1003.0,"uv_index":7.05,"wind_gusts":23.4,"aqi":170,"pm10":107.3,"pm2_5":88.9,"mosquito_risk":3,"arthritis_risk":5,"migraine_risk":4,"frizz_risk":1,"updated_at":"2026-03-19T21:27:47.146302+05:30"},{"city":"Bhagalpur","state":"Bihar","latitude":25.2425,"longitude":87.0117,"temp":24.8,"humidity":79,"rain":0.0,"pressure":1005.3,"uv_index":7.4,"wind_gusts":27.4,"aqi":181,"pm10":85.7,"pm2_5":76.1,"mosquito_risk":3,"arthritis_risk":5,"migraine_risk":4,"frizz_risk":1,"updated_at":"2026-03-19T21:27:47.146308+05:30"},{"city":"Ranchi","state":"Jharkhand","latitude":23.3441,"longitude":85.3096,"temp":21.8,"humidity":68,"rain":0.0,"pressure":941.4,"uv_index":7.35,"wind_gusts":38.5,"aqi":108,"pm10":43.7,"pm2_5":34.2,"mosquito_risk":3,"arthritis_risk":5,"migraine_risk":7,"frizz_risk":0,"updated_at":"2026-03-19T21:27:47.146316+05:30"},{"city":"Jamshedpur","state":"Jharkhand","latitude":22.8046,"longitude":86.2029,"temp":26.3,"humidity":59,"rain":0.0,"pressure":995.2,"uv_index":7.9,"wind_gusts":30.6,"aqi":132,"pm10":41.8,"pm2_5":35.6,"mosquito_risk":4,"arthritis_risk":5,"migraine_risk":7,"frizz_risk":1,"updated_at":"2026-03-19T21:27:47.146323+05:30"},{"city":"Dhanbad","state":"Jharkhand","latitude":23.7957,"longitude":86.4304,"temp":26.0,"humidity":57,"rain":0.0,"pressure":983.9,"uv_index":7.15,"wind_gusts":20.5,"aqi":157,"pm10":63.1,"pm2_5":54.9,"mosquito_risk":4,"arthritis_risk":5,"migraine_risk":7,"frizz_risk":1,"updated_at":"2026-03-19T21:27:47.146329+05:30"},{"city":"Bokaro","state":"Jharkhand","latitude":23.6693,"longitude":86.1511,"temp":24.9,"humidity":59,"rain":0.0,"pressure":988.1,"uv_index":7.15,"wind_gusts":41.0,"aqi":143,"pm10":54.9,"pm2_5":44.6,"mosquito_risk":0,"arthritis_risk":5,"migraine_risk":7,"frizz_risk":1,"updated_at":"2026-03-19T21:27:47.146336+05:30"},{"city":"Bhubaneswar","state":"Odisha","latitude":20.2961,"longitude":85.8245,"temp":24.8,"humidity":90,"rain":0.0,"pressure":1007.0,"uv_index":7.8,"wind_gusts":20.9,"aqi":91,"pm10":16.6,"pm2_5":14.8,"mosquito_risk":3,"arthritis_risk":5,"migraine_risk":4,"frizz_risk":1,"updated_at":"2026-03-19T21:27:47.146344+05:30"},{"city":"Cuttack","state":"Odisha","latitude":20.4625,"longitude":85.8828,"temp":24.3,"humidity":83,"rain":0.0,"pressure":1009.0,"uv_index":7.9,"wind_gusts":24.8,"aqi":91,"pm10":16.6,"pm2_5":14.8,"mosquito_risk":3,"arthritis_risk":0,"migraine_risk":4,"frizz_risk":1,"updated_at":"2026-03-19T21:27:47.146350+05:30"},{"city":"Rourkela","state":"Odisha","latitude":22.2604,"longitude":84.8536,"temp":24.2,"humidity":67,"rain":0.0,"pressure":990.0,"uv_index":7.1,"wind_gusts":24.8,"aqi":132,"pm10":55.9,"pm2_5":45.6,"mosquito_risk":3,"arthritis_risk":5,"migraine_risk":7,"frizz_risk":1,"updated_at":"2026-03-19T21:27:47.146357+05:30"},{"city":"Raipur","state":"Chhattisgarh","latitude":21.2514,"longitude":81.6296,"temp":26.7,"humidity":52,"rain":0.0,"pressure":977.8,"uv_index":7.95,"wind_gusts":25.9,"aqi":166,"pm10":66.1,"pm2_5":59.4,"mosquito_risk":4,"arthritis_risk":5,"migraine_risk":7,"frizz_risk":1,"updated_at":"2026-03-19T21:27:47.146363+05:30"},{"city":"Bhilai","state":"Chhattisgarh","latitude":21.1938,"longitude":81.3509,"temp":26.5,"humidity":50,"rain":0.0,"pressure":978.1,"uv_index":7.6,"wind_gusts":24.8,"aqi":151,"pm10":64.0,"pm2_5":57.5,"mosquito_risk":4,"arthritis_risk":5,"migraine_risk":7,"frizz_risk":0,"updated_at":"2026-03-19T21:27:47.146369+05:30"},{"city":"Guwahati","state":"Assam","latitude":26.1158,"longitude":91.7086,"temp":23.4,"humidity":82,"rain":0.0,"pressure":1006.7,"uv_index":7.5,"wind_gusts":25.2,"aqi":93,"pm10":45.4,"pm2_5":38.3,"mosquito_risk":3,"arthritis_risk":5,"migraine_risk":4,"frizz_risk":1,"updated_at":"2026-03-19T21:27:47.146375+05:30"},{"city":"Agartala","state":"Tripura","latitude":23.8315,"longitude":91.2868,"temp":24.8,"humidity":71,"rain":0.0,"pressure":1010.1,"uv_index":7.85,"wind_gusts":23.0,"aqi":91,"pm10":71.5,"pm2_5":68.9,"mosquito_risk":3,"arthritis_risk":0,"migraine_risk":4,"frizz_risk":1,"updated_at":"2026-03-19T21:27:47.146382+05:30"},{"city":"Shillong","state":"Meghalaya","latitude":25.5788,"longitude":91.8933,"temp":12.4,"humidity":92,"rain":0.0,"pressure":858.2,"uv_index":7.15,"wind_gusts":47.2,"aqi":110,"pm10":37.3,"pm2_5":32.8,"mosquito_risk":3,"arthritis_risk":10,"migraine_risk":7,"frizz_risk":0,"updated_at":"2026-03-19T21:27:47.146389+05:30"},{"city":"Imphal","state":"Manipur","latitude":24.817,"longitude":93.9368,"temp":17.4,"humidity":80,"rain":0.0,"pressure":926.7,"uv_index":8.25,"wind_gusts":60.8,"aqi":92,"pm10":50.6,"pm2_5":41.8,"mosquito_risk":3,"arthritis_risk":5,"migraine_risk":7,"frizz_risk":0,"updated_at":"2026-03-19T21:27:47.146395+05:30"},{"city":"Aizawl","state":"Mizoram","latitude":23.7271,"longitude":92.7176,"temp":17.9,"humidity":76,"rain":0.0,"pressure":895.6,"uv_index":8.05,"wind_gusts":38.5,"aqi":95,"pm10":40.7,"pm2_5":34.2,"mosquito_risk":3,"arthritis_risk":5,"migraine_risk":7,"frizz_risk":0,"updated_at":"2026-03-19T21:27:47.146402+05:30"},{"city":"Kohima","state":"Nagaland","latitude":25.6701,"longitude":94.1077,"temp":13.9,"humidity":84,"rain":0.0,"pressure":857.0,"uv_index":7.95,"wind_gusts":86.8,"aqi":76,"pm10":57.4,"pm2_5":35.0,"mosquito_risk":3,"arthritis_risk":10,"migraine_risk":7,"frizz_risk":0,"updated_at":"2026-03-19T21:27:47.146409+05:30"},{"city":"Gangtok","state":"Sikkim","latitude":27.3314,"longitude":88.6138,"temp":13.4,"humidity":95,"rain":0.0,"pressure":839.3,"uv_index":7.7,"wind_gusts":20.2,"aqi":98,"pm10":55.6,"pm2_5":42.1,"mosquito_risk":3,"arthritis_risk":10,"migraine_risk":7,"frizz_risk":0,"updated_at":"2026-03-19T21:27:47.146415+05:30"},{"city":"Siliguri","state":"West Bengal","latitude":26.7271,"longitude":88.3953,"temp":19.1,"humidity":86,"rain":0.0,"pressure":998.7,"uv_index":7.35,"wind_gusts":24.8,"aqi":137,"pm10":73.3,"pm2_5":58.6,"mosquito_risk":3,"arthritis_risk":10,"migraine_risk":7,"frizz_risk":1,"updated_at":"2026-03-19T21:27:50.426013+05:30"},{"city":"Durgapur","state":"West Bengal","latitude":23.5204,"longitude":87.3119,"temp":26.6,"humidity":72,"rain":0.0,"pressure":999.2,"uv_index":7.6,"wind_gusts":26.3,"aqi":152,"pm10":48.7,"pm2_5":43.9,"mosquito_risk":7,"arthritis_risk":5,"migraine_risk":7,"frizz_risk":1,"updated_at":"2026-03-19T21:27:50.426046+05:30"},{"city":"Asansol","state":"West Bengal","latitude":23.6739,"longitude":86.9524,"temp":26.5,"humidity":68,"rain":0.0,"pressure":997.8,"uv_index":7.65,"wind_gusts":31.0,"aqi":150,"pm10":50.2,"pm2_5":44.1,"mosquito_risk":7,"arthritis_risk":5,"migraine_risk":7,"frizz_risk":1,"updated_at":"2026-03-19T21:27:50.426090+05:30"},{"city":"Pondicherry","state":"Puducherry","latitude":11.9139,"longitude":79.8145,"temp":25.2,"humidity":90,"rain":0.0,"pressure":1012.1,"uv_index":9.1,"wind_gusts":28.4,"aqi":42,"pm10":5.4,"pm2_5":3.7,"mosquito_risk":7,"arthritis_risk":0,"migraine_risk":4,"frizz_risk":1,"updated_at":"2026-03-19T21:27:50.426103+05:30"},{"city":"Port Blair","state":"Andaman and Nicobar Islands","latitude":11.6234,"longitude":92.7265,"temp":27.9,"humidity":78,"rain":0.0,"pressure":1010.4,"uv_index":9.05,"wind_gusts":22.0,"aqi":50,"pm10":13.6,"pm2_5":10.4,"mosquito_risk":7,"arthritis_risk":0,"migraine_risk":4,"frizz_risk":1,"updated_at":"2026-03-19T21:27:50.426113+05:30"},{"city":"Haridwar","state":"Uttarakhand","latitude":29.9457,"longitude":78.1642,"temp":20.1,"humidity":77,"rain":0.0,"pressure":977.9,"uv_index":3.75,"wind_gusts":24.8,"aqi":72,"pm10":46.0,"pm2_5":30.5,"mosquito_risk":3,"arthritis_risk":5,"migraine_risk":3,"frizz_risk":0,"updated_at":"2026-03-19T21:27:50.426122+05:30"},{"city":"Rishikesh","state":"Uttarakhand","latitude":30.0869,"longitude":78.2676,"temp":19.8,"humidity":67,"rain":0.1,"pressure":970.2,"uv_index":4.8,"wind_gusts":24.5,"aqi":68,"pm10":41.7,"pm2_5":21.8,"mosquito_risk":6,"arthritis_risk":5,"migraine_risk":3,"frizz_risk":0,"updated_at":"2026-03-19T21:27:50.426132+05:30"},{"city":"Nainital","state":"Uttarakhand","latitude":29.3919,"longitude":79.4542,"temp":16.1,"humidity":58,"rain":0.0,"pressure":807.2,"uv_index":5.8,"wind_gusts":55.4,"aqi":73,"pm10":31.8,"pm2_5":20.7,"mosquito_risk":0,"arthritis_risk":5,"migraine_risk":3,"frizz_risk":0,"updated_at":"2026-03-19T21:27:50.426142+05:30"},{"city":"Mussoorie","state":"Uttarakhand","latitude":30.4599,"longitude":78.0664,"temp":12.5,"humidity":71,"rain":0.2,"pressure":802.5,"uv_index":5.25,"wind_gusts":38.9,"aqi":66,"pm10":42.4,"pm2_5":23.9,"mosquito_risk":6,"arthritis_risk":5,"migraine_risk":3,"frizz_risk":0,"updated_at":"2026-03-19T21:27:50.426150+05:30"},{"city":"Dharamshala","state":"Himachal Pradesh","latitude":32.219,"longitude":76.3234,"temp":13.6,"humidity":70,"rain":0.4,"pressure":868.7,"uv_index":3.8,"wind_gusts":29.9,"aqi":48,"pm10":5.7,"pm2_5":5.6,"mosquito_risk":6,"arthritis_risk":5,"migraine_risk":3,"frizz_risk":0,"updated_at":"2026-03-19T21:27:50.426159+05:30"},{"city":"Dalhousie","state":"Himachal Pradesh","latitude":32.5387,"longitude":75.971,"temp":10.4,"humidity":77,"rain":0.1,"pressure":801.9,"uv_index":4.35,"wind_gusts":25.2,"aqi":62,"pm10":44.4,"pm2_5":28.7,"mosquito_risk":6,"arthritis_risk":5,"migraine_risk":3,"frizz_risk":0,"updated_at":"2026-03-19T21:27:50.426169+05:30"},{"city":"Patiala","state":"Punjab","latitude":30.3398,"longitude":76.3869,"temp":17.1,"humidity":94,"rain":0.0,"pressure":982.1,"uv_index":3.85,"wind_gusts":21.6,"aqi":85,"pm10":50.6,"pm2_5":28.5,"mosquito_risk":3,"arthritis_risk":10,"migraine_risk":3,"frizz_risk":1,"updated_at":"2026-03-19T21:27:50.426180+05:30"},{"city":"Bhatinda","state":"Punjab","latitude":30.211,"longitude":74.9455,"temp":17.9,"humidity":95,"rain":0.0,"pressure":987.1,"uv_index":1.4,"wind_gusts":20.9,"aqi":85,"pm10":62.4,"pm2_5":39.1,"mosquito_risk":3,"arthritis_risk":10,"migraine_risk":3,"frizz_risk":1,"updated_at":"2026-03-19T21:27:50.426189+05:30"},{"city":"Rohtak","state":"Haryana","latitude":28.8955,"longitude":76.6066,"temp":18.6,"humidity":95,"rain":0.0,"pressure":985.7,"uv_index":4.05,"wind_gusts":28.1,"aqi":133,"pm10":92.7,"pm2_5":51.6,"mosquito_risk":3,"arthritis_risk":10,"migraine_risk":3,"frizz_risk":1,"updated_at":"2026-03-19T21:27:50.426198+05:30"},{"city":"Panipat","state":"Haryana","latitude":29.3909,"longitude":76.9635,"temp":17.4,"humidity":91,"rain":0.0,"pressure":984.5,"uv_index":3.8,"wind_gusts":32.8,"aqi":127,"pm10":74.5,"pm2_5":40.6,"mosquito_risk":3,"arthritis_risk":10,"migraine_risk":3,"frizz_risk":0,"updated_at":"2026-03-19T21:27:50.426206+05:30"},{"city":"Mathura","state":"Uttar Pradesh","latitude":27.4924,"longitude":77.6737,"temp":20.2,"humidity":85,"rain":0.0,"pressure":990.4,"uv_index":6.6,"wind_gusts":37.4,"aqi":120,"pm10":158.3,"pm2_5":54.1,"mosquito_risk":3,"arthritis_risk":5,"migraine_risk":7,"frizz_risk":1,"updated_at":"2026-03-19T21:27:50.426215+05:30"},{"city":"Vrindavan","state":"Uttar Pradesh","latitude":27.5823,"longitude":77.7027,"temp":20.0,"humidity":89,"rain":0.0,"pressure":990.6,"uv_index":6.55,"wind_gusts":40.7,"aqi":120,"pm10":158.3,"pm2_5":54.1,"mosquito_risk":3,"arthritis_risk":5,"migraine_risk":7,"frizz_risk":1,"updated_at":"2026-03-19T21:27:50.426223+05:30"},{"city":"Ayodhya","state":"Uttar Pradesh","latitude":26.7922,"longitude":82.1998,"temp":25.0,"humidity":44,"rain":0.0,"pressure":997.4,"uv_index":7.0,"wind_gusts":32.4,"aqi":116,"pm10":67.5,"pm2_5":45.3,"mosquito_risk":4,"arthritis_risk":5,"migraine_risk":7,"frizz_risk":0,"updated_at":"2026-03-19T21:27:50.426231+05:30"},{"city":"Ratlam","state":"Madhya Pradesh","latitude":23.3315,"longitude":75.0367,"temp":24.0,"humidity":56,"rain":0.0,"pressure":957.6,"uv_index":7.75,"wind_gusts":31.7,"aqi":79,"pm10":16.6,"pm2_5":10.7,"mosquito_risk":0,"arthritis_risk":5,"migraine_risk":7,"frizz_risk":0,"updated_at":"2026-03-19T21:27:50.426240+05:30"},{"city":"Sagar","state":"Madhya Pradesh","latitude":23.8388,"longitude":78.7378,"temp":25.2,"humidity":42,"rain":0.0,"pressure":952.1,"uv_index":7.75,"wind_gusts":45.0,"aqi":104,"pm10":26.3,"pm2_5":20.1,"mosquito_risk":4,"arthritis_risk":5,"migraine_risk":7,"frizz_risk":0,"updated_at":"2026-03-19T21:27:50.426248+05:30"},{"city":"Satna","state":"Madhya Pradesh","latitude":24.6005,"longitude":80.8322,"temp":26.3,"humidity":42,"rain":0.0,"pressure":973.5,"uv_index":7.7,"wind_gusts":42.5,"aqi":104,"pm10":23.0,"pm2_5":17.8,"mosquito_risk":4,"arthritis_risk":5,"migraine_risk":7,"frizz_risk":0,"updated_at":"2026-03-19T21:27:50.426256+05:30"},{"city":"Akola","state":"Maharashtra","latitude":20.7002,"longitude":77.0082,"temp":25.0,"humidity":61,"rain":0.0,"pressure":979.2,"uv_index":8.15,"wind_gusts":26.3,"aqi":119,"pm10":45.4,"pm2_5":36.1,"mosquito_risk":7,"arthritis_risk":5,"migraine_risk":7,"frizz_risk":1,"updated_at":"2026-03-19T21:27:50.426265+05:30"},{"city":"Amravati","state":"Maharashtra","latitude":20.9374,"longitude":77.7796,"temp":24.5,"humidity":64,"rain":0.0,"pressure":970.7,"uv_index":8.05,"wind_gusts":33.8,"aqi":125,"pm10":45.3,"pm2_5":36.4,"mosquito_risk":3,"arthritis_risk":5,"migraine_risk":7,"frizz_risk":1,"updated_at":"2026-03-19T21:27:50.426274+05:30"},{"city":"Latur","state":"Maharashtra","latitude":18.4088,"longitude":76.5604,"temp":22.7,"humidity":70,"rain":0.0,"pressure":942.4,"uv_index":8.55,"wind_gusts":45.7,"aqi":100,"pm10":49.7,"pm2_5":39.5,"mosquito_risk":3,"arthritis_risk":5,"migraine_risk":7,"frizz_risk":1,"updated_at":"2026-03-19T21:27:50.426282+05:30"},{"city":"Nanded","state":"Maharashtra","latitude":19.1383,"longitude":77.3091,"temp":23.7,"humidity":73,"rain":0.0,"pressure":972.0,"uv_index":8.4,"wind_gusts":48.6,"aqi":124,"pm10":40.4,"pm2_5":32.2,"mosquito_risk":3,"arthritis_risk":5,"migraine_risk":7,"frizz_risk":1,"updated_at":"2026-03-19T21:27:50.426290+05:30"},{"city":"Gulbarga","state":"Karnataka","latitude":17.3297,"longitude":76.8343,"temp":26.1,"humidity":53,"rain":0.0,"pressure":961.5,"uv_index":8.65,"wind_gusts":23.4,"aqi":115,"pm10":37.6,"pm2_5":30.7,"mosquito_risk":4,"arthritis_risk":5,"migraine_risk":7,"frizz_risk":0,"updated_at":"2026-03-19T21:27:50.426298+05:30"},{"city":"Bidar","state":"Karnataka","latitude":17.9104,"longitude":77.5199,"temp":24.3,"humidity":60,"rain":0.0,"pressure":938.4,"uv_index":8.6,"wind_gusts":31.3,"aqi":107,"pm10":43.3,"pm2_5":34.1,"mosquito_risk":0,"arthritis_risk":5,"migraine_risk":7,"frizz_risk":1,"updated_at":"2026-03-19T21:27:50.426306+05:30"},{"city":"Hospet","state":"Karnataka","latitude":15.2689,"longitude":76.3909,"temp":27.2,"humidity":50,"rain":0.0,"pressure":958.3,"uv_index":8.9,"wind_gusts":21.2,"aqi":137,"pm10":37.1,"pm2_5":28.8,"mosquito_risk":4,"arthritis_risk":5,"migraine_risk":7,"frizz_risk":0,"updated_at":"2026-03-19T21:27:50.426314+05:30"},{"city":"Tirupur","state":"Tamil Nadu","latitude":11.1085,"longitude":77.3411,"temp":27.4,"humidity":66,"rain":0.0,"pressure":977.1,"uv_index":9.35,"wind_gusts":34.9,"aqi":134,"pm10":33.3,"pm2_5":28.8,"mosquito_risk":7,"arthritis_risk":5,"migraine_risk":7,"frizz_risk":1,"updated_at":"2026-03-19T21:27:50.426322+05:30"},{"city":"Alappuzha","state":"Kerala","latitude":9.4981,"longitude":76.3388,"temp":28.7,"humidity":78,"rain":0.0,"pressure":1011.4,"uv_index":9.1,"wind_gusts":27.4,"aqi":66,"pm10":25.4,"pm2_5":21.2,"mosquito_risk":7,"arthritis_risk":0,"migraine_risk":4,"frizz_risk":1,"updated_at":"2026-03-19T21:27:50.426329+05:30"},{"city":"Munnar","state":"Kerala","latitude":10.0889,"longitude":77.0595,"temp":20.8,"humidity":93,"rain":0.0,"pressure":859.0,"uv_index":9.6,"wind_gusts":38.9,"aqi":56,"pm10":21.7,"pm2_5":20.4,"mosquito_risk":3,"arthritis_risk":5,"migraine_risk":7,"frizz_risk":1,"updated_at":"2026-03-19T21:27:50.426338+05:30"},{"city":"Silchar","state":"Assam","latitude":24.8333,"longitude":92.7789,"temp":23.8,"humidity":76,"rain":0.0,"pressure":1009.1,"uv_index":7.9,"wind_gusts":21.2,"aqi":101,"pm10":55.9,"pm2_5":53.0,"mosquito_risk":3,"arthritis_risk":0,"migraine_risk":4,"frizz_risk":1,"updated_at":"2026-03-19T21:27:50.426346+05:30"},{"city":"Dibrugarh","state":"Assam","latitude":27.4728,"longitude":94.912,"temp":20.5,"humidity":86,"rain":0.0,"pressure":1001.5,"uv_index":7.0,"wind_gusts":23.4,"aqi":85,"pm10":51.5,"pm2_5":43.3,"mosquito_risk":3,"arthritis_risk":5,"migraine_risk":4,"frizz_risk":1,"updated_at":"2026-03-19T21:27:50.426355+05:30"}]