[{"city":"Delhi","state":"Delhi","latitude":28.6139,"longitude":77.209,"temp":25.8,"humidity":96,"rain":0.1,"pressure":974.3,"uv_index":6.0,"wind_gusts":25.6,"aqi":133,"pm10":43.0,"pm2_5":39.5,"no2":27.1,"co":357.0,"o3":62.0,"so2":17.5,"mosquito_risk":10,"arthritis_risk":5,"migraine_risk":3,"frizz_risk":1,"updated_at":"2026-07-08T04:34:08.134188+05:30"},{"city":"Mumbai","state":"Maharashtra","latitude":19.076,"longitude":72.8777,"temp":26.2,"humidity":95,"rain":0.4,"pressure":1001.1,"uv_index":1.5,"wind_gusts":45.0,"aqi":54,"pm10":33.6,"pm2_5":16.8,"no2":2.4,"co":112.0,"o3":52.0,"so2":2.5,"mosquito_risk":10,"arthritis_risk":5,"migraine_risk":0,"frizz_risk":1,"updated_at":"2026-07-08T04:34:08.134229+05:30"},{"city":"Bangalore","state":"Karnataka","latitude":12.9716,"longitude":77.5946,"temp":21.3,"humidity":85,"rain":0.0,"pressure":909.9,"uv_index":8.95,"wind_gusts":69.5,"aqi":28,"pm10":4.7,"pm2_5":2.9,"no2":3.6,"co":114.0,"o3":41.0,"so2":2.6,"mosquito_risk":3,"arthritis_risk":5,"migraine_risk":7,"frizz_risk":1,"updated_at":"2026-07-08T04:34:08.134245+05:30"},{"city":"Hyderabad","state":"Telangana","latitude":17.385,"longitude":78.4867,"temp":24.5,"humidity":80,"rain":0.0,"pressure":947.5,"uv_index":8.9,"wind_gusts":58.7,"aqi":25,"pm10":5.2,"pm2_5":3.6,"no2":5.8,"co":126.0,"o3":36.0,"so2":4.4,"mosquito_risk":3,"arthritis_risk":5,"migraine_risk":7,"frizz_risk":1,"updated_at":"2026-07-08T04:34:08.134255+05:30"},{"city":"Chennai","state":"Tamil Nadu","latitude":13.0827,"longitude":80.2707,"temp":30.8,"humidity":51,"rain":0.0,"pressure":1004.8,"uv_index":8.05,"wind_gusts":55.4,"aqi":62,"pm10":26.1,"pm2_5":14.4,"no2":10.9,"co":157.0,"o3":37.0,"so2":7.6,"mosquito_risk":0,"arthritis_risk":5,"migraine_risk":4,"frizz_risk":1,"updated_at":"2026-07-08T04:34:08.134263+05:30"},{"city":"Kolkata","state":"West Bengal","latitude":22.5726,"longitude":88.3639,"temp":27.5,"humidity":86,"rain":0.0,"pressure":1000.6,"uv_index":6.3,"wind_gusts":30.6,"aqi":65,"pm10":27.6,"pm2_5":19.9,"no2":7.5,"co":172.0,"o3":64.0,"so2":6.9,"mosquito_risk":7,"arthritis_risk":5,"migraine_risk":4,"frizz_risk":1,"updated_at":"2026-07-08T04:34:08.134271+05:30"},{"city":"Pune","state":"Maharashtra","latitude":18.5204,"longitude":73.8567,"temp":23.6,"humidity":95,"rain":0.1,"pressure":940.3,"uv_index":2.25,"wind_gusts":53.3,"aqi":24,"pm10":0.8,"pm2_5":0.8,"no2":2.6,"co":103.0,"o3":49.0,"so2":1.8,"mosquito_risk":6,"arthritis_risk":5,"migraine_risk":3,"frizz_risk":1,"updated_at":"2026-07-08T04:34:08.134278+05:30"},{"city":"Ahmedabad","state":"Gujarat","latitude":23.0225,"longitude":72.5714,"temp":26.8,"humidity":97,"rain":0.3,"pressure":992.8,"uv_index":1.9,"wind_gusts":29.2,"aqi":90,"pm10":42.1,"pm2_5":22.4,"no2":8.9,"co":179.0,"o3":45.0,"so2":6.0,"mosquito_risk":10,"arthritis_risk":5,"migraine_risk":3,"frizz_risk":1,"updated_at":"2026-07-08T04:34:08.134284+05:30"},{"city":"Jaipur","state":"Rajasthan","latitude":26.9124,"longitude":75.7873,"temp":26.7,"humidity":91,"rain":0.0,"pressure":950.8,"uv_index":7.3,"wind_gusts":32.8,"aqi":60,"pm10":18.2,"pm2_5":15.0,"no2":16.7,"co":271.0,"o3":53.0,"so2":5.6,"mosquito_risk":7,"arthritis_risk":5,"migraine_risk":7,"frizz_risk":1,"updated_at":"2026-07-08T04:34:08.134291+05:30"},{"city":"Lucknow","state":"Uttar Pradesh","latitude":26.8467,"longitude":80.9462,"temp":26.3,"humidity":96,"rain":0.1,"pressure":984.0,"uv_index":5.65,"wind_gusts":46.1,"aqi":69,"pm10":28.6,"pm2_5":27.4,"no2":16.7,"co":281.0,"o3":51.0,"so2":18.4,"mosquito_risk":10,"arthritis_risk":5,"migraine_risk":3,"frizz_risk":1,"updated_at":"2026-07-08T04:34:08.134302+05:30"},{"city":"Kanpur","state":"Uttar Pradesh","latitude":26.4499,"longitude":80.3319,"temp":26.8,"humidity":93,"rain":0.0,"pressure":981.5,"uv_index":6.9,"wind_gusts":45.7,"aqi":68,"pm10":24.7,"pm2_5":24.0,"no2":18.1,"co":214.0,"o3":41.0,"so2":13.6,"mosquito_risk":7,"arthritis_risk":5,"migraine_risk":7,"frizz_risk":1,"updated_at":"2026-07-08T04:34:08.134309+05:30"},{"city":"Chandigarh","state":"Chandigarh","latitude":30.7333,"longitude":76.7794,"temp":26.8,"humidity":93,"rain":0.0,"pressure":960.7,"uv_index":5.55,"wind_gusts":31.3,"aqi":153,"pm10":65.9,"pm2_5":60.5,"no2":26.9,"co":378.0,"o3":41.0,"so2":10.6,"mosquito_risk":7,"arthritis_risk":5,"migraine_risk":3,"frizz_risk":1,"updated_at":"2026-07-08T04:34:08.134316+05:30"},{"city":"Srinagar","state":"Jammu and Kashmir","latitude":34.0837,"longitude":74.7973,"temp":17.6,"humidity":98,"rain":0.0,"pressure":835.5,"uv_index":9.0,"wind_gusts":27.4,"aqi":72,"pm10":32.1,"pm2_5":30.5,"no2":23.9,"co":688.0,"o3":3.0,"so2":0.0,"mosquito_risk":3,"arthritis_risk":10,"migraine_risk":7,"frizz_risk":1,"updated_at":"2026-07-08T04:34:08.134323+05:30"},{"city":"Jammu","state":"Jammu and Kashmir","latitude":32.7266,"longitude":74.857,"temp":25.1,"humidity":89,"rain":0.0,"pressure":964.9,"uv_index":8.45,"wind_gusts":33.8,"aqi":120,"pm10":40.2,"pm2_5":39.0,"no2":40.1,"co":599.0,"o3":10.0,"so2":3.2,"mosquito_risk":7,"arthritis_risk":5,"migraine_risk":7,"frizz_risk":1,"updated_at":"2026-07-08T04:34:08.134329+05:30"},{"city":"Amritsar","state":"Punjab","latitude":31.634,"longitude":74.8723,"temp":28.2,"humidity":90,"rain":0.1,"pressure":971.5,"uv_index":7.5,"wind_gusts":31.7,"aqi":164,"pm10":150.4,"pm2_5":91.7,"no2":22.8,"co":792.0,"o3":51.0,"so2":9.3,"mosquito_risk":10,"arthritis_risk":5,"migraine_risk":7,"frizz_risk":1,"updated_at":"2026-07-08T04:34:08.134337+05:30"},{"city":"Ludhiana","state":"Punjab","latitude":30.901,"longitude":75.8573,"temp":27.4,"humidity":90,"rain":0.0,"pressure":970.1,"uv_index":7.2,"wind_gusts":31.0,"aqi":159,"pm10":205.8,"pm2_5":91.5,"no2":24.4,"co":806.0,"o3":42.0,"so2":15.2,"mosquito_risk":7,"arthritis_risk":5,"migraine_risk":7,"frizz_risk":1,"updated_at":"2026-07-08T04:34:08.134344+05:30"},{"city":"Jalandhar","state":"Punjab","latitude":31.326,"longitude":75.5762,"temp":27.5,"humidity":92,"rain":0.0,"pressure":971.0,"uv_index":7.4,"wind_gusts":29.2,"aqi":161,"pm10":231.0,"pm2_5":105.0,"no2":25.9,"co":909.0,"o3":42.0,"so2":15.8,"mosquito_risk":7,"arthritis_risk":5,"migraine_risk":7,"frizz_risk":1,"updated_at":"2026-07-08T04:34:08.134350+05:30"},{"city":"Dehradun","state":"Uttarakhand","latitude":30.6284,"longitude":78.0322,"temp":19.2,"humidity":99,"rain":0.0,"pressure":825.2,"uv_index":3.45,"wind_gusts":16.9,"aqi":65,"pm10":23.4,"pm2_5":23.2,"no2":15.1,"co":247.0,"o3":69.0,"so2":2.4,"mosquito_risk":3,"arthritis_risk":10,"migraine_risk":3,"frizz_risk":1,"updated_at":"2026-07-08T04:34:08.134356+05:30"},{"city":"Shimla","state":"Himachal Pradesh","latitude":31.1048,"longitude":77.1734,"temp":15.5,"humidity":96,"rain":0.0,"pressure":779.1,"uv_index":8.15,"wind_gusts":17.3,"aqi":68,"pm10":19.9,"pm2_5":17.6,"no2":15.7,"co":291.0,"o3":72.0,"so2":3.7,"mosquito_risk":3,"arthritis_risk":10,"migraine_risk":7,"frizz_risk":0,"updated_at":"2026-07-08T04:34:08.134362+05:30"},{"city":"Manali","state":"Himachal Pradesh","latitude":32.2396,"longitude":77.1887,"temp":19.9,"humidity":76,"rain":0.0,"pressure":814.5,"uv_index":8.4,"wind_gusts":36.4,"aqi":40,"pm10":3.5,"pm2_5":3.5,"no2":19.9,"co":199.0,"o3":83.0,"so2":0.1,"mosquito_risk":3,"arthritis_risk":5,"migraine_risk":7,"frizz_risk":0,"updated_at":"2026-07-08T04:34:08.134372+05:30"},{"city":"Gurgaon","state":"Haryana","latitude":28.4595,"longitude":77.0266,"temp":26.1,"humidity":95,"rain":0.1,"pressure":972.5,"uv_index":5.95,"wind_gusts":24.8,"aqi":125,"pm10":35.7,"pm2_5":32.1,"no2":25.2,"co":328.0,"o3":65.0,"so2":18.6,"mosquito_risk":10,"arthritis_risk":5,"migraine_risk":3,"frizz_risk":1,"updated_at":"2026-07-08T04:34:08.134378+05:30"},{"city":"Noida","state":"Uttar Pradesh","latitude":28.5355,"longitude":77.391,"temp":25.9,"humidity":97,"rain":0.1,"pressure":975.6,"uv_index":5.9,"wind_gusts":26.3,"aqi":125,"pm10":35.7,"pm2_5":32.1,"no2":25.2,"co":297.0,"o3":65.0,"so2":18.6,"mosquito_risk":10,"arthritis_risk":5,"migraine_risk":3,"frizz_risk":1,"updated_at":"2026-07-08T04:34:08.134384+05:30"},{"city":"Ghaziabad","state":"Uttar Pradesh","latitude":28.6692,"longitude":77.4538,"temp":25.8,"humidity":97,"rain":0.2,"pressure":973.9,"uv_index":6.75,"wind_gusts":29.2,"aqi":124,"pm10":37.3,"pm2_5":36.6,"no2":18.7,"co":344.0,"o3":61.0,"so2":3.9,"mosquito_risk":10,"arthritis_risk":5,"migraine_risk":7,"frizz_risk":1,"updated_at":"2026-07-08T04:34:08.134390+05:30"},{"city":"Faridabad","state":"Haryana","latitude":28.4089,"longitude":77.3178,"temp":25.8,"humidity":97,"rain":0.1,"pressure":974.9,"uv_index":6.0,"wind_gusts":29.9,"aqi":125,"pm10":35.7,"pm2_5":32.1,"no2":25.2,"co":305.0,"o3":65.0,"so2":18.6,"mosquito_risk":10,"arthritis_risk":5,"migraine_risk":3,"frizz_risk":1,"updated_at":"2026-07-08T04:34:08.134396+05:30"},{"city":"Meerut","state":"Uttar Pradesh","latitude":28.9845,"longitude":77.7064,"temp":25.8,"humidity":97,"rain":0.2,"pressure":972.9,"uv_index":6.45,"wind_gusts":32.8,"aqi":124,"pm10":37.3,"pm2_5":36.6,"no2":18.7,"co":401.0,"o3":61.0,"so2":3.9,"mosquito_risk":10,"arthritis_risk":5,"migraine_risk":7,"frizz_risk":1,"updated_at":"2026-07-08T04:34:08.134402+05:30"},{"city":"Agra","state":"Uttar Pradesh","latitude":27.1767,"longitude":78.0081,"temp":25.8,"humidity":96,"rain":0.2,"pressure":977.6,"uv_index":6.25,"wind_gusts":32.8,"aqi":101,"pm10":19.8,"pm2_5":19.4,"no2":9.2,"co":260.0,"o3":86.0,"so2":5.1,"mosquito_risk":10,"arthritis_risk":5,"migraine_risk":7,"frizz_risk":1,"updated_at":"2026-07-08T04:34:08.134408+05:30"},{"city":"Varanasi","state":"Uttar Pradesh","latitude":25.3176,"longitude":82.9739,"temp":27.7,"humidity":83,"rain":0.0,"pressure":989.2,"uv_index":6.9,"wind_gusts":32.4,"aqi":65,"pm10":20.6,"pm2_5":19.4,"no2":23.5,"co":502.0,"o3":39.0,"so2":26.8,"mosquito_risk":7,"arthritis_risk":5,"migraine_risk":7,"frizz_risk":1,"updated_at":"2026-07-08T04:34:08.134414+05:30"},{"city":"Prayagraj","state":"Uttar Pradesh","latitude":25.4358,"longitude":81.8463,"temp":27.7,"humidity":82,"rain":0.0,"pressure":986.6,"uv_index":7.45,"wind_gusts":33.8,"aqi":59,"pm10":18.5,"pm2_5":17.6,"no2":19.0,"co":273.0,"o3":46.0,"so2":20.2,"mosquito_risk":7,"arthritis_risk":5,"migraine_risk":7,"frizz_risk":1,"updated_at":"2026-07-08T04:34:08.134421+05:30"},{"city":"Gorakhpur","state":"Uttar Pradesh","latitude":26.7606,"longitude":83.3732,"temp":26.1,"humidity":96,"rain":0.0,"pressure":989.9,"uv_index":6.25,"wind_gusts":37.8,"aqi":73,"pm10":29.1,"pm2_5":28.5,"no2":12.3,"co":247.0,"o3":76.0,"so2":10.7,"mosquito_risk":7,"arthritis_risk":5,"migraine_risk":7,"frizz_risk":1,"updated_at":"2026-07-08T04:34:08.134427+05:30"},{"city":"Bareilly","state":"Uttar Pradesh","latitude":28.367,"longitude":79.4304,"temp":26.0,"humidity":95,"rain":0.0,"pressure":978.0,"uv_index":5.45,"wind_gusts":43.2,"aqi":82,"pm10":21.7,"pm2_5":21.5,"no2":7.5,"co":277.0,"o3":92.0,"so2":6.0,"mosquito_risk":7,"arthritis_risk":5,"migraine_risk":3,"frizz_risk":1,"updated_at":"2026-07-08T04:34:08.134435+05:30"},{"city":"Aligarh","state":"Uttar Pradesh","latitude":27.8974,"longitude":78.088,"temp":25.7,"humidity":97,"rain":0.1,"pressure":976.2,"uv_index":4.7,"wind_gusts":33.5,"aqi":106,"pm10":22.2,"pm2_5":21.9,"no2":10.4,"co":281.0,"o3":82.0,"so2":3.7,"mosquito_risk":10,"arthritis_risk":5,"migraine_risk":3,"frizz_risk":1,"updated_at":"2026-07-08T04:34:08.134459+05:30"},{"city":"Moradabad","state":"Uttar Pradesh","latitude":28.8386,"longitude":78.7733,"temp":25.9,"humidity":96,"rain":0.2,"pressure":975.2,"uv_index":7.65,"wind_gusts":33.1,"aqi":133,"pm10":19.7,"pm2_5":19.7,"no2":7.9,"co":287.0,"o3":89.0,"so2":5.8,"mosquito_risk":10,"arthritis_risk":5,"migraine_risk":7,"frizz_risk":1,"updated_at":"2026-07-08T04:34:08.134468+05:30"},{"city":"Saharanpur","state":"Uttar Pradesh","latitude":29.9637,"longitude":77.546,"temp":26.3,"humidity":97,"rain":0.0,"pressure":967.7,"uv_index":3.25,"wind_gusts":26.3,"aqi":151,"pm10":60.1,"pm2_5":57.4,"no2":16.0,"co":362.0,"o3":66.0,"so2":6.0,"mosquito_risk":7,"arthritis_risk":5,"migraine_risk":3,"frizz_risk":1,"updated_at":"2026-07-08T04:34:08.134474+05:30"},{"city":"Jhansi","state":"Uttar Pradesh","latitude":25.4484,"longitude":78.5685,"temp":25.7,"humidity":97,"rain":0.1,"pressure":966.4,"uv_index":5.4,"wind_gusts":27.0,"aqi":62,"pm10":11.8,"pm2_5":11.7,"no2":7.3,"co":245.0,"o3":79.0,"so2":3.3,"mosquito_risk":10,"arthritis_risk":5,"migraine_risk":3,"frizz_risk":1,"updated_at":"2026-07-08T04:34:11.389619+05:30"},{"city":"Surat","state":"Gujarat","latitude":21.1702,"longitude":72.8311,"temp":26.8,"humidity":93,"rain":0.8,"pressure":997.1,"uv_index":1.35,"wind_gusts":40.3,"aqi":93,"pm10":31.5,"pm2_5":20.8,"no2":22.2,"co":367.0,"o3":30.0,"so2":34.3,"mosquito_risk":10,"arthritis_risk":5,"migraine_risk":3,"frizz_risk":1,"updated_at":"2026-07-08T04:34:11.389652+05:30"},{"city":"Vadodara","state":"Gujarat","latitude":22.3072,"longitude":73.1812,"temp":25.8,"humidity":96,"rain":0.3,"pressure":994.8,"uv_index":1.85,"wind_gusts":37.1,"aqi":84,"pm10":31.1,"pm2_5":23.4,"no2":18.0,"co":166.0,"o3":29.0,"so2":6.0,"mosquito_risk":10,"arthritis_risk":5,"migraine_risk":3,"frizz_risk":1,"updated_at":"2026-07-08T04:34:11.389662+05:30"},{"city":"Rajkot","state":"Gujarat","latitude":22.3039,"longitude":70.8022,"temp":27.3,"humidity":90,"rain":0.0,"pressure":985.4,"uv_index":6.95,"wind_gusts":44.6,"aqi":75,"pm10":30.2,"pm2_5":15.3,"no2":5.0,"co":99.0,"o3":44.0,"so2":4.9,"mosquito_risk":7,"arthritis_risk":5,"migraine_risk":7,"frizz_risk":1,"updated_at":"2026-07-08T04:34:11.389672+05:30"},{"city":"Thane","state":"Maharashtra","latitude":19.2183,"longitude":72.9781,"temp":25.3,"humidity":97,"rain":0.3,"pressure":1000.4,"uv_index":1.05,"wind_gusts":37.8,"aqi":54,"pm10":33.6,"pm2_5":16.8,"no2":2.4,"co":124.0,"o3":52.0,"so2":2.5,"mosquito_risk":10,"arthritis_risk":5,"migraine_risk":0,"frizz_risk":1,"updated_at":"2026-07-08T04:34:11.389680+05:30"},{"city":"Nagpur","state":"Maharashtra","latitude":21.1458,"longitude":79.0882,"temp":26.1,"humidity":83,"rain":0.0,"pressure":964.4,"uv_index":6.25,"wind_gusts":46.8,"aqi":47,"pm10":9.9,"pm2_5":7.1,"no2":9.2,"co":179.0,"o3":41.0,"so2":8.4,"mosquito_risk":7,"arthritis_risk":5,"migraine_risk":7,"frizz_risk":1,"updated_at":"2026-07-08T04:34:11.389688+05:30"},{"city":"Nashik","state":"Maharashtra","latitude":19.9975,"longitude":73.7898,"temp":22.9,"humidity":97,"rain":0.0,"pressure":937.1,"uv_index":3.4,"wind_gusts":51.8,"aqi":25,"pm10":2.8,"pm2_5":1.9,"no2":3.6,"co":117.0,"o3":52.0,"so2":0.8,"mosquito_risk":3,"arthritis_risk":5,"migraine_risk":3,"frizz_risk":1,"updated_at":"2026-07-08T04:34:11.389695+05:30"},{"city":"Aurangabad","state":"Maharashtra","latitude":19.8762,"longitude":75.3433,"temp":22.9,"humidity":98,"rain":0.0,"pressure":935.5,"uv_index":6.15,"wind_gusts":55.4,"aqi":20,"pm10":4.1,"pm2_5":4.0,"no2":8.2,"co":151.0,"o3":52.0,"so2":5.9,"mosquito_risk":3,"arthritis_risk":5,"migraine_risk":7,"frizz_risk":1,"updated_at":"2026-07-08T04:34:11.389702+05:30"},{"city":"Solapur","state":"Maharashtra","latitude":17.6599,"longitude":75.9064,"temp":25.1,"humidity":81,"rain":0.0,"pressure":951.0,"uv_index":7.05,"wind_gusts":58.7,"aqi":20,"pm10":1.9,"pm2_5":1.6,"no2":3.4,"co":107.0,"o3":38.0,"so2":1.9,"mosquito_risk":7,"arthritis_risk":5,"migraine_risk":7,"frizz_risk":1,"updated_at":"2026-07-08T04:34:11.389710+05:30"},{"city":"Kolhapur","state":"Maharashtra","latitude":16.705,"longitude":74.2433,"temp":22.3,"humidity":95,"rain":0.1,"pressure":942.1,"uv_index":7.8,"wind_gusts":69.8,"aqi":19,"pm10":3.1,"pm2_5":2.1,"no2":2.0,"co":97.0,"o3":40.0,"so2":1.2,"mosquito_risk":6,"arthritis_risk":5,"migraine_risk":7,"frizz_risk":1,"updated_at":"2026-07-08T04:34:11.389717+05:30"},{"city":"Goa","state":"Goa","latitude":15.2993,"longitude":74.124,"temp":23.6,"humidity":98,"rain":0.0,"pressure":995.1,"uv_index":8.5,"wind_gusts":50.0,"aqi":56,"pm10":21.5,"pm2_5":11.8,"no2":1.2,"co":163.0,"o3":42.0,"so2":0.5,"mosquito_risk":3,"arthritis_risk":5,"migraine_risk":7,"frizz_risk":1,"updated_at":"2026-07-08T04:34:11.389724+05:30"},{"city":"Jodhpur","state":"Rajasthan","latitude":26.2389,"longitude":73.0243,"temp":27.9,"humidity":91,"rain":0.0,"pressure":973.2,"uv_index":8.15,"wind_gusts":33.8,"aqi":91,"pm10":253.3,"pm2_5":72.6,"no2":5.3,"co":154.0,"o3":52.0,"so2":3.5,"mosquito_risk":7,"arthritis_risk":5,"migraine_risk":7,"frizz_risk":1,"updated_at":"2026-07-08T04:34:11.389731+05:30"},{"city":"Udaipur","state":"Rajasthan","latitude":24.5854,"longitude":73.7125,"temp":25.3,"humidity":91,"rain":0.0,"pressure":937.3,"uv_index":7.0,"wind_gusts":36.4,"aqi":56,"pm10":39.8,"pm2_5":24.2,"no2":8.6,"co":156.0,"o3":47.0,"so2":3.9,"mosquito_risk":7,"arthritis_risk":5,"migraine_risk":7,"frizz_risk":1,"updated_at":"2026-07-08T04:34:11.389737+05:30"},{"city":"Kota","state":"Rajasthan","latitude":25.2138,"longitude":75.8648,"temp":25.4,"humidity":96,"rain":0.1,"pressure":969.4,"uv_index":7.1,"wind_gusts":40.3,"aqi":58,"pm10":14.3,"pm2_5":13.5,"no2":15.9,"co":260.0,"o3":47.0,"so2":7.0,"mosquito_risk":10,"arthritis_risk":5,"migraine_risk":7,"frizz_risk":1,"updated_at":"2026-07-08T04:34:11.389744+05:30"},{"city":"Bikaner","state":"Rajasthan","latitude":28.0229,"longitude":73.3119,"temp":29.5,"humidity":75,"rain":0.0,"pressure":972.0,"uv_index":8.45,"wind_gusts":69.8,"aqi":95,"pm10":236.1,"pm2_5":74.3,"no2":3.2,"co":147.0,"o3":58.0,"so2":4.1,"mosquito_risk":7,"arthritis_risk":5,"migraine_risk":7,"frizz_risk":1,"updated_at":"2026-07-08T04:34:11.389751+05:30"},{"city":"Ajmer","state":"Rajasthan","latitude":26.4499,"longitude":74.6399,"temp":26.0,"humidity":90,"rain":0.0,"pressure":945.4,"uv_index":8.1,"wind_gusts":39.6,"aqi":59,"pm10":18.7,"pm2_5":15.3,"no2":15.3,"co":196.0,"o3":46.0,"so2":3.8,"mosquito_risk":7,"arthritis_risk":5,"migraine_risk":7,"frizz_risk":1,"updated_at":"2026-07-08T04:34:11.389758+05:30"},{"city":"Gwalior","state":"Madhya Pradesh","latitude":26.2183,"longitude":78.1828,"temp":25.4,"humidity":98,"rain":0.2,"pressure":972.0,"uv_index":6.65,"wind_gusts":27.7,"aqi":72,"pm10":18.0,"pm2_5":17.7,"no2":9.1,"co":252.0,"o3":78.0,"so2":4.1,"mosquito_risk":10,"arthritis_risk":5,"migraine_risk":7,"frizz_risk":1,"updated_at":"2026-07-08T04:34:11.389765+05:30"},{"city":"Indore","state":"Madhya Pradesh","latitude":22.7196,"longitude":75.8577,"temp":24.4,"humidity":96,"rain":0.1,"pressure":938.4,"uv_index":7.7,"wind_gusts":46.4,"aqi":78,"pm10":14.8,"pm2_5":14.8,"no2":12.5,"co":289.0,"o3":53.0,"so2":3.7,"mosquito_risk":6,"arthritis_risk":5,"migraine_risk":7,"frizz_risk":1,"updated_at":"2026-07-08T04:34:11.389772+05:30"},{"city":"Bhopal","state":"Madhya Pradesh","latitude":23.2599,"longitude":77.4126,"temp":24.4,"humidity":96,"rain":0.1,"pressure":943.1,"uv_index":2.55,"wind_gusts":41.4,"aqi":68,"pm10":18.6,"pm2_5":18.3,"no2":9.2,"co":282.0,"o3":62.0,"so2":2.6,"mosquito_risk":6,"arthritis_risk":5,"migraine_risk":3,"frizz_risk":1,"updated_at":"2026-07-08T04:34:11.389778+05:30"},{"city":"Jabalpur","state":"Madhya Pradesh","latitude":23.1815,"longitude":79.9864,"temp":25.0,"humidity":93,"rain":0.0,"pressure":951.6,"uv_index":2.95,"wind_gusts":45.0,"aqi":52,"pm10":11.9,"pm2_5":11.8,"no2":7.5,"co":232.0,"o3":61.0,"so2":7.4,"mosquito_risk":7,"arthritis_risk":5,"migraine_risk":3,"frizz_risk":1,"updated_at":"2026-07-08T04:34:11.389785+05:30"},{"city":"Ujjain","state":"Madhya Pradesh","latitude":23.1765,"longitude":75.7885,"temp":24.9,"humidity":96,"rain":0.2,"pressure":944.1,"uv_index":2.85,"wind_gusts":43.9,"aqi":71,"pm10":14.6,"pm2_5":14.6,"no2":11.7,"co":333.0,"o3":51.0,"so2":3.5,"mosquito_risk":6,"arthritis_risk":5,"migraine_risk":3,"frizz_risk":1,"updated_at":"2026-07-08T04:34:11.389792+05:30"},{"city":"Visakhapatnam","state":"Andhra Pradesh","latitude":17.6868,"longitude":83.2185,"temp":27.7,"humidity":87,"rain":0.0,"pressure":998.9,"uv_index":9.0,"wind_gusts":54.0,"aqi":74,"pm10":34.5,"pm2_5":25.3,"no2":17.5,"co":338.0,"o3":76.0,"so2":31.5,"mosquito_risk":7,"arthritis_risk":5,"migraine_risk":7,"frizz_risk":1,"updated_at":"2026-07-08T04:34:11.389799+05:30"},{"city":"Vijayawada","state":"Andhra Pradesh","latitude":16.5062,"longitude":80.648,"temp":29.7,"humidity":59,"rain":0.0,"pressure":998.2,"uv_index":8.95,"wind_gusts":52.6,"aqi":60,"pm10":18.6,"pm2_5":12.3,"no2":9.1,"co":127.0,"o3":36.0,"so2":5.1,"mosquito_risk":4,"arthritis_risk":5,"migraine_risk":7,"frizz_risk":1,"updated_at":"2026-07-08T04:34:11.389805+05:30"},{"city":"Guntur","state":"Andhra Pradesh","latitude":16.3067,"longitude":80.4365,"temp":29.9,"humidity":57,"rain":0.0,"pressure":999.5,"uv_index":8.45,"wind_gusts":52.9,"aqi":58,"pm10":16.8,"pm2_5":10.7,"no2":8.8,"co":122.0,"o3":32.0,"so2":5.1,"mosquito_risk":4,"arthritis_risk":5,"migraine_risk":7,"frizz_risk":1,"updated_at":"2026-07-08T04:34:11.389813+05:30"},{"city":"Nellore","state":"Andhra Pradesh","latitude":14.4426,"longitude":79.9865,"temp":30.1,"humidity":56,"rain":0.0,"pressure":1002.7,"uv_index":8.5,"wind_gusts":55.4,"aqi":46,"pm10":18.3,"pm2_5":9.7,"no2":4.4,"co":132.0,"o3":42.0,"so2":2.6,"mosquito_risk":0,"arthritis_risk":5,"migraine_risk":4,"frizz_risk":1,"updated_at":"2026-07-08T04:34:11.389820+05:30"},{"city":"Kurnool","state":"Andhra Pradesh","latitude":15.8281,"longitude":78.0373,"temp":26.2,"humidity":74,"rain":0.0,"pressure":973.2,"uv_index":5.85,"wind_gusts":61.9,"aqi":24,"pm10":2.8,"pm2_5":2.1,"no2":4.8,"co":100.0,"o3":37.0,"so2":4.1,"mosquito_risk":7,"arthritis_risk":5,"migraine_risk":3,"frizz_risk":1,"updated_at":"2026-07-08T04:34:11.389827+05:30"},{"city":"Kakinada","state":"Andhra Pradesh","latitude":16.9891,"longitude":82.2475,"temp":29.5,"humidity":63,"rain":0.0,"pressure":1002.6,"uv_index":8.65,"wind_gusts":53.3,"aqi":66,"pm10":32.0,"pm2_5":20.6,"no2":4.6,"co":161.0,"o3":78.0,"so2":3.1,"mosquito_risk":7,"arthritis_risk":5,"migraine_risk":4,"frizz_risk":1,"updated_at":"2026-07-08T04:34:11.389834+05:30"},{"city":"Tirupati","state":"Andhra Pradesh","latitude":13.6288,"longitude":79.4192,"temp":28.4,"humidity":58,"rain":0.0,"pressure":989.0,"uv_index":8.65,"wind_gusts":54.0,"aqi":40,"pm10":14.1,"pm2_5":8.4,"no2":5.8,"co":109.0,"o3":37.0,"so2":2.1,"mosquito_risk":4,"arthritis_risk":5,"migraine_risk":7,"frizz_risk":1,"updated_at":"2026-07-08T04:34:11.389841+05:30"},{"city":"Warangal","state":"Telangana","latitude":17.9689,"longitude":79.5941,"temp":26.9,"humidity":71,"rain":0.0,"pressure":972.9,"uv_index":6.95,"wind_gusts":51.1,"aqi":38,"pm10":8.1,"pm2_5":5.7,"no2":7.7,"co":141.0,"o3":36.0,"so2":4.1,"mosquito_risk":7,"arthritis_risk":5,"migraine_risk":7,"frizz_risk":1,"updated_at":"2026-07-08T04:34:11.389847+05:30"},{"city":"Nizamabad","state":"Telangana","latitude":18.6725,"longitude":78.0941,"temp":26.2,"humidity":74,"rain":0.0,"pressure":957.5,"uv_index":7.7,"wind_gusts":50.8,"aqi":22,"pm10":3.5,"pm2_5":2.9,"no2":4.7,"co":120.0,"o3":40.0,"so2":2.0,"mosquito_risk":7,"arthritis_risk":5,"migraine_risk":7,"frizz_risk":1,"updated_at":"2026-07-08T04:34:11.389854+05:30"},{"city":"Mysore","state":"Karnataka","latitude":12.2958,"longitude":76.6396,"temp":21.6,"humidity":89,"rain":0.0,"pressure":927.6,"uv_index":7.4,"wind_gusts":64.1,"aqi":26,"pm10":4.3,"pm2_5":2.6,"no2":2.3,"co":93.0,"o3":41.0,"so2":1.3,"mosquito_risk":3,"arthritis_risk":5,"migraine_risk":7,"frizz_risk":1,"updated_at":"2026-07-08T04:34:11.389861+05:30"},{"city":"Mangalore","state":"Karnataka","latitude":12.9141,"longitude":74.856,"temp":24.1,"humidity":94,"rain":0.3,"pressure":1007.0,"uv_index":8.7,"wind_gusts":60.8,"aqi":64,"pm10":22.5,"pm2_5":11.8,"no2":5.0,"co":138.0,"o3":28.0,"so2":1.4,"mosquito_risk":6,"arthritis_risk":5,"migraine_risk":4,"frizz_risk":1,"updated_at":"2026-07-08T04:34:11.389868+05:30"},{"city":"Hubli-Dharwad","state":"Karnataka","latitude":15.3647,"longitude":75.124,"temp":22.0,"humidity":96,"rain":0.0,"pressure":937.1,"uv_index":7.55,"wind_gusts":66.6,"aqi":19,"pm10":1.0,"pm2_5":0.7,"no2":1.4,"co":87.0,"o3":41.0,"so2":0.7,"mosquito_risk":3,"arthritis_risk":5,"migraine_risk":7,"frizz_risk":1,"updated_at":"2026-07-08T04:34:11.389875+05:30"},{"city":"Belgaum","state":"Karnataka","latitude":15.8497,"longitude":74.4977,"temp":21.7,"humidity":97,"rain":0.1,"pressure":921.2,"uv_index":2.85,"wind_gusts":70.9,"aqi":20,"pm10":3.7,"pm2_5":2.2,"no2":1.5,"co":91.0,"o3":40.0,"so2":0.9,"mosquito_risk":6,"arthritis_risk":5,"migraine_risk":3,"frizz_risk":1,"updated_at":"2026-07-08T04:34:14.639893+05:30"},{"city":"Coimbatore","state":"Tamil Nadu","latitude":11.0168,"longitude":76.9558,"temp":22.0,"humidity":97,"rain":0.0,"pressure":961.0,"uv_index":8.7,"wind_gusts":59.8,"aqi":38,"pm10":11.4,"pm2_5":7.2,"no2":4.3,"co":166.0,"o3":33.0,"so2":2.1,"mosquito_risk":3,"arthritis_risk":5,"migraine_risk":7,"frizz_risk":1,"updated_at":"2026-07-08T04:34:14.639923+05:30"},{"city":"Madurai","state":"Tamil Nadu","latitude":9.9252,"longitude":78.1198,"temp":27.1,"humidity":62,"rain":0.0,"pressure":992.7,"uv_index":8.7,"wind_gusts":44.3,"aqi":66,"pm10":44.8,"pm2_5":30.3,"no2":29.2,"co":168.0,"o3":0.0,"so2":4.7,"mosquito_risk":7,"arthritis_risk":5,"migraine_risk":7,"frizz_risk":1,"updated_at":"2026-07-08T04:34:14.639933+05:30"},{"city":"Trichy","state":"Tamil Nadu","latitude":10.7905,"longitude":78.7047,"temp":28.4,"humidity":64,"rain":0.0,"pressure":999.0,"uv_index":8.75,"wind_gusts":63.4,"aqi":55,"pm10":21.5,"pm2_5":13.6,"no2":4.4,"co":99.0,"o3":40.0,"so2":2.5,"mosquito_risk":7,"arthritis_risk":5,"migraine_risk":7,"frizz_risk":1,"updated_at":"2026-07-08T04:34:14.639941+05:30"},{"city":"Salem","state":"Tamil Nadu","latitude":11.6643,"longitude":78.146,"temp":24.2,"humidity":85,"rain":0.0,"pressure":976.7,"uv_index":8.8,"wind_gusts":46.1,"aqi":55,"pm10":35.5,"pm2_5":23.2,"no2":17.1,"co":291.0,"o3":22.0,"so2":6.2,"mosquito_risk":3,"arthritis_risk":5,"migraine_risk":7,"frizz_risk":1,"updated_at":"2026-07-08T04:34:14.639948+05:30"},{"city":"Tirunelveli","state":"Tamil Nadu","latitude":8.7139,"longitude":77.7567,"temp":27.4,"humidity":70,"rain":0.0,"pressure":1003.4,"uv_index":8.6,"wind_gusts":56.5,"aqi":57,"pm10":21.0,"pm2_5":13.9,"no2":5.8,"co":121.0,"o3":33.0,"so2":2.3,"mosquito_risk":7,"arthritis_risk":5,"migraine_risk":4,"frizz_risk":1,"updated_at":"2026-07-08T04:34:14.639955+05:30"},{"city":"Vellore","state":"Tamil Nadu","latitude":12.9165,"longitude":79.1325,"temp":28.1,"humidity":59,"rain":0.0,"pressure":982.8,"uv_index":8.7,"wind_gusts":55.1,"aqi":42,"pm10":14.8,"pm2_5":9.4,"no2":5.4,"co":113.0,"o3":40.0,"so2":2.6,"mosquito_risk":4,"arthritis_risk":5,"migraine_risk":7,"frizz_risk":1,"updated_at":"2026-07-08T04:34:14.639961+05:30"},{"city":"Erode","state":"Tamil Nadu","latitude":11.341,"longitude":77.7172,"temp":25.2,"humidity":79,"rain":0.0,"pressure":988.6,"uv_index":8.7,"wind_gusts":42.5,"aqi":55,"pm10":23.4,"pm2_5":16.9,"no2":13.5,"co":137.0,"o3":27.0,"so2":3.4,"mosquito_risk":7,"arthritis_risk":5,"migraine_risk":7,"frizz_risk":1,"updated_at":"2026-07-08T04:34:14.639968+05:30"},{"city":"Kochi","state":"Kerala","latitude":9.9312,"longitude":76.2673,"temp":24.9,"humidity":98,"rain":0.1,"pressure":1009.9,"uv_index":8.35,"wind_gusts":43.2,"aqi":69,"pm10":25.5,"pm2_5":19.1,"no2":13.1,"co":108.0,"o3":17.0,"so2":3.3,"mosquito_risk":6,"arthritis_risk":0,"migraine_risk":4,"frizz_risk":1,"updated_at":"2026-07-08T04:34:14.639975+05:30"},{"city":"Thiruvananthapuram","state":"Kerala","latitude":8.5241,"longitude":76.9366,"temp":24.0,"humidity":96,"rain":0.1,"pressure":1009.7,"uv_index":8.4,"wind_gusts":56.5,"aqi":55,"pm10":21.1,"pm2_5":13.0,"no2":4.2,"co":86.0,"o3":39.0,"so2":1.8,"mosquito_risk":6,"arthritis_risk":0,"migraine_risk":4,"frizz_risk":1,"updated_at":"2026-07-08T04:34:14.639981+05:30"},{"city":"Kozhikode","state":"Kerala","latitude":11.2588,"longitude":75.7804,"temp":23.4,"humidity":99,"rain":0.1,"pressure":1009.0,"uv_index":8.5,"wind_gusts":35.6,"aqi":64,"pm10":26.0,"pm2_5":12.3,"no2":1.9,"co":180.0,"o3":43.0,"so2":1.1,"mosquito_risk":6,"arthritis_risk":0,"migraine_risk":4,"frizz_risk":1,"updated_at":"2026-07-08T04:34:14.639988+05:30"},{"city":"Thrissur","state":"Kerala","latitude":10.5276,"longitude":76.2144,"temp":23.6,"humidity":100,"rain":0.0,"pressure":1008.3,"uv_index":8.55,"wind_gusts":44.6,"aqi":66,"pm10":25.8,"pm2_5":19.5,"no2":10.4,"co":175.0,"o3":19.0,"so2":2.8,"mosquito_risk":3,"arthritis_risk":0,"migraine_risk":4,"frizz_risk":1,"updated_at":"2026-07-08T04:34:14.639995+05:30"},{"city":"Kannur","state":"Kerala","latitude":11.8745,"longitude":75.3704,"temp":23.6,"humidity":98,"rain":0.3,"pressure":1008.3,"uv_index":8.3,"wind_gusts":39.6,"aqi":61,"pm10":15.8,"pm2_5":7.6,"no2":6.1,"co":144.0,"o3":25.0,"so2":1.3,"mosquito_risk":6,"arthritis_risk":0,"migraine_risk":4,"frizz_risk":1,"updated_at":"2026-07-08T04:34:14.640001+05:30"},{"city":"Patna","state":"Bihar","latitude":25.5941,"longitude":85.1376,"temp":26.7,"humidity":97,"rain":0.2,"pressure":993.8,"uv_index":8.15,"wind_gusts":25.2,"aqi":79,"pm10":43.1,"pm2_5":41.6,"no2":24.2,"co":305.0,"o3":34.0,"so2":12.9,"mosquito_risk":10,"arthritis_risk":5,"migraine_risk":7,"frizz_risk":1,"updated_at":"2026-07-08T04:34:14.640008+05:30"},{"city":"Gaya","state":"Bihar","latitude":24.7914,"longitude":85.0002,"temp":26.9,"humidity":90,"rain":0.0,"pressure":987.0,"uv_index":7.45,"wind_gusts":26.3,"aqi":64,"pm10":19.0,"pm2_5":16.8,"no2":10.2,"co":244.0,"o3":55.0,"so2":8.3,"mosquito_risk":7,"arthritis_risk":5,"migraine_risk":7,"frizz_risk":1,"updated_at":"2026-07-08T04:34:14.640014+05:30"},{"city":"Muzaffarpur","state":"Bihar","latitude":26.1209,"longitude":85.3647,"temp":27.0,"humidity":95,"rain":0.0,"pressure":994.0,"uv_index":6.95,"wind_gusts":29.5,"aqi":73,"pm10":27.1,"pm2_5":27.0,"no2":16.8,"co":302.0,"o3":56.0,"so2":9.5,"mosquito_risk":7,"arthritis_risk":5,"migraine_risk":7,"frizz_risk":1,"updated_at":"2026-07-08T04:34:14.640020+05:30"},{"city":"Bhagalpur","state":"Bihar","latitude":25.2425,"longitude":87.0117,"temp":27.1,"humidity":95,"rain":0.0,"pressure":995.2,"uv_index":7.75,"wind_gusts":22.0,"aqi":77,"pm10":48.1,"pm2_5":46.2,"no2":25.3,"co":342.0,"o3":30.0,"so2":29.0,"mosquito_risk":7,"arthritis_risk":5,"migraine_risk":7,"frizz_risk":1,"updated_at":"2026-07-08T04:34:14.640026+05:30"},{"city":"Ranchi","state":"Jharkhand","latitude":23.3441,"longitude":85.3096,"temp":23.2,"humidity":97,"rain":0.0,"pressure":931.8,"uv_index":8.5,"wind_gusts":50.0,"aqi":59,"pm10":20.4,"pm2_5":17.9,"no2":12.7,"co":197.0,"o3":56.0,"so2":17.0,"mosquito_risk":3,"arthritis_risk":5,"migraine_risk":7,"frizz_risk":1,"updated_at":"2026-07-08T04:34:14.640032+05:30"},{"city":"Jamshedpur","state":"Jharkhand","latitude":22.8046,"longitude":86.2029,"temp":25.6,"humidity":97,"rain":0.1,"pressure":985.1,"uv_index":8.35,"wind_gusts":33.5,"aqi":66,"pm10":25.5,"pm2_5":21.6,"no2":18.7,"co":488.0,"o3":46.0,"so2":15.5,"mosquito_risk":10,"arthritis_risk":5,"migraine_risk":7,"frizz_risk":1,"updated_at":"2026-07-08T04:34:14.640038+05:30"},{"city":"Dhanbad","state":"Jharkhand","latitude":23.7957,"longitude":86.4304,"temp":25.4,"humidity":97,"rain":0.1,"pressure":974.3,"uv_index":6.85,"wind_gusts":32.8,"aqi":94,"pm10":43.8,"pm2_5":40.9,"no2":45.7,"co":1535.0,"o3":25.0,"so2":98.1,"mosquito_risk":10,"arthritis_risk":5,"migraine_risk":7,"frizz_risk":1,"updated_at":"2026-07-08T04:34:14.640044+05:30"},{"city":"Bokaro","state":"Jharkhand","latitude":23.6693,"longitude":86.1511,"temp":25.0,"humidity":96,"rain":0.2,"pressure":977.9,"uv_index":8.2,"wind_gusts":37.8,"aqi":78,"pm10":29.7,"pm2_5":27.3,"no2":25.8,"co":716.0,"o3":45.0,"so2":64.1,"mosquito_risk":10,"arthritis_risk":5,"migraine_risk":7,"frizz_risk":1,"updated_at":"2026-07-08T04:34:14.640050+05:30"},{"city":"Bhubaneswar","state":"Odisha","latitude":20.2961,"longitude":85.8245,"temp":28.1,"humidity":76,"rain":0.0,"pressure":997.2,"uv_index":7.95,"wind_gusts":57.2,"aqi":67,"pm10":24.6,"pm2_5":15.6,"no2":5.4,"co":175.0,"o3":72.0,"so2":5.1,"mosquito_risk":7,"arthritis_risk":5,"migraine_risk":7,"frizz_risk":1,"updated_at":"2026-07-08T04:34:14.640056+05:30"},{"city":"Cuttack","state":"Odisha","latitude":20.4625,"longitude":85.8828,"temp":28.0,"humidity":77,"rain":0.0,"pressure":999.0,"uv_index":8.2,"wind_gusts":42.8,"aqi":67,"pm10":24.6,"pm2_5":15.6,"no2":5.4,"co":176.0,"o3":72.0,"so2":5.1,"mosquito_risk":7,"arthritis_risk":5,"migraine_risk":7,"frizz_risk":1,"updated_at":"2026-07-08T04:34:14.640062+05:30"},{"city":"Rourkela","state":"Odisha","latitude":22.2604,"longitude":84.8536,"temp":25.7,"humidity":97,"rain":0.0,"pressure":978.8,"uv_index":4.85,"wind_gusts":41.0,"aqi":62,"pm10":27.5,"pm2_5":22.5,"no2":14.1,"co":264.0,"o3":52.0,"so2":18.2,"mosquito_risk":7,"arthritis_risk":5,"migraine_risk":3,"frizz_risk":1,"updated_at":"2026-07-08T04:34:14.640068+05:30"},{"city":"Raipur","state":"Chhattisgarh","latitude":21.2514,"longitude":81.6296,"temp":26.6,"humidity":78,"rain":0.0,"pressure":967.3,"uv_index":6.3,"wind_gusts":55.4,"aqi":59,"pm10":18.7,"pm2_5":15.5,"no2":17.6,"co":137.0,"o3":45.0,"so2":29.3,"mosquito_risk":7,"arthritis_risk":5,"migraine_risk":7,"frizz_risk":1,"updated_at":"2026-07-08T04:34:14.640074+05:30"},{"city":"Bhilai","state":"Chhattisgarh","latitude":21.1938,"longitude":81.3509,"temp":26.3,"humidity":81,"rain":0.0,"pressure":967.6,"uv_index":6.65,"wind_gusts":60.1,"aqi":59,"pm10":18.1,"pm2_5":15.0,"no2":18.6,"co":239.0,"o3":42.0,"so2":31.5,"mosquito_risk":7,"arthritis_risk":5,"migraine_risk":7,"frizz_risk":1,"updated_at":"2026-07-08T04:34:14.640080+05:30"},{"city":"Guwahati","state":"Assam","latitude":26.1158,"longitude":91.7086,"temp":25.8,"humidity":98,"rain":0.1,"pressure":996.6,"uv_index":8.4,"wind_gusts":22.7,"aqi":40,"pm10":15.6,"pm2_5":15.5,"no2":8.3,"co":189.0,"o3":38.0,"so2":2.6,"mosquito_risk":10,"arthritis_risk":5,"migraine_risk":7,"frizz_risk":1,"updated_at":"2026-07-08T04:34:14.640087+05:30"},{"city":"Agartala","state":"Tripura","latitude":23.8315,"longitude":91.2868,"temp":24.8,"humidity":99,"rain":0.7,"pressure":1002.2,"uv_index":1.0,"wind_gusts":37.4,"aqi":43,"pm10":11.9,"pm2_5":9.3,"no2":9.2,"co":129.0,"o3":51.0,"so2":1.9,"mosquito_risk":6,"arthritis_risk":5,"migraine_risk":0,"frizz_risk":1,"updated_at":"2026-07-08T04:34:14.640093+05:30"},{"city":"Shillong","state":"Meghalaya","latitude":25.5788,"longitude":91.8933,"temp":19.9,"humidity":96,"rain":0.0,"pressure":853.7,"uv_index":4.15,"wind_gusts":25.9,"aqi":26,"pm10":3.7,"pm2_5":3.6,"no2":3.5,"co":184.0,"o3":58.0,"so2":2.7,"mosquito_risk":3,"arthritis_risk":10,"migraine_risk":3,"frizz_risk":1,"updated_at":"2026-07-08T04:34:14.640099+05:30"},{"city":"Imphal","state":"Manipur","latitude":24.817,"longitude":93.9368,"temp":22.8,"humidity":97,"rain":0.1,"pressure":919.3,"uv_index":2.5,"wind_gusts":31.3,"aqi":22,"pm10":2.5,"pm2_5":2.5,"no2":4.5,"co":206.0,"o3":42.0,"so2":0.7,"mosquito_risk":6,"arthritis_risk":5,"migraine_risk":3,"frizz_risk":1,"updated_at":"2026-07-08T04:34:14.640106+05:30"},{"city":"Aizawl","state":"Mizoram","latitude":23.7271,"longitude":92.7176,"temp":19.0,"humidity":99,"rain":0.1,"pressure":889.2,"uv_index":1.2,"wind_gusts":42.5,"aqi":25,"pm10":0.5,"pm2_5":0.5,"no2":1.8,"co":104.0,"o3":56.0,"so2":1.1,"mosquito_risk":6,"arthritis_risk":10,"migraine_risk":3,"frizz_risk":1,"updated_at":"2026-07-08T04:34:14.640113+05:30"},{"city":"Kohima","state":"Nagaland","latitude":25.6701,"longitude":94.1077,"temp":20.3,"humidity":97,"rain":0.0,"pressure":852.0,"uv_index":4.35,"wind_gusts":20.5,"aqi":19,"pm10":1.7,"pm2_5":1.6,"no2":3.5,"co":172.0,"o3":49.0,"so2":0.7,"mosquito_risk":3,"arthritis_risk":5,"migraine_risk":3,"frizz_risk":1,"updated_at":"2026-07-08T04:34:14.640119+05:30"},{"city":"Gangtok","state":"Sikkim","latitude":27.3314,"longitude":88.6138,"temp":18.2,"humidity":99,"rain":0.0,"pressure":833.9,"uv_index":6.3,"wind_gusts":29.2,"aqi":43,"pm10":2.6,"pm2_5":2.6,"no2":3.4,"co":365.0,"o3":93.0,"so2":1.9,"mosquito_risk":3,"arthritis_risk":10,"migraine_risk":7,"frizz_risk":1,"updated_at":"2026-07-08T04:34:14.640126+05:30"},{"city":"Siliguri","state":"West Bengal","latitude":26.7271,"longitude":88.3953,"temp":25.2,"humidity":98,"rain":0.0,"pressure":987.8,"uv_index":6.1,"wind_gusts":27.0,"aqi":54,"pm10":19.7,"pm2_5":19.6,"no2":9.8,"co":358.0,"o3":77.0,"so2":4.0,"mosquito_risk":7,"arthritis_risk":5,"migraine_risk":7,"frizz_risk":1,"updated_at":"2026-07-08T04:34:17.893402+05:30"},{"city":"Durgapur","state":"West Bengal","latitude":23.5204,"longitude":87.3119,"temp":26.3,"humidity":96,"rain":0.1,"pressure":989.2,"uv_index":8.35,"wind_gusts":28.8,"aqi":90,"pm10":43.3,"pm2_5":38.8,"no2":34.1,"co":566.0,"o3":30.0,"so2":51.2,"mosquito_risk":10,"arthritis_risk":5,"migraine_risk":7,"frizz_risk":1,"updated_at":"2026-07-08T04:34:17.893435+05:30"},{"city":"Asansol","state":"West Bengal","latitude":23.6739,"longitude":86.9524,"temp":26.6,"humidity":95,"rain":0.1,"pressure":987.8,"uv_index":7.6,"wind_gusts":36.4,"aqi":80,"pm10":39.9,"pm2_5":36.1,"no2":35.7,"co":302.0,"o3":30.0,"so2":55.2,"mosquito_risk":10,"arthritis_risk":5,"migraine_risk":7,"frizz_risk":1,"updated_at":"2026-07-08T04:34:17.893489+05:30"},{"city":"Pondicherry","state":"Puducherry","latitude":11.9139,"longitude":79.8145,"temp":29.3,"humidity":56,"rain":0.0,"pressure":1007.0,"uv_index":8.2,"wind_gusts":52.6,"aqi":64,"pm10":32.7,"pm2_5":20.5,"no2":15.0,"co":249.0,"o3":32.0,"so2":4.4,"mosquito_risk":4,"arthritis_risk":5,"migraine_risk":4,"frizz_risk":1,"updated_at":"2026-07-08T04:34:17.893507+05:30"},{"city":"Port Blair","state":"Andaman and Nicobar Islands","latitude":11.6234,"longitude":92.7265,"temp":27.0,"humidity":80,"rain":0.0,"pressure":1008.2,"uv_index":8.05,"wind_gusts":43.2,"aqi":59,"pm10":28.1,"pm2_5":16.1,"no2":0.1,"co":94.0,"o3":67.0,"so2":0.5,"mosquito_risk":7,"arthritis_risk":0,"migraine_risk":4,"frizz_risk":1,"updated_at":"2026-07-08T04:34:17.893520+05:30"},{"city":"Haridwar","state":"Uttarakhand","latitude":29.9457,"longitude":78.1642,"temp":26.3,"humidity":97,"rain":0.0,"pressure":966.2,"uv_index":4.5,"wind_gusts":20.5,"aqi":130,"pm10":49.8,"pm2_5":47.6,"no2":13.1,"co":252.0,"o3":66.0,"so2":4.2,"mosquito_risk":7,"arthritis_risk":5,"migraine_risk":3,"frizz_risk":1,"updated_at":"2026-07-08T04:34:17.893532+05:30"},{"city":"Rishikesh","state":"Uttarakhand","latitude":30.0869,"longitude":78.2676,"temp":25.3,"humidity":95,"rain":0.0,"pressure":958.9,"uv_index":1.9,"wind_gusts":15.1,"aqi":86,"pm10":30.2,"pm2_5":28.8,"no2":5.6,"co":287.0,"o3":92.0,"so2":2.0,"mosquito_risk":7,"arthritis_risk":5,"migraine_risk":3,"frizz_risk":1,"updated_at":"2026-07-08T04:34:17.893543+05:30"},{"city":"Nainital","state":"Uttarakhand","latitude":29.3919,"longitude":79.4542,"temp":17.5,"humidity":100,"rain":0.1,"pressure":800.5,"uv_index":7.7,"wind_gusts":31.3,"aqi":57,"pm10":7.7,"pm2_5":7.7,"no2":3.8,"co":221.0,"o3":98.0,"so2":1.8,"mosquito_risk":6,"arthritis_risk":10,"migraine_risk":7,"frizz_risk":1,"updated_at":"2026-07-08T04:34:17.893553+05:30"},{"city":"Mussoorie","state":"Uttarakhand","latitude":30.4599,"longitude":78.0664,"temp":16.9,"humidity":100,"rain":0.0,"pressure":797.5,"uv_index":3.4,"wind_gusts":19.4,"aqi":88,"pm10":21.2,"pm2_5":20.5,"no2":10.8,"co":285.0,"o3":73.0,"so2":7.2,"mosquito_risk":3,"arthritis_risk":10,"migraine_risk":3,"frizz_risk":1,"updated_at":"2026-07-08T04:34:17.893561+05:30"},{"city":"Dharamshala","state":"Himachal Pradesh","latitude":32.219,"longitude":76.3234,"temp":20.5,"humidity":87,"rain":0.0,"pressure":862.7,"uv_index":8.05,"wind_gusts":34.6,"aqi":41,"pm10":5.2,"pm2_5":4.8,"no2":5.9,"co":370.0,"o3":87.0,"so2":0.1,"mosquito_risk":3,"arthritis_risk":5,"migraine_risk":7,"frizz_risk":1,"updated_at":"2026-07-08T04:34:17.893569+05:30"},{"city":"Dalhousie","state":"Himachal Pradesh","latitude":32.5387,"longitude":75.971,"temp":16.0,"humidity":97,"rain":0.0,"pressure":798.1,"uv_index":8.65,"wind_gusts":26.3,"aqi":90,"pm10":13.5,"pm2_5":13.2,"no2":18.7,"co":289.0,"o3":45.0,"so2":1.0,"mosquito_risk":3,"arthritis_risk":10,"migraine_risk":7,"frizz_risk":0,"updated_at":"2026-07-08T04:34:17.893578+05:30"},{"city":"Patiala","state":"Punjab","latitude":30.3398,"longitude":76.3869,"temp":27.1,"humidity":90,"rain":0.0,"pressure":969.8,"uv_index":7.55,"wind_gusts":32.0,"aqi":153,"pm10":99.0,"pm2_5":59.8,"no2":22.2,"co":534.0,"o3":52.0,"so2":9.3,"mosquito_risk":7,"arthritis_risk":5,"migraine_risk":7,"frizz_risk":1,"updated_at":"2026-07-08T04:34:17.893587+05:30"},{"city":"Bhatinda","state":"Punjab","latitude":30.211,"longitude":74.9455,"temp":29.3,"humidity":80,"rain":0.0,"pressure":974.5,"uv_index":7.65,"wind_gusts":27.7,"aqi":183,"pm10":925.7,"pm2_5":244.0,"no2":20.9,"co":541.0,"o3":50.0,"so2":12.5,"mosquito_risk":7,"arthritis_risk":5,"migraine_risk":7,"frizz_risk":1,"updated_at":"2026-07-08T04:34:17.893595+05:30"},{"city":"Rohtak","state":"Haryana","latitude":28.8955,"longitude":76.6066,"temp":27.3,"humidity":90,"rain":0.0,"pressure":973.2,"uv_index":6.2,"wind_gusts":31.7,"aqi":140,"pm10":480.6,"pm2_5":92.0,"no2":35.0,"co":514.0,"o3":54.0,"so2":27.3,"mosquito_risk":7,"arthritis_risk":5,"migraine_risk":7,"frizz_risk":1,"updated_at":"2026-07-08T04:34:17.893603+05:30"},{"city":"Panipat","state":"Haryana","latitude":29.3909,"longitude":76.9635,"temp":26.6,"humidity":95,"rain":0.0,"pressure":972.1,"uv_index":7.5,"wind_gusts":32.0,"aqi":129,"pm10":382.8,"pm2_5":79.2,"no2":18.2,"co":495.0,"o3":73.0,"so2":7.6,"mosquito_risk":7,"arthritis_risk":5,"migraine_risk":7,"frizz_risk":1,"updated_at":"2026-07-08T04:34:17.893611+05:30"},{"city":"Mathura","state":"Uttar Pradesh","latitude":27.4924,"longitude":77.6737,"temp":26.4,"humidity":96,"rain":0.2,"pressure":977.1,"uv_index":6.5,"wind_gusts":31.0,"aqi":110,"pm10":19.8,"pm2_5":19.3,"no2":9.4,"co":256.0,"o3":86.0,"so2":3.5,"mosquito_risk":10,"arthritis_risk":5,"migraine_risk":7,"frizz_risk":1,"updated_at":"2026-07-08T04:34:17.893619+05:30"},{"city":"Vrindavan","state":"Uttar Pradesh","latitude":27.5823,"longitude":77.7027,"temp":26.5,"humidity":96,"rain":0.1,"pressure":977.5,"uv_index":6.55,"wind_gusts":30.2,"aqi":110,"pm10":19.8,"pm2_5":19.3,"no2":9.4,"co":262.0,"o3":86.0,"so2":3.5,"mosquito_risk":10,"arthritis_risk":5,"migraine_risk":7,"frizz_risk":1,"updated_at":"2026-07-08T04:34:17.893626+05:30"},{"city":"Ayodhya","state":"Uttar Pradesh","latitude":26.7922,"longitude":82.1998,"temp":26.2,"humidity":95,"rain":0.0,"pressure":987.1,"uv_index":6.15,"wind_gusts":38.9,"aqi":71,"pm10":36.3,"pm2_5":34.7,"no2":15.5,"co":268.0,"o3":62.0,"so2":13.8,"mosquito_risk":7,"arthritis_risk":5,"migraine_risk":7,"frizz_risk":1,"updated_at":"2026-07-08T04:34:17.893634+05:30"},{"city":"Ratlam","state":"Madhya Pradesh","latitude":23.3315,"longitude":75.0367,"temp":24.8,"humidity":98,"rain":0.0,"pressure":945.4,"uv_index":5.45,"wind_gusts":45.4,"aqi":63,"pm10":12.8,"pm2_5":12.7,"no2":9.8,"co":223.0,"o3":52.0,"so2":3.6,"mosquito_risk":3,"arthritis_risk":5,"migraine_risk":3,"frizz_risk":1,"updated_at":"2026-07-08T04:34:17.893644+05:30"},{"city":"Sagar","state":"Madhya Pradesh","latitude":23.8388,"longitude":78.7378,"temp":24.5,"humidity":96,"rain":0.0,"pressure":939.4,"uv_index":3.55,"wind_gusts":39.2,"aqi":56,"pm10":16.8,"pm2_5":16.7,"no2":7.5,"co":249.0,"o3":67.0,"so2":2.0,"mosquito_risk":3,"arthritis_risk":5,"migraine_risk":3,"frizz_risk":1,"updated_at":"2026-07-08T04:34:17.893652+05:30"},{"city":"Satna","state":"Madhya Pradesh","latitude":24.6005,"longitude":80.8322,"temp":25.9,"humidity":89,"rain":0.0,"pressure":961.2,"uv_index":7.2,"wind_gusts":44.3,"aqi":53,"pm10":19.2,"pm2_5":18.7,"no2":8.9,"co":229.0,"o3":61.0,"so2":9.7,"mosquito_risk":7,"arthritis_risk":5,"migraine_risk":7,"frizz_risk":1,"updated_at":"2026-07-08T04:34:17.893660+05:30"},{"city":"Akola","state":"Maharashtra","latitude":20.7002,"longitude":77.0082,"temp":26.0,"humidity":84,"rain":0.0,"pressure":966.0,"uv_index":6.6,"wind_gusts":49.0,"aqi":30,"pm10":7.9,"pm2_5":5.8,"no2":7.7,"co":149.0,"o3":39.0,"so2":4.8,"mosquito_risk":7,"arthritis_risk":5,"migraine_risk":7,"frizz_risk":1,"updated_at":"2026-07-08T04:34:17.893669+05:30"},{"city":"Amravati","state":"Maharashtra","latitude":20.9374,"longitude":77.7796,"temp":25.5,"humidity":87,"rain":0.0,"pressure":958.4,"uv_index":7.75,"wind_gusts":47.9,"aqi":33,"pm10":8.9,"pm2_5":6.1,"no2":7.1,"co":160.0,"o3":41.0,"so2":4.3,"mosquito_risk":7,"arthritis_risk":5,"migraine_risk":7,"frizz_risk":1,"updated_at":"2026-07-08T04:34:17.893678+05:30"},{"city":"Latur","state":"Maharashtra","latitude":18.4088,"longitude":76.5604,"temp":24.0,"humidity":86,"rain":0.0,"pressure":932.7,"uv_index":8.05,"wind_gusts":57.2,"aqi":21,"pm10":2.2,"pm2_5":1.9,"no2":3.4,"co":117.0,"o3":41.0,"so2":1.8,"mosquito_risk":3,"arthritis_risk":5,"migraine_risk":7,"frizz_risk":1,"updated_at":"2026-07-08T04:34:17.893687+05:30"},{"city":"Nanded","state":"Maharashtra","latitude":19.1383,"longitude":77.3091,"temp":26.2,"humidity":78,"rain":0.0,"pressure":960.7,"uv_index":6.9,"wind_gusts":49.0,"aqi":23,"pm10":2.7,"pm2_5":2.5,"no2":5.7,"co":126.0,"o3":40.0,"so2":3.8,"mosquito_risk":7,"arthritis_risk":5,"migraine_risk":7,"frizz_risk":1,"updated_at":"2026-07-08T04:34:17.893694+05:30"},{"city":"Gulbarga","state":"Karnataka","latitude":17.3297,"longitude":76.8343,"temp":25.3,"humidity":78,"rain":0.0,"pressure":953.0,"uv_index":6.9,"wind_gusts":63.0,"aqi":20,"pm10":2.6,"pm2_5":1.9,"no2":4.1,"co":107.0,"o3":37.0,"so2":2.4,"mosquito_risk":7,"arthritis_risk":5,"migraine_risk":7,"frizz_risk":1,"updated_at":"2026-07-08T04:34:17.893702+05:30"},{"city":"Bidar","state":"Karnataka","latitude":17.9104,"longitude":77.5199,"temp":24.3,"humidity":81,"rain":0.0,"pressure":928.9,"uv_index":8.45,"wind_gusts":61.6,"aqi":21,"pm10":4.0,"pm2_5":2.7,"no2":4.4,"co":112.0,"o3":39.0,"so2":2.4,"mosquito_risk":3,"arthritis_risk":5,"migraine_risk":7,"frizz_risk":1,"updated_at":"2026-07-08T04:34:17.893708+05:30"},{"city":"Hospet","state":"Karnataka","latitude":15.2689,"longitude":76.3909,"temp":23.7,"humidity":85,"rain":0.0,"pressure":952.4,"uv_index":7.95,"wind_gusts":68.8,"aqi":19,"pm10":2.4,"pm2_5":1.6,"no2":2.0,"co":92.0,"o3":39.0,"so2":1.2,"mosquito_risk":3,"arthritis_risk":5,"migraine_risk":7,"frizz_risk":1,"updated_at":"2026-07-08T04:34:17.893715+05:30"},{"city":"Tirupur","state":"Tamil Nadu","latitude":11.1085,"longitude":77.3411,"temp":23.4,"humidity":89,"rain":0.0,"pressure":974.6,"uv_index":8.8,"wind_gusts":66.2,"aqi":56,"pm10":26.0,"pm2_5":19.2,"no2":17.4,"co":124.0,"o3":20.0,"so2":4.2,"mosquito_risk":3,"arthritis_risk":5,"migraine_risk":7,"frizz_risk":1,"updated_at":"2026-07-08T04:34:17.893721+05:30"},{"city":"Alappuzha","state":"Kerala","latitude":9.4981,"longitude":76.3388,"temp":25.4,"humidity":96,"rain":0.0,"pressure":1010.0,"uv_index":8.45,"wind_gusts":45.4,"aqi":65,"pm10":26.0,"pm2_5":15.3,"no2":7.8,"co":79.0,"o3":32.0,"so2":3.0,"mosquito_risk":7,"arthritis_risk":0,"migraine_risk":4,"frizz_risk":1,"updated_at":"2026-07-08T04:34:17.893727+05:30"},{"city":"Munnar","state":"Kerala","latitude":10.0889,"longitude":77.0595,"temp":16.5,"humidity":98,"rain":0.2,"pressure":856.6,"uv_index":6.85,"wind_gusts":57.2,"aqi":42,"pm10":10.1,"pm2_5":6.8,"no2":4.1,"co":84.0,"o3":24.0,"so2":0.9,"mosquito_risk":6,"arthritis_risk":10,"migraine_risk":7,"frizz_risk":1,"updated_at":"2026-07-08T04:34:17.893734+05:30"},{"city":"Silchar","state":"Assam","latitude":24.8333,"longitude":92.7789,"temp":25.4,"humidity":97,"rain":0.1,"pressure":1001.0,"uv_index":0.55,"wind_gusts":30.6,"aqi":33,"pm10":5.8,"pm2_5":5.7,"no2":6.9,"co":137.0,"o3":44.0,"so2":1.8,"mosquito_risk":10,"arthritis_risk":5,"migraine_risk":0,"frizz_risk":1,"updated_at":"2026-07-08T04:34:17.893740+05:30"},{"city":"Dibrugarh","state":"Assam","latitude":27.4728,"longitude":94.912,"temp":25.6,"humidity":96,"rain":0.1,"pressure":990.6,"uv_index":6.1,"wind_gusts":31.3,"aqi":47,"pm10":10.9,"pm2_5":10.0,"no2":7.6,"co":155.0,"o3":43.0,"so2":1.0,"mosquito_risk":10,"arthritis_risk":5,"migraine_risk":7,"frizz_risk":1,"updated_at":"2026-07-08T04:34:17.893746+05:30"}]