[{"city":"Delhi","state":"Delhi","latitude":28.6139,"longitude":77.209,"temp":33.0,"humidity":66,"rain":0.0,"pressure":973.0,"uv_index":7.55,"wind_gusts":29.5,"aqi":478,"pm10":325.0,"pm2_5":103.6,"no2":39.7,"co":872.0,"o3":88.0,"so2":18.7,"mosquito_risk":3,"arthritis_risk":5,"migraine_risk":7,"frizz_risk":1,"updated_at":"2026-07-13T18:56:42.621203+05:30"},{"city":"Mumbai","state":"Maharashtra","latitude":19.076,"longitude":72.8777,"temp":28.5,"humidity":79,"rain":0.0,"pressure":1006.3,"uv_index":6.6,"wind_gusts":50.0,"aqi":53,"pm10":25.1,"pm2_5":14.6,"no2":8.0,"co":192.0,"o3":48.0,"so2":6.5,"mosquito_risk":7,"arthritis_risk":5,"migraine_risk":4,"frizz_risk":1,"updated_at":"2026-07-13T18:56:42.621272+05:30"},{"city":"Bangalore","state":"Karnataka","latitude":12.9716,"longitude":77.5946,"temp":28.8,"humidity":46,"rain":0.0,"pressure":910.6,"uv_index":8.55,"wind_gusts":46.4,"aqi":52,"pm10":31.4,"pm2_5":16.7,"no2":12.8,"co":316.0,"o3":68.0,"so2":3.8,"mosquito_risk":4,"arthritis_risk":5,"migraine_risk":7,"frizz_risk":0,"updated_at":"2026-07-13T18:56:42.621290+05:30"},{"city":"Hyderabad","state":"Telangana","latitude":17.385,"longitude":78.4867,"temp":32.2,"humidity":46,"rain":0.0,"pressure":949.9,"uv_index":9.05,"wind_gusts":46.4,"aqi":57,"pm10":17.5,"pm2_5":11.7,"no2":6.5,"co":259.0,"o3":90.0,"so2":3.5,"mosquito_risk":0,"arthritis_risk":5,"migraine_risk":7,"frizz_risk":1,"updated_at":"2026-07-13T18:56:42.621301+05:30"},{"city":"Chennai","state":"Tamil Nadu","latitude":13.0827,"longitude":80.2707,"temp":32.1,"humidity":61,"rain":0.0,"pressure":1002.2,"uv_index":8.55,"wind_gusts":42.5,"aqi":76,"pm10":49.4,"pm2_5":27.6,"no2":8.8,"co":215.0,"o3":118.0,"so2":5.3,"mosquito_risk":3,"arthritis_risk":5,"migraine_risk":4,"frizz_risk":1,"updated_at":"2026-07-13T18:56:42.621311+05:30"},{"city":"Kolkata","state":"West Bengal","latitude":22.5726,"longitude":88.3639,"temp":28.1,"humidity":90,"rain":0.1,"pressure":998.0,"uv_index":7.4,"wind_gusts":25.6,"aqi":147,"pm10":80.6,"pm2_5":69.8,"no2":23.6,"co":902.0,"o3":69.0,"so2":19.2,"mosquito_risk":10,"arthritis_risk":5,"migraine_risk":7,"frizz_risk":1,"updated_at":"2026-07-13T18:56:42.621321+05:30"},{"city":"Pune","state":"Maharashtra","latitude":18.5204,"longitude":73.8567,"temp":25.3,"humidity":74,"rain":0.0,"pressure":946.0,"uv_index":8.3,"wind_gusts":50.8,"aqi":32,"pm10":18.7,"pm2_5":11.2,"no2":5.1,"co":151.0,"o3":56.0,"so2":4.1,"mosquito_risk":7,"arthritis_risk":5,"migraine_risk":7,"frizz_risk":1,"updated_at":"2026-07-13T18:56:42.621329+05:30"},{"city":"Ahmedabad","state":"Gujarat","latitude":23.0225,"longitude":72.5714,"temp":34.9,"humidity":48,"rain":0.0,"pressure":995.1,"uv_index":8.15,"wind_gusts":50.8,"aqi":60,"pm10":33.6,"pm2_5":17.9,"no2":4.9,"co":134.0,"o3":78.0,"so2":3.5,"mosquito_risk":0,"arthritis_risk":5,"migraine_risk":7,"frizz_risk":1,"updated_at":"2026-07-13T18:56:42.621337+05:30"},{"city":"Jaipur","state":"Rajasthan","latitude":26.9124,"longitude":75.7873,"temp":32.6,"humidity":54,"rain":0.0,"pressure":951.8,"uv_index":8.15,"wind_gusts":32.8,"aqi":337,"pm10":575.6,"pm2_5":113.6,"no2":7.4,"co":165.0,"o3":82.0,"so2":4.2,"mosquito_risk":0,"arthritis_risk":5,"migraine_risk":7,"frizz_risk":1,"updated_at":"2026-07-13T18:56:42.621344+05:30"},{"city":"Lucknow","state":"Uttar Pradesh","latitude":26.8467,"longitude":80.9462,"temp":32.7,"humidity":69,"rain":0.0,"pressure":983.7,"uv_index":7.9,"wind_gusts":37.1,"aqi":126,"pm10":94.1,"pm2_5":45.4,"no2":9.4,"co":220.0,"o3":93.0,"so2":6.0,"mosquito_risk":3,"arthritis_risk":5,"migraine_risk":7,"frizz_risk":1,"updated_at":"2026-07-13T18:56:42.621356+05:30"},{"city":"Kanpur","state":"Uttar Pradesh","latitude":26.4499,"longitude":80.3319,"temp":33.1,"humidity":60,"rain":0.0,"pressure":982.2,"uv_index":8.15,"wind_gusts":39.2,"aqi":114,"pm10":94.1,"pm2_5":40.3,"no2":7.4,"co":167.0,"o3":95.0,"so2":5.7,"mosquito_risk":0,"arthritis_risk":5,"migraine_risk":7,"frizz_risk":1,"updated_at":"2026-07-13T18:56:42.621363+05:30"},{"city":"Chandigarh","state":"Chandigarh","latitude":30.7333,"longitude":76.7794,"temp":31.1,"humidity":76,"rain":0.0,"pressure":959.2,"uv_index":7.7,"wind_gusts":32.8,"aqi":167,"pm10":165.8,"pm2_5":80.6,"no2":15.3,"co":633.0,"o3":149.0,"so2":16.1,"mosquito_risk":3,"arthritis_risk":5,"migraine_risk":7,"frizz_risk":1,"updated_at":"2026-07-13T18:56:42.621371+05:30"},{"city":"Srinagar","state":"Jammu and Kashmir","latitude":34.0837,"longitude":74.7973,"temp":23.3,"humidity":65,"rain":0.0,"pressure":837.0,"uv_index":8.9,"wind_gusts":17.3,"aqi":109,"pm10":20.7,"pm2_5":13.8,"no2":6.7,"co":473.0,"o3":119.0,"so2":2.6,"mosquito_risk":3,"arthritis_risk":5,"migraine_risk":7,"frizz_risk":1,"updated_at":"2026-07-13T18:56:42.621378+05:30"},{"city":"Jammu","state":"Jammu and Kashmir","latitude":32.7266,"longitude":74.857,"temp":30.7,"humidity":67,"rain":0.0,"pressure":963.2,"uv_index":8.55,"wind_gusts":18.0,"aqi":149,"pm10":89.6,"pm2_5":55.6,"no2":18.4,"co":438.0,"o3":154.0,"so2":7.3,"mosquito_risk":3,"arthritis_risk":5,"migraine_risk":7,"frizz_risk":1,"updated_at":"2026-07-13T18:56:42.621385+05:30"},{"city":"Amritsar","state":"Punjab","latitude":31.634,"longitude":74.8723,"temp":30.9,"humidity":76,"rain":0.0,"pressure":971.0,"uv_index":8.4,"wind_gusts":19.8,"aqi":173,"pm10":188.1,"pm2_5":87.1,"no2":19.7,"co":524.0,"o3":164.0,"so2":17.1,"mosquito_risk":3,"arthritis_risk":5,"migraine_risk":7,"frizz_risk":1,"updated_at":"2026-07-13T18:56:42.621392+05:30"},{"city":"Ludhiana","state":"Punjab","latitude":30.901,"longitude":75.8573,"temp":31.6,"humidity":74,"rain":0.0,"pressure":968.7,"uv_index":7.9,"wind_gusts":27.7,"aqi":163,"pm10":154.6,"pm2_5":79.2,"no2":15.3,"co":539.0,"o3":116.0,"so2":6.0,"mosquito_risk":3,"arthritis_risk":5,"migraine_risk":7,"frizz_risk":1,"updated_at":"2026-07-13T18:56:42.621402+05:30"},{"city":"Jalandhar","state":"Punjab","latitude":31.326,"longitude":75.5762,"temp":30.9,"humidity":79,"rain":0.0,"pressure":969.8,"uv_index":8.15,"wind_gusts":24.1,"aqi":164,"pm10":160.2,"pm2_5":84.1,"no2":16.8,"co":766.0,"o3":129.0,"so2":8.3,"mosquito_risk":3,"arthritis_risk":5,"migraine_risk":7,"frizz_risk":1,"updated_at":"2026-07-13T18:56:42.621409+05:30"},{"city":"Dehradun","state":"Uttarakhand","latitude":30.6284,"longitude":78.0322,"temp":20.6,"humidity":93,"rain":0.0,"pressure":825.4,"uv_index":8.15,"wind_gusts":33.8,"aqi":105,"pm10":115.5,"pm2_5":52.3,"no2":8.4,"co":215.0,"o3":133.0,"so2":5.6,"mosquito_risk":3,"arthritis_risk":5,"migraine_risk":7,"frizz_risk":1,"updated_at":"2026-07-13T18:56:42.621417+05:30"},{"city":"Shimla","state":"Himachal Pradesh","latitude":31.1048,"longitude":77.1734,"temp":18.7,"humidity":81,"rain":0.0,"pressure":780.5,"uv_index":8.25,"wind_gusts":37.1,"aqi":110,"pm10":116.2,"pm2_5":51.7,"no2":6.1,"co":270.0,"o3":153.0,"so2":9.8,"mosquito_risk":3,"arthritis_risk":10,"migraine_risk":7,"frizz_risk":0,"updated_at":"2026-07-13T18:56:42.621425+05:30"},{"city":"Manali","state":"Himachal Pradesh","latitude":32.2396,"longitude":77.1887,"temp":22.3,"humidity":71,"rain":0.0,"pressure":815.1,"uv_index":9.55,"wind_gusts":34.9,"aqi":112,"pm10":30.5,"pm2_5":15.4,"no2":23.2,"co":192.0,"o3":123.0,"so2":1.5,"mosquito_risk":3,"arthritis_risk":5,"migraine_risk":7,"frizz_risk":1,"updated_at":"2026-07-13T18:56:42.621434+05:30"},{"city":"Gurgaon","state":"Haryana","latitude":28.4595,"longitude":77.0266,"temp":33.1,"humidity":66,"rain":0.0,"pressure":971.6,"uv_index":7.7,"wind_gusts":33.5,"aqi":535,"pm10":473.1,"pm2_5":115.9,"no2":31.6,"co":543.0,"o3":84.0,"so2":11.8,"mosquito_risk":3,"arthritis_risk":5,"migraine_risk":7,"frizz_risk":1,"updated_at":"2026-07-13T18:56:42.621444+05:30"},{"city":"Noida","state":"Uttar Pradesh","latitude":28.5355,"longitude":77.391,"temp":33.2,"humidity":66,"rain":0.0,"pressure":974.5,"uv_index":7.65,"wind_gusts":28.4,"aqi":535,"pm10":473.1,"pm2_5":115.9,"no2":31.6,"co":687.0,"o3":84.0,"so2":11.8,"mosquito_risk":3,"arthritis_risk":5,"migraine_risk":7,"frizz_risk":1,"updated_at":"2026-07-13T18:56:42.621451+05:30"},{"city":"Ghaziabad","state":"Uttar Pradesh","latitude":28.6692,"longitude":77.4538,"temp":33.3,"humidity":67,"rain":0.0,"pressure":972.6,"uv_index":7.6,"wind_gusts":26.3,"aqi":396,"pm10":311.1,"pm2_5":104.5,"no2":27.3,"co":334.0,"o3":114.0,"so2":18.7,"mosquito_risk":3,"arthritis_risk":5,"migraine_risk":7,"frizz_risk":1,"updated_at":"2026-07-13T18:56:42.621457+05:30"},{"city":"Faridabad","state":"Haryana","latitude":28.4089,"longitude":77.3178,"temp":33.2,"humidity":64,"rain":0.0,"pressure":973.8,"uv_index":7.7,"wind_gusts":32.0,"aqi":535,"pm10":473.1,"pm2_5":115.9,"no2":31.6,"co":360.0,"o3":84.0,"so2":11.8,"mosquito_risk":3,"arthritis_risk":5,"migraine_risk":7,"frizz_risk":1,"updated_at":"2026-07-13T18:56:42.621464+05:30"},{"city":"Meerut","state":"Uttar Pradesh","latitude":28.9845,"longitude":77.7064,"temp":32.4,"humidity":72,"rain":0.0,"pressure":971.5,"uv_index":7.55,"wind_gusts":31.3,"aqi":396,"pm10":311.1,"pm2_5":104.5,"no2":27.3,"co":238.0,"o3":114.0,"so2":18.7,"mosquito_risk":3,"arthritis_risk":5,"migraine_risk":7,"frizz_risk":1,"updated_at":"2026-07-13T18:56:42.621470+05:30"},{"city":"Agra","state":"Uttar Pradesh","latitude":27.1767,"longitude":78.0081,"temp":32.8,"humidity":65,"rain":0.0,"pressure":978.2,"uv_index":7.45,"wind_gusts":39.6,"aqi":132,"pm10":104.8,"pm2_5":44.9,"no2":9.1,"co":188.0,"o3":88.0,"so2":4.4,"mosquito_risk":3,"arthritis_risk":5,"migraine_risk":7,"frizz_risk":1,"updated_at":"2026-07-13T18:56:42.621477+05:30"},{"city":"Varanasi","state":"Uttar Pradesh","latitude":25.3176,"longitude":82.9739,"temp":31.8,"humidity":76,"rain":0.0,"pressure":988.5,"uv_index":5.05,"wind_gusts":33.5,"aqi":111,"pm10":90.1,"pm2_5":52.3,"no2":16.4,"co":316.0,"o3":74.0,"so2":11.4,"mosquito_risk":3,"arthritis_risk":5,"migraine_risk":3,"frizz_risk":1,"updated_at":"2026-07-13T18:56:42.621485+05:30"},{"city":"Prayagraj","state":"Uttar Pradesh","latitude":25.4358,"longitude":81.8463,"temp":32.1,"humidity":69,"rain":0.0,"pressure":987.3,"uv_index":6.0,"wind_gusts":37.8,"aqi":106,"pm10":78.9,"pm2_5":45.2,"no2":11.8,"co":203.0,"o3":77.0,"so2":8.7,"mosquito_risk":3,"arthritis_risk":5,"migraine_risk":3,"frizz_risk":1,"updated_at":"2026-07-13T18:56:42.621492+05:30"},{"city":"Gorakhpur","state":"Uttar Pradesh","latitude":26.7606,"longitude":83.3732,"temp":27.6,"humidity":89,"rain":0.1,"pressure":988.3,"uv_index":3.25,"wind_gusts":39.6,"aqi":150,"pm10":143.0,"pm2_5":80.8,"no2":15.1,"co":265.0,"o3":89.0,"so2":8.4,"mosquito_risk":10,"arthritis_risk":5,"migraine_risk":3,"frizz_risk":1,"updated_at":"2026-07-13T18:56:42.621499+05:30"},{"city":"Bareilly","state":"Uttar Pradesh","latitude":28.367,"longitude":79.4304,"temp":32.5,"humidity":69,"rain":0.0,"pressure":976.6,"uv_index":8.0,"wind_gusts":36.0,"aqi":175,"pm10":165.3,"pm2_5":75.7,"no2":10.1,"co":299.0,"o3":109.0,"so2":7.7,"mosquito_risk":3,"arthritis_risk":5,"migraine_risk":7,"frizz_risk":1,"updated_at":"2026-07-13T18:56:42.621508+05:30"},{"city":"Aligarh","state":"Uttar Pradesh","latitude":27.8974,"longitude":78.088,"temp":32.6,"humidity":73,"rain":0.0,"pressure":975.8,"uv_index":7.6,"wind_gusts":35.3,"aqi":483,"pm10":419.1,"pm2_5":94.8,"no2":10.9,"co":212.0,"o3":94.0,"so2":5.3,"mosquito_risk":3,"arthritis_risk":5,"migraine_risk":7,"frizz_risk":1,"updated_at":"2026-07-13T18:56:42.621515+05:30"},{"city":"Moradabad","state":"Uttar Pradesh","latitude":28.8386,"longitude":78.7733,"temp":32.4,"humidity":71,"rain":0.0,"pressure":973.6,"uv_index":7.8,"wind_gusts":35.3,"aqi":225,"pm10":196.5,"pm2_5":83.4,"no2":13.9,"co":287.0,"o3":110.0,"so2":9.5,"mosquito_risk":3,"arthritis_risk":5,"migraine_risk":7,"frizz_risk":1,"updated_at":"2026-07-13T18:56:42.621521+05:30"},{"city":"Saharanpur","state":"Uttar Pradesh","latitude":29.9637,"longitude":77.546,"temp":31.6,"humidity":76,"rain":0.0,"pressure":965.7,"uv_index":7.35,"wind_gusts":34.2,"aqi":178,"pm10":252.4,"pm2_5":95.5,"no2":14.5,"co":356.0,"o3":110.0,"so2":12.4,"mosquito_risk":3,"arthritis_risk":5,"migraine_risk":7,"frizz_risk":1,"updated_at":"2026-07-13T18:56:42.621528+05:30"},{"city":"Jhansi","state":"Uttar Pradesh","latitude":25.4484,"longitude":78.5685,"temp":32.0,"humidity":62,"rain":0.0,"pressure":970.0,"uv_index":8.0,"wind_gusts":40.0,"aqi":94,"pm10":114.3,"pm2_5":44.7,"no2":4.5,"co":145.0,"o3":94.0,"so2":8.5,"mosquito_risk":3,"arthritis_risk":5,"migraine_risk":7,"frizz_risk":1,"updated_at":"2026-07-13T18:56:45.871949+05:30"},{"city":"Surat","state":"Gujarat","latitude":21.1702,"longitude":72.8311,"temp":29.4,"humidity":76,"rain":0.0,"pressure":1002.7,"uv_index":6.75,"wind_gusts":63.7,"aqi":57,"pm10":28.6,"pm2_5":19.0,"no2":11.5,"co":207.0,"o3":39.0,"so2":22.2,"mosquito_risk":7,"arthritis_risk":5,"migraine_risk":4,"frizz_risk":1,"updated_at":"2026-07-13T18:56:45.871988+05:30"},{"city":"Vadodara","state":"Gujarat","latitude":22.3072,"longitude":73.1812,"temp":30.2,"humidity":73,"rain":0.0,"pressure":998.8,"uv_index":7.8,"wind_gusts":56.5,"aqi":54,"pm10":25.3,"pm2_5":16.8,"no2":6.7,"co":132.0,"o3":65.0,"so2":6.8,"mosquito_risk":3,"arthritis_risk":5,"migraine_risk":7,"frizz_risk":1,"updated_at":"2026-07-13T18:56:45.871999+05:30"},{"city":"Rajkot","state":"Gujarat","latitude":22.3039,"longitude":70.8022,"temp":31.5,"humidity":56,"rain":0.0,"pressure":988.6,"uv_index":7.15,"wind_gusts":56.9,"aqi":53,"pm10":36.4,"pm2_5":16.8,"no2":2.2,"co":103.0,"o3":58.0,"so2":2.8,"mosquito_risk":0,"arthritis_risk":5,"migraine_risk":7,"frizz_risk":1,"updated_at":"2026-07-13T18:56:45.872007+05:30"},{"city":"Thane","state":"Maharashtra","latitude":19.2183,"longitude":72.9781,"temp":28.3,"humidity":80,"rain":0.0,"pressure":1005.5,"uv_index":7.75,"wind_gusts":46.1,"aqi":53,"pm10":25.1,"pm2_5":14.6,"no2":8.0,"co":204.0,"o3":48.0,"so2":6.5,"mosquito_risk":7,"arthritis_risk":5,"migraine_risk":4,"frizz_risk":1,"updated_at":"2026-07-13T18:56:45.872016+05:30"},{"city":"Nagpur","state":"Maharashtra","latitude":21.1458,"longitude":79.0882,"temp":32.1,"humidity":52,"rain":0.0,"pressure":967.7,"uv_index":7.95,"wind_gusts":42.1,"aqi":85,"pm10":74.3,"pm2_5":33.5,"no2":12.6,"co":214.0,"o3":68.0,"so2":12.8,"mosquito_risk":0,"arthritis_risk":5,"migraine_risk":7,"frizz_risk":1,"updated_at":"2026-07-13T18:56:45.872024+05:30"},{"city":"Nashik","state":"Maharashtra","latitude":19.9975,"longitude":73.7898,"temp":25.4,"humidity":76,"rain":0.0,"pressure":942.6,"uv_index":8.1,"wind_gusts":58.7,"aqi":35,"pm10":18.2,"pm2_5":11.7,"no2":4.5,"co":125.0,"o3":61.0,"so2":4.0,"mosquito_risk":7,"arthritis_risk":5,"migraine_risk":7,"frizz_risk":1,"updated_at":"2026-07-13T18:56:45.872032+05:30"},{"city":"Aurangabad","state":"Maharashtra","latitude":19.8762,"longitude":75.3433,"temp":28.0,"humidity":61,"rain":0.0,"pressure":941.0,"uv_index":8.9,"wind_gusts":52.9,"aqi":46,"pm10":22.6,"pm2_5":14.3,"no2":3.3,"co":143.0,"o3":90.0,"so2":5.9,"mosquito_risk":7,"arthritis_risk":5,"migraine_risk":7,"frizz_risk":1,"updated_at":"2026-07-13T18:56:45.872039+05:30"},{"city":"Solapur","state":"Maharashtra","latitude":17.6599,"longitude":75.9064,"temp":30.4,"humidity":51,"rain":0.0,"pressure":954.5,"uv_index":8.9,"wind_gusts":45.4,"aqi":43,"pm10":15.3,"pm2_5":9.7,"no2":2.5,"co":126.0,"o3":74.0,"so2":1.7,"mosquito_risk":0,"arthritis_risk":5,"migraine_risk":7,"frizz_risk":1,"updated_at":"2026-07-13T18:56:45.872046+05:30"},{"city":"Kolhapur","state":"Maharashtra","latitude":16.705,"longitude":74.2433,"temp":24.5,"humidity":80,"rain":0.0,"pressure":946.8,"uv_index":8.9,"wind_gusts":50.0,"aqi":33,"pm10":17.6,"pm2_5":11.2,"no2":4.2,"co":147.0,"o3":54.0,"so2":2.1,"mosquito_risk":3,"arthritis_risk":5,"migraine_risk":7,"frizz_risk":1,"updated_at":"2026-07-13T18:56:45.872055+05:30"},{"city":"Goa","state":"Goa","latitude":15.2993,"longitude":74.124,"temp":28.1,"humidity":78,"rain":0.0,"pressure":997.8,"uv_index":7.2,"wind_gusts":33.8,"aqi":51,"pm10":20.8,"pm2_5":11.5,"no2":1.9,"co":171.0,"o3":51.0,"so2":1.4,"mosquito_risk":7,"arthritis_risk":5,"migraine_risk":7,"frizz_risk":1,"updated_at":"2026-07-13T18:56:45.872063+05:30"},{"city":"Jodhpur","state":"Rajasthan","latitude":26.2389,"longitude":73.0243,"temp":35.4,"humidity":40,"rain":0.0,"pressure":973.8,"uv_index":8.4,"wind_gusts":49.3,"aqi":171,"pm10":444.2,"pm2_5":77.5,"no2":3.3,"co":121.0,"o3":75.0,"so2":1.9,"mosquito_risk":0,"arthritis_risk":5,"migraine_risk":10,"frizz_risk":1,"updated_at":"2026-07-13T18:56:45.872071+05:30"},{"city":"Udaipur","state":"Rajasthan","latitude":24.5854,"longitude":73.7125,"temp":29.9,"humidity":57,"rain":0.0,"pressure":940.1,"uv_index":8.7,"wind_gusts":50.0,"aqi":70,"pm10":43.9,"pm2_5":20.5,"no2":2.6,"co":120.0,"o3":81.0,"so2":3.1,"mosquito_risk":4,"arthritis_risk":5,"migraine_risk":7,"frizz_risk":1,"updated_at":"2026-07-13T18:56:45.872079+05:30"},{"city":"Kota","state":"Rajasthan","latitude":25.2138,"longitude":75.8648,"temp":32.8,"humidity":54,"rain":0.0,"pressure":970.9,"uv_index":8.3,"wind_gusts":38.5,"aqi":94,"pm10":79.4,"pm2_5":32.8,"no2":4.8,"co":175.0,"o3":88.0,"so2":5.1,"mosquito_risk":0,"arthritis_risk":5,"migraine_risk":7,"frizz_risk":1,"updated_at":"2026-07-13T18:56:45.872086+05:30"},{"city":"Bikaner","state":"Rajasthan","latitude":28.0229,"longitude":73.3119,"temp":36.9,"humidity":38,"rain":0.0,"pressure":971.7,"uv_index":8.45,"wind_gusts":35.6,"aqi":171,"pm10":245.9,"pm2_5":68.0,"no2":1.3,"co":114.0,"o3":83.0,"so2":3.3,"mosquito_risk":0,"arthritis_risk":5,"migraine_risk":10,"frizz_risk":1,"updated_at":"2026-07-13T18:56:45.872094+05:30"},{"city":"Ajmer","state":"Rajasthan","latitude":26.4499,"longitude":74.6399,"temp":31.1,"humidity":57,"rain":0.0,"pressure":947.1,"uv_index":8.35,"wind_gusts":47.9,"aqi":100,"pm10":86.6,"pm2_5":33.3,"no2":4.0,"co":129.0,"o3":80.0,"so2":3.0,"mosquito_risk":0,"arthritis_risk":5,"migraine_risk":7,"frizz_risk":1,"updated_at":"2026-07-13T18:56:45.872101+05:30"},{"city":"Gwalior","state":"Madhya Pradesh","latitude":26.2183,"longitude":78.1828,"temp":31.4,"humidity":71,"rain":0.0,"pressure":974.7,"uv_index":8.2,"wind_gusts":43.2,"aqi":95,"pm10":107.3,"pm2_5":42.4,"no2":4.0,"co":145.0,"o3":87.0,"so2":3.9,"mosquito_risk":3,"arthritis_risk":5,"migraine_risk":7,"frizz_risk":1,"updated_at":"2026-07-13T18:56:45.872110+05:30"},{"city":"Indore","state":"Madhya Pradesh","latitude":22.7196,"longitude":75.8577,"temp":28.9,"humidity":64,"rain":0.0,"pressure":943.2,"uv_index":8.05,"wind_gusts":52.6,"aqi":66,"pm10":49.9,"pm2_5":26.3,"no2":5.8,"co":220.0,"o3":83.0,"so2":5.2,"mosquito_risk":7,"arthritis_risk":5,"migraine_risk":7,"frizz_risk":1,"updated_at":"2026-07-13T18:56:45.872117+05:30"},{"city":"Bhopal","state":"Madhya Pradesh","latitude":23.2599,"longitude":77.4126,"temp":29.5,"humidity":61,"rain":0.0,"pressure":947.9,"uv_index":7.9,"wind_gusts":42.5,"aqi":77,"pm10":57.5,"pm2_5":27.7,"no2":4.3,"co":227.0,"o3":79.0,"so2":3.7,"mosquito_risk":7,"arthritis_risk":5,"migraine_risk":7,"frizz_risk":1,"updated_at":"2026-07-13T18:56:45.872124+05:30"},{"city":"Jabalpur","state":"Madhya Pradesh","latitude":23.1815,"longitude":79.9864,"temp":29.5,"humidity":69,"rain":0.0,"pressure":955.4,"uv_index":8.05,"wind_gusts":38.2,"aqi":89,"pm10":79.4,"pm2_5":33.6,"no2":4.8,"co":215.0,"o3":80.0,"so2":4.7,"mosquito_risk":7,"arthritis_risk":5,"migraine_risk":7,"frizz_risk":1,"updated_at":"2026-07-13T18:56:45.872132+05:30"},{"city":"Ujjain","state":"Madhya Pradesh","latitude":23.1765,"longitude":75.7885,"temp":29.2,"humidity":63,"rain":0.0,"pressure":948.5,"uv_index":8.5,"wind_gusts":51.8,"aqi":64,"pm10":48.8,"pm2_5":24.9,"no2":3.4,"co":180.0,"o3":84.0,"so2":4.1,"mosquito_risk":7,"arthritis_risk":5,"migraine_risk":7,"frizz_risk":1,"updated_at":"2026-07-13T18:56:45.872139+05:30"},{"city":"Visakhapatnam","state":"Andhra Pradesh","latitude":17.6868,"longitude":83.2185,"temp":32.8,"humidity":66,"rain":0.0,"pressure":995.5,"uv_index":8.35,"wind_gusts":32.4,"aqi":115,"pm10":81.0,"pm2_5":46.4,"no2":23.6,"co":366.0,"o3":95.0,"so2":41.8,"mosquito_risk":3,"arthritis_risk":5,"migraine_risk":7,"frizz_risk":1,"updated_at":"2026-07-13T18:56:45.872146+05:30"},{"city":"Vijayawada","state":"Andhra Pradesh","latitude":16.5062,"longitude":80.648,"temp":34.1,"humidity":49,"rain":0.0,"pressure":996.8,"uv_index":8.9,"wind_gusts":50.8,"aqi":82,"pm10":40.9,"pm2_5":24.4,"no2":9.4,"co":224.0,"o3":73.0,"so2":5.6,"mosquito_risk":0,"arthritis_risk":5,"migraine_risk":7,"frizz_risk":1,"updated_at":"2026-07-13T18:56:45.872154+05:30"},{"city":"Guntur","state":"Andhra Pradesh","latitude":16.3067,"longitude":80.4365,"temp":34.9,"humidity":43,"rain":0.0,"pressure":998.0,"uv_index":8.65,"wind_gusts":49.7,"aqi":79,"pm10":35.4,"pm2_5":21.8,"no2":9.5,"co":195.0,"o3":73.0,"so2":5.2,"mosquito_risk":0,"arthritis_risk":5,"migraine_risk":7,"frizz_risk":1,"updated_at":"2026-07-13T18:56:45.872161+05:30"},{"city":"Nellore","state":"Andhra Pradesh","latitude":14.4426,"longitude":79.9865,"temp":35.8,"humidity":38,"rain":0.0,"pressure":1000.3,"uv_index":8.75,"wind_gusts":51.1,"aqi":66,"pm10":51.3,"pm2_5":25.1,"no2":5.9,"co":158.0,"o3":101.0,"so2":4.4,"mosquito_risk":0,"arthritis_risk":5,"migraine_risk":7,"frizz_risk":1,"updated_at":"2026-07-13T18:56:45.872169+05:30"},{"city":"Kurnool","state":"Andhra Pradesh","latitude":15.8281,"longitude":78.0373,"temp":34.5,"humidity":36,"rain":0.0,"pressure":972.8,"uv_index":8.85,"wind_gusts":48.2,"aqi":54,"pm10":19.2,"pm2_5":11.9,"no2":3.9,"co":139.0,"o3":96.0,"so2":5.5,"mosquito_risk":0,"arthritis_risk":5,"migraine_risk":7,"frizz_risk":1,"updated_at":"2026-07-13T18:56:45.872176+05:30"},{"city":"Kakinada","state":"Andhra Pradesh","latitude":16.9891,"longitude":82.2475,"temp":32.1,"humidity":62,"rain":0.0,"pressure":1000.5,"uv_index":7.25,"wind_gusts":39.2,"aqi":81,"pm10":50.3,"pm2_5":23.6,"no2":5.6,"co":231.0,"o3":95.0,"so2":4.9,"mosquito_risk":3,"arthritis_risk":5,"migraine_risk":4,"frizz_risk":1,"updated_at":"2026-07-13T18:56:45.872184+05:30"},{"city":"Tirupati","state":"Andhra Pradesh","latitude":13.6288,"longitude":79.4192,"temp":34.6,"humidity":36,"rain":0.0,"pressure":986.6,"uv_index":8.75,"wind_gusts":44.3,"aqi":81,"pm10":66.1,"pm2_5":36.6,"no2":25.5,"co":194.0,"o3":75.0,"so2":4.2,"mosquito_risk":0,"arthritis_risk":5,"migraine_risk":7,"frizz_risk":1,"updated_at":"2026-07-13T18:56:45.872191+05:30"},{"city":"Warangal","state":"Telangana","latitude":17.9689,"longitude":79.5941,"temp":30.8,"humidity":61,"rain":0.0,"pressure":973.9,"uv_index":8.7,"wind_gusts":43.6,"aqi":77,"pm10":27.1,"pm2_5":17.7,"no2":6.6,"co":217.0,"o3":78.0,"so2":3.9,"mosquito_risk":3,"arthritis_risk":5,"migraine_risk":7,"frizz_risk":1,"updated_at":"2026-07-13T18:56:45.872198+05:30"},{"city":"Nizamabad","state":"Telangana","latitude":18.6725,"longitude":78.0941,"temp":30.3,"humidity":63,"rain":0.0,"pressure":960.5,"uv_index":8.9,"wind_gusts":46.1,"aqi":61,"pm10":19.6,"pm2_5":13.1,"no2":4.8,"co":191.0,"o3":85.0,"so2":4.1,"mosquito_risk":3,"arthritis_risk":5,"migraine_risk":7,"frizz_risk":1,"updated_at":"2026-07-13T18:56:45.872205+05:30"},{"city":"Mysore","state":"Karnataka","latitude":12.2958,"longitude":76.6396,"temp":26.8,"humidity":66,"rain":0.0,"pressure":927.6,"uv_index":8.5,"wind_gusts":42.5,"aqi":42,"pm10":19.8,"pm2_5":10.2,"no2":5.5,"co":151.0,"o3":70.0,"so2":1.9,"mosquito_risk":7,"arthritis_risk":5,"migraine_risk":7,"frizz_risk":1,"updated_at":"2026-07-13T18:56:45.872212+05:30"},{"city":"Mangalore","state":"Karnataka","latitude":12.9141,"longitude":74.856,"temp":27.5,"humidity":84,"rain":0.0,"pressure":1006.9,"uv_index":8.1,"wind_gusts":44.3,"aqi":50,"pm10":21.1,"pm2_5":11.6,"no2":3.1,"co":121.0,"o3":48.0,"so2":1.6,"mosquito_risk":7,"arthritis_risk":5,"migraine_risk":4,"frizz_risk":1,"updated_at":"2026-07-13T18:56:45.872218+05:30"},{"city":"Hubli-Dharwad","state":"Karnataka","latitude":15.3647,"longitude":75.124,"temp":25.7,"humidity":69,"rain":0.0,"pressure":939.8,"uv_index":8.95,"wind_gusts":47.9,"aqi":31,"pm10":13.6,"pm2_5":8.3,"no2":3.6,"co":125.0,"o3":55.0,"so2":1.4,"mosquito_risk":7,"arthritis_risk":5,"migraine_risk":7,"frizz_risk":1,"updated_at":"2026-07-13T18:56:45.872225+05:30"},{"city":"Belgaum","state":"Karnataka","latitude":15.8497,"longitude":74.4977,"temp":23.1,"humidity":85,"rain":0.0,"pressure":924.9,"uv_index":9.0,"wind_gusts":46.4,"aqi":28,"pm10":15.9,"pm2_5":9.7,"no2":3.9,"co":118.0,"o3":49.0,"so2":1.6,"mosquito_risk":3,"arthritis_risk":5,"migraine_risk":7,"frizz_risk":1,"updated_at":"2026-07-13T18:56:49.121077+05:30"},{"city":"Coimbatore","state":"Tamil Nadu","latitude":11.0168,"longitude":76.9558,"temp":27.0,"humidity":77,"rain":0.0,"pressure":960.1,"uv_index":8.1,"wind_gusts":55.1,"aqi":44,"pm10":14.9,"pm2_5":9.1,"no2":4.9,"co":152.0,"o3":59.0,"so2":2.5,"mosquito_risk":7,"arthritis_risk":5,"migraine_risk":7,"frizz_risk":1,"updated_at":"2026-07-13T18:56:49.121116+05:30"},{"city":"Madurai","state":"Tamil Nadu","latitude":9.9252,"longitude":78.1198,"temp":34.8,"humidity":43,"rain":0.0,"pressure":989.4,"uv_index":8.2,"wind_gusts":40.0,"aqi":60,"pm10":55.9,"pm2_5":20.3,"no2":6.4,"co":151.0,"o3":92.0,"so2":3.0,"mosquito_risk":0,"arthritis_risk":5,"migraine_risk":7,"frizz_risk":1,"updated_at":"2026-07-13T18:56:49.121128+05:30"},{"city":"Trichy","state":"Tamil Nadu","latitude":10.7905,"longitude":78.7047,"temp":35.6,"humidity":41,"rain":0.0,"pressure":996.0,"uv_index":7.95,"wind_gusts":50.0,"aqi":60,"pm10":36.4,"pm2_5":18.5,"no2":9.0,"co":134.0,"o3":81.0,"so2":3.5,"mosquito_risk":0,"arthritis_risk":5,"migraine_risk":10,"frizz_risk":1,"updated_at":"2026-07-13T18:56:49.121138+05:30"},{"city":"Salem","state":"Tamil Nadu","latitude":11.6643,"longitude":78.146,"temp":32.2,"humidity":48,"rain":0.0,"pressure":974.0,"uv_index":8.35,"wind_gusts":29.2,"aqi":66,"pm10":34.9,"pm2_5":17.5,"no2":7.1,"co":229.0,"o3":84.0,"so2":4.7,"mosquito_risk":0,"arthritis_risk":5,"migraine_risk":7,"frizz_risk":1,"updated_at":"2026-07-13T18:56:49.121146+05:30"},{"city":"Tirunelveli","state":"Tamil Nadu","latitude":8.7139,"longitude":77.7567,"temp":32.8,"humidity":48,"rain":0.0,"pressure":999.7,"uv_index":8.45,"wind_gusts":43.9,"aqi":36,"pm10":14.4,"pm2_5":8.9,"no2":3.2,"co":123.0,"o3":64.0,"so2":1.7,"mosquito_risk":0,"arthritis_risk":5,"migraine_risk":7,"frizz_risk":1,"updated_at":"2026-07-13T18:56:49.121154+05:30"},{"city":"Vellore","state":"Tamil Nadu","latitude":12.9165,"longitude":79.1325,"temp":35.5,"humidity":31,"rain":0.0,"pressure":980.2,"uv_index":8.65,"wind_gusts":42.5,"aqi":69,"pm10":59.4,"pm2_5":32.0,"no2":17.2,"co":158.0,"o3":68.0,"so2":3.7,"mosquito_risk":0,"arthritis_risk":5,"migraine_risk":10,"frizz_risk":0,"updated_at":"2026-07-13T18:56:49.121162+05:30"},{"city":"Erode","state":"Tamil Nadu","latitude":11.341,"longitude":77.7172,"temp":31.1,"humidity":56,"rain":0.0,"pressure":986.4,"uv_index":8.45,"wind_gusts":50.0,"aqi":55,"pm10":22.2,"pm2_5":12.1,"no2":8.5,"co":156.0,"o3":74.0,"so2":2.7,"mosquito_risk":0,"arthritis_risk":5,"migraine_risk":7,"frizz_risk":1,"updated_at":"2026-07-13T18:56:49.121169+05:30"},{"city":"Kochi","state":"Kerala","latitude":9.9312,"longitude":76.2673,"temp":28.1,"humidity":81,"rain":0.0,"pressure":1008.5,"uv_index":8.55,"wind_gusts":42.1,"aqi":49,"pm10":16.1,"pm2_5":10.2,"no2":6.7,"co":124.0,"o3":46.0,"so2":2.6,"mosquito_risk":7,"arthritis_risk":0,"migraine_risk":4,"frizz_risk":1,"updated_at":"2026-07-13T18:56:49.121177+05:30"},{"city":"Thiruvananthapuram","state":"Kerala","latitude":8.5241,"longitude":76.9366,"temp":26.9,"humidity":86,"rain":0.0,"pressure":1007.7,"uv_index":8.35,"wind_gusts":51.5,"aqi":45,"pm10":18.9,"pm2_5":10.2,"no2":3.4,"co":108.0,"o3":51.0,"so2":1.1,"mosquito_risk":7,"arthritis_risk":5,"migraine_risk":4,"frizz_risk":1,"updated_at":"2026-07-13T18:56:49.121185+05:30"},{"city":"Kozhikode","state":"Kerala","latitude":11.2588,"longitude":75.7804,"temp":27.9,"humidity":80,"rain":0.0,"pressure":1007.7,"uv_index":8.55,"wind_gusts":48.2,"aqi":43,"pm10":19.3,"pm2_5":9.6,"no2":1.0,"co":116.0,"o3":53.0,"so2":0.9,"mosquito_risk":7,"arthritis_risk":5,"migraine_risk":4,"frizz_risk":1,"updated_at":"2026-07-13T18:56:49.121191+05:30"},{"city":"Thrissur","state":"Kerala","latitude":10.5276,"longitude":76.2144,"temp":27.7,"humidity":80,"rain":0.0,"pressure":1007.0,"uv_index":8.3,"wind_gusts":41.0,"aqi":47,"pm10":14.7,"pm2_5":9.3,"no2":4.2,"co":136.0,"o3":48.0,"so2":1.9,"mosquito_risk":7,"arthritis_risk":5,"migraine_risk":4,"frizz_risk":1,"updated_at":"2026-07-13T18:56:49.121198+05:30"},{"city":"Kannur","state":"Kerala","latitude":11.8745,"longitude":75.3704,"temp":28.1,"humidity":80,"rain":0.0,"pressure":1007.0,"uv_index":8.45,"wind_gusts":47.5,"aqi":43,"pm10":16.8,"pm2_5":9.3,"no2":3.7,"co":124.0,"o3":47.0,"so2":1.4,"mosquito_risk":7,"arthritis_risk":5,"migraine_risk":4,"frizz_risk":1,"updated_at":"2026-07-13T18:56:49.121206+05:30"},{"city":"Patna","state":"Bihar","latitude":25.5941,"longitude":85.1376,"temp":31.1,"humidity":83,"rain":0.0,"pressure":991.3,"uv_index":7.55,"wind_gusts":32.0,"aqi":149,"pm10":82.0,"pm2_5":57.4,"no2":23.1,"co":338.0,"o3":76.0,"so2":12.6,"mosquito_risk":3,"arthritis_risk":5,"migraine_risk":7,"frizz_risk":1,"updated_at":"2026-07-13T18:56:49.121213+05:30"},{"city":"Gaya","state":"Bihar","latitude":24.7914,"longitude":85.0002,"temp":31.2,"humidity":75,"rain":0.0,"pressure":985.2,"uv_index":5.15,"wind_gusts":35.6,"aqi":127,"pm10":76.6,"pm2_5":48.2,"no2":11.3,"co":296.0,"o3":86.0,"so2":8.2,"mosquito_risk":3,"arthritis_risk":5,"migraine_risk":3,"frizz_risk":1,"updated_at":"2026-07-13T18:56:49.121219+05:30"},{"city":"Muzaffarpur","state":"Bihar","latitude":26.1209,"longitude":85.3647,"temp":29.0,"humidity":85,"rain":0.1,"pressure":991.8,"uv_index":8.05,"wind_gusts":24.1,"aqi":150,"pm10":114.8,"pm2_5":71.2,"no2":20.8,"co":333.0,"o3":86.0,"so2":12.4,"mosquito_risk":10,"arthritis_risk":5,"migraine_risk":7,"frizz_risk":1,"updated_at":"2026-07-13T18:56:49.121243+05:30"},{"city":"Bhagalpur","state":"Bihar","latitude":25.2425,"longitude":87.0117,"temp":28.3,"humidity":91,"rain":0.0,"pressure":993.3,"uv_index":5.25,"wind_gusts":27.0,"aqi":140,"pm10":105.5,"pm2_5":65.4,"no2":22.4,"co":380.0,"o3":70.0,"so2":19.9,"mosquito_risk":7,"arthritis_risk":5,"migraine_risk":3,"frizz_risk":1,"updated_at":"2026-07-13T18:56:49.121251+05:30"},{"city":"Ranchi","state":"Jharkhand","latitude":23.3441,"longitude":85.3096,"temp":27.9,"humidity":76,"rain":0.0,"pressure":931.2,"uv_index":8.3,"wind_gusts":33.1,"aqi":114,"pm10":86.6,"pm2_5":46.7,"no2":13.9,"co":396.0,"o3":83.0,"so2":9.6,"mosquito_risk":7,"arthritis_risk":5,"migraine_risk":7,"frizz_risk":1,"updated_at":"2026-07-13T18:56:49.121259+05:30"},{"city":"Jamshedpur","state":"Jharkhand","latitude":22.8046,"longitude":86.2029,"temp":28.6,"humidity":85,"rain":0.0,"pressure":983.3,"uv_index":8.45,"wind_gusts":29.5,"aqi":134,"pm10":85.0,"pm2_5":52.4,"no2":21.1,"co":319.0,"o3":93.0,"so2":27.6,"mosquito_risk":7,"arthritis_risk":5,"migraine_risk":7,"frizz_risk":1,"updated_at":"2026-07-13T18:56:49.121265+05:30"},{"city":"Dhanbad","state":"Jharkhand","latitude":23.7957,"longitude":86.4304,"temp":27.8,"humidity":89,"rain":0.0,"pressure":972.4,"uv_index":6.1,"wind_gusts":29.5,"aqi":158,"pm10":89.6,"pm2_5":63.6,"no2":39.8,"co":416.0,"o3":55.0,"so2":93.9,"mosquito_risk":7,"arthritis_risk":5,"migraine_risk":7,"frizz_risk":1,"updated_at":"2026-07-13T18:56:49.121273+05:30"},{"city":"Bokaro","state":"Jharkhand","latitude":23.6693,"longitude":86.1511,"temp":28.1,"humidity":91,"rain":0.0,"pressure":976.1,"uv_index":8.05,"wind_gusts":26.6,"aqi":155,"pm10":108.0,"pm2_5":70.5,"no2":33.1,"co":2215.0,"o3":70.0,"so2":95.7,"mosquito_risk":7,"arthritis_risk":5,"migraine_risk":7,"frizz_risk":1,"updated_at":"2026-07-13T18:56:49.121280+05:30"},{"city":"Bhubaneswar","state":"Odisha","latitude":20.2961,"longitude":85.8245,"temp":30.0,"humidity":82,"rain":0.0,"pressure":994.6,"uv_index":6.75,"wind_gusts":34.9,"aqi":105,"pm10":91.5,"pm2_5":57.4,"no2":25.8,"co":404.0,"o3":70.0,"so2":19.7,"mosquito_risk":7,"arthritis_risk":5,"migraine_risk":7,"frizz_risk":1,"updated_at":"2026-07-13T18:56:49.121287+05:30"},{"city":"Cuttack","state":"Odisha","latitude":20.4625,"longitude":85.8828,"temp":30.2,"humidity":82,"rain":0.0,"pressure":996.3,"uv_index":7.9,"wind_gusts":36.0,"aqi":105,"pm10":91.5,"pm2_5":57.4,"no2":25.8,"co":381.0,"o3":70.0,"so2":19.7,"mosquito_risk":3,"arthritis_risk":5,"migraine_risk":7,"frizz_risk":1,"updated_at":"2026-07-13T18:56:49.121295+05:30"},{"city":"Rourkela","state":"Odisha","latitude":22.2604,"longitude":84.8536,"temp":31.2,"humidity":73,"rain":0.0,"pressure":977.0,"uv_index":8.4,"wind_gusts":25.9,"aqi":103,"pm10":90.6,"pm2_5":46.4,"no2":12.1,"co":544.0,"o3":81.0,"so2":5.3,"mosquito_risk":3,"arthritis_risk":5,"migraine_risk":7,"frizz_risk":1,"updated_at":"2026-07-13T18:56:49.121302+05:30"},{"city":"Raipur","state":"Chhattisgarh","latitude":21.2514,"longitude":81.6296,"temp":31.4,"humidity":62,"rain":0.0,"pressure":968.1,"uv_index":7.0,"wind_gusts":39.2,"aqi":115,"pm10":92.9,"pm2_5":47.4,"no2":22.0,"co":257.0,"o3":71.0,"so2":39.6,"mosquito_risk":3,"arthritis_risk":5,"migraine_risk":7,"frizz_risk":1,"updated_at":"2026-07-13T18:56:49.121309+05:30"},{"city":"Bhilai","state":"Chhattisgarh","latitude":21.1938,"longitude":81.3509,"temp":30.6,"humidity":65,"rain":0.0,"pressure":968.9,"uv_index":6.45,"wind_gusts":42.5,"aqi":108,"pm10":95.5,"pm2_5":45.3,"no2":17.5,"co":505.0,"o3":77.0,"so2":32.6,"mosquito_risk":3,"arthritis_risk":5,"migraine_risk":7,"frizz_risk":1,"updated_at":"2026-07-13T18:56:49.121317+05:30"},{"city":"Guwahati","state":"Assam","latitude":26.1158,"longitude":91.7086,"temp":27.3,"humidity":99,"rain":0.1,"pressure":993.4,"uv_index":2.1,"wind_gusts":20.5,"aqi":54,"pm10":18.0,"pm2_5":16.4,"no2":6.3,"co":383.0,"o3":75.0,"so2":2.7,"mosquito_risk":10,"arthritis_risk":5,"migraine_risk":3,"frizz_risk":1,"updated_at":"2026-07-13T18:56:49.121324+05:30"},{"city":"Agartala","state":"Tripura","latitude":23.8315,"longitude":91.2868,"temp":27.9,"humidity":88,"rain":0.0,"pressure":997.9,"uv_index":1.0,"wind_gusts":30.6,"aqi":60,"pm10":20.2,"pm2_5":19.0,"no2":9.7,"co":231.0,"o3":83.0,"so2":2.0,"mosquito_risk":7,"arthritis_risk":5,"migraine_risk":3,"frizz_risk":1,"updated_at":"2026-07-13T18:56:49.121331+05:30"},{"city":"Shillong","state":"Meghalaya","latitude":25.5788,"longitude":91.8933,"temp":21.1,"humidity":90,"rain":0.0,"pressure":852.0,"uv_index":2.2,"wind_gusts":25.6,"aqi":47,"pm10":13.1,"pm2_5":10.7,"no2":7.1,"co":325.0,"o3":70.0,"so2":2.1,"mosquito_risk":3,"arthritis_risk":5,"migraine_risk":3,"frizz_risk":1,"updated_at":"2026-07-13T18:56:49.121338+05:30"},{"city":"Imphal","state":"Manipur","latitude":24.817,"longitude":93.9368,"temp":25.0,"humidity":93,"rain":0.0,"pressure":917.0,"uv_index":7.65,"wind_gusts":26.3,"aqi":40,"pm10":9.7,"pm2_5":9.1,"no2":9.7,"co":311.0,"o3":58.0,"so2":2.4,"mosquito_risk":7,"arthritis_risk":5,"migraine_risk":7,"frizz_risk":1,"updated_at":"2026-07-13T18:56:49.121344+05:30"},{"city":"Aizawl","state":"Mizoram","latitude":23.7271,"longitude":92.7176,"temp":21.7,"humidity":98,"rain":0.1,"pressure":885.7,"uv_index":2.25,"wind_gusts":21.6,"aqi":54,"pm10":6.3,"pm2_5":5.5,"no2":5.9,"co":179.0,"o3":47.0,"so2":0.8,"mosquito_risk":6,"arthritis_risk":5,"migraine_risk":3,"frizz_risk":1,"updated_at":"2026-07-13T18:56:49.121351+05:30"},{"city":"Kohima","state":"Nagaland","latitude":25.6701,"longitude":94.1077,"temp":21.8,"humidity":93,"rain":0.1,"pressure":850.5,"uv_index":8.05,"wind_gusts":27.7,"aqi":38,"pm10":5.9,"pm2_5":5.8,"no2":7.5,"co":245.0,"o3":56.0,"so2":0.9,"mosquito_risk":6,"arthritis_risk":5,"migraine_risk":7,"frizz_risk":1,"updated_at":"2026-07-13T18:56:49.121358+05:30"},{"city":"Gangtok","state":"Sikkim","latitude":27.3314,"longitude":88.6138,"temp":19.1,"humidity":99,"rain":0.0,"pressure":833.3,"uv_index":1.65,"wind_gusts":25.2,"aqi":48,"pm10":5.2,"pm2_5":5.0,"no2":5.6,"co":301.0,"o3":100.0,"so2":1.0,"mosquito_risk":3,"arthritis_risk":10,"migraine_risk":3,"frizz_risk":1,"updated_at":"2026-07-13T18:56:49.121366+05:30"},{"city":"Siliguri","state":"West Bengal","latitude":26.7271,"longitude":88.3953,"temp":27.4,"humidity":82,"rain":0.0,"pressure":985.6,"uv_index":3.95,"wind_gusts":37.1,"aqi":46,"pm10":13.7,"pm2_5":13.5,"no2":9.3,"co":480.0,"o3":107.0,"so2":2.8,"mosquito_risk":7,"arthritis_risk":5,"migraine_risk":3,"frizz_risk":1,"updated_at":"2026-07-13T18:56:52.553264+05:30"},{"city":"Durgapur","state":"West Bengal","latitude":23.5204,"longitude":87.3119,"temp":26.9,"humidity":96,"rain":0.0,"pressure":987.3,"uv_index":6.45,"wind_gusts":34.6,"aqi":153,"pm10":74.7,"pm2_5":51.6,"no2":24.8,"co":1225.0,"o3":67.0,"so2":23.0,"mosquito_risk":7,"arthritis_risk":5,"migraine_risk":7,"frizz_risk":1,"updated_at":"2026-07-13T18:56:52.553304+05:30"},{"city":"Asansol","state":"West Bengal","latitude":23.6739,"longitude":86.9524,"temp":27.9,"humidity":92,"rain":0.0,"pressure":985.9,"uv_index":2.55,"wind_gusts":29.9,"aqi":149,"pm10":75.4,"pm2_5":47.8,"no2":28.4,"co":378.0,"o3":61.0,"so2":24.2,"mosquito_risk":7,"arthritis_risk":5,"migraine_risk":3,"frizz_risk":1,"updated_at":"2026-07-13T18:56:52.553317+05:30"},{"city":"Pondicherry","state":"Puducherry","latitude":11.9139,"longitude":79.8145,"temp":30.8,"humidity":78,"rain":0.0,"pressure":1003.6,"uv_index":8.6,"wind_gusts":47.2,"aqi":63,"pm10":51.0,"pm2_5":30.0,"no2":15.5,"co":188.0,"o3":115.0,"so2":8.2,"mosquito_risk":3,"arthritis_risk":5,"migraine_risk":4,"frizz_risk":1,"updated_at":"2026-07-13T18:56:52.553326+05:30"},{"city":"Port Blair","state":"Andaman and Nicobar Islands","latitude":11.6234,"longitude":92.7265,"temp":28.1,"humidity":81,"rain":0.0,"pressure":1004.1,"uv_index":8.6,"wind_gusts":59.0,"aqi":39,"pm10":19.9,"pm2_5":8.2,"no2":0.6,"co":95.0,"o3":51.0,"so2":0.4,"mosquito_risk":7,"arthritis_risk":5,"migraine_risk":4,"frizz_risk":1,"updated_at":"2026-07-13T18:56:52.553335+05:30"},{"city":"Haridwar","state":"Uttarakhand","latitude":29.9457,"longitude":78.1642,"temp":31.9,"humidity":76,"rain":0.0,"pressure":964.3,"uv_index":7.5,"wind_gusts":30.6,"aqi":180,"pm10":201.2,"pm2_5":89.4,"no2":9.8,"co":333.0,"o3":136.0,"so2":12.5,"mosquito_risk":3,"arthritis_risk":5,"migraine_risk":7,"frizz_risk":1,"updated_at":"2026-07-13T18:56:52.553344+05:30"},{"city":"Rishikesh","state":"Uttarakhand","latitude":30.0869,"longitude":78.2676,"temp":30.7,"humidity":77,"rain":0.0,"pressure":957.3,"uv_index":7.6,"wind_gusts":29.2,"aqi":164,"pm10":193.2,"pm2_5":81.0,"no2":4.7,"co":257.0,"o3":143.0,"so2":9.7,"mosquito_risk":3,"arthritis_risk":5,"migraine_risk":7,"frizz_risk":1,"updated_at":"2026-07-13T18:56:52.553352+05:30"},{"city":"Nainital","state":"Uttarakhand","latitude":29.3919,"longitude":79.4542,"temp":19.7,"humidity":86,"rain":0.0,"pressure":801.2,"uv_index":8.5,"wind_gusts":35.3,"aqi":161,"pm10":162.5,"pm2_5":72.6,"no2":5.4,"co":194.0,"o3":121.0,"so2":7.8,"mosquito_risk":3,"arthritis_risk":10,"migraine_risk":7,"frizz_risk":1,"updated_at":"2026-07-13T18:56:52.553360+05:30"},{"city":"Mussoorie","state":"Uttarakhand","latitude":30.4599,"longitude":78.0664,"temp":19.2,"humidity":92,"rain":0.0,"pressure":798.6,"uv_index":8.0,"wind_gusts":44.6,"aqi":163,"pm10":165.8,"pm2_5":78.2,"no2":9.9,"co":263.0,"o3":142.0,"so2":10.0,"mosquito_risk":3,"arthritis_risk":10,"migraine_risk":7,"frizz_risk":1,"updated_at":"2026-07-13T18:56:52.553369+05:30"},{"city":"Dharamshala","state":"Himachal Pradesh","latitude":32.219,"longitude":76.3234,"temp":23.2,"humidity":84,"rain":0.0,"pressure":863.2,"uv_index":8.4,"wind_gusts":31.3,"aqi":87,"pm10":63.3,"pm2_5":29.2,"no2":6.2,"co":365.0,"o3":116.0,"so2":2.4,"mosquito_risk":3,"arthritis_risk":5,"migraine_risk":7,"frizz_risk":1,"updated_at":"2026-07-13T18:56:52.553377+05:30"},{"city":"Dalhousie","state":"Himachal Pradesh","latitude":32.5387,"longitude":75.971,"temp":18.1,"humidity":83,"rain":0.0,"pressure":799.7,"uv_index":8.65,"wind_gusts":28.1,"aqi":123,"pm10":100.6,"pm2_5":52.2,"no2":14.5,"co":514.0,"o3":142.0,"so2":4.2,"mosquito_risk":3,"arthritis_risk":10,"migraine_risk":7,"frizz_risk":0,"updated_at":"2026-07-13T18:56:52.553386+05:30"},{"city":"Patiala","state":"Punjab","latitude":30.3398,"longitude":76.3869,"temp":32.1,"humidity":73,"rain":0.0,"pressure":968.2,"uv_index":7.5,"wind_gusts":37.1,"aqi":167,"pm10":239.3,"pm2_5":89.2,"no2":12.4,"co":394.0,"o3":118.0,"so2":7.2,"mosquito_risk":3,"arthritis_risk":5,"migraine_risk":7,"frizz_risk":1,"updated_at":"2026-07-13T18:56:52.553394+05:30"},{"city":"Bhatinda","state":"Punjab","latitude":30.211,"longitude":74.9455,"temp":35.9,"humidity":44,"rain":0.0,"pressure":973.4,"uv_index":8.25,"wind_gusts":27.0,"aqi":169,"pm10":326.9,"pm2_5":103.6,"no2":12.8,"co":317.0,"o3":136.0,"so2":17.4,"mosquito_risk":0,"arthritis_risk":5,"migraine_risk":10,"frizz_risk":1,"updated_at":"2026-07-13T18:56:52.553401+05:30"},{"city":"Rohtak","state":"Haryana","latitude":28.8955,"longitude":76.6066,"temp":33.7,"humidity":67,"rain":0.0,"pressure":971.6,"uv_index":7.55,"wind_gusts":27.7,"aqi":623,"pm10":339.9,"pm2_5":91.7,"no2":25.2,"co":292.0,"o3":83.0,"so2":5.4,"mosquito_risk":3,"arthritis_risk":5,"migraine_risk":7,"frizz_risk":1,"updated_at":"2026-07-13T18:56:52.553408+05:30"},{"city":"Panipat","state":"Haryana","latitude":29.3909,"longitude":76.9635,"temp":32.8,"humidity":74,"rain":0.0,"pressure":970.3,"uv_index":7.5,"wind_gusts":32.0,"aqi":584,"pm10":335.3,"pm2_5":96.4,"no2":19.6,"co":249.0,"o3":97.0,"so2":12.2,"mosquito_risk":3,"arthritis_risk":5,"migraine_risk":7,"frizz_risk":1,"updated_at":"2026-07-13T18:56:52.553415+05:30"},{"city":"Mathura","state":"Uttar Pradesh","latitude":27.4924,"longitude":77.6737,"temp":32.9,"humidity":65,"rain":0.0,"pressure":977.2,"uv_index":7.2,"wind_gusts":37.4,"aqi":702,"pm10":821.4,"pm2_5":121.5,"no2":10.6,"co":214.0,"o3":90.0,"so2":3.4,"mosquito_risk":3,"arthritis_risk":5,"migraine_risk":7,"frizz_risk":1,"updated_at":"2026-07-13T18:56:52.553423+05:30"},{"city":"Vrindavan","state":"Uttar Pradesh","latitude":27.5823,"longitude":77.7027,"temp":33.0,"humidity":63,"rain":0.0,"pressure":977.6,"uv_index":7.3,"wind_gusts":36.7,"aqi":702,"pm10":821.4,"pm2_5":121.5,"no2":10.6,"co":209.0,"o3":90.0,"so2":3.4,"mosquito_risk":3,"arthritis_risk":5,"migraine_risk":7,"frizz_risk":1,"updated_at":"2026-07-13T18:56:52.553429+05:30"},{"city":"Ayodhya","state":"Uttar Pradesh","latitude":26.7922,"longitude":82.1998,"temp":32.2,"humidity":74,"rain":0.0,"pressure":985.4,"uv_index":7.9,"wind_gusts":28.1,"aqi":140,"pm10":103.4,"pm2_5":54.2,"no2":7.5,"co":241.0,"o3":97.0,"so2":5.2,"mosquito_risk":3,"arthritis_risk":5,"migraine_risk":7,"frizz_risk":1,"updated_at":"2026-07-13T18:56:52.553436+05:30"},{"city":"Ratlam","state":"Madhya Pradesh","latitude":23.3315,"longitude":75.0367,"temp":29.4,"humidity":60,"rain":0.0,"pressure":949.4,"uv_index":8.5,"wind_gusts":53.3,"aqi":61,"pm10":42.4,"pm2_5":22.1,"no2":2.6,"co":124.0,"o3":86.0,"so2":4.3,"mosquito_risk":4,"arthritis_risk":5,"migraine_risk":7,"frizz_risk":1,"updated_at":"2026-07-13T18:56:52.553444+05:30"},{"city":"Sagar","state":"Madhya Pradesh","latitude":23.8388,"longitude":78.7378,"temp":29.0,"humidity":65,"rain":0.0,"pressure":944.2,"uv_index":6.95,"wind_gusts":43.6,"aqi":86,"pm10":115.7,"pm2_5":40.5,"no2":2.8,"co":150.0,"o3":89.0,"so2":3.5,"mosquito_risk":7,"arthritis_risk":5,"migraine_risk":7,"frizz_risk":1,"updated_at":"2026-07-13T18:56:52.553451+05:30"},{"city":"Satna","state":"Madhya Pradesh","latitude":24.6005,"longitude":80.8322,"temp":31.1,"humidity":69,"rain":0.0,"pressure":963.8,"uv_index":8.0,"wind_gusts":42.5,"aqi":95,"pm10":61.0,"pm2_5":30.3,"no2":4.9,"co":152.0,"o3":81.0,"so2":3.6,"mosquito_risk":3,"arthritis_risk":5,"migraine_risk":7,"frizz_risk":1,"updated_at":"2026-07-13T18:56:52.553459+05:30"},{"city":"Akola","state":"Maharashtra","latitude":20.7002,"longitude":77.0082,"temp":31.4,"humidity":58,"rain":0.0,"pressure":970.4,"uv_index":8.7,"wind_gusts":47.5,"aqi":60,"pm10":25.0,"pm2_5":13.9,"no2":4.5,"co":143.0,"o3":84.0,"so2":5.6,"mosquito_risk":0,"arthritis_risk":5,"migraine_risk":7,"frizz_risk":1,"updated_at":"2026-07-13T18:56:52.553467+05:30"},{"city":"Amravati","state":"Maharashtra","latitude":20.9374,"longitude":77.7796,"temp":30.9,"humidity":55,"rain":0.0,"pressure":962.3,"uv_index":7.7,"wind_gusts":53.6,"aqi":64,"pm10":29.0,"pm2_5":15.4,"no2":5.0,"co":144.0,"o3":85.0,"so2":6.3,"mosquito_risk":0,"arthritis_risk":5,"migraine_risk":7,"frizz_risk":1,"updated_at":"2026-07-13T18:56:52.553475+05:30"},{"city":"Latur","state":"Maharashtra","latitude":18.4088,"longitude":76.5604,"temp":29.8,"humidity":53,"rain":0.0,"pressure":937.0,"uv_index":8.85,"wind_gusts":47.5,"aqi":45,"pm10":17.1,"pm2_5":11.3,"no2":2.5,"co":151.0,"o3":87.0,"so2":2.5,"mosquito_risk":4,"arthritis_risk":5,"migraine_risk":7,"frizz_risk":1,"updated_at":"2026-07-13T18:56:52.553482+05:30"},{"city":"Nanded","state":"Maharashtra","latitude":19.1383,"longitude":77.3091,"temp":30.9,"humidity":60,"rain":0.0,"pressure":964.5,"uv_index":8.55,"wind_gusts":43.9,"aqi":56,"pm10":20.4,"pm2_5":13.5,"no2":4.1,"co":176.0,"o3":86.0,"so2":3.3,"mosquito_risk":0,"arthritis_risk":5,"migraine_risk":7,"frizz_risk":1,"updated_at":"2026-07-13T18:56:52.553489+05:30"},{"city":"Gulbarga","state":"Karnataka","latitude":17.3297,"longitude":76.8343,"temp":31.0,"humidity":48,"rain":0.0,"pressure":955.6,"uv_index":8.8,"wind_gusts":48.6,"aqi":47,"pm10":14.9,"pm2_5":10.0,"no2":4.2,"co":162.0,"o3":80.0,"so2":2.2,"mosquito_risk":0,"arthritis_risk":5,"migraine_risk":7,"frizz_risk":1,"updated_at":"2026-07-13T18:56:52.553496+05:30"},{"city":"Bidar","state":"Karnataka","latitude":17.9104,"longitude":77.5199,"temp":29.4,"humidity":57,"rain":0.0,"pressure":932.5,"uv_index":8.95,"wind_gusts":46.1,"aqi":53,"pm10":17.6,"pm2_5":11.9,"no2":6.2,"co":156.0,"o3":80.0,"so2":2.2,"mosquito_risk":4,"arthritis_risk":5,"migraine_risk":7,"frizz_risk":1,"updated_at":"2026-07-13T18:56:52.553503+05:30"},{"city":"Hospet","state":"Karnataka","latitude":15.2689,"longitude":76.3909,"temp":29.8,"humidity":51,"rain":0.0,"pressure":953.7,"uv_index":8.9,"wind_gusts":47.5,"aqi":39,"pm10":18.3,"pm2_5":9.6,"no2":3.4,"co":126.0,"o3":71.0,"so2":1.8,"mosquito_risk":4,"arthritis_risk":5,"migraine_risk":7,"frizz_risk":1,"updated_at":"2026-07-13T18:56:52.553511+05:30"},{"city":"Tirupur","state":"Tamil Nadu","latitude":11.1085,"longitude":77.3411,"temp":28.3,"humidity":72,"rain":0.0,"pressure":973.0,"uv_index":8.15,"wind_gusts":57.2,"aqi":57,"pm10":24.0,"pm2_5":13.1,"no2":9.6,"co":144.0,"o3":68.0,"so2":3.4,"mosquito_risk":7,"arthritis_risk":5,"migraine_risk":7,"frizz_risk":1,"updated_at":"2026-07-13T18:56:52.553517+05:30"},{"city":"Alappuzha","state":"Kerala","latitude":9.4981,"longitude":76.3388,"temp":28.3,"humidity":81,"rain":0.0,"pressure":1008.6,"uv_index":8.5,"wind_gusts":43.6,"aqi":49,"pm10":17.6,"pm2_5":10.1,"no2":5.3,"co":86.0,"o3":51.0,"so2":2.1,"mosquito_risk":7,"arthritis_risk":0,"migraine_risk":4,"frizz_risk":1,"updated_at":"2026-07-13T18:56:52.553524+05:30"},{"city":"Munnar","state":"Kerala","latitude":10.0889,"longitude":77.0595,"temp":18.0,"humidity":100,"rain":0.1,"pressure":856.4,"uv_index":8.7,"wind_gusts":35.3,"aqi":30,"pm10":13.6,"pm2_5":8.4,"no2":5.6,"co":110.0,"o3":53.0,"so2":1.6,"mosquito_risk":6,"arthritis_risk":10,"migraine_risk":7,"frizz_risk":1,"updated_at":"2026-07-13T18:56:52.553531+05:30"},{"city":"Silchar","state":"Assam","latitude":24.8333,"longitude":92.7789,"temp":29.8,"humidity":85,"rain":0.1,"pressure":996.3,"uv_index":4.2,"wind_gusts":19.4,"aqi":72,"pm10":28.1,"pm2_5":23.3,"no2":7.6,"co":345.0,"o3":84.0,"so2":5.1,"mosquito_risk":10,"arthritis_risk":5,"migraine_risk":3,"frizz_risk":1,"updated_at":"2026-07-13T18:56:52.553538+05:30"},{"city":"Dibrugarh","state":"Assam","latitude":27.4728,"longitude":94.912,"temp":28.8,"humidity":87,"rain":0.0,"pressure":986.7,"uv_index":8.9,"wind_gusts":20.2,"aqi":45,"pm10":13.8,"pm2_5":13.6,"no2":8.3,"co":245.0,"o3":77.0,"so2":2.1,"mosquito_risk":7,"arthritis_risk":5,"migraine_risk":7,"frizz_risk":1,"updated_at":"2026-07-13T18:56:52.553545+05:30"}]