[{"city":"Delhi","state":"Delhi","latitude":28.6139,"longitude":77.209,"temp":19.6,"humidity":87,"rain":0.0,"pressure":987.0,"uv_index":6.55,"wind_gusts":26.3,"aqi":152,"pm10":106.4,"pm2_5":84.5,"mosquito_risk":3,"arthritis_risk":10,"migraine_risk":7,"frizz_risk":1,"updated_at":"2026-03-24T02:10:35.901917+05:30"},{"city":"Mumbai","state":"Maharashtra","latitude":19.076,"longitude":72.8777,"temp":28.5,"humidity":72,"rain":0.0,"pressure":1008.9,"uv_index":7.95,"wind_gusts":27.0,"aqi":98,"pm10":49.4,"pm2_5":32.0,"mosquito_risk":7,"arthritis_risk":0,"migraine_risk":4,"frizz_risk":1,"updated_at":"2026-03-24T02:10:35.901959+05:30"},{"city":"Bangalore","state":"Karnataka","latitude":12.9716,"longitude":77.5946,"temp":22.2,"humidity":77,"rain":0.0,"pressure":911.6,"uv_index":9.5,"wind_gusts":38.9,"aqi":86,"pm10":32.4,"pm2_5":27.9,"mosquito_risk":3,"arthritis_risk":5,"migraine_risk":7,"frizz_risk":1,"updated_at":"2026-03-24T02:10:35.901974+05:30"},{"city":"Hyderabad","state":"Telangana","latitude":17.385,"longitude":78.4867,"temp":24.5,"humidity":70,"rain":0.0,"pressure":953.5,"uv_index":8.95,"wind_gusts":20.2,"aqi":88,"pm10":29.9,"pm2_5":25.4,"mosquito_risk":3,"arthritis_risk":5,"migraine_risk":7,"frizz_risk":1,"updated_at":"2026-03-24T02:10:35.901984+05:30"},{"city":"Chennai","state":"Tamil Nadu","latitude":13.0827,"longitude":80.2707,"temp":26.5,"humidity":78,"rain":0.0,"pressure":1008.2,"uv_index":9.25,"wind_gusts":33.5,"aqi":35,"pm10":12.6,"pm2_5":7.9,"mosquito_risk":7,"arthritis_risk":0,"migraine_risk":4,"frizz_risk":1,"updated_at":"2026-03-24T02:10:35.901993+05:30"},{"city":"Kolkata","state":"West Bengal","latitude":22.5726,"longitude":88.3639,"temp":22.3,"humidity":94,"rain":0.0,"pressure":1008.9,"uv_index":8.3,"wind_gusts":20.9,"aqi":152,"pm10":48.9,"pm2_5":44.0,"mosquito_risk":3,"arthritis_risk":0,"migraine_risk":4,"frizz_risk":1,"updated_at":"2026-03-24T02:10:35.902002+05:30"},{"city":"Pune","state":"Maharashtra","latitude":18.5204,"longitude":73.8567,"temp":23.4,"humidity":57,"rain":0.0,"pressure":948.8,"uv_index":8.5,"wind_gusts":28.1,"aqi":81,"pm10":39.2,"pm2_5":34.7,"mosquito_risk":0,"arthritis_risk":5,"migraine_risk":7,"frizz_risk":0,"updated_at":"2026-03-24T02:10:35.902013+05:30"},{"city":"Ahmedabad","state":"Gujarat","latitude":23.0225,"longitude":72.5714,"temp":24.5,"humidity":64,"rain":0.0,"pressure":1003.7,"uv_index":7.75,"wind_gusts":15.5,"aqi":82,"pm10":41.9,"pm2_5":30.6,"mosquito_risk":3,"arthritis_risk":5,"migraine_risk":4,"frizz_risk":1,"updated_at":"2026-03-24T02:10:35.902021+05:30"},{"city":"Jaipur","state":"Rajasthan","latitude":26.9124,"longitude":75.7873,"temp":20.7,"humidity":78,"rain":0.0,"pressure":962.3,"uv_index":7.25,"wind_gusts":14.8,"aqi":119,"pm10":143.9,"pm2_5":51.8,"mosquito_risk":3,"arthritis_risk":5,"migraine_risk":7,"frizz_risk":1,"updated_at":"2026-03-24T02:10:35.902028+05:30"},{"city":"Lucknow","state":"Uttar Pradesh","latitude":26.8467,"longitude":80.9462,"temp":20.9,"humidity":76,"rain":0.0,"pressure":997.4,"uv_index":7.1,"wind_gusts":29.2,"aqi":150,"pm10":81.3,"pm2_5":49.1,"mosquito_risk":3,"arthritis_risk":5,"migraine_risk":7,"frizz_risk":1,"updated_at":"2026-03-24T02:10:35.902037+05:30"},{"city":"Kanpur","state":"Uttar Pradesh","latitude":26.4499,"longitude":80.3319,"temp":20.0,"humidity":80,"rain":0.0,"pressure":995.9,"uv_index":7.0,"wind_gusts":26.3,"aqi":201,"pm10":175.6,"pm2_5":56.2,"mosquito_risk":3,"arthritis_risk":5,"migraine_risk":7,"frizz_risk":1,"updated_at":"2026-03-24T02:10:35.902044+05:30"},{"city":"Chandigarh","state":"Chandigarh","latitude":30.7333,"longitude":76.7794,"temp":17.3,"humidity":77,"rain":0.0,"pressure":972.3,"uv_index":6.5,"wind_gusts":34.9,"aqi":101,"pm10":56.8,"pm2_5":51.9,"mosquito_risk":3,"arthritis_risk":5,"migraine_risk":7,"frizz_risk":0,"updated_at":"2026-03-24T02:10:35.902052+05:30"},{"city":"Srinagar","state":"Jammu and Kashmir","latitude":34.0837,"longitude":74.7973,"temp":7.2,"humidity":94,"rain":0.0,"pressure":842.2,"uv_index":7.55,"wind_gusts":15.1,"aqi":88,"pm10":44.0,"pm2_5":40.9,"mosquito_risk":3,"arthritis_risk":10,"migraine_risk":7,"frizz_risk":0,"updated_at":"2026-03-24T02:10:35.902060+05:30"},{"city":"Jammu","state":"Jammu and Kashmir","latitude":32.7266,"longitude":74.857,"temp":17.5,"humidity":75,"rain":0.0,"pressure":976.2,"uv_index":7.2,"wind_gusts":32.4,"aqi":84,"pm10":33.1,"pm2_5":31.4,"mosquito_risk":3,"arthritis_risk":5,"migraine_risk":7,"frizz_risk":0,"updated_at":"2026-03-24T02:10:35.902067+05:30"},{"city":"Amritsar","state":"Punjab","latitude":31.634,"longitude":74.8723,"temp":17.9,"humidity":82,"rain":0.0,"pressure":984.4,"uv_index":7.15,"wind_gusts":27.0,"aqi":122,"pm10":56.5,"pm2_5":48.0,"mosquito_risk":3,"arthritis_risk":10,"migraine_risk":7,"frizz_risk":0,"updated_at":"2026-03-24T02:10:35.902074+05:30"},{"city":"Ludhiana","state":"Punjab","latitude":30.901,"longitude":75.8573,"temp":18.1,"humidity":79,"rain":0.0,"pressure":982.6,"uv_index":6.65,"wind_gusts":31.0,"aqi":145,"pm10":97.8,"pm2_5":82.9,"mosquito_risk":3,"arthritis_risk":5,"migraine_risk":7,"frizz_risk":0,"updated_at":"2026-03-24T02:10:35.902081+05:30"},{"city":"Jalandhar","state":"Punjab","latitude":31.326,"longitude":75.5762,"temp":17.3,"humidity":87,"rain":0.0,"pressure":983.7,"uv_index":6.95,"wind_gusts":30.6,"aqi":133,"pm10":69.4,"pm2_5":61.5,"mosquito_risk":3,"arthritis_risk":10,"migraine_risk":7,"frizz_risk":0,"updated_at":"2026-03-24T02:10:35.902090+05:30"},{"city":"Dehradun","state":"Uttarakhand","latitude":30.6284,"longitude":78.0322,"temp":9.3,"humidity":84,"rain":0.0,"pressure":829.1,"uv_index":6.95,"wind_gusts":34.2,"aqi":61,"pm10":24.4,"pm2_5":20.5,"mosquito_risk":3,"arthritis_risk":10,"migraine_risk":7,"frizz_risk":0,"updated_at":"2026-03-24T02:10:35.902097+05:30"},{"city":"Shimla","state":"Himachal Pradesh","latitude":31.1048,"longitude":77.1734,"temp":7.5,"humidity":84,"rain":0.0,"pressure":782.3,"uv_index":7.0,"wind_gusts":50.4,"aqi":76,"pm10":40.7,"pm2_5":36.0,"mosquito_risk":3,"arthritis_risk":10,"migraine_risk":7,"frizz_risk":0,"updated_at":"2026-03-24T02:10:35.902104+05:30"},{"city":"Manali","state":"Himachal Pradesh","latitude":32.2396,"longitude":77.1887,"temp":9.8,"humidity":55,"rain":0.0,"pressure":817.2,"uv_index":9.15,"wind_gusts":27.7,"aqi":63,"pm10":16.6,"pm2_5":14.1,"mosquito_risk":0,"arthritis_risk":5,"migraine_risk":7,"frizz_risk":0,"updated_at":"2026-03-24T02:10:35.902111+05:30"},{"city":"Gurgaon","state":"Haryana","latitude":28.4595,"longitude":77.0266,"temp":19.1,"humidity":91,"rain":0.0,"pressure":985.3,"uv_index":6.65,"wind_gusts":24.5,"aqi":156,"pm10":131.8,"pm2_5":89.2,"mosquito_risk":3,"arthritis_risk":10,"migraine_risk":7,"frizz_risk":1,"updated_at":"2026-03-24T02:10:35.902117+05:30"},{"city":"Noida","state":"Uttar Pradesh","latitude":28.5355,"longitude":77.391,"temp":19.3,"humidity":89,"rain":0.0,"pressure":988.6,"uv_index":6.55,"wind_gusts":25.2,"aqi":156,"pm10":131.8,"pm2_5":89.2,"mosquito_risk":3,"arthritis_risk":10,"migraine_risk":7,"frizz_risk":1,"updated_at":"2026-03-24T02:10:35.902124+05:30"},{"city":"Ghaziabad","state":"Uttar Pradesh","latitude":28.6692,"longitude":77.4538,"temp":18.4,"humidity":91,"rain":0.0,"pressure":986.8,"uv_index":6.25,"wind_gusts":25.2,"aqi":152,"pm10":99.9,"pm2_5":83.8,"mosquito_risk":3,"arthritis_risk":10,"migraine_risk":7,"frizz_risk":1,"updated_at":"2026-03-24T02:10:35.902130+05:30"},{"city":"Faridabad","state":"Haryana","latitude":28.4089,"longitude":77.3178,"temp":18.7,"humidity":89,"rain":0.0,"pressure":987.8,"uv_index":6.6,"wind_gusts":23.0,"aqi":156,"pm10":131.8,"pm2_5":89.2,"mosquito_risk":3,"arthritis_risk":10,"migraine_risk":7,"frizz_risk":1,"updated_at":"2026-03-24T02:10:35.902137+05:30"},{"city":"Meerut","state":"Uttar Pradesh","latitude":28.9845,"longitude":77.7064,"temp":17.3,"humidity":94,"rain":0.0,"pressure":985.5,"uv_index":6.45,"wind_gusts":27.4,"aqi":152,"pm10":99.9,"pm2_5":83.8,"mosquito_risk":3,"arthritis_risk":10,"migraine_risk":7,"frizz_risk":1,"updated_at":"2026-03-24T02:10:35.902144+05:30"},{"city":"Agra","state":"Uttar Pradesh","latitude":27.1767,"longitude":78.0081,"temp":18.8,"humidity":91,"rain":0.0,"pressure":991.7,"uv_index":6.45,"wind_gusts":23.0,"aqi":174,"pm10":151.3,"pm2_5":68.5,"mosquito_risk":3,"arthritis_risk":10,"migraine_risk":7,"frizz_risk":1,"updated_at":"2026-03-24T02:10:35.902150+05:30"},{"city":"Varanasi","state":"Uttar Pradesh","latitude":25.3176,"longitude":82.9739,"temp":21.3,"humidity":68,"rain":0.0,"pressure":1001.4,"uv_index":7.7,"wind_gusts":24.1,"aqi":120,"pm10":113.2,"pm2_5":55.4,"mosquito_risk":3,"arthritis_risk":5,"migraine_risk":4,"frizz_risk":0,"updated_at":"2026-03-24T02:10:35.902159+05:30"},{"city":"Prayagraj","state":"Uttar Pradesh","latitude":25.4358,"longitude":81.8463,"temp":22.1,"humidity":68,"rain":0.0,"pressure":999.5,"uv_index":7.6,"wind_gusts":21.2,"aqi":120,"pm10":63.8,"pm2_5":41.8,"mosquito_risk":3,"arthritis_risk":5,"migraine_risk":7,"frizz_risk":0,"updated_at":"2026-03-24T02:10:35.902169+05:30"},{"city":"Gorakhpur","state":"Uttar Pradesh","latitude":26.7606,"longitude":83.3732,"temp":20.0,"humidity":84,"rain":0.0,"pressure":1000.6,"uv_index":7.45,"wind_gusts":31.7,"aqi":138,"pm10":68.2,"pm2_5":48.1,"mosquito_risk":3,"arthritis_risk":5,"migraine_risk":4,"frizz_risk":1,"updated_at":"2026-03-24T02:10:35.902176+05:30"},{"city":"Bareilly","state":"Uttar Pradesh","latitude":28.367,"longitude":79.4304,"temp":18.2,"humidity":97,"rain":0.0,"pressure":991.1,"uv_index":6.8,"wind_gusts":27.0,"aqi":106,"pm10":69.6,"pm2_5":41.3,"mosquito_risk":3,"arthritis_risk":10,"migraine_risk":7,"frizz_risk":1,"updated_at":"2026-03-24T02:10:35.902183+05:30"},{"city":"Aligarh","state":"Uttar Pradesh","latitude":27.8974,"longitude":78.088,"temp":18.1,"humidity":94,"rain":0.0,"pressure":989.5,"uv_index":6.7,"wind_gusts":21.6,"aqi":151,"pm10":185.3,"pm2_5":80.6,"mosquito_risk":3,"arthritis_risk":10,"migraine_risk":7,"frizz_risk":1,"updated_at":"2026-03-24T02:10:35.902189+05:30"},{"city":"Moradabad","state":"Uttar Pradesh","latitude":28.8386,"longitude":78.7733,"temp":17.5,"humidity":95,"rain":0.0,"pressure":987.7,"uv_index":6.6,"wind_gusts":28.4,"aqi":128,"pm10":78.5,"pm2_5":65.9,"mosquito_risk":3,"arthritis_risk":10,"migraine_risk":7,"frizz_risk":1,"updated_at":"2026-03-24T02:10:35.902196+05:30"},{"city":"Saharanpur","state":"Uttar Pradesh","latitude":29.9637,"longitude":77.546,"temp":16.0,"humidity":97,"rain":0.0,"pressure":979.8,"uv_index":6.25,"wind_gusts":36.4,"aqi":150,"pm10":99.9,"pm2_5":83.1,"mosquito_risk":3,"arthritis_risk":10,"migraine_risk":7,"frizz_risk":0,"updated_at":"2026-03-24T02:10:35.902202+05:30"},{"city":"Jhansi","state":"Uttar Pradesh","latitude":25.4484,"longitude":78.5685,"temp":20.8,"humidity":76,"rain":0.0,"pressure":980.7,"uv_index":7.55,"wind_gusts":26.6,"aqi":85,"pm10":104.5,"pm2_5":45.3,"mosquito_risk":3,"arthritis_risk":5,"migraine_risk":7,"frizz_risk":1,"updated_at":"2026-03-24T02:10:39.164034+05:30"},{"city":"Surat","state":"Gujarat","latitude":21.1702,"longitude":72.8311,"temp":25.3,"humidity":84,"rain":0.0,"pressure":1007.8,"uv_index":7.05,"wind_gusts":20.5,"aqi":130,"pm10":72.9,"pm2_5":59.5,"mosquito_risk":7,"arthritis_risk":5,"migraine_risk":4,"frizz_risk":1,"updated_at":"2026-03-24T02:10:39.164063+05:30"},{"city":"Vadodara","state":"Gujarat","latitude":22.3072,"longitude":73.1812,"temp":25.3,"humidity":54,"rain":0.0,"pressure":1005.6,"uv_index":7.7,"wind_gusts":20.9,"aqi":90,"pm10":64.7,"pm2_5":42.4,"mosquito_risk":4,"arthritis_risk":5,"migraine_risk":4,"frizz_risk":0,"updated_at":"2026-03-24T02:10:39.164073+05:30"},{"city":"Rajkot","state":"Gujarat","latitude":22.3039,"longitude":70.8022,"temp":22.5,"humidity":69,"rain":0.0,"pressure":996.1,"uv_index":7.3,"wind_gusts":21.2,"aqi":65,"pm10":8.9,"pm2_5":7.8,"mosquito_risk":3,"arthritis_risk":5,"migraine_risk":7,"frizz_risk":1,"updated_at":"2026-03-24T02:10:39.164082+05:30"},{"city":"Thane","state":"Maharashtra","latitude":19.2183,"longitude":72.9781,"temp":26.0,"humidity":71,"rain":0.0,"pressure":1008.3,"uv_index":7.75,"wind_gusts":41.8,"aqi":98,"pm10":49.4,"pm2_5":32.0,"mosquito_risk":7,"arthritis_risk":0,"migraine_risk":4,"frizz_risk":1,"updated_at":"2026-03-24T02:10:39.164090+05:30"},{"city":"Nagpur","state":"Maharashtra","latitude":21.1458,"longitude":79.0882,"temp":23.6,"humidity":56,"rain":0.0,"pressure":973.8,"uv_index":8.45,"wind_gusts":21.2,"aqi":79,"pm10":68.7,"pm2_5":60.1,"mosquito_risk":0,"arthritis_risk":5,"migraine_risk":7,"frizz_risk":0,"updated_at":"2026-03-24T02:10:39.164097+05:30"},{"city":"Nashik","state":"Maharashtra","latitude":19.9975,"longitude":73.7898,"temp":24.0,"humidity":58,"rain":0.0,"pressure":946.5,"uv_index":8.05,"wind_gusts":31.3,"aqi":60,"pm10":50.3,"pm2_5":27.6,"mosquito_risk":0,"arthritis_risk":5,"migraine_risk":7,"frizz_risk":0,"updated_at":"2026-03-24T02:10:39.164105+05:30"},{"city":"Aurangabad","state":"Maharashtra","latitude":19.8762,"longitude":75.3433,"temp":24.9,"humidity":46,"rain":0.0,"pressure":944.5,"uv_index":8.55,"wind_gusts":23.8,"aqi":63,"pm10":31.3,"pm2_5":22.6,"mosquito_risk":0,"arthritis_risk":5,"migraine_risk":7,"frizz_risk":0,"updated_at":"2026-03-24T02:10:39.164112+05:30"},{"city":"Solapur","state":"Maharashtra","latitude":17.6599,"longitude":75.9064,"temp":25.6,"humidity":55,"rain":0.0,"pressure":956.9,"uv_index":8.8,"wind_gusts":20.9,"aqi":89,"pm10":44.7,"pm2_5":36.7,"mosquito_risk":4,"arthritis_risk":5,"migraine_risk":7,"frizz_risk":0,"updated_at":"2026-03-24T02:10:39.164120+05:30"},{"city":"Kolhapur","state":"Maharashtra","latitude":16.705,"longitude":74.2433,"temp":19.8,"humidity":89,"rain":0.0,"pressure":947.6,"uv_index":8.95,"wind_gusts":43.9,"aqi":107,"pm10":68.7,"pm2_5":64.3,"mosquito_risk":3,"arthritis_risk":10,"migraine_risk":7,"frizz_risk":1,"updated_at":"2026-03-24T02:10:39.164127+05:30"},{"city":"Goa","state":"Goa","latitude":15.2993,"longitude":74.124,"temp":27.9,"humidity":81,"rain":0.0,"pressure":998.2,"uv_index":8.9,"wind_gusts":30.6,"aqi":84,"pm10":52.4,"pm2_5":38.6,"mosquito_risk":7,"arthritis_risk":5,"migraine_risk":7,"frizz_risk":1,"updated_at":"2026-03-24T02:10:39.164135+05:30"},{"city":"Jodhpur","state":"Rajasthan","latitude":26.2389,"longitude":73.0243,"temp":25.4,"humidity":46,"rain":0.0,"pressure":984.9,"uv_index":7.1,"wind_gusts":15.1,"aqi":75,"pm10":48.1,"pm2_5":20.0,"mosquito_risk":4,"arthritis_risk":5,"migraine_risk":7,"frizz_risk":0,"updated_at":"2026-03-24T02:10:39.164142+05:30"},{"city":"Udaipur","state":"Rajasthan","latitude":24.5854,"longitude":73.7125,"temp":21.4,"humidity":59,"rain":0.0,"pressure":948.2,"uv_index":8.1,"wind_gusts":23.8,"aqi":60,"pm10":49.8,"pm2_5":21.5,"mosquito_risk":0,"arthritis_risk":5,"migraine_risk":7,"frizz_risk":0,"updated_at":"2026-03-24T02:10:39.164149+05:30"},{"city":"Kota","state":"Rajasthan","latitude":25.2138,"longitude":75.8648,"temp":20.5,"humidity":85,"rain":0.0,"pressure":981.0,"uv_index":7.65,"wind_gusts":15.1,"aqi":81,"pm10":101.5,"pm2_5":38.3,"mosquito_risk":3,"arthritis_risk":5,"migraine_risk":7,"frizz_risk":1,"updated_at":"2026-03-24T02:10:39.164156+05:30"},{"city":"Bikaner","state":"Rajasthan","latitude":28.0229,"longitude":73.3119,"temp":25.6,"humidity":50,"rain":0.0,"pressure":984.1,"uv_index":7.15,"wind_gusts":19.1,"aqi":71,"pm10":40.6,"pm2_5":18.9,"mosquito_risk":4,"arthritis_risk":5,"migraine_risk":7,"frizz_risk":0,"updated_at":"2026-03-24T02:10:39.164163+05:30"},{"city":"Ajmer","state":"Rajasthan","latitude":26.4499,"longitude":74.6399,"temp":22.4,"humidity":69,"rain":0.0,"pressure":956.6,"uv_index":7.6,"wind_gusts":23.8,"aqi":70,"pm10":87.5,"pm2_5":35.0,"mosquito_risk":3,"arthritis_risk":5,"migraine_risk":7,"frizz_risk":1,"updated_at":"2026-03-24T02:10:39.164170+05:30"},{"city":"Gwalior","state":"Madhya Pradesh","latitude":26.2183,"longitude":78.1828,"temp":20.3,"humidity":85,"rain":0.0,"pressure":986.7,"uv_index":7.2,"wind_gusts":27.0,"aqi":102,"pm10":88.0,"pm2_5":44.9,"mosquito_risk":3,"arthritis_risk":5,"migraine_risk":7,"frizz_risk":1,"updated_at":"2026-03-24T02:10:39.164177+05:30"},{"city":"Indore","state":"Madhya Pradesh","latitude":22.7196,"longitude":75.8577,"temp":21.4,"humidity":61,"rain":0.0,"pressure":948.7,"uv_index":8.1,"wind_gusts":24.8,"aqi":62,"pm10":27.7,"pm2_5":17.0,"mosquito_risk":3,"arthritis_risk":5,"migraine_risk":7,"frizz_risk":0,"updated_at":"2026-03-24T02:10:39.164184+05:30"},{"city":"Bhopal","state":"Madhya Pradesh","latitude":23.2599,"longitude":77.4126,"temp":21.4,"humidity":63,"rain":0.0,"pressure":955.0,"uv_index":8.05,"wind_gusts":30.6,"aqi":51,"pm10":38.2,"pm2_5":20.0,"mosquito_risk":3,"arthritis_risk":5,"migraine_risk":7,"frizz_risk":0,"updated_at":"2026-03-24T02:10:39.164191+05:30"},{"city":"Jabalpur","state":"Madhya Pradesh","latitude":23.1815,"longitude":79.9864,"temp":23.2,"humidity":56,"rain":0.0,"pressure":963.2,"uv_index":8.15,"wind_gusts":25.9,"aqi":63,"pm10":35.3,"pm2_5":22.7,"mosquito_risk":0,"arthritis_risk":5,"migraine_risk":7,"frizz_risk":0,"updated_at":"2026-03-24T02:10:39.164197+05:30"},{"city":"Ujjain","state":"Madhya Pradesh","latitude":23.1765,"longitude":75.7885,"temp":21.3,"humidity":63,"rain":0.0,"pressure":954.7,"uv_index":8.0,"wind_gusts":16.2,"aqi":74,"pm10":27.6,"pm2_5":17.5,"mosquito_risk":3,"arthritis_risk":5,"migraine_risk":7,"frizz_risk":0,"updated_at":"2026-03-24T02:10:39.164204+05:30"},{"city":"Visakhapatnam","state":"Andhra Pradesh","latitude":17.6868,"longitude":83.2185,"temp":24.8,"humidity":89,"rain":0.0,"pressure":1005.4,"uv_index":8.95,"wind_gusts":36.7,"aqi":91,"pm10":30.4,"pm2_5":23.5,"mosquito_risk":3,"arthritis_risk":5,"migraine_risk":4,"frizz_risk":1,"updated_at":"2026-03-24T02:10:39.164211+05:30"},{"city":"Vijayawada","state":"Andhra Pradesh","latitude":16.5062,"longitude":80.648,"temp":24.3,"humidity":91,"rain":0.0,"pressure":1004.1,"uv_index":9.0,"wind_gusts":23.8,"aqi":66,"pm10":18.9,"pm2_5":14.9,"mosquito_risk":3,"arthritis_risk":5,"migraine_risk":4,"frizz_risk":1,"updated_at":"2026-03-24T02:10:39.164218+05:30"},{"city":"Guntur","state":"Andhra Pradesh","latitude":16.3067,"longitude":80.4365,"temp":24.3,"humidity":92,"rain":0.0,"pressure":1005.2,"uv_index":9.0,"wind_gusts":29.2,"aqi":64,"pm10":19.2,"pm2_5":15.6,"mosquito_risk":3,"arthritis_risk":5,"migraine_risk":4,"frizz_risk":1,"updated_at":"2026-03-24T02:10:39.164225+05:30"},{"city":"Nellore","state":"Andhra Pradesh","latitude":14.4426,"longitude":79.9865,"temp":25.2,"humidity":88,"rain":0.0,"pressure":1007.1,"uv_index":9.15,"wind_gusts":31.0,"aqi":43,"pm10":11.4,"pm2_5":7.0,"mosquito_risk":7,"arthritis_risk":5,"migraine_risk":4,"frizz_risk":1,"updated_at":"2026-03-24T02:10:39.164233+05:30"},{"city":"Kurnool","state":"Andhra Pradesh","latitude":15.8281,"longitude":78.0373,"temp":27.1,"humidity":62,"rain":0.0,"pressure":977.0,"uv_index":9.0,"wind_gusts":22.3,"aqi":66,"pm10":19.4,"pm2_5":16.1,"mosquito_risk":7,"arthritis_risk":5,"migraine_risk":7,"frizz_risk":1,"updated_at":"2026-03-24T02:10:39.164241+05:30"},{"city":"Kakinada","state":"Andhra Pradesh","latitude":16.9891,"longitude":82.2475,"temp":23.9,"humidity":91,"rain":0.0,"pressure":1009.0,"uv_index":8.95,"wind_gusts":28.8,"aqi":55,"pm10":20.7,"pm2_5":12.6,"mosquito_risk":3,"arthritis_risk":0,"migraine_risk":4,"frizz_risk":1,"updated_at":"2026-03-24T02:10:39.164248+05:30"},{"city":"Tirupati","state":"Andhra Pradesh","latitude":13.6288,"longitude":79.4192,"temp":23.5,"humidity":88,"rain":0.0,"pressure":992.9,"uv_index":9.25,"wind_gusts":27.7,"aqi":66,"pm10":24.0,"pm2_5":21.1,"mosquito_risk":3,"arthritis_risk":5,"migraine_risk":7,"frizz_risk":1,"updated_at":"2026-03-24T02:10:39.164255+05:30"},{"city":"Warangal","state":"Telangana","latitude":17.9689,"longitude":79.5941,"temp":24.7,"humidity":76,"rain":0.0,"pressure":979.4,"uv_index":8.8,"wind_gusts":27.7,"aqi":108,"pm10":28.6,"pm2_5":25.8,"mosquito_risk":3,"arthritis_risk":5,"migraine_risk":7,"frizz_risk":1,"updated_at":"2026-03-24T02:10:39.164262+05:30"},{"city":"Nizamabad","state":"Telangana","latitude":18.6725,"longitude":78.0941,"temp":26.5,"humidity":55,"rain":0.0,"pressure":964.8,"uv_index":8.75,"wind_gusts":30.6,"aqi":128,"pm10":39.7,"pm2_5":35.3,"mosquito_risk":4,"arthritis_risk":5,"migraine_risk":7,"frizz_risk":1,"updated_at":"2026-03-24T02:10:39.164269+05:30"},{"city":"Mysore","state":"Karnataka","latitude":12.2958,"longitude":76.6396,"temp":22.9,"humidity":83,"rain":0.0,"pressure":928.4,"uv_index":9.45,"wind_gusts":45.7,"aqi":106,"pm10":42.7,"pm2_5":36.6,"mosquito_risk":3,"arthritis_risk":5,"migraine_risk":7,"frizz_risk":1,"updated_at":"2026-03-24T02:10:39.164276+05:30"},{"city":"Mangalore","state":"Karnataka","latitude":12.9141,"longitude":74.856,"temp":28.9,"humidity":79,"rain":0.0,"pressure":1006.9,"uv_index":9.1,"wind_gusts":22.0,"aqi":74,"pm10":32.9,"pm2_5":27.5,"mosquito_risk":7,"arthritis_risk":5,"migraine_risk":4,"frizz_risk":1,"updated_at":"2026-03-24T02:10:39.164283+05:30"},{"city":"Hubli-Dharwad","state":"Karnataka","latitude":15.3647,"longitude":75.124,"temp":23.4,"humidity":86,"rain":0.0,"pressure":940.9,"uv_index":9.0,"wind_gusts":43.2,"aqi":82,"pm10":22.5,"pm2_5":19.9,"mosquito_risk":3,"arthritis_risk":5,"migraine_risk":7,"frizz_risk":1,"updated_at":"2026-03-24T02:10:39.164289+05:30"},{"city":"Belgaum","state":"Karnataka","latitude":15.8497,"longitude":74.4977,"temp":21.8,"humidity":96,"rain":0.0,"pressure":925.6,"uv_index":9.05,"wind_gusts":42.5,"aqi":82,"pm10":40.4,"pm2_5":33.4,"mosquito_risk":3,"arthritis_risk":5,"migraine_risk":7,"frizz_risk":1,"updated_at":"2026-03-24T02:10:42.423827+05:30"},{"city":"Coimbatore","state":"Tamil Nadu","latitude":11.0168,"longitude":76.9558,"temp":22.8,"humidity":72,"rain":0.0,"pressure":962.1,"uv_index":9.4,"wind_gusts":31.7,"aqi":81,"pm10":32.4,"pm2_5":26.3,"mosquito_risk":3,"arthritis_risk":5,"migraine_risk":7,"frizz_risk":1,"updated_at":"2026-03-24T02:10:42.423891+05:30"},{"city":"Madurai","state":"Tamil Nadu","latitude":9.9252,"longitude":78.1198,"temp":25.6,"humidity":84,"rain":0.0,"pressure":994.1,"uv_index":9.35,"wind_gusts":27.7,"aqi":62,"pm10":23.8,"pm2_5":21.1,"mosquito_risk":7,"arthritis_risk":5,"migraine_risk":7,"frizz_risk":1,"updated_at":"2026-03-24T02:10:42.423903+05:30"},{"city":"Trichy","state":"Tamil Nadu","latitude":10.7905,"longitude":78.7047,"temp":24.1,"humidity":91,"rain":0.0,"pressure":1000.8,"uv_index":9.3,"wind_gusts":23.0,"aqi":57,"pm10":17.1,"pm2_5":14.9,"mosquito_risk":3,"arthritis_risk":5,"migraine_risk":4,"frizz_risk":1,"updated_at":"2026-03-24T02:10:42.423912+05:30"},{"city":"Salem","state":"Tamil Nadu","latitude":11.6643,"longitude":78.146,"temp":24.9,"humidity":81,"rain":0.0,"pressure":977.9,"uv_index":9.35,"wind_gusts":24.5,"aqi":80,"pm10":33.6,"pm2_5":29.4,"mosquito_risk":3,"arthritis_risk":5,"migraine_risk":7,"frizz_risk":1,"updated_at":"2026-03-24T02:10:42.423919+05:30"},{"city":"Tirunelveli","state":"Tamil Nadu","latitude":8.7139,"longitude":77.7567,"temp":26.4,"humidity":76,"rain":0.0,"pressure":1004.1,"uv_index":9.35,"wind_gusts":38.5,"aqi":63,"pm10":26.5,"pm2_5":22.7,"mosquito_risk":7,"arthritis_risk":5,"migraine_risk":4,"frizz_risk":1,"updated_at":"2026-03-24T02:10:42.423926+05:30"},{"city":"Vellore","state":"Tamil Nadu","latitude":12.9165,"longitude":79.1325,"temp":23.1,"humidity":86,"rain":0.0,"pressure":985.7,"uv_index":9.3,"wind_gusts":32.8,"aqi":74,"pm10":32.2,"pm2_5":29.2,"mosquito_risk":3,"arthritis_risk":5,"migraine_risk":7,"frizz_risk":1,"updated_at":"2026-03-24T02:10:42.423934+05:30"},{"city":"Erode","state":"Tamil Nadu","latitude":11.341,"longitude":77.7172,"temp":25.5,"humidity":83,"rain":0.0,"pressure":989.9,"uv_index":9.35,"wind_gusts":19.8,"aqi":58,"pm10":20.2,"pm2_5":17.3,"mosquito_risk":7,"arthritis_risk":5,"migraine_risk":7,"frizz_risk":1,"updated_at":"2026-03-24T02:10:42.423941+05:30"},{"city":"Kochi","state":"Kerala","latitude":9.9312,"longitude":76.2673,"temp":27.5,"humidity":83,"rain":0.0,"pressure":1009.0,"uv_index":9.15,"wind_gusts":35.6,"aqi":85,"pm10":51.5,"pm2_5":48.1,"mosquito_risk":7,"arthritis_risk":0,"migraine_risk":4,"frizz_risk":1,"updated_at":"2026-03-24T02:10:42.423948+05:30"},{"city":"Thiruvananthapuram","state":"Kerala","latitude":8.5241,"longitude":76.9366,"temp":28.6,"humidity":78,"rain":0.0,"pressure":1007.8,"uv_index":9.2,"wind_gusts":32.0,"aqi":90,"pm10":25.7,"pm2_5":17.5,"mosquito_risk":7,"arthritis_risk":5,"migraine_risk":4,"frizz_risk":1,"updated_at":"2026-03-24T02:10:42.423955+05:30"},{"city":"Kozhikode","state":"Kerala","latitude":11.2588,"longitude":75.7804,"temp":28.9,"humidity":77,"rain":0.0,"pressure":1007.9,"uv_index":9.1,"wind_gusts":28.4,"aqi":66,"pm10":26.2,"pm2_5":16.8,"mosquito_risk":7,"arthritis_risk":5,"migraine_risk":4,"frizz_risk":1,"updated_at":"2026-03-24T02:10:42.423962+05:30"},{"city":"Thrissur","state":"Kerala","latitude":10.5276,"longitude":76.2144,"temp":26.1,"humidity":86,"rain":0.0,"pressure":1007.3,"uv_index":9.15,"wind_gusts":39.6,"aqi":78,"pm10":57.0,"pm2_5":49.4,"mosquito_risk":7,"arthritis_risk":5,"migraine_risk":4,"frizz_risk":1,"updated_at":"2026-03-24T02:10:42.423970+05:30"},{"city":"Kannur","state":"Kerala","latitude":11.8745,"longitude":75.3704,"temp":28.5,"humidity":78,"rain":0.0,"pressure":1007.1,"uv_index":9.1,"wind_gusts":28.4,"aqi":68,"pm10":30.5,"pm2_5":24.6,"mosquito_risk":7,"arthritis_risk":5,"migraine_risk":4,"frizz_risk":1,"updated_at":"2026-03-24T02:10:42.423977+05:30"},{"city":"Patna","state":"Bihar","latitude":25.5941,"longitude":85.1376,"temp":22.0,"humidity":81,"rain":0.0,"pressure":1003.3,"uv_index":7.9,"wind_gusts":35.3,"aqi":151,"pm10":151.3,"pm2_5":106.6,"mosquito_risk":3,"arthritis_risk":5,"migraine_risk":4,"frizz_risk":1,"updated_at":"2026-03-24T02:10:42.423984+05:30"},{"city":"Gaya","state":"Bihar","latitude":24.7914,"longitude":85.0002,"temp":22.3,"humidity":66,"rain":0.0,"pressure":996.5,"uv_index":7.95,"wind_gusts":20.9,"aqi":102,"pm10":136.4,"pm2_5":53.9,"mosquito_risk":3,"arthritis_risk":5,"migraine_risk":7,"frizz_risk":0,"updated_at":"2026-03-24T02:10:42.423990+05:30"},{"city":"Muzaffarpur","state":"Bihar","latitude":26.1209,"longitude":85.3647,"temp":20.9,"humidity":80,"rain":0.0,"pressure":1003.4,"uv_index":7.85,"wind_gusts":30.6,"aqi":154,"pm10":139.2,"pm2_5":113.6,"mosquito_risk":3,"arthritis_risk":5,"migraine_risk":4,"frizz_risk":1,"updated_at":"2026-03-24T02:10:42.423997+05:30"},{"city":"Bhagalpur","state":"Bihar","latitude":25.2425,"longitude":87.0117,"temp":21.7,"humidity":79,"rain":0.0,"pressure":1003.9,"uv_index":7.85,"wind_gusts":28.4,"aqi":129,"pm10":53.7,"pm2_5":50.5,"mosquito_risk":3,"arthritis_risk":5,"migraine_risk":4,"frizz_risk":1,"updated_at":"2026-03-24T02:10:42.424004+05:30"},{"city":"Ranchi","state":"Jharkhand","latitude":23.3441,"longitude":85.3096,"temp":19.6,"humidity":60,"rain":0.0,"pressure":939.4,"uv_index":8.3,"wind_gusts":32.0,"aqi":69,"pm10":56.6,"pm2_5":23.6,"mosquito_risk":0,"arthritis_risk":5,"migraine_risk":7,"frizz_risk":0,"updated_at":"2026-03-24T02:10:42.424011+05:30"},{"city":"Jamshedpur","state":"Jharkhand","latitude":22.8046,"longitude":86.2029,"temp":23.6,"humidity":72,"rain":0.0,"pressure":993.4,"uv_index":8.45,"wind_gusts":27.0,"aqi":147,"pm10":90.6,"pm2_5":77.8,"mosquito_risk":3,"arthritis_risk":5,"migraine_risk":7,"frizz_risk":1,"updated_at":"2026-03-24T02:10:42.424018+05:30"},{"city":"Dhanbad","state":"Jharkhand","latitude":23.7957,"longitude":86.4304,"temp":20.9,"humidity":76,"rain":0.0,"pressure":982.2,"uv_index":8.35,"wind_gusts":28.8,"aqi":156,"pm10":115.9,"pm2_5":99.2,"mosquito_risk":3,"arthritis_risk":5,"migraine_risk":7,"frizz_risk":1,"updated_at":"2026-03-24T02:10:42.424024+05:30"},{"city":"Bokaro","state":"Jharkhand","latitude":23.6693,"longitude":86.1511,"temp":23.0,"humidity":59,"rain":0.0,"pressure":986.6,"uv_index":8.35,"wind_gusts":24.5,"aqi":154,"pm10":124.3,"pm2_5":95.0,"mosquito_risk":0,"arthritis_risk":5,"migraine_risk":7,"frizz_risk":0,"updated_at":"2026-03-24T02:10:42.424031+05:30"},{"city":"Bhubaneswar","state":"Odisha","latitude":20.2961,"longitude":85.8245,"temp":24.9,"humidity":91,"rain":0.0,"pressure":1004.7,"uv_index":8.75,"wind_gusts":31.3,"aqi":116,"pm10":25.1,"pm2_5":20.5,"mosquito_risk":3,"arthritis_risk":5,"migraine_risk":4,"frizz_risk":1,"updated_at":"2026-03-24T02:10:42.424038+05:30"},{"city":"Cuttack","state":"Odisha","latitude":20.4625,"longitude":85.8828,"temp":24.8,"humidity":92,"rain":0.0,"pressure":1006.8,"uv_index":8.75,"wind_gusts":26.6,"aqi":116,"pm10":25.1,"pm2_5":20.5,"mosquito_risk":3,"arthritis_risk":5,"migraine_risk":4,"frizz_risk":1,"updated_at":"2026-03-24T02:10:42.424045+05:30"},{"city":"Rourkela","state":"Odisha","latitude":22.2604,"longitude":84.8536,"temp":20.3,"humidity":77,"rain":0.0,"pressure":986.7,"uv_index":8.0,"wind_gusts":21.2,"aqi":91,"pm10":48.2,"pm2_5":33.1,"mosquito_risk":3,"arthritis_risk":5,"migraine_risk":7,"frizz_risk":1,"updated_at":"2026-03-24T02:10:42.424051+05:30"},{"city":"Raipur","state":"Chhattisgarh","latitude":21.2514,"longitude":81.6296,"temp":24.7,"humidity":46,"rain":0.0,"pressure":975.3,"uv_index":8.5,"wind_gusts":20.5,"aqi":121,"pm10":68.2,"pm2_5":55.4,"mosquito_risk":0,"arthritis_risk":5,"migraine_risk":7,"frizz_risk":0,"updated_at":"2026-03-24T02:10:42.424058+05:30"},{"city":"Bhilai","state":"Chhattisgarh","latitude":21.1938,"longitude":81.3509,"temp":24.4,"humidity":51,"rain":0.0,"pressure":975.6,"uv_index":8.5,"wind_gusts":17.6,"aqi":122,"pm10":64.7,"pm2_5":53.2,"mosquito_risk":0,"arthritis_risk":5,"migraine_risk":7,"frizz_risk":0,"updated_at":"2026-03-24T02:10:42.424065+05:30"},{"city":"Guwahati","state":"Assam","latitude":26.1158,"longitude":91.7086,"temp":20.9,"humidity":88,"rain":0.0,"pressure":1004.9,"uv_index":7.75,"wind_gusts":29.2,"aqi":78,"pm10":33.4,"pm2_5":31.5,"mosquito_risk":3,"arthritis_risk":5,"migraine_risk":4,"frizz_risk":1,"updated_at":"2026-03-24T02:10:42.424072+05:30"},{"city":"Agartala","state":"Tripura","latitude":23.8315,"longitude":91.2868,"temp":21.6,"humidity":73,"rain":0.0,"pressure":1008.9,"uv_index":8.05,"wind_gusts":15.5,"aqi":156,"pm10":82.4,"pm2_5":79.2,"mosquito_risk":3,"arthritis_risk":0,"migraine_risk":4,"frizz_risk":1,"updated_at":"2026-03-24T02:10:42.424079+05:30"},{"city":"Shillong","state":"Meghalaya","latitude":25.5788,"longitude":91.8933,"temp":7.9,"humidity":84,"rain":0.0,"pressure":854.0,"uv_index":6.05,"wind_gusts":40.3,"aqi":65,"pm10":22.5,"pm2_5":21.2,"mosquito_risk":3,"arthritis_risk":10,"migraine_risk":7,"frizz_risk":0,"updated_at":"2026-03-24T02:10:42.424086+05:30"},{"city":"Imphal","state":"Manipur","latitude":24.817,"longitude":93.9368,"temp":13.7,"humidity":87,"rain":0.0,"pressure":923.9,"uv_index":8.2,"wind_gusts":43.2,"aqi":78,"pm10":41.9,"pm2_5":39.8,"mosquito_risk":3,"arthritis_risk":10,"migraine_risk":7,"frizz_risk":0,"updated_at":"2026-03-24T02:10:42.424093+05:30"},{"city":"Aizawl","state":"Mizoram","latitude":23.7271,"longitude":92.7176,"temp":13.7,"humidity":77,"rain":0.0,"pressure":892.5,"uv_index":8.35,"wind_gusts":31.7,"aqi":76,"pm10":37.7,"pm2_5":34.3,"mosquito_risk":3,"arthritis_risk":5,"migraine_risk":7,"frizz_risk":0,"updated_at":"2026-03-24T02:10:42.424101+05:30"},{"city":"Kohima","state":"Nagaland","latitude":25.6701,"longitude":94.1077,"temp":11.3,"humidity":95,"rain":0.0,"pressure":854.3,"uv_index":7.9,"wind_gusts":55.4,"aqi":68,"pm10":29.5,"pm2_5":27.0,"mosquito_risk":3,"arthritis_risk":10,"migraine_risk":7,"frizz_risk":0,"updated_at":"2026-03-24T02:10:42.424107+05:30"},{"city":"Gangtok","state":"Sikkim","latitude":27.3314,"longitude":88.6138,"temp":11.1,"humidity":92,"rain":0.1,"pressure":836.4,"uv_index":2.3,"wind_gusts":18.0,"aqi":70,"pm10":20.4,"pm2_5":19.6,"mosquito_risk":6,"arthritis_risk":10,"migraine_risk":3,"frizz_risk":0,"updated_at":"2026-03-24T02:10:42.424114+05:30"},{"city":"Siliguri","state":"West Bengal","latitude":26.7271,"longitude":88.3953,"temp":18.0,"humidity":69,"rain":0.0,"pressure":996.7,"uv_index":6.4,"wind_gusts":37.8,"aqi":101,"pm10":40.3,"pm2_5":38.8,"mosquito_risk":3,"arthritis_risk":5,"migraine_risk":7,"frizz_risk":0,"updated_at":"2026-03-24T02:10:45.683634+05:30"},{"city":"Durgapur","state":"West Bengal","latitude":23.5204,"longitude":87.3119,"temp":22.4,"humidity":74,"rain":0.0,"pressure":998.0,"uv_index":8.0,"wind_gusts":21.2,"aqi":158,"pm10":93.8,"pm2_5":87.5,"mosquito_risk":3,"arthritis_risk":5,"migraine_risk":7,"frizz_risk":1,"updated_at":"2026-03-24T02:10:45.683666+05:30"},{"city":"Asansol","state":"West Bengal","latitude":23.6739,"longitude":86.9524,"temp":23.0,"humidity":68,"rain":0.0,"pressure":996.5,"uv_index":8.0,"wind_gusts":23.4,"aqi":136,"pm10":66.6,"pm2_5":58.2,"mosquito_risk":3,"arthritis_risk":5,"migraine_risk":7,"frizz_risk":1,"updated_at":"2026-03-24T02:10:45.683678+05:30"},{"city":"Pondicherry","state":"Puducherry","latitude":11.9139,"longitude":79.8145,"temp":24.3,"humidity":95,"rain":0.0,"pressure":1009.6,"uv_index":9.2,"wind_gusts":30.2,"aqi":30,"pm10":10.4,"pm2_5":6.2,"mosquito_risk":3,"arthritis_risk":0,"migraine_risk":4,"frizz_risk":1,"updated_at":"2026-03-24T02:10:45.683688+05:30"},{"city":"Port Blair","state":"Andaman and Nicobar Islands","latitude":11.6234,"longitude":92.7265,"temp":27.7,"humidity":80,"rain":0.0,"pressure":1006.8,"uv_index":9.15,"wind_gusts":25.6,"aqi":35,"pm10":10.7,"pm2_5":6.2,"mosquito_risk":7,"arthritis_risk":5,"migraine_risk":4,"frizz_risk":1,"updated_at":"2026-03-24T02:10:45.683698+05:30"},{"city":"Haridwar","state":"Uttarakhand","latitude":29.9457,"longitude":78.1642,"temp":16.7,"humidity":96,"rain":0.0,"pressure":978.1,"uv_index":6.4,"wind_gusts":32.0,"aqi":112,"pm10":74.3,"pm2_5":62.6,"mosquito_risk":3,"arthritis_risk":10,"migraine_risk":7,"frizz_risk":0,"updated_at":"2026-03-24T02:10:45.683707+05:30"},{"city":"Rishikesh","state":"Uttarakhand","latitude":30.0869,"longitude":78.2676,"temp":17.2,"humidity":82,"rain":0.0,"pressure":970.6,"uv_index":6.45,"wind_gusts":30.6,"aqi":83,"pm10":57.2,"pm2_5":41.1,"mosquito_risk":3,"arthritis_risk":10,"migraine_risk":7,"frizz_risk":0,"updated_at":"2026-03-24T02:10:45.683716+05:30"},{"city":"Nainital","state":"Uttarakhand","latitude":29.3919,"longitude":79.4542,"temp":13.0,"humidity":72,"rain":0.0,"pressure":805.5,"uv_index":7.3,"wind_gusts":49.0,"aqi":81,"pm10":52.4,"pm2_5":44.7,"mosquito_risk":3,"arthritis_risk":5,"migraine_risk":7,"frizz_risk":0,"updated_at":"2026-03-24T02:10:45.683725+05:30"},{"city":"Mussoorie","state":"Uttarakhand","latitude":30.4599,"longitude":78.0664,"temp":11.0,"humidity":74,"rain":0.0,"pressure":801.8,"uv_index":6.8,"wind_gusts":45.0,"aqi":90,"pm10":50.1,"pm2_5":42.6,"mosquito_risk":3,"arthritis_risk":5,"migraine_risk":7,"frizz_risk":0,"updated_at":"2026-03-24T02:10:45.683734+05:30"},{"city":"Dharamshala","state":"Himachal Pradesh","latitude":32.219,"longitude":76.3234,"temp":15.1,"humidity":51,"rain":0.0,"pressure":869.8,"uv_index":7.05,"wind_gusts":28.4,"aqi":74,"pm10":16.4,"pm2_5":12.3,"mosquito_risk":0,"arthritis_risk":5,"migraine_risk":7,"frizz_risk":0,"updated_at":"2026-03-24T02:10:45.683741+05:30"},{"city":"Dalhousie","state":"Himachal Pradesh","latitude":32.5387,"longitude":75.971,"temp":11.0,"humidity":58,"rain":0.0,"pressure":802.7,"uv_index":7.35,"wind_gusts":25.2,"aqi":77,"pm10":37.5,"pm2_5":34.3,"mosquito_risk":0,"arthritis_risk":5,"migraine_risk":7,"frizz_risk":0,"updated_at":"2026-03-24T02:10:45.683750+05:30"},{"city":"Patiala","state":"Punjab","latitude":30.3398,"longitude":76.3869,"temp":17.5,"humidity":84,"rain":0.0,"pressure":982.0,"uv_index":6.4,"wind_gusts":33.1,"aqi":136,"pm10":93.1,"pm2_5":75.7,"mosquito_risk":3,"arthritis_risk":10,"migraine_risk":7,"frizz_risk":0,"updated_at":"2026-03-24T02:10:45.683759+05:30"},{"city":"Bhatinda","state":"Punjab","latitude":30.211,"longitude":74.9455,"temp":19.4,"humidity":79,"rain":0.0,"pressure":987.3,"uv_index":6.7,"wind_gusts":26.3,"aqi":134,"pm10":73.6,"pm2_5":50.6,"mosquito_risk":3,"arthritis_risk":5,"migraine_risk":7,"frizz_risk":0,"updated_at":"2026-03-24T02:10:45.683766+05:30"},{"city":"Rohtak","state":"Haryana","latitude":28.8955,"longitude":76.6066,"temp":18.6,"humidity":95,"rain":0.0,"pressure":985.8,"uv_index":6.05,"wind_gusts":25.2,"aqi":137,"pm10":102.2,"pm2_5":74.0,"mosquito_risk":3,"arthritis_risk":10,"migraine_risk":7,"frizz_risk":1,"updated_at":"2026-03-24T02:10:45.683774+05:30"},{"city":"Panipat","state":"Haryana","latitude":29.3909,"longitude":76.9635,"temp":17.4,"humidity":95,"rain":0.0,"pressure":984.3,"uv_index":6.35,"wind_gusts":27.4,"aqi":144,"pm10":101.0,"pm2_5":76.8,"mosquito_risk":3,"arthritis_risk":10,"migraine_risk":7,"frizz_risk":1,"updated_at":"2026-03-24T02:10:45.683782+05:30"},{"city":"Mathura","state":"Uttar Pradesh","latitude":27.4924,"longitude":77.6737,"temp":18.6,"humidity":93,"rain":0.0,"pressure":990.9,"uv_index":6.6,"wind_gusts":21.2,"aqi":156,"pm10":139.2,"pm2_5":75.2,"mosquito_risk":3,"arthritis_risk":10,"migraine_risk":7,"frizz_risk":1,"updated_at":"2026-03-24T02:10:45.683790+05:30"},{"city":"Vrindavan","state":"Uttar Pradesh","latitude":27.5823,"longitude":77.7027,"temp":18.2,"humidity":95,"rain":0.0,"pressure":991.3,"uv_index":6.6,"wind_gusts":21.6,"aqi":156,"pm10":139.2,"pm2_5":75.2,"mosquito_risk":3,"arthritis_risk":10,"migraine_risk":7,"frizz_risk":1,"updated_at":"2026-03-24T02:10:45.683797+05:30"},{"city":"Ayodhya","state":"Uttar Pradesh","latitude":26.7922,"longitude":82.1998,"temp":19.8,"humidity":78,"rain":0.0,"pressure":998.9,"uv_index":7.25,"wind_gusts":33.5,"aqi":138,"pm10":66.1,"pm2_5":45.9,"mosquito_risk":3,"arthritis_risk":5,"migraine_risk":7,"frizz_risk":0,"updated_at":"2026-03-24T02:10:45.683805+05:30"},{"city":"Ratlam","state":"Madhya Pradesh","latitude":23.3315,"longitude":75.0367,"temp":23.5,"humidity":53,"rain":0.0,"pressure":955.6,"uv_index":8.0,"wind_gusts":18.7,"aqi":67,"pm10":28.6,"pm2_5":17.1,"mosquito_risk":0,"arthritis_risk":5,"migraine_risk":7,"frizz_risk":0,"updated_at":"2026-03-24T02:10:45.683813+05:30"},{"city":"Sagar","state":"Madhya Pradesh","latitude":23.8388,"longitude":78.7378,"temp":23.3,"humidity":57,"rain":0.0,"pressure":952.1,"uv_index":8.0,"wind_gusts":28.1,"aqi":61,"pm10":43.0,"pm2_5":24.5,"mosquito_risk":0,"arthritis_risk":5,"migraine_risk":7,"frizz_risk":0,"updated_at":"2026-03-24T02:10:45.683820+05:30"},{"city":"Satna","state":"Madhya Pradesh","latitude":24.6005,"longitude":80.8322,"temp":22.3,"humidity":62,"rain":0.0,"pressure":974.2,"uv_index":7.65,"wind_gusts":26.3,"aqi":68,"pm10":97.1,"pm2_5":30.9,"mosquito_risk":3,"arthritis_risk":5,"migraine_risk":7,"frizz_risk":0,"updated_at":"2026-03-24T02:10:45.683828+05:30"},{"city":"Akola","state":"Maharashtra","latitude":20.7002,"longitude":77.0082,"temp":24.3,"humidity":62,"rain":0.0,"pressure":975.6,"uv_index":8.4,"wind_gusts":21.6,"aqi":69,"pm10":41.1,"pm2_5":35.7,"mosquito_risk":3,"arthritis_risk":5,"migraine_risk":7,"frizz_risk":1,"updated_at":"2026-03-24T02:10:45.683836+05:30"},{"city":"Amravati","state":"Maharashtra","latitude":20.9374,"longitude":77.7796,"temp":23.2,"humidity":62,"rain":0.0,"pressure":967.7,"uv_index":8.4,"wind_gusts":23.8,"aqi":66,"pm10":45.2,"pm2_5":40.3,"mosquito_risk":3,"arthritis_risk":5,"migraine_risk":7,"frizz_risk":0,"updated_at":"2026-03-24T02:10:45.683866+05:30"},{"city":"Latur","state":"Maharashtra","latitude":18.4088,"longitude":76.5604,"temp":23.3,"humidity":60,"rain":0.0,"pressure":939.5,"uv_index":8.75,"wind_gusts":19.4,"aqi":89,"pm10":46.0,"pm2_5":37.8,"mosquito_risk":0,"arthritis_risk":5,"migraine_risk":7,"frizz_risk":0,"updated_at":"2026-03-24T02:10:45.683875+05:30"},{"city":"Nanded","state":"Maharashtra","latitude":19.1383,"longitude":77.3091,"temp":25.8,"humidity":57,"rain":0.0,"pressure":968.9,"uv_index":8.6,"wind_gusts":20.9,"aqi":105,"pm10":58.4,"pm2_5":49.5,"mosquito_risk":4,"arthritis_risk":5,"migraine_risk":7,"frizz_risk":1,"updated_at":"2026-03-24T02:10:45.683882+05:30"},{"city":"Gulbarga","state":"Karnataka","latitude":17.3297,"longitude":76.8343,"temp":26.6,"humidity":58,"rain":0.0,"pressure":958.6,"uv_index":8.85,"wind_gusts":37.4,"aqi":89,"pm10":46.2,"pm2_5":35.6,"mosquito_risk":4,"arthritis_risk":5,"migraine_risk":7,"frizz_risk":1,"updated_at":"2026-03-24T02:10:45.683890+05:30"},{"city":"Bidar","state":"Karnataka","latitude":17.9104,"longitude":77.5199,"temp":25.9,"humidity":57,"rain":0.0,"pressure":935.5,"uv_index":8.85,"wind_gusts":34.9,"aqi":110,"pm10":51.5,"pm2_5":41.8,"mosquito_risk":4,"arthritis_risk":5,"migraine_risk":7,"frizz_risk":1,"updated_at":"2026-03-24T02:10:45.683897+05:30"},{"city":"Hospet","state":"Karnataka","latitude":15.2689,"longitude":76.3909,"temp":25.9,"humidity":77,"rain":0.0,"pressure":956.1,"uv_index":9.05,"wind_gusts":26.3,"aqi":110,"pm10":54.9,"pm2_5":44.7,"mosquito_risk":7,"arthritis_risk":5,"migraine_risk":7,"frizz_risk":1,"updated_at":"2026-03-24T02:10:45.683905+05:30"},{"city":"Tirupur","state":"Tamil Nadu","latitude":11.1085,"longitude":77.3411,"temp":25.6,"humidity":78,"rain":0.0,"pressure":976.1,"uv_index":9.45,"wind_gusts":26.3,"aqi":69,"pm10":28.6,"pm2_5":23.5,"mosquito_risk":7,"arthritis_risk":5,"migraine_risk":7,"frizz_risk":1,"updated_at":"2026-03-24T02:10:45.683912+05:30"},{"city":"Alappuzha","state":"Kerala","latitude":9.4981,"longitude":76.3388,"temp":27.2,"humidity":85,"rain":0.0,"pressure":1009.0,"uv_index":9.15,"wind_gusts":32.0,"aqi":81,"pm10":49.5,"pm2_5":38.8,"mosquito_risk":7,"arthritis_risk":0,"migraine_risk":4,"frizz_risk":1,"updated_at":"2026-03-24T02:10:45.683920+05:30"},{"city":"Munnar","state":"Kerala","latitude":10.0889,"longitude":77.0595,"temp":19.3,"humidity":91,"rain":0.0,"pressure":856.0,"uv_index":9.7,"wind_gusts":30.6,"aqi":70,"pm10":35.7,"pm2_5":29.5,"mosquito_risk":3,"arthritis_risk":10,"migraine_risk":7,"frizz_risk":1,"updated_at":"2026-03-24T02:10:45.683929+05:30"},{"city":"Silchar","state":"Assam","latitude":24.8333,"longitude":92.7789,"temp":19.3,"humidity":83,"rain":0.0,"pressure":1008.1,"uv_index":8.0,"wind_gusts":20.5,"aqi":120,"pm10":64.3,"pm2_5":61.5,"mosquito_risk":3,"arthritis_risk":5,"migraine_risk":4,"frizz_risk":1,"updated_at":"2026-03-24T02:10:45.683937+05:30"},{"city":"Dibrugarh","state":"Assam","latitude":27.4728,"longitude":94.912,"temp":20.2,"humidity":91,"rain":0.0,"pressure":999.1,"uv_index":7.35,"wind_gusts":12.2,"aqi":65,"pm10":19.7,"pm2_5":19.3,"mosquito_risk":3,"arthritis_risk":5,"migraine_risk":7,"frizz_risk":1,"updated_at":"2026-03-24T02:10:45.683946+05:30"}]