[{"city":"Delhi","state":"Delhi","latitude":28.6139,"longitude":77.209,"temp":29.5,"humidity":53,"rain":0.0,"pressure":990.1,"uv_index":6.1,"wind_gusts":23.8,"aqi":179,"pm10":211.4,"pm2_5":102.2,"mosquito_risk":4,"arthritis_risk":5,"migraine_risk":7,"frizz_risk":1,"updated_at":"2026-03-11T10:15:25.707893+05:30"},{"city":"Mumbai","state":"Maharashtra","latitude":19.076,"longitude":72.8777,"temp":28.1,"humidity":78,"rain":0.0,"pressure":1013.3,"uv_index":7.6,"wind_gusts":19.4,"aqi":153,"pm10":71.2,"pm2_5":64.0,"mosquito_risk":7,"arthritis_risk":0,"migraine_risk":4,"frizz_risk":1,"updated_at":"2026-03-11T10:15:25.707931+05:30"},{"city":"Bangalore","state":"Karnataka","latitude":12.9716,"longitude":77.5946,"temp":25.6,"humidity":44,"rain":0.0,"pressure":917.3,"uv_index":9.25,"wind_gusts":27.7,"aqi":71,"pm10":20.0,"pm2_5":17.1,"mosquito_risk":4,"arthritis_risk":5,"migraine_risk":7,"frizz_risk":0,"updated_at":"2026-03-11T10:15:25.707947+05:30"},{"city":"Hyderabad","state":"Telangana","latitude":17.385,"longitude":78.4867,"temp":30.1,"humidity":25,"rain":0.0,"pressure":960.3,"uv_index":8.6,"wind_gusts":22.0,"aqi":103,"pm10":18.2,"pm2_5":15.1,"mosquito_risk":0,"arthritis_risk":5,"migraine_risk":7,"frizz_risk":0,"updated_at":"2026-03-11T10:15:25.707958+05:30"},{"city":"Chennai","state":"Tamil Nadu","latitude":13.0827,"longitude":80.2707,"temp":30.7,"humidity":55,"rain":0.0,"pressure":1013.8,"uv_index":9.0,"wind_gusts":30.6,"aqi":68,"pm10":22.2,"pm2_5":17.9,"mosquito_risk":0,"arthritis_risk":0,"migraine_risk":4,"frizz_risk":1,"updated_at":"2026-03-11T10:15:25.707967+05:30"},{"city":"Kolkata","state":"West Bengal","latitude":22.5726,"longitude":88.3639,"temp":28.8,"humidity":65,"rain":0.0,"pressure":1012.8,"uv_index":8.0,"wind_gusts":21.6,"aqi":141,"pm10":66.6,"pm2_5":53.0,"mosquito_risk":7,"arthritis_risk":0,"migraine_risk":4,"frizz_risk":1,"updated_at":"2026-03-11T10:15:25.707975+05:30"},{"city":"Pune","state":"Maharashtra","latitude":18.5204,"longitude":73.8567,"temp":32.8,"humidity":34,"rain":0.0,"pressure":954.4,"uv_index":8.15,"wind_gusts":30.2,"aqi":116,"pm10":71.0,"pm2_5":60.8,"mosquito_risk":0,"arthritis_risk":5,"migraine_risk":7,"frizz_risk":0,"updated_at":"2026-03-11T10:15:25.707987+05:30"},{"city":"Ahmedabad","state":"Gujarat","latitude":23.0225,"longitude":72.5714,"temp":32.4,"humidity":29,"rain":0.0,"pressure":1009.1,"uv_index":7.45,"wind_gusts":26.3,"aqi":68,"pm10":25.6,"pm2_5":23.6,"mosquito_risk":0,"arthritis_risk":0,"migraine_risk":4,"frizz_risk":0,"updated_at":"2026-03-11T10:15:25.707995+05:30"},{"city":"Jaipur","state":"Rajasthan","latitude":26.9124,"longitude":75.7873,"temp":31.8,"humidity":18,"rain":0.0,"pressure":967.3,"uv_index":6.85,"wind_gusts":38.5,"aqi":103,"pm10":133.6,"pm2_5":34.1,"mosquito_risk":0,"arthritis_risk":5,"migraine_risk":7,"frizz_risk":0,"updated_at":"2026-03-11T10:15:25.708002+05:30"},{"city":"Lucknow","state":"Uttar Pradesh","latitude":26.8467,"longitude":80.9462,"temp":29.5,"humidity":62,"rain":0.0,"pressure":1000.4,"uv_index":6.6,"wind_gusts":31.0,"aqi":193,"pm10":178.3,"pm2_5":130.4,"mosquito_risk":7,"arthritis_risk":5,"migraine_risk":4,"frizz_risk":1,"updated_at":"2026-03-11T10:15:25.708010+05:30"},{"city":"Kanpur","state":"Uttar Pradesh","latitude":26.4499,"longitude":80.3319,"temp":29.0,"humidity":67,"rain":0.0,"pressure":999.0,"uv_index":6.65,"wind_gusts":24.1,"aqi":180,"pm10":172.3,"pm2_5":102.4,"mosquito_risk":7,"arthritis_risk":5,"migraine_risk":7,"frizz_risk":1,"updated_at":"2026-03-11T10:15:25.708016+05:30"},{"city":"Chandigarh","state":"Chandigarh","latitude":30.7333,"longitude":76.7794,"temp":27.2,"humidity":65,"rain":0.0,"pressure":975.3,"uv_index":5.2,"wind_gusts":24.5,"aqi":153,"pm10":74.0,"pm2_5":53.3,"mosquito_risk":7,"arthritis_risk":5,"migraine_risk":3,"frizz_risk":1,"updated_at":"2026-03-11T10:15:25.708023+05:30"},{"city":"Srinagar","state":"Jammu and Kashmir","latitude":34.0837,"longitude":74.7973,"temp":9.8,"humidity":92,"rain":1.0,"pressure":847.4,"uv_index":4.95,"wind_gusts":28.1,"aqi":127,"pm10":63.6,"pm2_5":51.6,"mosquito_risk":6,"arthritis_risk":10,"migraine_risk":3,"frizz_risk":0,"updated_at":"2026-03-11T10:15:25.708030+05:30"},{"city":"Jammu","state":"Jammu and Kashmir","latitude":32.7266,"longitude":74.857,"temp":26.8,"humidity":48,"rain":0.0,"pressure":978.6,"uv_index":5.75,"wind_gusts":43.6,"aqi":115,"pm10":51.8,"pm2_5":38.2,"mosquito_risk":4,"arthritis_risk":5,"migraine_risk":3,"frizz_risk":0,"updated_at":"2026-03-11T10:15:25.708037+05:30"},{"city":"Amritsar","state":"Punjab","latitude":31.634,"longitude":74.8723,"temp":26.0,"humidity":72,"rain":0.0,"pressure":987.2,"uv_index":6.6,"wind_gusts":28.1,"aqi":158,"pm10":128.1,"pm2_5":83.1,"mosquito_risk":7,"arthritis_risk":5,"migraine_risk":7,"frizz_risk":1,"updated_at":"2026-03-11T10:15:25.708044+05:30"},{"city":"Ludhiana","state":"Punjab","latitude":30.901,"longitude":75.8573,"temp":26.8,"humidity":70,"rain":0.0,"pressure":985.8,"uv_index":5.6,"wind_gusts":15.5,"aqi":176,"pm10":144.4,"pm2_5":114.8,"mosquito_risk":7,"arthritis_risk":5,"migraine_risk":3,"frizz_risk":1,"updated_at":"2026-03-11T10:15:25.708050+05:30"},{"city":"Jalandhar","state":"Punjab","latitude":31.326,"longitude":75.5762,"temp":26.3,"humidity":71,"rain":0.0,"pressure":986.9,"uv_index":6.0,"wind_gusts":18.4,"aqi":168,"pm10":159.3,"pm2_5":105.9,"mosquito_risk":7,"arthritis_risk":5,"migraine_risk":3,"frizz_risk":1,"updated_at":"2026-03-11T10:15:25.708060+05:30"},{"city":"Dehradun","state":"Uttarakhand","latitude":30.6284,"longitude":78.0322,"temp":21.0,"humidity":51,"rain":0.0,"pressure":836.8,"uv_index":5.35,"wind_gusts":28.8,"aqi":85,"pm10":24.3,"pm2_5":12.7,"mosquito_risk":0,"arthritis_risk":5,"migraine_risk":3,"frizz_risk":0,"updated_at":"2026-03-11T10:15:25.708066+05:30"},{"city":"Shimla","state":"Himachal Pradesh","latitude":31.1048,"longitude":77.1734,"temp":19.3,"humidity":56,"rain":0.0,"pressure":792.1,"uv_index":5.45,"wind_gusts":45.0,"aqi":111,"pm10":46.7,"pm2_5":27.4,"mosquito_risk":0,"arthritis_risk":5,"migraine_risk":3,"frizz_risk":0,"updated_at":"2026-03-11T10:15:25.708073+05:30"},{"city":"Manali","state":"Himachal Pradesh","latitude":32.2396,"longitude":77.1887,"temp":19.3,"humidity":32,"rain":0.0,"pressure":828.0,"uv_index":6.5,"wind_gusts":42.5,"aqi":55,"pm10":33.6,"pm2_5":13.6,"mosquito_risk":0,"arthritis_risk":5,"migraine_risk":7,"frizz_risk":0,"updated_at":"2026-03-11T10:15:25.708079+05:30"},{"city":"Gurgaon","state":"Haryana","latitude":28.4595,"longitude":77.0266,"temp":28.6,"humidity":56,"rain":0.0,"pressure":988.3,"uv_index":6.2,"wind_gusts":23.4,"aqi":330,"pm10":348.3,"pm2_5":104.5,"mosquito_risk":4,"arthritis_risk":5,"migraine_risk":7,"frizz_risk":1,"updated_at":"2026-03-11T10:15:25.708086+05:30"},{"city":"Noida","state":"Uttar Pradesh","latitude":28.5355,"longitude":77.391,"temp":29.9,"humidity":53,"rain":0.0,"pressure":991.5,"uv_index":5.8,"wind_gusts":23.8,"aqi":330,"pm10":348.3,"pm2_5":104.5,"mosquito_risk":4,"arthritis_risk":5,"migraine_risk":3,"frizz_risk":1,"updated_at":"2026-03-11T10:15:25.708092+05:30"},{"city":"Ghaziabad","state":"Uttar Pradesh","latitude":28.6692,"longitude":77.4538,"temp":28.3,"humidity":63,"rain":0.0,"pressure":989.6,"uv_index":5.9,"wind_gusts":23.0,"aqi":173,"pm10":180.7,"pm2_5":100.8,"mosquito_risk":7,"arthritis_risk":5,"migraine_risk":3,"frizz_risk":1,"updated_at":"2026-03-11T10:15:25.708099+05:30"},{"city":"Faridabad","state":"Haryana","latitude":28.4089,"longitude":77.3178,"temp":29.3,"humidity":56,"rain":0.0,"pressure":990.8,"uv_index":5.8,"wind_gusts":22.0,"aqi":330,"pm10":348.3,"pm2_5":104.5,"mosquito_risk":4,"arthritis_risk":5,"migraine_risk":3,"frizz_risk":1,"updated_at":"2026-03-11T10:15:25.708107+05:30"},{"city":"Meerut","state":"Uttar Pradesh","latitude":28.9845,"longitude":77.7064,"temp":27.8,"humidity":66,"rain":0.0,"pressure":988.4,"uv_index":5.5,"wind_gusts":28.4,"aqi":173,"pm10":180.7,"pm2_5":100.8,"mosquito_risk":7,"arthritis_risk":5,"migraine_risk":3,"frizz_risk":1,"updated_at":"2026-03-11T10:15:25.708114+05:30"},{"city":"Agra","state":"Uttar Pradesh","latitude":27.1767,"longitude":78.0081,"temp":31.1,"humidity":49,"rain":0.0,"pressure":995.1,"uv_index":6.5,"wind_gusts":19.4,"aqi":234,"pm10":241.2,"pm2_5":91.0,"mosquito_risk":0,"arthritis_risk":5,"migraine_risk":7,"frizz_risk":1,"updated_at":"2026-03-11T10:15:25.708121+05:30"},{"city":"Varanasi","state":"Uttar Pradesh","latitude":25.3176,"longitude":82.9739,"temp":29.4,"humidity":71,"rain":0.0,"pressure":1004.2,"uv_index":7.3,"wind_gusts":23.0,"aqi":191,"pm10":148.1,"pm2_5":128.5,"mosquito_risk":7,"arthritis_risk":5,"migraine_risk":4,"frizz_risk":1,"updated_at":"2026-03-11T10:15:25.708130+05:30"},{"city":"Prayagraj","state":"Uttar Pradesh","latitude":25.4358,"longitude":81.8463,"temp":29.3,"humidity":68,"rain":0.0,"pressure":1002.9,"uv_index":7.15,"wind_gusts":23.0,"aqi":191,"pm10":158.3,"pm2_5":137.4,"mosquito_risk":7,"arthritis_risk":5,"migraine_risk":4,"frizz_risk":1,"updated_at":"2026-03-11T10:15:25.708137+05:30"},{"city":"Gorakhpur","state":"Uttar Pradesh","latitude":26.7606,"longitude":83.3732,"temp":28.2,"humidity":74,"rain":0.0,"pressure":1003.9,"uv_index":7.0,"wind_gusts":25.9,"aqi":206,"pm10":158.3,"pm2_5":143.0,"mosquito_risk":7,"arthritis_risk":5,"migraine_risk":4,"frizz_risk":1,"updated_at":"2026-03-11T10:15:25.708144+05:30"},{"city":"Bareilly","state":"Uttar Pradesh","latitude":28.367,"longitude":79.4304,"temp":27.8,"humidity":73,"rain":0.0,"pressure":993.6,"uv_index":6.35,"wind_gusts":32.4,"aqi":207,"pm10":222.6,"pm2_5":179.7,"mosquito_risk":7,"arthritis_risk":5,"migraine_risk":7,"frizz_risk":1,"updated_at":"2026-03-11T10:15:25.708150+05:30"},{"city":"Aligarh","state":"Uttar Pradesh","latitude":27.8974,"longitude":78.088,"temp":29.6,"humidity":55,"rain":0.0,"pressure":992.7,"uv_index":6.25,"wind_gusts":23.8,"aqi":177,"pm10":210.5,"pm2_5":102.9,"mosquito_risk":4,"arthritis_risk":5,"migraine_risk":7,"frizz_risk":1,"updated_at":"2026-03-11T10:15:25.708157+05:30"},{"city":"Moradabad","state":"Uttar Pradesh","latitude":28.8386,"longitude":78.7733,"temp":27.7,"humidity":69,"rain":0.0,"pressure":990.4,"uv_index":6.15,"wind_gusts":34.9,"aqi":196,"pm10":200.7,"pm2_5":180.7,"mosquito_risk":7,"arthritis_risk":5,"migraine_risk":7,"frizz_risk":1,"updated_at":"2026-03-11T10:15:25.708165+05:30"},{"city":"Saharanpur","state":"Uttar Pradesh","latitude":29.9637,"longitude":77.546,"temp":26.2,"humidity":74,"rain":0.0,"pressure":982.2,"uv_index":5.75,"wind_gusts":37.1,"aqi":171,"pm10":129.9,"pm2_5":101.0,"mosquito_risk":7,"arthritis_risk":5,"migraine_risk":3,"frizz_risk":1,"updated_at":"2026-03-11T10:15:25.708171+05:30"},{"city":"Jhansi","state":"Uttar Pradesh","latitude":25.4484,"longitude":78.5685,"temp":31.2,"humidity":38,"rain":0.0,"pressure":985.3,"uv_index":7.1,"wind_gusts":27.4,"aqi":104,"pm10":115.3,"pm2_5":38.0,"mosquito_risk":0,"arthritis_risk":5,"migraine_risk":7,"frizz_risk":0,"updated_at":"2026-03-11T10:15:28.922081+05:30"},{"city":"Surat","state":"Gujarat","latitude":21.1702,"longitude":72.8311,"temp":31.8,"humidity":33,"rain":0.0,"pressure":1012.3,"uv_index":7.3,"wind_gusts":25.9,"aqi":114,"pm10":41.7,"pm2_5":39.9,"mosquito_risk":0,"arthritis_risk":0,"migraine_risk":4,"frizz_risk":0,"updated_at":"2026-03-11T10:15:28.922107+05:30"},{"city":"Vadodara","state":"Gujarat","latitude":22.3072,"longitude":73.1812,"temp":33.2,"humidity":26,"rain":0.0,"pressure":1010.6,"uv_index":7.45,"wind_gusts":20.2,"aqi":71,"pm10":26.5,"pm2_5":22.7,"mosquito_risk":0,"arthritis_risk":0,"migraine_risk":4,"frizz_risk":0,"updated_at":"2026-03-11T10:15:28.922117+05:30"},{"city":"Rajkot","state":"Gujarat","latitude":22.3039,"longitude":70.8022,"temp":30.3,"humidity":37,"rain":0.0,"pressure":1001.6,"uv_index":7.25,"wind_gusts":29.9,"aqi":70,"pm10":26.9,"pm2_5":23.9,"mosquito_risk":0,"arthritis_risk":5,"migraine_risk":4,"frizz_risk":0,"updated_at":"2026-03-11T10:15:28.922124+05:30"},{"city":"Thane","state":"Maharashtra","latitude":19.2183,"longitude":72.9781,"temp":31.6,"humidity":45,"rain":0.0,"pressure":1013.0,"uv_index":7.6,"wind_gusts":36.7,"aqi":153,"pm10":71.2,"pm2_5":64.0,"mosquito_risk":0,"arthritis_risk":0,"migraine_risk":4,"frizz_risk":1,"updated_at":"2026-03-11T10:15:28.922131+05:30"},{"city":"Nagpur","state":"Maharashtra","latitude":21.1458,"longitude":79.0882,"temp":31.7,"humidity":36,"rain":0.0,"pressure":980.4,"uv_index":7.95,"wind_gusts":11.9,"aqi":83,"pm10":48.0,"pm2_5":24.9,"mosquito_risk":0,"arthritis_risk":5,"migraine_risk":7,"frizz_risk":0,"updated_at":"2026-03-11T10:15:28.922138+05:30"},{"city":"Nashik","state":"Maharashtra","latitude":19.9975,"longitude":73.7898,"temp":32.0,"humidity":24,"rain":0.0,"pressure":951.9,"uv_index":7.75,"wind_gusts":25.6,"aqi":72,"pm10":29.3,"pm2_5":24.9,"mosquito_risk":0,"arthritis_risk":5,"migraine_risk":7,"frizz_risk":0,"updated_at":"2026-03-11T10:15:28.922145+05:30"},{"city":"Aurangabad","state":"Maharashtra","latitude":19.8762,"longitude":75.3433,"temp":30.7,"humidity":34,"rain":0.0,"pressure":950.9,"uv_index":8.3,"wind_gusts":18.4,"aqi":86,"pm10":43.1,"pm2_5":34.3,"mosquito_risk":0,"arthritis_risk":5,"migraine_risk":7,"frizz_risk":0,"updated_at":"2026-03-11T10:15:28.922151+05:30"},{"city":"Solapur","state":"Maharashtra","latitude":17.6599,"longitude":75.9064,"temp":29.2,"humidity":42,"rain":0.0,"pressure":963.8,"uv_index":8.5,"wind_gusts":20.5,"aqi":129,"pm10":24.5,"pm2_5":22.2,"mosquito_risk":4,"arthritis_risk":5,"migraine_risk":7,"frizz_risk":0,"updated_at":"2026-03-11T10:15:28.922163+05:30"},{"city":"Kolhapur","state":"Maharashtra","latitude":16.705,"longitude":74.2433,"temp":29.4,"humidity":43,"rain":0.0,"pressure":953.9,"uv_index":8.65,"wind_gusts":30.2,"aqi":153,"pm10":61.2,"pm2_5":54.9,"mosquito_risk":4,"arthritis_risk":5,"migraine_risk":7,"frizz_risk":0,"updated_at":"2026-03-11T10:15:28.922170+05:30"},{"city":"Goa","state":"Goa","latitude":15.2993,"longitude":74.124,"temp":31.2,"humidity":63,"rain":0.0,"pressure":1003.0,"uv_index":8.65,"wind_gusts":37.8,"aqi":153,"pm10":68.5,"pm2_5":59.8,"mosquito_risk":3,"arthritis_risk":5,"migraine_risk":4,"frizz_risk":1,"updated_at":"2026-03-11T10:15:28.922177+05:30"},{"city":"Jodhpur","state":"Rajasthan","latitude":26.2389,"longitude":73.0243,"temp":30.8,"humidity":27,"rain":0.0,"pressure":990.7,"uv_index":7.15,"wind_gusts":32.8,"aqi":84,"pm10":163.9,"pm2_5":45.1,"mosquito_risk":0,"arthritis_risk":5,"migraine_risk":7,"frizz_risk":0,"updated_at":"2026-03-11T10:15:28.922183+05:30"},{"city":"Udaipur","state":"Rajasthan","latitude":24.5854,"longitude":73.7125,"temp":31.6,"humidity":23,"rain":0.0,"pressure":954.4,"uv_index":7.8,"wind_gusts":26.3,"aqi":52,"pm10":17.5,"pm2_5":12.5,"mosquito_risk":0,"arthritis_risk":5,"migraine_risk":7,"frizz_risk":0,"updated_at":"2026-03-11T10:15:28.922189+05:30"},{"city":"Kota","state":"Rajasthan","latitude":25.2138,"longitude":75.8648,"temp":30.6,"humidity":27,"rain":0.0,"pressure":986.5,"uv_index":7.2,"wind_gusts":19.1,"aqi":75,"pm10":55.3,"pm2_5":28.1,"mosquito_risk":0,"arthritis_risk":5,"migraine_risk":7,"frizz_risk":0,"updated_at":"2026-03-11T10:15:28.922195+05:30"},{"city":"Bikaner","state":"Rajasthan","latitude":28.0229,"longitude":73.3119,"temp":28.8,"humidity":29,"rain":0.0,"pressure":988.8,"uv_index":6.25,"wind_gusts":29.9,"aqi":69,"pm10":38.1,"pm2_5":24.4,"mosquito_risk":4,"arthritis_risk":5,"migraine_risk":7,"frizz_risk":0,"updated_at":"2026-03-11T10:15:28.922201+05:30"},{"city":"Ajmer","state":"Rajasthan","latitude":26.4499,"longitude":74.6399,"temp":30.3,"humidity":26,"rain":0.0,"pressure":962.2,"uv_index":7.15,"wind_gusts":31.3,"aqi":83,"pm10":89.2,"pm2_5":26.4,"mosquito_risk":0,"arthritis_risk":5,"migraine_risk":7,"frizz_risk":0,"updated_at":"2026-03-11T10:15:28.922207+05:30"},{"city":"Gwalior","state":"Madhya Pradesh","latitude":26.2183,"longitude":78.1828,"temp":31.4,"humidity":40,"rain":0.0,"pressure":990.3,"uv_index":6.8,"wind_gusts":30.2,"aqi":124,"pm10":98.3,"pm2_5":32.0,"mosquito_risk":0,"arthritis_risk":5,"migraine_risk":7,"frizz_risk":1,"updated_at":"2026-03-11T10:15:28.922213+05:30"},{"city":"Indore","state":"Madhya Pradesh","latitude":22.7196,"longitude":75.8577,"temp":31.8,"humidity":25,"rain":0.0,"pressure":955.5,"uv_index":7.7,"wind_gusts":22.0,"aqi":63,"pm10":30.7,"pm2_5":19.1,"mosquito_risk":0,"arthritis_risk":5,"migraine_risk":7,"frizz_risk":0,"updated_at":"2026-03-11T10:15:28.922219+05:30"},{"city":"Bhopal","state":"Madhya Pradesh","latitude":23.2599,"longitude":77.4126,"temp":31.9,"humidity":34,"rain":0.0,"pressure":961.1,"uv_index":7.6,"wind_gusts":24.8,"aqi":58,"pm10":53.7,"pm2_5":21.4,"mosquito_risk":0,"arthritis_risk":5,"migraine_risk":7,"frizz_risk":0,"updated_at":"2026-03-11T10:15:28.922225+05:30"},{"city":"Jabalpur","state":"Madhya Pradesh","latitude":23.1815,"longitude":79.9864,"temp":29.5,"humidity":50,"rain":0.0,"pressure":968.8,"uv_index":7.7,"wind_gusts":24.8,"aqi":81,"pm10":94.3,"pm2_5":48.3,"mosquito_risk":4,"arthritis_risk":5,"migraine_risk":7,"frizz_risk":1,"updated_at":"2026-03-11T10:15:28.922230+05:30"},{"city":"Ujjain","state":"Madhya Pradesh","latitude":23.1765,"longitude":75.7885,"temp":29.8,"humidity":36,"rain":0.0,"pressure":961.1,"uv_index":7.6,"wind_gusts":15.1,"aqi":75,"pm10":29.7,"pm2_5":22.1,"mosquito_risk":4,"arthritis_risk":5,"migraine_risk":7,"frizz_risk":0,"updated_at":"2026-03-11T10:15:28.922237+05:30"},{"city":"Visakhapatnam","state":"Andhra Pradesh","latitude":17.6868,"longitude":83.2185,"temp":30.1,"humidity":58,"rain":0.0,"pressure":1010.1,"uv_index":8.6,"wind_gusts":38.5,"aqi":108,"pm10":40.7,"pm2_5":36.6,"mosquito_risk":0,"arthritis_risk":0,"migraine_risk":4,"frizz_risk":1,"updated_at":"2026-03-11T10:15:28.922242+05:30"},{"city":"Vijayawada","state":"Andhra Pradesh","latitude":16.5062,"longitude":80.648,"temp":29.0,"humidity":61,"rain":0.0,"pressure":1010.0,"uv_index":8.7,"wind_gusts":16.6,"aqi":99,"pm10":27.5,"pm2_5":24.8,"mosquito_risk":7,"arthritis_risk":0,"migraine_risk":4,"frizz_risk":1,"updated_at":"2026-03-11T10:15:28.922248+05:30"},{"city":"Guntur","state":"Andhra Pradesh","latitude":16.3067,"longitude":80.4365,"temp":29.0,"humidity":60,"rain":0.0,"pressure":1011.1,"uv_index":8.7,"wind_gusts":18.7,"aqi":86,"pm10":24.6,"pm2_5":21.9,"mosquito_risk":4,"arthritis_risk":0,"migraine_risk":4,"frizz_risk":1,"updated_at":"2026-03-11T10:15:28.922254+05:30"},{"city":"Nellore","state":"Andhra Pradesh","latitude":14.4426,"longitude":79.9865,"temp":29.8,"humidity":58,"rain":0.0,"pressure":1012.9,"uv_index":8.9,"wind_gusts":27.4,"aqi":72,"pm10":21.6,"pm2_5":18.1,"mosquito_risk":4,"arthritis_risk":0,"migraine_risk":4,"frizz_risk":1,"updated_at":"2026-03-11T10:15:28.922261+05:30"},{"city":"Kurnool","state":"Andhra Pradesh","latitude":15.8281,"longitude":78.0373,"temp":30.4,"humidity":34,"rain":0.0,"pressure":983.9,"uv_index":8.7,"wind_gusts":23.4,"aqi":76,"pm10":21.0,"pm2_5":18.5,"mosquito_risk":0,"arthritis_risk":5,"migraine_risk":7,"frizz_risk":0,"updated_at":"2026-03-11T10:15:28.922268+05:30"},{"city":"Kakinada","state":"Andhra Pradesh","latitude":16.9891,"longitude":82.2475,"temp":30.2,"humidity":59,"rain":0.0,"pressure":1014.3,"uv_index":8.65,"wind_gusts":20.5,"aqi":95,"pm10":35.4,"pm2_5":31.7,"mosquito_risk":0,"arthritis_risk":0,"migraine_risk":4,"frizz_risk":1,"updated_at":"2026-03-11T10:15:28.922274+05:30"},{"city":"Tirupati","state":"Andhra Pradesh","latitude":13.6288,"longitude":79.4192,"temp":29.3,"humidity":47,"rain":0.0,"pressure":998.5,"uv_index":9.0,"wind_gusts":32.8,"aqi":86,"pm10":21.5,"pm2_5":18.3,"mosquito_risk":4,"arthritis_risk":5,"migraine_risk":7,"frizz_risk":1,"updated_at":"2026-03-11T10:15:28.922280+05:30"},{"city":"Warangal","state":"Telangana","latitude":17.9689,"longitude":79.5941,"temp":29.4,"humidity":44,"rain":0.0,"pressure":985.8,"uv_index":8.45,"wind_gusts":23.4,"aqi":110,"pm10":17.9,"pm2_5":16.5,"mosquito_risk":4,"arthritis_risk":5,"migraine_risk":7,"frizz_risk":0,"updated_at":"2026-03-11T10:15:28.922286+05:30"},{"city":"Nizamabad","state":"Telangana","latitude":18.6725,"longitude":78.0941,"temp":30.9,"humidity":36,"rain":0.0,"pressure":971.8,"uv_index":8.3,"wind_gusts":24.5,"aqi":131,"pm10":40.2,"pm2_5":36.4,"mosquito_risk":0,"arthritis_risk":5,"migraine_risk":7,"frizz_risk":0,"updated_at":"2026-03-11T10:15:28.922293+05:30"},{"city":"Mysore","state":"Karnataka","latitude":12.2958,"longitude":76.6396,"temp":25.9,"humidity":56,"rain":0.0,"pressure":933.7,"uv_index":9.25,"wind_gusts":28.8,"aqi":71,"pm10":20.0,"pm2_5":17.4,"mosquito_risk":4,"arthritis_risk":5,"migraine_risk":7,"frizz_risk":1,"updated_at":"2026-03-11T10:15:28.922299+05:30"},{"city":"Mangalore","state":"Karnataka","latitude":12.9141,"longitude":74.856,"temp":28.7,"humidity":81,"rain":0.0,"pressure":1011.1,"uv_index":8.9,"wind_gusts":27.7,"aqi":119,"pm10":43.5,"pm2_5":38.5,"mosquito_risk":7,"arthritis_risk":0,"migraine_risk":4,"frizz_risk":1,"updated_at":"2026-03-11T10:15:28.922305+05:30"},{"city":"Hubli-Dharwad","state":"Karnataka","latitude":15.3647,"longitude":75.124,"temp":28.4,"humidity":40,"rain":0.0,"pressure":946.7,"uv_index":8.85,"wind_gusts":35.6,"aqi":110,"pm10":21.2,"pm2_5":19.9,"mosquito_risk":4,"arthritis_risk":5,"migraine_risk":7,"frizz_risk":0,"updated_at":"2026-03-11T10:15:28.922311+05:30"},{"city":"Belgaum","state":"Karnataka","latitude":15.8497,"longitude":74.4977,"temp":29.3,"humidity":29,"rain":0.0,"pressure":931.5,"uv_index":8.9,"wind_gusts":40.3,"aqi":129,"pm10":27.2,"pm2_5":23.1,"mosquito_risk":4,"arthritis_risk":5,"migraine_risk":7,"frizz_risk":0,"updated_at":"2026-03-11T10:15:32.136076+05:30"},{"city":"Coimbatore","state":"Tamil Nadu","latitude":11.0168,"longitude":76.9558,"temp":27.7,"humidity":55,"rain":0.0,"pressure":967.3,"uv_index":9.25,"wind_gusts":38.9,"aqi":78,"pm10":18.2,"pm2_5":15.9,"mosquito_risk":4,"arthritis_risk":5,"migraine_risk":7,"frizz_risk":1,"updated_at":"2026-03-11T10:15:32.136105+05:30"},{"city":"Madurai","state":"Tamil Nadu","latitude":9.9252,"longitude":78.1198,"temp":29.5,"humidity":56,"rain":0.0,"pressure":998.5,"uv_index":9.25,"wind_gusts":29.5,"aqi":71,"pm10":22.6,"pm2_5":19.4,"mosquito_risk":4,"arthritis_risk":5,"migraine_risk":7,"frizz_risk":1,"updated_at":"2026-03-11T10:15:32.136115+05:30"},{"city":"Trichy","state":"Tamil Nadu","latitude":10.7905,"longitude":78.7047,"temp":29.3,"humidity":60,"rain":0.0,"pressure":1005.8,"uv_index":9.15,"wind_gusts":28.1,"aqi":70,"pm10":23.2,"pm2_5":18.7,"mosquito_risk":4,"arthritis_risk":5,"migraine_risk":4,"frizz_risk":1,"updated_at":"2026-03-11T10:15:32.136123+05:30"},{"city":"Salem","state":"Tamil Nadu","latitude":11.6643,"longitude":78.146,"temp":28.4,"humidity":54,"rain":0.0,"pressure":983.4,"uv_index":9.15,"wind_gusts":25.2,"aqi":78,"pm10":23.7,"pm2_5":20.2,"mosquito_risk":4,"arthritis_risk":5,"migraine_risk":7,"frizz_risk":1,"updated_at":"2026-03-11T10:15:32.136131+05:30"},{"city":"Tirunelveli","state":"Tamil Nadu","latitude":8.7139,"longitude":77.7567,"temp":29.0,"humidity":62,"rain":0.0,"pressure":1008.5,"uv_index":7.9,"wind_gusts":25.9,"aqi":61,"pm10":16.5,"pm2_5":14.4,"mosquito_risk":7,"arthritis_risk":0,"migraine_risk":4,"frizz_risk":1,"updated_at":"2026-03-11T10:15:32.136139+05:30"},{"city":"Vellore","state":"Tamil Nadu","latitude":12.9165,"longitude":79.1325,"temp":28.1,"humidity":55,"rain":0.0,"pressure":991.3,"uv_index":9.1,"wind_gusts":33.1,"aqi":96,"pm10":22.6,"pm2_5":19.3,"mosquito_risk":4,"arthritis_risk":5,"migraine_risk":7,"frizz_risk":1,"updated_at":"2026-03-11T10:15:32.136146+05:30"},{"city":"Erode","state":"Tamil Nadu","latitude":11.341,"longitude":77.7172,"temp":29.1,"humidity":61,"rain":0.0,"pressure":995.1,"uv_index":9.15,"wind_gusts":20.5,"aqi":82,"pm10":25.7,"pm2_5":22.5,"mosquito_risk":7,"arthritis_risk":5,"migraine_risk":7,"frizz_risk":1,"updated_at":"2026-03-11T10:15:32.136153+05:30"},{"city":"Kochi","state":"Kerala","latitude":9.9312,"longitude":76.2673,"temp":27.5,"humidity":77,"rain":0.0,"pressure":1012.7,"uv_index":8.9,"wind_gusts":40.0,"aqi":128,"pm10":41.1,"pm2_5":35.4,"mosquito_risk":7,"arthritis_risk":0,"migraine_risk":4,"frizz_risk":1,"updated_at":"2026-03-11T10:15:32.136160+05:30"},{"city":"Thiruvananthapuram","state":"Kerala","latitude":8.5241,"longitude":76.9366,"temp":28.3,"humidity":69,"rain":0.0,"pressure":1011.5,"uv_index":7.9,"wind_gusts":29.2,"aqi":76,"pm10":15.8,"pm2_5":14.2,"mosquito_risk":7,"arthritis_risk":0,"migraine_risk":4,"frizz_risk":1,"updated_at":"2026-03-11T10:15:32.136167+05:30"},{"city":"Kozhikode","state":"Kerala","latitude":11.2588,"longitude":75.7804,"temp":28.8,"humidity":74,"rain":0.0,"pressure":1012.4,"uv_index":8.95,"wind_gusts":30.6,"aqi":126,"pm10":52.2,"pm2_5":44.0,"mosquito_risk":7,"arthritis_risk":0,"migraine_risk":4,"frizz_risk":1,"updated_at":"2026-03-11T10:15:32.136173+05:30"},{"city":"Thrissur","state":"Kerala","latitude":10.5276,"longitude":76.2144,"temp":32.6,"humidity":46,"rain":0.0,"pressure":1011.0,"uv_index":9.05,"wind_gusts":38.2,"aqi":97,"pm10":19.9,"pm2_5":18.5,"mosquito_risk":0,"arthritis_risk":0,"migraine_risk":4,"frizz_risk":1,"updated_at":"2026-03-11T10:15:32.136181+05:30"},{"city":"Kannur","state":"Kerala","latitude":11.8745,"longitude":75.3704,"temp":29.8,"humidity":67,"rain":0.0,"pressure":1011.7,"uv_index":8.95,"wind_gusts":36.7,"aqi":138,"pm10":49.4,"pm2_5":43.1,"mosquito_risk":7,"arthritis_risk":0,"migraine_risk":4,"frizz_risk":1,"updated_at":"2026-03-11T10:15:32.136187+05:30"},{"city":"Patna","state":"Bihar","latitude":25.5941,"longitude":85.1376,"temp":28.4,"humidity":67,"rain":0.0,"pressure":1007.0,"uv_index":7.35,"wind_gusts":24.1,"aqi":192,"pm10":161.6,"pm2_5":147.6,"mosquito_risk":7,"arthritis_risk":5,"migraine_risk":4,"frizz_risk":1,"updated_at":"2026-03-11T10:15:32.136193+05:30"},{"city":"Gaya","state":"Bihar","latitude":24.7914,"longitude":85.0002,"temp":28.5,"humidity":72,"rain":0.0,"pressure":1000.2,"uv_index":7.55,"wind_gusts":21.2,"aqi":169,"pm10":118.7,"pm2_5":107.3,"mosquito_risk":7,"arthritis_risk":5,"migraine_risk":4,"frizz_risk":1,"updated_at":"2026-03-11T10:15:32.136199+05:30"},{"city":"Muzaffarpur","state":"Bihar","latitude":26.1209,"longitude":85.3647,"temp":28.6,"humidity":66,"rain":0.0,"pressure":1007.1,"uv_index":7.4,"wind_gusts":30.6,"aqi":202,"pm10":181.6,"pm2_5":163.4,"mosquito_risk":7,"arthritis_risk":5,"migraine_risk":4,"frizz_risk":1,"updated_at":"2026-03-11T10:15:32.136206+05:30"},{"city":"Bhagalpur","state":"Bihar","latitude":25.2425,"longitude":87.0117,"temp":28.9,"humidity":68,"rain":0.0,"pressure":1007.6,"uv_index":7.45,"wind_gusts":25.9,"aqi":172,"pm10":103.4,"pm2_5":91.7,"mosquito_risk":7,"arthritis_risk":5,"migraine_risk":4,"frizz_risk":1,"updated_at":"2026-03-11T10:15:32.136212+05:30"},{"city":"Ranchi","state":"Jharkhand","latitude":23.3441,"longitude":85.3096,"temp":28.4,"humidity":53,"rain":0.0,"pressure":943.7,"uv_index":8.15,"wind_gusts":29.9,"aqi":169,"pm10":105.0,"pm2_5":87.3,"mosquito_risk":4,"arthritis_risk":5,"migraine_risk":7,"frizz_risk":1,"updated_at":"2026-03-11T10:15:32.136218+05:30"},{"city":"Jamshedpur","state":"Jharkhand","latitude":22.8046,"longitude":86.2029,"temp":28.7,"humidity":71,"rain":0.0,"pressure":997.1,"uv_index":8.05,"wind_gusts":29.5,"aqi":157,"pm10":82.0,"pm2_5":69.8,"mosquito_risk":7,"arthritis_risk":5,"migraine_risk":7,"frizz_risk":1,"updated_at":"2026-03-11T10:15:32.136223+05:30"},{"city":"Dhanbad","state":"Jharkhand","latitude":23.7957,"longitude":86.4304,"temp":28.4,"humidity":65,"rain":0.0,"pressure":986.0,"uv_index":7.95,"wind_gusts":27.7,"aqi":187,"pm10":122.9,"pm2_5":112.5,"mosquito_risk":7,"arthritis_risk":5,"migraine_risk":7,"frizz_risk":1,"updated_at":"2026-03-11T10:15:32.136229+05:30"},{"city":"Bokaro","state":"Jharkhand","latitude":23.6693,"longitude":86.1511,"temp":29.1,"humidity":63,"rain":0.0,"pressure":990.1,"uv_index":7.95,"wind_gusts":40.7,"aqi":188,"pm10":141.1,"pm2_5":127.1,"mosquito_risk":7,"arthritis_risk":5,"migraine_risk":7,"frizz_risk":1,"updated_at":"2026-03-11T10:15:32.136236+05:30"},{"city":"Bhubaneswar","state":"Odisha","latitude":20.2961,"longitude":85.8245,"temp":29.9,"humidity":66,"rain":0.0,"pressure":1008.9,"uv_index":8.35,"wind_gusts":26.6,"aqi":128,"pm10":32.4,"pm2_5":27.0,"mosquito_risk":7,"arthritis_risk":0,"migraine_risk":4,"frizz_risk":1,"updated_at":"2026-03-11T10:15:32.136242+05:30"},{"city":"Cuttack","state":"Odisha","latitude":20.4625,"longitude":85.8828,"temp":30.5,"humidity":65,"rain":0.0,"pressure":1010.7,"uv_index":8.4,"wind_gusts":29.5,"aqi":128,"pm10":32.4,"pm2_5":27.0,"mosquito_risk":3,"arthritis_risk":0,"migraine_risk":4,"frizz_risk":1,"updated_at":"2026-03-11T10:15:32.136249+05:30"},{"city":"Rourkela","state":"Odisha","latitude":22.2604,"longitude":84.8536,"temp":30.3,"humidity":63,"rain":0.0,"pressure":991.2,"uv_index":7.95,"wind_gusts":27.4,"aqi":162,"pm10":109.4,"pm2_5":93.6,"mosquito_risk":3,"arthritis_risk":5,"migraine_risk":7,"frizz_risk":1,"updated_at":"2026-03-11T10:15:32.136256+05:30"},{"city":"Raipur","state":"Chhattisgarh","latitude":21.2514,"longitude":81.6296,"temp":32.0,"humidity":38,"rain":0.0,"pressure":981.6,"uv_index":8.05,"wind_gusts":24.8,"aqi":152,"pm10":90.8,"pm2_5":74.0,"mosquito_risk":0,"arthritis_risk":5,"migraine_risk":7,"frizz_risk":0,"updated_at":"2026-03-11T10:15:32.136262+05:30"},{"city":"Bhilai","state":"Chhattisgarh","latitude":21.1938,"longitude":81.3509,"temp":32.3,"humidity":38,"rain":0.0,"pressure":982.0,"uv_index":8.1,"wind_gusts":19.8,"aqi":147,"pm10":90.6,"pm2_5":73.3,"mosquito_risk":0,"arthritis_risk":5,"migraine_risk":7,"frizz_risk":1,"updated_at":"2026-03-11T10:15:32.136268+05:30"},{"city":"Guwahati","state":"Assam","latitude":26.1158,"longitude":91.7086,"temp":29.5,"humidity":61,"rain":0.0,"pressure":1008.0,"uv_index":7.35,"wind_gusts":23.8,"aqi":155,"pm10":71.5,"pm2_5":61.5,"mosquito_risk":7,"arthritis_risk":0,"migraine_risk":4,"frizz_risk":1,"updated_at":"2026-03-11T10:15:32.136274+05:30"},{"city":"Agartala","state":"Tripura","latitude":23.8315,"longitude":91.2868,"temp":29.7,"humidity":62,"rain":0.0,"pressure":1012.4,"uv_index":7.7,"wind_gusts":19.8,"aqi":169,"pm10":86.1,"pm2_5":76.8,"mosquito_risk":7,"arthritis_risk":0,"migraine_risk":4,"frizz_risk":1,"updated_at":"2026-03-11T10:15:32.136280+05:30"},{"city":"Shillong","state":"Meghalaya","latitude":25.5788,"longitude":91.8933,"temp":19.1,"humidity":54,"rain":0.0,"pressure":862.4,"uv_index":6.8,"wind_gusts":18.4,"aqi":140,"pm10":53.6,"pm2_5":47.5,"mosquito_risk":0,"arthritis_risk":5,"migraine_risk":7,"frizz_risk":0,"updated_at":"2026-03-11T10:15:32.136286+05:30"},{"city":"Imphal","state":"Manipur","latitude":24.817,"longitude":93.9368,"temp":23.8,"humidity":56,"rain":0.0,"pressure":929.1,"uv_index":7.95,"wind_gusts":36.4,"aqi":154,"pm10":63.6,"pm2_5":55.1,"mosquito_risk":0,"arthritis_risk":5,"migraine_risk":7,"frizz_risk":0,"updated_at":"2026-03-11T10:15:32.136292+05:30"},{"city":"Aizawl","state":"Mizoram","latitude":23.7271,"longitude":92.7176,"temp":24.6,"humidity":52,"rain":0.0,"pressure":899.1,"uv_index":7.9,"wind_gusts":28.8,"aqi":176,"pm10":80.3,"pm2_5":69.8,"mosquito_risk":0,"arthritis_risk":5,"migraine_risk":7,"frizz_risk":0,"updated_at":"2026-03-11T10:15:32.136299+05:30"},{"city":"Kohima","state":"Nagaland","latitude":25.6701,"longitude":94.1077,"temp":18.5,"humidity":71,"rain":0.0,"pressure":860.7,"uv_index":7.05,"wind_gusts":34.2,"aqi":139,"pm10":59.0,"pm2_5":52.5,"mosquito_risk":3,"arthritis_risk":5,"migraine_risk":7,"frizz_risk":0,"updated_at":"2026-03-11T10:15:32.136305+05:30"},{"city":"Gangtok","state":"Sikkim","latitude":27.3314,"longitude":88.6138,"temp":19.9,"humidity":61,"rain":0.0,"pressure":844.2,"uv_index":6.45,"wind_gusts":20.9,"aqi":134,"pm10":52.5,"pm2_5":44.0,"mosquito_risk":3,"arthritis_risk":5,"migraine_risk":7,"frizz_risk":0,"updated_at":"2026-03-11T10:15:32.136311+05:30"},{"city":"Siliguri","state":"West Bengal","latitude":26.7271,"longitude":88.3953,"temp":26.1,"humidity":61,"rain":0.0,"pressure":1000.4,"uv_index":7.1,"wind_gusts":21.2,"aqi":163,"pm10":105.5,"pm2_5":88.7,"mosquito_risk":7,"arthritis_risk":5,"migraine_risk":4,"frizz_risk":1,"updated_at":"2026-03-11T10:15:35.352101+05:30"},{"city":"Durgapur","state":"West Bengal","latitude":23.5204,"longitude":87.3119,"temp":27.0,"humidity":76,"rain":0.0,"pressure":1002.0,"uv_index":7.9,"wind_gusts":30.2,"aqi":160,"pm10":80.8,"pm2_5":70.3,"mosquito_risk":7,"arthritis_risk":5,"migraine_risk":4,"frizz_risk":1,"updated_at":"2026-03-11T10:15:35.352126+05:30"},{"city":"Asansol","state":"West Bengal","latitude":23.6739,"longitude":86.9524,"temp":27.8,"humidity":70,"rain":0.0,"pressure":1000.4,"uv_index":7.95,"wind_gusts":22.3,"aqi":167,"pm10":82.2,"pm2_5":72.6,"mosquito_risk":7,"arthritis_risk":5,"migraine_risk":4,"frizz_risk":1,"updated_at":"2026-03-11T10:15:35.352135+05:30"},{"city":"Pondicherry","state":"Puducherry","latitude":11.9139,"longitude":79.8145,"temp":30.1,"humidity":61,"rain":0.0,"pressure":1014.7,"uv_index":9.0,"wind_gusts":31.7,"aqi":60,"pm10":23.5,"pm2_5":18.5,"mosquito_risk":3,"arthritis_risk":0,"migraine_risk":4,"frizz_risk":1,"updated_at":"2026-03-11T10:15:35.352142+05:30"},{"city":"Port Blair","state":"Andaman and Nicobar Islands","latitude":11.6234,"longitude":92.7265,"temp":28.1,"humidity":78,"rain":0.0,"pressure":1011.5,"uv_index":8.95,"wind_gusts":20.2,"aqi":62,"pm10":22.0,"pm2_5":17.8,"mosquito_risk":7,"arthritis_risk":0,"migraine_risk":4,"frizz_risk":1,"updated_at":"2026-03-11T10:15:35.352149+05:30"},{"city":"Haridwar","state":"Uttarakhand","latitude":29.9457,"longitude":78.1642,"temp":28.0,"humidity":67,"rain":0.0,"pressure":980.7,"uv_index":5.65,"wind_gusts":38.5,"aqi":160,"pm10":101.3,"pm2_5":69.2,"mosquito_risk":7,"arthritis_risk":5,"migraine_risk":3,"frizz_risk":1,"updated_at":"2026-03-11T10:15:35.352155+05:30"},{"city":"Rishikesh","state":"Uttarakhand","latitude":30.0869,"longitude":78.2676,"temp":28.2,"humidity":57,"rain":0.0,"pressure":973.3,"uv_index":5.55,"wind_gusts":34.2,"aqi":157,"pm10":92.0,"pm2_5":61.0,"mosquito_risk":4,"arthritis_risk":5,"migraine_risk":3,"frizz_risk":1,"updated_at":"2026-03-11T10:15:35.352161+05:30"},{"city":"Nainital","state":"Uttarakhand","latitude":29.3919,"longitude":79.4542,"temp":21.2,"humidity":71,"rain":0.0,"pressure":812.3,"uv_index":6.8,"wind_gusts":67.3,"aqi":177,"pm10":107.8,"pm2_5":69.8,"mosquito_risk":3,"arthritis_risk":5,"migraine_risk":7,"frizz_risk":0,"updated_at":"2026-03-11T10:15:35.352168+05:30"},{"city":"Mussoorie","state":"Uttarakhand","latitude":30.4599,"longitude":78.0664,"temp":21.0,"humidity":52,"rain":0.0,"pressure":809.4,"uv_index":5.7,"wind_gusts":40.7,"aqi":154,"pm10":50.5,"pm2_5":35.2,"mosquito_risk":0,"arthritis_risk":5,"migraine_risk":3,"frizz_risk":0,"updated_at":"2026-03-11T10:15:35.352174+05:30"},{"city":"Dharamshala","state":"Himachal Pradesh","latitude":32.219,"longitude":76.3234,"temp":24.6,"humidity":37,"rain":0.0,"pressure":876.0,"uv_index":5.15,"wind_gusts":25.9,"aqi":60,"pm10":39.3,"pm2_5":17.2,"mosquito_risk":0,"arthritis_risk":5,"migraine_risk":3,"frizz_risk":0,"updated_at":"2026-03-11T10:15:35.352179+05:30"},{"city":"Dalhousie","state":"Himachal Pradesh","latitude":32.5387,"longitude":75.971,"temp":22.5,"humidity":25,"rain":0.0,"pressure":811.2,"uv_index":5.3,"wind_gusts":19.8,"aqi":95,"pm10":43.8,"pm2_5":28.9,"mosquito_risk":0,"arthritis_risk":5,"migraine_risk":3,"frizz_risk":0,"updated_at":"2026-03-11T10:15:35.352186+05:30"},{"city":"Patiala","state":"Punjab","latitude":30.3398,"longitude":76.3869,"temp":27.1,"humidity":71,"rain":0.0,"pressure":985.1,"uv_index":5.65,"wind_gusts":17.6,"aqi":172,"pm10":120.6,"pm2_5":98.0,"mosquito_risk":7,"arthritis_risk":5,"migraine_risk":3,"frizz_risk":1,"updated_at":"2026-03-11T10:15:35.352192+05:30"},{"city":"Bhatinda","state":"Punjab","latitude":30.211,"longitude":74.9455,"temp":26.7,"humidity":60,"rain":0.0,"pressure":990.3,"uv_index":6.45,"wind_gusts":21.6,"aqi":152,"pm10":118.0,"pm2_5":66.8,"mosquito_risk":4,"arthritis_risk":5,"migraine_risk":7,"frizz_risk":1,"updated_at":"2026-03-11T10:15:35.352198+05:30"},{"city":"Rohtak","state":"Haryana","latitude":28.8955,"longitude":76.6066,"temp":28.3,"humidity":59,"rain":0.0,"pressure":988.6,"uv_index":6.05,"wind_gusts":25.6,"aqi":183,"pm10":191.4,"pm2_5":84.3,"mosquito_risk":4,"arthritis_risk":5,"migraine_risk":7,"frizz_risk":1,"updated_at":"2026-03-11T10:15:35.352204+05:30"},{"city":"Panipat","state":"Haryana","latitude":29.3909,"longitude":76.9635,"temp":27.7,"humidity":63,"rain":0.0,"pressure":987.3,"uv_index":5.2,"wind_gusts":22.7,"aqi":198,"pm10":182.5,"pm2_5":87.1,"mosquito_risk":7,"arthritis_risk":5,"migraine_risk":3,"frizz_risk":1,"updated_at":"2026-03-11T10:15:35.352210+05:30"},{"city":"Mathura","state":"Uttar Pradesh","latitude":27.4924,"longitude":77.6737,"temp":30.7,"humidity":49,"rain":0.0,"pressure":994.0,"uv_index":6.4,"wind_gusts":23.4,"aqi":219,"pm10":217.5,"pm2_5":79.9,"mosquito_risk":0,"arthritis_risk":5,"migraine_risk":7,"frizz_risk":1,"updated_at":"2026-03-11T10:15:35.352217+05:30"},{"city":"Vrindavan","state":"Uttar Pradesh","latitude":27.5823,"longitude":77.7027,"temp":30.2,"humidity":51,"rain":0.0,"pressure":994.4,"uv_index":6.4,"wind_gusts":24.1,"aqi":219,"pm10":217.5,"pm2_5":79.9,"mosquito_risk":0,"arthritis_risk":5,"migraine_risk":7,"frizz_risk":1,"updated_at":"2026-03-11T10:15:35.352223+05:30"},{"city":"Ayodhya","state":"Uttar Pradesh","latitude":26.7922,"longitude":82.1998,"temp":29.3,"humidity":70,"rain":0.0,"pressure":1001.9,"uv_index":6.8,"wind_gusts":28.4,"aqi":196,"pm10":165.8,"pm2_5":153.2,"mosquito_risk":7,"arthritis_risk":5,"migraine_risk":4,"frizz_risk":1,"updated_at":"2026-03-11T10:15:35.352229+05:30"},{"city":"Ratlam","state":"Madhya Pradesh","latitude":23.3315,"longitude":75.0367,"temp":30.3,"humidity":35,"rain":0.0,"pressure":961.9,"uv_index":7.6,"wind_gusts":19.8,"aqi":68,"pm10":28.2,"pm2_5":20.5,"mosquito_risk":0,"arthritis_risk":5,"migraine_risk":7,"frizz_risk":0,"updated_at":"2026-03-11T10:15:35.352235+05:30"},{"city":"Sagar","state":"Madhya Pradesh","latitude":23.8388,"longitude":78.7378,"temp":31.8,"humidity":31,"rain":0.0,"pressure":957.6,"uv_index":7.55,"wind_gusts":25.2,"aqi":67,"pm10":90.3,"pm2_5":30.2,"mosquito_risk":0,"arthritis_risk":5,"migraine_risk":7,"frizz_risk":0,"updated_at":"2026-03-11T10:15:35.352240+05:30"},{"city":"Satna","state":"Madhya Pradesh","latitude":24.6005,"longitude":80.8322,"temp":30.7,"humidity":43,"rain":0.0,"pressure":978.4,"uv_index":7.55,"wind_gusts":34.2,"aqi":153,"pm10":142.5,"pm2_5":58.4,"mosquito_risk":0,"arthritis_risk":5,"migraine_risk":7,"frizz_risk":1,"updated_at":"2026-03-11T10:15:35.352246+05:30"},{"city":"Akola","state":"Maharashtra","latitude":20.7002,"longitude":77.0082,"temp":32.8,"humidity":28,"rain":0.0,"pressure":981.8,"uv_index":8.0,"wind_gusts":16.2,"aqi":67,"pm10":27.5,"pm2_5":23.0,"mosquito_risk":0,"arthritis_risk":5,"migraine_risk":7,"frizz_risk":0,"updated_at":"2026-03-11T10:15:35.352252+05:30"},{"city":"Amravati","state":"Maharashtra","latitude":20.9374,"longitude":77.7796,"temp":33.6,"humidity":29,"rain":0.0,"pressure":974.1,"uv_index":8.0,"wind_gusts":9.7,"aqi":69,"pm10":30.6,"pm2_5":24.7,"mosquito_risk":0,"arthritis_risk":5,"migraine_risk":7,"frizz_risk":0,"updated_at":"2026-03-11T10:15:35.352259+05:30"},{"city":"Latur","state":"Maharashtra","latitude":18.4088,"longitude":76.5604,"temp":29.6,"humidity":37,"rain":0.0,"pressure":946.6,"uv_index":8.45,"wind_gusts":24.1,"aqi":117,"pm10":29.3,"pm2_5":26.0,"mosquito_risk":4,"arthritis_risk":5,"migraine_risk":7,"frizz_risk":0,"updated_at":"2026-03-11T10:15:35.352266+05:30"},{"city":"Nanded","state":"Maharashtra","latitude":19.1383,"longitude":77.3091,"temp":31.5,"humidity":40,"rain":0.0,"pressure":975.7,"uv_index":8.2,"wind_gusts":18.0,"aqi":126,"pm10":53.6,"pm2_5":48.0,"mosquito_risk":0,"arthritis_risk":5,"migraine_risk":7,"frizz_risk":1,"updated_at":"2026-03-11T10:15:35.352272+05:30"},{"city":"Gulbarga","state":"Karnataka","latitude":17.3297,"longitude":76.8343,"temp":29.7,"humidity":38,"rain":0.0,"pressure":965.7,"uv_index":8.5,"wind_gusts":21.6,"aqi":116,"pm10":19.8,"pm2_5":17.8,"mosquito_risk":4,"arthritis_risk":5,"migraine_risk":7,"frizz_risk":0,"updated_at":"2026-03-11T10:15:35.352277+05:30"},{"city":"Bidar","state":"Karnataka","latitude":17.9104,"longitude":77.5199,"temp":29.5,"humidity":33,"rain":0.0,"pressure":942.5,"uv_index":8.5,"wind_gusts":22.7,"aqi":118,"pm10":25.4,"pm2_5":21.2,"mosquito_risk":4,"arthritis_risk":5,"migraine_risk":7,"frizz_risk":0,"updated_at":"2026-03-11T10:15:35.352283+05:30"},{"city":"Hospet","state":"Karnataka","latitude":15.2689,"longitude":76.3909,"temp":27.3,"humidity":53,"rain":0.0,"pressure":962.1,"uv_index":8.8,"wind_gusts":25.6,"aqi":91,"pm10":24.2,"pm2_5":22.1,"mosquito_risk":4,"arthritis_risk":5,"migraine_risk":7,"frizz_risk":1,"updated_at":"2026-03-11T10:15:35.352289+05:30"},{"city":"Tirupur","state":"Tamil Nadu","latitude":11.1085,"longitude":77.3411,"temp":28.5,"humidity":56,"rain":0.0,"pressure":981.1,"uv_index":9.25,"wind_gusts":31.0,"aqi":91,"pm10":27.2,"pm2_5":24.3,"mosquito_risk":4,"arthritis_risk":5,"migraine_risk":7,"frizz_risk":1,"updated_at":"2026-03-11T10:15:35.352294+05:30"},{"city":"Alappuzha","state":"Kerala","latitude":9.4981,"longitude":76.3388,"temp":28.1,"humidity":77,"rain":0.0,"pressure":1012.7,"uv_index":8.25,"wind_gusts":37.4,"aqi":127,"pm10":48.4,"pm2_5":41.9,"mosquito_risk":7,"arthritis_risk":0,"migraine_risk":4,"frizz_risk":1,"updated_at":"2026-03-11T10:15:35.352300+05:30"},{"city":"Munnar","state":"Kerala","latitude":10.0889,"longitude":77.0595,"temp":27.2,"humidity":48,"rain":0.0,"pressure":862.1,"uv_index":7.35,"wind_gusts":27.4,"aqi":66,"pm10":15.8,"pm2_5":13.6,"mosquito_risk":4,"arthritis_risk":5,"migraine_risk":7,"frizz_risk":0,"updated_at":"2026-03-11T10:15:35.352305+05:30"},{"city":"Silchar","state":"Assam","latitude":24.8333,"longitude":92.7789,"temp":28.9,"humidity":66,"rain":0.0,"pressure":1011.6,"uv_index":7.65,"wind_gusts":16.6,"aqi":168,"pm10":94.3,"pm2_5":84.5,"mosquito_risk":7,"arthritis_risk":0,"migraine_risk":4,"frizz_risk":1,"updated_at":"2026-03-11T10:15:35.352311+05:30"},{"city":"Dibrugarh","state":"Assam","latitude":27.4728,"longitude":94.912,"temp":26.7,"humidity":68,"rain":0.0,"pressure":1001.7,"uv_index":7.45,"wind_gusts":21.6,"aqi":162,"pm10":91.3,"pm2_5":81.0,"mosquito_risk":7,"arthritis_risk":5,"migraine_risk":4,"frizz_risk":1,"updated_at":"2026-03-11T10:15:35.352316+05:30"}]