[{"city":"Delhi","state":"Delhi","latitude":28.6139,"longitude":77.209,"temp":34.8,"humidity":22,"rain":0.0,"pressure":976.0,"uv_index":7.75,"wind_gusts":45.0,"aqi":669,"pm10":821.4,"pm2_5":168.6,"no2":22.4,"co":476.0,"o3":58.0,"so2":10.8,"mosquito_risk":0,"arthritis_risk":5,"migraine_risk":7,"frizz_risk":0,"updated_at":"2026-05-19T00:23:45.102222+05:30"},{"city":"Mumbai","state":"Maharashtra","latitude":19.076,"longitude":72.8777,"temp":29.0,"humidity":83,"rain":0.0,"pressure":1005.8,"uv_index":7.55,"wind_gusts":44.6,"aqi":69,"pm10":45.1,"pm2_5":21.7,"no2":8.3,"co":221.0,"o3":61.0,"so2":5.1,"mosquito_risk":7,"arthritis_risk":5,"migraine_risk":4,"frizz_risk":1,"updated_at":"2026-05-19T00:23:45.102259+05:30"},{"city":"Bangalore","state":"Karnataka","latitude":12.9716,"longitude":77.5946,"temp":22.5,"humidity":97,"rain":0.0,"pressure":910.7,"uv_index":8.55,"wind_gusts":32.8,"aqi":83,"pm10":26.7,"pm2_5":23.8,"no2":24.5,"co":362.0,"o3":69.0,"so2":8.2,"mosquito_risk":3,"arthritis_risk":5,"migraine_risk":7,"frizz_risk":1,"updated_at":"2026-05-19T00:23:45.102275+05:30"},{"city":"Hyderabad","state":"Telangana","latitude":17.385,"longitude":78.4867,"temp":31.1,"humidity":50,"rain":0.0,"pressure":950.8,"uv_index":9.25,"wind_gusts":25.6,"aqi":60,"pm10":29.8,"pm2_5":26.0,"no2":16.7,"co":448.0,"o3":80.0,"so2":8.6,"mosquito_risk":0,"arthritis_risk":5,"migraine_risk":7,"frizz_risk":1,"updated_at":"2026-05-19T00:23:45.102285+05:30"},{"city":"Chennai","state":"Tamil Nadu","latitude":13.0827,"longitude":80.2707,"temp":30.0,"humidity":81,"rain":0.0,"pressure":1004.4,"uv_index":9.05,"wind_gusts":45.0,"aqi":76,"pm10":20.4,"pm2_5":15.5,"no2":9.2,"co":326.0,"o3":83.0,"so2":8.3,"mosquito_risk":7,"arthritis_risk":5,"migraine_risk":4,"frizz_risk":1,"updated_at":"2026-05-19T00:23:45.102293+05:30"},{"city":"Kolkata","state":"West Bengal","latitude":22.5726,"longitude":88.3639,"temp":28.9,"humidity":90,"rain":0.0,"pressure":1001.2,"uv_index":8.95,"wind_gusts":34.9,"aqi":71,"pm10":22.4,"pm2_5":18.5,"no2":8.0,"co":293.0,"o3":68.0,"so2":6.2,"mosquito_risk":7,"arthritis_risk":5,"migraine_risk":4,"frizz_risk":1,"updated_at":"2026-05-19T00:23:45.102301+05:30"},{"city":"Pune","state":"Maharashtra","latitude":18.5204,"longitude":73.8567,"temp":27.0,"humidity":76,"rain":0.0,"pressure":945.5,"uv_index":8.4,"wind_gusts":48.6,"aqi":125,"pm10":38.8,"pm2_5":28.0,"no2":15.4,"co":240.0,"o3":105.0,"so2":24.7,"mosquito_risk":7,"arthritis_risk":5,"migraine_risk":7,"frizz_risk":1,"updated_at":"2026-05-19T00:23:45.102309+05:30"},{"city":"Ahmedabad","state":"Gujarat","latitude":23.0225,"longitude":72.5714,"temp":34.0,"humidity":32,"rain":0.0,"pressure":997.6,"uv_index":8.05,"wind_gusts":35.6,"aqi":65,"pm10":37.0,"pm2_5":21.8,"no2":8.0,"co":204.0,"o3":69.0,"so2":3.9,"mosquito_risk":0,"arthritis_risk":5,"migraine_risk":7,"frizz_risk":0,"updated_at":"2026-05-19T00:23:45.102316+05:30"},{"city":"Jaipur","state":"Rajasthan","latitude":26.9124,"longitude":75.7873,"temp":34.5,"humidity":21,"rain":0.0,"pressure":955.3,"uv_index":8.25,"wind_gusts":43.2,"aqi":159,"pm10":297.1,"pm2_5":57.4,"no2":7.7,"co":206.0,"o3":78.0,"so2":5.4,"mosquito_risk":0,"arthritis_risk":5,"migraine_risk":7,"frizz_risk":0,"updated_at":"2026-05-19T00:23:45.102327+05:30"},{"city":"Lucknow","state":"Uttar Pradesh","latitude":26.8467,"longitude":80.9462,"temp":33.8,"humidity":41,"rain":0.0,"pressure":986.6,"uv_index":8.2,"wind_gusts":37.4,"aqi":183,"pm10":367.9,"pm2_5":101.7,"no2":34.9,"co":517.0,"o3":56.0,"so2":16.6,"mosquito_risk":0,"arthritis_risk":5,"migraine_risk":7,"frizz_risk":1,"updated_at":"2026-05-19T00:23:45.102334+05:30"},{"city":"Kanpur","state":"Uttar Pradesh","latitude":26.4499,"longitude":80.3319,"temp":34.4,"humidity":35,"rain":0.0,"pressure":985.0,"uv_index":8.25,"wind_gusts":44.3,"aqi":359,"pm10":678.0,"pm2_5":139.7,"no2":30.7,"co":468.0,"o3":60.0,"so2":16.4,"mosquito_risk":0,"arthritis_risk":5,"migraine_risk":7,"frizz_risk":1,"updated_at":"2026-05-19T00:23:45.102340+05:30"},{"city":"Chandigarh","state":"Chandigarh","latitude":30.7333,"longitude":76.7794,"temp":31.2,"humidity":34,"rain":0.0,"pressure":961.8,"uv_index":7.75,"wind_gusts":38.5,"aqi":106,"pm10":42.1,"pm2_5":27.6,"no2":18.7,"co":448.0,"o3":98.0,"so2":14.8,"mosquito_risk":0,"arthritis_risk":5,"migraine_risk":7,"frizz_risk":0,"updated_at":"2026-05-19T00:23:45.102349+05:30"},{"city":"Srinagar","state":"Jammu and Kashmir","latitude":34.0837,"longitude":74.7973,"temp":14.4,"humidity":92,"rain":0.0,"pressure":837.4,"uv_index":8.95,"wind_gusts":21.2,"aqi":69,"pm10":43.2,"pm2_5":34.3,"no2":32.5,"co":872.0,"o3":22.0,"so2":1.4,"mosquito_risk":3,"arthritis_risk":10,"migraine_risk":7,"frizz_risk":0,"updated_at":"2026-05-19T00:23:45.102357+05:30"},{"city":"Jammu","state":"Jammu and Kashmir","latitude":32.7266,"longitude":74.857,"temp":27.6,"humidity":45,"rain":0.0,"pressure":965.3,"uv_index":8.55,"wind_gusts":29.2,"aqi":74,"pm10":39.7,"pm2_5":37.0,"no2":44.2,"co":693.0,"o3":21.0,"so2":5.5,"mosquito_risk":4,"arthritis_risk":5,"migraine_risk":7,"frizz_risk":0,"updated_at":"2026-05-19T00:23:45.102363+05:30"},{"city":"Amritsar","state":"Punjab","latitude":31.634,"longitude":74.8723,"temp":31.6,"humidity":46,"rain":0.0,"pressure":973.5,"uv_index":8.45,"wind_gusts":24.5,"aqi":83,"pm10":80.1,"pm2_5":54.9,"no2":39.1,"co":723.0,"o3":67.0,"so2":19.0,"mosquito_risk":0,"arthritis_risk":5,"migraine_risk":7,"frizz_risk":1,"updated_at":"2026-05-19T00:23:45.102370+05:30"},{"city":"Ludhiana","state":"Punjab","latitude":30.901,"longitude":75.8573,"temp":31.9,"humidity":49,"rain":0.0,"pressure":971.6,"uv_index":8.0,"wind_gusts":25.9,"aqi":96,"pm10":75.2,"pm2_5":39.7,"no2":15.6,"co":1383.0,"o3":74.0,"so2":8.1,"mosquito_risk":0,"arthritis_risk":5,"migraine_risk":7,"frizz_risk":1,"updated_at":"2026-05-19T00:23:45.102376+05:30"},{"city":"Jalandhar","state":"Punjab","latitude":31.326,"longitude":75.5762,"temp":31.0,"humidity":47,"rain":0.0,"pressure":972.7,"uv_index":8.2,"wind_gusts":25.6,"aqi":106,"pm10":81.7,"pm2_5":44.2,"no2":18.6,"co":1103.0,"o3":74.0,"so2":10.3,"mosquito_risk":0,"arthritis_risk":5,"migraine_risk":7,"frizz_risk":1,"updated_at":"2026-05-19T00:23:45.102382+05:30"},{"city":"Dehradun","state":"Uttarakhand","latitude":30.6284,"longitude":78.0322,"temp":16.6,"humidity":75,"rain":0.0,"pressure":825.1,"uv_index":8.2,"wind_gusts":38.9,"aqi":103,"pm10":20.0,"pm2_5":18.6,"no2":33.1,"co":240.0,"o3":69.0,"so2":3.8,"mosquito_risk":3,"arthritis_risk":5,"migraine_risk":7,"frizz_risk":0,"updated_at":"2026-05-19T00:23:45.102388+05:30"},{"city":"Shimla","state":"Himachal Pradesh","latitude":31.1048,"longitude":77.1734,"temp":17.6,"humidity":48,"rain":0.0,"pressure":782.6,"uv_index":8.3,"wind_gusts":45.7,"aqi":114,"pm10":22.1,"pm2_5":17.6,"no2":18.5,"co":290.0,"o3":110.0,"so2":5.9,"mosquito_risk":0,"arthritis_risk":5,"migraine_risk":7,"frizz_risk":0,"updated_at":"2026-05-19T00:23:45.102396+05:30"},{"city":"Manali","state":"Himachal Pradesh","latitude":32.2396,"longitude":77.1887,"temp":12.6,"humidity":40,"rain":0.0,"pressure":812.9,"uv_index":9.9,"wind_gusts":54.0,"aqi":45,"pm10":8.1,"pm2_5":5.2,"no2":91.8,"co":358.0,"o3":11.0,"so2":0.0,"mosquito_risk":0,"arthritis_risk":5,"migraine_risk":7,"frizz_risk":1,"updated_at":"2026-05-19T00:23:45.102403+05:30"},{"city":"Gurgaon","state":"Haryana","latitude":28.4595,"longitude":77.0266,"temp":31.9,"humidity":30,"rain":0.0,"pressure":974.6,"uv_index":7.85,"wind_gusts":43.6,"aqi":1310,"pm10":2011.7,"pm2_5":297.1,"no2":18.1,"co":301.0,"o3":62.0,"so2":9.7,"mosquito_risk":0,"arthritis_risk":5,"migraine_risk":7,"frizz_risk":0,"updated_at":"2026-05-19T00:23:45.102409+05:30"},{"city":"Noida","state":"Uttar Pradesh","latitude":28.5355,"longitude":77.391,"temp":32.6,"humidity":29,"rain":0.0,"pressure":977.1,"uv_index":7.75,"wind_gusts":34.9,"aqi":1310,"pm10":2011.7,"pm2_5":297.1,"no2":18.1,"co":546.0,"o3":62.0,"so2":9.7,"mosquito_risk":0,"arthritis_risk":5,"migraine_risk":7,"frizz_risk":0,"updated_at":"2026-05-19T00:23:45.102416+05:30"},{"city":"Ghaziabad","state":"Uttar Pradesh","latitude":28.6692,"longitude":77.4538,"temp":33.5,"humidity":28,"rain":0.0,"pressure":975.4,"uv_index":7.75,"wind_gusts":36.0,"aqi":542,"pm10":827.0,"pm2_5":177.4,"no2":28.7,"co":329.0,"o3":54.0,"so2":18.6,"mosquito_risk":0,"arthritis_risk":5,"migraine_risk":7,"frizz_risk":0,"updated_at":"2026-05-19T00:23:45.102422+05:30"},{"city":"Faridabad","state":"Haryana","latitude":28.4089,"longitude":77.3178,"temp":34.5,"humidity":23,"rain":0.0,"pressure":976.6,"uv_index":7.8,"wind_gusts":45.4,"aqi":1310,"pm10":2011.7,"pm2_5":297.1,"no2":18.1,"co":372.0,"o3":62.0,"so2":9.7,"mosquito_risk":0,"arthritis_risk":5,"migraine_risk":7,"frizz_risk":0,"updated_at":"2026-05-19T00:23:45.102441+05:30"},{"city":"Meerut","state":"Uttar Pradesh","latitude":28.9845,"longitude":77.7064,"temp":31.9,"humidity":30,"rain":0.0,"pressure":974.2,"uv_index":7.65,"wind_gusts":37.4,"aqi":542,"pm10":827.0,"pm2_5":177.4,"no2":28.7,"co":449.0,"o3":54.0,"so2":18.6,"mosquito_risk":0,"arthritis_risk":5,"migraine_risk":7,"frizz_risk":0,"updated_at":"2026-05-19T00:23:45.102448+05:30"},{"city":"Agra","state":"Uttar Pradesh","latitude":27.1767,"longitude":78.0081,"temp":34.2,"humidity":24,"rain":0.0,"pressure":980.8,"uv_index":8.1,"wind_gusts":45.0,"aqi":653,"pm10":825.2,"pm2_5":121.1,"no2":17.8,"co":331.0,"o3":52.0,"so2":7.5,"mosquito_risk":0,"arthritis_risk":5,"migraine_risk":7,"frizz_risk":0,"updated_at":"2026-05-19T00:23:45.102455+05:30"},{"city":"Varanasi","state":"Uttar Pradesh","latitude":25.3176,"longitude":82.9739,"temp":32.9,"humidity":42,"rain":0.0,"pressure":991.2,"uv_index":8.7,"wind_gusts":46.4,"aqi":107,"pm10":151.8,"pm2_5":77.1,"no2":45.1,"co":538.0,"o3":39.0,"so2":19.0,"mosquito_risk":0,"arthritis_risk":5,"migraine_risk":7,"frizz_risk":1,"updated_at":"2026-05-19T00:23:45.102461+05:30"},{"city":"Prayagraj","state":"Uttar Pradesh","latitude":25.4358,"longitude":81.8463,"temp":33.7,"humidity":36,"rain":0.0,"pressure":989.4,"uv_index":8.6,"wind_gusts":44.6,"aqi":135,"pm10":237.0,"pm2_5":94.1,"no2":39.4,"co":392.0,"o3":50.0,"so2":17.7,"mosquito_risk":0,"arthritis_risk":5,"migraine_risk":7,"frizz_risk":1,"updated_at":"2026-05-19T00:23:45.102468+05:30"},{"city":"Gorakhpur","state":"Uttar Pradesh","latitude":26.7606,"longitude":83.3732,"temp":29.8,"humidity":67,"rain":0.0,"pressure":991.4,"uv_index":8.6,"wind_gusts":27.4,"aqi":163,"pm10":163.0,"pm2_5":103.4,"no2":41.8,"co":649.0,"o3":50.0,"so2":19.3,"mosquito_risk":7,"arthritis_risk":5,"migraine_risk":7,"frizz_risk":1,"updated_at":"2026-05-19T00:23:45.102477+05:30"},{"city":"Bareilly","state":"Uttar Pradesh","latitude":28.367,"longitude":79.4304,"temp":29.0,"humidity":67,"rain":0.0,"pressure":979.4,"uv_index":8.0,"wind_gusts":33.8,"aqi":154,"pm10":82.2,"pm2_5":67.8,"no2":47.5,"co":737.0,"o3":57.0,"so2":20.0,"mosquito_risk":7,"arthritis_risk":5,"migraine_risk":7,"frizz_risk":1,"updated_at":"2026-05-19T00:23:45.102484+05:30"},{"city":"Aligarh","state":"Uttar Pradesh","latitude":27.8974,"longitude":78.088,"temp":32.7,"humidity":34,"rain":0.0,"pressure":978.3,"uv_index":7.9,"wind_gusts":40.0,"aqi":781,"pm10":1233.1,"pm2_5":213.7,"no2":19.7,"co":318.0,"o3":56.0,"so2":8.7,"mosquito_risk":0,"arthritis_risk":5,"migraine_risk":7,"frizz_risk":0,"updated_at":"2026-05-19T00:23:45.102490+05:30"},{"city":"Moradabad","state":"Uttar Pradesh","latitude":28.8386,"longitude":78.7733,"temp":30.5,"humidity":62,"rain":0.0,"pressure":976.4,"uv_index":7.85,"wind_gusts":38.9,"aqi":163,"pm10":270.1,"pm2_5":126.7,"no2":79.9,"co":1077.0,"o3":23.0,"so2":27.4,"mosquito_risk":3,"arthritis_risk":5,"migraine_risk":7,"frizz_risk":1,"updated_at":"2026-05-19T00:23:45.102498+05:30"},{"city":"Saharanpur","state":"Uttar Pradesh","latitude":29.9637,"longitude":77.546,"temp":31.1,"humidity":37,"rain":0.0,"pressure":968.3,"uv_index":7.4,"wind_gusts":36.0,"aqi":113,"pm10":50.8,"pm2_5":32.2,"no2":17.7,"co":387.0,"o3":90.0,"so2":12.5,"mosquito_risk":0,"arthritis_risk":5,"migraine_risk":7,"frizz_risk":0,"updated_at":"2026-05-19T00:23:45.102504+05:30"},{"city":"Jhansi","state":"Uttar Pradesh","latitude":25.4484,"longitude":78.5685,"temp":33.9,"humidity":29,"rain":0.0,"pressure":972.0,"uv_index":8.45,"wind_gusts":46.4,"aqi":69,"pm10":45.6,"pm2_5":22.8,"no2":6.4,"co":194.0,"o3":59.0,"so2":3.4,"mosquito_risk":0,"arthritis_risk":5,"migraine_risk":7,"frizz_risk":0,"updated_at":"2026-05-19T00:23:48.489639+05:30"},{"city":"Surat","state":"Gujarat","latitude":21.1702,"longitude":72.8311,"temp":29.6,"humidity":80,"rain":0.0,"pressure":1002.3,"uv_index":7.25,"wind_gusts":33.5,"aqi":92,"pm10":41.3,"pm2_5":28.2,"no2":28.1,"co":431.0,"o3":40.0,"so2":42.8,"mosquito_risk":7,"arthritis_risk":5,"migraine_risk":4,"frizz_risk":1,"updated_at":"2026-05-19T00:23:48.489665+05:30"},{"city":"Vadodara","state":"Gujarat","latitude":22.3072,"longitude":73.1812,"temp":32.0,"humidity":51,"rain":0.0,"pressure":999.8,"uv_index":7.85,"wind_gusts":37.1,"aqi":71,"pm10":36.3,"pm2_5":26.9,"no2":24.5,"co":262.0,"o3":49.0,"so2":18.0,"mosquito_risk":0,"arthritis_risk":5,"migraine_risk":7,"frizz_risk":1,"updated_at":"2026-05-19T00:23:48.489674+05:30"},{"city":"Rajkot","state":"Gujarat","latitude":22.3039,"longitude":70.8022,"temp":27.1,"humidity":75,"rain":0.0,"pressure":991.4,"uv_index":7.1,"wind_gusts":40.0,"aqi":68,"pm10":40.6,"pm2_5":17.4,"no2":7.9,"co":154.0,"o3":49.0,"so2":6.5,"mosquito_risk":7,"arthritis_risk":5,"migraine_risk":7,"frizz_risk":1,"updated_at":"2026-05-19T00:23:48.489683+05:30"},{"city":"Thane","state":"Maharashtra","latitude":19.2183,"longitude":72.9781,"temp":28.9,"humidity":84,"rain":0.0,"pressure":1005.1,"uv_index":7.6,"wind_gusts":39.6,"aqi":69,"pm10":45.1,"pm2_5":21.7,"no2":8.3,"co":197.0,"o3":61.0,"so2":5.1,"mosquito_risk":7,"arthritis_risk":5,"migraine_risk":4,"frizz_risk":1,"updated_at":"2026-05-19T00:23:48.489690+05:30"},{"city":"Nagpur","state":"Maharashtra","latitude":21.1458,"longitude":79.0882,"temp":34.0,"humidity":37,"rain":0.0,"pressure":969.0,"uv_index":8.95,"wind_gusts":36.7,"aqi":78,"pm10":34.7,"pm2_5":27.8,"no2":29.0,"co":242.0,"o3":64.0,"so2":14.5,"mosquito_risk":0,"arthritis_risk":5,"migraine_risk":7,"frizz_risk":1,"updated_at":"2026-05-19T00:23:48.489697+05:30"},{"city":"Nashik","state":"Maharashtra","latitude":19.9975,"longitude":73.7898,"temp":28.1,"humidity":49,"rain":0.0,"pressure":942.4,"uv_index":6.7,"wind_gusts":46.4,"aqi":67,"pm10":30.3,"pm2_5":19.7,"no2":12.8,"co":230.0,"o3":69.0,"so2":3.9,"mosquito_risk":4,"arthritis_risk":5,"migraine_risk":7,"frizz_risk":1,"updated_at":"2026-05-19T00:23:48.489704+05:30"},{"city":"Aurangabad","state":"Maharashtra","latitude":19.8762,"longitude":75.3433,"temp":32.5,"humidity":30,"rain":0.0,"pressure":940.7,"uv_index":9.0,"wind_gusts":38.9,"aqi":65,"pm10":28.3,"pm2_5":20.4,"no2":7.3,"co":221.0,"o3":120.0,"so2":9.4,"mosquito_risk":0,"arthritis_risk":5,"migraine_risk":7,"frizz_risk":0,"updated_at":"2026-05-19T00:23:48.489710+05:30"},{"city":"Solapur","state":"Maharashtra","latitude":17.6599,"longitude":75.9064,"temp":32.0,"humidity":48,"rain":0.0,"pressure":954.7,"uv_index":8.6,"wind_gusts":32.8,"aqi":105,"pm10":33.4,"pm2_5":29.3,"no2":10.2,"co":173.0,"o3":109.0,"so2":5.4,"mosquito_risk":0,"arthritis_risk":5,"migraine_risk":7,"frizz_risk":1,"updated_at":"2026-05-19T00:23:48.489717+05:30"},{"city":"Kolhapur","state":"Maharashtra","latitude":16.705,"longitude":74.2433,"temp":25.3,"humidity":87,"rain":0.0,"pressure":945.9,"uv_index":8.45,"wind_gusts":41.4,"aqi":58,"pm10":26.9,"pm2_5":16.8,"no2":7.3,"co":177.0,"o3":61.0,"so2":3.6,"mosquito_risk":7,"arthritis_risk":5,"migraine_risk":7,"frizz_risk":1,"updated_at":"2026-05-19T00:23:48.489724+05:30"},{"city":"Goa","state":"Goa","latitude":15.2993,"longitude":74.124,"temp":26.8,"humidity":90,"rain":0.0,"pressure":996.3,"uv_index":7.15,"wind_gusts":34.9,"aqi":67,"pm10":56.1,"pm2_5":26.4,"no2":7.5,"co":254.0,"o3":49.0,"so2":2.1,"mosquito_risk":7,"arthritis_risk":5,"migraine_risk":7,"frizz_risk":1,"updated_at":"2026-05-19T00:23:48.489730+05:30"},{"city":"Jodhpur","state":"Rajasthan","latitude":26.2389,"longitude":73.0243,"temp":33.4,"humidity":18,"rain":0.0,"pressure":978.3,"uv_index":8.35,"wind_gusts":41.0,"aqi":140,"pm10":240.3,"pm2_5":49.0,"no2":6.9,"co":179.0,"o3":73.0,"so2":2.8,"mosquito_risk":0,"arthritis_risk":5,"migraine_risk":7,"frizz_risk":0,"updated_at":"2026-05-19T00:23:48.489736+05:30"},{"city":"Udaipur","state":"Rajasthan","latitude":24.5854,"longitude":73.7125,"temp":31.9,"humidity":20,"rain":0.0,"pressure":943.1,"uv_index":8.85,"wind_gusts":45.4,"aqi":57,"pm10":33.3,"pm2_5":15.3,"no2":2.8,"co":149.0,"o3":84.0,"so2":2.8,"mosquito_risk":0,"arthritis_risk":5,"migraine_risk":7,"frizz_risk":0,"updated_at":"2026-05-19T00:23:48.489743+05:30"},{"city":"Kota","state":"Rajasthan","latitude":25.2138,"longitude":75.8648,"temp":34.8,"humidity":25,"rain":0.0,"pressure":973.6,"uv_index":8.4,"wind_gusts":36.0,"aqi":83,"pm10":71.9,"pm2_5":35.4,"no2":18.1,"co":242.0,"o3":50.0,"so2":5.3,"mosquito_risk":0,"arthritis_risk":5,"migraine_risk":7,"frizz_risk":0,"updated_at":"2026-05-19T00:23:48.489749+05:30"},{"city":"Bikaner","state":"Rajasthan","latitude":28.0229,"longitude":73.3119,"temp":33.9,"humidity":15,"rain":0.0,"pressure":976.3,"uv_index":8.4,"wind_gusts":41.0,"aqi":87,"pm10":185.8,"pm2_5":51.7,"no2":2.4,"co":144.0,"o3":88.0,"so2":2.4,"mosquito_risk":0,"arthritis_risk":5,"migraine_risk":7,"frizz_risk":0,"updated_at":"2026-05-19T00:23:48.489755+05:30"},{"city":"Ajmer","state":"Rajasthan","latitude":26.4499,"longitude":74.6399,"temp":32.0,"humidity":23,"rain":0.0,"pressure":950.9,"uv_index":8.4,"wind_gusts":42.1,"aqi":81,"pm10":62.2,"pm2_5":21.3,"no2":5.3,"co":206.0,"o3":81.0,"so2":4.8,"mosquito_risk":0,"arthritis_risk":5,"migraine_risk":7,"frizz_risk":0,"updated_at":"2026-05-19T00:23:48.489761+05:30"},{"city":"Gwalior","state":"Madhya Pradesh","latitude":26.2183,"longitude":78.1828,"temp":35.1,"humidity":23,"rain":0.0,"pressure":977.1,"uv_index":8.25,"wind_gusts":47.5,"aqi":83,"pm10":41.2,"pm2_5":22.5,"no2":10.2,"co":200.0,"o3":52.0,"so2":4.5,"mosquito_risk":0,"arthritis_risk":5,"migraine_risk":10,"frizz_risk":0,"updated_at":"2026-05-19T00:23:48.489768+05:30"},{"city":"Indore","state":"Madhya Pradesh","latitude":22.7196,"longitude":75.8577,"temp":33.8,"humidity":22,"rain":0.0,"pressure":944.7,"uv_index":8.65,"wind_gusts":52.2,"aqi":77,"pm10":51.6,"pm2_5":31.3,"no2":14.6,"co":300.0,"o3":69.0,"so2":8.4,"mosquito_risk":0,"arthritis_risk":5,"migraine_risk":7,"frizz_risk":0,"updated_at":"2026-05-19T00:23:48.489774+05:30"},{"city":"Bhopal","state":"Madhya Pradesh","latitude":23.2599,"longitude":77.4126,"temp":34.0,"humidity":22,"rain":0.0,"pressure":948.9,"uv_index":8.7,"wind_gusts":38.9,"aqi":69,"pm10":68.7,"pm2_5":29.8,"no2":9.9,"co":669.0,"o3":75.0,"so2":6.9,"mosquito_risk":0,"arthritis_risk":5,"migraine_risk":7,"frizz_risk":0,"updated_at":"2026-05-19T00:23:48.489781+05:30"},{"city":"Jabalpur","state":"Madhya Pradesh","latitude":23.1815,"longitude":79.9864,"temp":32.7,"humidity":34,"rain":0.0,"pressure":957.2,"uv_index":8.85,"wind_gusts":34.9,"aqi":86,"pm10":51.8,"pm2_5":27.4,"no2":16.8,"co":363.0,"o3":70.0,"so2":6.3,"mosquito_risk":0,"arthritis_risk":5,"migraine_risk":7,"frizz_risk":0,"updated_at":"2026-05-19T00:23:48.489788+05:30"},{"city":"Ujjain","state":"Madhya Pradesh","latitude":23.1765,"longitude":75.7885,"temp":33.6,"humidity":22,"rain":0.0,"pressure":949.9,"uv_index":8.4,"wind_gusts":37.8,"aqi":67,"pm10":36.4,"pm2_5":22.5,"no2":5.6,"co":247.0,"o3":84.0,"so2":5.2,"mosquito_risk":0,"arthritis_risk":5,"migraine_risk":7,"frizz_risk":0,"updated_at":"2026-05-19T00:23:48.489795+05:30"},{"city":"Visakhapatnam","state":"Andhra Pradesh","latitude":17.6868,"longitude":83.2185,"temp":29.4,"humidity":86,"rain":0.0,"pressure":1001.2,"uv_index":9.05,"wind_gusts":47.9,"aqi":64,"pm10":21.7,"pm2_5":16.1,"no2":14.5,"co":284.0,"o3":66.0,"so2":27.3,"mosquito_risk":7,"arthritis_risk":5,"migraine_risk":4,"frizz_risk":1,"updated_at":"2026-05-19T00:23:48.489801+05:30"},{"city":"Vijayawada","state":"Andhra Pradesh","latitude":16.5062,"longitude":80.648,"temp":29.8,"humidity":80,"rain":0.0,"pressure":1000.2,"uv_index":8.6,"wind_gusts":33.1,"aqi":68,"pm10":18.6,"pm2_5":14.4,"no2":5.7,"co":247.0,"o3":81.0,"so2":5.6,"mosquito_risk":7,"arthritis_risk":5,"migraine_risk":4,"frizz_risk":1,"updated_at":"2026-05-19T00:23:48.489827+05:30"},{"city":"Guntur","state":"Andhra Pradesh","latitude":16.3067,"longitude":80.4365,"temp":29.6,"humidity":83,"rain":0.0,"pressure":1001.2,"uv_index":9.2,"wind_gusts":36.0,"aqi":78,"pm10":19.8,"pm2_5":15.9,"no2":5.3,"co":223.0,"o3":91.0,"so2":4.8,"mosquito_risk":7,"arthritis_risk":5,"migraine_risk":4,"frizz_risk":1,"updated_at":"2026-05-19T00:23:48.489836+05:30"},{"city":"Nellore","state":"Andhra Pradesh","latitude":14.4426,"longitude":79.9865,"temp":31.1,"humidity":72,"rain":0.0,"pressure":1002.5,"uv_index":9.1,"wind_gusts":40.7,"aqi":111,"pm10":22.2,"pm2_5":18.6,"no2":7.7,"co":316.0,"o3":110.0,"so2":11.5,"mosquito_risk":3,"arthritis_risk":5,"migraine_risk":4,"frizz_risk":1,"updated_at":"2026-05-19T00:23:48.489843+05:30"},{"city":"Kurnool","state":"Andhra Pradesh","latitude":15.8281,"longitude":78.0373,"temp":32.7,"humidity":50,"rain":0.0,"pressure":973.9,"uv_index":8.8,"wind_gusts":33.5,"aqi":61,"pm10":30.6,"pm2_5":25.8,"no2":20.5,"co":215.0,"o3":49.0,"so2":4.0,"mosquito_risk":0,"arthritis_risk":5,"migraine_risk":7,"frizz_risk":1,"updated_at":"2026-05-19T00:23:48.489850+05:30"},{"city":"Kakinada","state":"Andhra Pradesh","latitude":16.9891,"longitude":82.2475,"temp":29.7,"humidity":81,"rain":0.0,"pressure":1005.2,"uv_index":9.1,"wind_gusts":38.2,"aqi":55,"pm10":19.3,"pm2_5":12.2,"no2":1.9,"co":225.0,"o3":75.0,"so2":1.4,"mosquito_risk":7,"arthritis_risk":5,"migraine_risk":4,"frizz_risk":1,"updated_at":"2026-05-19T00:23:48.489857+05:30"},{"city":"Tirupati","state":"Andhra Pradesh","latitude":13.6288,"longitude":79.4192,"temp":28.3,"humidity":77,"rain":0.0,"pressure":988.5,"uv_index":8.6,"wind_gusts":29.2,"aqi":71,"pm10":24.3,"pm2_5":22.9,"no2":14.0,"co":277.0,"o3":102.0,"so2":13.7,"mosquito_risk":7,"arthritis_risk":5,"migraine_risk":7,"frizz_risk":1,"updated_at":"2026-05-19T00:23:48.489863+05:30"},{"city":"Warangal","state":"Telangana","latitude":17.9689,"longitude":79.5941,"temp":31.0,"humidity":56,"rain":0.0,"pressure":975.5,"uv_index":9.15,"wind_gusts":36.4,"aqi":70,"pm10":39.3,"pm2_5":36.0,"no2":16.1,"co":419.0,"o3":84.0,"so2":7.7,"mosquito_risk":0,"arthritis_risk":5,"migraine_risk":7,"frizz_risk":1,"updated_at":"2026-05-19T00:23:48.489869+05:30"},{"city":"Nizamabad","state":"Telangana","latitude":18.6725,"longitude":78.0941,"temp":32.0,"humidity":46,"rain":0.0,"pressure":961.0,"uv_index":9.1,"wind_gusts":28.1,"aqi":87,"pm10":31.7,"pm2_5":28.0,"no2":9.3,"co":274.0,"o3":99.0,"so2":4.9,"mosquito_risk":0,"arthritis_risk":5,"migraine_risk":7,"frizz_risk":1,"updated_at":"2026-05-19T00:23:48.489875+05:30"},{"city":"Mysore","state":"Karnataka","latitude":12.2958,"longitude":76.6396,"temp":22.5,"humidity":92,"rain":0.0,"pressure":927.7,"uv_index":4.5,"wind_gusts":37.8,"aqi":53,"pm10":9.6,"pm2_5":8.9,"no2":10.6,"co":264.0,"o3":64.0,"so2":2.8,"mosquito_risk":3,"arthritis_risk":5,"migraine_risk":3,"frizz_risk":1,"updated_at":"2026-05-19T00:23:48.489881+05:30"},{"city":"Mangalore","state":"Karnataka","latitude":12.9141,"longitude":74.856,"temp":24.6,"humidity":100,"rain":0.0,"pressure":1006.2,"uv_index":3.45,"wind_gusts":27.0,"aqi":58,"pm10":13.1,"pm2_5":11.2,"no2":11.2,"co":332.0,"o3":55.0,"so2":4.2,"mosquito_risk":3,"arthritis_risk":5,"migraine_risk":0,"frizz_risk":1,"updated_at":"2026-05-19T00:23:48.489888+05:30"},{"city":"Hubli-Dharwad","state":"Karnataka","latitude":15.3647,"longitude":75.124,"temp":24.4,"humidity":95,"rain":0.0,"pressure":939.2,"uv_index":8.6,"wind_gusts":50.0,"aqi":57,"pm10":18.3,"pm2_5":12.2,"no2":10.1,"co":168.0,"o3":44.0,"so2":2.3,"mosquito_risk":3,"arthritis_risk":5,"migraine_risk":7,"frizz_risk":1,"updated_at":"2026-05-19T00:23:48.489894+05:30"},{"city":"Belgaum","state":"Karnataka","latitude":15.8497,"longitude":74.4977,"temp":23.6,"humidity":92,"rain":0.0,"pressure":924.1,"uv_index":7.95,"wind_gusts":49.0,"aqi":58,"pm10":27.0,"pm2_5":15.5,"no2":8.8,"co":136.0,"o3":45.0,"so2":2.5,"mosquito_risk":3,"arthritis_risk":5,"migraine_risk":7,"frizz_risk":1,"updated_at":"2026-05-19T00:23:51.820010+05:30"},{"city":"Coimbatore","state":"Tamil Nadu","latitude":11.0168,"longitude":76.9558,"temp":24.4,"humidity":85,"rain":0.0,"pressure":961.2,"uv_index":5.9,"wind_gusts":52.9,"aqi":34,"pm10":4.4,"pm2_5":3.9,"no2":6.6,"co":195.0,"o3":54.0,"so2":2.6,"mosquito_risk":3,"arthritis_risk":5,"migraine_risk":3,"frizz_risk":1,"updated_at":"2026-05-19T00:23:51.820041+05:30"},{"city":"Madurai","state":"Tamil Nadu","latitude":9.9252,"longitude":78.1198,"temp":27.9,"humidity":73,"rain":0.0,"pressure":992.2,"uv_index":8.8,"wind_gusts":37.8,"aqi":62,"pm10":21.8,"pm2_5":21.0,"no2":36.0,"co":523.0,"o3":20.0,"so2":7.6,"mosquito_risk":7,"arthritis_risk":5,"migraine_risk":7,"frizz_risk":1,"updated_at":"2026-05-19T00:23:51.820052+05:30"},{"city":"Trichy","state":"Tamil Nadu","latitude":10.7905,"longitude":78.7047,"temp":27.1,"humidity":85,"rain":0.0,"pressure":998.6,"uv_index":9.0,"wind_gusts":30.2,"aqi":58,"pm10":16.6,"pm2_5":16.0,"no2":21.4,"co":359.0,"o3":46.0,"so2":5.1,"mosquito_risk":7,"arthritis_risk":5,"migraine_risk":7,"frizz_risk":1,"updated_at":"2026-05-19T00:23:51.820060+05:30"},{"city":"Salem","state":"Tamil Nadu","latitude":11.6643,"longitude":78.146,"temp":27.1,"humidity":82,"rain":0.0,"pressure":976.6,"uv_index":8.9,"wind_gusts":35.6,"aqi":51,"pm10":12.3,"pm2_5":11.7,"no2":15.9,"co":399.0,"o3":60.0,"so2":6.6,"mosquito_risk":7,"arthritis_risk":5,"migraine_risk":7,"frizz_risk":1,"updated_at":"2026-05-19T00:23:51.820068+05:30"},{"city":"Tirunelveli","state":"Tamil Nadu","latitude":8.7139,"longitude":77.7567,"temp":28.3,"humidity":75,"rain":0.0,"pressure":1003.1,"uv_index":8.4,"wind_gusts":26.6,"aqi":30,"pm10":12.1,"pm2_5":9.5,"no2":8.3,"co":230.0,"o3":46.0,"so2":1.8,"mosquito_risk":7,"arthritis_risk":5,"migraine_risk":4,"frizz_risk":1,"updated_at":"2026-05-19T00:23:51.820076+05:30"},{"city":"Vellore","state":"Tamil Nadu","latitude":12.9165,"longitude":79.1325,"temp":28.1,"humidity":75,"rain":0.0,"pressure":982.3,"uv_index":9.15,"wind_gusts":33.8,"aqi":72,"pm10":18.9,"pm2_5":17.6,"no2":12.5,"co":277.0,"o3":77.0,"so2":8.0,"mosquito_risk":7,"arthritis_risk":5,"migraine_risk":7,"frizz_risk":1,"updated_at":"2026-05-19T00:23:51.820083+05:30"},{"city":"Erode","state":"Tamil Nadu","latitude":11.341,"longitude":77.7172,"temp":26.9,"humidity":75,"rain":0.0,"pressure":988.3,"uv_index":7.4,"wind_gusts":36.0,"aqi":41,"pm10":10.8,"pm2_5":10.2,"no2":15.6,"co":233.0,"o3":49.0,"so2":4.1,"mosquito_risk":7,"arthritis_risk":5,"migraine_risk":7,"frizz_risk":1,"updated_at":"2026-05-19T00:23:51.820091+05:30"},{"city":"Kochi","state":"Kerala","latitude":9.9312,"longitude":76.2673,"temp":25.5,"humidity":97,"rain":0.0,"pressure":1009.1,"uv_index":6.85,"wind_gusts":37.8,"aqi":36,"pm10":7.3,"pm2_5":6.3,"no2":9.0,"co":293.0,"o3":47.0,"so2":2.6,"mosquito_risk":7,"arthritis_risk":0,"migraine_risk":4,"frizz_risk":1,"updated_at":"2026-05-19T00:23:51.820098+05:30"},{"city":"Thiruvananthapuram","state":"Kerala","latitude":8.5241,"longitude":76.9366,"temp":25.2,"humidity":95,"rain":0.2,"pressure":1008.9,"uv_index":7.6,"wind_gusts":37.1,"aqi":37,"pm10":18.5,"pm2_5":10.5,"no2":1.6,"co":143.0,"o3":59.0,"so2":0.6,"mosquito_risk":10,"arthritis_risk":0,"migraine_risk":4,"frizz_risk":1,"updated_at":"2026-05-19T00:23:51.820106+05:30"},{"city":"Kozhikode","state":"Kerala","latitude":11.2588,"longitude":75.7804,"temp":25.1,"humidity":99,"rain":0.0,"pressure":1008.0,"uv_index":4.2,"wind_gusts":24.5,"aqi":34,"pm10":7.4,"pm2_5":6.4,"no2":5.5,"co":293.0,"o3":61.0,"so2":2.7,"mosquito_risk":7,"arthritis_risk":0,"migraine_risk":0,"frizz_risk":1,"updated_at":"2026-05-19T00:23:51.820113+05:30"},{"city":"Thrissur","state":"Kerala","latitude":10.5276,"longitude":76.2144,"temp":24.2,"humidity":100,"rain":0.1,"pressure":1007.5,"uv_index":5.6,"wind_gusts":30.2,"aqi":30,"pm10":7.2,"pm2_5":6.5,"no2":9.0,"co":278.0,"o3":45.0,"so2":3.0,"mosquito_risk":6,"arthritis_risk":5,"migraine_risk":0,"frizz_risk":1,"updated_at":"2026-05-19T00:23:51.820121+05:30"},{"city":"Kannur","state":"Kerala","latitude":11.8745,"longitude":75.3704,"temp":26.0,"humidity":94,"rain":0.0,"pressure":1006.9,"uv_index":3.05,"wind_gusts":32.4,"aqi":43,"pm10":9.6,"pm2_5":8.9,"no2":9.9,"co":282.0,"o3":51.0,"so2":3.3,"mosquito_risk":7,"arthritis_risk":5,"migraine_risk":0,"frizz_risk":1,"updated_at":"2026-05-19T00:23:51.820128+05:30"},{"city":"Patna","state":"Bihar","latitude":25.5941,"longitude":85.1376,"temp":29.2,"humidity":78,"rain":0.0,"pressure":995.3,"uv_index":8.8,"wind_gusts":30.6,"aqi":157,"pm10":51.9,"pm2_5":44.2,"no2":13.1,"co":517.0,"o3":112.0,"so2":15.7,"mosquito_risk":7,"arthritis_risk":5,"migraine_risk":7,"frizz_risk":1,"updated_at":"2026-05-19T00:23:51.820135+05:30"},{"city":"Gaya","state":"Bihar","latitude":24.7914,"longitude":85.0002,"temp":29.6,"humidity":54,"rain":0.0,"pressure":988.0,"uv_index":8.85,"wind_gusts":38.2,"aqi":139,"pm10":95.7,"pm2_5":60.3,"no2":14.5,"co":385.0,"o3":105.0,"so2":15.3,"mosquito_risk":4,"arthritis_risk":5,"migraine_risk":7,"frizz_risk":1,"updated_at":"2026-05-19T00:23:51.820143+05:30"},{"city":"Muzaffarpur","state":"Bihar","latitude":26.1209,"longitude":85.3647,"temp":28.1,"humidity":80,"rain":0.0,"pressure":995.8,"uv_index":8.8,"wind_gusts":32.4,"aqi":157,"pm10":56.5,"pm2_5":49.1,"no2":13.4,"co":554.0,"o3":105.0,"so2":14.7,"mosquito_risk":7,"arthritis_risk":5,"migraine_risk":7,"frizz_risk":1,"updated_at":"2026-05-19T00:23:51.820150+05:30"},{"city":"Bhagalpur","state":"Bihar","latitude":25.2425,"longitude":87.0117,"temp":27.6,"humidity":88,"rain":0.0,"pressure":996.8,"uv_index":8.8,"wind_gusts":37.4,"aqi":142,"pm10":36.2,"pm2_5":32.5,"no2":12.3,"co":467.0,"o3":87.0,"so2":6.9,"mosquito_risk":7,"arthritis_risk":5,"migraine_risk":7,"frizz_risk":1,"updated_at":"2026-05-19T00:23:51.820157+05:30"},{"city":"Ranchi","state":"Jharkhand","latitude":23.3441,"longitude":85.3096,"temp":26.2,"humidity":58,"rain":0.0,"pressure":933.5,"uv_index":9.25,"wind_gusts":42.1,"aqi":132,"pm10":48.0,"pm2_5":35.7,"no2":10.3,"co":277.0,"o3":113.0,"so2":10.3,"mosquito_risk":4,"arthritis_risk":5,"migraine_risk":7,"frizz_risk":1,"updated_at":"2026-05-19T00:23:51.820164+05:30"},{"city":"Jamshedpur","state":"Jharkhand","latitude":22.8046,"longitude":86.2029,"temp":28.7,"humidity":59,"rain":0.0,"pressure":985.9,"uv_index":9.05,"wind_gusts":37.8,"aqi":127,"pm10":72.2,"pm2_5":53.7,"no2":25.4,"co":564.0,"o3":93.0,"so2":32.5,"mosquito_risk":4,"arthritis_risk":5,"migraine_risk":7,"frizz_risk":1,"updated_at":"2026-05-19T00:23:51.820172+05:30"},{"city":"Dhanbad","state":"Jharkhand","latitude":23.7957,"longitude":86.4304,"temp":28.9,"humidity":61,"rain":0.0,"pressure":974.6,"uv_index":9.0,"wind_gusts":38.9,"aqi":158,"pm10":101.0,"pm2_5":84.8,"no2":66.5,"co":1040.0,"o3":51.0,"so2":142.8,"mosquito_risk":7,"arthritis_risk":5,"migraine_risk":7,"frizz_risk":1,"updated_at":"2026-05-19T00:23:51.820180+05:30"},{"city":"Bokaro","state":"Jharkhand","latitude":23.6693,"longitude":86.1511,"temp":27.2,"humidity":70,"rain":0.0,"pressure":978.3,"uv_index":9.05,"wind_gusts":37.8,"aqi":153,"pm10":94.5,"pm2_5":68.0,"no2":42.9,"co":889.0,"o3":64.0,"so2":88.0,"mosquito_risk":7,"arthritis_risk":5,"migraine_risk":7,"frizz_risk":1,"updated_at":"2026-05-19T00:23:51.820187+05:30"},{"city":"Bhubaneswar","state":"Odisha","latitude":20.2961,"longitude":85.8245,"temp":29.5,"humidity":85,"rain":0.0,"pressure":998.6,"uv_index":9.1,"wind_gusts":41.0,"aqi":62,"pm10":17.3,"pm2_5":13.8,"no2":5.0,"co":215.0,"o3":73.0,"so2":4.7,"mosquito_risk":7,"arthritis_risk":5,"migraine_risk":7,"frizz_risk":1,"updated_at":"2026-05-19T00:23:51.820194+05:30"},{"city":"Cuttack","state":"Odisha","latitude":20.4625,"longitude":85.8828,"temp":29.4,"humidity":86,"rain":0.0,"pressure":1000.2,"uv_index":9.15,"wind_gusts":31.0,"aqi":62,"pm10":17.3,"pm2_5":13.8,"no2":5.0,"co":227.0,"o3":73.0,"so2":4.7,"mosquito_risk":7,"arthritis_risk":5,"migraine_risk":4,"frizz_risk":1,"updated_at":"2026-05-19T00:23:51.820201+05:30"},{"city":"Rourkela","state":"Odisha","latitude":22.2604,"longitude":84.8536,"temp":29.7,"humidity":60,"rain":0.0,"pressure":980.0,"uv_index":8.95,"wind_gusts":39.2,"aqi":137,"pm10":73.6,"pm2_5":53.2,"no2":23.4,"co":481.0,"o3":110.0,"so2":18.0,"mosquito_risk":4,"arthritis_risk":5,"migraine_risk":7,"frizz_risk":1,"updated_at":"2026-05-19T00:23:51.820209+05:30"},{"city":"Raipur","state":"Chhattisgarh","latitude":21.2514,"longitude":81.6296,"temp":32.5,"humidity":39,"rain":0.0,"pressure":970.0,"uv_index":8.95,"wind_gusts":42.8,"aqi":109,"pm10":43.1,"pm2_5":40.2,"no2":31.2,"co":399.0,"o3":72.0,"so2":39.5,"mosquito_risk":0,"arthritis_risk":5,"migraine_risk":7,"frizz_risk":1,"updated_at":"2026-05-19T00:23:51.820215+05:30"},{"city":"Bhilai","state":"Chhattisgarh","latitude":21.1938,"longitude":81.3509,"temp":31.8,"humidity":40,"rain":0.0,"pressure":970.4,"uv_index":8.95,"wind_gusts":43.2,"aqi":99,"pm10":40.2,"pm2_5":37.4,"no2":30.2,"co":494.0,"o3":74.0,"so2":40.2,"mosquito_risk":0,"arthritis_risk":5,"migraine_risk":7,"frizz_risk":1,"updated_at":"2026-05-19T00:23:51.820222+05:30"},{"city":"Guwahati","state":"Assam","latitude":26.1158,"longitude":91.7086,"temp":23.0,"humidity":98,"rain":0.0,"pressure":999.8,"uv_index":8.3,"wind_gusts":27.7,"aqi":63,"pm10":21.6,"pm2_5":19.0,"no2":9.9,"co":377.0,"o3":65.0,"so2":3.9,"mosquito_risk":3,"arthritis_risk":5,"migraine_risk":7,"frizz_risk":1,"updated_at":"2026-05-19T00:23:51.820229+05:30"},{"city":"Agartala","state":"Tripura","latitude":23.8315,"longitude":91.2868,"temp":26.2,"humidity":90,"rain":0.0,"pressure":1002.7,"uv_index":8.9,"wind_gusts":47.5,"aqi":75,"pm10":28.4,"pm2_5":22.9,"no2":13.1,"co":235.0,"o3":39.0,"so2":2.2,"mosquito_risk":7,"arthritis_risk":5,"migraine_risk":4,"frizz_risk":1,"updated_at":"2026-05-19T00:23:51.820236+05:30"},{"city":"Shillong","state":"Meghalaya","latitude":25.5788,"longitude":91.8933,"temp":16.6,"humidity":100,"rain":0.0,"pressure":854.2,"uv_index":7.8,"wind_gusts":44.3,"aqi":43,"pm10":20.7,"pm2_5":15.7,"no2":9.6,"co":297.0,"o3":64.0,"so2":4.1,"mosquito_risk":3,"arthritis_risk":10,"migraine_risk":7,"frizz_risk":1,"updated_at":"2026-05-19T00:23:51.820243+05:30"},{"city":"Imphal","state":"Manipur","latitude":24.817,"longitude":93.9368,"temp":20.6,"humidity":100,"rain":0.0,"pressure":921.0,"uv_index":9.2,"wind_gusts":36.7,"aqi":85,"pm10":21.9,"pm2_5":17.1,"no2":11.5,"co":938.0,"o3":56.0,"so2":3.5,"mosquito_risk":3,"arthritis_risk":5,"migraine_risk":7,"frizz_risk":1,"updated_at":"2026-05-19T00:23:51.820252+05:30"},{"city":"Aizawl","state":"Mizoram","latitude":23.7271,"longitude":92.7176,"temp":19.0,"humidity":92,"rain":0.0,"pressure":889.9,"uv_index":9.1,"wind_gusts":33.1,"aqi":74,"pm10":34.2,"pm2_5":22.8,"no2":5.7,"co":208.0,"o3":68.0,"so2":3.6,"mosquito_risk":3,"arthritis_risk":10,"migraine_risk":7,"frizz_risk":1,"updated_at":"2026-05-19T00:23:51.820258+05:30"},{"city":"Kohima","state":"Nagaland","latitude":25.6701,"longitude":94.1077,"temp":16.1,"humidity":95,"rain":0.0,"pressure":852.3,"uv_index":8.8,"wind_gusts":33.8,"aqi":60,"pm10":19.7,"pm2_5":12.6,"no2":10.4,"co":280.0,"o3":43.0,"so2":2.2,"mosquito_risk":3,"arthritis_risk":10,"migraine_risk":7,"frizz_risk":0,"updated_at":"2026-05-19T00:23:51.820265+05:30"},{"city":"Gangtok","state":"Sikkim","latitude":27.3314,"longitude":88.6138,"temp":16.5,"humidity":97,"rain":0.1,"pressure":835.7,"uv_index":9.05,"wind_gusts":35.6,"aqi":77,"pm10":31.7,"pm2_5":27.4,"no2":16.6,"co":780.0,"o3":72.0,"so2":2.1,"mosquito_risk":6,"arthritis_risk":10,"migraine_risk":7,"frizz_risk":0,"updated_at":"2026-05-19T00:23:51.820272+05:30"},{"city":"Siliguri","state":"West Bengal","latitude":26.7271,"longitude":88.3953,"temp":23.8,"humidity":95,"rain":0.0,"pressure":990.9,"uv_index":8.75,"wind_gusts":31.3,"aqi":116,"pm10":59.1,"pm2_5":48.1,"no2":12.8,"co":457.0,"o3":108.0,"so2":6.6,"mosquito_risk":3,"arthritis_risk":5,"migraine_risk":7,"frizz_risk":1,"updated_at":"2026-05-19T00:23:55.173892+05:30"},{"city":"Durgapur","state":"West Bengal","latitude":23.5204,"longitude":87.3119,"temp":28.8,"humidity":89,"rain":0.0,"pressure":989.9,"uv_index":8.95,"wind_gusts":37.8,"aqi":154,"pm10":73.6,"pm2_5":67.8,"no2":30.1,"co":523.0,"o3":73.0,"so2":39.2,"mosquito_risk":7,"arthritis_risk":5,"migraine_risk":7,"frizz_risk":1,"updated_at":"2026-05-19T00:23:55.173926+05:30"},{"city":"Asansol","state":"West Bengal","latitude":23.6739,"longitude":86.9524,"temp":28.5,"humidity":82,"rain":0.0,"pressure":988.4,"uv_index":8.95,"wind_gusts":33.5,"aqi":153,"pm10":76.6,"pm2_5":68.7,"no2":47.8,"co":475.0,"o3":61.0,"so2":65.2,"mosquito_risk":7,"arthritis_risk":5,"migraine_risk":7,"frizz_risk":1,"updated_at":"2026-05-19T00:23:55.173939+05:30"},{"city":"Pondicherry","state":"Puducherry","latitude":11.9139,"longitude":79.8145,"temp":29.0,"humidity":82,"rain":0.0,"pressure":1006.1,"uv_index":8.85,"wind_gusts":39.2,"aqi":66,"pm10":14.1,"pm2_5":11.0,"no2":10.0,"co":308.0,"o3":66.0,"so2":9.3,"mosquito_risk":7,"arthritis_risk":5,"migraine_risk":4,"frizz_risk":1,"updated_at":"2026-05-19T00:23:55.173953+05:30"},{"city":"Port Blair","state":"Andaman and Nicobar Islands","latitude":11.6234,"longitude":92.7265,"temp":25.6,"humidity":96,"rain":0.1,"pressure":1006.1,"uv_index":8.55,"wind_gusts":45.7,"aqi":27,"pm10":8.2,"pm2_5":4.8,"no2":0.2,"co":118.0,"o3":51.0,"so2":0.2,"mosquito_risk":10,"arthritis_risk":5,"migraine_risk":4,"frizz_risk":1,"updated_at":"2026-05-19T00:23:55.173963+05:30"},{"city":"Haridwar","state":"Uttarakhand","latitude":29.9457,"longitude":78.1642,"temp":26.0,"humidity":69,"rain":0.0,"pressure":966.2,"uv_index":7.55,"wind_gusts":27.0,"aqi":101,"pm10":49.7,"pm2_5":34.7,"no2":26.2,"co":501.0,"o3":65.0,"so2":12.4,"mosquito_risk":7,"arthritis_risk":5,"migraine_risk":7,"frizz_risk":1,"updated_at":"2026-05-19T00:23:55.173972+05:30"},{"city":"Rishikesh","state":"Uttarakhand","latitude":30.0869,"longitude":78.2676,"temp":23.4,"humidity":67,"rain":0.0,"pressure":958.8,"uv_index":7.65,"wind_gusts":28.8,"aqi":136,"pm10":39.3,"pm2_5":24.0,"no2":15.5,"co":405.0,"o3":111.0,"so2":9.4,"mosquito_risk":3,"arthritis_risk":5,"migraine_risk":7,"frizz_risk":1,"updated_at":"2026-05-19T00:23:55.173981+05:30"},{"city":"Nainital","state":"Uttarakhand","latitude":29.3919,"longitude":79.4542,"temp":17.7,"humidity":62,"rain":0.0,"pressure":802.4,"uv_index":8.5,"wind_gusts":31.3,"aqi":144,"pm10":34.0,"pm2_5":23.2,"no2":12.1,"co":346.0,"o3":125.0,"so2":7.2,"mosquito_risk":3,"arthritis_risk":5,"migraine_risk":7,"frizz_risk":0,"updated_at":"2026-05-19T00:23:55.173990+05:30"},{"city":"Mussoorie","state":"Uttarakhand","latitude":30.4599,"longitude":78.0664,"temp":17.9,"humidity":54,"rain":0.0,"pressure":799.5,"uv_index":8.05,"wind_gusts":45.4,"aqi":109,"pm10":34.2,"pm2_5":28.9,"no2":35.8,"co":313.0,"o3":75.0,"so2":11.7,"mosquito_risk":0,"arthritis_risk":5,"migraine_risk":7,"frizz_risk":0,"updated_at":"2026-05-19T00:23:55.173999+05:30"},{"city":"Dharamshala","state":"Himachal Pradesh","latitude":32.219,"longitude":76.3234,"temp":24.9,"humidity":46,"rain":0.0,"pressure":866.6,"uv_index":8.45,"wind_gusts":40.0,"aqi":48,"pm10":14.9,"pm2_5":13.0,"no2":18.1,"co":262.0,"o3":27.0,"so2":0.5,"mosquito_risk":0,"arthritis_risk":5,"migraine_risk":7,"frizz_risk":0,"updated_at":"2026-05-19T00:23:55.174008+05:30"},{"city":"Dalhousie","state":"Himachal Pradesh","latitude":32.5387,"longitude":75.971,"temp":17.2,"humidity":64,"rain":0.0,"pressure":801.6,"uv_index":8.7,"wind_gusts":41.0,"aqi":112,"pm10":25.5,"pm2_5":22.4,"no2":29.2,"co":474.0,"o3":68.0,"so2":2.9,"mosquito_risk":3,"arthritis_risk":5,"migraine_risk":7,"frizz_risk":0,"updated_at":"2026-05-19T00:23:55.174017+05:30"},{"city":"Patiala","state":"Punjab","latitude":30.3398,"longitude":76.3869,"temp":32.1,"humidity":43,"rain":0.0,"pressure":971.1,"uv_index":7.65,"wind_gusts":35.3,"aqi":440,"pm10":256.1,"pm2_5":68.7,"no2":17.1,"co":560.0,"o3":65.0,"so2":9.5,"mosquito_risk":0,"arthritis_risk":5,"migraine_risk":7,"frizz_risk":1,"updated_at":"2026-05-19T00:23:55.174026+05:30"},{"city":"Bhatinda","state":"Punjab","latitude":30.211,"longitude":74.9455,"temp":31.3,"humidity":35,"rain":0.0,"pressure":976.4,"uv_index":8.3,"wind_gusts":37.8,"aqi":89,"pm10":81.5,"pm2_5":55.4,"no2":34.3,"co":452.0,"o3":48.0,"so2":9.6,"mosquito_risk":0,"arthritis_risk":5,"migraine_risk":7,"frizz_risk":0,"updated_at":"2026-05-19T00:23:55.174034+05:30"},{"city":"Rohtak","state":"Haryana","latitude":28.8955,"longitude":76.6066,"temp":31.8,"humidity":29,"rain":0.0,"pressure":974.7,"uv_index":7.75,"wind_gusts":42.8,"aqi":838,"pm10":972.3,"pm2_5":163.0,"no2":13.2,"co":333.0,"o3":65.0,"so2":4.0,"mosquito_risk":0,"arthritis_risk":5,"migraine_risk":7,"frizz_risk":0,"updated_at":"2026-05-19T00:23:55.174042+05:30"},{"city":"Panipat","state":"Haryana","latitude":29.3909,"longitude":76.9635,"temp":31.5,"humidity":31,"rain":0.0,"pressure":973.1,"uv_index":7.6,"wind_gusts":36.7,"aqi":1659,"pm10":2108.5,"pm2_5":326.0,"no2":14.5,"co":389.0,"o3":65.0,"so2":6.3,"mosquito_risk":0,"arthritis_risk":5,"migraine_risk":7,"frizz_risk":0,"updated_at":"2026-05-19T00:23:55.174050+05:30"},{"city":"Mathura","state":"Uttar Pradesh","latitude":27.4924,"longitude":77.6737,"temp":33.4,"humidity":25,"rain":0.0,"pressure":979.9,"uv_index":8.0,"wind_gusts":42.8,"aqi":713,"pm10":912.7,"pm2_5":129.9,"no2":12.4,"co":318.0,"o3":61.0,"so2":4.3,"mosquito_risk":0,"arthritis_risk":5,"migraine_risk":7,"frizz_risk":0,"updated_at":"2026-05-19T00:23:55.174058+05:30"},{"city":"Vrindavan","state":"Uttar Pradesh","latitude":27.5823,"longitude":77.7027,"temp":32.0,"humidity":29,"rain":0.0,"pressure":980.2,"uv_index":8.0,"wind_gusts":40.0,"aqi":713,"pm10":912.7,"pm2_5":129.9,"no2":12.4,"co":282.0,"o3":61.0,"so2":4.3,"mosquito_risk":0,"arthritis_risk":5,"migraine_risk":7,"frizz_risk":0,"updated_at":"2026-05-19T00:23:55.174067+05:30"},{"city":"Ayodhya","state":"Uttar Pradesh","latitude":26.7922,"longitude":82.1998,"temp":29.8,"humidity":54,"rain":0.0,"pressure":988.6,"uv_index":8.35,"wind_gusts":23.0,"aqi":161,"pm10":185.3,"pm2_5":94.8,"no2":48.2,"co":726.0,"o3":45.0,"so2":17.4,"mosquito_risk":4,"arthritis_risk":5,"migraine_risk":7,"frizz_risk":1,"updated_at":"2026-05-19T00:23:55.174075+05:30"},{"city":"Ratlam","state":"Madhya Pradesh","latitude":23.3315,"longitude":75.0367,"temp":32.2,"humidity":26,"rain":0.0,"pressure":951.1,"uv_index":8.55,"wind_gusts":47.2,"aqi":61,"pm10":34.1,"pm2_5":19.0,"no2":2.8,"co":184.0,"o3":99.0,"so2":5.2,"mosquito_risk":0,"arthritis_risk":5,"migraine_risk":7,"frizz_risk":0,"updated_at":"2026-05-19T00:23:55.174084+05:30"},{"city":"Sagar","state":"Madhya Pradesh","latitude":23.8388,"longitude":78.7378,"temp":32.5,"humidity":27,"rain":0.0,"pressure":945.9,"uv_index":8.75,"wind_gusts":43.6,"aqi":70,"pm10":68.0,"pm2_5":24.7,"no2":11.8,"co":218.0,"o3":64.0,"so2":3.4,"mosquito_risk":0,"arthritis_risk":5,"migraine_risk":7,"frizz_risk":0,"updated_at":"2026-05-19T00:23:55.174092+05:30"},{"city":"Satna","state":"Madhya Pradesh","latitude":24.6005,"longitude":80.8322,"temp":32.2,"humidity":33,"rain":0.0,"pressure":965.7,"uv_index":8.75,"wind_gusts":55.1,"aqi":79,"pm10":137.8,"pm2_5":40.2,"no2":16.2,"co":271.0,"o3":68.0,"so2":4.9,"mosquito_risk":0,"arthritis_risk":5,"migraine_risk":7,"frizz_risk":0,"updated_at":"2026-05-19T00:23:55.174100+05:30"},{"city":"Akola","state":"Maharashtra","latitude":20.7002,"longitude":77.0082,"temp":35.9,"humidity":23,"rain":0.0,"pressure":970.3,"uv_index":8.85,"wind_gusts":31.7,"aqi":57,"pm10":42.1,"pm2_5":29.6,"no2":29.0,"co":277.0,"o3":60.0,"so2":7.3,"mosquito_risk":0,"arthritis_risk":5,"migraine_risk":10,"frizz_risk":0,"updated_at":"2026-05-19T00:23:55.174110+05:30"},{"city":"Amravati","state":"Maharashtra","latitude":20.9374,"longitude":77.7796,"temp":35.2,"humidity":31,"rain":0.0,"pressure":963.0,"uv_index":8.9,"wind_gusts":33.5,"aqi":59,"pm10":43.7,"pm2_5":33.3,"no2":40.2,"co":252.0,"o3":42.0,"so2":9.0,"mosquito_risk":0,"arthritis_risk":5,"migraine_risk":10,"frizz_risk":0,"updated_at":"2026-05-19T00:23:55.174119+05:30"},{"city":"Latur","state":"Maharashtra","latitude":18.4088,"longitude":76.5604,"temp":31.6,"humidity":47,"rain":0.0,"pressure":937.0,"uv_index":9.05,"wind_gusts":31.7,"aqi":94,"pm10":34.2,"pm2_5":31.4,"no2":9.3,"co":365.0,"o3":108.0,"so2":4.6,"mosquito_risk":0,"arthritis_risk":5,"migraine_risk":7,"frizz_risk":1,"updated_at":"2026-05-19T00:23:55.174127+05:30"},{"city":"Nanded","state":"Maharashtra","latitude":19.1383,"longitude":77.3091,"temp":34.4,"humidity":37,"rain":0.0,"pressure":964.7,"uv_index":9.0,"wind_gusts":30.6,"aqi":75,"pm10":36.1,"pm2_5":32.5,"no2":10.3,"co":356.0,"o3":100.0,"so2":5.9,"mosquito_risk":0,"arthritis_risk":5,"migraine_risk":7,"frizz_risk":1,"updated_at":"2026-05-19T00:23:55.174136+05:30"},{"city":"Gulbarga","state":"Karnataka","latitude":17.3297,"longitude":76.8343,"temp":31.0,"humidity":61,"rain":0.0,"pressure":955.6,"uv_index":9.05,"wind_gusts":27.4,"aqi":81,"pm10":37.0,"pm2_5":32.7,"no2":27.1,"co":261.0,"o3":70.0,"so2":8.2,"mosquito_risk":3,"arthritis_risk":5,"migraine_risk":7,"frizz_risk":1,"updated_at":"2026-05-19T00:23:55.174144+05:30"},{"city":"Bidar","state":"Karnataka","latitude":17.9104,"longitude":77.5199,"temp":30.6,"humidity":51,"rain":0.0,"pressure":933.0,"uv_index":9.1,"wind_gusts":32.8,"aqi":77,"pm10":35.7,"pm2_5":32.2,"no2":20.1,"co":300.0,"o3":76.0,"so2":5.7,"mosquito_risk":0,"arthritis_risk":5,"migraine_risk":7,"frizz_risk":1,"updated_at":"2026-05-19T00:23:55.174152+05:30"},{"city":"Hospet","state":"Karnataka","latitude":15.2689,"longitude":76.3909,"temp":26.0,"humidity":88,"rain":0.0,"pressure":953.9,"uv_index":8.45,"wind_gusts":39.2,"aqi":88,"pm10":16.5,"pm2_5":14.2,"no2":11.1,"co":208.0,"o3":65.0,"so2":2.8,"mosquito_risk":7,"arthritis_risk":5,"migraine_risk":7,"frizz_risk":1,"updated_at":"2026-05-19T00:23:55.174160+05:30"},{"city":"Tirupur","state":"Tamil Nadu","latitude":11.1085,"longitude":77.3411,"temp":25.4,"humidity":81,"rain":0.0,"pressure":974.5,"uv_index":8.25,"wind_gusts":51.1,"aqi":43,"pm10":9.8,"pm2_5":9.2,"no2":14.1,"co":180.0,"o3":48.0,"so2":4.6,"mosquito_risk":7,"arthritis_risk":5,"migraine_risk":7,"frizz_risk":1,"updated_at":"2026-05-19T00:23:55.174168+05:30"},{"city":"Alappuzha","state":"Kerala","latitude":9.4981,"longitude":76.3388,"temp":25.0,"humidity":100,"rain":0.0,"pressure":1009.2,"uv_index":7.3,"wind_gusts":39.2,"aqi":32,"pm10":10.6,"pm2_5":8.3,"no2":7.0,"co":129.0,"o3":57.0,"so2":1.6,"mosquito_risk":7,"arthritis_risk":0,"migraine_risk":4,"frizz_risk":1,"updated_at":"2026-05-19T00:23:55.174174+05:30"},{"city":"Munnar","state":"Kerala","latitude":10.0889,"longitude":77.0595,"temp":17.5,"humidity":100,"rain":0.0,"pressure":856.7,"uv_index":5.25,"wind_gusts":26.6,"aqi":27,"pm10":4.7,"pm2_5":4.6,"no2":8.4,"co":142.0,"o3":36.0,"so2":1.5,"mosquito_risk":3,"arthritis_risk":10,"migraine_risk":3,"frizz_risk":1,"updated_at":"2026-05-19T00:23:55.174182+05:30"},{"city":"Silchar","state":"Assam","latitude":24.8333,"longitude":92.7789,"temp":23.5,"humidity":100,"rain":0.7,"pressure":1003.2,"uv_index":6.05,"wind_gusts":22.0,"aqi":83,"pm10":43.0,"pm2_5":30.0,"no2":9.6,"co":269.0,"o3":71.0,"so2":5.0,"mosquito_risk":6,"arthritis_risk":5,"migraine_risk":4,"frizz_risk":1,"updated_at":"2026-05-19T00:23:55.174188+05:30"},{"city":"Dibrugarh","state":"Assam","latitude":27.4728,"longitude":94.912,"temp":21.6,"humidity":97,"rain":0.0,"pressure":994.2,"uv_index":7.85,"wind_gusts":26.6,"aqi":87,"pm10":61.0,"pm2_5":53.3,"no2":35.9,"co":351.0,"o3":4.0,"so2":2.8,"mosquito_risk":3,"arthritis_risk":5,"migraine_risk":7,"frizz_risk":1,"updated_at":"2026-05-19T00:23:55.174195+05:30"}]