[{"city":"Delhi","state":"Delhi","latitude":28.6139,"longitude":77.209,"temp":32.0,"humidity":40,"rain":0.0,"pressure":977.6,"uv_index":7.7,"wind_gusts":43.9,"aqi":603,"pm10":810.3,"pm2_5":196.0,"no2":34.3,"co":209.0,"o3":43.0,"so2":16.8,"mosquito_risk":0,"arthritis_risk":5,"migraine_risk":7,"frizz_risk":1,"updated_at":"2026-06-22T02:47:01.324857+05:30"},{"city":"Mumbai","state":"Maharashtra","latitude":19.076,"longitude":72.8777,"temp":26.1,"humidity":91,"rain":0.2,"pressure":1006.2,"uv_index":7.7,"wind_gusts":42.8,"aqi":49,"pm10":10.9,"pm2_5":7.0,"no2":5.3,"co":123.0,"o3":39.0,"so2":4.0,"mosquito_risk":10,"arthritis_risk":5,"migraine_risk":4,"frizz_risk":1,"updated_at":"2026-06-22T02:47:01.325032+05:30"},{"city":"Bangalore","state":"Karnataka","latitude":12.9716,"longitude":77.5946,"temp":21.2,"humidity":97,"rain":0.0,"pressure":910.3,"uv_index":8.9,"wind_gusts":47.9,"aqi":37,"pm10":6.9,"pm2_5":6.6,"no2":12.0,"co":204.0,"o3":30.0,"so2":5.6,"mosquito_risk":3,"arthritis_risk":5,"migraine_risk":7,"frizz_risk":1,"updated_at":"2026-06-22T02:47:01.325051+05:30"},{"city":"Hyderabad","state":"Telangana","latitude":17.385,"longitude":78.4867,"temp":27.3,"humidity":68,"rain":0.0,"pressure":951.3,"uv_index":8.2,"wind_gusts":41.8,"aqi":66,"pm10":16.9,"pm2_5":14.3,"no2":7.1,"co":191.0,"o3":74.0,"so2":5.1,"mosquito_risk":7,"arthritis_risk":5,"migraine_risk":7,"frizz_risk":1,"updated_at":"2026-06-22T02:47:01.325089+05:30"},{"city":"Chennai","state":"Tamil Nadu","latitude":13.0827,"longitude":80.2707,"temp":27.5,"humidity":85,"rain":0.0,"pressure":1005.6,"uv_index":8.7,"wind_gusts":36.7,"aqi":73,"pm10":26.4,"pm2_5":22.4,"no2":15.0,"co":248.0,"o3":72.0,"so2":15.7,"mosquito_risk":7,"arthritis_risk":5,"migraine_risk":4,"frizz_risk":1,"updated_at":"2026-06-22T02:47:01.325126+05:30"},{"city":"Kolkata","state":"West Bengal","latitude":22.5726,"longitude":88.3639,"temp":27.0,"humidity":95,"rain":0.0,"pressure":1002.0,"uv_index":8.5,"wind_gusts":30.2,"aqi":99,"pm10":41.1,"pm2_5":37.5,"no2":10.3,"co":405.0,"o3":110.0,"so2":9.3,"mosquito_risk":7,"arthritis_risk":5,"migraine_risk":4,"frizz_risk":1,"updated_at":"2026-06-22T02:47:01.325139+05:30"},{"city":"Pune","state":"Maharashtra","latitude":18.5204,"longitude":73.8567,"temp":24.6,"humidity":86,"rain":0.0,"pressure":945.8,"uv_index":8.2,"wind_gusts":42.5,"aqi":44,"pm10":13.1,"pm2_5":9.9,"no2":11.1,"co":107.0,"o3":36.0,"so2":8.5,"mosquito_risk":3,"arthritis_risk":5,"migraine_risk":7,"frizz_risk":1,"updated_at":"2026-06-22T02:47:01.325173+05:30"},{"city":"Ahmedabad","state":"Gujarat","latitude":23.0225,"longitude":72.5714,"temp":31.0,"humidity":61,"rain":0.0,"pressure":998.3,"uv_index":8.0,"wind_gusts":41.0,"aqi":71,"pm10":37.1,"pm2_5":19.0,"no2":5.3,"co":133.0,"o3":46.0,"so2":3.4,"mosquito_risk":3,"arthritis_risk":5,"migraine_risk":7,"frizz_risk":1,"updated_at":"2026-06-22T02:47:01.325187+05:30"},{"city":"Jaipur","state":"Rajasthan","latitude":26.9124,"longitude":75.7873,"temp":27.8,"humidity":65,"rain":0.0,"pressure":955.2,"uv_index":8.2,"wind_gusts":59.4,"aqi":126,"pm10":138.8,"pm2_5":51.2,"no2":19.1,"co":147.0,"o3":36.0,"so2":7.0,"mosquito_risk":7,"arthritis_risk":5,"migraine_risk":7,"frizz_risk":1,"updated_at":"2026-06-22T02:47:01.325196+05:30"},{"city":"Lucknow","state":"Uttar Pradesh","latitude":26.8467,"longitude":80.9462,"temp":32.4,"humidity":45,"rain":0.0,"pressure":987.7,"uv_index":7.85,"wind_gusts":37.8,"aqi":262,"pm10":304.5,"pm2_5":92.2,"no2":15.1,"co":191.0,"o3":62.0,"so2":6.9,"mosquito_risk":0,"arthritis_risk":5,"migraine_risk":7,"frizz_risk":1,"updated_at":"2026-06-22T02:47:01.325209+05:30"},{"city":"Kanpur","state":"Uttar Pradesh","latitude":26.4499,"longitude":80.3319,"temp":32.5,"humidity":43,"rain":0.0,"pressure":986.3,"uv_index":8.3,"wind_gusts":38.5,"aqi":343,"pm10":283.1,"pm2_5":73.3,"no2":16.4,"co":146.0,"o3":45.0,"so2":5.5,"mosquito_risk":0,"arthritis_risk":5,"migraine_risk":7,"frizz_risk":1,"updated_at":"2026-06-22T02:47:01.325218+05:30"},{"city":"Chandigarh","state":"Chandigarh","latitude":30.7333,"longitude":76.7794,"temp":26.2,"humidity":65,"rain":0.0,"pressure":962.9,"uv_index":7.3,"wind_gusts":37.4,"aqi":94,"pm10":35.4,"pm2_5":33.4,"no2":30.7,"co":366.0,"o3":40.0,"so2":8.3,"mosquito_risk":7,"arthritis_risk":5,"migraine_risk":7,"frizz_risk":1,"updated_at":"2026-06-22T02:47:01.325226+05:30"},{"city":"Srinagar","state":"Jammu and Kashmir","latitude":34.0837,"longitude":74.7973,"temp":14.8,"humidity":99,"rain":0.0,"pressure":838.5,"uv_index":9.0,"wind_gusts":28.1,"aqi":74,"pm10":36.0,"pm2_5":34.5,"no2":24.2,"co":523.0,"o3":13.0,"so2":0.8,"mosquito_risk":3,"arthritis_risk":10,"migraine_risk":7,"frizz_risk":0,"updated_at":"2026-06-22T02:47:01.325298+05:30"},{"city":"Jammu","state":"Jammu and Kashmir","latitude":32.7266,"longitude":74.857,"temp":28.4,"humidity":53,"rain":0.0,"pressure":967.3,"uv_index":8.6,"wind_gusts":51.8,"aqi":69,"pm10":34.6,"pm2_5":33.4,"no2":42.7,"co":444.0,"o3":1.0,"so2":2.7,"mosquito_risk":4,"arthritis_risk":5,"migraine_risk":7,"frizz_risk":1,"updated_at":"2026-06-22T02:47:01.325333+05:30"},{"city":"Amritsar","state":"Punjab","latitude":31.634,"longitude":74.8723,"temp":26.2,"humidity":78,"rain":0.0,"pressure":975.0,"uv_index":8.1,"wind_gusts":38.9,"aqi":121,"pm10":66.8,"pm2_5":50.9,"no2":39.5,"co":524.0,"o3":31.0,"so2":8.9,"mosquito_risk":7,"arthritis_risk":5,"migraine_risk":7,"frizz_risk":1,"updated_at":"2026-06-22T02:47:01.325363+05:30"},{"city":"Ludhiana","state":"Punjab","latitude":30.901,"longitude":75.8573,"temp":29.0,"humidity":59,"rain":0.0,"pressure":973.0,"uv_index":7.25,"wind_gusts":47.9,"aqi":138,"pm10":127.1,"pm2_5":61.2,"no2":21.9,"co":553.0,"o3":52.0,"so2":6.5,"mosquito_risk":4,"arthritis_risk":5,"migraine_risk":7,"frizz_risk":1,"updated_at":"2026-06-22T02:47:01.325371+05:30"},{"city":"Jalandhar","state":"Punjab","latitude":31.326,"longitude":75.5762,"temp":28.2,"humidity":61,"rain":0.0,"pressure":974.0,"uv_index":7.05,"wind_gusts":34.2,"aqi":137,"pm10":99.7,"pm2_5":64.5,"no2":41.1,"co":644.0,"o3":32.0,"so2":8.9,"mosquito_risk":7,"arthritis_risk":5,"migraine_risk":7,"frizz_risk":1,"updated_at":"2026-06-22T02:47:01.325379+05:30"},{"city":"Dehradun","state":"Uttarakhand","latitude":30.6284,"longitude":78.0322,"temp":16.4,"humidity":89,"rain":0.0,"pressure":826.5,"uv_index":7.35,"wind_gusts":37.1,"aqi":60,"pm10":26.7,"pm2_5":19.8,"no2":22.5,"co":267.0,"o3":27.0,"so2":0.2,"mosquito_risk":3,"arthritis_risk":10,"migraine_risk":7,"frizz_risk":0,"updated_at":"2026-06-22T02:47:01.325387+05:30"},{"city":"Shimla","state":"Himachal Pradesh","latitude":31.1048,"longitude":77.1734,"temp":14.6,"humidity":65,"rain":0.0,"pressure":780.7,"uv_index":6.2,"wind_gusts":37.4,"aqi":68,"pm10":25.6,"pm2_5":20.5,"no2":19.9,"co":247.0,"o3":56.0,"so2":3.2,"mosquito_risk":3,"arthritis_risk":5,"migraine_risk":7,"frizz_risk":0,"updated_at":"2026-06-22T02:47:01.325395+05:30"},{"city":"Manali","state":"Himachal Pradesh","latitude":32.2396,"longitude":77.1887,"temp":13.7,"humidity":67,"rain":0.0,"pressure":814.5,"uv_index":7.35,"wind_gusts":36.4,"aqi":40,"pm10":5.7,"pm2_5":3.9,"no2":15.0,"co":160.0,"o3":117.0,"so2":0.0,"mosquito_risk":3,"arthritis_risk":5,"migraine_risk":7,"frizz_risk":0,"updated_at":"2026-06-22T02:47:01.325480+05:30"},{"city":"Gurgaon","state":"Haryana","latitude":28.4595,"longitude":77.0266,"temp":29.8,"humidity":45,"rain":0.0,"pressure":975.9,"uv_index":7.85,"wind_gusts":49.3,"aqi":1207,"pm10":1125.0,"pm2_5":210.9,"no2":31.3,"co":203.0,"o3":33.0,"so2":13.5,"mosquito_risk":4,"arthritis_risk":5,"migraine_risk":7,"frizz_risk":1,"updated_at":"2026-06-22T02:47:01.325518+05:30"},{"city":"Noida","state":"Uttar Pradesh","latitude":28.5355,"longitude":77.391,"temp":30.3,"humidity":50,"rain":0.0,"pressure":978.8,"uv_index":7.8,"wind_gusts":35.6,"aqi":1207,"pm10":1125.0,"pm2_5":210.9,"no2":31.3,"co":204.0,"o3":33.0,"so2":13.5,"mosquito_risk":0,"arthritis_risk":5,"migraine_risk":7,"frizz_risk":1,"updated_at":"2026-06-22T02:47:01.325527+05:30"},{"city":"Ghaziabad","state":"Uttar Pradesh","latitude":28.6692,"longitude":77.4538,"temp":30.5,"humidity":53,"rain":0.0,"pressure":977.0,"uv_index":7.8,"wind_gusts":43.9,"aqi":496,"pm10":791.6,"pm2_5":190.5,"no2":39.4,"co":280.0,"o3":45.0,"so2":20.1,"mosquito_risk":0,"arthritis_risk":5,"migraine_risk":7,"frizz_risk":1,"updated_at":"2026-06-22T02:47:01.325535+05:30"},{"city":"Faridabad","state":"Haryana","latitude":28.4089,"longitude":77.3178,"temp":30.9,"humidity":42,"rain":0.0,"pressure":978.2,"uv_index":7.85,"wind_gusts":38.5,"aqi":1207,"pm10":1125.0,"pm2_5":210.9,"no2":31.3,"co":202.0,"o3":33.0,"so2":13.5,"mosquito_risk":0,"arthritis_risk":5,"migraine_risk":7,"frizz_risk":1,"updated_at":"2026-06-22T02:47:01.325543+05:30"},{"city":"Meerut","state":"Uttar Pradesh","latitude":28.9845,"longitude":77.7064,"temp":29.5,"humidity":53,"rain":0.0,"pressure":975.7,"uv_index":7.7,"wind_gusts":42.5,"aqi":496,"pm10":791.6,"pm2_5":190.5,"no2":39.4,"co":357.0,"o3":45.0,"so2":20.1,"mosquito_risk":4,"arthritis_risk":5,"migraine_risk":7,"frizz_risk":1,"updated_at":"2026-06-22T02:47:01.325552+05:30"},{"city":"Agra","state":"Uttar Pradesh","latitude":27.1767,"longitude":78.0081,"temp":30.9,"humidity":50,"rain":0.0,"pressure":982.3,"uv_index":7.2,"wind_gusts":63.0,"aqi":685,"pm10":840.1,"pm2_5":114.6,"no2":18.6,"co":146.0,"o3":40.0,"so2":5.1,"mosquito_risk":0,"arthritis_risk":5,"migraine_risk":7,"frizz_risk":1,"updated_at":"2026-06-22T02:47:01.325560+05:30"},{"city":"Varanasi","state":"Uttar Pradesh","latitude":25.3176,"longitude":82.9739,"temp":29.5,"humidity":66,"rain":0.3,"pressure":992.1,"uv_index":8.8,"wind_gusts":37.8,"aqi":109,"pm10":52.6,"pm2_5":31.2,"no2":10.8,"co":192.0,"o3":57.0,"so2":4.9,"mosquito_risk":10,"arthritis_risk":5,"migraine_risk":7,"frizz_risk":1,"updated_at":"2026-06-22T02:47:01.325639+05:30"},{"city":"Prayagraj","state":"Uttar Pradesh","latitude":25.4358,"longitude":81.8463,"temp":31.3,"humidity":62,"rain":0.0,"pressure":990.9,"uv_index":8.55,"wind_gusts":34.9,"aqi":122,"pm10":45.9,"pm2_5":31.7,"no2":15.3,"co":163.0,"o3":47.0,"so2":6.6,"mosquito_risk":3,"arthritis_risk":5,"migraine_risk":7,"frizz_risk":1,"updated_at":"2026-06-22T02:47:01.325690+05:30"},{"city":"Gorakhpur","state":"Uttar Pradesh","latitude":26.7606,"longitude":83.3732,"temp":27.8,"humidity":88,"rain":0.0,"pressure":991.8,"uv_index":8.3,"wind_gusts":33.1,"aqi":162,"pm10":111.5,"pm2_5":84.1,"no2":35.4,"co":286.0,"o3":35.0,"so2":12.3,"mosquito_risk":7,"arthritis_risk":5,"migraine_risk":7,"frizz_risk":1,"updated_at":"2026-06-22T02:47:01.325699+05:30"},{"city":"Bareilly","state":"Uttar Pradesh","latitude":28.367,"longitude":79.4304,"temp":29.7,"humidity":59,"rain":0.0,"pressure":981.1,"uv_index":8.1,"wind_gusts":41.4,"aqi":166,"pm10":209.1,"pm2_5":86.8,"no2":19.4,"co":397.0,"o3":57.0,"so2":9.6,"mosquito_risk":4,"arthritis_risk":5,"migraine_risk":7,"frizz_risk":1,"updated_at":"2026-06-22T02:47:01.325710+05:30"},{"city":"Aligarh","state":"Uttar Pradesh","latitude":27.8974,"longitude":78.088,"temp":29.1,"humidity":57,"rain":0.0,"pressure":979.9,"uv_index":7.85,"wind_gusts":39.6,"aqi":786,"pm10":638.9,"pm2_5":116.4,"no2":19.9,"co":177.0,"o3":41.0,"so2":5.3,"mosquito_risk":4,"arthritis_risk":5,"migraine_risk":7,"frizz_risk":1,"updated_at":"2026-06-22T02:47:01.325718+05:30"},{"city":"Moradabad","state":"Uttar Pradesh","latitude":28.8386,"longitude":78.7733,"temp":29.9,"humidity":61,"rain":0.0,"pressure":978.0,"uv_index":7.9,"wind_gusts":50.0,"aqi":173,"pm10":388.4,"pm2_5":122.9,"no2":27.4,"co":427.0,"o3":46.0,"so2":11.7,"mosquito_risk":7,"arthritis_risk":5,"migraine_risk":7,"frizz_risk":1,"updated_at":"2026-06-22T02:47:01.325725+05:30"},{"city":"Saharanpur","state":"Uttar Pradesh","latitude":29.9637,"longitude":77.546,"temp":28.1,"humidity":59,"rain":0.0,"pressure":969.8,"uv_index":7.0,"wind_gusts":41.8,"aqi":168,"pm10":482.4,"pm2_5":135.0,"no2":32.9,"co":412.0,"o3":48.0,"so2":10.8,"mosquito_risk":4,"arthritis_risk":5,"migraine_risk":7,"frizz_risk":1,"updated_at":"2026-06-22T02:47:01.325872+05:30"},{"city":"Jhansi","state":"Uttar Pradesh","latitude":25.4484,"longitude":78.5685,"temp":29.8,"humidity":57,"rain":0.0,"pressure":973.4,"uv_index":7.85,"wind_gusts":44.3,"aqi":98,"pm10":57.6,"pm2_5":31.5,"no2":8.2,"co":151.0,"o3":47.0,"so2":3.6,"mosquito_risk":4,"arthritis_risk":5,"migraine_risk":7,"frizz_risk":1,"updated_at":"2026-06-22T02:47:04.670903+05:30"},{"city":"Surat","state":"Gujarat","latitude":21.1702,"longitude":72.8311,"temp":29.5,"humidity":78,"rain":0.0,"pressure":1003.3,"uv_index":7.45,"wind_gusts":38.9,"aqi":59,"pm10":19.2,"pm2_5":13.3,"no2":16.2,"co":223.0,"o3":32.0,"so2":27.4,"mosquito_risk":7,"arthritis_risk":5,"migraine_risk":4,"frizz_risk":1,"updated_at":"2026-06-22T02:47:04.670940+05:30"},{"city":"Vadodara","state":"Gujarat","latitude":22.3072,"longitude":73.1812,"temp":29.7,"humidity":76,"rain":0.0,"pressure":1000.7,"uv_index":8.0,"wind_gusts":42.5,"aqi":54,"pm10":14.3,"pm2_5":10.5,"no2":12.0,"co":102.0,"o3":32.0,"so2":11.8,"mosquito_risk":7,"arthritis_risk":5,"migraine_risk":4,"frizz_risk":1,"updated_at":"2026-06-22T02:47:04.670950+05:30"},{"city":"Rajkot","state":"Gujarat","latitude":22.3039,"longitude":70.8022,"temp":28.4,"humidity":72,"rain":0.0,"pressure":990.7,"uv_index":7.55,"wind_gusts":41.0,"aqi":70,"pm10":45.3,"pm2_5":18.5,"no2":3.8,"co":94.0,"o3":41.0,"so2":3.2,"mosquito_risk":7,"arthritis_risk":5,"migraine_risk":7,"frizz_risk":1,"updated_at":"2026-06-22T02:47:04.670960+05:30"},{"city":"Thane","state":"Maharashtra","latitude":19.2183,"longitude":72.9781,"temp":26.8,"humidity":88,"rain":0.2,"pressure":1005.3,"uv_index":7.7,"wind_gusts":35.6,"aqi":49,"pm10":10.9,"pm2_5":7.0,"no2":5.3,"co":135.0,"o3":39.0,"so2":4.0,"mosquito_risk":10,"arthritis_risk":5,"migraine_risk":4,"frizz_risk":1,"updated_at":"2026-06-22T02:47:04.670968+05:30"},{"city":"Nagpur","state":"Maharashtra","latitude":21.1458,"longitude":79.0882,"temp":31.2,"humidity":51,"rain":0.0,"pressure":970.1,"uv_index":8.2,"wind_gusts":36.0,"aqi":69,"pm10":48.5,"pm2_5":30.2,"no2":18.0,"co":227.0,"o3":48.0,"so2":11.1,"mosquito_risk":0,"arthritis_risk":5,"migraine_risk":7,"frizz_risk":1,"updated_at":"2026-06-22T02:47:04.670976+05:30"},{"city":"Nashik","state":"Maharashtra","latitude":19.9975,"longitude":73.7898,"temp":25.1,"humidity":81,"rain":0.0,"pressure":942.9,"uv_index":7.7,"wind_gusts":43.9,"aqi":32,"pm10":12.3,"pm2_5":8.5,"no2":5.7,"co":134.0,"o3":38.0,"so2":4.4,"mosquito_risk":7,"arthritis_risk":5,"migraine_risk":7,"frizz_risk":1,"updated_at":"2026-06-22T02:47:04.670983+05:30"},{"city":"Aurangabad","state":"Maharashtra","latitude":19.8762,"longitude":75.3433,"temp":28.5,"humidity":59,"rain":0.0,"pressure":941.8,"uv_index":8.85,"wind_gusts":69.1,"aqi":41,"pm10":12.9,"pm2_5":9.9,"no2":8.4,"co":128.0,"o3":43.0,"so2":6.0,"mosquito_risk":4,"arthritis_risk":5,"migraine_risk":7,"frizz_risk":1,"updated_at":"2026-06-22T02:47:04.670990+05:30"},{"city":"Solapur","state":"Maharashtra","latitude":17.6599,"longitude":75.9064,"temp":28.6,"humidity":66,"rain":0.0,"pressure":955.5,"uv_index":8.8,"wind_gusts":54.0,"aqi":39,"pm10":5.6,"pm2_5":5.0,"no2":5.3,"co":115.0,"o3":51.0,"so2":1.7,"mosquito_risk":7,"arthritis_risk":5,"migraine_risk":7,"frizz_risk":1,"updated_at":"2026-06-22T02:47:04.670997+05:30"},{"city":"Kolhapur","state":"Maharashtra","latitude":16.705,"longitude":74.2433,"temp":24.8,"humidity":82,"rain":0.0,"pressure":946.1,"uv_index":7.85,"wind_gusts":47.9,"aqi":32,"pm10":4.8,"pm2_5":4.4,"no2":4.7,"co":121.0,"o3":37.0,"so2":2.3,"mosquito_risk":3,"arthritis_risk":5,"migraine_risk":7,"frizz_risk":1,"updated_at":"2026-06-22T02:47:04.671005+05:30"},{"city":"Goa","state":"Goa","latitude":15.2993,"longitude":74.124,"temp":25.6,"humidity":96,"rain":0.0,"pressure":996.5,"uv_index":8.35,"wind_gusts":39.6,"aqi":21,"pm10":8.4,"pm2_5":6.2,"no2":2.5,"co":154.0,"o3":42.0,"so2":0.8,"mosquito_risk":7,"arthritis_risk":5,"migraine_risk":7,"frizz_risk":1,"updated_at":"2026-06-22T02:47:04.671014+05:30"},{"city":"Jodhpur","state":"Rajasthan","latitude":26.2389,"longitude":73.0243,"temp":31.0,"humidity":45,"rain":0.0,"pressure":977.6,"uv_index":8.4,"wind_gusts":45.4,"aqi":150,"pm10":145.3,"pm2_5":40.2,"no2":6.3,"co":125.0,"o3":47.0,"so2":1.8,"mosquito_risk":0,"arthritis_risk":5,"migraine_risk":7,"frizz_risk":1,"updated_at":"2026-06-22T02:47:04.671021+05:30"},{"city":"Udaipur","state":"Rajasthan","latitude":24.5854,"longitude":73.7125,"temp":26.6,"humidity":65,"rain":0.0,"pressure":943.0,"uv_index":8.8,"wind_gusts":37.4,"aqi":71,"pm10":29.0,"pm2_5":17.9,"no2":9.2,"co":132.0,"o3":46.0,"so2":10.4,"mosquito_risk":7,"arthritis_risk":5,"migraine_risk":7,"frizz_risk":1,"updated_at":"2026-06-22T02:47:04.671028+05:30"},{"city":"Kota","state":"Rajasthan","latitude":25.2138,"longitude":75.8648,"temp":29.3,"humidity":58,"rain":0.0,"pressure":974.6,"uv_index":8.35,"wind_gusts":32.4,"aqi":87,"pm10":35.6,"pm2_5":22.0,"no2":7.4,"co":149.0,"o3":52.0,"so2":4.9,"mosquito_risk":4,"arthritis_risk":5,"migraine_risk":7,"frizz_risk":1,"updated_at":"2026-06-22T02:47:04.671035+05:30"},{"city":"Bikaner","state":"Rajasthan","latitude":28.0229,"longitude":73.3119,"temp":31.0,"humidity":49,"rain":0.0,"pressure":975.9,"uv_index":8.45,"wind_gusts":68.4,"aqi":154,"pm10":178.8,"pm2_5":48.1,"no2":2.4,"co":119.0,"o3":59.0,"so2":2.6,"mosquito_risk":0,"arthritis_risk":5,"migraine_risk":7,"frizz_risk":1,"updated_at":"2026-06-22T02:47:04.671042+05:30"},{"city":"Ajmer","state":"Rajasthan","latitude":26.4499,"longitude":74.6399,"temp":28.1,"humidity":59,"rain":0.0,"pressure":950.1,"uv_index":8.35,"wind_gusts":54.7,"aqi":94,"pm10":48.8,"pm2_5":21.8,"no2":6.8,"co":140.0,"o3":52.0,"so2":4.0,"mosquito_risk":4,"arthritis_risk":5,"migraine_risk":7,"frizz_risk":1,"updated_at":"2026-06-22T02:47:04.671049+05:30"},{"city":"Gwalior","state":"Madhya Pradesh","latitude":26.2183,"longitude":78.1828,"temp":30.2,"humidity":54,"rain":0.0,"pressure":978.4,"uv_index":7.65,"wind_gusts":58.3,"aqi":102,"pm10":76.6,"pm2_5":35.5,"no2":6.4,"co":127.0,"o3":52.0,"so2":2.1,"mosquito_risk":0,"arthritis_risk":5,"migraine_risk":7,"frizz_risk":1,"updated_at":"2026-06-22T02:47:04.671056+05:30"},{"city":"Indore","state":"Madhya Pradesh","latitude":22.7196,"longitude":75.8577,"temp":28.3,"humidity":58,"rain":0.0,"pressure":945.2,"uv_index":8.5,"wind_gusts":49.7,"aqi":73,"pm10":25.1,"pm2_5":19.4,"no2":7.8,"co":166.0,"o3":62.0,"so2":6.3,"mosquito_risk":4,"arthritis_risk":5,"migraine_risk":7,"frizz_risk":1,"updated_at":"2026-06-22T02:47:04.671063+05:30"},{"city":"Bhopal","state":"Madhya Pradesh","latitude":23.2599,"longitude":77.4126,"temp":27.2,"humidity":72,"rain":0.0,"pressure":950.2,"uv_index":8.6,"wind_gusts":37.4,"aqi":89,"pm10":45.2,"pm2_5":29.3,"no2":9.7,"co":225.0,"o3":51.0,"so2":4.5,"mosquito_risk":7,"arthritis_risk":5,"migraine_risk":7,"frizz_risk":1,"updated_at":"2026-06-22T02:47:04.671070+05:30"},{"city":"Jabalpur","state":"Madhya Pradesh","latitude":23.1815,"longitude":79.9864,"temp":29.2,"humidity":67,"rain":0.0,"pressure":958.2,"uv_index":7.25,"wind_gusts":37.4,"aqi":78,"pm10":39.3,"pm2_5":26.5,"no2":13.1,"co":211.0,"o3":50.0,"so2":4.5,"mosquito_risk":7,"arthritis_risk":5,"migraine_risk":7,"frizz_risk":1,"updated_at":"2026-06-22T02:47:04.671077+05:30"},{"city":"Ujjain","state":"Madhya Pradesh","latitude":23.1765,"longitude":75.7885,"temp":28.6,"humidity":59,"rain":0.0,"pressure":950.8,"uv_index":7.8,"wind_gusts":41.4,"aqi":69,"pm10":22.5,"pm2_5":17.2,"no2":5.5,"co":194.0,"o3":66.0,"so2":6.6,"mosquito_risk":4,"arthritis_risk":5,"migraine_risk":7,"frizz_risk":1,"updated_at":"2026-06-22T02:47:04.671084+05:30"},{"city":"Visakhapatnam","state":"Andhra Pradesh","latitude":17.6868,"longitude":83.2185,"temp":28.4,"humidity":92,"rain":0.0,"pressure":1000.8,"uv_index":5.25,"wind_gusts":50.0,"aqi":72,"pm10":29.7,"pm2_5":26.0,"no2":15.1,"co":311.0,"o3":80.0,"so2":26.2,"mosquito_risk":7,"arthritis_risk":5,"migraine_risk":0,"frizz_risk":1,"updated_at":"2026-06-22T02:47:04.671092+05:30"},{"city":"Vijayawada","state":"Andhra Pradesh","latitude":16.5062,"longitude":80.648,"temp":28.9,"humidity":83,"rain":0.0,"pressure":1000.0,"uv_index":8.9,"wind_gusts":37.1,"aqi":81,"pm10":33.3,"pm2_5":27.4,"no2":9.0,"co":229.0,"o3":84.0,"so2":5.7,"mosquito_risk":7,"arthritis_risk":5,"migraine_risk":4,"frizz_risk":1,"updated_at":"2026-06-22T02:47:04.671098+05:30"},{"city":"Guntur","state":"Andhra Pradesh","latitude":16.3067,"longitude":80.4365,"temp":29.2,"humidity":79,"rain":0.0,"pressure":1001.4,"uv_index":8.8,"wind_gusts":41.8,"aqi":77,"pm10":28.8,"pm2_5":24.2,"no2":9.9,"co":229.0,"o3":79.0,"so2":5.3,"mosquito_risk":7,"arthritis_risk":5,"migraine_risk":4,"frizz_risk":1,"updated_at":"2026-06-22T02:47:04.671105+05:30"},{"city":"Nellore","state":"Andhra Pradesh","latitude":14.4426,"longitude":79.9865,"temp":27.6,"humidity":78,"rain":0.0,"pressure":1003.7,"uv_index":3.7,"wind_gusts":33.1,"aqi":72,"pm10":22.5,"pm2_5":18.3,"no2":5.7,"co":236.0,"o3":94.0,"so2":3.6,"mosquito_risk":7,"arthritis_risk":5,"migraine_risk":0,"frizz_risk":1,"updated_at":"2026-06-22T02:47:04.671112+05:30"},{"city":"Kurnool","state":"Andhra Pradesh","latitude":15.8281,"longitude":78.0373,"temp":27.9,"humidity":66,"rain":0.0,"pressure":975.3,"uv_index":8.5,"wind_gusts":33.8,"aqi":56,"pm10":9.7,"pm2_5":9.0,"no2":8.7,"co":146.0,"o3":55.0,"so2":7.3,"mosquito_risk":7,"arthritis_risk":5,"migraine_risk":7,"frizz_risk":1,"updated_at":"2026-06-22T02:47:04.671122+05:30"},{"city":"Kakinada","state":"Andhra Pradesh","latitude":16.9891,"longitude":82.2475,"temp":28.7,"humidity":89,"rain":0.0,"pressure":1004.9,"uv_index":7.65,"wind_gusts":43.2,"aqi":72,"pm10":34.8,"pm2_5":26.5,"no2":3.4,"co":245.0,"o3":116.0,"so2":5.5,"mosquito_risk":7,"arthritis_risk":5,"migraine_risk":4,"frizz_risk":1,"updated_at":"2026-06-22T02:47:04.671129+05:30"},{"city":"Tirupati","state":"Andhra Pradesh","latitude":13.6288,"longitude":79.4192,"temp":25.9,"humidity":82,"rain":0.0,"pressure":989.5,"uv_index":8.2,"wind_gusts":35.3,"aqi":74,"pm10":24.9,"pm2_5":22.1,"no2":14.0,"co":181.0,"o3":53.0,"so2":2.2,"mosquito_risk":7,"arthritis_risk":5,"migraine_risk":7,"frizz_risk":1,"updated_at":"2026-06-22T02:47:04.671136+05:30"},{"city":"Warangal","state":"Telangana","latitude":17.9689,"longitude":79.5941,"temp":27.8,"humidity":76,"rain":0.0,"pressure":976.5,"uv_index":8.45,"wind_gusts":32.8,"aqi":75,"pm10":25.7,"pm2_5":22.2,"no2":13.4,"co":270.0,"o3":49.0,"so2":4.7,"mosquito_risk":7,"arthritis_risk":5,"migraine_risk":7,"frizz_risk":1,"updated_at":"2026-06-22T02:47:04.671143+05:30"},{"city":"Nizamabad","state":"Telangana","latitude":18.6725,"longitude":78.0941,"temp":29.5,"humidity":60,"rain":0.0,"pressure":962.3,"uv_index":6.05,"wind_gusts":37.4,"aqi":65,"pm10":22.1,"pm2_5":19.8,"no2":9.7,"co":194.0,"o3":66.0,"so2":2.7,"mosquito_risk":4,"arthritis_risk":5,"migraine_risk":7,"frizz_risk":1,"updated_at":"2026-06-22T02:47:04.671150+05:30"},{"city":"Mysore","state":"Karnataka","latitude":12.2958,"longitude":76.6396,"temp":21.4,"humidity":98,"rain":0.0,"pressure":927.4,"uv_index":8.85,"wind_gusts":44.6,"aqi":21,"pm10":3.6,"pm2_5":3.4,"no2":5.4,"co":159.0,"o3":36.0,"so2":2.0,"mosquito_risk":3,"arthritis_risk":5,"migraine_risk":7,"frizz_risk":1,"updated_at":"2026-06-22T02:47:04.671156+05:30"},{"city":"Mangalore","state":"Karnataka","latitude":12.9141,"longitude":74.856,"temp":25.2,"humidity":95,"rain":0.1,"pressure":1006.5,"uv_index":8.45,"wind_gusts":37.8,"aqi":25,"pm10":9.6,"pm2_5":7.5,"no2":5.4,"co":164.0,"o3":34.0,"so2":2.1,"mosquito_risk":10,"arthritis_risk":5,"migraine_risk":4,"frizz_risk":1,"updated_at":"2026-06-22T02:47:04.671163+05:30"},{"city":"Hubli-Dharwad","state":"Karnataka","latitude":15.3647,"longitude":75.124,"temp":22.9,"humidity":94,"rain":0.0,"pressure":939.2,"uv_index":8.9,"wind_gusts":56.9,"aqi":19,"pm10":1.4,"pm2_5":1.1,"no2":1.6,"co":92.0,"o3":46.0,"so2":0.8,"mosquito_risk":3,"arthritis_risk":5,"migraine_risk":7,"frizz_risk":1,"updated_at":"2026-06-22T02:47:04.671170+05:30"},{"city":"Belgaum","state":"Karnataka","latitude":15.8497,"longitude":74.4977,"temp":22.6,"humidity":92,"rain":0.0,"pressure":924.0,"uv_index":8.05,"wind_gusts":52.2,"aqi":23,"pm10":2.1,"pm2_5":1.8,"no2":2.5,"co":110.0,"o3":42.0,"so2":1.2,"mosquito_risk":3,"arthritis_risk":5,"migraine_risk":7,"frizz_risk":1,"updated_at":"2026-06-22T02:47:07.985567+05:30"},{"city":"Coimbatore","state":"Tamil Nadu","latitude":11.0168,"longitude":76.9558,"temp":23.2,"humidity":94,"rain":0.0,"pressure":961.3,"uv_index":8.7,"wind_gusts":58.3,"aqi":20,"pm10":3.8,"pm2_5":3.5,"no2":5.1,"co":116.0,"o3":36.0,"so2":2.4,"mosquito_risk":3,"arthritis_risk":5,"migraine_risk":7,"frizz_risk":1,"updated_at":"2026-06-22T02:47:07.985604+05:30"},{"city":"Madurai","state":"Tamil Nadu","latitude":9.9252,"longitude":78.1198,"temp":28.1,"humidity":68,"rain":0.0,"pressure":992.1,"uv_index":7.35,"wind_gusts":47.2,"aqi":73,"pm10":32.8,"pm2_5":29.3,"no2":40.5,"co":290.0,"o3":2.0,"so2":7.7,"mosquito_risk":7,"arthritis_risk":5,"migraine_risk":7,"frizz_risk":1,"updated_at":"2026-06-22T02:47:07.985616+05:30"},{"city":"Trichy","state":"Tamil Nadu","latitude":10.7905,"longitude":78.7047,"temp":27.6,"humidity":76,"rain":0.0,"pressure":998.8,"uv_index":7.3,"wind_gusts":41.4,"aqi":57,"pm10":13.6,"pm2_5":12.0,"no2":13.9,"co":250.0,"o3":37.0,"so2":3.9,"mosquito_risk":7,"arthritis_risk":5,"migraine_risk":7,"frizz_risk":1,"updated_at":"2026-06-22T02:47:07.985625+05:30"},{"city":"Salem","state":"Tamil Nadu","latitude":11.6643,"longitude":78.146,"temp":26.3,"humidity":79,"rain":0.0,"pressure":976.5,"uv_index":8.25,"wind_gusts":40.7,"aqi":59,"pm10":21.8,"pm2_5":20.2,"no2":24.0,"co":238.0,"o3":26.0,"so2":6.6,"mosquito_risk":7,"arthritis_risk":5,"migraine_risk":7,"frizz_risk":1,"updated_at":"2026-06-22T02:47:07.985634+05:30"},{"city":"Tirunelveli","state":"Tamil Nadu","latitude":8.7139,"longitude":77.7567,"temp":28.3,"humidity":70,"rain":0.0,"pressure":1002.9,"uv_index":8.05,"wind_gusts":36.7,"aqi":25,"pm10":5.4,"pm2_5":4.7,"no2":5.2,"co":174.0,"o3":34.0,"so2":1.7,"mosquito_risk":7,"arthritis_risk":5,"migraine_risk":4,"frizz_risk":1,"updated_at":"2026-06-22T02:47:07.985642+05:30"},{"city":"Vellore","state":"Tamil Nadu","latitude":12.9165,"longitude":79.1325,"temp":24.8,"humidity":98,"rain":0.0,"pressure":983.0,"uv_index":8.6,"wind_gusts":33.1,"aqi":77,"pm10":27.8,"pm2_5":24.0,"no2":17.8,"co":183.0,"o3":42.0,"so2":4.0,"mosquito_risk":3,"arthritis_risk":5,"migraine_risk":7,"frizz_risk":1,"updated_at":"2026-06-22T02:47:07.985651+05:30"},{"city":"Erode","state":"Tamil Nadu","latitude":11.341,"longitude":77.7172,"temp":25.6,"humidity":83,"rain":0.0,"pressure":988.3,"uv_index":8.2,"wind_gusts":47.2,"aqi":38,"pm10":10.2,"pm2_5":9.5,"no2":12.7,"co":172.0,"o3":31.0,"so2":4.1,"mosquito_risk":7,"arthritis_risk":5,"migraine_risk":7,"frizz_risk":1,"updated_at":"2026-06-22T02:47:07.985659+05:30"},{"city":"Kochi","state":"Kerala","latitude":9.9312,"longitude":76.2673,"temp":24.7,"humidity":97,"rain":0.2,"pressure":1009.5,"uv_index":8.1,"wind_gusts":32.4,"aqi":43,"pm10":9.4,"pm2_5":8.5,"no2":10.2,"co":98.0,"o3":24.0,"so2":3.8,"mosquito_risk":6,"arthritis_risk":0,"migraine_risk":4,"frizz_risk":1,"updated_at":"2026-06-22T02:47:07.985666+05:30"},{"city":"Thiruvananthapuram","state":"Kerala","latitude":8.5241,"longitude":76.9366,"temp":23.8,"humidity":99,"rain":0.2,"pressure":1009.1,"uv_index":6.95,"wind_gusts":37.1,"aqi":25,"pm10":6.8,"pm2_5":4.1,"no2":2.1,"co":85.0,"o3":53.0,"so2":0.9,"mosquito_risk":6,"arthritis_risk":0,"migraine_risk":4,"frizz_risk":1,"updated_at":"2026-06-22T02:47:07.985673+05:30"},{"city":"Kozhikode","state":"Kerala","latitude":11.2588,"longitude":75.7804,"temp":24.0,"humidity":99,"rain":0.2,"pressure":1008.7,"uv_index":8.45,"wind_gusts":29.2,"aqi":25,"pm10":5.0,"pm2_5":3.0,"no2":0.9,"co":177.0,"o3":52.0,"so2":0.7,"mosquito_risk":6,"arthritis_risk":0,"migraine_risk":4,"frizz_risk":1,"updated_at":"2026-06-22T02:47:07.985680+05:30"},{"city":"Thrissur","state":"Kerala","latitude":10.5276,"longitude":76.2144,"temp":23.6,"humidity":99,"rain":0.1,"pressure":1007.9,"uv_index":7.95,"wind_gusts":33.5,"aqi":43,"pm10":10.7,"pm2_5":10.1,"no2":10.3,"co":239.0,"o3":21.0,"so2":3.7,"mosquito_risk":6,"arthritis_risk":5,"migraine_risk":4,"frizz_risk":1,"updated_at":"2026-06-22T02:47:07.985688+05:30"},{"city":"Kannur","state":"Kerala","latitude":11.8745,"longitude":75.3704,"temp":24.5,"humidity":96,"rain":0.2,"pressure":1007.6,"uv_index":8.55,"wind_gusts":37.4,"aqi":21,"pm10":6.4,"pm2_5":5.0,"no2":4.4,"co":167.0,"o3":36.0,"so2":1.6,"mosquito_risk":6,"arthritis_risk":5,"migraine_risk":4,"frizz_risk":1,"updated_at":"2026-06-22T02:47:07.985695+05:30"},{"city":"Patna","state":"Bihar","latitude":25.5941,"longitude":85.1376,"temp":29.6,"humidity":74,"rain":0.0,"pressure":994.9,"uv_index":8.9,"wind_gusts":31.0,"aqi":155,"pm10":61.2,"pm2_5":46.4,"no2":22.1,"co":276.0,"o3":43.0,"so2":15.7,"mosquito_risk":7,"arthritis_risk":5,"migraine_risk":7,"frizz_risk":1,"updated_at":"2026-06-22T02:47:07.985702+05:30"},{"city":"Gaya","state":"Bihar","latitude":24.7914,"longitude":85.0002,"temp":29.1,"humidity":67,"rain":0.0,"pressure":988.3,"uv_index":8.65,"wind_gusts":31.3,"aqi":134,"pm10":49.6,"pm2_5":33.4,"no2":17.3,"co":194.0,"o3":58.0,"so2":24.5,"mosquito_risk":7,"arthritis_risk":5,"migraine_risk":7,"frizz_risk":1,"updated_at":"2026-06-22T02:47:07.985709+05:30"},{"city":"Muzaffarpur","state":"Bihar","latitude":26.1209,"longitude":85.3647,"temp":26.7,"humidity":85,"rain":0.0,"pressure":995.6,"uv_index":8.9,"wind_gusts":36.0,"aqi":157,"pm10":76.1,"pm2_5":56.0,"no2":17.7,"co":324.0,"o3":71.0,"so2":11.0,"mosquito_risk":7,"arthritis_risk":5,"migraine_risk":7,"frizz_risk":1,"updated_at":"2026-06-22T02:47:07.985715+05:30"},{"city":"Bhagalpur","state":"Bihar","latitude":25.2425,"longitude":87.0117,"temp":28.8,"humidity":85,"rain":0.0,"pressure":996.0,"uv_index":8.7,"wind_gusts":25.9,"aqi":128,"pm10":61.9,"pm2_5":55.3,"no2":14.7,"co":188.0,"o3":81.0,"so2":23.2,"mosquito_risk":7,"arthritis_risk":5,"migraine_risk":7,"frizz_risk":1,"updated_at":"2026-06-22T02:47:07.985722+05:30"},{"city":"Ranchi","state":"Jharkhand","latitude":23.3441,"longitude":85.3096,"temp":25.0,"humidity":78,"rain":0.0,"pressure":933.9,"uv_index":6.6,"wind_gusts":38.2,"aqi":95,"pm10":44.8,"pm2_5":42.1,"no2":10.5,"co":251.0,"o3":100.0,"so2":9.4,"mosquito_risk":7,"arthritis_risk":5,"migraine_risk":7,"frizz_risk":1,"updated_at":"2026-06-22T02:47:07.985729+05:30"},{"city":"Jamshedpur","state":"Jharkhand","latitude":22.8046,"longitude":86.2029,"temp":26.8,"humidity":97,"rain":0.0,"pressure":987.0,"uv_index":6.7,"wind_gusts":37.1,"aqi":128,"pm10":47.0,"pm2_5":44.2,"no2":20.1,"co":291.0,"o3":69.0,"so2":25.9,"mosquito_risk":7,"arthritis_risk":5,"migraine_risk":7,"frizz_risk":1,"updated_at":"2026-06-22T02:47:07.985735+05:30"},{"city":"Dhanbad","state":"Jharkhand","latitude":23.7957,"longitude":86.4304,"temp":26.8,"humidity":89,"rain":0.0,"pressure":975.4,"uv_index":7.25,"wind_gusts":33.5,"aqi":146,"pm10":64.7,"pm2_5":62.4,"no2":39.0,"co":616.0,"o3":72.0,"so2":91.6,"mosquito_risk":7,"arthritis_risk":5,"migraine_risk":7,"frizz_risk":1,"updated_at":"2026-06-22T02:47:07.985741+05:30"},{"city":"Bokaro","state":"Jharkhand","latitude":23.6693,"longitude":86.1511,"temp":27.1,"humidity":83,"rain":0.0,"pressure":979.2,"uv_index":6.85,"wind_gusts":37.1,"aqi":119,"pm10":56.7,"pm2_5":52.0,"no2":28.0,"co":630.0,"o3":85.0,"so2":65.0,"mosquito_risk":7,"arthritis_risk":5,"migraine_risk":7,"frizz_risk":1,"updated_at":"2026-06-22T02:47:07.985748+05:30"},{"city":"Bhubaneswar","state":"Odisha","latitude":20.2961,"longitude":85.8245,"temp":27.6,"humidity":90,"rain":0.0,"pressure":998.6,"uv_index":8.35,"wind_gusts":40.7,"aqi":96,"pm10":28.4,"pm2_5":27.1,"no2":10.1,"co":314.0,"o3":85.0,"so2":7.7,"mosquito_risk":7,"arthritis_risk":5,"migraine_risk":7,"frizz_risk":1,"updated_at":"2026-06-22T02:47:07.985755+05:30"},{"city":"Cuttack","state":"Odisha","latitude":20.4625,"longitude":85.8828,"temp":28.0,"humidity":90,"rain":0.0,"pressure":1000.6,"uv_index":8.35,"wind_gusts":38.2,"aqi":96,"pm10":28.4,"pm2_5":27.1,"no2":10.1,"co":307.0,"o3":85.0,"so2":7.7,"mosquito_risk":7,"arthritis_risk":5,"migraine_risk":4,"frizz_risk":1,"updated_at":"2026-06-22T02:47:07.985761+05:30"},{"city":"Rourkela","state":"Odisha","latitude":22.2604,"longitude":84.8536,"temp":27.2,"humidity":78,"rain":0.0,"pressure":980.9,"uv_index":8.9,"wind_gusts":52.9,"aqi":110,"pm10":48.4,"pm2_5":43.5,"no2":16.2,"co":299.0,"o3":68.0,"so2":8.4,"mosquito_risk":7,"arthritis_risk":5,"migraine_risk":7,"frizz_risk":1,"updated_at":"2026-06-22T02:47:07.985768+05:30"},{"city":"Raipur","state":"Chhattisgarh","latitude":21.2514,"longitude":81.6296,"temp":30.9,"humidity":53,"rain":0.0,"pressure":971.4,"uv_index":8.95,"wind_gusts":45.4,"aqi":82,"pm10":34.6,"pm2_5":31.8,"no2":34.5,"co":746.0,"o3":53.0,"so2":47.4,"mosquito_risk":0,"arthritis_risk":5,"migraine_risk":7,"frizz_risk":1,"updated_at":"2026-06-22T02:47:07.985775+05:30"},{"city":"Bhilai","state":"Chhattisgarh","latitude":21.1938,"longitude":81.3509,"temp":30.3,"humidity":57,"rain":0.0,"pressure":971.9,"uv_index":8.95,"wind_gusts":55.1,"aqi":79,"pm10":34.9,"pm2_5":31.4,"no2":30.5,"co":654.0,"o3":46.0,"so2":39.3,"mosquito_risk":0,"arthritis_risk":5,"migraine_risk":7,"frizz_risk":1,"updated_at":"2026-06-22T02:47:07.985798+05:30"},{"city":"Guwahati","state":"Assam","latitude":26.1158,"longitude":91.7086,"temp":24.9,"humidity":97,"rain":0.1,"pressure":998.2,"uv_index":6.8,"wind_gusts":25.2,"aqi":64,"pm10":18.2,"pm2_5":14.6,"no2":7.0,"co":344.0,"o3":71.0,"so2":3.0,"mosquito_risk":6,"arthritis_risk":5,"migraine_risk":7,"frizz_risk":1,"updated_at":"2026-06-22T02:47:07.985804+05:30"},{"city":"Agartala","state":"Tripura","latitude":23.8315,"longitude":91.2868,"temp":25.5,"humidity":96,"rain":0.0,"pressure":1003.6,"uv_index":8.4,"wind_gusts":37.8,"aqi":57,"pm10":12.0,"pm2_5":11.1,"no2":9.4,"co":213.0,"o3":64.0,"so2":2.6,"mosquito_risk":7,"arthritis_risk":5,"migraine_risk":4,"frizz_risk":1,"updated_at":"2026-06-22T02:47:07.985811+05:30"},{"city":"Shillong","state":"Meghalaya","latitude":25.5788,"longitude":91.8933,"temp":19.9,"humidity":93,"rain":0.0,"pressure":855.0,"uv_index":5.25,"wind_gusts":32.0,"aqi":34,"pm10":1.7,"pm2_5":1.4,"no2":4.2,"co":196.0,"o3":72.0,"so2":1.7,"mosquito_risk":3,"arthritis_risk":10,"migraine_risk":3,"frizz_risk":1,"updated_at":"2026-06-22T02:47:07.985818+05:30"},{"city":"Imphal","state":"Manipur","latitude":24.817,"longitude":93.9368,"temp":21.9,"humidity":99,"rain":0.2,"pressure":921.3,"uv_index":7.55,"wind_gusts":32.8,"aqi":55,"pm10":14.1,"pm2_5":13.0,"no2":6.6,"co":421.0,"o3":45.0,"so2":2.1,"mosquito_risk":6,"arthritis_risk":5,"migraine_risk":7,"frizz_risk":1,"updated_at":"2026-06-22T02:47:07.985825+05:30"},{"city":"Aizawl","state":"Mizoram","latitude":23.7271,"longitude":92.7176,"temp":19.4,"humidity":97,"rain":0.0,"pressure":890.3,"uv_index":6.8,"wind_gusts":36.0,"aqi":25,"pm10":2.8,"pm2_5":2.7,"no2":2.1,"co":155.0,"o3":50.0,"so2":0.3,"mosquito_risk":3,"arthritis_risk":10,"migraine_risk":7,"frizz_risk":1,"updated_at":"2026-06-22T02:47:07.985831+05:30"},{"city":"Kohima","state":"Nagaland","latitude":25.6701,"longitude":94.1077,"temp":18.9,"humidity":95,"rain":0.0,"pressure":852.8,"uv_index":7.65,"wind_gusts":20.2,"aqi":34,"pm10":5.7,"pm2_5":4.8,"no2":3.4,"co":201.0,"o3":51.0,"so2":0.9,"mosquito_risk":3,"arthritis_risk":10,"migraine_risk":7,"frizz_risk":1,"updated_at":"2026-06-22T02:47:07.985837+05:30"},{"city":"Gangtok","state":"Sikkim","latitude":27.3314,"longitude":88.6138,"temp":18.0,"humidity":95,"rain":0.7,"pressure":834.7,"uv_index":8.4,"wind_gusts":32.0,"aqi":81,"pm10":2.0,"pm2_5":1.7,"no2":2.6,"co":330.0,"o3":130.0,"so2":5.1,"mosquito_risk":6,"arthritis_risk":10,"migraine_risk":7,"frizz_risk":1,"updated_at":"2026-06-22T02:47:07.985844+05:30"},{"city":"Siliguri","state":"West Bengal","latitude":26.7271,"longitude":88.3953,"temp":24.1,"humidity":99,"rain":0.2,"pressure":989.6,"uv_index":7.85,"wind_gusts":22.0,"aqi":53,"pm10":7.9,"pm2_5":6.5,"no2":6.9,"co":376.0,"o3":94.0,"so2":4.0,"mosquito_risk":6,"arthritis_risk":5,"migraine_risk":7,"frizz_risk":1,"updated_at":"2026-06-22T02:47:11.306508+05:30"},{"city":"Durgapur","state":"West Bengal","latitude":23.5204,"longitude":87.3119,"temp":27.0,"humidity":91,"rain":0.0,"pressure":990.6,"uv_index":8.9,"wind_gusts":36.0,"aqi":154,"pm10":73.8,"pm2_5":71.2,"no2":28.9,"co":1098.0,"o3":60.0,"so2":37.4,"mosquito_risk":7,"arthritis_risk":5,"migraine_risk":7,"frizz_risk":1,"updated_at":"2026-06-22T02:47:11.306545+05:30"},{"city":"Asansol","state":"West Bengal","latitude":23.6739,"longitude":86.9524,"temp":26.9,"humidity":90,"rain":0.0,"pressure":989.1,"uv_index":8.85,"wind_gusts":31.0,"aqi":151,"pm10":66.4,"pm2_5":65.0,"no2":34.9,"co":894.0,"o3":54.0,"so2":51.4,"mosquito_risk":7,"arthritis_risk":5,"migraine_risk":7,"frizz_risk":1,"updated_at":"2026-06-22T02:47:11.306557+05:30"},{"city":"Pondicherry","state":"Puducherry","latitude":11.9139,"longitude":79.8145,"temp":28.0,"humidity":88,"rain":0.0,"pressure":1007.0,"uv_index":8.1,"wind_gusts":43.9,"aqi":59,"pm10":15.5,"pm2_5":13.0,"no2":12.9,"co":213.0,"o3":54.0,"so2":11.9,"mosquito_risk":7,"arthritis_risk":5,"migraine_risk":4,"frizz_risk":1,"updated_at":"2026-06-22T02:47:11.306566+05:30"},{"city":"Port Blair","state":"Andaman and Nicobar Islands","latitude":11.6234,"longitude":92.7265,"temp":26.8,"humidity":84,"rain":0.0,"pressure":1008.1,"uv_index":8.75,"wind_gusts":38.5,"aqi":43,"pm10":7.8,"pm2_5":4.5,"no2":0.2,"co":84.0,"o3":46.0,"so2":0.2,"mosquito_risk":7,"arthritis_risk":0,"migraine_risk":4,"frizz_risk":1,"updated_at":"2026-06-22T02:47:11.306576+05:30"},{"city":"Haridwar","state":"Uttarakhand","latitude":29.9457,"longitude":78.1642,"temp":26.3,"humidity":79,"rain":0.0,"pressure":968.1,"uv_index":7.15,"wind_gusts":30.2,"aqi":133,"pm10":129.0,"pm2_5":61.7,"no2":40.1,"co":476.0,"o3":34.0,"so2":10.9,"mosquito_risk":7,"arthritis_risk":5,"migraine_risk":7,"frizz_risk":1,"updated_at":"2026-06-22T02:47:11.306584+05:30"},{"city":"Rishikesh","state":"Uttarakhand","latitude":30.0869,"longitude":78.2676,"temp":24.2,"humidity":85,"rain":0.0,"pressure":960.8,"uv_index":7.15,"wind_gusts":27.4,"aqi":89,"pm10":44.6,"pm2_5":32.6,"no2":19.2,"co":351.0,"o3":86.0,"so2":7.1,"mosquito_risk":3,"arthritis_risk":5,"migraine_risk":7,"frizz_risk":1,"updated_at":"2026-06-22T02:47:11.306591+05:30"},{"city":"Nainital","state":"Uttarakhand","latitude":29.3919,"longitude":79.4542,"temp":15.7,"humidity":91,"rain":0.0,"pressure":802.3,"uv_index":6.9,"wind_gusts":32.4,"aqi":119,"pm10":95.2,"pm2_5":50.2,"no2":20.1,"co":358.0,"o3":68.0,"so2":5.7,"mosquito_risk":3,"arthritis_risk":10,"migraine_risk":7,"frizz_risk":0,"updated_at":"2026-06-22T02:47:11.306599+05:30"},{"city":"Mussoorie","state":"Uttarakhand","latitude":30.4599,"longitude":78.0664,"temp":15.9,"humidity":79,"rain":0.0,"pressure":799.7,"uv_index":7.35,"wind_gusts":41.4,"aqi":82,"pm10":33.6,"pm2_5":29.9,"no2":30.3,"co":323.0,"o3":47.0,"so2":5.9,"mosquito_risk":3,"arthritis_risk":5,"migraine_risk":7,"frizz_risk":0,"updated_at":"2026-06-22T02:47:11.306607+05:30"},{"city":"Dharamshala","state":"Himachal Pradesh","latitude":32.219,"longitude":76.3234,"temp":22.3,"humidity":53,"rain":0.0,"pressure":865.8,"uv_index":6.6,"wind_gusts":45.4,"aqi":41,"pm10":10.0,"pm2_5":8.9,"no2":15.7,"co":265.0,"o3":28.0,"so2":0.1,"mosquito_risk":0,"arthritis_risk":5,"migraine_risk":7,"frizz_risk":0,"updated_at":"2026-06-22T02:47:11.306615+05:30"},{"city":"Dalhousie","state":"Himachal Pradesh","latitude":32.5387,"longitude":75.971,"temp":13.9,"humidity":80,"rain":0.0,"pressure":800.0,"uv_index":7.15,"wind_gusts":34.2,"aqi":59,"pm10":24.5,"pm2_5":21.9,"no2":25.2,"co":284.0,"o3":33.0,"so2":1.1,"mosquito_risk":3,"arthritis_risk":5,"migraine_risk":7,"frizz_risk":0,"updated_at":"2026-06-22T02:47:11.306623+05:30"},{"city":"Patiala","state":"Punjab","latitude":30.3398,"longitude":76.3869,"temp":29.2,"humidity":55,"rain":0.0,"pressure":972.4,"uv_index":5.45,"wind_gusts":57.6,"aqi":480,"pm10":368.8,"pm2_5":106.4,"no2":18.7,"co":361.0,"o3":49.0,"so2":6.6,"mosquito_risk":4,"arthritis_risk":5,"migraine_risk":3,"frizz_risk":1,"updated_at":"2026-06-22T02:47:11.306631+05:30"},{"city":"Bhatinda","state":"Punjab","latitude":30.211,"longitude":74.9455,"temp":29.0,"humidity":56,"rain":0.0,"pressure":978.0,"uv_index":8.05,"wind_gusts":54.7,"aqi":140,"pm10":92.7,"pm2_5":56.3,"no2":53.5,"co":262.0,"o3":21.0,"so2":5.6,"mosquito_risk":4,"arthritis_risk":5,"migraine_risk":7,"frizz_risk":1,"updated_at":"2026-06-22T02:47:11.306638+05:30"},{"city":"Rohtak","state":"Haryana","latitude":28.8955,"longitude":76.6066,"temp":29.3,"humidity":57,"rain":0.0,"pressure":976.3,"uv_index":7.5,"wind_gusts":50.8,"aqi":725,"pm10":702.2,"pm2_5":167.6,"no2":39.0,"co":176.0,"o3":28.0,"so2":6.8,"mosquito_risk":4,"arthritis_risk":5,"migraine_risk":7,"frizz_risk":1,"updated_at":"2026-06-22T02:47:11.306644+05:30"},{"city":"Panipat","state":"Haryana","latitude":29.3909,"longitude":76.9635,"temp":28.6,"humidity":58,"rain":0.0,"pressure":974.6,"uv_index":7.2,"wind_gusts":47.2,"aqi":1873,"pm10":972.3,"pm2_5":204.0,"no2":23.1,"co":346.0,"o3":62.0,"so2":9.0,"mosquito_risk":4,"arthritis_risk":5,"migraine_risk":7,"frizz_risk":1,"updated_at":"2026-06-22T02:47:11.306650+05:30"},{"city":"Mathura","state":"Uttar Pradesh","latitude":27.4924,"longitude":77.6737,"temp":29.2,"humidity":57,"rain":0.0,"pressure":981.3,"uv_index":8.05,"wind_gusts":57.6,"aqi":722,"pm10":961.1,"pm2_5":136.9,"no2":18.1,"co":157.0,"o3":43.0,"so2":4.2,"mosquito_risk":4,"arthritis_risk":5,"migraine_risk":7,"frizz_risk":1,"updated_at":"2026-06-22T02:47:11.306657+05:30"},{"city":"Vrindavan","state":"Uttar Pradesh","latitude":27.5823,"longitude":77.7027,"temp":28.8,"humidity":59,"rain":0.0,"pressure":981.6,"uv_index":8.05,"wind_gusts":52.2,"aqi":722,"pm10":961.1,"pm2_5":136.9,"no2":18.1,"co":156.0,"o3":43.0,"so2":4.2,"mosquito_risk":4,"arthritis_risk":5,"migraine_risk":7,"frizz_risk":1,"updated_at":"2026-06-22T02:47:11.306663+05:30"},{"city":"Ayodhya","state":"Uttar Pradesh","latitude":26.7922,"longitude":82.1998,"temp":31.8,"humidity":56,"rain":0.0,"pressure":989.2,"uv_index":8.05,"wind_gusts":28.8,"aqi":163,"pm10":204.0,"pm2_5":80.8,"no2":18.8,"co":229.0,"o3":50.0,"so2":7.5,"mosquito_risk":0,"arthritis_risk":5,"migraine_risk":7,"frizz_risk":1,"updated_at":"2026-06-22T02:47:11.306670+05:30"},{"city":"Ratlam","state":"Madhya Pradesh","latitude":23.3315,"longitude":75.0367,"temp":27.2,"humidity":67,"rain":0.0,"pressure":951.8,"uv_index":8.45,"wind_gusts":51.5,"aqi":65,"pm10":18.7,"pm2_5":14.5,"no2":6.4,"co":175.0,"o3":61.0,"so2":9.7,"mosquito_risk":7,"arthritis_risk":5,"migraine_risk":7,"frizz_risk":1,"updated_at":"2026-06-22T02:47:11.306677+05:30"},{"city":"Sagar","state":"Madhya Pradesh","latitude":23.8388,"longitude":78.7378,"temp":28.8,"humidity":65,"rain":0.0,"pressure":947.0,"uv_index":8.7,"wind_gusts":34.2,"aqi":83,"pm10":46.2,"pm2_5":29.8,"no2":10.9,"co":185.0,"o3":49.0,"so2":3.0,"mosquito_risk":7,"arthritis_risk":5,"migraine_risk":7,"frizz_risk":1,"updated_at":"2026-06-22T02:47:11.306683+05:30"},{"city":"Satna","state":"Madhya Pradesh","latitude":24.6005,"longitude":80.8322,"temp":30.0,"humidity":62,"rain":0.0,"pressure":967.0,"uv_index":8.3,"wind_gusts":36.7,"aqi":89,"pm10":38.5,"pm2_5":25.2,"no2":6.0,"co":165.0,"o3":73.0,"so2":3.7,"mosquito_risk":7,"arthritis_risk":5,"migraine_risk":7,"frizz_risk":1,"updated_at":"2026-06-22T02:47:11.306690+05:30"},{"city":"Akola","state":"Maharashtra","latitude":20.7002,"longitude":77.0082,"temp":32.0,"humidity":46,"rain":0.0,"pressure":972.0,"uv_index":8.85,"wind_gusts":44.3,"aqi":59,"pm10":19.2,"pm2_5":15.4,"no2":12.3,"co":124.0,"o3":56.0,"so2":8.6,"mosquito_risk":0,"arthritis_risk":5,"migraine_risk":7,"frizz_risk":1,"updated_at":"2026-06-22T02:47:11.306698+05:30"},{"city":"Amravati","state":"Maharashtra","latitude":20.9374,"longitude":77.7796,"temp":31.1,"humidity":51,"rain":0.0,"pressure":964.2,"uv_index":8.7,"wind_gusts":32.8,"aqi":62,"pm10":20.1,"pm2_5":15.8,"no2":11.7,"co":136.0,"o3":58.0,"so2":6.6,"mosquito_risk":0,"arthritis_risk":5,"migraine_risk":7,"frizz_risk":1,"updated_at":"2026-06-22T02:47:11.306705+05:30"},{"city":"Latur","state":"Maharashtra","latitude":18.4088,"longitude":76.5604,"temp":28.5,"humidity":59,"rain":0.0,"pressure":937.8,"uv_index":8.05,"wind_gusts":56.5,"aqi":54,"pm10":10.7,"pm2_5":9.2,"no2":7.1,"co":140.0,"o3":47.0,"so2":2.0,"mosquito_risk":4,"arthritis_risk":5,"migraine_risk":7,"frizz_risk":1,"updated_at":"2026-06-22T02:47:11.306712+05:30"},{"city":"Nanded","state":"Maharashtra","latitude":19.1383,"longitude":77.3091,"temp":27.6,"humidity":83,"rain":0.0,"pressure":965.9,"uv_index":8.85,"wind_gusts":57.2,"aqi":60,"pm10":21.4,"pm2_5":17.3,"no2":8.3,"co":142.0,"o3":58.0,"so2":3.9,"mosquito_risk":7,"arthritis_risk":5,"migraine_risk":7,"frizz_risk":1,"updated_at":"2026-06-22T02:47:11.306718+05:30"},{"city":"Gulbarga","state":"Karnataka","latitude":17.3297,"longitude":76.8343,"temp":28.4,"humidity":65,"rain":0.0,"pressure":957.0,"uv_index":8.9,"wind_gusts":53.3,"aqi":45,"pm10":6.1,"pm2_5":5.5,"no2":7.3,"co":141.0,"o3":52.0,"so2":1.9,"mosquito_risk":7,"arthritis_risk":5,"migraine_risk":7,"frizz_risk":1,"updated_at":"2026-06-22T02:47:11.306724+05:30"},{"city":"Bidar","state":"Karnataka","latitude":17.9104,"longitude":77.5199,"temp":27.1,"humidity":64,"rain":0.0,"pressure":933.6,"uv_index":8.95,"wind_gusts":36.0,"aqi":68,"pm10":16.6,"pm2_5":14.1,"no2":11.5,"co":167.0,"o3":53.0,"so2":4.6,"mosquito_risk":7,"arthritis_risk":5,"migraine_risk":7,"frizz_risk":1,"updated_at":"2026-06-22T02:47:11.306731+05:30"},{"city":"Hospet","state":"Karnataka","latitude":15.2689,"longitude":76.3909,"temp":24.8,"humidity":84,"rain":0.0,"pressure":954.5,"uv_index":8.95,"wind_gusts":58.0,"aqi":23,"pm10":3.6,"pm2_5":3.3,"no2":4.8,"co":130.0,"o3":37.0,"so2":1.3,"mosquito_risk":3,"arthritis_risk":5,"migraine_risk":7,"frizz_risk":1,"updated_at":"2026-06-22T02:47:11.306737+05:30"},{"city":"Tirupur","state":"Tamil Nadu","latitude":11.1085,"longitude":77.3411,"temp":24.2,"humidity":90,"rain":0.0,"pressure":974.5,"uv_index":8.9,"wind_gusts":56.9,"aqi":41,"pm10":11.3,"pm2_5":10.6,"no2":14.2,"co":113.0,"o3":28.0,"so2":4.5,"mosquito_risk":3,"arthritis_risk":5,"migraine_risk":7,"frizz_risk":1,"updated_at":"2026-06-22T02:47:11.306743+05:30"},{"city":"Alappuzha","state":"Kerala","latitude":9.4981,"longitude":76.3388,"temp":24.8,"humidity":100,"rain":0.0,"pressure":1009.7,"uv_index":7.75,"wind_gusts":35.3,"aqi":32,"pm10":6.8,"pm2_5":5.0,"no2":4.7,"co":82.0,"o3":43.0,"so2":1.9,"mosquito_risk":3,"arthritis_risk":0,"migraine_risk":4,"frizz_risk":1,"updated_at":"2026-06-22T02:47:11.306750+05:30"},{"city":"Munnar","state":"Kerala","latitude":10.0889,"longitude":77.0595,"temp":16.9,"humidity":100,"rain":0.1,"pressure":856.5,"uv_index":6.3,"wind_gusts":38.2,"aqi":25,"pm10":3.6,"pm2_5":3.4,"no2":5.3,"co":92.0,"o3":29.0,"so2":1.6,"mosquito_risk":6,"arthritis_risk":10,"migraine_risk":7,"frizz_risk":1,"updated_at":"2026-06-22T02:47:11.306756+05:30"},{"city":"Silchar","state":"Assam","latitude":24.8333,"longitude":92.7789,"temp":25.1,"humidity":97,"rain":0.1,"pressure":1003.0,"uv_index":8.6,"wind_gusts":31.3,"aqi":59,"pm10":15.0,"pm2_5":12.5,"no2":5.2,"co":244.0,"o3":73.0,"so2":2.8,"mosquito_risk":10,"arthritis_risk":5,"migraine_risk":4,"frizz_risk":1,"updated_at":"2026-06-22T02:47:11.306763+05:30"},{"city":"Dibrugarh","state":"Assam","latitude":27.4728,"longitude":94.912,"temp":25.0,"humidity":97,"rain":0.2,"pressure":992.6,"uv_index":4.95,"wind_gusts":27.7,"aqi":66,"pm10":8.6,"pm2_5":7.7,"no2":6.0,"co":217.0,"o3":85.0,"so2":1.3,"mosquito_risk":10,"arthritis_risk":5,"migraine_risk":3,"frizz_risk":1,"updated_at":"2026-06-22T02:47:11.306769+05:30"}]