[{"city":"Delhi","state":"Delhi","latitude":28.6139,"longitude":77.209,"temp":21.6,"humidity":70,"rain":0.0,"pressure":986.6,"uv_index":5.85,"wind_gusts":32.8,"aqi":296,"pm10":470.3,"pm2_5":99.2,"mosquito_risk":3,"arthritis_risk":5,"migraine_risk":3,"frizz_risk":0,"updated_at":"2026-03-05T00:26:25.894225+05:30"},{"city":"Mumbai","state":"Maharashtra","latitude":19.076,"longitude":72.8777,"temp":29.0,"humidity":58,"rain":0.0,"pressure":1010.0,"uv_index":7.35,"wind_gusts":24.5,"aqi":183,"pm10":34.7,"pm2_5":33.6,"mosquito_risk":4,"arthritis_risk":0,"migraine_risk":4,"frizz_risk":1,"updated_at":"2026-03-05T00:26:25.894274+05:30"},{"city":"Bangalore","state":"Karnataka","latitude":12.9716,"longitude":77.5946,"temp":22.0,"humidity":53,"rain":0.0,"pressure":913.7,"uv_index":9.1,"wind_gusts":35.3,"aqi":91,"pm10":25.7,"pm2_5":24.9,"mosquito_risk":0,"arthritis_risk":5,"migraine_risk":7,"frizz_risk":0,"updated_at":"2026-03-05T00:26:25.894290+05:30"},{"city":"Hyderabad","state":"Telangana","latitude":17.385,"longitude":78.4867,"temp":23.7,"humidity":59,"rain":0.0,"pressure":955.6,"uv_index":8.4,"wind_gusts":25.6,"aqi":95,"pm10":44.7,"pm2_5":42.1,"mosquito_risk":0,"arthritis_risk":5,"migraine_risk":7,"frizz_risk":0,"updated_at":"2026-03-05T00:26:25.894300+05:30"},{"city":"Chennai","state":"Tamil Nadu","latitude":13.0827,"longitude":80.2707,"temp":24.7,"humidity":90,"rain":0.0,"pressure":1010.5,"uv_index":8.8,"wind_gusts":29.5,"aqi":91,"pm10":21.8,"pm2_5":19.2,"mosquito_risk":3,"arthritis_risk":0,"migraine_risk":4,"frizz_risk":1,"updated_at":"2026-03-05T00:26:25.894309+05:30"},{"city":"Kolkata","state":"West Bengal","latitude":22.5726,"longitude":88.3639,"temp":22.5,"humidity":56,"rain":0.0,"pressure":1008.2,"uv_index":7.75,"wind_gusts":18.7,"aqi":168,"pm10":132.2,"pm2_5":102.7,"mosquito_risk":0,"arthritis_risk":0,"migraine_risk":4,"frizz_risk":0,"updated_at":"2026-03-05T00:26:25.894318+05:30"},{"city":"Pune","state":"Maharashtra","latitude":18.5204,"longitude":73.8567,"temp":22.7,"humidity":58,"rain":0.0,"pressure":950.4,"uv_index":7.95,"wind_gusts":30.2,"aqi":90,"pm10":28.6,"pm2_5":27.8,"mosquito_risk":0,"arthritis_risk":5,"migraine_risk":7,"frizz_risk":0,"updated_at":"2026-03-05T00:26:25.894330+05:30"},{"city":"Ahmedabad","state":"Gujarat","latitude":23.0225,"longitude":72.5714,"temp":24.7,"humidity":43,"rain":0.0,"pressure":1006.2,"uv_index":7.2,"wind_gusts":19.8,"aqi":75,"pm10":29.0,"pm2_5":26.7,"mosquito_risk":0,"arthritis_risk":5,"migraine_risk":4,"frizz_risk":0,"updated_at":"2026-03-05T00:26:25.894339+05:30"},{"city":"Jaipur","state":"Rajasthan","latitude":26.9124,"longitude":75.7873,"temp":25.1,"humidity":28,"rain":0.0,"pressure":963.9,"uv_index":6.6,"wind_gusts":32.0,"aqi":94,"pm10":97.1,"pm2_5":41.2,"mosquito_risk":4,"arthritis_risk":5,"migraine_risk":7,"frizz_risk":0,"updated_at":"2026-03-05T00:26:25.894348+05:30"},{"city":"Lucknow","state":"Uttar Pradesh","latitude":26.8467,"longitude":80.9462,"temp":22.0,"humidity":72,"rain":0.0,"pressure":996.9,"uv_index":6.35,"wind_gusts":24.8,"aqi":160,"pm10":202.1,"pm2_5":93.1,"mosquito_risk":3,"arthritis_risk":5,"migraine_risk":7,"frizz_risk":1,"updated_at":"2026-03-05T00:26:25.894356+05:30"},{"city":"Kanpur","state":"Uttar Pradesh","latitude":26.4499,"longitude":80.3319,"temp":21.2,"humidity":72,"rain":0.0,"pressure":995.2,"uv_index":6.35,"wind_gusts":27.0,"aqi":175,"pm10":292.4,"pm2_5":90.6,"mosquito_risk":3,"arthritis_risk":5,"migraine_risk":7,"frizz_risk":0,"updated_at":"2026-03-05T00:26:25.894363+05:30"},{"city":"Chandigarh","state":"Chandigarh","latitude":30.7333,"longitude":76.7794,"temp":19.8,"humidity":75,"rain":0.0,"pressure":971.8,"uv_index":5.75,"wind_gusts":34.9,"aqi":90,"pm10":38.3,"pm2_5":34.9,"mosquito_risk":3,"arthritis_risk":5,"migraine_risk":3,"frizz_risk":0,"updated_at":"2026-03-05T00:26:25.894371+05:30"},{"city":"Srinagar","state":"Jammu and Kashmir","latitude":34.0837,"longitude":74.7973,"temp":8.4,"humidity":82,"rain":0.0,"pressure":843.4,"uv_index":6.15,"wind_gusts":14.8,"aqi":151,"pm10":130.9,"pm2_5":102.4,"mosquito_risk":3,"arthritis_risk":10,"migraine_risk":7,"frizz_risk":0,"updated_at":"2026-03-05T00:26:25.894379+05:30"},{"city":"Jammu","state":"Jammu and Kashmir","latitude":32.7266,"longitude":74.857,"temp":19.2,"humidity":73,"rain":0.0,"pressure":976.2,"uv_index":6.35,"wind_gusts":22.3,"aqi":107,"pm10":65.4,"pm2_5":54.4,"mosquito_risk":3,"arthritis_risk":5,"migraine_risk":7,"frizz_risk":0,"updated_at":"2026-03-05T00:26:25.894386+05:30"},{"city":"Amritsar","state":"Punjab","latitude":31.634,"longitude":74.8723,"temp":19.5,"humidity":75,"rain":0.0,"pressure":984.4,"uv_index":6.3,"wind_gusts":22.0,"aqi":152,"pm10":79.6,"pm2_5":62.2,"mosquito_risk":3,"arthritis_risk":5,"migraine_risk":7,"frizz_risk":0,"updated_at":"2026-03-05T00:26:25.894393+05:30"},{"city":"Ludhiana","state":"Punjab","latitude":30.901,"longitude":75.8573,"temp":21.6,"humidity":76,"rain":0.0,"pressure":982.5,"uv_index":5.95,"wind_gusts":28.8,"aqi":155,"pm10":107.6,"pm2_5":85.9,"mosquito_risk":3,"arthritis_risk":5,"migraine_risk":3,"frizz_risk":1,"updated_at":"2026-03-05T00:26:25.894399+05:30"},{"city":"Jalandhar","state":"Punjab","latitude":31.326,"longitude":75.5762,"temp":20.4,"humidity":75,"rain":0.0,"pressure":983.7,"uv_index":6.15,"wind_gusts":27.0,"aqi":156,"pm10":111.3,"pm2_5":92.0,"mosquito_risk":3,"arthritis_risk":5,"migraine_risk":7,"frizz_risk":0,"updated_at":"2026-03-05T00:26:25.894408+05:30"},{"city":"Dehradun","state":"Uttarakhand","latitude":30.6284,"longitude":78.0322,"temp":13.9,"humidity":44,"rain":0.0,"pressure":830.9,"uv_index":6.1,"wind_gusts":29.2,"aqi":58,"pm10":30.4,"pm2_5":22.8,"mosquito_risk":0,"arthritis_risk":5,"migraine_risk":7,"frizz_risk":0,"updated_at":"2026-03-05T00:26:25.894415+05:30"},{"city":"Shimla","state":"Himachal Pradesh","latitude":31.1048,"longitude":77.1734,"temp":14.4,"humidity":43,"rain":0.0,"pressure":787.0,"uv_index":6.15,"wind_gusts":50.4,"aqi":73,"pm10":36.1,"pm2_5":25.6,"mosquito_risk":0,"arthritis_risk":5,"migraine_risk":7,"frizz_risk":0,"updated_at":"2026-03-05T00:26:25.894422+05:30"},{"city":"Manali","state":"Himachal Pradesh","latitude":32.2396,"longitude":77.1887,"temp":17.8,"humidity":27,"rain":0.0,"pressure":824.1,"uv_index":7.75,"wind_gusts":32.8,"aqi":58,"pm10":31.0,"pm2_5":17.6,"mosquito_risk":0,"arthritis_risk":5,"migraine_risk":7,"frizz_risk":1,"updated_at":"2026-03-05T00:26:25.894428+05:30"},{"city":"Gurgaon","state":"Haryana","latitude":28.4595,"longitude":77.0266,"temp":19.0,"humidity":77,"rain":0.0,"pressure":985.0,"uv_index":5.95,"wind_gusts":31.0,"aqi":1195,"pm10":1214.4,"pm2_5":168.6,"mosquito_risk":3,"arthritis_risk":5,"migraine_risk":3,"frizz_risk":0,"updated_at":"2026-03-05T00:26:25.894435+05:30"},{"city":"Noida","state":"Uttar Pradesh","latitude":28.5355,"longitude":77.391,"temp":21.9,"humidity":68,"rain":0.0,"pressure":988.0,"uv_index":5.85,"wind_gusts":32.0,"aqi":1195,"pm10":1214.4,"pm2_5":168.6,"mosquito_risk":3,"arthritis_risk":5,"migraine_risk":3,"frizz_risk":0,"updated_at":"2026-03-05T00:26:25.894442+05:30"},{"city":"Ghaziabad","state":"Uttar Pradesh","latitude":28.6692,"longitude":77.4538,"temp":21.6,"humidity":73,"rain":0.0,"pressure":986.1,"uv_index":5.8,"wind_gusts":29.5,"aqi":194,"pm10":425.6,"pm2_5":97.3,"mosquito_risk":3,"arthritis_risk":5,"migraine_risk":3,"frizz_risk":1,"updated_at":"2026-03-05T00:26:25.894449+05:30"},{"city":"Faridabad","state":"Haryana","latitude":28.4089,"longitude":77.3178,"temp":22.0,"humidity":60,"rain":0.0,"pressure":987.3,"uv_index":5.9,"wind_gusts":29.9,"aqi":1195,"pm10":1214.4,"pm2_5":168.6,"mosquito_risk":0,"arthritis_risk":5,"migraine_risk":3,"frizz_risk":0,"updated_at":"2026-03-05T00:26:25.894456+05:30"},{"city":"Meerut","state":"Uttar Pradesh","latitude":28.9845,"longitude":77.7064,"temp":19.5,"humidity":85,"rain":0.0,"pressure":984.7,"uv_index":5.7,"wind_gusts":32.0,"aqi":194,"pm10":425.6,"pm2_5":97.3,"mosquito_risk":3,"arthritis_risk":10,"migraine_risk":3,"frizz_risk":1,"updated_at":"2026-03-05T00:26:25.894463+05:30"},{"city":"Agra","state":"Uttar Pradesh","latitude":27.1767,"longitude":78.0081,"temp":19.8,"humidity":67,"rain":0.0,"pressure":991.2,"uv_index":6.2,"wind_gusts":32.8,"aqi":427,"pm10":521.5,"pm2_5":89.9,"mosquito_risk":3,"arthritis_risk":5,"migraine_risk":7,"frizz_risk":0,"updated_at":"2026-03-05T00:26:25.894470+05:30"},{"city":"Varanasi","state":"Uttar Pradesh","latitude":25.3176,"longitude":82.9739,"temp":21.0,"humidity":76,"rain":0.0,"pressure":1000.8,"uv_index":7.0,"wind_gusts":18.4,"aqi":153,"pm10":157.9,"pm2_5":91.5,"mosquito_risk":3,"arthritis_risk":5,"migraine_risk":4,"frizz_risk":1,"updated_at":"2026-03-05T00:26:25.894479+05:30"},{"city":"Prayagraj","state":"Uttar Pradesh","latitude":25.4358,"longitude":81.8463,"temp":21.7,"humidity":71,"rain":0.0,"pressure":999.5,"uv_index":6.85,"wind_gusts":23.4,"aqi":154,"pm10":124.8,"pm2_5":75.2,"mosquito_risk":3,"arthritis_risk":5,"migraine_risk":7,"frizz_risk":1,"updated_at":"2026-03-05T00:26:25.894486+05:30"},{"city":"Gorakhpur","state":"Uttar Pradesh","latitude":26.7606,"longitude":83.3732,"temp":21.3,"humidity":71,"rain":0.0,"pressure":1000.3,"uv_index":6.7,"wind_gusts":12.2,"aqi":167,"pm10":168.6,"pm2_5":133.6,"mosquito_risk":3,"arthritis_risk":5,"migraine_risk":4,"frizz_risk":0,"updated_at":"2026-03-05T00:26:25.894492+05:30"},{"city":"Bareilly","state":"Uttar Pradesh","latitude":28.367,"longitude":79.4304,"temp":19.8,"humidity":79,"rain":0.0,"pressure":990.2,"uv_index":6.05,"wind_gusts":20.5,"aqi":163,"pm10":102.7,"pm2_5":87.1,"mosquito_risk":3,"arthritis_risk":5,"migraine_risk":7,"frizz_risk":1,"updated_at":"2026-03-05T00:26:25.894505+05:30"},{"city":"Aligarh","state":"Uttar Pradesh","latitude":27.8974,"longitude":78.088,"temp":19.4,"humidity":73,"rain":0.0,"pressure":989.0,"uv_index":5.95,"wind_gusts":28.8,"aqi":615,"pm10":787.9,"pm2_5":143.4,"mosquito_risk":3,"arthritis_risk":5,"migraine_risk":3,"frizz_risk":0,"updated_at":"2026-03-05T00:26:25.894512+05:30"},{"city":"Moradabad","state":"Uttar Pradesh","latitude":28.8386,"longitude":78.7733,"temp":19.6,"humidity":82,"rain":0.0,"pressure":986.9,"uv_index":5.85,"wind_gusts":23.4,"aqi":159,"pm10":320.4,"pm2_5":113.2,"mosquito_risk":3,"arthritis_risk":10,"migraine_risk":3,"frizz_risk":1,"updated_at":"2026-03-05T00:26:25.894519+05:30"},{"city":"Saharanpur","state":"Uttar Pradesh","latitude":29.9637,"longitude":77.546,"temp":19.2,"humidity":80,"rain":0.0,"pressure":978.8,"uv_index":5.5,"wind_gusts":39.2,"aqi":152,"pm10":144.8,"pm2_5":77.8,"mosquito_risk":3,"arthritis_risk":5,"migraine_risk":3,"frizz_risk":0,"updated_at":"2026-03-05T00:26:25.894528+05:30"},{"city":"Jhansi","state":"Uttar Pradesh","latitude":25.4484,"longitude":78.5685,"temp":21.7,"humidity":52,"rain":0.0,"pressure":981.4,"uv_index":6.8,"wind_gusts":31.7,"aqi":62,"pm10":30.0,"pm2_5":24.9,"mosquito_risk":0,"arthritis_risk":5,"migraine_risk":7,"frizz_risk":0,"updated_at":"2026-03-05T00:26:29.148728+05:30"},{"city":"Surat","state":"Gujarat","latitude":21.1702,"longitude":72.8311,"temp":25.9,"humidity":51,"rain":0.0,"pressure":1009.3,"uv_index":7.05,"wind_gusts":27.7,"aqi":136,"pm10":45.3,"pm2_5":42.5,"mosquito_risk":4,"arthritis_risk":0,"migraine_risk":4,"frizz_risk":0,"updated_at":"2026-03-05T00:26:29.148759+05:30"},{"city":"Vadodara","state":"Gujarat","latitude":22.3072,"longitude":73.1812,"temp":25.2,"humidity":47,"rain":0.0,"pressure":1007.9,"uv_index":7.2,"wind_gusts":18.7,"aqi":138,"pm10":39.9,"pm2_5":36.9,"mosquito_risk":4,"arthritis_risk":5,"migraine_risk":4,"frizz_risk":0,"updated_at":"2026-03-05T00:26:29.148769+05:30"},{"city":"Rajkot","state":"Gujarat","latitude":22.3039,"longitude":70.8022,"temp":24.0,"humidity":47,"rain":0.0,"pressure":999.0,"uv_index":7.0,"wind_gusts":25.9,"aqi":85,"pm10":20.1,"pm2_5":19.3,"mosquito_risk":0,"arthritis_risk":5,"migraine_risk":7,"frizz_risk":0,"updated_at":"2026-03-05T00:26:29.148778+05:30"},{"city":"Thane","state":"Maharashtra","latitude":19.2183,"longitude":72.9781,"temp":27.3,"humidity":48,"rain":0.0,"pressure":1009.6,"uv_index":7.35,"wind_gusts":35.3,"aqi":183,"pm10":34.7,"pm2_5":33.6,"mosquito_risk":4,"arthritis_risk":0,"migraine_risk":4,"frizz_risk":0,"updated_at":"2026-03-05T00:26:29.148785+05:30"},{"city":"Nagpur","state":"Maharashtra","latitude":21.1458,"longitude":79.0882,"temp":24.3,"humidity":53,"rain":0.0,"pressure":976.1,"uv_index":7.75,"wind_gusts":23.0,"aqi":67,"pm10":28.8,"pm2_5":25.3,"mosquito_risk":0,"arthritis_risk":5,"migraine_risk":7,"frizz_risk":0,"updated_at":"2026-03-05T00:26:29.148793+05:30"},{"city":"Nashik","state":"Maharashtra","latitude":19.9975,"longitude":73.7898,"temp":23.2,"humidity":55,"rain":0.0,"pressure":948.1,"uv_index":7.55,"wind_gusts":23.4,"aqi":84,"pm10":27.5,"pm2_5":26.5,"mosquito_risk":0,"arthritis_risk":5,"migraine_risk":7,"frizz_risk":0,"updated_at":"2026-03-05T00:26:29.148800+05:30"},{"city":"Aurangabad","state":"Maharashtra","latitude":19.8762,"longitude":75.3433,"temp":23.1,"humidity":52,"rain":0.0,"pressure":946.3,"uv_index":8.05,"wind_gusts":22.7,"aqi":101,"pm10":39.6,"pm2_5":39.0,"mosquito_risk":0,"arthritis_risk":5,"migraine_risk":7,"frizz_risk":0,"updated_at":"2026-03-05T00:26:29.148807+05:30"},{"city":"Solapur","state":"Maharashtra","latitude":17.6599,"longitude":75.9064,"temp":24.3,"humidity":61,"rain":0.0,"pressure":958.8,"uv_index":8.3,"wind_gusts":18.0,"aqi":101,"pm10":24.0,"pm2_5":22.9,"mosquito_risk":3,"arthritis_risk":5,"migraine_risk":7,"frizz_risk":1,"updated_at":"2026-03-05T00:26:29.148815+05:30"},{"city":"Kolhapur","state":"Maharashtra","latitude":16.705,"longitude":74.2433,"temp":20.5,"humidity":86,"rain":0.0,"pressure":949.9,"uv_index":8.45,"wind_gusts":37.8,"aqi":154,"pm10":76.6,"pm2_5":76.1,"mosquito_risk":3,"arthritis_risk":5,"migraine_risk":7,"frizz_risk":1,"updated_at":"2026-03-05T00:26:29.148823+05:30"},{"city":"Goa","state":"Goa","latitude":15.2993,"longitude":74.124,"temp":27.1,"humidity":88,"rain":0.0,"pressure":1000.5,"uv_index":8.5,"wind_gusts":35.6,"aqi":118,"pm10":61.9,"pm2_5":58.2,"mosquito_risk":7,"arthritis_risk":5,"migraine_risk":4,"frizz_risk":1,"updated_at":"2026-03-05T00:26:29.148830+05:30"},{"city":"Jodhpur","state":"Rajasthan","latitude":26.2389,"longitude":73.0243,"temp":24.5,"humidity":44,"rain":0.0,"pressure":987.5,"uv_index":6.9,"wind_gusts":18.0,"aqi":83,"pm10":73.1,"pm2_5":33.9,"mosquito_risk":0,"arthritis_risk":5,"migraine_risk":7,"frizz_risk":0,"updated_at":"2026-03-05T00:26:29.148838+05:30"},{"city":"Udaipur","state":"Rajasthan","latitude":24.5854,"longitude":73.7125,"temp":19.7,"humidity":52,"rain":0.0,"pressure":950.7,"uv_index":7.5,"wind_gusts":23.8,"aqi":59,"pm10":32.9,"pm2_5":22.0,"mosquito_risk":0,"arthritis_risk":5,"migraine_risk":7,"frizz_risk":0,"updated_at":"2026-03-05T00:26:29.148846+05:30"},{"city":"Kota","state":"Rajasthan","latitude":25.2138,"longitude":75.8648,"temp":19.4,"humidity":69,"rain":0.0,"pressure":982.5,"uv_index":6.9,"wind_gusts":17.6,"aqi":82,"pm10":57.0,"pm2_5":41.6,"mosquito_risk":3,"arthritis_risk":5,"migraine_risk":7,"frizz_risk":0,"updated_at":"2026-03-05T00:26:29.148853+05:30"},{"city":"Bikaner","state":"Rajasthan","latitude":28.0229,"longitude":73.3119,"temp":24.4,"humidity":41,"rain":0.0,"pressure":986.2,"uv_index":6.55,"wind_gusts":23.8,"aqi":67,"pm10":57.7,"pm2_5":21.0,"mosquito_risk":0,"arthritis_risk":5,"migraine_risk":7,"frizz_risk":0,"updated_at":"2026-03-05T00:26:29.148860+05:30"},{"city":"Ajmer","state":"Rajasthan","latitude":26.4499,"longitude":74.6399,"temp":23.5,"humidity":37,"rain":0.0,"pressure":958.7,"uv_index":6.85,"wind_gusts":23.4,"aqi":71,"pm10":70.1,"pm2_5":27.3,"mosquito_risk":0,"arthritis_risk":5,"migraine_risk":7,"frizz_risk":0,"updated_at":"2026-03-05T00:26:29.148867+05:30"},{"city":"Gwalior","state":"Madhya Pradesh","latitude":26.2183,"longitude":78.1828,"temp":23.0,"humidity":51,"rain":0.0,"pressure":986.7,"uv_index":6.5,"wind_gusts":29.2,"aqi":80,"pm10":55.4,"pm2_5":32.9,"mosquito_risk":0,"arthritis_risk":5,"migraine_risk":7,"frizz_risk":0,"updated_at":"2026-03-05T00:26:29.148874+05:30"},{"city":"Indore","state":"Madhya Pradesh","latitude":22.7196,"longitude":75.8577,"temp":21.7,"humidity":50,"rain":0.0,"pressure":951.2,"uv_index":7.45,"wind_gusts":20.5,"aqi":80,"pm10":41.0,"pm2_5":33.8,"mosquito_risk":0,"arthritis_risk":5,"migraine_risk":7,"frizz_risk":0,"updated_at":"2026-03-05T00:26:29.148882+05:30"},{"city":"Bhopal","state":"Madhya Pradesh","latitude":23.2599,"longitude":77.4126,"temp":21.7,"humidity":41,"rain":0.0,"pressure":957.0,"uv_index":7.3,"wind_gusts":23.0,"aqi":68,"pm10":31.2,"pm2_5":27.6,"mosquito_risk":0,"arthritis_risk":5,"migraine_risk":7,"frizz_risk":0,"updated_at":"2026-03-05T00:26:29.148889+05:30"},{"city":"Jabalpur","state":"Madhya Pradesh","latitude":23.1815,"longitude":79.9864,"temp":23.1,"humidity":44,"rain":0.0,"pressure":964.7,"uv_index":7.45,"wind_gusts":23.4,"aqi":67,"pm10":29.4,"pm2_5":21.2,"mosquito_risk":0,"arthritis_risk":5,"migraine_risk":7,"frizz_risk":0,"updated_at":"2026-03-05T00:26:29.148896+05:30"},{"city":"Ujjain","state":"Madhya Pradesh","latitude":23.1765,"longitude":75.7885,"temp":21.2,"humidity":50,"rain":0.0,"pressure":957.1,"uv_index":7.35,"wind_gusts":19.4,"aqi":108,"pm10":67.5,"pm2_5":59.8,"mosquito_risk":0,"arthritis_risk":5,"migraine_risk":7,"frizz_risk":0,"updated_at":"2026-03-05T00:26:29.148904+05:30"},{"city":"Visakhapatnam","state":"Andhra Pradesh","latitude":17.6868,"longitude":83.2185,"temp":24.4,"humidity":82,"rain":0.0,"pressure":1005.6,"uv_index":8.4,"wind_gusts":36.7,"aqi":128,"pm10":33.3,"pm2_5":30.6,"mosquito_risk":3,"arthritis_risk":5,"migraine_risk":4,"frizz_risk":1,"updated_at":"2026-03-05T00:26:29.148911+05:30"},{"city":"Vijayawada","state":"Andhra Pradesh","latitude":16.5062,"longitude":80.648,"temp":24.6,"humidity":76,"rain":0.0,"pressure":1005.1,"uv_index":8.45,"wind_gusts":22.3,"aqi":121,"pm10":27.2,"pm2_5":26.1,"mosquito_risk":3,"arthritis_risk":5,"migraine_risk":4,"frizz_risk":1,"updated_at":"2026-03-05T00:26:29.148918+05:30"},{"city":"Guntur","state":"Andhra Pradesh","latitude":16.3067,"longitude":80.4365,"temp":23.8,"humidity":90,"rain":0.0,"pressure":1006.6,"uv_index":8.45,"wind_gusts":25.2,"aqi":110,"pm10":27.2,"pm2_5":26.3,"mosquito_risk":3,"arthritis_risk":5,"migraine_risk":4,"frizz_risk":1,"updated_at":"2026-03-05T00:26:29.148925+05:30"},{"city":"Nellore","state":"Andhra Pradesh","latitude":14.4426,"longitude":79.9865,"temp":24.3,"humidity":87,"rain":0.0,"pressure":1008.9,"uv_index":8.65,"wind_gusts":29.9,"aqi":96,"pm10":14.4,"pm2_5":13.1,"mosquito_risk":3,"arthritis_risk":0,"migraine_risk":4,"frizz_risk":1,"updated_at":"2026-03-05T00:26:29.148932+05:30"},{"city":"Kurnool","state":"Andhra Pradesh","latitude":15.8281,"longitude":78.0373,"temp":28.0,"humidity":44,"rain":0.0,"pressure":979.0,"uv_index":8.45,"wind_gusts":27.0,"aqi":89,"pm10":18.2,"pm2_5":17.4,"mosquito_risk":4,"arthritis_risk":5,"migraine_risk":7,"frizz_risk":0,"updated_at":"2026-03-05T00:26:29.148940+05:30"},{"city":"Kakinada","state":"Andhra Pradesh","latitude":16.9891,"longitude":82.2475,"temp":22.3,"humidity":93,"rain":0.0,"pressure":1010.0,"uv_index":8.4,"wind_gusts":33.8,"aqi":97,"pm10":30.7,"pm2_5":26.8,"mosquito_risk":3,"arthritis_risk":0,"migraine_risk":4,"frizz_risk":1,"updated_at":"2026-03-05T00:26:29.148947+05:30"},{"city":"Tirupati","state":"Andhra Pradesh","latitude":13.6288,"longitude":79.4192,"temp":24.0,"humidity":58,"rain":0.0,"pressure":995.0,"uv_index":8.8,"wind_gusts":34.6,"aqi":133,"pm10":50.2,"pm2_5":49.2,"mosquito_risk":0,"arthritis_risk":5,"migraine_risk":7,"frizz_risk":0,"updated_at":"2026-03-05T00:26:29.148954+05:30"},{"city":"Warangal","state":"Telangana","latitude":17.9689,"longitude":79.5941,"temp":25.1,"humidity":53,"rain":0.0,"pressure":980.6,"uv_index":8.2,"wind_gusts":20.5,"aqi":114,"pm10":35.2,"pm2_5":33.3,"mosquito_risk":4,"arthritis_risk":5,"migraine_risk":7,"frizz_risk":0,"updated_at":"2026-03-05T00:26:29.148962+05:30"},{"city":"Nizamabad","state":"Telangana","latitude":18.6725,"longitude":78.0941,"temp":21.7,"humidity":65,"rain":0.0,"pressure":966.8,"uv_index":8.1,"wind_gusts":26.3,"aqi":83,"pm10":28.5,"pm2_5":26.3,"mosquito_risk":3,"arthritis_risk":5,"migraine_risk":7,"frizz_risk":0,"updated_at":"2026-03-05T00:26:29.148968+05:30"},{"city":"Mysore","state":"Karnataka","latitude":12.2958,"longitude":76.6396,"temp":21.6,"humidity":88,"rain":0.0,"pressure":930.5,"uv_index":9.15,"wind_gusts":40.3,"aqi":90,"pm10":27.2,"pm2_5":26.4,"mosquito_risk":3,"arthritis_risk":5,"migraine_risk":7,"frizz_risk":1,"updated_at":"2026-03-05T00:26:29.148976+05:30"},{"city":"Mangalore","state":"Karnataka","latitude":12.9141,"longitude":74.856,"temp":28.6,"humidity":80,"rain":0.0,"pressure":1009.4,"uv_index":8.75,"wind_gusts":29.2,"aqi":94,"pm10":44.0,"pm2_5":39.1,"mosquito_risk":7,"arthritis_risk":0,"migraine_risk":4,"frizz_risk":1,"updated_at":"2026-03-05T00:26:29.148983+05:30"},{"city":"Hubli-Dharwad","state":"Karnataka","latitude":15.3647,"longitude":75.124,"temp":23.2,"humidity":84,"rain":0.0,"pressure":942.9,"uv_index":8.65,"wind_gusts":25.6,"aqi":126,"pm10":25.7,"pm2_5":25.2,"mosquito_risk":3,"arthritis_risk":5,"migraine_risk":7,"frizz_risk":1,"updated_at":"2026-03-05T00:26:29.148991+05:30"},{"city":"Belgaum","state":"Karnataka","latitude":15.8497,"longitude":74.4977,"temp":22.0,"humidity":90,"rain":0.0,"pressure":927.7,"uv_index":8.7,"wind_gusts":32.4,"aqi":114,"pm10":58.4,"pm2_5":57.3,"mosquito_risk":3,"arthritis_risk":5,"migraine_risk":7,"frizz_risk":1,"updated_at":"2026-03-05T00:26:32.403650+05:30"},{"city":"Coimbatore","state":"Tamil Nadu","latitude":11.0168,"longitude":76.9558,"temp":21.7,"humidity":86,"rain":0.0,"pressure":964.6,"uv_index":9.15,"wind_gusts":43.2,"aqi":94,"pm10":51.5,"pm2_5":50.2,"mosquito_risk":3,"arthritis_risk":5,"migraine_risk":7,"frizz_risk":1,"updated_at":"2026-03-05T00:26:32.403688+05:30"},{"city":"Madurai","state":"Tamil Nadu","latitude":9.9252,"longitude":78.1198,"temp":25.3,"humidity":82,"rain":0.0,"pressure":996.4,"uv_index":9.1,"wind_gusts":25.9,"aqi":87,"pm10":25.0,"pm2_5":24.2,"mosquito_risk":7,"arthritis_risk":5,"migraine_risk":7,"frizz_risk":1,"updated_at":"2026-03-05T00:26:32.403701+05:30"},{"city":"Trichy","state":"Tamil Nadu","latitude":10.7905,"longitude":78.7047,"temp":23.7,"humidity":90,"rain":0.0,"pressure":1003.1,"uv_index":9.0,"wind_gusts":31.0,"aqi":91,"pm10":21.4,"pm2_5":20.1,"mosquito_risk":3,"arthritis_risk":5,"migraine_risk":4,"frizz_risk":1,"updated_at":"2026-03-05T00:26:32.403711+05:30"},{"city":"Salem","state":"Tamil Nadu","latitude":11.6643,"longitude":78.146,"temp":24.4,"humidity":63,"rain":0.0,"pressure":979.9,"uv_index":9.0,"wind_gusts":37.8,"aqi":100,"pm10":33.4,"pm2_5":32.7,"mosquito_risk":3,"arthritis_risk":5,"migraine_risk":7,"frizz_risk":1,"updated_at":"2026-03-05T00:26:32.403721+05:30"},{"city":"Tirunelveli","state":"Tamil Nadu","latitude":8.7139,"longitude":77.7567,"temp":24.9,"humidity":85,"rain":0.0,"pressure":1006.6,"uv_index":9.15,"wind_gusts":36.0,"aqi":78,"pm10":24.9,"pm2_5":23.7,"mosquito_risk":3,"arthritis_risk":5,"migraine_risk":4,"frizz_risk":1,"updated_at":"2026-03-05T00:26:32.403730+05:30"},{"city":"Vellore","state":"Tamil Nadu","latitude":12.9165,"longitude":79.1325,"temp":23.1,"humidity":68,"rain":0.0,"pressure":988.0,"uv_index":8.85,"wind_gusts":38.9,"aqi":121,"pm10":46.3,"pm2_5":45.4,"mosquito_risk":3,"arthritis_risk":5,"migraine_risk":7,"frizz_risk":1,"updated_at":"2026-03-05T00:26:32.403739+05:30"},{"city":"Erode","state":"Tamil Nadu","latitude":11.341,"longitude":77.7172,"temp":25.0,"humidity":63,"rain":0.0,"pressure":991.9,"uv_index":9.05,"wind_gusts":29.9,"aqi":93,"pm10":28.3,"pm2_5":27.8,"mosquito_risk":7,"arthritis_risk":5,"migraine_risk":7,"frizz_risk":1,"updated_at":"2026-03-05T00:26:32.403746+05:30"},{"city":"Kochi","state":"Kerala","latitude":9.9312,"longitude":76.2673,"temp":27.4,"humidity":81,"rain":0.0,"pressure":1011.6,"uv_index":8.95,"wind_gusts":34.6,"aqi":99,"pm10":47.3,"pm2_5":46.6,"mosquito_risk":7,"arthritis_risk":0,"migraine_risk":4,"frizz_risk":1,"updated_at":"2026-03-05T00:26:32.403754+05:30"},{"city":"Thiruvananthapuram","state":"Kerala","latitude":8.5241,"longitude":76.9366,"temp":27.3,"humidity":80,"rain":0.0,"pressure":1010.7,"uv_index":9.0,"wind_gusts":27.4,"aqi":106,"pm10":20.5,"pm2_5":18.2,"mosquito_risk":7,"arthritis_risk":0,"migraine_risk":4,"frizz_risk":1,"updated_at":"2026-03-05T00:26:32.403762+05:30"},{"city":"Kozhikode","state":"Kerala","latitude":11.2588,"longitude":75.7804,"temp":28.0,"humidity":80,"rain":0.0,"pressure":1010.6,"uv_index":8.85,"wind_gusts":31.0,"aqi":94,"pm10":37.5,"pm2_5":32.9,"mosquito_risk":7,"arthritis_risk":0,"migraine_risk":4,"frizz_risk":1,"updated_at":"2026-03-05T00:26:32.403769+05:30"},{"city":"Thrissur","state":"Kerala","latitude":10.5276,"longitude":76.2144,"temp":26.2,"humidity":90,"rain":0.0,"pressure":1010.0,"uv_index":8.9,"wind_gusts":37.8,"aqi":105,"pm10":45.5,"pm2_5":44.0,"mosquito_risk":7,"arthritis_risk":0,"migraine_risk":4,"frizz_risk":1,"updated_at":"2026-03-05T00:26:32.403777+05:30"},{"city":"Kannur","state":"Kerala","latitude":11.8745,"longitude":75.3704,"temp":27.6,"humidity":83,"rain":0.0,"pressure":1009.8,"uv_index":8.8,"wind_gusts":33.5,"aqi":90,"pm10":41.7,"pm2_5":37.3,"mosquito_risk":7,"arthritis_risk":0,"migraine_risk":4,"frizz_risk":1,"updated_at":"2026-03-05T00:26:32.403785+05:30"},{"city":"Patna","state":"Bihar","latitude":25.5941,"longitude":85.1376,"temp":23.2,"humidity":65,"rain":0.0,"pressure":1003.7,"uv_index":7.2,"wind_gusts":15.5,"aqi":169,"pm10":149.9,"pm2_5":116.6,"mosquito_risk":3,"arthritis_risk":5,"migraine_risk":4,"frizz_risk":1,"updated_at":"2026-03-05T00:26:32.403792+05:30"},{"city":"Gaya","state":"Bihar","latitude":24.7914,"longitude":85.0002,"temp":19.6,"humidity":74,"rain":0.0,"pressure":997.2,"uv_index":7.25,"wind_gusts":17.6,"aqi":153,"pm10":139.7,"pm2_5":89.2,"mosquito_risk":3,"arthritis_risk":5,"migraine_risk":7,"frizz_risk":0,"updated_at":"2026-03-05T00:26:32.403799+05:30"},{"city":"Muzaffarpur","state":"Bihar","latitude":26.1209,"longitude":85.3647,"temp":20.8,"humidity":73,"rain":0.0,"pressure":1003.7,"uv_index":7.15,"wind_gusts":14.0,"aqi":169,"pm10":149.5,"pm2_5":118.3,"mosquito_risk":3,"arthritis_risk":5,"migraine_risk":4,"frizz_risk":0,"updated_at":"2026-03-05T00:26:32.403807+05:30"},{"city":"Bhagalpur","state":"Bihar","latitude":25.2425,"longitude":87.0117,"temp":21.3,"humidity":68,"rain":0.0,"pressure":1004.4,"uv_index":7.2,"wind_gusts":8.3,"aqi":163,"pm10":134.1,"pm2_5":101.7,"mosquito_risk":3,"arthritis_risk":5,"migraine_risk":4,"frizz_risk":0,"updated_at":"2026-03-05T00:26:32.403814+05:30"},{"city":"Ranchi","state":"Jharkhand","latitude":23.3441,"longitude":85.3096,"temp":19.7,"humidity":48,"rain":0.0,"pressure":940.0,"uv_index":7.9,"wind_gusts":30.6,"aqi":97,"pm10":129.5,"pm2_5":46.3,"mosquito_risk":0,"arthritis_risk":5,"migraine_risk":7,"frizz_risk":0,"updated_at":"2026-03-05T00:26:32.403821+05:30"},{"city":"Jamshedpur","state":"Jharkhand","latitude":22.8046,"longitude":86.2029,"temp":23.1,"humidity":61,"rain":0.0,"pressure":993.6,"uv_index":7.85,"wind_gusts":19.1,"aqi":147,"pm10":148.1,"pm2_5":81.5,"mosquito_risk":3,"arthritis_risk":5,"migraine_risk":7,"frizz_risk":0,"updated_at":"2026-03-05T00:26:32.403828+05:30"},{"city":"Dhanbad","state":"Jharkhand","latitude":23.7957,"longitude":86.4304,"temp":22.4,"humidity":50,"rain":0.0,"pressure":982.8,"uv_index":7.7,"wind_gusts":23.4,"aqi":152,"pm10":100.4,"pm2_5":70.1,"mosquito_risk":0,"arthritis_risk":5,"migraine_risk":7,"frizz_risk":0,"updated_at":"2026-03-05T00:26:32.403834+05:30"},{"city":"Bokaro","state":"Jharkhand","latitude":23.6693,"longitude":86.1511,"temp":22.5,"humidity":51,"rain":0.0,"pressure":987.1,"uv_index":7.7,"wind_gusts":23.8,"aqi":153,"pm10":124.8,"pm2_5":74.3,"mosquito_risk":0,"arthritis_risk":5,"migraine_risk":7,"frizz_risk":0,"updated_at":"2026-03-05T00:26:32.403842+05:30"},{"city":"Bhubaneswar","state":"Odisha","latitude":20.2961,"longitude":85.8245,"temp":23.7,"humidity":92,"rain":0.0,"pressure":1004.3,"uv_index":8.15,"wind_gusts":27.0,"aqi":155,"pm10":71.9,"pm2_5":63.8,"mosquito_risk":3,"arthritis_risk":5,"migraine_risk":4,"frizz_risk":1,"updated_at":"2026-03-05T00:26:32.403849+05:30"},{"city":"Cuttack","state":"Odisha","latitude":20.4625,"longitude":85.8828,"temp":23.6,"humidity":89,"rain":0.0,"pressure":1006.3,"uv_index":8.15,"wind_gusts":27.0,"aqi":155,"pm10":71.9,"pm2_5":63.8,"mosquito_risk":3,"arthritis_risk":5,"migraine_risk":4,"frizz_risk":1,"updated_at":"2026-03-05T00:26:32.403856+05:30"},{"city":"Rourkela","state":"Odisha","latitude":22.2604,"longitude":84.8536,"temp":24.6,"humidity":46,"rain":0.0,"pressure":987.7,"uv_index":7.75,"wind_gusts":21.2,"aqi":98,"pm10":71.5,"pm2_5":45.9,"mosquito_risk":0,"arthritis_risk":5,"migraine_risk":7,"frizz_risk":0,"updated_at":"2026-03-05T00:26:32.403863+05:30"},{"city":"Raipur","state":"Chhattisgarh","latitude":21.2514,"longitude":81.6296,"temp":23.9,"humidity":49,"rain":0.0,"pressure":977.1,"uv_index":7.8,"wind_gusts":19.8,"aqi":128,"pm10":77.5,"pm2_5":67.3,"mosquito_risk":0,"arthritis_risk":5,"migraine_risk":7,"frizz_risk":0,"updated_at":"2026-03-05T00:26:32.403870+05:30"},{"city":"Bhilai","state":"Chhattisgarh","latitude":21.1938,"longitude":81.3509,"temp":23.6,"humidity":49,"rain":0.0,"pressure":977.5,"uv_index":7.8,"wind_gusts":16.9,"aqi":115,"pm10":71.9,"pm2_5":63.1,"mosquito_risk":0,"arthritis_risk":5,"migraine_risk":7,"frizz_risk":0,"updated_at":"2026-03-05T00:26:32.403876+05:30"},{"city":"Guwahati","state":"Assam","latitude":26.1158,"longitude":91.7086,"temp":21.1,"humidity":83,"rain":0.0,"pressure":1003.9,"uv_index":7.1,"wind_gusts":18.4,"aqi":146,"pm10":56.9,"pm2_5":52.5,"mosquito_risk":3,"arthritis_risk":5,"migraine_risk":4,"frizz_risk":1,"updated_at":"2026-03-05T00:26:32.403883+05:30"},{"city":"Agartala","state":"Tripura","latitude":23.8315,"longitude":91.2868,"temp":20.6,"humidity":70,"rain":0.0,"pressure":1008.4,"uv_index":7.5,"wind_gusts":20.9,"aqi":162,"pm10":113.2,"pm2_5":89.4,"mosquito_risk":3,"arthritis_risk":0,"migraine_risk":4,"frizz_risk":0,"updated_at":"2026-03-05T00:26:32.403889+05:30"},{"city":"Shillong","state":"Meghalaya","latitude":25.5788,"longitude":91.8933,"temp":11.0,"humidity":92,"rain":0.0,"pressure":856.1,"uv_index":7.5,"wind_gusts":29.9,"aqi":129,"pm10":46.2,"pm2_5":42.0,"mosquito_risk":3,"arthritis_risk":10,"migraine_risk":7,"frizz_risk":0,"updated_at":"2026-03-05T00:26:32.403897+05:30"},{"city":"Imphal","state":"Manipur","latitude":24.817,"longitude":93.9368,"temp":14.9,"humidity":79,"rain":0.0,"pressure":924.0,"uv_index":7.7,"wind_gusts":21.2,"aqi":139,"pm10":76.8,"pm2_5":70.3,"mosquito_risk":3,"arthritis_risk":5,"migraine_risk":7,"frizz_risk":0,"updated_at":"2026-03-05T00:26:32.403904+05:30"},{"city":"Aizawl","state":"Mizoram","latitude":23.7271,"longitude":92.7176,"temp":15.2,"humidity":70,"rain":0.0,"pressure":892.7,"uv_index":7.7,"wind_gusts":22.0,"aqi":161,"pm10":118.3,"pm2_5":105.5,"mosquito_risk":3,"arthritis_risk":5,"migraine_risk":7,"frizz_risk":0,"updated_at":"2026-03-05T00:26:32.403911+05:30"},{"city":"Kohima","state":"Nagaland","latitude":25.6701,"longitude":94.1077,"temp":13.3,"humidity":73,"rain":0.0,"pressure":855.0,"uv_index":7.55,"wind_gusts":38.5,"aqi":151,"pm10":78.9,"pm2_5":72.2,"mosquito_risk":3,"arthritis_risk":5,"migraine_risk":7,"frizz_risk":0,"updated_at":"2026-03-05T00:26:32.403917+05:30"},{"city":"Gangtok","state":"Sikkim","latitude":27.3314,"longitude":88.6138,"temp":11.7,"humidity":85,"rain":0.0,"pressure":837.6,"uv_index":7.45,"wind_gusts":22.7,"aqi":130,"pm10":60.3,"pm2_5":52.0,"mosquito_risk":3,"arthritis_risk":10,"migraine_risk":7,"frizz_risk":0,"updated_at":"2026-03-05T00:26:32.403925+05:30"},{"city":"Siliguri","state":"West Bengal","latitude":26.7271,"longitude":88.3953,"temp":20.5,"humidity":70,"rain":0.0,"pressure":997.0,"uv_index":7.1,"wind_gusts":19.8,"aqi":156,"pm10":86.4,"pm2_5":74.7,"mosquito_risk":3,"arthritis_risk":5,"migraine_risk":7,"frizz_risk":0,"updated_at":"2026-03-05T00:26:35.661824+05:30"},{"city":"Durgapur","state":"West Bengal","latitude":23.5204,"longitude":87.3119,"temp":23.0,"humidity":51,"rain":0.0,"pressure":998.0,"uv_index":7.7,"wind_gusts":20.5,"aqi":140,"pm10":103.4,"pm2_5":77.5,"mosquito_risk":0,"arthritis_risk":5,"migraine_risk":7,"frizz_risk":0,"updated_at":"2026-03-05T00:26:35.661856+05:30"},{"city":"Asansol","state":"West Bengal","latitude":23.6739,"longitude":86.9524,"temp":23.4,"humidity":53,"rain":0.0,"pressure":996.5,"uv_index":7.7,"wind_gusts":20.9,"aqi":123,"pm10":76.1,"pm2_5":56.2,"mosquito_risk":0,"arthritis_risk":5,"migraine_risk":7,"frizz_risk":0,"updated_at":"2026-03-05T00:26:35.661866+05:30"},{"city":"Pondicherry","state":"Puducherry","latitude":11.9139,"longitude":79.8145,"temp":22.6,"humidity":96,"rain":0.0,"pressure":1011.7,"uv_index":8.85,"wind_gusts":29.2,"aqi":82,"pm10":21.4,"pm2_5":17.6,"mosquito_risk":3,"arthritis_risk":0,"migraine_risk":4,"frizz_risk":1,"updated_at":"2026-03-05T00:26:35.661874+05:30"},{"city":"Port Blair","state":"Andaman and Nicobar Islands","latitude":11.6234,"longitude":92.7265,"temp":27.1,"humidity":75,"rain":0.0,"pressure":1007.7,"uv_index":8.8,"wind_gusts":25.6,"aqi":100,"pm10":38.9,"pm2_5":33.4,"mosquito_risk":7,"arthritis_risk":5,"migraine_risk":4,"frizz_risk":1,"updated_at":"2026-03-05T00:26:35.661883+05:30"},{"city":"Haridwar","state":"Uttarakhand","latitude":29.9457,"longitude":78.1642,"temp":19.1,"humidity":79,"rain":0.0,"pressure":977.4,"uv_index":5.6,"wind_gusts":19.8,"aqi":129,"pm10":104.5,"pm2_5":68.5,"mosquito_risk":3,"arthritis_risk":5,"migraine_risk":3,"frizz_risk":0,"updated_at":"2026-03-05T00:26:35.661890+05:30"},{"city":"Rishikesh","state":"Uttarakhand","latitude":30.0869,"longitude":78.2676,"temp":18.8,"humidity":74,"rain":0.0,"pressure":970.2,"uv_index":5.65,"wind_gusts":22.7,"aqi":142,"pm10":55.5,"pm2_5":46.3,"mosquito_risk":3,"arthritis_risk":5,"migraine_risk":3,"frizz_risk":0,"updated_at":"2026-03-05T00:26:35.661898+05:30"},{"city":"Nainital","state":"Uttarakhand","latitude":29.3919,"longitude":79.4542,"temp":15.9,"humidity":63,"rain":0.0,"pressure":807.2,"uv_index":6.45,"wind_gusts":57.2,"aqi":143,"pm10":79.9,"pm2_5":64.0,"mosquito_risk":3,"arthritis_risk":5,"migraine_risk":7,"frizz_risk":0,"updated_at":"2026-03-05T00:26:35.661906+05:30"},{"city":"Mussoorie","state":"Uttarakhand","latitude":30.4599,"longitude":78.0664,"temp":15.7,"humidity":59,"rain":0.0,"pressure":804.2,"uv_index":6.0,"wind_gusts":35.6,"aqi":125,"pm10":59.6,"pm2_5":47.1,"mosquito_risk":0,"arthritis_risk":5,"migraine_risk":3,"frizz_risk":0,"updated_at":"2026-03-05T00:26:35.661913+05:30"},{"city":"Dharamshala","state":"Himachal Pradesh","latitude":32.219,"longitude":76.3234,"temp":21.9,"humidity":35,"rain":0.0,"pressure":872.7,"uv_index":6.25,"wind_gusts":27.7,"aqi":77,"pm10":27.6,"pm2_5":16.4,"mosquito_risk":0,"arthritis_risk":5,"migraine_risk":7,"frizz_risk":0,"updated_at":"2026-03-05T00:26:35.661924+05:30"},{"city":"Dalhousie","state":"Himachal Pradesh","latitude":32.5387,"longitude":75.971,"temp":18.1,"humidity":30,"rain":0.0,"pressure":807.0,"uv_index":6.45,"wind_gusts":22.0,"aqi":81,"pm10":51.1,"pm2_5":44.6,"mosquito_risk":0,"arthritis_risk":5,"migraine_risk":7,"frizz_risk":0,"updated_at":"2026-03-05T00:26:35.661936+05:30"},{"city":"Patiala","state":"Punjab","latitude":30.3398,"longitude":76.3869,"temp":20.0,"humidity":87,"rain":0.0,"pressure":981.7,"uv_index":5.65,"wind_gusts":30.6,"aqi":183,"pm10":336.2,"pm2_5":84.5,"mosquito_risk":3,"arthritis_risk":5,"migraine_risk":3,"frizz_risk":1,"updated_at":"2026-03-05T00:26:35.661943+05:30"},{"city":"Bhatinda","state":"Punjab","latitude":30.211,"longitude":74.9455,"temp":20.7,"humidity":77,"rain":0.0,"pressure":987.3,"uv_index":6.3,"wind_gusts":22.7,"aqi":151,"pm10":64.0,"pm2_5":41.6,"mosquito_risk":3,"arthritis_risk":5,"migraine_risk":7,"frizz_risk":1,"updated_at":"2026-03-05T00:26:35.661950+05:30"},{"city":"Rohtak","state":"Haryana","latitude":28.8955,"longitude":76.6066,"temp":19.6,"humidity":79,"rain":0.0,"pressure":985.3,"uv_index":5.85,"wind_gusts":31.0,"aqi":419,"pm10":570.0,"pm2_5":102.2,"mosquito_risk":3,"arthritis_risk":5,"migraine_risk":3,"frizz_risk":0,"updated_at":"2026-03-05T00:26:35.661958+05:30"},{"city":"Panipat","state":"Haryana","latitude":29.3909,"longitude":76.9635,"temp":19.7,"humidity":88,"rain":0.0,"pressure":983.8,"uv_index":5.65,"wind_gusts":31.0,"aqi":950,"pm10":1139.9,"pm2_5":156.0,"mosquito_risk":3,"arthritis_risk":10,"migraine_risk":3,"frizz_risk":1,"updated_at":"2026-03-05T00:26:35.661965+05:30"},{"city":"Mathura","state":"Uttar Pradesh","latitude":27.4924,"longitude":77.6737,"temp":24.2,"humidity":46,"rain":0.0,"pressure":990.3,"uv_index":6.1,"wind_gusts":29.9,"aqi":493,"pm10":551.3,"pm2_5":94.8,"mosquito_risk":0,"arthritis_risk":5,"migraine_risk":7,"frizz_risk":0,"updated_at":"2026-03-05T00:26:35.661972+05:30"},{"city":"Vrindavan","state":"Uttar Pradesh","latitude":27.5823,"longitude":77.7027,"temp":20.1,"humidity":67,"rain":0.0,"pressure":990.6,"uv_index":6.1,"wind_gusts":31.7,"aqi":493,"pm10":551.3,"pm2_5":94.8,"mosquito_risk":3,"arthritis_risk":5,"migraine_risk":7,"frizz_risk":0,"updated_at":"2026-03-05T00:26:35.661980+05:30"},{"city":"Ayodhya","state":"Uttar Pradesh","latitude":26.7922,"longitude":82.1998,"temp":22.0,"humidity":70,"rain":0.0,"pressure":998.7,"uv_index":6.5,"wind_gusts":9.7,"aqi":167,"pm10":258.9,"pm2_5":128.1,"mosquito_risk":3,"arthritis_risk":5,"migraine_risk":7,"frizz_risk":1,"updated_at":"2026-03-05T00:26:35.661987+05:30"},{"city":"Ratlam","state":"Madhya Pradesh","latitude":23.3315,"longitude":75.0367,"temp":20.5,"humidity":70,"rain":0.0,"pressure":957.6,"uv_index":7.3,"wind_gusts":21.2,"aqi":103,"pm10":51.6,"pm2_5":43.3,"mosquito_risk":3,"arthritis_risk":5,"migraine_risk":7,"frizz_risk":0,"updated_at":"2026-03-05T00:26:35.661994+05:30"},{"city":"Sagar","state":"Madhya Pradesh","latitude":23.8388,"longitude":78.7378,"temp":23.5,"humidity":37,"rain":0.0,"pressure":953.6,"uv_index":7.25,"wind_gusts":25.6,"aqi":59,"pm10":28.7,"pm2_5":22.5,"mosquito_risk":0,"arthritis_risk":5,"migraine_risk":7,"frizz_risk":0,"updated_at":"2026-03-05T00:26:35.662001+05:30"},{"city":"Satna","state":"Madhya Pradesh","latitude":24.6005,"longitude":80.8322,"temp":21.9,"humidity":51,"rain":0.0,"pressure":974.4,"uv_index":7.25,"wind_gusts":34.9,"aqi":83,"pm10":37.4,"pm2_5":27.0,"mosquito_risk":0,"arthritis_risk":5,"migraine_risk":7,"frizz_risk":0,"updated_at":"2026-03-05T00:26:35.662008+05:30"},{"city":"Akola","state":"Maharashtra","latitude":20.7002,"longitude":77.0082,"temp":25.0,"humidity":43,"rain":0.0,"pressure":977.9,"uv_index":7.8,"wind_gusts":17.3,"aqi":74,"pm10":38.5,"pm2_5":35.4,"mosquito_risk":4,"arthritis_risk":5,"migraine_risk":7,"frizz_risk":0,"updated_at":"2026-03-05T00:26:35.662016+05:30"},{"city":"Amravati","state":"Maharashtra","latitude":20.9374,"longitude":77.7796,"temp":23.8,"humidity":53,"rain":0.0,"pressure":969.7,"uv_index":7.75,"wind_gusts":16.2,"aqi":69,"pm10":43.9,"pm2_5":39.7,"mosquito_risk":0,"arthritis_risk":5,"migraine_risk":7,"frizz_risk":0,"updated_at":"2026-03-05T00:26:35.662023+05:30"},{"city":"Latur","state":"Maharashtra","latitude":18.4088,"longitude":76.5604,"temp":24.7,"humidity":47,"rain":0.0,"pressure":941.9,"uv_index":8.25,"wind_gusts":19.8,"aqi":101,"pm10":47.0,"pm2_5":44.2,"mosquito_risk":0,"arthritis_risk":5,"migraine_risk":7,"frizz_risk":0,"updated_at":"2026-03-05T00:26:35.662030+05:30"},{"city":"Nanded","state":"Maharashtra","latitude":19.1383,"longitude":77.3091,"temp":25.1,"humidity":55,"rain":0.0,"pressure":970.9,"uv_index":8.0,"wind_gusts":13.0,"aqi":75,"pm10":30.6,"pm2_5":28.7,"mosquito_risk":4,"arthritis_risk":5,"migraine_risk":7,"frizz_risk":0,"updated_at":"2026-03-05T00:26:35.662037+05:30"},{"city":"Gulbarga","state":"Karnataka","latitude":17.3297,"longitude":76.8343,"temp":26.4,"humidity":44,"rain":0.0,"pressure":960.8,"uv_index":8.35,"wind_gusts":23.0,"aqi":101,"pm10":21.8,"pm2_5":20.3,"mosquito_risk":4,"arthritis_risk":5,"migraine_risk":7,"frizz_risk":0,"updated_at":"2026-03-05T00:26:35.662044+05:30"},{"city":"Bidar","state":"Karnataka","latitude":17.9104,"longitude":77.5199,"temp":23.5,"humidity":52,"rain":0.0,"pressure":937.4,"uv_index":8.3,"wind_gusts":25.9,"aqi":89,"pm10":44.2,"pm2_5":40.9,"mosquito_risk":0,"arthritis_risk":5,"migraine_risk":7,"frizz_risk":0,"updated_at":"2026-03-05T00:26:35.662051+05:30"},{"city":"Hospet","state":"Karnataka","latitude":15.2689,"longitude":76.3909,"temp":26.9,"humidity":44,"rain":0.0,"pressure":957.9,"uv_index":8.6,"wind_gusts":25.9,"aqi":133,"pm10":34.6,"pm2_5":33.4,"mosquito_risk":4,"arthritis_risk":5,"migraine_risk":7,"frizz_risk":0,"updated_at":"2026-03-05T00:26:35.662058+05:30"},{"city":"Tirupur","state":"Tamil Nadu","latitude":11.1085,"longitude":77.3411,"temp":24.8,"humidity":57,"rain":0.0,"pressure":978.3,"uv_index":9.15,"wind_gusts":32.4,"aqi":105,"pm10":45.8,"pm2_5":44.9,"mosquito_risk":0,"arthritis_risk":5,"migraine_risk":7,"frizz_risk":0,"updated_at":"2026-03-05T00:26:35.662065+05:30"},{"city":"Alappuzha","state":"Kerala","latitude":9.4981,"longitude":76.3388,"temp":27.4,"humidity":79,"rain":0.0,"pressure":1011.7,"uv_index":8.95,"wind_gusts":30.2,"aqi":96,"pm10":44.8,"pm2_5":43.0,"mosquito_risk":7,"arthritis_risk":0,"migraine_risk":4,"frizz_risk":1,"updated_at":"2026-03-05T00:26:35.662071+05:30"},{"city":"Munnar","state":"Kerala","latitude":10.0889,"longitude":77.0595,"temp":18.9,"humidity":73,"rain":0.0,"pressure":858.0,"uv_index":9.45,"wind_gusts":24.5,"aqi":78,"pm10":32.5,"pm2_5":32.1,"mosquito_risk":3,"arthritis_risk":5,"migraine_risk":7,"frizz_risk":0,"updated_at":"2026-03-05T00:26:35.662079+05:30"},{"city":"Silchar","state":"Assam","latitude":24.8333,"longitude":92.7789,"temp":22.5,"humidity":67,"rain":0.0,"pressure":1007.0,"uv_index":7.45,"wind_gusts":14.4,"aqi":151,"pm10":88.0,"pm2_5":77.5,"mosquito_risk":3,"arthritis_risk":5,"migraine_risk":4,"frizz_risk":0,"updated_at":"2026-03-05T00:26:35.662086+05:30"},{"city":"Dibrugarh","state":"Assam","latitude":27.4728,"longitude":94.912,"temp":22.0,"humidity":82,"rain":0.0,"pressure":997.8,"uv_index":7.15,"wind_gusts":9.0,"aqi":127,"pm10":54.4,"pm2_5":49.1,"mosquito_risk":3,"arthritis_risk":5,"migraine_risk":7,"frizz_risk":1,"updated_at":"2026-03-05T00:26:35.662093+05:30"}]