[{"city":"Delhi","state":"Delhi","latitude":28.6139,"longitude":77.209,"temp":19.7,"humidity":76,"rain":0.0,"pressure":990.1,"uv_index":5.9,"wind_gusts":25.2,"aqi":159,"pm10":119.7,"pm2_5":108.7,"mosquito_risk":3,"arthritis_risk":5,"migraine_risk":3,"frizz_risk":0,"updated_at":"2026-03-21T10:09:48.493196+05:30"},{"city":"Mumbai","state":"Maharashtra","latitude":19.076,"longitude":72.8777,"temp":27.5,"humidity":63,"rain":0.0,"pressure":1012.1,"uv_index":7.85,"wind_gusts":29.5,"aqi":79,"pm10":51.8,"pm2_5":26.7,"mosquito_risk":7,"arthritis_risk":0,"migraine_risk":4,"frizz_risk":1,"updated_at":"2026-03-21T10:09:48.493238+05:30"},{"city":"Bangalore","state":"Karnataka","latitude":12.9716,"longitude":77.5946,"temp":26.4,"humidity":62,"rain":0.0,"pressure":915.4,"uv_index":8.7,"wind_gusts":37.1,"aqi":90,"pm10":26.3,"pm2_5":22.2,"mosquito_risk":7,"arthritis_risk":5,"migraine_risk":7,"frizz_risk":1,"updated_at":"2026-03-21T10:09:48.493253+05:30"},{"city":"Hyderabad","state":"Telangana","latitude":17.385,"longitude":78.4867,"temp":29.3,"humidity":46,"rain":0.0,"pressure":957.0,"uv_index":8.4,"wind_gusts":24.1,"aqi":83,"pm10":21.1,"pm2_5":13.9,"mosquito_risk":4,"arthritis_risk":5,"migraine_risk":7,"frizz_risk":1,"updated_at":"2026-03-21T10:09:48.493262+05:30"},{"city":"Chennai","state":"Tamil Nadu","latitude":13.0827,"longitude":80.2707,"temp":31.3,"humidity":61,"rain":0.0,"pressure":1011.3,"uv_index":9.15,"wind_gusts":34.6,"aqi":39,"pm10":12.6,"pm2_5":8.4,"mosquito_risk":3,"arthritis_risk":0,"migraine_risk":4,"frizz_risk":1,"updated_at":"2026-03-21T10:09:48.493269+05:30"},{"city":"Kolkata","state":"West Bengal","latitude":22.5726,"longitude":88.3639,"temp":23.3,"humidity":82,"rain":0.0,"pressure":1012.3,"uv_index":6.9,"wind_gusts":25.9,"aqi":68,"pm10":8.8,"pm2_5":8.4,"mosquito_risk":3,"arthritis_risk":0,"migraine_risk":4,"frizz_risk":1,"updated_at":"2026-03-21T10:09:48.493277+05:30"},{"city":"Pune","state":"Maharashtra","latitude":18.5204,"longitude":73.8567,"temp":27.3,"humidity":51,"rain":0.0,"pressure":952.4,"uv_index":8.4,"wind_gusts":28.8,"aqi":90,"pm10":44.5,"pm2_5":20.1,"mosquito_risk":4,"arthritis_risk":5,"migraine_risk":7,"frizz_risk":1,"updated_at":"2026-03-21T10:09:48.493286+05:30"},{"city":"Ahmedabad","state":"Gujarat","latitude":23.0225,"longitude":72.5714,"temp":27.7,"humidity":47,"rain":0.0,"pressure":1008.2,"uv_index":7.45,"wind_gusts":14.0,"aqi":70,"pm10":27.3,"pm2_5":19.8,"mosquito_risk":4,"arthritis_risk":0,"migraine_risk":4,"frizz_risk":0,"updated_at":"2026-03-21T10:09:48.493292+05:30"},{"city":"Jaipur","state":"Rajasthan","latitude":26.9124,"longitude":75.7873,"temp":21.8,"humidity":68,"rain":0.0,"pressure":966.3,"uv_index":6.6,"wind_gusts":24.1,"aqi":72,"pm10":50.6,"pm2_5":24.1,"mosquito_risk":3,"arthritis_risk":5,"migraine_risk":7,"frizz_risk":0,"updated_at":"2026-03-21T10:09:48.493299+05:30"},{"city":"Lucknow","state":"Uttar Pradesh","latitude":26.8467,"longitude":80.9462,"temp":19.9,"humidity":79,"rain":0.0,"pressure":1001.0,"uv_index":6.4,"wind_gusts":24.5,"aqi":121,"pm10":99.9,"pm2_5":48.2,"mosquito_risk":3,"arthritis_risk":5,"migraine_risk":4,"frizz_risk":1,"updated_at":"2026-03-21T10:09:48.493305+05:30"},{"city":"Kanpur","state":"Uttar Pradesh","latitude":26.4499,"longitude":80.3319,"temp":20.8,"humidity":79,"rain":0.0,"pressure":999.1,"uv_index":6.7,"wind_gusts":23.8,"aqi":123,"pm10":98.3,"pm2_5":43.2,"mosquito_risk":3,"arthritis_risk":5,"migraine_risk":7,"frizz_risk":1,"updated_at":"2026-03-21T10:09:48.493311+05:30"},{"city":"Chandigarh","state":"Chandigarh","latitude":30.7333,"longitude":76.7794,"temp":19.3,"humidity":72,"rain":0.0,"pressure":975.6,"uv_index":6.15,"wind_gusts":28.8,"aqi":80,"pm10":12.3,"pm2_5":9.7,"mosquito_risk":3,"arthritis_risk":5,"migraine_risk":7,"frizz_risk":0,"updated_at":"2026-03-21T10:09:48.493318+05:30"},{"city":"Srinagar","state":"Jammu and Kashmir","latitude":34.0837,"longitude":74.7973,"temp":9.0,"humidity":78,"rain":0.0,"pressure":843.5,"uv_index":6.75,"wind_gusts":13.7,"aqi":59,"pm10":14.2,"pm2_5":13.2,"mosquito_risk":3,"arthritis_risk":5,"migraine_risk":7,"frizz_risk":0,"updated_at":"2026-03-21T10:09:48.493324+05:30"},{"city":"Jammu","state":"Jammu and Kashmir","latitude":32.7266,"longitude":74.857,"temp":19.9,"humidity":67,"rain":0.0,"pressure":979.4,"uv_index":6.4,"wind_gusts":18.7,"aqi":86,"pm10":27.6,"pm2_5":24.9,"mosquito_risk":3,"arthritis_risk":5,"migraine_risk":7,"frizz_risk":0,"updated_at":"2026-03-21T10:09:48.493330+05:30"},{"city":"Amritsar","state":"Punjab","latitude":31.634,"longitude":74.8723,"temp":19.6,"humidity":80,"rain":0.0,"pressure":988.1,"uv_index":6.5,"wind_gusts":13.7,"aqi":98,"pm10":59.6,"pm2_5":41.7,"mosquito_risk":3,"arthritis_risk":5,"migraine_risk":7,"frizz_risk":1,"updated_at":"2026-03-21T10:09:48.493335+05:30"},{"city":"Ludhiana","state":"Punjab","latitude":30.901,"longitude":75.8573,"temp":18.8,"humidity":82,"rain":0.0,"pressure":986.1,"uv_index":5.2,"wind_gusts":22.3,"aqi":130,"pm10":36.0,"pm2_5":29.5,"mosquito_risk":3,"arthritis_risk":10,"migraine_risk":3,"frizz_risk":0,"updated_at":"2026-03-21T10:09:48.493341+05:30"},{"city":"Jalandhar","state":"Punjab","latitude":31.326,"longitude":75.5762,"temp":18.9,"humidity":80,"rain":0.0,"pressure":987.1,"uv_index":6.5,"wind_gusts":18.4,"aqi":114,"pm10":38.6,"pm2_5":27.2,"mosquito_risk":3,"arthritis_risk":5,"migraine_risk":7,"frizz_risk":0,"updated_at":"2026-03-21T10:09:48.493349+05:30"},{"city":"Dehradun","state":"Uttarakhand","latitude":30.6284,"longitude":78.0322,"temp":12.5,"humidity":66,"rain":0.0,"pressure":831.4,"uv_index":6.7,"wind_gusts":22.3,"aqi":41,"pm10":1.7,"pm2_5":1.2,"mosquito_risk":3,"arthritis_risk":5,"migraine_risk":7,"frizz_risk":0,"updated_at":"2026-03-21T10:09:48.493354+05:30"},{"city":"Shimla","state":"Himachal Pradesh","latitude":31.1048,"longitude":77.1734,"temp":11.3,"humidity":63,"rain":0.0,"pressure":785.4,"uv_index":6.45,"wind_gusts":32.0,"aqi":39,"pm10":7.2,"pm2_5":3.2,"mosquito_risk":3,"arthritis_risk":5,"migraine_risk":7,"frizz_risk":0,"updated_at":"2026-03-21T10:09:48.493360+05:30"},{"city":"Manali","state":"Himachal Pradesh","latitude":32.2396,"longitude":77.1887,"temp":12.9,"humidity":49,"rain":0.0,"pressure":818.1,"uv_index":8.4,"wind_gusts":22.0,"aqi":41,"pm10":2.9,"pm2_5":1.9,"mosquito_risk":0,"arthritis_risk":5,"migraine_risk":7,"frizz_risk":0,"updated_at":"2026-03-21T10:09:48.493366+05:30"},{"city":"Gurgaon","state":"Haryana","latitude":28.4595,"longitude":77.0266,"temp":18.9,"humidity":83,"rain":0.0,"pressure":988.7,"uv_index":5.8,"wind_gusts":21.6,"aqi":163,"pm10":137.8,"pm2_5":127.1,"mosquito_risk":3,"arthritis_risk":10,"migraine_risk":3,"frizz_risk":0,"updated_at":"2026-03-21T10:09:48.493371+05:30"},{"city":"Noida","state":"Uttar Pradesh","latitude":28.5355,"longitude":77.391,"temp":19.7,"humidity":78,"rain":0.0,"pressure":991.6,"uv_index":6.3,"wind_gusts":23.8,"aqi":163,"pm10":137.8,"pm2_5":127.1,"mosquito_risk":3,"arthritis_risk":5,"migraine_risk":7,"frizz_risk":0,"updated_at":"2026-03-21T10:09:48.493377+05:30"},{"city":"Ghaziabad","state":"Uttar Pradesh","latitude":28.6692,"longitude":77.4538,"temp":18.8,"humidity":83,"rain":0.0,"pressure":989.8,"uv_index":6.25,"wind_gusts":22.7,"aqi":160,"pm10":114.6,"pm2_5":101.3,"mosquito_risk":3,"arthritis_risk":10,"migraine_risk":7,"frizz_risk":0,"updated_at":"2026-03-21T10:09:48.493382+05:30"},{"city":"Faridabad","state":"Haryana","latitude":28.4089,"longitude":77.3178,"temp":19.6,"humidity":81,"rain":0.0,"pressure":990.9,"uv_index":6.2,"wind_gusts":23.8,"aqi":163,"pm10":137.8,"pm2_5":127.1,"mosquito_risk":3,"arthritis_risk":10,"migraine_risk":7,"frizz_risk":1,"updated_at":"2026-03-21T10:09:48.493388+05:30"},{"city":"Meerut","state":"Uttar Pradesh","latitude":28.9845,"longitude":77.7064,"temp":19.5,"humidity":81,"rain":0.0,"pressure":988.3,"uv_index":6.1,"wind_gusts":23.0,"aqi":160,"pm10":114.6,"pm2_5":101.3,"mosquito_risk":3,"arthritis_risk":10,"migraine_risk":7,"frizz_risk":1,"updated_at":"2026-03-21T10:09:48.493393+05:30"},{"city":"Agra","state":"Uttar Pradesh","latitude":27.1767,"longitude":78.0081,"temp":20.8,"humidity":75,"rain":0.0,"pressure":995.4,"uv_index":6.8,"wind_gusts":29.5,"aqi":150,"pm10":81.5,"pm2_5":71.2,"mosquito_risk":3,"arthritis_risk":5,"migraine_risk":7,"frizz_risk":1,"updated_at":"2026-03-21T10:09:48.493398+05:30"},{"city":"Varanasi","state":"Uttar Pradesh","latitude":25.3176,"longitude":82.9739,"temp":20.0,"humidity":83,"rain":0.0,"pressure":1005.3,"uv_index":6.05,"wind_gusts":25.9,"aqi":95,"pm10":50.2,"pm2_5":33.4,"mosquito_risk":3,"arthritis_risk":5,"migraine_risk":4,"frizz_risk":1,"updated_at":"2026-03-21T10:09:48.493407+05:30"},{"city":"Prayagraj","state":"Uttar Pradesh","latitude":25.4358,"longitude":81.8463,"temp":21.6,"humidity":80,"rain":0.0,"pressure":1003.3,"uv_index":6.8,"wind_gusts":26.3,"aqi":96,"pm10":64.5,"pm2_5":31.3,"mosquito_risk":3,"arthritis_risk":5,"migraine_risk":4,"frizz_risk":1,"updated_at":"2026-03-21T10:09:48.493412+05:30"},{"city":"Gorakhpur","state":"Uttar Pradesh","latitude":26.7606,"longitude":83.3732,"temp":19.5,"humidity":86,"rain":0.0,"pressure":1005.0,"uv_index":6.15,"wind_gusts":21.2,"aqi":123,"pm10":66.6,"pm2_5":39.6,"mosquito_risk":3,"arthritis_risk":10,"migraine_risk":4,"frizz_risk":1,"updated_at":"2026-03-21T10:09:48.493418+05:30"},{"city":"Bareilly","state":"Uttar Pradesh","latitude":28.367,"longitude":79.4304,"temp":20.6,"humidity":77,"rain":0.0,"pressure":993.7,"uv_index":6.2,"wind_gusts":19.8,"aqi":148,"pm10":71.7,"pm2_5":53.1,"mosquito_risk":3,"arthritis_risk":5,"migraine_risk":7,"frizz_risk":1,"updated_at":"2026-03-21T10:09:48.493423+05:30"},{"city":"Aligarh","state":"Uttar Pradesh","latitude":27.8974,"longitude":78.088,"temp":19.5,"humidity":80,"rain":0.0,"pressure":992.8,"uv_index":6.55,"wind_gusts":24.8,"aqi":159,"pm10":117.6,"pm2_5":106.4,"mosquito_risk":3,"arthritis_risk":5,"migraine_risk":7,"frizz_risk":0,"updated_at":"2026-03-21T10:09:48.493429+05:30"},{"city":"Moradabad","state":"Uttar Pradesh","latitude":28.8386,"longitude":78.7733,"temp":20.0,"humidity":76,"rain":0.0,"pressure":990.5,"uv_index":6.35,"wind_gusts":19.4,"aqi":152,"pm10":75.0,"pm2_5":58.0,"mosquito_risk":3,"arthritis_risk":5,"migraine_risk":7,"frizz_risk":0,"updated_at":"2026-03-21T10:09:48.493434+05:30"},{"city":"Saharanpur","state":"Uttar Pradesh","latitude":29.9637,"longitude":77.546,"temp":18.3,"humidity":85,"rain":0.0,"pressure":982.5,"uv_index":6.05,"wind_gusts":27.4,"aqi":156,"pm10":102.2,"pm2_5":96.6,"mosquito_risk":3,"arthritis_risk":10,"migraine_risk":7,"frizz_risk":0,"updated_at":"2026-03-21T10:09:48.493440+05:30"},{"city":"Jhansi","state":"Uttar Pradesh","latitude":25.4484,"longitude":78.5685,"temp":22.0,"humidity":67,"rain":0.0,"pressure":985.0,"uv_index":7.4,"wind_gusts":26.3,"aqi":121,"pm10":78.0,"pm2_5":46.7,"mosquito_risk":3,"arthritis_risk":5,"migraine_risk":7,"frizz_risk":0,"updated_at":"2026-03-21T10:09:51.769259+05:30"},{"city":"Surat","state":"Gujarat","latitude":21.1702,"longitude":72.8311,"temp":27.8,"humidity":64,"rain":0.0,"pressure":1011.8,"uv_index":7.55,"wind_gusts":27.4,"aqi":113,"pm10":59.6,"pm2_5":48.3,"mosquito_risk":7,"arthritis_risk":0,"migraine_risk":4,"frizz_risk":1,"updated_at":"2026-03-21T10:09:51.769288+05:30"},{"city":"Vadodara","state":"Gujarat","latitude":22.3072,"longitude":73.1812,"temp":28.7,"humidity":44,"rain":0.0,"pressure":1010.1,"uv_index":7.75,"wind_gusts":14.0,"aqi":73,"pm10":28.8,"pm2_5":18.6,"mosquito_risk":4,"arthritis_risk":0,"migraine_risk":4,"frizz_risk":0,"updated_at":"2026-03-21T10:09:51.769298+05:30"},{"city":"Rajkot","state":"Gujarat","latitude":22.3039,"longitude":70.8022,"temp":26.1,"humidity":69,"rain":0.0,"pressure":999.8,"uv_index":7.0,"wind_gusts":22.7,"aqi":66,"pm10":14.0,"pm2_5":8.0,"mosquito_risk":7,"arthritis_risk":5,"migraine_risk":7,"frizz_risk":1,"updated_at":"2026-03-21T10:09:51.769306+05:30"},{"city":"Thane","state":"Maharashtra","latitude":19.2183,"longitude":72.9781,"temp":29.8,"humidity":46,"rain":0.0,"pressure":1011.7,"uv_index":7.85,"wind_gusts":42.8,"aqi":79,"pm10":51.8,"pm2_5":26.7,"mosquito_risk":4,"arthritis_risk":0,"migraine_risk":4,"frizz_risk":1,"updated_at":"2026-03-21T10:09:51.769313+05:30"},{"city":"Nagpur","state":"Maharashtra","latitude":21.1458,"longitude":79.0882,"temp":26.3,"humidity":50,"rain":0.0,"pressure":979.0,"uv_index":8.3,"wind_gusts":24.8,"aqi":69,"pm10":51.6,"pm2_5":21.5,"mosquito_risk":4,"arthritis_risk":5,"migraine_risk":7,"frizz_risk":0,"updated_at":"2026-03-21T10:09:51.769320+05:30"},{"city":"Nashik","state":"Maharashtra","latitude":19.9975,"longitude":73.7898,"temp":25.2,"humidity":50,"rain":0.0,"pressure":949.7,"uv_index":8.05,"wind_gusts":24.1,"aqi":66,"pm10":26.9,"pm2_5":11.4,"mosquito_risk":4,"arthritis_risk":5,"migraine_risk":7,"frizz_risk":0,"updated_at":"2026-03-21T10:09:51.769328+05:30"},{"city":"Aurangabad","state":"Maharashtra","latitude":19.8762,"longitude":75.3433,"temp":26.8,"humidity":43,"rain":0.0,"pressure":948.6,"uv_index":8.6,"wind_gusts":24.5,"aqi":63,"pm10":18.9,"pm2_5":10.3,"mosquito_risk":4,"arthritis_risk":5,"migraine_risk":7,"frizz_risk":0,"updated_at":"2026-03-21T10:09:51.769335+05:30"},{"city":"Solapur","state":"Maharashtra","latitude":17.6599,"longitude":75.9064,"temp":28.4,"humidity":43,"rain":0.0,"pressure":961.4,"uv_index":8.75,"wind_gusts":27.7,"aqi":68,"pm10":33.4,"pm2_5":16.6,"mosquito_risk":4,"arthritis_risk":5,"migraine_risk":7,"frizz_risk":0,"updated_at":"2026-03-21T10:09:51.769342+05:30"},{"city":"Kolhapur","state":"Maharashtra","latitude":16.705,"longitude":74.2433,"temp":26.2,"humidity":55,"rain":0.0,"pressure":951.8,"uv_index":8.85,"wind_gusts":28.1,"aqi":79,"pm10":39.0,"pm2_5":25.2,"mosquito_risk":4,"arthritis_risk":5,"migraine_risk":7,"frizz_risk":1,"updated_at":"2026-03-21T10:09:51.769348+05:30"},{"city":"Goa","state":"Goa","latitude":15.2993,"longitude":74.124,"temp":29.7,"humidity":55,"rain":0.0,"pressure":1001.3,"uv_index":8.85,"wind_gusts":35.6,"aqi":71,"pm10":28.6,"pm2_5":17.8,"mosquito_risk":4,"arthritis_risk":5,"migraine_risk":4,"frizz_risk":1,"updated_at":"2026-03-21T10:09:51.769355+05:30"},{"city":"Jodhpur","state":"Rajasthan","latitude":26.2389,"longitude":73.0243,"temp":25.0,"humidity":56,"rain":0.0,"pressure":989.1,"uv_index":6.55,"wind_gusts":20.5,"aqi":67,"pm10":92.9,"pm2_5":23.5,"mosquito_risk":4,"arthritis_risk":5,"migraine_risk":7,"frizz_risk":0,"updated_at":"2026-03-21T10:09:51.769362+05:30"},{"city":"Udaipur","state":"Rajasthan","latitude":24.5854,"longitude":73.7125,"temp":24.8,"humidity":44,"rain":0.0,"pressure":952.0,"uv_index":7.55,"wind_gusts":11.9,"aqi":53,"pm10":47.8,"pm2_5":12.9,"mosquito_risk":0,"arthritis_risk":5,"migraine_risk":7,"frizz_risk":0,"updated_at":"2026-03-21T10:09:51.769369+05:30"},{"city":"Kota","state":"Rajasthan","latitude":25.2138,"longitude":75.8648,"temp":25.4,"humidity":55,"rain":0.0,"pressure":985.8,"uv_index":7.5,"wind_gusts":19.1,"aqi":81,"pm10":50.8,"pm2_5":27.5,"mosquito_risk":4,"arthritis_risk":5,"migraine_risk":7,"frizz_risk":0,"updated_at":"2026-03-21T10:09:51.769375+05:30"},{"city":"Bikaner","state":"Rajasthan","latitude":28.0229,"longitude":73.3119,"temp":25.4,"humidity":52,"rain":0.0,"pressure":987.7,"uv_index":6.15,"wind_gusts":23.4,"aqi":56,"pm10":23.8,"pm2_5":14.5,"mosquito_risk":4,"arthritis_risk":5,"migraine_risk":7,"frizz_risk":0,"updated_at":"2026-03-21T10:09:51.769382+05:30"},{"city":"Ajmer","state":"Rajasthan","latitude":26.4499,"longitude":74.6399,"temp":23.8,"humidity":58,"rain":0.0,"pressure":960.3,"uv_index":7.2,"wind_gusts":21.6,"aqi":66,"pm10":39.6,"pm2_5":16.4,"mosquito_risk":0,"arthritis_risk":5,"migraine_risk":7,"frizz_risk":0,"updated_at":"2026-03-21T10:09:51.769389+05:30"},{"city":"Gwalior","state":"Madhya Pradesh","latitude":26.2183,"longitude":78.1828,"temp":22.5,"humidity":63,"rain":0.0,"pressure":990.4,"uv_index":7.1,"wind_gusts":27.0,"aqi":89,"pm10":49.1,"pm2_5":25.8,"mosquito_risk":3,"arthritis_risk":5,"migraine_risk":7,"frizz_risk":0,"updated_at":"2026-03-21T10:09:51.769396+05:30"},{"city":"Indore","state":"Madhya Pradesh","latitude":22.7196,"longitude":75.8577,"temp":24.8,"humidity":53,"rain":0.0,"pressure":953.3,"uv_index":7.95,"wind_gusts":22.7,"aqi":68,"pm10":34.2,"pm2_5":15.9,"mosquito_risk":0,"arthritis_risk":5,"migraine_risk":7,"frizz_risk":0,"updated_at":"2026-03-21T10:09:51.769403+05:30"},{"city":"Bhopal","state":"Madhya Pradesh","latitude":23.2599,"longitude":77.4126,"temp":24.3,"humidity":53,"rain":0.0,"pressure":959.6,"uv_index":7.9,"wind_gusts":25.6,"aqi":73,"pm10":37.4,"pm2_5":16.1,"mosquito_risk":0,"arthritis_risk":5,"migraine_risk":7,"frizz_risk":0,"updated_at":"2026-03-21T10:09:51.769409+05:30"},{"city":"Jabalpur","state":"Madhya Pradesh","latitude":23.1815,"longitude":79.9864,"temp":22.7,"humidity":66,"rain":0.0,"pressure":967.6,"uv_index":7.95,"wind_gusts":36.0,"aqi":64,"pm10":51.3,"pm2_5":26.8,"mosquito_risk":3,"arthritis_risk":5,"migraine_risk":7,"frizz_risk":1,"updated_at":"2026-03-21T10:09:51.769416+05:30"},{"city":"Ujjain","state":"Madhya Pradesh","latitude":23.1765,"longitude":75.7885,"temp":24.2,"humidity":61,"rain":0.0,"pressure":959.3,"uv_index":7.8,"wind_gusts":19.4,"aqi":68,"pm10":37.1,"pm2_5":18.5,"mosquito_risk":3,"arthritis_risk":5,"migraine_risk":7,"frizz_risk":1,"updated_at":"2026-03-21T10:09:51.769423+05:30"},{"city":"Visakhapatnam","state":"Andhra Pradesh","latitude":17.6868,"longitude":83.2185,"temp":29.2,"humidity":60,"rain":0.0,"pressure":1008.6,"uv_index":8.8,"wind_gusts":33.1,"aqi":72,"pm10":33.3,"pm2_5":28.1,"mosquito_risk":4,"arthritis_risk":0,"migraine_risk":4,"frizz_risk":1,"updated_at":"2026-03-21T10:09:51.769429+05:30"},{"city":"Vijayawada","state":"Andhra Pradesh","latitude":16.5062,"longitude":80.648,"temp":29.5,"humidity":65,"rain":0.0,"pressure":1007.0,"uv_index":8.85,"wind_gusts":32.4,"aqi":58,"pm10":12.4,"pm2_5":9.1,"mosquito_risk":7,"arthritis_risk":5,"migraine_risk":4,"frizz_risk":1,"updated_at":"2026-03-21T10:09:51.769436+05:30"},{"city":"Guntur","state":"Andhra Pradesh","latitude":16.3067,"longitude":80.4365,"temp":30.2,"humidity":64,"rain":0.0,"pressure":1008.0,"uv_index":8.85,"wind_gusts":23.8,"aqi":53,"pm10":12.1,"pm2_5":8.6,"mosquito_risk":3,"arthritis_risk":0,"migraine_risk":4,"frizz_risk":1,"updated_at":"2026-03-21T10:09:51.769443+05:30"},{"city":"Nellore","state":"Andhra Pradesh","latitude":14.4426,"longitude":79.9865,"temp":31.3,"humidity":63,"rain":0.0,"pressure":1009.8,"uv_index":9.05,"wind_gusts":37.8,"aqi":34,"pm10":14.8,"pm2_5":11.0,"mosquito_risk":3,"arthritis_risk":0,"migraine_risk":4,"frizz_risk":1,"updated_at":"2026-03-21T10:09:51.769450+05:30"},{"city":"Kurnool","state":"Andhra Pradesh","latitude":15.8281,"longitude":78.0373,"temp":31.5,"humidity":45,"rain":0.0,"pressure":980.3,"uv_index":8.9,"wind_gusts":18.7,"aqi":69,"pm10":17.0,"pm2_5":14.1,"mosquito_risk":0,"arthritis_risk":5,"migraine_risk":7,"frizz_risk":1,"updated_at":"2026-03-21T10:09:51.769458+05:30"},{"city":"Kakinada","state":"Andhra Pradesh","latitude":16.9891,"longitude":82.2475,"temp":29.4,"humidity":65,"rain":0.0,"pressure":1012.1,"uv_index":8.8,"wind_gusts":23.8,"aqi":47,"pm10":12.9,"pm2_5":9.3,"mosquito_risk":7,"arthritis_risk":0,"migraine_risk":4,"frizz_risk":1,"updated_at":"2026-03-21T10:09:51.769465+05:30"},{"city":"Tirupati","state":"Andhra Pradesh","latitude":13.6288,"longitude":79.4192,"temp":29.3,"humidity":65,"rain":0.0,"pressure":996.0,"uv_index":9.15,"wind_gusts":26.3,"aqi":69,"pm10":16.1,"pm2_5":13.8,"mosquito_risk":7,"arthritis_risk":5,"migraine_risk":7,"frizz_risk":1,"updated_at":"2026-03-21T10:09:51.769471+05:30"},{"city":"Warangal","state":"Telangana","latitude":17.9689,"longitude":79.5941,"temp":26.5,"humidity":71,"rain":0.0,"pressure":983.6,"uv_index":8.7,"wind_gusts":22.0,"aqi":117,"pm10":17.8,"pm2_5":15.2,"mosquito_risk":7,"arthritis_risk":5,"migraine_risk":7,"frizz_risk":1,"updated_at":"2026-03-21T10:09:51.769478+05:30"},{"city":"Nizamabad","state":"Telangana","latitude":18.6725,"longitude":78.0941,"temp":29.2,"humidity":44,"rain":0.0,"pressure":969.2,"uv_index":8.6,"wind_gusts":34.9,"aqi":100,"pm10":41.2,"pm2_5":30.6,"mosquito_risk":4,"arthritis_risk":5,"migraine_risk":7,"frizz_risk":0,"updated_at":"2026-03-21T10:09:51.769484+05:30"},{"city":"Mysore","state":"Karnataka","latitude":12.2958,"longitude":76.6396,"temp":27.4,"humidity":56,"rain":0.0,"pressure":932.1,"uv_index":9.4,"wind_gusts":40.3,"aqi":81,"pm10":27.4,"pm2_5":22.5,"mosquito_risk":4,"arthritis_risk":5,"migraine_risk":7,"frizz_risk":1,"updated_at":"2026-03-21T10:09:51.769491+05:30"},{"city":"Mangalore","state":"Karnataka","latitude":12.9141,"longitude":74.856,"temp":28.5,"humidity":75,"rain":0.0,"pressure":1009.7,"uv_index":9.05,"wind_gusts":30.2,"aqi":65,"pm10":28.0,"pm2_5":19.6,"mosquito_risk":7,"arthritis_risk":0,"migraine_risk":4,"frizz_risk":1,"updated_at":"2026-03-21T10:09:51.769497+05:30"},{"city":"Hubli-Dharwad","state":"Karnataka","latitude":15.3647,"longitude":75.124,"temp":27.8,"humidity":42,"rain":0.0,"pressure":944.5,"uv_index":9.05,"wind_gusts":28.8,"aqi":64,"pm10":25.6,"pm2_5":17.4,"mosquito_risk":4,"arthritis_risk":5,"migraine_risk":7,"frizz_risk":0,"updated_at":"2026-03-21T10:09:51.769505+05:30"},{"city":"Belgaum","state":"Karnataka","latitude":15.8497,"longitude":74.4977,"temp":27.0,"humidity":35,"rain":0.0,"pressure":929.3,"uv_index":9.1,"wind_gusts":36.7,"aqi":69,"pm10":28.2,"pm2_5":16.6,"mosquito_risk":4,"arthritis_risk":5,"migraine_risk":7,"frizz_risk":0,"updated_at":"2026-03-21T10:09:55.053935+05:30"},{"city":"Coimbatore","state":"Tamil Nadu","latitude":11.0168,"longitude":76.9558,"temp":29.0,"humidity":58,"rain":0.0,"pressure":965.4,"uv_index":9.35,"wind_gusts":43.6,"aqi":74,"pm10":22.6,"pm2_5":18.5,"mosquito_risk":4,"arthritis_risk":5,"migraine_risk":7,"frizz_risk":1,"updated_at":"2026-03-21T10:09:55.053964+05:30"},{"city":"Madurai","state":"Tamil Nadu","latitude":9.9252,"longitude":78.1198,"temp":30.3,"humidity":60,"rain":0.0,"pressure":996.9,"uv_index":9.35,"wind_gusts":38.5,"aqi":70,"pm10":21.8,"pm2_5":18.7,"mosquito_risk":0,"arthritis_risk":5,"migraine_risk":7,"frizz_risk":1,"updated_at":"2026-03-21T10:09:55.053974+05:30"},{"city":"Trichy","state":"Tamil Nadu","latitude":10.7905,"longitude":78.7047,"temp":30.6,"humidity":62,"rain":0.0,"pressure":1003.7,"uv_index":8.45,"wind_gusts":27.4,"aqi":63,"pm10":12.3,"pm2_5":10.5,"mosquito_risk":3,"arthritis_risk":5,"migraine_risk":4,"frizz_risk":1,"updated_at":"2026-03-21T10:09:55.053982+05:30"},{"city":"Salem","state":"Tamil Nadu","latitude":11.6643,"longitude":78.146,"temp":30.3,"humidity":58,"rain":0.0,"pressure":981.2,"uv_index":8.45,"wind_gusts":26.6,"aqi":82,"pm10":18.5,"pm2_5":16.6,"mosquito_risk":0,"arthritis_risk":5,"migraine_risk":7,"frizz_risk":1,"updated_at":"2026-03-21T10:09:55.053990+05:30"},{"city":"Tirunelveli","state":"Tamil Nadu","latitude":8.7139,"longitude":77.7567,"temp":31.2,"humidity":56,"rain":0.0,"pressure":1006.7,"uv_index":9.3,"wind_gusts":46.8,"aqi":92,"pm10":28.3,"pm2_5":23.6,"mosquito_risk":0,"arthritis_risk":5,"migraine_risk":4,"frizz_risk":1,"updated_at":"2026-03-21T10:09:55.053997+05:30"},{"city":"Vellore","state":"Tamil Nadu","latitude":12.9165,"longitude":79.1325,"temp":29.3,"humidity":62,"rain":0.0,"pressure":988.8,"uv_index":9.2,"wind_gusts":30.2,"aqi":95,"pm10":34.6,"pm2_5":32.6,"mosquito_risk":7,"arthritis_risk":5,"migraine_risk":7,"frizz_risk":1,"updated_at":"2026-03-21T10:09:55.054004+05:30"},{"city":"Erode","state":"Tamil Nadu","latitude":11.341,"longitude":77.7172,"temp":30.6,"humidity":60,"rain":0.0,"pressure":992.9,"uv_index":9.3,"wind_gusts":27.0,"aqi":61,"pm10":13.5,"pm2_5":11.3,"mosquito_risk":0,"arthritis_risk":5,"migraine_risk":7,"frizz_risk":1,"updated_at":"2026-03-21T10:09:55.054011+05:30"},{"city":"Kochi","state":"Kerala","latitude":9.9312,"longitude":76.2673,"temp":28.6,"humidity":74,"rain":0.0,"pressure":1011.5,"uv_index":9.15,"wind_gusts":31.7,"aqi":76,"pm10":24.7,"pm2_5":19.0,"mosquito_risk":7,"arthritis_risk":0,"migraine_risk":4,"frizz_risk":1,"updated_at":"2026-03-21T10:09:55.054018+05:30"},{"city":"Thiruvananthapuram","state":"Kerala","latitude":8.5241,"longitude":76.9366,"temp":28.1,"humidity":76,"rain":0.0,"pressure":1010.7,"uv_index":9.05,"wind_gusts":24.8,"aqi":65,"pm10":29.6,"pm2_5":22.9,"mosquito_risk":7,"arthritis_risk":0,"migraine_risk":4,"frizz_risk":1,"updated_at":"2026-03-21T10:09:55.054025+05:30"},{"city":"Kozhikode","state":"Kerala","latitude":11.2588,"longitude":75.7804,"temp":29.7,"humidity":69,"rain":0.0,"pressure":1010.7,"uv_index":9.1,"wind_gusts":29.9,"aqi":59,"pm10":26.5,"pm2_5":19.6,"mosquito_risk":7,"arthritis_risk":0,"migraine_risk":4,"frizz_risk":1,"updated_at":"2026-03-21T10:09:55.054032+05:30"},{"city":"Thrissur","state":"Kerala","latitude":10.5276,"longitude":76.2144,"temp":32.0,"humidity":56,"rain":0.0,"pressure":1009.7,"uv_index":9.15,"wind_gusts":37.4,"aqi":73,"pm10":22.4,"pm2_5":16.7,"mosquito_risk":0,"arthritis_risk":0,"migraine_risk":4,"frizz_risk":1,"updated_at":"2026-03-21T10:09:55.054039+05:30"},{"city":"Kannur","state":"Kerala","latitude":11.8745,"longitude":75.3704,"temp":30.5,"humidity":62,"rain":0.0,"pressure":1010.1,"uv_index":9.1,"wind_gusts":33.8,"aqi":65,"pm10":25.3,"pm2_5":18.6,"mosquito_risk":3,"arthritis_risk":0,"migraine_risk":4,"frizz_risk":1,"updated_at":"2026-03-21T10:09:55.054046+05:30"},{"city":"Patna","state":"Bihar","latitude":25.5941,"longitude":85.1376,"temp":21.6,"humidity":78,"rain":0.0,"pressure":1008.0,"uv_index":4.05,"wind_gusts":24.5,"aqi":150,"pm10":70.3,"pm2_5":55.3,"mosquito_risk":3,"arthritis_risk":0,"migraine_risk":0,"frizz_risk":1,"updated_at":"2026-03-21T10:09:55.054052+05:30"},{"city":"Gaya","state":"Bihar","latitude":24.7914,"longitude":85.0002,"temp":22.4,"humidity":79,"rain":0.0,"pressure":1000.6,"uv_index":6.05,"wind_gusts":26.6,"aqi":117,"pm10":51.9,"pm2_5":38.9,"mosquito_risk":3,"arthritis_risk":5,"migraine_risk":4,"frizz_risk":1,"updated_at":"2026-03-21T10:09:55.054059+05:30"},{"city":"Muzaffarpur","state":"Bihar","latitude":26.1209,"longitude":85.3647,"temp":20.6,"humidity":84,"rain":0.0,"pressure":1008.1,"uv_index":2.65,"wind_gusts":23.8,"aqi":151,"pm10":67.1,"pm2_5":52.7,"mosquito_risk":3,"arthritis_risk":0,"migraine_risk":0,"frizz_risk":1,"updated_at":"2026-03-21T10:09:55.054065+05:30"},{"city":"Bhagalpur","state":"Bihar","latitude":25.2425,"longitude":87.0117,"temp":22.4,"humidity":79,"rain":0.0,"pressure":1008.6,"uv_index":2.55,"wind_gusts":24.5,"aqi":134,"pm10":36.9,"pm2_5":33.8,"mosquito_risk":3,"arthritis_risk":0,"migraine_risk":0,"frizz_risk":1,"updated_at":"2026-03-21T10:09:55.054072+05:30"},{"city":"Ranchi","state":"Jharkhand","latitude":23.3441,"longitude":85.3096,"temp":23.1,"humidity":64,"rain":0.0,"pressure":942.2,"uv_index":8.3,"wind_gusts":39.6,"aqi":95,"pm10":32.7,"pm2_5":25.6,"mosquito_risk":3,"arthritis_risk":5,"migraine_risk":7,"frizz_risk":0,"updated_at":"2026-03-21T10:09:55.054079+05:30"},{"city":"Jamshedpur","state":"Jharkhand","latitude":22.8046,"longitude":86.2029,"temp":25.2,"humidity":68,"rain":0.0,"pressure":996.7,"uv_index":8.2,"wind_gusts":35.3,"aqi":149,"pm10":55.1,"pm2_5":48.7,"mosquito_risk":7,"arthritis_risk":5,"migraine_risk":7,"frizz_risk":1,"updated_at":"2026-03-21T10:09:55.054085+05:30"},{"city":"Dhanbad","state":"Jharkhand","latitude":23.7957,"longitude":86.4304,"temp":23.6,"humidity":68,"rain":0.0,"pressure":985.6,"uv_index":7.0,"wind_gusts":33.8,"aqi":152,"pm10":53.6,"pm2_5":48.4,"mosquito_risk":3,"arthritis_risk":5,"migraine_risk":7,"frizz_risk":1,"updated_at":"2026-03-21T10:09:55.054092+05:30"},{"city":"Bokaro","state":"Jharkhand","latitude":23.6693,"longitude":86.1511,"temp":23.8,"humidity":69,"rain":0.0,"pressure":989.7,"uv_index":6.3,"wind_gusts":37.8,"aqi":135,"pm10":48.5,"pm2_5":42.3,"mosquito_risk":3,"arthritis_risk":5,"migraine_risk":7,"frizz_risk":1,"updated_at":"2026-03-21T10:09:55.054099+05:30"},{"city":"Bhubaneswar","state":"Odisha","latitude":20.2961,"longitude":85.8245,"temp":27.8,"humidity":64,"rain":0.0,"pressure":1008.3,"uv_index":8.55,"wind_gusts":26.6,"aqi":67,"pm10":44.2,"pm2_5":37.3,"mosquito_risk":7,"arthritis_risk":0,"migraine_risk":4,"frizz_risk":1,"updated_at":"2026-03-21T10:09:55.054106+05:30"},{"city":"Cuttack","state":"Odisha","latitude":20.4625,"longitude":85.8828,"temp":27.6,"humidity":66,"rain":0.0,"pressure":1010.2,"uv_index":8.6,"wind_gusts":22.7,"aqi":67,"pm10":44.2,"pm2_5":37.3,"mosquito_risk":7,"arthritis_risk":0,"migraine_risk":4,"frizz_risk":1,"updated_at":"2026-03-21T10:09:55.054113+05:30"},{"city":"Rourkela","state":"Odisha","latitude":22.2604,"longitude":84.8536,"temp":26.3,"humidity":60,"rain":0.0,"pressure":990.8,"uv_index":8.15,"wind_gusts":31.7,"aqi":106,"pm10":50.2,"pm2_5":39.8,"mosquito_risk":4,"arthritis_risk":5,"migraine_risk":7,"frizz_risk":1,"updated_at":"2026-03-21T10:09:55.054120+05:30"},{"city":"Raipur","state":"Chhattisgarh","latitude":21.2514,"longitude":81.6296,"temp":26.8,"humidity":51,"rain":0.0,"pressure":980.3,"uv_index":8.35,"wind_gusts":28.1,"aqi":126,"pm10":54.1,"pm2_5":39.7,"mosquito_risk":4,"arthritis_risk":5,"migraine_risk":7,"frizz_risk":0,"updated_at":"2026-03-21T10:09:55.054127+05:30"},{"city":"Bhilai","state":"Chhattisgarh","latitude":21.1938,"longitude":81.3509,"temp":26.9,"humidity":52,"rain":0.0,"pressure":980.5,"uv_index":8.35,"wind_gusts":28.8,"aqi":114,"pm10":59.5,"pm2_5":38.2,"mosquito_risk":4,"arthritis_risk":5,"migraine_risk":7,"frizz_risk":1,"updated_at":"2026-03-21T10:09:55.054133+05:30"},{"city":"Guwahati","state":"Assam","latitude":26.1158,"longitude":91.7086,"temp":23.7,"humidity":79,"rain":0.0,"pressure":1009.7,"uv_index":1.45,"wind_gusts":17.3,"aqi":94,"pm10":40.6,"pm2_5":29.2,"mosquito_risk":3,"arthritis_risk":0,"migraine_risk":0,"frizz_risk":1,"updated_at":"2026-03-21T10:09:55.054140+05:30"},{"city":"Agartala","state":"Tripura","latitude":23.8315,"longitude":91.2868,"temp":24.7,"humidity":76,"rain":0.0,"pressure":1013.5,"uv_index":6.65,"wind_gusts":21.6,"aqi":110,"pm10":48.8,"pm2_5":38.9,"mosquito_risk":3,"arthritis_risk":0,"migraine_risk":4,"frizz_risk":1,"updated_at":"2026-03-21T10:09:55.054146+05:30"},{"city":"Shillong","state":"Meghalaya","latitude":25.5788,"longitude":91.8933,"temp":15.6,"humidity":64,"rain":0.0,"pressure":860.9,"uv_index":3.45,"wind_gusts":21.2,"aqi":75,"pm10":44.5,"pm2_5":27.9,"mosquito_risk":3,"arthritis_risk":5,"migraine_risk":3,"frizz_risk":0,"updated_at":"2026-03-21T10:09:55.054153+05:30"},{"city":"Imphal","state":"Manipur","latitude":24.817,"longitude":93.9368,"temp":21.3,"humidity":56,"rain":0.0,"pressure":929.0,"uv_index":7.25,"wind_gusts":25.2,"aqi":86,"pm10":38.5,"pm2_5":20.7,"mosquito_risk":0,"arthritis_risk":5,"migraine_risk":7,"frizz_risk":0,"updated_at":"2026-03-21T10:09:55.054159+05:30"},{"city":"Aizawl","state":"Mizoram","latitude":23.7271,"longitude":92.7176,"temp":22.5,"humidity":51,"rain":0.0,"pressure":898.2,"uv_index":6.75,"wind_gusts":28.1,"aqi":106,"pm10":55.1,"pm2_5":38.6,"mosquito_risk":0,"arthritis_risk":5,"migraine_risk":7,"frizz_risk":0,"updated_at":"2026-03-21T10:09:55.054166+05:30"},{"city":"Kohima","state":"Nagaland","latitude":25.6701,"longitude":94.1077,"temp":17.6,"humidity":73,"rain":0.0,"pressure":860.4,"uv_index":7.35,"wind_gusts":60.8,"aqi":74,"pm10":42.5,"pm2_5":22.9,"mosquito_risk":3,"arthritis_risk":5,"migraine_risk":7,"frizz_risk":0,"updated_at":"2026-03-21T10:09:55.054171+05:30"},{"city":"Gangtok","state":"Sikkim","latitude":27.3314,"longitude":88.6138,"temp":11.9,"humidity":91,"rain":0.4,"pressure":840.7,"uv_index":1.5,"wind_gusts":16.6,"aqi":100,"pm10":16.9,"pm2_5":13.0,"mosquito_risk":6,"arthritis_risk":10,"migraine_risk":3,"frizz_risk":0,"updated_at":"2026-03-21T10:09:55.054177+05:30"},{"city":"Siliguri","state":"West Bengal","latitude":26.7271,"longitude":88.3953,"temp":18.4,"humidity":85,"rain":0.0,"pressure":1002.1,"uv_index":3.65,"wind_gusts":29.2,"aqi":85,"pm10":30.3,"pm2_5":24.9,"mosquito_risk":3,"arthritis_risk":10,"migraine_risk":0,"frizz_risk":0,"updated_at":"2026-03-21T10:09:58.331001+05:30"},{"city":"Durgapur","state":"West Bengal","latitude":23.5204,"longitude":87.3119,"temp":23.2,"humidity":77,"rain":0.0,"pressure":1001.2,"uv_index":7.2,"wind_gusts":24.5,"aqi":152,"pm10":41.6,"pm2_5":38.9,"mosquito_risk":3,"arthritis_risk":5,"migraine_risk":4,"frizz_risk":1,"updated_at":"2026-03-21T10:09:58.331030+05:30"},{"city":"Asansol","state":"West Bengal","latitude":23.6739,"longitude":86.9524,"temp":23.2,"humidity":77,"rain":0.0,"pressure":999.9,"uv_index":7.2,"wind_gusts":27.4,"aqi":152,"pm10":49.2,"pm2_5":45.1,"mosquito_risk":3,"arthritis_risk":5,"migraine_risk":7,"frizz_risk":1,"updated_at":"2026-03-21T10:09:58.331039+05:30"},{"city":"Pondicherry","state":"Puducherry","latitude":11.9139,"longitude":79.8145,"temp":30.0,"humidity":69,"rain":0.0,"pressure":1012.7,"uv_index":9.15,"wind_gusts":28.8,"aqi":45,"pm10":11.3,"pm2_5":7.5,"mosquito_risk":7,"arthritis_risk":0,"migraine_risk":4,"frizz_risk":1,"updated_at":"2026-03-21T10:09:58.331047+05:30"},{"city":"Port Blair","state":"Andaman and Nicobar Islands","latitude":11.6234,"longitude":92.7265,"temp":29.1,"humidity":73,"rain":0.0,"pressure":1011.0,"uv_index":9.1,"wind_gusts":15.5,"aqi":53,"pm10":19.3,"pm2_5":14.7,"mosquito_risk":7,"arthritis_risk":0,"migraine_risk":4,"frizz_risk":1,"updated_at":"2026-03-21T10:09:58.331054+05:30"},{"city":"Haridwar","state":"Uttarakhand","latitude":29.9457,"longitude":78.1642,"temp":21.1,"humidity":69,"rain":0.0,"pressure":980.4,"uv_index":6.1,"wind_gusts":22.7,"aqi":101,"pm10":25.7,"pm2_5":22.9,"mosquito_risk":3,"arthritis_risk":5,"migraine_risk":7,"frizz_risk":0,"updated_at":"2026-03-21T10:09:58.331062+05:30"},{"city":"Rishikesh","state":"Uttarakhand","latitude":30.0869,"longitude":78.2676,"temp":20.9,"humidity":66,"rain":0.0,"pressure":972.5,"uv_index":6.2,"wind_gusts":22.0,"aqi":64,"pm10":10.3,"pm2_5":6.7,"mosquito_risk":3,"arthritis_risk":5,"migraine_risk":7,"frizz_risk":0,"updated_at":"2026-03-21T10:09:58.331069+05:30"},{"city":"Nainital","state":"Uttarakhand","latitude":29.3919,"longitude":79.4542,"temp":13.0,"humidity":85,"rain":0.0,"pressure":806.7,"uv_index":6.85,"wind_gusts":34.2,"aqi":72,"pm10":13.3,"pm2_5":8.0,"mosquito_risk":3,"arthritis_risk":10,"migraine_risk":7,"frizz_risk":0,"updated_at":"2026-03-21T10:09:58.331077+05:30"},{"city":"Mussoorie","state":"Uttarakhand","latitude":30.4599,"longitude":78.0664,"temp":13.4,"humidity":63,"rain":0.0,"pressure":804.0,"uv_index":6.6,"wind_gusts":27.4,"aqi":59,"pm10":5.8,"pm2_5":4.2,"mosquito_risk":3,"arthritis_risk":5,"migraine_risk":7,"frizz_risk":0,"updated_at":"2026-03-21T10:09:58.331084+05:30"},{"city":"Dharamshala","state":"Himachal Pradesh","latitude":32.219,"longitude":76.3234,"temp":15.3,"humidity":63,"rain":0.0,"pressure":871.4,"uv_index":6.7,"wind_gusts":18.0,"aqi":40,"pm10":4.2,"pm2_5":1.7,"mosquito_risk":3,"arthritis_risk":5,"migraine_risk":7,"frizz_risk":0,"updated_at":"2026-03-21T10:09:58.331091+05:30"},{"city":"Dalhousie","state":"Himachal Pradesh","latitude":32.5387,"longitude":75.971,"temp":13.1,"humidity":52,"rain":0.0,"pressure":805.1,"uv_index":6.4,"wind_gusts":19.8,"aqi":72,"pm10":15.0,"pm2_5":9.5,"mosquito_risk":0,"arthritis_risk":5,"migraine_risk":7,"frizz_risk":0,"updated_at":"2026-03-21T10:09:58.331099+05:30"},{"city":"Patiala","state":"Punjab","latitude":30.3398,"longitude":76.3869,"temp":18.5,"humidity":83,"rain":0.0,"pressure":985.4,"uv_index":5.95,"wind_gusts":22.3,"aqi":141,"pm10":72.9,"pm2_5":68.5,"mosquito_risk":3,"arthritis_risk":10,"migraine_risk":3,"frizz_risk":0,"updated_at":"2026-03-21T10:09:58.331106+05:30"},{"city":"Bhatinda","state":"Punjab","latitude":30.211,"longitude":74.9455,"temp":20.1,"humidity":75,"rain":0.0,"pressure":991.1,"uv_index":5.9,"wind_gusts":18.0,"aqi":137,"pm10":78.0,"pm2_5":57.5,"mosquito_risk":3,"arthritis_risk":5,"migraine_risk":3,"frizz_risk":0,"updated_at":"2026-03-21T10:09:58.331113+05:30"},{"city":"Rohtak","state":"Haryana","latitude":28.8955,"longitude":76.6066,"temp":18.5,"humidity":86,"rain":0.0,"pressure":989.2,"uv_index":5.75,"wind_gusts":23.0,"aqi":158,"pm10":128.1,"pm2_5":116.4,"mosquito_risk":3,"arthritis_risk":10,"migraine_risk":3,"frizz_risk":1,"updated_at":"2026-03-21T10:09:58.331119+05:30"},{"city":"Panipat","state":"Haryana","latitude":29.3909,"longitude":76.9635,"temp":18.4,"humidity":86,"rain":0.0,"pressure":987.6,"uv_index":5.8,"wind_gusts":25.6,"aqi":157,"pm10":108.3,"pm2_5":99.0,"mosquito_risk":3,"arthritis_risk":10,"migraine_risk":3,"frizz_risk":0,"updated_at":"2026-03-21T10:09:58.331126+05:30"},{"city":"Mathura","state":"Uttar Pradesh","latitude":27.4924,"longitude":77.6737,"temp":20.1,"humidity":78,"rain":0.0,"pressure":994.4,"uv_index":6.7,"wind_gusts":25.6,"aqi":140,"pm10":105.0,"pm2_5":91.0,"mosquito_risk":3,"arthritis_risk":5,"migraine_risk":7,"frizz_risk":1,"updated_at":"2026-03-21T10:09:58.331132+05:30"},{"city":"Vrindavan","state":"Uttar Pradesh","latitude":27.5823,"longitude":77.7027,"temp":19.9,"humidity":80,"rain":0.0,"pressure":994.7,"uv_index":6.65,"wind_gusts":26.6,"aqi":140,"pm10":105.0,"pm2_5":91.0,"mosquito_risk":3,"arthritis_risk":5,"migraine_risk":7,"frizz_risk":1,"updated_at":"2026-03-21T10:09:58.331139+05:30"},{"city":"Ayodhya","state":"Uttar Pradesh","latitude":26.7922,"longitude":82.1998,"temp":18.7,"humidity":89,"rain":0.2,"pressure":1003.1,"uv_index":6.9,"wind_gusts":22.0,"aqi":107,"pm10":68.5,"pm2_5":41.7,"mosquito_risk":6,"arthritis_risk":10,"migraine_risk":4,"frizz_risk":1,"updated_at":"2026-03-21T10:09:58.331146+05:30"},{"city":"Ratlam","state":"Madhya Pradesh","latitude":23.3315,"longitude":75.0367,"temp":25.0,"humidity":57,"rain":0.0,"pressure":959.9,"uv_index":7.25,"wind_gusts":21.2,"aqi":63,"pm10":34.0,"pm2_5":16.3,"mosquito_risk":4,"arthritis_risk":5,"migraine_risk":7,"frizz_risk":0,"updated_at":"2026-03-21T10:09:58.331152+05:30"},{"city":"Sagar","state":"Madhya Pradesh","latitude":23.8388,"longitude":78.7378,"temp":22.7,"humidity":59,"rain":0.0,"pressure":956.1,"uv_index":7.85,"wind_gusts":27.7,"aqi":93,"pm10":55.5,"pm2_5":27.1,"mosquito_risk":0,"arthritis_risk":5,"migraine_risk":7,"frizz_risk":0,"updated_at":"2026-03-21T10:09:58.331159+05:30"},{"city":"Satna","state":"Madhya Pradesh","latitude":24.6005,"longitude":80.8322,"temp":21.1,"humidity":73,"rain":0.0,"pressure":977.6,"uv_index":7.8,"wind_gusts":32.8,"aqi":77,"pm10":57.5,"pm2_5":23.8,"mosquito_risk":3,"arthritis_risk":5,"migraine_risk":7,"frizz_risk":1,"updated_at":"2026-03-21T10:09:58.331165+05:30"},{"city":"Akola","state":"Maharashtra","latitude":20.7002,"longitude":77.0082,"temp":28.1,"humidity":44,"rain":0.0,"pressure":980.5,"uv_index":8.25,"wind_gusts":22.3,"aqi":65,"pm10":35.4,"pm2_5":17.3,"mosquito_risk":4,"arthritis_risk":5,"migraine_risk":7,"frizz_risk":0,"updated_at":"2026-03-21T10:09:58.331172+05:30"},{"city":"Amravati","state":"Maharashtra","latitude":20.9374,"longitude":77.7796,"temp":28.1,"humidity":41,"rain":0.0,"pressure":972.7,"uv_index":8.3,"wind_gusts":25.2,"aqi":66,"pm10":39.5,"pm2_5":17.8,"mosquito_risk":4,"arthritis_risk":5,"migraine_risk":7,"frizz_risk":0,"updated_at":"2026-03-21T10:09:58.331180+05:30"},{"city":"Latur","state":"Maharashtra","latitude":18.4088,"longitude":76.5604,"temp":27.0,"humidity":44,"rain":0.0,"pressure":944.2,"uv_index":8.65,"wind_gusts":34.2,"aqi":75,"pm10":31.9,"pm2_5":16.2,"mosquito_risk":4,"arthritis_risk":5,"migraine_risk":7,"frizz_risk":0,"updated_at":"2026-03-21T10:09:58.331187+05:30"},{"city":"Nanded","state":"Maharashtra","latitude":19.1383,"longitude":77.3091,"temp":29.1,"humidity":40,"rain":0.0,"pressure":973.5,"uv_index":8.5,"wind_gusts":28.1,"aqi":68,"pm10":31.0,"pm2_5":15.2,"mosquito_risk":4,"arthritis_risk":5,"migraine_risk":7,"frizz_risk":0,"updated_at":"2026-03-21T10:09:58.331193+05:30"},{"city":"Gulbarga","state":"Karnataka","latitude":17.3297,"longitude":76.8343,"temp":29.6,"humidity":39,"rain":0.0,"pressure":962.6,"uv_index":8.75,"wind_gusts":42.1,"aqi":69,"pm10":31.2,"pm2_5":22.1,"mosquito_risk":4,"arthritis_risk":5,"migraine_risk":7,"frizz_risk":0,"updated_at":"2026-03-21T10:09:58.331200+05:30"},{"city":"Bidar","state":"Karnataka","latitude":17.9104,"longitude":77.5199,"temp":27.9,"humidity":39,"rain":0.0,"pressure":939.4,"uv_index":8.75,"wind_gusts":40.3,"aqi":86,"pm10":35.7,"pm2_5":24.6,"mosquito_risk":4,"arthritis_risk":5,"migraine_risk":7,"frizz_risk":0,"updated_at":"2026-03-21T10:09:58.331206+05:30"},{"city":"Hospet","state":"Karnataka","latitude":15.2689,"longitude":76.3909,"temp":27.9,"humidity":52,"rain":0.0,"pressure":959.4,"uv_index":9.0,"wind_gusts":19.4,"aqi":77,"pm10":31.0,"pm2_5":20.9,"mosquito_risk":4,"arthritis_risk":5,"migraine_risk":7,"frizz_risk":1,"updated_at":"2026-03-21T10:09:58.331213+05:30"},{"city":"Tirupur","state":"Tamil Nadu","latitude":11.1085,"longitude":77.3411,"temp":29.9,"humidity":59,"rain":0.0,"pressure":979.1,"uv_index":9.4,"wind_gusts":33.1,"aqi":79,"pm10":20.4,"pm2_5":18.1,"mosquito_risk":4,"arthritis_risk":5,"migraine_risk":7,"frizz_risk":1,"updated_at":"2026-03-21T10:09:58.331219+05:30"},{"city":"Alappuzha","state":"Kerala","latitude":9.4981,"longitude":76.3388,"temp":28.6,"humidity":74,"rain":0.0,"pressure":1011.6,"uv_index":9.1,"wind_gusts":28.1,"aqi":77,"pm10":31.5,"pm2_5":24.8,"mosquito_risk":7,"arthritis_risk":0,"migraine_risk":4,"frizz_risk":1,"updated_at":"2026-03-21T10:09:58.331226+05:30"},{"city":"Munnar","state":"Kerala","latitude":10.0889,"longitude":77.0595,"temp":27.5,"humidity":53,"rain":0.0,"pressure":861.2,"uv_index":9.65,"wind_gusts":29.2,"aqi":64,"pm10":20.0,"pm2_5":14.3,"mosquito_risk":4,"arthritis_risk":5,"migraine_risk":7,"frizz_risk":1,"updated_at":"2026-03-21T10:09:58.331233+05:30"},{"city":"Silchar","state":"Assam","latitude":24.8333,"longitude":92.7789,"temp":25.8,"humidity":62,"rain":0.0,"pressure":1011.8,"uv_index":6.85,"wind_gusts":19.8,"aqi":87,"pm10":37.7,"pm2_5":27.1,"mosquito_risk":7,"arthritis_risk":0,"migraine_risk":4,"frizz_risk":1,"updated_at":"2026-03-21T10:09:58.331239+05:30"},{"city":"Dibrugarh","state":"Assam","latitude":27.4728,"longitude":94.912,"temp":25.1,"humidity":68,"rain":0.0,"pressure":1002.7,"uv_index":7.25,"wind_gusts":16.2,"aqi":94,"pm10":46.0,"pm2_5":27.4,"mosquito_risk":7,"arthritis_risk":5,"migraine_risk":4,"frizz_risk":1,"updated_at":"2026-03-21T10:09:58.331246+05:30"}]