[{"city":"Delhi","state":"Delhi","latitude":28.6139,"longitude":77.209,"temp":19.8,"humidity":69,"rain":0.0,"pressure":983.8,"uv_index":6.0,"wind_gusts":24.5,"aqi":193,"pm10":239.3,"pm2_5":84.1,"mosquito_risk":3,"arthritis_risk":5,"migraine_risk":3,"frizz_risk":0,"updated_at":"2026-03-12T04:00:15.589713+05:30"},{"city":"Mumbai","state":"Maharashtra","latitude":19.076,"longitude":72.8777,"temp":27.6,"humidity":87,"rain":0.0,"pressure":1009.0,"uv_index":7.6,"wind_gusts":28.1,"aqi":154,"pm10":69.6,"pm2_5":64.5,"mosquito_risk":7,"arthritis_risk":0,"migraine_risk":4,"frizz_risk":1,"updated_at":"2026-03-12T04:00:15.589754+05:30"},{"city":"Bangalore","state":"Karnataka","latitude":12.9716,"longitude":77.5946,"temp":19.5,"humidity":81,"rain":0.0,"pressure":911.8,"uv_index":9.3,"wind_gusts":32.4,"aqi":60,"pm10":30.2,"pm2_5":28.9,"mosquito_risk":3,"arthritis_risk":10,"migraine_risk":7,"frizz_risk":1,"updated_at":"2026-03-12T04:00:15.589769+05:30"},{"city":"Hyderabad","state":"Telangana","latitude":17.385,"longitude":78.4867,"temp":21.6,"humidity":66,"rain":0.0,"pressure":954.2,"uv_index":8.65,"wind_gusts":22.0,"aqi":84,"pm10":55.6,"pm2_5":43.4,"mosquito_risk":3,"arthritis_risk":5,"migraine_risk":7,"frizz_risk":0,"updated_at":"2026-03-12T04:00:15.589779+05:30"},{"city":"Chennai","state":"Tamil Nadu","latitude":13.0827,"longitude":80.2707,"temp":23.5,"humidity":93,"rain":0.0,"pressure":1008.9,"uv_index":9.05,"wind_gusts":28.8,"aqi":70,"pm10":33.6,"pm2_5":29.0,"mosquito_risk":3,"arthritis_risk":0,"migraine_risk":4,"frizz_risk":1,"updated_at":"2026-03-12T04:00:15.589788+05:30"},{"city":"Kolkata","state":"West Bengal","latitude":22.5726,"longitude":88.3639,"temp":24.4,"humidity":96,"rain":0.0,"pressure":1007.6,"uv_index":8.0,"wind_gusts":19.4,"aqi":140,"pm10":46.6,"pm2_5":42.4,"mosquito_risk":3,"arthritis_risk":5,"migraine_risk":4,"frizz_risk":1,"updated_at":"2026-03-12T04:00:15.589800+05:30"},{"city":"Pune","state":"Maharashtra","latitude":18.5204,"longitude":73.8567,"temp":20.8,"humidity":85,"rain":0.0,"pressure":949.0,"uv_index":8.15,"wind_gusts":27.0,"aqi":124,"pm10":85.2,"pm2_5":80.1,"mosquito_risk":3,"arthritis_risk":5,"migraine_risk":7,"frizz_risk":1,"updated_at":"2026-03-12T04:00:15.589812+05:30"},{"city":"Ahmedabad","state":"Gujarat","latitude":23.0225,"longitude":72.5714,"temp":23.6,"humidity":38,"rain":0.0,"pressure":1003.8,"uv_index":7.45,"wind_gusts":30.2,"aqi":71,"pm10":19.8,"pm2_5":19.2,"mosquito_risk":0,"arthritis_risk":5,"migraine_risk":4,"frizz_risk":0,"updated_at":"2026-03-12T04:00:15.589819+05:30"},{"city":"Jaipur","state":"Rajasthan","latitude":26.9124,"longitude":75.7873,"temp":24.5,"humidity":34,"rain":0.0,"pressure":961.0,"uv_index":5.9,"wind_gusts":37.8,"aqi":94,"pm10":199.8,"pm2_5":33.1,"mosquito_risk":0,"arthritis_risk":5,"migraine_risk":3,"frizz_risk":0,"updated_at":"2026-03-12T04:00:15.589827+05:30"},{"city":"Lucknow","state":"Uttar Pradesh","latitude":26.8467,"longitude":80.9462,"temp":22.4,"humidity":75,"rain":0.0,"pressure":994.1,"uv_index":6.5,"wind_gusts":25.9,"aqi":166,"pm10":286.8,"pm2_5":63.6,"mosquito_risk":3,"arthritis_risk":5,"migraine_risk":7,"frizz_risk":1,"updated_at":"2026-03-12T04:00:15.589836+05:30"},{"city":"Kanpur","state":"Uttar Pradesh","latitude":26.4499,"longitude":80.3319,"temp":21.3,"humidity":79,"rain":0.0,"pressure":992.5,"uv_index":6.05,"wind_gusts":20.9,"aqi":165,"pm10":379.0,"pm2_5":69.8,"mosquito_risk":3,"arthritis_risk":5,"migraine_risk":7,"frizz_risk":1,"updated_at":"2026-03-12T04:00:15.589844+05:30"},{"city":"Chandigarh","state":"Chandigarh","latitude":30.7333,"longitude":76.7794,"temp":21.4,"humidity":63,"rain":0.0,"pressure":969.1,"uv_index":5.75,"wind_gusts":25.6,"aqi":112,"pm10":40.6,"pm2_5":34.5,"mosquito_risk":3,"arthritis_risk":5,"migraine_risk":3,"frizz_risk":0,"updated_at":"2026-03-12T04:00:15.589852+05:30"},{"city":"Srinagar","state":"Jammu and Kashmir","latitude":34.0837,"longitude":74.7973,"temp":8.2,"humidity":95,"rain":0.2,"pressure":841.1,"uv_index":6.95,"wind_gusts":22.7,"aqi":116,"pm10":50.4,"pm2_5":42.4,"mosquito_risk":6,"arthritis_risk":10,"migraine_risk":7,"frizz_risk":0,"updated_at":"2026-03-12T04:00:15.589865+05:30"},{"city":"Jammu","state":"Jammu and Kashmir","latitude":32.7266,"longitude":74.857,"temp":20.7,"humidity":52,"rain":0.0,"pressure":973.5,"uv_index":6.65,"wind_gusts":34.6,"aqi":84,"pm10":27.8,"pm2_5":22.2,"mosquito_risk":0,"arthritis_risk":5,"migraine_risk":7,"frizz_risk":0,"updated_at":"2026-03-12T04:00:15.589874+05:30"},{"city":"Amritsar","state":"Punjab","latitude":31.634,"longitude":74.8723,"temp":20.4,"humidity":86,"rain":0.0,"pressure":981.7,"uv_index":6.65,"wind_gusts":57.2,"aqi":159,"pm10":117.6,"pm2_5":90.1,"mosquito_risk":3,"arthritis_risk":5,"migraine_risk":7,"frizz_risk":1,"updated_at":"2026-03-12T04:00:15.589880+05:30"},{"city":"Ludhiana","state":"Punjab","latitude":30.901,"longitude":75.8573,"temp":22.3,"humidity":61,"rain":0.0,"pressure":979.3,"uv_index":5.95,"wind_gusts":31.3,"aqi":168,"pm10":107.8,"pm2_5":83.8,"mosquito_risk":3,"arthritis_risk":5,"migraine_risk":3,"frizz_risk":0,"updated_at":"2026-03-12T04:00:15.589887+05:30"},{"city":"Jalandhar","state":"Punjab","latitude":31.326,"longitude":75.5762,"temp":20.9,"humidity":75,"rain":0.0,"pressure":980.6,"uv_index":6.35,"wind_gusts":53.3,"aqi":162,"pm10":93.6,"pm2_5":73.3,"mosquito_risk":3,"arthritis_risk":5,"migraine_risk":7,"frizz_risk":1,"updated_at":"2026-03-12T04:00:15.589896+05:30"},{"city":"Dehradun","state":"Uttarakhand","latitude":30.6284,"longitude":78.0322,"temp":13.9,"humidity":58,"rain":0.0,"pressure":829.6,"uv_index":5.25,"wind_gusts":31.7,"aqi":63,"pm10":17.8,"pm2_5":14.3,"mosquito_risk":0,"arthritis_risk":5,"migraine_risk":3,"frizz_risk":0,"updated_at":"2026-03-12T04:00:15.589902+05:30"},{"city":"Shimla","state":"Himachal Pradesh","latitude":31.1048,"longitude":77.1734,"temp":11.4,"humidity":78,"rain":0.0,"pressure":783.4,"uv_index":5.85,"wind_gusts":40.3,"aqi":87,"pm10":30.5,"pm2_5":21.6,"mosquito_risk":3,"arthritis_risk":5,"migraine_risk":3,"frizz_risk":0,"updated_at":"2026-03-12T04:00:15.589911+05:30"},{"city":"Manali","state":"Himachal Pradesh","latitude":32.2396,"longitude":77.1887,"temp":14.8,"humidity":64,"rain":0.0,"pressure":821.3,"uv_index":3.55,"wind_gusts":43.6,"aqi":48,"pm10":14.6,"pm2_5":5.4,"mosquito_risk":3,"arthritis_risk":5,"migraine_risk":3,"frizz_risk":0,"updated_at":"2026-03-12T04:00:15.589918+05:30"},{"city":"Gurgaon","state":"Haryana","latitude":28.4595,"longitude":77.0266,"temp":17.3,"humidity":78,"rain":0.0,"pressure":982.2,"uv_index":6.05,"wind_gusts":22.3,"aqi":668,"pm10":356.7,"pm2_5":104.8,"mosquito_risk":3,"arthritis_risk":5,"migraine_risk":7,"frizz_risk":0,"updated_at":"2026-03-12T04:00:15.589926+05:30"},{"city":"Noida","state":"Uttar Pradesh","latitude":28.5355,"longitude":77.391,"temp":19.6,"humidity":70,"rain":0.0,"pressure":985.3,"uv_index":6.1,"wind_gusts":24.5,"aqi":668,"pm10":356.7,"pm2_5":104.8,"mosquito_risk":3,"arthritis_risk":5,"migraine_risk":7,"frizz_risk":0,"updated_at":"2026-03-12T04:00:15.589932+05:30"},{"city":"Ghaziabad","state":"Uttar Pradesh","latitude":28.6692,"longitude":77.4538,"temp":19.3,"humidity":74,"rain":0.0,"pressure":983.3,"uv_index":6.05,"wind_gusts":24.1,"aqi":162,"pm10":170.0,"pm2_5":64.0,"mosquito_risk":3,"arthritis_risk":5,"migraine_risk":7,"frizz_risk":0,"updated_at":"2026-03-12T04:00:15.589939+05:30"},{"city":"Faridabad","state":"Haryana","latitude":28.4089,"longitude":77.3178,"temp":21.1,"humidity":54,"rain":0.0,"pressure":984.5,"uv_index":5.75,"wind_gusts":23.4,"aqi":668,"pm10":356.7,"pm2_5":104.8,"mosquito_risk":0,"arthritis_risk":5,"migraine_risk":3,"frizz_risk":0,"updated_at":"2026-03-12T04:00:15.589945+05:30"},{"city":"Meerut","state":"Uttar Pradesh","latitude":28.9845,"longitude":77.7064,"temp":18.0,"humidity":83,"rain":0.0,"pressure":981.8,"uv_index":5.65,"wind_gusts":27.7,"aqi":162,"pm10":170.0,"pm2_5":64.0,"mosquito_risk":3,"arthritis_risk":10,"migraine_risk":3,"frizz_risk":0,"updated_at":"2026-03-12T04:00:15.589953+05:30"},{"city":"Agra","state":"Uttar Pradesh","latitude":27.1767,"longitude":78.0081,"temp":19.4,"humidity":73,"rain":0.0,"pressure":988.5,"uv_index":6.05,"wind_gusts":20.5,"aqi":396,"pm10":407.0,"pm2_5":87.8,"mosquito_risk":3,"arthritis_risk":5,"migraine_risk":7,"frizz_risk":0,"updated_at":"2026-03-12T04:00:15.589960+05:30"},{"city":"Varanasi","state":"Uttar Pradesh","latitude":25.3176,"longitude":82.9739,"temp":21.2,"humidity":80,"rain":0.0,"pressure":998.6,"uv_index":7.3,"wind_gusts":21.6,"aqi":171,"pm10":97.8,"pm2_5":51.5,"mosquito_risk":3,"arthritis_risk":5,"migraine_risk":7,"frizz_risk":1,"updated_at":"2026-03-12T04:00:15.589969+05:30"},{"city":"Prayagraj","state":"Uttar Pradesh","latitude":25.4358,"longitude":81.8463,"temp":22.3,"humidity":68,"rain":0.0,"pressure":997.0,"uv_index":6.75,"wind_gusts":22.3,"aqi":172,"pm10":124.3,"pm2_5":61.2,"mosquito_risk":3,"arthritis_risk":5,"migraine_risk":7,"frizz_risk":1,"updated_at":"2026-03-12T04:00:15.589976+05:30"},{"city":"Gorakhpur","state":"Uttar Pradesh","latitude":26.7606,"longitude":83.3732,"temp":21.5,"humidity":91,"rain":0.0,"pressure":997.9,"uv_index":6.85,"wind_gusts":18.0,"aqi":226,"pm10":231.4,"pm2_5":210.9,"mosquito_risk":3,"arthritis_risk":5,"migraine_risk":7,"frizz_risk":1,"updated_at":"2026-03-12T04:00:15.589983+05:30"},{"city":"Bareilly","state":"Uttar Pradesh","latitude":28.367,"longitude":79.4304,"temp":18.7,"humidity":86,"rain":0.0,"pressure":986.9,"uv_index":5.65,"wind_gusts":28.4,"aqi":176,"pm10":81.0,"pm2_5":38.1,"mosquito_risk":3,"arthritis_risk":10,"migraine_risk":3,"frizz_risk":1,"updated_at":"2026-03-12T04:00:15.589990+05:30"},{"city":"Aligarh","state":"Uttar Pradesh","latitude":27.8974,"longitude":78.088,"temp":17.7,"humidity":73,"rain":0.0,"pressure":986.3,"uv_index":5.35,"wind_gusts":27.0,"aqi":416,"pm10":378.1,"pm2_5":105.7,"mosquito_risk":3,"arthritis_risk":5,"migraine_risk":3,"frizz_risk":0,"updated_at":"2026-03-12T04:00:15.589996+05:30"},{"city":"Moradabad","state":"Uttar Pradesh","latitude":28.8386,"longitude":78.7733,"temp":19.2,"humidity":82,"rain":0.0,"pressure":983.7,"uv_index":5.55,"wind_gusts":32.8,"aqi":172,"pm10":78.7,"pm2_5":40.6,"mosquito_risk":3,"arthritis_risk":10,"migraine_risk":3,"frizz_risk":0,"updated_at":"2026-03-12T04:00:15.590003+05:30"},{"city":"Saharanpur","state":"Uttar Pradesh","latitude":29.9637,"longitude":77.546,"temp":19.1,"humidity":74,"rain":0.0,"pressure":976.0,"uv_index":5.6,"wind_gusts":29.2,"aqi":156,"pm10":89.6,"pm2_5":69.2,"mosquito_risk":3,"arthritis_risk":5,"migraine_risk":3,"frizz_risk":0,"updated_at":"2026-03-12T04:00:15.590009+05:30"},{"city":"Jhansi","state":"Uttar Pradesh","latitude":25.4484,"longitude":78.5685,"temp":20.2,"humidity":63,"rain":0.0,"pressure":978.7,"uv_index":6.75,"wind_gusts":28.1,"aqi":87,"pm10":24.9,"pm2_5":14.2,"mosquito_risk":3,"arthritis_risk":5,"migraine_risk":7,"frizz_risk":0,"updated_at":"2026-03-12T04:00:18.905725+05:30"},{"city":"Surat","state":"Gujarat","latitude":21.1702,"longitude":72.8311,"temp":26.1,"humidity":54,"rain":0.0,"pressure":1007.7,"uv_index":7.35,"wind_gusts":27.4,"aqi":148,"pm10":46.0,"pm2_5":44.4,"mosquito_risk":4,"arthritis_risk":5,"migraine_risk":4,"frizz_risk":0,"updated_at":"2026-03-12T04:00:18.905757+05:30"},{"city":"Vadodara","state":"Gujarat","latitude":22.3072,"longitude":73.1812,"temp":24.4,"humidity":42,"rain":0.0,"pressure":1005.6,"uv_index":7.5,"wind_gusts":23.8,"aqi":74,"pm10":23.6,"pm2_5":22.7,"mosquito_risk":0,"arthritis_risk":5,"migraine_risk":4,"frizz_risk":0,"updated_at":"2026-03-12T04:00:18.905767+05:30"},{"city":"Rajkot","state":"Gujarat","latitude":22.3039,"longitude":70.8022,"temp":22.5,"humidity":57,"rain":0.0,"pressure":996.4,"uv_index":7.3,"wind_gusts":32.0,"aqi":64,"pm10":12.4,"pm2_5":11.4,"mosquito_risk":0,"arthritis_risk":5,"migraine_risk":7,"frizz_risk":0,"updated_at":"2026-03-12T04:00:18.905774+05:30"},{"city":"Thane","state":"Maharashtra","latitude":19.2183,"longitude":72.9781,"temp":24.4,"humidity":99,"rain":0.0,"pressure":1008.6,"uv_index":7.6,"wind_gusts":39.6,"aqi":154,"pm10":69.6,"pm2_5":64.5,"mosquito_risk":3,"arthritis_risk":0,"migraine_risk":4,"frizz_risk":1,"updated_at":"2026-03-12T04:00:18.905782+05:30"},{"city":"Nagpur","state":"Maharashtra","latitude":21.1458,"longitude":79.0882,"temp":19.3,"humidity":81,"rain":0.0,"pressure":974.2,"uv_index":8.05,"wind_gusts":16.2,"aqi":89,"pm10":40.5,"pm2_5":27.1,"mosquito_risk":3,"arthritis_risk":10,"migraine_risk":7,"frizz_risk":0,"updated_at":"2026-03-12T04:00:18.905789+05:30"},{"city":"Nashik","state":"Maharashtra","latitude":19.9975,"longitude":73.7898,"temp":23.4,"humidity":49,"rain":0.0,"pressure":946.5,"uv_index":7.8,"wind_gusts":33.1,"aqi":104,"pm10":55.4,"pm2_5":51.8,"mosquito_risk":0,"arthritis_risk":5,"migraine_risk":7,"frizz_risk":0,"updated_at":"2026-03-12T04:00:18.905796+05:30"},{"city":"Aurangabad","state":"Maharashtra","latitude":19.8762,"longitude":75.3433,"temp":21.3,"humidity":60,"rain":0.0,"pressure":944.6,"uv_index":8.35,"wind_gusts":24.8,"aqi":107,"pm10":56.9,"pm2_5":50.1,"mosquito_risk":0,"arthritis_risk":5,"migraine_risk":7,"frizz_risk":0,"updated_at":"2026-03-12T04:00:18.905802+05:30"},{"city":"Solapur","state":"Maharashtra","latitude":17.6599,"longitude":75.9064,"temp":24.2,"humidity":71,"rain":0.0,"pressure":958.0,"uv_index":8.55,"wind_gusts":16.9,"aqi":100,"pm10":47.4,"pm2_5":40.3,"mosquito_risk":3,"arthritis_risk":5,"migraine_risk":7,"frizz_risk":1,"updated_at":"2026-03-12T04:00:18.905810+05:30"},{"city":"Kolhapur","state":"Maharashtra","latitude":16.705,"longitude":74.2433,"temp":20.8,"humidity":99,"rain":0.0,"pressure":948.4,"uv_index":8.65,"wind_gusts":25.9,"aqi":145,"pm10":83.6,"pm2_5":78.7,"mosquito_risk":3,"arthritis_risk":5,"migraine_risk":7,"frizz_risk":1,"updated_at":"2026-03-12T04:00:18.905817+05:30"},{"city":"Goa","state":"Goa","latitude":15.2993,"longitude":74.124,"temp":26.8,"humidity":89,"rain":0.0,"pressure":998.7,"uv_index":8.7,"wind_gusts":34.9,"aqi":150,"pm10":70.5,"pm2_5":61.0,"mosquito_risk":7,"arthritis_risk":5,"migraine_risk":7,"frizz_risk":1,"updated_at":"2026-03-12T04:00:18.905825+05:30"},{"city":"Jodhpur","state":"Rajasthan","latitude":26.2389,"longitude":73.0243,"temp":23.6,"humidity":29,"rain":0.0,"pressure":984.6,"uv_index":6.4,"wind_gusts":25.2,"aqi":88,"pm10":105.2,"pm2_5":23.7,"mosquito_risk":0,"arthritis_risk":5,"migraine_risk":7,"frizz_risk":0,"updated_at":"2026-03-12T04:00:18.905832+05:30"},{"city":"Udaipur","state":"Rajasthan","latitude":24.5854,"longitude":73.7125,"temp":18.8,"humidity":40,"rain":0.0,"pressure":948.2,"uv_index":7.4,"wind_gusts":29.5,"aqi":50,"pm10":15.1,"pm2_5":14.4,"mosquito_risk":0,"arthritis_risk":5,"migraine_risk":7,"frizz_risk":0,"updated_at":"2026-03-12T04:00:18.905839+05:30"},{"city":"Kota","state":"Rajasthan","latitude":25.2138,"longitude":75.8648,"temp":20.0,"humidity":58,"rain":0.0,"pressure":979.9,"uv_index":6.7,"wind_gusts":29.5,"aqi":82,"pm10":52.2,"pm2_5":29.5,"mosquito_risk":0,"arthritis_risk":5,"migraine_risk":7,"frizz_risk":0,"updated_at":"2026-03-12T04:00:18.905845+05:30"},{"city":"Bikaner","state":"Rajasthan","latitude":28.0229,"longitude":73.3119,"temp":23.1,"humidity":31,"rain":0.0,"pressure":982.7,"uv_index":5.95,"wind_gusts":20.2,"aqi":78,"pm10":201.2,"pm2_5":50.9,"mosquito_risk":0,"arthritis_risk":5,"migraine_risk":3,"frizz_risk":0,"updated_at":"2026-03-12T04:00:18.905852+05:30"},{"city":"Ajmer","state":"Rajasthan","latitude":26.4499,"longitude":74.6399,"temp":21.4,"humidity":42,"rain":0.0,"pressure":955.7,"uv_index":6.05,"wind_gusts":34.9,"aqi":67,"pm10":61.0,"pm2_5":17.9,"mosquito_risk":0,"arthritis_risk":5,"migraine_risk":7,"frizz_risk":0,"updated_at":"2026-03-12T04:00:18.905859+05:30"},{"city":"Gwalior","state":"Madhya Pradesh","latitude":26.2183,"longitude":78.1828,"temp":23.3,"humidity":46,"rain":0.0,"pressure":984.2,"uv_index":6.45,"wind_gusts":31.3,"aqi":87,"pm10":21.5,"pm2_5":13.3,"mosquito_risk":0,"arthritis_risk":5,"migraine_risk":7,"frizz_risk":0,"updated_at":"2026-03-12T04:00:18.905865+05:30"},{"city":"Indore","state":"Madhya Pradesh","latitude":22.7196,"longitude":75.8577,"temp":20.0,"humidity":47,"rain":0.0,"pressure":948.8,"uv_index":7.75,"wind_gusts":22.7,"aqi":65,"pm10":41.4,"pm2_5":24.9,"mosquito_risk":0,"arthritis_risk":5,"migraine_risk":7,"frizz_risk":0,"updated_at":"2026-03-12T04:00:18.905872+05:30"},{"city":"Bhopal","state":"Madhya Pradesh","latitude":23.2599,"longitude":77.4126,"temp":19.9,"humidity":47,"rain":0.0,"pressure":954.3,"uv_index":7.6,"wind_gusts":28.1,"aqi":67,"pm10":36.9,"pm2_5":20.5,"mosquito_risk":0,"arthritis_risk":5,"migraine_risk":7,"frizz_risk":0,"updated_at":"2026-03-12T04:00:18.905879+05:30"},{"city":"Jabalpur","state":"Madhya Pradesh","latitude":23.1815,"longitude":79.9864,"temp":21.1,"humidity":49,"rain":0.0,"pressure":962.5,"uv_index":7.75,"wind_gusts":19.8,"aqi":97,"pm10":78.9,"pm2_5":39.8,"mosquito_risk":0,"arthritis_risk":5,"migraine_risk":7,"frizz_risk":0,"updated_at":"2026-03-12T04:00:18.905885+05:30"},{"city":"Ujjain","state":"Madhya Pradesh","latitude":23.1765,"longitude":75.7885,"temp":20.0,"humidity":49,"rain":0.0,"pressure":954.4,"uv_index":7.65,"wind_gusts":18.7,"aqi":80,"pm10":63.6,"pm2_5":51.9,"mosquito_risk":0,"arthritis_risk":5,"migraine_risk":7,"frizz_risk":0,"updated_at":"2026-03-12T04:00:18.905893+05:30"},{"city":"Visakhapatnam","state":"Andhra Pradesh","latitude":17.6868,"longitude":83.2185,"temp":24.5,"humidity":79,"rain":0.0,"pressure":1005.0,"uv_index":8.65,"wind_gusts":39.6,"aqi":90,"pm10":29.5,"pm2_5":26.9,"mosquito_risk":3,"arthritis_risk":5,"migraine_risk":4,"frizz_risk":1,"updated_at":"2026-03-12T04:00:18.905899+05:30"},{"city":"Vijayawada","state":"Andhra Pradesh","latitude":16.5062,"longitude":80.648,"temp":23.7,"humidity":80,"rain":0.0,"pressure":1004.2,"uv_index":8.7,"wind_gusts":27.0,"aqi":80,"pm10":18.9,"pm2_5":17.8,"mosquito_risk":3,"arthritis_risk":5,"migraine_risk":4,"frizz_risk":1,"updated_at":"2026-03-12T04:00:18.905906+05:30"},{"city":"Guntur","state":"Andhra Pradesh","latitude":16.3067,"longitude":80.4365,"temp":22.8,"humidity":83,"rain":0.0,"pressure":1005.4,"uv_index":8.7,"wind_gusts":30.2,"aqi":72,"pm10":16.6,"pm2_5":15.9,"mosquito_risk":3,"arthritis_risk":5,"migraine_risk":4,"frizz_risk":1,"updated_at":"2026-03-12T04:00:18.905913+05:30"},{"city":"Nellore","state":"Andhra Pradesh","latitude":14.4426,"longitude":79.9865,"temp":23.0,"humidity":91,"rain":0.0,"pressure":1007.5,"uv_index":8.9,"wind_gusts":27.4,"aqi":64,"pm10":22.9,"pm2_5":20.4,"mosquito_risk":3,"arthritis_risk":5,"migraine_risk":4,"frizz_risk":1,"updated_at":"2026-03-12T04:00:18.905920+05:30"},{"city":"Kurnool","state":"Andhra Pradesh","latitude":15.8281,"longitude":78.0373,"temp":25.6,"humidity":52,"rain":0.0,"pressure":978.0,"uv_index":8.7,"wind_gusts":22.3,"aqi":71,"pm10":22.0,"pm2_5":20.7,"mosquito_risk":4,"arthritis_risk":5,"migraine_risk":7,"frizz_risk":0,"updated_at":"2026-03-12T04:00:18.905927+05:30"},{"city":"Kakinada","state":"Andhra Pradesh","latitude":16.9891,"longitude":82.2475,"temp":22.5,"humidity":85,"rain":0.0,"pressure":1009.2,"uv_index":8.65,"wind_gusts":34.6,"aqi":79,"pm10":23.9,"pm2_5":20.5,"mosquito_risk":3,"arthritis_risk":0,"migraine_risk":4,"frizz_risk":1,"updated_at":"2026-03-12T04:00:18.905934+05:30"},{"city":"Tirupati","state":"Andhra Pradesh","latitude":13.6288,"longitude":79.4192,"temp":19.8,"humidity":90,"rain":0.0,"pressure":993.4,"uv_index":9.05,"wind_gusts":34.6,"aqi":80,"pm10":46.4,"pm2_5":44.4,"mosquito_risk":3,"arthritis_risk":10,"migraine_risk":7,"frizz_risk":1,"updated_at":"2026-03-12T04:00:18.905941+05:30"},{"city":"Warangal","state":"Telangana","latitude":17.9689,"longitude":79.5941,"temp":24.2,"humidity":58,"rain":0.0,"pressure":979.6,"uv_index":8.5,"wind_gusts":17.3,"aqi":88,"pm10":39.5,"pm2_5":35.2,"mosquito_risk":0,"arthritis_risk":5,"migraine_risk":7,"frizz_risk":0,"updated_at":"2026-03-12T04:00:18.905948+05:30"},{"city":"Nizamabad","state":"Telangana","latitude":18.6725,"longitude":78.0941,"temp":23.3,"humidity":58,"rain":0.0,"pressure":965.5,"uv_index":8.35,"wind_gusts":22.0,"aqi":116,"pm10":42.1,"pm2_5":37.4,"mosquito_risk":0,"arthritis_risk":5,"migraine_risk":7,"frizz_risk":0,"updated_at":"2026-03-12T04:00:18.905955+05:30"},{"city":"Mysore","state":"Karnataka","latitude":12.2958,"longitude":76.6396,"temp":19.8,"humidity":76,"rain":0.0,"pressure":928.3,"uv_index":9.3,"wind_gusts":34.6,"aqi":62,"pm10":21.1,"pm2_5":20.0,"mosquito_risk":3,"arthritis_risk":5,"migraine_risk":7,"frizz_risk":0,"updated_at":"2026-03-12T04:00:18.905961+05:30"},{"city":"Mangalore","state":"Karnataka","latitude":12.9141,"longitude":74.856,"temp":28.8,"humidity":81,"rain":0.0,"pressure":1007.1,"uv_index":8.95,"wind_gusts":33.8,"aqi":99,"pm10":40.4,"pm2_5":35.9,"mosquito_risk":7,"arthritis_risk":5,"migraine_risk":4,"frizz_risk":1,"updated_at":"2026-03-12T04:00:18.905967+05:30"},{"city":"Hubli-Dharwad","state":"Karnataka","latitude":15.3647,"longitude":75.124,"temp":20.3,"humidity":79,"rain":0.0,"pressure":941.0,"uv_index":8.85,"wind_gusts":32.0,"aqi":62,"pm10":28.9,"pm2_5":24.4,"mosquito_risk":3,"arthritis_risk":5,"migraine_risk":7,"frizz_risk":1,"updated_at":"2026-03-12T04:00:18.905974+05:30"},{"city":"Belgaum","state":"Karnataka","latitude":15.8497,"longitude":74.4977,"temp":21.1,"humidity":89,"rain":0.0,"pressure":925.9,"uv_index":8.95,"wind_gusts":33.1,"aqi":102,"pm10":65.0,"pm2_5":56.5,"mosquito_risk":3,"arthritis_risk":5,"migraine_risk":7,"frizz_risk":1,"updated_at":"2026-03-12T04:00:22.220439+05:30"},{"city":"Coimbatore","state":"Tamil Nadu","latitude":11.0168,"longitude":76.9558,"temp":22.9,"humidity":81,"rain":0.0,"pressure":962.8,"uv_index":9.3,"wind_gusts":43.2,"aqi":73,"pm10":29.3,"pm2_5":27.9,"mosquito_risk":3,"arthritis_risk":5,"migraine_risk":7,"frizz_risk":1,"updated_at":"2026-03-12T04:00:22.220470+05:30"},{"city":"Madurai","state":"Tamil Nadu","latitude":9.9252,"longitude":78.1198,"temp":25.1,"humidity":90,"rain":0.0,"pressure":994.3,"uv_index":9.25,"wind_gusts":29.2,"aqi":66,"pm10":28.2,"pm2_5":26.4,"mosquito_risk":7,"arthritis_risk":5,"migraine_risk":7,"frizz_risk":1,"updated_at":"2026-03-12T04:00:22.220482+05:30"},{"city":"Trichy","state":"Tamil Nadu","latitude":10.7905,"longitude":78.7047,"temp":24.4,"humidity":95,"rain":0.0,"pressure":1001.3,"uv_index":9.15,"wind_gusts":26.3,"aqi":69,"pm10":31.8,"pm2_5":28.2,"mosquito_risk":3,"arthritis_risk":5,"migraine_risk":4,"frizz_risk":1,"updated_at":"2026-03-12T04:00:22.220490+05:30"},{"city":"Salem","state":"Tamil Nadu","latitude":11.6643,"longitude":78.146,"temp":23.4,"humidity":88,"rain":0.0,"pressure":978.6,"uv_index":9.2,"wind_gusts":28.8,"aqi":70,"pm10":30.4,"pm2_5":28.8,"mosquito_risk":3,"arthritis_risk":5,"migraine_risk":7,"frizz_risk":1,"updated_at":"2026-03-12T04:00:22.220498+05:30"},{"city":"Tirunelveli","state":"Tamil Nadu","latitude":8.7139,"longitude":77.7567,"temp":24.4,"humidity":84,"rain":0.0,"pressure":1004.3,"uv_index":9.05,"wind_gusts":40.0,"aqi":59,"pm10":20.6,"pm2_5":19.1,"mosquito_risk":3,"arthritis_risk":5,"migraine_risk":4,"frizz_risk":1,"updated_at":"2026-03-12T04:00:22.220506+05:30"},{"city":"Vellore","state":"Tamil Nadu","latitude":12.9165,"longitude":79.1325,"temp":21.1,"humidity":99,"rain":0.0,"pressure":986.4,"uv_index":9.1,"wind_gusts":33.8,"aqi":88,"pm10":50.6,"pm2_5":48.1,"mosquito_risk":3,"arthritis_risk":5,"migraine_risk":7,"frizz_risk":1,"updated_at":"2026-03-12T04:00:22.220515+05:30"},{"city":"Erode","state":"Tamil Nadu","latitude":11.341,"longitude":77.7172,"temp":24.6,"humidity":89,"rain":0.0,"pressure":990.5,"uv_index":9.2,"wind_gusts":23.0,"aqi":75,"pm10":25.8,"pm2_5":24.3,"mosquito_risk":3,"arthritis_risk":5,"migraine_risk":7,"frizz_risk":1,"updated_at":"2026-03-12T04:00:22.220525+05:30"},{"city":"Kochi","state":"Kerala","latitude":9.9312,"longitude":76.2673,"temp":26.8,"humidity":84,"rain":0.0,"pressure":1009.2,"uv_index":9.1,"wind_gusts":35.3,"aqi":101,"pm10":31.5,"pm2_5":30.4,"mosquito_risk":7,"arthritis_risk":0,"migraine_risk":4,"frizz_risk":1,"updated_at":"2026-03-12T04:00:22.220534+05:30"},{"city":"Thiruvananthapuram","state":"Kerala","latitude":8.5241,"longitude":76.9366,"temp":26.2,"humidity":82,"rain":0.0,"pressure":1008.3,"uv_index":9.1,"wind_gusts":26.6,"aqi":76,"pm10":13.2,"pm2_5":11.5,"mosquito_risk":7,"arthritis_risk":0,"migraine_risk":4,"frizz_risk":1,"updated_at":"2026-03-12T04:00:22.220541+05:30"},{"city":"Kozhikode","state":"Kerala","latitude":11.2588,"longitude":75.7804,"temp":28.2,"humidity":84,"rain":0.0,"pressure":1008.1,"uv_index":9.0,"wind_gusts":31.3,"aqi":108,"pm10":39.9,"pm2_5":35.0,"mosquito_risk":7,"arthritis_risk":0,"migraine_risk":4,"frizz_risk":1,"updated_at":"2026-03-12T04:00:22.220548+05:30"},{"city":"Thrissur","state":"Kerala","latitude":10.5276,"longitude":76.2144,"temp":25.6,"humidity":91,"rain":0.0,"pressure":1007.6,"uv_index":9.05,"wind_gusts":36.7,"aqi":87,"pm10":50.1,"pm2_5":47.4,"mosquito_risk":7,"arthritis_risk":5,"migraine_risk":4,"frizz_risk":1,"updated_at":"2026-03-12T04:00:22.220555+05:30"},{"city":"Kannur","state":"Kerala","latitude":11.8745,"longitude":75.3704,"temp":27.3,"humidity":84,"rain":0.0,"pressure":1007.3,"uv_index":9.0,"wind_gusts":31.7,"aqi":111,"pm10":37.0,"pm2_5":33.5,"mosquito_risk":7,"arthritis_risk":5,"migraine_risk":4,"frizz_risk":1,"updated_at":"2026-03-12T04:00:22.220563+05:30"},{"city":"Patna","state":"Bihar","latitude":25.5941,"longitude":85.1376,"temp":24.4,"humidity":89,"rain":0.0,"pressure":1001.7,"uv_index":7.5,"wind_gusts":22.3,"aqi":222,"pm10":228.2,"pm2_5":212.3,"mosquito_risk":3,"arthritis_risk":5,"migraine_risk":4,"frizz_risk":1,"updated_at":"2026-03-12T04:00:22.220570+05:30"},{"city":"Gaya","state":"Bihar","latitude":24.7914,"longitude":85.0002,"temp":24.0,"humidity":91,"rain":0.0,"pressure":995.1,"uv_index":7.35,"wind_gusts":21.2,"aqi":190,"pm10":165.8,"pm2_5":150.4,"mosquito_risk":3,"arthritis_risk":5,"migraine_risk":7,"frizz_risk":1,"updated_at":"2026-03-12T04:00:22.220576+05:30"},{"city":"Muzaffarpur","state":"Bihar","latitude":26.1209,"longitude":85.3647,"temp":22.4,"humidity":92,"rain":0.0,"pressure":1001.6,"uv_index":7.45,"wind_gusts":23.4,"aqi":231,"pm10":244.0,"pm2_5":227.2,"mosquito_risk":3,"arthritis_risk":5,"migraine_risk":4,"frizz_risk":1,"updated_at":"2026-03-12T04:00:22.220583+05:30"},{"city":"Bhagalpur","state":"Bihar","latitude":25.2425,"longitude":87.0117,"temp":22.4,"humidity":94,"rain":0.0,"pressure":1002.6,"uv_index":7.5,"wind_gusts":33.5,"aqi":184,"pm10":146.2,"pm2_5":132.2,"mosquito_risk":3,"arthritis_risk":5,"migraine_risk":4,"frizz_risk":1,"updated_at":"2026-03-12T04:00:22.220590+05:30"},{"city":"Ranchi","state":"Jharkhand","latitude":23.3441,"longitude":85.3096,"temp":20.0,"humidity":78,"rain":0.0,"pressure":938.5,"uv_index":8.2,"wind_gusts":35.6,"aqi":170,"pm10":131.8,"pm2_5":112.7,"mosquito_risk":3,"arthritis_risk":5,"migraine_risk":7,"frizz_risk":0,"updated_at":"2026-03-12T04:00:22.220596+05:30"},{"city":"Jamshedpur","state":"Jharkhand","latitude":22.8046,"longitude":86.2029,"temp":24.0,"humidity":91,"rain":0.0,"pressure":992.3,"uv_index":8.05,"wind_gusts":32.0,"aqi":165,"pm10":113.9,"pm2_5":99.9,"mosquito_risk":3,"arthritis_risk":5,"migraine_risk":7,"frizz_risk":1,"updated_at":"2026-03-12T04:00:22.220603+05:30"},{"city":"Dhanbad","state":"Jharkhand","latitude":23.7957,"longitude":86.4304,"temp":23.3,"humidity":85,"rain":0.0,"pressure":981.1,"uv_index":6.9,"wind_gusts":31.3,"aqi":198,"pm10":204.0,"pm2_5":190.0,"mosquito_risk":3,"arthritis_risk":5,"migraine_risk":7,"frizz_risk":1,"updated_at":"2026-03-12T04:00:22.220610+05:30"},{"city":"Bokaro","state":"Jharkhand","latitude":23.6693,"longitude":86.1511,"temp":23.3,"humidity":93,"rain":0.0,"pressure":985.4,"uv_index":8.0,"wind_gusts":22.3,"aqi":195,"pm10":185.8,"pm2_5":171.8,"mosquito_risk":3,"arthritis_risk":5,"migraine_risk":7,"frizz_risk":1,"updated_at":"2026-03-12T04:00:22.220616+05:30"},{"city":"Bhubaneswar","state":"Odisha","latitude":20.2961,"longitude":85.8245,"temp":24.4,"humidity":93,"rain":0.0,"pressure":1003.7,"uv_index":8.35,"wind_gusts":33.8,"aqi":96,"pm10":31.8,"pm2_5":27.6,"mosquito_risk":3,"arthritis_risk":5,"migraine_risk":4,"frizz_risk":1,"updated_at":"2026-03-12T04:00:22.220623+05:30"},{"city":"Cuttack","state":"Odisha","latitude":20.4625,"longitude":85.8828,"temp":25.0,"humidity":87,"rain":0.0,"pressure":1005.7,"uv_index":8.4,"wind_gusts":33.5,"aqi":96,"pm10":31.8,"pm2_5":27.6,"mosquito_risk":7,"arthritis_risk":5,"migraine_risk":4,"frizz_risk":1,"updated_at":"2026-03-12T04:00:22.220631+05:30"},{"city":"Rourkela","state":"Odisha","latitude":22.2604,"longitude":84.8536,"temp":23.3,"humidity":82,"rain":0.0,"pressure":986.5,"uv_index":8.0,"wind_gusts":18.4,"aqi":160,"pm10":88.7,"pm2_5":78.2,"mosquito_risk":3,"arthritis_risk":5,"migraine_risk":7,"frizz_risk":1,"updated_at":"2026-03-12T04:00:22.220638+05:30"},{"city":"Raipur","state":"Chhattisgarh","latitude":21.2514,"longitude":81.6296,"temp":21.6,"humidity":49,"rain":0.0,"pressure":975.7,"uv_index":8.1,"wind_gusts":18.0,"aqi":161,"pm10":121.5,"pm2_5":104.3,"mosquito_risk":0,"arthritis_risk":5,"migraine_risk":7,"frizz_risk":0,"updated_at":"2026-03-12T04:00:22.220644+05:30"},{"city":"Bhilai","state":"Chhattisgarh","latitude":21.1938,"longitude":81.3509,"temp":21.6,"humidity":46,"rain":0.0,"pressure":976.2,"uv_index":8.1,"wind_gusts":14.4,"aqi":156,"pm10":95.5,"pm2_5":76.6,"mosquito_risk":0,"arthritis_risk":5,"migraine_risk":7,"frizz_risk":0,"updated_at":"2026-03-12T04:00:22.220651+05:30"},{"city":"Guwahati","state":"Assam","latitude":26.1158,"longitude":91.7086,"temp":24.0,"humidity":85,"rain":0.0,"pressure":1003.1,"uv_index":6.95,"wind_gusts":18.7,"aqi":153,"pm10":62.4,"pm2_5":57.7,"mosquito_risk":3,"arthritis_risk":5,"migraine_risk":4,"frizz_risk":1,"updated_at":"2026-03-12T04:00:22.220657+05:30"},{"city":"Agartala","state":"Tripura","latitude":23.8315,"longitude":91.2868,"temp":22.1,"humidity":92,"rain":0.0,"pressure":1008.2,"uv_index":7.75,"wind_gusts":20.5,"aqi":171,"pm10":72.2,"pm2_5":68.2,"mosquito_risk":3,"arthritis_risk":0,"migraine_risk":4,"frizz_risk":1,"updated_at":"2026-03-12T04:00:22.220664+05:30"},{"city":"Shillong","state":"Meghalaya","latitude":25.5788,"longitude":91.8933,"temp":11.5,"humidity":94,"rain":0.0,"pressure":855.5,"uv_index":7.55,"wind_gusts":27.7,"aqi":116,"pm10":47.7,"pm2_5":42.4,"mosquito_risk":3,"arthritis_risk":10,"migraine_risk":7,"frizz_risk":0,"updated_at":"2026-03-12T04:00:22.220670+05:30"},{"city":"Imphal","state":"Manipur","latitude":24.817,"longitude":93.9368,"temp":16.8,"humidity":90,"rain":0.0,"pressure":924.7,"uv_index":8.0,"wind_gusts":31.0,"aqi":164,"pm10":126.2,"pm2_5":119.2,"mosquito_risk":3,"arthritis_risk":10,"migraine_risk":7,"frizz_risk":0,"updated_at":"2026-03-12T04:00:22.220677+05:30"},{"city":"Aizawl","state":"Mizoram","latitude":23.7271,"longitude":92.7176,"temp":16.5,"humidity":87,"rain":0.0,"pressure":893.3,"uv_index":7.9,"wind_gusts":31.3,"aqi":187,"pm10":171.8,"pm2_5":163.4,"mosquito_risk":3,"arthritis_risk":10,"migraine_risk":7,"frizz_risk":0,"updated_at":"2026-03-12T04:00:22.220684+05:30"},{"city":"Kohima","state":"Nagaland","latitude":25.6701,"longitude":94.1077,"temp":14.2,"humidity":90,"rain":0.0,"pressure":855.4,"uv_index":7.1,"wind_gusts":45.4,"aqi":151,"pm10":58.6,"pm2_5":54.1,"mosquito_risk":3,"arthritis_risk":10,"migraine_risk":7,"frizz_risk":0,"updated_at":"2026-03-12T04:00:22.220690+05:30"},{"city":"Gangtok","state":"Sikkim","latitude":27.3314,"longitude":88.6138,"temp":13.6,"humidity":76,"rain":0.0,"pressure":836.5,"uv_index":7.4,"wind_gusts":23.0,"aqi":122,"pm10":58.9,"pm2_5":53.9,"mosquito_risk":3,"arthritis_risk":5,"migraine_risk":7,"frizz_risk":0,"updated_at":"2026-03-12T04:00:22.220697+05:30"},{"city":"Siliguri","state":"West Bengal","latitude":26.7271,"longitude":88.3953,"temp":19.8,"humidity":77,"rain":0.0,"pressure":995.7,"uv_index":7.15,"wind_gusts":20.5,"aqi":175,"pm10":133.2,"pm2_5":120.6,"mosquito_risk":3,"arthritis_risk":5,"migraine_risk":7,"frizz_risk":0,"updated_at":"2026-03-12T04:00:25.537145+05:30"},{"city":"Durgapur","state":"West Bengal","latitude":23.5204,"longitude":87.3119,"temp":22.9,"humidity":86,"rain":0.0,"pressure":996.5,"uv_index":7.65,"wind_gusts":28.4,"aqi":179,"pm10":138.8,"pm2_5":128.1,"mosquito_risk":3,"arthritis_risk":5,"migraine_risk":7,"frizz_risk":1,"updated_at":"2026-03-12T04:00:25.537176+05:30"},{"city":"Asansol","state":"West Bengal","latitude":23.6739,"longitude":86.9524,"temp":23.4,"humidity":87,"rain":0.0,"pressure":994.9,"uv_index":7.65,"wind_gusts":27.7,"aqi":180,"pm10":150.4,"pm2_5":136.4,"mosquito_risk":3,"arthritis_risk":5,"migraine_risk":7,"frizz_risk":1,"updated_at":"2026-03-12T04:00:25.537186+05:30"},{"city":"Pondicherry","state":"Puducherry","latitude":11.9139,"longitude":79.8145,"temp":24.1,"humidity":96,"rain":0.0,"pressure":1010.0,"uv_index":9.0,"wind_gusts":27.7,"aqi":63,"pm10":27.9,"pm2_5":22.8,"mosquito_risk":3,"arthritis_risk":0,"migraine_risk":4,"frizz_risk":1,"updated_at":"2026-03-12T04:00:25.537194+05:30"},{"city":"Port Blair","state":"Andaman and Nicobar Islands","latitude":11.6234,"longitude":92.7265,"temp":27.0,"humidity":83,"rain":0.0,"pressure":1007.8,"uv_index":8.95,"wind_gusts":22.0,"aqi":52,"pm10":11.5,"pm2_5":9.1,"mosquito_risk":7,"arthritis_risk":5,"migraine_risk":4,"frizz_risk":1,"updated_at":"2026-03-12T04:00:25.537201+05:30"},{"city":"Haridwar","state":"Uttarakhand","latitude":29.9457,"longitude":78.1642,"temp":19.0,"humidity":83,"rain":0.0,"pressure":974.5,"uv_index":5.45,"wind_gusts":24.5,"aqi":127,"pm10":47.7,"pm2_5":41.4,"mosquito_risk":3,"arthritis_risk":10,"migraine_risk":3,"frizz_risk":0,"updated_at":"2026-03-12T04:00:25.537209+05:30"},{"city":"Rishikesh","state":"Uttarakhand","latitude":30.0869,"longitude":78.2676,"temp":19.5,"humidity":74,"rain":0.0,"pressure":967.3,"uv_index":5.1,"wind_gusts":19.4,"aqi":108,"pm10":34.5,"pm2_5":27.9,"mosquito_risk":3,"arthritis_risk":5,"migraine_risk":3,"frizz_risk":0,"updated_at":"2026-03-12T04:00:25.537217+05:30"},{"city":"Nainital","state":"Uttarakhand","latitude":29.3919,"longitude":79.4542,"temp":19.2,"humidity":47,"rain":0.0,"pressure":806.2,"uv_index":5.95,"wind_gusts":55.1,"aqi":138,"pm10":39.0,"pm2_5":27.4,"mosquito_risk":0,"arthritis_risk":5,"migraine_risk":3,"frizz_risk":0,"updated_at":"2026-03-12T04:00:25.537224+05:30"},{"city":"Mussoorie","state":"Uttarakhand","latitude":30.4599,"longitude":78.0664,"temp":16.9,"humidity":45,"rain":0.0,"pressure":802.9,"uv_index":5.0,"wind_gusts":38.9,"aqi":98,"pm10":33.3,"pm2_5":29.7,"mosquito_risk":0,"arthritis_risk":5,"migraine_risk":3,"frizz_risk":0,"updated_at":"2026-03-12T04:00:25.537231+05:30"},{"city":"Dharamshala","state":"Himachal Pradesh","latitude":32.219,"longitude":76.3234,"temp":20.4,"humidity":37,"rain":0.0,"pressure":870.2,"uv_index":5.95,"wind_gusts":27.7,"aqi":59,"pm10":15.8,"pm2_5":8.3,"mosquito_risk":0,"arthritis_risk":5,"migraine_risk":3,"frizz_risk":0,"updated_at":"2026-03-12T04:00:25.537239+05:30"},{"city":"Dalhousie","state":"Himachal Pradesh","latitude":32.5387,"longitude":75.971,"temp":17.0,"humidity":39,"rain":0.0,"pressure":804.8,"uv_index":6.05,"wind_gusts":31.3,"aqi":88,"pm10":22.1,"pm2_5":18.1,"mosquito_risk":0,"arthritis_risk":5,"migraine_risk":7,"frizz_risk":0,"updated_at":"2026-03-12T04:00:25.537247+05:30"},{"city":"Patiala","state":"Punjab","latitude":30.3398,"longitude":76.3869,"temp":21.1,"humidity":62,"rain":0.0,"pressure":978.6,"uv_index":5.75,"wind_gusts":32.0,"aqi":162,"pm10":141.6,"pm2_5":83.4,"mosquito_risk":3,"arthritis_risk":5,"migraine_risk":3,"frizz_risk":0,"updated_at":"2026-03-12T04:00:25.537254+05:30"},{"city":"Bhatinda","state":"Punjab","latitude":30.211,"longitude":74.9455,"temp":21.2,"humidity":75,"rain":0.0,"pressure":984.3,"uv_index":6.6,"wind_gusts":33.1,"aqi":151,"pm10":109.9,"pm2_5":89.9,"mosquito_risk":3,"arthritis_risk":5,"migraine_risk":7,"frizz_risk":1,"updated_at":"2026-03-12T04:00:25.537260+05:30"},{"city":"Rohtak","state":"Haryana","latitude":28.8955,"longitude":76.6066,"temp":18.1,"humidity":78,"rain":0.0,"pressure":982.4,"uv_index":5.75,"wind_gusts":22.7,"aqi":256,"pm10":370.7,"pm2_5":109.2,"mosquito_risk":3,"arthritis_risk":5,"migraine_risk":3,"frizz_risk":0,"updated_at":"2026-03-12T04:00:25.537267+05:30"},{"city":"Panipat","state":"Haryana","latitude":29.3909,"longitude":76.9635,"temp":17.8,"humidity":79,"rain":0.0,"pressure":980.8,"uv_index":5.85,"wind_gusts":24.5,"aqi":356,"pm10":252.4,"pm2_5":90.8,"mosquito_risk":3,"arthritis_risk":5,"migraine_risk":3,"frizz_risk":0,"updated_at":"2026-03-12T04:00:25.537274+05:30"},{"city":"Mathura","state":"Uttar Pradesh","latitude":27.4924,"longitude":77.6737,"temp":19.8,"humidity":66,"rain":0.0,"pressure":987.6,"uv_index":5.7,"wind_gusts":26.3,"aqi":398,"pm10":385.6,"pm2_5":99.4,"mosquito_risk":3,"arthritis_risk":5,"migraine_risk":3,"frizz_risk":0,"updated_at":"2026-03-12T04:00:25.537280+05:30"},{"city":"Vrindavan","state":"Uttar Pradesh","latitude":27.5823,"longitude":77.7027,"temp":18.2,"humidity":74,"rain":0.0,"pressure":988.1,"uv_index":5.45,"wind_gusts":28.1,"aqi":398,"pm10":385.6,"pm2_5":99.4,"mosquito_risk":3,"arthritis_risk":5,"migraine_risk":3,"frizz_risk":0,"updated_at":"2026-03-12T04:00:25.537287+05:30"},{"city":"Ayodhya","state":"Uttar Pradesh","latitude":26.7922,"longitude":82.1998,"temp":20.6,"humidity":87,"rain":0.0,"pressure":995.9,"uv_index":6.65,"wind_gusts":25.2,"aqi":175,"pm10":164.8,"pm2_5":79.2,"mosquito_risk":3,"arthritis_risk":5,"migraine_risk":7,"frizz_risk":1,"updated_at":"2026-03-12T04:00:25.537293+05:30"},{"city":"Ratlam","state":"Madhya Pradesh","latitude":23.3315,"longitude":75.0367,"temp":23.4,"humidity":38,"rain":0.0,"pressure":955.5,"uv_index":7.6,"wind_gusts":29.9,"aqi":77,"pm10":51.0,"pm2_5":41.4,"mosquito_risk":0,"arthritis_risk":5,"migraine_risk":7,"frizz_risk":0,"updated_at":"2026-03-12T04:00:25.537300+05:30"},{"city":"Sagar","state":"Madhya Pradesh","latitude":23.8388,"longitude":78.7378,"temp":21.7,"humidity":42,"rain":0.0,"pressure":951.2,"uv_index":7.6,"wind_gusts":26.6,"aqi":73,"pm10":40.3,"pm2_5":19.3,"mosquito_risk":0,"arthritis_risk":5,"migraine_risk":7,"frizz_risk":0,"updated_at":"2026-03-12T04:00:25.537306+05:30"},{"city":"Satna","state":"Madhya Pradesh","latitude":24.6005,"longitude":80.8322,"temp":21.5,"humidity":54,"rain":0.0,"pressure":972.4,"uv_index":7.55,"wind_gusts":31.0,"aqi":117,"pm10":49.9,"pm2_5":24.3,"mosquito_risk":0,"arthritis_risk":5,"migraine_risk":7,"frizz_risk":0,"updated_at":"2026-03-12T04:00:25.537313+05:30"},{"city":"Akola","state":"Maharashtra","latitude":20.7002,"longitude":77.0082,"temp":23.5,"humidity":54,"rain":0.0,"pressure":976.0,"uv_index":8.05,"wind_gusts":20.5,"aqi":93,"pm10":53.9,"pm2_5":43.4,"mosquito_risk":0,"arthritis_risk":5,"migraine_risk":7,"frizz_risk":0,"updated_at":"2026-03-12T04:00:25.537320+05:30"},{"city":"Amravati","state":"Maharashtra","latitude":20.9374,"longitude":77.7796,"temp":21.2,"humidity":68,"rain":0.0,"pressure":968.0,"uv_index":8.0,"wind_gusts":16.6,"aqi":92,"pm10":56.7,"pm2_5":45.2,"mosquito_risk":3,"arthritis_risk":5,"migraine_risk":7,"frizz_risk":0,"updated_at":"2026-03-12T04:00:25.537327+05:30"},{"city":"Latur","state":"Maharashtra","latitude":18.4088,"longitude":76.5604,"temp":22.4,"humidity":56,"rain":0.0,"pressure":940.5,"uv_index":8.45,"wind_gusts":18.4,"aqi":99,"pm10":37.7,"pm2_5":32.2,"mosquito_risk":0,"arthritis_risk":5,"migraine_risk":7,"frizz_risk":0,"updated_at":"2026-03-12T04:00:25.537334+05:30"},{"city":"Nanded","state":"Maharashtra","latitude":19.1383,"longitude":77.3091,"temp":22.9,"humidity":66,"rain":0.0,"pressure":969.5,"uv_index":8.25,"wind_gusts":17.6,"aqi":110,"pm10":39.9,"pm2_5":35.4,"mosquito_risk":3,"arthritis_risk":5,"migraine_risk":7,"frizz_risk":1,"updated_at":"2026-03-12T04:00:25.537340+05:30"},{"city":"Gulbarga","state":"Karnataka","latitude":17.3297,"longitude":76.8343,"temp":25.5,"humidity":54,"rain":0.0,"pressure":960.1,"uv_index":8.55,"wind_gusts":22.0,"aqi":89,"pm10":57.3,"pm2_5":47.1,"mosquito_risk":4,"arthritis_risk":5,"migraine_risk":7,"frizz_risk":0,"updated_at":"2026-03-12T04:00:25.537365+05:30"},{"city":"Bidar","state":"Karnataka","latitude":17.9104,"longitude":77.5199,"temp":23.3,"humidity":55,"rain":0.0,"pressure":936.5,"uv_index":8.5,"wind_gusts":23.8,"aqi":98,"pm10":47.1,"pm2_5":39.7,"mosquito_risk":0,"arthritis_risk":5,"migraine_risk":7,"frizz_risk":0,"updated_at":"2026-03-12T04:00:25.537374+05:30"},{"city":"Hospet","state":"Karnataka","latitude":15.2689,"longitude":76.3909,"temp":24.9,"humidity":60,"rain":0.0,"pressure":956.7,"uv_index":8.85,"wind_gusts":32.4,"aqi":62,"pm10":43.9,"pm2_5":37.1,"mosquito_risk":0,"arthritis_risk":5,"migraine_risk":7,"frizz_risk":1,"updated_at":"2026-03-12T04:00:25.537381+05:30"},{"city":"Tirupur","state":"Tamil Nadu","latitude":11.1085,"longitude":77.3411,"temp":24.5,"humidity":82,"rain":0.0,"pressure":976.6,"uv_index":9.3,"wind_gusts":32.8,"aqi":82,"pm10":28.6,"pm2_5":27.4,"mosquito_risk":3,"arthritis_risk":5,"migraine_risk":7,"frizz_risk":1,"updated_at":"2026-03-12T04:00:25.537388+05:30"},{"city":"Alappuzha","state":"Kerala","latitude":9.4981,"longitude":76.3388,"temp":26.1,"humidity":88,"rain":0.0,"pressure":1009.4,"uv_index":9.0,"wind_gusts":30.2,"aqi":96,"pm10":30.5,"pm2_5":28.1,"mosquito_risk":7,"arthritis_risk":0,"migraine_risk":4,"frizz_risk":1,"updated_at":"2026-03-12T04:00:25.537394+05:30"},{"city":"Munnar","state":"Kerala","latitude":10.0889,"longitude":77.0595,"temp":18.3,"humidity":77,"rain":0.0,"pressure":855.7,"uv_index":9.55,"wind_gusts":21.2,"aqi":67,"pm10":27.9,"pm2_5":26.9,"mosquito_risk":3,"arthritis_risk":5,"migraine_risk":7,"frizz_risk":0,"updated_at":"2026-03-12T04:00:25.537401+05:30"},{"city":"Silchar","state":"Assam","latitude":24.8333,"longitude":92.7789,"temp":21.7,"humidity":92,"rain":0.0,"pressure":1007.9,"uv_index":7.7,"wind_gusts":23.8,"aqi":179,"pm10":151.3,"pm2_5":142.0,"mosquito_risk":3,"arthritis_risk":5,"migraine_risk":4,"frizz_risk":1,"updated_at":"2026-03-12T04:00:25.537407+05:30"},{"city":"Dibrugarh","state":"Assam","latitude":27.4728,"longitude":94.912,"temp":21.5,"humidity":91,"rain":0.0,"pressure":999.1,"uv_index":7.45,"wind_gusts":20.2,"aqi":156,"pm10":49.9,"pm2_5":46.1,"mosquito_risk":3,"arthritis_risk":5,"migraine_risk":7,"frizz_risk":1,"updated_at":"2026-03-12T04:00:25.537413+05:30"}]