[{"city":"Delhi","state":"Delhi","latitude":28.6139,"longitude":77.209,"temp":30.5,"humidity":37,"rain":0.0,"pressure":985.4,"uv_index":5.95,"wind_gusts":24.1,"aqi":187,"pm10":206.3,"pm2_5":50.9,"mosquito_risk":0,"arthritis_risk":5,"migraine_risk":3,"frizz_risk":0,"updated_at":"2026-03-18T14:25:13.210588+05:30"},{"city":"Mumbai","state":"Maharashtra","latitude":19.076,"longitude":72.8777,"temp":26.8,"humidity":74,"rain":0.0,"pressure":1008.8,"uv_index":7.7,"wind_gusts":22.3,"aqi":79,"pm10":58.6,"pm2_5":40.9,"mosquito_risk":7,"arthritis_risk":0,"migraine_risk":4,"frizz_risk":1,"updated_at":"2026-03-18T14:25:13.210635+05:30"},{"city":"Bangalore","state":"Karnataka","latitude":12.9716,"longitude":77.5946,"temp":30.6,"humidity":33,"rain":0.0,"pressure":912.4,"uv_index":9.35,"wind_gusts":27.7,"aqi":102,"pm10":36.8,"pm2_5":30.9,"mosquito_risk":0,"arthritis_risk":5,"migraine_risk":7,"frizz_risk":0,"updated_at":"2026-03-18T14:25:13.210652+05:30"},{"city":"Hyderabad","state":"Telangana","latitude":17.385,"longitude":78.4867,"temp":31.0,"humidity":29,"rain":0.0,"pressure":954.6,"uv_index":7.45,"wind_gusts":29.5,"aqi":77,"pm10":31.2,"pm2_5":23.9,"mosquito_risk":0,"arthritis_risk":5,"migraine_risk":7,"frizz_risk":0,"updated_at":"2026-03-18T14:25:13.210664+05:30"},{"city":"Chennai","state":"Tamil Nadu","latitude":13.0827,"longitude":80.2707,"temp":31.6,"humidity":56,"rain":0.0,"pressure":1008.7,"uv_index":9.1,"wind_gusts":32.0,"aqi":38,"pm10":11.1,"pm2_5":7.5,"mosquito_risk":0,"arthritis_risk":0,"migraine_risk":4,"frizz_risk":1,"updated_at":"2026-03-18T14:25:13.210674+05:30"},{"city":"Kolkata","state":"West Bengal","latitude":22.5726,"longitude":88.3639,"temp":28.0,"humidity":66,"rain":0.0,"pressure":1008.2,"uv_index":7.85,"wind_gusts":34.9,"aqi":57,"pm10":45.8,"pm2_5":36.3,"mosquito_risk":7,"arthritis_risk":0,"migraine_risk":4,"frizz_risk":1,"updated_at":"2026-03-18T14:25:13.210684+05:30"},{"city":"Pune","state":"Maharashtra","latitude":18.5204,"longitude":73.8567,"temp":35.1,"humidity":20,"rain":0.0,"pressure":947.9,"uv_index":8.25,"wind_gusts":41.8,"aqi":103,"pm10":34.6,"pm2_5":25.4,"mosquito_risk":0,"arthritis_risk":5,"migraine_risk":10,"frizz_risk":0,"updated_at":"2026-03-18T14:25:13.210697+05:30"},{"city":"Ahmedabad","state":"Gujarat","latitude":23.0225,"longitude":72.5714,"temp":35.7,"humidity":28,"rain":0.0,"pressure":1002.4,"uv_index":7.55,"wind_gusts":23.0,"aqi":73,"pm10":32.2,"pm2_5":12.3,"mosquito_risk":0,"arthritis_risk":5,"migraine_risk":7,"frizz_risk":0,"updated_at":"2026-03-18T14:25:13.210705+05:30"},{"city":"Jaipur","state":"Rajasthan","latitude":26.9124,"longitude":75.7873,"temp":33.0,"humidity":24,"rain":0.0,"pressure":961.1,"uv_index":7.0,"wind_gusts":30.2,"aqi":182,"pm10":178.3,"pm2_5":34.3,"mosquito_risk":0,"arthritis_risk":5,"migraine_risk":7,"frizz_risk":0,"updated_at":"2026-03-18T14:25:13.210713+05:30"},{"city":"Lucknow","state":"Uttar Pradesh","latitude":26.8467,"longitude":80.9462,"temp":33.9,"humidity":26,"rain":0.0,"pressure":995.2,"uv_index":6.5,"wind_gusts":23.4,"aqi":93,"pm10":62.9,"pm2_5":20.4,"mosquito_risk":0,"arthritis_risk":5,"migraine_risk":7,"frizz_risk":0,"updated_at":"2026-03-18T14:25:13.210722+05:30"},{"city":"Kanpur","state":"Uttar Pradesh","latitude":26.4499,"longitude":80.3319,"temp":34.6,"humidity":25,"rain":0.0,"pressure":993.0,"uv_index":6.6,"wind_gusts":23.8,"aqi":97,"pm10":85.9,"pm2_5":22.5,"mosquito_risk":0,"arthritis_risk":5,"migraine_risk":7,"frizz_risk":0,"updated_at":"2026-03-18T14:25:13.210729+05:30"},{"city":"Chandigarh","state":"Chandigarh","latitude":30.7333,"longitude":76.7794,"temp":25.2,"humidity":54,"rain":0.0,"pressure":973.0,"uv_index":5.4,"wind_gusts":27.4,"aqi":94,"pm10":56.1,"pm2_5":17.6,"mosquito_risk":4,"arthritis_risk":5,"migraine_risk":3,"frizz_risk":0,"updated_at":"2026-03-18T14:25:13.210737+05:30"},{"city":"Srinagar","state":"Jammu and Kashmir","latitude":34.0837,"longitude":74.7973,"temp":9.0,"humidity":73,"rain":0.0,"pressure":842.5,"uv_index":4.45,"wind_gusts":23.4,"aqi":144,"pm10":59.5,"pm2_5":31.3,"mosquito_risk":3,"arthritis_risk":5,"migraine_risk":3,"frizz_risk":0,"updated_at":"2026-03-18T14:25:13.210745+05:30"},{"city":"Jammu","state":"Jammu and Kashmir","latitude":32.7266,"longitude":74.857,"temp":21.9,"humidity":73,"rain":0.0,"pressure":977.1,"uv_index":2.7,"wind_gusts":19.8,"aqi":94,"pm10":56.2,"pm2_5":22.0,"mosquito_risk":3,"arthritis_risk":5,"migraine_risk":3,"frizz_risk":1,"updated_at":"2026-03-18T14:25:13.210752+05:30"},{"city":"Amritsar","state":"Punjab","latitude":31.634,"longitude":74.8723,"temp":21.4,"humidity":60,"rain":0.0,"pressure":985.6,"uv_index":3.95,"wind_gusts":22.3,"aqi":126,"pm10":102.7,"pm2_5":32.4,"mosquito_risk":0,"arthritis_risk":5,"migraine_risk":3,"frizz_risk":0,"updated_at":"2026-03-18T14:25:13.210760+05:30"},{"city":"Ludhiana","state":"Punjab","latitude":30.901,"longitude":75.8573,"temp":21.9,"humidity":56,"rain":0.0,"pressure":983.5,"uv_index":5.65,"wind_gusts":29.5,"aqi":139,"pm10":82.0,"pm2_5":41.7,"mosquito_risk":0,"arthritis_risk":5,"migraine_risk":3,"frizz_risk":0,"updated_at":"2026-03-18T14:25:13.210767+05:30"},{"city":"Jalandhar","state":"Punjab","latitude":31.326,"longitude":75.5762,"temp":19.3,"humidity":66,"rain":0.1,"pressure":984.7,"uv_index":5.4,"wind_gusts":32.0,"aqi":129,"pm10":80.8,"pm2_5":31.0,"mosquito_risk":6,"arthritis_risk":5,"migraine_risk":3,"frizz_risk":0,"updated_at":"2026-03-18T14:25:13.210777+05:30"},{"city":"Dehradun","state":"Uttarakhand","latitude":30.6284,"longitude":78.0322,"temp":16.9,"humidity":43,"rain":0.0,"pressure":832.4,"uv_index":5.3,"wind_gusts":25.9,"aqi":51,"pm10":49.4,"pm2_5":9.3,"mosquito_risk":0,"arthritis_risk":5,"migraine_risk":3,"frizz_risk":0,"updated_at":"2026-03-18T14:25:13.210785+05:30"},{"city":"Shimla","state":"Himachal Pradesh","latitude":31.1048,"longitude":77.1734,"temp":13.9,"humidity":59,"rain":0.0,"pressure":786.4,"uv_index":4.9,"wind_gusts":36.4,"aqi":62,"pm10":34.7,"pm2_5":7.9,"mosquito_risk":0,"arthritis_risk":5,"migraine_risk":3,"frizz_risk":0,"updated_at":"2026-03-18T14:25:13.210792+05:30"},{"city":"Manali","state":"Himachal Pradesh","latitude":32.2396,"longitude":77.1887,"temp":11.0,"humidity":87,"rain":0.0,"pressure":820.4,"uv_index":6.45,"wind_gusts":25.9,"aqi":45,"pm10":22.4,"pm2_5":6.6,"mosquito_risk":3,"arthritis_risk":10,"migraine_risk":7,"frizz_risk":0,"updated_at":"2026-03-18T14:25:13.210800+05:30"},{"city":"Gurgaon","state":"Haryana","latitude":28.4595,"longitude":77.0266,"temp":30.8,"humidity":39,"rain":0.0,"pressure":983.7,"uv_index":6.25,"wind_gusts":23.4,"aqi":604,"pm10":657.5,"pm2_5":98.5,"mosquito_risk":0,"arthritis_risk":5,"migraine_risk":7,"frizz_risk":0,"updated_at":"2026-03-18T14:25:13.210808+05:30"},{"city":"Noida","state":"Uttar Pradesh","latitude":28.5355,"longitude":77.391,"temp":30.6,"humidity":38,"rain":0.0,"pressure":987.0,"uv_index":6.2,"wind_gusts":23.8,"aqi":604,"pm10":657.5,"pm2_5":98.5,"mosquito_risk":0,"arthritis_risk":5,"migraine_risk":7,"frizz_risk":0,"updated_at":"2026-03-18T14:25:13.210816+05:30"},{"city":"Ghaziabad","state":"Uttar Pradesh","latitude":28.6692,"longitude":77.4538,"temp":29.9,"humidity":41,"rain":0.0,"pressure":985.3,"uv_index":6.1,"wind_gusts":19.8,"aqi":153,"pm10":150.9,"pm2_5":43.1,"mosquito_risk":4,"arthritis_risk":5,"migraine_risk":7,"frizz_risk":0,"updated_at":"2026-03-18T14:25:13.210823+05:30"},{"city":"Faridabad","state":"Haryana","latitude":28.4089,"longitude":77.3178,"temp":31.7,"humidity":34,"rain":0.0,"pressure":986.0,"uv_index":6.25,"wind_gusts":26.6,"aqi":604,"pm10":657.5,"pm2_5":98.5,"mosquito_risk":0,"arthritis_risk":5,"migraine_risk":7,"frizz_risk":0,"updated_at":"2026-03-18T14:25:13.210829+05:30"},{"city":"Meerut","state":"Uttar Pradesh","latitude":28.9845,"longitude":77.7064,"temp":29.8,"humidity":34,"rain":0.0,"pressure":984.2,"uv_index":5.5,"wind_gusts":18.7,"aqi":153,"pm10":150.9,"pm2_5":43.1,"mosquito_risk":4,"arthritis_risk":5,"migraine_risk":3,"frizz_risk":0,"updated_at":"2026-03-18T14:25:13.210837+05:30"},{"city":"Agra","state":"Uttar Pradesh","latitude":27.1767,"longitude":78.0081,"temp":33.7,"humidity":29,"rain":0.0,"pressure":989.4,"uv_index":6.55,"wind_gusts":29.9,"aqi":379,"pm10":274.7,"pm2_5":46.1,"mosquito_risk":0,"arthritis_risk":5,"migraine_risk":7,"frizz_risk":0,"updated_at":"2026-03-18T14:25:13.210843+05:30"},{"city":"Varanasi","state":"Uttar Pradesh","latitude":25.3176,"longitude":82.9739,"temp":35.0,"humidity":29,"rain":0.0,"pressure":997.6,"uv_index":6.65,"wind_gusts":28.4,"aqi":97,"pm10":50.9,"pm2_5":32.8,"mosquito_risk":0,"arthritis_risk":5,"migraine_risk":7,"frizz_risk":0,"updated_at":"2026-03-18T14:25:13.210853+05:30"},{"city":"Prayagraj","state":"Uttar Pradesh","latitude":25.4358,"longitude":81.8463,"temp":34.3,"humidity":33,"rain":0.0,"pressure":996.2,"uv_index":6.55,"wind_gusts":23.8,"aqi":102,"pm10":49.8,"pm2_5":24.7,"mosquito_risk":0,"arthritis_risk":5,"migraine_risk":7,"frizz_risk":0,"updated_at":"2026-03-18T14:25:13.210861+05:30"},{"city":"Gorakhpur","state":"Uttar Pradesh","latitude":26.7606,"longitude":83.3732,"temp":32.8,"humidity":38,"rain":0.0,"pressure":998.6,"uv_index":6.4,"wind_gusts":22.7,"aqi":113,"pm10":51.7,"pm2_5":18.2,"mosquito_risk":0,"arthritis_risk":5,"migraine_risk":7,"frizz_risk":1,"updated_at":"2026-03-18T14:25:13.210868+05:30"},{"city":"Bareilly","state":"Uttar Pradesh","latitude":28.367,"longitude":79.4304,"temp":31.3,"humidity":34,"rain":0.0,"pressure":989.5,"uv_index":6.35,"wind_gusts":20.9,"aqi":115,"pm10":61.0,"pm2_5":26.1,"mosquito_risk":0,"arthritis_risk":5,"migraine_risk":7,"frizz_risk":0,"updated_at":"2026-03-18T14:25:13.210878+05:30"},{"city":"Aligarh","state":"Uttar Pradesh","latitude":27.8974,"longitude":78.088,"temp":32.8,"humidity":29,"rain":0.0,"pressure":987.7,"uv_index":6.35,"wind_gusts":23.4,"aqi":155,"pm10":121.1,"pm2_5":37.8,"mosquito_risk":0,"arthritis_risk":5,"migraine_risk":7,"frizz_risk":0,"updated_at":"2026-03-18T14:25:13.210885+05:30"},{"city":"Moradabad","state":"Uttar Pradesh","latitude":28.8386,"longitude":78.7733,"temp":30.5,"humidity":35,"rain":0.0,"pressure":986.4,"uv_index":6.05,"wind_gusts":17.3,"aqi":150,"pm10":50.5,"pm2_5":32.5,"mosquito_risk":0,"arthritis_risk":5,"migraine_risk":7,"frizz_risk":0,"updated_at":"2026-03-18T14:25:13.210892+05:30"},{"city":"Saharanpur","state":"Uttar Pradesh","latitude":29.9637,"longitude":77.546,"temp":27.5,"humidity":37,"rain":0.0,"pressure":979.2,"uv_index":5.45,"wind_gusts":25.6,"aqi":128,"pm10":74.5,"pm2_5":29.8,"mosquito_risk":4,"arthritis_risk":5,"migraine_risk":3,"frizz_risk":0,"updated_at":"2026-03-18T14:25:13.210899+05:30"},{"city":"Jhansi","state":"Uttar Pradesh","latitude":25.4484,"longitude":78.5685,"temp":35.9,"humidity":18,"rain":0.0,"pressure":978.4,"uv_index":7.2,"wind_gusts":35.3,"aqi":77,"pm10":52.7,"pm2_5":23.8,"mosquito_risk":0,"arthritis_risk":5,"migraine_risk":10,"frizz_risk":0,"updated_at":"2026-03-18T14:25:16.424466+05:30"},{"city":"Surat","state":"Gujarat","latitude":21.1702,"longitude":72.8311,"temp":29.1,"humidity":58,"rain":0.0,"pressure":1007.9,"uv_index":7.4,"wind_gusts":28.1,"aqi":84,"pm10":46.4,"pm2_5":28.6,"mosquito_risk":4,"arthritis_risk":5,"migraine_risk":4,"frizz_risk":1,"updated_at":"2026-03-18T14:25:16.424500+05:30"},{"city":"Vadodara","state":"Gujarat","latitude":22.3072,"longitude":73.1812,"temp":36.0,"humidity":30,"rain":0.0,"pressure":1004.7,"uv_index":7.55,"wind_gusts":26.3,"aqi":68,"pm10":31.7,"pm2_5":16.9,"mosquito_risk":0,"arthritis_risk":5,"migraine_risk":7,"frizz_risk":0,"updated_at":"2026-03-18T14:25:16.424511+05:30"},{"city":"Rajkot","state":"Gujarat","latitude":22.3039,"longitude":70.8022,"temp":36.0,"humidity":21,"rain":0.0,"pressure":994.3,"uv_index":7.05,"wind_gusts":42.1,"aqi":45,"pm10":17.3,"pm2_5":7.3,"mosquito_risk":0,"arthritis_risk":5,"migraine_risk":10,"frizz_risk":0,"updated_at":"2026-03-18T14:25:16.424520+05:30"},{"city":"Thane","state":"Maharashtra","latitude":19.2183,"longitude":72.9781,"temp":30.2,"humidity":53,"rain":0.0,"pressure":1008.4,"uv_index":7.7,"wind_gusts":34.9,"aqi":79,"pm10":58.6,"pm2_5":40.9,"mosquito_risk":0,"arthritis_risk":0,"migraine_risk":4,"frizz_risk":1,"updated_at":"2026-03-18T14:25:16.424527+05:30"},{"city":"Nagpur","state":"Maharashtra","latitude":21.1458,"longitude":79.0882,"temp":31.9,"humidity":36,"rain":0.0,"pressure":974.5,"uv_index":5.55,"wind_gusts":40.7,"aqi":86,"pm10":46.1,"pm2_5":38.8,"mosquito_risk":0,"arthritis_risk":5,"migraine_risk":3,"frizz_risk":0,"updated_at":"2026-03-18T14:25:16.424534+05:30"},{"city":"Nashik","state":"Maharashtra","latitude":19.9975,"longitude":73.7898,"temp":31.8,"humidity":31,"rain":0.0,"pressure":946.0,"uv_index":7.95,"wind_gusts":24.5,"aqi":61,"pm10":25.3,"pm2_5":18.1,"mosquito_risk":0,"arthritis_risk":5,"migraine_risk":7,"frizz_risk":0,"updated_at":"2026-03-18T14:25:16.424542+05:30"},{"city":"Aurangabad","state":"Maharashtra","latitude":19.8762,"longitude":75.3433,"temp":34.6,"humidity":19,"rain":0.0,"pressure":944.1,"uv_index":8.45,"wind_gusts":31.7,"aqi":64,"pm10":24.9,"pm2_5":19.1,"mosquito_risk":0,"arthritis_risk":5,"migraine_risk":7,"frizz_risk":0,"updated_at":"2026-03-18T14:25:16.424550+05:30"},{"city":"Solapur","state":"Maharashtra","latitude":17.6599,"longitude":75.9064,"temp":30.9,"humidity":38,"rain":0.0,"pressure":958.1,"uv_index":8.6,"wind_gusts":35.6,"aqi":103,"pm10":37.1,"pm2_5":30.7,"mosquito_risk":0,"arthritis_risk":5,"migraine_risk":7,"frizz_risk":0,"updated_at":"2026-03-18T14:25:16.424558+05:30"},{"city":"Kolhapur","state":"Maharashtra","latitude":16.705,"longitude":74.2433,"temp":32.1,"humidity":30,"rain":0.0,"pressure":948.0,"uv_index":8.75,"wind_gusts":37.4,"aqi":114,"pm10":42.4,"pm2_5":33.3,"mosquito_risk":0,"arthritis_risk":5,"migraine_risk":7,"frizz_risk":0,"updated_at":"2026-03-18T14:25:16.424565+05:30"},{"city":"Goa","state":"Goa","latitude":15.2993,"longitude":74.124,"temp":31.7,"humidity":56,"rain":0.0,"pressure":998.2,"uv_index":8.6,"wind_gusts":26.6,"aqi":83,"pm10":52.7,"pm2_5":23.5,"mosquito_risk":0,"arthritis_risk":5,"migraine_risk":7,"frizz_risk":1,"updated_at":"2026-03-18T14:25:16.424572+05:30"},{"city":"Jodhpur","state":"Rajasthan","latitude":26.2389,"longitude":73.0243,"temp":34.1,"humidity":26,"rain":0.0,"pressure":983.6,"uv_index":7.05,"wind_gusts":43.2,"aqi":72,"pm10":74.7,"pm2_5":13.8,"mosquito_risk":0,"arthritis_risk":5,"migraine_risk":7,"frizz_risk":0,"updated_at":"2026-03-18T14:25:16.424579+05:30"},{"city":"Udaipur","state":"Rajasthan","latitude":24.5854,"longitude":73.7125,"temp":31.8,"humidity":21,"rain":0.0,"pressure":947.2,"uv_index":7.95,"wind_gusts":28.4,"aqi":43,"pm10":19.7,"pm2_5":5.7,"mosquito_risk":0,"arthritis_risk":5,"migraine_risk":7,"frizz_risk":0,"updated_at":"2026-03-18T14:25:16.424586+05:30"},{"city":"Kota","state":"Rajasthan","latitude":25.2138,"longitude":75.8648,"temp":35.4,"humidity":18,"rain":0.0,"pressure":979.1,"uv_index":7.35,"wind_gusts":22.3,"aqi":86,"pm10":51.8,"pm2_5":22.4,"mosquito_risk":0,"arthritis_risk":5,"migraine_risk":10,"frizz_risk":0,"updated_at":"2026-03-18T14:25:16.424594+05:30"},{"city":"Bikaner","state":"Rajasthan","latitude":28.0229,"longitude":73.3119,"temp":27.4,"humidity":40,"rain":0.0,"pressure":983.6,"uv_index":5.6,"wind_gusts":37.8,"aqi":64,"pm10":100.6,"pm2_5":27.2,"mosquito_risk":4,"arthritis_risk":5,"migraine_risk":3,"frizz_risk":0,"updated_at":"2026-03-18T14:25:16.424600+05:30"},{"city":"Ajmer","state":"Rajasthan","latitude":26.4499,"longitude":74.6399,"temp":32.4,"humidity":24,"rain":0.0,"pressure":955.6,"uv_index":7.15,"wind_gusts":37.8,"aqi":94,"pm10":81.0,"pm2_5":21.7,"mosquito_risk":0,"arthritis_risk":5,"migraine_risk":7,"frizz_risk":0,"updated_at":"2026-03-18T14:25:16.424607+05:30"},{"city":"Gwalior","state":"Madhya Pradesh","latitude":26.2183,"longitude":78.1828,"temp":33.5,"humidity":26,"rain":0.0,"pressure":984.3,"uv_index":6.9,"wind_gusts":27.0,"aqi":134,"pm10":77.1,"pm2_5":23.9,"mosquito_risk":0,"arthritis_risk":5,"migraine_risk":7,"frizz_risk":0,"updated_at":"2026-03-18T14:25:16.424614+05:30"},{"city":"Indore","state":"Madhya Pradesh","latitude":22.7196,"longitude":75.8577,"temp":34.2,"humidity":16,"rain":0.0,"pressure":948.3,"uv_index":7.85,"wind_gusts":30.2,"aqi":55,"pm10":14.5,"pm2_5":11.9,"mosquito_risk":0,"arthritis_risk":5,"migraine_risk":7,"frizz_risk":0,"updated_at":"2026-03-18T14:25:16.424621+05:30"},{"city":"Bhopal","state":"Madhya Pradesh","latitude":23.2599,"longitude":77.4126,"temp":35.4,"humidity":15,"rain":0.0,"pressure":954.0,"uv_index":7.75,"wind_gusts":27.4,"aqi":60,"pm10":13.6,"pm2_5":9.3,"mosquito_risk":0,"arthritis_risk":5,"migraine_risk":10,"frizz_risk":0,"updated_at":"2026-03-18T14:25:16.424629+05:30"},{"city":"Jabalpur","state":"Madhya Pradesh","latitude":23.1815,"longitude":79.9864,"temp":34.3,"humidity":27,"rain":0.0,"pressure":961.9,"uv_index":6.45,"wind_gusts":29.9,"aqi":62,"pm10":17.3,"pm2_5":13.0,"mosquito_risk":0,"arthritis_risk":5,"migraine_risk":7,"frizz_risk":0,"updated_at":"2026-03-18T14:25:16.424636+05:30"},{"city":"Ujjain","state":"Madhya Pradesh","latitude":23.1765,"longitude":75.7885,"temp":33.6,"humidity":21,"rain":0.0,"pressure":954.5,"uv_index":7.75,"wind_gusts":21.6,"aqi":53,"pm10":11.1,"pm2_5":9.2,"mosquito_risk":0,"arthritis_risk":5,"migraine_risk":7,"frizz_risk":0,"updated_at":"2026-03-18T14:25:16.424642+05:30"},{"city":"Visakhapatnam","state":"Andhra Pradesh","latitude":17.6868,"longitude":83.2185,"temp":30.9,"humidity":50,"rain":0.0,"pressure":1005.7,"uv_index":8.0,"wind_gusts":33.1,"aqi":49,"pm10":11.1,"pm2_5":8.9,"mosquito_risk":0,"arthritis_risk":5,"migraine_risk":4,"frizz_risk":1,"updated_at":"2026-03-18T14:25:16.424649+05:30"},{"city":"Vijayawada","state":"Andhra Pradesh","latitude":16.5062,"longitude":80.648,"temp":32.9,"humidity":42,"rain":0.0,"pressure":1004.1,"uv_index":8.45,"wind_gusts":19.4,"aqi":50,"pm10":8.8,"pm2_5":6.4,"mosquito_risk":0,"arthritis_risk":5,"migraine_risk":4,"frizz_risk":1,"updated_at":"2026-03-18T14:25:16.424656+05:30"},{"city":"Guntur","state":"Andhra Pradesh","latitude":16.3067,"longitude":80.4365,"temp":33.2,"humidity":43,"rain":0.0,"pressure":1005.1,"uv_index":8.65,"wind_gusts":26.6,"aqi":44,"pm10":9.9,"pm2_5":6.8,"mosquito_risk":0,"arthritis_risk":5,"migraine_risk":4,"frizz_risk":1,"updated_at":"2026-03-18T14:25:16.424663+05:30"},{"city":"Nellore","state":"Andhra Pradesh","latitude":14.4426,"longitude":79.9865,"temp":32.7,"humidity":46,"rain":0.0,"pressure":1007.1,"uv_index":8.95,"wind_gusts":29.9,"aqi":35,"pm10":11.2,"pm2_5":7.7,"mosquito_risk":0,"arthritis_risk":5,"migraine_risk":4,"frizz_risk":1,"updated_at":"2026-03-18T14:25:16.424671+05:30"},{"city":"Kurnool","state":"Andhra Pradesh","latitude":15.8281,"longitude":78.0373,"temp":34.3,"humidity":34,"rain":0.0,"pressure":977.3,"uv_index":8.55,"wind_gusts":42.1,"aqi":70,"pm10":22.7,"pm2_5":16.9,"mosquito_risk":0,"arthritis_risk":5,"migraine_risk":7,"frizz_risk":1,"updated_at":"2026-03-18T14:25:16.424679+05:30"},{"city":"Kakinada","state":"Andhra Pradesh","latitude":16.9891,"longitude":82.2475,"temp":32.9,"humidity":46,"rain":0.0,"pressure":1009.3,"uv_index":8.4,"wind_gusts":28.4,"aqi":33,"pm10":6.6,"pm2_5":4.5,"mosquito_risk":0,"arthritis_risk":0,"migraine_risk":4,"frizz_risk":1,"updated_at":"2026-03-18T14:25:16.424686+05:30"},{"city":"Tirupati","state":"Andhra Pradesh","latitude":13.6288,"longitude":79.4192,"temp":31.9,"humidity":43,"rain":0.0,"pressure":992.4,"uv_index":9.1,"wind_gusts":35.6,"aqi":65,"pm10":17.1,"pm2_5":13.7,"mosquito_risk":0,"arthritis_risk":5,"migraine_risk":7,"frizz_risk":1,"updated_at":"2026-03-18T14:25:16.424692+05:30"},{"city":"Warangal","state":"Telangana","latitude":17.9689,"longitude":79.5941,"temp":29.5,"humidity":52,"rain":0.0,"pressure":980.6,"uv_index":8.15,"wind_gusts":27.0,"aqi":54,"pm10":18.7,"pm2_5":14.2,"mosquito_risk":4,"arthritis_risk":5,"migraine_risk":7,"frizz_risk":1,"updated_at":"2026-03-18T14:25:16.424699+05:30"},{"city":"Nizamabad","state":"Telangana","latitude":18.6725,"longitude":78.0941,"temp":30.9,"humidity":36,"rain":0.0,"pressure":966.4,"uv_index":7.85,"wind_gusts":34.2,"aqi":107,"pm10":32.1,"pm2_5":26.1,"mosquito_risk":0,"arthritis_risk":5,"migraine_risk":7,"frizz_risk":0,"updated_at":"2026-03-18T14:25:16.424706+05:30"},{"city":"Mysore","state":"Karnataka","latitude":12.2958,"longitude":76.6396,"temp":30.8,"humidity":37,"rain":0.0,"pressure":928.6,"uv_index":9.3,"wind_gusts":20.5,"aqi":100,"pm10":38.3,"pm2_5":33.6,"mosquito_risk":0,"arthritis_risk":5,"migraine_risk":7,"frizz_risk":0,"updated_at":"2026-03-18T14:25:16.424712+05:30"},{"city":"Mangalore","state":"Karnataka","latitude":12.9141,"longitude":74.856,"temp":28.3,"humidity":80,"rain":0.0,"pressure":1006.6,"uv_index":9.0,"wind_gusts":19.1,"aqi":66,"pm10":26.4,"pm2_5":19.0,"mosquito_risk":7,"arthritis_risk":5,"migraine_risk":4,"frizz_risk":1,"updated_at":"2026-03-18T14:25:16.424720+05:30"},{"city":"Hubli-Dharwad","state":"Karnataka","latitude":15.3647,"longitude":75.124,"temp":29.1,"humidity":44,"rain":0.0,"pressure":941.6,"uv_index":8.95,"wind_gusts":28.8,"aqi":108,"pm10":44.7,"pm2_5":39.0,"mosquito_risk":4,"arthritis_risk":5,"migraine_risk":7,"frizz_risk":0,"updated_at":"2026-03-18T14:25:16.424726+05:30"},{"city":"Belgaum","state":"Karnataka","latitude":15.8497,"longitude":74.4977,"temp":29.3,"humidity":44,"rain":0.0,"pressure":926.4,"uv_index":9.0,"wind_gusts":27.4,"aqi":88,"pm10":38.6,"pm2_5":31.7,"mosquito_risk":4,"arthritis_risk":5,"migraine_risk":7,"frizz_risk":0,"updated_at":"2026-03-18T14:25:19.638614+05:30"},{"city":"Coimbatore","state":"Tamil Nadu","latitude":11.0168,"longitude":76.9558,"temp":32.8,"humidity":38,"rain":0.0,"pressure":961.8,"uv_index":8.95,"wind_gusts":28.8,"aqi":91,"pm10":25.0,"pm2_5":22.1,"mosquito_risk":0,"arthritis_risk":5,"migraine_risk":7,"frizz_risk":1,"updated_at":"2026-03-18T14:25:19.638648+05:30"},{"city":"Madurai","state":"Tamil Nadu","latitude":9.9252,"longitude":78.1198,"temp":32.5,"humidity":50,"rain":0.0,"pressure":993.2,"uv_index":8.1,"wind_gusts":24.1,"aqi":68,"pm10":17.9,"pm2_5":15.6,"mosquito_risk":0,"arthritis_risk":5,"migraine_risk":7,"frizz_risk":1,"updated_at":"2026-03-18T14:25:19.638660+05:30"},{"city":"Trichy","state":"Tamil Nadu","latitude":10.7905,"longitude":78.7047,"temp":32.7,"humidity":50,"rain":0.0,"pressure":999.9,"uv_index":9.05,"wind_gusts":24.1,"aqi":57,"pm10":12.5,"pm2_5":10.5,"mosquito_risk":0,"arthritis_risk":5,"migraine_risk":7,"frizz_risk":1,"updated_at":"2026-03-18T14:25:19.638669+05:30"},{"city":"Salem","state":"Tamil Nadu","latitude":11.6643,"longitude":78.146,"temp":34.5,"humidity":34,"rain":0.0,"pressure":977.2,"uv_index":7.9,"wind_gusts":22.0,"aqi":81,"pm10":29.6,"pm2_5":25.9,"mosquito_risk":0,"arthritis_risk":5,"migraine_risk":7,"frizz_risk":1,"updated_at":"2026-03-18T14:25:19.638677+05:30"},{"city":"Tirunelveli","state":"Tamil Nadu","latitude":8.7139,"longitude":77.7567,"temp":33.1,"humidity":52,"rain":0.0,"pressure":1003.0,"uv_index":8.25,"wind_gusts":26.6,"aqi":74,"pm10":21.2,"pm2_5":19.9,"mosquito_risk":0,"arthritis_risk":5,"migraine_risk":4,"frizz_risk":1,"updated_at":"2026-03-18T14:25:19.638684+05:30"},{"city":"Vellore","state":"Tamil Nadu","latitude":12.9165,"longitude":79.1325,"temp":31.0,"humidity":46,"rain":0.0,"pressure":985.5,"uv_index":9.15,"wind_gusts":36.0,"aqi":65,"pm10":16.6,"pm2_5":13.0,"mosquito_risk":0,"arthritis_risk":5,"migraine_risk":7,"frizz_risk":1,"updated_at":"2026-03-18T14:25:19.638692+05:30"},{"city":"Erode","state":"Tamil Nadu","latitude":11.341,"longitude":77.7172,"temp":34.5,"humidity":39,"rain":0.0,"pressure":988.8,"uv_index":9.2,"wind_gusts":26.6,"aqi":63,"pm10":17.2,"pm2_5":14.9,"mosquito_risk":0,"arthritis_risk":5,"migraine_risk":7,"frizz_risk":1,"updated_at":"2026-03-18T14:25:19.638699+05:30"},{"city":"Kochi","state":"Kerala","latitude":9.9312,"longitude":76.2673,"temp":28.2,"humidity":79,"rain":0.0,"pressure":1008.3,"uv_index":9.05,"wind_gusts":22.7,"aqi":90,"pm10":23.3,"pm2_5":21.9,"mosquito_risk":7,"arthritis_risk":0,"migraine_risk":4,"frizz_risk":1,"updated_at":"2026-03-18T14:25:19.638707+05:30"},{"city":"Thiruvananthapuram","state":"Kerala","latitude":8.5241,"longitude":76.9366,"temp":28.0,"humidity":81,"rain":0.0,"pressure":1007.7,"uv_index":8.35,"wind_gusts":16.2,"aqi":57,"pm10":14.4,"pm2_5":13.2,"mosquito_risk":7,"arthritis_risk":5,"migraine_risk":4,"frizz_risk":1,"updated_at":"2026-03-18T14:25:19.638715+05:30"},{"city":"Kozhikode","state":"Kerala","latitude":11.2588,"longitude":75.7804,"temp":29.5,"humidity":73,"rain":0.0,"pressure":1007.6,"uv_index":8.65,"wind_gusts":27.0,"aqi":78,"pm10":25.3,"pm2_5":23.2,"mosquito_risk":7,"arthritis_risk":5,"migraine_risk":4,"frizz_risk":1,"updated_at":"2026-03-18T14:25:19.638723+05:30"},{"city":"Thrissur","state":"Kerala","latitude":10.5276,"longitude":76.2144,"temp":32.3,"humidity":60,"rain":0.0,"pressure":1006.6,"uv_index":8.5,"wind_gusts":31.3,"aqi":81,"pm10":25.3,"pm2_5":23.2,"mosquito_risk":0,"arthritis_risk":5,"migraine_risk":4,"frizz_risk":1,"updated_at":"2026-03-18T14:25:19.638730+05:30"},{"city":"Kannur","state":"Kerala","latitude":11.8745,"longitude":75.3704,"temp":30.7,"humidity":65,"rain":0.0,"pressure":1007.2,"uv_index":9.05,"wind_gusts":28.4,"aqi":84,"pm10":23.6,"pm2_5":19.3,"mosquito_risk":3,"arthritis_risk":5,"migraine_risk":4,"frizz_risk":1,"updated_at":"2026-03-18T14:25:19.638737+05:30"},{"city":"Patna","state":"Bihar","latitude":25.5941,"longitude":85.1376,"temp":33.5,"humidity":39,"rain":0.0,"pressure":1000.9,"uv_index":6.75,"wind_gusts":23.8,"aqi":141,"pm10":65.4,"pm2_5":35.3,"mosquito_risk":0,"arthritis_risk":5,"migraine_risk":4,"frizz_risk":1,"updated_at":"2026-03-18T14:25:19.638744+05:30"},{"city":"Gaya","state":"Bihar","latitude":24.7914,"longitude":85.0002,"temp":34.2,"humidity":38,"rain":0.0,"pressure":993.5,"uv_index":6.45,"wind_gusts":37.8,"aqi":89,"pm10":48.4,"pm2_5":27.4,"mosquito_risk":0,"arthritis_risk":5,"migraine_risk":7,"frizz_risk":1,"updated_at":"2026-03-18T14:25:19.638750+05:30"},{"city":"Muzaffarpur","state":"Bihar","latitude":26.1209,"longitude":85.3647,"temp":32.8,"humidity":41,"rain":0.0,"pressure":1001.2,"uv_index":6.95,"wind_gusts":21.6,"aqi":152,"pm10":72.9,"pm2_5":43.0,"mosquito_risk":0,"arthritis_risk":5,"migraine_risk":4,"frizz_risk":1,"updated_at":"2026-03-18T14:25:19.638757+05:30"},{"city":"Bhagalpur","state":"Bihar","latitude":25.2425,"longitude":87.0117,"temp":30.8,"humidity":52,"rain":0.0,"pressure":1002.0,"uv_index":7.0,"wind_gusts":27.0,"aqi":151,"pm10":64.7,"pm2_5":39.6,"mosquito_risk":0,"arthritis_risk":5,"migraine_risk":4,"frizz_risk":1,"updated_at":"2026-03-18T14:25:19.638764+05:30"},{"city":"Ranchi","state":"Jharkhand","latitude":23.3441,"longitude":85.3096,"temp":29.3,"humidity":35,"rain":0.0,"pressure":939.3,"uv_index":7.65,"wind_gusts":44.3,"aqi":106,"pm10":38.6,"pm2_5":28.4,"mosquito_risk":4,"arthritis_risk":5,"migraine_risk":7,"frizz_risk":0,"updated_at":"2026-03-18T14:25:19.638771+05:30"},{"city":"Jamshedpur","state":"Jharkhand","latitude":22.8046,"longitude":86.2029,"temp":33.4,"humidity":36,"rain":0.0,"pressure":991.6,"uv_index":8.15,"wind_gusts":41.8,"aqi":133,"pm10":55.6,"pm2_5":41.9,"mosquito_risk":0,"arthritis_risk":5,"migraine_risk":7,"frizz_risk":1,"updated_at":"2026-03-18T14:25:19.638777+05:30"},{"city":"Dhanbad","state":"Jharkhand","latitude":23.7957,"longitude":86.4304,"temp":35.0,"humidity":28,"rain":0.0,"pressure":979.5,"uv_index":7.9,"wind_gusts":51.1,"aqi":152,"pm10":57.4,"pm2_5":44.4,"mosquito_risk":0,"arthritis_risk":5,"migraine_risk":7,"frizz_risk":0,"updated_at":"2026-03-18T14:25:19.638784+05:30"},{"city":"Bokaro","state":"Jharkhand","latitude":23.6693,"longitude":86.1511,"temp":35.1,"humidity":23,"rain":0.0,"pressure":983.2,"uv_index":7.85,"wind_gusts":43.2,"aqi":150,"pm10":50.5,"pm2_5":38.2,"mosquito_risk":0,"arthritis_risk":5,"migraine_risk":10,"frizz_risk":0,"updated_at":"2026-03-18T14:25:19.638791+05:30"},{"city":"Bhubaneswar","state":"Odisha","latitude":20.2961,"longitude":85.8245,"temp":30.6,"humidity":58,"rain":0.0,"pressure":1004.5,"uv_index":8.3,"wind_gusts":26.3,"aqi":49,"pm10":20.0,"pm2_5":15.5,"mosquito_risk":0,"arthritis_risk":5,"migraine_risk":4,"frizz_risk":1,"updated_at":"2026-03-18T14:25:19.638797+05:30"},{"city":"Cuttack","state":"Odisha","latitude":20.4625,"longitude":85.8828,"temp":30.0,"humidity":61,"rain":0.0,"pressure":1006.5,"uv_index":8.25,"wind_gusts":22.3,"aqi":49,"pm10":20.0,"pm2_5":15.5,"mosquito_risk":7,"arthritis_risk":5,"migraine_risk":4,"frizz_risk":1,"updated_at":"2026-03-18T14:25:19.638804+05:30"},{"city":"Rourkela","state":"Odisha","latitude":22.2604,"longitude":84.8536,"temp":27.7,"humidity":60,"rain":0.0,"pressure":987.5,"uv_index":8.05,"wind_gusts":48.2,"aqi":146,"pm10":52.9,"pm2_5":41.7,"mosquito_risk":4,"arthritis_risk":5,"migraine_risk":7,"frizz_risk":1,"updated_at":"2026-03-18T14:25:19.638810+05:30"},{"city":"Raipur","state":"Chhattisgarh","latitude":21.2514,"longitude":81.6296,"temp":30.7,"humidity":43,"rain":0.0,"pressure":976.8,"uv_index":6.75,"wind_gusts":48.2,"aqi":105,"pm10":34.7,"pm2_5":27.4,"mosquito_risk":0,"arthritis_risk":5,"migraine_risk":7,"frizz_risk":1,"updated_at":"2026-03-18T14:25:19.638817+05:30"},{"city":"Bhilai","state":"Chhattisgarh","latitude":21.1938,"longitude":81.3509,"temp":31.1,"humidity":42,"rain":0.0,"pressure":976.9,"uv_index":7.05,"wind_gusts":42.5,"aqi":104,"pm10":32.6,"pm2_5":25.6,"mosquito_risk":0,"arthritis_risk":5,"migraine_risk":7,"frizz_risk":1,"updated_at":"2026-03-18T14:25:19.638824+05:30"},{"city":"Guwahati","state":"Assam","latitude":26.1158,"longitude":91.7086,"temp":27.9,"humidity":65,"rain":0.0,"pressure":1002.6,"uv_index":7.5,"wind_gusts":38.9,"aqi":110,"pm10":48.9,"pm2_5":39.3,"mosquito_risk":7,"arthritis_risk":5,"migraine_risk":4,"frizz_risk":1,"updated_at":"2026-03-18T14:25:19.638830+05:30"},{"city":"Agartala","state":"Tripura","latitude":23.8315,"longitude":91.2868,"temp":28.2,"humidity":65,"rain":0.0,"pressure":1008.6,"uv_index":7.85,"wind_gusts":29.2,"aqi":64,"pm10":26.3,"pm2_5":18.5,"mosquito_risk":7,"arthritis_risk":0,"migraine_risk":4,"frizz_risk":1,"updated_at":"2026-03-18T14:25:19.638837+05:30"},{"city":"Shillong","state":"Meghalaya","latitude":25.5788,"longitude":91.8933,"temp":18.4,"humidity":54,"rain":0.0,"pressure":857.9,"uv_index":7.85,"wind_gusts":61.9,"aqi":81,"pm10":38.4,"pm2_5":27.2,"mosquito_risk":0,"arthritis_risk":5,"migraine_risk":7,"frizz_risk":0,"updated_at":"2026-03-18T14:25:19.638843+05:30"},{"city":"Imphal","state":"Manipur","latitude":24.817,"longitude":93.9368,"temp":20.8,"humidity":68,"rain":0.0,"pressure":925.1,"uv_index":8.1,"wind_gusts":66.2,"aqi":82,"pm10":43.1,"pm2_5":23.3,"mosquito_risk":3,"arthritis_risk":5,"migraine_risk":7,"frizz_risk":0,"updated_at":"2026-03-18T14:25:19.638850+05:30"},{"city":"Aizawl","state":"Mizoram","latitude":23.7271,"longitude":92.7176,"temp":24.2,"humidity":50,"rain":0.0,"pressure":895.7,"uv_index":8.05,"wind_gusts":44.3,"aqi":76,"pm10":36.6,"pm2_5":19.6,"mosquito_risk":0,"arthritis_risk":5,"migraine_risk":7,"frizz_risk":0,"updated_at":"2026-03-18T14:25:19.638856+05:30"},{"city":"Kohima","state":"Nagaland","latitude":25.6701,"longitude":94.1077,"temp":17.7,"humidity":62,"rain":0.0,"pressure":856.5,"uv_index":8.0,"wind_gusts":100.8,"aqi":70,"pm10":31.5,"pm2_5":20.5,"mosquito_risk":3,"arthritis_risk":5,"migraine_risk":7,"frizz_risk":0,"updated_at":"2026-03-18T14:25:19.638863+05:30"},{"city":"Gangtok","state":"Sikkim","latitude":27.3314,"longitude":88.6138,"temp":19.6,"humidity":45,"rain":0.0,"pressure":838.8,"uv_index":7.85,"wind_gusts":19.8,"aqi":70,"pm10":44.1,"pm2_5":24.4,"mosquito_risk":0,"arthritis_risk":5,"migraine_risk":7,"frizz_risk":0,"updated_at":"2026-03-18T14:25:19.638869+05:30"},{"city":"Siliguri","state":"West Bengal","latitude":26.7271,"longitude":88.3953,"temp":25.8,"humidity":57,"rain":0.0,"pressure":994.4,"uv_index":7.25,"wind_gusts":34.6,"aqi":120,"pm10":57.5,"pm2_5":37.4,"mosquito_risk":4,"arthritis_risk":5,"migraine_risk":7,"frizz_risk":1,"updated_at":"2026-03-18T14:25:22.855211+05:30"},{"city":"Durgapur","state":"West Bengal","latitude":23.5204,"longitude":87.3119,"temp":34.0,"humidity":33,"rain":0.0,"pressure":995.2,"uv_index":8.05,"wind_gusts":49.7,"aqi":130,"pm10":71.0,"pm2_5":56.7,"mosquito_risk":0,"arthritis_risk":5,"migraine_risk":7,"frizz_risk":0,"updated_at":"2026-03-18T14:25:22.855249+05:30"},{"city":"Asansol","state":"West Bengal","latitude":23.6739,"longitude":86.9524,"temp":34.2,"humidity":34,"rain":0.0,"pressure":993.7,"uv_index":8.05,"wind_gusts":50.8,"aqi":133,"pm10":63.8,"pm2_5":50.3,"mosquito_risk":0,"arthritis_risk":5,"migraine_risk":7,"frizz_risk":1,"updated_at":"2026-03-18T14:25:22.855261+05:30"},{"city":"Pondicherry","state":"Puducherry","latitude":11.9139,"longitude":79.8145,"temp":31.4,"humidity":58,"rain":0.0,"pressure":1009.5,"uv_index":9.1,"wind_gusts":25.2,"aqi":37,"pm10":13.5,"pm2_5":9.2,"mosquito_risk":0,"arthritis_risk":0,"migraine_risk":4,"frizz_risk":1,"updated_at":"2026-03-18T14:25:22.855269+05:30"},{"city":"Port Blair","state":"Andaman and Nicobar Islands","latitude":11.6234,"longitude":92.7265,"temp":28.8,"humidity":74,"rain":0.0,"pressure":1007.5,"uv_index":9.05,"wind_gusts":22.7,"aqi":59,"pm10":16.1,"pm2_5":13.2,"mosquito_risk":7,"arthritis_risk":5,"migraine_risk":4,"frizz_risk":1,"updated_at":"2026-03-18T14:25:22.855278+05:30"},{"city":"Haridwar","state":"Uttarakhand","latitude":29.9457,"longitude":78.1642,"temp":28.4,"humidity":33,"rain":0.0,"pressure":977.6,"uv_index":5.6,"wind_gusts":22.0,"aqi":74,"pm10":56.2,"pm2_5":16.9,"mosquito_risk":4,"arthritis_risk":5,"migraine_risk":3,"frizz_risk":0,"updated_at":"2026-03-18T14:25:22.855286+05:30"},{"city":"Rishikesh","state":"Uttarakhand","latitude":30.0869,"longitude":78.2676,"temp":28.1,"humidity":31,"rain":0.0,"pressure":970.3,"uv_index":5.4,"wind_gusts":18.4,"aqi":59,"pm10":41.1,"pm2_5":10.9,"mosquito_risk":4,"arthritis_risk":5,"migraine_risk":3,"frizz_risk":0,"updated_at":"2026-03-18T14:25:22.855295+05:30"},{"city":"Nainital","state":"Uttarakhand","latitude":29.3919,"longitude":79.4542,"temp":21.5,"humidity":31,"rain":0.0,"pressure":809.6,"uv_index":5.95,"wind_gusts":34.6,"aqi":65,"pm10":41.1,"pm2_5":13.1,"mosquito_risk":0,"arthritis_risk":5,"migraine_risk":3,"frizz_risk":0,"updated_at":"2026-03-18T14:25:22.855302+05:30"},{"city":"Mussoorie","state":"Uttarakhand","latitude":30.4599,"longitude":78.0664,"temp":17.5,"humidity":46,"rain":0.0,"pressure":805.2,"uv_index":5.5,"wind_gusts":29.5,"aqi":68,"pm10":44.5,"pm2_5":11.2,"mosquito_risk":0,"arthritis_risk":5,"migraine_risk":3,"frizz_risk":0,"updated_at":"2026-03-18T14:25:22.855310+05:30"},{"city":"Dharamshala","state":"Himachal Pradesh","latitude":32.219,"longitude":76.3234,"temp":18.6,"humidity":55,"rain":0.0,"pressure":871.5,"uv_index":4.15,"wind_gusts":29.9,"aqi":49,"pm10":30.4,"pm2_5":6.8,"mosquito_risk":0,"arthritis_risk":5,"migraine_risk":3,"frizz_risk":0,"updated_at":"2026-03-18T14:25:22.855318+05:30"},{"city":"Dalhousie","state":"Himachal Pradesh","latitude":32.5387,"longitude":75.971,"temp":15.0,"humidity":55,"rain":0.0,"pressure":805.3,"uv_index":5.15,"wind_gusts":31.0,"aqi":83,"pm10":88.9,"pm2_5":26.3,"mosquito_risk":0,"arthritis_risk":5,"migraine_risk":3,"frizz_risk":0,"updated_at":"2026-03-18T14:25:22.855327+05:30"},{"city":"Patiala","state":"Punjab","latitude":30.3398,"longitude":76.3869,"temp":24.2,"humidity":52,"rain":0.0,"pressure":982.6,"uv_index":4.65,"wind_gusts":28.8,"aqi":146,"pm10":119.0,"pm2_5":25.7,"mosquito_risk":0,"arthritis_risk":5,"migraine_risk":3,"frizz_risk":0,"updated_at":"2026-03-18T14:25:22.855335+05:30"},{"city":"Bhatinda","state":"Punjab","latitude":30.211,"longitude":74.9455,"temp":21.8,"humidity":65,"rain":0.1,"pressure":988.5,"uv_index":6.15,"wind_gusts":27.7,"aqi":115,"pm10":52.9,"pm2_5":18.4,"mosquito_risk":6,"arthritis_risk":5,"migraine_risk":7,"frizz_risk":0,"updated_at":"2026-03-18T14:25:22.855342+05:30"},{"city":"Rohtak","state":"Haryana","latitude":28.8955,"longitude":76.6066,"temp":28.5,"humidity":46,"rain":0.0,"pressure":984.4,"uv_index":5.8,"wind_gusts":28.8,"aqi":317,"pm10":461.9,"pm2_5":67.3,"mosquito_risk":4,"arthritis_risk":5,"migraine_risk":3,"frizz_risk":0,"updated_at":"2026-03-18T14:25:22.855350+05:30"},{"city":"Panipat","state":"Haryana","latitude":29.3909,"longitude":76.9635,"temp":28.1,"humidity":43,"rain":0.0,"pressure":983.6,"uv_index":5.85,"wind_gusts":29.9,"aqi":291,"pm10":895.9,"pm2_5":93.1,"mosquito_risk":4,"arthritis_risk":5,"migraine_risk":3,"frizz_risk":0,"updated_at":"2026-03-18T14:25:22.855357+05:30"},{"city":"Mathura","state":"Uttar Pradesh","latitude":27.4924,"longitude":77.6737,"temp":34.2,"humidity":26,"rain":0.0,"pressure":988.4,"uv_index":6.5,"wind_gusts":32.4,"aqi":481,"pm10":280.3,"pm2_5":58.2,"mosquito_risk":0,"arthritis_risk":5,"migraine_risk":7,"frizz_risk":0,"updated_at":"2026-03-18T14:25:22.855364+05:30"},{"city":"Vrindavan","state":"Uttar Pradesh","latitude":27.5823,"longitude":77.7027,"temp":33.9,"humidity":26,"rain":0.0,"pressure":988.9,"uv_index":6.45,"wind_gusts":30.2,"aqi":481,"pm10":280.3,"pm2_5":58.2,"mosquito_risk":0,"arthritis_risk":5,"migraine_risk":7,"frizz_risk":0,"updated_at":"2026-03-18T14:25:22.855371+05:30"},{"city":"Ayodhya","state":"Uttar Pradesh","latitude":26.7922,"longitude":82.1998,"temp":34.2,"humidity":27,"rain":0.0,"pressure":996.8,"uv_index":6.3,"wind_gusts":28.4,"aqi":93,"pm10":50.9,"pm2_5":17.7,"mosquito_risk":0,"arthritis_risk":5,"migraine_risk":7,"frizz_risk":0,"updated_at":"2026-03-18T14:25:22.855378+05:30"},{"city":"Ratlam","state":"Madhya Pradesh","latitude":23.3315,"longitude":75.0367,"temp":33.9,"humidity":20,"rain":0.0,"pressure":955.5,"uv_index":7.7,"wind_gusts":28.1,"aqi":52,"pm10":11.7,"pm2_5":8.8,"mosquito_risk":0,"arthritis_risk":5,"migraine_risk":7,"frizz_risk":0,"updated_at":"2026-03-18T14:25:22.855386+05:30"},{"city":"Sagar","state":"Madhya Pradesh","latitude":23.8388,"longitude":78.7378,"temp":34.4,"humidity":19,"rain":0.0,"pressure":950.9,"uv_index":7.5,"wind_gusts":34.9,"aqi":47,"pm10":13.8,"pm2_5":6.5,"mosquito_risk":0,"arthritis_risk":5,"migraine_risk":7,"frizz_risk":0,"updated_at":"2026-03-18T14:25:22.855393+05:30"},{"city":"Satna","state":"Madhya Pradesh","latitude":24.6005,"longitude":80.8322,"temp":36.3,"humidity":14,"rain":0.0,"pressure":971.6,"uv_index":6.95,"wind_gusts":31.3,"aqi":59,"pm10":20.2,"pm2_5":10.4,"mosquito_risk":0,"arthritis_risk":5,"migraine_risk":10,"frizz_risk":0,"updated_at":"2026-03-18T14:25:22.855400+05:30"},{"city":"Akola","state":"Maharashtra","latitude":20.7002,"longitude":77.0082,"temp":37.2,"humidity":16,"rain":0.0,"pressure":974.6,"uv_index":8.15,"wind_gusts":32.0,"aqi":76,"pm10":25.7,"pm2_5":20.5,"mosquito_risk":0,"arthritis_risk":5,"migraine_risk":10,"frizz_risk":0,"updated_at":"2026-03-18T14:25:22.855408+05:30"},{"city":"Amravati","state":"Maharashtra","latitude":20.9374,"longitude":77.7796,"temp":36.7,"humidity":19,"rain":0.0,"pressure":967.3,"uv_index":7.85,"wind_gusts":44.6,"aqi":86,"pm10":29.2,"pm2_5":23.6,"mosquito_risk":0,"arthritis_risk":5,"migraine_risk":10,"frizz_risk":0,"updated_at":"2026-03-18T14:25:22.855416+05:30"},{"city":"Latur","state":"Maharashtra","latitude":18.4088,"longitude":76.5604,"temp":31.1,"humidity":34,"rain":0.0,"pressure":941.1,"uv_index":8.55,"wind_gusts":36.4,"aqi":105,"pm10":40.4,"pm2_5":33.2,"mosquito_risk":0,"arthritis_risk":5,"migraine_risk":7,"frizz_risk":0,"updated_at":"2026-03-18T14:25:22.855423+05:30"},{"city":"Nanded","state":"Maharashtra","latitude":19.1383,"longitude":77.3091,"temp":31.2,"humidity":38,"rain":0.0,"pressure":970.5,"uv_index":7.85,"wind_gusts":32.4,"aqi":111,"pm10":46.0,"pm2_5":38.9,"mosquito_risk":0,"arthritis_risk":5,"migraine_risk":7,"frizz_risk":0,"updated_at":"2026-03-18T14:25:22.855430+05:30"},{"city":"Gulbarga","state":"Karnataka","latitude":17.3297,"longitude":76.8343,"temp":29.3,"humidity":45,"rain":0.0,"pressure":960.3,"uv_index":8.65,"wind_gusts":28.8,"aqi":104,"pm10":33.4,"pm2_5":27.1,"mosquito_risk":4,"arthritis_risk":5,"migraine_risk":7,"frizz_risk":1,"updated_at":"2026-03-18T14:25:22.855437+05:30"},{"city":"Bidar","state":"Karnataka","latitude":17.9104,"longitude":77.5199,"temp":29.0,"humidity":47,"rain":0.0,"pressure":937.4,"uv_index":8.6,"wind_gusts":34.6,"aqi":97,"pm10":32.9,"pm2_5":26.1,"mosquito_risk":4,"arthritis_risk":5,"migraine_risk":7,"frizz_risk":1,"updated_at":"2026-03-18T14:25:22.855444+05:30"},{"city":"Hospet","state":"Karnataka","latitude":15.2689,"longitude":76.3909,"temp":31.2,"humidity":41,"rain":0.0,"pressure":956.5,"uv_index":8.9,"wind_gusts":41.0,"aqi":109,"pm10":34.2,"pm2_5":27.4,"mosquito_risk":0,"arthritis_risk":5,"migraine_risk":7,"frizz_risk":1,"updated_at":"2026-03-18T14:25:22.855451+05:30"},{"city":"Tirupur","state":"Tamil Nadu","latitude":11.1085,"longitude":77.3411,"temp":33.5,"humidity":40,"rain":0.0,"pressure":975.1,"uv_index":9.15,"wind_gusts":29.2,"aqi":81,"pm10":19.8,"pm2_5":17.3,"mosquito_risk":0,"arthritis_risk":5,"migraine_risk":7,"frizz_risk":1,"updated_at":"2026-03-18T14:25:22.855458+05:30"},{"city":"Alappuzha","state":"Kerala","latitude":9.4981,"longitude":76.3388,"temp":28.1,"humidity":80,"rain":0.0,"pressure":1008.4,"uv_index":8.7,"wind_gusts":20.2,"aqi":77,"pm10":21.1,"pm2_5":19.7,"mosquito_risk":7,"arthritis_risk":0,"migraine_risk":4,"frizz_risk":1,"updated_at":"2026-03-18T14:25:22.855465+05:30"},{"city":"Munnar","state":"Kerala","latitude":10.0889,"longitude":77.0595,"temp":26.6,"humidity":67,"rain":0.0,"pressure":858.4,"uv_index":9.55,"wind_gusts":30.2,"aqi":90,"pm10":22.2,"pm2_5":19.8,"mosquito_risk":7,"arthritis_risk":5,"migraine_risk":7,"frizz_risk":1,"updated_at":"2026-03-18T14:25:22.855472+05:30"},{"city":"Silchar","state":"Assam","latitude":24.8333,"longitude":92.7789,"temp":27.0,"humidity":67,"rain":0.0,"pressure":1007.9,"uv_index":7.8,"wind_gusts":43.6,"aqi":94,"pm10":30.0,"pm2_5":19.2,"mosquito_risk":7,"arthritis_risk":5,"migraine_risk":4,"frizz_risk":1,"updated_at":"2026-03-18T14:25:22.855479+05:30"},{"city":"Dibrugarh","state":"Assam","latitude":27.4728,"longitude":94.912,"temp":23.4,"humidity":75,"rain":0.0,"pressure":998.2,"uv_index":7.55,"wind_gusts":28.1,"aqi":84,"pm10":32.6,"pm2_5":20.3,"mosquito_risk":3,"arthritis_risk":5,"migraine_risk":7,"frizz_risk":1,"updated_at":"2026-03-18T14:25:22.855486+05:30"}]