[{"city":"Delhi","state":"Delhi","latitude":28.6139,"longitude":77.209,"temp":24.7,"humidity":46,"rain":0.0,"pressure":985.7,"uv_index":6.15,"wind_gusts":25.6,"aqi":190,"pm10":415.4,"pm2_5":91.0,"mosquito_risk":0,"arthritis_risk":5,"migraine_risk":7,"frizz_risk":0,"updated_at":"2026-03-11T22:27:03.582882+05:30"},{"city":"Mumbai","state":"Maharashtra","latitude":19.076,"longitude":72.8777,"temp":28.0,"humidity":88,"rain":0.0,"pressure":1011.0,"uv_index":7.6,"wind_gusts":23.4,"aqi":199,"pm10":59.3,"pm2_5":52.3,"mosquito_risk":7,"arthritis_risk":0,"migraine_risk":4,"frizz_risk":1,"updated_at":"2026-03-11T22:27:03.582925+05:30"},{"city":"Bangalore","state":"Karnataka","latitude":12.9716,"longitude":77.5946,"temp":24.4,"humidity":52,"rain":0.0,"pressure":914.2,"uv_index":9.25,"wind_gusts":27.7,"aqi":61,"pm10":18.7,"pm2_5":18.1,"mosquito_risk":0,"arthritis_risk":5,"migraine_risk":7,"frizz_risk":0,"updated_at":"2026-03-11T22:27:03.582940+05:30"},{"city":"Hyderabad","state":"Telangana","latitude":17.385,"longitude":78.4867,"temp":25.5,"humidity":51,"rain":0.0,"pressure":956.3,"uv_index":8.6,"wind_gusts":24.8,"aqi":95,"pm10":46.2,"pm2_5":38.4,"mosquito_risk":4,"arthritis_risk":5,"migraine_risk":7,"frizz_risk":0,"updated_at":"2026-03-11T22:27:03.582950+05:30"},{"city":"Chennai","state":"Tamil Nadu","latitude":13.0827,"longitude":80.2707,"temp":26.2,"humidity":83,"rain":0.0,"pressure":1010.9,"uv_index":9.0,"wind_gusts":31.7,"aqi":67,"pm10":23.9,"pm2_5":19.8,"mosquito_risk":7,"arthritis_risk":0,"migraine_risk":4,"frizz_risk":1,"updated_at":"2026-03-11T22:27:03.582959+05:30"},{"city":"Kolkata","state":"West Bengal","latitude":22.5726,"longitude":88.3639,"temp":25.1,"humidity":88,"rain":0.0,"pressure":1009.1,"uv_index":7.5,"wind_gusts":22.0,"aqi":136,"pm10":52.6,"pm2_5":49.6,"mosquito_risk":7,"arthritis_risk":0,"migraine_risk":4,"frizz_risk":1,"updated_at":"2026-03-11T22:27:03.582968+05:30"},{"city":"Pune","state":"Maharashtra","latitude":18.5204,"longitude":73.8567,"temp":26.4,"humidity":70,"rain":0.0,"pressure":951.6,"uv_index":8.15,"wind_gusts":31.3,"aqi":115,"pm10":50.1,"pm2_5":46.3,"mosquito_risk":7,"arthritis_risk":5,"migraine_risk":7,"frizz_risk":1,"updated_at":"2026-03-11T22:27:03.582981+05:30"},{"city":"Ahmedabad","state":"Gujarat","latitude":23.0225,"longitude":72.5714,"temp":28.5,"humidity":29,"rain":0.0,"pressure":1005.2,"uv_index":7.4,"wind_gusts":25.9,"aqi":125,"pm10":29.0,"pm2_5":27.8,"mosquito_risk":4,"arthritis_risk":5,"migraine_risk":4,"frizz_risk":0,"updated_at":"2026-03-11T22:27:03.582989+05:30"},{"city":"Jaipur","state":"Rajasthan","latitude":26.9124,"longitude":75.7873,"temp":28.2,"humidity":20,"rain":0.0,"pressure":963.1,"uv_index":6.85,"wind_gusts":33.1,"aqi":102,"pm10":89.2,"pm2_5":37.1,"mosquito_risk":4,"arthritis_risk":5,"migraine_risk":7,"frizz_risk":0,"updated_at":"2026-03-11T22:27:03.582997+05:30"},{"city":"Lucknow","state":"Uttar Pradesh","latitude":26.8467,"longitude":80.9462,"temp":26.4,"humidity":60,"rain":0.0,"pressure":995.9,"uv_index":6.6,"wind_gusts":28.8,"aqi":179,"pm10":259.8,"pm2_5":70.1,"mosquito_risk":4,"arthritis_risk":5,"migraine_risk":7,"frizz_risk":1,"updated_at":"2026-03-11T22:27:03.583005+05:30"},{"city":"Kanpur","state":"Uttar Pradesh","latitude":26.4499,"longitude":80.3319,"temp":26.4,"humidity":65,"rain":0.0,"pressure":994.4,"uv_index":6.6,"wind_gusts":23.8,"aqi":172,"pm10":399.5,"pm2_5":76.6,"mosquito_risk":7,"arthritis_risk":5,"migraine_risk":7,"frizz_risk":1,"updated_at":"2026-03-11T22:27:03.583013+05:30"},{"city":"Chandigarh","state":"Chandigarh","latitude":30.7333,"longitude":76.7794,"temp":23.0,"humidity":53,"rain":0.0,"pressure":971.3,"uv_index":5.35,"wind_gusts":24.5,"aqi":133,"pm10":72.2,"pm2_5":52.7,"mosquito_risk":0,"arthritis_risk":5,"migraine_risk":3,"frizz_risk":0,"updated_at":"2026-03-11T22:27:03.583020+05:30"},{"city":"Srinagar","state":"Jammu and Kashmir","latitude":34.0837,"longitude":74.7973,"temp":9.0,"humidity":94,"rain":0.0,"pressure":844.9,"uv_index":4.55,"wind_gusts":28.1,"aqi":115,"pm10":83.1,"pm2_5":75.0,"mosquito_risk":3,"arthritis_risk":10,"migraine_risk":3,"frizz_risk":0,"updated_at":"2026-03-11T22:27:03.583028+05:30"},{"city":"Jammu","state":"Jammu and Kashmir","latitude":32.7266,"longitude":74.857,"temp":20.9,"humidity":63,"rain":0.0,"pressure":975.7,"uv_index":5.4,"wind_gusts":27.0,"aqi":89,"pm10":36.7,"pm2_5":26.5,"mosquito_risk":3,"arthritis_risk":5,"migraine_risk":3,"frizz_risk":0,"updated_at":"2026-03-11T22:27:03.583035+05:30"},{"city":"Amritsar","state":"Punjab","latitude":31.634,"longitude":74.8723,"temp":22.7,"humidity":87,"rain":0.0,"pressure":983.9,"uv_index":6.45,"wind_gusts":23.8,"aqi":156,"pm10":91.5,"pm2_5":69.6,"mosquito_risk":3,"arthritis_risk":5,"migraine_risk":7,"frizz_risk":1,"updated_at":"2026-03-11T22:27:03.583042+05:30"},{"city":"Ludhiana","state":"Punjab","latitude":30.901,"longitude":75.8573,"temp":24.7,"humidity":57,"rain":0.0,"pressure":981.6,"uv_index":6.25,"wind_gusts":14.8,"aqi":173,"pm10":143.9,"pm2_5":101.3,"mosquito_risk":0,"arthritis_risk":5,"migraine_risk":7,"frizz_risk":0,"updated_at":"2026-03-11T22:27:03.583049+05:30"},{"city":"Jalandhar","state":"Punjab","latitude":31.326,"longitude":75.5762,"temp":24.2,"humidity":63,"rain":0.0,"pressure":982.8,"uv_index":6.5,"wind_gusts":17.6,"aqi":166,"pm10":122.5,"pm2_5":85.2,"mosquito_risk":3,"arthritis_risk":5,"migraine_risk":7,"frizz_risk":1,"updated_at":"2026-03-11T22:27:03.583058+05:30"},{"city":"Dehradun","state":"Uttarakhand","latitude":30.6284,"longitude":78.0322,"temp":15.3,"humidity":73,"rain":0.0,"pressure":831.9,"uv_index":6.0,"wind_gusts":28.8,"aqi":100,"pm10":35.2,"pm2_5":25.5,"mosquito_risk":3,"arthritis_risk":5,"migraine_risk":3,"frizz_risk":0,"updated_at":"2026-03-11T22:27:03.583065+05:30"},{"city":"Shimla","state":"Himachal Pradesh","latitude":31.1048,"longitude":77.1734,"temp":13.1,"humidity":72,"rain":0.0,"pressure":786.3,"uv_index":5.95,"wind_gusts":46.8,"aqi":101,"pm10":43.0,"pm2_5":32.2,"mosquito_risk":3,"arthritis_risk":5,"migraine_risk":3,"frizz_risk":0,"updated_at":"2026-03-11T22:27:03.583072+05:30"},{"city":"Manali","state":"Himachal Pradesh","latitude":32.2396,"longitude":77.1887,"temp":15.4,"humidity":52,"rain":0.0,"pressure":823.9,"uv_index":6.55,"wind_gusts":42.5,"aqi":72,"pm10":14.5,"pm2_5":7.5,"mosquito_risk":0,"arthritis_risk":5,"migraine_risk":7,"frizz_risk":0,"updated_at":"2026-03-11T22:27:03.583094+05:30"},{"city":"Gurgaon","state":"Haryana","latitude":28.4595,"longitude":77.0266,"temp":21.9,"humidity":56,"rain":0.0,"pressure":984.0,"uv_index":6.25,"wind_gusts":24.5,"aqi":629,"pm10":560.7,"pm2_5":127.1,"mosquito_risk":0,"arthritis_risk":5,"migraine_risk":7,"frizz_risk":0,"updated_at":"2026-03-11T22:27:03.583103+05:30"},{"city":"Noida","state":"Uttar Pradesh","latitude":28.5355,"longitude":77.391,"temp":24.2,"humidity":49,"rain":0.0,"pressure":987.2,"uv_index":6.15,"wind_gusts":25.9,"aqi":629,"pm10":560.7,"pm2_5":127.1,"mosquito_risk":0,"arthritis_risk":5,"migraine_risk":7,"frizz_risk":0,"updated_at":"2026-03-11T22:27:03.583110+05:30"},{"city":"Ghaziabad","state":"Uttar Pradesh","latitude":28.6692,"longitude":77.4538,"temp":22.8,"humidity":55,"rain":0.0,"pressure":985.2,"uv_index":6.1,"wind_gusts":24.5,"aqi":167,"pm10":341.8,"pm2_5":75.2,"mosquito_risk":0,"arthritis_risk":5,"migraine_risk":7,"frizz_risk":0,"updated_at":"2026-03-11T22:27:03.583117+05:30"},{"city":"Faridabad","state":"Haryana","latitude":28.4089,"longitude":77.3178,"temp":21.8,"humidity":54,"rain":0.0,"pressure":986.4,"uv_index":6.15,"wind_gusts":23.0,"aqi":629,"pm10":560.7,"pm2_5":127.1,"mosquito_risk":0,"arthritis_risk":5,"migraine_risk":7,"frizz_risk":0,"updated_at":"2026-03-11T22:27:03.583123+05:30"},{"city":"Meerut","state":"Uttar Pradesh","latitude":28.9845,"longitude":77.7064,"temp":21.2,"humidity":69,"rain":0.0,"pressure":983.8,"uv_index":5.75,"wind_gusts":29.2,"aqi":167,"pm10":341.8,"pm2_5":75.2,"mosquito_risk":3,"arthritis_risk":5,"migraine_risk":3,"frizz_risk":0,"updated_at":"2026-03-11T22:27:03.583130+05:30"},{"city":"Agra","state":"Uttar Pradesh","latitude":27.1767,"longitude":78.0081,"temp":23.0,"humidity":66,"rain":0.0,"pressure":990.4,"uv_index":6.5,"wind_gusts":18.4,"aqi":332,"pm10":525.3,"pm2_5":97.6,"mosquito_risk":3,"arthritis_risk":5,"migraine_risk":7,"frizz_risk":1,"updated_at":"2026-03-11T22:27:03.583137+05:30"},{"city":"Varanasi","state":"Uttar Pradesh","latitude":25.3176,"longitude":82.9739,"temp":23.5,"humidity":77,"rain":0.0,"pressure":1000.4,"uv_index":7.3,"wind_gusts":23.0,"aqi":184,"pm10":84.8,"pm2_5":65.2,"mosquito_risk":3,"arthritis_risk":5,"migraine_risk":4,"frizz_risk":1,"updated_at":"2026-03-11T22:27:03.583147+05:30"},{"city":"Prayagraj","state":"Uttar Pradesh","latitude":25.4358,"longitude":81.8463,"temp":25.5,"humidity":62,"rain":0.0,"pressure":998.9,"uv_index":7.15,"wind_gusts":23.8,"aqi":182,"pm10":113.2,"pm2_5":66.8,"mosquito_risk":7,"arthritis_risk":5,"migraine_risk":7,"frizz_risk":1,"updated_at":"2026-03-11T22:27:03.583157+05:30"},{"city":"Gorakhpur","state":"Uttar Pradesh","latitude":26.7606,"longitude":83.3732,"temp":24.6,"humidity":78,"rain":0.0,"pressure":999.5,"uv_index":7.0,"wind_gusts":22.0,"aqi":213,"pm10":155.1,"pm2_5":139.7,"mosquito_risk":3,"arthritis_risk":5,"migraine_risk":7,"frizz_risk":1,"updated_at":"2026-03-11T22:27:03.583166+05:30"},{"city":"Bareilly","state":"Uttar Pradesh","latitude":28.367,"longitude":79.4304,"temp":21.8,"humidity":70,"rain":0.0,"pressure":989.0,"uv_index":6.35,"wind_gusts":30.6,"aqi":194,"pm10":189.5,"pm2_5":63.1,"mosquito_risk":3,"arthritis_risk":5,"migraine_risk":7,"frizz_risk":1,"updated_at":"2026-03-11T22:27:03.583173+05:30"},{"city":"Aligarh","state":"Uttar Pradesh","latitude":27.8974,"longitude":78.088,"temp":22.3,"humidity":55,"rain":0.0,"pressure":988.1,"uv_index":6.25,"wind_gusts":25.6,"aqi":379,"pm10":797.2,"pm2_5":129.5,"mosquito_risk":0,"arthritis_risk":5,"migraine_risk":7,"frizz_risk":0,"updated_at":"2026-03-11T22:27:03.583179+05:30"},{"city":"Moradabad","state":"Uttar Pradesh","latitude":28.8386,"longitude":78.7733,"temp":21.6,"humidity":70,"rain":0.0,"pressure":985.8,"uv_index":6.15,"wind_gusts":34.6,"aqi":186,"pm10":104.1,"pm2_5":41.2,"mosquito_risk":3,"arthritis_risk":5,"migraine_risk":7,"frizz_risk":0,"updated_at":"2026-03-11T22:27:03.583185+05:30"},{"city":"Saharanpur","state":"Uttar Pradesh","latitude":29.9637,"longitude":77.546,"temp":21.4,"humidity":67,"rain":0.0,"pressure":977.7,"uv_index":5.45,"wind_gusts":36.0,"aqi":163,"pm10":97.8,"pm2_5":49.9,"mosquito_risk":3,"arthritis_risk":5,"migraine_risk":3,"frizz_risk":0,"updated_at":"2026-03-11T22:27:03.583191+05:30"},{"city":"Jhansi","state":"Uttar Pradesh","latitude":25.4484,"longitude":78.5685,"temp":26.3,"humidity":43,"rain":0.0,"pressure":980.9,"uv_index":7.1,"wind_gusts":27.7,"aqi":94,"pm10":41.7,"pm2_5":23.5,"mosquito_risk":4,"arthritis_risk":5,"migraine_risk":7,"frizz_risk":0,"updated_at":"2026-03-11T22:27:06.893981+05:30"},{"city":"Surat","state":"Gujarat","latitude":21.1702,"longitude":72.8311,"temp":30.1,"humidity":38,"rain":0.0,"pressure":1008.5,"uv_index":7.3,"wind_gusts":27.4,"aqi":142,"pm10":86.6,"pm2_5":84.3,"mosquito_risk":0,"arthritis_risk":0,"migraine_risk":4,"frizz_risk":0,"updated_at":"2026-03-11T22:27:06.894018+05:30"},{"city":"Vadodara","state":"Gujarat","latitude":22.3072,"longitude":73.1812,"temp":30.2,"humidity":34,"rain":0.0,"pressure":1006.7,"uv_index":7.45,"wind_gusts":20.2,"aqi":112,"pm10":40.7,"pm2_5":38.3,"mosquito_risk":0,"arthritis_risk":5,"migraine_risk":4,"frizz_risk":0,"updated_at":"2026-03-11T22:27:06.894030+05:30"},{"city":"Rajkot","state":"Gujarat","latitude":22.3039,"longitude":70.8022,"temp":28.0,"humidity":30,"rain":0.0,"pressure":998.0,"uv_index":7.25,"wind_gusts":32.4,"aqi":115,"pm10":16.3,"pm2_5":15.9,"mosquito_risk":4,"arthritis_risk":5,"migraine_risk":7,"frizz_risk":0,"updated_at":"2026-03-11T22:27:06.894040+05:30"},{"city":"Thane","state":"Maharashtra","latitude":19.2183,"longitude":72.9781,"temp":26.6,"humidity":93,"rain":0.0,"pressure":1010.5,"uv_index":7.6,"wind_gusts":40.7,"aqi":199,"pm10":59.3,"pm2_5":52.3,"mosquito_risk":7,"arthritis_risk":0,"migraine_risk":4,"frizz_risk":1,"updated_at":"2026-03-11T22:27:06.894050+05:30"},{"city":"Nagpur","state":"Maharashtra","latitude":21.1458,"longitude":79.0882,"temp":27.0,"humidity":45,"rain":0.0,"pressure":975.8,"uv_index":8.0,"wind_gusts":12.6,"aqi":112,"pm10":64.0,"pm2_5":49.0,"mosquito_risk":4,"arthritis_risk":5,"migraine_risk":7,"frizz_risk":0,"updated_at":"2026-03-11T22:27:06.894059+05:30"},{"city":"Nashik","state":"Maharashtra","latitude":19.9975,"longitude":73.7898,"temp":25.7,"humidity":52,"rain":0.0,"pressure":948.6,"uv_index":7.75,"wind_gusts":25.6,"aqi":156,"pm10":52.9,"pm2_5":50.1,"mosquito_risk":4,"arthritis_risk":5,"migraine_risk":7,"frizz_risk":0,"updated_at":"2026-03-11T22:27:06.894069+05:30"},{"city":"Aurangabad","state":"Maharashtra","latitude":19.8762,"longitude":75.3433,"temp":26.2,"humidity":42,"rain":0.0,"pressure":946.7,"uv_index":8.3,"wind_gusts":18.4,"aqi":137,"pm10":43.0,"pm2_5":37.8,"mosquito_risk":4,"arthritis_risk":5,"migraine_risk":7,"frizz_risk":0,"updated_at":"2026-03-11T22:27:06.894077+05:30"},{"city":"Solapur","state":"Maharashtra","latitude":17.6599,"longitude":75.9064,"temp":27.1,"humidity":65,"rain":0.0,"pressure":959.6,"uv_index":8.5,"wind_gusts":20.5,"aqi":128,"pm10":36.1,"pm2_5":31.5,"mosquito_risk":7,"arthritis_risk":5,"migraine_risk":7,"frizz_risk":1,"updated_at":"2026-03-11T22:27:06.894107+05:30"},{"city":"Kolhapur","state":"Maharashtra","latitude":16.705,"longitude":74.2433,"temp":24.9,"humidity":89,"rain":0.0,"pressure":951.0,"uv_index":8.65,"wind_gusts":32.4,"aqi":147,"pm10":68.0,"pm2_5":62.4,"mosquito_risk":3,"arthritis_risk":5,"migraine_risk":7,"frizz_risk":1,"updated_at":"2026-03-11T22:27:06.894117+05:30"},{"city":"Goa","state":"Goa","latitude":15.2993,"longitude":74.124,"temp":28.1,"humidity":81,"rain":0.0,"pressure":1001.0,"uv_index":8.65,"wind_gusts":39.6,"aqi":151,"pm10":63.3,"pm2_5":55.3,"mosquito_risk":7,"arthritis_risk":5,"migraine_risk":4,"frizz_risk":1,"updated_at":"2026-03-11T22:27:06.894125+05:30"},{"city":"Jodhpur","state":"Rajasthan","latitude":26.2389,"longitude":73.0243,"temp":26.3,"humidity":29,"rain":0.0,"pressure":986.1,"uv_index":7.15,"wind_gusts":31.7,"aqi":107,"pm10":128.5,"pm2_5":25.3,"mosquito_risk":4,"arthritis_risk":5,"migraine_risk":7,"frizz_risk":0,"updated_at":"2026-03-11T22:27:06.894134+05:30"},{"city":"Udaipur","state":"Rajasthan","latitude":24.5854,"longitude":73.7125,"temp":24.3,"humidity":31,"rain":0.0,"pressure":950.5,"uv_index":7.8,"wind_gusts":26.3,"aqi":106,"pm10":15.1,"pm2_5":14.1,"mosquito_risk":0,"arthritis_risk":5,"migraine_risk":7,"frizz_risk":0,"updated_at":"2026-03-11T22:27:06.894142+05:30"},{"city":"Kota","state":"Rajasthan","latitude":25.2138,"longitude":75.8648,"temp":24.0,"humidity":47,"rain":0.0,"pressure":981.6,"uv_index":7.2,"wind_gusts":18.7,"aqi":96,"pm10":60.8,"pm2_5":31.7,"mosquito_risk":0,"arthritis_risk":5,"migraine_risk":7,"frizz_risk":0,"updated_at":"2026-03-11T22:27:06.894149+05:30"},{"city":"Bikaner","state":"Rajasthan","latitude":28.0229,"longitude":73.3119,"temp":27.8,"humidity":24,"rain":0.0,"pressure":984.9,"uv_index":6.15,"wind_gusts":27.7,"aqi":93,"pm10":60.5,"pm2_5":18.9,"mosquito_risk":4,"arthritis_risk":5,"migraine_risk":7,"frizz_risk":0,"updated_at":"2026-03-11T22:27:06.894155+05:30"},{"city":"Ajmer","state":"Rajasthan","latitude":26.4499,"longitude":74.6399,"temp":25.5,"humidity":31,"rain":0.0,"pressure":958.2,"uv_index":7.2,"wind_gusts":27.7,"aqi":106,"pm10":30.0,"pm2_5":19.7,"mosquito_risk":4,"arthritis_risk":5,"migraine_risk":7,"frizz_risk":0,"updated_at":"2026-03-11T22:27:06.894162+05:30"},{"city":"Gwalior","state":"Madhya Pradesh","latitude":26.2183,"longitude":78.1828,"temp":26.9,"humidity":38,"rain":0.0,"pressure":985.9,"uv_index":6.8,"wind_gusts":29.9,"aqi":105,"pm10":153.7,"pm2_5":42.1,"mosquito_risk":4,"arthritis_risk":5,"migraine_risk":7,"frizz_risk":0,"updated_at":"2026-03-11T22:27:06.894169+05:30"},{"city":"Indore","state":"Madhya Pradesh","latitude":22.7196,"longitude":75.8577,"temp":23.7,"humidity":38,"rain":0.0,"pressure":950.7,"uv_index":7.7,"wind_gusts":20.9,"aqi":94,"pm10":36.7,"pm2_5":29.5,"mosquito_risk":0,"arthritis_risk":5,"migraine_risk":7,"frizz_risk":0,"updated_at":"2026-03-11T22:27:06.894176+05:30"},{"city":"Bhopal","state":"Madhya Pradesh","latitude":23.2599,"longitude":77.4126,"temp":24.5,"humidity":38,"rain":0.0,"pressure":956.8,"uv_index":7.55,"wind_gusts":24.8,"aqi":94,"pm10":36.8,"pm2_5":26.0,"mosquito_risk":0,"arthritis_risk":5,"migraine_risk":7,"frizz_risk":0,"updated_at":"2026-03-11T22:27:06.894183+05:30"},{"city":"Jabalpur","state":"Madhya Pradesh","latitude":23.1815,"longitude":79.9864,"temp":27.2,"humidity":29,"rain":0.0,"pressure":964.1,"uv_index":7.7,"wind_gusts":24.5,"aqi":91,"pm10":85.9,"pm2_5":35.7,"mosquito_risk":4,"arthritis_risk":5,"migraine_risk":7,"frizz_risk":0,"updated_at":"2026-03-11T22:27:06.894189+05:30"},{"city":"Ujjain","state":"Madhya Pradesh","latitude":23.1765,"longitude":75.7885,"temp":23.7,"humidity":53,"rain":0.0,"pressure":956.9,"uv_index":7.65,"wind_gusts":14.8,"aqi":83,"pm10":43.2,"pm2_5":35.5,"mosquito_risk":0,"arthritis_risk":5,"migraine_risk":7,"frizz_risk":0,"updated_at":"2026-03-11T22:27:06.894196+05:30"},{"city":"Visakhapatnam","state":"Andhra Pradesh","latitude":17.6868,"longitude":83.2185,"temp":26.0,"humidity":82,"rain":0.0,"pressure":1006.8,"uv_index":8.6,"wind_gusts":39.2,"aqi":92,"pm10":22.6,"pm2_5":19.4,"mosquito_risk":7,"arthritis_risk":5,"migraine_risk":4,"frizz_risk":1,"updated_at":"2026-03-11T22:27:06.894203+05:30"},{"city":"Vijayawada","state":"Andhra Pradesh","latitude":16.5062,"longitude":80.648,"temp":25.8,"humidity":65,"rain":0.0,"pressure":1006.0,"uv_index":8.7,"wind_gusts":17.6,"aqi":88,"pm10":22.4,"pm2_5":21.7,"mosquito_risk":7,"arthritis_risk":5,"migraine_risk":4,"frizz_risk":1,"updated_at":"2026-03-11T22:27:06.894210+05:30"},{"city":"Guntur","state":"Andhra Pradesh","latitude":16.3067,"longitude":80.4365,"temp":25.4,"humidity":73,"rain":0.0,"pressure":1007.2,"uv_index":8.7,"wind_gusts":18.7,"aqi":76,"pm10":24.7,"pm2_5":23.6,"mosquito_risk":7,"arthritis_risk":5,"migraine_risk":4,"frizz_risk":1,"updated_at":"2026-03-11T22:27:06.894218+05:30"},{"city":"Nellore","state":"Andhra Pradesh","latitude":14.4426,"longitude":79.9865,"temp":24.7,"humidity":88,"rain":0.0,"pressure":1009.7,"uv_index":8.85,"wind_gusts":28.4,"aqi":64,"pm10":18.4,"pm2_5":15.8,"mosquito_risk":3,"arthritis_risk":0,"migraine_risk":4,"frizz_risk":1,"updated_at":"2026-03-11T22:27:06.894225+05:30"},{"city":"Kurnool","state":"Andhra Pradesh","latitude":15.8281,"longitude":78.0373,"temp":29.0,"humidity":41,"rain":0.0,"pressure":980.0,"uv_index":8.7,"wind_gusts":25.2,"aqi":60,"pm10":44.6,"pm2_5":37.8,"mosquito_risk":4,"arthritis_risk":5,"migraine_risk":7,"frizz_risk":0,"updated_at":"2026-03-11T22:27:06.894233+05:30"},{"city":"Kakinada","state":"Andhra Pradesh","latitude":16.9891,"longitude":82.2475,"temp":24.6,"humidity":82,"rain":0.0,"pressure":1010.4,"uv_index":8.65,"wind_gusts":25.9,"aqi":82,"pm10":18.6,"pm2_5":15.5,"mosquito_risk":3,"arthritis_risk":0,"migraine_risk":4,"frizz_risk":1,"updated_at":"2026-03-11T22:27:06.894239+05:30"},{"city":"Tirupati","state":"Andhra Pradesh","latitude":13.6288,"longitude":79.4192,"temp":24.4,"humidity":71,"rain":0.0,"pressure":995.5,"uv_index":9.0,"wind_gusts":32.4,"aqi":78,"pm10":24.3,"pm2_5":23.1,"mosquito_risk":3,"arthritis_risk":5,"migraine_risk":7,"frizz_risk":1,"updated_at":"2026-03-11T22:27:06.894246+05:30"},{"city":"Warangal","state":"Telangana","latitude":17.9689,"longitude":79.5941,"temp":27.7,"humidity":51,"rain":0.0,"pressure":981.3,"uv_index":8.45,"wind_gusts":23.4,"aqi":81,"pm10":56.6,"pm2_5":51.0,"mosquito_risk":4,"arthritis_risk":5,"migraine_risk":7,"frizz_risk":1,"updated_at":"2026-03-11T22:27:06.894253+05:30"},{"city":"Nizamabad","state":"Telangana","latitude":18.6725,"longitude":78.0941,"temp":25.5,"humidity":48,"rain":0.0,"pressure":967.3,"uv_index":8.35,"wind_gusts":26.6,"aqi":119,"pm10":51.1,"pm2_5":45.6,"mosquito_risk":4,"arthritis_risk":5,"migraine_risk":7,"frizz_risk":0,"updated_at":"2026-03-11T22:27:06.894259+05:30"},{"city":"Mysore","state":"Karnataka","latitude":12.2958,"longitude":76.6396,"temp":24.1,"humidity":56,"rain":0.0,"pressure":930.4,"uv_index":9.25,"wind_gusts":28.8,"aqi":61,"pm10":22.0,"pm2_5":21.0,"mosquito_risk":0,"arthritis_risk":5,"migraine_risk":7,"frizz_risk":0,"updated_at":"2026-03-11T22:27:06.894266+05:30"},{"city":"Mangalore","state":"Karnataka","latitude":12.9141,"longitude":74.856,"temp":29.0,"humidity":80,"rain":0.0,"pressure":1009.7,"uv_index":8.9,"wind_gusts":29.5,"aqi":105,"pm10":42.1,"pm2_5":36.0,"mosquito_risk":7,"arthritis_risk":0,"migraine_risk":4,"frizz_risk":1,"updated_at":"2026-03-11T22:27:06.894273+05:30"},{"city":"Hubli-Dharwad","state":"Karnataka","latitude":15.3647,"longitude":75.124,"temp":26.3,"humidity":42,"rain":0.0,"pressure":943.5,"uv_index":8.85,"wind_gusts":37.1,"aqi":96,"pm10":21.1,"pm2_5":19.4,"mosquito_risk":4,"arthritis_risk":5,"migraine_risk":7,"frizz_risk":0,"updated_at":"2026-03-11T22:27:06.894281+05:30"},{"city":"Belgaum","state":"Karnataka","latitude":15.8497,"longitude":74.4977,"temp":24.1,"humidity":76,"rain":0.0,"pressure":928.6,"uv_index":8.9,"wind_gusts":41.0,"aqi":119,"pm10":41.9,"pm2_5":36.4,"mosquito_risk":3,"arthritis_risk":5,"migraine_risk":7,"frizz_risk":1,"updated_at":"2026-03-11T22:27:10.207197+05:30"},{"city":"Coimbatore","state":"Tamil Nadu","latitude":11.0168,"longitude":76.9558,"temp":24.6,"humidity":57,"rain":0.0,"pressure":964.3,"uv_index":9.25,"wind_gusts":35.6,"aqi":76,"pm10":29.4,"pm2_5":27.8,"mosquito_risk":0,"arthritis_risk":5,"migraine_risk":7,"frizz_risk":0,"updated_at":"2026-03-11T22:27:10.207232+05:30"},{"city":"Madurai","state":"Tamil Nadu","latitude":9.9252,"longitude":78.1198,"temp":26.6,"humidity":78,"rain":0.0,"pressure":996.3,"uv_index":8.4,"wind_gusts":31.7,"aqi":63,"pm10":17.6,"pm2_5":16.8,"mosquito_risk":7,"arthritis_risk":5,"migraine_risk":7,"frizz_risk":1,"updated_at":"2026-03-11T22:27:10.207244+05:30"},{"city":"Trichy","state":"Tamil Nadu","latitude":10.7905,"longitude":78.7047,"temp":26.2,"humidity":82,"rain":0.0,"pressure":1003.1,"uv_index":9.15,"wind_gusts":28.8,"aqi":65,"pm10":19.3,"pm2_5":18.2,"mosquito_risk":7,"arthritis_risk":5,"migraine_risk":4,"frizz_risk":1,"updated_at":"2026-03-11T22:27:10.207254+05:30"},{"city":"Salem","state":"Tamil Nadu","latitude":11.6643,"longitude":78.146,"temp":26.4,"humidity":73,"rain":0.0,"pressure":979.9,"uv_index":9.15,"wind_gusts":19.8,"aqi":69,"pm10":17.5,"pm2_5":16.5,"mosquito_risk":7,"arthritis_risk":5,"migraine_risk":7,"frizz_risk":1,"updated_at":"2026-03-11T22:27:10.207263+05:30"},{"city":"Tirunelveli","state":"Tamil Nadu","latitude":8.7139,"longitude":77.7567,"temp":26.4,"humidity":78,"rain":0.0,"pressure":1006.4,"uv_index":6.2,"wind_gusts":25.9,"aqi":53,"pm10":17.7,"pm2_5":16.1,"mosquito_risk":7,"arthritis_risk":5,"migraine_risk":4,"frizz_risk":1,"updated_at":"2026-03-11T22:27:10.207272+05:30"},{"city":"Vellore","state":"Tamil Nadu","latitude":12.9165,"longitude":79.1325,"temp":25.2,"humidity":79,"rain":0.0,"pressure":988.4,"uv_index":9.1,"wind_gusts":34.6,"aqi":89,"pm10":29.2,"pm2_5":27.8,"mosquito_risk":7,"arthritis_risk":5,"migraine_risk":7,"frizz_risk":1,"updated_at":"2026-03-11T22:27:10.207280+05:30"},{"city":"Erode","state":"Tamil Nadu","latitude":11.341,"longitude":77.7172,"temp":27.4,"humidity":63,"rain":0.0,"pressure":991.7,"uv_index":9.15,"wind_gusts":18.7,"aqi":78,"pm10":21.8,"pm2_5":20.9,"mosquito_risk":7,"arthritis_risk":5,"migraine_risk":7,"frizz_risk":1,"updated_at":"2026-03-11T22:27:10.207289+05:30"},{"city":"Kochi","state":"Kerala","latitude":9.9312,"longitude":76.2673,"temp":28.3,"humidity":81,"rain":0.0,"pressure":1011.2,"uv_index":8.25,"wind_gusts":38.9,"aqi":114,"pm10":52.4,"pm2_5":49.2,"mosquito_risk":7,"arthritis_risk":0,"migraine_risk":4,"frizz_risk":1,"updated_at":"2026-03-11T22:27:10.207297+05:30"},{"city":"Thiruvananthapuram","state":"Kerala","latitude":8.5241,"longitude":76.9366,"temp":28.1,"humidity":80,"rain":0.0,"pressure":1010.3,"uv_index":7.3,"wind_gusts":25.6,"aqi":84,"pm10":20.6,"pm2_5":17.5,"mosquito_risk":7,"arthritis_risk":0,"migraine_risk":4,"frizz_risk":1,"updated_at":"2026-03-11T22:27:10.207306+05:30"},{"city":"Kozhikode","state":"Kerala","latitude":11.2588,"longitude":75.7804,"temp":28.8,"humidity":82,"rain":0.0,"pressure":1010.1,"uv_index":8.95,"wind_gusts":31.3,"aqi":116,"pm10":35.2,"pm2_5":29.5,"mosquito_risk":7,"arthritis_risk":0,"migraine_risk":4,"frizz_risk":1,"updated_at":"2026-03-11T22:27:10.207314+05:30"},{"city":"Thrissur","state":"Kerala","latitude":10.5276,"longitude":76.2144,"temp":27.4,"humidity":85,"rain":0.0,"pressure":1009.5,"uv_index":9.05,"wind_gusts":39.2,"aqi":89,"pm10":34.5,"pm2_5":32.0,"mosquito_risk":7,"arthritis_risk":0,"migraine_risk":4,"frizz_risk":1,"updated_at":"2026-03-11T22:27:10.207321+05:30"},{"city":"Kannur","state":"Kerala","latitude":11.8745,"longitude":75.3704,"temp":28.1,"humidity":83,"rain":0.0,"pressure":1009.8,"uv_index":8.95,"wind_gusts":38.9,"aqi":125,"pm10":40.5,"pm2_5":34.3,"mosquito_risk":7,"arthritis_risk":0,"migraine_risk":4,"frizz_risk":1,"updated_at":"2026-03-11T22:27:10.207328+05:30"},{"city":"Patna","state":"Bihar","latitude":25.5941,"longitude":85.1376,"temp":26.5,"humidity":83,"rain":0.0,"pressure":1003.1,"uv_index":6.85,"wind_gusts":24.8,"aqi":200,"pm10":179.3,"pm2_5":167.6,"mosquito_risk":7,"arthritis_risk":5,"migraine_risk":4,"frizz_risk":1,"updated_at":"2026-03-11T22:27:10.207336+05:30"},{"city":"Gaya","state":"Bihar","latitude":24.7914,"longitude":85.0002,"temp":26.2,"humidity":79,"rain":0.0,"pressure":996.7,"uv_index":7.5,"wind_gusts":21.6,"aqi":176,"pm10":167.2,"pm2_5":153.7,"mosquito_risk":7,"arthritis_risk":5,"migraine_risk":7,"frizz_risk":1,"updated_at":"2026-03-11T22:27:10.207343+05:30"},{"city":"Muzaffarpur","state":"Bihar","latitude":26.1209,"longitude":85.3647,"temp":25.1,"humidity":81,"rain":0.0,"pressure":1003.1,"uv_index":7.35,"wind_gusts":22.0,"aqi":216,"pm10":179.7,"pm2_5":168.1,"mosquito_risk":7,"arthritis_risk":5,"migraine_risk":4,"frizz_risk":1,"updated_at":"2026-03-11T22:27:10.207349+05:30"},{"city":"Bhagalpur","state":"Bihar","latitude":25.2425,"longitude":87.0117,"temp":25.3,"humidity":89,"rain":0.0,"pressure":1004.1,"uv_index":7.15,"wind_gusts":18.4,"aqi":175,"pm10":111.3,"pm2_5":104.1,"mosquito_risk":7,"arthritis_risk":5,"migraine_risk":4,"frizz_risk":1,"updated_at":"2026-03-11T22:27:10.207356+05:30"},{"city":"Ranchi","state":"Jharkhand","latitude":23.3441,"longitude":85.3096,"temp":23.4,"humidity":63,"rain":0.0,"pressure":940.6,"uv_index":8.15,"wind_gusts":28.1,"aqi":170,"pm10":95.5,"pm2_5":83.4,"mosquito_risk":3,"arthritis_risk":5,"migraine_risk":7,"frizz_risk":0,"updated_at":"2026-03-11T22:27:10.207362+05:30"},{"city":"Jamshedpur","state":"Jharkhand","latitude":22.8046,"longitude":86.2029,"temp":25.4,"humidity":81,"rain":0.0,"pressure":994.5,"uv_index":8.05,"wind_gusts":27.0,"aqi":162,"pm10":84.3,"pm2_5":74.3,"mosquito_risk":7,"arthritis_risk":5,"migraine_risk":7,"frizz_risk":1,"updated_at":"2026-03-11T22:27:10.207369+05:30"},{"city":"Dhanbad","state":"Jharkhand","latitude":23.7957,"longitude":86.4304,"temp":24.3,"humidity":80,"rain":0.0,"pressure":983.2,"uv_index":7.6,"wind_gusts":28.4,"aqi":196,"pm10":127.1,"pm2_5":119.2,"mosquito_risk":3,"arthritis_risk":5,"migraine_risk":7,"frizz_risk":1,"updated_at":"2026-03-11T22:27:10.207375+05:30"},{"city":"Bokaro","state":"Jharkhand","latitude":23.6693,"longitude":86.1511,"temp":24.6,"humidity":83,"rain":0.0,"pressure":987.5,"uv_index":7.7,"wind_gusts":37.8,"aqi":193,"pm10":120.6,"pm2_5":110.1,"mosquito_risk":3,"arthritis_risk":5,"migraine_risk":7,"frizz_risk":1,"updated_at":"2026-03-11T22:27:10.207381+05:30"},{"city":"Bhubaneswar","state":"Odisha","latitude":20.2961,"longitude":85.8245,"temp":26.1,"humidity":86,"rain":0.0,"pressure":1005.5,"uv_index":8.35,"wind_gusts":28.4,"aqi":101,"pm10":25.1,"pm2_5":21.9,"mosquito_risk":7,"arthritis_risk":5,"migraine_risk":4,"frizz_risk":1,"updated_at":"2026-03-11T22:27:10.207388+05:30"},{"city":"Cuttack","state":"Odisha","latitude":20.4625,"longitude":85.8828,"temp":26.2,"humidity":88,"rain":0.0,"pressure":1007.5,"uv_index":8.4,"wind_gusts":26.3,"aqi":101,"pm10":25.1,"pm2_5":21.9,"mosquito_risk":7,"arthritis_risk":5,"migraine_risk":4,"frizz_risk":1,"updated_at":"2026-03-11T22:27:10.207394+05:30"},{"city":"Rourkela","state":"Odisha","latitude":22.2604,"longitude":84.8536,"temp":26.6,"humidity":65,"rain":0.0,"pressure":987.4,"uv_index":7.95,"wind_gusts":27.4,"aqi":163,"pm10":92.2,"pm2_5":78.0,"mosquito_risk":7,"arthritis_risk":5,"migraine_risk":7,"frizz_risk":1,"updated_at":"2026-03-11T22:27:10.207401+05:30"},{"city":"Raipur","state":"Chhattisgarh","latitude":21.2514,"longitude":81.6296,"temp":27.0,"humidity":40,"rain":0.0,"pressure":977.0,"uv_index":8.05,"wind_gusts":24.1,"aqi":156,"pm10":127.1,"pm2_5":103.1,"mosquito_risk":4,"arthritis_risk":5,"migraine_risk":7,"frizz_risk":0,"updated_at":"2026-03-11T22:27:10.207407+05:30"},{"city":"Bhilai","state":"Chhattisgarh","latitude":21.1938,"longitude":81.3509,"temp":25.1,"humidity":40,"rain":0.0,"pressure":977.4,"uv_index":8.05,"wind_gusts":19.1,"aqi":152,"pm10":116.9,"pm2_5":92.9,"mosquito_risk":4,"arthritis_risk":5,"migraine_risk":7,"frizz_risk":0,"updated_at":"2026-03-11T22:27:10.207414+05:30"},{"city":"Guwahati","state":"Assam","latitude":26.1158,"longitude":91.7086,"temp":24.8,"humidity":85,"rain":0.0,"pressure":1003.5,"uv_index":7.35,"wind_gusts":19.4,"aqi":152,"pm10":70.3,"pm2_5":65.2,"mosquito_risk":3,"arthritis_risk":5,"migraine_risk":4,"frizz_risk":1,"updated_at":"2026-03-11T22:27:10.207420+05:30"},{"city":"Agartala","state":"Tripura","latitude":23.8315,"longitude":91.2868,"temp":23.5,"humidity":86,"rain":0.0,"pressure":1009.4,"uv_index":7.7,"wind_gusts":15.8,"aqi":175,"pm10":84.5,"pm2_5":78.7,"mosquito_risk":3,"arthritis_risk":0,"migraine_risk":4,"frizz_risk":1,"updated_at":"2026-03-11T22:27:10.207426+05:30"},{"city":"Shillong","state":"Meghalaya","latitude":25.5788,"longitude":91.8933,"temp":13.3,"humidity":94,"rain":0.0,"pressure":857.7,"uv_index":6.65,"wind_gusts":31.3,"aqi":119,"pm10":42.6,"pm2_5":40.0,"mosquito_risk":3,"arthritis_risk":10,"migraine_risk":7,"frizz_risk":0,"updated_at":"2026-03-11T22:27:10.207433+05:30"},{"city":"Imphal","state":"Manipur","latitude":24.817,"longitude":93.9368,"temp":18.9,"humidity":82,"rain":0.0,"pressure":925.7,"uv_index":7.95,"wind_gusts":40.3,"aqi":159,"pm10":110.4,"pm2_5":103.4,"mosquito_risk":3,"arthritis_risk":10,"migraine_risk":7,"frizz_risk":0,"updated_at":"2026-03-11T22:27:10.207440+05:30"},{"city":"Aizawl","state":"Mizoram","latitude":23.7271,"longitude":92.7176,"temp":16.9,"humidity":90,"rain":0.0,"pressure":895.0,"uv_index":7.9,"wind_gusts":27.4,"aqi":188,"pm10":146.2,"pm2_5":141.1,"mosquito_risk":3,"arthritis_risk":10,"migraine_risk":7,"frizz_risk":0,"updated_at":"2026-03-11T22:27:10.207447+05:30"},{"city":"Kohima","state":"Nagaland","latitude":25.6701,"longitude":94.1077,"temp":15.3,"humidity":91,"rain":0.0,"pressure":856.7,"uv_index":7.05,"wind_gusts":32.8,"aqi":151,"pm10":75.9,"pm2_5":71.7,"mosquito_risk":3,"arthritis_risk":10,"migraine_risk":7,"frizz_risk":0,"updated_at":"2026-03-11T22:27:10.207453+05:30"},{"city":"Gangtok","state":"Sikkim","latitude":27.3314,"longitude":88.6138,"temp":15.4,"humidity":89,"rain":0.0,"pressure":839.2,"uv_index":6.3,"wind_gusts":19.8,"aqi":122,"pm10":59.5,"pm2_5":54.8,"mosquito_risk":3,"arthritis_risk":10,"migraine_risk":7,"frizz_risk":0,"updated_at":"2026-03-11T22:27:10.207459+05:30"},{"city":"Siliguri","state":"West Bengal","latitude":26.7271,"longitude":88.3953,"temp":21.6,"humidity":71,"rain":0.0,"pressure":996.6,"uv_index":7.35,"wind_gusts":21.2,"aqi":170,"pm10":115.7,"pm2_5":105.0,"mosquito_risk":3,"arthritis_risk":5,"migraine_risk":7,"frizz_risk":1,"updated_at":"2026-03-11T22:27:13.513739+05:30"},{"city":"Durgapur","state":"West Bengal","latitude":23.5204,"longitude":87.3119,"temp":24.2,"humidity":87,"rain":0.0,"pressure":998.5,"uv_index":7.6,"wind_gusts":20.5,"aqi":164,"pm10":101.3,"pm2_5":95.0,"mosquito_risk":3,"arthritis_risk":5,"migraine_risk":7,"frizz_risk":1,"updated_at":"2026-03-11T22:27:13.513770+05:30"},{"city":"Asansol","state":"West Bengal","latitude":23.6739,"longitude":86.9524,"temp":23.8,"humidity":85,"rain":0.0,"pressure":997.0,"uv_index":7.85,"wind_gusts":20.2,"aqi":173,"pm10":108.3,"pm2_5":101.5,"mosquito_risk":3,"arthritis_risk":5,"migraine_risk":7,"frizz_risk":1,"updated_at":"2026-03-11T22:27:13.513780+05:30"},{"city":"Pondicherry","state":"Puducherry","latitude":11.9139,"longitude":79.8145,"temp":25.2,"humidity":93,"rain":0.0,"pressure":1012.0,"uv_index":9.0,"wind_gusts":31.3,"aqi":59,"pm10":20.9,"pm2_5":16.7,"mosquito_risk":7,"arthritis_risk":0,"migraine_risk":4,"frizz_risk":1,"updated_at":"2026-03-11T22:27:13.513788+05:30"},{"city":"Port Blair","state":"Andaman and Nicobar Islands","latitude":11.6234,"longitude":92.7265,"temp":28.0,"humidity":78,"rain":0.0,"pressure":1009.6,"uv_index":8.95,"wind_gusts":20.2,"aqi":57,"pm10":14.5,"pm2_5":11.7,"mosquito_risk":7,"arthritis_risk":0,"migraine_risk":4,"frizz_risk":1,"updated_at":"2026-03-11T22:27:13.513796+05:30"},{"city":"Haridwar","state":"Uttarakhand","latitude":29.9457,"longitude":78.1642,"temp":20.7,"humidity":77,"rain":0.0,"pressure":976.5,"uv_index":5.85,"wind_gusts":38.5,"aqi":151,"pm10":73.1,"pm2_5":43.9,"mosquito_risk":3,"arthritis_risk":5,"migraine_risk":3,"frizz_risk":1,"updated_at":"2026-03-11T22:27:13.513803+05:30"},{"city":"Rishikesh","state":"Uttarakhand","latitude":30.0869,"longitude":78.2676,"temp":20.1,"humidity":73,"rain":0.0,"pressure":969.4,"uv_index":5.95,"wind_gusts":36.4,"aqi":134,"pm10":54.2,"pm2_5":33.2,"mosquito_risk":3,"arthritis_risk":5,"migraine_risk":3,"frizz_risk":0,"updated_at":"2026-03-11T22:27:13.513812+05:30"},{"city":"Nainital","state":"Uttarakhand","latitude":29.3919,"longitude":79.4542,"temp":19.0,"humidity":46,"rain":0.0,"pressure":808.1,"uv_index":6.8,"wind_gusts":64.4,"aqi":159,"pm10":35.6,"pm2_5":26.0,"mosquito_risk":0,"arthritis_risk":5,"migraine_risk":7,"frizz_risk":0,"updated_at":"2026-03-11T22:27:13.513820+05:30"},{"city":"Mussoorie","state":"Uttarakhand","latitude":30.4599,"longitude":78.0664,"temp":17.3,"humidity":61,"rain":0.0,"pressure":804.8,"uv_index":6.0,"wind_gusts":38.9,"aqi":129,"pm10":57.9,"pm2_5":40.5,"mosquito_risk":3,"arthritis_risk":5,"migraine_risk":3,"frizz_risk":0,"updated_at":"2026-03-11T22:27:13.513827+05:30"},{"city":"Dharamshala","state":"Himachal Pradesh","latitude":32.219,"longitude":76.3234,"temp":21.3,"humidity":31,"rain":0.0,"pressure":872.5,"uv_index":5.4,"wind_gusts":25.9,"aqi":57,"pm10":21.7,"pm2_5":11.9,"mosquito_risk":0,"arthritis_risk":5,"migraine_risk":3,"frizz_risk":0,"updated_at":"2026-03-11T22:27:13.513834+05:30"},{"city":"Dalhousie","state":"Himachal Pradesh","latitude":32.5387,"longitude":75.971,"temp":17.6,"humidity":29,"rain":0.0,"pressure":806.5,"uv_index":4.75,"wind_gusts":19.8,"aqi":87,"pm10":37.3,"pm2_5":27.0,"mosquito_risk":0,"arthritis_risk":5,"migraine_risk":3,"frizz_risk":1,"updated_at":"2026-03-11T22:27:13.513842+05:30"},{"city":"Patiala","state":"Punjab","latitude":30.3398,"longitude":76.3869,"temp":22.1,"humidity":65,"rain":0.0,"pressure":980.8,"uv_index":5.4,"wind_gusts":19.1,"aqi":166,"pm10":126.7,"pm2_5":98.5,"mosquito_risk":3,"arthritis_risk":5,"migraine_risk":3,"frizz_risk":0,"updated_at":"2026-03-11T22:27:13.513849+05:30"},{"city":"Bhatinda","state":"Punjab","latitude":30.211,"longitude":74.9455,"temp":23.3,"humidity":68,"rain":0.0,"pressure":986.4,"uv_index":6.6,"wind_gusts":25.2,"aqi":149,"pm10":101.5,"pm2_5":76.1,"mosquito_risk":3,"arthritis_risk":5,"migraine_risk":7,"frizz_risk":1,"updated_at":"2026-03-11T22:27:13.513856+05:30"},{"city":"Rohtak","state":"Haryana","latitude":28.8955,"longitude":76.6066,"temp":21.9,"humidity":58,"rain":0.0,"pressure":984.4,"uv_index":6.1,"wind_gusts":27.4,"aqi":204,"pm10":438.7,"pm2_5":104.5,"mosquito_risk":0,"arthritis_risk":5,"migraine_risk":7,"frizz_risk":0,"updated_at":"2026-03-11T22:27:13.513863+05:30"},{"city":"Panipat","state":"Haryana","latitude":29.3909,"longitude":76.9635,"temp":20.7,"humidity":69,"rain":0.0,"pressure":982.8,"uv_index":5.45,"wind_gusts":24.8,"aqi":336,"pm10":631.4,"pm2_5":102.2,"mosquito_risk":3,"arthritis_risk":5,"migraine_risk":3,"frizz_risk":0,"updated_at":"2026-03-11T22:27:13.513869+05:30"},{"city":"Mathura","state":"Uttar Pradesh","latitude":27.4924,"longitude":77.6737,"temp":22.2,"humidity":60,"rain":0.0,"pressure":989.3,"uv_index":6.4,"wind_gusts":21.2,"aqi":335,"pm10":633.3,"pm2_5":103.8,"mosquito_risk":0,"arthritis_risk":5,"migraine_risk":7,"frizz_risk":0,"updated_at":"2026-03-11T22:27:13.513876+05:30"},{"city":"Vrindavan","state":"Uttar Pradesh","latitude":27.5823,"longitude":77.7027,"temp":22.5,"humidity":56,"rain":0.0,"pressure":989.9,"uv_index":6.35,"wind_gusts":23.0,"aqi":335,"pm10":633.3,"pm2_5":103.8,"mosquito_risk":0,"arthritis_risk":5,"migraine_risk":7,"frizz_risk":0,"updated_at":"2026-03-11T22:27:13.513882+05:30"},{"city":"Ayodhya","state":"Uttar Pradesh","latitude":26.7922,"longitude":82.1998,"temp":23.5,"humidity":77,"rain":0.0,"pressure":997.7,"uv_index":6.8,"wind_gusts":25.2,"aqi":185,"pm10":82.2,"pm2_5":54.4,"mosquito_risk":3,"arthritis_risk":5,"migraine_risk":7,"frizz_risk":1,"updated_at":"2026-03-11T22:27:13.513889+05:30"},{"city":"Ratlam","state":"Madhya Pradesh","latitude":23.3315,"longitude":75.0367,"temp":24.7,"humidity":42,"rain":0.0,"pressure":957.5,"uv_index":7.55,"wind_gusts":19.8,"aqi":97,"pm10":37.7,"pm2_5":31.7,"mosquito_risk":0,"arthritis_risk":5,"migraine_risk":7,"frizz_risk":0,"updated_at":"2026-03-11T22:27:13.513896+05:30"},{"city":"Sagar","state":"Madhya Pradesh","latitude":23.8388,"longitude":78.7378,"temp":26.1,"humidity":30,"rain":0.0,"pressure":953.0,"uv_index":7.55,"wind_gusts":24.8,"aqi":102,"pm10":57.5,"pm2_5":23.5,"mosquito_risk":4,"arthritis_risk":5,"migraine_risk":7,"frizz_risk":0,"updated_at":"2026-03-11T22:27:13.513902+05:30"},{"city":"Satna","state":"Madhya Pradesh","latitude":24.6005,"longitude":80.8322,"temp":25.9,"humidity":39,"rain":0.0,"pressure":974.3,"uv_index":7.55,"wind_gusts":34.2,"aqi":145,"pm10":57.3,"pm2_5":26.1,"mosquito_risk":4,"arthritis_risk":5,"migraine_risk":7,"frizz_risk":0,"updated_at":"2026-03-11T22:27:13.513909+05:30"},{"city":"Akola","state":"Maharashtra","latitude":20.7002,"longitude":77.0082,"temp":27.9,"humidity":40,"rain":0.0,"pressure":977.5,"uv_index":8.0,"wind_gusts":14.4,"aqi":152,"pm10":42.0,"pm2_5":34.0,"mosquito_risk":4,"arthritis_risk":5,"migraine_risk":7,"frizz_risk":0,"updated_at":"2026-03-11T22:27:13.513916+05:30"},{"city":"Amravati","state":"Maharashtra","latitude":20.9374,"longitude":77.7796,"temp":27.4,"humidity":49,"rain":0.0,"pressure":969.6,"uv_index":8.0,"wind_gusts":11.9,"aqi":146,"pm10":43.2,"pm2_5":30.4,"mosquito_risk":4,"arthritis_risk":5,"migraine_risk":7,"frizz_risk":0,"updated_at":"2026-03-11T22:27:13.513923+05:30"},{"city":"Latur","state":"Maharashtra","latitude":18.4088,"longitude":76.5604,"temp":27.1,"humidity":45,"rain":0.0,"pressure":942.8,"uv_index":8.45,"wind_gusts":24.5,"aqi":137,"pm10":37.6,"pm2_5":33.9,"mosquito_risk":4,"arthritis_risk":5,"migraine_risk":7,"frizz_risk":0,"updated_at":"2026-03-11T22:27:13.513930+05:30"},{"city":"Nanded","state":"Maharashtra","latitude":19.1383,"longitude":77.3091,"temp":27.7,"humidity":50,"rain":0.0,"pressure":971.1,"uv_index":8.2,"wind_gusts":18.0,"aqi":123,"pm10":43.3,"pm2_5":39.0,"mosquito_risk":4,"arthritis_risk":5,"migraine_risk":7,"frizz_risk":1,"updated_at":"2026-03-11T22:27:13.513936+05:30"},{"city":"Gulbarga","state":"Karnataka","latitude":17.3297,"longitude":76.8343,"temp":29.2,"humidity":47,"rain":0.0,"pressure":961.8,"uv_index":8.5,"wind_gusts":21.6,"aqi":100,"pm10":37.3,"pm2_5":31.2,"mosquito_risk":4,"arthritis_risk":5,"migraine_risk":7,"frizz_risk":1,"updated_at":"2026-03-11T22:27:13.513942+05:30"},{"city":"Bidar","state":"Karnataka","latitude":17.9104,"longitude":77.5199,"temp":27.6,"humidity":45,"rain":0.0,"pressure":938.6,"uv_index":8.5,"wind_gusts":24.8,"aqi":105,"pm10":53.9,"pm2_5":46.6,"mosquito_risk":4,"arthritis_risk":5,"migraine_risk":7,"frizz_risk":0,"updated_at":"2026-03-11T22:27:13.513949+05:30"},{"city":"Hospet","state":"Karnataka","latitude":15.2689,"longitude":76.3909,"temp":28.2,"humidity":45,"rain":0.0,"pressure":958.5,"uv_index":8.8,"wind_gusts":28.4,"aqi":81,"pm10":25.1,"pm2_5":23.1,"mosquito_risk":4,"arthritis_risk":5,"migraine_risk":7,"frizz_risk":0,"updated_at":"2026-03-11T22:27:13.513955+05:30"},{"city":"Tirupur","state":"Tamil Nadu","latitude":11.1085,"longitude":77.3411,"temp":27.7,"humidity":55,"rain":0.0,"pressure":978.0,"uv_index":9.25,"wind_gusts":29.5,"aqi":86,"pm10":24.1,"pm2_5":22.8,"mosquito_risk":4,"arthritis_risk":5,"migraine_risk":7,"frizz_risk":1,"updated_at":"2026-03-11T22:27:13.513961+05:30"},{"city":"Alappuzha","state":"Kerala","latitude":9.4981,"longitude":76.3388,"temp":28.3,"humidity":81,"rain":0.0,"pressure":1011.4,"uv_index":8.25,"wind_gusts":37.8,"aqi":106,"pm10":45.5,"pm2_5":40.6,"mosquito_risk":7,"arthritis_risk":0,"migraine_risk":4,"frizz_risk":1,"updated_at":"2026-03-11T22:27:13.513967+05:30"},{"city":"Munnar","state":"Kerala","latitude":10.0889,"longitude":77.0595,"temp":20.8,"humidity":80,"rain":0.0,"pressure":858.6,"uv_index":8.0,"wind_gusts":27.4,"aqi":60,"pm10":27.9,"pm2_5":26.8,"mosquito_risk":3,"arthritis_risk":5,"migraine_risk":7,"frizz_risk":1,"updated_at":"2026-03-11T22:27:13.513974+05:30"},{"city":"Silchar","state":"Assam","latitude":24.8333,"longitude":92.7789,"temp":25.1,"humidity":80,"rain":0.0,"pressure":1008.1,"uv_index":7.65,"wind_gusts":20.2,"aqi":174,"pm10":125.3,"pm2_5":115.9,"mosquito_risk":7,"arthritis_risk":0,"migraine_risk":4,"frizz_risk":1,"updated_at":"2026-03-11T22:27:13.513981+05:30"},{"city":"Dibrugarh","state":"Assam","latitude":27.4728,"longitude":94.912,"temp":22.9,"humidity":88,"rain":0.0,"pressure":998.5,"uv_index":7.45,"wind_gusts":31.3,"aqi":158,"pm10":88.0,"pm2_5":82.9,"mosquito_risk":3,"arthritis_risk":5,"migraine_risk":7,"frizz_risk":1,"updated_at":"2026-03-11T22:27:13.513987+05:30"}]