[{"city":"Delhi","state":"Delhi","latitude":28.6139,"longitude":77.209,"temp":26.0,"humidity":63,"rain":0.0,"pressure":980.0,"uv_index":7.4,"wind_gusts":68.0,"aqi":150,"pm10":295.2,"pm2_5":55.1,"mosquito_risk":7,"arthritis_risk":5,"migraine_risk":7,"frizz_risk":1,"updated_at":"2026-04-30T14:43:53.002283+05:30"},{"city":"Mumbai","state":"Maharashtra","latitude":19.076,"longitude":72.8777,"temp":32.5,"humidity":62,"rain":0.0,"pressure":1007.1,"uv_index":8.05,"wind_gusts":41.4,"aqi":69,"pm10":49.1,"pm2_5":25.1,"mosquito_risk":3,"arthritis_risk":5,"migraine_risk":4,"frizz_risk":1,"updated_at":"2026-04-30T14:43:53.002350+05:30"},{"city":"Bangalore","state":"Karnataka","latitude":12.9716,"longitude":77.5946,"temp":36.0,"humidity":28,"rain":0.0,"pressure":911.6,"uv_index":9.55,"wind_gusts":31.0,"aqi":97,"pm10":45.3,"pm2_5":33.8,"mosquito_risk":0,"arthritis_risk":5,"migraine_risk":10,"frizz_risk":0,"updated_at":"2026-04-30T14:43:53.002366+05:30"},{"city":"Hyderabad","state":"Telangana","latitude":17.385,"longitude":78.4867,"temp":39.5,"humidity":15,"rain":0.0,"pressure":951.0,"uv_index":9.25,"wind_gusts":33.1,"aqi":108,"pm10":34.9,"pm2_5":27.2,"mosquito_risk":0,"arthritis_risk":5,"migraine_risk":10,"frizz_risk":0,"updated_at":"2026-04-30T14:43:53.002377+05:30"},{"city":"Chennai","state":"Tamil Nadu","latitude":13.0827,"longitude":80.2707,"temp":35.5,"humidity":52,"rain":0.0,"pressure":1003.9,"uv_index":9.25,"wind_gusts":55.4,"aqi":47,"pm10":20.0,"pm2_5":15.5,"mosquito_risk":0,"arthritis_risk":5,"migraine_risk":7,"frizz_risk":1,"updated_at":"2026-04-30T14:43:53.002386+05:30"},{"city":"Kolkata","state":"West Bengal","latitude":22.5726,"longitude":88.3639,"temp":31.9,"humidity":63,"rain":0.0,"pressure":1002.8,"uv_index":8.8,"wind_gusts":38.9,"aqi":54,"pm10":28.6,"pm2_5":24.7,"mosquito_risk":3,"arthritis_risk":5,"migraine_risk":4,"frizz_risk":1,"updated_at":"2026-04-30T14:43:53.002395+05:30"},{"city":"Pune","state":"Maharashtra","latitude":18.5204,"longitude":73.8567,"temp":37.8,"humidity":19,"rain":0.0,"pressure":947.1,"uv_index":8.6,"wind_gusts":50.4,"aqi":55,"pm10":29.6,"pm2_5":14.4,"mosquito_risk":0,"arthritis_risk":5,"migraine_risk":10,"frizz_risk":0,"updated_at":"2026-04-30T14:43:53.002409+05:30"},{"city":"Ahmedabad","state":"Gujarat","latitude":23.0225,"longitude":72.5714,"temp":40.7,"humidity":20,"rain":0.0,"pressure":997.3,"uv_index":8.2,"wind_gusts":42.1,"aqi":54,"pm10":71.2,"pm2_5":20.2,"mosquito_risk":0,"arthritis_risk":5,"migraine_risk":10,"frizz_risk":0,"updated_at":"2026-04-30T14:43:53.002417+05:30"},{"city":"Jaipur","state":"Rajasthan","latitude":26.9124,"longitude":75.7873,"temp":39.2,"humidity":15,"rain":0.0,"pressure":954.9,"uv_index":8.1,"wind_gusts":54.0,"aqi":153,"pm10":352.0,"pm2_5":42.6,"mosquito_risk":0,"arthritis_risk":5,"migraine_risk":10,"frizz_risk":0,"updated_at":"2026-04-30T14:43:53.002427+05:30"},{"city":"Lucknow","state":"Uttar Pradesh","latitude":26.8467,"longitude":80.9462,"temp":33.9,"humidity":37,"rain":0.0,"pressure":989.9,"uv_index":7.5,"wind_gusts":41.8,"aqi":103,"pm10":132.7,"pm2_5":36.8,"mosquito_risk":0,"arthritis_risk":5,"migraine_risk":7,"frizz_risk":1,"updated_at":"2026-04-30T14:43:53.002435+05:30"},{"city":"Kanpur","state":"Uttar Pradesh","latitude":26.4499,"longitude":80.3319,"temp":32.5,"humidity":37,"rain":0.0,"pressure":988.6,"uv_index":6.65,"wind_gusts":45.7,"aqi":160,"pm10":280.3,"pm2_5":49.8,"mosquito_risk":0,"arthritis_risk":5,"migraine_risk":7,"frizz_risk":0,"updated_at":"2026-04-30T14:43:53.002444+05:30"},{"city":"Chandigarh","state":"Chandigarh","latitude":30.7333,"longitude":76.7794,"temp":30.4,"humidity":39,"rain":0.0,"pressure":966.1,"uv_index":6.8,"wind_gusts":38.9,"aqi":79,"pm10":113.4,"pm2_5":24.6,"mosquito_risk":0,"arthritis_risk":5,"migraine_risk":7,"frizz_risk":0,"updated_at":"2026-04-30T14:43:53.002452+05:30"},{"city":"Srinagar","state":"Jammu and Kashmir","latitude":34.0837,"longitude":74.7973,"temp":18.2,"humidity":62,"rain":0.0,"pressure":840.7,"uv_index":6.85,"wind_gusts":27.7,"aqi":67,"pm10":12.3,"pm2_5":7.5,"mosquito_risk":3,"arthritis_risk":5,"migraine_risk":7,"frizz_risk":0,"updated_at":"2026-04-30T14:43:53.002461+05:30"},{"city":"Jammu","state":"Jammu and Kashmir","latitude":32.7266,"longitude":74.857,"temp":31.7,"humidity":30,"rain":0.0,"pressure":969.2,"uv_index":8.3,"wind_gusts":23.0,"aqi":55,"pm10":23.1,"pm2_5":11.5,"mosquito_risk":0,"arthritis_risk":5,"migraine_risk":7,"frizz_risk":0,"updated_at":"2026-04-30T14:43:53.002469+05:30"},{"city":"Amritsar","state":"Punjab","latitude":31.634,"longitude":74.8723,"temp":34.3,"humidity":23,"rain":0.0,"pressure":977.0,"uv_index":7.85,"wind_gusts":35.3,"aqi":80,"pm10":27.4,"pm2_5":15.4,"mosquito_risk":0,"arthritis_risk":5,"migraine_risk":7,"frizz_risk":0,"updated_at":"2026-04-30T14:43:53.002476+05:30"},{"city":"Ludhiana","state":"Punjab","latitude":30.901,"longitude":75.8573,"temp":31.0,"humidity":37,"rain":0.0,"pressure":976.2,"uv_index":7.35,"wind_gusts":55.8,"aqi":91,"pm10":100.1,"pm2_5":23.8,"mosquito_risk":0,"arthritis_risk":5,"migraine_risk":7,"frizz_risk":0,"updated_at":"2026-04-30T14:43:53.002483+05:30"},{"city":"Jalandhar","state":"Punjab","latitude":31.326,"longitude":75.5762,"temp":31.5,"humidity":35,"rain":0.0,"pressure":976.4,"uv_index":7.45,"wind_gusts":42.8,"aqi":78,"pm10":65.4,"pm2_5":17.9,"mosquito_risk":0,"arthritis_risk":5,"migraine_risk":7,"frizz_risk":0,"updated_at":"2026-04-30T14:43:53.002493+05:30"},{"city":"Dehradun","state":"Uttarakhand","latitude":30.6284,"longitude":78.0322,"temp":18.8,"humidity":67,"rain":0.0,"pressure":828.4,"uv_index":7.7,"wind_gusts":44.3,"aqi":55,"pm10":69.2,"pm2_5":14.8,"mosquito_risk":3,"arthritis_risk":5,"migraine_risk":7,"frizz_risk":0,"updated_at":"2026-04-30T14:43:53.002501+05:30"},{"city":"Shimla","state":"Himachal Pradesh","latitude":31.1048,"longitude":77.1734,"temp":18.0,"humidity":47,"rain":0.0,"pressure":783.7,"uv_index":7.4,"wind_gusts":35.3,"aqi":74,"pm10":46.6,"pm2_5":10.1,"mosquito_risk":0,"arthritis_risk":5,"migraine_risk":7,"frizz_risk":0,"updated_at":"2026-04-30T14:43:53.002508+05:30"},{"city":"Manali","state":"Himachal Pradesh","latitude":32.2396,"longitude":77.1887,"temp":18.0,"humidity":49,"rain":0.1,"pressure":815.3,"uv_index":10.1,"wind_gusts":33.8,"aqi":79,"pm10":3.5,"pm2_5":2.1,"mosquito_risk":3,"arthritis_risk":5,"migraine_risk":7,"frizz_risk":0,"updated_at":"2026-04-30T14:43:53.002516+05:30"},{"city":"Gurgaon","state":"Haryana","latitude":28.4595,"longitude":77.0266,"temp":36.2,"humidity":21,"rain":0.0,"pressure":976.9,"uv_index":7.55,"wind_gusts":69.1,"aqi":726,"pm10":819.6,"pm2_5":94.5,"mosquito_risk":0,"arthritis_risk":5,"migraine_risk":10,"frizz_risk":0,"updated_at":"2026-04-30T14:43:53.002523+05:30"},{"city":"Noida","state":"Uttar Pradesh","latitude":28.5355,"longitude":77.391,"temp":26.9,"humidity":61,"rain":0.0,"pressure":982.0,"uv_index":7.45,"wind_gusts":56.5,"aqi":726,"pm10":819.6,"pm2_5":94.5,"mosquito_risk":7,"arthritis_risk":5,"migraine_risk":7,"frizz_risk":1,"updated_at":"2026-04-30T14:43:53.002530+05:30"},{"city":"Ghaziabad","state":"Uttar Pradesh","latitude":28.6692,"longitude":77.4538,"temp":25.4,"humidity":69,"rain":0.0,"pressure":979.8,"uv_index":7.3,"wind_gusts":52.9,"aqi":137,"pm10":182.5,"pm2_5":43.5,"mosquito_risk":7,"arthritis_risk":5,"migraine_risk":7,"frizz_risk":1,"updated_at":"2026-04-30T14:43:53.002537+05:30"},{"city":"Faridabad","state":"Haryana","latitude":28.4089,"longitude":77.3178,"temp":24.9,"humidity":70,"rain":0.0,"pressure":981.1,"uv_index":7.5,"wind_gusts":67.3,"aqi":726,"pm10":819.6,"pm2_5":94.5,"mosquito_risk":3,"arthritis_risk":5,"migraine_risk":7,"frizz_risk":1,"updated_at":"2026-04-30T14:43:53.002545+05:30"},{"city":"Meerut","state":"Uttar Pradesh","latitude":28.9845,"longitude":77.7064,"temp":24.3,"humidity":79,"rain":0.1,"pressure":978.6,"uv_index":5.65,"wind_gusts":62.3,"aqi":137,"pm10":182.5,"pm2_5":43.5,"mosquito_risk":6,"arthritis_risk":5,"migraine_risk":3,"frizz_risk":1,"updated_at":"2026-04-30T14:43:53.002552+05:30"},{"city":"Agra","state":"Uttar Pradesh","latitude":27.1767,"longitude":78.0081,"temp":38.2,"humidity":18,"rain":0.0,"pressure":982.1,"uv_index":7.8,"wind_gusts":39.6,"aqi":666,"pm10":474.0,"pm2_5":61.9,"mosquito_risk":0,"arthritis_risk":5,"migraine_risk":10,"frizz_risk":0,"updated_at":"2026-04-30T14:43:53.002560+05:30"},{"city":"Varanasi","state":"Uttar Pradesh","latitude":25.3176,"longitude":82.9739,"temp":33.0,"humidity":38,"rain":0.0,"pressure":993.9,"uv_index":8.45,"wind_gusts":36.0,"aqi":115,"pm10":84.5,"pm2_5":30.2,"mosquito_risk":0,"arthritis_risk":5,"migraine_risk":7,"frizz_risk":1,"updated_at":"2026-04-30T14:43:53.002569+05:30"},{"city":"Prayagraj","state":"Uttar Pradesh","latitude":25.4358,"longitude":81.8463,"temp":35.2,"humidity":28,"rain":0.0,"pressure":991.4,"uv_index":7.7,"wind_gusts":58.7,"aqi":123,"pm10":90.1,"pm2_5":29.6,"mosquito_risk":0,"arthritis_risk":5,"migraine_risk":10,"frizz_risk":0,"updated_at":"2026-04-30T14:43:53.002579+05:30"},{"city":"Gorakhpur","state":"Uttar Pradesh","latitude":26.7606,"longitude":83.3732,"temp":32.7,"humidity":41,"rain":0.0,"pressure":994.8,"uv_index":8.25,"wind_gusts":45.7,"aqi":73,"pm10":68.5,"pm2_5":29.5,"mosquito_risk":0,"arthritis_risk":5,"migraine_risk":7,"frizz_risk":1,"updated_at":"2026-04-30T14:43:53.002589+05:30"},{"city":"Bareilly","state":"Uttar Pradesh","latitude":28.367,"longitude":79.4304,"temp":28.5,"humidity":58,"rain":0.0,"pressure":984.5,"uv_index":7.7,"wind_gusts":48.2,"aqi":103,"pm10":175.6,"pm2_5":40.0,"mosquito_risk":4,"arthritis_risk":5,"migraine_risk":7,"frizz_risk":1,"updated_at":"2026-04-30T14:43:53.002595+05:30"},{"city":"Aligarh","state":"Uttar Pradesh","latitude":27.8974,"longitude":78.088,"temp":35.9,"humidity":25,"rain":0.0,"pressure":980.9,"uv_index":7.6,"wind_gusts":51.1,"aqi":353,"pm10":431.2,"pm2_5":60.1,"mosquito_risk":0,"arthritis_risk":5,"migraine_risk":10,"frizz_risk":0,"updated_at":"2026-04-30T14:43:53.002602+05:30"},{"city":"Moradabad","state":"Uttar Pradesh","latitude":28.8386,"longitude":78.7733,"temp":27.2,"humidity":66,"rain":0.1,"pressure":981.9,"uv_index":7.55,"wind_gusts":50.0,"aqi":124,"pm10":138.8,"pm2_5":39.3,"mosquito_risk":10,"arthritis_risk":5,"migraine_risk":7,"frizz_risk":1,"updated_at":"2026-04-30T14:43:53.002609+05:30"},{"city":"Saharanpur","state":"Uttar Pradesh","latitude":29.9637,"longitude":77.546,"temp":30.2,"humidity":48,"rain":0.0,"pressure":973.1,"uv_index":6.4,"wind_gusts":66.2,"aqi":90,"pm10":162.1,"pm2_5":35.9,"mosquito_risk":0,"arthritis_risk":5,"migraine_risk":7,"frizz_risk":1,"updated_at":"2026-04-30T14:43:53.002615+05:30"},{"city":"Jhansi","state":"Uttar Pradesh","latitude":25.4484,"longitude":78.5685,"temp":41.2,"humidity":14,"rain":0.0,"pressure":972.1,"uv_index":8.3,"wind_gusts":60.1,"aqi":77,"pm10":86.6,"pm2_5":20.8,"mosquito_risk":0,"arthritis_risk":5,"migraine_risk":10,"frizz_risk":0,"updated_at":"2026-04-30T14:43:56.285420+05:30"},{"city":"Surat","state":"Gujarat","latitude":21.1702,"longitude":72.8311,"temp":34.0,"humidity":53,"rain":0.0,"pressure":1004.3,"uv_index":7.85,"wind_gusts":51.8,"aqi":65,"pm10":60.3,"pm2_5":21.5,"mosquito_risk":0,"arthritis_risk":5,"migraine_risk":4,"frizz_risk":1,"updated_at":"2026-04-30T14:43:56.285452+05:30"},{"city":"Vadodara","state":"Gujarat","latitude":22.3072,"longitude":73.1812,"temp":39.4,"humidity":24,"rain":0.0,"pressure":1000.2,"uv_index":8.15,"wind_gusts":45.7,"aqi":58,"pm10":60.1,"pm2_5":19.3,"mosquito_risk":0,"arthritis_risk":5,"migraine_risk":7,"frizz_risk":0,"updated_at":"2026-04-30T14:43:56.285462+05:30"},{"city":"Rajkot","state":"Gujarat","latitude":22.3039,"longitude":70.8022,"temp":41.3,"humidity":20,"rain":0.0,"pressure":990.0,"uv_index":7.9,"wind_gusts":48.6,"aqi":53,"pm10":54.7,"pm2_5":18.6,"mosquito_risk":0,"arthritis_risk":5,"migraine_risk":10,"frizz_risk":0,"updated_at":"2026-04-30T14:43:56.285470+05:30"},{"city":"Thane","state":"Maharashtra","latitude":19.2183,"longitude":72.9781,"temp":36.2,"humidity":42,"rain":0.0,"pressure":1005.8,"uv_index":8.05,"wind_gusts":39.6,"aqi":69,"pm10":49.1,"pm2_5":25.1,"mosquito_risk":0,"arthritis_risk":5,"migraine_risk":7,"frizz_risk":1,"updated_at":"2026-04-30T14:43:56.285477+05:30"},{"city":"Nagpur","state":"Maharashtra","latitude":21.1458,"longitude":79.0882,"temp":41.5,"humidity":12,"rain":0.0,"pressure":968.6,"uv_index":8.9,"wind_gusts":50.4,"aqi":86,"pm10":27.7,"pm2_5":12.0,"mosquito_risk":0,"arthritis_risk":5,"migraine_risk":10,"frizz_risk":0,"updated_at":"2026-04-30T14:43:56.285485+05:30"},{"city":"Nashik","state":"Maharashtra","latitude":19.9975,"longitude":73.7898,"temp":36.7,"humidity":22,"rain":0.0,"pressure":944.4,"uv_index":8.3,"wind_gusts":54.4,"aqi":59,"pm10":51.9,"pm2_5":17.9,"mosquito_risk":0,"arthritis_risk":5,"migraine_risk":10,"frizz_risk":0,"updated_at":"2026-04-30T14:43:56.285492+05:30"},{"city":"Aurangabad","state":"Maharashtra","latitude":19.8762,"longitude":75.3433,"temp":39.8,"humidity":9,"rain":0.0,"pressure":942.0,"uv_index":9.05,"wind_gusts":55.8,"aqi":52,"pm10":27.5,"pm2_5":10.4,"mosquito_risk":0,"arthritis_risk":5,"migraine_risk":10,"frizz_risk":0,"updated_at":"2026-04-30T14:43:56.285499+05:30"},{"city":"Solapur","state":"Maharashtra","latitude":17.6599,"longitude":75.9064,"temp":40.3,"humidity":15,"rain":0.0,"pressure":955.3,"uv_index":9.1,"wind_gusts":40.3,"aqi":65,"pm10":27.7,"pm2_5":16.8,"mosquito_risk":0,"arthritis_risk":5,"migraine_risk":10,"frizz_risk":0,"updated_at":"2026-04-30T14:43:56.285506+05:30"},{"city":"Kolhapur","state":"Maharashtra","latitude":16.705,"longitude":74.2433,"temp":37.3,"humidity":20,"rain":0.0,"pressure":947.3,"uv_index":9.0,"wind_gusts":45.4,"aqi":60,"pm10":26.2,"pm2_5":12.6,"mosquito_risk":0,"arthritis_risk":5,"migraine_risk":10,"frizz_risk":0,"updated_at":"2026-04-30T14:43:56.285512+05:30"},{"city":"Goa","state":"Goa","latitude":15.2993,"longitude":74.124,"temp":36.3,"humidity":45,"rain":0.0,"pressure":996.6,"uv_index":8.95,"wind_gusts":36.4,"aqi":57,"pm10":27.0,"pm2_5":14.1,"mosquito_risk":0,"arthritis_risk":5,"migraine_risk":10,"frizz_risk":1,"updated_at":"2026-04-30T14:43:56.285519+05:30"},{"city":"Jodhpur","state":"Rajasthan","latitude":26.2389,"longitude":73.0243,"temp":40.5,"humidity":17,"rain":0.0,"pressure":977.3,"uv_index":8.3,"wind_gusts":45.7,"aqi":125,"pm10":322.2,"pm2_5":44.1,"mosquito_risk":0,"arthritis_risk":5,"migraine_risk":10,"frizz_risk":0,"updated_at":"2026-04-30T14:43:56.285526+05:30"},{"city":"Udaipur","state":"Rajasthan","latitude":24.5854,"longitude":73.7125,"temp":37.5,"humidity":17,"rain":0.0,"pressure":943.2,"uv_index":8.8,"wind_gusts":45.7,"aqi":56,"pm10":71.2,"pm2_5":19.1,"mosquito_risk":0,"arthritis_risk":5,"migraine_risk":10,"frizz_risk":0,"updated_at":"2026-04-30T14:43:56.285532+05:30"},{"city":"Kota","state":"Rajasthan","latitude":25.2138,"longitude":75.8648,"temp":40.7,"humidity":15,"rain":0.0,"pressure":973.3,"uv_index":8.3,"wind_gusts":42.8,"aqi":63,"pm10":119.7,"pm2_5":22.9,"mosquito_risk":0,"arthritis_risk":5,"migraine_risk":10,"frizz_risk":0,"updated_at":"2026-04-30T14:43:56.285539+05:30"},{"city":"Bikaner","state":"Rajasthan","latitude":28.0229,"longitude":73.3119,"temp":41.5,"humidity":11,"rain":0.0,"pressure":975.2,"uv_index":8.2,"wind_gusts":43.2,"aqi":77,"pm10":174.2,"pm2_5":25.3,"mosquito_risk":0,"arthritis_risk":5,"migraine_risk":10,"frizz_risk":0,"updated_at":"2026-04-30T14:43:56.285545+05:30"},{"city":"Ajmer","state":"Rajasthan","latitude":26.4499,"longitude":74.6399,"temp":39.0,"humidity":13,"rain":0.0,"pressure":950.4,"uv_index":8.25,"wind_gusts":58.7,"aqi":72,"pm10":143.0,"pm2_5":25.4,"mosquito_risk":0,"arthritis_risk":5,"migraine_risk":10,"frizz_risk":0,"updated_at":"2026-04-30T14:43:56.285551+05:30"},{"city":"Gwalior","state":"Madhya Pradesh","latitude":26.2183,"longitude":78.1828,"temp":38.3,"humidity":16,"rain":0.0,"pressure":977.9,"uv_index":8.05,"wind_gusts":39.6,"aqi":124,"pm10":109.4,"pm2_5":24.0,"mosquito_risk":0,"arthritis_risk":5,"migraine_risk":10,"frizz_risk":0,"updated_at":"2026-04-30T14:43:56.285558+05:30"},{"city":"Indore","state":"Madhya Pradesh","latitude":22.7196,"longitude":75.8577,"temp":39.2,"humidity":16,"rain":0.0,"pressure":945.0,"uv_index":8.6,"wind_gusts":45.7,"aqi":51,"pm10":59.0,"pm2_5":17.1,"mosquito_risk":0,"arthritis_risk":5,"migraine_risk":10,"frizz_risk":0,"updated_at":"2026-04-30T14:43:56.285564+05:30"},{"city":"Bhopal","state":"Madhya Pradesh","latitude":23.2599,"longitude":77.4126,"temp":38.0,"humidity":17,"rain":0.0,"pressure":950.1,"uv_index":8.6,"wind_gusts":65.2,"aqi":50,"pm10":82.7,"pm2_5":20.9,"mosquito_risk":0,"arthritis_risk":5,"migraine_risk":10,"frizz_risk":0,"updated_at":"2026-04-30T14:43:56.285570+05:30"},{"city":"Jabalpur","state":"Madhya Pradesh","latitude":23.1815,"longitude":79.9864,"temp":39.6,"humidity":16,"rain":0.0,"pressure":956.8,"uv_index":8.75,"wind_gusts":54.4,"aqi":58,"pm10":45.1,"pm2_5":14.8,"mosquito_risk":0,"arthritis_risk":5,"migraine_risk":10,"frizz_risk":0,"updated_at":"2026-04-30T14:43:56.285577+05:30"},{"city":"Ujjain","state":"Madhya Pradesh","latitude":23.1765,"longitude":75.7885,"temp":39.3,"humidity":17,"rain":0.0,"pressure":950.3,"uv_index":8.55,"wind_gusts":47.2,"aqi":52,"pm10":57.3,"pm2_5":17.4,"mosquito_risk":0,"arthritis_risk":5,"migraine_risk":10,"frizz_risk":0,"updated_at":"2026-04-30T14:43:56.285583+05:30"},{"city":"Visakhapatnam","state":"Andhra Pradesh","latitude":17.6868,"longitude":83.2185,"temp":32.5,"humidity":66,"rain":0.0,"pressure":1000.9,"uv_index":9.1,"wind_gusts":50.8,"aqi":59,"pm10":27.6,"pm2_5":22.6,"mosquito_risk":3,"arthritis_risk":5,"migraine_risk":4,"frizz_risk":1,"updated_at":"2026-04-30T14:43:56.285590+05:30"},{"city":"Vijayawada","state":"Andhra Pradesh","latitude":16.5062,"longitude":80.648,"temp":37.4,"humidity":43,"rain":0.0,"pressure":999.5,"uv_index":9.2,"wind_gusts":50.4,"aqi":69,"pm10":41.4,"pm2_5":34.9,"mosquito_risk":0,"arthritis_risk":5,"migraine_risk":10,"frizz_risk":1,"updated_at":"2026-04-30T14:43:56.285596+05:30"},{"city":"Guntur","state":"Andhra Pradesh","latitude":16.3067,"longitude":80.4365,"temp":38.1,"humidity":40,"rain":0.0,"pressure":1000.5,"uv_index":9.2,"wind_gusts":43.9,"aqi":73,"pm10":44.8,"pm2_5":37.1,"mosquito_risk":0,"arthritis_risk":5,"migraine_risk":7,"frizz_risk":1,"updated_at":"2026-04-30T14:43:56.285603+05:30"},{"city":"Nellore","state":"Andhra Pradesh","latitude":14.4426,"longitude":79.9865,"temp":38.4,"humidity":41,"rain":0.0,"pressure":1002.2,"uv_index":9.2,"wind_gusts":41.4,"aqi":54,"pm10":30.7,"pm2_5":25.0,"mosquito_risk":0,"arthritis_risk":5,"migraine_risk":7,"frizz_risk":1,"updated_at":"2026-04-30T14:43:56.285610+05:30"},{"city":"Kurnool","state":"Andhra Pradesh","latitude":15.8281,"longitude":78.0373,"temp":41.2,"humidity":22,"rain":0.0,"pressure":973.9,"uv_index":9.2,"wind_gusts":45.7,"aqi":92,"pm10":30.6,"pm2_5":23.1,"mosquito_risk":0,"arthritis_risk":5,"migraine_risk":10,"frizz_risk":0,"updated_at":"2026-04-30T14:43:56.285618+05:30"},{"city":"Kakinada","state":"Andhra Pradesh","latitude":16.9891,"longitude":82.2475,"temp":34.4,"humidity":54,"rain":0.0,"pressure":1004.8,"uv_index":9.15,"wind_gusts":37.1,"aqi":52,"pm10":23.2,"pm2_5":17.8,"mosquito_risk":0,"arthritis_risk":5,"migraine_risk":4,"frizz_risk":1,"updated_at":"2026-04-30T14:43:56.285624+05:30"},{"city":"Tirupati","state":"Andhra Pradesh","latitude":13.6288,"longitude":79.4192,"temp":41.9,"humidity":22,"rain":0.0,"pressure":987.2,"uv_index":9.3,"wind_gusts":41.4,"aqi":59,"pm10":29.3,"pm2_5":25.0,"mosquito_risk":0,"arthritis_risk":5,"migraine_risk":10,"frizz_risk":0,"updated_at":"2026-04-30T14:43:56.285630+05:30"},{"city":"Warangal","state":"Telangana","latitude":17.9689,"longitude":79.5941,"temp":40.4,"humidity":21,"rain":0.0,"pressure":975.2,"uv_index":9.15,"wind_gusts":37.1,"aqi":96,"pm10":35.5,"pm2_5":27.9,"mosquito_risk":0,"arthritis_risk":5,"migraine_risk":10,"frizz_risk":0,"updated_at":"2026-04-30T14:43:56.285636+05:30"},{"city":"Nizamabad","state":"Telangana","latitude":18.6725,"longitude":78.0941,"temp":40.7,"humidity":14,"rain":0.0,"pressure":961.8,"uv_index":9.1,"wind_gusts":42.8,"aqi":81,"pm10":22.8,"pm2_5":12.0,"mosquito_risk":0,"arthritis_risk":5,"migraine_risk":10,"frizz_risk":0,"updated_at":"2026-04-30T14:43:56.285643+05:30"},{"city":"Mysore","state":"Karnataka","latitude":12.2958,"longitude":76.6396,"temp":35.8,"humidity":32,"rain":0.0,"pressure":927.7,"uv_index":9.4,"wind_gusts":54.4,"aqi":72,"pm10":37.0,"pm2_5":26.3,"mosquito_risk":0,"arthritis_risk":5,"migraine_risk":10,"frizz_risk":1,"updated_at":"2026-04-30T14:43:56.285649+05:30"},{"city":"Mangalore","state":"Karnataka","latitude":12.9141,"longitude":74.856,"temp":33.8,"humidity":53,"rain":0.0,"pressure":1005.6,"uv_index":9.05,"wind_gusts":39.2,"aqi":68,"pm10":39.6,"pm2_5":20.0,"mosquito_risk":0,"arthritis_risk":5,"migraine_risk":4,"frizz_risk":1,"updated_at":"2026-04-30T14:43:56.285655+05:30"},{"city":"Hubli-Dharwad","state":"Karnataka","latitude":15.3647,"longitude":75.124,"temp":35.2,"humidity":39,"rain":0.0,"pressure":940.5,"uv_index":9.2,"wind_gusts":46.4,"aqi":61,"pm10":30.2,"pm2_5":21.7,"mosquito_risk":0,"arthritis_risk":5,"migraine_risk":10,"frizz_risk":1,"updated_at":"2026-04-30T14:43:56.285662+05:30"},{"city":"Belgaum","state":"Karnataka","latitude":15.8497,"longitude":74.4977,"temp":33.5,"humidity":41,"rain":0.0,"pressure":926.1,"uv_index":9.2,"wind_gusts":44.3,"aqi":57,"pm10":23.8,"pm2_5":14.5,"mosquito_risk":0,"arthritis_risk":5,"migraine_risk":7,"frizz_risk":1,"updated_at":"2026-04-30T14:43:59.556113+05:30"},{"city":"Coimbatore","state":"Tamil Nadu","latitude":11.0168,"longitude":76.9558,"temp":37.9,"humidity":25,"rain":0.0,"pressure":959.8,"uv_index":9.35,"wind_gusts":49.7,"aqi":70,"pm10":38.8,"pm2_5":23.5,"mosquito_risk":0,"arthritis_risk":5,"migraine_risk":10,"frizz_risk":0,"updated_at":"2026-04-30T14:43:59.556149+05:30"},{"city":"Madurai","state":"Tamil Nadu","latitude":9.9252,"longitude":78.1198,"temp":41.0,"humidity":26,"rain":0.0,"pressure":989.6,"uv_index":9.2,"wind_gusts":49.7,"aqi":73,"pm10":14.2,"pm2_5":13.1,"mosquito_risk":0,"arthritis_risk":5,"migraine_risk":10,"frizz_risk":1,"updated_at":"2026-04-30T14:43:59.556162+05:30"},{"city":"Trichy","state":"Tamil Nadu","latitude":10.7905,"longitude":78.7047,"temp":38.8,"humidity":30,"rain":0.0,"pressure":996.4,"uv_index":9.25,"wind_gusts":44.3,"aqi":51,"pm10":15.4,"pm2_5":14.1,"mosquito_risk":0,"arthritis_risk":5,"migraine_risk":10,"frizz_risk":1,"updated_at":"2026-04-30T14:43:59.556172+05:30"},{"city":"Salem","state":"Tamil Nadu","latitude":11.6643,"longitude":78.146,"temp":39.9,"humidity":25,"rain":0.0,"pressure":974.4,"uv_index":9.3,"wind_gusts":43.9,"aqi":86,"pm10":39.2,"pm2_5":27.2,"mosquito_risk":0,"arthritis_risk":5,"migraine_risk":10,"frizz_risk":1,"updated_at":"2026-04-30T14:43:59.556181+05:30"},{"city":"Tirunelveli","state":"Tamil Nadu","latitude":8.7139,"longitude":77.7567,"temp":35.2,"humidity":46,"rain":0.0,"pressure":1000.9,"uv_index":9.1,"wind_gusts":42.8,"aqi":53,"pm10":10.5,"pm2_5":9.6,"mosquito_risk":0,"arthritis_risk":5,"migraine_risk":7,"frizz_risk":1,"updated_at":"2026-04-30T14:43:59.556190+05:30"},{"city":"Vellore","state":"Tamil Nadu","latitude":12.9165,"longitude":79.1325,"temp":40.0,"humidity":25,"rain":0.0,"pressure":981.4,"uv_index":9.35,"wind_gusts":40.7,"aqi":64,"pm10":31.5,"pm2_5":25.7,"mosquito_risk":0,"arthritis_risk":5,"migraine_risk":10,"frizz_risk":1,"updated_at":"2026-04-30T14:43:59.556199+05:30"},{"city":"Erode","state":"Tamil Nadu","latitude":11.341,"longitude":77.7172,"temp":41.7,"humidity":19,"rain":0.0,"pressure":985.2,"uv_index":9.3,"wind_gusts":46.1,"aqi":75,"pm10":30.3,"pm2_5":20.2,"mosquito_risk":0,"arthritis_risk":5,"migraine_risk":10,"frizz_risk":0,"updated_at":"2026-04-30T14:43:59.556208+05:30"},{"city":"Kochi","state":"Kerala","latitude":9.9312,"longitude":76.2673,"temp":30.7,"humidity":76,"rain":0.0,"pressure":1007.4,"uv_index":8.45,"wind_gusts":33.1,"aqi":69,"pm10":15.8,"pm2_5":13.4,"mosquito_risk":3,"arthritis_risk":5,"migraine_risk":4,"frizz_risk":1,"updated_at":"2026-04-30T14:43:59.556216+05:30"},{"city":"Thiruvananthapuram","state":"Kerala","latitude":8.5241,"longitude":76.9366,"temp":30.5,"humidity":74,"rain":0.0,"pressure":1006.7,"uv_index":8.95,"wind_gusts":31.7,"aqi":47,"pm10":7.7,"pm2_5":5.7,"mosquito_risk":3,"arthritis_risk":5,"migraine_risk":4,"frizz_risk":1,"updated_at":"2026-04-30T14:43:59.556225+05:30"},{"city":"Kozhikode","state":"Kerala","latitude":11.2588,"longitude":75.7804,"temp":30.3,"humidity":76,"rain":0.1,"pressure":1006.7,"uv_index":8.9,"wind_gusts":40.3,"aqi":56,"pm10":21.7,"pm2_5":11.7,"mosquito_risk":6,"arthritis_risk":5,"migraine_risk":4,"frizz_risk":1,"updated_at":"2026-04-30T14:43:59.556232+05:30"},{"city":"Thrissur","state":"Kerala","latitude":10.5276,"longitude":76.2144,"temp":31.6,"humidity":67,"rain":0.0,"pressure":1005.6,"uv_index":8.95,"wind_gusts":42.8,"aqi":76,"pm10":16.5,"pm2_5":12.4,"mosquito_risk":3,"arthritis_risk":5,"migraine_risk":4,"frizz_risk":1,"updated_at":"2026-04-30T14:43:59.556241+05:30"},{"city":"Kannur","state":"Kerala","latitude":11.8745,"longitude":75.3704,"temp":31.8,"humidity":68,"rain":0.0,"pressure":1006.5,"uv_index":9.0,"wind_gusts":35.6,"aqi":68,"pm10":37.1,"pm2_5":17.9,"mosquito_risk":3,"arthritis_risk":5,"migraine_risk":4,"frizz_risk":1,"updated_at":"2026-04-30T14:43:59.556249+05:30"},{"city":"Patna","state":"Bihar","latitude":25.5941,"longitude":85.1376,"temp":32.2,"humidity":46,"rain":0.0,"pressure":997.5,"uv_index":8.6,"wind_gusts":42.8,"aqi":69,"pm10":42.8,"pm2_5":26.7,"mosquito_risk":0,"arthritis_risk":5,"migraine_risk":7,"frizz_risk":1,"updated_at":"2026-04-30T14:43:59.556257+05:30"},{"city":"Gaya","state":"Bihar","latitude":24.7914,"longitude":85.0002,"temp":32.9,"humidity":44,"rain":0.0,"pressure":990.5,"uv_index":8.7,"wind_gusts":50.0,"aqi":111,"pm10":61.9,"pm2_5":33.4,"mosquito_risk":0,"arthritis_risk":5,"migraine_risk":7,"frizz_risk":1,"updated_at":"2026-04-30T14:43:59.556265+05:30"},{"city":"Muzaffarpur","state":"Bihar","latitude":26.1209,"longitude":85.3647,"temp":29.9,"humidity":56,"rain":0.0,"pressure":997.9,"uv_index":8.55,"wind_gusts":43.2,"aqi":63,"pm10":48.8,"pm2_5":26.7,"mosquito_risk":4,"arthritis_risk":5,"migraine_risk":7,"frizz_risk":1,"updated_at":"2026-04-30T14:43:59.556273+05:30"},{"city":"Bhagalpur","state":"Bihar","latitude":25.2425,"longitude":87.0117,"temp":31.4,"humidity":48,"rain":0.0,"pressure":998.5,"uv_index":8.55,"wind_gusts":39.2,"aqi":55,"pm10":10.7,"pm2_5":10.4,"mosquito_risk":0,"arthritis_risk":5,"migraine_risk":7,"frizz_risk":1,"updated_at":"2026-04-30T14:43:59.556281+05:30"},{"city":"Ranchi","state":"Jharkhand","latitude":23.3441,"longitude":85.3096,"temp":29.8,"humidity":46,"rain":0.0,"pressure":935.6,"uv_index":9.15,"wind_gusts":42.5,"aqi":142,"pm10":43.7,"pm2_5":26.1,"mosquito_risk":4,"arthritis_risk":5,"migraine_risk":7,"frizz_risk":1,"updated_at":"2026-04-30T14:43:59.556288+05:30"},{"city":"Jamshedpur","state":"Jharkhand","latitude":22.8046,"longitude":86.2029,"temp":35.2,"humidity":37,"rain":0.0,"pressure":986.8,"uv_index":9.0,"wind_gusts":58.3,"aqi":126,"pm10":46.6,"pm2_5":40.2,"mosquito_risk":0,"arthritis_risk":5,"migraine_risk":10,"frizz_risk":1,"updated_at":"2026-04-30T14:43:59.556295+05:30"},{"city":"Dhanbad","state":"Jharkhand","latitude":23.7957,"longitude":86.4304,"temp":32.0,"humidity":44,"rain":0.0,"pressure":977.3,"uv_index":8.9,"wind_gusts":40.0,"aqi":146,"pm10":67.3,"pm2_5":58.0,"mosquito_risk":0,"arthritis_risk":5,"migraine_risk":7,"frizz_risk":1,"updated_at":"2026-04-30T14:43:59.556302+05:30"},{"city":"Bokaro","state":"Jharkhand","latitude":23.6693,"longitude":86.1511,"temp":32.7,"humidity":44,"rain":0.0,"pressure":981.0,"uv_index":8.9,"wind_gusts":41.8,"aqi":144,"pm10":63.6,"pm2_5":48.8,"mosquito_risk":0,"arthritis_risk":5,"migraine_risk":7,"frizz_risk":1,"updated_at":"2026-04-30T14:43:59.556308+05:30"},{"city":"Bhubaneswar","state":"Odisha","latitude":20.2961,"longitude":85.8245,"temp":33.3,"humidity":57,"rain":0.0,"pressure":999.7,"uv_index":9.05,"wind_gusts":51.8,"aqi":53,"pm10":22.4,"pm2_5":19.3,"mosquito_risk":0,"arthritis_risk":5,"migraine_risk":7,"frizz_risk":1,"updated_at":"2026-04-30T14:43:59.556314+05:30"},{"city":"Cuttack","state":"Odisha","latitude":20.4625,"longitude":85.8828,"temp":34.0,"humidity":55,"rain":0.0,"pressure":1001.2,"uv_index":9.1,"wind_gusts":42.5,"aqi":53,"pm10":22.4,"pm2_5":19.3,"mosquito_risk":0,"arthritis_risk":5,"migraine_risk":4,"frizz_risk":1,"updated_at":"2026-04-30T14:43:59.556320+05:30"},{"city":"Rourkela","state":"Odisha","latitude":22.2604,"longitude":84.8536,"temp":35.8,"humidity":35,"rain":0.0,"pressure":980.9,"uv_index":8.9,"wind_gusts":50.4,"aqi":155,"pm10":46.8,"pm2_5":29.2,"mosquito_risk":0,"arthritis_risk":5,"migraine_risk":10,"frizz_risk":1,"updated_at":"2026-04-30T14:43:59.556327+05:30"},{"city":"Raipur","state":"Chhattisgarh","latitude":21.2514,"longitude":81.6296,"temp":40.7,"humidity":15,"rain":0.0,"pressure":969.6,"uv_index":8.95,"wind_gusts":53.6,"aqi":141,"pm10":27.3,"pm2_5":18.2,"mosquito_risk":0,"arthritis_risk":5,"migraine_risk":10,"frizz_risk":0,"updated_at":"2026-04-30T14:43:59.556333+05:30"},{"city":"Bhilai","state":"Chhattisgarh","latitude":21.1938,"longitude":81.3509,"temp":40.1,"humidity":15,"rain":0.0,"pressure":970.3,"uv_index":8.95,"wind_gusts":55.4,"aqi":122,"pm10":24.6,"pm2_5":15.4,"mosquito_risk":0,"arthritis_risk":5,"migraine_risk":10,"frizz_risk":0,"updated_at":"2026-04-30T14:43:59.556339+05:30"},{"city":"Guwahati","state":"Assam","latitude":26.1158,"longitude":91.7086,"temp":25.2,"humidity":78,"rain":0.0,"pressure":1000.7,"uv_index":7.65,"wind_gusts":25.2,"aqi":70,"pm10":25.4,"pm2_5":18.3,"mosquito_risk":7,"arthritis_risk":5,"migraine_risk":4,"frizz_risk":1,"updated_at":"2026-04-30T14:43:59.556345+05:30"},{"city":"Agartala","state":"Tripura","latitude":23.8315,"longitude":91.2868,"temp":29.4,"humidity":61,"rain":0.0,"pressure":1005.1,"uv_index":5.5,"wind_gusts":32.0,"aqi":80,"pm10":18.0,"pm2_5":16.6,"mosquito_risk":7,"arthritis_risk":5,"migraine_risk":0,"frizz_risk":1,"updated_at":"2026-04-30T14:43:59.556352+05:30"},{"city":"Shillong","state":"Meghalaya","latitude":25.5788,"longitude":91.8933,"temp":20.3,"humidity":59,"rain":0.0,"pressure":856.1,"uv_index":8.35,"wind_gusts":35.6,"aqi":50,"pm10":7.6,"pm2_5":4.9,"mosquito_risk":0,"arthritis_risk":5,"migraine_risk":7,"frizz_risk":0,"updated_at":"2026-04-30T14:43:59.556359+05:30"},{"city":"Imphal","state":"Manipur","latitude":24.817,"longitude":93.9368,"temp":20.8,"humidity":89,"rain":0.1,"pressure":922.1,"uv_index":9.05,"wind_gusts":30.6,"aqi":96,"pm10":15.1,"pm2_5":11.8,"mosquito_risk":6,"arthritis_risk":5,"migraine_risk":7,"frizz_risk":1,"updated_at":"2026-04-30T14:43:59.556365+05:30"},{"city":"Aizawl","state":"Mizoram","latitude":23.7271,"longitude":92.7176,"temp":23.8,"humidity":60,"rain":0.0,"pressure":892.2,"uv_index":8.3,"wind_gusts":33.8,"aqi":73,"pm10":18.2,"pm2_5":14.0,"mosquito_risk":0,"arthritis_risk":5,"migraine_risk":7,"frizz_risk":0,"updated_at":"2026-04-30T14:43:59.556372+05:30"},{"city":"Kohima","state":"Nagaland","latitude":25.6701,"longitude":94.1077,"temp":17.5,"humidity":96,"rain":0.5,"pressure":853.8,"uv_index":5.0,"wind_gusts":31.3,"aqi":70,"pm10":18.3,"pm2_5":11.9,"mosquito_risk":6,"arthritis_risk":10,"migraine_risk":3,"frizz_risk":1,"updated_at":"2026-04-30T14:43:59.556378+05:30"},{"city":"Gangtok","state":"Sikkim","latitude":27.3314,"longitude":88.6138,"temp":17.5,"humidity":76,"rain":0.0,"pressure":836.3,"uv_index":5.6,"wind_gusts":31.3,"aqi":54,"pm10":9.3,"pm2_5":5.0,"mosquito_risk":3,"arthritis_risk":5,"migraine_risk":3,"frizz_risk":0,"updated_at":"2026-04-30T14:43:59.556385+05:30"},{"city":"Siliguri","state":"West Bengal","latitude":26.7271,"longitude":88.3953,"temp":27.8,"humidity":57,"rain":0.0,"pressure":991.8,"uv_index":8.2,"wind_gusts":36.0,"aqi":61,"pm10":9.3,"pm2_5":7.0,"mosquito_risk":4,"arthritis_risk":5,"migraine_risk":7,"frizz_risk":1,"updated_at":"2026-04-30T14:44:02.849543+05:30"},{"city":"Durgapur","state":"West Bengal","latitude":23.5204,"longitude":87.3119,"temp":31.4,"humidity":59,"rain":0.0,"pressure":991.7,"uv_index":8.85,"wind_gusts":32.0,"aqi":98,"pm10":46.2,"pm2_5":42.8,"mosquito_risk":0,"arthritis_risk":5,"migraine_risk":7,"frizz_risk":1,"updated_at":"2026-04-30T14:44:02.849574+05:30"},{"city":"Asansol","state":"West Bengal","latitude":23.6739,"longitude":86.9524,"temp":32.8,"humidity":52,"rain":0.0,"pressure":990.2,"uv_index":8.6,"wind_gusts":34.6,"aqi":115,"pm10":72.2,"pm2_5":64.3,"mosquito_risk":0,"arthritis_risk":5,"migraine_risk":7,"frizz_risk":1,"updated_at":"2026-04-30T14:44:02.849584+05:30"},{"city":"Pondicherry","state":"Puducherry","latitude":11.9139,"longitude":79.8145,"temp":33.3,"humidity":64,"rain":0.0,"pressure":1005.7,"uv_index":9.2,"wind_gusts":50.4,"aqi":41,"pm10":16.3,"pm2_5":13.2,"mosquito_risk":3,"arthritis_risk":5,"migraine_risk":4,"frizz_risk":1,"updated_at":"2026-04-30T14:44:02.849593+05:30"},{"city":"Port Blair","state":"Andaman and Nicobar Islands","latitude":11.6234,"longitude":92.7265,"temp":34.5,"humidity":44,"rain":0.0,"pressure":1006.4,"uv_index":8.9,"wind_gusts":27.4,"aqi":42,"pm10":12.9,"pm2_5":11.3,"mosquito_risk":0,"arthritis_risk":5,"migraine_risk":4,"frizz_risk":1,"updated_at":"2026-04-30T14:44:02.849601+05:30"},{"city":"Haridwar","state":"Uttarakhand","latitude":29.9457,"longitude":78.1642,"temp":28.5,"humidity":59,"rain":0.0,"pressure":971.4,"uv_index":6.9,"wind_gusts":38.2,"aqi":78,"pm10":127.6,"pm2_5":28.9,"mosquito_risk":4,"arthritis_risk":5,"migraine_risk":7,"frizz_risk":1,"updated_at":"2026-04-30T14:44:02.849608+05:30"},{"city":"Rishikesh","state":"Uttarakhand","latitude":30.0869,"longitude":78.2676,"temp":29.8,"humidity":46,"rain":0.0,"pressure":963.8,"uv_index":7.3,"wind_gusts":44.3,"aqi":72,"pm10":97.3,"pm2_5":24.4,"mosquito_risk":4,"arthritis_risk":5,"migraine_risk":7,"frizz_risk":1,"updated_at":"2026-04-30T14:44:02.849617+05:30"},{"city":"Nainital","state":"Uttarakhand","latitude":29.3919,"longitude":79.4542,"temp":15.5,"humidity":66,"rain":0.0,"pressure":804.1,"uv_index":7.85,"wind_gusts":33.5,"aqi":81,"pm10":73.3,"pm2_5":25.5,"mosquito_risk":3,"arthritis_risk":5,"migraine_risk":7,"frizz_risk":0,"updated_at":"2026-04-30T14:44:02.849625+05:30"},{"city":"Mussoorie","state":"Uttarakhand","latitude":30.4599,"longitude":78.0664,"temp":18.3,"humidity":51,"rain":0.0,"pressure":801.7,"uv_index":7.6,"wind_gusts":45.7,"aqi":60,"pm10":99.9,"pm2_5":22.9,"mosquito_risk":0,"arthritis_risk":5,"migraine_risk":7,"frizz_risk":0,"updated_at":"2026-04-30T14:44:02.849632+05:30"},{"city":"Dharamshala","state":"Himachal Pradesh","latitude":32.219,"longitude":76.3234,"temp":24.2,"humidity":34,"rain":0.0,"pressure":866.9,"uv_index":7.5,"wind_gusts":52.2,"aqi":68,"pm10":27.2,"pm2_5":8.0,"mosquito_risk":0,"arthritis_risk":5,"migraine_risk":7,"frizz_risk":0,"updated_at":"2026-04-30T14:44:02.849639+05:30"},{"city":"Dalhousie","state":"Himachal Pradesh","latitude":32.5387,"longitude":75.971,"temp":20.8,"humidity":39,"rain":0.0,"pressure":803.7,"uv_index":6.35,"wind_gusts":40.7,"aqi":71,"pm10":42.5,"pm2_5":11.5,"mosquito_risk":0,"arthritis_risk":5,"migraine_risk":7,"frizz_risk":0,"updated_at":"2026-04-30T14:44:02.849646+05:30"},{"city":"Patiala","state":"Punjab","latitude":30.3398,"longitude":76.3869,"temp":31.0,"humidity":39,"rain":0.0,"pressure":975.2,"uv_index":6.9,"wind_gusts":49.0,"aqi":135,"pm10":530.9,"pm2_5":62.4,"mosquito_risk":0,"arthritis_risk":5,"migraine_risk":7,"frizz_risk":0,"updated_at":"2026-04-30T14:44:02.849653+05:30"},{"city":"Bhatinda","state":"Punjab","latitude":30.211,"longitude":74.9455,"temp":38.0,"humidity":19,"rain":0.0,"pressure":978.6,"uv_index":8.05,"wind_gusts":43.9,"aqi":114,"pm10":100.8,"pm2_5":24.4,"mosquito_risk":0,"arthritis_risk":5,"migraine_risk":10,"frizz_risk":0,"updated_at":"2026-04-30T14:44:02.849660+05:30"},{"city":"Rohtak","state":"Haryana","latitude":28.8955,"longitude":76.6066,"temp":32.3,"humidity":39,"rain":0.0,"pressure":977.8,"uv_index":7.5,"wind_gusts":51.1,"aqi":347,"pm10":475.0,"pm2_5":75.2,"mosquito_risk":0,"arthritis_risk":5,"migraine_risk":7,"frizz_risk":1,"updated_at":"2026-04-30T14:44:02.849666+05:30"},{"city":"Panipat","state":"Haryana","latitude":29.3909,"longitude":76.9635,"temp":30.4,"humidity":49,"rain":0.0,"pressure":977.1,"uv_index":6.9,"wind_gusts":51.1,"aqi":647,"pm10":653.8,"pm2_5":90.8,"mosquito_risk":0,"arthritis_risk":5,"migraine_risk":7,"frizz_risk":1,"updated_at":"2026-04-30T14:44:02.849673+05:30"},{"city":"Mathura","state":"Uttar Pradesh","latitude":27.4924,"longitude":77.6737,"temp":35.0,"humidity":30,"rain":0.0,"pressure":981.8,"uv_index":7.75,"wind_gusts":42.1,"aqi":558,"pm10":438.7,"pm2_5":58.6,"mosquito_risk":0,"arthritis_risk":5,"migraine_risk":7,"frizz_risk":0,"updated_at":"2026-04-30T14:44:02.849680+05:30"},{"city":"Vrindavan","state":"Uttar Pradesh","latitude":27.5823,"longitude":77.7027,"temp":35.4,"humidity":28,"rain":0.0,"pressure":982.3,"uv_index":7.7,"wind_gusts":44.3,"aqi":558,"pm10":438.7,"pm2_5":58.6,"mosquito_risk":0,"arthritis_risk":5,"migraine_risk":10,"frizz_risk":0,"updated_at":"2026-04-30T14:44:02.849686+05:30"},{"city":"Ayodhya","state":"Uttar Pradesh","latitude":26.7922,"longitude":82.1998,"temp":32.2,"humidity":40,"rain":0.0,"pressure":993.0,"uv_index":7.75,"wind_gusts":38.2,"aqi":85,"pm10":75.9,"pm2_5":29.4,"mosquito_risk":0,"arthritis_risk":5,"migraine_risk":7,"frizz_risk":1,"updated_at":"2026-04-30T14:44:02.849693+05:30"},{"city":"Ratlam","state":"Madhya Pradesh","latitude":23.3315,"longitude":75.0367,"temp":38.4,"humidity":20,"rain":0.0,"pressure":951.6,"uv_index":8.5,"wind_gusts":45.4,"aqi":51,"pm10":55.9,"pm2_5":17.6,"mosquito_risk":0,"arthritis_risk":5,"migraine_risk":10,"frizz_risk":0,"updated_at":"2026-04-30T14:44:02.849699+05:30"},{"city":"Sagar","state":"Madhya Pradesh","latitude":23.8388,"longitude":78.7378,"temp":38.7,"humidity":17,"rain":0.0,"pressure":946.0,"uv_index":8.45,"wind_gusts":62.6,"aqi":60,"pm10":96.2,"pm2_5":21.7,"mosquito_risk":0,"arthritis_risk":5,"migraine_risk":10,"frizz_risk":0,"updated_at":"2026-04-30T14:44:02.849706+05:30"},{"city":"Satna","state":"Madhya Pradesh","latitude":24.6005,"longitude":80.8322,"temp":36.0,"humidity":22,"rain":0.0,"pressure":967.6,"uv_index":7.2,"wind_gusts":37.4,"aqi":72,"pm10":83.4,"pm2_5":20.8,"mosquito_risk":0,"arthritis_risk":5,"migraine_risk":10,"frizz_risk":0,"updated_at":"2026-04-30T14:44:02.849712+05:30"},{"city":"Akola","state":"Maharashtra","latitude":20.7002,"longitude":77.0082,"temp":40.7,"humidity":14,"rain":0.0,"pressure":971.2,"uv_index":8.85,"wind_gusts":43.6,"aqi":50,"pm10":31.2,"pm2_5":11.3,"mosquito_risk":0,"arthritis_risk":5,"migraine_risk":10,"frizz_risk":0,"updated_at":"2026-04-30T14:44:02.849719+05:30"},{"city":"Amravati","state":"Maharashtra","latitude":20.9374,"longitude":77.7796,"temp":40.2,"humidity":15,"rain":0.0,"pressure":963.5,"uv_index":8.85,"wind_gusts":46.4,"aqi":50,"pm10":32.6,"pm2_5":11.7,"mosquito_risk":0,"arthritis_risk":5,"migraine_risk":10,"frizz_risk":0,"updated_at":"2026-04-30T14:44:02.849726+05:30"},{"city":"Latur","state":"Maharashtra","latitude":18.4088,"longitude":76.5604,"temp":40.7,"humidity":13,"rain":0.0,"pressure":937.9,"uv_index":9.05,"wind_gusts":42.8,"aqi":76,"pm10":28.2,"pm2_5":15.1,"mosquito_risk":0,"arthritis_risk":5,"migraine_risk":10,"frizz_risk":0,"updated_at":"2026-04-30T14:44:02.849733+05:30"},{"city":"Nanded","state":"Maharashtra","latitude":19.1383,"longitude":77.3091,"temp":40.9,"humidity":14,"rain":0.0,"pressure":965.5,"uv_index":9.0,"wind_gusts":58.0,"aqi":63,"pm10":26.4,"pm2_5":12.0,"mosquito_risk":0,"arthritis_risk":5,"migraine_risk":10,"frizz_risk":0,"updated_at":"2026-04-30T14:44:02.849740+05:30"},{"city":"Gulbarga","state":"Karnataka","latitude":17.3297,"longitude":76.8343,"temp":40.8,"humidity":14,"rain":0.0,"pressure":956.3,"uv_index":9.1,"wind_gusts":40.0,"aqi":71,"pm10":26.7,"pm2_5":17.6,"mosquito_risk":0,"arthritis_risk":5,"migraine_risk":10,"frizz_risk":0,"updated_at":"2026-04-30T14:44:02.849746+05:30"},{"city":"Bidar","state":"Karnataka","latitude":17.9104,"longitude":77.5199,"temp":39.8,"humidity":14,"rain":0.0,"pressure":934.0,"uv_index":9.1,"wind_gusts":39.6,"aqi":86,"pm10":29.3,"pm2_5":19.4,"mosquito_risk":0,"arthritis_risk":5,"migraine_risk":10,"frizz_risk":0,"updated_at":"2026-04-30T14:44:02.849752+05:30"},{"city":"Hospet","state":"Karnataka","latitude":15.2689,"longitude":76.3909,"temp":36.8,"humidity":32,"rain":0.0,"pressure":954.6,"uv_index":9.25,"wind_gusts":58.0,"aqi":71,"pm10":30.6,"pm2_5":21.9,"mosquito_risk":0,"arthritis_risk":5,"migraine_risk":10,"frizz_risk":1,"updated_at":"2026-04-30T14:44:02.849758+05:30"},{"city":"Tirupur","state":"Tamil Nadu","latitude":11.1085,"longitude":77.3411,"temp":39.9,"humidity":22,"rain":0.0,"pressure":972.3,"uv_index":9.35,"wind_gusts":56.5,"aqi":79,"pm10":37.5,"pm2_5":24.5,"mosquito_risk":0,"arthritis_risk":5,"migraine_risk":10,"frizz_risk":0,"updated_at":"2026-04-30T14:44:02.849764+05:30"},{"city":"Alappuzha","state":"Kerala","latitude":9.4981,"longitude":76.3388,"temp":31.8,"humidity":66,"rain":0.0,"pressure":1007.4,"uv_index":9.0,"wind_gusts":34.2,"aqi":59,"pm10":13.0,"pm2_5":11.5,"mosquito_risk":3,"arthritis_risk":5,"migraine_risk":4,"frizz_risk":1,"updated_at":"2026-04-30T14:44:02.849771+05:30"},{"city":"Munnar","state":"Kerala","latitude":10.0889,"longitude":77.0595,"temp":22.4,"humidity":82,"rain":0.0,"pressure":857.8,"uv_index":8.75,"wind_gusts":25.2,"aqi":85,"pm10":18.0,"pm2_5":15.4,"mosquito_risk":3,"arthritis_risk":5,"migraine_risk":7,"frizz_risk":1,"updated_at":"2026-04-30T14:44:02.849778+05:30"},{"city":"Silchar","state":"Assam","latitude":24.8333,"longitude":92.7789,"temp":28.3,"humidity":62,"rain":0.0,"pressure":1004.0,"uv_index":6.05,"wind_gusts":23.0,"aqi":116,"pm10":23.1,"pm2_5":16.4,"mosquito_risk":7,"arthritis_risk":5,"migraine_risk":4,"frizz_risk":1,"updated_at":"2026-04-30T14:44:02.849785+05:30"},{"city":"Dibrugarh","state":"Assam","latitude":27.4728,"longitude":94.912,"temp":27.4,"humidity":67,"rain":0.0,"pressure":993.7,"uv_index":7.9,"wind_gusts":27.7,"aqi":83,"pm10":41.7,"pm2_5":20.1,"mosquito_risk":7,"arthritis_risk":5,"migraine_risk":7,"frizz_risk":1,"updated_at":"2026-04-30T14:44:02.849791+05:30"}]