[{"city":"Delhi","state":"Delhi","latitude":28.6139,"longitude":77.209,"temp":23.5,"humidity":51,"rain":0.0,"pressure":982.8,"uv_index":5.6,"aqi":151,"mosquito_risk":0,"arthritis_risk":5,"migraine_risk":3,"frizz_risk":0,"updated_at":"2026-02-27T21:10:13.152498+05:30"},{"city":"Mumbai","state":"Maharashtra","latitude":19.076,"longitude":72.8777,"temp":26.0,"humidity":66,"rain":0.0,"pressure":1009.6,"uv_index":7.3,"aqi":67,"mosquito_risk":7,"arthritis_risk":0,"migraine_risk":4,"frizz_risk":1,"updated_at":"2026-02-27T21:10:13.152544+05:30"},{"city":"Bangalore","state":"Karnataka","latitude":12.9716,"longitude":77.5946,"temp":25.0,"humidity":49,"rain":0.0,"pressure":910.7,"uv_index":8.9,"aqi":122,"mosquito_risk":4,"arthritis_risk":5,"migraine_risk":7,"frizz_risk":0,"updated_at":"2026-02-27T21:10:13.152559+05:30"},{"city":"Hyderabad","state":"Telangana","latitude":17.385,"longitude":78.4867,"temp":24.9,"humidity":63,"rain":0.0,"pressure":952.8,"uv_index":8.1,"aqi":125,"mosquito_risk":3,"arthritis_risk":5,"migraine_risk":7,"frizz_risk":1,"updated_at":"2026-02-27T21:10:13.152569+05:30"},{"city":"Chennai","state":"Tamil Nadu","latitude":13.0827,"longitude":80.2707,"temp":26.2,"humidity":78,"rain":0.0,"pressure":1007.7,"uv_index":8.65,"aqi":111,"mosquito_risk":7,"arthritis_risk":5,"migraine_risk":4,"frizz_risk":1,"updated_at":"2026-02-27T21:10:13.152578+05:30"},{"city":"Kolkata","state":"West Bengal","latitude":22.5726,"longitude":88.3639,"temp":23.6,"humidity":53,"rain":0.0,"pressure":1005.9,"uv_index":7.45,"aqi":161,"mosquito_risk":0,"arthritis_risk":5,"migraine_risk":4,"frizz_risk":0,"updated_at":"2026-02-27T21:10:13.152586+05:30"},{"city":"Pune","state":"Maharashtra","latitude":18.5204,"longitude":73.8567,"temp":21.8,"humidity":65,"rain":0.0,"pressure":948.2,"uv_index":7.85,"aqi":84,"mosquito_risk":3,"arthritis_risk":5,"migraine_risk":7,"frizz_risk":0,"updated_at":"2026-02-27T21:10:13.152598+05:30"},{"city":"Ahmedabad","state":"Gujarat","latitude":23.0225,"longitude":72.5714,"temp":25.1,"humidity":58,"rain":0.0,"pressure":1002.1,"uv_index":7.1,"aqi":76,"mosquito_risk":4,"arthritis_risk":5,"migraine_risk":4,"frizz_risk":1,"updated_at":"2026-02-27T21:10:13.152605+05:30"},{"city":"Jaipur","state":"Rajasthan","latitude":26.9124,"longitude":75.7873,"temp":25.4,"humidity":35,"rain":0.0,"pressure":958.9,"uv_index":6.4,"aqi":79,"mosquito_risk":4,"arthritis_risk":5,"migraine_risk":7,"frizz_risk":0,"updated_at":"2026-02-27T21:10:13.152613+05:30"},{"city":"Lucknow","state":"Uttar Pradesh","latitude":26.8467,"longitude":80.9462,"temp":22.4,"humidity":53,"rain":0.0,"pressure":993.7,"uv_index":6.05,"aqi":121,"mosquito_risk":0,"arthritis_risk":5,"migraine_risk":7,"frizz_risk":0,"updated_at":"2026-02-27T21:10:13.152620+05:30"},{"city":"Kanpur","state":"Uttar Pradesh","latitude":26.4499,"longitude":80.3319,"temp":22.5,"humidity":57,"rain":0.0,"pressure":992.2,"uv_index":6.05,"aqi":129,"mosquito_risk":0,"arthritis_risk":5,"migraine_risk":7,"frizz_risk":0,"updated_at":"2026-02-27T21:10:13.152627+05:30"},{"city":"Chandigarh","state":"Chandigarh","latitude":30.7333,"longitude":76.7794,"temp":19.7,"humidity":71,"rain":0.0,"pressure":968.5,"uv_index":5.5,"aqi":116,"mosquito_risk":3,"arthritis_risk":5,"migraine_risk":3,"frizz_risk":0,"updated_at":"2026-02-27T21:10:13.152634+05:30"},{"city":"Srinagar","state":"Jammu and Kashmir","latitude":34.0837,"longitude":74.7973,"temp":8.1,"humidity":68,"rain":0.0,"pressure":836.5,"uv_index":6.35,"aqi":153,"mosquito_risk":3,"arthritis_risk":5,"migraine_risk":7,"frizz_risk":0,"updated_at":"2026-02-27T21:10:13.152641+05:30"},{"city":"Jammu","state":"Jammu and Kashmir","latitude":32.7266,"longitude":74.857,"temp":19.9,"humidity":67,"rain":0.0,"pressure":972.3,"uv_index":6.05,"aqi":118,"mosquito_risk":3,"arthritis_risk":5,"migraine_risk":7,"frizz_risk":0,"updated_at":"2026-02-27T21:10:13.152646+05:30"},{"city":"Amritsar","state":"Punjab","latitude":31.634,"longitude":74.8723,"temp":20.2,"humidity":67,"rain":0.0,"pressure":980.4,"uv_index":6.0,"aqi":164,"mosquito_risk":3,"arthritis_risk":5,"migraine_risk":3,"frizz_risk":0,"updated_at":"2026-02-27T21:10:13.152658+05:30"},{"city":"Ludhiana","state":"Punjab","latitude":30.901,"longitude":75.8573,"temp":20.6,"humidity":71,"rain":0.0,"pressure":978.5,"uv_index":5.75,"aqi":173,"mosquito_risk":3,"arthritis_risk":5,"migraine_risk":3,"frizz_risk":0,"updated_at":"2026-02-27T21:10:13.152665+05:30"},{"city":"Jalandhar","state":"Punjab","latitude":31.326,"longitude":75.5762,"temp":21.4,"humidity":67,"rain":0.0,"pressure":979.8,"uv_index":5.9,"aqi":175,"mosquito_risk":3,"arthritis_risk":5,"migraine_risk":3,"frizz_risk":0,"updated_at":"2026-02-27T21:10:13.152675+05:30"},{"city":"Dehradun","state":"Uttarakhand","latitude":30.6284,"longitude":78.0322,"temp":10.3,"humidity":93,"rain":0.0,"pressure":826.8,"uv_index":5.85,"aqi":118,"mosquito_risk":3,"arthritis_risk":10,"migraine_risk":3,"frizz_risk":0,"updated_at":"2026-02-27T21:10:13.152682+05:30"},{"city":"Shimla","state":"Himachal Pradesh","latitude":31.1048,"longitude":77.1734,"temp":9.4,"humidity":76,"rain":0.0,"pressure":780.9,"uv_index":5.9,"aqi":98,"mosquito_risk":3,"arthritis_risk":5,"migraine_risk":3,"frizz_risk":0,"updated_at":"2026-02-27T21:10:13.152689+05:30"},{"city":"Manali","state":"Himachal Pradesh","latitude":32.2396,"longitude":77.1887,"temp":11.0,"humidity":52,"rain":0.0,"pressure":816.6,"uv_index":7.6,"aqi":131,"mosquito_risk":0,"arthritis_risk":5,"migraine_risk":7,"frizz_risk":0,"updated_at":"2026-02-27T21:10:13.152695+05:30"},{"city":"Gurgaon","state":"Haryana","latitude":28.4595,"longitude":77.0266,"temp":20.8,"humidity":61,"rain":0.0,"pressure":981.0,"uv_index":5.7,"aqi":156,"mosquito_risk":3,"arthritis_risk":5,"migraine_risk":3,"frizz_risk":0,"updated_at":"2026-02-27T21:10:13.152701+05:30"},{"city":"Noida","state":"Uttar Pradesh","latitude":28.5355,"longitude":77.391,"temp":23.2,"humidity":51,"rain":0.0,"pressure":984.4,"uv_index":5.6,"aqi":156,"mosquito_risk":0,"arthritis_risk":5,"migraine_risk":3,"frizz_risk":0,"updated_at":"2026-02-27T21:10:13.152707+05:30"},{"city":"Ghaziabad","state":"Uttar Pradesh","latitude":28.6692,"longitude":77.4538,"temp":21.9,"humidity":58,"rain":0.0,"pressure":982.5,"uv_index":5.55,"aqi":151,"mosquito_risk":0,"arthritis_risk":5,"migraine_risk":3,"frizz_risk":0,"updated_at":"2026-02-27T21:10:13.152713+05:30"},{"city":"Faridabad","state":"Haryana","latitude":28.4089,"longitude":77.3178,"temp":22.9,"humidity":45,"rain":0.0,"pressure":983.7,"uv_index":5.65,"aqi":156,"mosquito_risk":0,"arthritis_risk":5,"migraine_risk":3,"frizz_risk":0,"updated_at":"2026-02-27T21:10:13.152719+05:30"},{"city":"Meerut","state":"Uttar Pradesh","latitude":28.9845,"longitude":77.7064,"temp":20.9,"humidity":66,"rain":0.0,"pressure":981.2,"uv_index":5.45,"aqi":151,"mosquito_risk":3,"arthritis_risk":5,"migraine_risk":3,"frizz_risk":0,"updated_at":"2026-02-27T21:10:13.152725+05:30"},{"city":"Agra","state":"Uttar Pradesh","latitude":27.1767,"longitude":78.0081,"temp":21.9,"humidity":60,"rain":0.0,"pressure":987.7,"uv_index":5.9,"aqi":141,"mosquito_risk":0,"arthritis_risk":5,"migraine_risk":3,"frizz_risk":0,"updated_at":"2026-02-27T21:10:13.152731+05:30"},{"city":"Varanasi","state":"Uttar Pradesh","latitude":25.3176,"longitude":82.9739,"temp":21.0,"humidity":60,"rain":0.0,"pressure":998.1,"uv_index":6.7,"aqi":120,"mosquito_risk":0,"arthritis_risk":5,"migraine_risk":7,"frizz_risk":0,"updated_at":"2026-02-27T21:10:13.152740+05:30"},{"city":"Prayagraj","state":"Uttar Pradesh","latitude":25.4358,"longitude":81.8463,"temp":22.4,"humidity":55,"rain":0.0,"pressure":996.6,"uv_index":6.6,"aqi":146,"mosquito_risk":0,"arthritis_risk":5,"migraine_risk":7,"frizz_risk":0,"updated_at":"2026-02-27T21:10:13.152747+05:30"},{"city":"Gorakhpur","state":"Uttar Pradesh","latitude":26.7606,"longitude":83.3732,"temp":18.9,"humidity":67,"rain":0.0,"pressure":997.3,"uv_index":6.45,"aqi":153,"mosquito_risk":3,"arthritis_risk":5,"migraine_risk":7,"frizz_risk":0,"updated_at":"2026-02-27T21:10:13.152754+05:30"},{"city":"Bareilly","state":"Uttar Pradesh","latitude":28.367,"longitude":79.4304,"temp":19.6,"humidity":64,"rain":0.0,"pressure":986.8,"uv_index":5.75,"aqi":148,"mosquito_risk":3,"arthritis_risk":5,"migraine_risk":3,"frizz_risk":0,"updated_at":"2026-02-27T21:10:13.152759+05:30"},{"city":"Aligarh","state":"Uttar Pradesh","latitude":27.8974,"longitude":78.088,"temp":22.1,"humidity":52,"rain":0.0,"pressure":985.6,"uv_index":5.7,"aqi":151,"mosquito_risk":0,"arthritis_risk":5,"migraine_risk":3,"frizz_risk":0,"updated_at":"2026-02-27T21:10:13.152765+05:30"},{"city":"Moradabad","state":"Uttar Pradesh","latitude":28.8386,"longitude":78.7733,"temp":19.2,"humidity":67,"rain":0.0,"pressure":983.5,"uv_index":5.6,"aqi":151,"mosquito_risk":3,"arthritis_risk":5,"migraine_risk":3,"frizz_risk":0,"updated_at":"2026-02-27T21:10:13.152772+05:30"},{"city":"Saharanpur","state":"Uttar Pradesh","latitude":29.9637,"longitude":77.546,"temp":18.7,"humidity":74,"rain":0.0,"pressure":975.4,"uv_index":5.25,"aqi":155,"mosquito_risk":3,"arthritis_risk":5,"migraine_risk":3,"frizz_risk":0,"updated_at":"2026-02-27T21:10:13.152777+05:30"},{"city":"Jhansi","state":"Uttar Pradesh","latitude":25.4484,"longitude":78.5685,"temp":24.1,"humidity":50,"rain":0.0,"pressure":978.1,"uv_index":6.55,"aqi":91,"mosquito_risk":0,"arthritis_risk":5,"migraine_risk":7,"frizz_risk":0,"updated_at":"2026-02-27T21:10:16.446341+05:30"},{"city":"Surat","state":"Gujarat","latitude":21.1702,"longitude":72.8311,"temp":23.9,"humidity":74,"rain":0.0,"pressure":1007.5,"uv_index":7.05,"aqi":75,"mosquito_risk":3,"arthritis_risk":5,"migraine_risk":4,"frizz_risk":1,"updated_at":"2026-02-27T21:10:16.446370+05:30"},{"city":"Vadodara","state":"Gujarat","latitude":22.3072,"longitude":73.1812,"temp":23.9,"humidity":60,"rain":0.0,"pressure":1004.8,"uv_index":7.1,"aqi":83,"mosquito_risk":0,"arthritis_risk":5,"migraine_risk":4,"frizz_risk":0,"updated_at":"2026-02-27T21:10:16.446379+05:30"},{"city":"Rajkot","state":"Gujarat","latitude":22.3039,"longitude":70.8022,"temp":26.0,"humidity":46,"rain":0.0,"pressure":994.1,"uv_index":7.0,"aqi":100,"mosquito_risk":4,"arthritis_risk":5,"migraine_risk":7,"frizz_risk":0,"updated_at":"2026-02-27T21:10:16.446386+05:30"},{"city":"Thane","state":"Maharashtra","latitude":19.2183,"longitude":72.9781,"temp":24.4,"humidity":70,"rain":0.0,"pressure":1009.1,"uv_index":7.3,"aqi":67,"mosquito_risk":3,"arthritis_risk":0,"migraine_risk":4,"frizz_risk":1,"updated_at":"2026-02-27T21:10:16.446393+05:30"},{"city":"Nagpur","state":"Maharashtra","latitude":21.1458,"longitude":79.0882,"temp":25.0,"humidity":55,"rain":0.0,"pressure":973.1,"uv_index":7.45,"aqi":134,"mosquito_risk":4,"arthritis_risk":5,"migraine_risk":7,"frizz_risk":0,"updated_at":"2026-02-27T21:10:16.446400+05:30"},{"city":"Nashik","state":"Maharashtra","latitude":19.9975,"longitude":73.7898,"temp":20.1,"humidity":76,"rain":0.0,"pressure":945.2,"uv_index":7.5,"aqi":56,"mosquito_risk":3,"arthritis_risk":5,"migraine_risk":7,"frizz_risk":0,"updated_at":"2026-02-27T21:10:16.446406+05:30"},{"city":"Aurangabad","state":"Maharashtra","latitude":19.8762,"longitude":75.3433,"temp":24.8,"humidity":47,"rain":0.0,"pressure":943.2,"uv_index":7.8,"aqi":88,"mosquito_risk":0,"arthritis_risk":5,"migraine_risk":7,"frizz_risk":0,"updated_at":"2026-02-27T21:10:16.446412+05:30"},{"city":"Solapur","state":"Maharashtra","latitude":17.6599,"longitude":75.9064,"temp":26.2,"humidity":48,"rain":0.0,"pressure":956.4,"uv_index":8.05,"aqi":95,"mosquito_risk":4,"arthritis_risk":5,"migraine_risk":7,"frizz_risk":0,"updated_at":"2026-02-27T21:10:16.446419+05:30"},{"city":"Kolhapur","state":"Maharashtra","latitude":16.705,"longitude":74.2433,"temp":22.1,"humidity":49,"rain":0.0,"pressure":947.3,"uv_index":8.3,"aqi":55,"mosquito_risk":0,"arthritis_risk":5,"migraine_risk":7,"frizz_risk":0,"updated_at":"2026-02-27T21:10:16.446425+05:30"},{"city":"Goa","state":"Goa","latitude":15.2993,"longitude":74.124,"temp":26.3,"humidity":68,"rain":0.0,"pressure":997.7,"uv_index":8.3,"aqi":50,"mosquito_risk":7,"arthritis_risk":5,"migraine_risk":7,"frizz_risk":1,"updated_at":"2026-02-27T21:10:16.446431+05:30"},{"city":"Jodhpur","state":"Rajasthan","latitude":26.2389,"longitude":73.0243,"temp":23.6,"humidity":40,"rain":0.0,"pressure":981.6,"uv_index":6.7,"aqi":75,"mosquito_risk":0,"arthritis_risk":5,"migraine_risk":7,"frizz_risk":0,"updated_at":"2026-02-27T21:10:16.446437+05:30"},{"city":"Udaipur","state":"Rajasthan","latitude":24.5854,"longitude":73.7125,"temp":20.3,"humidity":49,"rain":0.0,"pressure":946.0,"uv_index":7.35,"aqi":98,"mosquito_risk":0,"arthritis_risk":5,"migraine_risk":7,"frizz_risk":0,"updated_at":"2026-02-27T21:10:16.446443+05:30"},{"city":"Kota","state":"Rajasthan","latitude":25.2138,"longitude":75.8648,"temp":22.7,"humidity":56,"rain":0.0,"pressure":978.2,"uv_index":6.75,"aqi":81,"mosquito_risk":0,"arthritis_risk":5,"migraine_risk":7,"frizz_risk":0,"updated_at":"2026-02-27T21:10:16.446449+05:30"},{"city":"Bikaner","state":"Rajasthan","latitude":28.0229,"longitude":73.3119,"temp":26.4,"humidity":35,"rain":0.0,"pressure":980.5,"uv_index":6.35,"aqi":78,"mosquito_risk":4,"arthritis_risk":5,"migraine_risk":7,"frizz_risk":0,"updated_at":"2026-02-27T21:10:16.446455+05:30"},{"city":"Ajmer","state":"Rajasthan","latitude":26.4499,"longitude":74.6399,"temp":25.8,"humidity":38,"rain":0.0,"pressure":953.6,"uv_index":6.7,"aqi":89,"mosquito_risk":4,"arthritis_risk":5,"migraine_risk":7,"frizz_risk":0,"updated_at":"2026-02-27T21:10:16.446461+05:30"},{"city":"Gwalior","state":"Madhya Pradesh","latitude":26.2183,"longitude":78.1828,"temp":23.1,"humidity":68,"rain":0.0,"pressure":983.3,"uv_index":6.25,"aqi":76,"mosquito_risk":3,"arthritis_risk":5,"migraine_risk":7,"frizz_risk":1,"updated_at":"2026-02-27T21:10:16.446467+05:30"},{"city":"Indore","state":"Madhya Pradesh","latitude":22.7196,"longitude":75.8577,"temp":20.6,"humidity":66,"rain":0.0,"pressure":947.2,"uv_index":7.25,"aqi":96,"mosquito_risk":3,"arthritis_risk":5,"migraine_risk":7,"frizz_risk":0,"updated_at":"2026-02-27T21:10:16.446473+05:30"},{"city":"Bhopal","state":"Madhya Pradesh","latitude":23.2599,"longitude":77.4126,"temp":23.5,"humidity":59,"rain":0.0,"pressure":953.3,"uv_index":7.1,"aqi":90,"mosquito_risk":0,"arthritis_risk":5,"migraine_risk":7,"frizz_risk":0,"updated_at":"2026-02-27T21:10:16.446479+05:30"},{"city":"Jabalpur","state":"Madhya Pradesh","latitude":23.1815,"longitude":79.9864,"temp":24.7,"humidity":47,"rain":0.0,"pressure":961.6,"uv_index":7.15,"aqi":76,"mosquito_risk":0,"arthritis_risk":5,"migraine_risk":7,"frizz_risk":0,"updated_at":"2026-02-27T21:10:16.446485+05:30"},{"city":"Ujjain","state":"Madhya Pradesh","latitude":23.1765,"longitude":75.7885,"temp":21.5,"humidity":69,"rain":0.0,"pressure":953.3,"uv_index":7.15,"aqi":88,"mosquito_risk":3,"arthritis_risk":5,"migraine_risk":7,"frizz_risk":0,"updated_at":"2026-02-27T21:10:16.446492+05:30"},{"city":"Visakhapatnam","state":"Andhra Pradesh","latitude":17.6868,"longitude":83.2185,"temp":25.3,"humidity":85,"rain":0.0,"pressure":1004.6,"uv_index":8.15,"aqi":101,"mosquito_risk":7,"arthritis_risk":5,"migraine_risk":4,"frizz_risk":1,"updated_at":"2026-02-27T21:10:16.446498+05:30"},{"city":"Vijayawada","state":"Andhra Pradesh","latitude":16.5062,"longitude":80.648,"temp":26.7,"humidity":67,"rain":0.0,"pressure":1002.8,"uv_index":8.2,"aqi":101,"mosquito_risk":7,"arthritis_risk":5,"migraine_risk":4,"frizz_risk":1,"updated_at":"2026-02-27T21:10:16.446505+05:30"},{"city":"Guntur","state":"Andhra Pradesh","latitude":16.3067,"longitude":80.4365,"temp":25.6,"humidity":77,"rain":0.0,"pressure":1004.3,"uv_index":8.2,"aqi":106,"mosquito_risk":7,"arthritis_risk":5,"migraine_risk":4,"frizz_risk":1,"updated_at":"2026-02-27T21:10:16.446511+05:30"},{"city":"Nellore","state":"Andhra Pradesh","latitude":14.4426,"longitude":79.9865,"temp":25.7,"humidity":82,"rain":0.0,"pressure":1006.5,"uv_index":8.45,"aqi":147,"mosquito_risk":7,"arthritis_risk":5,"migraine_risk":4,"frizz_risk":1,"updated_at":"2026-02-27T21:10:16.446517+05:30"},{"city":"Kurnool","state":"Andhra Pradesh","latitude":15.8281,"longitude":78.0373,"temp":28.2,"humidity":45,"rain":0.0,"pressure":976.2,"uv_index":8.25,"aqi":123,"mosquito_risk":4,"arthritis_risk":5,"migraine_risk":7,"frizz_risk":0,"updated_at":"2026-02-27T21:10:16.446524+05:30"},{"city":"Kakinada","state":"Andhra Pradesh","latitude":16.9891,"longitude":82.2475,"temp":24.4,"humidity":88,"rain":0.0,"pressure":1008.2,"uv_index":8.15,"aqi":94,"mosquito_risk":3,"arthritis_risk":0,"migraine_risk":4,"frizz_risk":1,"updated_at":"2026-02-27T21:10:16.446531+05:30"},{"city":"Tirupati","state":"Andhra Pradesh","latitude":13.6288,"longitude":79.4192,"temp":25.3,"humidity":58,"rain":0.0,"pressure":992.2,"uv_index":8.6,"aqi":116,"mosquito_risk":4,"arthritis_risk":5,"migraine_risk":7,"frizz_risk":1,"updated_at":"2026-02-27T21:10:16.446537+05:30"},{"city":"Warangal","state":"Telangana","latitude":17.9689,"longitude":79.5941,"temp":27.6,"humidity":51,"rain":0.0,"pressure":978.5,"uv_index":7.95,"aqi":154,"mosquito_risk":4,"arthritis_risk":5,"migraine_risk":7,"frizz_risk":1,"updated_at":"2026-02-27T21:10:16.446543+05:30"},{"city":"Nizamabad","state":"Telangana","latitude":18.6725,"longitude":78.0941,"temp":26.1,"humidity":56,"rain":0.0,"pressure":964.2,"uv_index":7.85,"aqi":140,"mosquito_risk":4,"arthritis_risk":5,"migraine_risk":7,"frizz_risk":1,"updated_at":"2026-02-27T21:10:16.446548+05:30"},{"city":"Mysore","state":"Karnataka","latitude":12.2958,"longitude":76.6396,"temp":23.4,"humidity":76,"rain":0.0,"pressure":927.7,"uv_index":8.85,"aqi":148,"mosquito_risk":3,"arthritis_risk":5,"migraine_risk":7,"frizz_risk":1,"updated_at":"2026-02-27T21:10:16.446554+05:30"},{"city":"Mangalore","state":"Karnataka","latitude":12.9141,"longitude":74.856,"temp":28.6,"humidity":74,"rain":0.0,"pressure":1006.3,"uv_index":8.55,"aqi":44,"mosquito_risk":7,"arthritis_risk":5,"migraine_risk":4,"frizz_risk":1,"updated_at":"2026-02-27T21:10:16.446560+05:30"},{"city":"Hubli-Dharwad","state":"Karnataka","latitude":15.3647,"longitude":75.124,"temp":24.6,"humidity":51,"rain":0.0,"pressure":939.9,"uv_index":8.45,"aqi":103,"mosquito_risk":0,"arthritis_risk":5,"migraine_risk":7,"frizz_risk":0,"updated_at":"2026-02-27T21:10:16.446566+05:30"},{"city":"Belgaum","state":"Karnataka","latitude":15.8497,"longitude":74.4977,"temp":22.6,"humidity":47,"rain":0.0,"pressure":925.0,"uv_index":8.5,"aqi":70,"mosquito_risk":0,"arthritis_risk":5,"migraine_risk":7,"frizz_risk":0,"updated_at":"2026-02-27T21:10:19.738258+05:30"},{"city":"Coimbatore","state":"Tamil Nadu","latitude":11.0168,"longitude":76.9558,"temp":24.5,"humidity":80,"rain":0.0,"pressure":961.3,"uv_index":4.0,"aqi":115,"mosquito_risk":3,"arthritis_risk":5,"migraine_risk":3,"frizz_risk":1,"updated_at":"2026-02-27T21:10:19.738288+05:30"},{"city":"Madurai","state":"Tamil Nadu","latitude":9.9252,"longitude":78.1198,"temp":27.1,"humidity":70,"rain":0.0,"pressure":993.3,"uv_index":8.95,"aqi":149,"mosquito_risk":7,"arthritis_risk":5,"migraine_risk":7,"frizz_risk":1,"updated_at":"2026-02-27T21:10:19.738298+05:30"},{"city":"Trichy","state":"Tamil Nadu","latitude":10.7905,"longitude":78.7047,"temp":26.6,"humidity":71,"rain":0.0,"pressure":999.8,"uv_index":8.85,"aqi":124,"mosquito_risk":7,"arthritis_risk":5,"migraine_risk":7,"frizz_risk":1,"updated_at":"2026-02-27T21:10:19.738306+05:30"},{"city":"Salem","state":"Tamil Nadu","latitude":11.6643,"longitude":78.146,"temp":28.1,"humidity":52,"rain":0.0,"pressure":976.5,"uv_index":8.8,"aqi":142,"mosquito_risk":4,"arthritis_risk":5,"migraine_risk":7,"frizz_risk":1,"updated_at":"2026-02-27T21:10:19.738313+05:30"},{"city":"Tirunelveli","state":"Tamil Nadu","latitude":8.7139,"longitude":77.7567,"temp":27.0,"humidity":80,"rain":0.0,"pressure":1003.5,"uv_index":8.95,"aqi":129,"mosquito_risk":7,"arthritis_risk":5,"migraine_risk":4,"frizz_risk":1,"updated_at":"2026-02-27T21:10:19.738320+05:30"},{"city":"Vellore","state":"Tamil Nadu","latitude":12.9165,"longitude":79.1325,"temp":25.9,"humidity":61,"rain":0.0,"pressure":984.8,"uv_index":8.7,"aqi":120,"mosquito_risk":7,"arthritis_risk":5,"migraine_risk":7,"frizz_risk":1,"updated_at":"2026-02-27T21:10:19.738327+05:30"},{"city":"Erode","state":"Tamil Nadu","latitude":11.341,"longitude":77.7172,"temp":28.9,"humidity":49,"rain":0.0,"pressure":988.1,"uv_index":8.85,"aqi":120,"mosquito_risk":4,"arthritis_risk":5,"migraine_risk":7,"frizz_risk":1,"updated_at":"2026-02-27T21:10:19.738333+05:30"},{"city":"Kochi","state":"Kerala","latitude":9.9312,"longitude":76.2673,"temp":28.4,"humidity":77,"rain":0.0,"pressure":1008.3,"uv_index":8.8,"aqi":107,"mosquito_risk":7,"arthritis_risk":0,"migraine_risk":4,"frizz_risk":1,"updated_at":"2026-02-27T21:10:19.738340+05:30"},{"city":"Thiruvananthapuram","state":"Kerala","latitude":8.5241,"longitude":76.9366,"temp":28.0,"humidity":77,"rain":0.0,"pressure":1007.9,"uv_index":8.75,"aqi":139,"mosquito_risk":7,"arthritis_risk":5,"migraine_risk":4,"frizz_risk":1,"updated_at":"2026-02-27T21:10:19.738347+05:30"},{"city":"Kozhikode","state":"Kerala","latitude":11.2588,"longitude":75.7804,"temp":28.9,"humidity":72,"rain":0.0,"pressure":1007.3,"uv_index":8.65,"aqi":69,"mosquito_risk":7,"arthritis_risk":5,"migraine_risk":4,"frizz_risk":1,"updated_at":"2026-02-27T21:10:19.738353+05:30"},{"city":"Thrissur","state":"Kerala","latitude":10.5276,"longitude":76.2144,"temp":26.9,"humidity":82,"rain":0.0,"pressure":1006.5,"uv_index":8.75,"aqi":102,"mosquito_risk":7,"arthritis_risk":5,"migraine_risk":4,"frizz_risk":1,"updated_at":"2026-02-27T21:10:19.738360+05:30"},{"city":"Kannur","state":"Kerala","latitude":11.8745,"longitude":75.3704,"temp":28.3,"humidity":71,"rain":0.0,"pressure":1006.6,"uv_index":8.65,"aqi":46,"mosquito_risk":7,"arthritis_risk":5,"migraine_risk":4,"frizz_risk":1,"updated_at":"2026-02-27T21:10:19.738367+05:30"},{"city":"Patna","state":"Bihar","latitude":25.5941,"longitude":85.1376,"temp":22.2,"humidity":56,"rain":0.0,"pressure":1000.8,"uv_index":6.9,"aqi":151,"mosquito_risk":0,"arthritis_risk":5,"migraine_risk":4,"frizz_risk":0,"updated_at":"2026-02-27T21:10:19.738373+05:30"},{"city":"Gaya","state":"Bihar","latitude":24.7914,"longitude":85.0002,"temp":19.5,"humidity":67,"rain":0.0,"pressure":994.7,"uv_index":7.0,"aqi":107,"mosquito_risk":3,"arthritis_risk":5,"migraine_risk":7,"frizz_risk":0,"updated_at":"2026-02-27T21:10:19.738379+05:30"},{"city":"Muzaffarpur","state":"Bihar","latitude":26.1209,"longitude":85.3647,"temp":20.1,"humidity":63,"rain":0.0,"pressure":1000.7,"uv_index":6.85,"aqi":154,"mosquito_risk":3,"arthritis_risk":5,"migraine_risk":4,"frizz_risk":0,"updated_at":"2026-02-27T21:10:19.738385+05:30"},{"city":"Bhagalpur","state":"Bihar","latitude":25.2425,"longitude":87.0117,"temp":20.5,"humidity":62,"rain":0.0,"pressure":1001.7,"uv_index":6.9,"aqi":126,"mosquito_risk":3,"arthritis_risk":5,"migraine_risk":4,"frizz_risk":0,"updated_at":"2026-02-27T21:10:19.738391+05:30"},{"city":"Ranchi","state":"Jharkhand","latitude":23.3441,"longitude":85.3096,"temp":18.8,"humidity":45,"rain":0.0,"pressure":937.6,"uv_index":7.65,"aqi":114,"mosquito_risk":0,"arthritis_risk":5,"migraine_risk":7,"frizz_risk":0,"updated_at":"2026-02-27T21:10:19.738397+05:30"},{"city":"Jamshedpur","state":"Jharkhand","latitude":22.8046,"longitude":86.2029,"temp":22.9,"humidity":58,"rain":0.0,"pressure":991.0,"uv_index":7.55,"aqi":123,"mosquito_risk":0,"arthritis_risk":5,"migraine_risk":7,"frizz_risk":0,"updated_at":"2026-02-27T21:10:19.738403+05:30"},{"city":"Dhanbad","state":"Jharkhand","latitude":23.7957,"longitude":86.4304,"temp":22.7,"humidity":31,"rain":0.0,"pressure":980.2,"uv_index":7.4,"aqi":129,"mosquito_risk":0,"arthritis_risk":5,"migraine_risk":7,"frizz_risk":0,"updated_at":"2026-02-27T21:10:19.738410+05:30"},{"city":"Bokaro","state":"Jharkhand","latitude":23.6693,"longitude":86.1511,"temp":22.5,"humidity":38,"rain":0.0,"pressure":984.5,"uv_index":7.4,"aqi":126,"mosquito_risk":0,"arthritis_risk":5,"migraine_risk":7,"frizz_risk":0,"updated_at":"2026-02-27T21:10:19.738415+05:30"},{"city":"Bhubaneswar","state":"Odisha","latitude":20.2961,"longitude":85.8245,"temp":23.7,"humidity":84,"rain":0.0,"pressure":1002.7,"uv_index":7.85,"aqi":142,"mosquito_risk":3,"arthritis_risk":5,"migraine_risk":4,"frizz_risk":1,"updated_at":"2026-02-27T21:10:19.738421+05:30"},{"city":"Cuttack","state":"Odisha","latitude":20.4625,"longitude":85.8828,"temp":24.9,"humidity":54,"rain":0.0,"pressure":1004.4,"uv_index":7.9,"aqi":142,"mosquito_risk":0,"arthritis_risk":5,"migraine_risk":4,"frizz_risk":0,"updated_at":"2026-02-27T21:10:19.738427+05:30"},{"city":"Rourkela","state":"Odisha","latitude":22.2604,"longitude":84.8536,"temp":22.1,"humidity":54,"rain":0.0,"pressure":985.1,"uv_index":7.45,"aqi":115,"mosquito_risk":0,"arthritis_risk":5,"migraine_risk":7,"frizz_risk":0,"updated_at":"2026-02-27T21:10:19.738437+05:30"},{"city":"Raipur","state":"Chhattisgarh","latitude":21.2514,"longitude":81.6296,"temp":25.7,"humidity":45,"rain":0.0,"pressure":975.1,"uv_index":7.55,"aqi":151,"mosquito_risk":4,"arthritis_risk":5,"migraine_risk":7,"frizz_risk":0,"updated_at":"2026-02-27T21:10:19.738443+05:30"},{"city":"Bhilai","state":"Chhattisgarh","latitude":21.1938,"longitude":81.3509,"temp":24.1,"humidity":49,"rain":0.0,"pressure":975.2,"uv_index":7.55,"aqi":153,"mosquito_risk":0,"arthritis_risk":5,"migraine_risk":7,"frizz_risk":0,"updated_at":"2026-02-27T21:10:19.738449+05:30"},{"city":"Guwahati","state":"Assam","latitude":26.1158,"longitude":91.7086,"temp":20.4,"humidity":87,"rain":0.0,"pressure":1001.2,"uv_index":6.9,"aqi":143,"mosquito_risk":3,"arthritis_risk":5,"migraine_risk":4,"frizz_risk":1,"updated_at":"2026-02-27T21:10:19.738456+05:30"},{"city":"Agartala","state":"Tripura","latitude":23.8315,"longitude":91.2868,"temp":19.7,"humidity":58,"rain":0.0,"pressure":1005.9,"uv_index":7.25,"aqi":165,"mosquito_risk":0,"arthritis_risk":5,"migraine_risk":4,"frizz_risk":0,"updated_at":"2026-02-27T21:10:19.738462+05:30"},{"city":"Shillong","state":"Meghalaya","latitude":25.5788,"longitude":91.8933,"temp":7.9,"humidity":93,"rain":0.0,"pressure":851.5,"uv_index":5.4,"aqi":118,"mosquito_risk":3,"arthritis_risk":10,"migraine_risk":3,"frizz_risk":0,"updated_at":"2026-02-27T21:10:19.738469+05:30"},{"city":"Imphal","state":"Manipur","latitude":24.817,"longitude":93.9368,"temp":14.5,"humidity":71,"rain":0.0,"pressure":921.2,"uv_index":7.45,"aqi":157,"mosquito_risk":3,"arthritis_risk":5,"migraine_risk":7,"frizz_risk":0,"updated_at":"2026-02-27T21:10:19.738476+05:30"},{"city":"Aizawl","state":"Mizoram","latitude":23.7271,"longitude":92.7176,"temp":14.9,"humidity":61,"rain":0.0,"pressure":890.3,"uv_index":7.4,"aqi":172,"mosquito_risk":3,"arthritis_risk":5,"migraine_risk":7,"frizz_risk":0,"updated_at":"2026-02-27T21:10:19.738482+05:30"},{"city":"Kohima","state":"Nagaland","latitude":25.6701,"longitude":94.1077,"temp":10.9,"humidity":77,"rain":0.0,"pressure":851.2,"uv_index":5.85,"aqi":156,"mosquito_risk":3,"arthritis_risk":5,"migraine_risk":3,"frizz_risk":0,"updated_at":"2026-02-27T21:10:19.738488+05:30"},{"city":"Gangtok","state":"Sikkim","latitude":27.3314,"longitude":88.6138,"temp":10.4,"humidity":93,"rain":0.1,"pressure":833.2,"uv_index":4.8,"aqi":152,"mosquito_risk":6,"arthritis_risk":10,"migraine_risk":3,"frizz_risk":0,"updated_at":"2026-02-27T21:10:19.738494+05:30"},{"city":"Siliguri","state":"West Bengal","latitude":26.7271,"longitude":88.3953,"temp":18.6,"humidity":67,"rain":0.0,"pressure":993.5,"uv_index":6.85,"aqi":163,"mosquito_risk":3,"arthritis_risk":5,"migraine_risk":7,"frizz_risk":0,"updated_at":"2026-02-27T21:10:23.042855+05:30"},{"city":"Durgapur","state":"West Bengal","latitude":23.5204,"longitude":87.3119,"temp":23.2,"humidity":39,"rain":0.0,"pressure":995.4,"uv_index":7.4,"aqi":111,"mosquito_risk":0,"arthritis_risk":5,"migraine_risk":7,"frizz_risk":0,"updated_at":"2026-02-27T21:10:23.042887+05:30"},{"city":"Asansol","state":"West Bengal","latitude":23.6739,"longitude":86.9524,"temp":23.7,"humidity":31,"rain":0.0,"pressure":994.0,"uv_index":7.4,"aqi":108,"mosquito_risk":0,"arthritis_risk":5,"migraine_risk":7,"frizz_risk":0,"updated_at":"2026-02-27T21:10:23.042899+05:30"},{"city":"Pondicherry","state":"Puducherry","latitude":11.9139,"longitude":79.8145,"temp":24.1,"humidity":89,"rain":0.0,"pressure":1009.1,"uv_index":8.7,"aqi":106,"mosquito_risk":3,"arthritis_risk":0,"migraine_risk":4,"frizz_risk":1,"updated_at":"2026-02-27T21:10:23.042908+05:30"},{"city":"Port Blair","state":"Andaman and Nicobar Islands","latitude":11.6234,"longitude":92.7265,"temp":26.2,"humidity":85,"rain":0.0,"pressure":1006.0,"uv_index":8.65,"aqi":40,"mosquito_risk":7,"arthritis_risk":5,"migraine_risk":4,"frizz_risk":1,"updated_at":"2026-02-27T21:10:23.042917+05:30"},{"city":"Haridwar","state":"Uttarakhand","latitude":29.9457,"longitude":78.1642,"temp":18.5,"humidity":77,"rain":0.0,"pressure":974.3,"uv_index":5.3,"aqi":133,"mosquito_risk":3,"arthritis_risk":5,"migraine_risk":3,"frizz_risk":0,"updated_at":"2026-02-27T21:10:23.042925+05:30"},{"city":"Rishikesh","state":"Uttarakhand","latitude":30.0869,"longitude":78.2676,"temp":16.9,"humidity":81,"rain":0.0,"pressure":966.9,"uv_index":5.4,"aqi":129,"mosquito_risk":3,"arthritis_risk":10,"migraine_risk":3,"frizz_risk":0,"updated_at":"2026-02-27T21:10:23.042933+05:30"},{"city":"Nainital","state":"Uttarakhand","latitude":29.3919,"longitude":79.4542,"temp":14.3,"humidity":59,"rain":0.0,"pressure":803.6,"uv_index":6.2,"aqi":136,"mosquito_risk":0,"arthritis_risk":5,"migraine_risk":7,"frizz_risk":0,"updated_at":"2026-02-27T21:10:23.042941+05:30"},{"city":"Mussoorie","state":"Uttarakhand","latitude":30.4599,"longitude":78.0664,"temp":11.6,"humidity":76,"rain":0.0,"pressure":799.4,"uv_index":5.75,"aqi":138,"mosquito_risk":3,"arthritis_risk":5,"migraine_risk":3,"frizz_risk":0,"updated_at":"2026-02-27T21:10:23.042949+05:30"},{"city":"Dharamshala","state":"Himachal Pradesh","latitude":32.219,"longitude":76.3234,"temp":15.9,"humidity":50,"rain":0.0,"pressure":867.2,"uv_index":5.95,"aqi":111,"mosquito_risk":0,"arthritis_risk":5,"migraine_risk":3,"frizz_risk":0,"updated_at":"2026-02-27T21:10:23.042957+05:30"},{"city":"Dalhousie","state":"Himachal Pradesh","latitude":32.5387,"longitude":75.971,"temp":13.3,"humidity":53,"rain":0.0,"pressure":801.3,"uv_index":6.2,"aqi":124,"mosquito_risk":0,"arthritis_risk":5,"migraine_risk":7,"frizz_risk":0,"updated_at":"2026-02-27T21:10:23.042965+05:30"},{"city":"Patiala","state":"Punjab","latitude":30.3398,"longitude":76.3869,"temp":19.1,"humidity":73,"rain":0.0,"pressure":978.0,"uv_index":5.4,"aqi":163,"mosquito_risk":3,"arthritis_risk":5,"migraine_risk":3,"frizz_risk":0,"updated_at":"2026-02-27T21:10:23.042973+05:30"},{"city":"Bhatinda","state":"Punjab","latitude":30.211,"longitude":74.9455,"temp":21.5,"humidity":65,"rain":0.0,"pressure":983.5,"uv_index":6.1,"aqi":157,"mosquito_risk":3,"arthritis_risk":5,"migraine_risk":7,"frizz_risk":0,"updated_at":"2026-02-27T21:10:23.042982+05:30"},{"city":"Rohtak","state":"Haryana","latitude":28.8955,"longitude":76.6066,"temp":20.5,"humidity":67,"rain":0.0,"pressure":981.2,"uv_index":5.6,"aqi":152,"mosquito_risk":3,"arthritis_risk":5,"migraine_risk":3,"frizz_risk":0,"updated_at":"2026-02-27T21:10:23.042990+05:30"},{"city":"Panipat","state":"Haryana","latitude":29.3909,"longitude":76.9635,"temp":20.0,"humidity":69,"rain":0.0,"pressure":979.9,"uv_index":5.4,"aqi":155,"mosquito_risk":3,"arthritis_risk":5,"migraine_risk":3,"frizz_risk":0,"updated_at":"2026-02-27T21:10:23.042997+05:30"},{"city":"Mathura","state":"Uttar Pradesh","latitude":27.4924,"longitude":77.6737,"temp":21.3,"humidity":60,"rain":0.0,"pressure":986.6,"uv_index":5.85,"aqi":126,"mosquito_risk":0,"arthritis_risk":5,"migraine_risk":3,"frizz_risk":0,"updated_at":"2026-02-27T21:10:23.043005+05:30"},{"city":"Vrindavan","state":"Uttar Pradesh","latitude":27.5823,"longitude":77.7027,"temp":21.4,"humidity":56,"rain":0.0,"pressure":987.2,"uv_index":5.8,"aqi":126,"mosquito_risk":0,"arthritis_risk":5,"migraine_risk":3,"frizz_risk":0,"updated_at":"2026-02-27T21:10:23.043011+05:30"},{"city":"Ayodhya","state":"Uttar Pradesh","latitude":26.7922,"longitude":82.1998,"temp":19.8,"humidity":58,"rain":0.0,"pressure":995.4,"uv_index":6.2,"aqi":140,"mosquito_risk":0,"arthritis_risk":5,"migraine_risk":7,"frizz_risk":0,"updated_at":"2026-02-27T21:10:23.043019+05:30"},{"city":"Ratlam","state":"Madhya Pradesh","latitude":23.3315,"longitude":75.0367,"temp":22.8,"humidity":64,"rain":0.0,"pressure":954.2,"uv_index":7.1,"aqi":89,"mosquito_risk":3,"arthritis_risk":5,"migraine_risk":7,"frizz_risk":0,"updated_at":"2026-02-27T21:10:23.043026+05:30"},{"city":"Sagar","state":"Madhya Pradesh","latitude":23.8388,"longitude":78.7378,"temp":24.4,"humidity":47,"rain":0.0,"pressure":950.0,"uv_index":7.05,"aqi":78,"mosquito_risk":0,"arthritis_risk":5,"migraine_risk":7,"frizz_risk":0,"updated_at":"2026-02-27T21:10:23.043034+05:30"},{"city":"Satna","state":"Madhya Pradesh","latitude":24.6005,"longitude":80.8322,"temp":23.8,"humidity":39,"rain":0.0,"pressure":971.4,"uv_index":7.0,"aqi":84,"mosquito_risk":0,"arthritis_risk":5,"migraine_risk":7,"frizz_risk":0,"updated_at":"2026-02-27T21:10:23.043041+05:30"},{"city":"Akola","state":"Maharashtra","latitude":20.7002,"longitude":77.0082,"temp":27.8,"humidity":45,"rain":0.0,"pressure":974.0,"uv_index":7.55,"aqi":126,"mosquito_risk":4,"arthritis_risk":5,"migraine_risk":7,"frizz_risk":0,"updated_at":"2026-02-27T21:10:23.043049+05:30"},{"city":"Amravati","state":"Maharashtra","latitude":20.9374,"longitude":77.7796,"temp":26.8,"humidity":51,"rain":0.0,"pressure":966.6,"uv_index":7.45,"aqi":128,"mosquito_risk":4,"arthritis_risk":5,"migraine_risk":7,"frizz_risk":0,"updated_at":"2026-02-27T21:10:23.043058+05:30"},{"city":"Latur","state":"Maharashtra","latitude":18.4088,"longitude":76.5604,"temp":24.2,"humidity":49,"rain":0.0,"pressure":939.0,"uv_index":7.95,"aqi":99,"mosquito_risk":0,"arthritis_risk":5,"migraine_risk":7,"frizz_risk":0,"updated_at":"2026-02-27T21:10:23.043065+05:30"},{"city":"Nanded","state":"Maharashtra","latitude":19.1383,"longitude":77.3091,"temp":27.7,"humidity":48,"rain":0.0,"pressure":967.8,"uv_index":7.75,"aqi":137,"mosquito_risk":4,"arthritis_risk":5,"migraine_risk":7,"frizz_risk":0,"updated_at":"2026-02-27T21:10:23.043072+05:30"},{"city":"Gulbarga","state":"Karnataka","latitude":17.3297,"longitude":76.8343,"temp":27.0,"humidity":43,"rain":0.0,"pressure":958.0,"uv_index":8.1,"aqi":124,"mosquito_risk":4,"arthritis_risk":5,"migraine_risk":7,"frizz_risk":0,"updated_at":"2026-02-27T21:10:23.043080+05:30"},{"city":"Bidar","state":"Karnataka","latitude":17.9104,"longitude":77.5199,"temp":27.2,"humidity":45,"rain":0.0,"pressure":934.9,"uv_index":8.05,"aqi":126,"mosquito_risk":4,"arthritis_risk":5,"migraine_risk":7,"frizz_risk":0,"updated_at":"2026-02-27T21:10:23.043087+05:30"},{"city":"Hospet","state":"Karnataka","latitude":15.2689,"longitude":76.3909,"temp":29.5,"humidity":39,"rain":0.0,"pressure":954.8,"uv_index":8.4,"aqi":159,"mosquito_risk":4,"arthritis_risk":5,"migraine_risk":7,"frizz_risk":0,"updated_at":"2026-02-27T21:10:23.043094+05:30"},{"city":"Tirupur","state":"Tamil Nadu","latitude":11.1085,"longitude":77.3411,"temp":27.1,"humidity":69,"rain":0.0,"pressure":974.6,"uv_index":6.65,"aqi":151,"mosquito_risk":7,"arthritis_risk":5,"migraine_risk":7,"frizz_risk":1,"updated_at":"2026-02-27T21:10:23.043102+05:30"},{"city":"Alappuzha","state":"Kerala","latitude":9.4981,"longitude":76.3388,"temp":28.4,"humidity":77,"rain":0.0,"pressure":1008.5,"uv_index":8.8,"aqi":156,"mosquito_risk":7,"arthritis_risk":0,"migraine_risk":4,"frizz_risk":1,"updated_at":"2026-02-27T21:10:23.043109+05:30"},{"city":"Munnar","state":"Kerala","latitude":10.0889,"longitude":77.0595,"temp":20.6,"humidity":97,"rain":0.0,"pressure":856.2,"uv_index":6.35,"aqi":94,"mosquito_risk":3,"arthritis_risk":5,"migraine_risk":7,"frizz_risk":1,"updated_at":"2026-02-27T21:10:23.043117+05:30"},{"city":"Silchar","state":"Assam","latitude":24.8333,"longitude":92.7789,"temp":21.8,"humidity":61,"rain":0.0,"pressure":1004.6,"uv_index":7.2,"aqi":163,"mosquito_risk":3,"arthritis_risk":5,"migraine_risk":4,"frizz_risk":0,"updated_at":"2026-02-27T21:10:23.043124+05:30"},{"city":"Dibrugarh","state":"Assam","latitude":27.4728,"longitude":94.912,"temp":19.9,"humidity":85,"rain":0.0,"pressure":996.0,"uv_index":6.95,"aqi":149,"mosquito_risk":3,"arthritis_risk":10,"migraine_risk":7,"frizz_risk":1,"updated_at":"2026-02-27T21:10:23.043131+05:30"}]