[{"city":"Delhi","state":"Delhi","latitude":28.6139,"longitude":77.209,"temp":35.3,"humidity":27,"rain":0.0,"pressure":980.9,"uv_index":7.7,"wind_gusts":49.0,"aqi":553,"pm10":468.5,"pm2_5":134.1,"no2":18.4,"co":566.0,"o3":96.0,"so2":18.1,"mosquito_risk":0,"arthritis_risk":5,"migraine_risk":10,"frizz_risk":0,"updated_at":"2026-05-17T09:22:57.261774+05:30"},{"city":"Mumbai","state":"Maharashtra","latitude":19.076,"longitude":72.8777,"temp":32.2,"humidity":62,"rain":0.0,"pressure":1007.3,"uv_index":7.35,"wind_gusts":45.0,"aqi":59,"pm10":46.8,"pm2_5":20.9,"no2":6.4,"co":219.0,"o3":61.0,"so2":7.0,"mosquito_risk":3,"arthritis_risk":5,"migraine_risk":4,"frizz_risk":1,"updated_at":"2026-05-17T09:22:57.261835+05:30"},{"city":"Bangalore","state":"Karnataka","latitude":12.9716,"longitude":77.5946,"temp":27.3,"humidity":63,"rain":0.0,"pressure":911.5,"uv_index":9.45,"wind_gusts":36.7,"aqi":128,"pm10":42.4,"pm2_5":31.3,"no2":14.5,"co":726.0,"o3":97.0,"so2":12.1,"mosquito_risk":7,"arthritis_risk":5,"migraine_risk":7,"frizz_risk":1,"updated_at":"2026-05-17T09:22:57.261853+05:30"},{"city":"Hyderabad","state":"Telangana","latitude":17.385,"longitude":78.4867,"temp":32.7,"humidity":48,"rain":0.0,"pressure":952.7,"uv_index":9.3,"wind_gusts":25.9,"aqi":91,"pm10":26.5,"pm2_5":13.4,"no2":6.4,"co":340.0,"o3":69.0,"so2":4.8,"mosquito_risk":0,"arthritis_risk":5,"migraine_risk":7,"frizz_risk":1,"updated_at":"2026-05-17T09:22:57.261864+05:30"},{"city":"Chennai","state":"Tamil Nadu","latitude":13.0827,"longitude":80.2707,"temp":31.9,"humidity":60,"rain":0.0,"pressure":1005.6,"uv_index":9.15,"wind_gusts":40.7,"aqi":50,"pm10":25.1,"pm2_5":17.6,"no2":7.8,"co":303.0,"o3":94.0,"so2":13.8,"mosquito_risk":0,"arthritis_risk":5,"migraine_risk":4,"frizz_risk":1,"updated_at":"2026-05-17T09:22:57.261874+05:30"},{"city":"Kolkata","state":"West Bengal","latitude":22.5726,"longitude":88.3639,"temp":32.8,"humidity":70,"rain":0.0,"pressure":1003.6,"uv_index":8.95,"wind_gusts":37.4,"aqi":60,"pm10":28.5,"pm2_5":17.8,"no2":4.0,"co":301.0,"o3":83.0,"so2":7.4,"mosquito_risk":3,"arthritis_risk":5,"migraine_risk":4,"frizz_risk":1,"updated_at":"2026-05-17T09:22:57.261883+05:30"},{"city":"Pune","state":"Maharashtra","latitude":18.5204,"longitude":73.8567,"temp":29.9,"humidity":55,"rain":0.0,"pressure":947.9,"uv_index":8.5,"wind_gusts":38.9,"aqi":65,"pm10":39.7,"pm2_5":23.2,"no2":12.0,"co":281.0,"o3":78.0,"so2":24.9,"mosquito_risk":4,"arthritis_risk":5,"migraine_risk":7,"frizz_risk":1,"updated_at":"2026-05-17T09:22:57.261891+05:30"},{"city":"Ahmedabad","state":"Gujarat","latitude":23.0225,"longitude":72.5714,"temp":34.1,"humidity":47,"rain":0.0,"pressure":1000.9,"uv_index":8.15,"wind_gusts":30.2,"aqi":59,"pm10":46.3,"pm2_5":19.1,"no2":4.3,"co":189.0,"o3":58.0,"so2":5.6,"mosquito_risk":0,"arthritis_risk":5,"migraine_risk":4,"frizz_risk":1,"updated_at":"2026-05-17T09:22:57.261900+05:30"},{"city":"Jaipur","state":"Rajasthan","latitude":26.9124,"longitude":75.7873,"temp":35.5,"humidity":24,"rain":0.0,"pressure":959.4,"uv_index":8.25,"wind_gusts":38.5,"aqi":151,"pm10":300.8,"pm2_5":58.3,"no2":8.3,"co":320.0,"o3":101.0,"so2":11.0,"mosquito_risk":0,"arthritis_risk":5,"migraine_risk":10,"frizz_risk":0,"updated_at":"2026-05-17T09:22:57.261916+05:30"},{"city":"Lucknow","state":"Uttar Pradesh","latitude":26.8467,"longitude":80.9462,"temp":36.3,"humidity":29,"rain":0.0,"pressure":990.8,"uv_index":8.2,"wind_gusts":46.4,"aqi":151,"pm10":199.3,"pm2_5":65.2,"no2":13.4,"co":385.0,"o3":114.0,"so2":14.1,"mosquito_risk":0,"arthritis_risk":5,"migraine_risk":10,"frizz_risk":0,"updated_at":"2026-05-17T09:22:57.261925+05:30"},{"city":"Kanpur","state":"Uttar Pradesh","latitude":26.4499,"longitude":80.3319,"temp":37.3,"humidity":25,"rain":0.0,"pressure":989.4,"uv_index":8.2,"wind_gusts":47.2,"aqi":154,"pm10":277.5,"pm2_5":73.6,"no2":10.8,"co":313.0,"o3":126.0,"so2":14.0,"mosquito_risk":0,"arthritis_risk":5,"migraine_risk":10,"frizz_risk":0,"updated_at":"2026-05-17T09:22:57.261933+05:30"},{"city":"Chandigarh","state":"Chandigarh","latitude":30.7333,"longitude":76.7794,"temp":33.2,"humidity":31,"rain":0.0,"pressure":966.0,"uv_index":7.75,"wind_gusts":45.4,"aqi":77,"pm10":41.6,"pm2_5":21.9,"no2":6.6,"co":511.0,"o3":129.0,"so2":10.9,"mosquito_risk":0,"arthritis_risk":5,"migraine_risk":7,"frizz_risk":0,"updated_at":"2026-05-17T09:22:57.261942+05:30"},{"city":"Srinagar","state":"Jammu and Kashmir","latitude":34.0837,"longitude":74.7973,"temp":18.6,"humidity":64,"rain":0.0,"pressure":844.2,"uv_index":8.9,"wind_gusts":16.2,"aqi":79,"pm10":31.4,"pm2_5":26.1,"no2":6.9,"co":459.0,"o3":81.0,"so2":2.0,"mosquito_risk":3,"arthritis_risk":5,"migraine_risk":7,"frizz_risk":0,"updated_at":"2026-05-17T09:22:57.261951+05:30"},{"city":"Jammu","state":"Jammu and Kashmir","latitude":32.7266,"longitude":74.857,"temp":31.8,"humidity":39,"rain":0.0,"pressure":969.6,"uv_index":8.5,"wind_gusts":39.6,"aqi":64,"pm10":28.9,"pm2_5":21.0,"no2":8.5,"co":327.0,"o3":92.0,"so2":3.5,"mosquito_risk":0,"arthritis_risk":5,"migraine_risk":7,"frizz_risk":0,"updated_at":"2026-05-17T09:22:57.261959+05:30"},{"city":"Amritsar","state":"Punjab","latitude":31.634,"longitude":74.8723,"temp":32.1,"humidity":41,"rain":0.0,"pressure":977.9,"uv_index":8.4,"wind_gusts":34.2,"aqi":101,"pm10":44.7,"pm2_5":29.1,"no2":11.5,"co":538.0,"o3":109.0,"so2":7.9,"mosquito_risk":0,"arthritis_risk":5,"migraine_risk":7,"frizz_risk":1,"updated_at":"2026-05-17T09:22:57.261966+05:30"},{"city":"Ludhiana","state":"Punjab","latitude":30.901,"longitude":75.8573,"temp":32.5,"humidity":33,"rain":0.0,"pressure":976.1,"uv_index":8.0,"wind_gusts":37.1,"aqi":94,"pm10":36.2,"pm2_5":29.6,"no2":9.6,"co":576.0,"o3":109.0,"so2":9.1,"mosquito_risk":0,"arthritis_risk":5,"migraine_risk":7,"frizz_risk":0,"updated_at":"2026-05-17T09:22:57.261973+05:30"},{"city":"Jalandhar","state":"Punjab","latitude":31.326,"longitude":75.5762,"temp":31.9,"humidity":37,"rain":0.0,"pressure":976.9,"uv_index":8.15,"wind_gusts":34.9,"aqi":110,"pm10":53.0,"pm2_5":40.4,"no2":13.9,"co":630.0,"o3":105.0,"so2":8.1,"mosquito_risk":0,"arthritis_risk":5,"migraine_risk":7,"frizz_risk":0,"updated_at":"2026-05-17T09:22:57.261981+05:30"},{"city":"Dehradun","state":"Uttarakhand","latitude":30.6284,"longitude":78.0322,"temp":23.0,"humidity":42,"rain":0.0,"pressure":831.0,"uv_index":8.2,"wind_gusts":45.0,"aqi":58,"pm10":35.9,"pm2_5":12.0,"no2":1.6,"co":162.0,"o3":115.0,"so2":0.2,"mosquito_risk":0,"arthritis_risk":5,"migraine_risk":7,"frizz_risk":0,"updated_at":"2026-05-17T09:22:57.261989+05:30"},{"city":"Shimla","state":"Himachal Pradesh","latitude":31.1048,"longitude":77.1734,"temp":21.0,"humidity":31,"rain":0.0,"pressure":786.4,"uv_index":8.25,"wind_gusts":52.2,"aqi":64,"pm10":31.7,"pm2_5":12.3,"no2":1.3,"co":174.0,"o3":128.0,"so2":0.8,"mosquito_risk":0,"arthritis_risk":5,"migraine_risk":7,"frizz_risk":0,"updated_at":"2026-05-17T09:22:57.261999+05:30"},{"city":"Manali","state":"Himachal Pradesh","latitude":32.2396,"longitude":77.1887,"temp":21.1,"humidity":31,"rain":0.0,"pressure":818.8,"uv_index":9.65,"wind_gusts":37.8,"aqi":50,"pm10":10.5,"pm2_5":4.7,"no2":4.9,"co":200.0,"o3":130.0,"so2":0.1,"mosquito_risk":0,"arthritis_risk":5,"migraine_risk":7,"frizz_risk":0,"updated_at":"2026-05-17T09:22:57.262007+05:30"},{"city":"Gurgaon","state":"Haryana","latitude":28.4595,"longitude":77.0266,"temp":34.3,"humidity":31,"rain":0.0,"pressure":979.6,"uv_index":7.8,"wind_gusts":47.5,"aqi":823,"pm10":800.9,"pm2_5":170.0,"no2":22.1,"co":561.0,"o3":99.0,"so2":21.8,"mosquito_risk":0,"arthritis_risk":5,"migraine_risk":7,"frizz_risk":0,"updated_at":"2026-05-17T09:22:57.262015+05:30"},{"city":"Noida","state":"Uttar Pradesh","latitude":28.5355,"longitude":77.391,"temp":34.9,"humidity":31,"rain":0.0,"pressure":982.2,"uv_index":7.75,"wind_gusts":38.9,"aqi":823,"pm10":800.9,"pm2_5":170.0,"no2":22.1,"co":633.0,"o3":99.0,"so2":21.8,"mosquito_risk":0,"arthritis_risk":5,"migraine_risk":7,"frizz_risk":0,"updated_at":"2026-05-17T09:22:57.262023+05:30"},{"city":"Ghaziabad","state":"Uttar Pradesh","latitude":28.6692,"longitude":77.4538,"temp":34.0,"humidity":34,"rain":0.0,"pressure":980.4,"uv_index":7.7,"wind_gusts":44.3,"aqi":403,"pm10":399.5,"pm2_5":123.4,"no2":13.2,"co":476.0,"o3":110.0,"so2":17.0,"mosquito_risk":0,"arthritis_risk":5,"migraine_risk":7,"frizz_risk":0,"updated_at":"2026-05-17T09:22:57.262033+05:30"},{"city":"Faridabad","state":"Haryana","latitude":28.4089,"longitude":77.3178,"temp":35.3,"humidity":28,"rain":0.0,"pressure":981.6,"uv_index":7.8,"wind_gusts":49.7,"aqi":823,"pm10":800.9,"pm2_5":170.0,"no2":22.1,"co":539.0,"o3":99.0,"so2":21.8,"mosquito_risk":0,"arthritis_risk":5,"migraine_risk":10,"frizz_risk":0,"updated_at":"2026-05-17T09:22:57.262041+05:30"},{"city":"Meerut","state":"Uttar Pradesh","latitude":28.9845,"longitude":77.7064,"temp":33.2,"humidity":36,"rain":0.0,"pressure":979.0,"uv_index":7.65,"wind_gusts":47.5,"aqi":403,"pm10":399.5,"pm2_5":123.4,"no2":13.2,"co":379.0,"o3":110.0,"so2":17.0,"mosquito_risk":0,"arthritis_risk":5,"migraine_risk":7,"frizz_risk":1,"updated_at":"2026-05-17T09:22:57.262049+05:30"},{"city":"Agra","state":"Uttar Pradesh","latitude":27.1767,"longitude":78.0081,"temp":35.8,"humidity":28,"rain":0.0,"pressure":986.1,"uv_index":8.05,"wind_gusts":41.8,"aqi":693,"pm10":773.0,"pm2_5":160.2,"no2":16.4,"co":437.0,"o3":97.0,"so2":22.7,"mosquito_risk":0,"arthritis_risk":5,"migraine_risk":10,"frizz_risk":0,"updated_at":"2026-05-17T09:22:57.262057+05:30"},{"city":"Varanasi","state":"Uttar Pradesh","latitude":25.3176,"longitude":82.9739,"temp":38.3,"humidity":25,"rain":0.0,"pressure":994.5,"uv_index":8.7,"wind_gusts":51.1,"aqi":153,"pm10":118.7,"pm2_5":50.8,"no2":16.7,"co":545.0,"o3":111.0,"so2":25.8,"mosquito_risk":0,"arthritis_risk":5,"migraine_risk":10,"frizz_risk":0,"updated_at":"2026-05-17T09:22:57.262065+05:30"},{"city":"Prayagraj","state":"Uttar Pradesh","latitude":25.4358,"longitude":81.8463,"temp":38.2,"humidity":26,"rain":0.0,"pressure":993.3,"uv_index":8.6,"wind_gusts":42.1,"aqi":153,"pm10":133.6,"pm2_5":58.4,"no2":19.3,"co":356.0,"o3":116.0,"so2":17.7,"mosquito_risk":0,"arthritis_risk":5,"migraine_risk":10,"frizz_risk":0,"updated_at":"2026-05-17T09:22:57.262072+05:30"},{"city":"Gorakhpur","state":"Uttar Pradesh","latitude":26.7606,"longitude":83.3732,"temp":33.0,"humidity":49,"rain":0.0,"pressure":994.2,"uv_index":8.6,"wind_gusts":43.2,"aqi":149,"pm10":81.0,"pm2_5":65.4,"no2":10.7,"co":607.0,"o3":133.0,"so2":15.8,"mosquito_risk":0,"arthritis_risk":5,"migraine_risk":7,"frizz_risk":1,"updated_at":"2026-05-17T09:22:57.262082+05:30"},{"city":"Bareilly","state":"Uttar Pradesh","latitude":28.367,"longitude":79.4304,"temp":32.0,"humidity":43,"rain":0.0,"pressure":983.9,"uv_index":8.0,"wind_gusts":41.4,"aqi":116,"pm10":114.6,"pm2_5":61.7,"no2":12.3,"co":373.0,"o3":101.0,"so2":12.1,"mosquito_risk":0,"arthritis_risk":5,"migraine_risk":7,"frizz_risk":1,"updated_at":"2026-05-17T09:22:57.262089+05:30"},{"city":"Aligarh","state":"Uttar Pradesh","latitude":27.8974,"longitude":78.088,"temp":33.5,"humidity":38,"rain":0.0,"pressure":983.6,"uv_index":7.85,"wind_gusts":45.0,"aqi":553,"pm10":502.9,"pm2_5":140.6,"no2":17.6,"co":561.0,"o3":92.0,"so2":21.1,"mosquito_risk":0,"arthritis_risk":5,"migraine_risk":7,"frizz_risk":1,"updated_at":"2026-05-17T09:22:57.262096+05:30"},{"city":"Moradabad","state":"Uttar Pradesh","latitude":28.8386,"longitude":78.7733,"temp":32.1,"humidity":38,"rain":0.0,"pressure":980.8,"uv_index":7.85,"wind_gusts":47.5,"aqi":148,"pm10":120.1,"pm2_5":65.9,"no2":12.2,"co":400.0,"o3":96.0,"so2":11.1,"mosquito_risk":0,"arthritis_risk":5,"migraine_risk":7,"frizz_risk":1,"updated_at":"2026-05-17T09:22:57.262104+05:30"},{"city":"Saharanpur","state":"Uttar Pradesh","latitude":29.9637,"longitude":77.546,"temp":31.3,"humidity":42,"rain":0.0,"pressure":972.6,"uv_index":7.35,"wind_gusts":49.7,"aqi":103,"pm10":58.7,"pm2_5":34.6,"no2":11.2,"co":329.0,"o3":102.0,"so2":9.5,"mosquito_risk":0,"arthritis_risk":5,"migraine_risk":7,"frizz_risk":1,"updated_at":"2026-05-17T09:22:57.262110+05:30"},{"city":"Jhansi","state":"Uttar Pradesh","latitude":25.4484,"longitude":78.5685,"temp":37.3,"humidity":24,"rain":0.0,"pressure":976.4,"uv_index":8.45,"wind_gusts":33.5,"aqi":101,"pm10":353.0,"pm2_5":70.5,"no2":3.9,"co":260.0,"o3":111.0,"so2":10.2,"mosquito_risk":0,"arthritis_risk":5,"migraine_risk":10,"frizz_risk":0,"updated_at":"2026-05-17T09:23:00.797521+05:30"},{"city":"Surat","state":"Gujarat","latitude":21.1702,"longitude":72.8311,"temp":35.3,"humidity":45,"rain":0.0,"pressure":1005.2,"uv_index":7.75,"wind_gusts":38.5,"aqi":85,"pm10":56.3,"pm2_5":34.9,"no2":32.5,"co":263.0,"o3":36.0,"so2":80.7,"mosquito_risk":0,"arthritis_risk":5,"migraine_risk":7,"frizz_risk":1,"updated_at":"2026-05-17T09:23:00.797557+05:30"},{"city":"Vadodara","state":"Gujarat","latitude":22.3072,"longitude":73.1812,"temp":34.7,"humidity":44,"rain":0.0,"pressure":1003.0,"uv_index":8.1,"wind_gusts":31.3,"aqi":71,"pm10":41.8,"pm2_5":19.7,"no2":7.1,"co":224.0,"o3":61.0,"so2":8.7,"mosquito_risk":0,"arthritis_risk":5,"migraine_risk":4,"frizz_risk":1,"updated_at":"2026-05-17T09:23:00.797568+05:30"},{"city":"Rajkot","state":"Gujarat","latitude":22.3039,"longitude":70.8022,"temp":31.1,"humidity":62,"rain":0.0,"pressure":993.9,"uv_index":7.6,"wind_gusts":41.4,"aqi":52,"pm10":41.8,"pm2_5":13.6,"no2":3.8,"co":128.0,"o3":57.0,"so2":4.5,"mosquito_risk":3,"arthritis_risk":5,"migraine_risk":7,"frizz_risk":1,"updated_at":"2026-05-17T09:23:00.797577+05:30"},{"city":"Thane","state":"Maharashtra","latitude":19.2183,"longitude":72.9781,"temp":32.8,"humidity":61,"rain":0.0,"pressure":1006.6,"uv_index":7.5,"wind_gusts":38.9,"aqi":59,"pm10":46.8,"pm2_5":20.9,"no2":6.4,"co":166.0,"o3":61.0,"so2":7.0,"mosquito_risk":3,"arthritis_risk":5,"migraine_risk":4,"frizz_risk":1,"updated_at":"2026-05-17T09:23:00.797585+05:30"},{"city":"Nagpur","state":"Maharashtra","latitude":21.1458,"longitude":79.0882,"temp":36.0,"humidity":38,"rain":0.0,"pressure":972.0,"uv_index":9.0,"wind_gusts":34.2,"aqi":112,"pm10":44.9,"pm2_5":35.5,"no2":12.9,"co":259.0,"o3":92.0,"so2":28.8,"mosquito_risk":0,"arthritis_risk":5,"migraine_risk":10,"frizz_risk":1,"updated_at":"2026-05-17T09:23:00.797593+05:30"},{"city":"Nashik","state":"Maharashtra","latitude":19.9975,"longitude":73.7898,"temp":32.8,"humidity":34,"rain":0.0,"pressure":945.3,"uv_index":8.2,"wind_gusts":42.1,"aqi":61,"pm10":42.3,"pm2_5":16.1,"no2":3.4,"co":185.0,"o3":77.0,"so2":3.1,"mosquito_risk":0,"arthritis_risk":5,"migraine_risk":7,"frizz_risk":0,"updated_at":"2026-05-17T09:23:00.797601+05:30"},{"city":"Aurangabad","state":"Maharashtra","latitude":19.8762,"longitude":75.3433,"temp":34.9,"humidity":23,"rain":0.0,"pressure":943.9,"uv_index":9.05,"wind_gusts":41.0,"aqi":55,"pm10":37.6,"pm2_5":19.7,"no2":5.4,"co":191.0,"o3":112.0,"so2":16.0,"mosquito_risk":0,"arthritis_risk":5,"migraine_risk":7,"frizz_risk":0,"updated_at":"2026-05-17T09:23:00.797608+05:30"},{"city":"Solapur","state":"Maharashtra","latitude":17.6599,"longitude":75.9064,"temp":35.0,"humidity":35,"rain":0.0,"pressure":956.0,"uv_index":9.1,"wind_gusts":34.2,"aqi":77,"pm10":32.1,"pm2_5":27.0,"no2":9.0,"co":349.0,"o3":110.0,"so2":9.6,"mosquito_risk":0,"arthritis_risk":5,"migraine_risk":7,"frizz_risk":1,"updated_at":"2026-05-17T09:23:00.797615+05:30"},{"city":"Kolhapur","state":"Maharashtra","latitude":16.705,"longitude":74.2433,"temp":30.5,"humidity":61,"rain":0.0,"pressure":947.1,"uv_index":8.95,"wind_gusts":45.4,"aqi":61,"pm10":24.6,"pm2_5":15.5,"no2":4.0,"co":200.0,"o3":71.0,"so2":3.7,"mosquito_risk":3,"arthritis_risk":5,"migraine_risk":7,"frizz_risk":1,"updated_at":"2026-05-17T09:23:00.797622+05:30"},{"city":"Goa","state":"Goa","latitude":15.2993,"longitude":74.124,"temp":31.5,"humidity":70,"rain":0.0,"pressure":996.5,"uv_index":8.9,"wind_gusts":42.8,"aqi":57,"pm10":25.8,"pm2_5":13.0,"no2":1.8,"co":192.0,"o3":59.0,"so2":1.5,"mosquito_risk":3,"arthritis_risk":5,"migraine_risk":7,"frizz_risk":1,"updated_at":"2026-05-17T09:23:00.797629+05:30"},{"city":"Jodhpur","state":"Rajasthan","latitude":26.2389,"longitude":73.0243,"temp":35.8,"humidity":27,"rain":0.0,"pressure":982.1,"uv_index":8.4,"wind_gusts":29.2,"aqi":104,"pm10":81.0,"pm2_5":18.7,"no2":4.2,"co":177.0,"o3":78.0,"so2":3.5,"mosquito_risk":0,"arthritis_risk":5,"migraine_risk":10,"frizz_risk":0,"updated_at":"2026-05-17T09:23:00.797636+05:30"},{"city":"Udaipur","state":"Rajasthan","latitude":24.5854,"longitude":73.7125,"temp":35.1,"humidity":26,"rain":0.0,"pressure":946.5,"uv_index":8.85,"wind_gusts":28.1,"aqi":52,"pm10":27.9,"pm2_5":10.4,"no2":2.1,"co":140.0,"o3":89.0,"so2":5.2,"mosquito_risk":0,"arthritis_risk":5,"migraine_risk":10,"frizz_risk":0,"updated_at":"2026-05-17T09:23:00.797644+05:30"},{"city":"Kota","state":"Rajasthan","latitude":25.2138,"longitude":75.8648,"temp":37.3,"humidity":23,"rain":0.0,"pressure":977.4,"uv_index":8.4,"wind_gusts":37.1,"aqi":82,"pm10":313.9,"pm2_5":55.5,"no2":5.8,"co":273.0,"o3":90.0,"so2":7.0,"mosquito_risk":0,"arthritis_risk":5,"migraine_risk":10,"frizz_risk":0,"updated_at":"2026-05-17T09:23:00.797652+05:30"},{"city":"Bikaner","state":"Rajasthan","latitude":28.0229,"longitude":73.3119,"temp":36.7,"humidity":23,"rain":0.0,"pressure":980.3,"uv_index":8.4,"wind_gusts":37.1,"aqi":92,"pm10":95.0,"pm2_5":25.9,"no2":2.5,"co":171.0,"o3":68.0,"so2":1.9,"mosquito_risk":0,"arthritis_risk":5,"migraine_risk":10,"frizz_risk":0,"updated_at":"2026-05-17T09:23:00.797659+05:30"},{"city":"Ajmer","state":"Rajasthan","latitude":26.4499,"longitude":74.6399,"temp":34.8,"humidity":26,"rain":0.0,"pressure":954.4,"uv_index":8.4,"wind_gusts":36.4,"aqi":88,"pm10":170.4,"pm2_5":37.8,"no2":4.4,"co":202.0,"o3":108.0,"so2":7.0,"mosquito_risk":0,"arthritis_risk":5,"migraine_risk":7,"frizz_risk":0,"updated_at":"2026-05-17T09:23:00.797666+05:30"},{"city":"Gwalior","state":"Madhya Pradesh","latitude":26.2183,"longitude":78.1828,"temp":37.6,"humidity":22,"rain":0.0,"pressure":981.5,"uv_index":8.25,"wind_gusts":42.1,"aqi":187,"pm10":780.4,"pm2_5":131.8,"no2":6.7,"co":285.0,"o3":110.0,"so2":17.0,"mosquito_risk":0,"arthritis_risk":5,"migraine_risk":10,"frizz_risk":0,"updated_at":"2026-05-17T09:23:00.797673+05:30"},{"city":"Indore","state":"Madhya Pradesh","latitude":22.7196,"longitude":75.8577,"temp":34.9,"humidity":25,"rain":0.0,"pressure":947.6,"uv_index":8.7,"wind_gusts":42.1,"aqi":48,"pm10":21.7,"pm2_5":12.4,"no2":2.7,"co":259.0,"o3":100.0,"so2":5.3,"mosquito_risk":0,"arthritis_risk":5,"migraine_risk":7,"frizz_risk":0,"updated_at":"2026-05-17T09:23:00.797680+05:30"},{"city":"Bhopal","state":"Madhya Pradesh","latitude":23.2599,"longitude":77.4126,"temp":36.4,"humidity":23,"rain":0.0,"pressure":952.7,"uv_index":8.7,"wind_gusts":41.4,"aqi":52,"pm10":17.3,"pm2_5":11.8,"no2":2.3,"co":217.0,"o3":95.0,"so2":4.2,"mosquito_risk":0,"arthritis_risk":5,"migraine_risk":10,"frizz_risk":0,"updated_at":"2026-05-17T09:23:00.797687+05:30"},{"city":"Jabalpur","state":"Madhya Pradesh","latitude":23.1815,"longitude":79.9864,"temp":35.7,"humidity":37,"rain":0.0,"pressure":960.4,"uv_index":8.9,"wind_gusts":38.5,"aqi":108,"pm10":40.7,"pm2_5":33.3,"no2":4.5,"co":289.0,"o3":120.0,"so2":10.3,"mosquito_risk":0,"arthritis_risk":5,"migraine_risk":10,"frizz_risk":1,"updated_at":"2026-05-17T09:23:00.797694+05:30"},{"city":"Ujjain","state":"Madhya Pradesh","latitude":23.1765,"longitude":75.7885,"temp":35.6,"humidity":25,"rain":0.0,"pressure":952.9,"uv_index":8.65,"wind_gusts":40.0,"aqi":50,"pm10":22.2,"pm2_5":13.1,"no2":2.3,"co":223.0,"o3":91.0,"so2":4.9,"mosquito_risk":0,"arthritis_risk":5,"migraine_risk":10,"frizz_risk":0,"updated_at":"2026-05-17T09:23:00.797703+05:30"},{"city":"Visakhapatnam","state":"Andhra Pradesh","latitude":17.6868,"longitude":83.2185,"temp":33.0,"humidity":61,"rain":0.0,"pressure":1002.7,"uv_index":8.7,"wind_gusts":46.1,"aqi":58,"pm10":19.8,"pm2_5":15.0,"no2":13.3,"co":308.0,"o3":59.0,"so2":38.0,"mosquito_risk":3,"arthritis_risk":5,"migraine_risk":4,"frizz_risk":1,"updated_at":"2026-05-17T09:23:00.797710+05:30"},{"city":"Vijayawada","state":"Andhra Pradesh","latitude":16.5062,"longitude":80.648,"temp":33.9,"humidity":58,"rain":0.0,"pressure":1001.3,"uv_index":9.15,"wind_gusts":37.1,"aqi":49,"pm10":15.4,"pm2_5":11.5,"no2":3.3,"co":202.0,"o3":91.0,"so2":7.6,"mosquito_risk":0,"arthritis_risk":5,"migraine_risk":4,"frizz_risk":1,"updated_at":"2026-05-17T09:23:00.797717+05:30"},{"city":"Guntur","state":"Andhra Pradesh","latitude":16.3067,"longitude":80.4365,"temp":33.8,"humidity":57,"rain":0.0,"pressure":1002.4,"uv_index":9.2,"wind_gusts":31.7,"aqi":50,"pm10":13.9,"pm2_5":10.5,"no2":2.5,"co":187.0,"o3":89.0,"so2":3.9,"mosquito_risk":0,"arthritis_risk":5,"migraine_risk":4,"frizz_risk":1,"updated_at":"2026-05-17T09:23:00.797724+05:30"},{"city":"Nellore","state":"Andhra Pradesh","latitude":14.4426,"longitude":79.9865,"temp":33.8,"humidity":56,"rain":0.0,"pressure":1003.8,"uv_index":9.15,"wind_gusts":38.5,"aqi":41,"pm10":22.2,"pm2_5":18.3,"no2":8.1,"co":256.0,"o3":95.0,"so2":21.5,"mosquito_risk":0,"arthritis_risk":5,"migraine_risk":4,"frizz_risk":1,"updated_at":"2026-05-17T09:23:00.797733+05:30"},{"city":"Kurnool","state":"Andhra Pradesh","latitude":15.8281,"longitude":78.0373,"temp":34.1,"humidity":44,"rain":0.0,"pressure":975.9,"uv_index":9.2,"wind_gusts":34.2,"aqi":82,"pm10":16.4,"pm2_5":8.9,"no2":3.1,"co":170.0,"o3":69.0,"so2":3.8,"mosquito_risk":0,"arthritis_risk":5,"migraine_risk":7,"frizz_risk":1,"updated_at":"2026-05-17T09:23:00.797741+05:30"},{"city":"Kakinada","state":"Andhra Pradesh","latitude":16.9891,"longitude":82.2475,"temp":34.2,"humidity":56,"rain":0.0,"pressure":1006.2,"uv_index":8.75,"wind_gusts":41.4,"aqi":33,"pm10":15.1,"pm2_5":10.1,"no2":1.5,"co":218.0,"o3":86.0,"so2":2.1,"mosquito_risk":0,"arthritis_risk":5,"migraine_risk":4,"frizz_risk":1,"updated_at":"2026-05-17T09:23:00.797748+05:30"},{"city":"Tirupati","state":"Andhra Pradesh","latitude":13.6288,"longitude":79.4192,"temp":31.5,"humidity":62,"rain":0.0,"pressure":989.7,"uv_index":9.2,"wind_gusts":32.0,"aqi":59,"pm10":27.8,"pm2_5":24.2,"no2":5.7,"co":290.0,"o3":106.0,"so2":20.1,"mosquito_risk":3,"arthritis_risk":5,"migraine_risk":7,"frizz_risk":1,"updated_at":"2026-05-17T09:23:00.797772+05:30"},{"city":"Warangal","state":"Telangana","latitude":17.9689,"longitude":79.5941,"temp":32.5,"humidity":60,"rain":0.0,"pressure":978.1,"uv_index":8.8,"wind_gusts":31.0,"aqi":79,"pm10":15.9,"pm2_5":10.4,"no2":5.0,"co":183.0,"o3":65.0,"so2":6.5,"mosquito_risk":0,"arthritis_risk":5,"migraine_risk":7,"frizz_risk":1,"updated_at":"2026-05-17T09:23:00.797779+05:30"},{"city":"Nizamabad","state":"Telangana","latitude":18.6725,"longitude":78.0941,"temp":34.8,"humidity":41,"rain":0.0,"pressure":963.8,"uv_index":9.15,"wind_gusts":32.0,"aqi":78,"pm10":44.5,"pm2_5":32.2,"no2":6.2,"co":292.0,"o3":94.0,"so2":6.8,"mosquito_risk":0,"arthritis_risk":5,"migraine_risk":7,"frizz_risk":1,"updated_at":"2026-05-17T09:23:00.797786+05:30"},{"city":"Mysore","state":"Karnataka","latitude":12.2958,"longitude":76.6396,"temp":27.5,"humidity":67,"rain":0.0,"pressure":927.9,"uv_index":8.0,"wind_gusts":48.2,"aqi":96,"pm10":29.6,"pm2_5":23.7,"no2":9.7,"co":391.0,"o3":85.0,"so2":3.6,"mosquito_risk":7,"arthritis_risk":5,"migraine_risk":7,"frizz_risk":1,"updated_at":"2026-05-17T09:23:00.797794+05:30"},{"city":"Mangalore","state":"Karnataka","latitude":12.9141,"longitude":74.856,"temp":29.9,"humidity":78,"rain":0.0,"pressure":1005.1,"uv_index":8.7,"wind_gusts":39.6,"aqi":67,"pm10":28.0,"pm2_5":20.5,"no2":8.1,"co":214.0,"o3":58.0,"so2":3.4,"mosquito_risk":7,"arthritis_risk":5,"migraine_risk":4,"frizz_risk":1,"updated_at":"2026-05-17T09:23:00.797801+05:30"},{"city":"Hubli-Dharwad","state":"Karnataka","latitude":15.3647,"longitude":75.124,"temp":29.6,"humidity":64,"rain":0.0,"pressure":940.1,"uv_index":9.15,"wind_gusts":48.6,"aqi":59,"pm10":19.0,"pm2_5":13.0,"no2":4.6,"co":193.0,"o3":69.0,"so2":3.1,"mosquito_risk":7,"arthritis_risk":5,"migraine_risk":7,"frizz_risk":1,"updated_at":"2026-05-17T09:23:00.797808+05:30"},{"city":"Belgaum","state":"Karnataka","latitude":15.8497,"longitude":74.4977,"temp":29.1,"humidity":64,"rain":0.0,"pressure":925.4,"uv_index":9.15,"wind_gusts":44.6,"aqi":58,"pm10":23.7,"pm2_5":14.5,"no2":3.6,"co":180.0,"o3":81.0,"so2":3.7,"mosquito_risk":7,"arthritis_risk":5,"migraine_risk":7,"frizz_risk":1,"updated_at":"2026-05-17T09:23:04.030196+05:30"},{"city":"Coimbatore","state":"Tamil Nadu","latitude":11.0168,"longitude":76.9558,"temp":28.8,"humidity":67,"rain":0.0,"pressure":960.8,"uv_index":8.4,"wind_gusts":44.3,"aqi":72,"pm10":39.3,"pm2_5":24.2,"no2":4.7,"co":331.0,"o3":113.0,"so2":5.6,"mosquito_risk":7,"arthritis_risk":5,"migraine_risk":7,"frizz_risk":1,"updated_at":"2026-05-17T09:23:04.030234+05:30"},{"city":"Madurai","state":"Tamil Nadu","latitude":9.9252,"longitude":78.1198,"temp":31.0,"humidity":63,"rain":0.0,"pressure":991.9,"uv_index":8.8,"wind_gusts":31.3,"aqi":98,"pm10":55.2,"pm2_5":30.6,"no2":8.1,"co":351.0,"o3":100.0,"so2":6.3,"mosquito_risk":3,"arthritis_risk":5,"migraine_risk":7,"frizz_risk":1,"updated_at":"2026-05-17T09:23:04.030246+05:30"},{"city":"Trichy","state":"Tamil Nadu","latitude":10.7905,"longitude":78.7047,"temp":30.9,"humidity":68,"rain":0.0,"pressure":998.4,"uv_index":7.65,"wind_gusts":20.9,"aqi":85,"pm10":48.9,"pm2_5":30.7,"no2":8.7,"co":312.0,"o3":88.0,"so2":7.3,"mosquito_risk":3,"arthritis_risk":5,"migraine_risk":7,"frizz_risk":1,"updated_at":"2026-05-17T09:23:04.030255+05:30"},{"city":"Salem","state":"Tamil Nadu","latitude":11.6643,"longitude":78.146,"temp":30.1,"humidity":66,"rain":0.0,"pressure":976.4,"uv_index":8.5,"wind_gusts":27.7,"aqi":109,"pm10":40.0,"pm2_5":27.4,"no2":11.1,"co":365.0,"o3":89.0,"so2":15.6,"mosquito_risk":3,"arthritis_risk":5,"migraine_risk":7,"frizz_risk":1,"updated_at":"2026-05-17T09:23:04.030263+05:30"},{"city":"Tirunelveli","state":"Tamil Nadu","latitude":8.7139,"longitude":77.7567,"temp":32.9,"humidity":54,"rain":0.0,"pressure":1001.9,"uv_index":8.8,"wind_gusts":35.6,"aqi":55,"pm10":10.5,"pm2_5":8.3,"no2":3.0,"co":307.0,"o3":88.0,"so2":2.3,"mosquito_risk":0,"arthritis_risk":5,"migraine_risk":4,"frizz_risk":1,"updated_at":"2026-05-17T09:23:04.030271+05:30"},{"city":"Vellore","state":"Tamil Nadu","latitude":12.9165,"longitude":79.1325,"temp":31.1,"humidity":61,"rain":0.0,"pressure":983.1,"uv_index":9.2,"wind_gusts":27.7,"aqi":93,"pm10":33.4,"pm2_5":27.8,"no2":8.4,"co":324.0,"o3":95.0,"so2":28.9,"mosquito_risk":3,"arthritis_risk":5,"migraine_risk":7,"frizz_risk":1,"updated_at":"2026-05-17T09:23:04.030279+05:30"},{"city":"Erode","state":"Tamil Nadu","latitude":11.341,"longitude":77.7172,"temp":30.4,"humidity":66,"rain":0.0,"pressure":988.0,"uv_index":8.55,"wind_gusts":46.8,"aqi":91,"pm10":23.9,"pm2_5":18.6,"no2":12.5,"co":350.0,"o3":82.0,"so2":4.8,"mosquito_risk":3,"arthritis_risk":5,"migraine_risk":7,"frizz_risk":1,"updated_at":"2026-05-17T09:23:04.030286+05:30"},{"city":"Kochi","state":"Kerala","latitude":9.9312,"longitude":76.2673,"temp":27.5,"humidity":84,"rain":0.1,"pressure":1008.0,"uv_index":8.75,"wind_gusts":33.1,"aqi":57,"pm10":17.1,"pm2_5":12.1,"no2":8.4,"co":228.0,"o3":71.0,"so2":4.2,"mosquito_risk":10,"arthritis_risk":0,"migraine_risk":4,"frizz_risk":1,"updated_at":"2026-05-17T09:23:04.030294+05:30"},{"city":"Thiruvananthapuram","state":"Kerala","latitude":8.5241,"longitude":76.9366,"temp":26.0,"humidity":90,"rain":0.2,"pressure":1008.2,"uv_index":8.15,"wind_gusts":36.0,"aqi":50,"pm10":14.8,"pm2_5":9.2,"no2":2.3,"co":192.0,"o3":85.0,"so2":1.1,"mosquito_risk":10,"arthritis_risk":0,"migraine_risk":4,"frizz_risk":1,"updated_at":"2026-05-17T09:23:04.030302+05:30"},{"city":"Kozhikode","state":"Kerala","latitude":11.2588,"longitude":75.7804,"temp":30.6,"humidity":71,"rain":0.0,"pressure":1006.0,"uv_index":8.9,"wind_gusts":42.1,"aqi":53,"pm10":19.0,"pm2_5":11.6,"no2":1.7,"co":212.0,"o3":77.0,"so2":1.7,"mosquito_risk":3,"arthritis_risk":5,"migraine_risk":4,"frizz_risk":1,"updated_at":"2026-05-17T09:23:04.030309+05:30"},{"city":"Thrissur","state":"Kerala","latitude":10.5276,"longitude":76.2144,"temp":26.8,"humidity":89,"rain":0.1,"pressure":1006.1,"uv_index":8.75,"wind_gusts":36.7,"aqi":62,"pm10":14.6,"pm2_5":11.8,"no2":8.8,"co":277.0,"o3":60.0,"so2":5.4,"mosquito_risk":10,"arthritis_risk":5,"migraine_risk":4,"frizz_risk":1,"updated_at":"2026-05-17T09:23:04.030317+05:30"},{"city":"Kannur","state":"Kerala","latitude":11.8745,"longitude":75.3704,"temp":31.4,"humidity":67,"rain":0.0,"pressure":1005.2,"uv_index":8.95,"wind_gusts":45.0,"aqi":57,"pm10":21.2,"pm2_5":15.5,"no2":5.8,"co":257.0,"o3":65.0,"so2":2.9,"mosquito_risk":3,"arthritis_risk":5,"migraine_risk":4,"frizz_risk":1,"updated_at":"2026-05-17T09:23:04.030325+05:30"},{"city":"Patna","state":"Bihar","latitude":25.5941,"longitude":85.1376,"temp":33.0,"humidity":61,"rain":0.0,"pressure":997.4,"uv_index":8.8,"wind_gusts":35.6,"aqi":151,"pm10":72.4,"pm2_5":60.8,"no2":9.1,"co":529.0,"o3":132.0,"so2":16.6,"mosquito_risk":3,"arthritis_risk":5,"migraine_risk":7,"frizz_risk":1,"updated_at":"2026-05-17T09:23:04.030332+05:30"},{"city":"Gaya","state":"Bihar","latitude":24.7914,"longitude":85.0002,"temp":36.1,"humidity":35,"rain":0.0,"pressure":990.9,"uv_index":8.85,"wind_gusts":44.3,"aqi":151,"pm10":120.1,"pm2_5":49.9,"no2":8.0,"co":362.0,"o3":126.0,"so2":10.9,"mosquito_risk":0,"arthritis_risk":5,"migraine_risk":10,"frizz_risk":1,"updated_at":"2026-05-17T09:23:04.030339+05:30"},{"city":"Muzaffarpur","state":"Bihar","latitude":26.1209,"longitude":85.3647,"temp":31.1,"humidity":71,"rain":0.0,"pressure":997.4,"uv_index":8.8,"wind_gusts":28.8,"aqi":149,"pm10":65.7,"pm2_5":57.7,"no2":7.3,"co":522.0,"o3":129.0,"so2":14.0,"mosquito_risk":3,"arthritis_risk":5,"migraine_risk":7,"frizz_risk":1,"updated_at":"2026-05-17T09:23:04.030346+05:30"},{"city":"Bhagalpur","state":"Bihar","latitude":25.2425,"longitude":87.0117,"temp":31.8,"humidity":68,"rain":0.0,"pressure":998.1,"uv_index":8.8,"wind_gusts":35.3,"aqi":153,"pm10":57.4,"pm2_5":51.7,"no2":9.3,"co":554.0,"o3":122.0,"so2":17.6,"mosquito_risk":3,"arthritis_risk":5,"migraine_risk":7,"frizz_risk":1,"updated_at":"2026-05-17T09:23:04.030353+05:30"},{"city":"Ranchi","state":"Jharkhand","latitude":23.3441,"longitude":85.3096,"temp":32.0,"humidity":50,"rain":0.0,"pressure":937.4,"uv_index":9.3,"wind_gusts":37.8,"aqi":114,"pm10":64.0,"pm2_5":50.3,"no2":4.4,"co":298.0,"o3":131.0,"so2":18.6,"mosquito_risk":0,"arthritis_risk":5,"migraine_risk":7,"frizz_risk":1,"updated_at":"2026-05-17T09:23:04.030360+05:30"},{"city":"Jamshedpur","state":"Jharkhand","latitude":22.8046,"longitude":86.2029,"temp":33.8,"humidity":59,"rain":0.0,"pressure":988.6,"uv_index":9.1,"wind_gusts":36.0,"aqi":103,"pm10":41.0,"pm2_5":30.2,"no2":9.9,"co":314.0,"o3":104.0,"so2":29.5,"mosquito_risk":0,"arthritis_risk":5,"migraine_risk":7,"frizz_risk":1,"updated_at":"2026-05-17T09:23:04.030366+05:30"},{"city":"Dhanbad","state":"Jharkhand","latitude":23.7957,"longitude":86.4304,"temp":34.0,"humidity":53,"rain":0.0,"pressure":977.5,"uv_index":9.05,"wind_gusts":42.1,"aqi":153,"pm10":62.6,"pm2_5":55.2,"no2":22.6,"co":369.0,"o3":109.0,"so2":77.1,"mosquito_risk":0,"arthritis_risk":5,"migraine_risk":7,"frizz_risk":1,"updated_at":"2026-05-17T09:23:04.030373+05:30"},{"city":"Bokaro","state":"Jharkhand","latitude":23.6693,"longitude":86.1511,"temp":34.6,"humidity":52,"rain":0.0,"pressure":981.3,"uv_index":9.05,"wind_gusts":39.6,"aqi":153,"pm10":60.5,"pm2_5":52.4,"no2":13.8,"co":362.0,"o3":121.0,"so2":51.0,"mosquito_risk":0,"arthritis_risk":5,"migraine_risk":7,"frizz_risk":1,"updated_at":"2026-05-17T09:23:04.030380+05:30"},{"city":"Bhubaneswar","state":"Odisha","latitude":20.2961,"longitude":85.8245,"temp":34.2,"humidity":58,"rain":0.0,"pressure":1001.1,"uv_index":9.15,"wind_gusts":43.9,"aqi":44,"pm10":21.9,"pm2_5":12.3,"no2":2.6,"co":195.0,"o3":77.0,"so2":5.0,"mosquito_risk":0,"arthritis_risk":5,"migraine_risk":4,"frizz_risk":1,"updated_at":"2026-05-17T09:23:04.030387+05:30"},{"city":"Cuttack","state":"Odisha","latitude":20.4625,"longitude":85.8828,"temp":33.8,"humidity":62,"rain":0.0,"pressure":1002.8,"uv_index":9.2,"wind_gusts":41.8,"aqi":44,"pm10":21.9,"pm2_5":12.3,"no2":2.6,"co":195.0,"o3":77.0,"so2":5.0,"mosquito_risk":3,"arthritis_risk":5,"migraine_risk":4,"frizz_risk":1,"updated_at":"2026-05-17T09:23:04.030393+05:30"},{"city":"Rourkela","state":"Odisha","latitude":22.2604,"longitude":84.8536,"temp":33.8,"humidity":57,"rain":0.0,"pressure":983.7,"uv_index":9.05,"wind_gusts":35.3,"aqi":117,"pm10":52.2,"pm2_5":39.5,"no2":5.3,"co":318.0,"o3":124.0,"so2":10.8,"mosquito_risk":0,"arthritis_risk":5,"migraine_risk":7,"frizz_risk":1,"updated_at":"2026-05-17T09:23:04.030400+05:30"},{"city":"Raipur","state":"Chhattisgarh","latitude":21.2514,"longitude":81.6296,"temp":34.7,"humidity":46,"rain":0.0,"pressure":973.8,"uv_index":8.95,"wind_gusts":33.1,"aqi":150,"pm10":49.7,"pm2_5":38.5,"no2":24.0,"co":621.0,"o3":88.0,"so2":57.3,"mosquito_risk":0,"arthritis_risk":5,"migraine_risk":7,"frizz_risk":1,"updated_at":"2026-05-17T09:23:04.030406+05:30"},{"city":"Bhilai","state":"Chhattisgarh","latitude":21.1938,"longitude":81.3509,"temp":33.9,"humidity":49,"rain":0.0,"pressure":974.1,"uv_index":9.0,"wind_gusts":34.9,"aqi":150,"pm10":41.2,"pm2_5":30.6,"no2":16.4,"co":902.0,"o3":93.0,"so2":42.7,"mosquito_risk":0,"arthritis_risk":5,"migraine_risk":7,"frizz_risk":1,"updated_at":"2026-05-17T09:23:04.030413+05:30"},{"city":"Guwahati","state":"Assam","latitude":26.1158,"longitude":91.7086,"temp":23.9,"humidity":95,"rain":0.6,"pressure":1000.7,"uv_index":8.7,"wind_gusts":32.0,"aqi":83,"pm10":19.4,"pm2_5":14.5,"no2":2.6,"co":314.0,"o3":106.0,"so2":3.7,"mosquito_risk":6,"arthritis_risk":5,"migraine_risk":4,"frizz_risk":1,"updated_at":"2026-05-17T09:23:04.030420+05:30"},{"city":"Agartala","state":"Tripura","latitude":23.8315,"longitude":91.2868,"temp":30.9,"humidity":71,"rain":0.0,"pressure":1004.6,"uv_index":8.9,"wind_gusts":38.2,"aqi":68,"pm10":22.9,"pm2_5":14.0,"no2":3.9,"co":155.0,"o3":68.0,"so2":2.2,"mosquito_risk":3,"arthritis_risk":5,"migraine_risk":4,"frizz_risk":1,"updated_at":"2026-05-17T09:23:04.030427+05:30"},{"city":"Shillong","state":"Meghalaya","latitude":25.5788,"longitude":91.8933,"temp":21.4,"humidity":85,"rain":0.2,"pressure":856.8,"uv_index":9.1,"wind_gusts":45.0,"aqi":62,"pm10":3.4,"pm2_5":2.4,"no2":2.5,"co":272.0,"o3":89.0,"so2":3.2,"mosquito_risk":6,"arthritis_risk":5,"migraine_risk":7,"frizz_risk":1,"updated_at":"2026-05-17T09:23:04.030434+05:30"},{"city":"Imphal","state":"Manipur","latitude":24.817,"longitude":93.9368,"temp":24.0,"humidity":80,"rain":0.0,"pressure":923.5,"uv_index":8.1,"wind_gusts":35.3,"aqi":69,"pm10":17.6,"pm2_5":9.1,"no2":1.2,"co":267.0,"o3":91.0,"so2":2.5,"mosquito_risk":3,"arthritis_risk":5,"migraine_risk":7,"frizz_risk":1,"updated_at":"2026-05-17T09:23:04.030440+05:30"},{"city":"Aizawl","state":"Mizoram","latitude":23.7271,"longitude":92.7176,"temp":25.2,"humidity":64,"rain":0.0,"pressure":893.5,"uv_index":9.05,"wind_gusts":35.6,"aqi":46,"pm10":23.2,"pm2_5":10.7,"no2":0.8,"co":154.0,"o3":76.0,"so2":1.8,"mosquito_risk":7,"arthritis_risk":5,"migraine_risk":7,"frizz_risk":1,"updated_at":"2026-05-17T09:23:04.030447+05:30"},{"city":"Kohima","state":"Nagaland","latitude":25.6701,"longitude":94.1077,"temp":21.6,"humidity":86,"rain":0.0,"pressure":855.7,"uv_index":8.65,"wind_gusts":29.5,"aqi":65,"pm10":22.9,"pm2_5":12.4,"no2":0.7,"co":203.0,"o3":100.0,"so2":2.6,"mosquito_risk":3,"arthritis_risk":5,"migraine_risk":7,"frizz_risk":1,"updated_at":"2026-05-17T09:23:04.030454+05:30"},{"city":"Gangtok","state":"Sikkim","latitude":27.3314,"longitude":88.6138,"temp":20.9,"humidity":70,"rain":0.0,"pressure":836.9,"uv_index":9.1,"wind_gusts":34.9,"aqi":52,"pm10":20.9,"pm2_5":15.1,"no2":1.3,"co":404.0,"o3":135.0,"so2":2.1,"mosquito_risk":3,"arthritis_risk":5,"migraine_risk":7,"frizz_risk":0,"updated_at":"2026-05-17T09:23:04.030460+05:30"},{"city":"Siliguri","state":"West Bengal","latitude":26.7271,"longitude":88.3953,"temp":26.4,"humidity":76,"rain":0.0,"pressure":991.3,"uv_index":8.7,"wind_gusts":27.0,"aqi":85,"pm10":36.2,"pm2_5":26.9,"no2":2.8,"co":393.0,"o3":141.0,"so2":3.0,"mosquito_risk":7,"arthritis_risk":5,"migraine_risk":7,"frizz_risk":1,"updated_at":"2026-05-17T09:23:07.255018+05:30"},{"city":"Durgapur","state":"West Bengal","latitude":23.5204,"longitude":87.3119,"temp":34.2,"humidity":58,"rain":0.0,"pressure":992.0,"uv_index":8.95,"wind_gusts":44.6,"aqi":149,"pm10":53.1,"pm2_5":46.1,"no2":27.0,"co":556.0,"o3":82.0,"so2":76.0,"mosquito_risk":0,"arthritis_risk":5,"migraine_risk":7,"frizz_risk":1,"updated_at":"2026-05-17T09:23:07.255054+05:30"},{"city":"Asansol","state":"West Bengal","latitude":23.6739,"longitude":86.9524,"temp":35.0,"humidity":54,"rain":0.0,"pressure":990.6,"uv_index":9.0,"wind_gusts":38.2,"aqi":147,"pm10":55.8,"pm2_5":49.2,"no2":23.5,"co":925.0,"o3":96.0,"so2":71.0,"mosquito_risk":0,"arthritis_risk":5,"migraine_risk":7,"frizz_risk":1,"updated_at":"2026-05-17T09:23:07.255066+05:30"},{"city":"Pondicherry","state":"Puducherry","latitude":11.9139,"longitude":79.8145,"temp":30.2,"humidity":74,"rain":0.0,"pressure":1007.0,"uv_index":8.85,"wind_gusts":38.2,"aqi":65,"pm10":30.4,"pm2_5":21.0,"no2":10.0,"co":316.0,"o3":89.0,"so2":14.0,"mosquito_risk":3,"arthritis_risk":5,"migraine_risk":4,"frizz_risk":1,"updated_at":"2026-05-17T09:23:07.255075+05:30"},{"city":"Port Blair","state":"Andaman and Nicobar Islands","latitude":11.6234,"longitude":92.7265,"temp":26.4,"humidity":97,"rain":0.3,"pressure":1008.1,"uv_index":1.3,"wind_gusts":42.5,"aqi":30,"pm10":10.4,"pm2_5":6.3,"no2":0.4,"co":109.0,"o3":58.0,"so2":0.2,"mosquito_risk":10,"arthritis_risk":0,"migraine_risk":0,"frizz_risk":1,"updated_at":"2026-05-17T09:23:07.255084+05:30"},{"city":"Haridwar","state":"Uttarakhand","latitude":29.9457,"longitude":78.1642,"temp":30.8,"humidity":49,"rain":0.0,"pressure":970.9,"uv_index":7.55,"wind_gusts":38.9,"aqi":85,"pm10":40.4,"pm2_5":25.4,"no2":6.0,"co":273.0,"o3":141.0,"so2":9.5,"mosquito_risk":0,"arthritis_risk":5,"migraine_risk":7,"frizz_risk":1,"updated_at":"2026-05-17T09:23:07.255092+05:30"},{"city":"Rishikesh","state":"Uttarakhand","latitude":30.0869,"longitude":78.2676,"temp":31.7,"humidity":39,"rain":0.0,"pressure":963.7,"uv_index":7.65,"wind_gusts":34.9,"aqi":75,"pm10":38.9,"pm2_5":18.7,"no2":1.8,"co":219.0,"o3":148.0,"so2":6.7,"mosquito_risk":0,"arthritis_risk":5,"migraine_risk":7,"frizz_risk":0,"updated_at":"2026-05-17T09:23:07.255100+05:30"},{"city":"Nainital","state":"Uttarakhand","latitude":29.3919,"longitude":79.4542,"temp":23.0,"humidity":34,"rain":0.0,"pressure":807.3,"uv_index":8.5,"wind_gusts":39.6,"aqi":71,"pm10":30.4,"pm2_5":17.4,"no2":2.6,"co":174.0,"o3":143.0,"so2":5.1,"mosquito_risk":0,"arthritis_risk":5,"migraine_risk":7,"frizz_risk":0,"updated_at":"2026-05-17T09:23:07.255107+05:30"},{"city":"Mussoorie","state":"Uttarakhand","latitude":30.4599,"longitude":78.0664,"temp":22.1,"humidity":37,"rain":0.0,"pressure":804.2,"uv_index":8.05,"wind_gusts":51.8,"aqi":77,"pm10":43.3,"pm2_5":19.7,"no2":3.2,"co":165.0,"o3":143.0,"so2":6.9,"mosquito_risk":0,"arthritis_risk":5,"migraine_risk":7,"frizz_risk":0,"updated_at":"2026-05-17T09:23:07.255116+05:30"},{"city":"Dharamshala","state":"Himachal Pradesh","latitude":32.219,"longitude":76.3234,"temp":25.3,"humidity":38,"rain":0.0,"pressure":868.8,"uv_index":8.4,"wind_gusts":44.6,"aqi":50,"pm10":20.0,"pm2_5":9.0,"no2":1.3,"co":197.0,"o3":117.0,"so2":0.5,"mosquito_risk":4,"arthritis_risk":5,"migraine_risk":7,"frizz_risk":0,"updated_at":"2026-05-17T09:23:07.255123+05:30"},{"city":"Dalhousie","state":"Himachal Pradesh","latitude":32.5387,"longitude":75.971,"temp":23.4,"humidity":26,"rain":0.0,"pressure":806.2,"uv_index":8.65,"wind_gusts":39.2,"aqi":69,"pm10":27.8,"pm2_5":13.6,"no2":4.1,"co":195.0,"o3":121.0,"so2":1.2,"mosquito_risk":0,"arthritis_risk":5,"migraine_risk":7,"frizz_risk":0,"updated_at":"2026-05-17T09:23:07.255131+05:30"},{"city":"Patiala","state":"Punjab","latitude":30.3398,"longitude":76.3869,"temp":33.8,"humidity":30,"rain":0.0,"pressure":975.6,"uv_index":7.65,"wind_gusts":45.4,"aqi":490,"pm10":278.5,"pm2_5":60.3,"no2":7.9,"co":519.0,"o3":103.0,"so2":8.9,"mosquito_risk":0,"arthritis_risk":5,"migraine_risk":7,"frizz_risk":0,"updated_at":"2026-05-17T09:23:07.255139+05:30"},{"city":"Bhatinda","state":"Punjab","latitude":30.211,"longitude":74.9455,"temp":34.8,"humidity":33,"rain":0.0,"pressure":981.4,"uv_index":8.3,"wind_gusts":37.8,"aqi":89,"pm10":65.2,"pm2_5":34.7,"no2":10.0,"co":399.0,"o3":98.0,"so2":12.3,"mosquito_risk":0,"arthritis_risk":5,"migraine_risk":7,"frizz_risk":0,"updated_at":"2026-05-17T09:23:07.255146+05:30"},{"city":"Rohtak","state":"Haryana","latitude":28.8955,"longitude":76.6066,"temp":34.5,"humidity":33,"rain":0.0,"pressure":979.7,"uv_index":7.75,"wind_gusts":47.2,"aqi":682,"pm10":529.0,"pm2_5":127.6,"no2":12.4,"co":451.0,"o3":92.0,"so2":9.5,"mosquito_risk":0,"arthritis_risk":5,"migraine_risk":7,"frizz_risk":0,"updated_at":"2026-05-17T09:23:07.255153+05:30"},{"city":"Panipat","state":"Haryana","latitude":29.3909,"longitude":76.9635,"temp":34.0,"humidity":33,"rain":0.0,"pressure":977.8,"uv_index":7.6,"wind_gusts":51.8,"aqi":1416,"pm10":1087.8,"pm2_5":189.1,"no2":8.3,"co":439.0,"o3":92.0,"so2":9.7,"mosquito_risk":0,"arthritis_risk":5,"migraine_risk":7,"frizz_risk":0,"updated_at":"2026-05-17T09:23:07.255160+05:30"},{"city":"Mathura","state":"Uttar Pradesh","latitude":27.4924,"longitude":77.6737,"temp":34.3,"humidity":34,"rain":0.0,"pressure":985.1,"uv_index":8.0,"wind_gusts":44.6,"aqi":731,"pm10":655.7,"pm2_5":144.8,"no2":15.5,"co":406.0,"o3":82.0,"so2":15.8,"mosquito_risk":0,"arthritis_risk":5,"migraine_risk":7,"frizz_risk":0,"updated_at":"2026-05-17T09:23:07.255166+05:30"},{"city":"Vrindavan","state":"Uttar Pradesh","latitude":27.5823,"longitude":77.7027,"temp":34.2,"humidity":35,"rain":0.0,"pressure":985.5,"uv_index":7.95,"wind_gusts":42.5,"aqi":731,"pm10":655.7,"pm2_5":144.8,"no2":15.5,"co":404.0,"o3":82.0,"so2":15.8,"mosquito_risk":0,"arthritis_risk":5,"migraine_risk":7,"frizz_risk":1,"updated_at":"2026-05-17T09:23:07.255173+05:30"},{"city":"Ayodhya","state":"Uttar Pradesh","latitude":26.7922,"longitude":82.1998,"temp":33.8,"humidity":43,"rain":0.0,"pressure":992.4,"uv_index":8.35,"wind_gusts":43.2,"aqi":151,"pm10":118.0,"pm2_5":61.7,"no2":18.8,"co":387.0,"o3":102.0,"so2":15.0,"mosquito_risk":0,"arthritis_risk":5,"migraine_risk":7,"frizz_risk":1,"updated_at":"2026-05-17T09:23:07.255180+05:30"},{"city":"Ratlam","state":"Madhya Pradesh","latitude":23.3315,"longitude":75.0367,"temp":34.4,"humidity":28,"rain":0.0,"pressure":954.0,"uv_index":8.55,"wind_gusts":37.4,"aqi":52,"pm10":24.0,"pm2_5":13.8,"no2":2.5,"co":195.0,"o3":87.0,"so2":4.8,"mosquito_risk":0,"arthritis_risk":5,"migraine_risk":7,"frizz_risk":0,"updated_at":"2026-05-17T09:23:07.255187+05:30"},{"city":"Sagar","state":"Madhya Pradesh","latitude":23.8388,"longitude":78.7378,"temp":36.7,"humidity":25,"rain":0.0,"pressure":949.4,"uv_index":8.75,"wind_gusts":40.0,"aqi":75,"pm10":64.3,"pm2_5":28.4,"no2":5.5,"co":238.0,"o3":102.0,"so2":5.4,"mosquito_risk":0,"arthritis_risk":5,"migraine_risk":10,"frizz_risk":0,"updated_at":"2026-05-17T09:23:07.255194+05:30"},{"city":"Satna","state":"Madhya Pradesh","latitude":24.6005,"longitude":80.8322,"temp":36.3,"humidity":33,"rain":0.0,"pressure":970.0,"uv_index":8.75,"wind_gusts":45.0,"aqi":108,"pm10":92.9,"pm2_5":39.7,"no2":6.8,"co":237.0,"o3":120.0,"so2":12.3,"mosquito_risk":0,"arthritis_risk":5,"migraine_risk":10,"frizz_risk":1,"updated_at":"2026-05-17T09:23:07.255202+05:30"},{"city":"Akola","state":"Maharashtra","latitude":20.7002,"longitude":77.0082,"temp":37.5,"humidity":23,"rain":0.0,"pressure":974.0,"uv_index":8.9,"wind_gusts":34.9,"aqi":51,"pm10":23.7,"pm2_5":14.6,"no2":5.5,"co":190.0,"o3":108.0,"so2":8.5,"mosquito_risk":0,"arthritis_risk":5,"migraine_risk":10,"frizz_risk":0,"updated_at":"2026-05-17T09:23:07.255209+05:30"},{"city":"Amravati","state":"Maharashtra","latitude":20.9374,"longitude":77.7796,"temp":37.0,"humidity":27,"rain":0.0,"pressure":966.3,"uv_index":8.95,"wind_gusts":28.1,"aqi":53,"pm10":22.4,"pm2_5":15.9,"no2":8.9,"co":191.0,"o3":100.0,"so2":10.9,"mosquito_risk":0,"arthritis_risk":5,"migraine_risk":10,"frizz_risk":0,"updated_at":"2026-05-17T09:23:07.255218+05:30"},{"city":"Latur","state":"Maharashtra","latitude":18.4088,"longitude":76.5604,"temp":34.5,"humidity":34,"rain":0.0,"pressure":939.4,"uv_index":9.1,"wind_gusts":34.9,"aqi":72,"pm10":40.5,"pm2_5":29.7,"no2":6.7,"co":206.0,"o3":109.0,"so2":12.8,"mosquito_risk":0,"arthritis_risk":5,"migraine_risk":7,"frizz_risk":1,"updated_at":"2026-05-17T09:23:07.255225+05:30"},{"city":"Nanded","state":"Maharashtra","latitude":19.1383,"longitude":77.3091,"temp":36.5,"humidity":28,"rain":0.0,"pressure":967.5,"uv_index":9.05,"wind_gusts":33.8,"aqi":71,"pm10":32.4,"pm2_5":26.0,"no2":8.5,"co":372.0,"o3":115.0,"so2":8.3,"mosquito_risk":0,"arthritis_risk":5,"migraine_risk":10,"frizz_risk":0,"updated_at":"2026-05-17T09:23:07.255233+05:30"},{"city":"Gulbarga","state":"Karnataka","latitude":17.3297,"longitude":76.8343,"temp":34.3,"humidity":45,"rain":0.0,"pressure":957.6,"uv_index":9.15,"wind_gusts":34.2,"aqi":82,"pm10":42.6,"pm2_5":33.3,"no2":9.7,"co":336.0,"o3":91.0,"so2":11.5,"mosquito_risk":0,"arthritis_risk":5,"migraine_risk":7,"frizz_risk":1,"updated_at":"2026-05-17T09:23:07.255240+05:30"},{"city":"Bidar","state":"Karnataka","latitude":17.9104,"longitude":77.5199,"temp":33.5,"humidity":42,"rain":0.0,"pressure":935.2,"uv_index":9.15,"wind_gusts":33.8,"aqi":76,"pm10":38.2,"pm2_5":25.1,"no2":5.9,"co":296.0,"o3":89.0,"so2":7.4,"mosquito_risk":0,"arthritis_risk":5,"migraine_risk":7,"frizz_risk":1,"updated_at":"2026-05-17T09:23:07.255247+05:30"},{"city":"Hospet","state":"Karnataka","latitude":15.2689,"longitude":76.3909,"temp":29.5,"humidity":69,"rain":0.0,"pressure":955.0,"uv_index":9.2,"wind_gusts":37.4,"aqi":91,"pm10":20.0,"pm2_5":14.5,"no2":6.0,"co":199.0,"o3":63.0,"so2":5.0,"mosquito_risk":7,"arthritis_risk":5,"migraine_risk":7,"frizz_risk":1,"updated_at":"2026-05-17T09:23:07.255254+05:30"},{"city":"Tirupur","state":"Tamil Nadu","latitude":11.1085,"longitude":77.3411,"temp":30.8,"humidity":59,"rain":0.0,"pressure":974.1,"uv_index":8.25,"wind_gusts":46.8,"aqi":95,"pm10":40.3,"pm2_5":29.4,"no2":15.1,"co":293.0,"o3":87.0,"so2":7.6,"mosquito_risk":0,"arthritis_risk":5,"migraine_risk":7,"frizz_risk":1,"updated_at":"2026-05-17T09:23:07.255261+05:30"},{"city":"Alappuzha","state":"Kerala","latitude":9.4981,"longitude":76.3388,"temp":25.3,"humidity":98,"rain":0.1,"pressure":1008.6,"uv_index":8.8,"wind_gusts":32.4,"aqi":54,"pm10":18.1,"pm2_5":12.2,"no2":5.9,"co":228.0,"o3":79.0,"so2":3.6,"mosquito_risk":10,"arthritis_risk":0,"migraine_risk":4,"frizz_risk":1,"updated_at":"2026-05-17T09:23:07.255268+05:30"},{"city":"Munnar","state":"Kerala","latitude":10.0889,"longitude":77.0595,"temp":21.8,"humidity":82,"rain":0.0,"pressure":857.1,"uv_index":7.05,"wind_gusts":25.9,"aqi":60,"pm10":10.8,"pm2_5":6.8,"no2":2.5,"co":207.0,"o3":93.0,"so2":1.7,"mosquito_risk":3,"arthritis_risk":5,"migraine_risk":7,"frizz_risk":1,"updated_at":"2026-05-17T09:23:07.255275+05:30"},{"city":"Silchar","state":"Assam","latitude":24.8333,"longitude":92.7789,"temp":27.0,"humidity":83,"rain":0.4,"pressure":1004.9,"uv_index":8.7,"wind_gusts":31.3,"aqi":65,"pm10":15.9,"pm2_5":9.8,"no2":2.3,"co":205.0,"o3":75.0,"so2":3.2,"mosquito_risk":10,"arthritis_risk":5,"migraine_risk":4,"frizz_risk":1,"updated_at":"2026-05-17T09:23:07.255283+05:30"},{"city":"Dibrugarh","state":"Assam","latitude":27.4728,"longitude":94.912,"temp":24.3,"humidity":91,"rain":0.0,"pressure":995.8,"uv_index":5.6,"wind_gusts":28.1,"aqi":71,"pm10":34.5,"pm2_5":22.6,"no2":1.6,"co":225.0,"o3":109.0,"so2":1.7,"mosquito_risk":3,"arthritis_risk":5,"migraine_risk":3,"frizz_risk":1,"updated_at":"2026-05-17T09:23:07.255291+05:30"}]