[{"city":"Delhi","state":"Delhi","latitude":28.6139,"longitude":77.209,"temp":35.5,"humidity":36,"rain":0.0,"pressure":978.1,"uv_index":7.8,"wind_gusts":29.9,"aqi":155,"pm10":192.3,"pm2_5":73.8,"no2":25.5,"co":559.0,"o3":161.0,"so2":36.3,"mosquito_risk":0,"arthritis_risk":5,"migraine_risk":10,"frizz_risk":1,"updated_at":"2026-06-04T09:49:03.345203+05:30"},{"city":"Mumbai","state":"Maharashtra","latitude":19.076,"longitude":72.8777,"temp":31.1,"humidity":65,"rain":0.0,"pressure":1006.1,"uv_index":7.7,"wind_gusts":43.9,"aqi":66,"pm10":41.9,"pm2_5":19.4,"no2":9.5,"co":225.0,"o3":60.0,"so2":14.2,"mosquito_risk":3,"arthritis_risk":5,"migraine_risk":4,"frizz_risk":1,"updated_at":"2026-06-04T09:49:03.345241+05:30"},{"city":"Bangalore","state":"Karnataka","latitude":12.9716,"longitude":77.5946,"temp":25.5,"humidity":67,"rain":0.0,"pressure":911.9,"uv_index":9.1,"wind_gusts":49.0,"aqi":34,"pm10":4.0,"pm2_5":4.0,"no2":6.8,"co":378.0,"o3":55.0,"so2":3.3,"mosquito_risk":7,"arthritis_risk":5,"migraine_risk":7,"frizz_risk":1,"updated_at":"2026-06-04T09:49:03.345257+05:30"},{"city":"Hyderabad","state":"Telangana","latitude":17.385,"longitude":78.4867,"temp":31.3,"humidity":49,"rain":0.0,"pressure":952.0,"uv_index":9.15,"wind_gusts":33.8,"aqi":67,"pm10":33.8,"pm2_5":20.6,"no2":4.9,"co":346.0,"o3":99.0,"so2":4.8,"mosquito_risk":0,"arthritis_risk":5,"migraine_risk":7,"frizz_risk":1,"updated_at":"2026-06-04T09:49:03.345267+05:30"},{"city":"Chennai","state":"Tamil Nadu","latitude":13.0827,"longitude":80.2707,"temp":34.6,"humidity":44,"rain":0.0,"pressure":1005.0,"uv_index":8.65,"wind_gusts":39.2,"aqi":68,"pm10":13.0,"pm2_5":10.7,"no2":10.3,"co":274.0,"o3":84.0,"so2":12.1,"mosquito_risk":0,"arthritis_risk":5,"migraine_risk":4,"frizz_risk":1,"updated_at":"2026-06-04T09:49:03.345275+05:30"},{"city":"Kolkata","state":"West Bengal","latitude":22.5726,"longitude":88.3639,"temp":35.0,"humidity":62,"rain":0.0,"pressure":1001.5,"uv_index":8.95,"wind_gusts":41.0,"aqi":142,"pm10":54.4,"pm2_5":46.6,"no2":4.1,"co":454.0,"o3":173.0,"so2":14.6,"mosquito_risk":3,"arthritis_risk":5,"migraine_risk":4,"frizz_risk":1,"updated_at":"2026-06-04T09:49:03.345283+05:30"},{"city":"Pune","state":"Maharashtra","latitude":18.5204,"longitude":73.8567,"temp":29.7,"humidity":55,"rain":0.0,"pressure":946.8,"uv_index":8.35,"wind_gusts":50.8,"aqi":60,"pm10":47.5,"pm2_5":18.6,"no2":4.7,"co":169.0,"o3":69.0,"so2":7.1,"mosquito_risk":4,"arthritis_risk":5,"migraine_risk":7,"frizz_risk":1,"updated_at":"2026-06-04T09:49:03.345290+05:30"},{"city":"Ahmedabad","state":"Gujarat","latitude":23.0225,"longitude":72.5714,"temp":33.8,"humidity":55,"rain":0.0,"pressure":998.9,"uv_index":8.0,"wind_gusts":39.6,"aqi":87,"pm10":54.4,"pm2_5":26.5,"no2":4.1,"co":168.0,"o3":64.0,"so2":6.2,"mosquito_risk":0,"arthritis_risk":5,"migraine_risk":7,"frizz_risk":1,"updated_at":"2026-06-04T09:49:03.345296+05:30"},{"city":"Jaipur","state":"Rajasthan","latitude":26.9124,"longitude":75.7873,"temp":35.8,"humidity":33,"rain":0.0,"pressure":955.8,"uv_index":8.25,"wind_gusts":53.6,"aqi":124,"pm10":162.1,"pm2_5":44.6,"no2":6.0,"co":190.0,"o3":97.0,"so2":8.2,"mosquito_risk":0,"arthritis_risk":5,"migraine_risk":10,"frizz_risk":1,"updated_at":"2026-06-04T09:49:03.345307+05:30"},{"city":"Lucknow","state":"Uttar Pradesh","latitude":26.8467,"longitude":80.9462,"temp":36.0,"humidity":36,"rain":0.0,"pressure":988.7,"uv_index":8.25,"wind_gusts":23.0,"aqi":155,"pm10":111.3,"pm2_5":51.3,"no2":10.7,"co":308.0,"o3":158.0,"so2":15.3,"mosquito_risk":0,"arthritis_risk":5,"migraine_risk":10,"frizz_risk":1,"updated_at":"2026-06-04T09:49:03.345314+05:30"},{"city":"Kanpur","state":"Uttar Pradesh","latitude":26.4499,"longitude":80.3319,"temp":36.7,"humidity":32,"rain":0.0,"pressure":986.9,"uv_index":8.2,"wind_gusts":24.5,"aqi":151,"pm10":105.7,"pm2_5":42.8,"no2":8.5,"co":236.0,"o3":138.0,"so2":10.1,"mosquito_risk":0,"arthritis_risk":5,"migraine_risk":10,"frizz_risk":1,"updated_at":"2026-06-04T09:49:03.345320+05:30"},{"city":"Chandigarh","state":"Chandigarh","latitude":30.7333,"longitude":76.7794,"temp":33.5,"humidity":39,"rain":0.0,"pressure":964.4,"uv_index":7.85,"wind_gusts":32.8,"aqi":115,"pm10":70.3,"pm2_5":32.7,"no2":3.2,"co":408.0,"o3":180.0,"so2":14.1,"mosquito_risk":0,"arthritis_risk":5,"migraine_risk":7,"frizz_risk":1,"updated_at":"2026-06-04T09:49:03.345327+05:30"},{"city":"Srinagar","state":"Jammu and Kashmir","latitude":34.0837,"longitude":74.7973,"temp":21.5,"humidity":58,"rain":0.0,"pressure":841.4,"uv_index":9.05,"wind_gusts":36.0,"aqi":86,"pm10":40.7,"pm2_5":24.7,"no2":5.5,"co":436.0,"o3":119.0,"so2":4.3,"mosquito_risk":0,"arthritis_risk":5,"migraine_risk":7,"frizz_risk":0,"updated_at":"2026-06-04T09:49:03.345334+05:30"},{"city":"Jammu","state":"Jammu and Kashmir","latitude":32.7266,"longitude":74.857,"temp":35.2,"humidity":33,"rain":0.0,"pressure":967.2,"uv_index":8.5,"wind_gusts":68.0,"aqi":89,"pm10":46.1,"pm2_5":27.2,"no2":11.2,"co":376.0,"o3":117.0,"so2":4.3,"mosquito_risk":0,"arthritis_risk":5,"migraine_risk":10,"frizz_risk":1,"updated_at":"2026-06-04T09:49:03.345341+05:30"},{"city":"Amritsar","state":"Punjab","latitude":31.634,"longitude":74.8723,"temp":35.2,"humidity":36,"rain":0.0,"pressure":975.0,"uv_index":8.45,"wind_gusts":70.9,"aqi":151,"pm10":66.8,"pm2_5":46.2,"no2":16.3,"co":347.0,"o3":114.0,"so2":10.2,"mosquito_risk":0,"arthritis_risk":5,"migraine_risk":10,"frizz_risk":1,"updated_at":"2026-06-04T09:49:03.345347+05:30"},{"city":"Ludhiana","state":"Punjab","latitude":30.901,"longitude":75.8573,"temp":34.6,"humidity":38,"rain":0.0,"pressure":973.5,"uv_index":8.05,"wind_gusts":78.5,"aqi":152,"pm10":155.5,"pm2_5":55.1,"no2":8.2,"co":567.0,"o3":151.0,"so2":17.8,"mosquito_risk":0,"arthritis_risk":5,"migraine_risk":7,"frizz_risk":1,"updated_at":"2026-06-04T09:49:03.345354+05:30"},{"city":"Jalandhar","state":"Punjab","latitude":31.326,"longitude":75.5762,"temp":35.0,"humidity":37,"rain":0.0,"pressure":974.4,"uv_index":8.25,"wind_gusts":81.0,"aqi":154,"pm10":104.3,"pm2_5":52.9,"no2":13.1,"co":446.0,"o3":138.0,"so2":13.9,"mosquito_risk":0,"arthritis_risk":5,"migraine_risk":7,"frizz_risk":1,"updated_at":"2026-06-04T09:49:03.345360+05:30"},{"city":"Dehradun","state":"Uttarakhand","latitude":30.6284,"longitude":78.0322,"temp":23.6,"humidity":51,"rain":0.0,"pressure":830.7,"uv_index":6.55,"wind_gusts":34.9,"aqi":45,"pm10":39.7,"pm2_5":18.2,"no2":0.4,"co":219.0,"o3":160.0,"so2":4.7,"mosquito_risk":0,"arthritis_risk":5,"migraine_risk":7,"frizz_risk":0,"updated_at":"2026-06-04T09:49:03.345366+05:30"},{"city":"Shimla","state":"Himachal Pradesh","latitude":31.1048,"longitude":77.1734,"temp":22.0,"humidity":43,"rain":0.0,"pressure":785.7,"uv_index":7.2,"wind_gusts":33.8,"aqi":86,"pm10":60.3,"pm2_5":25.9,"no2":0.2,"co":259.0,"o3":166.0,"so2":8.4,"mosquito_risk":0,"arthritis_risk":5,"migraine_risk":7,"frizz_risk":0,"updated_at":"2026-06-04T09:49:03.345376+05:30"},{"city":"Manali","state":"Himachal Pradesh","latitude":32.2396,"longitude":77.1887,"temp":22.9,"humidity":45,"rain":0.0,"pressure":818.6,"uv_index":8.9,"wind_gusts":42.5,"aqi":50,"pm10":4.4,"pm2_5":2.7,"no2":6.9,"co":183.0,"o3":119.0,"so2":0.3,"mosquito_risk":0,"arthritis_risk":5,"migraine_risk":7,"frizz_risk":0,"updated_at":"2026-06-04T09:49:03.345382+05:30"},{"city":"Gurgaon","state":"Haryana","latitude":28.4595,"longitude":77.0266,"temp":36.5,"humidity":31,"rain":0.0,"pressure":976.5,"uv_index":7.9,"wind_gusts":42.1,"aqi":159,"pm10":478.7,"pm2_5":98.3,"no2":17.3,"co":550.0,"o3":140.0,"so2":20.4,"mosquito_risk":0,"arthritis_risk":5,"migraine_risk":10,"frizz_risk":1,"updated_at":"2026-06-04T09:49:03.345389+05:30"},{"city":"Noida","state":"Uttar Pradesh","latitude":28.5355,"longitude":77.391,"temp":34.5,"humidity":42,"rain":0.0,"pressure":979.6,"uv_index":7.85,"wind_gusts":27.4,"aqi":159,"pm10":478.7,"pm2_5":98.3,"no2":17.3,"co":526.0,"o3":140.0,"so2":20.4,"mosquito_risk":0,"arthritis_risk":5,"migraine_risk":7,"frizz_risk":1,"updated_at":"2026-06-04T09:49:03.345395+05:30"},{"city":"Ghaziabad","state":"Uttar Pradesh","latitude":28.6692,"longitude":77.4538,"temp":34.1,"humidity":42,"rain":0.0,"pressure":978.0,"uv_index":7.8,"wind_gusts":42.8,"aqi":155,"pm10":153.2,"pm2_5":60.1,"no2":10.2,"co":484.0,"o3":166.0,"so2":17.9,"mosquito_risk":0,"arthritis_risk":5,"migraine_risk":7,"frizz_risk":1,"updated_at":"2026-06-04T09:49:03.345401+05:30"},{"city":"Faridabad","state":"Haryana","latitude":28.4089,"longitude":77.3178,"temp":34.8,"humidity":39,"rain":0.0,"pressure":978.8,"uv_index":7.85,"wind_gusts":39.2,"aqi":159,"pm10":478.7,"pm2_5":98.3,"no2":17.3,"co":512.0,"o3":140.0,"so2":20.4,"mosquito_risk":0,"arthritis_risk":5,"migraine_risk":7,"frizz_risk":1,"updated_at":"2026-06-04T09:49:03.345409+05:30"},{"city":"Meerut","state":"Uttar Pradesh","latitude":28.9845,"longitude":77.7064,"temp":33.9,"humidity":46,"rain":0.0,"pressure":976.9,"uv_index":7.75,"wind_gusts":48.6,"aqi":155,"pm10":153.2,"pm2_5":60.1,"no2":10.2,"co":510.0,"o3":166.0,"so2":17.9,"mosquito_risk":0,"arthritis_risk":5,"migraine_risk":7,"frizz_risk":1,"updated_at":"2026-06-04T09:49:03.345415+05:30"},{"city":"Agra","state":"Uttar Pradesh","latitude":27.1767,"longitude":78.0081,"temp":36.2,"humidity":34,"rain":0.0,"pressure":982.8,"uv_index":8.15,"wind_gusts":20.9,"aqi":184,"pm10":299.0,"pm2_5":64.0,"no2":8.0,"co":411.0,"o3":155.0,"so2":10.8,"mosquito_risk":0,"arthritis_risk":5,"migraine_risk":10,"frizz_risk":1,"updated_at":"2026-06-04T09:49:03.345421+05:30"},{"city":"Varanasi","state":"Uttar Pradesh","latitude":25.3176,"longitude":82.9739,"temp":37.2,"humidity":31,"rain":0.0,"pressure":993.0,"uv_index":8.45,"wind_gusts":36.0,"aqi":150,"pm10":58.1,"pm2_5":37.6,"no2":13.4,"co":442.0,"o3":110.0,"so2":36.2,"mosquito_risk":0,"arthritis_risk":5,"migraine_risk":10,"frizz_risk":1,"updated_at":"2026-06-04T09:49:03.345427+05:30"},{"city":"Prayagraj","state":"Uttar Pradesh","latitude":25.4358,"longitude":81.8463,"temp":35.8,"humidity":39,"rain":0.0,"pressure":991.5,"uv_index":8.7,"wind_gusts":25.6,"aqi":145,"pm10":62.2,"pm2_5":36.9,"no2":7.3,"co":218.0,"o3":130.0,"so2":11.5,"mosquito_risk":0,"arthritis_risk":5,"migraine_risk":10,"frizz_risk":1,"updated_at":"2026-06-04T09:49:03.345434+05:30"},{"city":"Gorakhpur","state":"Uttar Pradesh","latitude":26.7606,"longitude":83.3732,"temp":35.1,"humidity":47,"rain":0.0,"pressure":992.7,"uv_index":8.2,"wind_gusts":21.2,"aqi":153,"pm10":59.1,"pm2_5":41.0,"no2":5.7,"co":311.0,"o3":158.0,"so2":11.5,"mosquito_risk":0,"arthritis_risk":5,"migraine_risk":10,"frizz_risk":1,"updated_at":"2026-06-04T09:49:03.345441+05:30"},{"city":"Bareilly","state":"Uttar Pradesh","latitude":28.367,"longitude":79.4304,"temp":34.0,"humidity":46,"rain":0.0,"pressure":982.4,"uv_index":8.15,"wind_gusts":14.0,"aqi":151,"pm10":83.6,"pm2_5":39.7,"no2":3.2,"co":387.0,"o3":164.0,"so2":9.6,"mosquito_risk":0,"arthritis_risk":5,"migraine_risk":7,"frizz_risk":1,"updated_at":"2026-06-04T09:49:03.345447+05:30"},{"city":"Aligarh","state":"Uttar Pradesh","latitude":27.8974,"longitude":78.088,"temp":34.7,"humidity":42,"rain":0.0,"pressure":980.8,"uv_index":7.8,"wind_gusts":22.0,"aqi":150,"pm10":208.6,"pm2_5":58.6,"no2":7.8,"co":326.0,"o3":152.0,"so2":11.7,"mosquito_risk":0,"arthritis_risk":5,"migraine_risk":7,"frizz_risk":1,"updated_at":"2026-06-04T09:49:03.345454+05:30"},{"city":"Moradabad","state":"Uttar Pradesh","latitude":28.8386,"longitude":78.7733,"temp":34.2,"humidity":44,"rain":0.0,"pressure":979.4,"uv_index":7.95,"wind_gusts":27.0,"aqi":153,"pm10":70.3,"pm2_5":40.2,"no2":6.9,"co":491.0,"o3":160.0,"so2":11.4,"mosquito_risk":0,"arthritis_risk":5,"migraine_risk":7,"frizz_risk":1,"updated_at":"2026-06-04T09:49:03.345460+05:30"},{"city":"Saharanpur","state":"Uttar Pradesh","latitude":29.9637,"longitude":77.546,"temp":32.5,"humidity":51,"rain":0.0,"pressure":971.5,"uv_index":7.5,"wind_gusts":54.0,"aqi":117,"pm10":43.1,"pm2_5":32.0,"no2":6.9,"co":353.0,"o3":165.0,"so2":10.7,"mosquito_risk":0,"arthritis_risk":5,"migraine_risk":7,"frizz_risk":1,"updated_at":"2026-06-04T09:49:03.345466+05:30"},{"city":"Jhansi","state":"Uttar Pradesh","latitude":25.4484,"longitude":78.5685,"temp":35.9,"humidity":37,"rain":0.0,"pressure":973.5,"uv_index":8.5,"wind_gusts":25.9,"aqi":84,"pm10":64.7,"pm2_5":31.3,"no2":2.8,"co":224.0,"o3":104.0,"so2":9.0,"mosquito_risk":0,"arthritis_risk":5,"migraine_risk":10,"frizz_risk":1,"updated_at":"2026-06-04T09:49:06.673770+05:30"},{"city":"Surat","state":"Gujarat","latitude":21.1702,"longitude":72.8311,"temp":33.5,"humidity":60,"rain":0.0,"pressure":1003.8,"uv_index":7.6,"wind_gusts":47.2,"aqi":83,"pm10":56.1,"pm2_5":25.3,"no2":13.2,"co":257.0,"o3":52.0,"so2":34.7,"mosquito_risk":0,"arthritis_risk":5,"migraine_risk":4,"frizz_risk":1,"updated_at":"2026-06-04T09:49:06.673804+05:30"},{"city":"Vadodara","state":"Gujarat","latitude":22.3072,"longitude":73.1812,"temp":34.1,"humidity":55,"rain":0.0,"pressure":1001.3,"uv_index":8.0,"wind_gusts":42.8,"aqi":86,"pm10":59.8,"pm2_5":27.8,"no2":5.3,"co":151.0,"o3":66.0,"so2":9.2,"mosquito_risk":0,"arthritis_risk":5,"migraine_risk":4,"frizz_risk":1,"updated_at":"2026-06-04T09:49:06.673818+05:30"},{"city":"Rajkot","state":"Gujarat","latitude":22.3039,"longitude":70.8022,"temp":33.2,"humidity":56,"rain":0.0,"pressure":990.9,"uv_index":7.55,"wind_gusts":46.4,"aqi":75,"pm10":46.0,"pm2_5":19.4,"no2":1.7,"co":117.0,"o3":61.0,"so2":2.3,"mosquito_risk":0,"arthritis_risk":5,"migraine_risk":7,"frizz_risk":1,"updated_at":"2026-06-04T09:49:06.673828+05:30"},{"city":"Thane","state":"Maharashtra","latitude":19.2183,"longitude":72.9781,"temp":32.8,"humidity":57,"rain":0.0,"pressure":1005.3,"uv_index":7.7,"wind_gusts":37.4,"aqi":66,"pm10":41.9,"pm2_5":19.4,"no2":9.5,"co":190.0,"o3":60.0,"so2":14.2,"mosquito_risk":0,"arthritis_risk":5,"migraine_risk":4,"frizz_risk":1,"updated_at":"2026-06-04T09:49:06.673838+05:30"},{"city":"Nagpur","state":"Maharashtra","latitude":21.1458,"longitude":79.0882,"temp":36.5,"humidity":32,"rain":0.0,"pressure":970.3,"uv_index":8.35,"wind_gusts":43.2,"aqi":69,"pm10":43.0,"pm2_5":24.4,"no2":10.0,"co":207.0,"o3":116.0,"so2":23.0,"mosquito_risk":0,"arthritis_risk":5,"migraine_risk":10,"frizz_risk":1,"updated_at":"2026-06-04T09:49:06.673848+05:30"},{"city":"Nashik","state":"Maharashtra","latitude":19.9975,"longitude":73.7898,"temp":29.8,"humidity":57,"rain":0.0,"pressure":943.9,"uv_index":8.05,"wind_gusts":38.5,"aqi":68,"pm10":42.0,"pm2_5":18.5,"no2":5.6,"co":139.0,"o3":61.0,"so2":13.6,"mosquito_risk":4,"arthritis_risk":5,"migraine_risk":7,"frizz_risk":1,"updated_at":"2026-06-04T09:49:06.673858+05:30"},{"city":"Aurangabad","state":"Maharashtra","latitude":19.8762,"longitude":75.3433,"temp":31.5,"humidity":47,"rain":0.0,"pressure":943.1,"uv_index":9.0,"wind_gusts":41.4,"aqi":73,"pm10":49.4,"pm2_5":21.0,"no2":4.9,"co":179.0,"o3":70.0,"so2":10.7,"mosquito_risk":0,"arthritis_risk":5,"migraine_risk":7,"frizz_risk":1,"updated_at":"2026-06-04T09:49:06.673868+05:30"},{"city":"Solapur","state":"Maharashtra","latitude":17.6599,"longitude":75.9064,"temp":30.8,"humidity":54,"rain":0.0,"pressure":956.3,"uv_index":8.95,"wind_gusts":41.8,"aqi":63,"pm10":31.0,"pm2_5":16.2,"no2":3.4,"co":143.0,"o3":75.0,"so2":3.2,"mosquito_risk":0,"arthritis_risk":5,"migraine_risk":7,"frizz_risk":1,"updated_at":"2026-06-04T09:49:06.673878+05:30"},{"city":"Kolhapur","state":"Maharashtra","latitude":16.705,"longitude":74.2433,"temp":28.9,"humidity":58,"rain":0.0,"pressure":947.0,"uv_index":8.8,"wind_gusts":42.5,"aqi":53,"pm10":25.4,"pm2_5":11.6,"no2":2.9,"co":145.0,"o3":68.0,"so2":2.7,"mosquito_risk":4,"arthritis_risk":5,"migraine_risk":7,"frizz_risk":1,"updated_at":"2026-06-04T09:49:06.673887+05:30"},{"city":"Goa","state":"Goa","latitude":15.2993,"longitude":74.124,"temp":30.2,"humidity":67,"rain":0.1,"pressure":997.0,"uv_index":8.6,"wind_gusts":34.9,"aqi":38,"pm10":12.1,"pm2_5":5.8,"no2":1.3,"co":124.0,"o3":58.0,"so2":0.9,"mosquito_risk":6,"arthritis_risk":5,"migraine_risk":7,"frizz_risk":1,"updated_at":"2026-06-04T09:49:06.673897+05:30"},{"city":"Jodhpur","state":"Rajasthan","latitude":26.2389,"longitude":73.0243,"temp":34.5,"humidity":42,"rain":0.0,"pressure":978.5,"uv_index":8.45,"wind_gusts":51.5,"aqi":113,"pm10":239.3,"pm2_5":56.5,"no2":2.0,"co":145.0,"o3":76.0,"so2":4.2,"mosquito_risk":0,"arthritis_risk":5,"migraine_risk":7,"frizz_risk":1,"updated_at":"2026-06-04T09:49:06.673906+05:30"},{"city":"Udaipur","state":"Rajasthan","latitude":24.5854,"longitude":73.7125,"temp":32.3,"humidity":48,"rain":0.0,"pressure":943.7,"uv_index":8.8,"wind_gusts":42.5,"aqi":89,"pm10":45.4,"pm2_5":23.7,"no2":1.6,"co":148.0,"o3":76.0,"so2":4.5,"mosquito_risk":0,"arthritis_risk":5,"migraine_risk":7,"frizz_risk":1,"updated_at":"2026-06-04T09:49:06.673914+05:30"},{"city":"Kota","state":"Rajasthan","latitude":25.2138,"longitude":75.8648,"temp":36.5,"humidity":38,"rain":0.0,"pressure":974.7,"uv_index":8.4,"wind_gusts":52.2,"aqi":94,"pm10":43.2,"pm2_5":25.3,"no2":3.6,"co":159.0,"o3":90.0,"so2":9.2,"mosquito_risk":0,"arthritis_risk":5,"migraine_risk":10,"frizz_risk":1,"updated_at":"2026-06-04T09:49:06.673921+05:30"},{"city":"Bikaner","state":"Rajasthan","latitude":28.0229,"longitude":73.3119,"temp":37.0,"humidity":35,"rain":0.0,"pressure":976.1,"uv_index":8.4,"wind_gusts":41.4,"aqi":115,"pm10":335.3,"pm2_5":95.5,"no2":1.0,"co":159.0,"o3":77.0,"so2":2.0,"mosquito_risk":0,"arthritis_risk":5,"migraine_risk":10,"frizz_risk":1,"updated_at":"2026-06-04T09:49:06.673928+05:30"},{"city":"Ajmer","state":"Rajasthan","latitude":26.4499,"longitude":74.6399,"temp":33.0,"humidity":47,"rain":0.0,"pressure":951.1,"uv_index":8.35,"wind_gusts":43.9,"aqi":92,"pm10":96.6,"pm2_5":33.4,"no2":1.8,"co":185.0,"o3":81.0,"so2":4.7,"mosquito_risk":0,"arthritis_risk":5,"migraine_risk":7,"frizz_risk":1,"updated_at":"2026-06-04T09:49:06.673935+05:30"},{"city":"Gwalior","state":"Madhya Pradesh","latitude":26.2183,"longitude":78.1828,"temp":35.8,"humidity":38,"rain":0.0,"pressure":978.4,"uv_index":8.3,"wind_gusts":32.4,"aqi":101,"pm10":101.5,"pm2_5":37.4,"no2":4.2,"co":248.0,"o3":120.0,"so2":6.9,"mosquito_risk":0,"arthritis_risk":5,"migraine_risk":10,"frizz_risk":1,"updated_at":"2026-06-04T09:49:06.673942+05:30"},{"city":"Indore","state":"Madhya Pradesh","latitude":22.7196,"longitude":75.8577,"temp":32.4,"humidity":52,"rain":0.0,"pressure":945.9,"uv_index":8.65,"wind_gusts":40.3,"aqi":87,"pm10":50.6,"pm2_5":29.2,"no2":5.0,"co":210.0,"o3":77.0,"so2":12.4,"mosquito_risk":0,"arthritis_risk":5,"migraine_risk":7,"frizz_risk":1,"updated_at":"2026-06-04T09:49:06.673948+05:30"},{"city":"Bhopal","state":"Madhya Pradesh","latitude":23.2599,"longitude":77.4126,"temp":34.5,"humidity":38,"rain":0.0,"pressure":951.0,"uv_index":8.7,"wind_gusts":62.3,"aqi":83,"pm10":59.0,"pm2_5":32.4,"no2":1.9,"co":242.0,"o3":111.0,"so2":8.6,"mosquito_risk":0,"arthritis_risk":5,"migraine_risk":7,"frizz_risk":1,"updated_at":"2026-06-04T09:49:06.673955+05:30"},{"city":"Jabalpur","state":"Madhya Pradesh","latitude":23.1815,"longitude":79.9864,"temp":33.8,"humidity":41,"rain":0.0,"pressure":958.7,"uv_index":8.9,"wind_gusts":29.2,"aqi":71,"pm10":51.0,"pm2_5":22.9,"no2":2.2,"co":236.0,"o3":119.0,"so2":5.0,"mosquito_risk":0,"arthritis_risk":5,"migraine_risk":7,"frizz_risk":1,"updated_at":"2026-06-04T09:49:06.673962+05:30"},{"city":"Ujjain","state":"Madhya Pradesh","latitude":23.1765,"longitude":75.7885,"temp":32.3,"humidity":55,"rain":0.0,"pressure":951.3,"uv_index":8.6,"wind_gusts":54.0,"aqi":85,"pm10":45.2,"pm2_5":26.9,"no2":4.6,"co":175.0,"o3":70.0,"so2":12.2,"mosquito_risk":0,"arthritis_risk":5,"migraine_risk":7,"frizz_risk":1,"updated_at":"2026-06-04T09:49:06.673973+05:30"},{"city":"Visakhapatnam","state":"Andhra Pradesh","latitude":17.6868,"longitude":83.2185,"temp":36.5,"humidity":48,"rain":0.0,"pressure":999.4,"uv_index":9.05,"wind_gusts":40.3,"aqi":92,"pm10":38.2,"pm2_5":32.8,"no2":17.6,"co":465.0,"o3":134.0,"so2":48.6,"mosquito_risk":0,"arthritis_risk":5,"migraine_risk":10,"frizz_risk":1,"updated_at":"2026-06-04T09:49:06.673983+05:30"},{"city":"Vijayawada","state":"Andhra Pradesh","latitude":16.5062,"longitude":80.648,"temp":34.9,"humidity":44,"rain":0.0,"pressure":1000.1,"uv_index":9.05,"wind_gusts":39.6,"aqi":85,"pm10":25.6,"pm2_5":19.7,"no2":5.2,"co":215.0,"o3":112.0,"so2":10.0,"mosquito_risk":0,"arthritis_risk":5,"migraine_risk":4,"frizz_risk":1,"updated_at":"2026-06-04T09:49:06.673990+05:30"},{"city":"Guntur","state":"Andhra Pradesh","latitude":16.3067,"longitude":80.4365,"temp":34.7,"humidity":47,"rain":0.0,"pressure":1001.3,"uv_index":9.05,"wind_gusts":40.7,"aqi":82,"pm10":27.4,"pm2_5":19.3,"no2":5.3,"co":221.0,"o3":103.0,"so2":10.9,"mosquito_risk":0,"arthritis_risk":5,"migraine_risk":4,"frizz_risk":1,"updated_at":"2026-06-04T09:49:06.673996+05:30"},{"city":"Nellore","state":"Andhra Pradesh","latitude":14.4426,"longitude":79.9865,"temp":33.6,"humidity":53,"rain":0.0,"pressure":1003.5,"uv_index":8.45,"wind_gusts":38.2,"aqi":58,"pm10":8.8,"pm2_5":6.8,"no2":3.9,"co":176.0,"o3":89.0,"so2":5.6,"mosquito_risk":0,"arthritis_risk":5,"migraine_risk":4,"frizz_risk":1,"updated_at":"2026-06-04T09:49:06.674004+05:30"},{"city":"Kurnool","state":"Andhra Pradesh","latitude":15.8281,"longitude":78.0373,"temp":31.5,"humidity":57,"rain":0.0,"pressure":976.1,"uv_index":8.85,"wind_gusts":38.9,"aqi":56,"pm10":21.7,"pm2_5":12.6,"no2":3.5,"co":179.0,"o3":76.0,"so2":4.6,"mosquito_risk":0,"arthritis_risk":5,"migraine_risk":7,"frizz_risk":1,"updated_at":"2026-06-04T09:49:06.674012+05:30"},{"city":"Kakinada","state":"Andhra Pradesh","latitude":16.9891,"longitude":82.2475,"temp":34.3,"humidity":54,"rain":0.0,"pressure":1004.1,"uv_index":9.05,"wind_gusts":37.4,"aqi":80,"pm10":28.8,"pm2_5":23.3,"no2":3.8,"co":306.0,"o3":143.0,"so2":7.4,"mosquito_risk":0,"arthritis_risk":5,"migraine_risk":4,"frizz_risk":1,"updated_at":"2026-06-04T09:49:06.674019+05:30"},{"city":"Tirupati","state":"Andhra Pradesh","latitude":13.6288,"longitude":79.4192,"temp":33.1,"humidity":48,"rain":0.0,"pressure":989.3,"uv_index":8.35,"wind_gusts":32.8,"aqi":54,"pm10":9.3,"pm2_5":6.7,"no2":3.0,"co":150.0,"o3":82.0,"so2":1.9,"mosquito_risk":0,"arthritis_risk":5,"migraine_risk":7,"frizz_risk":1,"updated_at":"2026-06-04T09:49:06.674026+05:30"},{"city":"Warangal","state":"Telangana","latitude":17.9689,"longitude":79.5941,"temp":33.6,"humidity":44,"rain":0.0,"pressure":976.8,"uv_index":8.65,"wind_gusts":36.0,"aqi":73,"pm10":37.7,"pm2_5":22.5,"no2":3.6,"co":214.0,"o3":109.0,"so2":3.9,"mosquito_risk":0,"arthritis_risk":5,"migraine_risk":7,"frizz_risk":1,"updated_at":"2026-06-04T09:49:06.674033+05:30"},{"city":"Nizamabad","state":"Telangana","latitude":18.6725,"longitude":78.0941,"temp":31.5,"humidity":54,"rain":0.0,"pressure":963.2,"uv_index":6.6,"wind_gusts":32.8,"aqi":68,"pm10":38.8,"pm2_5":25.5,"no2":3.6,"co":179.0,"o3":110.0,"so2":10.0,"mosquito_risk":0,"arthritis_risk":5,"migraine_risk":7,"frizz_risk":1,"updated_at":"2026-06-04T09:49:06.674039+05:30"},{"city":"Mysore","state":"Karnataka","latitude":12.2958,"longitude":76.6396,"temp":25.8,"humidity":71,"rain":0.0,"pressure":928.7,"uv_index":8.5,"wind_gusts":50.4,"aqi":21,"pm10":2.2,"pm2_5":2.1,"no2":3.7,"co":135.0,"o3":61.0,"so2":2.0,"mosquito_risk":7,"arthritis_risk":5,"migraine_risk":7,"frizz_risk":1,"updated_at":"2026-06-04T09:49:06.674047+05:30"},{"city":"Mangalore","state":"Karnataka","latitude":12.9141,"longitude":74.856,"temp":26.4,"humidity":91,"rain":0.2,"pressure":1007.4,"uv_index":8.65,"wind_gusts":37.1,"aqi":32,"pm10":13.2,"pm2_5":6.2,"no2":3.8,"co":162.0,"o3":56.0,"so2":1.8,"mosquito_risk":10,"arthritis_risk":5,"migraine_risk":4,"frizz_risk":1,"updated_at":"2026-06-04T09:49:06.674054+05:30"},{"city":"Hubli-Dharwad","state":"Karnataka","latitude":15.3647,"longitude":75.124,"temp":27.7,"humidity":63,"rain":0.0,"pressure":940.7,"uv_index":8.8,"wind_gusts":45.7,"aqi":24,"pm10":9.8,"pm2_5":4.5,"no2":2.4,"co":119.0,"o3":58.0,"so2":1.0,"mosquito_risk":7,"arthritis_risk":5,"migraine_risk":7,"frizz_risk":1,"updated_at":"2026-06-04T09:49:06.674062+05:30"},{"city":"Belgaum","state":"Karnataka","latitude":15.8497,"longitude":74.4977,"temp":26.7,"humidity":64,"rain":0.1,"pressure":925.2,"uv_index":8.95,"wind_gusts":40.3,"aqi":42,"pm10":10.0,"pm2_5":4.4,"no2":1.9,"co":125.0,"o3":62.0,"so2":1.6,"mosquito_risk":10,"arthritis_risk":5,"migraine_risk":7,"frizz_risk":1,"updated_at":"2026-06-04T09:49:09.996073+05:30"},{"city":"Coimbatore","state":"Tamil Nadu","latitude":11.0168,"longitude":76.9558,"temp":28.5,"humidity":66,"rain":0.0,"pressure":962.2,"uv_index":8.25,"wind_gusts":59.4,"aqi":21,"pm10":2.0,"pm2_5":1.8,"no2":2.8,"co":162.0,"o3":57.0,"so2":1.9,"mosquito_risk":7,"arthritis_risk":5,"migraine_risk":7,"frizz_risk":1,"updated_at":"2026-06-04T09:49:09.996104+05:30"},{"city":"Madurai","state":"Tamil Nadu","latitude":9.9252,"longitude":78.1198,"temp":33.0,"humidity":51,"rain":0.0,"pressure":992.4,"uv_index":7.95,"wind_gusts":55.1,"aqi":43,"pm10":7.4,"pm2_5":6.6,"no2":5.0,"co":180.0,"o3":66.0,"so2":4.1,"mosquito_risk":0,"arthritis_risk":5,"migraine_risk":7,"frizz_risk":1,"updated_at":"2026-06-04T09:49:09.996117+05:30"},{"city":"Trichy","state":"Tamil Nadu","latitude":10.7905,"longitude":78.7047,"temp":32.3,"humidity":55,"rain":0.0,"pressure":998.9,"uv_index":8.6,"wind_gusts":50.8,"aqi":40,"pm10":7.2,"pm2_5":5.9,"no2":4.0,"co":126.0,"o3":61.0,"so2":3.4,"mosquito_risk":0,"arthritis_risk":5,"migraine_risk":7,"frizz_risk":1,"updated_at":"2026-06-04T09:49:09.996128+05:30"},{"city":"Salem","state":"Tamil Nadu","latitude":11.6643,"longitude":78.146,"temp":31.0,"humidity":55,"rain":0.0,"pressure":977.1,"uv_index":8.3,"wind_gusts":40.7,"aqi":40,"pm10":13.8,"pm2_5":10.8,"no2":7.1,"co":207.0,"o3":79.0,"so2":11.5,"mosquito_risk":0,"arthritis_risk":5,"migraine_risk":7,"frizz_risk":1,"updated_at":"2026-06-04T09:49:09.996138+05:30"},{"city":"Tirunelveli","state":"Tamil Nadu","latitude":8.7139,"longitude":77.7567,"temp":33.4,"humidity":50,"rain":0.0,"pressure":1003.3,"uv_index":7.85,"wind_gusts":45.0,"aqi":19,"pm10":3.0,"pm2_5":2.6,"no2":2.8,"co":155.0,"o3":44.0,"so2":1.4,"mosquito_risk":0,"arthritis_risk":5,"migraine_risk":4,"frizz_risk":1,"updated_at":"2026-06-04T09:49:09.996147+05:30"},{"city":"Vellore","state":"Tamil Nadu","latitude":12.9165,"longitude":79.1325,"temp":32.1,"humidity":51,"rain":0.0,"pressure":983.1,"uv_index":8.65,"wind_gusts":43.9,"aqi":54,"pm10":6.0,"pm2_5":5.3,"no2":3.1,"co":165.0,"o3":72.0,"so2":3.3,"mosquito_risk":0,"arthritis_risk":5,"migraine_risk":7,"frizz_risk":1,"updated_at":"2026-06-04T09:49:09.996155+05:30"},{"city":"Erode","state":"Tamil Nadu","latitude":11.341,"longitude":77.7172,"temp":31.8,"humidity":52,"rain":0.0,"pressure":988.9,"uv_index":7.9,"wind_gusts":49.3,"aqi":30,"pm10":5.3,"pm2_5":4.6,"no2":4.5,"co":187.0,"o3":62.0,"so2":3.1,"mosquito_risk":0,"arthritis_risk":5,"migraine_risk":7,"frizz_risk":1,"updated_at":"2026-06-04T09:49:09.996162+05:30"},{"city":"Kochi","state":"Kerala","latitude":9.9312,"longitude":76.2673,"temp":26.9,"humidity":90,"rain":0.3,"pressure":1010.4,"uv_index":7.6,"wind_gusts":40.0,"aqi":44,"pm10":11.8,"pm2_5":8.6,"no2":7.1,"co":143.0,"o3":48.0,"so2":2.9,"mosquito_risk":10,"arthritis_risk":0,"migraine_risk":4,"frizz_risk":1,"updated_at":"2026-06-04T09:49:09.996170+05:30"},{"city":"Thiruvananthapuram","state":"Kerala","latitude":8.5241,"longitude":76.9366,"temp":26.6,"humidity":89,"rain":0.1,"pressure":1010.2,"uv_index":6.75,"wind_gusts":55.4,"aqi":27,"pm10":9.5,"pm2_5":5.3,"no2":1.6,"co":120.0,"o3":42.0,"so2":0.4,"mosquito_risk":10,"arthritis_risk":0,"migraine_risk":4,"frizz_risk":1,"updated_at":"2026-06-04T09:49:09.996177+05:30"},{"city":"Kozhikode","state":"Kerala","latitude":11.2588,"longitude":75.7804,"temp":25.4,"humidity":96,"rain":0.3,"pressure":1009.2,"uv_index":7.95,"wind_gusts":28.1,"aqi":29,"pm10":13.1,"pm2_5":5.6,"no2":0.9,"co":190.0,"o3":62.0,"so2":0.4,"mosquito_risk":10,"arthritis_risk":0,"migraine_risk":4,"frizz_risk":1,"updated_at":"2026-06-04T09:49:09.996205+05:30"},{"city":"Thrissur","state":"Kerala","latitude":10.5276,"longitude":76.2144,"temp":25.6,"humidity":96,"rain":0.2,"pressure":1008.7,"uv_index":7.6,"wind_gusts":34.2,"aqi":43,"pm10":11.8,"pm2_5":9.2,"no2":7.3,"co":184.0,"o3":44.0,"so2":3.0,"mosquito_risk":10,"arthritis_risk":0,"migraine_risk":4,"frizz_risk":1,"updated_at":"2026-06-04T09:49:09.996215+05:30"},{"city":"Kannur","state":"Kerala","latitude":11.8745,"longitude":75.3704,"temp":25.5,"humidity":96,"rain":0.1,"pressure":1008.2,"uv_index":8.7,"wind_gusts":29.9,"aqi":28,"pm10":15.0,"pm2_5":7.0,"no2":4.1,"co":173.0,"o3":54.0,"so2":1.3,"mosquito_risk":10,"arthritis_risk":0,"migraine_risk":4,"frizz_risk":1,"updated_at":"2026-06-04T09:49:09.996222+05:30"},{"city":"Patna","state":"Bihar","latitude":25.5941,"longitude":85.1376,"temp":34.1,"humidity":54,"rain":0.0,"pressure":996.0,"uv_index":8.85,"wind_gusts":21.6,"aqi":164,"pm10":101.3,"pm2_5":78.9,"no2":12.5,"co":479.0,"o3":169.0,"so2":17.6,"mosquito_risk":0,"arthritis_risk":5,"migraine_risk":7,"frizz_risk":1,"updated_at":"2026-06-04T09:49:09.996230+05:30"},{"city":"Gaya","state":"Bihar","latitude":24.7914,"longitude":85.0002,"temp":34.6,"humidity":45,"rain":0.0,"pressure":989.6,"uv_index":8.65,"wind_gusts":29.9,"aqi":150,"pm10":78.9,"pm2_5":55.8,"no2":4.0,"co":298.0,"o3":167.0,"so2":14.9,"mosquito_risk":0,"arthritis_risk":5,"migraine_risk":7,"frizz_risk":1,"updated_at":"2026-06-04T09:49:09.996237+05:30"},{"city":"Muzaffarpur","state":"Bihar","latitude":26.1209,"longitude":85.3647,"temp":34.5,"humidity":51,"rain":0.0,"pressure":995.8,"uv_index":8.9,"wind_gusts":20.9,"aqi":166,"pm10":106.6,"pm2_5":85.2,"no2":11.2,"co":462.0,"o3":202.0,"so2":20.6,"mosquito_risk":0,"arthritis_risk":5,"migraine_risk":7,"frizz_risk":1,"updated_at":"2026-06-04T09:49:09.996244+05:30"},{"city":"Bhagalpur","state":"Bihar","latitude":25.2425,"longitude":87.0117,"temp":35.5,"humidity":52,"rain":0.0,"pressure":996.4,"uv_index":7.85,"wind_gusts":32.4,"aqi":155,"pm10":73.3,"pm2_5":63.6,"no2":7.4,"co":359.0,"o3":180.0,"so2":34.3,"mosquito_risk":0,"arthritis_risk":5,"migraine_risk":10,"frizz_risk":1,"updated_at":"2026-06-04T09:49:09.996252+05:30"},{"city":"Ranchi","state":"Jharkhand","latitude":23.3441,"longitude":85.3096,"temp":31.8,"humidity":50,"rain":0.0,"pressure":935.4,"uv_index":9.05,"wind_gusts":31.3,"aqi":119,"pm10":65.7,"pm2_5":45.4,"no2":2.4,"co":273.0,"o3":168.0,"so2":17.9,"mosquito_risk":0,"arthritis_risk":5,"migraine_risk":7,"frizz_risk":1,"updated_at":"2026-06-04T09:49:09.996259+05:30"},{"city":"Jamshedpur","state":"Jharkhand","latitude":22.8046,"longitude":86.2029,"temp":34.0,"humidity":55,"rain":0.0,"pressure":986.9,"uv_index":9.05,"wind_gusts":28.4,"aqi":157,"pm10":72.2,"pm2_5":57.9,"no2":8.7,"co":353.0,"o3":189.0,"so2":46.8,"mosquito_risk":0,"arthritis_risk":5,"migraine_risk":7,"frizz_risk":1,"updated_at":"2026-06-04T09:49:09.996267+05:30"},{"city":"Dhanbad","state":"Jharkhand","latitude":23.7957,"longitude":86.4304,"temp":35.8,"humidity":41,"rain":0.0,"pressure":976.0,"uv_index":8.9,"wind_gusts":32.0,"aqi":163,"pm10":75.2,"pm2_5":61.5,"no2":29.2,"co":349.0,"o3":158.0,"so2":86.6,"mosquito_risk":0,"arthritis_risk":5,"migraine_risk":10,"frizz_risk":1,"updated_at":"2026-06-04T09:49:09.996274+05:30"},{"city":"Bokaro","state":"Jharkhand","latitude":23.6693,"longitude":86.1511,"temp":35.3,"humidity":44,"rain":0.0,"pressure":979.7,"uv_index":9.0,"wind_gusts":28.8,"aqi":157,"pm10":69.6,"pm2_5":53.3,"no2":20.2,"co":343.0,"o3":162.0,"so2":62.7,"mosquito_risk":0,"arthritis_risk":5,"migraine_risk":10,"frizz_risk":1,"updated_at":"2026-06-04T09:49:09.996281+05:30"},{"city":"Bhubaneswar","state":"Odisha","latitude":20.2961,"longitude":85.8245,"temp":34.8,"humidity":62,"rain":0.0,"pressure":998.2,"uv_index":9.1,"wind_gusts":32.4,"aqi":105,"pm10":38.1,"pm2_5":31.4,"no2":3.3,"co":370.0,"o3":147.0,"so2":13.3,"mosquito_risk":3,"arthritis_risk":5,"migraine_risk":7,"frizz_risk":1,"updated_at":"2026-06-04T09:49:09.996288+05:30"},{"city":"Cuttack","state":"Odisha","latitude":20.4625,"longitude":85.8828,"temp":34.0,"humidity":68,"rain":0.0,"pressure":1000.1,"uv_index":9.15,"wind_gusts":30.6,"aqi":105,"pm10":38.1,"pm2_5":31.4,"no2":3.3,"co":408.0,"o3":147.0,"so2":13.3,"mosquito_risk":3,"arthritis_risk":5,"migraine_risk":4,"frizz_risk":1,"updated_at":"2026-06-04T09:49:09.996295+05:30"},{"city":"Rourkela","state":"Odisha","latitude":22.2604,"longitude":84.8536,"temp":34.3,"humidity":52,"rain":0.0,"pressure":981.4,"uv_index":8.8,"wind_gusts":33.5,"aqi":156,"pm10":64.0,"pm2_5":49.4,"no2":4.4,"co":378.0,"o3":178.0,"so2":31.5,"mosquito_risk":0,"arthritis_risk":5,"migraine_risk":7,"frizz_risk":1,"updated_at":"2026-06-04T09:49:09.996302+05:30"},{"city":"Raipur","state":"Chhattisgarh","latitude":21.2514,"longitude":81.6296,"temp":36.2,"humidity":33,"rain":0.0,"pressure":971.5,"uv_index":8.95,"wind_gusts":35.3,"aqi":114,"pm10":40.9,"pm2_5":32.5,"no2":26.1,"co":418.0,"o3":96.0,"so2":64.8,"mosquito_risk":0,"arthritis_risk":5,"migraine_risk":10,"frizz_risk":1,"updated_at":"2026-06-04T09:49:09.996309+05:30"},{"city":"Bhilai","state":"Chhattisgarh","latitude":21.1938,"longitude":81.3509,"temp":35.2,"humidity":36,"rain":0.0,"pressure":972.0,"uv_index":8.95,"wind_gusts":36.7,"aqi":107,"pm10":36.1,"pm2_5":27.1,"no2":18.7,"co":588.0,"o3":104.0,"so2":51.7,"mosquito_risk":0,"arthritis_risk":5,"migraine_risk":10,"frizz_risk":1,"updated_at":"2026-06-04T09:49:09.996316+05:30"},{"city":"Guwahati","state":"Assam","latitude":26.1158,"longitude":91.7086,"temp":29.2,"humidity":74,"rain":0.0,"pressure":998.3,"uv_index":8.7,"wind_gusts":31.3,"aqi":121,"pm10":41.3,"pm2_5":35.0,"no2":2.3,"co":395.0,"o3":140.0,"so2":4.9,"mosquito_risk":7,"arthritis_risk":5,"migraine_risk":7,"frizz_risk":1,"updated_at":"2026-06-04T09:49:09.996323+05:30"},{"city":"Agartala","state":"Tripura","latitude":23.8315,"longitude":91.2868,"temp":32.3,"humidity":71,"rain":0.0,"pressure":1002.9,"uv_index":8.85,"wind_gusts":20.5,"aqi":98,"pm10":34.6,"pm2_5":26.4,"no2":4.0,"co":240.0,"o3":119.0,"so2":3.3,"mosquito_risk":3,"arthritis_risk":5,"migraine_risk":4,"frizz_risk":1,"updated_at":"2026-06-04T09:49:09.996330+05:30"},{"city":"Shillong","state":"Meghalaya","latitude":25.5788,"longitude":91.8933,"temp":24.5,"humidity":71,"rain":0.1,"pressure":856.7,"uv_index":6.45,"wind_gusts":26.3,"aqi":81,"pm10":29.2,"pm2_5":24.1,"no2":2.0,"co":287.0,"o3":139.0,"so2":5.2,"mosquito_risk":6,"arthritis_risk":5,"migraine_risk":7,"frizz_risk":1,"updated_at":"2026-06-04T09:49:09.996337+05:30"},{"city":"Imphal","state":"Manipur","latitude":24.817,"longitude":93.9368,"temp":27.5,"humidity":71,"rain":0.0,"pressure":921.7,"uv_index":9.25,"wind_gusts":31.3,"aqi":97,"pm10":19.6,"pm2_5":15.1,"no2":0.7,"co":248.0,"o3":116.0,"so2":2.2,"mosquito_risk":7,"arthritis_risk":5,"migraine_risk":7,"frizz_risk":1,"updated_at":"2026-06-04T09:49:09.996345+05:30"},{"city":"Aizawl","state":"Mizoram","latitude":23.7271,"longitude":92.7176,"temp":26.8,"humidity":57,"rain":0.0,"pressure":891.9,"uv_index":9.05,"wind_gusts":26.6,"aqi":80,"pm10":35.0,"pm2_5":20.9,"no2":0.6,"co":209.0,"o3":105.0,"so2":2.9,"mosquito_risk":4,"arthritis_risk":5,"migraine_risk":7,"frizz_risk":1,"updated_at":"2026-06-04T09:49:09.996351+05:30"},{"city":"Kohima","state":"Nagaland","latitude":25.6701,"longitude":94.1077,"temp":22.1,"humidity":88,"rain":0.0,"pressure":854.2,"uv_index":9.0,"wind_gusts":29.2,"aqi":84,"pm10":36.9,"pm2_5":26.3,"no2":0.5,"co":259.0,"o3":127.0,"so2":2.4,"mosquito_risk":3,"arthritis_risk":5,"migraine_risk":7,"frizz_risk":1,"updated_at":"2026-06-04T09:49:09.996358+05:30"},{"city":"Gangtok","state":"Sikkim","latitude":27.3314,"longitude":88.6138,"temp":22.4,"humidity":66,"rain":0.0,"pressure":837.2,"uv_index":9.25,"wind_gusts":35.6,"aqi":91,"pm10":39.0,"pm2_5":28.9,"no2":1.3,"co":258.0,"o3":150.0,"so2":2.9,"mosquito_risk":3,"arthritis_risk":5,"migraine_risk":7,"frizz_risk":0,"updated_at":"2026-06-04T09:49:09.996365+05:30"},{"city":"Siliguri","state":"West Bengal","latitude":26.7271,"longitude":88.3953,"temp":30.9,"humidity":62,"rain":0.0,"pressure":989.3,"uv_index":8.8,"wind_gusts":23.8,"aqi":155,"pm10":81.5,"pm2_5":61.0,"no2":2.8,"co":431.0,"o3":167.0,"so2":7.7,"mosquito_risk":3,"arthritis_risk":5,"migraine_risk":7,"frizz_risk":1,"updated_at":"2026-06-04T09:49:13.329470+05:30"},{"city":"Durgapur","state":"West Bengal","latitude":23.5204,"longitude":87.3119,"temp":33.8,"humidity":63,"rain":0.0,"pressure":990.7,"uv_index":8.85,"wind_gusts":23.8,"aqi":174,"pm10":91.7,"pm2_5":82.2,"no2":36.9,"co":631.0,"o3":158.0,"so2":112.6,"mosquito_risk":3,"arthritis_risk":5,"migraine_risk":7,"frizz_risk":1,"updated_at":"2026-06-04T09:49:13.329498+05:30"},{"city":"Asansol","state":"West Bengal","latitude":23.6739,"longitude":86.9524,"temp":34.6,"humidity":56,"rain":0.0,"pressure":989.3,"uv_index":8.85,"wind_gusts":30.6,"aqi":164,"pm10":78.7,"pm2_5":67.3,"no2":31.5,"co":781.0,"o3":155.0,"so2":94.3,"mosquito_risk":0,"arthritis_risk":5,"migraine_risk":7,"frizz_risk":1,"updated_at":"2026-06-04T09:49:13.329508+05:30"},{"city":"Pondicherry","state":"Puducherry","latitude":11.9139,"longitude":79.8145,"temp":32.5,"humidity":57,"rain":0.0,"pressure":1007.0,"uv_index":8.45,"wind_gusts":37.4,"aqi":60,"pm10":23.1,"pm2_5":18.2,"no2":10.2,"co":293.0,"o3":83.0,"so2":9.6,"mosquito_risk":0,"arthritis_risk":5,"migraine_risk":4,"frizz_risk":1,"updated_at":"2026-06-04T09:49:13.329517+05:30"},{"city":"Port Blair","state":"Andaman and Nicobar Islands","latitude":11.6234,"longitude":92.7265,"temp":29.6,"humidity":77,"rain":0.0,"pressure":1005.8,"uv_index":3.45,"wind_gusts":46.8,"aqi":31,"pm10":7.8,"pm2_5":5.0,"no2":0.4,"co":109.0,"o3":67.0,"so2":0.6,"mosquito_risk":7,"arthritis_risk":5,"migraine_risk":0,"frizz_risk":1,"updated_at":"2026-06-04T09:49:13.329525+05:30"},{"city":"Haridwar","state":"Uttarakhand","latitude":29.9457,"longitude":78.1642,"temp":33.0,"humidity":48,"rain":0.0,"pressure":970.1,"uv_index":7.65,"wind_gusts":27.7,"aqi":78,"pm10":35.3,"pm2_5":21.8,"no2":2.4,"co":309.0,"o3":169.0,"so2":7.7,"mosquito_risk":0,"arthritis_risk":5,"migraine_risk":7,"frizz_risk":1,"updated_at":"2026-06-04T09:49:13.329532+05:30"},{"city":"Rishikesh","state":"Uttarakhand","latitude":30.0869,"longitude":78.2676,"temp":32.5,"humidity":46,"rain":0.0,"pressure":963.1,"uv_index":7.75,"wind_gusts":27.4,"aqi":51,"pm10":31.3,"pm2_5":14.6,"no2":1.6,"co":254.0,"o3":157.0,"so2":4.6,"mosquito_risk":0,"arthritis_risk":5,"migraine_risk":7,"frizz_risk":1,"updated_at":"2026-06-04T09:49:13.329539+05:30"},{"city":"Nainital","state":"Uttarakhand","latitude":29.3919,"longitude":79.4542,"temp":21.6,"humidity":58,"rain":0.0,"pressure":806.2,"uv_index":7.4,"wind_gusts":36.4,"aqi":88,"pm10":42.4,"pm2_5":21.5,"no2":0.3,"co":215.0,"o3":150.0,"so2":2.2,"mosquito_risk":0,"arthritis_risk":5,"migraine_risk":7,"frizz_risk":0,"updated_at":"2026-06-04T09:49:13.329547+05:30"},{"city":"Mussoorie","state":"Uttarakhand","latitude":30.4599,"longitude":78.0664,"temp":21.7,"humidity":56,"rain":0.0,"pressure":803.7,"uv_index":6.45,"wind_gusts":37.1,"aqi":64,"pm10":61.7,"pm2_5":22.4,"no2":0.4,"co":275.0,"o3":172.0,"so2":6.7,"mosquito_risk":0,"arthritis_risk":5,"migraine_risk":7,"frizz_risk":0,"updated_at":"2026-06-04T09:49:13.329554+05:30"},{"city":"Dharamshala","state":"Himachal Pradesh","latitude":32.219,"longitude":76.3234,"temp":25.7,"humidity":49,"rain":0.0,"pressure":867.4,"uv_index":8.05,"wind_gusts":46.4,"aqi":49,"pm10":22.5,"pm2_5":10.1,"no2":0.9,"co":280.0,"o3":136.0,"so2":1.1,"mosquito_risk":4,"arthritis_risk":5,"migraine_risk":7,"frizz_risk":0,"updated_at":"2026-06-04T09:49:13.329562+05:30"},{"city":"Dalhousie","state":"Himachal Pradesh","latitude":32.5387,"longitude":75.971,"temp":22.3,"humidity":55,"rain":0.0,"pressure":804.7,"uv_index":6.75,"wind_gusts":44.3,"aqi":72,"pm10":37.6,"pm2_5":15.7,"no2":2.5,"co":268.0,"o3":150.0,"so2":2.2,"mosquito_risk":0,"arthritis_risk":5,"migraine_risk":7,"frizz_risk":0,"updated_at":"2026-06-04T09:49:13.329570+05:30"},{"city":"Patiala","state":"Punjab","latitude":30.3398,"longitude":76.3869,"temp":34.9,"humidity":37,"rain":0.0,"pressure":973.2,"uv_index":7.7,"wind_gusts":50.8,"aqi":152,"pm10":616.5,"pm2_5":100.6,"no2":6.9,"co":420.0,"o3":156.0,"so2":13.4,"mosquito_risk":0,"arthritis_risk":5,"migraine_risk":7,"frizz_risk":1,"updated_at":"2026-06-04T09:49:13.329577+05:30"},{"city":"Bhatinda","state":"Punjab","latitude":30.211,"longitude":74.9455,"temp":36.8,"humidity":31,"rain":0.0,"pressure":977.9,"uv_index":8.3,"wind_gusts":59.8,"aqi":145,"pm10":93.4,"pm2_5":42.7,"no2":10.0,"co":368.0,"o3":136.0,"so2":15.1,"mosquito_risk":0,"arthritis_risk":5,"migraine_risk":10,"frizz_risk":1,"updated_at":"2026-06-04T09:49:13.329584+05:30"},{"city":"Rohtak","state":"Haryana","latitude":28.8955,"longitude":76.6066,"temp":35.2,"humidity":40,"rain":0.0,"pressure":976.8,"uv_index":7.8,"wind_gusts":50.4,"aqi":156,"pm10":330.6,"pm2_5":84.8,"no2":12.0,"co":414.0,"o3":155.0,"so2":17.3,"mosquito_risk":0,"arthritis_risk":5,"migraine_risk":10,"frizz_risk":1,"updated_at":"2026-06-04T09:49:13.329591+05:30"},{"city":"Panipat","state":"Haryana","latitude":29.3909,"longitude":76.9635,"temp":34.7,"humidity":43,"rain":0.0,"pressure":975.6,"uv_index":7.7,"wind_gusts":29.5,"aqi":184,"pm10":497.3,"pm2_5":106.4,"no2":16.7,"co":478.0,"o3":158.0,"so2":28.4,"mosquito_risk":0,"arthritis_risk":5,"migraine_risk":7,"frizz_risk":1,"updated_at":"2026-06-04T09:49:13.329598+05:30"},{"city":"Mathura","state":"Uttar Pradesh","latitude":27.4924,"longitude":77.6737,"temp":35.7,"humidity":38,"rain":0.0,"pressure":981.8,"uv_index":8.1,"wind_gusts":19.4,"aqi":153,"pm10":280.3,"pm2_5":65.9,"no2":9.8,"co":480.0,"o3":144.0,"so2":10.4,"mosquito_risk":0,"arthritis_risk":5,"migraine_risk":10,"frizz_risk":1,"updated_at":"2026-06-04T09:49:13.329605+05:30"},{"city":"Vrindavan","state":"Uttar Pradesh","latitude":27.5823,"longitude":77.7027,"temp":35.8,"humidity":37,"rain":0.0,"pressure":982.2,"uv_index":8.05,"wind_gusts":21.6,"aqi":153,"pm10":280.3,"pm2_5":65.9,"no2":9.8,"co":469.0,"o3":144.0,"so2":10.4,"mosquito_risk":0,"arthritis_risk":5,"migraine_risk":10,"frizz_risk":1,"updated_at":"2026-06-04T09:49:13.329611+05:30"},{"city":"Ayodhya","state":"Uttar Pradesh","latitude":26.7922,"longitude":82.1998,"temp":34.4,"humidity":45,"rain":0.0,"pressure":990.7,"uv_index":8.05,"wind_gusts":22.3,"aqi":153,"pm10":73.8,"pm2_5":44.9,"no2":11.3,"co":323.0,"o3":147.0,"so2":12.2,"mosquito_risk":0,"arthritis_risk":5,"migraine_risk":7,"frizz_risk":1,"updated_at":"2026-06-04T09:49:13.329618+05:30"},{"city":"Ratlam","state":"Madhya Pradesh","latitude":23.3315,"longitude":75.0367,"temp":31.6,"humidity":59,"rain":0.0,"pressure":952.3,"uv_index":8.5,"wind_gusts":41.8,"aqi":85,"pm10":44.6,"pm2_5":26.0,"no2":4.3,"co":143.0,"o3":69.0,"so2":11.5,"mosquito_risk":0,"arthritis_risk":5,"migraine_risk":7,"frizz_risk":1,"updated_at":"2026-06-04T09:49:13.329625+05:30"},{"city":"Sagar","state":"Madhya Pradesh","latitude":23.8388,"longitude":78.7378,"temp":34.0,"humidity":38,"rain":0.0,"pressure":947.2,"uv_index":8.75,"wind_gusts":52.6,"aqi":76,"pm10":64.0,"pm2_5":30.2,"no2":1.8,"co":187.0,"o3":108.0,"so2":6.0,"mosquito_risk":0,"arthritis_risk":5,"migraine_risk":7,"frizz_risk":1,"updated_at":"2026-06-04T09:49:13.329632+05:30"},{"city":"Satna","state":"Madhya Pradesh","latitude":24.6005,"longitude":80.8322,"temp":34.8,"humidity":38,"rain":0.0,"pressure":967.8,"uv_index":8.8,"wind_gusts":27.7,"aqi":83,"pm10":68.5,"pm2_5":30.3,"no2":2.7,"co":194.0,"o3":117.0,"so2":7.8,"mosquito_risk":0,"arthritis_risk":5,"migraine_risk":7,"frizz_risk":1,"updated_at":"2026-06-04T09:49:13.329638+05:30"},{"city":"Akola","state":"Maharashtra","latitude":20.7002,"longitude":77.0082,"temp":34.0,"humidity":46,"rain":0.0,"pressure":972.9,"uv_index":8.75,"wind_gusts":36.7,"aqi":67,"pm10":52.4,"pm2_5":30.2,"no2":3.9,"co":166.0,"o3":107.0,"so2":12.8,"mosquito_risk":0,"arthritis_risk":5,"migraine_risk":7,"frizz_risk":1,"updated_at":"2026-06-04T09:49:13.329646+05:30"},{"city":"Amravati","state":"Maharashtra","latitude":20.9374,"longitude":77.7796,"temp":34.7,"humidity":37,"rain":0.0,"pressure":965.1,"uv_index":8.6,"wind_gusts":37.4,"aqi":68,"pm10":52.2,"pm2_5":31.0,"no2":4.2,"co":193.0,"o3":112.0,"so2":14.7,"mosquito_risk":0,"arthritis_risk":5,"migraine_risk":7,"frizz_risk":1,"updated_at":"2026-06-04T09:49:13.329653+05:30"},{"city":"Latur","state":"Maharashtra","latitude":18.4088,"longitude":76.5604,"temp":29.2,"humidity":60,"rain":0.0,"pressure":938.8,"uv_index":9.0,"wind_gusts":34.6,"aqi":63,"pm10":40.2,"pm2_5":17.8,"no2":3.7,"co":154.0,"o3":69.0,"so2":3.1,"mosquito_risk":4,"arthritis_risk":5,"migraine_risk":7,"frizz_risk":1,"updated_at":"2026-06-04T09:49:13.329660+05:30"},{"city":"Nanded","state":"Maharashtra","latitude":19.1383,"longitude":77.3091,"temp":33.4,"humidity":47,"rain":0.0,"pressure":967.0,"uv_index":8.25,"wind_gusts":36.4,"aqi":74,"pm10":38.0,"pm2_5":23.6,"no2":3.3,"co":176.0,"o3":107.0,"so2":8.5,"mosquito_risk":0,"arthritis_risk":5,"migraine_risk":7,"frizz_risk":1,"updated_at":"2026-06-04T09:49:13.329667+05:30"},{"city":"Gulbarga","state":"Karnataka","latitude":17.3297,"longitude":76.8343,"temp":31.0,"humidity":51,"rain":0.0,"pressure":957.7,"uv_index":9.0,"wind_gusts":41.8,"aqi":64,"pm10":30.0,"pm2_5":15.3,"no2":3.4,"co":153.0,"o3":79.0,"so2":3.2,"mosquito_risk":0,"arthritis_risk":5,"migraine_risk":7,"frizz_risk":1,"updated_at":"2026-06-04T09:49:13.329673+05:30"},{"city":"Bidar","state":"Karnataka","latitude":17.9104,"longitude":77.5199,"temp":30.0,"humidity":55,"rain":0.0,"pressure":934.7,"uv_index":7.5,"wind_gusts":42.8,"aqi":69,"pm10":29.9,"pm2_5":17.8,"no2":4.1,"co":184.0,"o3":85.0,"so2":3.3,"mosquito_risk":4,"arthritis_risk":5,"migraine_risk":7,"frizz_risk":1,"updated_at":"2026-06-04T09:49:13.329680+05:30"},{"city":"Hospet","state":"Karnataka","latitude":15.2689,"longitude":76.3909,"temp":28.0,"humidity":65,"rain":0.0,"pressure":955.7,"uv_index":9.0,"wind_gusts":43.9,"aqi":31,"pm10":16.5,"pm2_5":8.2,"no2":2.9,"co":131.0,"o3":58.0,"so2":2.1,"mosquito_risk":7,"arthritis_risk":5,"migraine_risk":7,"frizz_risk":1,"updated_at":"2026-06-04T09:49:13.329686+05:30"},{"city":"Tirupur","state":"Tamil Nadu","latitude":11.1085,"longitude":77.3411,"temp":30.6,"humidity":58,"rain":0.0,"pressure":975.5,"uv_index":8.05,"wind_gusts":59.8,"aqi":32,"pm10":5.7,"pm2_5":5.0,"no2":4.4,"co":150.0,"o3":64.0,"so2":3.6,"mosquito_risk":0,"arthritis_risk":5,"migraine_risk":7,"frizz_risk":1,"updated_at":"2026-06-04T09:49:13.329694+05:30"},{"city":"Alappuzha","state":"Kerala","latitude":9.4981,"longitude":76.3388,"temp":27.2,"humidity":88,"rain":0.0,"pressure":1010.5,"uv_index":7.15,"wind_gusts":45.7,"aqi":33,"pm10":11.2,"pm2_5":6.8,"no2":3.9,"co":96.0,"o3":53.0,"so2":1.8,"mosquito_risk":7,"arthritis_risk":0,"migraine_risk":4,"frizz_risk":1,"updated_at":"2026-06-04T09:49:13.329700+05:30"},{"city":"Munnar","state":"Kerala","latitude":10.0889,"longitude":77.0595,"temp":18.0,"humidity":95,"rain":0.3,"pressure":857.7,"uv_index":8.7,"wind_gusts":43.2,"aqi":19,"pm10":1.8,"pm2_5":1.6,"no2":2.5,"co":108.0,"o3":50.0,"so2":1.2,"mosquito_risk":6,"arthritis_risk":10,"migraine_risk":7,"frizz_risk":1,"updated_at":"2026-06-04T09:49:13.329708+05:30"},{"city":"Silchar","state":"Assam","latitude":24.8333,"longitude":92.7789,"temp":29.6,"humidity":72,"rain":0.0,"pressure":1002.8,"uv_index":8.95,"wind_gusts":23.0,"aqi":116,"pm10":31.9,"pm2_5":23.5,"no2":1.1,"co":261.0,"o3":115.0,"so2":4.4,"mosquito_risk":7,"arthritis_risk":5,"migraine_risk":4,"frizz_risk":1,"updated_at":"2026-06-04T09:49:13.329714+05:30"},{"city":"Dibrugarh","state":"Assam","latitude":27.4728,"longitude":94.912,"temp":25.9,"humidity":88,"rain":0.1,"pressure":993.0,"uv_index":8.4,"wind_gusts":33.1,"aqi":85,"pm10":30.9,"pm2_5":26.5,"no2":1.6,"co":283.0,"o3":142.0,"so2":2.9,"mosquito_risk":10,"arthritis_risk":5,"migraine_risk":7,"frizz_risk":1,"updated_at":"2026-06-04T09:49:13.329721+05:30"}]