[{"city":"Delhi","state":"Delhi","latitude":28.6139,"longitude":77.209,"temp":42.0,"humidity":13,"rain":0.0,"pressure":980.0,"uv_index":7.75,"wind_gusts":43.9,"aqi":625,"pm10":577.4,"pm2_5":93.6,"no2":2.6,"co":218.0,"o3":175.0,"so2":12.2,"mosquito_risk":0,"arthritis_risk":5,"migraine_risk":10,"frizz_risk":0,"updated_at":"2026-05-24T12:53:18.005456+05:30"},{"city":"Mumbai","state":"Maharashtra","latitude":19.076,"longitude":72.8777,"temp":33.2,"humidity":62,"rain":0.0,"pressure":1010.7,"uv_index":7.15,"wind_gusts":46.8,"aqi":40,"pm10":13.9,"pm2_5":10.4,"no2":3.3,"co":212.0,"o3":98.0,"so2":6.4,"mosquito_risk":3,"arthritis_risk":0,"migraine_risk":4,"frizz_risk":1,"updated_at":"2026-05-24T12:53:18.005509+05:30"},{"city":"Bangalore","state":"Karnataka","latitude":12.9716,"longitude":77.5946,"temp":29.0,"humidity":59,"rain":0.0,"pressure":913.6,"uv_index":4.45,"wind_gusts":33.8,"aqi":52,"pm10":17.6,"pm2_5":13.0,"no2":1.4,"co":204.0,"o3":102.0,"so2":2.3,"mosquito_risk":4,"arthritis_risk":5,"migraine_risk":3,"frizz_risk":1,"updated_at":"2026-05-24T12:53:18.005526+05:30"},{"city":"Hyderabad","state":"Telangana","latitude":17.385,"longitude":78.4867,"temp":37.4,"humidity":32,"rain":0.0,"pressure":953.7,"uv_index":9.25,"wind_gusts":47.5,"aqi":78,"pm10":19.0,"pm2_5":14.6,"no2":1.2,"co":205.0,"o3":131.0,"so2":5.1,"mosquito_risk":0,"arthritis_risk":5,"migraine_risk":10,"frizz_risk":1,"updated_at":"2026-05-24T12:53:18.005536+05:30"},{"city":"Chennai","state":"Tamil Nadu","latitude":13.0827,"longitude":80.2707,"temp":38.1,"humidity":42,"rain":0.0,"pressure":1005.4,"uv_index":8.6,"wind_gusts":40.0,"aqi":80,"pm10":31.8,"pm2_5":25.0,"no2":4.0,"co":267.0,"o3":162.0,"so2":9.6,"mosquito_risk":0,"arthritis_risk":5,"migraine_risk":7,"frizz_risk":1,"updated_at":"2026-05-24T12:53:18.005545+05:30"},{"city":"Kolkata","state":"West Bengal","latitude":22.5726,"longitude":88.3639,"temp":36.0,"humidity":59,"rain":0.0,"pressure":1002.4,"uv_index":8.95,"wind_gusts":40.3,"aqi":94,"pm10":50.3,"pm2_5":35.9,"no2":1.7,"co":254.0,"o3":136.0,"so2":7.5,"mosquito_risk":0,"arthritis_risk":5,"migraine_risk":7,"frizz_risk":1,"updated_at":"2026-05-24T12:53:18.005552+05:30"},{"city":"Pune","state":"Maharashtra","latitude":18.5204,"longitude":73.8567,"temp":34.0,"humidity":42,"rain":0.2,"pressure":950.7,"uv_index":8.2,"wind_gusts":44.3,"aqi":38,"pm10":13.2,"pm2_5":8.6,"no2":1.2,"co":136.0,"o3":89.0,"so2":3.7,"mosquito_risk":3,"arthritis_risk":5,"migraine_risk":7,"frizz_risk":1,"updated_at":"2026-05-24T12:53:18.005559+05:30"},{"city":"Ahmedabad","state":"Gujarat","latitude":23.0225,"longitude":72.5714,"temp":39.0,"humidity":36,"rain":0.0,"pressure":1002.4,"uv_index":8.15,"wind_gusts":39.2,"aqi":61,"pm10":18.3,"pm2_5":12.8,"no2":0.9,"co":132.0,"o3":81.0,"so2":2.9,"mosquito_risk":0,"arthritis_risk":5,"migraine_risk":7,"frizz_risk":1,"updated_at":"2026-05-24T12:53:18.005566+05:30"},{"city":"Jaipur","state":"Rajasthan","latitude":26.9124,"longitude":75.7873,"temp":41.5,"humidity":15,"rain":0.0,"pressure":958.9,"uv_index":8.25,"wind_gusts":47.9,"aqi":194,"pm10":464.7,"pm2_5":86.4,"no2":0.7,"co":148.0,"o3":112.0,"so2":3.7,"mosquito_risk":0,"arthritis_risk":5,"migraine_risk":10,"frizz_risk":0,"updated_at":"2026-05-24T12:53:18.005580+05:30"},{"city":"Lucknow","state":"Uttar Pradesh","latitude":26.8467,"longitude":80.9462,"temp":42.0,"humidity":14,"rain":0.0,"pressure":989.2,"uv_index":8.2,"wind_gusts":48.6,"aqi":185,"pm10":339.9,"pm2_5":71.5,"no2":0.9,"co":206.0,"o3":168.0,"so2":8.4,"mosquito_risk":0,"arthritis_risk":5,"migraine_risk":10,"frizz_risk":0,"updated_at":"2026-05-24T12:53:18.005587+05:30"},{"city":"Kanpur","state":"Uttar Pradesh","latitude":26.4499,"longitude":80.3319,"temp":42.5,"humidity":13,"rain":0.0,"pressure":988.1,"uv_index":8.2,"wind_gusts":44.3,"aqi":514,"pm10":558.8,"pm2_5":89.9,"no2":1.2,"co":183.0,"o3":162.0,"so2":8.2,"mosquito_risk":0,"arthritis_risk":5,"migraine_risk":10,"frizz_risk":0,"updated_at":"2026-05-24T12:53:18.005594+05:30"},{"city":"Chandigarh","state":"Chandigarh","latitude":30.7333,"longitude":76.7794,"temp":39.3,"humidity":16,"rain":0.0,"pressure":965.7,"uv_index":7.75,"wind_gusts":47.9,"aqi":73,"pm10":46.8,"pm2_5":18.3,"no2":1.3,"co":173.0,"o3":150.0,"so2":7.1,"mosquito_risk":0,"arthritis_risk":5,"migraine_risk":10,"frizz_risk":0,"updated_at":"2026-05-24T12:53:18.005601+05:30"},{"city":"Srinagar","state":"Jammu and Kashmir","latitude":34.0837,"longitude":74.7973,"temp":23.6,"humidity":43,"rain":0.0,"pressure":844.4,"uv_index":8.7,"wind_gusts":29.9,"aqi":79,"pm10":24.4,"pm2_5":10.9,"no2":0.9,"co":192.0,"o3":143.0,"so2":2.6,"mosquito_risk":0,"arthritis_risk":5,"migraine_risk":7,"frizz_risk":0,"updated_at":"2026-05-24T12:53:18.005608+05:30"},{"city":"Jammu","state":"Jammu and Kashmir","latitude":32.7266,"longitude":74.857,"temp":36.5,"humidity":24,"rain":0.0,"pressure":970.0,"uv_index":8.55,"wind_gusts":36.4,"aqi":68,"pm10":51.2,"pm2_5":17.1,"no2":0.6,"co":184.0,"o3":141.0,"so2":2.3,"mosquito_risk":0,"arthritis_risk":5,"migraine_risk":10,"frizz_risk":0,"updated_at":"2026-05-24T12:53:18.005615+05:30"},{"city":"Amritsar","state":"Punjab","latitude":31.634,"longitude":74.8723,"temp":37.6,"humidity":22,"rain":0.0,"pressure":977.6,"uv_index":8.4,"wind_gusts":42.5,"aqi":92,"pm10":44.5,"pm2_5":18.3,"no2":0.8,"co":200.0,"o3":152.0,"so2":3.3,"mosquito_risk":0,"arthritis_risk":5,"migraine_risk":10,"frizz_risk":0,"updated_at":"2026-05-24T12:53:18.005622+05:30"},{"city":"Ludhiana","state":"Punjab","latitude":30.901,"longitude":75.8573,"temp":40.0,"humidity":15,"rain":0.0,"pressure":975.5,"uv_index":8.0,"wind_gusts":30.6,"aqi":80,"pm10":48.9,"pm2_5":19.1,"no2":0.9,"co":214.0,"o3":153.0,"so2":4.1,"mosquito_risk":0,"arthritis_risk":5,"migraine_risk":10,"frizz_risk":0,"updated_at":"2026-05-24T12:53:18.005628+05:30"},{"city":"Jalandhar","state":"Punjab","latitude":31.326,"longitude":75.5762,"temp":40.0,"humidity":18,"rain":0.0,"pressure":976.4,"uv_index":8.2,"wind_gusts":30.6,"aqi":86,"pm10":60.5,"pm2_5":21.9,"no2":0.8,"co":237.0,"o3":158.0,"so2":3.0,"mosquito_risk":0,"arthritis_risk":5,"migraine_risk":10,"frizz_risk":0,"updated_at":"2026-05-24T12:53:18.005635+05:30"},{"city":"Dehradun","state":"Uttarakhand","latitude":30.6284,"longitude":78.0322,"temp":28.2,"humidity":27,"rain":0.0,"pressure":832.5,"uv_index":8.2,"wind_gusts":47.2,"aqi":59,"pm10":35.9,"pm2_5":11.8,"no2":0.4,"co":162.0,"o3":129.0,"so2":0.7,"mosquito_risk":4,"arthritis_risk":5,"migraine_risk":7,"frizz_risk":0,"updated_at":"2026-05-24T12:53:18.005642+05:30"},{"city":"Shimla","state":"Himachal Pradesh","latitude":31.1048,"longitude":77.1734,"temp":24.5,"humidity":25,"rain":0.0,"pressure":788.8,"uv_index":8.25,"wind_gusts":65.5,"aqi":60,"pm10":41.8,"pm2_5":14.3,"no2":0.4,"co":138.0,"o3":127.0,"so2":1.7,"mosquito_risk":0,"arthritis_risk":5,"migraine_risk":7,"frizz_risk":0,"updated_at":"2026-05-24T12:53:18.005653+05:30"},{"city":"Manali","state":"Himachal Pradesh","latitude":32.2396,"longitude":77.1887,"temp":24.8,"humidity":29,"rain":0.1,"pressure":821.6,"uv_index":9.45,"wind_gusts":49.7,"aqi":72,"pm10":27.1,"pm2_5":8.8,"no2":2.2,"co":124.0,"o3":140.0,"so2":0.3,"mosquito_risk":3,"arthritis_risk":5,"migraine_risk":7,"frizz_risk":0,"updated_at":"2026-05-24T12:53:18.005660+05:30"},{"city":"Gurgaon","state":"Haryana","latitude":28.4595,"longitude":77.0266,"temp":41.2,"humidity":14,"rain":0.0,"pressure":978.9,"uv_index":7.8,"wind_gusts":38.9,"aqi":1124,"pm10":1706.2,"pm2_5":214.7,"no2":2.3,"co":208.0,"o3":178.0,"so2":11.9,"mosquito_risk":0,"arthritis_risk":5,"migraine_risk":10,"frizz_risk":0,"updated_at":"2026-05-24T12:53:18.005667+05:30"},{"city":"Noida","state":"Uttar Pradesh","latitude":28.5355,"longitude":77.391,"temp":42.2,"humidity":13,"rain":0.0,"pressure":981.2,"uv_index":7.75,"wind_gusts":40.0,"aqi":1124,"pm10":1706.2,"pm2_5":214.7,"no2":2.3,"co":235.0,"o3":178.0,"so2":11.9,"mosquito_risk":0,"arthritis_risk":5,"migraine_risk":10,"frizz_risk":0,"updated_at":"2026-05-24T12:53:18.005673+05:30"},{"city":"Ghaziabad","state":"Uttar Pradesh","latitude":28.6692,"longitude":77.4538,"temp":41.4,"humidity":15,"rain":0.0,"pressure":979.4,"uv_index":7.75,"wind_gusts":42.8,"aqi":439,"pm10":451.7,"pm2_5":80.6,"no2":2.7,"co":217.0,"o3":186.0,"so2":14.7,"mosquito_risk":0,"arthritis_risk":5,"migraine_risk":10,"frizz_risk":0,"updated_at":"2026-05-24T12:53:18.005679+05:30"},{"city":"Faridabad","state":"Haryana","latitude":28.4089,"longitude":77.3178,"temp":41.8,"humidity":13,"rain":0.0,"pressure":980.6,"uv_index":7.8,"wind_gusts":46.1,"aqi":1124,"pm10":1706.2,"pm2_5":214.7,"no2":2.3,"co":220.0,"o3":178.0,"so2":11.9,"mosquito_risk":0,"arthritis_risk":5,"migraine_risk":10,"frizz_risk":0,"updated_at":"2026-05-24T12:53:18.005686+05:30"},{"city":"Meerut","state":"Uttar Pradesh","latitude":28.9845,"longitude":77.7064,"temp":40.3,"humidity":17,"rain":0.0,"pressure":978.2,"uv_index":7.65,"wind_gusts":45.4,"aqi":439,"pm10":451.7,"pm2_5":80.6,"no2":2.7,"co":202.0,"o3":186.0,"so2":14.7,"mosquito_risk":0,"arthritis_risk":5,"migraine_risk":10,"frizz_risk":0,"updated_at":"2026-05-24T12:53:18.005694+05:30"},{"city":"Agra","state":"Uttar Pradesh","latitude":27.1767,"longitude":78.0081,"temp":42.4,"humidity":12,"rain":0.0,"pressure":984.8,"uv_index":8.1,"wind_gusts":41.8,"aqi":810,"pm10":998.4,"pm2_5":123.9,"no2":0.5,"co":195.0,"o3":171.0,"so2":9.1,"mosquito_risk":0,"arthritis_risk":5,"migraine_risk":10,"frizz_risk":0,"updated_at":"2026-05-24T12:53:18.005701+05:30"},{"city":"Varanasi","state":"Uttar Pradesh","latitude":25.3176,"longitude":82.9739,"temp":43.0,"humidity":15,"rain":0.0,"pressure":993.1,"uv_index":8.75,"wind_gusts":46.4,"aqi":152,"pm10":314.8,"pm2_5":61.9,"no2":0.5,"co":202.0,"o3":157.0,"so2":6.3,"mosquito_risk":0,"arthritis_risk":5,"migraine_risk":10,"frizz_risk":0,"updated_at":"2026-05-24T12:53:18.005709+05:30"},{"city":"Prayagraj","state":"Uttar Pradesh","latitude":25.4358,"longitude":81.8463,"temp":42.6,"humidity":15,"rain":0.0,"pressure":992.0,"uv_index":8.6,"wind_gusts":46.4,"aqi":154,"pm10":321.3,"pm2_5":66.8,"no2":0.6,"co":179.0,"o3":159.0,"so2":7.0,"mosquito_risk":0,"arthritis_risk":5,"migraine_risk":10,"frizz_risk":0,"updated_at":"2026-05-24T12:53:18.005715+05:30"},{"city":"Gorakhpur","state":"Uttar Pradesh","latitude":26.7606,"longitude":83.3732,"temp":38.9,"humidity":31,"rain":0.0,"pressure":992.9,"uv_index":8.6,"wind_gusts":34.9,"aqi":152,"pm10":140.2,"pm2_5":63.3,"no2":1.6,"co":287.0,"o3":220.0,"so2":12.8,"mosquito_risk":0,"arthritis_risk":5,"migraine_risk":10,"frizz_risk":1,"updated_at":"2026-05-24T12:53:18.005739+05:30"},{"city":"Bareilly","state":"Uttar Pradesh","latitude":28.367,"longitude":79.4304,"temp":38.3,"humidity":24,"rain":0.0,"pressure":982.8,"uv_index":8.05,"wind_gusts":43.6,"aqi":123,"pm10":47.4,"pm2_5":26.7,"no2":1.2,"co":227.0,"o3":189.0,"so2":9.5,"mosquito_risk":0,"arthritis_risk":5,"migraine_risk":10,"frizz_risk":0,"updated_at":"2026-05-24T12:53:18.005746+05:30"},{"city":"Aligarh","state":"Uttar Pradesh","latitude":27.8974,"longitude":78.088,"temp":41.0,"humidity":17,"rain":0.0,"pressure":982.5,"uv_index":7.9,"wind_gusts":42.8,"aqi":719,"pm10":1154.8,"pm2_5":155.5,"no2":1.8,"co":220.0,"o3":191.0,"so2":15.8,"mosquito_risk":0,"arthritis_risk":5,"migraine_risk":10,"frizz_risk":0,"updated_at":"2026-05-24T12:53:18.005753+05:30"},{"city":"Moradabad","state":"Uttar Pradesh","latitude":28.8386,"longitude":78.7733,"temp":38.7,"humidity":26,"rain":0.0,"pressure":979.9,"uv_index":7.85,"wind_gusts":48.2,"aqi":133,"pm10":67.8,"pm2_5":33.4,"no2":1.9,"co":246.0,"o3":187.0,"so2":9.9,"mosquito_risk":0,"arthritis_risk":5,"migraine_risk":10,"frizz_risk":0,"updated_at":"2026-05-24T12:53:18.005760+05:30"},{"city":"Saharanpur","state":"Uttar Pradesh","latitude":29.9637,"longitude":77.546,"temp":39.2,"humidity":19,"rain":0.0,"pressure":971.9,"uv_index":7.4,"wind_gusts":54.0,"aqi":84,"pm10":88.7,"pm2_5":24.2,"no2":2.0,"co":197.0,"o3":170.0,"so2":9.4,"mosquito_risk":0,"arthritis_risk":5,"migraine_risk":10,"frizz_risk":0,"updated_at":"2026-05-24T12:53:18.005766+05:30"},{"city":"Jhansi","state":"Uttar Pradesh","latitude":25.4484,"longitude":78.5685,"temp":42.0,"humidity":15,"rain":0.0,"pressure":976.1,"uv_index":8.45,"wind_gusts":45.7,"aqi":92,"pm10":135.0,"pm2_5":39.6,"no2":0.9,"co":142.0,"o3":124.0,"so2":5.7,"mosquito_risk":0,"arthritis_risk":5,"migraine_risk":10,"frizz_risk":0,"updated_at":"2026-05-24T12:53:21.335190+05:30"},{"city":"Surat","state":"Gujarat","latitude":21.1702,"longitude":72.8311,"temp":36.7,"humidity":47,"rain":0.0,"pressure":1008.0,"uv_index":7.7,"wind_gusts":43.9,"aqi":55,"pm10":21.1,"pm2_5":15.9,"no2":8.7,"co":293.0,"o3":62.0,"so2":32.2,"mosquito_risk":0,"arthritis_risk":0,"migraine_risk":7,"frizz_risk":1,"updated_at":"2026-05-24T12:53:21.335226+05:30"},{"city":"Vadodara","state":"Gujarat","latitude":22.3072,"longitude":73.1812,"temp":39.3,"humidity":34,"rain":0.0,"pressure":1004.6,"uv_index":8.1,"wind_gusts":42.8,"aqi":55,"pm10":21.7,"pm2_5":14.6,"no2":1.3,"co":131.0,"o3":94.0,"so2":4.9,"mosquito_risk":0,"arthritis_risk":5,"migraine_risk":7,"frizz_risk":1,"updated_at":"2026-05-24T12:53:21.335237+05:30"},{"city":"Rajkot","state":"Gujarat","latitude":22.3039,"longitude":70.8022,"temp":38.2,"humidity":38,"rain":0.0,"pressure":995.2,"uv_index":7.7,"wind_gusts":47.2,"aqi":60,"pm10":17.6,"pm2_5":11.6,"no2":0.8,"co":116.0,"o3":80.0,"so2":4.0,"mosquito_risk":0,"arthritis_risk":5,"migraine_risk":10,"frizz_risk":1,"updated_at":"2026-05-24T12:53:21.335246+05:30"},{"city":"Thane","state":"Maharashtra","latitude":19.2183,"longitude":72.9781,"temp":35.2,"humidity":53,"rain":0.1,"pressure":1009.8,"uv_index":7.3,"wind_gusts":40.0,"aqi":40,"pm10":13.9,"pm2_5":10.4,"no2":3.3,"co":222.0,"o3":98.0,"so2":6.4,"mosquito_risk":3,"arthritis_risk":0,"migraine_risk":7,"frizz_risk":1,"updated_at":"2026-05-24T12:53:21.335254+05:30"},{"city":"Nagpur","state":"Maharashtra","latitude":21.1458,"longitude":79.0882,"temp":43.0,"humidity":14,"rain":0.0,"pressure":971.7,"uv_index":8.9,"wind_gusts":46.8,"aqi":67,"pm10":60.5,"pm2_5":26.8,"no2":3.4,"co":153.0,"o3":145.0,"so2":14.3,"mosquito_risk":0,"arthritis_risk":5,"migraine_risk":10,"frizz_risk":0,"updated_at":"2026-05-24T12:53:21.335262+05:30"},{"city":"Nashik","state":"Maharashtra","latitude":19.9975,"longitude":73.7898,"temp":32.7,"humidity":56,"rain":0.0,"pressure":948.2,"uv_index":8.15,"wind_gusts":46.8,"aqi":32,"pm10":10.3,"pm2_5":6.5,"no2":0.6,"co":125.0,"o3":75.0,"so2":0.9,"mosquito_risk":0,"arthritis_risk":5,"migraine_risk":7,"frizz_risk":1,"updated_at":"2026-05-24T12:53:21.335269+05:30"},{"city":"Aurangabad","state":"Maharashtra","latitude":19.8762,"longitude":75.3433,"temp":38.0,"humidity":22,"rain":0.0,"pressure":946.0,"uv_index":8.95,"wind_gusts":49.0,"aqi":51,"pm10":25.7,"pm2_5":12.4,"no2":0.7,"co":134.0,"o3":107.0,"so2":3.0,"mosquito_risk":0,"arthritis_risk":5,"migraine_risk":10,"frizz_risk":0,"updated_at":"2026-05-24T12:53:21.335277+05:30"},{"city":"Solapur","state":"Maharashtra","latitude":17.6599,"longitude":75.9064,"temp":36.7,"humidity":36,"rain":0.0,"pressure":959.0,"uv_index":9.05,"wind_gusts":46.8,"aqi":67,"pm10":22.9,"pm2_5":15.9,"no2":1.0,"co":141.0,"o3":111.0,"so2":2.8,"mosquito_risk":0,"arthritis_risk":5,"migraine_risk":10,"frizz_risk":1,"updated_at":"2026-05-24T12:53:21.335285+05:30"},{"city":"Kolhapur","state":"Maharashtra","latitude":16.705,"longitude":74.2433,"temp":31.8,"humidity":53,"rain":0.0,"pressure":951.0,"uv_index":8.7,"wind_gusts":42.8,"aqi":40,"pm10":13.0,"pm2_5":9.1,"no2":1.1,"co":139.0,"o3":83.0,"so2":1.5,"mosquito_risk":0,"arthritis_risk":5,"migraine_risk":7,"frizz_risk":1,"updated_at":"2026-05-24T12:53:21.335292+05:30"},{"city":"Goa","state":"Goa","latitude":15.2993,"longitude":74.124,"temp":32.5,"humidity":63,"rain":0.1,"pressure":1000.2,"uv_index":5.75,"wind_gusts":28.8,"aqi":39,"pm10":12.8,"pm2_5":8.8,"no2":0.5,"co":164.0,"o3":67.0,"so2":1.0,"mosquito_risk":6,"arthritis_risk":5,"migraine_risk":0,"frizz_risk":1,"updated_at":"2026-05-24T12:53:21.335300+05:30"},{"city":"Jodhpur","state":"Rajasthan","latitude":26.2389,"longitude":73.0243,"temp":39.8,"humidity":19,"rain":0.0,"pressure":982.4,"uv_index":8.45,"wind_gusts":54.7,"aqi":183,"pm10":433.1,"pm2_5":83.1,"no2":0.7,"co":124.0,"o3":98.0,"so2":3.7,"mosquito_risk":0,"arthritis_risk":5,"migraine_risk":10,"frizz_risk":0,"updated_at":"2026-05-24T12:53:21.335308+05:30"},{"city":"Udaipur","state":"Rajasthan","latitude":24.5854,"longitude":73.7125,"temp":37.5,"humidity":25,"rain":0.0,"pressure":948.0,"uv_index":8.8,"wind_gusts":54.0,"aqi":79,"pm10":54.2,"pm2_5":21.4,"no2":0.5,"co":123.0,"o3":98.0,"so2":3.0,"mosquito_risk":0,"arthritis_risk":5,"migraine_risk":10,"frizz_risk":0,"updated_at":"2026-05-24T12:53:21.335315+05:30"},{"city":"Kota","state":"Rajasthan","latitude":25.2138,"longitude":75.8648,"temp":42.5,"humidity":17,"rain":0.0,"pressure":978.0,"uv_index":8.4,"wind_gusts":44.3,"aqi":89,"pm10":134.1,"pm2_5":39.3,"no2":0.8,"co":133.0,"o3":104.0,"so2":4.2,"mosquito_risk":0,"arthritis_risk":5,"migraine_risk":10,"frizz_risk":0,"updated_at":"2026-05-24T12:53:21.335322+05:30"},{"city":"Bikaner","state":"Rajasthan","latitude":28.0229,"longitude":73.3119,"temp":43.0,"humidity":11,"rain":0.0,"pressure":978.4,"uv_index":8.45,"wind_gusts":57.2,"aqi":152,"pm10":183.5,"pm2_5":85.0,"no2":0.5,"co":122.0,"o3":105.0,"so2":3.3,"mosquito_risk":0,"arthritis_risk":5,"migraine_risk":10,"frizz_risk":0,"updated_at":"2026-05-24T12:53:21.335330+05:30"},{"city":"Ajmer","state":"Rajasthan","latitude":26.4499,"longitude":74.6399,"temp":38.1,"humidity":19,"rain":0.0,"pressure":954.9,"uv_index":8.4,"wind_gusts":63.0,"aqi":111,"pm10":136.4,"pm2_5":43.8,"no2":0.5,"co":129.0,"o3":99.0,"so2":3.2,"mosquito_risk":0,"arthritis_risk":5,"migraine_risk":10,"frizz_risk":0,"updated_at":"2026-05-24T12:53:21.335337+05:30"},{"city":"Gwalior","state":"Madhya Pradesh","latitude":26.2183,"longitude":78.1828,"temp":42.2,"humidity":14,"rain":0.0,"pressure":980.9,"uv_index":8.25,"wind_gusts":46.1,"aqi":108,"pm10":127.6,"pm2_5":37.8,"no2":0.6,"co":174.0,"o3":142.0,"so2":5.6,"mosquito_risk":0,"arthritis_risk":5,"migraine_risk":10,"frizz_risk":0,"updated_at":"2026-05-24T12:53:21.335344+05:30"},{"city":"Indore","state":"Madhya Pradesh","latitude":22.7196,"longitude":75.8577,"temp":39.0,"humidity":22,"rain":0.0,"pressure":949.6,"uv_index":8.7,"wind_gusts":45.4,"aqi":63,"pm10":48.3,"pm2_5":19.8,"no2":0.8,"co":149.0,"o3":114.0,"so2":4.5,"mosquito_risk":0,"arthritis_risk":5,"migraine_risk":10,"frizz_risk":0,"updated_at":"2026-05-24T12:53:21.335350+05:30"},{"city":"Bhopal","state":"Madhya Pradesh","latitude":23.2599,"longitude":77.4126,"temp":41.5,"humidity":14,"rain":0.0,"pressure":953.8,"uv_index":8.7,"wind_gusts":45.7,"aqi":76,"pm10":85.9,"pm2_5":27.9,"no2":0.6,"co":142.0,"o3":117.0,"so2":3.5,"mosquito_risk":0,"arthritis_risk":5,"migraine_risk":10,"frizz_risk":0,"updated_at":"2026-05-24T12:53:21.335357+05:30"},{"city":"Jabalpur","state":"Madhya Pradesh","latitude":23.1815,"longitude":79.9864,"temp":42.2,"humidity":14,"rain":0.0,"pressure":960.5,"uv_index":8.85,"wind_gusts":38.5,"aqi":76,"pm10":89.6,"pm2_5":32.0,"no2":0.7,"co":148.0,"o3":135.0,"so2":5.8,"mosquito_risk":0,"arthritis_risk":5,"migraine_risk":10,"frizz_risk":0,"updated_at":"2026-05-24T12:53:21.335363+05:30"},{"city":"Ujjain","state":"Madhya Pradesh","latitude":23.1765,"longitude":75.7885,"temp":39.4,"humidity":25,"rain":0.0,"pressure":954.9,"uv_index":8.6,"wind_gusts":45.4,"aqi":65,"pm10":45.4,"pm2_5":19.7,"no2":0.6,"co":141.0,"o3":111.0,"so2":4.5,"mosquito_risk":0,"arthritis_risk":5,"migraine_risk":10,"frizz_risk":0,"updated_at":"2026-05-24T12:53:21.335371+05:30"},{"city":"Visakhapatnam","state":"Andhra Pradesh","latitude":17.6868,"longitude":83.2185,"temp":38.2,"humidity":52,"rain":0.0,"pressure":999.7,"uv_index":9.1,"wind_gusts":32.8,"aqi":128,"pm10":81.3,"pm2_5":72.9,"no2":15.5,"co":1295.0,"o3":264.0,"so2":68.2,"mosquito_risk":0,"arthritis_risk":5,"migraine_risk":10,"frizz_risk":1,"updated_at":"2026-05-24T12:53:21.335378+05:30"},{"city":"Vijayawada","state":"Andhra Pradesh","latitude":16.5062,"longitude":80.648,"temp":41.0,"humidity":32,"rain":0.0,"pressure":999.5,"uv_index":9.1,"wind_gusts":49.3,"aqi":105,"pm10":31.3,"pm2_5":25.8,"no2":1.5,"co":203.0,"o3":154.0,"so2":6.7,"mosquito_risk":0,"arthritis_risk":5,"migraine_risk":10,"frizz_risk":1,"updated_at":"2026-05-24T12:53:21.335385+05:30"},{"city":"Guntur","state":"Andhra Pradesh","latitude":16.3067,"longitude":80.4365,"temp":40.9,"humidity":32,"rain":0.0,"pressure":1000.8,"uv_index":9.15,"wind_gusts":48.2,"aqi":97,"pm10":28.6,"pm2_5":22.9,"no2":1.3,"co":196.0,"o3":146.0,"so2":5.6,"mosquito_risk":0,"arthritis_risk":5,"migraine_risk":7,"frizz_risk":1,"updated_at":"2026-05-24T12:53:21.335393+05:30"},{"city":"Nellore","state":"Andhra Pradesh","latitude":14.4426,"longitude":79.9865,"temp":39.4,"humidity":34,"rain":0.0,"pressure":1003.7,"uv_index":8.9,"wind_gusts":45.0,"aqi":66,"pm10":21.9,"pm2_5":18.1,"no2":1.9,"co":180.0,"o3":144.0,"so2":7.0,"mosquito_risk":0,"arthritis_risk":5,"migraine_risk":7,"frizz_risk":1,"updated_at":"2026-05-24T12:53:21.335401+05:30"},{"city":"Kurnool","state":"Andhra Pradesh","latitude":15.8281,"longitude":78.0373,"temp":36.8,"humidity":38,"rain":0.0,"pressure":977.3,"uv_index":9.05,"wind_gusts":47.2,"aqi":61,"pm10":18.7,"pm2_5":15.3,"no2":1.4,"co":162.0,"o3":132.0,"so2":8.3,"mosquito_risk":0,"arthritis_risk":5,"migraine_risk":10,"frizz_risk":1,"updated_at":"2026-05-24T12:53:21.335409+05:30"},{"city":"Kakinada","state":"Andhra Pradesh","latitude":16.9891,"longitude":82.2475,"temp":41.5,"humidity":32,"rain":0.0,"pressure":1003.0,"uv_index":8.65,"wind_gusts":36.4,"aqi":87,"pm10":41.1,"pm2_5":35.0,"no2":2.9,"co":210.0,"o3":197.0,"so2":6.8,"mosquito_risk":0,"arthritis_risk":5,"migraine_risk":7,"frizz_risk":1,"updated_at":"2026-05-24T12:53:21.335417+05:30"},{"city":"Tirupati","state":"Andhra Pradesh","latitude":13.6288,"longitude":79.4192,"temp":38.8,"humidity":34,"rain":0.0,"pressure":989.7,"uv_index":9.1,"wind_gusts":42.5,"aqi":69,"pm10":27.4,"pm2_5":22.9,"no2":1.9,"co":163.0,"o3":138.0,"so2":3.9,"mosquito_risk":0,"arthritis_risk":5,"migraine_risk":10,"frizz_risk":1,"updated_at":"2026-05-24T12:53:21.335424+05:30"},{"city":"Warangal","state":"Telangana","latitude":17.9689,"longitude":79.5941,"temp":40.8,"humidity":22,"rain":0.0,"pressure":977.3,"uv_index":9.0,"wind_gusts":49.3,"aqi":104,"pm10":39.1,"pm2_5":23.6,"no2":1.6,"co":207.0,"o3":149.0,"so2":6.2,"mosquito_risk":0,"arthritis_risk":5,"migraine_risk":10,"frizz_risk":0,"updated_at":"2026-05-24T12:53:21.335431+05:30"},{"city":"Nizamabad","state":"Telangana","latitude":18.6725,"longitude":78.0941,"temp":39.5,"humidity":23,"rain":0.0,"pressure":965.3,"uv_index":9.1,"wind_gusts":45.4,"aqi":79,"pm10":38.4,"pm2_5":18.5,"no2":0.8,"co":155.0,"o3":126.0,"so2":3.6,"mosquito_risk":0,"arthritis_risk":5,"migraine_risk":10,"frizz_risk":0,"updated_at":"2026-05-24T12:53:21.335438+05:30"},{"city":"Mysore","state":"Karnataka","latitude":12.2958,"longitude":76.6396,"temp":31.7,"humidity":51,"rain":0.0,"pressure":930.4,"uv_index":7.55,"wind_gusts":42.5,"aqi":42,"pm10":13.6,"pm2_5":8.5,"no2":1.1,"co":140.0,"o3":87.0,"so2":1.4,"mosquito_risk":0,"arthritis_risk":5,"migraine_risk":7,"frizz_risk":1,"updated_at":"2026-05-24T12:53:21.335444+05:30"},{"city":"Mangalore","state":"Karnataka","latitude":12.9141,"longitude":74.856,"temp":30.4,"humidity":72,"rain":0.0,"pressure":1008.8,"uv_index":8.3,"wind_gusts":35.3,"aqi":55,"pm10":11.9,"pm2_5":7.9,"no2":1.0,"co":119.0,"o3":70.0,"so2":1.2,"mosquito_risk":3,"arthritis_risk":0,"migraine_risk":4,"frizz_risk":1,"updated_at":"2026-05-24T12:53:21.335451+05:30"},{"city":"Hubli-Dharwad","state":"Karnataka","latitude":15.3647,"longitude":75.124,"temp":29.0,"humidity":61,"rain":0.0,"pressure":943.4,"uv_index":9.1,"wind_gusts":35.6,"aqi":26,"pm10":8.9,"pm2_5":6.2,"no2":0.9,"co":139.0,"o3":75.0,"so2":1.0,"mosquito_risk":7,"arthritis_risk":5,"migraine_risk":7,"frizz_risk":1,"updated_at":"2026-05-24T12:53:21.335459+05:30"},{"city":"Belgaum","state":"Karnataka","latitude":15.8497,"longitude":74.4977,"temp":31.0,"humidity":51,"rain":0.0,"pressure":929.0,"uv_index":9.05,"wind_gusts":38.2,"aqi":24,"pm10":7.3,"pm2_5":5.3,"no2":0.8,"co":129.0,"o3":71.0,"so2":1.2,"mosquito_risk":0,"arthritis_risk":5,"migraine_risk":7,"frizz_risk":1,"updated_at":"2026-05-24T12:53:24.659042+05:30"},{"city":"Coimbatore","state":"Tamil Nadu","latitude":11.0168,"longitude":76.9558,"temp":32.8,"humidity":48,"rain":0.1,"pressure":962.6,"uv_index":8.6,"wind_gusts":48.2,"aqi":36,"pm10":13.0,"pm2_5":8.6,"no2":1.0,"co":142.0,"o3":86.0,"so2":1.8,"mosquito_risk":3,"arthritis_risk":5,"migraine_risk":7,"frizz_risk":1,"updated_at":"2026-05-24T12:53:24.659078+05:30"},{"city":"Madurai","state":"Tamil Nadu","latitude":9.9252,"longitude":78.1198,"temp":38.2,"humidity":34,"rain":0.0,"pressure":992.5,"uv_index":8.9,"wind_gusts":44.3,"aqi":61,"pm10":13.1,"pm2_5":7.4,"no2":0.7,"co":138.0,"o3":102.0,"so2":1.6,"mosquito_risk":0,"arthritis_risk":5,"migraine_risk":10,"frizz_risk":1,"updated_at":"2026-05-24T12:53:24.659089+05:30"},{"city":"Trichy","state":"Tamil Nadu","latitude":10.7905,"longitude":78.7047,"temp":36.5,"humidity":43,"rain":0.0,"pressure":999.0,"uv_index":8.4,"wind_gusts":52.6,"aqi":53,"pm10":14.6,"pm2_5":9.5,"no2":1.1,"co":153.0,"o3":100.0,"so2":2.2,"mosquito_risk":0,"arthritis_risk":5,"migraine_risk":10,"frizz_risk":1,"updated_at":"2026-05-24T12:53:24.659098+05:30"},{"city":"Salem","state":"Tamil Nadu","latitude":11.6643,"longitude":78.146,"temp":36.4,"humidity":41,"rain":0.0,"pressure":977.5,"uv_index":8.9,"wind_gusts":49.0,"aqi":67,"pm10":13.8,"pm2_5":9.7,"no2":2.5,"co":152.0,"o3":112.0,"so2":7.9,"mosquito_risk":0,"arthritis_risk":5,"migraine_risk":10,"frizz_risk":1,"updated_at":"2026-05-24T12:53:24.659107+05:30"},{"city":"Tirunelveli","state":"Tamil Nadu","latitude":8.7139,"longitude":77.7567,"temp":33.5,"humidity":51,"rain":0.2,"pressure":1003.7,"uv_index":8.85,"wind_gusts":44.3,"aqi":28,"pm10":5.4,"pm2_5":4.0,"no2":0.9,"co":116.0,"o3":79.0,"so2":1.2,"mosquito_risk":3,"arthritis_risk":5,"migraine_risk":4,"frizz_risk":1,"updated_at":"2026-05-24T12:53:24.659114+05:30"},{"city":"Vellore","state":"Tamil Nadu","latitude":12.9165,"longitude":79.1325,"temp":37.5,"humidity":37,"rain":0.0,"pressure":983.5,"uv_index":9.05,"wind_gusts":47.2,"aqi":67,"pm10":19.4,"pm2_5":15.1,"no2":0.8,"co":161.0,"o3":124.0,"so2":2.3,"mosquito_risk":0,"arthritis_risk":5,"migraine_risk":10,"frizz_risk":1,"updated_at":"2026-05-24T12:53:24.659122+05:30"},{"city":"Erode","state":"Tamil Nadu","latitude":11.341,"longitude":77.7172,"temp":37.1,"humidity":38,"rain":0.0,"pressure":988.8,"uv_index":8.95,"wind_gusts":62.6,"aqi":52,"pm10":15.3,"pm2_5":9.8,"no2":1.2,"co":164.0,"o3":106.0,"so2":1.9,"mosquito_risk":0,"arthritis_risk":5,"migraine_risk":10,"frizz_risk":1,"updated_at":"2026-05-24T12:53:24.659130+05:30"},{"city":"Kochi","state":"Kerala","latitude":9.9312,"longitude":76.2673,"temp":27.2,"humidity":87,"rain":0.3,"pressure":1011.6,"uv_index":8.6,"wind_gusts":36.4,"aqi":54,"pm10":11.0,"pm2_5":7.4,"no2":2.2,"co":103.0,"o3":75.0,"so2":2.5,"mosquito_risk":10,"arthritis_risk":0,"migraine_risk":4,"frizz_risk":1,"updated_at":"2026-05-24T12:53:24.659138+05:30"},{"city":"Thiruvananthapuram","state":"Kerala","latitude":8.5241,"longitude":76.9366,"temp":28.0,"humidity":84,"rain":0.2,"pressure":1010.7,"uv_index":8.3,"wind_gusts":46.4,"aqi":36,"pm10":13.0,"pm2_5":7.5,"no2":0.7,"co":101.0,"o3":71.0,"so2":0.7,"mosquito_risk":10,"arthritis_risk":0,"migraine_risk":4,"frizz_risk":1,"updated_at":"2026-05-24T12:53:24.659145+05:30"},{"city":"Kozhikode","state":"Kerala","latitude":11.2588,"longitude":75.7804,"temp":30.3,"humidity":71,"rain":0.0,"pressure":1009.8,"uv_index":8.35,"wind_gusts":37.4,"aqi":34,"pm10":12.1,"pm2_5":7.1,"no2":0.7,"co":136.0,"o3":74.0,"so2":0.7,"mosquito_risk":3,"arthritis_risk":0,"migraine_risk":4,"frizz_risk":1,"updated_at":"2026-05-24T12:53:24.659152+05:30"},{"city":"Thrissur","state":"Kerala","latitude":10.5276,"longitude":76.2144,"temp":29.5,"humidity":76,"rain":0.1,"pressure":1009.5,"uv_index":8.2,"wind_gusts":37.4,"aqi":57,"pm10":11.3,"pm2_5":7.9,"no2":1.2,"co":112.0,"o3":70.0,"so2":1.3,"mosquito_risk":10,"arthritis_risk":0,"migraine_risk":4,"frizz_risk":1,"updated_at":"2026-05-24T12:53:24.659160+05:30"},{"city":"Kannur","state":"Kerala","latitude":11.8745,"longitude":75.3704,"temp":30.9,"humidity":69,"rain":0.0,"pressure":1009.0,"uv_index":7.2,"wind_gusts":41.4,"aqi":49,"pm10":11.8,"pm2_5":7.6,"no2":1.1,"co":120.0,"o3":66.0,"so2":1.1,"mosquito_risk":3,"arthritis_risk":0,"migraine_risk":4,"frizz_risk":1,"updated_at":"2026-05-24T12:53:24.659166+05:30"},{"city":"Patna","state":"Bihar","latitude":25.5941,"longitude":85.1376,"temp":39.8,"humidity":30,"rain":0.0,"pressure":996.1,"uv_index":8.8,"wind_gusts":31.7,"aqi":164,"pm10":177.4,"pm2_5":67.3,"no2":2.1,"co":262.0,"o3":228.0,"so2":14.1,"mosquito_risk":0,"arthritis_risk":5,"migraine_risk":10,"frizz_risk":1,"updated_at":"2026-05-24T12:53:24.659173+05:30"},{"city":"Gaya","state":"Bihar","latitude":24.7914,"longitude":85.0002,"temp":41.1,"humidity":20,"rain":0.0,"pressure":989.9,"uv_index":8.65,"wind_gusts":30.6,"aqi":156,"pm10":322.2,"pm2_5":63.3,"no2":0.4,"co":198.0,"o3":171.0,"so2":7.4,"mosquito_risk":0,"arthritis_risk":5,"migraine_risk":10,"frizz_risk":0,"updated_at":"2026-05-24T12:53:24.659181+05:30"},{"city":"Muzaffarpur","state":"Bihar","latitude":26.1209,"longitude":85.3647,"temp":35.2,"humidity":57,"rain":0.0,"pressure":996.4,"uv_index":8.8,"wind_gusts":29.9,"aqi":160,"pm10":112.5,"pm2_5":58.4,"no2":2.3,"co":404.0,"o3":214.0,"so2":15.8,"mosquito_risk":0,"arthritis_risk":5,"migraine_risk":10,"frizz_risk":1,"updated_at":"2026-05-24T12:53:24.659187+05:30"},{"city":"Bhagalpur","state":"Bihar","latitude":25.2425,"longitude":87.0117,"temp":37.7,"humidity":46,"rain":0.0,"pressure":996.7,"uv_index":8.75,"wind_gusts":25.6,"aqi":154,"pm10":109.9,"pm2_5":58.2,"no2":3.1,"co":312.0,"o3":214.0,"so2":25.4,"mosquito_risk":0,"arthritis_risk":5,"migraine_risk":10,"frizz_risk":1,"updated_at":"2026-05-24T12:53:24.659194+05:30"},{"city":"Ranchi","state":"Jharkhand","latitude":23.3441,"longitude":85.3096,"temp":36.5,"humidity":25,"rain":0.0,"pressure":936.7,"uv_index":9.3,"wind_gusts":34.6,"aqi":112,"pm10":200.7,"pm2_5":48.1,"no2":0.6,"co":169.0,"o3":161.0,"so2":8.4,"mosquito_risk":0,"arthritis_risk":5,"migraine_risk":10,"frizz_risk":0,"updated_at":"2026-05-24T12:53:24.659202+05:30"},{"city":"Jamshedpur","state":"Jharkhand","latitude":22.8046,"longitude":86.2029,"temp":39.8,"humidity":33,"rain":0.1,"pressure":987.3,"uv_index":9.1,"wind_gusts":49.7,"aqi":142,"pm10":88.2,"pm2_5":50.9,"no2":2.3,"co":236.0,"o3":216.0,"so2":24.0,"mosquito_risk":3,"arthritis_risk":5,"migraine_risk":10,"frizz_risk":1,"updated_at":"2026-05-24T12:53:24.659208+05:30"},{"city":"Dhanbad","state":"Jharkhand","latitude":23.7957,"longitude":86.4304,"temp":40.2,"humidity":20,"rain":0.0,"pressure":976.8,"uv_index":9.05,"wind_gusts":36.0,"aqi":157,"pm10":173.7,"pm2_5":65.7,"no2":7.6,"co":181.0,"o3":224.0,"so2":47.6,"mosquito_risk":0,"arthritis_risk":5,"migraine_risk":10,"frizz_risk":0,"updated_at":"2026-05-24T12:53:24.659215+05:30"},{"city":"Bokaro","state":"Jharkhand","latitude":23.6693,"longitude":86.1511,"temp":40.0,"humidity":21,"rain":0.0,"pressure":980.5,"uv_index":9.1,"wind_gusts":30.2,"aqi":158,"pm10":237.5,"pm2_5":61.7,"no2":7.8,"co":203.0,"o3":199.0,"so2":41.0,"mosquito_risk":0,"arthritis_risk":5,"migraine_risk":10,"frizz_risk":0,"updated_at":"2026-05-24T12:53:24.659222+05:30"},{"city":"Bhubaneswar","state":"Odisha","latitude":20.2961,"longitude":85.8245,"temp":37.3,"humidity":56,"rain":0.0,"pressure":998.9,"uv_index":9.15,"wind_gusts":42.8,"aqi":88,"pm10":40.6,"pm2_5":32.2,"no2":1.4,"co":226.0,"o3":151.0,"so2":7.2,"mosquito_risk":0,"arthritis_risk":5,"migraine_risk":10,"frizz_risk":1,"updated_at":"2026-05-24T12:53:24.659229+05:30"},{"city":"Cuttack","state":"Odisha","latitude":20.4625,"longitude":85.8828,"temp":37.1,"humidity":59,"rain":0.0,"pressure":1000.5,"uv_index":9.2,"wind_gusts":40.0,"aqi":88,"pm10":40.6,"pm2_5":32.2,"no2":1.4,"co":262.0,"o3":151.0,"so2":7.2,"mosquito_risk":0,"arthritis_risk":5,"migraine_risk":7,"frizz_risk":1,"updated_at":"2026-05-24T12:53:24.659236+05:30"},{"city":"Rourkela","state":"Odisha","latitude":22.2604,"longitude":84.8536,"temp":40.7,"humidity":34,"rain":0.0,"pressure":981.5,"uv_index":8.95,"wind_gusts":44.3,"aqi":132,"pm10":87.1,"pm2_5":42.6,"no2":1.4,"co":246.0,"o3":203.0,"so2":16.0,"mosquito_risk":0,"arthritis_risk":5,"migraine_risk":10,"frizz_risk":1,"updated_at":"2026-05-24T12:53:24.659243+05:30"},{"city":"Raipur","state":"Chhattisgarh","latitude":21.2514,"longitude":81.6296,"temp":43.0,"humidity":15,"rain":0.0,"pressure":972.3,"uv_index":9.0,"wind_gusts":36.7,"aqi":105,"pm10":76.4,"pm2_5":32.5,"no2":2.8,"co":138.0,"o3":151.0,"so2":16.7,"mosquito_risk":0,"arthritis_risk":5,"migraine_risk":10,"frizz_risk":0,"updated_at":"2026-05-24T12:53:24.659250+05:30"},{"city":"Bhilai","state":"Chhattisgarh","latitude":21.1938,"longitude":81.3509,"temp":42.0,"humidity":17,"rain":0.0,"pressure":972.5,"uv_index":9.0,"wind_gusts":30.2,"aqi":93,"pm10":69.6,"pm2_5":29.3,"no2":3.6,"co":132.0,"o3":132.0,"so2":15.0,"mosquito_risk":0,"arthritis_risk":5,"migraine_risk":10,"frizz_risk":0,"updated_at":"2026-05-24T12:53:24.659257+05:30"},{"city":"Guwahati","state":"Assam","latitude":26.1158,"longitude":91.7086,"temp":30.4,"humidity":66,"rain":0.0,"pressure":999.0,"uv_index":8.75,"wind_gusts":24.8,"aqi":70,"pm10":26.3,"pm2_5":13.0,"no2":1.3,"co":294.0,"o3":106.0,"so2":3.1,"mosquito_risk":3,"arthritis_risk":5,"migraine_risk":7,"frizz_risk":1,"updated_at":"2026-05-24T12:53:24.659264+05:30"},{"city":"Agartala","state":"Tripura","latitude":23.8315,"longitude":91.2868,"temp":30.1,"humidity":80,"rain":0.0,"pressure":1004.1,"uv_index":7.8,"wind_gusts":43.9,"aqi":76,"pm10":31.3,"pm2_5":18.1,"no2":2.3,"co":165.0,"o3":112.0,"so2":2.6,"mosquito_risk":3,"arthritis_risk":5,"migraine_risk":4,"frizz_risk":1,"updated_at":"2026-05-24T12:53:24.659271+05:30"},{"city":"Shillong","state":"Meghalaya","latitude":25.5788,"longitude":91.8933,"temp":24.8,"humidity":64,"rain":0.0,"pressure":857.6,"uv_index":9.15,"wind_gusts":49.0,"aqi":50,"pm10":31.7,"pm2_5":11.5,"no2":1.0,"co":192.0,"o3":105.0,"so2":2.7,"mosquito_risk":3,"arthritis_risk":5,"migraine_risk":7,"frizz_risk":1,"updated_at":"2026-05-24T12:53:24.659278+05:30"},{"city":"Imphal","state":"Manipur","latitude":24.817,"longitude":93.9368,"temp":28.5,"humidity":60,"rain":0.1,"pressure":922.9,"uv_index":9.05,"wind_gusts":38.9,"aqi":73,"pm10":59.0,"pm2_5":21.2,"no2":0.3,"co":190.0,"o3":91.0,"so2":1.9,"mosquito_risk":7,"arthritis_risk":5,"migraine_risk":7,"frizz_risk":1,"updated_at":"2026-05-24T12:53:24.659285+05:30"},{"city":"Aizawl","state":"Mizoram","latitude":23.7271,"longitude":92.7176,"temp":28.4,"humidity":56,"rain":0.0,"pressure":893.2,"uv_index":8.65,"wind_gusts":38.9,"aqi":73,"pm10":31.9,"pm2_5":13.2,"no2":0.2,"co":168.0,"o3":81.0,"so2":1.2,"mosquito_risk":4,"arthritis_risk":5,"migraine_risk":7,"frizz_risk":1,"updated_at":"2026-05-24T12:53:24.659292+05:30"},{"city":"Kohima","state":"Nagaland","latitude":25.6701,"longitude":94.1077,"temp":25.8,"humidity":66,"rain":0.1,"pressure":856.0,"uv_index":9.3,"wind_gusts":33.1,"aqi":51,"pm10":46.7,"pm2_5":17.5,"no2":0.3,"co":199.0,"o3":99.0,"so2":1.9,"mosquito_risk":10,"arthritis_risk":5,"migraine_risk":7,"frizz_risk":1,"updated_at":"2026-05-24T12:53:24.659299+05:30"},{"city":"Gangtok","state":"Sikkim","latitude":27.3314,"longitude":88.6138,"temp":22.6,"humidity":66,"rain":0.0,"pressure":837.7,"uv_index":8.8,"wind_gusts":34.9,"aqi":103,"pm10":53.2,"pm2_5":22.8,"no2":0.5,"co":278.0,"o3":150.0,"so2":3.5,"mosquito_risk":3,"arthritis_risk":5,"migraine_risk":7,"frizz_risk":0,"updated_at":"2026-05-24T12:53:24.659305+05:30"},{"city":"Siliguri","state":"West Bengal","latitude":26.7271,"longitude":88.3953,"temp":31.4,"humidity":62,"rain":0.1,"pressure":990.1,"uv_index":8.7,"wind_gusts":26.6,"aqi":109,"pm10":70.8,"pm2_5":39.1,"no2":1.3,"co":402.0,"o3":162.0,"so2":7.2,"mosquito_risk":6,"arthritis_risk":5,"migraine_risk":7,"frizz_risk":1,"updated_at":"2026-05-24T12:53:27.993700+05:30"},{"city":"Durgapur","state":"West Bengal","latitude":23.5204,"longitude":87.3119,"temp":37.3,"humidity":56,"rain":0.0,"pressure":991.1,"uv_index":8.9,"wind_gusts":48.6,"aqi":153,"pm10":90.8,"pm2_5":70.8,"no2":7.7,"co":655.0,"o3":242.0,"so2":52.1,"mosquito_risk":0,"arthritis_risk":5,"migraine_risk":10,"frizz_risk":1,"updated_at":"2026-05-24T12:53:27.993750+05:30"},{"city":"Asansol","state":"West Bengal","latitude":23.6739,"longitude":86.9524,"temp":37.7,"humidity":45,"rain":0.1,"pressure":990.1,"uv_index":8.9,"wind_gusts":37.8,"aqi":152,"pm10":114.6,"pm2_5":70.5,"no2":6.7,"co":359.0,"o3":244.0,"so2":48.4,"mosquito_risk":3,"arthritis_risk":5,"migraine_risk":10,"frizz_risk":1,"updated_at":"2026-05-24T12:53:27.993761+05:30"},{"city":"Pondicherry","state":"Puducherry","latitude":11.9139,"longitude":79.8145,"temp":35.8,"humidity":50,"rain":0.0,"pressure":1007.0,"uv_index":8.7,"wind_gusts":47.9,"aqi":91,"pm10":29.1,"pm2_5":22.8,"no2":5.8,"co":211.0,"o3":138.0,"so2":12.4,"mosquito_risk":0,"arthritis_risk":5,"migraine_risk":7,"frizz_risk":1,"updated_at":"2026-05-24T12:53:27.993770+05:30"},{"city":"Port Blair","state":"Andaman and Nicobar Islands","latitude":11.6234,"longitude":92.7265,"temp":29.1,"humidity":85,"rain":0.1,"pressure":1007.5,"uv_index":8.9,"wind_gusts":34.2,"aqi":30,"pm10":8.8,"pm2_5":5.1,"no2":0.3,"co":105.0,"o3":60.0,"so2":0.4,"mosquito_risk":10,"arthritis_risk":5,"migraine_risk":4,"frizz_risk":1,"updated_at":"2026-05-24T12:53:27.993779+05:30"},{"city":"Haridwar","state":"Uttarakhand","latitude":29.9457,"longitude":78.1642,"temp":39.3,"humidity":21,"rain":0.0,"pressure":969.9,"uv_index":7.55,"wind_gusts":57.2,"aqi":74,"pm10":28.5,"pm2_5":15.8,"no2":1.3,"co":191.0,"o3":169.0,"so2":6.2,"mosquito_risk":0,"arthritis_risk":5,"migraine_risk":10,"frizz_risk":0,"updated_at":"2026-05-24T12:53:27.993787+05:30"},{"city":"Rishikesh","state":"Uttarakhand","latitude":30.0869,"longitude":78.2676,"temp":38.0,"humidity":22,"rain":0.0,"pressure":962.9,"uv_index":7.65,"wind_gusts":49.7,"aqi":75,"pm10":40.6,"pm2_5":17.0,"no2":0.8,"co":181.0,"o3":155.0,"so2":3.8,"mosquito_risk":0,"arthritis_risk":5,"migraine_risk":10,"frizz_risk":0,"updated_at":"2026-05-24T12:53:27.993795+05:30"},{"city":"Nainital","state":"Uttarakhand","latitude":29.3919,"longitude":79.4542,"temp":26.0,"humidity":27,"rain":0.1,"pressure":808.4,"uv_index":8.5,"wind_gusts":53.3,"aqi":75,"pm10":41.1,"pm2_5":19.1,"no2":1.3,"co":194.0,"o3":169.0,"so2":6.9,"mosquito_risk":7,"arthritis_risk":5,"migraine_risk":7,"frizz_risk":0,"updated_at":"2026-05-24T12:53:27.993803+05:30"},{"city":"Mussoorie","state":"Uttarakhand","latitude":30.4599,"longitude":78.0664,"temp":24.8,"humidity":33,"rain":0.0,"pressure":805.6,"uv_index":8.05,"wind_gusts":67.0,"aqi":71,"pm10":34.5,"pm2_5":16.7,"no2":0.9,"co":155.0,"o3":150.0,"so2":3.2,"mosquito_risk":0,"arthritis_risk":5,"migraine_risk":7,"frizz_risk":0,"updated_at":"2026-05-24T12:53:27.993810+05:30"},{"city":"Dharamshala","state":"Himachal Pradesh","latitude":32.219,"longitude":76.3234,"temp":28.0,"humidity":30,"rain":0.0,"pressure":870.5,"uv_index":8.4,"wind_gusts":37.1,"aqi":46,"pm10":29.5,"pm2_5":9.5,"no2":0.2,"co":154.0,"o3":132.0,"so2":0.8,"mosquito_risk":4,"arthritis_risk":5,"migraine_risk":7,"frizz_risk":0,"updated_at":"2026-05-24T12:53:27.993817+05:30"},{"city":"Dalhousie","state":"Himachal Pradesh","latitude":32.5387,"longitude":75.971,"temp":24.2,"humidity":31,"rain":0.0,"pressure":807.4,"uv_index":8.65,"wind_gusts":43.2,"aqi":67,"pm10":40.6,"pm2_5":14.5,"no2":0.9,"co":132.0,"o3":143.0,"so2":1.3,"mosquito_risk":0,"arthritis_risk":5,"migraine_risk":7,"frizz_risk":0,"updated_at":"2026-05-24T12:53:27.993824+05:30"},{"city":"Patiala","state":"Punjab","latitude":30.3398,"longitude":76.3869,"temp":40.5,"humidity":14,"rain":0.0,"pressure":975.2,"uv_index":7.65,"wind_gusts":38.9,"aqi":473,"pm10":737.6,"pm2_5":85.2,"no2":1.2,"co":182.0,"o3":160.0,"so2":7.7,"mosquito_risk":0,"arthritis_risk":5,"migraine_risk":10,"frizz_risk":0,"updated_at":"2026-05-24T12:53:27.993832+05:30"},{"city":"Bhatinda","state":"Punjab","latitude":30.211,"longitude":74.9455,"temp":41.5,"humidity":16,"rain":0.0,"pressure":980.0,"uv_index":8.3,"wind_gusts":34.9,"aqi":92,"pm10":60.1,"pm2_5":22.6,"no2":2.4,"co":193.0,"o3":180.0,"so2":16.3,"mosquito_risk":0,"arthritis_risk":5,"migraine_risk":10,"frizz_risk":0,"updated_at":"2026-05-24T12:53:27.993838+05:30"},{"city":"Rohtak","state":"Haryana","latitude":28.8955,"longitude":76.6066,"temp":41.0,"humidity":15,"rain":0.0,"pressure":979.2,"uv_index":7.75,"wind_gusts":32.0,"aqi":819,"pm10":832.6,"pm2_5":109.2,"no2":0.7,"co":200.0,"o3":161.0,"so2":5.5,"mosquito_risk":0,"arthritis_risk":5,"migraine_risk":10,"frizz_risk":0,"updated_at":"2026-05-24T12:53:27.993845+05:30"},{"city":"Panipat","state":"Haryana","latitude":29.3909,"longitude":76.9635,"temp":41.1,"humidity":15,"rain":0.0,"pressure":977.3,"uv_index":7.6,"wind_gusts":44.6,"aqi":1664,"pm10":2190.5,"pm2_5":237.0,"no2":2.0,"co":168.0,"o3":159.0,"so2":9.5,"mosquito_risk":0,"arthritis_risk":5,"migraine_risk":10,"frizz_risk":0,"updated_at":"2026-05-24T12:53:27.993852+05:30"},{"city":"Mathura","state":"Uttar Pradesh","latitude":27.4924,"longitude":77.6737,"temp":42.3,"humidity":13,"rain":0.0,"pressure":984.0,"uv_index":8.0,"wind_gusts":40.0,"aqi":678,"pm10":1028.2,"pm2_5":125.7,"no2":0.4,"co":199.0,"o3":163.0,"so2":7.3,"mosquito_risk":0,"arthritis_risk":5,"migraine_risk":10,"frizz_risk":0,"updated_at":"2026-05-24T12:53:27.993859+05:30"},{"city":"Vrindavan","state":"Uttar Pradesh","latitude":27.5823,"longitude":77.7027,"temp":42.0,"humidity":13,"rain":0.0,"pressure":984.3,"uv_index":8.0,"wind_gusts":38.2,"aqi":678,"pm10":1028.2,"pm2_5":125.7,"no2":0.4,"co":200.0,"o3":163.0,"so2":7.3,"mosquito_risk":0,"arthritis_risk":5,"migraine_risk":10,"frizz_risk":0,"updated_at":"2026-05-24T12:53:27.993865+05:30"},{"city":"Ayodhya","state":"Uttar Pradesh","latitude":26.7922,"longitude":82.1998,"temp":39.4,"humidity":26,"rain":0.0,"pressure":991.0,"uv_index":8.35,"wind_gusts":37.1,"aqi":154,"pm10":413.5,"pm2_5":92.0,"no2":1.1,"co":237.0,"o3":192.0,"so2":11.8,"mosquito_risk":0,"arthritis_risk":5,"migraine_risk":10,"frizz_risk":1,"updated_at":"2026-05-24T12:53:27.993872+05:30"},{"city":"Ratlam","state":"Madhya Pradesh","latitude":23.3315,"longitude":75.0367,"temp":38.1,"humidity":29,"rain":0.0,"pressure":956.2,"uv_index":8.55,"wind_gusts":49.7,"aqi":64,"pm10":34.2,"pm2_5":17.5,"no2":0.6,"co":130.0,"o3":108.0,"so2":4.7,"mosquito_risk":0,"arthritis_risk":5,"migraine_risk":10,"frizz_risk":1,"updated_at":"2026-05-24T12:53:27.993879+05:30"},{"city":"Sagar","state":"Madhya Pradesh","latitude":23.8388,"longitude":78.7378,"temp":41.0,"humidity":15,"rain":0.0,"pressure":950.3,"uv_index":8.75,"wind_gusts":46.4,"aqi":78,"pm10":136.9,"pm2_5":37.4,"no2":0.6,"co":133.0,"o3":121.0,"so2":4.3,"mosquito_risk":0,"arthritis_risk":5,"migraine_risk":10,"frizz_risk":0,"updated_at":"2026-05-24T12:53:27.993886+05:30"},{"city":"Satna","state":"Madhya Pradesh","latitude":24.6005,"longitude":80.8322,"temp":41.3,"humidity":16,"rain":0.0,"pressure":969.5,"uv_index":8.8,"wind_gusts":47.2,"aqi":142,"pm10":113.2,"pm2_5":34.8,"no2":0.5,"co":150.0,"o3":126.0,"so2":3.5,"mosquito_risk":0,"arthritis_risk":5,"migraine_risk":10,"frizz_risk":0,"updated_at":"2026-05-24T12:53:27.993893+05:30"},{"city":"Akola","state":"Maharashtra","latitude":20.7002,"longitude":77.0082,"temp":40.2,"humidity":28,"rain":0.0,"pressure":975.2,"uv_index":8.85,"wind_gusts":51.5,"aqi":57,"pm10":38.0,"pm2_5":16.6,"no2":1.2,"co":134.0,"o3":110.0,"so2":6.1,"mosquito_risk":0,"arthritis_risk":5,"migraine_risk":10,"frizz_risk":1,"updated_at":"2026-05-24T12:53:27.993901+05:30"},{"city":"Amravati","state":"Maharashtra","latitude":20.9374,"longitude":77.7796,"temp":41.4,"humidity":18,"rain":0.0,"pressure":967.0,"uv_index":8.85,"wind_gusts":47.5,"aqi":58,"pm10":43.7,"pm2_5":18.6,"no2":1.4,"co":141.0,"o3":115.0,"so2":7.1,"mosquito_risk":0,"arthritis_risk":5,"migraine_risk":10,"frizz_risk":0,"updated_at":"2026-05-24T12:53:27.993909+05:30"},{"city":"Latur","state":"Maharashtra","latitude":18.4088,"longitude":76.5604,"temp":36.5,"humidity":31,"rain":0.0,"pressure":941.8,"uv_index":9.05,"wind_gusts":38.9,"aqi":69,"pm10":20.4,"pm2_5":12.4,"no2":0.7,"co":156.0,"o3":116.0,"so2":4.1,"mosquito_risk":0,"arthritis_risk":5,"migraine_risk":10,"frizz_risk":1,"updated_at":"2026-05-24T12:53:27.993916+05:30"},{"city":"Nanded","state":"Maharashtra","latitude":19.1383,"longitude":77.3091,"temp":39.7,"humidity":24,"rain":0.0,"pressure":969.1,"uv_index":9.0,"wind_gusts":38.9,"aqi":61,"pm10":36.0,"pm2_5":17.2,"no2":0.9,"co":150.0,"o3":117.0,"so2":3.5,"mosquito_risk":0,"arthritis_risk":5,"migraine_risk":10,"frizz_risk":0,"updated_at":"2026-05-24T12:53:27.993924+05:30"},{"city":"Gulbarga","state":"Karnataka","latitude":17.3297,"longitude":76.8343,"temp":36.8,"humidity":37,"rain":0.0,"pressure":959.9,"uv_index":6.65,"wind_gusts":45.4,"aqi":69,"pm10":18.9,"pm2_5":13.8,"no2":1.1,"co":154.0,"o3":116.0,"so2":3.2,"mosquito_risk":0,"arthritis_risk":5,"migraine_risk":10,"frizz_risk":1,"updated_at":"2026-05-24T12:53:27.993931+05:30"},{"city":"Bidar","state":"Karnataka","latitude":17.9104,"longitude":77.5199,"temp":36.2,"humidity":34,"rain":0.0,"pressure":937.4,"uv_index":9.1,"wind_gusts":46.4,"aqi":80,"pm10":21.7,"pm2_5":14.3,"no2":0.9,"co":163.0,"o3":129.0,"so2":5.9,"mosquito_risk":0,"arthritis_risk":5,"migraine_risk":10,"frizz_risk":1,"updated_at":"2026-05-24T12:53:27.993937+05:30"},{"city":"Hospet","state":"Karnataka","latitude":15.2689,"longitude":76.3909,"temp":32.2,"humidity":49,"rain":0.0,"pressure":957.8,"uv_index":8.9,"wind_gusts":40.7,"aqi":37,"pm10":13.5,"pm2_5":9.7,"no2":1.4,"co":160.0,"o3":83.0,"so2":2.2,"mosquito_risk":0,"arthritis_risk":5,"migraine_risk":7,"frizz_risk":1,"updated_at":"2026-05-24T12:53:27.993944+05:30"},{"city":"Tirupur","state":"Tamil Nadu","latitude":11.1085,"longitude":77.3411,"temp":36.2,"humidity":42,"rain":0.0,"pressure":975.5,"uv_index":8.9,"wind_gusts":49.7,"aqi":52,"pm10":14.7,"pm2_5":9.5,"no2":1.2,"co":145.0,"o3":100.0,"so2":2.1,"mosquito_risk":0,"arthritis_risk":5,"migraine_risk":10,"frizz_risk":1,"updated_at":"2026-05-24T12:53:27.993951+05:30"},{"city":"Alappuzha","state":"Kerala","latitude":9.4981,"longitude":76.3388,"temp":27.0,"humidity":89,"rain":0.2,"pressure":1011.7,"uv_index":8.5,"wind_gusts":37.4,"aqi":47,"pm10":13.6,"pm2_5":8.7,"no2":2.0,"co":98.0,"o3":80.0,"so2":2.3,"mosquito_risk":10,"arthritis_risk":0,"migraine_risk":4,"frizz_risk":1,"updated_at":"2026-05-24T12:53:27.993957+05:30"},{"city":"Munnar","state":"Kerala","latitude":10.0889,"longitude":77.0595,"temp":21.0,"humidity":79,"rain":0.0,"pressure":859.5,"uv_index":8.95,"wind_gusts":31.3,"aqi":25,"pm10":4.3,"pm2_5":3.3,"no2":1.1,"co":113.0,"o3":71.0,"so2":1.1,"mosquito_risk":3,"arthritis_risk":5,"migraine_risk":7,"frizz_risk":1,"updated_at":"2026-05-24T12:53:27.993964+05:30"},{"city":"Silchar","state":"Assam","latitude":24.8333,"longitude":92.7789,"temp":30.2,"humidity":74,"rain":0.0,"pressure":1003.4,"uv_index":8.95,"wind_gusts":43.2,"aqi":65,"pm10":17.8,"pm2_5":11.3,"no2":0.9,"co":214.0,"o3":92.0,"so2":2.3,"mosquito_risk":3,"arthritis_risk":5,"migraine_risk":4,"frizz_risk":1,"updated_at":"2026-05-24T12:53:27.993971+05:30"},{"city":"Dibrugarh","state":"Assam","latitude":27.4728,"longitude":94.912,"temp":26.4,"humidity":89,"rain":0.0,"pressure":993.5,"uv_index":8.45,"wind_gusts":37.1,"aqi":59,"pm10":15.7,"pm2_5":10.4,"no2":1.7,"co":229.0,"o3":104.0,"so2":1.5,"mosquito_risk":7,"arthritis_risk":5,"migraine_risk":7,"frizz_risk":1,"updated_at":"2026-05-24T12:53:27.993978+05:30"}]