[{"city":"Delhi","state":"Delhi","latitude":28.6139,"longitude":77.209,"temp":29.9,"humidity":72,"rain":0.0,"pressure":975.9,"uv_index":6.95,"wind_gusts":27.4,"aqi":371,"pm10":681.7,"pm2_5":179.7,"no2":22.6,"co":683.0,"o3":48.0,"so2":14.1,"mosquito_risk":7,"arthritis_risk":5,"migraine_risk":7,"frizz_risk":1,"updated_at":"2026-07-14T08:11:51.104396+05:30"},{"city":"Mumbai","state":"Maharashtra","latitude":19.076,"longitude":72.8777,"temp":28.2,"humidity":77,"rain":0.0,"pressure":1007.8,"uv_index":7.1,"wind_gusts":45.7,"aqi":66,"pm10":43.2,"pm2_5":20.0,"no2":6.1,"co":169.0,"o3":46.0,"so2":5.3,"mosquito_risk":7,"arthritis_risk":5,"migraine_risk":4,"frizz_risk":1,"updated_at":"2026-07-14T08:11:51.104436+05:30"},{"city":"Bangalore","state":"Karnataka","latitude":12.9716,"longitude":77.5946,"temp":21.6,"humidity":80,"rain":0.0,"pressure":911.6,"uv_index":8.85,"wind_gusts":41.8,"aqi":59,"pm10":18.2,"pm2_5":12.1,"no2":11.5,"co":340.0,"o3":35.0,"so2":5.1,"mosquito_risk":3,"arthritis_risk":5,"migraine_risk":7,"frizz_risk":1,"updated_at":"2026-07-14T08:11:51.104452+05:30"},{"city":"Hyderabad","state":"Telangana","latitude":17.385,"longitude":78.4867,"temp":26.4,"humidity":59,"rain":0.0,"pressure":952.0,"uv_index":7.4,"wind_gusts":45.0,"aqi":55,"pm10":21.5,"pm2_5":15.0,"no2":5.9,"co":252.0,"o3":47.0,"so2":4.3,"mosquito_risk":4,"arthritis_risk":5,"migraine_risk":7,"frizz_risk":1,"updated_at":"2026-07-14T08:11:51.104462+05:30"},{"city":"Chennai","state":"Tamil Nadu","latitude":13.0827,"longitude":80.2707,"temp":32.2,"humidity":47,"rain":0.0,"pressure":1004.8,"uv_index":8.05,"wind_gusts":38.5,"aqi":77,"pm10":26.0,"pm2_5":21.0,"no2":21.0,"co":219.0,"o3":34.0,"so2":9.3,"mosquito_risk":0,"arthritis_risk":5,"migraine_risk":4,"frizz_risk":1,"updated_at":"2026-07-14T08:11:51.104470+05:30"},{"city":"Kolkata","state":"West Bengal","latitude":22.5726,"longitude":88.3639,"temp":27.3,"humidity":88,"rain":0.0,"pressure":1000.1,"uv_index":8.8,"wind_gusts":21.6,"aqi":154,"pm10":46.4,"pm2_5":31.0,"no2":15.0,"co":513.0,"o3":91.0,"so2":18.4,"mosquito_risk":7,"arthritis_risk":5,"migraine_risk":4,"frizz_risk":1,"updated_at":"2026-07-14T08:11:51.104478+05:30"},{"city":"Pune","state":"Maharashtra","latitude":18.5204,"longitude":73.8567,"temp":24.2,"humidity":81,"rain":0.0,"pressure":947.0,"uv_index":8.35,"wind_gusts":49.0,"aqi":51,"pm10":12.5,"pm2_5":7.8,"no2":5.2,"co":138.0,"o3":42.0,"so2":5.1,"mosquito_risk":3,"arthritis_risk":5,"migraine_risk":7,"frizz_risk":1,"updated_at":"2026-07-14T08:11:51.104485+05:30"},{"city":"Ahmedabad","state":"Gujarat","latitude":23.0225,"longitude":72.5714,"temp":28.4,"humidity":76,"rain":0.0,"pressure":999.2,"uv_index":3.8,"wind_gusts":43.6,"aqi":66,"pm10":24.3,"pm2_5":13.2,"no2":6.6,"co":135.0,"o3":35.0,"so2":4.7,"mosquito_risk":7,"arthritis_risk":5,"migraine_risk":3,"frizz_risk":1,"updated_at":"2026-07-14T08:11:51.104492+05:30"},{"city":"Jaipur","state":"Rajasthan","latitude":26.9124,"longitude":75.7873,"temp":29.0,"humidity":64,"rain":0.0,"pressure":954.7,"uv_index":8.15,"wind_gusts":43.6,"aqi":415,"pm10":616.5,"pm2_5":115.3,"no2":5.1,"co":142.0,"o3":48.0,"so2":4.5,"mosquito_risk":7,"arthritis_risk":5,"migraine_risk":7,"frizz_risk":1,"updated_at":"2026-07-14T08:11:51.104498+05:30"},{"city":"Lucknow","state":"Uttar Pradesh","latitude":26.8467,"longitude":80.9462,"temp":31.3,"humidity":72,"rain":0.0,"pressure":986.8,"uv_index":8.1,"wind_gusts":26.6,"aqi":145,"pm10":116.6,"pm2_5":60.1,"no2":16.0,"co":258.0,"o3":60.0,"so2":9.8,"mosquito_risk":3,"arthritis_risk":5,"migraine_risk":7,"frizz_risk":1,"updated_at":"2026-07-14T08:11:51.104509+05:30"},{"city":"Kanpur","state":"Uttar Pradesh","latitude":26.4499,"longitude":80.3319,"temp":31.0,"humidity":71,"rain":0.0,"pressure":985.4,"uv_index":8.0,"wind_gusts":28.1,"aqi":127,"pm10":91.5,"pm2_5":47.6,"no2":10.3,"co":209.0,"o3":68.0,"so2":9.4,"mosquito_risk":3,"arthritis_risk":5,"migraine_risk":7,"frizz_risk":1,"updated_at":"2026-07-14T08:11:51.104518+05:30"},{"city":"Chandigarh","state":"Chandigarh","latitude":30.7333,"longitude":76.7794,"temp":28.0,"humidity":83,"rain":0.0,"pressure":961.9,"uv_index":7.65,"wind_gusts":24.5,"aqi":171,"pm10":182.1,"pm2_5":90.8,"no2":20.7,"co":767.0,"o3":97.0,"so2":19.3,"mosquito_risk":7,"arthritis_risk":5,"migraine_risk":7,"frizz_risk":1,"updated_at":"2026-07-14T08:11:51.104525+05:30"},{"city":"Srinagar","state":"Jammu and Kashmir","latitude":34.0837,"longitude":74.7973,"temp":19.5,"humidity":82,"rain":0.0,"pressure":838.4,"uv_index":8.95,"wind_gusts":20.2,"aqi":83,"pm10":45.1,"pm2_5":39.2,"no2":14.4,"co":714.0,"o3":72.0,"so2":5.7,"mosquito_risk":3,"arthritis_risk":10,"migraine_risk":7,"frizz_risk":1,"updated_at":"2026-07-14T08:11:51.104533+05:30"},{"city":"Jammu","state":"Jammu and Kashmir","latitude":32.7266,"longitude":74.857,"temp":28.4,"humidity":72,"rain":0.0,"pressure":965.2,"uv_index":8.4,"wind_gusts":28.1,"aqi":154,"pm10":76.8,"pm2_5":64.7,"no2":22.9,"co":459.0,"o3":91.0,"so2":5.5,"mosquito_risk":7,"arthritis_risk":5,"migraine_risk":7,"frizz_risk":1,"updated_at":"2026-07-14T08:11:51.104539+05:30"},{"city":"Amritsar","state":"Punjab","latitude":31.634,"longitude":74.8723,"temp":29.1,"humidity":84,"rain":0.0,"pressure":973.0,"uv_index":8.4,"wind_gusts":15.8,"aqi":187,"pm10":217.9,"pm2_5":120.1,"no2":39.4,"co":952.0,"o3":64.0,"so2":13.6,"mosquito_risk":7,"arthritis_risk":5,"migraine_risk":7,"frizz_risk":1,"updated_at":"2026-07-14T08:11:51.104551+05:30"},{"city":"Ludhiana","state":"Punjab","latitude":30.901,"longitude":75.8573,"temp":29.1,"humidity":80,"rain":0.0,"pressure":971.0,"uv_index":7.85,"wind_gusts":21.2,"aqi":187,"pm10":187.7,"pm2_5":126.7,"no2":37.7,"co":787.0,"o3":73.0,"so2":15.5,"mosquito_risk":7,"arthritis_risk":5,"migraine_risk":7,"frizz_risk":1,"updated_at":"2026-07-14T08:11:51.104557+05:30"},{"city":"Jalandhar","state":"Punjab","latitude":31.326,"longitude":75.5762,"temp":29.4,"humidity":82,"rain":0.0,"pressure":972.1,"uv_index":8.15,"wind_gusts":19.8,"aqi":193,"pm10":193.7,"pm2_5":138.8,"no2":39.3,"co":893.0,"o3":76.0,"so2":11.0,"mosquito_risk":7,"arthritis_risk":5,"migraine_risk":7,"frizz_risk":1,"updated_at":"2026-07-14T08:11:51.104564+05:30"},{"city":"Dehradun","state":"Uttarakhand","latitude":30.6284,"longitude":78.0322,"temp":20.5,"humidity":85,"rain":0.0,"pressure":826.8,"uv_index":8.15,"wind_gusts":23.0,"aqi":107,"pm10":65.4,"pm2_5":30.9,"no2":7.8,"co":212.0,"o3":114.0,"so2":2.6,"mosquito_risk":3,"arthritis_risk":5,"migraine_risk":7,"frizz_risk":1,"updated_at":"2026-07-14T08:11:51.104573+05:30"},{"city":"Shimla","state":"Himachal Pradesh","latitude":31.1048,"longitude":77.1734,"temp":19.0,"humidity":77,"rain":0.0,"pressure":782.1,"uv_index":8.2,"wind_gusts":31.0,"aqi":151,"pm10":115.0,"pm2_5":48.4,"no2":5.6,"co":228.0,"o3":99.0,"so2":5.7,"mosquito_risk":3,"arthritis_risk":5,"migraine_risk":7,"frizz_risk":0,"updated_at":"2026-07-14T08:11:51.104580+05:30"},{"city":"Manali","state":"Himachal Pradesh","latitude":32.2396,"longitude":77.1887,"temp":22.4,"humidity":63,"rain":0.0,"pressure":816.3,"uv_index":9.45,"wind_gusts":32.8,"aqi":53,"pm10":3.0,"pm2_5":2.3,"no2":7.2,"co":176.0,"o3":99.0,"so2":0.1,"mosquito_risk":3,"arthritis_risk":5,"migraine_risk":7,"frizz_risk":0,"updated_at":"2026-07-14T08:11:51.104588+05:30"},{"city":"Gurgaon","state":"Haryana","latitude":28.4595,"longitude":77.0266,"temp":30.8,"humidity":67,"rain":0.0,"pressure":974.5,"uv_index":7.25,"wind_gusts":33.5,"aqi":452,"pm10":642.6,"pm2_5":159.7,"no2":18.9,"co":447.0,"o3":49.0,"so2":11.1,"mosquito_risk":3,"arthritis_risk":5,"migraine_risk":7,"frizz_risk":1,"updated_at":"2026-07-14T08:11:51.104594+05:30"},{"city":"Noida","state":"Uttar Pradesh","latitude":28.5355,"longitude":77.391,"temp":29.9,"humidity":72,"rain":0.0,"pressure":977.4,"uv_index":7.15,"wind_gusts":24.1,"aqi":452,"pm10":642.6,"pm2_5":159.7,"no2":18.9,"co":469.0,"o3":49.0,"so2":11.1,"mosquito_risk":7,"arthritis_risk":5,"migraine_risk":7,"frizz_risk":1,"updated_at":"2026-07-14T08:11:51.104600+05:30"},{"city":"Ghaziabad","state":"Uttar Pradesh","latitude":28.6692,"longitude":77.4538,"temp":29.2,"humidity":74,"rain":0.0,"pressure":975.6,"uv_index":7.6,"wind_gusts":22.7,"aqi":246,"pm10":416.3,"pm2_5":134.6,"no2":30.1,"co":320.0,"o3":50.0,"so2":20.4,"mosquito_risk":7,"arthritis_risk":5,"migraine_risk":7,"frizz_risk":1,"updated_at":"2026-07-14T08:11:51.104607+05:30"},{"city":"Faridabad","state":"Haryana","latitude":28.4089,"longitude":77.3178,"temp":30.1,"humidity":74,"rain":0.0,"pressure":976.7,"uv_index":7.2,"wind_gusts":28.1,"aqi":452,"pm10":642.6,"pm2_5":159.7,"no2":18.9,"co":318.0,"o3":49.0,"so2":11.1,"mosquito_risk":3,"arthritis_risk":5,"migraine_risk":7,"frizz_risk":1,"updated_at":"2026-07-14T08:11:51.104614+05:30"},{"city":"Meerut","state":"Uttar Pradesh","latitude":28.9845,"longitude":77.7064,"temp":28.6,"humidity":75,"rain":0.0,"pressure":974.5,"uv_index":7.65,"wind_gusts":27.7,"aqi":246,"pm10":416.3,"pm2_5":134.6,"no2":30.1,"co":297.0,"o3":50.0,"so2":20.4,"mosquito_risk":7,"arthritis_risk":5,"migraine_risk":7,"frizz_risk":1,"updated_at":"2026-07-14T08:11:51.104620+05:30"},{"city":"Agra","state":"Uttar Pradesh","latitude":27.1767,"longitude":78.0081,"temp":31.1,"humidity":67,"rain":0.0,"pressure":981.5,"uv_index":8.0,"wind_gusts":34.2,"aqi":149,"pm10":120.6,"pm2_5":45.5,"no2":12.0,"co":200.0,"o3":60.0,"so2":6.9,"mosquito_risk":3,"arthritis_risk":5,"migraine_risk":7,"frizz_risk":1,"updated_at":"2026-07-14T08:11:51.104626+05:30"},{"city":"Varanasi","state":"Uttar Pradesh","latitude":25.3176,"longitude":82.9739,"temp":30.5,"humidity":79,"rain":0.0,"pressure":991.5,"uv_index":8.7,"wind_gusts":25.2,"aqi":138,"pm10":91.5,"pm2_5":49.1,"no2":13.3,"co":432.0,"o3":59.0,"so2":10.4,"mosquito_risk":3,"arthritis_risk":5,"migraine_risk":7,"frizz_risk":1,"updated_at":"2026-07-14T08:11:51.104633+05:30"},{"city":"Prayagraj","state":"Uttar Pradesh","latitude":25.4358,"longitude":81.8463,"temp":31.1,"humidity":68,"rain":0.0,"pressure":989.8,"uv_index":8.55,"wind_gusts":29.9,"aqi":121,"pm10":88.5,"pm2_5":48.3,"no2":10.7,"co":229.0,"o3":64.0,"so2":8.9,"mosquito_risk":3,"arthritis_risk":5,"migraine_risk":7,"frizz_risk":1,"updated_at":"2026-07-14T08:11:51.104640+05:30"},{"city":"Gorakhpur","state":"Uttar Pradesh","latitude":26.7606,"longitude":83.3732,"temp":27.6,"humidity":90,"rain":0.0,"pressure":991.2,"uv_index":8.4,"wind_gusts":31.7,"aqi":157,"pm10":89.6,"pm2_5":57.4,"no2":17.1,"co":336.0,"o3":66.0,"so2":11.2,"mosquito_risk":7,"arthritis_risk":5,"migraine_risk":7,"frizz_risk":1,"updated_at":"2026-07-14T08:11:51.104646+05:30"},{"city":"Bareilly","state":"Uttar Pradesh","latitude":28.367,"longitude":79.4304,"temp":29.7,"humidity":78,"rain":0.0,"pressure":980.1,"uv_index":8.0,"wind_gusts":29.2,"aqi":176,"pm10":231.9,"pm2_5":87.3,"no2":22.3,"co":413.0,"o3":56.0,"so2":9.1,"mosquito_risk":7,"arthritis_risk":5,"migraine_risk":7,"frizz_risk":1,"updated_at":"2026-07-14T08:11:51.104655+05:30"},{"city":"Aligarh","state":"Uttar Pradesh","latitude":27.8974,"longitude":78.088,"temp":30.9,"humidity":69,"rain":0.0,"pressure":978.9,"uv_index":7.85,"wind_gusts":31.7,"aqi":458,"pm10":618.4,"pm2_5":174.2,"no2":14.3,"co":292.0,"o3":50.0,"so2":6.2,"mosquito_risk":3,"arthritis_risk":5,"migraine_risk":7,"frizz_risk":1,"updated_at":"2026-07-14T08:11:51.104662+05:30"},{"city":"Moradabad","state":"Uttar Pradesh","latitude":28.8386,"longitude":78.7733,"temp":29.8,"humidity":78,"rain":0.0,"pressure":976.5,"uv_index":7.8,"wind_gusts":29.2,"aqi":190,"pm10":354.8,"pm2_5":151.8,"no2":36.2,"co":680.0,"o3":62.0,"so2":19.5,"mosquito_risk":7,"arthritis_risk":5,"migraine_risk":7,"frizz_risk":1,"updated_at":"2026-07-14T08:11:51.104668+05:30"},{"city":"Saharanpur","state":"Uttar Pradesh","latitude":29.9637,"longitude":77.546,"temp":27.2,"humidity":88,"rain":0.0,"pressure":968.7,"uv_index":7.35,"wind_gusts":30.6,"aqi":189,"pm10":209.1,"pm2_5":137.8,"no2":31.4,"co":752.0,"o3":93.0,"so2":16.4,"mosquito_risk":7,"arthritis_risk":5,"migraine_risk":7,"frizz_risk":1,"updated_at":"2026-07-14T08:11:51.104674+05:30"},{"city":"Jhansi","state":"Uttar Pradesh","latitude":25.4484,"longitude":78.5685,"temp":30.1,"humidity":68,"rain":0.0,"pressure":973.1,"uv_index":8.3,"wind_gusts":41.8,"aqi":102,"pm10":34.1,"pm2_5":23.7,"no2":6.8,"co":153.0,"o3":66.0,"so2":10.1,"mosquito_risk":3,"arthritis_risk":5,"migraine_risk":7,"frizz_risk":1,"updated_at":"2026-07-14T08:11:54.463335+05:30"},{"city":"Surat","state":"Gujarat","latitude":21.1702,"longitude":72.8311,"temp":28.5,"humidity":81,"rain":0.0,"pressure":1004.5,"uv_index":6.55,"wind_gusts":55.1,"aqi":70,"pm10":36.2,"pm2_5":22.2,"no2":16.1,"co":318.0,"o3":32.0,"so2":35.0,"mosquito_risk":7,"arthritis_risk":5,"migraine_risk":4,"frizz_risk":1,"updated_at":"2026-07-14T08:11:54.463366+05:30"},{"city":"Vadodara","state":"Gujarat","latitude":22.3072,"longitude":73.1812,"temp":28.4,"humidity":78,"rain":0.0,"pressure":1001.9,"uv_index":3.85,"wind_gusts":46.4,"aqi":64,"pm10":23.8,"pm2_5":13.0,"no2":6.3,"co":153.0,"o3":37.0,"so2":4.0,"mosquito_risk":7,"arthritis_risk":5,"migraine_risk":0,"frizz_risk":1,"updated_at":"2026-07-14T08:11:54.463376+05:30"},{"city":"Rajkot","state":"Gujarat","latitude":22.3039,"longitude":70.8022,"temp":27.9,"humidity":79,"rain":0.0,"pressure":990.7,"uv_index":6.65,"wind_gusts":51.5,"aqi":61,"pm10":21.0,"pm2_5":10.6,"no2":3.2,"co":104.0,"o3":41.0,"so2":2.8,"mosquito_risk":7,"arthritis_risk":5,"migraine_risk":7,"frizz_risk":1,"updated_at":"2026-07-14T08:11:54.463384+05:30"},{"city":"Thane","state":"Maharashtra","latitude":19.2183,"longitude":72.9781,"temp":28.1,"humidity":79,"rain":0.0,"pressure":1007.1,"uv_index":7.05,"wind_gusts":38.9,"aqi":66,"pm10":43.2,"pm2_5":20.0,"no2":6.1,"co":187.0,"o3":46.0,"so2":5.3,"mosquito_risk":7,"arthritis_risk":5,"migraine_risk":4,"frizz_risk":1,"updated_at":"2026-07-14T08:11:54.463392+05:30"},{"city":"Nagpur","state":"Maharashtra","latitude":21.1458,"longitude":79.0882,"temp":28.2,"humidity":68,"rain":0.0,"pressure":970.8,"uv_index":8.35,"wind_gusts":49.7,"aqi":84,"pm10":27.0,"pm2_5":18.6,"no2":8.2,"co":148.0,"o3":52.0,"so2":13.4,"mosquito_risk":7,"arthritis_risk":5,"migraine_risk":7,"frizz_risk":1,"updated_at":"2026-07-14T08:11:54.463399+05:30"},{"city":"Nashik","state":"Maharashtra","latitude":19.9975,"longitude":73.7898,"temp":23.9,"humidity":85,"rain":0.0,"pressure":943.8,"uv_index":7.5,"wind_gusts":51.1,"aqi":54,"pm10":21.5,"pm2_5":11.5,"no2":6.1,"co":114.0,"o3":36.0,"so2":3.6,"mosquito_risk":3,"arthritis_risk":5,"migraine_risk":7,"frizz_risk":1,"updated_at":"2026-07-14T08:11:54.463406+05:30"},{"city":"Aurangabad","state":"Maharashtra","latitude":19.8762,"longitude":75.3433,"temp":24.2,"humidity":79,"rain":0.0,"pressure":942.9,"uv_index":8.2,"wind_gusts":47.5,"aqi":58,"pm10":14.8,"pm2_5":9.5,"no2":6.4,"co":132.0,"o3":38.0,"so2":8.7,"mosquito_risk":3,"arthritis_risk":5,"migraine_risk":7,"frizz_risk":1,"updated_at":"2026-07-14T08:11:54.463413+05:30"},{"city":"Solapur","state":"Maharashtra","latitude":17.6599,"longitude":75.9064,"temp":25.4,"humidity":74,"rain":0.0,"pressure":956.8,"uv_index":8.7,"wind_gusts":38.9,"aqi":54,"pm10":12.9,"pm2_5":9.0,"no2":4.8,"co":128.0,"o3":41.0,"so2":2.8,"mosquito_risk":7,"arthritis_risk":5,"migraine_risk":7,"frizz_risk":1,"updated_at":"2026-07-14T08:11:54.463420+05:30"},{"city":"Kolhapur","state":"Maharashtra","latitude":16.705,"longitude":74.2433,"temp":23.4,"humidity":88,"rain":0.0,"pressure":947.8,"uv_index":8.75,"wind_gusts":45.7,"aqi":50,"pm10":13.3,"pm2_5":8.3,"no2":3.7,"co":128.0,"o3":43.0,"so2":2.3,"mosquito_risk":3,"arthritis_risk":5,"migraine_risk":7,"frizz_risk":1,"updated_at":"2026-07-14T08:11:54.463427+05:30"},{"city":"Goa","state":"Goa","latitude":15.2993,"longitude":74.124,"temp":26.2,"humidity":95,"rain":0.1,"pressure":999.0,"uv_index":7.55,"wind_gusts":32.4,"aqi":65,"pm10":34.2,"pm2_5":19.6,"no2":3.6,"co":176.0,"o3":46.0,"so2":2.1,"mosquito_risk":10,"arthritis_risk":5,"migraine_risk":7,"frizz_risk":1,"updated_at":"2026-07-14T08:11:54.463435+05:30"},{"city":"Jodhpur","state":"Rajasthan","latitude":26.2389,"longitude":73.0243,"temp":28.1,"humidity":70,"rain":0.0,"pressure":977.9,"uv_index":8.4,"wind_gusts":49.0,"aqi":216,"pm10":365.1,"pm2_5":84.1,"no2":2.3,"co":103.0,"o3":45.0,"so2":2.8,"mosquito_risk":7,"arthritis_risk":5,"migraine_risk":7,"frizz_risk":1,"updated_at":"2026-07-14T08:11:54.463442+05:30"},{"city":"Udaipur","state":"Rajasthan","latitude":24.5854,"longitude":73.7125,"temp":24.9,"humidity":80,"rain":0.0,"pressure":942.5,"uv_index":8.25,"wind_gusts":47.9,"aqi":74,"pm10":35.6,"pm2_5":16.3,"no2":3.6,"co":107.0,"o3":39.0,"so2":3.9,"mosquito_risk":3,"arthritis_risk":5,"migraine_risk":7,"frizz_risk":1,"updated_at":"2026-07-14T08:11:54.463449+05:30"},{"city":"Kota","state":"Rajasthan","latitude":25.2138,"longitude":75.8648,"temp":28.2,"humidity":64,"rain":0.0,"pressure":974.6,"uv_index":8.05,"wind_gusts":40.0,"aqi":93,"pm10":52.7,"pm2_5":27.2,"no2":5.2,"co":129.0,"o3":49.0,"so2":6.0,"mosquito_risk":7,"arthritis_risk":5,"migraine_risk":7,"frizz_risk":1,"updated_at":"2026-07-14T08:11:54.463455+05:30"},{"city":"Bikaner","state":"Rajasthan","latitude":28.0229,"longitude":73.3119,"temp":30.3,"humidity":63,"rain":0.0,"pressure":975.6,"uv_index":8.4,"wind_gusts":41.8,"aqi":168,"pm10":371.6,"pm2_5":127.6,"no2":1.7,"co":100.0,"o3":47.0,"so2":3.7,"mosquito_risk":3,"arthritis_risk":5,"migraine_risk":7,"frizz_risk":1,"updated_at":"2026-07-14T08:11:54.463462+05:30"},{"city":"Ajmer","state":"Rajasthan","latitude":26.4499,"longitude":74.6399,"temp":26.0,"humidity":76,"rain":0.0,"pressure":949.9,"uv_index":8.35,"wind_gusts":53.6,"aqi":106,"pm10":102.9,"pm2_5":40.0,"no2":3.2,"co":113.0,"o3":47.0,"so2":3.3,"mosquito_risk":7,"arthritis_risk":5,"migraine_risk":7,"frizz_risk":1,"updated_at":"2026-07-14T08:11:54.463470+05:30"},{"city":"Gwalior","state":"Madhya Pradesh","latitude":26.2183,"longitude":78.1828,"temp":30.2,"humidity":69,"rain":0.0,"pressure":977.6,"uv_index":7.9,"wind_gusts":41.4,"aqi":108,"pm10":37.8,"pm2_5":25.8,"no2":6.1,"co":147.0,"o3":63.0,"so2":5.0,"mosquito_risk":3,"arthritis_risk":5,"migraine_risk":7,"frizz_risk":1,"updated_at":"2026-07-14T08:11:54.463477+05:30"},{"city":"Indore","state":"Madhya Pradesh","latitude":22.7196,"longitude":75.8577,"temp":24.8,"humidity":81,"rain":0.0,"pressure":945.7,"uv_index":8.5,"wind_gusts":53.3,"aqi":71,"pm10":25.8,"pm2_5":14.3,"no2":7.2,"co":185.0,"o3":35.0,"so2":8.3,"mosquito_risk":3,"arthritis_risk":5,"migraine_risk":7,"frizz_risk":1,"updated_at":"2026-07-14T08:11:54.463484+05:30"},{"city":"Bhopal","state":"Madhya Pradesh","latitude":23.2599,"longitude":77.4126,"temp":26.5,"humidity":78,"rain":0.0,"pressure":951.0,"uv_index":8.55,"wind_gusts":44.3,"aqi":80,"pm10":23.5,"pm2_5":15.1,"no2":6.3,"co":182.0,"o3":39.0,"so2":7.6,"mosquito_risk":7,"arthritis_risk":5,"migraine_risk":7,"frizz_risk":1,"updated_at":"2026-07-14T08:11:54.463492+05:30"},{"city":"Jabalpur","state":"Madhya Pradesh","latitude":23.1815,"longitude":79.9864,"temp":28.0,"humidity":73,"rain":0.0,"pressure":958.0,"uv_index":8.25,"wind_gusts":41.4,"aqi":91,"pm10":36.1,"pm2_5":25.6,"no2":5.3,"co":190.0,"o3":66.0,"so2":6.3,"mosquito_risk":7,"arthritis_risk":5,"migraine_risk":7,"frizz_risk":1,"updated_at":"2026-07-14T08:11:54.463499+05:30"},{"city":"Ujjain","state":"Madhya Pradesh","latitude":23.1765,"longitude":75.7885,"temp":25.0,"humidity":82,"rain":0.0,"pressure":951.1,"uv_index":8.05,"wind_gusts":50.0,"aqi":70,"pm10":28.2,"pm2_5":14.5,"no2":5.4,"co":156.0,"o3":38.0,"so2":6.4,"mosquito_risk":7,"arthritis_risk":5,"migraine_risk":7,"frizz_risk":1,"updated_at":"2026-07-14T08:11:54.463506+05:30"},{"city":"Visakhapatnam","state":"Andhra Pradesh","latitude":17.6868,"longitude":83.2185,"temp":31.2,"humidity":66,"rain":0.0,"pressure":997.9,"uv_index":8.15,"wind_gusts":24.5,"aqi":129,"pm10":92.9,"pm2_5":54.0,"no2":32.0,"co":445.0,"o3":48.0,"so2":60.4,"mosquito_risk":3,"arthritis_risk":5,"migraine_risk":7,"frizz_risk":1,"updated_at":"2026-07-14T08:11:54.463514+05:30"},{"city":"Vijayawada","state":"Andhra Pradesh","latitude":16.5062,"longitude":80.648,"temp":32.0,"humidity":53,"rain":0.0,"pressure":999.3,"uv_index":5.75,"wind_gusts":45.4,"aqi":82,"pm10":20.2,"pm2_5":16.0,"no2":8.2,"co":175.0,"o3":55.0,"so2":6.8,"mosquito_risk":0,"arthritis_risk":5,"migraine_risk":3,"frizz_risk":1,"updated_at":"2026-07-14T08:11:54.463520+05:30"},{"city":"Guntur","state":"Andhra Pradesh","latitude":16.3067,"longitude":80.4365,"temp":32.0,"humidity":51,"rain":0.0,"pressure":1000.6,"uv_index":4.75,"wind_gusts":46.4,"aqi":73,"pm10":21.5,"pm2_5":16.3,"no2":7.1,"co":151.0,"o3":55.0,"so2":6.2,"mosquito_risk":0,"arthritis_risk":5,"migraine_risk":0,"frizz_risk":1,"updated_at":"2026-07-14T08:11:54.463527+05:30"},{"city":"Nellore","state":"Andhra Pradesh","latitude":14.4426,"longitude":79.9865,"temp":31.2,"humidity":54,"rain":0.0,"pressure":1003.5,"uv_index":7.9,"wind_gusts":47.2,"aqi":67,"pm10":16.1,"pm2_5":10.5,"no2":5.4,"co":122.0,"o3":49.0,"so2":7.0,"mosquito_risk":0,"arthritis_risk":5,"migraine_risk":4,"frizz_risk":1,"updated_at":"2026-07-14T08:11:54.463534+05:30"},{"city":"Kurnool","state":"Andhra Pradesh","latitude":15.8281,"longitude":78.0373,"temp":27.7,"humidity":63,"rain":0.0,"pressure":976.7,"uv_index":8.0,"wind_gusts":43.2,"aqi":54,"pm10":15.9,"pm2_5":11.1,"no2":6.8,"co":133.0,"o3":39.0,"so2":6.1,"mosquito_risk":7,"arthritis_risk":5,"migraine_risk":7,"frizz_risk":1,"updated_at":"2026-07-14T08:11:54.463542+05:30"},{"city":"Kakinada","state":"Andhra Pradesh","latitude":16.9891,"longitude":82.2475,"temp":31.5,"humidity":66,"rain":0.0,"pressure":1002.4,"uv_index":8.2,"wind_gusts":54.7,"aqi":94,"pm10":48.2,"pm2_5":28.8,"no2":8.1,"co":234.0,"o3":79.0,"so2":6.1,"mosquito_risk":3,"arthritis_risk":5,"migraine_risk":4,"frizz_risk":1,"updated_at":"2026-07-14T08:11:54.463549+05:30"},{"city":"Tirupati","state":"Andhra Pradesh","latitude":13.6288,"longitude":79.4192,"temp":29.6,"humidity":53,"rain":0.0,"pressure":989.0,"uv_index":8.95,"wind_gusts":38.5,"aqi":77,"pm10":16.9,"pm2_5":10.4,"no2":4.4,"co":123.0,"o3":53.0,"so2":1.8,"mosquito_risk":4,"arthritis_risk":5,"migraine_risk":7,"frizz_risk":1,"updated_at":"2026-07-14T08:11:54.463556+05:30"},{"city":"Warangal","state":"Telangana","latitude":17.9689,"longitude":79.5941,"temp":28.6,"humidity":63,"rain":0.0,"pressure":976.4,"uv_index":7.75,"wind_gusts":40.0,"aqi":69,"pm10":27.9,"pm2_5":20.0,"no2":4.5,"co":153.0,"o3":68.0,"so2":6.3,"mosquito_risk":7,"arthritis_risk":5,"migraine_risk":7,"frizz_risk":1,"updated_at":"2026-07-14T08:11:54.463564+05:30"},{"city":"Nizamabad","state":"Telangana","latitude":18.6725,"longitude":78.0941,"temp":26.2,"humidity":69,"rain":0.0,"pressure":963.7,"uv_index":7.5,"wind_gusts":42.1,"aqi":61,"pm10":22.2,"pm2_5":15.6,"no2":5.0,"co":138.0,"o3":46.0,"so2":6.1,"mosquito_risk":7,"arthritis_risk":5,"migraine_risk":7,"frizz_risk":1,"updated_at":"2026-07-14T08:11:54.463571+05:30"},{"city":"Mysore","state":"Karnataka","latitude":12.2958,"longitude":76.6396,"temp":22.7,"humidity":79,"rain":0.0,"pressure":929.1,"uv_index":8.75,"wind_gusts":40.0,"aqi":55,"pm10":16.8,"pm2_5":11.3,"no2":7.8,"co":134.0,"o3":36.0,"so2":2.2,"mosquito_risk":3,"arthritis_risk":5,"migraine_risk":7,"frizz_risk":1,"updated_at":"2026-07-14T08:11:54.463578+05:30"},{"city":"Mangalore","state":"Karnataka","latitude":12.9141,"longitude":74.856,"temp":27.1,"humidity":89,"rain":0.0,"pressure":1008.2,"uv_index":7.85,"wind_gusts":34.6,"aqi":58,"pm10":25.6,"pm2_5":19.7,"no2":9.0,"co":155.0,"o3":32.0,"so2":4.1,"mosquito_risk":7,"arthritis_risk":0,"migraine_risk":4,"frizz_risk":1,"updated_at":"2026-07-14T08:11:54.463585+05:30"},{"city":"Hubli-Dharwad","state":"Karnataka","latitude":15.3647,"longitude":75.124,"temp":23.7,"humidity":82,"rain":0.0,"pressure":941.2,"uv_index":8.75,"wind_gusts":48.2,"aqi":46,"pm10":11.0,"pm2_5":7.0,"no2":3.1,"co":115.0,"o3":45.0,"so2":1.9,"mosquito_risk":3,"arthritis_risk":5,"migraine_risk":7,"frizz_risk":1,"updated_at":"2026-07-14T08:11:54.463592+05:30"},{"city":"Belgaum","state":"Karnataka","latitude":15.8497,"longitude":74.4977,"temp":22.4,"humidity":86,"rain":0.0,"pressure":926.0,"uv_index":8.75,"wind_gusts":45.7,"aqi":46,"pm10":14.4,"pm2_5":8.8,"no2":3.6,"co":111.0,"o3":43.0,"so2":2.0,"mosquito_risk":3,"arthritis_risk":5,"migraine_risk":7,"frizz_risk":1,"updated_at":"2026-07-14T08:11:57.811305+05:30"},{"city":"Coimbatore","state":"Tamil Nadu","latitude":11.0168,"longitude":76.9558,"temp":25.6,"humidity":79,"rain":0.0,"pressure":961.8,"uv_index":8.75,"wind_gusts":53.3,"aqi":53,"pm10":23.1,"pm2_5":12.0,"no2":6.0,"co":178.0,"o3":46.0,"so2":3.7,"mosquito_risk":7,"arthritis_risk":5,"migraine_risk":7,"frizz_risk":1,"updated_at":"2026-07-14T08:11:57.811338+05:30"},{"city":"Madurai","state":"Tamil Nadu","latitude":9.9252,"longitude":78.1198,"temp":29.4,"humidity":58,"rain":0.0,"pressure":992.2,"uv_index":8.55,"wind_gusts":29.2,"aqi":70,"pm10":20.0,"pm2_5":16.8,"no2":16.7,"co":143.0,"o3":36.0,"so2":6.5,"mosquito_risk":4,"arthritis_risk":5,"migraine_risk":7,"frizz_risk":1,"updated_at":"2026-07-14T08:11:57.811350+05:30"},{"city":"Trichy","state":"Tamil Nadu","latitude":10.7905,"longitude":78.7047,"temp":29.2,"humidity":64,"rain":0.0,"pressure":998.5,"uv_index":8.4,"wind_gusts":46.8,"aqi":65,"pm10":16.6,"pm2_5":10.3,"no2":5.3,"co":131.0,"o3":43.0,"so2":4.5,"mosquito_risk":7,"arthritis_risk":5,"migraine_risk":7,"frizz_risk":1,"updated_at":"2026-07-14T08:11:57.811358+05:30"},{"city":"Salem","state":"Tamil Nadu","latitude":11.6643,"longitude":78.146,"temp":26.4,"humidity":70,"rain":0.0,"pressure":977.3,"uv_index":8.2,"wind_gusts":29.9,"aqi":71,"pm10":31.9,"pm2_5":23.9,"no2":18.3,"co":134.0,"o3":36.0,"so2":10.8,"mosquito_risk":7,"arthritis_risk":5,"migraine_risk":7,"frizz_risk":1,"updated_at":"2026-07-14T08:11:57.811366+05:30"},{"city":"Tirunelveli","state":"Tamil Nadu","latitude":8.7139,"longitude":77.7567,"temp":30.7,"humidity":56,"rain":0.0,"pressure":1002.2,"uv_index":8.15,"wind_gusts":43.2,"aqi":50,"pm10":14.6,"pm2_5":8.8,"no2":4.1,"co":145.0,"o3":41.0,"so2":2.2,"mosquito_risk":0,"arthritis_risk":5,"migraine_risk":4,"frizz_risk":1,"updated_at":"2026-07-14T08:11:57.811374+05:30"},{"city":"Vellore","state":"Tamil Nadu","latitude":12.9165,"longitude":79.1325,"temp":29.1,"humidity":53,"rain":0.0,"pressure":982.8,"uv_index":8.4,"wind_gusts":43.2,"aqi":74,"pm10":19.4,"pm2_5":12.2,"no2":7.8,"co":158.0,"o3":49.0,"so2":4.8,"mosquito_risk":4,"arthritis_risk":5,"migraine_risk":7,"frizz_risk":1,"updated_at":"2026-07-14T08:11:57.811382+05:30"},{"city":"Erode","state":"Tamil Nadu","latitude":11.341,"longitude":77.7172,"temp":27.9,"humidity":66,"rain":0.0,"pressure":989.2,"uv_index":8.7,"wind_gusts":45.4,"aqi":61,"pm10":16.5,"pm2_5":11.6,"no2":8.2,"co":181.0,"o3":38.0,"so2":3.9,"mosquito_risk":7,"arthritis_risk":5,"migraine_risk":7,"frizz_risk":1,"updated_at":"2026-07-14T08:11:57.811389+05:30"},{"city":"Kochi","state":"Kerala","latitude":9.9312,"longitude":76.2673,"temp":27.4,"humidity":88,"rain":0.0,"pressure":1009.9,"uv_index":8.2,"wind_gusts":41.4,"aqi":56,"pm10":23.4,"pm2_5":15.6,"no2":7.4,"co":123.0,"o3":38.0,"so2":4.4,"mosquito_risk":7,"arthritis_risk":0,"migraine_risk":4,"frizz_risk":1,"updated_at":"2026-07-14T08:11:57.811397+05:30"},{"city":"Thiruvananthapuram","state":"Kerala","latitude":8.5241,"longitude":76.9366,"temp":26.9,"humidity":85,"rain":0.0,"pressure":1008.8,"uv_index":7.9,"wind_gusts":52.2,"aqi":53,"pm10":18.7,"pm2_5":10.6,"no2":4.7,"co":162.0,"o3":42.0,"so2":2.0,"mosquito_risk":7,"arthritis_risk":0,"migraine_risk":4,"frizz_risk":1,"updated_at":"2026-07-14T08:11:57.811403+05:30"},{"city":"Kozhikode","state":"Kerala","latitude":11.2588,"longitude":75.7804,"temp":26.7,"humidity":85,"rain":0.0,"pressure":1009.2,"uv_index":8.6,"wind_gusts":44.3,"aqi":53,"pm10":18.0,"pm2_5":10.2,"no2":2.7,"co":151.0,"o3":47.0,"so2":2.3,"mosquito_risk":7,"arthritis_risk":0,"migraine_risk":4,"frizz_risk":1,"updated_at":"2026-07-14T08:11:57.811410+05:30"},{"city":"Thrissur","state":"Kerala","latitude":10.5276,"longitude":76.2144,"temp":26.4,"humidity":91,"rain":0.1,"pressure":1008.5,"uv_index":7.75,"wind_gusts":40.0,"aqi":54,"pm10":22.6,"pm2_5":15.5,"no2":5.8,"co":199.0,"o3":41.0,"so2":3.6,"mosquito_risk":10,"arthritis_risk":0,"migraine_risk":4,"frizz_risk":1,"updated_at":"2026-07-14T08:11:57.811418+05:30"},{"city":"Kannur","state":"Kerala","latitude":11.8745,"longitude":75.3704,"temp":26.9,"humidity":87,"rain":0.0,"pressure":1008.4,"uv_index":8.75,"wind_gusts":41.8,"aqi":54,"pm10":18.8,"pm2_5":13.5,"no2":6.8,"co":164.0,"o3":37.0,"so2":3.2,"mosquito_risk":7,"arthritis_risk":0,"migraine_risk":4,"frizz_risk":1,"updated_at":"2026-07-14T08:11:57.811425+05:30"},{"city":"Patna","state":"Bihar","latitude":25.5941,"longitude":85.1376,"temp":29.8,"humidity":82,"rain":0.0,"pressure":994.7,"uv_index":8.5,"wind_gusts":20.9,"aqi":152,"pm10":97.8,"pm2_5":56.7,"no2":14.3,"co":338.0,"o3":86.0,"so2":17.1,"mosquito_risk":7,"arthritis_risk":5,"migraine_risk":7,"frizz_risk":1,"updated_at":"2026-07-14T08:11:57.811432+05:30"},{"city":"Gaya","state":"Bihar","latitude":24.7914,"longitude":85.0002,"temp":29.2,"humidity":82,"rain":0.0,"pressure":988.6,"uv_index":8.05,"wind_gusts":26.6,"aqi":153,"pm10":127.6,"pm2_5":74.5,"no2":14.8,"co":317.0,"o3":75.0,"so2":13.2,"mosquito_risk":7,"arthritis_risk":5,"migraine_risk":7,"frizz_risk":1,"updated_at":"2026-07-14T08:11:57.811439+05:30"},{"city":"Muzaffarpur","state":"Bihar","latitude":26.1209,"longitude":85.3647,"temp":28.2,"humidity":87,"rain":0.0,"pressure":995.0,"uv_index":8.15,"wind_gusts":20.9,"aqi":154,"pm10":72.6,"pm2_5":43.8,"no2":14.1,"co":328.0,"o3":81.0,"so2":14.6,"mosquito_risk":7,"arthritis_risk":5,"migraine_risk":7,"frizz_risk":1,"updated_at":"2026-07-14T08:11:57.811446+05:30"},{"city":"Bhagalpur","state":"Bihar","latitude":25.2425,"longitude":87.0117,"temp":28.5,"humidity":87,"rain":0.0,"pressure":995.9,"uv_index":6.9,"wind_gusts":20.9,"aqi":139,"pm10":37.0,"pm2_5":22.2,"no2":9.9,"co":283.0,"o3":91.0,"so2":13.3,"mosquito_risk":7,"arthritis_risk":5,"migraine_risk":7,"frizz_risk":1,"updated_at":"2026-07-14T08:11:57.811452+05:30"},{"city":"Ranchi","state":"Jharkhand","latitude":23.3441,"longitude":85.3096,"temp":26.5,"humidity":79,"rain":0.0,"pressure":933.3,"uv_index":8.6,"wind_gusts":36.4,"aqi":151,"pm10":99.4,"pm2_5":54.7,"no2":14.1,"co":204.0,"o3":73.0,"so2":15.9,"mosquito_risk":7,"arthritis_risk":5,"migraine_risk":7,"frizz_risk":1,"updated_at":"2026-07-14T08:11:57.811459+05:30"},{"city":"Jamshedpur","state":"Jharkhand","latitude":22.8046,"longitude":86.2029,"temp":27.9,"humidity":87,"rain":0.0,"pressure":985.3,"uv_index":7.6,"wind_gusts":28.1,"aqi":158,"pm10":135.5,"pm2_5":80.1,"no2":26.9,"co":590.0,"o3":58.0,"so2":49.3,"mosquito_risk":7,"arthritis_risk":5,"migraine_risk":7,"frizz_risk":1,"updated_at":"2026-07-14T08:11:57.811466+05:30"},{"city":"Dhanbad","state":"Jharkhand","latitude":23.7957,"longitude":86.4304,"temp":27.6,"humidity":91,"rain":0.0,"pressure":974.5,"uv_index":7.35,"wind_gusts":28.4,"aqi":166,"pm10":142.5,"pm2_5":107.3,"no2":57.5,"co":1011.0,"o3":23.0,"so2":136.7,"mosquito_risk":7,"arthritis_risk":5,"migraine_risk":7,"frizz_risk":1,"updated_at":"2026-07-14T08:11:57.811473+05:30"},{"city":"Bokaro","state":"Jharkhand","latitude":23.6693,"longitude":86.1511,"temp":29.1,"humidity":84,"rain":0.0,"pressure":978.2,"uv_index":5.9,"wind_gusts":29.2,"aqi":167,"pm10":145.3,"pm2_5":102.2,"no2":46.2,"co":511.0,"o3":25.0,"so2":121.7,"mosquito_risk":7,"arthritis_risk":5,"migraine_risk":3,"frizz_risk":1,"updated_at":"2026-07-14T08:11:57.811481+05:30"},{"city":"Bhubaneswar","state":"Odisha","latitude":20.2961,"longitude":85.8245,"temp":26.6,"humidity":93,"rain":0.5,"pressure":996.6,"uv_index":1.75,"wind_gusts":41.0,"aqi":121,"pm10":71.7,"pm2_5":48.2,"no2":17.5,"co":496.0,"o3":69.0,"so2":9.8,"mosquito_risk":10,"arthritis_risk":5,"migraine_risk":3,"frizz_risk":1,"updated_at":"2026-07-14T08:11:57.811487+05:30"},{"city":"Cuttack","state":"Odisha","latitude":20.4625,"longitude":85.8828,"temp":25.2,"humidity":99,"rain":0.2,"pressure":998.8,"uv_index":1.35,"wind_gusts":45.7,"aqi":121,"pm10":71.7,"pm2_5":48.2,"no2":17.5,"co":395.0,"o3":69.0,"so2":9.8,"mosquito_risk":10,"arthritis_risk":5,"migraine_risk":3,"frizz_risk":1,"updated_at":"2026-07-14T08:11:57.811494+05:30"},{"city":"Rourkela","state":"Odisha","latitude":22.2604,"longitude":84.8536,"temp":28.2,"humidity":86,"rain":0.0,"pressure":979.2,"uv_index":4.2,"wind_gusts":29.2,"aqi":137,"pm10":130.4,"pm2_5":70.3,"no2":17.2,"co":407.0,"o3":54.0,"so2":12.5,"mosquito_risk":7,"arthritis_risk":5,"migraine_risk":3,"frizz_risk":1,"updated_at":"2026-07-14T08:11:57.811500+05:30"},{"city":"Raipur","state":"Chhattisgarh","latitude":21.2514,"longitude":81.6296,"temp":28.9,"humidity":70,"rain":0.0,"pressure":970.6,"uv_index":8.45,"wind_gusts":48.6,"aqi":131,"pm10":66.8,"pm2_5":46.6,"no2":34.4,"co":191.0,"o3":34.0,"so2":66.0,"mosquito_risk":7,"arthritis_risk":5,"migraine_risk":7,"frizz_risk":1,"updated_at":"2026-07-14T08:11:57.811507+05:30"},{"city":"Bhilai","state":"Chhattisgarh","latitude":21.1938,"longitude":81.3509,"temp":28.6,"humidity":71,"rain":0.0,"pressure":971.1,"uv_index":8.7,"wind_gusts":41.0,"aqi":121,"pm10":57.0,"pm2_5":39.3,"no2":23.5,"co":424.0,"o3":51.0,"so2":48.8,"mosquito_risk":7,"arthritis_risk":5,"migraine_risk":7,"frizz_risk":1,"updated_at":"2026-07-14T08:11:57.811513+05:30"},{"city":"Guwahati","state":"Assam","latitude":26.1158,"longitude":91.7086,"temp":28.6,"humidity":84,"rain":0.0,"pressure":996.6,"uv_index":7.4,"wind_gusts":25.2,"aqi":56,"pm10":12.5,"pm2_5":10.3,"no2":3.4,"co":311.0,"o3":79.0,"so2":1.9,"mosquito_risk":7,"arthritis_risk":5,"migraine_risk":7,"frizz_risk":1,"updated_at":"2026-07-14T08:11:57.811520+05:30"},{"city":"Agartala","state":"Tripura","latitude":23.8315,"longitude":91.2868,"temp":29.1,"humidity":80,"rain":0.0,"pressure":1000.9,"uv_index":8.7,"wind_gusts":23.4,"aqi":77,"pm10":22.9,"pm2_5":19.3,"no2":7.8,"co":198.0,"o3":75.0,"so2":3.9,"mosquito_risk":7,"arthritis_risk":5,"migraine_risk":4,"frizz_risk":1,"updated_at":"2026-07-14T08:11:57.811528+05:30"},{"city":"Shillong","state":"Meghalaya","latitude":25.5788,"longitude":91.8933,"temp":24.4,"humidity":75,"rain":0.0,"pressure":855.5,"uv_index":7.55,"wind_gusts":27.7,"aqi":59,"pm10":13.3,"pm2_5":10.2,"no2":2.6,"co":231.0,"o3":83.0,"so2":2.5,"mosquito_risk":3,"arthritis_risk":5,"migraine_risk":7,"frizz_risk":1,"updated_at":"2026-07-14T08:11:57.811535+05:30"},{"city":"Imphal","state":"Manipur","latitude":24.817,"longitude":93.9368,"temp":26.4,"humidity":78,"rain":0.0,"pressure":920.0,"uv_index":9.05,"wind_gusts":25.9,"aqi":55,"pm10":5.3,"pm2_5":4.9,"no2":2.9,"co":247.0,"o3":70.0,"so2":1.6,"mosquito_risk":7,"arthritis_risk":5,"migraine_risk":7,"frizz_risk":1,"updated_at":"2026-07-14T08:11:57.811541+05:30"},{"city":"Aizawl","state":"Mizoram","latitude":23.7271,"longitude":92.7176,"temp":23.5,"humidity":83,"rain":0.0,"pressure":888.6,"uv_index":9.0,"wind_gusts":19.4,"aqi":56,"pm10":10.8,"pm2_5":8.1,"no2":1.9,"co":178.0,"o3":68.0,"so2":1.1,"mosquito_risk":3,"arthritis_risk":5,"migraine_risk":7,"frizz_risk":1,"updated_at":"2026-07-14T08:11:57.811548+05:30"},{"city":"Kohima","state":"Nagaland","latitude":25.6701,"longitude":94.1077,"temp":24.9,"humidity":74,"rain":0.0,"pressure":853.9,"uv_index":8.15,"wind_gusts":22.7,"aqi":41,"pm10":7.1,"pm2_5":6.7,"no2":2.3,"co":187.0,"o3":67.0,"so2":1.0,"mosquito_risk":3,"arthritis_risk":5,"migraine_risk":7,"frizz_risk":1,"updated_at":"2026-07-14T08:11:57.811555+05:30"},{"city":"Gangtok","state":"Sikkim","latitude":27.3314,"longitude":88.6138,"temp":19.9,"humidity":98,"rain":0.0,"pressure":835.5,"uv_index":8.4,"wind_gusts":26.6,"aqi":43,"pm10":8.3,"pm2_5":8.1,"no2":5.7,"co":302.0,"o3":90.0,"so2":1.2,"mosquito_risk":3,"arthritis_risk":10,"migraine_risk":7,"frizz_risk":1,"updated_at":"2026-07-14T08:11:57.811562+05:30"},{"city":"Siliguri","state":"West Bengal","latitude":26.7271,"longitude":88.3953,"temp":26.6,"humidity":94,"rain":0.0,"pressure":988.4,"uv_index":8.35,"wind_gusts":28.4,"aqi":67,"pm10":19.2,"pm2_5":18.5,"no2":8.5,"co":414.0,"o3":105.0,"so2":3.8,"mosquito_risk":7,"arthritis_risk":5,"migraine_risk":7,"frizz_risk":1,"updated_at":"2026-07-14T08:12:01.174720+05:30"},{"city":"Durgapur","state":"West Bengal","latitude":23.5204,"longitude":87.3119,"temp":27.8,"humidity":88,"rain":0.0,"pressure":989.8,"uv_index":7.75,"wind_gusts":27.0,"aqi":165,"pm10":98.7,"pm2_5":79.9,"no2":43.0,"co":898.0,"o3":34.0,"so2":58.9,"mosquito_risk":7,"arthritis_risk":5,"migraine_risk":7,"frizz_risk":1,"updated_at":"2026-07-14T08:12:01.174754+05:30"},{"city":"Asansol","state":"West Bengal","latitude":23.6739,"longitude":86.9524,"temp":28.2,"humidity":90,"rain":0.0,"pressure":988.5,"uv_index":7.8,"wind_gusts":24.8,"aqi":159,"pm10":114.8,"pm2_5":86.1,"no2":47.5,"co":461.0,"o3":30.0,"so2":66.3,"mosquito_risk":7,"arthritis_risk":5,"migraine_risk":7,"frizz_risk":1,"updated_at":"2026-07-14T08:12:01.174764+05:30"},{"city":"Pondicherry","state":"Puducherry","latitude":11.9139,"longitude":79.8145,"temp":30.4,"humidity":58,"rain":0.0,"pressure":1006.5,"uv_index":8.25,"wind_gusts":43.2,"aqi":69,"pm10":22.1,"pm2_5":16.8,"no2":13.6,"co":193.0,"o3":41.0,"so2":7.9,"mosquito_risk":0,"arthritis_risk":5,"migraine_risk":4,"frizz_risk":1,"updated_at":"2026-07-14T08:12:01.174774+05:30"},{"city":"Port Blair","state":"Andaman and Nicobar Islands","latitude":11.6234,"longitude":92.7265,"temp":28.5,"humidity":82,"rain":0.1,"pressure":1005.3,"uv_index":8.15,"wind_gusts":61.9,"aqi":48,"pm10":19.2,"pm2_5":8.2,"no2":0.4,"co":98.0,"o3":48.0,"so2":0.4,"mosquito_risk":10,"arthritis_risk":5,"migraine_risk":4,"frizz_risk":1,"updated_at":"2026-07-14T08:12:01.174782+05:30"},{"city":"Haridwar","state":"Uttarakhand","latitude":29.9457,"longitude":78.1642,"temp":27.7,"humidity":86,"rain":0.0,"pressure":967.1,"uv_index":7.5,"wind_gusts":32.8,"aqi":180,"pm10":180.2,"pm2_5":88.7,"no2":16.9,"co":270.0,"o3":107.0,"so2":12.6,"mosquito_risk":7,"arthritis_risk":5,"migraine_risk":7,"frizz_risk":1,"updated_at":"2026-07-14T08:12:01.174791+05:30"},{"city":"Rishikesh","state":"Uttarakhand","latitude":30.0869,"longitude":78.2676,"temp":27.0,"humidity":89,"rain":0.0,"pressure":959.9,"uv_index":7.6,"wind_gusts":28.4,"aqi":167,"pm10":156.9,"pm2_5":68.9,"no2":4.3,"co":247.0,"o3":131.0,"so2":9.0,"mosquito_risk":7,"arthritis_risk":5,"migraine_risk":7,"frizz_risk":1,"updated_at":"2026-07-14T08:12:01.174798+05:30"},{"city":"Nainital","state":"Uttarakhand","latitude":29.3919,"longitude":79.4542,"temp":20.9,"humidity":72,"rain":0.0,"pressure":803.7,"uv_index":8.5,"wind_gusts":28.1,"aqi":162,"pm10":209.5,"pm2_5":72.2,"no2":5.9,"co":206.0,"o3":105.0,"so2":6.2,"mosquito_risk":3,"arthritis_risk":5,"migraine_risk":7,"frizz_risk":0,"updated_at":"2026-07-14T08:12:01.174806+05:30"},{"city":"Mussoorie","state":"Uttarakhand","latitude":30.4599,"longitude":78.0664,"temp":20.3,"humidity":71,"rain":0.0,"pressure":800.4,"uv_index":8.0,"wind_gusts":27.4,"aqi":162,"pm10":119.0,"pm2_5":61.2,"no2":11.7,"co":217.0,"o3":121.0,"so2":8.5,"mosquito_risk":3,"arthritis_risk":5,"migraine_risk":7,"frizz_risk":0,"updated_at":"2026-07-14T08:12:01.174813+05:30"},{"city":"Dharamshala","state":"Himachal Pradesh","latitude":32.219,"longitude":76.3234,"temp":23.1,"humidity":80,"rain":0.0,"pressure":864.6,"uv_index":8.4,"wind_gusts":28.1,"aqi":73,"pm10":22.9,"pm2_5":10.7,"no2":3.3,"co":291.0,"o3":93.0,"so2":0.9,"mosquito_risk":3,"arthritis_risk":5,"migraine_risk":7,"frizz_risk":1,"updated_at":"2026-07-14T08:12:01.174821+05:30"},{"city":"Dalhousie","state":"Himachal Pradesh","latitude":32.5387,"longitude":75.971,"temp":20.0,"humidity":82,"rain":0.0,"pressure":801.8,"uv_index":8.55,"wind_gusts":28.8,"aqi":138,"pm10":85.9,"pm2_5":44.1,"no2":13.2,"co":281.0,"o3":122.0,"so2":4.0,"mosquito_risk":3,"arthritis_risk":5,"migraine_risk":7,"frizz_risk":1,"updated_at":"2026-07-14T08:12:01.174829+05:30"},{"city":"Patiala","state":"Punjab","latitude":30.3398,"longitude":76.3869,"temp":28.5,"humidity":85,"rain":0.0,"pressure":970.6,"uv_index":7.5,"wind_gusts":45.7,"aqi":185,"pm10":183.0,"pm2_5":123.9,"no2":40.8,"co":544.0,"o3":73.0,"so2":20.2,"mosquito_risk":7,"arthritis_risk":5,"migraine_risk":7,"frizz_risk":1,"updated_at":"2026-07-14T08:12:01.174836+05:30"},{"city":"Bhatinda","state":"Punjab","latitude":30.211,"longitude":74.9455,"temp":32.4,"humidity":57,"rain":0.0,"pressure":976.1,"uv_index":8.2,"wind_gusts":29.9,"aqi":186,"pm10":243.1,"pm2_5":115.7,"no2":30.4,"co":271.0,"o3":52.0,"so2":13.0,"mosquito_risk":0,"arthritis_risk":5,"migraine_risk":7,"frizz_risk":1,"updated_at":"2026-07-14T08:12:01.174843+05:30"},{"city":"Rohtak","state":"Haryana","latitude":28.8955,"longitude":76.6066,"temp":30.4,"humidity":70,"rain":0.0,"pressure":974.6,"uv_index":7.65,"wind_gusts":36.7,"aqi":546,"pm10":1072.9,"pm2_5":224.9,"no2":10.1,"co":249.0,"o3":53.0,"so2":4.3,"mosquito_risk":3,"arthritis_risk":5,"migraine_risk":7,"frizz_risk":1,"updated_at":"2026-07-14T08:12:01.174850+05:30"},{"city":"Panipat","state":"Haryana","latitude":29.3909,"longitude":76.9635,"temp":28.8,"humidity":84,"rain":0.0,"pressure":972.9,"uv_index":7.25,"wind_gusts":42.1,"aqi":576,"pm10":864.3,"pm2_5":204.9,"no2":28.8,"co":282.0,"o3":32.0,"so2":7.6,"mosquito_risk":7,"arthritis_risk":5,"migraine_risk":7,"frizz_risk":1,"updated_at":"2026-07-14T08:12:01.174857+05:30"},{"city":"Mathura","state":"Uttar Pradesh","latitude":27.4924,"longitude":77.6737,"temp":31.1,"humidity":67,"rain":0.0,"pressure":980.2,"uv_index":7.9,"wind_gusts":31.3,"aqi":729,"pm10":597.9,"pm2_5":118.7,"no2":13.9,"co":240.0,"o3":46.0,"so2":4.9,"mosquito_risk":3,"arthritis_risk":5,"migraine_risk":7,"frizz_risk":1,"updated_at":"2026-07-14T08:12:01.174864+05:30"},{"city":"Vrindavan","state":"Uttar Pradesh","latitude":27.5823,"longitude":77.7027,"temp":31.3,"humidity":66,"rain":0.0,"pressure":980.8,"uv_index":7.9,"wind_gusts":31.3,"aqi":729,"pm10":597.9,"pm2_5":118.7,"no2":13.9,"co":231.0,"o3":46.0,"so2":4.9,"mosquito_risk":3,"arthritis_risk":5,"migraine_risk":7,"frizz_risk":1,"updated_at":"2026-07-14T08:12:01.174871+05:30"},{"city":"Ayodhya","state":"Uttar Pradesh","latitude":26.7922,"longitude":82.1998,"temp":28.6,"humidity":85,"rain":0.0,"pressure":989.1,"uv_index":7.95,"wind_gusts":34.2,"aqi":154,"pm10":107.8,"pm2_5":69.4,"no2":19.5,"co":469.0,"o3":62.0,"so2":8.4,"mosquito_risk":7,"arthritis_risk":5,"migraine_risk":7,"frizz_risk":1,"updated_at":"2026-07-14T08:12:01.174879+05:30"},{"city":"Ratlam","state":"Madhya Pradesh","latitude":23.3315,"longitude":75.0367,"temp":24.7,"humidity":85,"rain":0.0,"pressure":951.9,"uv_index":7.95,"wind_gusts":48.6,"aqi":67,"pm10":29.0,"pm2_5":14.1,"no2":5.1,"co":124.0,"o3":38.0,"so2":5.8,"mosquito_risk":3,"arthritis_risk":5,"migraine_risk":7,"frizz_risk":1,"updated_at":"2026-07-14T08:12:01.174886+05:30"},{"city":"Sagar","state":"Madhya Pradesh","latitude":23.8388,"longitude":78.7378,"temp":27.1,"humidity":77,"rain":0.0,"pressure":946.8,"uv_index":8.6,"wind_gusts":47.2,"aqi":90,"pm10":29.9,"pm2_5":20.9,"no2":5.0,"co":165.0,"o3":54.0,"so2":7.4,"mosquito_risk":7,"arthritis_risk":5,"migraine_risk":7,"frizz_risk":1,"updated_at":"2026-07-14T08:12:01.174894+05:30"},{"city":"Satna","state":"Madhya Pradesh","latitude":24.6005,"longitude":80.8322,"temp":28.8,"humidity":71,"rain":0.0,"pressure":966.4,"uv_index":8.55,"wind_gusts":44.6,"aqi":101,"pm10":73.6,"pm2_5":35.9,"no2":4.4,"co":152.0,"o3":78.0,"so2":5.7,"mosquito_risk":7,"arthritis_risk":5,"migraine_risk":7,"frizz_risk":1,"updated_at":"2026-07-14T08:12:01.174901+05:30"},{"city":"Akola","state":"Maharashtra","latitude":20.7002,"longitude":77.0082,"temp":27.3,"humidity":70,"rain":0.0,"pressure":973.7,"uv_index":7.3,"wind_gusts":50.4,"aqi":61,"pm10":18.9,"pm2_5":12.3,"no2":6.0,"co":116.0,"o3":40.0,"so2":7.3,"mosquito_risk":7,"arthritis_risk":5,"migraine_risk":7,"frizz_risk":1,"updated_at":"2026-07-14T08:12:01.174909+05:30"},{"city":"Amravati","state":"Maharashtra","latitude":20.9374,"longitude":77.7796,"temp":26.7,"humidity":72,"rain":0.0,"pressure":965.6,"uv_index":7.2,"wind_gusts":52.2,"aqi":63,"pm10":20.4,"pm2_5":13.2,"no2":6.2,"co":122.0,"o3":40.0,"so2":8.0,"mosquito_risk":7,"arthritis_risk":5,"migraine_risk":7,"frizz_risk":1,"updated_at":"2026-07-14T08:12:01.174917+05:30"},{"city":"Latur","state":"Maharashtra","latitude":18.4088,"longitude":76.5604,"temp":24.7,"humidity":74,"rain":0.0,"pressure":938.9,"uv_index":8.45,"wind_gusts":42.8,"aqi":55,"pm10":11.6,"pm2_5":8.4,"no2":3.8,"co":128.0,"o3":43.0,"so2":3.3,"mosquito_risk":3,"arthritis_risk":5,"migraine_risk":7,"frizz_risk":1,"updated_at":"2026-07-14T08:12:01.174925+05:30"},{"city":"Nanded","state":"Maharashtra","latitude":19.1383,"longitude":77.3091,"temp":26.2,"humidity":71,"rain":0.0,"pressure":967.6,"uv_index":8.65,"wind_gusts":39.6,"aqi":60,"pm10":19.7,"pm2_5":14.0,"no2":5.4,"co":144.0,"o3":43.0,"so2":6.4,"mosquito_risk":7,"arthritis_risk":5,"migraine_risk":7,"frizz_risk":1,"updated_at":"2026-07-14T08:12:01.174932+05:30"},{"city":"Gulbarga","state":"Karnataka","latitude":17.3297,"longitude":76.8343,"temp":25.4,"humidity":73,"rain":0.0,"pressure":958.3,"uv_index":8.25,"wind_gusts":43.6,"aqi":53,"pm10":13.6,"pm2_5":9.7,"no2":5.2,"co":127.0,"o3":39.0,"so2":3.4,"mosquito_risk":7,"arthritis_risk":5,"migraine_risk":7,"frizz_risk":1,"updated_at":"2026-07-14T08:12:01.174939+05:30"},{"city":"Bidar","state":"Karnataka","latitude":17.9104,"longitude":77.5199,"temp":24.4,"humidity":74,"rain":0.0,"pressure":934.5,"uv_index":7.95,"wind_gusts":39.6,"aqi":56,"pm10":18.0,"pm2_5":12.3,"no2":4.7,"co":142.0,"o3":45.0,"so2":3.4,"mosquito_risk":3,"arthritis_risk":5,"migraine_risk":7,"frizz_risk":1,"updated_at":"2026-07-14T08:12:01.174946+05:30"},{"city":"Hospet","state":"Karnataka","latitude":15.2689,"longitude":76.3909,"temp":24.6,"humidity":77,"rain":0.0,"pressure":956.0,"uv_index":7.95,"wind_gusts":45.7,"aqi":51,"pm10":11.1,"pm2_5":7.5,"no2":3.4,"co":116.0,"o3":43.0,"so2":2.1,"mosquito_risk":3,"arthritis_risk":5,"migraine_risk":7,"frizz_risk":1,"updated_at":"2026-07-14T08:12:01.174953+05:30"},{"city":"Tirupur","state":"Tamil Nadu","latitude":11.1085,"longitude":77.3411,"temp":26.5,"humidity":75,"rain":0.0,"pressure":975.3,"uv_index":8.55,"wind_gusts":57.2,"aqi":62,"pm10":19.7,"pm2_5":13.0,"no2":8.3,"co":155.0,"o3":41.0,"so2":4.2,"mosquito_risk":7,"arthritis_risk":5,"migraine_risk":7,"frizz_risk":1,"updated_at":"2026-07-14T08:12:01.174960+05:30"},{"city":"Alappuzha","state":"Kerala","latitude":9.4981,"longitude":76.3388,"temp":28.0,"humidity":79,"rain":0.0,"pressure":1009.9,"uv_index":8.25,"wind_gusts":42.8,"aqi":56,"pm10":23.5,"pm2_5":14.3,"no2":6.3,"co":89.0,"o3":42.0,"so2":4.1,"mosquito_risk":7,"arthritis_risk":0,"migraine_risk":4,"frizz_risk":1,"updated_at":"2026-07-14T08:12:01.175006+05:30"},{"city":"Munnar","state":"Kerala","latitude":10.0889,"longitude":77.0595,"temp":18.4,"humidity":85,"rain":0.0,"pressure":857.2,"uv_index":8.6,"wind_gusts":34.2,"aqi":46,"pm10":10.0,"pm2_5":7.1,"no2":4.0,"co":118.0,"o3":40.0,"so2":2.0,"mosquito_risk":3,"arthritis_risk":10,"migraine_risk":7,"frizz_risk":0,"updated_at":"2026-07-14T08:12:01.175017+05:30"},{"city":"Silchar","state":"Assam","latitude":24.8333,"longitude":92.7789,"temp":29.9,"humidity":79,"rain":0.0,"pressure":999.5,"uv_index":8.8,"wind_gusts":22.3,"aqi":92,"pm10":34.7,"pm2_5":25.7,"no2":4.8,"co":218.0,"o3":100.0,"so2":6.3,"mosquito_risk":7,"arthritis_risk":5,"migraine_risk":7,"frizz_risk":1,"updated_at":"2026-07-14T08:12:01.175025+05:30"},{"city":"Dibrugarh","state":"Assam","latitude":27.4728,"longitude":94.912,"temp":31.1,"humidity":74,"rain":0.0,"pressure":990.0,"uv_index":8.2,"wind_gusts":23.4,"aqi":69,"pm10":17.6,"pm2_5":17.5,"no2":7.8,"co":196.0,"o3":95.0,"so2":2.0,"mosquito_risk":3,"arthritis_risk":5,"migraine_risk":7,"frizz_risk":1,"updated_at":"2026-07-14T08:12:01.175033+05:30"}]