[{"city":"Delhi","state":"Delhi","latitude":28.6139,"longitude":77.209,"temp":39.1,"humidity":26,"rain":0.0,"pressure":974.7,"uv_index":7.8,"wind_gusts":35.3,"aqi":182,"pm10":318.5,"pm2_5":63.8,"no2":3.7,"co":211.0,"o3":154.0,"so2":10.2,"mosquito_risk":0,"arthritis_risk":5,"migraine_risk":10,"frizz_risk":0,"updated_at":"2026-06-23T15:15:46.790852+05:30"},{"city":"Mumbai","state":"Maharashtra","latitude":19.076,"longitude":72.8777,"temp":27.4,"humidity":83,"rain":0.0,"pressure":1003.5,"uv_index":6.35,"wind_gusts":35.3,"aqi":40,"pm10":14.1,"pm2_5":11.3,"no2":5.8,"co":192.0,"o3":100.0,"so2":9.4,"mosquito_risk":7,"arthritis_risk":5,"migraine_risk":4,"frizz_risk":1,"updated_at":"2026-06-23T15:15:46.790892+05:30"},{"city":"Bangalore","state":"Karnataka","latitude":12.9716,"longitude":77.5946,"temp":29.6,"humidity":51,"rain":0.0,"pressure":909.2,"uv_index":8.05,"wind_gusts":52.2,"aqi":23,"pm10":5.3,"pm2_5":3.8,"no2":3.1,"co":234.0,"o3":77.0,"so2":2.1,"mosquito_risk":4,"arthritis_risk":5,"migraine_risk":7,"frizz_risk":1,"updated_at":"2026-06-23T15:15:46.790906+05:30"},{"city":"Hyderabad","state":"Telangana","latitude":17.385,"longitude":78.4867,"temp":34.0,"humidity":44,"rain":0.0,"pressure":948.1,"uv_index":8.95,"wind_gusts":48.2,"aqi":34,"pm10":6.1,"pm2_5":5.2,"no2":2.4,"co":202.0,"o3":74.0,"so2":1.8,"mosquito_risk":0,"arthritis_risk":5,"migraine_risk":7,"frizz_risk":1,"updated_at":"2026-06-23T15:15:46.790916+05:30"},{"city":"Chennai","state":"Tamil Nadu","latitude":13.0827,"longitude":80.2707,"temp":33.1,"humidity":61,"rain":0.0,"pressure":1002.4,"uv_index":7.9,"wind_gusts":37.1,"aqi":53,"pm10":24.7,"pm2_5":19.5,"no2":3.3,"co":253.0,"o3":152.0,"so2":6.6,"mosquito_risk":3,"arthritis_risk":5,"migraine_risk":4,"frizz_risk":1,"updated_at":"2026-06-23T15:15:46.790925+05:30"},{"city":"Kolkata","state":"West Bengal","latitude":22.5726,"longitude":88.3639,"temp":30.1,"humidity":81,"rain":0.3,"pressure":997.9,"uv_index":8.8,"wind_gusts":26.3,"aqi":118,"pm10":64.0,"pm2_5":45.4,"no2":5.6,"co":327.0,"o3":159.0,"so2":12.4,"mosquito_risk":6,"arthritis_risk":5,"migraine_risk":7,"frizz_risk":1,"updated_at":"2026-06-23T15:15:46.790932+05:30"},{"city":"Pune","state":"Maharashtra","latitude":18.5204,"longitude":73.8567,"temp":24.9,"humidity":87,"rain":0.2,"pressure":942.8,"uv_index":5.3,"wind_gusts":36.4,"aqi":25,"pm10":2.6,"pm2_5":2.5,"no2":2.4,"co":137.0,"o3":72.0,"so2":3.0,"mosquito_risk":6,"arthritis_risk":5,"migraine_risk":3,"frizz_risk":1,"updated_at":"2026-06-23T15:15:46.790939+05:30"},{"city":"Ahmedabad","state":"Gujarat","latitude":23.0225,"longitude":72.5714,"temp":38.7,"humidity":32,"rain":0.0,"pressure":993.9,"uv_index":8.0,"wind_gusts":42.1,"aqi":64,"pm10":99.9,"pm2_5":26.8,"no2":1.5,"co":135.0,"o3":90.0,"so2":3.1,"mosquito_risk":0,"arthritis_risk":5,"migraine_risk":10,"frizz_risk":1,"updated_at":"2026-06-23T15:15:46.790946+05:30"},{"city":"Jaipur","state":"Rajasthan","latitude":26.9124,"longitude":75.7873,"temp":37.5,"humidity":29,"rain":0.0,"pressure":953.1,"uv_index":8.2,"wind_gusts":35.6,"aqi":142,"pm10":140.2,"pm2_5":35.7,"no2":1.1,"co":144.0,"o3":100.0,"so2":3.1,"mosquito_risk":0,"arthritis_risk":5,"migraine_risk":10,"frizz_risk":1,"updated_at":"2026-06-23T15:15:46.790952+05:30"},{"city":"Lucknow","state":"Uttar Pradesh","latitude":26.8467,"longitude":80.9462,"temp":39.5,"humidity":26,"rain":0.0,"pressure":984.3,"uv_index":8.25,"wind_gusts":40.3,"aqi":151,"pm10":270.1,"pm2_5":54.5,"no2":1.3,"co":161.0,"o3":150.0,"so2":7.1,"mosquito_risk":0,"arthritis_risk":5,"migraine_risk":10,"frizz_risk":1,"updated_at":"2026-06-23T15:15:46.790962+05:30"},{"city":"Kanpur","state":"Uttar Pradesh","latitude":26.4499,"longitude":80.3319,"temp":39.8,"humidity":26,"rain":0.0,"pressure":982.9,"uv_index":8.25,"wind_gusts":43.6,"aqi":197,"pm10":282.2,"pm2_5":49.7,"no2":1.3,"co":166.0,"o3":140.0,"so2":4.9,"mosquito_risk":0,"arthritis_risk":5,"migraine_risk":10,"frizz_risk":1,"updated_at":"2026-06-23T15:15:46.790969+05:30"},{"city":"Chandigarh","state":"Chandigarh","latitude":30.7333,"longitude":76.7794,"temp":36.5,"humidity":29,"rain":0.0,"pressure":960.8,"uv_index":7.8,"wind_gusts":36.0,"aqi":112,"pm10":24.7,"pm2_5":20.5,"no2":2.1,"co":279.0,"o3":182.0,"so2":8.8,"mosquito_risk":0,"arthritis_risk":5,"migraine_risk":10,"frizz_risk":0,"updated_at":"2026-06-23T15:15:46.790976+05:30"},{"city":"Srinagar","state":"Jammu and Kashmir","latitude":34.0837,"longitude":74.7973,"temp":26.6,"humidity":44,"rain":0.0,"pressure":838.2,"uv_index":9.1,"wind_gusts":18.7,"aqi":75,"pm10":17.0,"pm2_5":12.4,"no2":1.5,"co":301.0,"o3":153.0,"so2":3.0,"mosquito_risk":4,"arthritis_risk":5,"migraine_risk":7,"frizz_risk":0,"updated_at":"2026-06-23T15:15:46.790982+05:30"},{"city":"Jammu","state":"Jammu and Kashmir","latitude":32.7266,"longitude":74.857,"temp":37.8,"humidity":24,"rain":0.0,"pressure":964.3,"uv_index":8.65,"wind_gusts":35.6,"aqi":77,"pm10":18.4,"pm2_5":12.5,"no2":1.6,"co":221.0,"o3":150.0,"so2":1.9,"mosquito_risk":0,"arthritis_risk":5,"migraine_risk":10,"frizz_risk":0,"updated_at":"2026-06-23T15:15:46.790989+05:30"},{"city":"Amritsar","state":"Punjab","latitude":31.634,"longitude":74.8723,"temp":36.3,"humidity":34,"rain":0.0,"pressure":972.2,"uv_index":8.5,"wind_gusts":18.4,"aqi":141,"pm10":50.5,"pm2_5":28.1,"no2":1.9,"co":271.0,"o3":184.0,"so2":8.9,"mosquito_risk":0,"arthritis_risk":5,"migraine_risk":10,"frizz_risk":1,"updated_at":"2026-06-23T15:15:46.790995+05:30"},{"city":"Ludhiana","state":"Punjab","latitude":30.901,"longitude":75.8573,"temp":38.1,"humidity":27,"rain":0.0,"pressure":970.2,"uv_index":8.05,"wind_gusts":32.4,"aqi":106,"pm10":41.7,"pm2_5":24.8,"no2":1.7,"co":276.0,"o3":166.0,"so2":6.0,"mosquito_risk":0,"arthritis_risk":5,"migraine_risk":10,"frizz_risk":0,"updated_at":"2026-06-23T15:15:46.791002+05:30"},{"city":"Jalandhar","state":"Punjab","latitude":31.326,"longitude":75.5762,"temp":37.8,"humidity":28,"rain":0.0,"pressure":971.3,"uv_index":8.25,"wind_gusts":27.7,"aqi":120,"pm10":48.0,"pm2_5":26.0,"no2":1.7,"co":290.0,"o3":173.0,"so2":6.5,"mosquito_risk":0,"arthritis_risk":5,"migraine_risk":10,"frizz_risk":0,"updated_at":"2026-06-23T15:15:46.791008+05:30"},{"city":"Dehradun","state":"Uttarakhand","latitude":30.6284,"longitude":78.0322,"temp":21.9,"humidity":63,"rain":0.2,"pressure":827.4,"uv_index":8.2,"wind_gusts":32.4,"aqi":81,"pm10":23.4,"pm2_5":17.6,"no2":1.3,"co":216.0,"o3":147.0,"so2":3.2,"mosquito_risk":6,"arthritis_risk":5,"migraine_risk":7,"frizz_risk":0,"updated_at":"2026-06-23T15:15:46.791015+05:30"},{"city":"Shimla","state":"Himachal Pradesh","latitude":31.1048,"longitude":77.1734,"temp":21.1,"humidity":47,"rain":0.0,"pressure":782.6,"uv_index":8.35,"wind_gusts":40.3,"aqi":83,"pm10":20.0,"pm2_5":14.3,"no2":1.0,"co":179.0,"o3":152.0,"so2":5.2,"mosquito_risk":0,"arthritis_risk":5,"migraine_risk":7,"frizz_risk":0,"updated_at":"2026-06-23T15:15:46.791024+05:30"},{"city":"Manali","state":"Himachal Pradesh","latitude":32.2396,"longitude":77.1887,"temp":22.9,"humidity":53,"rain":0.1,"pressure":816.0,"uv_index":9.75,"wind_gusts":36.4,"aqi":91,"pm10":9.8,"pm2_5":8.8,"no2":3.3,"co":120.0,"o3":150.0,"so2":0.2,"mosquito_risk":3,"arthritis_risk":5,"migraine_risk":7,"frizz_risk":0,"updated_at":"2026-06-23T15:15:46.791033+05:30"},{"city":"Gurgaon","state":"Haryana","latitude":28.4595,"longitude":77.0266,"temp":38.5,"humidity":28,"rain":0.0,"pressure":973.3,"uv_index":7.85,"wind_gusts":47.9,"aqi":381,"pm10":380.0,"pm2_5":69.6,"no2":3.5,"co":165.0,"o3":145.0,"so2":7.9,"mosquito_risk":0,"arthritis_risk":5,"migraine_risk":10,"frizz_risk":1,"updated_at":"2026-06-23T15:15:46.791039+05:30"},{"city":"Noida","state":"Uttar Pradesh","latitude":28.5355,"longitude":77.391,"temp":38.5,"humidity":28,"rain":0.0,"pressure":975.9,"uv_index":7.8,"wind_gusts":27.7,"aqi":381,"pm10":380.0,"pm2_5":69.6,"no2":3.5,"co":222.0,"o3":145.0,"so2":7.9,"mosquito_risk":0,"arthritis_risk":5,"migraine_risk":10,"frizz_risk":1,"updated_at":"2026-06-23T15:15:46.791045+05:30"},{"city":"Ghaziabad","state":"Uttar Pradesh","latitude":28.6692,"longitude":77.4538,"temp":38.2,"humidity":28,"rain":0.0,"pressure":974.3,"uv_index":7.8,"wind_gusts":29.2,"aqi":164,"pm10":233.3,"pm2_5":57.7,"no2":3.1,"co":179.0,"o3":179.0,"so2":13.7,"mosquito_risk":0,"arthritis_risk":5,"migraine_risk":10,"frizz_risk":1,"updated_at":"2026-06-23T15:15:46.791051+05:30"},{"city":"Faridabad","state":"Haryana","latitude":28.4089,"longitude":77.3178,"temp":38.8,"humidity":26,"rain":0.0,"pressure":975.4,"uv_index":7.85,"wind_gusts":41.0,"aqi":381,"pm10":380.0,"pm2_5":69.6,"no2":3.5,"co":177.0,"o3":145.0,"so2":7.9,"mosquito_risk":0,"arthritis_risk":5,"migraine_risk":10,"frizz_risk":0,"updated_at":"2026-06-23T15:15:46.791057+05:30"},{"city":"Meerut","state":"Uttar Pradesh","latitude":28.9845,"longitude":77.7064,"temp":36.7,"humidity":36,"rain":0.0,"pressure":973.4,"uv_index":7.7,"wind_gusts":34.9,"aqi":164,"pm10":233.3,"pm2_5":57.7,"no2":3.1,"co":189.0,"o3":179.0,"so2":13.7,"mosquito_risk":0,"arthritis_risk":5,"migraine_risk":10,"frizz_risk":1,"updated_at":"2026-06-23T15:15:46.791063+05:30"},{"city":"Agra","state":"Uttar Pradesh","latitude":27.1767,"longitude":78.0081,"temp":39.2,"humidity":27,"rain":0.0,"pressure":979.5,"uv_index":8.1,"wind_gusts":33.1,"aqi":612,"pm10":817.7,"pm2_5":97.1,"no2":1.6,"co":143.0,"o3":127.0,"so2":3.3,"mosquito_risk":0,"arthritis_risk":5,"migraine_risk":10,"frizz_risk":1,"updated_at":"2026-06-23T15:15:46.791070+05:30"},{"city":"Varanasi","state":"Uttar Pradesh","latitude":25.3176,"longitude":82.9739,"temp":39.6,"humidity":27,"rain":0.0,"pressure":988.1,"uv_index":8.75,"wind_gusts":41.8,"aqi":126,"pm10":165.3,"pm2_5":48.5,"no2":1.6,"co":207.0,"o3":151.0,"so2":6.5,"mosquito_risk":0,"arthritis_risk":5,"migraine_risk":10,"frizz_risk":1,"updated_at":"2026-06-23T15:15:46.791094+05:30"},{"city":"Prayagraj","state":"Uttar Pradesh","latitude":25.4358,"longitude":81.8463,"temp":39.8,"humidity":26,"rain":0.0,"pressure":986.7,"uv_index":8.55,"wind_gusts":41.4,"aqi":136,"pm10":129.5,"pm2_5":41.4,"no2":1.4,"co":144.0,"o3":135.0,"so2":4.5,"mosquito_risk":0,"arthritis_risk":5,"migraine_risk":10,"frizz_risk":1,"updated_at":"2026-06-23T15:15:46.791103+05:30"},{"city":"Gorakhpur","state":"Uttar Pradesh","latitude":26.7606,"longitude":83.3732,"temp":36.8,"humidity":42,"rain":0.0,"pressure":987.6,"uv_index":8.65,"wind_gusts":37.1,"aqi":164,"pm10":120.1,"pm2_5":49.6,"no2":1.7,"co":220.0,"o3":170.0,"so2":8.1,"mosquito_risk":0,"arthritis_risk":5,"migraine_risk":10,"frizz_risk":1,"updated_at":"2026-06-23T15:15:46.791109+05:30"},{"city":"Bareilly","state":"Uttar Pradesh","latitude":28.367,"longitude":79.4304,"temp":37.8,"humidity":30,"rain":0.0,"pressure":978.1,"uv_index":8.1,"wind_gusts":32.8,"aqi":156,"pm10":82.9,"pm2_5":37.7,"no2":1.7,"co":224.0,"o3":178.0,"so2":8.7,"mosquito_risk":0,"arthritis_risk":5,"migraine_risk":10,"frizz_risk":1,"updated_at":"2026-06-23T15:15:46.791118+05:30"},{"city":"Aligarh","state":"Uttar Pradesh","latitude":27.8974,"longitude":78.088,"temp":37.6,"humidity":32,"rain":0.0,"pressure":977.4,"uv_index":7.95,"wind_gusts":31.7,"aqi":374,"pm10":616.5,"pm2_5":94.3,"no2":2.1,"co":162.0,"o3":162.0,"so2":9.1,"mosquito_risk":0,"arthritis_risk":5,"migraine_risk":10,"frizz_risk":1,"updated_at":"2026-06-23T15:15:46.791125+05:30"},{"city":"Moradabad","state":"Uttar Pradesh","latitude":28.8386,"longitude":78.7733,"temp":37.3,"humidity":33,"rain":0.0,"pressure":975.3,"uv_index":7.95,"wind_gusts":37.8,"aqi":158,"pm10":49.4,"pm2_5":31.5,"no2":2.1,"co":237.0,"o3":181.0,"so2":8.2,"mosquito_risk":0,"arthritis_risk":5,"migraine_risk":10,"frizz_risk":1,"updated_at":"2026-06-23T15:15:46.791131+05:30"},{"city":"Saharanpur","state":"Uttar Pradesh","latitude":29.9637,"longitude":77.546,"temp":36.0,"humidity":34,"rain":0.0,"pressure":967.6,"uv_index":7.45,"wind_gusts":34.2,"aqi":160,"pm10":132.2,"pm2_5":36.2,"no2":2.3,"co":265.0,"o3":182.0,"so2":10.2,"mosquito_risk":0,"arthritis_risk":5,"migraine_risk":10,"frizz_risk":1,"updated_at":"2026-06-23T15:15:46.791137+05:30"},{"city":"Jhansi","state":"Uttar Pradesh","latitude":25.4484,"longitude":78.5685,"temp":38.6,"humidity":27,"rain":0.0,"pressure":970.3,"uv_index":8.45,"wind_gusts":37.1,"aqi":93,"pm10":70.1,"pm2_5":27.5,"no2":1.0,"co":129.0,"o3":107.0,"so2":4.3,"mosquito_risk":0,"arthritis_risk":5,"migraine_risk":10,"frizz_risk":1,"updated_at":"2026-06-23T15:15:50.022620+05:30"},{"city":"Surat","state":"Gujarat","latitude":21.1702,"longitude":72.8311,"temp":31.6,"humidity":67,"rain":0.0,"pressure":1000.1,"uv_index":4.65,"wind_gusts":41.8,"aqi":64,"pm10":34.5,"pm2_5":21.8,"no2":14.2,"co":310.0,"o3":60.0,"so2":45.8,"mosquito_risk":3,"arthritis_risk":5,"migraine_risk":0,"frizz_risk":1,"updated_at":"2026-06-23T15:15:50.022652+05:30"},{"city":"Vadodara","state":"Gujarat","latitude":22.3072,"longitude":73.1812,"temp":38.2,"humidity":35,"rain":0.0,"pressure":996.3,"uv_index":6.45,"wind_gusts":44.3,"aqi":58,"pm10":64.0,"pm2_5":24.8,"no2":1.6,"co":142.0,"o3":102.0,"so2":3.8,"mosquito_risk":0,"arthritis_risk":5,"migraine_risk":10,"frizz_risk":1,"updated_at":"2026-06-23T15:15:50.022662+05:30"},{"city":"Rajkot","state":"Gujarat","latitude":22.3039,"longitude":70.8022,"temp":37.7,"humidity":38,"rain":0.0,"pressure":986.6,"uv_index":7.55,"wind_gusts":44.3,"aqi":71,"pm10":86.1,"pm2_5":28.4,"no2":1.1,"co":109.0,"o3":102.0,"so2":5.1,"mosquito_risk":0,"arthritis_risk":5,"migraine_risk":10,"frizz_risk":1,"updated_at":"2026-06-23T15:15:50.022671+05:30"},{"city":"Thane","state":"Maharashtra","latitude":19.2183,"longitude":72.9781,"temp":26.8,"humidity":90,"rain":0.2,"pressure":1002.7,"uv_index":6.5,"wind_gusts":31.0,"aqi":40,"pm10":14.1,"pm2_5":11.3,"no2":5.8,"co":198.0,"o3":100.0,"so2":9.4,"mosquito_risk":10,"arthritis_risk":5,"migraine_risk":4,"frizz_risk":1,"updated_at":"2026-06-23T15:15:50.022680+05:30"},{"city":"Nagpur","state":"Maharashtra","latitude":21.1458,"longitude":79.0882,"temp":31.8,"humidity":60,"rain":0.0,"pressure":966.3,"uv_index":8.15,"wind_gusts":54.0,"aqi":55,"pm10":16.6,"pm2_5":15.7,"no2":4.4,"co":165.0,"o3":145.0,"so2":18.7,"mosquito_risk":0,"arthritis_risk":5,"migraine_risk":7,"frizz_risk":1,"updated_at":"2026-06-23T15:15:50.022688+05:30"},{"city":"Nashik","state":"Maharashtra","latitude":19.9975,"longitude":73.7898,"temp":26.5,"humidity":81,"rain":0.1,"pressure":940.1,"uv_index":7.8,"wind_gusts":38.2,"aqi":28,"pm10":5.9,"pm2_5":5.1,"no2":1.5,"co":132.0,"o3":93.0,"so2":2.8,"mosquito_risk":10,"arthritis_risk":5,"migraine_risk":7,"frizz_risk":1,"updated_at":"2026-06-23T15:15:50.022697+05:30"},{"city":"Aurangabad","state":"Maharashtra","latitude":19.8762,"longitude":75.3433,"temp":28.7,"humidity":68,"rain":0.2,"pressure":938.2,"uv_index":8.1,"wind_gusts":32.0,"aqi":31,"pm10":6.6,"pm2_5":5.4,"no2":1.3,"co":129.0,"o3":85.0,"so2":2.6,"mosquito_risk":10,"arthritis_risk":5,"migraine_risk":7,"frizz_risk":1,"updated_at":"2026-06-23T15:15:50.022704+05:30"},{"city":"Solapur","state":"Maharashtra","latitude":17.6599,"longitude":75.9064,"temp":29.0,"humidity":71,"rain":0.1,"pressure":952.7,"uv_index":8.0,"wind_gusts":56.9,"aqi":26,"pm10":3.0,"pm2_5":2.8,"no2":1.4,"co":114.0,"o3":66.0,"so2":0.8,"mosquito_risk":10,"arthritis_risk":5,"migraine_risk":7,"frizz_risk":1,"updated_at":"2026-06-23T15:15:50.022712+05:30"},{"city":"Kolhapur","state":"Maharashtra","latitude":16.705,"longitude":74.2433,"temp":23.9,"humidity":94,"rain":0.8,"pressure":943.9,"uv_index":8.5,"wind_gusts":56.9,"aqi":24,"pm10":3.8,"pm2_5":2.9,"no2":1.4,"co":141.0,"o3":64.0,"so2":1.1,"mosquito_risk":6,"arthritis_risk":5,"migraine_risk":7,"frizz_risk":1,"updated_at":"2026-06-23T15:15:50.022720+05:30"},{"city":"Goa","state":"Goa","latitude":15.2993,"longitude":74.124,"temp":24.0,"humidity":97,"rain":0.3,"pressure":996.3,"uv_index":7.0,"wind_gusts":35.3,"aqi":30,"pm10":15.7,"pm2_5":8.4,"no2":1.1,"co":146.0,"o3":55.0,"so2":0.6,"mosquito_risk":6,"arthritis_risk":5,"migraine_risk":7,"frizz_risk":1,"updated_at":"2026-06-23T15:15:50.022727+05:30"},{"city":"Jodhpur","state":"Rajasthan","latitude":26.2389,"longitude":73.0243,"temp":38.0,"humidity":31,"rain":0.0,"pressure":975.5,"uv_index":8.4,"wind_gusts":37.1,"aqi":127,"pm10":212.8,"pm2_5":43.1,"no2":0.6,"co":112.0,"o3":87.0,"so2":1.7,"mosquito_risk":0,"arthritis_risk":5,"migraine_risk":10,"frizz_risk":1,"updated_at":"2026-06-23T15:15:50.022735+05:30"},{"city":"Udaipur","state":"Rajasthan","latitude":24.5854,"longitude":73.7125,"temp":34.7,"humidity":34,"rain":0.0,"pressure":940.5,"uv_index":8.8,"wind_gusts":35.6,"aqi":65,"pm10":67.3,"pm2_5":21.1,"no2":0.6,"co":112.0,"o3":92.0,"so2":2.1,"mosquito_risk":0,"arthritis_risk":5,"migraine_risk":7,"frizz_risk":1,"updated_at":"2026-06-23T15:15:50.022743+05:30"},{"city":"Kota","state":"Rajasthan","latitude":25.2138,"longitude":75.8648,"temp":37.1,"humidity":36,"rain":0.0,"pressure":971.4,"uv_index":8.35,"wind_gusts":34.6,"aqi":84,"pm10":85.7,"pm2_5":29.6,"no2":1.0,"co":131.0,"o3":105.0,"so2":4.0,"mosquito_risk":0,"arthritis_risk":5,"migraine_risk":10,"frizz_risk":1,"updated_at":"2026-06-23T15:15:50.022750+05:30"},{"city":"Bikaner","state":"Rajasthan","latitude":28.0229,"longitude":73.3119,"temp":39.5,"humidity":29,"rain":0.0,"pressure":973.8,"uv_index":8.5,"wind_gusts":35.3,"aqi":122,"pm10":179.7,"pm2_5":49.4,"no2":0.3,"co":111.0,"o3":81.0,"so2":1.9,"mosquito_risk":0,"arthritis_risk":5,"migraine_risk":10,"frizz_risk":1,"updated_at":"2026-06-23T15:15:50.022758+05:30"},{"city":"Ajmer","state":"Rajasthan","latitude":26.4499,"longitude":74.6399,"temp":34.5,"humidity":38,"rain":0.0,"pressure":948.4,"uv_index":8.35,"wind_gusts":45.7,"aqi":94,"pm10":112.7,"pm2_5":34.0,"no2":0.7,"co":116.0,"o3":91.0,"so2":2.4,"mosquito_risk":0,"arthritis_risk":5,"migraine_risk":7,"frizz_risk":1,"updated_at":"2026-06-23T15:15:50.022766+05:30"},{"city":"Gwalior","state":"Madhya Pradesh","latitude":26.2183,"longitude":78.1828,"temp":39.2,"humidity":26,"rain":0.0,"pressure":975.4,"uv_index":8.25,"wind_gusts":42.1,"aqi":108,"pm10":97.3,"pm2_5":31.4,"no2":0.7,"co":134.0,"o3":104.0,"so2":2.0,"mosquito_risk":0,"arthritis_risk":5,"migraine_risk":10,"frizz_risk":1,"updated_at":"2026-06-23T15:15:50.022773+05:30"},{"city":"Indore","state":"Madhya Pradesh","latitude":22.7196,"longitude":75.8577,"temp":30.4,"humidity":57,"rain":0.1,"pressure":942.1,"uv_index":5.95,"wind_gusts":38.2,"aqi":61,"pm10":47.0,"pm2_5":23.7,"no2":2.0,"co":236.0,"o3":99.0,"so2":3.4,"mosquito_risk":3,"arthritis_risk":5,"migraine_risk":3,"frizz_risk":1,"updated_at":"2026-06-23T15:15:50.022781+05:30"},{"city":"Bhopal","state":"Madhya Pradesh","latitude":23.2599,"longitude":77.4126,"temp":27.1,"humidity":79,"rain":0.3,"pressure":948.0,"uv_index":7.85,"wind_gusts":38.2,"aqi":58,"pm10":50.5,"pm2_5":28.8,"no2":1.4,"co":189.0,"o3":96.0,"so2":2.3,"mosquito_risk":10,"arthritis_risk":5,"migraine_risk":7,"frizz_risk":1,"updated_at":"2026-06-23T15:15:50.022789+05:30"},{"city":"Jabalpur","state":"Madhya Pradesh","latitude":23.1815,"longitude":79.9864,"temp":35.5,"humidity":41,"rain":0.0,"pressure":955.0,"uv_index":8.5,"wind_gusts":34.6,"aqi":78,"pm10":39.9,"pm2_5":20.5,"no2":0.9,"co":158.0,"o3":102.0,"so2":2.4,"mosquito_risk":0,"arthritis_risk":5,"migraine_risk":10,"frizz_risk":1,"updated_at":"2026-06-23T15:15:50.022797+05:30"},{"city":"Ujjain","state":"Madhya Pradesh","latitude":23.1765,"longitude":75.7885,"temp":34.4,"humidity":41,"rain":0.1,"pressure":947.4,"uv_index":7.8,"wind_gusts":35.6,"aqi":63,"pm10":58.9,"pm2_5":25.7,"no2":1.2,"co":156.0,"o3":99.0,"so2":4.0,"mosquito_risk":3,"arthritis_risk":5,"migraine_risk":7,"frizz_risk":1,"updated_at":"2026-06-23T15:15:50.022805+05:30"},{"city":"Visakhapatnam","state":"Andhra Pradesh","latitude":17.6868,"longitude":83.2185,"temp":31.9,"humidity":66,"rain":0.0,"pressure":997.5,"uv_index":8.65,"wind_gusts":32.4,"aqi":87,"pm10":22.4,"pm2_5":21.7,"no2":22.0,"co":391.0,"o3":102.0,"so2":46.6,"mosquito_risk":3,"arthritis_risk":5,"migraine_risk":7,"frizz_risk":1,"updated_at":"2026-06-23T15:15:50.022813+05:30"},{"city":"Vijayawada","state":"Andhra Pradesh","latitude":16.5062,"longitude":80.648,"temp":36.1,"humidity":47,"rain":0.0,"pressure":996.4,"uv_index":8.85,"wind_gusts":38.5,"aqi":76,"pm10":10.1,"pm2_5":8.8,"no2":1.7,"co":141.0,"o3":100.0,"so2":4.8,"mosquito_risk":0,"arthritis_risk":5,"migraine_risk":10,"frizz_risk":1,"updated_at":"2026-06-23T15:15:50.022820+05:30"},{"city":"Guntur","state":"Andhra Pradesh","latitude":16.3067,"longitude":80.4365,"temp":35.6,"humidity":46,"rain":0.0,"pressure":997.6,"uv_index":8.9,"wind_gusts":39.2,"aqi":67,"pm10":8.9,"pm2_5":7.4,"no2":1.5,"co":134.0,"o3":91.0,"so2":4.0,"mosquito_risk":0,"arthritis_risk":5,"migraine_risk":10,"frizz_risk":1,"updated_at":"2026-06-23T15:15:50.022828+05:30"},{"city":"Nellore","state":"Andhra Pradesh","latitude":14.4426,"longitude":79.9865,"temp":34.2,"humidity":53,"rain":0.0,"pressure":1000.6,"uv_index":8.9,"wind_gusts":37.1,"aqi":45,"pm10":8.7,"pm2_5":7.5,"no2":2.6,"co":113.0,"o3":97.0,"so2":5.2,"mosquito_risk":0,"arthritis_risk":5,"migraine_risk":4,"frizz_risk":1,"updated_at":"2026-06-23T15:15:50.022837+05:30"},{"city":"Kurnool","state":"Andhra Pradesh","latitude":15.8281,"longitude":78.0373,"temp":34.3,"humidity":45,"rain":0.0,"pressure":972.1,"uv_index":8.6,"wind_gusts":46.1,"aqi":24,"pm10":3.2,"pm2_5":2.5,"no2":1.2,"co":110.0,"o3":65.0,"so2":0.9,"mosquito_risk":0,"arthritis_risk":5,"migraine_risk":7,"frizz_risk":1,"updated_at":"2026-06-23T15:15:50.022845+05:30"},{"city":"Kakinada","state":"Andhra Pradesh","latitude":16.9891,"longitude":82.2475,"temp":29.9,"humidity":80,"rain":0.1,"pressure":1001.9,"uv_index":8.5,"wind_gusts":42.1,"aqi":70,"pm10":18.3,"pm2_5":17.6,"no2":3.3,"co":180.0,"o3":142.0,"so2":6.0,"mosquito_risk":10,"arthritis_risk":5,"migraine_risk":4,"frizz_risk":1,"updated_at":"2026-06-23T15:15:50.022853+05:30"},{"city":"Tirupati","state":"Andhra Pradesh","latitude":13.6288,"longitude":79.4192,"temp":33.6,"humidity":50,"rain":0.1,"pressure":986.2,"uv_index":7.7,"wind_gusts":37.8,"aqi":40,"pm10":6.3,"pm2_5":4.3,"no2":1.4,"co":107.0,"o3":76.0,"so2":0.8,"mosquito_risk":3,"arthritis_risk":5,"migraine_risk":7,"frizz_risk":1,"updated_at":"2026-06-23T15:15:50.022861+05:30"},{"city":"Warangal","state":"Telangana","latitude":17.9689,"longitude":79.5941,"temp":35.1,"humidity":48,"rain":0.0,"pressure":972.6,"uv_index":8.7,"wind_gusts":37.1,"aqi":51,"pm10":7.4,"pm2_5":6.2,"no2":1.4,"co":136.0,"o3":90.0,"so2":1.4,"mosquito_risk":0,"arthritis_risk":5,"migraine_risk":10,"frizz_risk":1,"updated_at":"2026-06-23T15:15:50.022869+05:30"},{"city":"Nizamabad","state":"Telangana","latitude":18.6725,"longitude":78.0941,"temp":33.6,"humidity":46,"rain":0.0,"pressure":958.6,"uv_index":8.65,"wind_gusts":59.0,"aqi":32,"pm10":6.6,"pm2_5":6.0,"no2":1.5,"co":127.0,"o3":85.0,"so2":2.8,"mosquito_risk":0,"arthritis_risk":5,"migraine_risk":7,"frizz_risk":1,"updated_at":"2026-06-23T15:15:50.022877+05:30"},{"city":"Mysore","state":"Karnataka","latitude":12.2958,"longitude":76.6396,"temp":27.0,"humidity":66,"rain":0.0,"pressure":926.2,"uv_index":8.4,"wind_gusts":47.2,"aqi":25,"pm10":5.0,"pm2_5":3.3,"no2":1.8,"co":119.0,"o3":71.0,"so2":1.2,"mosquito_risk":7,"arthritis_risk":5,"migraine_risk":7,"frizz_risk":1,"updated_at":"2026-06-23T15:15:50.022885+05:30"},{"city":"Mangalore","state":"Karnataka","latitude":12.9141,"longitude":74.856,"temp":26.8,"humidity":86,"rain":0.0,"pressure":1005.7,"uv_index":8.15,"wind_gusts":36.7,"aqi":27,"pm10":12.5,"pm2_5":6.9,"no2":1.8,"co":107.0,"o3":54.0,"so2":1.2,"mosquito_risk":7,"arthritis_risk":5,"migraine_risk":4,"frizz_risk":1,"updated_at":"2026-06-23T15:15:50.022893+05:30"},{"city":"Hubli-Dharwad","state":"Karnataka","latitude":15.3647,"longitude":75.124,"temp":27.0,"humidity":68,"rain":0.1,"pressure":938.1,"uv_index":7.4,"wind_gusts":63.4,"aqi":24,"pm10":2.8,"pm2_5":1.9,"no2":1.4,"co":101.0,"o3":62.0,"so2":0.7,"mosquito_risk":10,"arthritis_risk":5,"migraine_risk":7,"frizz_risk":1,"updated_at":"2026-06-23T15:15:50.022901+05:30"},{"city":"Belgaum","state":"Karnataka","latitude":15.8497,"longitude":74.4977,"temp":22.6,"humidity":100,"rain":0.4,"pressure":922.3,"uv_index":8.55,"wind_gusts":51.5,"aqi":23,"pm10":3.2,"pm2_5":1.8,"no2":1.4,"co":109.0,"o3":54.0,"so2":0.8,"mosquito_risk":6,"arthritis_risk":5,"migraine_risk":7,"frizz_risk":1,"updated_at":"2026-06-23T15:15:53.241970+05:30"},{"city":"Coimbatore","state":"Tamil Nadu","latitude":11.0168,"longitude":76.9558,"temp":29.2,"humidity":63,"rain":0.0,"pressure":959.4,"uv_index":7.95,"wind_gusts":51.5,"aqi":26,"pm10":5.1,"pm2_5":3.6,"no2":1.7,"co":151.0,"o3":66.0,"so2":1.4,"mosquito_risk":7,"arthritis_risk":5,"migraine_risk":7,"frizz_risk":1,"updated_at":"2026-06-23T15:15:53.242003+05:30"},{"city":"Madurai","state":"Tamil Nadu","latitude":9.9252,"longitude":78.1198,"temp":34.5,"humidity":44,"rain":0.1,"pressure":989.8,"uv_index":8.25,"wind_gusts":44.6,"aqi":63,"pm10":11.4,"pm2_5":8.1,"no2":2.0,"co":124.0,"o3":108.0,"so2":2.4,"mosquito_risk":3,"arthritis_risk":5,"migraine_risk":7,"frizz_risk":1,"updated_at":"2026-06-23T15:15:53.242014+05:30"},{"city":"Trichy","state":"Tamil Nadu","latitude":10.7905,"longitude":78.7047,"temp":31.3,"humidity":61,"rain":0.2,"pressure":996.2,"uv_index":7.9,"wind_gusts":52.9,"aqi":29,"pm10":6.4,"pm2_5":4.4,"no2":1.4,"co":107.0,"o3":85.0,"so2":1.6,"mosquito_risk":6,"arthritis_risk":5,"migraine_risk":7,"frizz_risk":1,"updated_at":"2026-06-23T15:15:53.242024+05:30"},{"city":"Salem","state":"Tamil Nadu","latitude":11.6643,"longitude":78.146,"temp":28.4,"humidity":83,"rain":0.4,"pressure":974.5,"uv_index":8.25,"wind_gusts":43.9,"aqi":38,"pm10":6.7,"pm2_5":5.5,"no2":2.3,"co":149.0,"o3":97.0,"so2":4.8,"mosquito_risk":10,"arthritis_risk":5,"migraine_risk":7,"frizz_risk":1,"updated_at":"2026-06-23T15:15:53.242033+05:30"},{"city":"Tirunelveli","state":"Tamil Nadu","latitude":8.7139,"longitude":77.7567,"temp":34.0,"humidity":48,"rain":0.0,"pressure":1000.4,"uv_index":3.2,"wind_gusts":43.9,"aqi":26,"pm10":7.0,"pm2_5":5.0,"no2":1.5,"co":115.0,"o3":78.0,"so2":1.3,"mosquito_risk":0,"arthritis_risk":5,"migraine_risk":0,"frizz_risk":1,"updated_at":"2026-06-23T15:15:53.242041+05:30"},{"city":"Vellore","state":"Tamil Nadu","latitude":12.9165,"longitude":79.1325,"temp":34.8,"humidity":44,"rain":0.0,"pressure":979.7,"uv_index":7.8,"wind_gusts":41.4,"aqi":32,"pm10":6.7,"pm2_5":5.1,"no2":1.5,"co":151.0,"o3":92.0,"so2":1.7,"mosquito_risk":0,"arthritis_risk":5,"migraine_risk":7,"frizz_risk":1,"updated_at":"2026-06-23T15:15:53.242049+05:30"},{"city":"Erode","state":"Tamil Nadu","latitude":11.341,"longitude":77.7172,"temp":29.0,"humidity":68,"rain":0.0,"pressure":986.8,"uv_index":7.8,"wind_gusts":32.8,"aqi":29,"pm10":6.4,"pm2_5":4.7,"no2":1.8,"co":156.0,"o3":89.0,"so2":1.5,"mosquito_risk":7,"arthritis_risk":5,"migraine_risk":7,"frizz_risk":1,"updated_at":"2026-06-23T15:15:53.242056+05:30"},{"city":"Kochi","state":"Kerala","latitude":9.9312,"longitude":76.2673,"temp":27.3,"humidity":81,"rain":0.1,"pressure":1008.3,"uv_index":8.15,"wind_gusts":37.4,"aqi":38,"pm10":8.7,"pm2_5":5.7,"no2":2.6,"co":104.0,"o3":61.0,"so2":1.9,"mosquito_risk":10,"arthritis_risk":0,"migraine_risk":4,"frizz_risk":1,"updated_at":"2026-06-23T15:15:53.242064+05:30"},{"city":"Thiruvananthapuram","state":"Kerala","latitude":8.5241,"longitude":76.9366,"temp":27.0,"humidity":83,"rain":0.1,"pressure":1007.4,"uv_index":7.8,"wind_gusts":46.8,"aqi":27,"pm10":11.5,"pm2_5":6.7,"no2":1.1,"co":100.0,"o3":66.0,"so2":0.8,"mosquito_risk":10,"arthritis_risk":5,"migraine_risk":4,"frizz_risk":1,"updated_at":"2026-06-23T15:15:53.242071+05:30"},{"city":"Kozhikode","state":"Kerala","latitude":11.2588,"longitude":75.7804,"temp":27.3,"humidity":84,"rain":0.1,"pressure":1007.2,"uv_index":7.25,"wind_gusts":35.6,"aqi":26,"pm10":8.0,"pm2_5":4.6,"no2":0.6,"co":105.0,"o3":61.0,"so2":0.6,"mosquito_risk":10,"arthritis_risk":5,"migraine_risk":4,"frizz_risk":1,"updated_at":"2026-06-23T15:15:53.242099+05:30"},{"city":"Thrissur","state":"Kerala","latitude":10.5276,"longitude":76.2144,"temp":27.3,"humidity":84,"rain":0.1,"pressure":1006.3,"uv_index":7.35,"wind_gusts":35.3,"aqi":38,"pm10":7.7,"pm2_5":5.5,"no2":2.0,"co":103.0,"o3":57.0,"so2":1.1,"mosquito_risk":10,"arthritis_risk":5,"migraine_risk":4,"frizz_risk":1,"updated_at":"2026-06-23T15:15:53.242110+05:30"},{"city":"Kannur","state":"Kerala","latitude":11.8745,"longitude":75.3704,"temp":25.1,"humidity":96,"rain":0.1,"pressure":1006.9,"uv_index":5.05,"wind_gusts":34.9,"aqi":24,"pm10":7.3,"pm2_5":4.1,"no2":1.3,"co":106.0,"o3":56.0,"so2":0.8,"mosquito_risk":10,"arthritis_risk":5,"migraine_risk":0,"frizz_risk":1,"updated_at":"2026-06-23T15:15:53.242117+05:30"},{"city":"Patna","state":"Bihar","latitude":25.5941,"longitude":85.1376,"temp":37.5,"humidity":41,"rain":0.0,"pressure":990.3,"uv_index":8.6,"wind_gusts":32.0,"aqi":153,"pm10":161.1,"pm2_5":58.1,"no2":2.0,"co":238.0,"o3":179.0,"so2":8.9,"mosquito_risk":0,"arthritis_risk":5,"migraine_risk":10,"frizz_risk":1,"updated_at":"2026-06-23T15:15:53.242124+05:30"},{"city":"Gaya","state":"Bihar","latitude":24.7914,"longitude":85.0002,"temp":37.9,"humidity":34,"rain":0.0,"pressure":984.5,"uv_index":8.8,"wind_gusts":37.4,"aqi":107,"pm10":159.3,"pm2_5":47.7,"no2":1.4,"co":204.0,"o3":144.0,"so2":5.6,"mosquito_risk":0,"arthritis_risk":5,"migraine_risk":10,"frizz_risk":1,"updated_at":"2026-06-23T15:15:53.242132+05:30"},{"city":"Muzaffarpur","state":"Bihar","latitude":26.1209,"longitude":85.3647,"temp":35.1,"humidity":58,"rain":0.0,"pressure":990.4,"uv_index":8.85,"wind_gusts":26.3,"aqi":160,"pm10":157.4,"pm2_5":65.4,"no2":2.5,"co":287.0,"o3":199.0,"so2":12.2,"mosquito_risk":0,"arthritis_risk":5,"migraine_risk":10,"frizz_risk":1,"updated_at":"2026-06-23T15:15:53.242139+05:30"},{"city":"Bhagalpur","state":"Bihar","latitude":25.2425,"longitude":87.0117,"temp":35.0,"humidity":57,"rain":0.0,"pressure":991.3,"uv_index":8.75,"wind_gusts":22.3,"aqi":140,"pm10":119.7,"pm2_5":51.8,"no2":3.1,"co":229.0,"o3":184.0,"so2":16.3,"mosquito_risk":0,"arthritis_risk":5,"migraine_risk":7,"frizz_risk":1,"updated_at":"2026-06-23T15:15:53.242145+05:30"},{"city":"Ranchi","state":"Jharkhand","latitude":23.3441,"longitude":85.3096,"temp":32.8,"humidity":43,"rain":0.0,"pressure":931.2,"uv_index":9.2,"wind_gusts":37.8,"aqi":87,"pm10":109.7,"pm2_5":36.0,"no2":1.3,"co":148.0,"o3":135.0,"so2":6.9,"mosquito_risk":0,"arthritis_risk":5,"migraine_risk":7,"frizz_risk":1,"updated_at":"2026-06-23T15:15:53.242152+05:30"},{"city":"Jamshedpur","state":"Jharkhand","latitude":22.8046,"longitude":86.2029,"temp":36.3,"humidity":43,"rain":0.0,"pressure":982.1,"uv_index":9.1,"wind_gusts":43.2,"aqi":114,"pm10":78.7,"pm2_5":44.5,"no2":3.3,"co":174.0,"o3":183.0,"so2":20.5,"mosquito_risk":0,"arthritis_risk":5,"migraine_risk":10,"frizz_risk":1,"updated_at":"2026-06-23T15:15:53.242159+05:30"},{"city":"Dhanbad","state":"Jharkhand","latitude":23.7957,"longitude":86.4304,"temp":36.7,"humidity":38,"rain":0.0,"pressure":971.1,"uv_index":9.1,"wind_gusts":27.0,"aqi":155,"pm10":115.0,"pm2_5":50.4,"no2":7.4,"co":149.0,"o3":169.0,"so2":33.0,"mosquito_risk":0,"arthritis_risk":5,"migraine_risk":10,"frizz_risk":1,"updated_at":"2026-06-23T15:15:53.242166+05:30"},{"city":"Bokaro","state":"Jharkhand","latitude":23.6693,"longitude":86.1511,"temp":36.7,"humidity":36,"rain":0.0,"pressure":974.8,"uv_index":8.85,"wind_gusts":29.9,"aqi":140,"pm10":120.6,"pm2_5":49.2,"no2":8.2,"co":153.0,"o3":161.0,"so2":35.7,"mosquito_risk":0,"arthritis_risk":5,"migraine_risk":10,"frizz_risk":1,"updated_at":"2026-06-23T15:15:53.242172+05:30"},{"city":"Bhubaneswar","state":"Odisha","latitude":20.2961,"longitude":85.8245,"temp":31.3,"humidity":71,"rain":0.0,"pressure":995.4,"uv_index":5.5,"wind_gusts":33.1,"aqi":80,"pm10":26.7,"pm2_5":23.3,"no2":5.1,"co":283.0,"o3":131.0,"so2":9.3,"mosquito_risk":3,"arthritis_risk":5,"migraine_risk":3,"frizz_risk":1,"updated_at":"2026-06-23T15:15:53.242179+05:30"},{"city":"Cuttack","state":"Odisha","latitude":20.4625,"longitude":85.8828,"temp":31.7,"humidity":71,"rain":0.0,"pressure":996.9,"uv_index":5.7,"wind_gusts":36.7,"aqi":80,"pm10":26.7,"pm2_5":23.3,"no2":5.1,"co":292.0,"o3":131.0,"so2":9.3,"mosquito_risk":3,"arthritis_risk":5,"migraine_risk":3,"frizz_risk":1,"updated_at":"2026-06-23T15:15:53.242186+05:30"},{"city":"Rourkela","state":"Odisha","latitude":22.2604,"longitude":84.8536,"temp":34.6,"humidity":52,"rain":0.0,"pressure":977.0,"uv_index":9.0,"wind_gusts":38.5,"aqi":101,"pm10":68.2,"pm2_5":38.1,"no2":1.7,"co":252.0,"o3":159.0,"so2":12.0,"mosquito_risk":0,"arthritis_risk":5,"migraine_risk":7,"frizz_risk":1,"updated_at":"2026-06-23T15:15:53.242192+05:30"},{"city":"Raipur","state":"Chhattisgarh","latitude":21.2514,"longitude":81.6296,"temp":33.9,"humidity":49,"rain":0.2,"pressure":968.4,"uv_index":8.95,"wind_gusts":45.0,"aqi":82,"pm10":33.9,"pm2_5":27.0,"no2":5.5,"co":259.0,"o3":151.0,"so2":27.7,"mosquito_risk":3,"arthritis_risk":5,"migraine_risk":7,"frizz_risk":1,"updated_at":"2026-06-23T15:15:53.242199+05:30"},{"city":"Bhilai","state":"Chhattisgarh","latitude":21.1938,"longitude":81.3509,"temp":33.2,"humidity":52,"rain":0.1,"pressure":968.8,"uv_index":8.95,"wind_gusts":44.3,"aqi":77,"pm10":22.1,"pm2_5":19.2,"no2":5.9,"co":424.0,"o3":135.0,"so2":23.4,"mosquito_risk":3,"arthritis_risk":5,"migraine_risk":7,"frizz_risk":1,"updated_at":"2026-06-23T15:15:53.242206+05:30"},{"city":"Guwahati","state":"Assam","latitude":26.1158,"longitude":91.7086,"temp":26.9,"humidity":92,"rain":0.3,"pressure":993.0,"uv_index":8.75,"wind_gusts":29.9,"aqi":79,"pm10":14.2,"pm2_5":12.7,"no2":2.6,"co":287.0,"o3":104.0,"so2":2.9,"mosquito_risk":10,"arthritis_risk":5,"migraine_risk":7,"frizz_risk":1,"updated_at":"2026-06-23T15:15:53.242213+05:30"},{"city":"Agartala","state":"Tripura","latitude":23.8315,"longitude":91.2868,"temp":33.3,"humidity":62,"rain":0.0,"pressure":996.9,"uv_index":8.05,"wind_gusts":38.2,"aqi":70,"pm10":18.5,"pm2_5":15.3,"no2":3.0,"co":183.0,"o3":152.0,"so2":2.7,"mosquito_risk":3,"arthritis_risk":5,"migraine_risk":7,"frizz_risk":1,"updated_at":"2026-06-23T15:15:53.242219+05:30"},{"city":"Shillong","state":"Meghalaya","latitude":25.5788,"longitude":91.8933,"temp":23.7,"humidity":77,"rain":0.1,"pressure":851.9,"uv_index":7.9,"wind_gusts":29.2,"aqi":55,"pm10":16.2,"pm2_5":11.1,"no2":1.9,"co":212.0,"o3":112.0,"so2":2.2,"mosquito_risk":6,"arthritis_risk":5,"migraine_risk":7,"frizz_risk":1,"updated_at":"2026-06-23T15:15:53.242226+05:30"},{"city":"Imphal","state":"Manipur","latitude":24.817,"longitude":93.9368,"temp":25.2,"humidity":92,"rain":0.2,"pressure":916.1,"uv_index":8.75,"wind_gusts":29.2,"aqi":67,"pm10":12.9,"pm2_5":7.5,"no2":1.5,"co":198.0,"o3":96.0,"so2":1.0,"mosquito_risk":10,"arthritis_risk":5,"migraine_risk":7,"frizz_risk":1,"updated_at":"2026-06-23T15:15:53.242234+05:30"},{"city":"Aizawl","state":"Mizoram","latitude":23.7271,"longitude":92.7176,"temp":22.4,"humidity":94,"rain":0.3,"pressure":886.1,"uv_index":8.3,"wind_gusts":28.1,"aqi":40,"pm10":4.1,"pm2_5":3.1,"no2":0.8,"co":155.0,"o3":90.0,"so2":0.3,"mosquito_risk":6,"arthritis_risk":5,"migraine_risk":7,"frizz_risk":1,"updated_at":"2026-06-23T15:15:53.242240+05:30"},{"city":"Kohima","state":"Nagaland","latitude":25.6701,"longitude":94.1077,"temp":22.3,"humidity":94,"rain":0.0,"pressure":849.7,"uv_index":7.3,"wind_gusts":22.3,"aqi":53,"pm10":11.5,"pm2_5":8.0,"no2":1.6,"co":184.0,"o3":91.0,"so2":1.1,"mosquito_risk":3,"arthritis_risk":5,"migraine_risk":7,"frizz_risk":1,"updated_at":"2026-06-23T15:15:53.242247+05:30"},{"city":"Gangtok","state":"Sikkim","latitude":27.3314,"longitude":88.6138,"temp":20.7,"humidity":92,"rain":0.1,"pressure":831.9,"uv_index":9.1,"wind_gusts":34.9,"aqi":92,"pm10":7.0,"pm2_5":5.7,"no2":1.2,"co":316.0,"o3":142.0,"so2":4.1,"mosquito_risk":6,"arthritis_risk":5,"migraine_risk":7,"frizz_risk":1,"updated_at":"2026-06-23T15:15:53.242253+05:30"},{"city":"Siliguri","state":"West Bengal","latitude":26.7271,"longitude":88.3953,"temp":31.3,"humidity":64,"rain":0.1,"pressure":983.6,"uv_index":8.75,"wind_gusts":20.9,"aqi":109,"pm10":15.8,"pm2_5":12.3,"no2":2.2,"co":403.0,"o3":153.0,"so2":8.0,"mosquito_risk":6,"arthritis_risk":5,"migraine_risk":7,"frizz_risk":1,"updated_at":"2026-06-23T15:15:56.465655+05:30"},{"city":"Durgapur","state":"West Bengal","latitude":23.5204,"longitude":87.3119,"temp":34.6,"humidity":61,"rain":0.0,"pressure":985.6,"uv_index":9.0,"wind_gusts":29.2,"aqi":161,"pm10":127.6,"pm2_5":74.0,"no2":15.2,"co":318.0,"o3":200.0,"so2":62.2,"mosquito_risk":3,"arthritis_risk":5,"migraine_risk":7,"frizz_risk":1,"updated_at":"2026-06-23T15:15:56.465687+05:30"},{"city":"Asansol","state":"West Bengal","latitude":23.6739,"longitude":86.9524,"temp":34.6,"humidity":56,"rain":0.0,"pressure":984.3,"uv_index":9.05,"wind_gusts":30.6,"aqi":155,"pm10":122.0,"pm2_5":61.2,"no2":12.1,"co":200.0,"o3":177.0,"so2":47.2,"mosquito_risk":0,"arthritis_risk":5,"migraine_risk":7,"frizz_risk":1,"updated_at":"2026-06-23T15:15:56.465701+05:30"},{"city":"Pondicherry","state":"Puducherry","latitude":11.9139,"longitude":79.8145,"temp":32.7,"humidity":63,"rain":0.0,"pressure":1003.8,"uv_index":7.3,"wind_gusts":40.3,"aqi":58,"pm10":25.4,"pm2_5":22.2,"no2":2.5,"co":211.0,"o3":157.0,"so2":11.8,"mosquito_risk":3,"arthritis_risk":5,"migraine_risk":4,"frizz_risk":1,"updated_at":"2026-06-23T15:15:56.465711+05:30"},{"city":"Port Blair","state":"Andaman and Nicobar Islands","latitude":11.6234,"longitude":92.7265,"temp":29.7,"humidity":73,"rain":0.0,"pressure":1004.4,"uv_index":8.75,"wind_gusts":45.0,"aqi":22,"pm10":7.5,"pm2_5":4.4,"no2":0.2,"co":87.0,"o3":41.0,"so2":0.4,"mosquito_risk":7,"arthritis_risk":5,"migraine_risk":4,"frizz_risk":1,"updated_at":"2026-06-23T15:15:56.465720+05:30"},{"city":"Haridwar","state":"Uttarakhand","latitude":29.9457,"longitude":78.1642,"temp":36.0,"humidity":34,"rain":0.0,"pressure":965.9,"uv_index":7.6,"wind_gusts":28.4,"aqi":129,"pm10":40.0,"pm2_5":23.2,"no2":1.6,"co":291.0,"o3":179.0,"so2":8.1,"mosquito_risk":0,"arthritis_risk":5,"migraine_risk":10,"frizz_risk":1,"updated_at":"2026-06-23T15:15:56.465729+05:30"},{"city":"Rishikesh","state":"Uttarakhand","latitude":30.0869,"longitude":78.2676,"temp":35.3,"humidity":35,"rain":0.0,"pressure":958.7,"uv_index":7.75,"wind_gusts":23.4,"aqi":124,"pm10":26.0,"pm2_5":20.3,"no2":0.9,"co":277.0,"o3":167.0,"so2":6.1,"mosquito_risk":0,"arthritis_risk":5,"migraine_risk":10,"frizz_risk":1,"updated_at":"2026-06-23T15:15:56.465738+05:30"},{"city":"Nainital","state":"Uttarakhand","latitude":29.3919,"longitude":79.4542,"temp":21.3,"humidity":57,"rain":0.0,"pressure":803.2,"uv_index":8.4,"wind_gusts":33.8,"aqi":112,"pm10":80.3,"pm2_5":31.5,"no2":1.2,"co":247.0,"o3":165.0,"so2":7.6,"mosquito_risk":0,"arthritis_risk":5,"migraine_risk":7,"frizz_risk":0,"updated_at":"2026-06-23T15:15:56.465747+05:30"},{"city":"Mussoorie","state":"Uttarakhand","latitude":30.4599,"longitude":78.0664,"temp":20.9,"humidity":57,"rain":0.1,"pressure":800.5,"uv_index":8.15,"wind_gusts":40.0,"aqi":111,"pm10":24.9,"pm2_5":20.3,"no2":1.5,"co":194.0,"o3":174.0,"so2":6.8,"mosquito_risk":3,"arthritis_risk":5,"migraine_risk":7,"frizz_risk":0,"updated_at":"2026-06-23T15:15:56.465756+05:30"},{"city":"Dharamshala","state":"Himachal Pradesh","latitude":32.219,"longitude":76.3234,"temp":26.4,"humidity":46,"rain":0.0,"pressure":865.0,"uv_index":8.55,"wind_gusts":40.7,"aqi":85,"pm10":14.1,"pm2_5":10.0,"no2":0.8,"co":204.0,"o3":134.0,"so2":0.8,"mosquito_risk":4,"arthritis_risk":5,"migraine_risk":7,"frizz_risk":0,"updated_at":"2026-06-23T15:15:56.465765+05:30"},{"city":"Dalhousie","state":"Himachal Pradesh","latitude":32.5387,"longitude":75.971,"temp":19.9,"humidity":70,"rain":0.2,"pressure":801.3,"uv_index":8.8,"wind_gusts":37.8,"aqi":92,"pm10":19.8,"pm2_5":13.8,"no2":1.4,"co":186.0,"o3":154.0,"so2":1.8,"mosquito_risk":6,"arthritis_risk":5,"migraine_risk":7,"frizz_risk":0,"updated_at":"2026-06-23T15:15:56.465774+05:30"},{"city":"Patiala","state":"Punjab","latitude":30.3398,"longitude":76.3869,"temp":37.2,"humidity":30,"rain":0.0,"pressure":970.0,"uv_index":7.7,"wind_gusts":32.4,"aqi":300,"pm10":234.2,"pm2_5":47.3,"no2":1.5,"co":233.0,"o3":167.0,"so2":7.0,"mosquito_risk":0,"arthritis_risk":5,"migraine_risk":10,"frizz_risk":1,"updated_at":"2026-06-23T15:15:56.465783+05:30"},{"city":"Bhatinda","state":"Punjab","latitude":30.211,"longitude":74.9455,"temp":37.4,"humidity":31,"rain":0.0,"pressure":975.7,"uv_index":8.3,"wind_gusts":28.8,"aqi":116,"pm10":99.7,"pm2_5":35.7,"no2":2.2,"co":139.0,"o3":154.0,"so2":10.9,"mosquito_risk":0,"arthritis_risk":5,"migraine_risk":10,"frizz_risk":1,"updated_at":"2026-06-23T15:15:56.465792+05:30"},{"city":"Rohtak","state":"Haryana","latitude":28.8955,"longitude":76.6066,"temp":37.1,"humidity":32,"rain":0.0,"pressure":973.7,"uv_index":7.75,"wind_gusts":33.1,"aqi":242,"pm10":670.6,"pm2_5":91.0,"no2":1.8,"co":161.0,"o3":134.0,"so2":4.5,"mosquito_risk":0,"arthritis_risk":5,"migraine_risk":10,"frizz_risk":1,"updated_at":"2026-06-23T15:15:56.465800+05:30"},{"city":"Panipat","state":"Haryana","latitude":29.3909,"longitude":76.9635,"temp":37.4,"humidity":32,"rain":0.0,"pressure":972.1,"uv_index":7.65,"wind_gusts":32.4,"aqi":1036,"pm10":1337.4,"pm2_5":150.9,"no2":2.4,"co":183.0,"o3":145.0,"so2":9.7,"mosquito_risk":0,"arthritis_risk":5,"migraine_risk":10,"frizz_risk":1,"updated_at":"2026-06-23T15:15:56.465808+05:30"},{"city":"Mathura","state":"Uttar Pradesh","latitude":27.4924,"longitude":77.6737,"temp":38.4,"humidity":31,"rain":0.0,"pressure":978.6,"uv_index":8.05,"wind_gusts":39.2,"aqi":451,"pm10":430.3,"pm2_5":65.0,"no2":1.6,"co":146.0,"o3":125.0,"so2":2.9,"mosquito_risk":0,"arthritis_risk":5,"migraine_risk":10,"frizz_risk":1,"updated_at":"2026-06-23T15:15:56.465816+05:30"},{"city":"Vrindavan","state":"Uttar Pradesh","latitude":27.5823,"longitude":77.7027,"temp":38.0,"humidity":32,"rain":0.0,"pressure":978.9,"uv_index":8.05,"wind_gusts":38.5,"aqi":451,"pm10":430.3,"pm2_5":65.0,"no2":1.6,"co":143.0,"o3":125.0,"so2":2.9,"mosquito_risk":0,"arthritis_risk":5,"migraine_risk":10,"frizz_risk":1,"updated_at":"2026-06-23T15:15:56.465824+05:30"},{"city":"Ayodhya","state":"Uttar Pradesh","latitude":26.7922,"longitude":82.1998,"temp":37.8,"humidity":34,"rain":0.0,"pressure":985.7,"uv_index":8.4,"wind_gusts":36.0,"aqi":156,"pm10":131.8,"pm2_5":40.5,"no2":1.3,"co":164.0,"o3":153.0,"so2":7.0,"mosquito_risk":0,"arthritis_risk":5,"migraine_risk":10,"frizz_risk":1,"updated_at":"2026-06-23T15:15:56.465832+05:30"},{"city":"Ratlam","state":"Madhya Pradesh","latitude":23.3315,"longitude":75.0367,"temp":33.1,"humidity":48,"rain":0.0,"pressure":948.3,"uv_index":7.65,"wind_gusts":34.2,"aqi":61,"pm10":68.0,"pm2_5":28.6,"no2":1.0,"co":125.0,"o3":101.0,"so2":3.9,"mosquito_risk":0,"arthritis_risk":5,"migraine_risk":7,"frizz_risk":1,"updated_at":"2026-06-23T15:15:56.465840+05:30"},{"city":"Sagar","state":"Madhya Pradesh","latitude":23.8388,"longitude":78.7378,"temp":32.3,"humidity":50,"rain":0.1,"pressure":944.1,"uv_index":6.3,"wind_gusts":38.9,"aqi":78,"pm10":62.4,"pm2_5":29.8,"no2":0.9,"co":145.0,"o3":108.0,"so2":2.4,"mosquito_risk":3,"arthritis_risk":5,"migraine_risk":7,"frizz_risk":1,"updated_at":"2026-06-23T15:15:56.465848+05:30"},{"city":"Satna","state":"Madhya Pradesh","latitude":24.6005,"longitude":80.8322,"temp":37.8,"humidity":30,"rain":0.0,"pressure":963.7,"uv_index":8.8,"wind_gusts":39.2,"aqi":93,"pm10":89.2,"pm2_5":37.5,"no2":0.8,"co":137.0,"o3":117.0,"so2":4.0,"mosquito_risk":0,"arthritis_risk":5,"migraine_risk":10,"frizz_risk":1,"updated_at":"2026-06-23T15:15:56.465856+05:30"},{"city":"Akola","state":"Maharashtra","latitude":20.7002,"longitude":77.0082,"temp":35.0,"humidity":47,"rain":0.0,"pressure":968.1,"uv_index":8.8,"wind_gusts":37.1,"aqi":35,"pm10":7.9,"pm2_5":7.3,"no2":1.5,"co":125.0,"o3":106.0,"so2":6.2,"mosquito_risk":0,"arthritis_risk":5,"migraine_risk":7,"frizz_risk":1,"updated_at":"2026-06-23T15:15:56.465865+05:30"},{"city":"Amravati","state":"Maharashtra","latitude":20.9374,"longitude":77.7796,"temp":34.0,"humidity":49,"rain":0.0,"pressure":960.7,"uv_index":8.6,"wind_gusts":38.9,"aqi":37,"pm10":10.2,"pm2_5":9.7,"no2":2.0,"co":134.0,"o3":107.0,"so2":6.8,"mosquito_risk":0,"arthritis_risk":5,"migraine_risk":7,"frizz_risk":1,"updated_at":"2026-06-23T15:15:56.465874+05:30"},{"city":"Latur","state":"Maharashtra","latitude":18.4088,"longitude":76.5604,"temp":27.5,"humidity":76,"rain":0.1,"pressure":935.0,"uv_index":5.5,"wind_gusts":47.9,"aqi":26,"pm10":3.9,"pm2_5":3.4,"no2":1.2,"co":117.0,"o3":65.0,"so2":0.5,"mosquito_risk":10,"arthritis_risk":5,"migraine_risk":3,"frizz_risk":1,"updated_at":"2026-06-23T15:15:56.465882+05:30"},{"city":"Nanded","state":"Maharashtra","latitude":19.1383,"longitude":77.3091,"temp":33.7,"humidity":48,"rain":0.1,"pressure":961.7,"uv_index":7.0,"wind_gusts":43.2,"aqi":32,"pm10":3.8,"pm2_5":3.4,"no2":1.2,"co":131.0,"o3":79.0,"so2":0.9,"mosquito_risk":3,"arthritis_risk":5,"migraine_risk":7,"frizz_risk":1,"updated_at":"2026-06-23T15:15:56.465890+05:30"},{"city":"Gulbarga","state":"Karnataka","latitude":17.3297,"longitude":76.8343,"temp":26.5,"humidity":84,"rain":0.3,"pressure":954.0,"uv_index":6.1,"wind_gusts":64.4,"aqi":26,"pm10":3.6,"pm2_5":3.3,"no2":1.9,"co":116.0,"o3":67.0,"so2":1.2,"mosquito_risk":10,"arthritis_risk":5,"migraine_risk":7,"frizz_risk":1,"updated_at":"2026-06-23T15:15:56.465898+05:30"},{"city":"Bidar","state":"Karnataka","latitude":17.9104,"longitude":77.5199,"temp":31.6,"humidity":52,"rain":0.0,"pressure":930.4,"uv_index":7.7,"wind_gusts":59.0,"aqi":27,"pm10":5.6,"pm2_5":4.5,"no2":2.0,"co":126.0,"o3":72.0,"so2":0.7,"mosquito_risk":0,"arthritis_risk":5,"migraine_risk":7,"frizz_risk":1,"updated_at":"2026-06-23T15:15:56.465906+05:30"},{"city":"Hospet","state":"Karnataka","latitude":15.2689,"longitude":76.3909,"temp":29.7,"humidity":60,"rain":0.1,"pressure":952.3,"uv_index":7.8,"wind_gusts":55.4,"aqi":26,"pm10":5.5,"pm2_5":3.2,"no2":1.3,"co":118.0,"o3":67.0,"so2":1.1,"mosquito_risk":7,"arthritis_risk":5,"migraine_risk":7,"frizz_risk":1,"updated_at":"2026-06-23T15:15:56.465914+05:30"},{"city":"Tirupur","state":"Tamil Nadu","latitude":11.1085,"longitude":77.3411,"temp":31.3,"humidity":58,"rain":0.1,"pressure":972.3,"uv_index":8.1,"wind_gusts":51.1,"aqi":32,"pm10":6.3,"pm2_5":4.7,"no2":2.0,"co":128.0,"o3":82.0,"so2":1.8,"mosquito_risk":3,"arthritis_risk":5,"migraine_risk":7,"frizz_risk":1,"updated_at":"2026-06-23T15:15:56.465922+05:30"},{"city":"Alappuzha","state":"Kerala","latitude":9.4981,"longitude":76.3388,"temp":28.5,"humidity":78,"rain":0.0,"pressure":1008.1,"uv_index":4.95,"wind_gusts":38.9,"aqi":31,"pm10":12.0,"pm2_5":7.5,"no2":1.9,"co":86.0,"o3":72.0,"so2":1.8,"mosquito_risk":7,"arthritis_risk":0,"migraine_risk":0,"frizz_risk":1,"updated_at":"2026-06-23T15:15:56.465930+05:30"},{"city":"Munnar","state":"Kerala","latitude":10.0889,"longitude":77.0595,"temp":19.0,"humidity":88,"rain":0.0,"pressure":856.1,"uv_index":8.6,"wind_gusts":41.0,"aqi":23,"pm10":5.3,"pm2_5":3.3,"no2":1.1,"co":99.0,"o3":59.0,"so2":0.8,"mosquito_risk":3,"arthritis_risk":10,"migraine_risk":7,"frizz_risk":1,"updated_at":"2026-06-23T15:15:56.465938+05:30"},{"city":"Silchar","state":"Assam","latitude":24.8333,"longitude":92.7789,"temp":32.6,"humidity":67,"rain":0.0,"pressure":995.5,"uv_index":8.8,"wind_gusts":23.4,"aqi":83,"pm10":12.3,"pm2_5":9.8,"no2":1.3,"co":200.0,"o3":118.0,"so2":2.9,"mosquito_risk":3,"arthritis_risk":5,"migraine_risk":7,"frizz_risk":1,"updated_at":"2026-06-23T15:15:56.465946+05:30"},{"city":"Dibrugarh","state":"Assam","latitude":27.4728,"longitude":94.912,"temp":30.7,"humidity":70,"rain":0.1,"pressure":985.9,"uv_index":4.8,"wind_gusts":20.5,"aqi":79,"pm10":24.6,"pm2_5":17.8,"no2":1.3,"co":197.0,"o3":127.0,"so2":1.6,"mosquito_risk":6,"arthritis_risk":5,"migraine_risk":3,"frizz_risk":1,"updated_at":"2026-06-23T15:15:56.465955+05:30"}]