[{"city":"Delhi","state":"Delhi","latitude":28.6139,"longitude":77.209,"temp":31.6,"humidity":70,"rain":0.0,"pressure":977.1,"uv_index":6.3,"wind_gusts":36.0,"aqi":84,"pm10":71.5,"pm2_5":33.9,"no2":7.6,"co":392.0,"o3":150.0,"so2":17.0,"mosquito_risk":3,"arthritis_risk":5,"migraine_risk":7,"frizz_risk":1,"updated_at":"2026-07-22T13:05:23.777837+05:30"},{"city":"Mumbai","state":"Maharashtra","latitude":19.076,"longitude":72.8777,"temp":27.9,"humidity":81,"rain":0.3,"pressure":1004.6,"uv_index":0.6,"wind_gusts":65.2,"aqi":60,"pm10":41.0,"pm2_5":17.1,"no2":6.0,"co":189.0,"o3":51.0,"so2":4.8,"mosquito_risk":10,"arthritis_risk":5,"migraine_risk":0,"frizz_risk":1,"updated_at":"2026-07-22T13:05:23.777877+05:30"},{"city":"Bangalore","state":"Karnataka","latitude":12.9716,"longitude":77.5946,"temp":27.0,"humidity":64,"rain":0.0,"pressure":912.1,"uv_index":7.75,"wind_gusts":47.9,"aqi":43,"pm10":6.3,"pm2_5":4.4,"no2":5.4,"co":238.0,"o3":50.0,"so2":3.3,"mosquito_risk":7,"arthritis_risk":5,"migraine_risk":7,"frizz_risk":1,"updated_at":"2026-07-22T13:05:23.777892+05:30"},{"city":"Hyderabad","state":"Telangana","latitude":17.385,"longitude":78.4867,"temp":26.9,"humidity":70,"rain":0.0,"pressure":950.7,"uv_index":4.55,"wind_gusts":47.9,"aqi":45,"pm10":14.2,"pm2_5":7.5,"no2":2.2,"co":170.0,"o3":62.0,"so2":3.0,"mosquito_risk":7,"arthritis_risk":5,"migraine_risk":3,"frizz_risk":1,"updated_at":"2026-07-22T13:05:23.777901+05:30"},{"city":"Chennai","state":"Tamil Nadu","latitude":13.0827,"longitude":80.2707,"temp":35.0,"humidity":48,"rain":0.0,"pressure":1005.4,"uv_index":8.6,"wind_gusts":35.6,"aqi":81,"pm10":36.0,"pm2_5":25.8,"no2":8.0,"co":195.0,"o3":129.0,"so2":12.2,"mosquito_risk":0,"arthritis_risk":5,"migraine_risk":4,"frizz_risk":1,"updated_at":"2026-07-22T13:05:23.777909+05:30"},{"city":"Kolkata","state":"West Bengal","latitude":22.5726,"longitude":88.3639,"temp":29.6,"humidity":76,"rain":0.1,"pressure":1000.6,"uv_index":5.15,"wind_gusts":34.6,"aqi":59,"pm10":6.5,"pm2_5":6.5,"no2":3.2,"co":220.0,"o3":103.0,"so2":6.3,"mosquito_risk":10,"arthritis_risk":5,"migraine_risk":0,"frizz_risk":1,"updated_at":"2026-07-22T13:05:23.777917+05:30"},{"city":"Pune","state":"Maharashtra","latitude":18.5204,"longitude":73.8567,"temp":25.2,"humidity":79,"rain":0.1,"pressure":944.2,"uv_index":1.5,"wind_gusts":63.0,"aqi":19,"pm10":2.4,"pm2_5":2.0,"no2":5.7,"co":142.0,"o3":43.0,"so2":3.4,"mosquito_risk":10,"arthritis_risk":5,"migraine_risk":3,"frizz_risk":1,"updated_at":"2026-07-22T13:05:23.777924+05:30"},{"city":"Ahmedabad","state":"Gujarat","latitude":23.0225,"longitude":72.5714,"temp":30.9,"humidity":68,"rain":0.0,"pressure":994.5,"uv_index":5.45,"wind_gusts":34.9,"aqi":61,"pm10":29.3,"pm2_5":13.4,"no2":4.5,"co":206.0,"o3":57.0,"so2":4.3,"mosquito_risk":3,"arthritis_risk":5,"migraine_risk":3,"frizz_risk":1,"updated_at":"2026-07-22T13:05:23.777931+05:30"},{"city":"Jaipur","state":"Rajasthan","latitude":26.9124,"longitude":75.7873,"temp":28.0,"humidity":85,"rain":0.3,"pressure":953.2,"uv_index":6.9,"wind_gusts":37.4,"aqi":61,"pm10":15.3,"pm2_5":11.6,"no2":2.6,"co":216.0,"o3":125.0,"so2":4.9,"mosquito_risk":10,"arthritis_risk":5,"migraine_risk":7,"frizz_risk":1,"updated_at":"2026-07-22T13:05:23.777941+05:30"},{"city":"Lucknow","state":"Uttar Pradesh","latitude":26.8467,"longitude":80.9462,"temp":32.7,"humidity":61,"rain":0.1,"pressure":986.4,"uv_index":5.95,"wind_gusts":45.0,"aqi":86,"pm10":15.4,"pm2_5":15.3,"no2":1.6,"co":235.0,"o3":131.0,"so2":5.3,"mosquito_risk":6,"arthritis_risk":5,"migraine_risk":3,"frizz_risk":1,"updated_at":"2026-07-22T13:05:23.777950+05:30"},{"city":"Kanpur","state":"Uttar Pradesh","latitude":26.4499,"longitude":80.3319,"temp":32.3,"humidity":63,"rain":0.1,"pressure":984.4,"uv_index":6.2,"wind_gusts":42.5,"aqi":80,"pm10":14.3,"pm2_5":14.3,"no2":1.8,"co":233.0,"o3":131.0,"so2":6.4,"mosquito_risk":6,"arthritis_risk":5,"migraine_risk":7,"frizz_risk":1,"updated_at":"2026-07-22T13:05:23.777956+05:30"},{"city":"Chandigarh","state":"Chandigarh","latitude":30.7333,"longitude":76.7794,"temp":31.6,"humidity":64,"rain":0.0,"pressure":964.1,"uv_index":6.95,"wind_gusts":44.6,"aqi":84,"pm10":15.9,"pm2_5":15.3,"no2":2.2,"co":265.0,"o3":129.0,"so2":5.3,"mosquito_risk":3,"arthritis_risk":5,"migraine_risk":7,"frizz_risk":1,"updated_at":"2026-07-22T13:05:23.777963+05:30"},{"city":"Srinagar","state":"Jammu and Kashmir","latitude":34.0837,"longitude":74.7973,"temp":19.3,"humidity":93,"rain":0.4,"pressure":840.4,"uv_index":3.9,"wind_gusts":13.3,"aqi":62,"pm10":11.2,"pm2_5":10.8,"no2":13.9,"co":472.0,"o3":60.0,"so2":2.3,"mosquito_risk":6,"arthritis_risk":10,"migraine_risk":3,"frizz_risk":1,"updated_at":"2026-07-22T13:05:23.777970+05:30"},{"city":"Jammu","state":"Jammu and Kashmir","latitude":32.7266,"longitude":74.857,"temp":26.7,"humidity":90,"rain":0.2,"pressure":969.3,"uv_index":6.75,"wind_gusts":40.7,"aqi":63,"pm10":13.2,"pm2_5":12.8,"no2":7.3,"co":284.0,"o3":96.0,"so2":2.4,"mosquito_risk":10,"arthritis_risk":5,"migraine_risk":7,"frizz_risk":1,"updated_at":"2026-07-22T13:05:23.777976+05:30"},{"city":"Amritsar","state":"Punjab","latitude":31.634,"longitude":74.8723,"temp":30.0,"humidity":81,"rain":0.0,"pressure":976.0,"uv_index":3.0,"wind_gusts":42.5,"aqi":80,"pm10":26.0,"pm2_5":25.7,"no2":4.2,"co":418.0,"o3":132.0,"so2":8.8,"mosquito_risk":7,"arthritis_risk":5,"migraine_risk":3,"frizz_risk":1,"updated_at":"2026-07-22T13:05:23.777983+05:30"},{"city":"Ludhiana","state":"Punjab","latitude":30.901,"longitude":75.8573,"temp":30.9,"humidity":71,"rain":0.0,"pressure":973.8,"uv_index":5.95,"wind_gusts":40.0,"aqi":95,"pm10":27.5,"pm2_5":26.8,"no2":7.1,"co":382.0,"o3":107.0,"so2":9.4,"mosquito_risk":3,"arthritis_risk":5,"migraine_risk":3,"frizz_risk":1,"updated_at":"2026-07-22T13:05:23.777989+05:30"},{"city":"Jalandhar","state":"Punjab","latitude":31.326,"longitude":75.5762,"temp":30.2,"humidity":76,"rain":0.0,"pressure":975.0,"uv_index":4.7,"wind_gusts":42.5,"aqi":94,"pm10":31.8,"pm2_5":31.2,"no2":5.8,"co":337.0,"o3":135.0,"so2":11.5,"mosquito_risk":3,"arthritis_risk":5,"migraine_risk":3,"frizz_risk":1,"updated_at":"2026-07-22T13:05:23.777996+05:30"},{"city":"Dehradun","state":"Uttarakhand","latitude":30.6284,"longitude":78.0322,"temp":19.8,"humidity":99,"rain":0.2,"pressure":829.5,"uv_index":5.45,"wind_gusts":26.6,"aqi":42,"pm10":3.5,"pm2_5":3.3,"no2":1.1,"co":204.0,"o3":103.0,"so2":0.8,"mosquito_risk":6,"arthritis_risk":10,"migraine_risk":3,"frizz_risk":1,"updated_at":"2026-07-22T13:05:23.778003+05:30"},{"city":"Shimla","state":"Himachal Pradesh","latitude":31.1048,"longitude":77.1734,"temp":19.3,"humidity":83,"rain":0.0,"pressure":784.0,"uv_index":5.2,"wind_gusts":27.0,"aqi":44,"pm10":8.5,"pm2_5":8.2,"no2":3.2,"co":186.0,"o3":109.0,"so2":2.2,"mosquito_risk":3,"arthritis_risk":10,"migraine_risk":3,"frizz_risk":1,"updated_at":"2026-07-22T13:05:23.778009+05:30"},{"city":"Manali","state":"Himachal Pradesh","latitude":32.2396,"longitude":77.1887,"temp":22.1,"humidity":95,"rain":0.1,"pressure":818.7,"uv_index":3.9,"wind_gusts":20.5,"aqi":29,"pm10":5.0,"pm2_5":4.5,"no2":2.2,"co":222.0,"o3":111.0,"so2":1.9,"mosquito_risk":6,"arthritis_risk":5,"migraine_risk":3,"frizz_risk":1,"updated_at":"2026-07-22T13:05:23.778017+05:30"},{"city":"Gurgaon","state":"Haryana","latitude":28.4595,"longitude":77.0266,"temp":31.9,"humidity":67,"rain":0.0,"pressure":975.4,"uv_index":5.95,"wind_gusts":43.2,"aqi":80,"pm10":52.4,"pm2_5":29.0,"no2":6.0,"co":362.0,"o3":142.0,"so2":12.4,"mosquito_risk":3,"arthritis_risk":5,"migraine_risk":3,"frizz_risk":1,"updated_at":"2026-07-22T13:05:23.778023+05:30"},{"city":"Noida","state":"Uttar Pradesh","latitude":28.5355,"longitude":77.391,"temp":32.3,"humidity":66,"rain":0.0,"pressure":978.6,"uv_index":6.7,"wind_gusts":38.5,"aqi":80,"pm10":52.4,"pm2_5":29.0,"no2":6.0,"co":336.0,"o3":142.0,"so2":12.4,"mosquito_risk":3,"arthritis_risk":5,"migraine_risk":7,"frizz_risk":1,"updated_at":"2026-07-22T13:05:23.778029+05:30"},{"city":"Ghaziabad","state":"Uttar Pradesh","latitude":28.6692,"longitude":77.4538,"temp":31.8,"humidity":70,"rain":0.0,"pressure":976.8,"uv_index":6.9,"wind_gusts":40.7,"aqi":80,"pm10":34.2,"pm2_5":25.7,"no2":2.6,"co":298.0,"o3":145.0,"so2":8.8,"mosquito_risk":3,"arthritis_risk":5,"migraine_risk":7,"frizz_risk":1,"updated_at":"2026-07-22T13:05:23.778035+05:30"},{"city":"Faridabad","state":"Haryana","latitude":28.4089,"longitude":77.3178,"temp":32.0,"humidity":67,"rain":0.0,"pressure":977.6,"uv_index":6.9,"wind_gusts":39.6,"aqi":80,"pm10":52.4,"pm2_5":29.0,"no2":6.0,"co":335.0,"o3":142.0,"so2":12.4,"mosquito_risk":3,"arthritis_risk":5,"migraine_risk":7,"frizz_risk":1,"updated_at":"2026-07-22T13:05:23.778041+05:30"},{"city":"Meerut","state":"Uttar Pradesh","latitude":28.9845,"longitude":77.7064,"temp":30.5,"humidity":75,"rain":0.0,"pressure":976.1,"uv_index":6.9,"wind_gusts":41.8,"aqi":80,"pm10":34.2,"pm2_5":25.7,"no2":2.6,"co":280.0,"o3":145.0,"so2":8.8,"mosquito_risk":3,"arthritis_risk":5,"migraine_risk":7,"frizz_risk":1,"updated_at":"2026-07-22T13:05:23.778047+05:30"},{"city":"Agra","state":"Uttar Pradesh","latitude":27.1767,"longitude":78.0081,"temp":32.8,"humidity":64,"rain":0.0,"pressure":980.6,"uv_index":6.85,"wind_gusts":36.7,"aqi":71,"pm10":22.7,"pm2_5":22.2,"no2":2.1,"co":292.0,"o3":139.0,"so2":6.1,"mosquito_risk":3,"arthritis_risk":5,"migraine_risk":7,"frizz_risk":1,"updated_at":"2026-07-22T13:05:23.778053+05:30"},{"city":"Varanasi","state":"Uttar Pradesh","latitude":25.3176,"longitude":82.9739,"temp":32.4,"humidity":63,"rain":0.0,"pressure":989.7,"uv_index":8.05,"wind_gusts":46.8,"aqi":72,"pm10":13.4,"pm2_5":13.3,"no2":2.7,"co":331.0,"o3":119.0,"so2":12.9,"mosquito_risk":3,"arthritis_risk":5,"migraine_risk":7,"frizz_risk":1,"updated_at":"2026-07-22T13:05:23.778059+05:30"},{"city":"Prayagraj","state":"Uttar Pradesh","latitude":25.4358,"longitude":81.8463,"temp":32.5,"humidity":64,"rain":0.0,"pressure":988.1,"uv_index":8.15,"wind_gusts":37.1,"aqi":78,"pm10":16.1,"pm2_5":16.0,"no2":2.2,"co":315.0,"o3":134.0,"so2":10.8,"mosquito_risk":3,"arthritis_risk":5,"migraine_risk":7,"frizz_risk":1,"updated_at":"2026-07-22T13:05:23.778065+05:30"},{"city":"Gorakhpur","state":"Uttar Pradesh","latitude":26.7606,"longitude":83.3732,"temp":30.7,"humidity":73,"rain":0.1,"pressure":991.0,"uv_index":6.35,"wind_gusts":52.6,"aqi":79,"pm10":16.0,"pm2_5":15.7,"no2":1.6,"co":242.0,"o3":121.0,"so2":3.9,"mosquito_risk":6,"arthritis_risk":5,"migraine_risk":7,"frizz_risk":1,"updated_at":"2026-07-22T13:05:23.778072+05:30"},{"city":"Bareilly","state":"Uttar Pradesh","latitude":28.367,"longitude":79.4304,"temp":31.8,"humidity":70,"rain":0.0,"pressure":981.4,"uv_index":6.6,"wind_gusts":42.8,"aqi":74,"pm10":16.9,"pm2_5":16.5,"no2":1.6,"co":246.0,"o3":135.0,"so2":6.3,"mosquito_risk":3,"arthritis_risk":5,"migraine_risk":7,"frizz_risk":1,"updated_at":"2026-07-22T13:05:23.778079+05:30"},{"city":"Aligarh","state":"Uttar Pradesh","latitude":27.8974,"longitude":78.088,"temp":32.3,"humidity":66,"rain":0.1,"pressure":979.2,"uv_index":6.9,"wind_gusts":39.6,"aqi":79,"pm10":23.5,"pm2_5":23.0,"no2":2.4,"co":244.0,"o3":140.0,"so2":7.9,"mosquito_risk":6,"arthritis_risk":5,"migraine_risk":7,"frizz_risk":1,"updated_at":"2026-07-22T13:05:23.778086+05:30"},{"city":"Moradabad","state":"Uttar Pradesh","latitude":28.8386,"longitude":78.7733,"temp":32.1,"humidity":68,"rain":0.0,"pressure":978.4,"uv_index":7.35,"wind_gusts":45.0,"aqi":72,"pm10":18.4,"pm2_5":18.0,"no2":2.0,"co":238.0,"o3":141.0,"so2":8.2,"mosquito_risk":3,"arthritis_risk":5,"migraine_risk":7,"frizz_risk":1,"updated_at":"2026-07-22T13:05:23.778092+05:30"},{"city":"Saharanpur","state":"Uttar Pradesh","latitude":29.9637,"longitude":77.546,"temp":31.6,"humidity":61,"rain":0.1,"pressure":970.9,"uv_index":7.35,"wind_gusts":52.6,"aqi":75,"pm10":20.2,"pm2_5":19.3,"no2":1.6,"co":258.0,"o3":134.0,"so2":3.8,"mosquito_risk":6,"arthritis_risk":5,"migraine_risk":7,"frizz_risk":1,"updated_at":"2026-07-22T13:05:23.778097+05:30"},{"city":"Jhansi","state":"Uttar Pradesh","latitude":25.4484,"longitude":78.5685,"temp":32.2,"humidity":66,"rain":0.1,"pressure":969.6,"uv_index":7.35,"wind_gusts":35.3,"aqi":63,"pm10":16.1,"pm2_5":15.7,"no2":2.4,"co":183.0,"o3":125.0,"so2":11.6,"mosquito_risk":6,"arthritis_risk":5,"migraine_risk":7,"frizz_risk":1,"updated_at":"2026-07-22T13:05:27.084245+05:30"},{"city":"Surat","state":"Gujarat","latitude":21.1702,"longitude":72.8311,"temp":26.6,"humidity":92,"rain":0.7,"pressure":999.8,"uv_index":0.65,"wind_gusts":32.8,"aqi":68,"pm10":30.6,"pm2_5":24.3,"no2":25.1,"co":457.0,"o3":18.0,"so2":53.9,"mosquito_risk":10,"arthritis_risk":5,"migraine_risk":3,"frizz_risk":1,"updated_at":"2026-07-22T13:05:27.084280+05:30"},{"city":"Vadodara","state":"Gujarat","latitude":22.3072,"longitude":73.1812,"temp":29.5,"humidity":77,"rain":0.0,"pressure":996.7,"uv_index":0.9,"wind_gusts":26.3,"aqi":58,"pm10":26.1,"pm2_5":12.3,"no2":5.3,"co":153.0,"o3":51.0,"so2":6.1,"mosquito_risk":7,"arthritis_risk":5,"migraine_risk":3,"frizz_risk":1,"updated_at":"2026-07-22T13:05:27.084294+05:30"},{"city":"Rajkot","state":"Gujarat","latitude":22.3039,"longitude":70.8022,"temp":30.0,"humidity":73,"rain":0.0,"pressure":987.0,"uv_index":3.0,"wind_gusts":44.3,"aqi":57,"pm10":41.1,"pm2_5":18.8,"no2":2.1,"co":99.0,"o3":67.0,"so2":5.2,"mosquito_risk":7,"arthritis_risk":5,"migraine_risk":3,"frizz_risk":1,"updated_at":"2026-07-22T13:05:27.084304+05:30"},{"city":"Thane","state":"Maharashtra","latitude":19.2183,"longitude":72.9781,"temp":26.4,"humidity":91,"rain":0.4,"pressure":1003.8,"uv_index":0.55,"wind_gusts":45.0,"aqi":60,"pm10":41.0,"pm2_5":17.1,"no2":6.0,"co":222.0,"o3":51.0,"so2":4.8,"mosquito_risk":10,"arthritis_risk":5,"migraine_risk":0,"frizz_risk":1,"updated_at":"2026-07-22T13:05:27.084313+05:30"},{"city":"Nagpur","state":"Maharashtra","latitude":21.1458,"longitude":79.0882,"temp":27.7,"humidity":74,"rain":0.1,"pressure":967.1,"uv_index":0.65,"wind_gusts":51.8,"aqi":35,"pm10":4.6,"pm2_5":4.6,"no2":9.2,"co":141.0,"o3":35.0,"so2":11.5,"mosquito_risk":10,"arthritis_risk":5,"migraine_risk":3,"frizz_risk":1,"updated_at":"2026-07-22T13:05:27.084322+05:30"},{"city":"Nashik","state":"Maharashtra","latitude":19.9975,"longitude":73.7898,"temp":23.9,"humidity":89,"rain":0.1,"pressure":939.8,"uv_index":0.6,"wind_gusts":64.8,"aqi":19,"pm10":6.6,"pm2_5":3.1,"no2":3.2,"co":130.0,"o3":46.0,"so2":1.3,"mosquito_risk":6,"arthritis_risk":5,"migraine_risk":3,"frizz_risk":1,"updated_at":"2026-07-22T13:05:27.084331+05:30"},{"city":"Aurangabad","state":"Maharashtra","latitude":19.8762,"longitude":75.3433,"temp":24.6,"humidity":84,"rain":0.0,"pressure":938.8,"uv_index":1.25,"wind_gusts":49.7,"aqi":24,"pm10":3.3,"pm2_5":2.6,"no2":5.0,"co":150.0,"o3":47.0,"so2":4.6,"mosquito_risk":3,"arthritis_risk":5,"migraine_risk":3,"frizz_risk":1,"updated_at":"2026-07-22T13:05:27.084340+05:30"},{"city":"Solapur","state":"Maharashtra","latitude":17.6599,"longitude":75.9064,"temp":28.1,"humidity":64,"rain":0.0,"pressure":954.3,"uv_index":6.75,"wind_gusts":58.0,"aqi":27,"pm10":7.6,"pm2_5":4.8,"no2":3.1,"co":108.0,"o3":45.0,"so2":1.9,"mosquito_risk":7,"arthritis_risk":5,"migraine_risk":7,"frizz_risk":1,"updated_at":"2026-07-22T13:05:27.084349+05:30"},{"city":"Kolhapur","state":"Maharashtra","latitude":16.705,"longitude":74.2433,"temp":24.8,"humidity":81,"rain":0.0,"pressure":946.2,"uv_index":7.1,"wind_gusts":60.5,"aqi":26,"pm10":11.5,"pm2_5":6.7,"no2":3.8,"co":128.0,"o3":41.0,"so2":2.0,"mosquito_risk":3,"arthritis_risk":5,"migraine_risk":7,"frizz_risk":1,"updated_at":"2026-07-22T13:05:27.084357+05:30"},{"city":"Goa","state":"Goa","latitude":15.2993,"longitude":74.124,"temp":25.6,"humidity":94,"rain":0.1,"pressure":998.1,"uv_index":6.7,"wind_gusts":29.9,"aqi":55,"pm10":28.0,"pm2_5":12.9,"no2":1.2,"co":124.0,"o3":49.0,"so2":1.0,"mosquito_risk":10,"arthritis_risk":5,"migraine_risk":7,"frizz_risk":1,"updated_at":"2026-07-22T13:05:27.084365+05:30"},{"city":"Jodhpur","state":"Rajasthan","latitude":26.2389,"longitude":73.0243,"temp":31.3,"humidity":72,"rain":0.0,"pressure":975.6,"uv_index":4.5,"wind_gusts":22.0,"aqi":77,"pm10":225.4,"pm2_5":52.0,"no2":2.8,"co":131.0,"o3":77.0,"so2":2.9,"mosquito_risk":3,"arthritis_risk":5,"migraine_risk":3,"frizz_risk":1,"updated_at":"2026-07-22T13:05:27.084374+05:30"},{"city":"Udaipur","state":"Rajasthan","latitude":24.5854,"longitude":73.7125,"temp":26.3,"humidity":91,"rain":0.1,"pressure":939.0,"uv_index":1.95,"wind_gusts":29.2,"aqi":52,"pm10":12.5,"pm2_5":6.0,"no2":3.2,"co":144.0,"o3":63.0,"so2":3.5,"mosquito_risk":10,"arthritis_risk":5,"migraine_risk":3,"frizz_risk":1,"updated_at":"2026-07-22T13:05:27.084383+05:30"},{"city":"Kota","state":"Rajasthan","latitude":25.2138,"longitude":75.8648,"temp":28.9,"humidity":82,"rain":0.1,"pressure":970.5,"uv_index":7.65,"wind_gusts":23.8,"aqi":52,"pm10":21.9,"pm2_5":16.8,"no2":4.9,"co":200.0,"o3":115.0,"so2":17.4,"mosquito_risk":10,"arthritis_risk":5,"migraine_risk":7,"frizz_risk":1,"updated_at":"2026-07-22T13:05:27.084391+05:30"},{"city":"Bikaner","state":"Rajasthan","latitude":28.0229,"longitude":73.3119,"temp":34.6,"humidity":59,"rain":0.0,"pressure":974.2,"uv_index":7.95,"wind_gusts":36.7,"aqi":71,"pm10":50.8,"pm2_5":18.4,"no2":1.0,"co":159.0,"o3":113.0,"so2":4.4,"mosquito_risk":0,"arthritis_risk":5,"migraine_risk":7,"frizz_risk":1,"updated_at":"2026-07-22T13:05:27.084401+05:30"},{"city":"Ajmer","state":"Rajasthan","latitude":26.4499,"longitude":74.6399,"temp":30.4,"humidity":67,"rain":0.0,"pressure":947.7,"uv_index":7.45,"wind_gusts":28.1,"aqi":60,"pm10":14.8,"pm2_5":11.7,"no2":1.9,"co":165.0,"o3":121.0,"so2":3.1,"mosquito_risk":3,"arthritis_risk":5,"migraine_risk":7,"frizz_risk":1,"updated_at":"2026-07-22T13:05:27.084409+05:30"},{"city":"Gwalior","state":"Madhya Pradesh","latitude":26.2183,"longitude":78.1828,"temp":32.3,"humidity":67,"rain":0.0,"pressure":975.2,"uv_index":7.1,"wind_gusts":36.7,"aqi":62,"pm10":16.6,"pm2_5":16.2,"no2":1.5,"co":215.0,"o3":126.0,"so2":6.4,"mosquito_risk":3,"arthritis_risk":5,"migraine_risk":7,"frizz_risk":1,"updated_at":"2026-07-22T13:05:27.084417+05:30"},{"city":"Indore","state":"Madhya Pradesh","latitude":22.7196,"longitude":75.8577,"temp":26.7,"humidity":83,"rain":0.0,"pressure":940.2,"uv_index":2.4,"wind_gusts":33.8,"aqi":51,"pm10":10.2,"pm2_5":7.9,"no2":8.3,"co":230.0,"o3":42.0,"so2":4.7,"mosquito_risk":7,"arthritis_risk":5,"migraine_risk":3,"frizz_risk":1,"updated_at":"2026-07-22T13:05:27.084426+05:30"},{"city":"Bhopal","state":"Madhya Pradesh","latitude":23.2599,"longitude":77.4126,"temp":27.1,"humidity":88,"rain":0.1,"pressure":945.3,"uv_index":7.25,"wind_gusts":38.2,"aqi":46,"pm10":4.6,"pm2_5":4.3,"no2":2.4,"co":325.0,"o3":76.0,"so2":3.7,"mosquito_risk":10,"arthritis_risk":5,"migraine_risk":7,"frizz_risk":1,"updated_at":"2026-07-22T13:05:27.084435+05:30"},{"city":"Jabalpur","state":"Madhya Pradesh","latitude":23.1815,"longitude":79.9864,"temp":27.0,"humidity":85,"rain":0.0,"pressure":953.4,"uv_index":6.65,"wind_gusts":41.4,"aqi":38,"pm10":4.2,"pm2_5":4.0,"no2":1.5,"co":177.0,"o3":94.0,"so2":2.7,"mosquito_risk":7,"arthritis_risk":5,"migraine_risk":7,"frizz_risk":1,"updated_at":"2026-07-22T13:05:27.084445+05:30"},{"city":"Ujjain","state":"Madhya Pradesh","latitude":23.1765,"longitude":75.7885,"temp":27.4,"humidity":81,"rain":0.0,"pressure":945.6,"uv_index":3.05,"wind_gusts":32.8,"aqi":52,"pm10":8.8,"pm2_5":6.6,"no2":5.5,"co":200.0,"o3":48.0,"so2":3.3,"mosquito_risk":7,"arthritis_risk":5,"migraine_risk":3,"frizz_risk":1,"updated_at":"2026-07-22T13:05:27.084454+05:30"},{"city":"Visakhapatnam","state":"Andhra Pradesh","latitude":17.6868,"longitude":83.2185,"temp":32.4,"humidity":57,"rain":0.0,"pressure":999.9,"uv_index":8.3,"wind_gusts":54.7,"aqi":61,"pm10":25.3,"pm2_5":16.9,"no2":13.8,"co":317.0,"o3":68.0,"so2":30.8,"mosquito_risk":0,"arthritis_risk":5,"migraine_risk":7,"frizz_risk":1,"updated_at":"2026-07-22T13:05:27.084462+05:30"},{"city":"Vijayawada","state":"Andhra Pradesh","latitude":16.5062,"longitude":80.648,"temp":32.1,"humidity":61,"rain":0.0,"pressure":1000.3,"uv_index":5.45,"wind_gusts":46.4,"aqi":65,"pm10":19.8,"pm2_5":10.9,"no2":1.7,"co":122.0,"o3":79.0,"so2":5.0,"mosquito_risk":3,"arthritis_risk":5,"migraine_risk":0,"frizz_risk":1,"updated_at":"2026-07-22T13:05:27.084471+05:30"},{"city":"Guntur","state":"Andhra Pradesh","latitude":16.3067,"longitude":80.4365,"temp":34.1,"humidity":46,"rain":0.1,"pressure":1001.4,"uv_index":5.7,"wind_gusts":51.5,"aqi":61,"pm10":18.0,"pm2_5":9.5,"no2":1.4,"co":120.0,"o3":74.0,"so2":4.0,"mosquito_risk":3,"arthritis_risk":5,"migraine_risk":0,"frizz_risk":1,"updated_at":"2026-07-22T13:05:27.084480+05:30"},{"city":"Nellore","state":"Andhra Pradesh","latitude":14.4426,"longitude":79.9865,"temp":36.1,"humidity":40,"rain":0.0,"pressure":1003.7,"uv_index":8.4,"wind_gusts":43.9,"aqi":68,"pm10":18.5,"pm2_5":10.6,"no2":3.3,"co":108.0,"o3":68.0,"so2":5.2,"mosquito_risk":0,"arthritis_risk":5,"migraine_risk":7,"frizz_risk":1,"updated_at":"2026-07-22T13:05:27.084489+05:30"},{"city":"Kurnool","state":"Andhra Pradesh","latitude":15.8281,"longitude":78.0373,"temp":30.3,"humidity":62,"rain":0.0,"pressure":975.6,"uv_index":6.55,"wind_gusts":50.4,"aqi":42,"pm10":17.1,"pm2_5":6.9,"no2":0.8,"co":111.0,"o3":68.0,"so2":1.4,"mosquito_risk":3,"arthritis_risk":5,"migraine_risk":7,"frizz_risk":1,"updated_at":"2026-07-22T13:05:27.084499+05:30"},{"city":"Kakinada","state":"Andhra Pradesh","latitude":16.9891,"longitude":82.2475,"temp":34.0,"humidity":53,"rain":0.0,"pressure":1004.4,"uv_index":8.65,"wind_gusts":58.3,"aqi":61,"pm10":24.0,"pm2_5":14.6,"no2":3.2,"co":168.0,"o3":77.0,"so2":5.6,"mosquito_risk":0,"arthritis_risk":5,"migraine_risk":4,"frizz_risk":1,"updated_at":"2026-07-22T13:05:27.084509+05:30"},{"city":"Tirupati","state":"Andhra Pradesh","latitude":13.6288,"longitude":79.4192,"temp":33.8,"humidity":47,"rain":0.0,"pressure":989.5,"uv_index":8.85,"wind_gusts":38.5,"aqi":77,"pm10":17.1,"pm2_5":9.4,"no2":1.5,"co":108.0,"o3":79.0,"so2":2.1,"mosquito_risk":0,"arthritis_risk":5,"migraine_risk":7,"frizz_risk":1,"updated_at":"2026-07-22T13:05:27.084517+05:30"},{"city":"Warangal","state":"Telangana","latitude":17.9689,"longitude":79.5941,"temp":28.5,"humidity":71,"rain":0.0,"pressure":975.8,"uv_index":2.3,"wind_gusts":46.1,"aqi":51,"pm10":14.2,"pm2_5":8.9,"no2":1.7,"co":157.0,"o3":73.0,"so2":3.4,"mosquito_risk":7,"arthritis_risk":5,"migraine_risk":3,"frizz_risk":1,"updated_at":"2026-07-22T13:05:27.084526+05:30"},{"city":"Nizamabad","state":"Telangana","latitude":18.6725,"longitude":78.0941,"temp":26.8,"humidity":78,"rain":0.1,"pressure":961.1,"uv_index":2.0,"wind_gusts":50.0,"aqi":41,"pm10":5.2,"pm2_5":4.4,"no2":2.5,"co":143.0,"o3":52.0,"so2":2.1,"mosquito_risk":10,"arthritis_risk":5,"migraine_risk":3,"frizz_risk":1,"updated_at":"2026-07-22T13:05:27.084534+05:30"},{"city":"Mysore","state":"Karnataka","latitude":12.2958,"longitude":76.6396,"temp":28.3,"humidity":58,"rain":0.1,"pressure":929.2,"uv_index":7.95,"wind_gusts":52.6,"aqi":33,"pm10":4.9,"pm2_5":3.1,"no2":2.0,"co":113.0,"o3":53.0,"so2":1.4,"mosquito_risk":7,"arthritis_risk":5,"migraine_risk":7,"frizz_risk":1,"updated_at":"2026-07-22T13:05:27.084540+05:30"},{"city":"Mangalore","state":"Karnataka","latitude":12.9141,"longitude":74.856,"temp":25.3,"humidity":92,"rain":0.3,"pressure":1008.8,"uv_index":8.15,"wind_gusts":31.0,"aqi":53,"pm10":14.2,"pm2_5":7.0,"no2":1.3,"co":117.0,"o3":55.0,"so2":1.8,"mosquito_risk":10,"arthritis_risk":0,"migraine_risk":4,"frizz_risk":1,"updated_at":"2026-07-22T13:05:27.084547+05:30"},{"city":"Hubli-Dharwad","state":"Karnataka","latitude":15.3647,"longitude":75.124,"temp":26.6,"humidity":67,"rain":0.0,"pressure":940.3,"uv_index":4.4,"wind_gusts":62.3,"aqi":18,"pm10":5.5,"pm2_5":2.8,"no2":1.3,"co":102.0,"o3":52.0,"so2":0.9,"mosquito_risk":7,"arthritis_risk":5,"migraine_risk":3,"frizz_risk":1,"updated_at":"2026-07-22T13:05:27.084553+05:30"},{"city":"Belgaum","state":"Karnataka","latitude":15.8497,"longitude":74.4977,"temp":25.5,"humidity":75,"rain":0.0,"pressure":924.7,"uv_index":8.2,"wind_gusts":62.3,"aqi":18,"pm10":7.8,"pm2_5":4.7,"no2":2.1,"co":113.0,"o3":47.0,"so2":1.5,"mosquito_risk":7,"arthritis_risk":5,"migraine_risk":7,"frizz_risk":1,"updated_at":"2026-07-22T13:05:30.391477+05:30"},{"city":"Coimbatore","state":"Tamil Nadu","latitude":11.0168,"longitude":76.9558,"temp":32.7,"humidity":45,"rain":0.0,"pressure":961.9,"uv_index":8.4,"wind_gusts":53.6,"aqi":42,"pm10":5.7,"pm2_5":3.7,"no2":1.0,"co":122.0,"o3":62.0,"so2":1.6,"mosquito_risk":0,"arthritis_risk":5,"migraine_risk":7,"frizz_risk":1,"updated_at":"2026-07-22T13:05:30.391513+05:30"},{"city":"Madurai","state":"Tamil Nadu","latitude":9.9252,"longitude":78.1198,"temp":38.0,"humidity":30,"rain":0.0,"pressure":991.8,"uv_index":8.25,"wind_gusts":50.0,"aqi":70,"pm10":30.3,"pm2_5":16.2,"no2":1.6,"co":134.0,"o3":127.0,"so2":3.5,"mosquito_risk":0,"arthritis_risk":5,"migraine_risk":10,"frizz_risk":1,"updated_at":"2026-07-22T13:05:30.391527+05:30"},{"city":"Trichy","state":"Tamil Nadu","latitude":10.7905,"longitude":78.7047,"temp":37.5,"humidity":35,"rain":0.0,"pressure":998.3,"uv_index":7.9,"wind_gusts":40.3,"aqi":57,"pm10":14.9,"pm2_5":8.4,"no2":1.2,"co":118.0,"o3":79.0,"so2":2.2,"mosquito_risk":0,"arthritis_risk":5,"migraine_risk":10,"frizz_risk":1,"updated_at":"2026-07-22T13:05:30.391537+05:30"},{"city":"Salem","state":"Tamil Nadu","latitude":11.6643,"longitude":78.146,"temp":32.6,"humidity":52,"rain":0.0,"pressure":976.9,"uv_index":8.7,"wind_gusts":40.7,"aqi":68,"pm10":23.3,"pm2_5":14.4,"no2":2.2,"co":192.0,"o3":115.0,"so2":8.1,"mosquito_risk":0,"arthritis_risk":5,"migraine_risk":7,"frizz_risk":1,"updated_at":"2026-07-22T13:05:30.391548+05:30"},{"city":"Tirunelveli","state":"Tamil Nadu","latitude":8.7139,"longitude":77.7567,"temp":39.5,"humidity":28,"rain":0.0,"pressure":1001.9,"uv_index":8.6,"wind_gusts":44.3,"aqi":47,"pm10":9.4,"pm2_5":5.6,"no2":1.0,"co":118.0,"o3":73.0,"so2":1.3,"mosquito_risk":0,"arthritis_risk":5,"migraine_risk":7,"frizz_risk":1,"updated_at":"2026-07-22T13:05:30.391557+05:30"},{"city":"Vellore","state":"Tamil Nadu","latitude":12.9165,"longitude":79.1325,"temp":35.7,"humidity":39,"rain":0.0,"pressure":983.0,"uv_index":9.0,"wind_gusts":40.0,"aqi":79,"pm10":16.1,"pm2_5":9.3,"no2":1.5,"co":117.0,"o3":89.0,"so2":3.1,"mosquito_risk":0,"arthritis_risk":5,"migraine_risk":10,"frizz_risk":1,"updated_at":"2026-07-22T13:05:30.391566+05:30"},{"city":"Erode","state":"Tamil Nadu","latitude":11.341,"longitude":77.7172,"temp":35.7,"humidity":37,"rain":0.0,"pressure":988.3,"uv_index":8.45,"wind_gusts":41.4,"aqi":57,"pm10":10.3,"pm2_5":6.8,"no2":1.4,"co":171.0,"o3":88.0,"so2":2.2,"mosquito_risk":0,"arthritis_risk":5,"migraine_risk":10,"frizz_risk":1,"updated_at":"2026-07-22T13:05:30.391575+05:30"},{"city":"Kochi","state":"Kerala","latitude":9.9312,"longitude":76.2673,"temp":29.5,"humidity":75,"rain":0.0,"pressure":1010.0,"uv_index":7.9,"wind_gusts":34.9,"aqi":62,"pm10":12.4,"pm2_5":8.4,"no2":2.2,"co":149.0,"o3":82.0,"so2":4.1,"mosquito_risk":7,"arthritis_risk":0,"migraine_risk":4,"frizz_risk":1,"updated_at":"2026-07-22T13:05:30.391585+05:30"},{"city":"Thiruvananthapuram","state":"Kerala","latitude":8.5241,"longitude":76.9366,"temp":29.7,"humidity":72,"rain":0.0,"pressure":1009.2,"uv_index":8.15,"wind_gusts":37.4,"aqi":51,"pm10":14.1,"pm2_5":9.4,"no2":1.8,"co":124.0,"o3":74.0,"so2":2.1,"mosquito_risk":7,"arthritis_risk":0,"migraine_risk":4,"frizz_risk":1,"updated_at":"2026-07-22T13:05:30.391594+05:30"},{"city":"Kozhikode","state":"Kerala","latitude":11.2588,"longitude":75.7804,"temp":29.0,"humidity":74,"rain":0.0,"pressure":1009.4,"uv_index":7.9,"wind_gusts":31.3,"aqi":39,"pm10":9.0,"pm2_5":5.0,"no2":0.9,"co":128.0,"o3":57.0,"so2":1.6,"mosquito_risk":7,"arthritis_risk":0,"migraine_risk":4,"frizz_risk":1,"updated_at":"2026-07-22T13:05:30.391603+05:30"},{"city":"Thrissur","state":"Kerala","latitude":10.5276,"longitude":76.2144,"temp":30.5,"humidity":71,"rain":0.0,"pressure":1008.4,"uv_index":7.65,"wind_gusts":34.9,"aqi":59,"pm10":9.9,"pm2_5":6.7,"no2":1.1,"co":112.0,"o3":70.0,"so2":2.1,"mosquito_risk":3,"arthritis_risk":0,"migraine_risk":4,"frizz_risk":1,"updated_at":"2026-07-22T13:05:30.391614+05:30"},{"city":"Kannur","state":"Kerala","latitude":11.8745,"longitude":75.3704,"temp":28.1,"humidity":78,"rain":0.0,"pressure":1009.2,"uv_index":7.4,"wind_gusts":29.2,"aqi":48,"pm10":7.6,"pm2_5":4.6,"no2":1.4,"co":120.0,"o3":53.0,"so2":1.6,"mosquito_risk":7,"arthritis_risk":0,"migraine_risk":4,"frizz_risk":1,"updated_at":"2026-07-22T13:05:30.391623+05:30"},{"city":"Patna","state":"Bihar","latitude":25.5941,"longitude":85.1376,"temp":30.8,"humidity":70,"rain":0.1,"pressure":993.9,"uv_index":8.2,"wind_gusts":47.9,"aqi":67,"pm10":11.7,"pm2_5":11.5,"no2":2.8,"co":247.0,"o3":111.0,"so2":7.4,"mosquito_risk":6,"arthritis_risk":5,"migraine_risk":7,"frizz_risk":1,"updated_at":"2026-07-22T13:05:30.391632+05:30"},{"city":"Gaya","state":"Bihar","latitude":24.7914,"longitude":85.0002,"temp":31.5,"humidity":68,"rain":0.0,"pressure":986.9,"uv_index":8.85,"wind_gusts":44.6,"aqi":53,"pm10":7.7,"pm2_5":7.6,"no2":1.7,"co":343.0,"o3":104.0,"so2":5.6,"mosquito_risk":3,"arthritis_risk":5,"migraine_risk":7,"frizz_risk":1,"updated_at":"2026-07-22T13:05:30.391641+05:30"},{"city":"Muzaffarpur","state":"Bihar","latitude":26.1209,"longitude":85.3647,"temp":28.9,"humidity":82,"rain":0.1,"pressure":994.7,"uv_index":7.75,"wind_gusts":53.3,"aqi":72,"pm10":13.4,"pm2_5":13.2,"no2":2.8,"co":220.0,"o3":105.0,"so2":4.9,"mosquito_risk":10,"arthritis_risk":5,"migraine_risk":7,"frizz_risk":1,"updated_at":"2026-07-22T13:05:30.391650+05:30"},{"city":"Bhagalpur","state":"Bihar","latitude":25.2425,"longitude":87.0117,"temp":31.1,"humidity":71,"rain":0.2,"pressure":995.4,"uv_index":8.1,"wind_gusts":43.6,"aqi":62,"pm10":9.9,"pm2_5":9.8,"no2":4.7,"co":224.0,"o3":88.0,"so2":7.5,"mosquito_risk":6,"arthritis_risk":5,"migraine_risk":7,"frizz_risk":1,"updated_at":"2026-07-22T13:05:30.391659+05:30"},{"city":"Ranchi","state":"Jharkhand","latitude":23.3441,"longitude":85.3096,"temp":26.4,"humidity":79,"rain":0.2,"pressure":931.9,"uv_index":6.0,"wind_gusts":41.8,"aqi":48,"pm10":3.4,"pm2_5":3.4,"no2":7.5,"co":163.0,"o3":57.0,"so2":9.1,"mosquito_risk":10,"arthritis_risk":5,"migraine_risk":3,"frizz_risk":1,"updated_at":"2026-07-22T13:05:30.391668+05:30"},{"city":"Jamshedpur","state":"Jharkhand","latitude":22.8046,"longitude":86.2029,"temp":25.8,"humidity":95,"rain":0.1,"pressure":985.2,"uv_index":6.5,"wind_gusts":23.4,"aqi":57,"pm10":13.0,"pm2_5":12.8,"no2":19.6,"co":331.0,"o3":55.0,"so2":25.1,"mosquito_risk":10,"arthritis_risk":5,"migraine_risk":7,"frizz_risk":1,"updated_at":"2026-07-22T13:05:30.391676+05:30"},{"city":"Dhanbad","state":"Jharkhand","latitude":23.7957,"longitude":86.4304,"temp":29.5,"humidity":73,"rain":0.0,"pressure":974.1,"uv_index":7.05,"wind_gusts":41.0,"aqi":79,"pm10":21.5,"pm2_5":21.3,"no2":22.0,"co":449.0,"o3":76.0,"so2":61.8,"mosquito_risk":7,"arthritis_risk":5,"migraine_risk":7,"frizz_risk":1,"updated_at":"2026-07-22T13:05:30.391685+05:30"},{"city":"Bokaro","state":"Jharkhand","latitude":23.6693,"longitude":86.1511,"temp":29.2,"humidity":76,"rain":0.0,"pressure":977.9,"uv_index":8.65,"wind_gusts":38.2,"aqi":82,"pm10":23.2,"pm2_5":23.0,"no2":27.0,"co":1179.0,"o3":73.0,"so2":69.7,"mosquito_risk":7,"arthritis_risk":5,"migraine_risk":7,"frizz_risk":1,"updated_at":"2026-07-22T13:05:30.391694+05:30"},{"city":"Bhubaneswar","state":"Odisha","latitude":20.2961,"longitude":85.8245,"temp":28.7,"humidity":79,"rain":0.0,"pressure":998.3,"uv_index":7.55,"wind_gusts":38.9,"aqi":58,"pm10":16.8,"pm2_5":12.9,"no2":3.2,"co":222.0,"o3":94.0,"so2":7.3,"mosquito_risk":7,"arthritis_risk":5,"migraine_risk":7,"frizz_risk":1,"updated_at":"2026-07-22T13:05:30.391702+05:30"},{"city":"Cuttack","state":"Odisha","latitude":20.4625,"longitude":85.8828,"temp":27.5,"humidity":89,"rain":0.2,"pressure":1000.1,"uv_index":7.0,"wind_gusts":38.9,"aqi":58,"pm10":16.8,"pm2_5":12.9,"no2":3.2,"co":211.0,"o3":94.0,"so2":7.3,"mosquito_risk":10,"arthritis_risk":5,"migraine_risk":4,"frizz_risk":1,"updated_at":"2026-07-22T13:05:30.391711+05:30"},{"city":"Rourkela","state":"Odisha","latitude":22.2604,"longitude":84.8536,"temp":28.4,"humidity":75,"rain":0.1,"pressure":979.2,"uv_index":1.8,"wind_gusts":37.4,"aqi":56,"pm10":5.1,"pm2_5":5.1,"no2":5.6,"co":212.0,"o3":57.0,"so2":5.9,"mosquito_risk":10,"arthritis_risk":5,"migraine_risk":3,"frizz_risk":1,"updated_at":"2026-07-22T13:05:30.391721+05:30"},{"city":"Raipur","state":"Chhattisgarh","latitude":21.2514,"longitude":81.6296,"temp":26.4,"humidity":85,"rain":0.1,"pressure":968.6,"uv_index":0.5,"wind_gusts":54.4,"aqi":59,"pm10":16.4,"pm2_5":15.5,"no2":20.2,"co":271.0,"o3":26.0,"so2":42.5,"mosquito_risk":10,"arthritis_risk":5,"migraine_risk":3,"frizz_risk":1,"updated_at":"2026-07-22T13:05:30.391729+05:30"},{"city":"Bhilai","state":"Chhattisgarh","latitude":21.1938,"longitude":81.3509,"temp":26.6,"humidity":83,"rain":0.0,"pressure":969.2,"uv_index":0.75,"wind_gusts":57.6,"aqi":55,"pm10":14.6,"pm2_5":14.1,"no2":18.4,"co":443.0,"o3":25.0,"so2":41.8,"mosquito_risk":7,"arthritis_risk":5,"migraine_risk":3,"frizz_risk":1,"updated_at":"2026-07-22T13:05:30.391738+05:30"},{"city":"Guwahati","state":"Assam","latitude":26.1158,"longitude":91.7086,"temp":31.0,"humidity":74,"rain":0.0,"pressure":997.2,"uv_index":8.65,"wind_gusts":21.6,"aqi":51,"pm10":7.3,"pm2_5":7.1,"no2":1.1,"co":209.0,"o3":98.0,"so2":1.7,"mosquito_risk":3,"arthritis_risk":5,"migraine_risk":7,"frizz_risk":1,"updated_at":"2026-07-22T13:05:30.391747+05:30"},{"city":"Agartala","state":"Tripura","latitude":23.8315,"longitude":91.2868,"temp":27.1,"humidity":95,"rain":0.1,"pressure":1002.2,"uv_index":8.1,"wind_gusts":38.9,"aqi":38,"pm10":4.2,"pm2_5":4.1,"no2":2.6,"co":137.0,"o3":82.0,"so2":1.3,"mosquito_risk":10,"arthritis_risk":5,"migraine_risk":4,"frizz_risk":1,"updated_at":"2026-07-22T13:05:30.391757+05:30"},{"city":"Shillong","state":"Meghalaya","latitude":25.5788,"longitude":91.8933,"temp":26.2,"humidity":62,"rain":0.0,"pressure":856.7,"uv_index":7.75,"wind_gusts":32.4,"aqi":34,"pm10":2.8,"pm2_5":2.5,"no2":1.0,"co":135.0,"o3":76.0,"so2":1.1,"mosquito_risk":7,"arthritis_risk":5,"migraine_risk":7,"frizz_risk":1,"updated_at":"2026-07-22T13:05:30.391766+05:30"},{"city":"Imphal","state":"Manipur","latitude":24.817,"longitude":93.9368,"temp":26.5,"humidity":84,"rain":0.0,"pressure":920.8,"uv_index":8.75,"wind_gusts":24.1,"aqi":51,"pm10":3.3,"pm2_5":3.1,"no2":0.9,"co":172.0,"o3":82.0,"so2":0.9,"mosquito_risk":7,"arthritis_risk":5,"migraine_risk":7,"frizz_risk":1,"updated_at":"2026-07-22T13:05:30.391777+05:30"},{"city":"Aizawl","state":"Mizoram","latitude":23.7271,"longitude":92.7176,"temp":27.3,"humidity":61,"rain":0.0,"pressure":890.5,"uv_index":8.15,"wind_gusts":39.6,"aqi":23,"pm10":3.2,"pm2_5":2.8,"no2":0.9,"co":111.0,"o3":64.0,"so2":0.4,"mosquito_risk":7,"arthritis_risk":5,"migraine_risk":7,"frizz_risk":1,"updated_at":"2026-07-22T13:05:30.391786+05:30"},{"city":"Kohima","state":"Nagaland","latitude":25.6701,"longitude":94.1077,"temp":24.1,"humidity":85,"rain":0.0,"pressure":854.5,"uv_index":7.95,"wind_gusts":24.1,"aqi":32,"pm10":3.7,"pm2_5":3.4,"no2":0.9,"co":141.0,"o3":73.0,"so2":0.5,"mosquito_risk":3,"arthritis_risk":5,"migraine_risk":7,"frizz_risk":1,"updated_at":"2026-07-22T13:05:30.391794+05:30"},{"city":"Gangtok","state":"Sikkim","latitude":27.3314,"longitude":88.6138,"temp":22.5,"humidity":73,"rain":0.1,"pressure":837.2,"uv_index":6.8,"wind_gusts":30.6,"aqi":38,"pm10":2.0,"pm2_5":1.9,"no2":2.3,"co":163.0,"o3":79.0,"so2":0.8,"mosquito_risk":6,"arthritis_risk":5,"migraine_risk":7,"frizz_risk":1,"updated_at":"2026-07-22T13:05:30.391802+05:30"},{"city":"Siliguri","state":"West Bengal","latitude":26.7271,"longitude":88.3953,"temp":31.0,"humidity":68,"rain":0.0,"pressure":988.6,"uv_index":8.5,"wind_gusts":37.4,"aqi":60,"pm10":6.2,"pm2_5":6.0,"no2":1.7,"co":197.0,"o3":90.0,"so2":1.5,"mosquito_risk":3,"arthritis_risk":5,"migraine_risk":7,"frizz_risk":1,"updated_at":"2026-07-22T13:05:33.736243+05:30"},{"city":"Durgapur","state":"West Bengal","latitude":23.5204,"longitude":87.3119,"temp":30.9,"humidity":66,"rain":0.1,"pressure":989.1,"uv_index":8.55,"wind_gusts":35.6,"aqi":71,"pm10":11.4,"pm2_5":11.3,"no2":11.6,"co":184.0,"o3":92.0,"so2":26.0,"mosquito_risk":6,"arthritis_risk":5,"migraine_risk":7,"frizz_risk":1,"updated_at":"2026-07-22T13:05:33.736284+05:30"},{"city":"Asansol","state":"West Bengal","latitude":23.6739,"longitude":86.9524,"temp":29.3,"humidity":74,"rain":0.2,"pressure":987.8,"uv_index":8.45,"wind_gusts":36.7,"aqi":68,"pm10":12.2,"pm2_5":12.1,"no2":13.0,"co":493.0,"o3":87.0,"so2":29.6,"mosquito_risk":10,"arthritis_risk":5,"migraine_risk":7,"frizz_risk":1,"updated_at":"2026-07-22T13:05:33.736295+05:30"},{"city":"Pondicherry","state":"Puducherry","latitude":11.9139,"longitude":79.8145,"temp":32.5,"humidity":66,"rain":0.0,"pressure":1007.1,"uv_index":7.65,"wind_gusts":37.8,"aqi":70,"pm10":31.1,"pm2_5":22.1,"no2":6.7,"co":199.0,"o3":108.0,"so2":11.5,"mosquito_risk":3,"arthritis_risk":5,"migraine_risk":4,"frizz_risk":1,"updated_at":"2026-07-22T13:05:33.736304+05:30"},{"city":"Port Blair","state":"Andaman and Nicobar Islands","latitude":11.6234,"longitude":92.7265,"temp":30.3,"humidity":71,"rain":0.0,"pressure":1007.5,"uv_index":8.55,"wind_gusts":40.3,"aqi":44,"pm10":9.5,"pm2_5":5.5,"no2":0.2,"co":94.0,"o3":52.0,"so2":0.6,"mosquito_risk":3,"arthritis_risk":5,"migraine_risk":4,"frizz_risk":1,"updated_at":"2026-07-22T13:05:33.736314+05:30"},{"city":"Haridwar","state":"Uttarakhand","latitude":29.9457,"longitude":78.1642,"temp":31.9,"humidity":61,"rain":0.0,"pressure":969.6,"uv_index":7.4,"wind_gusts":37.1,"aqi":68,"pm10":16.3,"pm2_5":15.5,"no2":1.3,"co":181.0,"o3":125.0,"so2":3.9,"mosquito_risk":3,"arthritis_risk":5,"migraine_risk":7,"frizz_risk":1,"updated_at":"2026-07-22T13:05:33.736323+05:30"},{"city":"Rishikesh","state":"Uttarakhand","latitude":30.0869,"longitude":78.2676,"temp":29.0,"humidity":82,"rain":0.0,"pressure":962.8,"uv_index":6.8,"wind_gusts":23.8,"aqi":54,"pm10":11.7,"pm2_5":11.1,"no2":0.9,"co":207.0,"o3":113.0,"so2":2.3,"mosquito_risk":7,"arthritis_risk":5,"migraine_risk":7,"frizz_risk":1,"updated_at":"2026-07-22T13:05:33.736331+05:30"},{"city":"Nainital","state":"Uttarakhand","latitude":29.3919,"longitude":79.4542,"temp":22.1,"humidity":66,"rain":0.1,"pressure":805.9,"uv_index":6.7,"wind_gusts":47.9,"aqi":52,"pm10":10.1,"pm2_5":9.7,"no2":0.7,"co":159.0,"o3":97.0,"so2":1.0,"mosquito_risk":6,"arthritis_risk":5,"migraine_risk":7,"frizz_risk":0,"updated_at":"2026-07-22T13:05:33.736339+05:30"},{"city":"Mussoorie","state":"Uttarakhand","latitude":30.4599,"longitude":78.0664,"temp":18.5,"humidity":98,"rain":0.2,"pressure":802.2,"uv_index":7.8,"wind_gusts":30.6,"aqi":49,"pm10":7.1,"pm2_5":6.9,"no2":1.2,"co":206.0,"o3":117.0,"so2":2.0,"mosquito_risk":6,"arthritis_risk":10,"migraine_risk":7,"frizz_risk":1,"updated_at":"2026-07-22T13:05:33.736348+05:30"},{"city":"Dharamshala","state":"Himachal Pradesh","latitude":32.219,"longitude":76.3234,"temp":21.7,"humidity":97,"rain":0.2,"pressure":867.2,"uv_index":5.45,"wind_gusts":24.1,"aqi":38,"pm10":5.3,"pm2_5":5.1,"no2":2.0,"co":265.0,"o3":102.0,"so2":0.8,"mosquito_risk":6,"arthritis_risk":5,"migraine_risk":3,"frizz_risk":1,"updated_at":"2026-07-22T13:05:33.736355+05:30"},{"city":"Dalhousie","state":"Himachal Pradesh","latitude":32.5387,"longitude":75.971,"temp":18.0,"humidity":99,"rain":0.1,"pressure":803.8,"uv_index":1.7,"wind_gusts":20.9,"aqi":63,"pm10":12.2,"pm2_5":11.5,"no2":4.5,"co":294.0,"o3":118.0,"so2":2.4,"mosquito_risk":6,"arthritis_risk":10,"migraine_risk":3,"frizz_risk":1,"updated_at":"2026-07-22T13:05:33.736362+05:30"},{"city":"Patiala","state":"Punjab","latitude":30.3398,"longitude":76.3869,"temp":31.3,"humidity":72,"rain":0.0,"pressure":973.0,"uv_index":6.45,"wind_gusts":39.6,"aqi":87,"pm10":27.0,"pm2_5":26.2,"no2":3.3,"co":272.0,"o3":138.0,"so2":8.7,"mosquito_risk":3,"arthritis_risk":5,"migraine_risk":7,"frizz_risk":1,"updated_at":"2026-07-22T13:05:33.736369+05:30"},{"city":"Bhatinda","state":"Punjab","latitude":30.211,"longitude":74.9455,"temp":31.1,"humidity":72,"rain":0.1,"pressure":977.7,"uv_index":6.75,"wind_gusts":43.6,"aqi":84,"pm10":21.5,"pm2_5":21.4,"no2":6.3,"co":374.0,"o3":125.0,"so2":15.0,"mosquito_risk":6,"arthritis_risk":5,"migraine_risk":7,"frizz_risk":1,"updated_at":"2026-07-22T13:05:33.736376+05:30"},{"city":"Rohtak","state":"Haryana","latitude":28.8955,"longitude":76.6066,"temp":32.1,"humidity":66,"rain":0.0,"pressure":975.8,"uv_index":6.2,"wind_gusts":42.5,"aqi":83,"pm10":30.0,"pm2_5":29.2,"no2":6.3,"co":422.0,"o3":157.0,"so2":16.0,"mosquito_risk":3,"arthritis_risk":5,"migraine_risk":7,"frizz_risk":1,"updated_at":"2026-07-22T13:05:33.736383+05:30"},{"city":"Panipat","state":"Haryana","latitude":29.3909,"longitude":76.9635,"temp":30.9,"humidity":72,"rain":0.1,"pressure":975.0,"uv_index":7.45,"wind_gusts":41.8,"aqi":81,"pm10":28.6,"pm2_5":27.6,"no2":4.8,"co":285.0,"o3":152.0,"so2":14.4,"mosquito_risk":6,"arthritis_risk":5,"migraine_risk":7,"frizz_risk":1,"updated_at":"2026-07-22T13:05:33.736390+05:30"},{"city":"Mathura","state":"Uttar Pradesh","latitude":27.4924,"longitude":77.6737,"temp":32.4,"humidity":66,"rain":0.0,"pressure":980.1,"uv_index":7.2,"wind_gusts":38.9,"aqi":70,"pm10":80.1,"pm2_5":27.7,"no2":2.6,"co":287.0,"o3":135.0,"so2":5.4,"mosquito_risk":3,"arthritis_risk":5,"migraine_risk":7,"frizz_risk":1,"updated_at":"2026-07-22T13:05:33.736397+05:30"},{"city":"Vrindavan","state":"Uttar Pradesh","latitude":27.5823,"longitude":77.7027,"temp":32.6,"humidity":66,"rain":0.0,"pressure":980.6,"uv_index":7.05,"wind_gusts":38.5,"aqi":70,"pm10":80.1,"pm2_5":27.7,"no2":2.6,"co":292.0,"o3":135.0,"so2":5.4,"mosquito_risk":3,"arthritis_risk":5,"migraine_risk":7,"frizz_risk":1,"updated_at":"2026-07-22T13:05:33.736404+05:30"},{"city":"Ayodhya","state":"Uttar Pradesh","latitude":26.7922,"longitude":82.1998,"temp":32.5,"humidity":63,"rain":0.0,"pressure":988.6,"uv_index":8.0,"wind_gusts":48.6,"aqi":85,"pm10":15.4,"pm2_5":15.3,"no2":1.6,"co":264.0,"o3":127.0,"so2":5.0,"mosquito_risk":3,"arthritis_risk":5,"migraine_risk":7,"frizz_risk":1,"updated_at":"2026-07-22T13:05:33.736411+05:30"},{"city":"Ratlam","state":"Madhya Pradesh","latitude":23.3315,"longitude":75.0367,"temp":25.6,"humidity":91,"rain":0.4,"pressure":946.9,"uv_index":1.1,"wind_gusts":34.2,"aqi":52,"pm10":10.2,"pm2_5":6.8,"no2":5.1,"co":140.0,"o3":47.0,"so2":3.7,"mosquito_risk":10,"arthritis_risk":5,"migraine_risk":3,"frizz_risk":1,"updated_at":"2026-07-22T13:05:33.736418+05:30"},{"city":"Sagar","state":"Madhya Pradesh","latitude":23.8388,"longitude":78.7378,"temp":28.8,"humidity":78,"rain":0.0,"pressure":941.8,"uv_index":8.0,"wind_gusts":25.9,"aqi":36,"pm10":3.7,"pm2_5":3.5,"no2":1.1,"co":167.0,"o3":95.0,"so2":1.2,"mosquito_risk":7,"arthritis_risk":5,"migraine_risk":7,"frizz_risk":1,"updated_at":"2026-07-22T13:05:33.736425+05:30"},{"city":"Satna","state":"Madhya Pradesh","latitude":24.6005,"longitude":80.8322,"temp":30.3,"humidity":68,"rain":0.0,"pressure":963.1,"uv_index":7.55,"wind_gusts":31.3,"aqi":59,"pm10":7.4,"pm2_5":7.3,"no2":3.0,"co":225.0,"o3":100.0,"so2":12.1,"mosquito_risk":3,"arthritis_risk":5,"migraine_risk":7,"frizz_risk":1,"updated_at":"2026-07-22T13:05:33.736433+05:30"},{"city":"Akola","state":"Maharashtra","latitude":20.7002,"longitude":77.0082,"temp":28.6,"humidity":73,"rain":0.1,"pressure":969.0,"uv_index":0.75,"wind_gusts":58.3,"aqi":25,"pm10":4.6,"pm2_5":3.7,"no2":7.1,"co":158.0,"o3":34.0,"so2":4.2,"mosquito_risk":10,"arthritis_risk":5,"migraine_risk":3,"frizz_risk":1,"updated_at":"2026-07-22T13:05:33.736440+05:30"},{"city":"Amravati","state":"Maharashtra","latitude":20.9374,"longitude":77.7796,"temp":26.7,"humidity":81,"rain":0.1,"pressure":961.3,"uv_index":1.05,"wind_gusts":51.5,"aqi":25,"pm10":4.2,"pm2_5":3.4,"no2":7.7,"co":150.0,"o3":33.0,"so2":4.3,"mosquito_risk":10,"arthritis_risk":5,"migraine_risk":3,"frizz_risk":1,"updated_at":"2026-07-22T13:05:33.736449+05:30"},{"city":"Latur","state":"Maharashtra","latitude":18.4088,"longitude":76.5604,"temp":27.2,"humidity":69,"rain":0.1,"pressure":936.4,"uv_index":5.1,"wind_gusts":60.1,"aqi":29,"pm10":4.2,"pm2_5":3.4,"no2":2.7,"co":120.0,"o3":44.0,"so2":1.3,"mosquito_risk":10,"arthritis_risk":5,"migraine_risk":3,"frizz_risk":1,"updated_at":"2026-07-22T13:05:33.736457+05:30"},{"city":"Nanded","state":"Maharashtra","latitude":19.1383,"longitude":77.3091,"temp":27.9,"humidity":75,"rain":0.0,"pressure":964.5,"uv_index":1.05,"wind_gusts":51.8,"aqi":39,"pm10":4.0,"pm2_5":3.6,"no2":3.0,"co":149.0,"o3":51.0,"so2":3.1,"mosquito_risk":7,"arthritis_risk":5,"migraine_risk":3,"frizz_risk":1,"updated_at":"2026-07-22T13:05:33.736464+05:30"},{"city":"Gulbarga","state":"Karnataka","latitude":17.3297,"longitude":76.8343,"temp":29.7,"humidity":58,"rain":0.1,"pressure":956.1,"uv_index":2.85,"wind_gusts":63.0,"aqi":33,"pm10":11.4,"pm2_5":6.1,"no2":2.8,"co":108.0,"o3":51.0,"so2":2.1,"mosquito_risk":7,"arthritis_risk":5,"migraine_risk":3,"frizz_risk":1,"updated_at":"2026-07-22T13:05:33.736470+05:30"},{"city":"Bidar","state":"Karnataka","latitude":17.9104,"longitude":77.5199,"temp":27.9,"humidity":64,"rain":0.0,"pressure":932.6,"uv_index":1.85,"wind_gusts":57.2,"aqi":33,"pm10":6.7,"pm2_5":4.4,"no2":2.6,"co":119.0,"o3":52.0,"so2":1.7,"mosquito_risk":7,"arthritis_risk":5,"migraine_risk":3,"frizz_risk":1,"updated_at":"2026-07-22T13:05:33.736478+05:30"},{"city":"Hospet","state":"Karnataka","latitude":15.2689,"longitude":76.3909,"temp":29.1,"humidity":60,"rain":0.0,"pressure":954.9,"uv_index":5.35,"wind_gusts":61.2,"aqi":24,"pm10":9.7,"pm2_5":4.2,"no2":1.2,"co":106.0,"o3":59.0,"so2":1.5,"mosquito_risk":4,"arthritis_risk":5,"migraine_risk":3,"frizz_risk":1,"updated_at":"2026-07-22T13:05:33.736485+05:30"},{"city":"Tirupur","state":"Tamil Nadu","latitude":11.1085,"longitude":77.3411,"temp":34.5,"humidity":43,"rain":0.0,"pressure":974.8,"uv_index":8.5,"wind_gusts":54.7,"aqi":59,"pm10":9.5,"pm2_5":6.4,"no2":1.3,"co":149.0,"o3":85.0,"so2":2.5,"mosquito_risk":0,"arthritis_risk":5,"migraine_risk":7,"frizz_risk":1,"updated_at":"2026-07-22T13:05:33.736491+05:30"},{"city":"Alappuzha","state":"Kerala","latitude":9.4981,"longitude":76.3388,"temp":29.7,"humidity":73,"rain":0.0,"pressure":1010.0,"uv_index":7.35,"wind_gusts":33.1,"aqi":58,"pm10":18.2,"pm2_5":12.4,"no2":3.1,"co":109.0,"o3":82.0,"so2":4.6,"mosquito_risk":7,"arthritis_risk":0,"migraine_risk":4,"frizz_risk":1,"updated_at":"2026-07-22T13:05:33.736498+05:30"},{"city":"Munnar","state":"Kerala","latitude":10.0889,"longitude":77.0595,"temp":22.0,"humidity":75,"rain":0.0,"pressure":859.3,"uv_index":8.3,"wind_gusts":34.2,"aqi":44,"pm10":6.0,"pm2_5":3.7,"no2":0.7,"co":94.0,"o3":66.0,"so2":1.6,"mosquito_risk":3,"arthritis_risk":5,"migraine_risk":7,"frizz_risk":1,"updated_at":"2026-07-22T13:05:33.736505+05:30"},{"city":"Silchar","state":"Assam","latitude":24.8333,"longitude":92.7789,"temp":34.1,"humidity":56,"rain":0.0,"pressure":999.9,"uv_index":8.75,"wind_gusts":28.4,"aqi":54,"pm10":7.8,"pm2_5":6.2,"no2":0.8,"co":149.0,"o3":83.0,"so2":1.9,"mosquito_risk":0,"arthritis_risk":5,"migraine_risk":7,"frizz_risk":1,"updated_at":"2026-07-22T13:05:33.736512+05:30"},{"city":"Dibrugarh","state":"Assam","latitude":27.4728,"longitude":94.912,"temp":31.2,"humidity":76,"rain":0.0,"pressure":991.1,"uv_index":3.5,"wind_gusts":19.8,"aqi":61,"pm10":6.0,"pm2_5":5.8,"no2":1.0,"co":177.0,"o3":122.0,"so2":1.3,"mosquito_risk":3,"arthritis_risk":5,"migraine_risk":3,"frizz_risk":1,"updated_at":"2026-07-22T13:05:33.736518+05:30"}]