[{"city":"Delhi","state":"Delhi","latitude":28.6139,"longitude":77.209,"temp":20.4,"humidity":67,"rain":0.0,"pressure":984.3,"uv_index":6.2,"wind_gusts":27.0,"aqi":153,"pm10":138.3,"pm2_5":66.6,"mosquito_risk":3,"arthritis_risk":5,"migraine_risk":7,"frizz_risk":0,"updated_at":"2026-03-18T03:11:11.975794+05:30"},{"city":"Mumbai","state":"Maharashtra","latitude":19.076,"longitude":72.8777,"temp":26.5,"humidity":76,"rain":0.0,"pressure":1008.3,"uv_index":7.7,"wind_gusts":22.0,"aqi":93,"pm10":53.2,"pm2_5":22.4,"mosquito_risk":7,"arthritis_risk":0,"migraine_risk":4,"frizz_risk":1,"updated_at":"2026-03-18T03:11:11.975835+05:30"},{"city":"Bangalore","state":"Karnataka","latitude":12.9716,"longitude":77.5946,"temp":19.8,"humidity":85,"rain":0.0,"pressure":910.4,"uv_index":9.4,"wind_gusts":24.8,"aqi":116,"pm10":50.8,"pm2_5":47.8,"mosquito_risk":3,"arthritis_risk":10,"migraine_risk":7,"frizz_risk":1,"updated_at":"2026-03-18T03:11:11.975850+05:30"},{"city":"Hyderabad","state":"Telangana","latitude":17.385,"longitude":78.4867,"temp":22.4,"humidity":77,"rain":0.0,"pressure":953.4,"uv_index":8.65,"wind_gusts":43.9,"aqi":74,"pm10":10.7,"pm2_5":10.0,"mosquito_risk":3,"arthritis_risk":5,"migraine_risk":7,"frizz_risk":1,"updated_at":"2026-03-18T03:11:11.975860+05:30"},{"city":"Chennai","state":"Tamil Nadu","latitude":13.0827,"longitude":80.2707,"temp":26.1,"humidity":86,"rain":0.0,"pressure":1007.8,"uv_index":9.1,"wind_gusts":30.6,"aqi":32,"pm10":10.3,"pm2_5":7.4,"mosquito_risk":7,"arthritis_risk":5,"migraine_risk":4,"frizz_risk":1,"updated_at":"2026-03-18T03:11:11.975868+05:30"},{"city":"Kolkata","state":"West Bengal","latitude":22.5726,"longitude":88.3639,"temp":23.5,"humidity":93,"rain":0.0,"pressure":1007.9,"uv_index":8.1,"wind_gusts":31.7,"aqi":64,"pm10":12.5,"pm2_5":9.9,"mosquito_risk":3,"arthritis_risk":5,"migraine_risk":4,"frizz_risk":1,"updated_at":"2026-03-18T03:11:11.975876+05:30"},{"city":"Pune","state":"Maharashtra","latitude":18.5204,"longitude":73.8567,"temp":17.9,"humidity":88,"rain":0.0,"pressure":947.2,"uv_index":8.3,"wind_gusts":40.7,"aqi":91,"pm10":80.1,"pm2_5":51.5,"mosquito_risk":3,"arthritis_risk":10,"migraine_risk":7,"frizz_risk":0,"updated_at":"2026-03-18T03:11:11.975888+05:30"},{"city":"Ahmedabad","state":"Gujarat","latitude":23.0225,"longitude":72.5714,"temp":23.3,"humidity":65,"rain":0.0,"pressure":1001.7,"uv_index":7.55,"wind_gusts":15.8,"aqi":71,"pm10":37.4,"pm2_5":21.7,"mosquito_risk":3,"arthritis_risk":5,"migraine_risk":4,"frizz_risk":1,"updated_at":"2026-03-18T03:11:11.975895+05:30"},{"city":"Jaipur","state":"Rajasthan","latitude":26.9124,"longitude":75.7873,"temp":22.5,"humidity":52,"rain":0.0,"pressure":959.8,"uv_index":6.75,"wind_gusts":25.6,"aqi":188,"pm10":357.6,"pm2_5":71.9,"mosquito_risk":0,"arthritis_risk":5,"migraine_risk":7,"frizz_risk":0,"updated_at":"2026-03-18T03:11:11.975903+05:30"},{"city":"Lucknow","state":"Uttar Pradesh","latitude":26.8467,"longitude":80.9462,"temp":21.7,"humidity":64,"rain":0.0,"pressure":994.1,"uv_index":6.7,"wind_gusts":27.0,"aqi":92,"pm10":63.3,"pm2_5":32.1,"mosquito_risk":3,"arthritis_risk":5,"migraine_risk":7,"frizz_risk":0,"updated_at":"2026-03-18T03:11:11.975910+05:30"},{"city":"Kanpur","state":"Uttar Pradesh","latitude":26.4499,"longitude":80.3319,"temp":20.9,"humidity":69,"rain":0.0,"pressure":992.3,"uv_index":6.7,"wind_gusts":22.3,"aqi":113,"pm10":118.5,"pm2_5":39.6,"mosquito_risk":3,"arthritis_risk":5,"migraine_risk":7,"frizz_risk":0,"updated_at":"2026-03-18T03:11:11.975917+05:30"},{"city":"Chandigarh","state":"Chandigarh","latitude":30.7333,"longitude":76.7794,"temp":14.8,"humidity":88,"rain":0.0,"pressure":970.0,"uv_index":6.05,"wind_gusts":27.0,"aqi":86,"pm10":60.1,"pm2_5":34.2,"mosquito_risk":3,"arthritis_risk":10,"migraine_risk":7,"frizz_risk":0,"updated_at":"2026-03-18T03:11:11.975925+05:30"},{"city":"Srinagar","state":"Jammu and Kashmir","latitude":34.0837,"longitude":74.7973,"temp":6.0,"humidity":80,"rain":0.0,"pressure":841.2,"uv_index":2.9,"wind_gusts":22.0,"aqi":120,"pm10":97.3,"pm2_5":78.5,"mosquito_risk":3,"arthritis_risk":5,"migraine_risk":3,"frizz_risk":0,"updated_at":"2026-03-18T03:11:11.975931+05:30"},{"city":"Jammu","state":"Jammu and Kashmir","latitude":32.7266,"longitude":74.857,"temp":16.7,"humidity":80,"rain":0.0,"pressure":974.5,"uv_index":4.4,"wind_gusts":20.9,"aqi":84,"pm10":48.8,"pm2_5":37.4,"mosquito_risk":3,"arthritis_risk":5,"migraine_risk":3,"frizz_risk":0,"updated_at":"2026-03-18T03:11:11.975938+05:30"},{"city":"Amritsar","state":"Punjab","latitude":31.634,"longitude":74.8723,"temp":15.2,"humidity":80,"rain":0.0,"pressure":982.9,"uv_index":3.35,"wind_gusts":22.0,"aqi":114,"pm10":142.0,"pm2_5":82.0,"mosquito_risk":3,"arthritis_risk":5,"migraine_risk":3,"frizz_risk":0,"updated_at":"2026-03-18T03:11:11.975945+05:30"},{"city":"Ludhiana","state":"Punjab","latitude":30.901,"longitude":75.8573,"temp":15.9,"humidity":81,"rain":0.0,"pressure":980.5,"uv_index":5.95,"wind_gusts":29.5,"aqi":122,"pm10":153.2,"pm2_5":85.4,"mosquito_risk":3,"arthritis_risk":10,"migraine_risk":3,"frizz_risk":0,"updated_at":"2026-03-18T03:11:11.975951+05:30"},{"city":"Jalandhar","state":"Punjab","latitude":31.326,"longitude":75.5762,"temp":15.8,"humidity":81,"rain":0.0,"pressure":981.8,"uv_index":5.2,"wind_gusts":24.8,"aqi":102,"pm10":119.2,"pm2_5":61.0,"mosquito_risk":3,"arthritis_risk":10,"migraine_risk":3,"frizz_risk":0,"updated_at":"2026-03-18T03:11:11.975960+05:30"},{"city":"Dehradun","state":"Uttarakhand","latitude":30.6284,"longitude":78.0322,"temp":9.7,"humidity":46,"rain":0.0,"pressure":827.8,"uv_index":6.2,"wind_gusts":26.3,"aqi":51,"pm10":19.0,"pm2_5":10.0,"mosquito_risk":0,"arthritis_risk":5,"migraine_risk":7,"frizz_risk":1,"updated_at":"2026-03-18T03:11:11.975967+05:30"},{"city":"Shimla","state":"Himachal Pradesh","latitude":31.1048,"longitude":77.1734,"temp":8.9,"humidity":46,"rain":0.0,"pressure":781.5,"uv_index":5.3,"wind_gusts":37.4,"aqi":60,"pm10":32.1,"pm2_5":16.5,"mosquito_risk":0,"arthritis_risk":5,"migraine_risk":3,"frizz_risk":1,"updated_at":"2026-03-18T03:11:11.975974+05:30"},{"city":"Manali","state":"Himachal Pradesh","latitude":32.2396,"longitude":77.1887,"temp":10.1,"humidity":52,"rain":0.0,"pressure":817.9,"uv_index":5.7,"wind_gusts":23.8,"aqi":44,"pm10":18.2,"pm2_5":9.8,"mosquito_risk":0,"arthritis_risk":5,"migraine_risk":3,"frizz_risk":0,"updated_at":"2026-03-18T03:11:11.975980+05:30"},{"city":"Gurgaon","state":"Haryana","latitude":28.4595,"longitude":77.0266,"temp":17.4,"humidity":84,"rain":0.0,"pressure":982.6,"uv_index":6.3,"wind_gusts":23.8,"aqi":354,"pm10":233.3,"pm2_5":81.7,"mosquito_risk":3,"arthritis_risk":10,"migraine_risk":7,"frizz_risk":0,"updated_at":"2026-03-18T03:11:11.975987+05:30"},{"city":"Noida","state":"Uttar Pradesh","latitude":28.5355,"longitude":77.391,"temp":20.3,"humidity":69,"rain":0.0,"pressure":985.8,"uv_index":6.2,"wind_gusts":23.8,"aqi":354,"pm10":233.3,"pm2_5":81.7,"mosquito_risk":3,"arthritis_risk":5,"migraine_risk":7,"frizz_risk":0,"updated_at":"2026-03-18T03:11:11.975994+05:30"},{"city":"Ghaziabad","state":"Uttar Pradesh","latitude":28.6692,"longitude":77.4538,"temp":18.4,"humidity":73,"rain":0.0,"pressure":983.8,"uv_index":6.2,"wind_gusts":22.7,"aqi":127,"pm10":102.2,"pm2_5":69.6,"mosquito_risk":3,"arthritis_risk":5,"migraine_risk":7,"frizz_risk":0,"updated_at":"2026-03-18T03:11:11.976000+05:30"},{"city":"Faridabad","state":"Haryana","latitude":28.4089,"longitude":77.3178,"temp":18.5,"humidity":82,"rain":0.0,"pressure":985.0,"uv_index":6.25,"wind_gusts":21.2,"aqi":354,"pm10":233.3,"pm2_5":81.7,"mosquito_risk":3,"arthritis_risk":10,"migraine_risk":7,"frizz_risk":0,"updated_at":"2026-03-18T03:11:11.976007+05:30"},{"city":"Meerut","state":"Uttar Pradesh","latitude":28.9845,"longitude":77.7064,"temp":16.8,"humidity":76,"rain":0.0,"pressure":982.4,"uv_index":5.95,"wind_gusts":20.5,"aqi":127,"pm10":102.2,"pm2_5":69.6,"mosquito_risk":3,"arthritis_risk":5,"migraine_risk":3,"frizz_risk":0,"updated_at":"2026-03-18T03:11:11.976014+05:30"},{"city":"Agra","state":"Uttar Pradesh","latitude":27.1767,"longitude":78.0081,"temp":20.1,"humidity":74,"rain":0.0,"pressure":988.7,"uv_index":6.6,"wind_gusts":23.4,"aqi":431,"pm10":404.2,"pm2_5":80.1,"mosquito_risk":3,"arthritis_risk":5,"migraine_risk":7,"frizz_risk":0,"updated_at":"2026-03-18T03:11:11.976020+05:30"},{"city":"Varanasi","state":"Uttar Pradesh","latitude":25.3176,"longitude":82.9739,"temp":22.0,"humidity":66,"rain":0.0,"pressure":997.6,"uv_index":6.95,"wind_gusts":24.1,"aqi":124,"pm10":63.1,"pm2_5":44.1,"mosquito_risk":3,"arthritis_risk":5,"migraine_risk":7,"frizz_risk":0,"updated_at":"2026-03-18T03:11:11.976035+05:30"},{"city":"Prayagraj","state":"Uttar Pradesh","latitude":25.4358,"longitude":81.8463,"temp":21.8,"humidity":69,"rain":0.0,"pressure":996.0,"uv_index":6.95,"wind_gusts":26.3,"aqi":110,"pm10":74.0,"pm2_5":53.1,"mosquito_risk":3,"arthritis_risk":5,"migraine_risk":7,"frizz_risk":0,"updated_at":"2026-03-18T03:11:11.976042+05:30"},{"city":"Gorakhpur","state":"Uttar Pradesh","latitude":26.7606,"longitude":83.3732,"temp":19.9,"humidity":64,"rain":0.0,"pressure":997.1,"uv_index":6.85,"wind_gusts":22.3,"aqi":108,"pm10":96.2,"pm2_5":66.1,"mosquito_risk":3,"arthritis_risk":5,"migraine_risk":7,"frizz_risk":0,"updated_at":"2026-03-18T03:11:11.976048+05:30"},{"city":"Bareilly","state":"Uttar Pradesh","latitude":28.367,"longitude":79.4304,"temp":17.4,"humidity":74,"rain":0.0,"pressure":987.5,"uv_index":6.4,"wind_gusts":23.8,"aqi":96,"pm10":70.8,"pm2_5":44.1,"mosquito_risk":3,"arthritis_risk":5,"migraine_risk":7,"frizz_risk":0,"updated_at":"2026-03-18T03:11:11.976056+05:30"},{"city":"Aligarh","state":"Uttar Pradesh","latitude":27.8974,"longitude":78.088,"temp":19.1,"humidity":73,"rain":0.0,"pressure":986.5,"uv_index":6.35,"wind_gusts":20.9,"aqi":147,"pm10":168.1,"pm2_5":59.8,"mosquito_risk":3,"arthritis_risk":5,"migraine_risk":7,"frizz_risk":0,"updated_at":"2026-03-18T03:11:11.976063+05:30"},{"city":"Moradabad","state":"Uttar Pradesh","latitude":28.8386,"longitude":78.7733,"temp":17.1,"humidity":77,"rain":0.0,"pressure":984.3,"uv_index":6.2,"wind_gusts":21.6,"aqi":125,"pm10":115.5,"pm2_5":63.1,"mosquito_risk":3,"arthritis_risk":5,"migraine_risk":7,"frizz_risk":0,"updated_at":"2026-03-18T03:11:11.976069+05:30"},{"city":"Saharanpur","state":"Uttar Pradesh","latitude":29.9637,"longitude":77.546,"temp":14.8,"humidity":82,"rain":0.0,"pressure":976.9,"uv_index":5.6,"wind_gusts":39.2,"aqi":106,"pm10":85.7,"pm2_5":54.5,"mosquito_risk":3,"arthritis_risk":10,"migraine_risk":3,"frizz_risk":0,"updated_at":"2026-03-18T03:11:11.976075+05:30"},{"city":"Jhansi","state":"Uttar Pradesh","latitude":25.4484,"longitude":78.5685,"temp":21.9,"humidity":64,"rain":0.0,"pressure":977.3,"uv_index":7.1,"wind_gusts":32.0,"aqi":64,"pm10":71.7,"pm2_5":25.9,"mosquito_risk":3,"arthritis_risk":5,"migraine_risk":7,"frizz_risk":0,"updated_at":"2026-03-18T03:11:15.335053+05:30"},{"city":"Surat","state":"Gujarat","latitude":21.1702,"longitude":72.8311,"temp":24.2,"humidity":90,"rain":0.0,"pressure":1006.5,"uv_index":7.45,"wind_gusts":24.5,"aqi":89,"pm10":39.0,"pm2_5":24.7,"mosquito_risk":3,"arthritis_risk":5,"migraine_risk":4,"frizz_risk":1,"updated_at":"2026-03-18T03:11:15.335084+05:30"},{"city":"Vadodara","state":"Gujarat","latitude":22.3072,"longitude":73.1812,"temp":22.4,"humidity":85,"rain":0.0,"pressure":1004.2,"uv_index":7.6,"wind_gusts":24.1,"aqi":74,"pm10":40.2,"pm2_5":26.4,"mosquito_risk":3,"arthritis_risk":5,"migraine_risk":4,"frizz_risk":1,"updated_at":"2026-03-18T03:11:15.335094+05:30"},{"city":"Rajkot","state":"Gujarat","latitude":22.3039,"longitude":70.8022,"temp":24.0,"humidity":80,"rain":0.0,"pressure":994.2,"uv_index":7.05,"wind_gusts":40.3,"aqi":55,"pm10":21.5,"pm2_5":12.0,"mosquito_risk":3,"arthritis_risk":5,"migraine_risk":7,"frizz_risk":1,"updated_at":"2026-03-18T03:11:15.335102+05:30"},{"city":"Thane","state":"Maharashtra","latitude":19.2183,"longitude":72.9781,"temp":22.9,"humidity":92,"rain":0.0,"pressure":1007.8,"uv_index":7.7,"wind_gusts":33.8,"aqi":93,"pm10":53.2,"pm2_5":22.4,"mosquito_risk":3,"arthritis_risk":5,"migraine_risk":4,"frizz_risk":1,"updated_at":"2026-03-18T03:11:15.335109+05:30"},{"city":"Nagpur","state":"Maharashtra","latitude":21.1458,"longitude":79.0882,"temp":23.5,"humidity":71,"rain":0.0,"pressure":973.2,"uv_index":7.85,"wind_gusts":36.7,"aqi":93,"pm10":38.1,"pm2_5":34.8,"mosquito_risk":3,"arthritis_risk":5,"migraine_risk":7,"frizz_risk":1,"updated_at":"2026-03-18T03:11:15.335116+05:30"},{"city":"Nashik","state":"Maharashtra","latitude":19.9975,"longitude":73.7898,"temp":20.1,"humidity":79,"rain":0.0,"pressure":944.6,"uv_index":7.95,"wind_gusts":31.7,"aqi":73,"pm10":53.0,"pm2_5":27.0,"mosquito_risk":3,"arthritis_risk":5,"migraine_risk":7,"frizz_risk":1,"updated_at":"2026-03-18T03:11:15.335123+05:30"},{"city":"Aurangabad","state":"Maharashtra","latitude":19.8762,"longitude":75.3433,"temp":22.0,"humidity":56,"rain":0.0,"pressure":943.2,"uv_index":8.45,"wind_gusts":26.3,"aqi":66,"pm10":41.7,"pm2_5":24.6,"mosquito_risk":0,"arthritis_risk":5,"migraine_risk":7,"frizz_risk":0,"updated_at":"2026-03-18T03:11:15.335130+05:30"},{"city":"Solapur","state":"Maharashtra","latitude":17.6599,"longitude":75.9064,"temp":23.0,"humidity":63,"rain":0.0,"pressure":956.2,"uv_index":8.65,"wind_gusts":42.1,"aqi":107,"pm10":43.2,"pm2_5":39.7,"mosquito_risk":3,"arthritis_risk":5,"migraine_risk":7,"frizz_risk":0,"updated_at":"2026-03-18T03:11:15.335137+05:30"},{"city":"Kolhapur","state":"Maharashtra","latitude":16.705,"longitude":74.2433,"temp":18.6,"humidity":87,"rain":0.0,"pressure":946.8,"uv_index":8.35,"wind_gusts":46.4,"aqi":89,"pm10":64.3,"pm2_5":44.5,"mosquito_risk":3,"arthritis_risk":10,"migraine_risk":7,"frizz_risk":1,"updated_at":"2026-03-18T03:11:15.335144+05:30"},{"city":"Goa","state":"Goa","latitude":15.2993,"longitude":74.124,"temp":25.2,"humidity":79,"rain":0.0,"pressure":997.8,"uv_index":8.7,"wind_gusts":23.4,"aqi":75,"pm10":74.3,"pm2_5":35.5,"mosquito_risk":7,"arthritis_risk":5,"migraine_risk":7,"frizz_risk":1,"updated_at":"2026-03-18T03:11:15.335151+05:30"},{"city":"Jodhpur","state":"Rajasthan","latitude":26.2389,"longitude":73.0243,"temp":22.4,"humidity":38,"rain":0.0,"pressure":982.8,"uv_index":7.1,"wind_gusts":39.6,"aqi":120,"pm10":111.5,"pm2_5":34.7,"mosquito_risk":0,"arthritis_risk":5,"migraine_risk":7,"frizz_risk":0,"updated_at":"2026-03-18T03:11:15.335159+05:30"},{"city":"Udaipur","state":"Rajasthan","latitude":24.5854,"longitude":73.7125,"temp":20.5,"humidity":47,"rain":0.0,"pressure":945.7,"uv_index":7.95,"wind_gusts":27.0,"aqi":45,"pm10":33.3,"pm2_5":14.3,"mosquito_risk":0,"arthritis_risk":5,"migraine_risk":7,"frizz_risk":0,"updated_at":"2026-03-18T03:11:15.335166+05:30"},{"city":"Kota","state":"Rajasthan","latitude":25.2138,"longitude":75.8648,"temp":21.5,"humidity":53,"rain":0.0,"pressure":978.2,"uv_index":7.3,"wind_gusts":16.6,"aqi":78,"pm10":51.8,"pm2_5":30.5,"mosquito_risk":0,"arthritis_risk":5,"migraine_risk":7,"frizz_risk":0,"updated_at":"2026-03-18T03:11:15.335173+05:30"},{"city":"Bikaner","state":"Rajasthan","latitude":28.0229,"longitude":73.3119,"temp":21.0,"humidity":48,"rain":0.0,"pressure":982.4,"uv_index":5.25,"wind_gusts":33.1,"aqi":88,"pm10":113.2,"pm2_5":27.9,"mosquito_risk":0,"arthritis_risk":5,"migraine_risk":3,"frizz_risk":0,"updated_at":"2026-03-18T03:11:15.335179+05:30"},{"city":"Ajmer","state":"Rajasthan","latitude":26.4499,"longitude":74.6399,"temp":22.7,"humidity":47,"rain":0.0,"pressure":954.4,"uv_index":7.05,"wind_gusts":26.3,"aqi":132,"pm10":167.6,"pm2_5":47.7,"mosquito_risk":0,"arthritis_risk":5,"migraine_risk":7,"frizz_risk":0,"updated_at":"2026-03-18T03:11:15.335186+05:30"},{"city":"Gwalior","state":"Madhya Pradesh","latitude":26.2183,"longitude":78.1828,"temp":23.3,"humidity":68,"rain":0.0,"pressure":983.3,"uv_index":6.9,"wind_gusts":24.5,"aqi":107,"pm10":226.8,"pm2_5":54.7,"mosquito_risk":3,"arthritis_risk":5,"migraine_risk":7,"frizz_risk":1,"updated_at":"2026-03-18T03:11:15.335193+05:30"},{"city":"Indore","state":"Madhya Pradesh","latitude":22.7196,"longitude":75.8577,"temp":21.6,"humidity":45,"rain":0.0,"pressure":946.8,"uv_index":7.85,"wind_gusts":21.2,"aqi":60,"pm10":23.6,"pm2_5":18.5,"mosquito_risk":0,"arthritis_risk":5,"migraine_risk":7,"frizz_risk":0,"updated_at":"2026-03-18T03:11:15.335200+05:30"},{"city":"Bhopal","state":"Madhya Pradesh","latitude":23.2599,"longitude":77.4126,"temp":21.3,"humidity":51,"rain":0.0,"pressure":952.5,"uv_index":7.7,"wind_gusts":31.0,"aqi":52,"pm10":38.6,"pm2_5":29.3,"mosquito_risk":0,"arthritis_risk":5,"migraine_risk":7,"frizz_risk":0,"updated_at":"2026-03-18T03:11:15.335207+05:30"},{"city":"Jabalpur","state":"Madhya Pradesh","latitude":23.1815,"longitude":79.9864,"temp":23.8,"humidity":44,"rain":0.0,"pressure":960.8,"uv_index":7.8,"wind_gusts":29.5,"aqi":54,"pm10":21.9,"pm2_5":16.3,"mosquito_risk":0,"arthritis_risk":5,"migraine_risk":7,"frizz_risk":0,"updated_at":"2026-03-18T03:11:15.335213+05:30"},{"city":"Ujjain","state":"Madhya Pradesh","latitude":23.1765,"longitude":75.7885,"temp":21.8,"humidity":46,"rain":0.0,"pressure":952.6,"uv_index":7.75,"wind_gusts":19.8,"aqi":60,"pm10":25.8,"pm2_5":19.6,"mosquito_risk":0,"arthritis_risk":5,"migraine_risk":7,"frizz_risk":0,"updated_at":"2026-03-18T03:11:15.335220+05:30"},{"city":"Visakhapatnam","state":"Andhra Pradesh","latitude":17.6868,"longitude":83.2185,"temp":23.9,"humidity":89,"rain":0.0,"pressure":1005.5,"uv_index":8.05,"wind_gusts":34.9,"aqi":54,"pm10":16.4,"pm2_5":14.2,"mosquito_risk":3,"arthritis_risk":5,"migraine_risk":4,"frizz_risk":1,"updated_at":"2026-03-18T03:11:15.335227+05:30"},{"city":"Vijayawada","state":"Andhra Pradesh","latitude":16.5062,"longitude":80.648,"temp":24.6,"humidity":87,"rain":0.0,"pressure":1004.1,"uv_index":8.55,"wind_gusts":24.1,"aqi":48,"pm10":12.7,"pm2_5":11.1,"mosquito_risk":3,"arthritis_risk":5,"migraine_risk":4,"frizz_risk":1,"updated_at":"2026-03-18T03:11:15.335234+05:30"},{"city":"Guntur","state":"Andhra Pradesh","latitude":16.3067,"longitude":80.4365,"temp":24.7,"humidity":89,"rain":0.0,"pressure":1005.3,"uv_index":8.7,"wind_gusts":30.6,"aqi":44,"pm10":11.0,"pm2_5":9.5,"mosquito_risk":3,"arthritis_risk":5,"migraine_risk":4,"frizz_risk":1,"updated_at":"2026-03-18T03:11:15.335241+05:30"},{"city":"Nellore","state":"Andhra Pradesh","latitude":14.4426,"longitude":79.9865,"temp":25.7,"humidity":85,"rain":0.0,"pressure":1007.0,"uv_index":9.0,"wind_gusts":32.0,"aqi":36,"pm10":8.1,"pm2_5":5.8,"mosquito_risk":7,"arthritis_risk":5,"migraine_risk":4,"frizz_risk":1,"updated_at":"2026-03-18T03:11:15.335249+05:30"},{"city":"Kurnool","state":"Andhra Pradesh","latitude":15.8281,"longitude":78.0373,"temp":26.2,"humidity":63,"rain":0.0,"pressure":977.0,"uv_index":8.85,"wind_gusts":41.8,"aqi":70,"pm10":8.5,"pm2_5":7.5,"mosquito_risk":7,"arthritis_risk":5,"migraine_risk":7,"frizz_risk":1,"updated_at":"2026-03-18T03:11:15.335273+05:30"},{"city":"Kakinada","state":"Andhra Pradesh","latitude":16.9891,"longitude":82.2475,"temp":22.9,"humidity":94,"rain":0.0,"pressure":1009.2,"uv_index":8.65,"wind_gusts":30.2,"aqi":36,"pm10":11.1,"pm2_5":8.6,"mosquito_risk":3,"arthritis_risk":0,"migraine_risk":4,"frizz_risk":1,"updated_at":"2026-03-18T03:11:15.335282+05:30"},{"city":"Tirupati","state":"Andhra Pradesh","latitude":13.6288,"longitude":79.4192,"temp":22.6,"humidity":86,"rain":0.0,"pressure":992.7,"uv_index":9.1,"wind_gusts":31.3,"aqi":55,"pm10":19.8,"pm2_5":17.7,"mosquito_risk":3,"arthritis_risk":5,"migraine_risk":7,"frizz_risk":1,"updated_at":"2026-03-18T03:11:15.335289+05:30"},{"city":"Warangal","state":"Telangana","latitude":17.9689,"longitude":79.5941,"temp":23.3,"humidity":83,"rain":0.0,"pressure":979.5,"uv_index":7.6,"wind_gusts":32.4,"aqi":61,"pm10":15.3,"pm2_5":14.3,"mosquito_risk":3,"arthritis_risk":5,"migraine_risk":7,"frizz_risk":1,"updated_at":"2026-03-18T03:11:15.335295+05:30"},{"city":"Nizamabad","state":"Telangana","latitude":18.6725,"longitude":78.0941,"temp":24.9,"humidity":68,"rain":0.0,"pressure":964.8,"uv_index":8.05,"wind_gusts":38.9,"aqi":119,"pm10":30.4,"pm2_5":28.0,"mosquito_risk":3,"arthritis_risk":5,"migraine_risk":7,"frizz_risk":1,"updated_at":"2026-03-18T03:11:15.335302+05:30"},{"city":"Mysore","state":"Karnataka","latitude":12.2958,"longitude":76.6396,"temp":19.6,"humidity":88,"rain":0.0,"pressure":927.3,"uv_index":9.35,"wind_gusts":20.5,"aqi":119,"pm10":57.2,"pm2_5":53.9,"mosquito_risk":3,"arthritis_risk":10,"migraine_risk":7,"frizz_risk":1,"updated_at":"2026-03-18T03:11:15.335310+05:30"},{"city":"Mangalore","state":"Karnataka","latitude":12.9141,"longitude":74.856,"temp":28.3,"humidity":78,"rain":0.0,"pressure":1005.7,"uv_index":9.0,"wind_gusts":18.0,"aqi":88,"pm10":45.2,"pm2_5":38.1,"mosquito_risk":7,"arthritis_risk":5,"migraine_risk":4,"frizz_risk":1,"updated_at":"2026-03-18T03:11:15.335317+05:30"},{"city":"Hubli-Dharwad","state":"Karnataka","latitude":15.3647,"longitude":75.124,"temp":21.0,"humidity":90,"rain":0.0,"pressure":940.0,"uv_index":8.95,"wind_gusts":32.0,"aqi":86,"pm10":51.2,"pm2_5":45.3,"mosquito_risk":3,"arthritis_risk":5,"migraine_risk":7,"frizz_risk":1,"updated_at":"2026-03-18T03:11:15.335324+05:30"},{"city":"Belgaum","state":"Karnataka","latitude":15.8497,"longitude":74.4977,"temp":20.0,"humidity":97,"rain":0.0,"pressure":924.5,"uv_index":8.85,"wind_gusts":36.4,"aqi":77,"pm10":58.8,"pm2_5":34.7,"mosquito_risk":3,"arthritis_risk":5,"migraine_risk":7,"frizz_risk":1,"updated_at":"2026-03-18T03:11:18.690517+05:30"},{"city":"Coimbatore","state":"Tamil Nadu","latitude":11.0168,"longitude":76.9558,"temp":21.7,"humidity":82,"rain":0.0,"pressure":961.4,"uv_index":9.35,"wind_gusts":28.1,"aqi":98,"pm10":40.3,"pm2_5":38.1,"mosquito_risk":3,"arthritis_risk":5,"migraine_risk":7,"frizz_risk":1,"updated_at":"2026-03-18T03:11:18.690544+05:30"},{"city":"Madurai","state":"Tamil Nadu","latitude":9.9252,"longitude":78.1198,"temp":23.7,"humidity":85,"rain":0.0,"pressure":992.9,"uv_index":7.9,"wind_gusts":25.6,"aqi":56,"pm10":26.3,"pm2_5":25.3,"mosquito_risk":3,"arthritis_risk":5,"migraine_risk":7,"frizz_risk":1,"updated_at":"2026-03-18T03:11:18.690554+05:30"},{"city":"Trichy","state":"Tamil Nadu","latitude":10.7905,"longitude":78.7047,"temp":25.2,"humidity":89,"rain":0.0,"pressure":999.9,"uv_index":8.75,"wind_gusts":24.8,"aqi":50,"pm10":18.7,"pm2_5":16.4,"mosquito_risk":7,"arthritis_risk":5,"migraine_risk":7,"frizz_risk":1,"updated_at":"2026-03-18T03:11:18.690562+05:30"},{"city":"Salem","state":"Tamil Nadu","latitude":11.6643,"longitude":78.146,"temp":23.6,"humidity":83,"rain":0.0,"pressure":977.5,"uv_index":9.2,"wind_gusts":21.6,"aqi":74,"pm10":19.6,"pm2_5":17.9,"mosquito_risk":3,"arthritis_risk":5,"migraine_risk":7,"frizz_risk":1,"updated_at":"2026-03-18T03:11:18.690568+05:30"},{"city":"Tirunelveli","state":"Tamil Nadu","latitude":8.7139,"longitude":77.7567,"temp":23.7,"humidity":91,"rain":0.0,"pressure":1002.9,"uv_index":6.7,"wind_gusts":27.0,"aqi":66,"pm10":30.0,"pm2_5":28.9,"mosquito_risk":3,"arthritis_risk":5,"migraine_risk":4,"frizz_risk":1,"updated_at":"2026-03-18T03:11:18.690575+05:30"},{"city":"Vellore","state":"Tamil Nadu","latitude":12.9165,"longitude":79.1325,"temp":21.9,"humidity":90,"rain":0.0,"pressure":985.3,"uv_index":9.2,"wind_gusts":33.5,"aqi":63,"pm10":25.4,"pm2_5":23.5,"mosquito_risk":3,"arthritis_risk":5,"migraine_risk":7,"frizz_risk":1,"updated_at":"2026-03-18T03:11:18.690582+05:30"},{"city":"Erode","state":"Tamil Nadu","latitude":11.341,"longitude":77.7172,"temp":23.2,"humidity":79,"rain":0.0,"pressure":989.4,"uv_index":9.2,"wind_gusts":23.0,"aqi":51,"pm10":9.7,"pm2_5":8.6,"mosquito_risk":3,"arthritis_risk":5,"migraine_risk":7,"frizz_risk":1,"updated_at":"2026-03-18T03:11:18.690590+05:30"},{"city":"Kochi","state":"Kerala","latitude":9.9312,"longitude":76.2673,"temp":27.0,"humidity":83,"rain":0.0,"pressure":1007.9,"uv_index":9.1,"wind_gusts":25.6,"aqi":97,"pm10":41.4,"pm2_5":40.6,"mosquito_risk":7,"arthritis_risk":5,"migraine_risk":4,"frizz_risk":1,"updated_at":"2026-03-18T03:11:18.690597+05:30"},{"city":"Thiruvananthapuram","state":"Kerala","latitude":8.5241,"longitude":76.9366,"temp":27.1,"humidity":78,"rain":0.0,"pressure":1007.0,"uv_index":7.9,"wind_gusts":14.8,"aqi":58,"pm10":21.4,"pm2_5":20.4,"mosquito_risk":7,"arthritis_risk":5,"migraine_risk":4,"frizz_risk":1,"updated_at":"2026-03-18T03:11:18.690603+05:30"},{"city":"Kozhikode","state":"Kerala","latitude":11.2588,"longitude":75.7804,"temp":25.9,"humidity":86,"rain":0.0,"pressure":1007.8,"uv_index":8.95,"wind_gusts":27.4,"aqi":103,"pm10":35.3,"pm2_5":30.6,"mosquito_risk":7,"arthritis_risk":5,"migraine_risk":4,"frizz_risk":1,"updated_at":"2026-03-18T03:11:18.690609+05:30"},{"city":"Thrissur","state":"Kerala","latitude":10.5276,"longitude":76.2144,"temp":24.9,"humidity":89,"rain":0.0,"pressure":1006.5,"uv_index":8.05,"wind_gusts":31.7,"aqi":96,"pm10":44.9,"pm2_5":43.3,"mosquito_risk":3,"arthritis_risk":5,"migraine_risk":4,"frizz_risk":1,"updated_at":"2026-03-18T03:11:18.690616+05:30"},{"city":"Kannur","state":"Kerala","latitude":11.8745,"longitude":75.3704,"temp":25.8,"humidity":83,"rain":0.0,"pressure":1006.6,"uv_index":9.05,"wind_gusts":28.1,"aqi":106,"pm10":40.3,"pm2_5":36.7,"mosquito_risk":7,"arthritis_risk":5,"migraine_risk":4,"frizz_risk":1,"updated_at":"2026-03-18T03:11:18.690623+05:30"},{"city":"Patna","state":"Bihar","latitude":25.5941,"longitude":85.1376,"temp":23.9,"humidity":68,"rain":0.0,"pressure":1000.8,"uv_index":7.35,"wind_gusts":20.2,"aqi":151,"pm10":108.7,"pm2_5":84.5,"mosquito_risk":3,"arthritis_risk":5,"migraine_risk":4,"frizz_risk":1,"updated_at":"2026-03-18T03:11:18.690629+05:30"},{"city":"Gaya","state":"Bihar","latitude":24.7914,"longitude":85.0002,"temp":22.6,"humidity":61,"rain":0.0,"pressure":993.9,"uv_index":6.9,"wind_gusts":26.6,"aqi":93,"pm10":51.6,"pm2_5":42.5,"mosquito_risk":3,"arthritis_risk":5,"migraine_risk":7,"frizz_risk":0,"updated_at":"2026-03-18T03:11:18.690636+05:30"},{"city":"Muzaffarpur","state":"Bihar","latitude":26.1209,"longitude":85.3647,"temp":21.1,"humidity":75,"rain":0.0,"pressure":1000.9,"uv_index":7.5,"wind_gusts":20.2,"aqi":153,"pm10":125.7,"pm2_5":100.6,"mosquito_risk":3,"arthritis_risk":5,"migraine_risk":4,"frizz_risk":1,"updated_at":"2026-03-18T03:11:18.690642+05:30"},{"city":"Bhagalpur","state":"Bihar","latitude":25.2425,"longitude":87.0117,"temp":23.5,"humidity":80,"rain":0.0,"pressure":1001.6,"uv_index":7.45,"wind_gusts":22.7,"aqi":141,"pm10":65.4,"pm2_5":51.1,"mosquito_risk":3,"arthritis_risk":5,"migraine_risk":4,"frizz_risk":1,"updated_at":"2026-03-18T03:11:18.690649+05:30"},{"city":"Ranchi","state":"Jharkhand","latitude":23.3441,"longitude":85.3096,"temp":20.2,"humidity":79,"rain":0.0,"pressure":938.1,"uv_index":8.25,"wind_gusts":36.4,"aqi":135,"pm10":59.3,"pm2_5":50.4,"mosquito_risk":3,"arthritis_risk":5,"migraine_risk":7,"frizz_risk":1,"updated_at":"2026-03-18T03:11:18.690655+05:30"},{"city":"Jamshedpur","state":"Jharkhand","latitude":22.8046,"longitude":86.2029,"temp":22.6,"humidity":80,"rain":0.0,"pressure":992.3,"uv_index":8.1,"wind_gusts":31.7,"aqi":152,"pm10":77.5,"pm2_5":65.0,"mosquito_risk":3,"arthritis_risk":5,"migraine_risk":7,"frizz_risk":1,"updated_at":"2026-03-18T03:11:18.690661+05:30"},{"city":"Dhanbad","state":"Jharkhand","latitude":23.7957,"longitude":86.4304,"temp":23.2,"humidity":71,"rain":0.0,"pressure":980.4,"uv_index":8.05,"wind_gusts":38.5,"aqi":153,"pm10":103.6,"pm2_5":90.3,"mosquito_risk":3,"arthritis_risk":5,"migraine_risk":7,"frizz_risk":1,"updated_at":"2026-03-18T03:11:18.690668+05:30"},{"city":"Bokaro","state":"Jharkhand","latitude":23.6693,"longitude":86.1511,"temp":23.2,"humidity":69,"rain":0.0,"pressure":984.5,"uv_index":8.05,"wind_gusts":48.2,"aqi":144,"pm10":100.8,"pm2_5":85.9,"mosquito_risk":3,"arthritis_risk":5,"migraine_risk":7,"frizz_risk":1,"updated_at":"2026-03-18T03:11:18.690674+05:30"},{"city":"Bhubaneswar","state":"Odisha","latitude":20.2961,"longitude":85.8245,"temp":24.1,"humidity":90,"rain":0.0,"pressure":1004.1,"uv_index":8.4,"wind_gusts":31.3,"aqi":53,"pm10":11.7,"pm2_5":9.7,"mosquito_risk":3,"arthritis_risk":5,"migraine_risk":4,"frizz_risk":1,"updated_at":"2026-03-18T03:11:18.690680+05:30"},{"city":"Cuttack","state":"Odisha","latitude":20.4625,"longitude":85.8828,"temp":23.8,"humidity":93,"rain":0.0,"pressure":1006.2,"uv_index":8.5,"wind_gusts":21.6,"aqi":53,"pm10":11.7,"pm2_5":9.7,"mosquito_risk":3,"arthritis_risk":5,"migraine_risk":4,"frizz_risk":1,"updated_at":"2026-03-18T03:11:18.690686+05:30"},{"city":"Rourkela","state":"Odisha","latitude":22.2604,"longitude":84.8536,"temp":22.5,"humidity":81,"rain":0.0,"pressure":986.5,"uv_index":8.05,"wind_gusts":36.7,"aqi":154,"pm10":74.5,"pm2_5":62.9,"mosquito_risk":3,"arthritis_risk":5,"migraine_risk":7,"frizz_risk":1,"updated_at":"2026-03-18T03:11:18.690692+05:30"},{"city":"Raipur","state":"Chhattisgarh","latitude":21.2514,"longitude":81.6296,"temp":21.2,"humidity":75,"rain":0.0,"pressure":977.0,"uv_index":7.7,"wind_gusts":48.2,"aqi":132,"pm10":50.8,"pm2_5":45.9,"mosquito_risk":3,"arthritis_risk":5,"migraine_risk":7,"frizz_risk":1,"updated_at":"2026-03-18T03:11:18.690699+05:30"},{"city":"Bhilai","state":"Chhattisgarh","latitude":21.1938,"longitude":81.3509,"temp":20.6,"humidity":81,"rain":0.0,"pressure":977.0,"uv_index":7.65,"wind_gusts":42.5,"aqi":123,"pm10":48.1,"pm2_5":43.7,"mosquito_risk":3,"arthritis_risk":5,"migraine_risk":7,"frizz_risk":1,"updated_at":"2026-03-18T03:11:18.690705+05:30"},{"city":"Guwahati","state":"Assam","latitude":26.1158,"longitude":91.7086,"temp":20.0,"humidity":87,"rain":0.0,"pressure":1003.4,"uv_index":7.45,"wind_gusts":38.9,"aqi":92,"pm10":47.5,"pm2_5":39.5,"mosquito_risk":3,"arthritis_risk":5,"migraine_risk":4,"frizz_risk":1,"updated_at":"2026-03-18T03:11:18.690711+05:30"},{"city":"Agartala","state":"Tripura","latitude":23.8315,"longitude":91.2868,"temp":22.1,"humidity":96,"rain":0.0,"pressure":1007.6,"uv_index":7.85,"wind_gusts":27.0,"aqi":72,"pm10":9.6,"pm2_5":8.1,"mosquito_risk":3,"arthritis_risk":5,"migraine_risk":4,"frizz_risk":1,"updated_at":"2026-03-18T03:11:18.690718+05:30"},{"city":"Shillong","state":"Meghalaya","latitude":25.5788,"longitude":91.8933,"temp":12.4,"humidity":91,"rain":0.0,"pressure":854.9,"uv_index":7.85,"wind_gusts":61.9,"aqi":88,"pm10":40.3,"pm2_5":36.4,"mosquito_risk":3,"arthritis_risk":10,"migraine_risk":7,"frizz_risk":0,"updated_at":"2026-03-18T03:11:18.690724+05:30"},{"city":"Imphal","state":"Manipur","latitude":24.817,"longitude":93.9368,"temp":14.8,"humidity":92,"rain":0.0,"pressure":924.3,"uv_index":8.15,"wind_gusts":66.2,"aqi":98,"pm10":55.3,"pm2_5":46.9,"mosquito_risk":3,"arthritis_risk":10,"migraine_risk":7,"frizz_risk":0,"updated_at":"2026-03-18T03:11:18.690731+05:30"},{"city":"Aizawl","state":"Mizoram","latitude":23.7271,"longitude":92.7176,"temp":16.0,"humidity":91,"rain":0.0,"pressure":893.1,"uv_index":8.05,"wind_gusts":44.3,"aqi":91,"pm10":46.7,"pm2_5":40.4,"mosquito_risk":3,"arthritis_risk":10,"migraine_risk":7,"frizz_risk":0,"updated_at":"2026-03-18T03:11:18.690739+05:30"},{"city":"Kohima","state":"Nagaland","latitude":25.6701,"longitude":94.1077,"temp":13.8,"humidity":72,"rain":0.0,"pressure":854.3,"uv_index":7.95,"wind_gusts":96.1,"aqi":82,"pm10":42.7,"pm2_5":34.5,"mosquito_risk":3,"arthritis_risk":5,"migraine_risk":7,"frizz_risk":0,"updated_at":"2026-03-18T03:11:18.690745+05:30"},{"city":"Gangtok","state":"Sikkim","latitude":27.3314,"longitude":88.6138,"temp":10.7,"humidity":64,"rain":0.0,"pressure":835.3,"uv_index":7.85,"wind_gusts":22.7,"aqi":80,"pm10":24.9,"pm2_5":15.4,"mosquito_risk":3,"arthritis_risk":5,"migraine_risk":7,"frizz_risk":0,"updated_at":"2026-03-18T03:11:18.690751+05:30"},{"city":"Siliguri","state":"West Bengal","latitude":26.7271,"longitude":88.3953,"temp":18.8,"humidity":60,"rain":0.0,"pressure":995.0,"uv_index":7.5,"wind_gusts":33.8,"aqi":126,"pm10":56.6,"pm2_5":43.0,"mosquito_risk":0,"arthritis_risk":5,"migraine_risk":7,"frizz_risk":0,"updated_at":"2026-03-18T03:11:22.052027+05:30"},{"city":"Durgapur","state":"West Bengal","latitude":23.5204,"longitude":87.3119,"temp":23.4,"humidity":89,"rain":0.0,"pressure":995.8,"uv_index":7.9,"wind_gusts":34.9,"aqi":152,"pm10":82.4,"pm2_5":74.3,"mosquito_risk":3,"arthritis_risk":5,"migraine_risk":7,"frizz_risk":1,"updated_at":"2026-03-18T03:11:22.052055+05:30"},{"city":"Asansol","state":"West Bengal","latitude":23.6739,"longitude":86.9524,"temp":24.2,"humidity":75,"rain":0.0,"pressure":994.2,"uv_index":7.85,"wind_gusts":42.5,"aqi":151,"pm10":81.3,"pm2_5":70.5,"mosquito_risk":3,"arthritis_risk":5,"migraine_risk":7,"frizz_risk":1,"updated_at":"2026-03-18T03:11:22.052064+05:30"},{"city":"Pondicherry","state":"Puducherry","latitude":11.9139,"longitude":79.8145,"temp":24.7,"humidity":97,"rain":0.0,"pressure":1008.9,"uv_index":9.1,"wind_gusts":26.6,"aqi":25,"pm10":9.8,"pm2_5":6.4,"mosquito_risk":3,"arthritis_risk":0,"migraine_risk":4,"frizz_risk":1,"updated_at":"2026-03-18T03:11:22.052072+05:30"},{"city":"Port Blair","state":"Andaman and Nicobar Islands","latitude":11.6234,"longitude":92.7265,"temp":27.9,"humidity":80,"rain":0.0,"pressure":1007.1,"uv_index":9.05,"wind_gusts":23.0,"aqi":55,"pm10":15.5,"pm2_5":12.4,"mosquito_risk":7,"arthritis_risk":5,"migraine_risk":4,"frizz_risk":1,"updated_at":"2026-03-18T03:11:22.052079+05:30"},{"city":"Haridwar","state":"Uttarakhand","latitude":29.9457,"longitude":78.1642,"temp":15.4,"humidity":67,"rain":0.0,"pressure":975.5,"uv_index":5.55,"wind_gusts":27.0,"aqi":74,"pm10":46.0,"pm2_5":29.6,"mosquito_risk":3,"arthritis_risk":5,"migraine_risk":3,"frizz_risk":0,"updated_at":"2026-03-18T03:11:22.052086+05:30"},{"city":"Rishikesh","state":"Uttarakhand","latitude":30.0869,"longitude":78.2676,"temp":15.7,"humidity":53,"rain":0.0,"pressure":968.0,"uv_index":5.7,"wind_gusts":17.3,"aqi":63,"pm10":52.0,"pm2_5":22.3,"mosquito_risk":0,"arthritis_risk":5,"migraine_risk":3,"frizz_risk":0,"updated_at":"2026-03-18T03:11:22.052094+05:30"},{"city":"Nainital","state":"Uttarakhand","latitude":29.3919,"longitude":79.4542,"temp":16.0,"humidity":31,"rain":0.0,"pressure":805.2,"uv_index":6.85,"wind_gusts":31.7,"aqi":64,"pm10":37.0,"pm2_5":19.8,"mosquito_risk":0,"arthritis_risk":5,"migraine_risk":7,"frizz_risk":1,"updated_at":"2026-03-18T03:11:22.052101+05:30"},{"city":"Mussoorie","state":"Uttarakhand","latitude":30.4599,"longitude":78.0664,"temp":12.3,"humidity":42,"rain":0.0,"pressure":800.8,"uv_index":5.75,"wind_gusts":32.0,"aqi":69,"pm10":37.7,"pm2_5":22.7,"mosquito_risk":0,"arthritis_risk":5,"migraine_risk":3,"frizz_risk":1,"updated_at":"2026-03-18T03:11:22.052108+05:30"},{"city":"Dharamshala","state":"Himachal Pradesh","latitude":32.219,"longitude":76.3234,"temp":16.5,"humidity":26,"rain":0.0,"pressure":868.6,"uv_index":5.0,"wind_gusts":23.0,"aqi":53,"pm10":11.2,"pm2_5":4.7,"mosquito_risk":0,"arthritis_risk":5,"migraine_risk":3,"frizz_risk":1,"updated_at":"2026-03-18T03:11:22.052114+05:30"},{"city":"Dalhousie","state":"Himachal Pradesh","latitude":32.5387,"longitude":75.971,"temp":12.4,"humidity":34,"rain":0.0,"pressure":801.9,"uv_index":4.35,"wind_gusts":31.3,"aqi":74,"pm10":55.5,"pm2_5":30.7,"mosquito_risk":0,"arthritis_risk":5,"migraine_risk":3,"frizz_risk":1,"updated_at":"2026-03-18T03:11:22.052121+05:30"},{"city":"Patiala","state":"Punjab","latitude":30.3398,"longitude":76.3869,"temp":14.2,"humidity":91,"rain":0.0,"pressure":979.7,"uv_index":4.85,"wind_gusts":28.1,"aqi":134,"pm10":166.7,"pm2_5":81.0,"mosquito_risk":3,"arthritis_risk":10,"migraine_risk":3,"frizz_risk":0,"updated_at":"2026-03-18T03:11:22.052128+05:30"},{"city":"Bhatinda","state":"Punjab","latitude":30.211,"longitude":74.9455,"temp":15.3,"humidity":75,"rain":0.0,"pressure":985.6,"uv_index":5.45,"wind_gusts":27.0,"aqi":110,"pm10":226.3,"pm2_5":77.3,"mosquito_risk":3,"arthritis_risk":5,"migraine_risk":3,"frizz_risk":0,"updated_at":"2026-03-18T03:11:22.052135+05:30"},{"city":"Rohtak","state":"Haryana","latitude":28.8955,"longitude":76.6066,"temp":16.3,"humidity":90,"rain":0.0,"pressure":983.0,"uv_index":5.75,"wind_gusts":31.7,"aqi":178,"pm10":231.0,"pm2_5":81.3,"mosquito_risk":3,"arthritis_risk":10,"migraine_risk":3,"frizz_risk":0,"updated_at":"2026-03-18T03:11:22.052142+05:30"},{"city":"Panipat","state":"Haryana","latitude":29.3909,"longitude":76.9635,"temp":15.3,"humidity":91,"rain":0.0,"pressure":981.6,"uv_index":5.1,"wind_gusts":36.0,"aqi":172,"pm10":256.1,"pm2_5":89.6,"mosquito_risk":3,"arthritis_risk":10,"migraine_risk":3,"frizz_risk":0,"updated_at":"2026-03-18T03:11:22.052149+05:30"},{"city":"Mathura","state":"Uttar Pradesh","latitude":27.4924,"longitude":77.6737,"temp":19.5,"humidity":74,"rain":0.0,"pressure":987.9,"uv_index":6.5,"wind_gusts":19.1,"aqi":366,"pm10":267.3,"pm2_5":68.7,"mosquito_risk":3,"arthritis_risk":5,"migraine_risk":7,"frizz_risk":0,"updated_at":"2026-03-18T03:11:22.052155+05:30"},{"city":"Vrindavan","state":"Uttar Pradesh","latitude":27.5823,"longitude":77.7027,"temp":19.0,"humidity":76,"rain":0.0,"pressure":988.4,"uv_index":6.45,"wind_gusts":19.4,"aqi":366,"pm10":267.3,"pm2_5":68.7,"mosquito_risk":3,"arthritis_risk":5,"migraine_risk":7,"frizz_risk":0,"updated_at":"2026-03-18T03:11:22.052162+05:30"},{"city":"Ayodhya","state":"Uttar Pradesh","latitude":26.7922,"longitude":82.1998,"temp":21.2,"humidity":59,"rain":0.0,"pressure":995.6,"uv_index":6.9,"wind_gusts":34.2,"aqi":101,"pm10":72.6,"pm2_5":34.9,"mosquito_risk":0,"arthritis_risk":5,"migraine_risk":7,"frizz_risk":0,"updated_at":"2026-03-18T03:11:22.052168+05:30"},{"city":"Ratlam","state":"Madhya Pradesh","latitude":23.3315,"longitude":75.0367,"temp":23.6,"humidity":39,"rain":0.0,"pressure":953.6,"uv_index":7.7,"wind_gusts":25.2,"aqi":56,"pm10":28.2,"pm2_5":18.9,"mosquito_risk":0,"arthritis_risk":5,"migraine_risk":7,"frizz_risk":0,"updated_at":"2026-03-18T03:11:22.052175+05:30"},{"city":"Sagar","state":"Madhya Pradesh","latitude":23.8388,"longitude":78.7378,"temp":21.0,"humidity":49,"rain":0.0,"pressure":948.7,"uv_index":7.7,"wind_gusts":35.6,"aqi":42,"pm10":18.3,"pm2_5":12.9,"mosquito_risk":0,"arthritis_risk":5,"migraine_risk":7,"frizz_risk":0,"updated_at":"2026-03-18T03:11:22.052181+05:30"},{"city":"Satna","state":"Madhya Pradesh","latitude":24.6005,"longitude":80.8322,"temp":23.2,"humidity":52,"rain":0.0,"pressure":970.3,"uv_index":7.6,"wind_gusts":30.2,"aqi":80,"pm10":43.0,"pm2_5":24.9,"mosquito_risk":0,"arthritis_risk":5,"migraine_risk":7,"frizz_risk":0,"updated_at":"2026-03-18T03:11:22.052188+05:30"},{"city":"Akola","state":"Maharashtra","latitude":20.7002,"longitude":77.0082,"temp":24.1,"humidity":45,"rain":0.0,"pressure":974.2,"uv_index":8.15,"wind_gusts":29.2,"aqi":75,"pm10":42.7,"pm2_5":34.2,"mosquito_risk":0,"arthritis_risk":5,"migraine_risk":7,"frizz_risk":0,"updated_at":"2026-03-18T03:11:22.052194+05:30"},{"city":"Amravati","state":"Maharashtra","latitude":20.9374,"longitude":77.7796,"temp":24.8,"humidity":54,"rain":0.0,"pressure":966.2,"uv_index":8.15,"wind_gusts":52.9,"aqi":80,"pm10":41.3,"pm2_5":34.7,"mosquito_risk":0,"arthritis_risk":5,"migraine_risk":7,"frizz_risk":0,"updated_at":"2026-03-18T03:11:22.052201+05:30"},{"city":"Latur","state":"Maharashtra","latitude":18.4088,"longitude":76.5604,"temp":21.6,"humidity":71,"rain":0.0,"pressure":939.2,"uv_index":8.55,"wind_gusts":34.2,"aqi":114,"pm10":41.4,"pm2_5":36.6,"mosquito_risk":3,"arthritis_risk":5,"migraine_risk":7,"frizz_risk":1,"updated_at":"2026-03-18T03:11:22.052207+05:30"},{"city":"Nanded","state":"Maharashtra","latitude":19.1383,"longitude":77.3091,"temp":24.0,"humidity":61,"rain":0.0,"pressure":968.2,"uv_index":8.4,"wind_gusts":32.8,"aqi":99,"pm10":40.0,"pm2_5":36.3,"mosquito_risk":3,"arthritis_risk":5,"migraine_risk":7,"frizz_risk":0,"updated_at":"2026-03-18T03:11:22.052214+05:30"},{"city":"Gulbarga","state":"Karnataka","latitude":17.3297,"longitude":76.8343,"temp":23.4,"humidity":72,"rain":0.0,"pressure":959.1,"uv_index":7.2,"wind_gusts":46.4,"aqi":114,"pm10":38.5,"pm2_5":35.2,"mosquito_risk":3,"arthritis_risk":5,"migraine_risk":7,"frizz_risk":1,"updated_at":"2026-03-18T03:11:22.052220+05:30"},{"city":"Bidar","state":"Karnataka","latitude":17.9104,"longitude":77.5199,"temp":23.2,"humidity":68,"rain":0.0,"pressure":935.2,"uv_index":6.95,"wind_gusts":43.9,"aqi":106,"pm10":32.4,"pm2_5":29.5,"mosquito_risk":3,"arthritis_risk":5,"migraine_risk":7,"frizz_risk":1,"updated_at":"2026-03-18T03:11:22.052226+05:30"},{"city":"Hospet","state":"Karnataka","latitude":15.2689,"longitude":76.3909,"temp":22.9,"humidity":79,"rain":0.0,"pressure":955.5,"uv_index":8.95,"wind_gusts":25.9,"aqi":105,"pm10":68.5,"pm2_5":63.1,"mosquito_risk":3,"arthritis_risk":5,"migraine_risk":7,"frizz_risk":1,"updated_at":"2026-03-18T03:11:22.052231+05:30"},{"city":"Tirupur","state":"Tamil Nadu","latitude":11.1085,"longitude":77.3411,"temp":24.1,"humidity":81,"rain":0.0,"pressure":975.3,"uv_index":9.35,"wind_gusts":22.0,"aqi":75,"pm10":24.0,"pm2_5":22.3,"mosquito_risk":3,"arthritis_risk":5,"migraine_risk":7,"frizz_risk":1,"updated_at":"2026-03-18T03:11:22.052237+05:30"},{"city":"Alappuzha","state":"Kerala","latitude":9.4981,"longitude":76.3388,"temp":26.8,"humidity":85,"rain":0.0,"pressure":1008.0,"uv_index":8.95,"wind_gusts":20.9,"aqi":84,"pm10":33.3,"pm2_5":31.8,"mosquito_risk":7,"arthritis_risk":0,"migraine_risk":4,"frizz_risk":1,"updated_at":"2026-03-18T03:11:22.052244+05:30"},{"city":"Munnar","state":"Kerala","latitude":10.0889,"longitude":77.0595,"temp":17.8,"humidity":91,"rain":0.0,"pressure":854.6,"uv_index":9.6,"wind_gusts":30.2,"aqi":71,"pm10":27.8,"pm2_5":26.7,"mosquito_risk":3,"arthritis_risk":10,"migraine_risk":7,"frizz_risk":1,"updated_at":"2026-03-18T03:11:22.052251+05:30"},{"city":"Silchar","state":"Assam","latitude":24.8333,"longitude":92.7789,"temp":19.3,"humidity":89,"rain":0.0,"pressure":1008.9,"uv_index":7.8,"wind_gusts":43.6,"aqi":101,"pm10":61.7,"pm2_5":52.3,"mosquito_risk":3,"arthritis_risk":5,"migraine_risk":4,"frizz_risk":1,"updated_at":"2026-03-18T03:11:22.052286+05:30"},{"city":"Dibrugarh","state":"Assam","latitude":27.4728,"longitude":94.912,"temp":18.8,"humidity":88,"rain":0.0,"pressure":998.9,"uv_index":7.55,"wind_gusts":28.1,"aqi":96,"pm10":34.1,"pm2_5":27.6,"mosquito_risk":3,"arthritis_risk":10,"migraine_risk":7,"frizz_risk":1,"updated_at":"2026-03-18T03:11:22.052295+05:30"}]