[{"city":"Delhi","state":"Delhi","latitude":28.6139,"longitude":77.209,"temp":19.4,"humidity":58,"rain":0.0,"pressure":983.5,"uv_index":5.7,"wind_gusts":29.2,"aqi":162,"pm10":262.6,"pm2_5":77.3,"mosquito_risk":0,"arthritis_risk":5,"migraine_risk":3,"frizz_risk":0,"updated_at":"2026-03-01T00:53:31.685421+05:30"},{"city":"Mumbai","state":"Maharashtra","latitude":19.076,"longitude":72.8777,"temp":26.2,"humidity":67,"rain":0.0,"pressure":1009.0,"uv_index":7.25,"wind_gusts":20.9,"aqi":69,"pm10":28.6,"pm2_5":21.5,"mosquito_risk":7,"arthritis_risk":0,"migraine_risk":4,"frizz_risk":1,"updated_at":"2026-03-01T00:53:31.685465+05:30"},{"city":"Bangalore","state":"Karnataka","latitude":12.9716,"longitude":77.5946,"temp":21.7,"humidity":62,"rain":0.0,"pressure":910.0,"uv_index":9.05,"wind_gusts":24.1,"aqi":110,"pm10":59.0,"pm2_5":58.3,"mosquito_risk":3,"arthritis_risk":5,"migraine_risk":7,"frizz_risk":0,"updated_at":"2026-03-01T00:53:31.685480+05:30"},{"city":"Hyderabad","state":"Telangana","latitude":17.385,"longitude":78.4867,"temp":23.8,"humidity":71,"rain":0.0,"pressure":952.3,"uv_index":8.3,"wind_gusts":23.4,"aqi":108,"pm10":46.0,"pm2_5":45.4,"mosquito_risk":3,"arthritis_risk":5,"migraine_risk":7,"frizz_risk":1,"updated_at":"2026-03-01T00:53:31.685490+05:30"},{"city":"Chennai","state":"Tamil Nadu","latitude":13.0827,"longitude":80.2707,"temp":24.6,"humidity":88,"rain":0.0,"pressure":1007.1,"uv_index":8.8,"wind_gusts":32.8,"aqi":141,"pm10":55.9,"pm2_5":51.9,"mosquito_risk":3,"arthritis_risk":5,"migraine_risk":4,"frizz_risk":1,"updated_at":"2026-03-01T00:53:31.685499+05:30"},{"city":"Kolkata","state":"West Bengal","latitude":22.5726,"longitude":88.3639,"temp":22.5,"humidity":97,"rain":0.0,"pressure":1005.5,"uv_index":7.6,"wind_gusts":22.3,"aqi":120,"pm10":19.3,"pm2_5":17.1,"mosquito_risk":3,"arthritis_risk":5,"migraine_risk":4,"frizz_risk":1,"updated_at":"2026-03-01T00:53:31.685508+05:30"},{"city":"Pune","state":"Maharashtra","latitude":18.5204,"longitude":73.8567,"temp":18.6,"humidity":88,"rain":0.0,"pressure":947.5,"uv_index":7.85,"wind_gusts":36.7,"aqi":78,"pm10":32.8,"pm2_5":30.3,"mosquito_risk":3,"arthritis_risk":10,"migraine_risk":7,"frizz_risk":1,"updated_at":"2026-03-01T00:53:31.685520+05:30"},{"city":"Ahmedabad","state":"Gujarat","latitude":23.0225,"longitude":72.5714,"temp":23.1,"humidity":53,"rain":0.0,"pressure":1002.5,"uv_index":7.05,"wind_gusts":19.4,"aqi":73,"pm10":74.3,"pm2_5":68.2,"mosquito_risk":0,"arthritis_risk":5,"migraine_risk":4,"frizz_risk":0,"updated_at":"2026-03-01T00:53:31.685528+05:30"},{"city":"Jaipur","state":"Rajasthan","latitude":26.9124,"longitude":75.7873,"temp":21.9,"humidity":53,"rain":0.0,"pressure":959.6,"uv_index":6.45,"wind_gusts":26.3,"aqi":76,"pm10":86.4,"pm2_5":43.0,"mosquito_risk":0,"arthritis_risk":5,"migraine_risk":7,"frizz_risk":0,"updated_at":"2026-03-01T00:53:31.685536+05:30"},{"city":"Lucknow","state":"Uttar Pradesh","latitude":26.8467,"longitude":80.9462,"temp":20.2,"humidity":61,"rain":0.0,"pressure":993.2,"uv_index":6.2,"wind_gusts":37.4,"aqi":150,"pm10":122.9,"pm2_5":65.4,"mosquito_risk":3,"arthritis_risk":5,"migraine_risk":7,"frizz_risk":0,"updated_at":"2026-03-01T00:53:31.685543+05:30"},{"city":"Kanpur","state":"Uttar Pradesh","latitude":26.4499,"longitude":80.3319,"temp":18.7,"humidity":69,"rain":0.0,"pressure":991.6,"uv_index":6.2,"wind_gusts":32.4,"aqi":144,"pm10":102.4,"pm2_5":65.0,"mosquito_risk":3,"arthritis_risk":5,"migraine_risk":7,"frizz_risk":0,"updated_at":"2026-03-01T00:53:31.685551+05:30"},{"city":"Chandigarh","state":"Chandigarh","latitude":30.7333,"longitude":76.7794,"temp":17.4,"humidity":61,"rain":0.0,"pressure":968.8,"uv_index":5.6,"wind_gusts":32.8,"aqi":96,"pm10":53.1,"pm2_5":42.0,"mosquito_risk":3,"arthritis_risk":5,"migraine_risk":3,"frizz_risk":0,"updated_at":"2026-03-01T00:53:31.685558+05:30"},{"city":"Srinagar","state":"Jammu and Kashmir","latitude":34.0837,"longitude":74.7973,"temp":4.2,"humidity":78,"rain":0.0,"pressure":836.2,"uv_index":6.45,"wind_gusts":15.1,"aqi":111,"pm10":105.9,"pm2_5":88.0,"mosquito_risk":3,"arthritis_risk":5,"migraine_risk":7,"frizz_risk":0,"updated_at":"2026-03-01T00:53:31.685565+05:30"},{"city":"Jammu","state":"Jammu and Kashmir","latitude":32.7266,"longitude":74.857,"temp":18.0,"humidity":64,"rain":0.0,"pressure":972.9,"uv_index":6.15,"wind_gusts":24.8,"aqi":93,"pm10":60.5,"pm2_5":52.3,"mosquito_risk":3,"arthritis_risk":5,"migraine_risk":7,"frizz_risk":0,"updated_at":"2026-03-01T00:53:31.685573+05:30"},{"city":"Amritsar","state":"Punjab","latitude":31.634,"longitude":74.8723,"temp":17.2,"humidity":71,"rain":0.0,"pressure":981.3,"uv_index":6.1,"wind_gusts":21.2,"aqi":153,"pm10":71.7,"pm2_5":48.3,"mosquito_risk":3,"arthritis_risk":5,"migraine_risk":7,"frizz_risk":0,"updated_at":"2026-03-01T00:53:31.685579+05:30"},{"city":"Ludhiana","state":"Punjab","latitude":30.901,"longitude":75.8573,"temp":18.4,"humidity":71,"rain":0.0,"pressure":979.3,"uv_index":5.85,"wind_gusts":27.7,"aqi":159,"pm10":107.6,"pm2_5":89.6,"mosquito_risk":3,"arthritis_risk":5,"migraine_risk":3,"frizz_risk":0,"updated_at":"2026-03-01T00:53:31.685586+05:30"},{"city":"Jalandhar","state":"Punjab","latitude":31.326,"longitude":75.5762,"temp":17.8,"humidity":71,"rain":0.0,"pressure":980.5,"uv_index":5.95,"wind_gusts":23.8,"aqi":151,"pm10":122.0,"pm2_5":103.1,"mosquito_risk":3,"arthritis_risk":5,"migraine_risk":3,"frizz_risk":0,"updated_at":"2026-03-01T00:53:31.685594+05:30"},{"city":"Dehradun","state":"Uttarakhand","latitude":30.6284,"longitude":78.0322,"temp":9.5,"humidity":55,"rain":0.0,"pressure":826.3,"uv_index":5.95,"wind_gusts":34.2,"aqi":67,"pm10":43.1,"pm2_5":28.2,"mosquito_risk":0,"arthritis_risk":5,"migraine_risk":3,"frizz_risk":0,"updated_at":"2026-03-01T00:53:31.685602+05:30"},{"city":"Shimla","state":"Himachal Pradesh","latitude":31.1048,"longitude":77.1734,"temp":7.2,"humidity":56,"rain":0.0,"pressure":779.5,"uv_index":6.0,"wind_gusts":50.4,"aqi":69,"pm10":56.6,"pm2_5":29.6,"mosquito_risk":0,"arthritis_risk":5,"migraine_risk":3,"frizz_risk":1,"updated_at":"2026-03-01T00:53:31.685609+05:30"},{"city":"Manali","state":"Himachal Pradesh","latitude":32.2396,"longitude":77.1887,"temp":10.5,"humidity":36,"rain":0.0,"pressure":815.6,"uv_index":7.3,"wind_gusts":30.2,"aqi":59,"pm10":23.4,"pm2_5":16.1,"mosquito_risk":0,"arthritis_risk":5,"migraine_risk":7,"frizz_risk":1,"updated_at":"2026-03-01T00:53:31.685616+05:30"},{"city":"Gurgaon","state":"Haryana","latitude":28.4595,"longitude":77.0266,"temp":15.2,"humidity":74,"rain":0.0,"pressure":981.7,"uv_index":5.8,"wind_gusts":27.0,"aqi":164,"pm10":527.1,"pm2_5":103.6,"mosquito_risk":3,"arthritis_risk":5,"migraine_risk":3,"frizz_risk":0,"updated_at":"2026-03-01T00:53:31.685623+05:30"},{"city":"Noida","state":"Uttar Pradesh","latitude":28.5355,"longitude":77.391,"temp":19.2,"humidity":57,"rain":0.0,"pressure":985.0,"uv_index":5.75,"wind_gusts":28.8,"aqi":164,"pm10":527.1,"pm2_5":103.6,"mosquito_risk":0,"arthritis_risk":5,"migraine_risk":3,"frizz_risk":0,"updated_at":"2026-03-01T00:53:31.685632+05:30"},{"city":"Ghaziabad","state":"Uttar Pradesh","latitude":28.6692,"longitude":77.4538,"temp":17.8,"humidity":65,"rain":0.0,"pressure":983.0,"uv_index":5.7,"wind_gusts":26.6,"aqi":158,"pm10":215.1,"pm2_5":63.3,"mosquito_risk":3,"arthritis_risk":5,"migraine_risk":3,"frizz_risk":0,"updated_at":"2026-03-01T00:53:31.685639+05:30"},{"city":"Faridabad","state":"Haryana","latitude":28.4089,"longitude":77.3178,"temp":16.4,"humidity":67,"rain":0.0,"pressure":984.0,"uv_index":5.75,"wind_gusts":25.9,"aqi":164,"pm10":527.1,"pm2_5":103.6,"mosquito_risk":3,"arthritis_risk":5,"migraine_risk":3,"frizz_risk":0,"updated_at":"2026-03-01T00:53:31.685646+05:30"},{"city":"Meerut","state":"Uttar Pradesh","latitude":28.9845,"longitude":77.7064,"temp":16.5,"humidity":71,"rain":0.0,"pressure":981.5,"uv_index":5.6,"wind_gusts":31.7,"aqi":158,"pm10":215.1,"pm2_5":63.3,"mosquito_risk":3,"arthritis_risk":5,"migraine_risk":3,"frizz_risk":0,"updated_at":"2026-03-01T00:53:31.685652+05:30"},{"city":"Agra","state":"Uttar Pradesh","latitude":27.1767,"longitude":78.0081,"temp":20.0,"humidity":69,"rain":0.0,"pressure":987.9,"uv_index":6.05,"wind_gusts":20.9,"aqi":142,"pm10":210.0,"pm2_5":66.4,"mosquito_risk":3,"arthritis_risk":5,"migraine_risk":7,"frizz_risk":0,"updated_at":"2026-03-01T00:53:31.685659+05:30"},{"city":"Varanasi","state":"Uttar Pradesh","latitude":25.3176,"longitude":82.9739,"temp":20.8,"humidity":64,"rain":0.0,"pressure":997.3,"uv_index":6.85,"wind_gusts":28.4,"aqi":109,"pm10":65.0,"pm2_5":57.6,"mosquito_risk":3,"arthritis_risk":5,"migraine_risk":7,"frizz_risk":0,"updated_at":"2026-03-01T00:53:31.685668+05:30"},{"city":"Prayagraj","state":"Uttar Pradesh","latitude":25.4358,"longitude":81.8463,"temp":19.7,"humidity":67,"rain":0.0,"pressure":995.7,"uv_index":6.75,"wind_gusts":27.7,"aqi":127,"pm10":77.1,"pm2_5":54.4,"mosquito_risk":3,"arthritis_risk":5,"migraine_risk":7,"frizz_risk":0,"updated_at":"2026-03-01T00:53:31.685675+05:30"},{"city":"Gorakhpur","state":"Uttar Pradesh","latitude":26.7606,"longitude":83.3732,"temp":17.4,"humidity":77,"rain":0.0,"pressure":996.4,"uv_index":6.55,"wind_gusts":31.7,"aqi":127,"pm10":52.9,"pm2_5":37.5,"mosquito_risk":3,"arthritis_risk":5,"migraine_risk":7,"frizz_risk":0,"updated_at":"2026-03-01T00:53:31.685681+05:30"},{"city":"Bareilly","state":"Uttar Pradesh","latitude":28.367,"longitude":79.4304,"temp":16.5,"humidity":76,"rain":0.0,"pressure":986.7,"uv_index":5.85,"wind_gusts":34.6,"aqi":151,"pm10":76.8,"pm2_5":54.6,"mosquito_risk":3,"arthritis_risk":5,"migraine_risk":3,"frizz_risk":0,"updated_at":"2026-03-01T00:53:31.685688+05:30"},{"city":"Aligarh","state":"Uttar Pradesh","latitude":27.8974,"longitude":78.088,"temp":16.3,"humidity":70,"rain":0.0,"pressure":985.8,"uv_index":5.8,"wind_gusts":28.4,"aqi":156,"pm10":317.6,"pm2_5":76.1,"mosquito_risk":3,"arthritis_risk":5,"migraine_risk":3,"frizz_risk":0,"updated_at":"2026-03-01T00:53:31.685694+05:30"},{"city":"Moradabad","state":"Uttar Pradesh","latitude":28.8386,"longitude":78.7733,"temp":16.3,"humidity":74,"rain":0.0,"pressure":983.6,"uv_index":5.7,"wind_gusts":33.1,"aqi":152,"pm10":81.5,"pm2_5":47.1,"mosquito_risk":3,"arthritis_risk":5,"migraine_risk":3,"frizz_risk":0,"updated_at":"2026-03-01T00:53:31.685701+05:30"},{"city":"Saharanpur","state":"Uttar Pradesh","latitude":29.9637,"longitude":77.546,"temp":16.1,"humidity":79,"rain":0.0,"pressure":975.6,"uv_index":5.35,"wind_gusts":40.3,"aqi":147,"pm10":93.8,"pm2_5":64.7,"mosquito_risk":3,"arthritis_risk":5,"migraine_risk":3,"frizz_risk":0,"updated_at":"2026-03-01T00:53:31.685722+05:30"},{"city":"Jhansi","state":"Uttar Pradesh","latitude":25.4484,"longitude":78.5685,"temp":18.1,"humidity":66,"rain":0.0,"pressure":977.6,"uv_index":6.65,"wind_gusts":25.6,"aqi":87,"pm10":11.5,"pm2_5":11.0,"mosquito_risk":3,"arthritis_risk":5,"migraine_risk":7,"frizz_risk":0,"updated_at":"2026-03-01T00:53:35.030867+05:30"},{"city":"Surat","state":"Gujarat","latitude":21.1702,"longitude":72.8311,"temp":23.6,"humidity":81,"rain":0.0,"pressure":1007.3,"uv_index":6.95,"wind_gusts":25.9,"aqi":90,"pm10":34.1,"pm2_5":28.7,"mosquito_risk":3,"arthritis_risk":5,"migraine_risk":4,"frizz_risk":1,"updated_at":"2026-03-01T00:53:35.030899+05:30"},{"city":"Vadodara","state":"Gujarat","latitude":22.3072,"longitude":73.1812,"temp":22.9,"humidity":71,"rain":0.0,"pressure":1004.8,"uv_index":7.1,"wind_gusts":14.0,"aqi":88,"pm10":66.4,"pm2_5":62.6,"mosquito_risk":3,"arthritis_risk":5,"migraine_risk":4,"frizz_risk":1,"updated_at":"2026-03-01T00:53:35.030909+05:30"},{"city":"Rajkot","state":"Gujarat","latitude":22.3039,"longitude":70.8022,"temp":21.4,"humidity":76,"rain":0.0,"pressure":995.2,"uv_index":6.9,"wind_gusts":22.3,"aqi":62,"pm10":64.3,"pm2_5":20.5,"mosquito_risk":3,"arthritis_risk":5,"migraine_risk":7,"frizz_risk":1,"updated_at":"2026-03-01T00:53:35.030918+05:30"},{"city":"Thane","state":"Maharashtra","latitude":19.2183,"longitude":72.9781,"temp":23.1,"humidity":80,"rain":0.0,"pressure":1008.5,"uv_index":7.25,"wind_gusts":34.2,"aqi":69,"pm10":28.6,"pm2_5":21.5,"mosquito_risk":3,"arthritis_risk":0,"migraine_risk":4,"frizz_risk":1,"updated_at":"2026-03-01T00:53:35.030925+05:30"},{"city":"Nagpur","state":"Maharashtra","latitude":21.1458,"longitude":79.0882,"temp":22.8,"humidity":71,"rain":0.0,"pressure":972.0,"uv_index":7.65,"wind_gusts":25.9,"aqi":152,"pm10":53.4,"pm2_5":52.9,"mosquito_risk":3,"arthritis_risk":5,"migraine_risk":7,"frizz_risk":1,"updated_at":"2026-03-01T00:53:35.030933+05:30"},{"city":"Nashik","state":"Maharashtra","latitude":19.9975,"longitude":73.7898,"temp":19.0,"humidity":75,"rain":0.0,"pressure":945.1,"uv_index":7.45,"wind_gusts":26.6,"aqi":59,"pm10":35.2,"pm2_5":32.5,"mosquito_risk":3,"arthritis_risk":5,"migraine_risk":7,"frizz_risk":0,"updated_at":"2026-03-01T00:53:35.030940+05:30"},{"city":"Aurangabad","state":"Maharashtra","latitude":19.8762,"longitude":75.3433,"temp":22.0,"humidity":61,"rain":0.0,"pressure":943.3,"uv_index":8.0,"wind_gusts":26.3,"aqi":53,"pm10":21.0,"pm2_5":18.6,"mosquito_risk":3,"arthritis_risk":5,"migraine_risk":7,"frizz_risk":0,"updated_at":"2026-03-01T00:53:35.030947+05:30"},{"city":"Solapur","state":"Maharashtra","latitude":17.6599,"longitude":75.9064,"temp":23.0,"humidity":67,"rain":0.0,"pressure":955.8,"uv_index":8.25,"wind_gusts":19.1,"aqi":59,"pm10":36.9,"pm2_5":36.6,"mosquito_risk":3,"arthritis_risk":5,"migraine_risk":7,"frizz_risk":1,"updated_at":"2026-03-01T00:53:35.030954+05:30"},{"city":"Kolhapur","state":"Maharashtra","latitude":16.705,"longitude":74.2433,"temp":16.8,"humidity":76,"rain":0.0,"pressure":946.4,"uv_index":8.35,"wind_gusts":40.0,"aqi":52,"pm10":20.7,"pm2_5":17.8,"mosquito_risk":3,"arthritis_risk":5,"migraine_risk":7,"frizz_risk":0,"updated_at":"2026-03-01T00:53:35.030961+05:30"},{"city":"Goa","state":"Goa","latitude":15.2993,"longitude":74.124,"temp":23.6,"humidity":82,"rain":0.0,"pressure":997.4,"uv_index":8.4,"wind_gusts":35.3,"aqi":43,"pm10":23.6,"pm2_5":17.5,"mosquito_risk":3,"arthritis_risk":5,"migraine_risk":7,"frizz_risk":1,"updated_at":"2026-03-01T00:53:35.030968+05:30"},{"city":"Jodhpur","state":"Rajasthan","latitude":26.2389,"longitude":73.0243,"temp":22.5,"humidity":53,"rain":0.0,"pressure":982.8,"uv_index":6.75,"wind_gusts":20.2,"aqi":75,"pm10":70.1,"pm2_5":36.6,"mosquito_risk":0,"arthritis_risk":5,"migraine_risk":7,"frizz_risk":0,"updated_at":"2026-03-01T00:53:35.030976+05:30"},{"city":"Udaipur","state":"Rajasthan","latitude":24.5854,"longitude":73.7125,"temp":17.8,"humidity":62,"rain":0.0,"pressure":945.9,"uv_index":7.35,"wind_gusts":29.2,"aqi":69,"pm10":30.0,"pm2_5":23.0,"mosquito_risk":3,"arthritis_risk":5,"migraine_risk":7,"frizz_risk":0,"updated_at":"2026-03-01T00:53:35.030983+05:30"},{"city":"Kota","state":"Rajasthan","latitude":25.2138,"longitude":75.8648,"temp":19.2,"humidity":68,"rain":0.0,"pressure":978.2,"uv_index":6.8,"wind_gusts":20.9,"aqi":71,"pm10":39.6,"pm2_5":38.4,"mosquito_risk":3,"arthritis_risk":5,"migraine_risk":7,"frizz_risk":0,"updated_at":"2026-03-01T00:53:35.030990+05:30"},{"city":"Bikaner","state":"Rajasthan","latitude":28.0229,"longitude":73.3119,"temp":22.7,"humidity":43,"rain":0.0,"pressure":981.9,"uv_index":6.45,"wind_gusts":14.4,"aqi":63,"pm10":43.5,"pm2_5":21.2,"mosquito_risk":0,"arthritis_risk":5,"migraine_risk":7,"frizz_risk":0,"updated_at":"2026-03-01T00:53:35.030998+05:30"},{"city":"Ajmer","state":"Rajasthan","latitude":26.4499,"longitude":74.6399,"temp":20.0,"humidity":49,"rain":0.0,"pressure":953.8,"uv_index":6.7,"wind_gusts":22.7,"aqi":59,"pm10":52.2,"pm2_5":30.0,"mosquito_risk":0,"arthritis_risk":5,"migraine_risk":7,"frizz_risk":0,"updated_at":"2026-03-01T00:53:35.031005+05:30"},{"city":"Gwalior","state":"Madhya Pradesh","latitude":26.2183,"longitude":78.1828,"temp":19.0,"humidity":64,"rain":0.0,"pressure":983.0,"uv_index":6.35,"wind_gusts":26.6,"aqi":80,"pm10":58.0,"pm2_5":38.5,"mosquito_risk":3,"arthritis_risk":5,"migraine_risk":7,"frizz_risk":0,"updated_at":"2026-03-01T00:53:35.031011+05:30"},{"city":"Indore","state":"Madhya Pradesh","latitude":22.7196,"longitude":75.8577,"temp":17.5,"humidity":77,"rain":0.0,"pressure":947.2,"uv_index":7.35,"wind_gusts":21.2,"aqi":66,"pm10":43.8,"pm2_5":42.5,"mosquito_risk":3,"arthritis_risk":5,"migraine_risk":7,"frizz_risk":0,"updated_at":"2026-03-01T00:53:35.031018+05:30"},{"city":"Bhopal","state":"Madhya Pradesh","latitude":23.2599,"longitude":77.4126,"temp":18.5,"humidity":79,"rain":0.0,"pressure":952.8,"uv_index":7.2,"wind_gusts":23.0,"aqi":90,"pm10":23.3,"pm2_5":22.6,"mosquito_risk":3,"arthritis_risk":5,"migraine_risk":7,"frizz_risk":0,"updated_at":"2026-03-01T00:53:35.031024+05:30"},{"city":"Jabalpur","state":"Madhya Pradesh","latitude":23.1815,"longitude":79.9864,"temp":24.0,"humidity":52,"rain":0.0,"pressure":960.7,"uv_index":7.3,"wind_gusts":33.1,"aqi":124,"pm10":27.0,"pm2_5":26.8,"mosquito_risk":0,"arthritis_risk":5,"migraine_risk":7,"frizz_risk":0,"updated_at":"2026-03-01T00:53:35.031031+05:30"},{"city":"Ujjain","state":"Madhya Pradesh","latitude":23.1765,"longitude":75.7885,"temp":17.5,"humidity":75,"rain":0.0,"pressure":953.0,"uv_index":7.25,"wind_gusts":20.5,"aqi":77,"pm10":57.4,"pm2_5":55.6,"mosquito_risk":3,"arthritis_risk":5,"migraine_risk":7,"frizz_risk":0,"updated_at":"2026-03-01T00:53:35.031038+05:30"},{"city":"Visakhapatnam","state":"Andhra Pradesh","latitude":17.6868,"longitude":83.2185,"temp":24.6,"humidity":86,"rain":0.0,"pressure":1004.2,"uv_index":8.3,"wind_gusts":40.7,"aqi":95,"pm10":56.2,"pm2_5":53.1,"mosquito_risk":3,"arthritis_risk":5,"migraine_risk":4,"frizz_risk":1,"updated_at":"2026-03-01T00:53:35.031045+05:30"},{"city":"Vijayawada","state":"Andhra Pradesh","latitude":16.5062,"longitude":80.648,"temp":24.2,"humidity":87,"rain":0.0,"pressure":1002.7,"uv_index":8.4,"wind_gusts":26.3,"aqi":126,"pm10":57.3,"pm2_5":55.5,"mosquito_risk":3,"arthritis_risk":5,"migraine_risk":4,"frizz_risk":1,"updated_at":"2026-03-01T00:53:35.031052+05:30"},{"city":"Guntur","state":"Andhra Pradesh","latitude":16.3067,"longitude":80.4365,"temp":24.2,"humidity":89,"rain":0.0,"pressure":1003.9,"uv_index":8.4,"wind_gusts":29.9,"aqi":117,"pm10":55.8,"pm2_5":54.4,"mosquito_risk":3,"arthritis_risk":5,"migraine_risk":4,"frizz_risk":1,"updated_at":"2026-03-01T00:53:35.031059+05:30"},{"city":"Nellore","state":"Andhra Pradesh","latitude":14.4426,"longitude":79.9865,"temp":24.1,"humidity":89,"rain":0.0,"pressure":1005.8,"uv_index":8.6,"wind_gusts":30.6,"aqi":116,"pm10":51.8,"pm2_5":49.9,"mosquito_risk":3,"arthritis_risk":5,"migraine_risk":4,"frizz_risk":1,"updated_at":"2026-03-01T00:53:35.031067+05:30"},{"city":"Kurnool","state":"Andhra Pradesh","latitude":15.8281,"longitude":78.0373,"temp":26.3,"humidity":56,"rain":0.0,"pressure":975.5,"uv_index":8.4,"wind_gusts":24.1,"aqi":97,"pm10":35.2,"pm2_5":34.7,"mosquito_risk":4,"arthritis_risk":5,"migraine_risk":7,"frizz_risk":1,"updated_at":"2026-03-01T00:53:35.031075+05:30"},{"city":"Kakinada","state":"Andhra Pradesh","latitude":16.9891,"longitude":82.2475,"temp":23.7,"humidity":89,"rain":0.0,"pressure":1007.8,"uv_index":8.35,"wind_gusts":35.3,"aqi":107,"pm10":61.7,"pm2_5":57.3,"mosquito_risk":3,"arthritis_risk":5,"migraine_risk":4,"frizz_risk":1,"updated_at":"2026-03-01T00:53:35.031082+05:30"},{"city":"Tirupati","state":"Andhra Pradesh","latitude":13.6288,"longitude":79.4192,"temp":23.2,"humidity":69,"rain":0.0,"pressure":991.6,"uv_index":8.75,"wind_gusts":26.3,"aqi":131,"pm10":68.0,"pm2_5":66.8,"mosquito_risk":3,"arthritis_risk":5,"migraine_risk":7,"frizz_risk":1,"updated_at":"2026-03-01T00:53:35.031089+05:30"},{"city":"Warangal","state":"Telangana","latitude":17.9689,"longitude":79.5941,"temp":25.3,"humidity":71,"rain":0.0,"pressure":977.8,"uv_index":8.1,"wind_gusts":29.9,"aqi":121,"pm10":47.7,"pm2_5":47.0,"mosquito_risk":7,"arthritis_risk":5,"migraine_risk":7,"frizz_risk":1,"updated_at":"2026-03-01T00:53:35.031096+05:30"},{"city":"Nizamabad","state":"Telangana","latitude":18.6725,"longitude":78.0941,"temp":25.2,"humidity":61,"rain":0.0,"pressure":963.6,"uv_index":8.0,"wind_gusts":18.7,"aqi":107,"pm10":43.7,"pm2_5":43.3,"mosquito_risk":7,"arthritis_risk":5,"migraine_risk":7,"frizz_risk":1,"updated_at":"2026-03-01T00:53:35.031103+05:30"},{"city":"Mysore","state":"Karnataka","latitude":12.2958,"longitude":76.6396,"temp":21.6,"humidity":84,"rain":0.0,"pressure":926.9,"uv_index":9.1,"wind_gusts":34.6,"aqi":121,"pm10":29.5,"pm2_5":29.2,"mosquito_risk":3,"arthritis_risk":5,"migraine_risk":7,"frizz_risk":1,"updated_at":"2026-03-01T00:53:35.031110+05:30"},{"city":"Mangalore","state":"Karnataka","latitude":12.9141,"longitude":74.856,"temp":27.9,"humidity":74,"rain":0.0,"pressure":1005.8,"uv_index":8.65,"wind_gusts":32.0,"aqi":49,"pm10":16.6,"pm2_5":12.2,"mosquito_risk":7,"arthritis_risk":5,"migraine_risk":4,"frizz_risk":1,"updated_at":"2026-03-01T00:53:35.031116+05:30"},{"city":"Hubli-Dharwad","state":"Karnataka","latitude":15.3647,"longitude":75.124,"temp":20.0,"humidity":65,"rain":0.0,"pressure":939.0,"uv_index":8.6,"wind_gusts":35.6,"aqi":57,"pm10":11.0,"pm2_5":9.1,"mosquito_risk":3,"arthritis_risk":5,"migraine_risk":7,"frizz_risk":0,"updated_at":"2026-03-01T00:53:35.031123+05:30"},{"city":"Belgaum","state":"Karnataka","latitude":15.8497,"longitude":74.4977,"temp":18.4,"humidity":62,"rain":0.0,"pressure":923.5,"uv_index":8.65,"wind_gusts":40.7,"aqi":44,"pm10":20.1,"pm2_5":16.6,"mosquito_risk":3,"arthritis_risk":5,"migraine_risk":7,"frizz_risk":0,"updated_at":"2026-03-01T00:53:38.374014+05:30"},{"city":"Coimbatore","state":"Tamil Nadu","latitude":11.0168,"longitude":76.9558,"temp":22.1,"humidity":87,"rain":0.0,"pressure":960.9,"uv_index":9.1,"wind_gusts":32.4,"aqi":133,"pm10":45.3,"pm2_5":44.8,"mosquito_risk":3,"arthritis_risk":5,"migraine_risk":7,"frizz_risk":1,"updated_at":"2026-03-01T00:53:38.374047+05:30"},{"city":"Madurai","state":"Tamil Nadu","latitude":9.9252,"longitude":78.1198,"temp":24.3,"humidity":87,"rain":0.0,"pressure":992.8,"uv_index":9.0,"wind_gusts":28.4,"aqi":144,"pm10":65.4,"pm2_5":64.3,"mosquito_risk":3,"arthritis_risk":5,"migraine_risk":7,"frizz_risk":1,"updated_at":"2026-03-01T00:53:38.374057+05:30"},{"city":"Trichy","state":"Tamil Nadu","latitude":10.7905,"longitude":78.7047,"temp":23.6,"humidity":87,"rain":0.0,"pressure":999.7,"uv_index":8.95,"wind_gusts":25.9,"aqi":146,"pm10":55.4,"pm2_5":53.6,"mosquito_risk":3,"arthritis_risk":5,"migraine_risk":7,"frizz_risk":1,"updated_at":"2026-03-01T00:53:38.374065+05:30"},{"city":"Salem","state":"Tamil Nadu","latitude":11.6643,"longitude":78.146,"temp":25.7,"humidity":71,"rain":0.0,"pressure":976.8,"uv_index":8.95,"wind_gusts":27.4,"aqi":124,"pm10":57.5,"pm2_5":56.6,"mosquito_risk":7,"arthritis_risk":5,"migraine_risk":7,"frizz_risk":1,"updated_at":"2026-03-01T00:53:38.374073+05:30"},{"city":"Tirunelveli","state":"Tamil Nadu","latitude":8.7139,"longitude":77.7567,"temp":24.9,"humidity":84,"rain":0.0,"pressure":1002.7,"uv_index":9.05,"wind_gusts":43.2,"aqi":143,"pm10":61.7,"pm2_5":60.8,"mosquito_risk":3,"arthritis_risk":5,"migraine_risk":4,"frizz_risk":1,"updated_at":"2026-03-01T00:53:38.374081+05:30"},{"city":"Vellore","state":"Tamil Nadu","latitude":12.9165,"longitude":79.1325,"temp":22.0,"humidity":77,"rain":0.0,"pressure":984.4,"uv_index":8.85,"wind_gusts":37.1,"aqi":146,"pm10":80.1,"pm2_5":78.5,"mosquito_risk":3,"arthritis_risk":5,"migraine_risk":7,"frizz_risk":1,"updated_at":"2026-03-01T00:53:38.374088+05:30"},{"city":"Erode","state":"Tamil Nadu","latitude":11.341,"longitude":77.7172,"temp":25.6,"humidity":74,"rain":0.0,"pressure":988.6,"uv_index":8.95,"wind_gusts":27.7,"aqi":112,"pm10":49.4,"pm2_5":48.5,"mosquito_risk":7,"arthritis_risk":5,"migraine_risk":7,"frizz_risk":1,"updated_at":"2026-03-01T00:53:38.374094+05:30"},{"city":"Kochi","state":"Kerala","latitude":9.9312,"longitude":76.2673,"temp":27.6,"humidity":78,"rain":0.0,"pressure":1007.9,"uv_index":8.9,"wind_gusts":39.2,"aqi":117,"pm10":45.1,"pm2_5":44.8,"mosquito_risk":7,"arthritis_risk":5,"migraine_risk":4,"frizz_risk":1,"updated_at":"2026-03-01T00:53:38.374102+05:30"},{"city":"Thiruvananthapuram","state":"Kerala","latitude":8.5241,"longitude":76.9366,"temp":27.2,"humidity":83,"rain":0.0,"pressure":1007.1,"uv_index":8.95,"wind_gusts":25.6,"aqi":141,"pm10":31.5,"pm2_5":31.2,"mosquito_risk":7,"arthritis_risk":5,"migraine_risk":4,"frizz_risk":1,"updated_at":"2026-03-01T00:53:38.374109+05:30"},{"city":"Kozhikode","state":"Kerala","latitude":11.2588,"longitude":75.7804,"temp":28.4,"humidity":74,"rain":0.0,"pressure":1006.7,"uv_index":8.75,"wind_gusts":32.4,"aqi":68,"pm10":18.6,"pm2_5":14.0,"mosquito_risk":7,"arthritis_risk":5,"migraine_risk":4,"frizz_risk":1,"updated_at":"2026-03-01T00:53:38.374116+05:30"},{"city":"Thrissur","state":"Kerala","latitude":10.5276,"longitude":76.2144,"temp":26.3,"humidity":83,"rain":0.0,"pressure":1006.1,"uv_index":8.85,"wind_gusts":40.3,"aqi":121,"pm10":62.9,"pm2_5":62.4,"mosquito_risk":7,"arthritis_risk":5,"migraine_risk":4,"frizz_risk":1,"updated_at":"2026-03-01T00:53:38.374123+05:30"},{"city":"Kannur","state":"Kerala","latitude":11.8745,"longitude":75.3704,"temp":27.1,"humidity":76,"rain":0.0,"pressure":1006.1,"uv_index":8.75,"wind_gusts":37.1,"aqi":54,"pm10":13.2,"pm2_5":10.2,"mosquito_risk":7,"arthritis_risk":5,"migraine_risk":4,"frizz_risk":1,"updated_at":"2026-03-01T00:53:38.374131+05:30"},{"city":"Patna","state":"Bihar","latitude":25.5941,"longitude":85.1376,"temp":21.0,"humidity":66,"rain":0.0,"pressure":999.8,"uv_index":7.0,"wind_gusts":26.3,"aqi":122,"pm10":56.0,"pm2_5":47.7,"mosquito_risk":3,"arthritis_risk":5,"migraine_risk":7,"frizz_risk":0,"updated_at":"2026-03-01T00:53:38.374138+05:30"},{"city":"Gaya","state":"Bihar","latitude":24.7914,"longitude":85.0002,"temp":23.1,"humidity":50,"rain":0.0,"pressure":993.5,"uv_index":7.1,"wind_gusts":15.5,"aqi":81,"pm10":55.2,"pm2_5":46.6,"mosquito_risk":0,"arthritis_risk":5,"migraine_risk":7,"frizz_risk":0,"updated_at":"2026-03-01T00:53:38.374144+05:30"},{"city":"Muzaffarpur","state":"Bihar","latitude":26.1209,"longitude":85.3647,"temp":18.6,"humidity":76,"rain":0.0,"pressure":999.6,"uv_index":6.95,"wind_gusts":31.3,"aqi":138,"pm10":58.7,"pm2_5":47.1,"mosquito_risk":3,"arthritis_risk":5,"migraine_risk":7,"frizz_risk":0,"updated_at":"2026-03-01T00:53:38.374151+05:30"},{"city":"Bhagalpur","state":"Bihar","latitude":25.2425,"longitude":87.0117,"temp":20.7,"humidity":56,"rain":0.0,"pressure":1000.2,"uv_index":7.05,"wind_gusts":25.2,"aqi":103,"pm10":54.7,"pm2_5":36.2,"mosquito_risk":0,"arthritis_risk":5,"migraine_risk":4,"frizz_risk":0,"updated_at":"2026-03-01T00:53:38.374158+05:30"},{"city":"Ranchi","state":"Jharkhand","latitude":23.3441,"longitude":85.3096,"temp":19.1,"humidity":46,"rain":0.0,"pressure":936.7,"uv_index":7.75,"wind_gusts":22.3,"aqi":68,"pm10":45.3,"pm2_5":43.1,"mosquito_risk":0,"arthritis_risk":5,"migraine_risk":7,"frizz_risk":0,"updated_at":"2026-03-01T00:53:38.374164+05:30"},{"city":"Jamshedpur","state":"Jharkhand","latitude":22.8046,"longitude":86.2029,"temp":21.0,"humidity":72,"rain":0.0,"pressure":989.7,"uv_index":7.7,"wind_gusts":11.2,"aqi":114,"pm10":64.7,"pm2_5":60.1,"mosquito_risk":3,"arthritis_risk":5,"migraine_risk":7,"frizz_risk":0,"updated_at":"2026-03-01T00:53:38.374170+05:30"},{"city":"Dhanbad","state":"Jharkhand","latitude":23.7957,"longitude":86.4304,"temp":20.3,"humidity":48,"rain":0.0,"pressure":978.9,"uv_index":7.55,"wind_gusts":24.1,"aqi":122,"pm10":84.3,"pm2_5":74.7,"mosquito_risk":0,"arthritis_risk":5,"migraine_risk":7,"frizz_risk":0,"updated_at":"2026-03-01T00:53:38.374177+05:30"},{"city":"Bokaro","state":"Jharkhand","latitude":23.6693,"longitude":86.1511,"temp":22.6,"humidity":40,"rain":0.0,"pressure":983.4,"uv_index":7.55,"wind_gusts":23.0,"aqi":116,"pm10":81.0,"pm2_5":74.7,"mosquito_risk":0,"arthritis_risk":5,"migraine_risk":7,"frizz_risk":0,"updated_at":"2026-03-01T00:53:38.374183+05:30"},{"city":"Bhubaneswar","state":"Odisha","latitude":20.2961,"longitude":85.8245,"temp":23.9,"humidity":93,"rain":0.0,"pressure":1002.3,"uv_index":8.05,"wind_gusts":32.0,"aqi":82,"pm10":23.3,"pm2_5":22.0,"mosquito_risk":3,"arthritis_risk":5,"migraine_risk":4,"frizz_risk":1,"updated_at":"2026-03-01T00:53:38.374191+05:30"},{"city":"Cuttack","state":"Odisha","latitude":20.4625,"longitude":85.8828,"temp":23.7,"humidity":95,"rain":0.0,"pressure":1004.3,"uv_index":8.05,"wind_gusts":32.4,"aqi":82,"pm10":23.3,"pm2_5":22.0,"mosquito_risk":3,"arthritis_risk":5,"migraine_risk":4,"frizz_risk":1,"updated_at":"2026-03-01T00:53:38.374198+05:30"},{"city":"Rourkela","state":"Odisha","latitude":22.2604,"longitude":84.8536,"temp":22.8,"humidity":55,"rain":0.0,"pressure":984.0,"uv_index":7.6,"wind_gusts":25.6,"aqi":83,"pm10":53.7,"pm2_5":52.0,"mosquito_risk":0,"arthritis_risk":5,"migraine_risk":7,"frizz_risk":0,"updated_at":"2026-03-01T00:53:38.374204+05:30"},{"city":"Raipur","state":"Chhattisgarh","latitude":21.2514,"longitude":81.6296,"temp":25.3,"humidity":55,"rain":0.0,"pressure":973.6,"uv_index":7.7,"wind_gusts":27.0,"aqi":155,"pm10":100.8,"pm2_5":99.7,"mosquito_risk":4,"arthritis_risk":5,"migraine_risk":7,"frizz_risk":0,"updated_at":"2026-03-01T00:53:38.374211+05:30"},{"city":"Bhilai","state":"Chhattisgarh","latitude":21.1938,"longitude":81.3509,"temp":24.4,"humidity":60,"rain":0.0,"pressure":973.8,"uv_index":7.75,"wind_gusts":28.4,"aqi":155,"pm10":109.2,"pm2_5":108.0,"mosquito_risk":0,"arthritis_risk":5,"migraine_risk":7,"frizz_risk":1,"updated_at":"2026-03-01T00:53:38.374217+05:30"},{"city":"Guwahati","state":"Assam","latitude":26.1158,"longitude":91.7086,"temp":21.4,"humidity":79,"rain":0.0,"pressure":1001.1,"uv_index":7.0,"wind_gusts":32.8,"aqi":159,"pm10":84.8,"pm2_5":74.3,"mosquito_risk":3,"arthritis_risk":5,"migraine_risk":4,"frizz_risk":1,"updated_at":"2026-03-01T00:53:38.374223+05:30"},{"city":"Agartala","state":"Tripura","latitude":23.8315,"longitude":91.2868,"temp":16.9,"humidity":66,"rain":0.0,"pressure":1005.4,"uv_index":7.35,"wind_gusts":22.7,"aqi":159,"pm10":67.3,"pm2_5":54.7,"mosquito_risk":3,"arthritis_risk":5,"migraine_risk":4,"frizz_risk":0,"updated_at":"2026-03-01T00:53:38.374230+05:30"},{"city":"Shillong","state":"Meghalaya","latitude":25.5788,"longitude":91.8933,"temp":8.9,"humidity":75,"rain":0.0,"pressure":851.8,"uv_index":7.35,"wind_gusts":48.6,"aqi":153,"pm10":77.1,"pm2_5":57.3,"mosquito_risk":3,"arthritis_risk":5,"migraine_risk":7,"frizz_risk":0,"updated_at":"2026-03-01T00:53:38.374237+05:30"},{"city":"Imphal","state":"Manipur","latitude":24.817,"longitude":93.9368,"temp":13.5,"humidity":67,"rain":0.0,"pressure":920.9,"uv_index":7.55,"wind_gusts":56.2,"aqi":145,"pm10":67.5,"pm2_5":56.9,"mosquito_risk":3,"arthritis_risk":5,"migraine_risk":7,"frizz_risk":0,"updated_at":"2026-03-01T00:53:38.374243+05:30"},{"city":"Aizawl","state":"Mizoram","latitude":23.7271,"longitude":92.7176,"temp":14.0,"humidity":66,"rain":0.0,"pressure":890.3,"uv_index":7.55,"wind_gusts":41.4,"aqi":126,"pm10":57.6,"pm2_5":45.5,"mosquito_risk":3,"arthritis_risk":5,"migraine_risk":7,"frizz_risk":0,"updated_at":"2026-03-01T00:53:38.374250+05:30"},{"city":"Kohima","state":"Nagaland","latitude":25.6701,"longitude":94.1077,"temp":11.4,"humidity":69,"rain":0.0,"pressure":851.2,"uv_index":7.4,"wind_gusts":72.7,"aqi":146,"pm10":65.9,"pm2_5":61.0,"mosquito_risk":3,"arthritis_risk":5,"migraine_risk":7,"frizz_risk":0,"updated_at":"2026-03-01T00:53:38.374256+05:30"},{"city":"Gangtok","state":"Sikkim","latitude":27.3314,"longitude":88.6138,"temp":9.5,"humidity":82,"rain":0.0,"pressure":832.4,"uv_index":5.0,"wind_gusts":14.0,"aqi":128,"pm10":50.1,"pm2_5":43.3,"mosquito_risk":3,"arthritis_risk":10,"migraine_risk":3,"frizz_risk":0,"updated_at":"2026-03-01T00:53:38.374263+05:30"},{"city":"Siliguri","state":"West Bengal","latitude":26.7271,"longitude":88.3953,"temp":17.5,"humidity":61,"rain":0.0,"pressure":992.7,"uv_index":7.0,"wind_gusts":23.4,"aqi":168,"pm10":126.7,"pm2_5":107.6,"mosquito_risk":3,"arthritis_risk":5,"migraine_risk":7,"frizz_risk":0,"updated_at":"2026-03-01T00:53:41.726148+05:30"},{"city":"Durgapur","state":"West Bengal","latitude":23.5204,"longitude":87.3119,"temp":21.1,"humidity":68,"rain":0.0,"pressure":994.4,"uv_index":7.55,"wind_gusts":26.6,"aqi":115,"pm10":78.9,"pm2_5":68.7,"mosquito_risk":3,"arthritis_risk":5,"migraine_risk":7,"frizz_risk":0,"updated_at":"2026-03-01T00:53:41.726179+05:30"},{"city":"Asansol","state":"West Bengal","latitude":23.6739,"longitude":86.9524,"temp":21.5,"humidity":50,"rain":0.0,"pressure":992.9,"uv_index":7.55,"wind_gusts":22.7,"aqi":97,"pm10":60.8,"pm2_5":49.7,"mosquito_risk":0,"arthritis_risk":5,"migraine_risk":7,"frizz_risk":0,"updated_at":"2026-03-01T00:53:41.726190+05:30"},{"city":"Pondicherry","state":"Puducherry","latitude":11.9139,"longitude":79.8145,"temp":23.3,"humidity":94,"rain":0.0,"pressure":1008.4,"uv_index":8.8,"wind_gusts":28.8,"aqi":129,"pm10":51.0,"pm2_5":47.0,"mosquito_risk":3,"arthritis_risk":0,"migraine_risk":4,"frizz_risk":1,"updated_at":"2026-03-01T00:53:41.726198+05:30"},{"city":"Port Blair","state":"Andaman and Nicobar Islands","latitude":11.6234,"longitude":92.7265,"temp":27.0,"humidity":76,"rain":0.0,"pressure":1005.1,"uv_index":8.75,"wind_gusts":23.0,"aqi":84,"pm10":28.6,"pm2_5":25.1,"mosquito_risk":7,"arthritis_risk":5,"migraine_risk":4,"frizz_risk":1,"updated_at":"2026-03-01T00:53:41.726205+05:30"},{"city":"Haridwar","state":"Uttarakhand","latitude":29.9457,"longitude":78.1642,"temp":15.1,"humidity":83,"rain":0.0,"pressure":974.1,"uv_index":5.45,"wind_gusts":38.2,"aqi":110,"pm10":66.6,"pm2_5":56.3,"mosquito_risk":3,"arthritis_risk":10,"migraine_risk":3,"frizz_risk":0,"updated_at":"2026-03-01T00:53:41.726213+05:30"},{"city":"Rishikesh","state":"Uttarakhand","latitude":30.0869,"longitude":78.2676,"temp":15.9,"humidity":68,"rain":0.0,"pressure":966.7,"uv_index":5.5,"wind_gusts":34.6,"aqi":97,"pm10":60.8,"pm2_5":41.7,"mosquito_risk":3,"arthritis_risk":5,"migraine_risk":3,"frizz_risk":0,"updated_at":"2026-03-01T00:53:41.726220+05:30"},{"city":"Nainital","state":"Uttarakhand","latitude":29.3919,"longitude":79.4542,"temp":13.8,"humidity":45,"rain":0.0,"pressure":802.8,"uv_index":6.35,"wind_gusts":46.1,"aqi":84,"pm10":45.9,"pm2_5":28.0,"mosquito_risk":0,"arthritis_risk":5,"migraine_risk":7,"frizz_risk":0,"updated_at":"2026-03-01T00:53:41.726228+05:30"},{"city":"Mussoorie","state":"Uttarakhand","latitude":30.4599,"longitude":78.0664,"temp":11.8,"humidity":57,"rain":0.0,"pressure":799.3,"uv_index":5.85,"wind_gusts":42.1,"aqi":95,"pm10":58.8,"pm2_5":47.5,"mosquito_risk":0,"arthritis_risk":5,"migraine_risk":3,"frizz_risk":0,"updated_at":"2026-03-01T00:53:41.726235+05:30"},{"city":"Dharamshala","state":"Himachal Pradesh","latitude":32.219,"longitude":76.3234,"temp":15.8,"humidity":47,"rain":0.0,"pressure":867.3,"uv_index":6.05,"wind_gusts":27.0,"aqi":73,"pm10":37.1,"pm2_5":19.1,"mosquito_risk":0,"arthritis_risk":5,"migraine_risk":7,"frizz_risk":0,"updated_at":"2026-03-01T00:53:41.726242+05:30"},{"city":"Dalhousie","state":"Himachal Pradesh","latitude":32.5387,"longitude":75.971,"temp":12.6,"humidity":46,"rain":0.0,"pressure":800.9,"uv_index":6.25,"wind_gusts":28.8,"aqi":80,"pm10":58.3,"pm2_5":47.7,"mosquito_risk":0,"arthritis_risk":5,"migraine_risk":7,"frizz_risk":0,"updated_at":"2026-03-01T00:53:41.726249+05:30"},{"city":"Patiala","state":"Punjab","latitude":30.3398,"longitude":76.3869,"temp":16.0,"humidity":86,"rain":0.0,"pressure":978.5,"uv_index":5.55,"wind_gusts":29.9,"aqi":158,"pm10":145.8,"pm2_5":71.0,"mosquito_risk":3,"arthritis_risk":10,"migraine_risk":3,"frizz_risk":0,"updated_at":"2026-03-01T00:53:41.726256+05:30"},{"city":"Bhatinda","state":"Punjab","latitude":30.211,"longitude":74.9455,"temp":17.1,"humidity":74,"rain":0.0,"pressure":984.1,"uv_index":6.2,"wind_gusts":22.0,"aqi":152,"pm10":92.7,"pm2_5":64.3,"mosquito_risk":3,"arthritis_risk":5,"migraine_risk":7,"frizz_risk":0,"updated_at":"2026-03-01T00:53:41.726263+05:30"},{"city":"Rohtak","state":"Haryana","latitude":28.8955,"longitude":76.6066,"temp":16.3,"humidity":72,"rain":0.0,"pressure":982.1,"uv_index":5.7,"wind_gusts":29.2,"aqi":164,"pm10":315.7,"pm2_5":88.0,"mosquito_risk":3,"arthritis_risk":5,"migraine_risk":3,"frizz_risk":0,"updated_at":"2026-03-01T00:53:41.726269+05:30"},{"city":"Panipat","state":"Haryana","latitude":29.3909,"longitude":76.9635,"temp":16.0,"humidity":74,"rain":0.0,"pressure":980.6,"uv_index":5.5,"wind_gusts":28.8,"aqi":168,"pm10":385.6,"pm2_5":89.2,"mosquito_risk":3,"arthritis_risk":5,"migraine_risk":3,"frizz_risk":0,"updated_at":"2026-03-01T00:53:41.726275+05:30"},{"city":"Mathura","state":"Uttar Pradesh","latitude":27.4924,"longitude":77.6737,"temp":17.5,"humidity":68,"rain":0.0,"pressure":987.0,"uv_index":5.95,"wind_gusts":22.7,"aqi":137,"pm10":330.6,"pm2_5":74.0,"mosquito_risk":3,"arthritis_risk":5,"migraine_risk":3,"frizz_risk":0,"updated_at":"2026-03-01T00:53:41.726282+05:30"},{"city":"Vrindavan","state":"Uttar Pradesh","latitude":27.5823,"longitude":77.7027,"temp":16.9,"humidity":70,"rain":0.0,"pressure":987.6,"uv_index":5.95,"wind_gusts":26.3,"aqi":137,"pm10":330.6,"pm2_5":74.0,"mosquito_risk":3,"arthritis_risk":5,"migraine_risk":3,"frizz_risk":0,"updated_at":"2026-03-01T00:53:41.726288+05:30"},{"city":"Ayodhya","state":"Uttar Pradesh","latitude":26.7922,"longitude":82.1998,"temp":18.2,"humidity":69,"rain":0.0,"pressure":994.9,"uv_index":6.35,"wind_gusts":34.9,"aqi":136,"pm10":70.3,"pm2_5":46.1,"mosquito_risk":3,"arthritis_risk":5,"migraine_risk":7,"frizz_risk":0,"updated_at":"2026-03-01T00:53:41.726294+05:30"},{"city":"Ratlam","state":"Madhya Pradesh","latitude":23.3315,"longitude":75.0367,"temp":20.5,"humidity":62,"rain":0.0,"pressure":954.2,"uv_index":7.2,"wind_gusts":27.0,"aqi":70,"pm10":36.7,"pm2_5":34.6,"mosquito_risk":3,"arthritis_risk":5,"migraine_risk":7,"frizz_risk":0,"updated_at":"2026-03-01T00:53:41.726300+05:30"},{"city":"Sagar","state":"Madhya Pradesh","latitude":23.8388,"longitude":78.7378,"temp":21.4,"humidity":58,"rain":0.0,"pressure":949.4,"uv_index":7.15,"wind_gusts":21.6,"aqi":75,"pm10":17.2,"pm2_5":16.8,"mosquito_risk":0,"arthritis_risk":5,"migraine_risk":7,"frizz_risk":0,"updated_at":"2026-03-01T00:53:41.726307+05:30"},{"city":"Satna","state":"Madhya Pradesh","latitude":24.6005,"longitude":80.8322,"temp":21.3,"humidity":54,"rain":0.0,"pressure":970.8,"uv_index":7.1,"wind_gusts":31.7,"aqi":82,"pm10":42.0,"pm2_5":38.2,"mosquito_risk":0,"arthritis_risk":5,"migraine_risk":7,"frizz_risk":0,"updated_at":"2026-03-01T00:53:41.726313+05:30"},{"city":"Akola","state":"Maharashtra","latitude":20.7002,"longitude":77.0082,"temp":23.1,"humidity":55,"rain":0.0,"pressure":974.6,"uv_index":7.7,"wind_gusts":29.2,"aqi":99,"pm10":27.6,"pm2_5":26.2,"mosquito_risk":0,"arthritis_risk":5,"migraine_risk":7,"frizz_risk":0,"updated_at":"2026-03-01T00:53:41.726321+05:30"},{"city":"Amravati","state":"Maharashtra","latitude":20.9374,"longitude":77.7796,"temp":23.1,"humidity":62,"rain":0.0,"pressure":966.3,"uv_index":7.65,"wind_gusts":26.6,"aqi":120,"pm10":34.9,"pm2_5":33.9,"mosquito_risk":3,"arthritis_risk":5,"migraine_risk":7,"frizz_risk":0,"updated_at":"2026-03-01T00:53:41.726328+05:30"},{"city":"Latur","state":"Maharashtra","latitude":18.4088,"longitude":76.5604,"temp":21.6,"humidity":62,"rain":0.0,"pressure":938.1,"uv_index":8.15,"wind_gusts":21.6,"aqi":71,"pm10":39.6,"pm2_5":39.1,"mosquito_risk":3,"arthritis_risk":5,"migraine_risk":7,"frizz_risk":0,"updated_at":"2026-03-01T00:53:41.726334+05:30"},{"city":"Nanded","state":"Maharashtra","latitude":19.1383,"longitude":77.3091,"temp":24.0,"humidity":60,"rain":0.0,"pressure":967.4,"uv_index":7.9,"wind_gusts":17.6,"aqi":94,"pm10":36.3,"pm2_5":35.9,"mosquito_risk":0,"arthritis_risk":5,"migraine_risk":7,"frizz_risk":0,"updated_at":"2026-03-01T00:53:41.726340+05:30"},{"city":"Gulbarga","state":"Karnataka","latitude":17.3297,"longitude":76.8343,"temp":24.5,"humidity":63,"rain":0.0,"pressure":957.1,"uv_index":8.25,"wind_gusts":15.5,"aqi":77,"pm10":36.7,"pm2_5":36.3,"mosquito_risk":3,"arthritis_risk":5,"migraine_risk":7,"frizz_risk":1,"updated_at":"2026-03-01T00:53:41.726346+05:30"},{"city":"Bidar","state":"Karnataka","latitude":17.9104,"longitude":77.5199,"temp":24.8,"humidity":62,"rain":0.0,"pressure":934.1,"uv_index":8.2,"wind_gusts":20.5,"aqi":99,"pm10":39.6,"pm2_5":39.2,"mosquito_risk":3,"arthritis_risk":5,"migraine_risk":7,"frizz_risk":1,"updated_at":"2026-03-01T00:53:41.726352+05:30"},{"city":"Hospet","state":"Karnataka","latitude":15.2689,"longitude":76.3909,"temp":25.6,"humidity":54,"rain":0.0,"pressure":954.6,"uv_index":8.55,"wind_gusts":24.8,"aqi":124,"pm10":47.8,"pm2_5":47.4,"mosquito_risk":4,"arthritis_risk":5,"migraine_risk":7,"frizz_risk":0,"updated_at":"2026-03-01T00:53:41.726358+05:30"},{"city":"Tirupur","state":"Tamil Nadu","latitude":11.1085,"longitude":77.3411,"temp":24.2,"humidity":81,"rain":0.0,"pressure":974.6,"uv_index":9.1,"wind_gusts":21.2,"aqi":133,"pm10":49.7,"pm2_5":49.2,"mosquito_risk":3,"arthritis_risk":5,"migraine_risk":7,"frizz_risk":1,"updated_at":"2026-03-01T00:53:41.726365+05:30"},{"city":"Alappuzha","state":"Kerala","latitude":9.4981,"longitude":76.3388,"temp":27.0,"humidity":82,"rain":0.0,"pressure":1008.1,"uv_index":8.9,"wind_gusts":36.4,"aqi":105,"pm10":36.1,"pm2_5":35.3,"mosquito_risk":7,"arthritis_risk":0,"migraine_risk":4,"frizz_risk":1,"updated_at":"2026-03-01T00:53:41.726371+05:30"},{"city":"Munnar","state":"Kerala","latitude":10.0889,"longitude":77.0595,"temp":19.1,"humidity":90,"rain":0.0,"pressure":855.0,"uv_index":9.4,"wind_gusts":27.4,"aqi":117,"pm10":40.6,"pm2_5":39.9,"mosquito_risk":3,"arthritis_risk":10,"migraine_risk":7,"frizz_risk":1,"updated_at":"2026-03-01T00:53:41.726378+05:30"},{"city":"Silchar","state":"Assam","latitude":24.8333,"longitude":92.7789,"temp":18.7,"humidity":76,"rain":0.0,"pressure":1004.6,"uv_index":7.3,"wind_gusts":19.4,"aqi":155,"pm10":87.5,"pm2_5":71.0,"mosquito_risk":3,"arthritis_risk":5,"migraine_risk":4,"frizz_risk":0,"updated_at":"2026-03-01T00:53:41.726384+05:30"},{"city":"Dibrugarh","state":"Assam","latitude":27.4728,"longitude":94.912,"temp":19.4,"humidity":83,"rain":0.0,"pressure":996.3,"uv_index":7.05,"wind_gusts":19.1,"aqi":136,"pm10":32.6,"pm2_5":30.9,"mosquito_risk":3,"arthritis_risk":10,"migraine_risk":7,"frizz_risk":1,"updated_at":"2026-03-01T00:53:41.726391+05:30"}]