[{"city":"Delhi","state":"Delhi","latitude":28.6139,"longitude":77.209,"temp":27.1,"humidity":45,"rain":0.0,"pressure":980.8,"uv_index":6.05,"wind_gusts":21.6,"aqi":136,"pm10":165.3,"pm2_5":60.8,"mosquito_risk":4,"arthritis_risk":5,"migraine_risk":7,"frizz_risk":0,"updated_at":"2026-03-28T21:04:52.790438+05:30"},{"city":"Mumbai","state":"Maharashtra","latitude":19.076,"longitude":72.8777,"temp":26.7,"humidity":83,"rain":0.0,"pressure":1008.4,"uv_index":8.0,"wind_gusts":24.5,"aqi":70,"pm10":74.3,"pm2_5":17.5,"mosquito_risk":7,"arthritis_risk":0,"migraine_risk":4,"frizz_risk":1,"updated_at":"2026-03-28T21:04:52.790490+05:30"},{"city":"Bangalore","state":"Karnataka","latitude":12.9716,"longitude":77.5946,"temp":25.8,"humidity":61,"rain":0.0,"pressure":911.3,"uv_index":9.5,"wind_gusts":42.5,"aqi":164,"pm10":70.3,"pm2_5":62.4,"mosquito_risk":7,"arthritis_risk":5,"migraine_risk":7,"frizz_risk":1,"updated_at":"2026-03-28T21:04:52.790506+05:30"},{"city":"Hyderabad","state":"Telangana","latitude":17.385,"longitude":78.4867,"temp":31.9,"humidity":36,"rain":0.0,"pressure":951.5,"uv_index":9.0,"wind_gusts":24.8,"aqi":120,"pm10":49.6,"pm2_5":44.8,"mosquito_risk":0,"arthritis_risk":5,"migraine_risk":7,"frizz_risk":0,"updated_at":"2026-03-28T21:04:52.790518+05:30"},{"city":"Chennai","state":"Tamil Nadu","latitude":13.0827,"longitude":80.2707,"temp":27.2,"humidity":82,"rain":0.0,"pressure":1006.9,"uv_index":9.25,"wind_gusts":34.6,"aqi":67,"pm10":22.1,"pm2_5":15.7,"mosquito_risk":7,"arthritis_risk":5,"migraine_risk":4,"frizz_risk":1,"updated_at":"2026-03-28T21:04:52.790527+05:30"},{"city":"Kolkata","state":"West Bengal","latitude":22.5726,"longitude":88.3639,"temp":24.2,"humidity":88,"rain":0.0,"pressure":1006.6,"uv_index":8.4,"wind_gusts":31.7,"aqi":173,"pm10":54.0,"pm2_5":48.4,"mosquito_risk":3,"arthritis_risk":5,"migraine_risk":4,"frizz_risk":1,"updated_at":"2026-03-28T21:04:52.790536+05:30"},{"city":"Pune","state":"Maharashtra","latitude":18.5204,"longitude":73.8567,"temp":26.7,"humidity":33,"rain":0.0,"pressure":948.2,"uv_index":8.5,"wind_gusts":49.0,"aqi":114,"pm10":19.4,"pm2_5":18.0,"mosquito_risk":4,"arthritis_risk":5,"migraine_risk":7,"frizz_risk":0,"updated_at":"2026-03-28T21:04:52.790548+05:30"},{"city":"Ahmedabad","state":"Gujarat","latitude":23.0225,"longitude":72.5714,"temp":30.5,"humidity":48,"rain":0.0,"pressure":999.8,"uv_index":7.95,"wind_gusts":34.2,"aqi":38,"pm10":19.0,"pm2_5":9.5,"mosquito_risk":0,"arthritis_risk":5,"migraine_risk":7,"frizz_risk":1,"updated_at":"2026-03-28T21:04:52.790555+05:30"},{"city":"Jaipur","state":"Rajasthan","latitude":26.9124,"longitude":75.7873,"temp":29.8,"humidity":35,"rain":0.0,"pressure":957.3,"uv_index":7.45,"wind_gusts":32.4,"aqi":89,"pm10":98.0,"pm2_5":26.0,"mosquito_risk":4,"arthritis_risk":5,"migraine_risk":7,"frizz_risk":0,"updated_at":"2026-03-28T21:04:52.790563+05:30"},{"city":"Lucknow","state":"Uttar Pradesh","latitude":26.8467,"longitude":80.9462,"temp":27.3,"humidity":49,"rain":0.0,"pressure":991.4,"uv_index":7.15,"wind_gusts":28.1,"aqi":132,"pm10":163.0,"pm2_5":44.2,"mosquito_risk":4,"arthritis_risk":5,"migraine_risk":7,"frizz_risk":0,"updated_at":"2026-03-28T21:04:52.790571+05:30"},{"city":"Kanpur","state":"Uttar Pradesh","latitude":26.4499,"longitude":80.3319,"temp":26.5,"humidity":58,"rain":0.0,"pressure":989.6,"uv_index":6.95,"wind_gusts":25.2,"aqi":195,"pm10":300.8,"pm2_5":57.9,"mosquito_risk":4,"arthritis_risk":5,"migraine_risk":7,"frizz_risk":1,"updated_at":"2026-03-28T21:04:52.790580+05:30"},{"city":"Chandigarh","state":"Chandigarh","latitude":30.7333,"longitude":76.7794,"temp":22.8,"humidity":72,"rain":0.0,"pressure":966.7,"uv_index":5.4,"wind_gusts":23.4,"aqi":117,"pm10":33.1,"pm2_5":30.5,"mosquito_risk":3,"arthritis_risk":5,"migraine_risk":3,"frizz_risk":1,"updated_at":"2026-03-28T21:04:52.790587+05:30"},{"city":"Srinagar","state":"Jammu and Kashmir","latitude":34.0837,"longitude":74.7973,"temp":14.2,"humidity":85,"rain":0.0,"pressure":838.3,"uv_index":6.0,"wind_gusts":16.2,"aqi":108,"pm10":51.6,"pm2_5":37.7,"mosquito_risk":3,"arthritis_risk":10,"migraine_risk":3,"frizz_risk":0,"updated_at":"2026-03-28T21:04:52.790595+05:30"},{"city":"Jammu","state":"Jammu and Kashmir","latitude":32.7266,"longitude":74.857,"temp":25.0,"humidity":57,"rain":0.0,"pressure":970.5,"uv_index":7.05,"wind_gusts":16.6,"aqi":113,"pm10":44.0,"pm2_5":42.5,"mosquito_risk":4,"arthritis_risk":5,"migraine_risk":7,"frizz_risk":0,"updated_at":"2026-03-28T21:04:52.790603+05:30"},{"city":"Amritsar","state":"Punjab","latitude":31.634,"longitude":74.8723,"temp":24.0,"humidity":68,"rain":0.0,"pressure":978.7,"uv_index":7.0,"wind_gusts":14.0,"aqi":131,"pm10":30.0,"pm2_5":23.5,"mosquito_risk":3,"arthritis_risk":5,"migraine_risk":7,"frizz_risk":1,"updated_at":"2026-03-28T21:04:52.790609+05:30"},{"city":"Ludhiana","state":"Punjab","latitude":30.901,"longitude":75.8573,"temp":25.4,"humidity":59,"rain":0.0,"pressure":976.8,"uv_index":6.05,"wind_gusts":13.7,"aqi":98,"pm10":69.2,"pm2_5":57.6,"mosquito_risk":4,"arthritis_risk":5,"migraine_risk":7,"frizz_risk":1,"updated_at":"2026-03-28T21:04:52.790617+05:30"},{"city":"Jalandhar","state":"Punjab","latitude":31.326,"longitude":75.5762,"temp":24.0,"humidity":67,"rain":0.0,"pressure":977.9,"uv_index":6.25,"wind_gusts":11.5,"aqi":104,"pm10":60.5,"pm2_5":44.6,"mosquito_risk":3,"arthritis_risk":5,"migraine_risk":7,"frizz_risk":1,"updated_at":"2026-03-28T21:04:52.790626+05:30"},{"city":"Dehradun","state":"Uttarakhand","latitude":30.6284,"longitude":78.0322,"temp":14.9,"humidity":85,"rain":0.0,"pressure":827.6,"uv_index":5.85,"wind_gusts":22.3,"aqi":106,"pm10":30.5,"pm2_5":24.6,"mosquito_risk":3,"arthritis_risk":10,"migraine_risk":3,"frizz_risk":0,"updated_at":"2026-03-28T21:04:52.790633+05:30"},{"city":"Shimla","state":"Himachal Pradesh","latitude":31.1048,"longitude":77.1734,"temp":13.1,"humidity":86,"rain":0.0,"pressure":781.8,"uv_index":6.15,"wind_gusts":33.1,"aqi":116,"pm10":30.7,"pm2_5":26.4,"mosquito_risk":3,"arthritis_risk":10,"migraine_risk":7,"frizz_risk":0,"updated_at":"2026-03-28T21:04:52.790641+05:30"},{"city":"Manali","state":"Himachal Pradesh","latitude":32.2396,"longitude":77.1887,"temp":16.0,"humidity":89,"rain":0.0,"pressure":817.8,"uv_index":8.45,"wind_gusts":29.9,"aqi":132,"pm10":27.9,"pm2_5":12.0,"mosquito_risk":3,"arthritis_risk":10,"migraine_risk":7,"frizz_risk":0,"updated_at":"2026-03-28T21:04:52.790649+05:30"},{"city":"Gurgaon","state":"Haryana","latitude":28.4595,"longitude":77.0266,"temp":25.2,"humidity":56,"rain":0.0,"pressure":979.1,"uv_index":6.2,"wind_gusts":17.3,"aqi":402,"pm10":315.7,"pm2_5":74.7,"mosquito_risk":4,"arthritis_risk":5,"migraine_risk":7,"frizz_risk":0,"updated_at":"2026-03-28T21:04:52.790657+05:30"},{"city":"Noida","state":"Uttar Pradesh","latitude":28.5355,"longitude":77.391,"temp":26.4,"humidity":48,"rain":0.0,"pressure":982.3,"uv_index":6.05,"wind_gusts":21.6,"aqi":402,"pm10":315.7,"pm2_5":74.7,"mosquito_risk":4,"arthritis_risk":5,"migraine_risk":7,"frizz_risk":0,"updated_at":"2026-03-28T21:04:52.790664+05:30"},{"city":"Ghaziabad","state":"Uttar Pradesh","latitude":28.6692,"longitude":77.4538,"temp":25.5,"humidity":53,"rain":0.0,"pressure":980.5,"uv_index":5.95,"wind_gusts":20.5,"aqi":143,"pm10":143.0,"pm2_5":58.4,"mosquito_risk":4,"arthritis_risk":5,"migraine_risk":3,"frizz_risk":0,"updated_at":"2026-03-28T21:04:52.790670+05:30"},{"city":"Faridabad","state":"Haryana","latitude":28.4089,"longitude":77.3178,"temp":25.8,"humidity":50,"rain":0.0,"pressure":981.6,"uv_index":6.15,"wind_gusts":19.8,"aqi":402,"pm10":315.7,"pm2_5":74.7,"mosquito_risk":4,"arthritis_risk":5,"migraine_risk":7,"frizz_risk":0,"updated_at":"2026-03-28T21:04:52.790677+05:30"},{"city":"Meerut","state":"Uttar Pradesh","latitude":28.9845,"longitude":77.7064,"temp":24.0,"humidity":62,"rain":0.0,"pressure":979.4,"uv_index":5.9,"wind_gusts":23.0,"aqi":143,"pm10":143.0,"pm2_5":58.4,"mosquito_risk":3,"arthritis_risk":5,"migraine_risk":3,"frizz_risk":1,"updated_at":"2026-03-28T21:04:52.790684+05:30"},{"city":"Agra","state":"Uttar Pradesh","latitude":27.1767,"longitude":78.0081,"temp":26.0,"humidity":48,"rain":0.0,"pressure":985.3,"uv_index":6.45,"wind_gusts":25.6,"aqi":451,"pm10":473.1,"pm2_5":78.2,"mosquito_risk":4,"arthritis_risk":5,"migraine_risk":7,"frizz_risk":0,"updated_at":"2026-03-28T21:04:52.790692+05:30"},{"city":"Varanasi","state":"Uttar Pradesh","latitude":25.3176,"longitude":82.9739,"temp":24.8,"humidity":58,"rain":0.0,"pressure":995.9,"uv_index":7.8,"wind_gusts":37.4,"aqi":103,"pm10":97.8,"pm2_5":49.0,"mosquito_risk":0,"arthritis_risk":5,"migraine_risk":7,"frizz_risk":0,"updated_at":"2026-03-28T21:04:52.790701+05:30"},{"city":"Prayagraj","state":"Uttar Pradesh","latitude":25.4358,"longitude":81.8463,"temp":26.5,"humidity":52,"rain":0.0,"pressure":994.1,"uv_index":7.7,"wind_gusts":30.2,"aqi":96,"pm10":117.8,"pm2_5":46.7,"mosquito_risk":4,"arthritis_risk":5,"migraine_risk":7,"frizz_risk":0,"updated_at":"2026-03-28T21:04:52.790708+05:30"},{"city":"Gorakhpur","state":"Uttar Pradesh","latitude":26.7606,"longitude":83.3732,"temp":24.3,"humidity":66,"rain":0.0,"pressure":995.7,"uv_index":6.1,"wind_gusts":28.1,"aqi":98,"pm10":55.1,"pm2_5":33.4,"mosquito_risk":3,"arthritis_risk":5,"migraine_risk":7,"frizz_risk":1,"updated_at":"2026-03-28T21:04:52.790715+05:30"},{"city":"Bareilly","state":"Uttar Pradesh","latitude":28.367,"longitude":79.4304,"temp":23.9,"humidity":69,"rain":0.0,"pressure":984.8,"uv_index":6.3,"wind_gusts":24.5,"aqi":99,"pm10":41.3,"pm2_5":32.1,"mosquito_risk":3,"arthritis_risk":5,"migraine_risk":7,"frizz_risk":1,"updated_at":"2026-03-28T21:04:52.790723+05:30"},{"city":"Aligarh","state":"Uttar Pradesh","latitude":27.8974,"longitude":78.088,"temp":23.7,"humidity":61,"rain":0.0,"pressure":983.4,"uv_index":6.2,"wind_gusts":23.8,"aqi":280,"pm10":464.7,"pm2_5":87.8,"mosquito_risk":3,"arthritis_risk":5,"migraine_risk":7,"frizz_risk":0,"updated_at":"2026-03-28T21:04:52.790731+05:30"},{"city":"Moradabad","state":"Uttar Pradesh","latitude":28.8386,"longitude":78.7733,"temp":23.5,"humidity":68,"rain":0.0,"pressure":981.6,"uv_index":6.1,"wind_gusts":23.0,"aqi":105,"pm10":66.4,"pm2_5":51.6,"mosquito_risk":3,"arthritis_risk":5,"migraine_risk":7,"frizz_risk":1,"updated_at":"2026-03-28T21:04:52.790738+05:30"},{"city":"Saharanpur","state":"Uttar Pradesh","latitude":29.9637,"longitude":77.546,"temp":22.9,"humidity":68,"rain":0.0,"pressure":973.6,"uv_index":5.15,"wind_gusts":24.8,"aqi":126,"pm10":81.3,"pm2_5":52.9,"mosquito_risk":3,"arthritis_risk":5,"migraine_risk":3,"frizz_risk":1,"updated_at":"2026-03-28T21:04:52.790747+05:30"},{"city":"Jhansi","state":"Uttar Pradesh","latitude":25.4484,"longitude":78.5685,"temp":26.9,"humidity":40,"rain":0.0,"pressure":975.6,"uv_index":7.05,"wind_gusts":31.3,"aqi":91,"pm10":35.7,"pm2_5":16.7,"mosquito_risk":4,"arthritis_risk":5,"migraine_risk":7,"frizz_risk":0,"updated_at":"2026-03-28T21:04:56.010781+05:30"},{"city":"Surat","state":"Gujarat","latitude":21.1702,"longitude":72.8311,"temp":26.8,"humidity":83,"rain":0.0,"pressure":1005.6,"uv_index":7.75,"wind_gusts":30.6,"aqi":82,"pm10":46.6,"pm2_5":20.8,"mosquito_risk":7,"arthritis_risk":5,"migraine_risk":4,"frizz_risk":1,"updated_at":"2026-03-28T21:04:56.010818+05:30"},{"city":"Vadodara","state":"Gujarat","latitude":22.3072,"longitude":73.1812,"temp":29.4,"humidity":50,"rain":0.0,"pressure":1002.5,"uv_index":7.95,"wind_gusts":32.8,"aqi":61,"pm10":37.0,"pm2_5":21.2,"mosquito_risk":4,"arthritis_risk":5,"migraine_risk":4,"frizz_risk":1,"updated_at":"2026-03-28T21:04:56.010828+05:30"},{"city":"Rajkot","state":"Gujarat","latitude":22.3039,"longitude":70.8022,"temp":27.4,"humidity":65,"rain":0.0,"pressure":993.4,"uv_index":7.8,"wind_gusts":43.2,"aqi":41,"pm10":14.6,"pm2_5":8.1,"mosquito_risk":7,"arthritis_risk":5,"migraine_risk":7,"frizz_risk":1,"updated_at":"2026-03-28T21:04:56.010836+05:30"},{"city":"Thane","state":"Maharashtra","latitude":19.2183,"longitude":72.9781,"temp":25.9,"humidity":85,"rain":0.0,"pressure":1007.9,"uv_index":8.0,"wind_gusts":37.8,"aqi":70,"pm10":74.3,"pm2_5":17.5,"mosquito_risk":7,"arthritis_risk":5,"migraine_risk":4,"frizz_risk":1,"updated_at":"2026-03-28T21:04:56.010843+05:30"},{"city":"Nagpur","state":"Maharashtra","latitude":21.1458,"longitude":79.0882,"temp":29.7,"humidity":29,"rain":0.0,"pressure":970.3,"uv_index":8.5,"wind_gusts":31.3,"aqi":74,"pm10":34.5,"pm2_5":26.9,"mosquito_risk":4,"arthritis_risk":5,"migraine_risk":7,"frizz_risk":0,"updated_at":"2026-03-28T21:04:56.010851+05:30"},{"city":"Nashik","state":"Maharashtra","latitude":19.9975,"longitude":73.7898,"temp":24.4,"humidity":54,"rain":0.0,"pressure":944.8,"uv_index":8.2,"wind_gusts":43.6,"aqi":55,"pm10":25.1,"pm2_5":10.2,"mosquito_risk":0,"arthritis_risk":5,"migraine_risk":7,"frizz_risk":0,"updated_at":"2026-03-28T21:04:56.010858+05:30"},{"city":"Aurangabad","state":"Maharashtra","latitude":19.8762,"longitude":75.3433,"temp":29.3,"humidity":27,"rain":0.0,"pressure":943.0,"uv_index":8.7,"wind_gusts":43.6,"aqi":79,"pm10":18.7,"pm2_5":9.9,"mosquito_risk":4,"arthritis_risk":5,"migraine_risk":7,"frizz_risk":0,"updated_at":"2026-03-28T21:04:56.010865+05:30"},{"city":"Solapur","state":"Maharashtra","latitude":17.6599,"longitude":75.9064,"temp":31.8,"humidity":26,"rain":0.0,"pressure":955.5,"uv_index":8.85,"wind_gusts":31.7,"aqi":89,"pm10":24.3,"pm2_5":20.2,"mosquito_risk":0,"arthritis_risk":5,"migraine_risk":7,"frizz_risk":0,"updated_at":"2026-03-28T21:04:56.010872+05:30"},{"city":"Kolhapur","state":"Maharashtra","latitude":16.705,"longitude":74.2433,"temp":24.6,"humidity":66,"rain":0.0,"pressure":947.8,"uv_index":8.95,"wind_gusts":43.6,"aqi":124,"pm10":27.1,"pm2_5":25.6,"mosquito_risk":3,"arthritis_risk":5,"migraine_risk":7,"frizz_risk":1,"updated_at":"2026-03-28T21:04:56.010880+05:30"},{"city":"Goa","state":"Goa","latitude":15.2993,"longitude":74.124,"temp":28.3,"humidity":73,"rain":0.0,"pressure":997.8,"uv_index":8.95,"wind_gusts":28.4,"aqi":97,"pm10":43.4,"pm2_5":37.3,"mosquito_risk":7,"arthritis_risk":5,"migraine_risk":7,"frizz_risk":1,"updated_at":"2026-03-28T21:04:56.010886+05:30"},{"city":"Jodhpur","state":"Rajasthan","latitude":26.2389,"longitude":73.0243,"temp":28.8,"humidity":41,"rain":0.0,"pressure":980.1,"uv_index":7.8,"wind_gusts":31.0,"aqi":75,"pm10":206.8,"pm2_5":27.5,"mosquito_risk":4,"arthritis_risk":5,"migraine_risk":7,"frizz_risk":0,"updated_at":"2026-03-28T21:04:56.010894+05:30"},{"city":"Udaipur","state":"Rajasthan","latitude":24.5854,"longitude":73.7125,"temp":26.1,"humidity":47,"rain":0.0,"pressure":945.0,"uv_index":8.35,"wind_gusts":33.5,"aqi":39,"pm10":23.0,"pm2_5":7.6,"mosquito_risk":4,"arthritis_risk":5,"migraine_risk":7,"frizz_risk":0,"updated_at":"2026-03-28T21:04:56.010901+05:30"},{"city":"Kota","state":"Rajasthan","latitude":25.2138,"longitude":75.8648,"temp":30.9,"humidity":33,"rain":0.0,"pressure":975.6,"uv_index":7.7,"wind_gusts":24.5,"aqi":57,"pm10":91.3,"pm2_5":28.9,"mosquito_risk":0,"arthritis_risk":5,"migraine_risk":7,"frizz_risk":0,"updated_at":"2026-03-28T21:04:56.010907+05:30"},{"city":"Bikaner","state":"Rajasthan","latitude":28.0229,"longitude":73.3119,"temp":30.8,"humidity":34,"rain":0.0,"pressure":978.0,"uv_index":7.5,"wind_gusts":20.9,"aqi":49,"pm10":42.1,"pm2_5":15.1,"mosquito_risk":0,"arthritis_risk":5,"migraine_risk":7,"frizz_risk":0,"updated_at":"2026-03-28T21:04:56.010914+05:30"},{"city":"Ajmer","state":"Rajasthan","latitude":26.4499,"longitude":74.6399,"temp":26.9,"humidity":44,"rain":0.0,"pressure":952.1,"uv_index":7.75,"wind_gusts":30.6,"aqi":54,"pm10":38.6,"pm2_5":14.2,"mosquito_risk":4,"arthritis_risk":5,"migraine_risk":7,"frizz_risk":0,"updated_at":"2026-03-28T21:04:56.010938+05:30"},{"city":"Gwalior","state":"Madhya Pradesh","latitude":26.2183,"longitude":78.1828,"temp":27.3,"humidity":45,"rain":0.0,"pressure":980.8,"uv_index":6.75,"wind_gusts":36.4,"aqi":139,"pm10":140.2,"pm2_5":32.0,"mosquito_risk":4,"arthritis_risk":5,"migraine_risk":7,"frizz_risk":0,"updated_at":"2026-03-28T21:04:56.010944+05:30"},{"city":"Indore","state":"Madhya Pradesh","latitude":22.7196,"longitude":75.8577,"temp":26.3,"humidity":48,"rain":0.0,"pressure":946.6,"uv_index":8.2,"wind_gusts":37.1,"aqi":55,"pm10":18.9,"pm2_5":13.4,"mosquito_risk":4,"arthritis_risk":5,"migraine_risk":7,"frizz_risk":0,"updated_at":"2026-03-28T21:04:56.010951+05:30"},{"city":"Bhopal","state":"Madhya Pradesh","latitude":23.2599,"longitude":77.4126,"temp":28.7,"humidity":39,"rain":0.0,"pressure":951.4,"uv_index":8.15,"wind_gusts":31.3,"aqi":50,"pm10":19.4,"pm2_5":12.9,"mosquito_risk":4,"arthritis_risk":5,"migraine_risk":7,"frizz_risk":0,"updated_at":"2026-03-28T21:04:56.010958+05:30"},{"city":"Jabalpur","state":"Madhya Pradesh","latitude":23.1815,"longitude":79.9864,"temp":27.5,"humidity":48,"rain":0.0,"pressure":958.8,"uv_index":8.25,"wind_gusts":29.9,"aqi":64,"pm10":34.9,"pm2_5":20.0,"mosquito_risk":4,"arthritis_risk":5,"migraine_risk":7,"frizz_risk":0,"updated_at":"2026-03-28T21:04:56.010965+05:30"},{"city":"Ujjain","state":"Madhya Pradesh","latitude":23.1765,"longitude":75.7885,"temp":26.3,"humidity":52,"rain":0.0,"pressure":952.3,"uv_index":8.15,"wind_gusts":34.2,"aqi":48,"pm10":18.5,"pm2_5":12.3,"mosquito_risk":4,"arthritis_risk":5,"migraine_risk":7,"frizz_risk":0,"updated_at":"2026-03-28T21:04:56.010971+05:30"},{"city":"Visakhapatnam","state":"Andhra Pradesh","latitude":17.6868,"longitude":83.2185,"temp":27.3,"humidity":82,"rain":0.0,"pressure":1002.7,"uv_index":9.0,"wind_gusts":41.8,"aqi":94,"pm10":30.5,"pm2_5":20.6,"mosquito_risk":7,"arthritis_risk":5,"migraine_risk":4,"frizz_risk":1,"updated_at":"2026-03-28T21:04:56.010978+05:30"},{"city":"Vijayawada","state":"Andhra Pradesh","latitude":16.5062,"longitude":80.648,"temp":28.3,"humidity":67,"rain":0.0,"pressure":1001.1,"uv_index":9.05,"wind_gusts":30.6,"aqi":85,"pm10":35.9,"pm2_5":30.0,"mosquito_risk":7,"arthritis_risk":5,"migraine_risk":4,"frizz_risk":1,"updated_at":"2026-03-28T21:04:56.010984+05:30"},{"city":"Guntur","state":"Andhra Pradesh","latitude":16.3067,"longitude":80.4365,"temp":27.4,"humidity":79,"rain":0.0,"pressure":1002.4,"uv_index":9.05,"wind_gusts":33.1,"aqi":93,"pm10":42.0,"pm2_5":36.2,"mosquito_risk":7,"arthritis_risk":5,"migraine_risk":4,"frizz_risk":1,"updated_at":"2026-03-28T21:04:56.010991+05:30"},{"city":"Nellore","state":"Andhra Pradesh","latitude":14.4426,"longitude":79.9865,"temp":27.2,"humidity":82,"rain":0.0,"pressure":1005.0,"uv_index":9.2,"wind_gusts":34.6,"aqi":130,"pm10":23.1,"pm2_5":17.8,"mosquito_risk":7,"arthritis_risk":5,"migraine_risk":4,"frizz_risk":1,"updated_at":"2026-03-28T21:04:56.010998+05:30"},{"city":"Kurnool","state":"Andhra Pradesh","latitude":15.8281,"longitude":78.0373,"temp":33.0,"humidity":33,"rain":0.0,"pressure":974.6,"uv_index":9.05,"wind_gusts":33.5,"aqi":159,"pm10":58.9,"pm2_5":50.6,"mosquito_risk":0,"arthritis_risk":5,"migraine_risk":7,"frizz_risk":0,"updated_at":"2026-03-28T21:04:56.011004+05:30"},{"city":"Kakinada","state":"Andhra Pradesh","latitude":16.9891,"longitude":82.2475,"temp":27.1,"humidity":82,"rain":0.0,"pressure":1006.2,"uv_index":9.0,"wind_gusts":35.3,"aqi":72,"pm10":27.7,"pm2_5":16.5,"mosquito_risk":7,"arthritis_risk":5,"migraine_risk":4,"frizz_risk":1,"updated_at":"2026-03-28T21:04:56.011011+05:30"},{"city":"Tirupati","state":"Andhra Pradesh","latitude":13.6288,"longitude":79.4192,"temp":28.6,"humidity":67,"rain":0.0,"pressure":991.3,"uv_index":9.25,"wind_gusts":27.4,"aqi":109,"pm10":48.1,"pm2_5":42.6,"mosquito_risk":7,"arthritis_risk":5,"migraine_risk":7,"frizz_risk":1,"updated_at":"2026-03-28T21:04:56.011018+05:30"},{"city":"Warangal","state":"Telangana","latitude":17.9689,"longitude":79.5941,"temp":31.8,"humidity":37,"rain":0.0,"pressure":976.4,"uv_index":8.85,"wind_gusts":25.6,"aqi":106,"pm10":63.6,"pm2_5":59.8,"mosquito_risk":0,"arthritis_risk":5,"migraine_risk":7,"frizz_risk":0,"updated_at":"2026-03-28T21:04:56.011024+05:30"},{"city":"Nizamabad","state":"Telangana","latitude":18.6725,"longitude":78.0941,"temp":31.8,"humidity":34,"rain":0.0,"pressure":962.4,"uv_index":8.8,"wind_gusts":26.3,"aqi":86,"pm10":25.5,"pm2_5":23.0,"mosquito_risk":0,"arthritis_risk":5,"migraine_risk":7,"frizz_risk":0,"updated_at":"2026-03-28T21:04:56.011030+05:30"},{"city":"Mysore","state":"Karnataka","latitude":12.2958,"longitude":76.6396,"temp":25.3,"humidity":77,"rain":0.0,"pressure":928.5,"uv_index":9.45,"wind_gusts":45.7,"aqi":162,"pm10":37.3,"pm2_5":34.2,"mosquito_risk":7,"arthritis_risk":5,"migraine_risk":7,"frizz_risk":1,"updated_at":"2026-03-28T21:04:56.011036+05:30"},{"city":"Mangalore","state":"Karnataka","latitude":12.9141,"longitude":74.856,"temp":29.6,"humidity":80,"rain":0.0,"pressure":1006.4,"uv_index":9.1,"wind_gusts":23.8,"aqi":94,"pm10":35.7,"pm2_5":28.5,"mosquito_risk":7,"arthritis_risk":5,"migraine_risk":4,"frizz_risk":1,"updated_at":"2026-03-28T21:04:56.011043+05:30"},{"city":"Hubli-Dharwad","state":"Karnataka","latitude":15.3647,"longitude":75.124,"temp":26.2,"humidity":78,"rain":0.0,"pressure":940.8,"uv_index":8.3,"wind_gusts":44.3,"aqi":139,"pm10":40.4,"pm2_5":36.3,"mosquito_risk":7,"arthritis_risk":5,"migraine_risk":7,"frizz_risk":1,"updated_at":"2026-03-28T21:04:56.011049+05:30"},{"city":"Belgaum","state":"Karnataka","latitude":15.8497,"longitude":74.4977,"temp":24.1,"humidity":82,"rain":0.0,"pressure":925.5,"uv_index":8.95,"wind_gusts":36.4,"aqi":116,"pm10":41.2,"pm2_5":37.1,"mosquito_risk":3,"arthritis_risk":5,"migraine_risk":7,"frizz_risk":1,"updated_at":"2026-03-28T21:04:59.228227+05:30"},{"city":"Coimbatore","state":"Tamil Nadu","latitude":11.0168,"longitude":76.9558,"temp":26.0,"humidity":78,"rain":0.0,"pressure":961.5,"uv_index":9.45,"wind_gusts":54.4,"aqi":102,"pm10":33.3,"pm2_5":31.7,"mosquito_risk":7,"arthritis_risk":5,"migraine_risk":7,"frizz_risk":1,"updated_at":"2026-03-28T21:04:59.228265+05:30"},{"city":"Madurai","state":"Tamil Nadu","latitude":9.9252,"longitude":78.1198,"temp":28.2,"humidity":69,"rain":0.0,"pressure":993.2,"uv_index":9.4,"wind_gusts":38.5,"aqi":119,"pm10":20.6,"pm2_5":18.6,"mosquito_risk":7,"arthritis_risk":5,"migraine_risk":7,"frizz_risk":1,"updated_at":"2026-03-28T21:04:59.228276+05:30"},{"city":"Trichy","state":"Tamil Nadu","latitude":10.7905,"longitude":78.7047,"temp":28.2,"humidity":75,"rain":0.0,"pressure":999.0,"uv_index":9.35,"wind_gusts":25.9,"aqi":86,"pm10":16.8,"pm2_5":15.6,"mosquito_risk":7,"arthritis_risk":5,"migraine_risk":7,"frizz_risk":1,"updated_at":"2026-03-28T21:04:59.228286+05:30"},{"city":"Salem","state":"Tamil Nadu","latitude":11.6643,"longitude":78.146,"temp":31.2,"humidity":44,"rain":0.0,"pressure":976.1,"uv_index":9.4,"wind_gusts":30.6,"aqi":157,"pm10":46.2,"pm2_5":39.2,"mosquito_risk":0,"arthritis_risk":5,"migraine_risk":7,"frizz_risk":1,"updated_at":"2026-03-28T21:04:59.228293+05:30"},{"city":"Tirunelveli","state":"Tamil Nadu","latitude":8.7139,"longitude":77.7567,"temp":29.2,"humidity":66,"rain":0.0,"pressure":1002.7,"uv_index":9.35,"wind_gusts":47.5,"aqi":106,"pm10":25.5,"pm2_5":23.0,"mosquito_risk":7,"arthritis_risk":5,"migraine_risk":4,"frizz_risk":1,"updated_at":"2026-03-28T21:04:59.228301+05:30"},{"city":"Vellore","state":"Tamil Nadu","latitude":12.9165,"longitude":79.1325,"temp":28.6,"humidity":69,"rain":0.0,"pressure":984.1,"uv_index":9.35,"wind_gusts":31.0,"aqi":128,"pm10":54.7,"pm2_5":50.1,"mosquito_risk":7,"arthritis_risk":5,"migraine_risk":7,"frizz_risk":1,"updated_at":"2026-03-28T21:04:59.228308+05:30"},{"city":"Erode","state":"Tamil Nadu","latitude":11.341,"longitude":77.7172,"temp":31.7,"humidity":51,"rain":0.0,"pressure":987.9,"uv_index":9.35,"wind_gusts":26.3,"aqi":143,"pm10":39.5,"pm2_5":34.2,"mosquito_risk":0,"arthritis_risk":5,"migraine_risk":7,"frizz_risk":1,"updated_at":"2026-03-28T21:04:59.228315+05:30"},{"city":"Kochi","state":"Kerala","latitude":9.9312,"longitude":76.2673,"temp":29.2,"humidity":78,"rain":0.0,"pressure":1008.6,"uv_index":8.45,"wind_gusts":31.7,"aqi":94,"pm10":39.0,"pm2_5":36.3,"mosquito_risk":7,"arthritis_risk":0,"migraine_risk":4,"frizz_risk":1,"updated_at":"2026-03-28T21:04:59.228323+05:30"},{"city":"Thiruvananthapuram","state":"Kerala","latitude":8.5241,"longitude":76.9366,"temp":28.7,"humidity":80,"rain":0.0,"pressure":1008.2,"uv_index":9.15,"wind_gusts":39.6,"aqi":65,"pm10":25.8,"pm2_5":20.2,"mosquito_risk":7,"arthritis_risk":0,"migraine_risk":4,"frizz_risk":1,"updated_at":"2026-03-28T21:04:59.228332+05:30"},{"city":"Kozhikode","state":"Kerala","latitude":11.2588,"longitude":75.7804,"temp":29.3,"humidity":80,"rain":0.0,"pressure":1007.5,"uv_index":9.1,"wind_gusts":31.0,"aqi":79,"pm10":31.3,"pm2_5":24.7,"mosquito_risk":7,"arthritis_risk":5,"migraine_risk":4,"frizz_risk":1,"updated_at":"2026-03-28T21:04:59.228339+05:30"},{"city":"Thrissur","state":"Kerala","latitude":10.5276,"longitude":76.2144,"temp":28.5,"humidity":80,"rain":0.0,"pressure":1006.8,"uv_index":9.15,"wind_gusts":36.4,"aqi":89,"pm10":34.3,"pm2_5":30.9,"mosquito_risk":7,"arthritis_risk":5,"migraine_risk":4,"frizz_risk":1,"updated_at":"2026-03-28T21:04:59.228346+05:30"},{"city":"Kannur","state":"Kerala","latitude":11.8745,"longitude":75.3704,"temp":29.2,"humidity":79,"rain":0.0,"pressure":1006.9,"uv_index":9.05,"wind_gusts":31.0,"aqi":88,"pm10":39.6,"pm2_5":32.8,"mosquito_risk":7,"arthritis_risk":5,"migraine_risk":4,"frizz_risk":1,"updated_at":"2026-03-28T21:04:59.228354+05:30"},{"city":"Patna","state":"Bihar","latitude":25.5941,"longitude":85.1376,"temp":25.4,"humidity":69,"rain":0.0,"pressure":999.4,"uv_index":7.9,"wind_gusts":29.5,"aqi":91,"pm10":73.6,"pm2_5":46.6,"mosquito_risk":7,"arthritis_risk":5,"migraine_risk":7,"frizz_risk":1,"updated_at":"2026-03-28T21:04:59.228361+05:30"},{"city":"Gaya","state":"Bihar","latitude":24.7914,"longitude":85.0002,"temp":23.9,"humidity":75,"rain":0.0,"pressure":992.7,"uv_index":7.9,"wind_gusts":24.1,"aqi":81,"pm10":58.0,"pm2_5":32.5,"mosquito_risk":3,"arthritis_risk":5,"migraine_risk":7,"frizz_risk":1,"updated_at":"2026-03-28T21:04:59.228368+05:30"},{"city":"Muzaffarpur","state":"Bihar","latitude":26.1209,"longitude":85.3647,"temp":23.9,"humidity":74,"rain":0.0,"pressure":999.7,"uv_index":7.85,"wind_gusts":20.5,"aqi":108,"pm10":78.5,"pm2_5":54.5,"mosquito_risk":3,"arthritis_risk":5,"migraine_risk":7,"frizz_risk":1,"updated_at":"2026-03-28T21:04:59.228374+05:30"},{"city":"Bhagalpur","state":"Bihar","latitude":25.2425,"longitude":87.0117,"temp":23.1,"humidity":84,"rain":0.0,"pressure":1001.2,"uv_index":7.75,"wind_gusts":25.2,"aqi":106,"pm10":50.6,"pm2_5":36.4,"mosquito_risk":3,"arthritis_risk":5,"migraine_risk":4,"frizz_risk":1,"updated_at":"2026-03-28T21:04:59.228381+05:30"},{"city":"Ranchi","state":"Jharkhand","latitude":23.3441,"longitude":85.3096,"temp":23.7,"humidity":72,"rain":0.0,"pressure":936.3,"uv_index":8.7,"wind_gusts":31.7,"aqi":95,"pm10":40.7,"pm2_5":27.5,"mosquito_risk":3,"arthritis_risk":5,"migraine_risk":7,"frizz_risk":1,"updated_at":"2026-03-28T21:04:59.228388+05:30"},{"city":"Jamshedpur","state":"Jharkhand","latitude":22.8046,"longitude":86.2029,"temp":27.8,"humidity":66,"rain":0.0,"pressure":989.1,"uv_index":8.5,"wind_gusts":32.4,"aqi":167,"pm10":56.8,"pm2_5":51.5,"mosquito_risk":7,"arthritis_risk":5,"migraine_risk":7,"frizz_risk":1,"updated_at":"2026-03-28T21:04:59.228395+05:30"},{"city":"Dhanbad","state":"Jharkhand","latitude":23.7957,"longitude":86.4304,"temp":26.5,"humidity":64,"rain":0.0,"pressure":979.0,"uv_index":8.4,"wind_gusts":30.2,"aqi":152,"pm10":83.8,"pm2_5":75.2,"mosquito_risk":7,"arthritis_risk":5,"migraine_risk":7,"frizz_risk":1,"updated_at":"2026-03-28T21:04:59.228401+05:30"},{"city":"Bokaro","state":"Jharkhand","latitude":23.6693,"longitude":86.1511,"temp":26.0,"humidity":68,"rain":0.0,"pressure":982.9,"uv_index":8.45,"wind_gusts":31.0,"aqi":145,"pm10":72.2,"pm2_5":55.4,"mosquito_risk":7,"arthritis_risk":5,"migraine_risk":7,"frizz_risk":1,"updated_at":"2026-03-28T21:04:59.228408+05:30"},{"city":"Bhubaneswar","state":"Odisha","latitude":20.2961,"longitude":85.8245,"temp":26.7,"humidity":81,"rain":0.0,"pressure":1001.1,"uv_index":8.8,"wind_gusts":31.7,"aqi":130,"pm10":35.5,"pm2_5":28.8,"mosquito_risk":7,"arthritis_risk":5,"migraine_risk":4,"frizz_risk":1,"updated_at":"2026-03-28T21:04:59.228415+05:30"},{"city":"Cuttack","state":"Odisha","latitude":20.4625,"longitude":85.8828,"temp":27.0,"humidity":82,"rain":0.0,"pressure":1002.9,"uv_index":8.8,"wind_gusts":30.6,"aqi":130,"pm10":35.5,"pm2_5":28.8,"mosquito_risk":7,"arthritis_risk":5,"migraine_risk":4,"frizz_risk":1,"updated_at":"2026-03-28T21:04:59.228421+05:30"},{"city":"Rourkela","state":"Odisha","latitude":22.2604,"longitude":84.8536,"temp":28.1,"humidity":65,"rain":0.0,"pressure":982.3,"uv_index":8.4,"wind_gusts":43.9,"aqi":144,"pm10":44.4,"pm2_5":34.7,"mosquito_risk":7,"arthritis_risk":5,"migraine_risk":7,"frizz_risk":1,"updated_at":"2026-03-28T21:04:59.228428+05:30"},{"city":"Raipur","state":"Chhattisgarh","latitude":21.2514,"longitude":81.6296,"temp":30.6,"humidity":34,"rain":0.0,"pressure":971.7,"uv_index":8.55,"wind_gusts":34.6,"aqi":88,"pm10":34.3,"pm2_5":28.9,"mosquito_risk":0,"arthritis_risk":5,"migraine_risk":7,"frizz_risk":0,"updated_at":"2026-03-28T21:04:59.228435+05:30"},{"city":"Bhilai","state":"Chhattisgarh","latitude":21.1938,"longitude":81.3509,"temp":29.8,"humidity":38,"rain":0.0,"pressure":972.0,"uv_index":8.55,"wind_gusts":33.8,"aqi":75,"pm10":28.6,"pm2_5":23.8,"mosquito_risk":4,"arthritis_risk":5,"migraine_risk":7,"frizz_risk":0,"updated_at":"2026-03-28T21:04:59.228442+05:30"},{"city":"Guwahati","state":"Assam","latitude":26.1158,"longitude":91.7086,"temp":21.2,"humidity":92,"rain":0.0,"pressure":1002.6,"uv_index":4.0,"wind_gusts":28.1,"aqi":137,"pm10":34.3,"pm2_5":32.7,"mosquito_risk":3,"arthritis_risk":5,"migraine_risk":0,"frizz_risk":1,"updated_at":"2026-03-28T21:04:59.228448+05:30"},{"city":"Agartala","state":"Tripura","latitude":23.8315,"longitude":91.2868,"temp":21.6,"humidity":93,"rain":0.0,"pressure":1006.8,"uv_index":6.4,"wind_gusts":38.5,"aqi":137,"pm10":79.6,"pm2_5":72.6,"mosquito_risk":3,"arthritis_risk":5,"migraine_risk":4,"frizz_risk":1,"updated_at":"2026-03-28T21:04:59.228455+05:30"},{"city":"Shillong","state":"Meghalaya","latitude":25.5788,"longitude":91.8933,"temp":10.3,"humidity":93,"rain":0.0,"pressure":853.0,"uv_index":3.7,"wind_gusts":43.9,"aqi":85,"pm10":18.4,"pm2_5":15.8,"mosquito_risk":3,"arthritis_risk":10,"migraine_risk":3,"frizz_risk":0,"updated_at":"2026-03-28T21:04:59.228461+05:30"},{"city":"Imphal","state":"Manipur","latitude":24.817,"longitude":93.9368,"temp":15.4,"humidity":91,"rain":0.0,"pressure":922.0,"uv_index":7.7,"wind_gusts":52.6,"aqi":150,"pm10":74.7,"pm2_5":65.2,"mosquito_risk":3,"arthritis_risk":10,"migraine_risk":7,"frizz_risk":0,"updated_at":"2026-03-28T21:04:59.228468+05:30"},{"city":"Aizawl","state":"Mizoram","latitude":23.7271,"longitude":92.7176,"temp":15.3,"humidity":94,"rain":0.0,"pressure":891.1,"uv_index":7.35,"wind_gusts":38.2,"aqi":117,"pm10":58.1,"pm2_5":46.1,"mosquito_risk":3,"arthritis_risk":10,"migraine_risk":7,"frizz_risk":0,"updated_at":"2026-03-28T21:04:59.228474+05:30"},{"city":"Kohima","state":"Nagaland","latitude":25.6701,"longitude":94.1077,"temp":13.3,"humidity":75,"rain":0.0,"pressure":852.4,"uv_index":4.95,"wind_gusts":71.3,"aqi":112,"pm10":37.7,"pm2_5":29.9,"mosquito_risk":3,"arthritis_risk":5,"migraine_risk":3,"frizz_risk":0,"updated_at":"2026-03-28T21:04:59.228481+05:30"},{"city":"Gangtok","state":"Sikkim","latitude":27.3314,"longitude":88.6138,"temp":12.6,"humidity":92,"rain":0.0,"pressure":835.1,"uv_index":6.7,"wind_gusts":17.3,"aqi":79,"pm10":20.8,"pm2_5":18.6,"mosquito_risk":3,"arthritis_risk":10,"migraine_risk":7,"frizz_risk":0,"updated_at":"2026-03-28T21:04:59.228487+05:30"},{"city":"Siliguri","state":"West Bengal","latitude":26.7271,"longitude":88.3953,"temp":17.7,"humidity":92,"rain":0.0,"pressure":995.0,"uv_index":7.5,"wind_gusts":26.3,"aqi":145,"pm10":41.0,"pm2_5":33.8,"mosquito_risk":3,"arthritis_risk":10,"migraine_risk":7,"frizz_risk":1,"updated_at":"2026-03-28T21:05:02.465375+05:30"},{"city":"Durgapur","state":"West Bengal","latitude":23.5204,"longitude":87.3119,"temp":24.5,"humidity":76,"rain":0.0,"pressure":994.8,"uv_index":8.35,"wind_gusts":28.4,"aqi":156,"pm10":71.0,"pm2_5":62.4,"mosquito_risk":3,"arthritis_risk":5,"migraine_risk":7,"frizz_risk":1,"updated_at":"2026-03-28T21:05:02.465413+05:30"},{"city":"Asansol","state":"West Bengal","latitude":23.6739,"longitude":86.9524,"temp":25.1,"humidity":72,"rain":0.0,"pressure":993.3,"uv_index":8.35,"wind_gusts":31.7,"aqi":155,"pm10":78.7,"pm2_5":71.2,"mosquito_risk":7,"arthritis_risk":5,"migraine_risk":7,"frizz_risk":1,"updated_at":"2026-03-28T21:05:02.465424+05:30"},{"city":"Pondicherry","state":"Puducherry","latitude":11.9139,"longitude":79.8145,"temp":25.9,"humidity":91,"rain":0.0,"pressure":1008.1,"uv_index":9.25,"wind_gusts":32.4,"aqi":69,"pm10":18.6,"pm2_5":13.1,"mosquito_risk":7,"arthritis_risk":0,"migraine_risk":4,"frizz_risk":1,"updated_at":"2026-03-28T21:05:02.465433+05:30"},{"city":"Port Blair","state":"Andaman and Nicobar Islands","latitude":11.6234,"longitude":92.7265,"temp":28.5,"humidity":78,"rain":0.0,"pressure":1006.7,"uv_index":9.15,"wind_gusts":27.0,"aqi":69,"pm10":24.4,"pm2_5":19.3,"mosquito_risk":7,"arthritis_risk":5,"migraine_risk":4,"frizz_risk":1,"updated_at":"2026-03-28T21:05:02.465441+05:30"},{"city":"Haridwar","state":"Uttarakhand","latitude":29.9457,"longitude":78.1642,"temp":24.5,"humidity":68,"rain":0.0,"pressure":972.4,"uv_index":5.7,"wind_gusts":27.0,"aqi":117,"pm10":36.9,"pm2_5":32.6,"mosquito_risk":3,"arthritis_risk":5,"migraine_risk":3,"frizz_risk":1,"updated_at":"2026-03-28T21:05:02.465448+05:30"},{"city":"Rishikesh","state":"Uttarakhand","latitude":30.0869,"longitude":78.2676,"temp":23.1,"humidity":70,"rain":0.0,"pressure":965.2,"uv_index":5.8,"wind_gusts":24.8,"aqi":103,"pm10":28.2,"pm2_5":24.4,"mosquito_risk":3,"arthritis_risk":5,"migraine_risk":3,"frizz_risk":1,"updated_at":"2026-03-28T21:05:02.465455+05:30"},{"city":"Nainital","state":"Uttarakhand","latitude":29.3919,"longitude":79.4542,"temp":17.5,"humidity":68,"rain":0.0,"pressure":804.0,"uv_index":4.8,"wind_gusts":25.9,"aqi":109,"pm10":31.3,"pm2_5":26.2,"mosquito_risk":3,"arthritis_risk":5,"migraine_risk":3,"frizz_risk":0,"updated_at":"2026-03-28T21:05:02.465463+05:30"},{"city":"Mussoorie","state":"Uttarakhand","latitude":30.4599,"longitude":78.0664,"temp":15.6,"humidity":78,"rain":0.0,"pressure":800.2,"uv_index":5.65,"wind_gusts":25.9,"aqi":122,"pm10":40.3,"pm2_5":35.4,"mosquito_risk":3,"arthritis_risk":5,"migraine_risk":3,"frizz_risk":0,"updated_at":"2026-03-28T21:05:02.465470+05:30"},{"city":"Dharamshala","state":"Himachal Pradesh","latitude":32.219,"longitude":76.3234,"temp":18.7,"humidity":76,"rain":0.0,"pressure":866.6,"uv_index":6.9,"wind_gusts":16.6,"aqi":104,"pm10":29.5,"pm2_5":20.0,"mosquito_risk":3,"arthritis_risk":5,"migraine_risk":7,"frizz_risk":0,"updated_at":"2026-03-28T21:05:02.465477+05:30"},{"city":"Dalhousie","state":"Himachal Pradesh","latitude":32.5387,"longitude":75.971,"temp":15.8,"humidity":74,"rain":0.0,"pressure":801.0,"uv_index":6.45,"wind_gusts":17.3,"aqi":117,"pm10":32.5,"pm2_5":28.8,"mosquito_risk":3,"arthritis_risk":5,"migraine_risk":7,"frizz_risk":0,"updated_at":"2026-03-28T21:05:02.465486+05:30"},{"city":"Patiala","state":"Punjab","latitude":30.3398,"longitude":76.3869,"temp":23.2,"humidity":66,"rain":0.0,"pressure":976.0,"uv_index":5.95,"wind_gusts":17.3,"aqi":99,"pm10":77.1,"pm2_5":44.1,"mosquito_risk":3,"arthritis_risk":5,"migraine_risk":3,"frizz_risk":1,"updated_at":"2026-03-28T21:05:02.465493+05:30"},{"city":"Bhatinda","state":"Punjab","latitude":30.211,"longitude":74.9455,"temp":24.9,"humidity":56,"rain":0.0,"pressure":980.9,"uv_index":6.95,"wind_gusts":17.3,"aqi":79,"pm10":45.6,"pm2_5":28.9,"mosquito_risk":0,"arthritis_risk":5,"migraine_risk":7,"frizz_risk":0,"updated_at":"2026-03-28T21:05:02.465501+05:30"},{"city":"Rohtak","state":"Haryana","latitude":28.8955,"longitude":76.6066,"temp":24.5,"humidity":60,"rain":0.0,"pressure":979.4,"uv_index":6.25,"wind_gusts":14.8,"aqi":134,"pm10":152.3,"pm2_5":58.2,"mosquito_risk":0,"arthritis_risk":5,"migraine_risk":7,"frizz_risk":1,"updated_at":"2026-03-28T21:05:02.465508+05:30"},{"city":"Panipat","state":"Haryana","latitude":29.3909,"longitude":76.9635,"temp":24.2,"humidity":60,"rain":0.0,"pressure":978.3,"uv_index":5.65,"wind_gusts":19.4,"aqi":199,"pm10":229.6,"pm2_5":74.0,"mosquito_risk":0,"arthritis_risk":5,"migraine_risk":3,"frizz_risk":0,"updated_at":"2026-03-28T21:05:02.465516+05:30"},{"city":"Mathura","state":"Uttar Pradesh","latitude":27.4924,"longitude":77.6737,"temp":24.8,"humidity":58,"rain":0.0,"pressure":984.2,"uv_index":6.5,"wind_gusts":20.9,"aqi":275,"pm10":406.1,"pm2_5":73.1,"mosquito_risk":0,"arthritis_risk":5,"migraine_risk":7,"frizz_risk":0,"updated_at":"2026-03-28T21:05:02.465522+05:30"},{"city":"Vrindavan","state":"Uttar Pradesh","latitude":27.5823,"longitude":77.7027,"temp":24.4,"humidity":59,"rain":0.0,"pressure":984.8,"uv_index":6.5,"wind_gusts":22.7,"aqi":275,"pm10":406.1,"pm2_5":73.1,"mosquito_risk":0,"arthritis_risk":5,"migraine_risk":7,"frizz_risk":0,"updated_at":"2026-03-28T21:05:02.465529+05:30"},{"city":"Ayodhya","state":"Uttar Pradesh","latitude":26.7922,"longitude":82.1998,"temp":25.1,"humidity":64,"rain":0.0,"pressure":993.6,"uv_index":6.85,"wind_gusts":31.7,"aqi":98,"pm10":75.4,"pm2_5":34.9,"mosquito_risk":7,"arthritis_risk":5,"migraine_risk":7,"frizz_risk":1,"updated_at":"2026-03-28T21:05:02.465536+05:30"},{"city":"Ratlam","state":"Madhya Pradesh","latitude":23.3315,"longitude":75.0367,"temp":27.1,"humidity":55,"rain":0.0,"pressure":953.0,"uv_index":8.1,"wind_gusts":37.1,"aqi":50,"pm10":18.7,"pm2_5":10.6,"mosquito_risk":4,"arthritis_risk":5,"migraine_risk":7,"frizz_risk":1,"updated_at":"2026-03-28T21:05:02.465543+05:30"},{"city":"Sagar","state":"Madhya Pradesh","latitude":23.8388,"longitude":78.7378,"temp":28.7,"humidity":42,"rain":0.0,"pressure":948.0,"uv_index":8.15,"wind_gusts":32.4,"aqi":57,"pm10":45.4,"pm2_5":15.5,"mosquito_risk":4,"arthritis_risk":5,"migraine_risk":7,"frizz_risk":0,"updated_at":"2026-03-28T21:05:02.465549+05:30"},{"city":"Satna","state":"Madhya Pradesh","latitude":24.6005,"longitude":80.8322,"temp":27.9,"humidity":37,"rain":0.0,"pressure":969.1,"uv_index":8.1,"wind_gusts":23.8,"aqi":90,"pm10":44.9,"pm2_5":17.1,"mosquito_risk":4,"arthritis_risk":5,"migraine_risk":7,"frizz_risk":0,"updated_at":"2026-03-28T21:05:02.465556+05:30"},{"city":"Akola","state":"Maharashtra","latitude":20.7002,"longitude":77.0082,"temp":28.9,"humidity":39,"rain":0.0,"pressure":973.1,"uv_index":8.5,"wind_gusts":37.1,"aqi":64,"pm10":20.4,"pm2_5":14.4,"mosquito_risk":4,"arthritis_risk":5,"migraine_risk":7,"frizz_risk":0,"updated_at":"2026-03-28T21:05:02.465563+05:30"},{"city":"Amravati","state":"Maharashtra","latitude":20.9374,"longitude":77.7796,"temp":28.6,"humidity":42,"rain":0.0,"pressure":965.0,"uv_index":8.45,"wind_gusts":33.5,"aqi":64,"pm10":18.1,"pm2_5":12.7,"mosquito_risk":4,"arthritis_risk":5,"migraine_risk":7,"frizz_risk":0,"updated_at":"2026-03-28T21:05:02.465571+05:30"},{"city":"Latur","state":"Maharashtra","latitude":18.4088,"longitude":76.5604,"temp":29.7,"humidity":32,"rain":0.0,"pressure":938.2,"uv_index":8.8,"wind_gusts":32.4,"aqi":72,"pm10":28.3,"pm2_5":25.9,"mosquito_risk":4,"arthritis_risk":5,"migraine_risk":7,"frizz_risk":0,"updated_at":"2026-03-28T21:05:02.465577+05:30"},{"city":"Nanded","state":"Maharashtra","latitude":19.1383,"longitude":77.3091,"temp":30.3,"humidity":29,"rain":0.0,"pressure":966.0,"uv_index":8.7,"wind_gusts":28.8,"aqi":76,"pm10":20.3,"pm2_5":18.5,"mosquito_risk":0,"arthritis_risk":5,"migraine_risk":7,"frizz_risk":0,"updated_at":"2026-03-28T21:05:02.465584+05:30"},{"city":"Gulbarga","state":"Karnataka","latitude":17.3297,"longitude":76.8343,"temp":32.1,"humidity":25,"rain":0.0,"pressure":956.9,"uv_index":8.85,"wind_gusts":31.7,"aqi":99,"pm10":31.1,"pm2_5":25.6,"mosquito_risk":0,"arthritis_risk":5,"migraine_risk":7,"frizz_risk":0,"updated_at":"2026-03-28T21:05:02.465590+05:30"},{"city":"Bidar","state":"Karnataka","latitude":17.9104,"longitude":77.5199,"temp":31.0,"humidity":28,"rain":0.0,"pressure":933.9,"uv_index":8.85,"wind_gusts":28.8,"aqi":103,"pm10":21.8,"pm2_5":20.1,"mosquito_risk":0,"arthritis_risk":5,"migraine_risk":7,"frizz_risk":0,"updated_at":"2026-03-28T21:05:02.465596+05:30"},{"city":"Hospet","state":"Karnataka","latitude":15.2689,"longitude":76.3909,"temp":29.9,"humidity":51,"rain":0.0,"pressure":955.3,"uv_index":9.1,"wind_gusts":45.0,"aqi":134,"pm10":64.7,"pm2_5":55.2,"mosquito_risk":4,"arthritis_risk":5,"migraine_risk":7,"frizz_risk":1,"updated_at":"2026-03-28T21:05:02.465602+05:30"},{"city":"Tirupur","state":"Tamil Nadu","latitude":11.1085,"longitude":77.3411,"temp":28.1,"humidity":73,"rain":0.0,"pressure":974.5,"uv_index":9.45,"wind_gusts":43.2,"aqi":137,"pm10":45.2,"pm2_5":40.6,"mosquito_risk":7,"arthritis_risk":5,"migraine_risk":7,"frizz_risk":1,"updated_at":"2026-03-28T21:05:02.465607+05:30"},{"city":"Alappuzha","state":"Kerala","latitude":9.4981,"longitude":76.3388,"temp":28.9,"humidity":80,"rain":0.0,"pressure":1008.8,"uv_index":9.1,"wind_gusts":31.3,"aqi":86,"pm10":37.0,"pm2_5":31.1,"mosquito_risk":7,"arthritis_risk":0,"migraine_risk":4,"frizz_risk":1,"updated_at":"2026-03-28T21:05:02.465614+05:30"},{"city":"Munnar","state":"Kerala","latitude":10.0889,"longitude":77.0595,"temp":21.6,"humidity":93,"rain":0.0,"pressure":857.2,"uv_index":9.7,"wind_gusts":40.7,"aqi":79,"pm10":44.4,"pm2_5":40.7,"mosquito_risk":3,"arthritis_risk":5,"migraine_risk":7,"frizz_risk":1,"updated_at":"2026-03-28T21:05:02.465621+05:30"},{"city":"Silchar","state":"Assam","latitude":24.8333,"longitude":92.7789,"temp":21.7,"humidity":89,"rain":0.0,"pressure":1005.7,"uv_index":4.85,"wind_gusts":30.2,"aqi":153,"pm10":93.4,"pm2_5":82.2,"mosquito_risk":3,"arthritis_risk":5,"migraine_risk":0,"frizz_risk":1,"updated_at":"2026-03-28T21:05:02.465627+05:30"},{"city":"Dibrugarh","state":"Assam","latitude":27.4728,"longitude":94.912,"temp":19.4,"humidity":89,"rain":0.0,"pressure":996.9,"uv_index":4.5,"wind_gusts":31.0,"aqi":109,"pm10":40.3,"pm2_5":32.1,"mosquito_risk":3,"arthritis_risk":10,"migraine_risk":3,"frizz_risk":1,"updated_at":"2026-03-28T21:05:02.465633+05:30"}]