[{"city":"Delhi","state":"Delhi","latitude":28.6139,"longitude":77.209,"temp":25.0,"humidity":53,"rain":0.0,"pressure":987.7,"uv_index":5.55,"wind_gusts":24.1,"aqi":184,"pm10":203.5,"pm2_5":73.1,"mosquito_risk":4,"arthritis_risk":5,"migraine_risk":3,"frizz_risk":0,"updated_at":"2026-03-18T10:29:19.822114+05:30"},{"city":"Mumbai","state":"Maharashtra","latitude":19.076,"longitude":72.8777,"temp":26.2,"humidity":79,"rain":0.0,"pressure":1011.7,"uv_index":7.75,"wind_gusts":22.3,"aqi":82,"pm10":54.4,"pm2_5":31.9,"mosquito_risk":7,"arthritis_risk":0,"migraine_risk":4,"frizz_risk":1,"updated_at":"2026-03-18T10:29:19.822155+05:30"},{"city":"Bangalore","state":"Karnataka","latitude":12.9716,"longitude":77.5946,"temp":25.4,"humidity":59,"rain":0.0,"pressure":915.4,"uv_index":9.4,"wind_gusts":27.7,"aqi":101,"pm10":34.5,"pm2_5":31.4,"mosquito_risk":4,"arthritis_risk":5,"migraine_risk":7,"frizz_risk":1,"updated_at":"2026-03-18T10:29:19.822170+05:30"},{"city":"Hyderabad","state":"Telangana","latitude":17.385,"longitude":78.4867,"temp":26.6,"humidity":53,"rain":0.0,"pressure":957.9,"uv_index":8.5,"wind_gusts":29.5,"aqi":77,"pm10":22.4,"pm2_5":16.8,"mosquito_risk":4,"arthritis_risk":5,"migraine_risk":7,"frizz_risk":1,"updated_at":"2026-03-18T10:29:19.822180+05:30"},{"city":"Chennai","state":"Tamil Nadu","latitude":13.0827,"longitude":80.2707,"temp":30.4,"humidity":59,"rain":0.0,"pressure":1011.8,"uv_index":9.1,"wind_gusts":32.0,"aqi":38,"pm10":10.7,"pm2_5":7.4,"mosquito_risk":0,"arthritis_risk":0,"migraine_risk":4,"frizz_risk":1,"updated_at":"2026-03-18T10:29:19.822188+05:30"},{"city":"Kolkata","state":"West Bengal","latitude":22.5726,"longitude":88.3639,"temp":29.7,"humidity":72,"rain":0.0,"pressure":1010.9,"uv_index":8.1,"wind_gusts":34.9,"aqi":52,"pm10":20.8,"pm2_5":16.8,"mosquito_risk":7,"arthritis_risk":0,"migraine_risk":4,"frizz_risk":1,"updated_at":"2026-03-18T10:29:19.822197+05:30"},{"city":"Pune","state":"Maharashtra","latitude":18.5204,"longitude":73.8567,"temp":29.5,"humidity":38,"rain":0.0,"pressure":951.6,"uv_index":8.3,"wind_gusts":41.8,"aqi":101,"pm10":52.6,"pm2_5":35.0,"mosquito_risk":4,"arthritis_risk":5,"migraine_risk":7,"frizz_risk":0,"updated_at":"2026-03-18T10:29:19.822210+05:30"},{"city":"Ahmedabad","state":"Gujarat","latitude":23.0225,"longitude":72.5714,"temp":28.4,"humidity":59,"rain":0.0,"pressure":1005.7,"uv_index":7.15,"wind_gusts":23.0,"aqi":73,"pm10":32.5,"pm2_5":17.9,"mosquito_risk":4,"arthritis_risk":5,"migraine_risk":4,"frizz_risk":1,"updated_at":"2026-03-18T10:29:19.822217+05:30"},{"city":"Jaipur","state":"Rajasthan","latitude":26.9124,"longitude":75.7873,"temp":28.3,"humidity":41,"rain":0.0,"pressure":963.5,"uv_index":7.0,"wind_gusts":30.2,"aqi":179,"pm10":439.6,"pm2_5":77.5,"mosquito_risk":4,"arthritis_risk":5,"migraine_risk":7,"frizz_risk":0,"updated_at":"2026-03-18T10:29:19.822224+05:30"},{"city":"Lucknow","state":"Uttar Pradesh","latitude":26.8467,"longitude":80.9462,"temp":29.5,"humidity":39,"rain":0.0,"pressure":998.1,"uv_index":6.7,"wind_gusts":23.4,"aqi":94,"pm10":72.9,"pm2_5":39.0,"mosquito_risk":4,"arthritis_risk":5,"migraine_risk":7,"frizz_risk":0,"updated_at":"2026-03-18T10:29:19.822232+05:30"},{"city":"Kanpur","state":"Uttar Pradesh","latitude":26.4499,"longitude":80.3319,"temp":29.3,"humidity":43,"rain":0.0,"pressure":996.3,"uv_index":6.4,"wind_gusts":23.8,"aqi":104,"pm10":83.8,"pm2_5":35.3,"mosquito_risk":4,"arthritis_risk":5,"migraine_risk":7,"frizz_risk":0,"updated_at":"2026-03-18T10:29:19.822240+05:30"},{"city":"Chandigarh","state":"Chandigarh","latitude":30.7333,"longitude":76.7794,"temp":24.1,"humidity":52,"rain":0.0,"pressure":973.0,"uv_index":5.85,"wind_gusts":27.4,"aqi":94,"pm10":51.6,"pm2_5":24.6,"mosquito_risk":0,"arthritis_risk":5,"migraine_risk":3,"frizz_risk":0,"updated_at":"2026-03-18T10:29:19.822248+05:30"},{"city":"Srinagar","state":"Jammu and Kashmir","latitude":34.0837,"longitude":74.7973,"temp":7.8,"humidity":79,"rain":0.1,"pressure":843.9,"uv_index":3.1,"wind_gusts":23.4,"aqi":135,"pm10":69.8,"pm2_5":44.5,"mosquito_risk":6,"arthritis_risk":5,"migraine_risk":3,"frizz_risk":0,"updated_at":"2026-03-18T10:29:19.822255+05:30"},{"city":"Jammu","state":"Jammu and Kashmir","latitude":32.7266,"longitude":74.857,"temp":20.6,"humidity":73,"rain":0.0,"pressure":976.6,"uv_index":2.55,"wind_gusts":19.8,"aqi":91,"pm10":44.0,"pm2_5":25.9,"mosquito_risk":3,"arthritis_risk":5,"migraine_risk":3,"frizz_risk":0,"updated_at":"2026-03-18T10:29:19.822263+05:30"},{"city":"Amritsar","state":"Punjab","latitude":31.634,"longitude":74.8723,"temp":18.0,"humidity":76,"rain":0.0,"pressure":985.5,"uv_index":2.85,"wind_gusts":22.3,"aqi":121,"pm10":52.5,"pm2_5":42.5,"mosquito_risk":3,"arthritis_risk":5,"migraine_risk":3,"frizz_risk":0,"updated_at":"2026-03-18T10:29:19.822271+05:30"},{"city":"Ludhiana","state":"Punjab","latitude":30.901,"longitude":75.8573,"temp":21.5,"humidity":61,"rain":0.0,"pressure":983.4,"uv_index":5.75,"wind_gusts":29.5,"aqi":130,"pm10":58.0,"pm2_5":41.6,"mosquito_risk":3,"arthritis_risk":5,"migraine_risk":3,"frizz_risk":0,"updated_at":"2026-03-18T10:29:19.822278+05:30"},{"city":"Jalandhar","state":"Punjab","latitude":31.326,"longitude":75.5762,"temp":19.5,"humidity":72,"rain":0.0,"pressure":984.6,"uv_index":4.35,"wind_gusts":32.0,"aqi":123,"pm10":74.0,"pm2_5":46.3,"mosquito_risk":3,"arthritis_risk":5,"migraine_risk":3,"frizz_risk":0,"updated_at":"2026-03-18T10:29:19.822287+05:30"},{"city":"Dehradun","state":"Uttarakhand","latitude":30.6284,"longitude":78.0322,"temp":17.2,"humidity":39,"rain":0.0,"pressure":832.8,"uv_index":5.35,"wind_gusts":25.9,"aqi":52,"pm10":23.5,"pm2_5":6.0,"mosquito_risk":0,"arthritis_risk":5,"migraine_risk":3,"frizz_risk":0,"updated_at":"2026-03-18T10:29:19.822294+05:30"},{"city":"Shimla","state":"Himachal Pradesh","latitude":31.1048,"longitude":77.1734,"temp":15.8,"humidity":38,"rain":0.0,"pressure":787.0,"uv_index":5.4,"wind_gusts":36.4,"aqi":63,"pm10":28.7,"pm2_5":12.1,"mosquito_risk":0,"arthritis_risk":5,"migraine_risk":3,"frizz_risk":0,"updated_at":"2026-03-18T10:29:19.822301+05:30"},{"city":"Manali","state":"Himachal Pradesh","latitude":32.2396,"longitude":77.1887,"temp":10.9,"humidity":88,"rain":0.2,"pressure":820.5,"uv_index":6.4,"wind_gusts":25.9,"aqi":44,"pm10":22.8,"pm2_5":7.3,"mosquito_risk":6,"arthritis_risk":10,"migraine_risk":7,"frizz_risk":0,"updated_at":"2026-03-18T10:29:19.822309+05:30"},{"city":"Gurgaon","state":"Haryana","latitude":28.4595,"longitude":77.0266,"temp":25.0,"humidity":58,"rain":0.0,"pressure":986.3,"uv_index":5.65,"wind_gusts":23.4,"aqi":564,"pm10":618.4,"pm2_5":120.1,"mosquito_risk":4,"arthritis_risk":5,"migraine_risk":3,"frizz_risk":1,"updated_at":"2026-03-18T10:29:19.822316+05:30"},{"city":"Noida","state":"Uttar Pradesh","latitude":28.5355,"longitude":77.391,"temp":25.6,"humidity":52,"rain":0.0,"pressure":989.4,"uv_index":5.5,"wind_gusts":23.8,"aqi":564,"pm10":618.4,"pm2_5":120.1,"mosquito_risk":4,"arthritis_risk":5,"migraine_risk":3,"frizz_risk":0,"updated_at":"2026-03-18T10:29:19.822322+05:30"},{"city":"Ghaziabad","state":"Uttar Pradesh","latitude":28.6692,"longitude":77.4538,"temp":24.3,"humidity":61,"rain":0.0,"pressure":987.6,"uv_index":5.15,"wind_gusts":19.8,"aqi":152,"pm10":165.3,"pm2_5":67.3,"mosquito_risk":3,"arthritis_risk":5,"migraine_risk":3,"frizz_risk":1,"updated_at":"2026-03-18T10:29:19.822329+05:30"},{"city":"Faridabad","state":"Haryana","latitude":28.4089,"longitude":77.3178,"temp":26.3,"humidity":50,"rain":0.0,"pressure":988.5,"uv_index":5.75,"wind_gusts":26.6,"aqi":564,"pm10":618.4,"pm2_5":120.1,"mosquito_risk":4,"arthritis_risk":5,"migraine_risk":3,"frizz_risk":0,"updated_at":"2026-03-18T10:29:19.822336+05:30"},{"city":"Meerut","state":"Uttar Pradesh","latitude":28.9845,"longitude":77.7064,"temp":25.2,"humidity":55,"rain":0.0,"pressure":986.3,"uv_index":5.9,"wind_gusts":18.7,"aqi":152,"pm10":165.3,"pm2_5":67.3,"mosquito_risk":4,"arthritis_risk":5,"migraine_risk":3,"frizz_risk":0,"updated_at":"2026-03-18T10:29:19.822343+05:30"},{"city":"Agra","state":"Uttar Pradesh","latitude":27.1767,"longitude":78.0081,"temp":28.7,"humidity":48,"rain":0.0,"pressure":992.2,"uv_index":6.6,"wind_gusts":29.9,"aqi":393,"pm10":312.9,"pm2_5":72.9,"mosquito_risk":4,"arthritis_risk":5,"migraine_risk":7,"frizz_risk":1,"updated_at":"2026-03-18T10:29:19.822350+05:30"},{"city":"Varanasi","state":"Uttar Pradesh","latitude":25.3176,"longitude":82.9739,"temp":30.4,"humidity":46,"rain":0.0,"pressure":1001.3,"uv_index":6.8,"wind_gusts":28.4,"aqi":96,"pm10":48.0,"pm2_5":37.3,"mosquito_risk":0,"arthritis_risk":5,"migraine_risk":4,"frizz_risk":1,"updated_at":"2026-03-18T10:29:19.822359+05:30"},{"city":"Prayagraj","state":"Uttar Pradesh","latitude":25.4358,"longitude":81.8463,"temp":28.0,"humidity":58,"rain":0.0,"pressure":999.9,"uv_index":7.05,"wind_gusts":23.8,"aqi":106,"pm10":60.5,"pm2_5":40.3,"mosquito_risk":4,"arthritis_risk":5,"migraine_risk":7,"frizz_risk":1,"updated_at":"2026-03-18T10:29:19.822365+05:30"},{"city":"Gorakhpur","state":"Uttar Pradesh","latitude":26.7606,"longitude":83.3732,"temp":28.5,"humidity":55,"rain":0.0,"pressure":1001.9,"uv_index":7.0,"wind_gusts":22.7,"aqi":112,"pm10":80.8,"pm2_5":39.9,"mosquito_risk":4,"arthritis_risk":5,"migraine_risk":4,"frizz_risk":1,"updated_at":"2026-03-18T10:29:19.822371+05:30"},{"city":"Bareilly","state":"Uttar Pradesh","latitude":28.367,"longitude":79.4304,"temp":25.5,"humidity":60,"rain":0.0,"pressure":991.9,"uv_index":6.15,"wind_gusts":20.9,"aqi":109,"pm10":79.4,"pm2_5":49.1,"mosquito_risk":4,"arthritis_risk":5,"migraine_risk":7,"frizz_risk":1,"updated_at":"2026-03-18T10:29:19.822378+05:30"},{"city":"Aligarh","state":"Uttar Pradesh","latitude":27.8974,"longitude":78.088,"temp":27.9,"humidity":44,"rain":0.0,"pressure":990.3,"uv_index":6.25,"wind_gusts":23.4,"aqi":154,"pm10":213.7,"pm2_5":70.5,"mosquito_risk":4,"arthritis_risk":5,"migraine_risk":7,"frizz_risk":0,"updated_at":"2026-03-18T10:29:19.822384+05:30"},{"city":"Moradabad","state":"Uttar Pradesh","latitude":28.8386,"longitude":78.7733,"temp":25.4,"humidity":55,"rain":0.0,"pressure":988.4,"uv_index":5.6,"wind_gusts":17.3,"aqi":147,"pm10":69.6,"pm2_5":58.9,"mosquito_risk":4,"arthritis_risk":5,"migraine_risk":3,"frizz_risk":0,"updated_at":"2026-03-18T10:29:19.822390+05:30"},{"city":"Saharanpur","state":"Uttar Pradesh","latitude":29.9637,"longitude":77.546,"temp":24.3,"humidity":45,"rain":0.0,"pressure":980.1,"uv_index":5.5,"wind_gusts":25.6,"aqi":118,"pm10":79.2,"pm2_5":50.8,"mosquito_risk":0,"arthritis_risk":5,"migraine_risk":3,"frizz_risk":0,"updated_at":"2026-03-18T10:29:19.822396+05:30"},{"city":"Jhansi","state":"Uttar Pradesh","latitude":25.4484,"longitude":78.5685,"temp":29.3,"humidity":40,"rain":0.0,"pressure":982.1,"uv_index":7.2,"wind_gusts":35.3,"aqi":72,"pm10":108.0,"pm2_5":35.7,"mosquito_risk":4,"arthritis_risk":5,"migraine_risk":7,"frizz_risk":0,"updated_at":"2026-03-18T10:29:23.157303+05:30"},{"city":"Surat","state":"Gujarat","latitude":21.1702,"longitude":72.8311,"temp":26.8,"humidity":75,"rain":0.0,"pressure":1010.6,"uv_index":7.45,"wind_gusts":28.1,"aqi":85,"pm10":43.8,"pm2_5":32.2,"mosquito_risk":7,"arthritis_risk":0,"migraine_risk":4,"frizz_risk":1,"updated_at":"2026-03-18T10:29:23.157333+05:30"},{"city":"Vadodara","state":"Gujarat","latitude":22.3072,"longitude":73.1812,"temp":29.4,"humidity":57,"rain":0.0,"pressure":1008.1,"uv_index":7.6,"wind_gusts":26.3,"aqi":69,"pm10":31.1,"pm2_5":19.4,"mosquito_risk":4,"arthritis_risk":0,"migraine_risk":4,"frizz_risk":1,"updated_at":"2026-03-18T10:29:23.157343+05:30"},{"city":"Rajkot","state":"Gujarat","latitude":22.3039,"longitude":70.8022,"temp":28.4,"humidity":58,"rain":0.0,"pressure":997.3,"uv_index":7.4,"wind_gusts":42.1,"aqi":48,"pm10":23.8,"pm2_5":11.2,"mosquito_risk":4,"arthritis_risk":5,"migraine_risk":7,"frizz_risk":1,"updated_at":"2026-03-18T10:29:23.157351+05:30"},{"city":"Thane","state":"Maharashtra","latitude":19.2183,"longitude":72.9781,"temp":27.6,"humidity":68,"rain":0.0,"pressure":1011.2,"uv_index":7.7,"wind_gusts":34.9,"aqi":82,"pm10":54.4,"pm2_5":31.9,"mosquito_risk":7,"arthritis_risk":0,"migraine_risk":4,"frizz_risk":1,"updated_at":"2026-03-18T10:29:23.157359+05:30"},{"city":"Nagpur","state":"Maharashtra","latitude":21.1458,"longitude":79.0882,"temp":28.4,"humidity":56,"rain":0.0,"pressure":977.9,"uv_index":5.85,"wind_gusts":40.7,"aqi":83,"pm10":40.9,"pm2_5":36.3,"mosquito_risk":4,"arthritis_risk":5,"migraine_risk":3,"frizz_risk":1,"updated_at":"2026-03-18T10:29:23.157367+05:30"},{"city":"Nashik","state":"Maharashtra","latitude":19.9975,"longitude":73.7898,"temp":27.6,"humidity":45,"rain":0.0,"pressure":948.7,"uv_index":7.95,"wind_gusts":24.5,"aqi":64,"pm10":32.2,"pm2_5":13.9,"mosquito_risk":4,"arthritis_risk":5,"migraine_risk":7,"frizz_risk":0,"updated_at":"2026-03-18T10:29:23.157374+05:30"},{"city":"Aurangabad","state":"Maharashtra","latitude":19.8762,"longitude":75.3433,"temp":29.5,"humidity":30,"rain":0.0,"pressure":947.9,"uv_index":8.5,"wind_gusts":31.7,"aqi":62,"pm10":21.9,"pm2_5":15.8,"mosquito_risk":4,"arthritis_risk":5,"migraine_risk":7,"frizz_risk":0,"updated_at":"2026-03-18T10:29:23.157381+05:30"},{"city":"Solapur","state":"Maharashtra","latitude":17.6599,"longitude":75.9064,"temp":28.1,"humidity":52,"rain":0.0,"pressure":961.3,"uv_index":8.6,"wind_gusts":35.6,"aqi":107,"pm10":40.6,"pm2_5":35.7,"mosquito_risk":4,"arthritis_risk":5,"migraine_risk":7,"frizz_risk":1,"updated_at":"2026-03-18T10:29:23.157388+05:30"},{"city":"Kolhapur","state":"Maharashtra","latitude":16.705,"longitude":74.2433,"temp":26.6,"humidity":47,"rain":0.0,"pressure":951.4,"uv_index":5.6,"wind_gusts":37.4,"aqi":109,"pm10":66.4,"pm2_5":43.3,"mosquito_risk":4,"arthritis_risk":5,"migraine_risk":3,"frizz_risk":0,"updated_at":"2026-03-18T10:29:23.157395+05:30"},{"city":"Goa","state":"Goa","latitude":15.2993,"longitude":74.124,"temp":30.1,"humidity":58,"rain":0.0,"pressure":1001.1,"uv_index":8.7,"wind_gusts":26.6,"aqi":81,"pm10":59.1,"pm2_5":24.4,"mosquito_risk":0,"arthritis_risk":5,"migraine_risk":4,"frizz_risk":1,"updated_at":"2026-03-18T10:29:23.157402+05:30"},{"city":"Jodhpur","state":"Rajasthan","latitude":26.2389,"longitude":73.0243,"temp":28.8,"humidity":32,"rain":0.0,"pressure":985.9,"uv_index":6.25,"wind_gusts":43.2,"aqi":81,"pm10":44.7,"pm2_5":17.5,"mosquito_risk":4,"arthritis_risk":5,"migraine_risk":7,"frizz_risk":0,"updated_at":"2026-03-18T10:29:23.157408+05:30"},{"city":"Udaipur","state":"Rajasthan","latitude":24.5854,"longitude":73.7125,"temp":29.4,"humidity":25,"rain":0.0,"pressure":949.8,"uv_index":7.95,"wind_gusts":28.4,"aqi":34,"pm10":15.1,"pm2_5":6.2,"mosquito_risk":4,"arthritis_risk":5,"migraine_risk":7,"frizz_risk":0,"updated_at":"2026-03-18T10:29:23.157415+05:30"},{"city":"Kota","state":"Rajasthan","latitude":25.2138,"longitude":75.8648,"temp":29.0,"humidity":38,"rain":0.0,"pressure":982.4,"uv_index":7.35,"wind_gusts":22.3,"aqi":85,"pm10":148.5,"pm2_5":47.1,"mosquito_risk":4,"arthritis_risk":5,"migraine_risk":7,"frizz_risk":0,"updated_at":"2026-03-18T10:29:23.157421+05:30"},{"city":"Bikaner","state":"Rajasthan","latitude":28.0229,"longitude":73.3119,"temp":23.7,"humidity":50,"rain":0.0,"pressure":985.5,"uv_index":6.25,"wind_gusts":37.8,"aqi":68,"pm10":182.1,"pm2_5":39.1,"mosquito_risk":0,"arthritis_risk":5,"migraine_risk":7,"frizz_risk":0,"updated_at":"2026-03-18T10:29:23.157427+05:30"},{"city":"Ajmer","state":"Rajasthan","latitude":26.4499,"longitude":74.6399,"temp":28.3,"humidity":38,"rain":0.0,"pressure":958.0,"uv_index":7.25,"wind_gusts":37.8,"aqi":95,"pm10":322.2,"pm2_5":61.5,"mosquito_risk":4,"arthritis_risk":5,"migraine_risk":7,"frizz_risk":0,"updated_at":"2026-03-18T10:29:23.157433+05:30"},{"city":"Gwalior","state":"Madhya Pradesh","latitude":26.2183,"longitude":78.1828,"temp":28.0,"humidity":49,"rain":0.0,"pressure":987.4,"uv_index":6.9,"wind_gusts":27.0,"aqi":135,"pm10":184.9,"pm2_5":61.7,"mosquito_risk":4,"arthritis_risk":5,"migraine_risk":7,"frizz_risk":1,"updated_at":"2026-03-18T10:29:23.157440+05:30"},{"city":"Indore","state":"Madhya Pradesh","latitude":22.7196,"longitude":75.8577,"temp":29.4,"humidity":30,"rain":0.0,"pressure":951.8,"uv_index":7.85,"wind_gusts":30.2,"aqi":56,"pm10":13.6,"pm2_5":13.6,"mosquito_risk":4,"arthritis_risk":5,"migraine_risk":7,"frizz_risk":0,"updated_at":"2026-03-18T10:29:23.157446+05:30"},{"city":"Bhopal","state":"Madhya Pradesh","latitude":23.2599,"longitude":77.4126,"temp":30.6,"humidity":28,"rain":0.0,"pressure":957.7,"uv_index":7.75,"wind_gusts":27.4,"aqi":59,"pm10":17.1,"pm2_5":14.3,"mosquito_risk":0,"arthritis_risk":5,"migraine_risk":7,"frizz_risk":0,"updated_at":"2026-03-18T10:29:23.157452+05:30"},{"city":"Jabalpur","state":"Madhya Pradesh","latitude":23.1815,"longitude":79.9864,"temp":29.2,"humidity":51,"rain":0.0,"pressure":965.6,"uv_index":7.3,"wind_gusts":29.9,"aqi":57,"pm10":32.5,"pm2_5":29.3,"mosquito_risk":4,"arthritis_risk":5,"migraine_risk":7,"frizz_risk":1,"updated_at":"2026-03-18T10:29:23.157458+05:30"},{"city":"Ujjain","state":"Madhya Pradesh","latitude":23.1765,"longitude":75.7885,"temp":27.9,"humidity":40,"rain":0.0,"pressure":957.5,"uv_index":7.75,"wind_gusts":21.6,"aqi":55,"pm10":15.0,"pm2_5":14.4,"mosquito_risk":4,"arthritis_risk":5,"migraine_risk":7,"frizz_risk":0,"updated_at":"2026-03-18T10:29:23.157465+05:30"},{"city":"Visakhapatnam","state":"Andhra Pradesh","latitude":17.6868,"longitude":83.2185,"temp":30.0,"humidity":57,"rain":0.0,"pressure":1009.3,"uv_index":8.3,"wind_gusts":33.1,"aqi":50,"pm10":14.1,"pm2_5":12.4,"mosquito_risk":4,"arthritis_risk":0,"migraine_risk":4,"frizz_risk":1,"updated_at":"2026-03-18T10:29:23.157471+05:30"},{"city":"Vijayawada","state":"Andhra Pradesh","latitude":16.5062,"longitude":80.648,"temp":28.4,"humidity":68,"rain":0.0,"pressure":1008.4,"uv_index":8.4,"wind_gusts":19.4,"aqi":51,"pm10":11.2,"pm2_5":8.8,"mosquito_risk":7,"arthritis_risk":0,"migraine_risk":4,"frizz_risk":1,"updated_at":"2026-03-18T10:29:23.157477+05:30"},{"city":"Guntur","state":"Andhra Pradesh","latitude":16.3067,"longitude":80.4365,"temp":29.3,"humidity":64,"rain":0.0,"pressure":1009.4,"uv_index":8.3,"wind_gusts":26.6,"aqi":45,"pm10":11.8,"pm2_5":9.3,"mosquito_risk":7,"arthritis_risk":0,"migraine_risk":4,"frizz_risk":1,"updated_at":"2026-03-18T10:29:23.157484+05:30"},{"city":"Nellore","state":"Andhra Pradesh","latitude":14.4426,"longitude":79.9865,"temp":30.3,"humidity":59,"rain":0.0,"pressure":1011.0,"uv_index":8.95,"wind_gusts":29.9,"aqi":38,"pm10":11.9,"pm2_5":8.4,"mosquito_risk":0,"arthritis_risk":0,"migraine_risk":4,"frizz_risk":1,"updated_at":"2026-03-18T10:29:23.157490+05:30"},{"city":"Kurnool","state":"Andhra Pradesh","latitude":15.8281,"longitude":78.0373,"temp":28.8,"humidity":54,"rain":0.0,"pressure":981.6,"uv_index":8.65,"wind_gusts":42.1,"aqi":71,"pm10":11.4,"pm2_5":9.4,"mosquito_risk":4,"arthritis_risk":5,"migraine_risk":7,"frizz_risk":1,"updated_at":"2026-03-18T10:29:23.157497+05:30"},{"city":"Kakinada","state":"Andhra Pradesh","latitude":16.9891,"longitude":82.2475,"temp":29.3,"humidity":65,"rain":0.0,"pressure":1013.2,"uv_index":8.55,"wind_gusts":28.4,"aqi":29,"pm10":7.1,"pm2_5":5.2,"mosquito_risk":7,"arthritis_risk":0,"migraine_risk":4,"frizz_risk":1,"updated_at":"2026-03-18T10:29:23.157504+05:30"},{"city":"Tirupati","state":"Andhra Pradesh","latitude":13.6288,"longitude":79.4192,"temp":29.0,"humidity":57,"rain":0.0,"pressure":996.6,"uv_index":9.0,"wind_gusts":35.6,"aqi":64,"pm10":19.2,"pm2_5":14.8,"mosquito_risk":4,"arthritis_risk":5,"migraine_risk":7,"frizz_risk":1,"updated_at":"2026-03-18T10:29:23.157510+05:30"},{"city":"Warangal","state":"Telangana","latitude":17.9689,"longitude":79.5941,"temp":27.7,"humidity":67,"rain":0.0,"pressure":983.8,"uv_index":7.85,"wind_gusts":27.0,"aqi":54,"pm10":13.6,"pm2_5":11.0,"mosquito_risk":7,"arthritis_risk":5,"migraine_risk":7,"frizz_risk":1,"updated_at":"2026-03-18T10:29:23.157516+05:30"},{"city":"Nizamabad","state":"Telangana","latitude":18.6725,"longitude":78.0941,"temp":27.6,"humidity":53,"rain":0.0,"pressure":969.6,"uv_index":8.1,"wind_gusts":34.2,"aqi":114,"pm10":25.4,"pm2_5":22.8,"mosquito_risk":4,"arthritis_risk":5,"migraine_risk":7,"frizz_risk":1,"updated_at":"2026-03-18T10:29:23.157522+05:30"},{"city":"Mysore","state":"Karnataka","latitude":12.2958,"longitude":76.6396,"temp":26.1,"humidity":60,"rain":0.0,"pressure":931.7,"uv_index":9.3,"wind_gusts":20.5,"aqi":100,"pm10":39.8,"pm2_5":37.0,"mosquito_risk":4,"arthritis_risk":5,"migraine_risk":7,"frizz_risk":1,"updated_at":"2026-03-18T10:29:23.157528+05:30"},{"city":"Mangalore","state":"Karnataka","latitude":12.9141,"longitude":74.856,"temp":28.0,"humidity":77,"rain":0.0,"pressure":1009.6,"uv_index":9.0,"wind_gusts":19.1,"aqi":69,"pm10":26.8,"pm2_5":20.0,"mosquito_risk":7,"arthritis_risk":0,"migraine_risk":4,"frizz_risk":1,"updated_at":"2026-03-18T10:29:23.157534+05:30"},{"city":"Hubli-Dharwad","state":"Karnataka","latitude":15.3647,"longitude":75.124,"temp":26.9,"humidity":62,"rain":0.0,"pressure":944.2,"uv_index":8.95,"wind_gusts":28.8,"aqi":103,"pm10":44.0,"pm2_5":39.1,"mosquito_risk":7,"arthritis_risk":5,"migraine_risk":7,"frizz_risk":1,"updated_at":"2026-03-18T10:29:23.157541+05:30"},{"city":"Belgaum","state":"Karnataka","latitude":15.8497,"longitude":74.4977,"temp":25.6,"humidity":60,"rain":0.0,"pressure":928.9,"uv_index":9.0,"wind_gusts":27.4,"aqi":85,"pm10":40.3,"pm2_5":27.6,"mosquito_risk":4,"arthritis_risk":5,"migraine_risk":7,"frizz_risk":1,"updated_at":"2026-03-18T10:29:26.496463+05:30"},{"city":"Coimbatore","state":"Tamil Nadu","latitude":11.0168,"longitude":76.9558,"temp":27.9,"humidity":60,"rain":0.0,"pressure":965.5,"uv_index":8.95,"wind_gusts":28.8,"aqi":93,"pm10":28.3,"pm2_5":25.8,"mosquito_risk":4,"arthritis_risk":5,"migraine_risk":7,"frizz_risk":1,"updated_at":"2026-03-18T10:29:26.496496+05:30"},{"city":"Madurai","state":"Tamil Nadu","latitude":9.9252,"longitude":78.1198,"temp":29.3,"humidity":65,"rain":0.0,"pressure":996.8,"uv_index":8.25,"wind_gusts":24.1,"aqi":65,"pm10":16.3,"pm2_5":14.8,"mosquito_risk":7,"arthritis_risk":5,"migraine_risk":7,"frizz_risk":1,"updated_at":"2026-03-18T10:29:26.496508+05:30"},{"city":"Trichy","state":"Tamil Nadu","latitude":10.7905,"longitude":78.7047,"temp":30.0,"humidity":62,"rain":0.0,"pressure":1003.8,"uv_index":9.1,"wind_gusts":24.1,"aqi":56,"pm10":16.6,"pm2_5":13.1,"mosquito_risk":7,"arthritis_risk":5,"migraine_risk":4,"frizz_risk":1,"updated_at":"2026-03-18T10:29:26.496518+05:30"},{"city":"Salem","state":"Tamil Nadu","latitude":11.6643,"longitude":78.146,"temp":29.9,"humidity":54,"rain":0.0,"pressure":981.4,"uv_index":9.2,"wind_gusts":22.0,"aqi":79,"pm10":23.9,"pm2_5":20.7,"mosquito_risk":4,"arthritis_risk":5,"migraine_risk":7,"frizz_risk":1,"updated_at":"2026-03-18T10:29:26.496527+05:30"},{"city":"Tirunelveli","state":"Tamil Nadu","latitude":8.7139,"longitude":77.7567,"temp":29.0,"humidity":71,"rain":0.0,"pressure":1007.0,"uv_index":7.85,"wind_gusts":26.6,"aqi":70,"pm10":23.2,"pm2_5":21.9,"mosquito_risk":7,"arthritis_risk":5,"migraine_risk":4,"frizz_risk":1,"updated_at":"2026-03-18T10:29:26.496536+05:30"},{"city":"Vellore","state":"Tamil Nadu","latitude":12.9165,"longitude":79.1325,"temp":29.3,"humidity":51,"rain":0.0,"pressure":989.2,"uv_index":9.15,"wind_gusts":36.0,"aqi":68,"pm10":19.4,"pm2_5":15.5,"mosquito_risk":4,"arthritis_risk":5,"migraine_risk":7,"frizz_risk":1,"updated_at":"2026-03-18T10:29:26.496544+05:30"},{"city":"Erode","state":"Tamil Nadu","latitude":11.341,"longitude":77.7172,"temp":30.0,"humidity":62,"rain":0.0,"pressure":993.0,"uv_index":9.2,"wind_gusts":26.6,"aqi":62,"pm10":13.3,"pm2_5":10.7,"mosquito_risk":7,"arthritis_risk":5,"migraine_risk":7,"frizz_risk":1,"updated_at":"2026-03-18T10:29:26.496554+05:30"},{"city":"Kochi","state":"Kerala","latitude":9.9312,"longitude":76.2673,"temp":27.1,"humidity":79,"rain":0.0,"pressure":1011.4,"uv_index":9.1,"wind_gusts":22.7,"aqi":92,"pm10":30.7,"pm2_5":29.3,"mosquito_risk":7,"arthritis_risk":0,"migraine_risk":4,"frizz_risk":1,"updated_at":"2026-03-18T10:29:26.496562+05:30"},{"city":"Thiruvananthapuram","state":"Kerala","latitude":8.5241,"longitude":76.9366,"temp":27.1,"humidity":81,"rain":0.0,"pressure":1011.0,"uv_index":8.05,"wind_gusts":16.2,"aqi":57,"pm10":15.3,"pm2_5":14.3,"mosquito_risk":7,"arthritis_risk":0,"migraine_risk":4,"frizz_risk":1,"updated_at":"2026-03-18T10:29:26.496569+05:30"},{"city":"Kozhikode","state":"Kerala","latitude":11.2588,"longitude":75.7804,"temp":28.5,"humidity":76,"rain":0.0,"pressure":1010.8,"uv_index":8.3,"wind_gusts":27.0,"aqi":84,"pm10":30.0,"pm2_5":27.9,"mosquito_risk":7,"arthritis_risk":0,"migraine_risk":4,"frizz_risk":1,"updated_at":"2026-03-18T10:29:26.496576+05:30"},{"city":"Thrissur","state":"Kerala","latitude":10.5276,"longitude":76.2144,"temp":30.3,"humidity":65,"rain":0.0,"pressure":1009.8,"uv_index":8.05,"wind_gusts":31.3,"aqi":85,"pm10":24.2,"pm2_5":22.6,"mosquito_risk":3,"arthritis_risk":0,"migraine_risk":4,"frizz_risk":1,"updated_at":"2026-03-18T10:29:26.496584+05:30"},{"city":"Kannur","state":"Kerala","latitude":11.8745,"longitude":75.3704,"temp":29.2,"humidity":69,"rain":0.0,"pressure":1010.0,"uv_index":9.05,"wind_gusts":28.4,"aqi":93,"pm10":27.4,"pm2_5":22.5,"mosquito_risk":7,"arthritis_risk":0,"migraine_risk":4,"frizz_risk":1,"updated_at":"2026-03-18T10:29:26.496591+05:30"},{"city":"Patna","state":"Bihar","latitude":25.5941,"longitude":85.1376,"temp":30.0,"humidity":52,"rain":0.0,"pressure":1004.9,"uv_index":7.4,"wind_gusts":23.8,"aqi":139,"pm10":78.2,"pm2_5":54.7,"mosquito_risk":4,"arthritis_risk":5,"migraine_risk":4,"frizz_risk":1,"updated_at":"2026-03-18T10:29:26.496598+05:30"},{"city":"Gaya","state":"Bihar","latitude":24.7914,"longitude":85.0002,"temp":31.1,"humidity":49,"rain":0.0,"pressure":998.0,"uv_index":6.3,"wind_gusts":37.8,"aqi":89,"pm10":45.1,"pm2_5":28.9,"mosquito_risk":0,"arthritis_risk":5,"migraine_risk":7,"frizz_risk":1,"updated_at":"2026-03-18T10:29:26.496604+05:30"},{"city":"Muzaffarpur","state":"Bihar","latitude":26.1209,"longitude":85.3647,"temp":28.6,"humidity":59,"rain":0.0,"pressure":1005.5,"uv_index":7.2,"wind_gusts":21.6,"aqi":151,"pm10":88.2,"pm2_5":65.7,"mosquito_risk":4,"arthritis_risk":5,"migraine_risk":4,"frizz_risk":1,"updated_at":"2026-03-18T10:29:26.496610+05:30"},{"city":"Bhagalpur","state":"Bihar","latitude":25.2425,"longitude":87.0117,"temp":29.6,"humidity":68,"rain":0.0,"pressure":1005.7,"uv_index":7.55,"wind_gusts":27.0,"aqi":150,"pm10":70.1,"pm2_5":54.8,"mosquito_risk":7,"arthritis_risk":5,"migraine_risk":4,"frizz_risk":1,"updated_at":"2026-03-18T10:29:26.496617+05:30"},{"city":"Ranchi","state":"Jharkhand","latitude":23.3441,"longitude":85.3096,"temp":28.3,"humidity":47,"rain":0.0,"pressure":942.9,"uv_index":7.85,"wind_gusts":44.3,"aqi":110,"pm10":53.3,"pm2_5":41.0,"mosquito_risk":4,"arthritis_risk":5,"migraine_risk":7,"frizz_risk":0,"updated_at":"2026-03-18T10:29:26.496646+05:30"},{"city":"Jamshedpur","state":"Jharkhand","latitude":22.8046,"longitude":86.2029,"temp":31.0,"humidity":57,"rain":0.0,"pressure":995.8,"uv_index":8.2,"wind_gusts":41.8,"aqi":137,"pm10":67.5,"pm2_5":55.2,"mosquito_risk":0,"arthritis_risk":5,"migraine_risk":7,"frizz_risk":1,"updated_at":"2026-03-18T10:29:26.496659+05:30"},{"city":"Dhanbad","state":"Jharkhand","latitude":23.7957,"longitude":86.4304,"temp":31.9,"humidity":42,"rain":0.0,"pressure":984.3,"uv_index":8.05,"wind_gusts":51.1,"aqi":152,"pm10":65.0,"pm2_5":49.6,"mosquito_risk":0,"arthritis_risk":5,"migraine_risk":7,"frizz_risk":1,"updated_at":"2026-03-18T10:29:26.496669+05:30"},{"city":"Bokaro","state":"Jharkhand","latitude":23.6693,"longitude":86.1511,"temp":32.1,"humidity":43,"rain":0.0,"pressure":988.5,"uv_index":8.0,"wind_gusts":43.2,"aqi":147,"pm10":64.3,"pm2_5":51.3,"mosquito_risk":0,"arthritis_risk":5,"migraine_risk":7,"frizz_risk":1,"updated_at":"2026-03-18T10:29:26.496680+05:30"},{"city":"Bhubaneswar","state":"Odisha","latitude":20.2961,"longitude":85.8245,"temp":30.3,"humidity":63,"rain":0.0,"pressure":1008.1,"uv_index":8.45,"wind_gusts":26.3,"aqi":50,"pm10":13.4,"pm2_5":10.7,"mosquito_risk":3,"arthritis_risk":0,"migraine_risk":4,"frizz_risk":1,"updated_at":"2026-03-18T10:29:26.496692+05:30"},{"city":"Cuttack","state":"Odisha","latitude":20.4625,"longitude":85.8828,"temp":30.5,"humidity":66,"rain":0.0,"pressure":1009.7,"uv_index":8.5,"wind_gusts":22.3,"aqi":50,"pm10":13.4,"pm2_5":10.7,"mosquito_risk":3,"arthritis_risk":0,"migraine_risk":4,"frizz_risk":1,"updated_at":"2026-03-18T10:29:26.496704+05:30"},{"city":"Rourkela","state":"Odisha","latitude":22.2604,"longitude":84.8536,"temp":29.1,"humidity":64,"rain":0.0,"pressure":990.6,"uv_index":8.1,"wind_gusts":48.2,"aqi":151,"pm10":64.3,"pm2_5":50.2,"mosquito_risk":7,"arthritis_risk":5,"migraine_risk":7,"frizz_risk":1,"updated_at":"2026-03-18T10:29:26.496714+05:30"},{"city":"Raipur","state":"Chhattisgarh","latitude":21.2514,"longitude":81.6296,"temp":29.9,"humidity":49,"rain":0.0,"pressure":980.0,"uv_index":7.7,"wind_gusts":48.2,"aqi":115,"pm10":28.0,"pm2_5":26.4,"mosquito_risk":4,"arthritis_risk":5,"migraine_risk":7,"frizz_risk":1,"updated_at":"2026-03-18T10:29:26.496720+05:30"},{"city":"Bhilai","state":"Chhattisgarh","latitude":21.1938,"longitude":81.3509,"temp":30.0,"humidity":51,"rain":0.0,"pressure":980.2,"uv_index":7.35,"wind_gusts":42.5,"aqi":112,"pm10":22.9,"pm2_5":21.8,"mosquito_risk":4,"arthritis_risk":5,"migraine_risk":7,"frizz_risk":1,"updated_at":"2026-03-18T10:29:26.496726+05:30"},{"city":"Guwahati","state":"Assam","latitude":26.1158,"longitude":91.7086,"temp":24.0,"humidity":73,"rain":0.0,"pressure":1007.7,"uv_index":7.5,"wind_gusts":38.9,"aqi":106,"pm10":46.3,"pm2_5":39.8,"mosquito_risk":3,"arthritis_risk":5,"migraine_risk":4,"frizz_risk":1,"updated_at":"2026-03-18T10:29:26.496733+05:30"},{"city":"Agartala","state":"Tripura","latitude":23.8315,"longitude":91.2868,"temp":28.6,"humidity":61,"rain":0.0,"pressure":1012.2,"uv_index":7.85,"wind_gusts":29.2,"aqi":68,"pm10":13.9,"pm2_5":10.7,"mosquito_risk":7,"arthritis_risk":0,"migraine_risk":4,"frizz_risk":1,"updated_at":"2026-03-18T10:29:26.496743+05:30"},{"city":"Shillong","state":"Meghalaya","latitude":25.5788,"longitude":91.8933,"temp":18.0,"humidity":57,"rain":0.0,"pressure":860.6,"uv_index":7.4,"wind_gusts":61.9,"aqi":79,"pm10":38.3,"pm2_5":29.5,"mosquito_risk":0,"arthritis_risk":5,"migraine_risk":7,"frizz_risk":0,"updated_at":"2026-03-18T10:29:26.496756+05:30"},{"city":"Imphal","state":"Manipur","latitude":24.817,"longitude":93.9368,"temp":20.1,"humidity":77,"rain":0.0,"pressure":928.6,"uv_index":8.1,"wind_gusts":66.2,"aqi":82,"pm10":31.8,"pm2_5":21.7,"mosquito_risk":3,"arthritis_risk":5,"migraine_risk":7,"frizz_risk":0,"updated_at":"2026-03-18T10:29:26.496769+05:30"},{"city":"Aizawl","state":"Mizoram","latitude":23.7271,"longitude":92.7176,"temp":23.4,"humidity":54,"rain":0.0,"pressure":898.7,"uv_index":8.05,"wind_gusts":44.3,"aqi":76,"pm10":29.5,"pm2_5":18.8,"mosquito_risk":0,"arthritis_risk":5,"migraine_risk":7,"frizz_risk":0,"updated_at":"2026-03-18T10:29:26.496781+05:30"},{"city":"Kohima","state":"Nagaland","latitude":25.6701,"longitude":94.1077,"temp":18.2,"humidity":62,"rain":0.0,"pressure":859.6,"uv_index":7.95,"wind_gusts":100.8,"aqi":70,"pm10":33.3,"pm2_5":22.9,"mosquito_risk":3,"arthritis_risk":5,"migraine_risk":7,"frizz_risk":0,"updated_at":"2026-03-18T10:29:26.496792+05:30"},{"city":"Gangtok","state":"Sikkim","latitude":27.3314,"longitude":88.6138,"temp":17.4,"humidity":56,"rain":0.0,"pressure":841.6,"uv_index":7.7,"wind_gusts":19.8,"aqi":69,"pm10":39.7,"pm2_5":18.3,"mosquito_risk":0,"arthritis_risk":5,"migraine_risk":7,"frizz_risk":0,"updated_at":"2026-03-18T10:29:26.496798+05:30"},{"city":"Siliguri","state":"West Bengal","latitude":26.7271,"longitude":88.3953,"temp":23.7,"humidity":57,"rain":0.0,"pressure":999.4,"uv_index":7.5,"wind_gusts":34.6,"aqi":123,"pm10":62.9,"pm2_5":36.9,"mosquito_risk":0,"arthritis_risk":5,"migraine_risk":7,"frizz_risk":0,"updated_at":"2026-03-18T10:29:29.832874+05:30"},{"city":"Durgapur","state":"West Bengal","latitude":23.5204,"longitude":87.3119,"temp":31.9,"humidity":48,"rain":0.0,"pressure":999.8,"uv_index":8.05,"wind_gusts":49.7,"aqi":134,"pm10":75.9,"pm2_5":67.1,"mosquito_risk":0,"arthritis_risk":5,"migraine_risk":7,"frizz_risk":1,"updated_at":"2026-03-18T10:29:29.832904+05:30"},{"city":"Asansol","state":"West Bengal","latitude":23.6739,"longitude":86.9524,"temp":32.3,"humidity":45,"rain":0.0,"pressure":998.1,"uv_index":8.05,"wind_gusts":50.8,"aqi":135,"pm10":68.2,"pm2_5":53.6,"mosquito_risk":0,"arthritis_risk":5,"migraine_risk":7,"frizz_risk":1,"updated_at":"2026-03-18T10:29:29.832913+05:30"},{"city":"Pondicherry","state":"Puducherry","latitude":11.9139,"longitude":79.8145,"temp":29.7,"humidity":66,"rain":0.0,"pressure":1013.0,"uv_index":9.1,"wind_gusts":25.2,"aqi":34,"pm10":15.8,"pm2_5":11.0,"mosquito_risk":7,"arthritis_risk":0,"migraine_risk":4,"frizz_risk":1,"updated_at":"2026-03-18T10:29:29.832921+05:30"},{"city":"Port Blair","state":"Andaman and Nicobar Islands","latitude":11.6234,"longitude":92.7265,"temp":28.1,"humidity":78,"rain":0.0,"pressure":1010.9,"uv_index":9.05,"wind_gusts":22.7,"aqi":66,"pm10":14.6,"pm2_5":11.8,"mosquito_risk":7,"arthritis_risk":0,"migraine_risk":4,"frizz_risk":1,"updated_at":"2026-03-18T10:29:29.832928+05:30"},{"city":"Haridwar","state":"Uttarakhand","latitude":29.9457,"longitude":78.1642,"temp":26.2,"humidity":37,"rain":0.0,"pressure":978.4,"uv_index":5.7,"wind_gusts":22.0,"aqi":74,"pm10":36.9,"pm2_5":16.6,"mosquito_risk":4,"arthritis_risk":5,"migraine_risk":3,"frizz_risk":0,"updated_at":"2026-03-18T10:29:29.832936+05:30"},{"city":"Rishikesh","state":"Uttarakhand","latitude":30.0869,"longitude":78.2676,"temp":26.6,"humidity":34,"rain":0.0,"pressure":971.0,"uv_index":5.6,"wind_gusts":18.4,"aqi":60,"pm10":38.9,"pm2_5":12.6,"mosquito_risk":4,"arthritis_risk":5,"migraine_risk":3,"frizz_risk":0,"updated_at":"2026-03-18T10:29:29.832943+05:30"},{"city":"Nainital","state":"Uttarakhand","latitude":29.3919,"longitude":79.4542,"temp":21.4,"humidity":24,"rain":0.0,"pressure":810.4,"uv_index":6.0,"wind_gusts":34.6,"aqi":66,"pm10":44.8,"pm2_5":13.0,"mosquito_risk":0,"arthritis_risk":5,"migraine_risk":3,"frizz_risk":0,"updated_at":"2026-03-18T10:29:29.832950+05:30"},{"city":"Mussoorie","state":"Uttarakhand","latitude":30.4599,"longitude":78.0664,"temp":18.5,"humidity":38,"rain":0.0,"pressure":805.8,"uv_index":5.45,"wind_gusts":29.5,"aqi":70,"pm10":24.0,"pm2_5":13.2,"mosquito_risk":0,"arthritis_risk":5,"migraine_risk":3,"frizz_risk":0,"updated_at":"2026-03-18T10:29:29.832957+05:30"},{"city":"Dharamshala","state":"Himachal Pradesh","latitude":32.219,"longitude":76.3234,"temp":20.2,"humidity":38,"rain":0.0,"pressure":871.2,"uv_index":4.35,"wind_gusts":29.9,"aqi":48,"pm10":19.3,"pm2_5":5.7,"mosquito_risk":0,"arthritis_risk":5,"migraine_risk":3,"frizz_risk":0,"updated_at":"2026-03-18T10:29:29.832964+05:30"},{"city":"Dalhousie","state":"Himachal Pradesh","latitude":32.5387,"longitude":75.971,"temp":16.7,"humidity":33,"rain":0.0,"pressure":805.7,"uv_index":4.4,"wind_gusts":31.0,"aqi":81,"pm10":67.5,"pm2_5":22.8,"mosquito_risk":0,"arthritis_risk":5,"migraine_risk":3,"frizz_risk":0,"updated_at":"2026-03-18T10:29:29.832972+05:30"},{"city":"Patiala","state":"Punjab","latitude":30.3398,"longitude":76.3869,"temp":24.1,"humidity":63,"rain":0.0,"pressure":982.8,"uv_index":4.95,"wind_gusts":28.8,"aqi":139,"pm10":272.9,"pm2_5":60.5,"mosquito_risk":3,"arthritis_risk":5,"migraine_risk":3,"frizz_risk":1,"updated_at":"2026-03-18T10:29:29.832979+05:30"},{"city":"Bhatinda","state":"Punjab","latitude":30.211,"longitude":74.9455,"temp":21.1,"humidity":63,"rain":0.0,"pressure":988.7,"uv_index":6.15,"wind_gusts":27.7,"aqi":116,"pm10":37.4,"pm2_5":31.5,"mosquito_risk":3,"arthritis_risk":5,"migraine_risk":7,"frizz_risk":0,"updated_at":"2026-03-18T10:29:29.832985+05:30"},{"city":"Rohtak","state":"Haryana","latitude":28.8955,"longitude":76.6066,"temp":24.1,"humidity":64,"rain":0.0,"pressure":986.6,"uv_index":5.35,"wind_gusts":28.8,"aqi":301,"pm10":280.3,"pm2_5":73.3,"mosquito_risk":3,"arthritis_risk":5,"migraine_risk":3,"frizz_risk":1,"updated_at":"2026-03-18T10:29:29.832992+05:30"},{"city":"Panipat","state":"Haryana","latitude":29.3909,"longitude":76.9635,"temp":24.9,"humidity":62,"rain":0.0,"pressure":985.0,"uv_index":5.95,"wind_gusts":29.9,"aqi":257,"pm10":202.1,"pm2_5":59.5,"mosquito_risk":3,"arthritis_risk":5,"migraine_risk":3,"frizz_risk":1,"updated_at":"2026-03-18T10:29:29.832998+05:30"},{"city":"Mathura","state":"Uttar Pradesh","latitude":27.4924,"longitude":77.6737,"temp":28.2,"humidity":46,"rain":0.0,"pressure":991.4,"uv_index":6.5,"wind_gusts":32.4,"aqi":502,"pm10":410.7,"pm2_5":101.7,"mosquito_risk":4,"arthritis_risk":5,"migraine_risk":7,"frizz_risk":0,"updated_at":"2026-03-18T10:29:29.833005+05:30"},{"city":"Vrindavan","state":"Uttar Pradesh","latitude":27.5823,"longitude":77.7027,"temp":28.3,"humidity":44,"rain":0.0,"pressure":991.9,"uv_index":6.4,"wind_gusts":30.2,"aqi":502,"pm10":410.7,"pm2_5":101.7,"mosquito_risk":4,"arthritis_risk":5,"migraine_risk":7,"frizz_risk":0,"updated_at":"2026-03-18T10:29:29.833012+05:30"},{"city":"Ayodhya","state":"Uttar Pradesh","latitude":26.7922,"longitude":82.1998,"temp":30.3,"humidity":39,"rain":0.0,"pressure":999.8,"uv_index":6.8,"wind_gusts":28.4,"aqi":93,"pm10":70.1,"pm2_5":37.5,"mosquito_risk":0,"arthritis_risk":5,"migraine_risk":7,"frizz_risk":0,"updated_at":"2026-03-18T10:29:29.833039+05:30"},{"city":"Ratlam","state":"Madhya Pradesh","latitude":23.3315,"longitude":75.0367,"temp":28.2,"humidity":35,"rain":0.0,"pressure":958.3,"uv_index":7.7,"wind_gusts":28.1,"aqi":50,"pm10":17.1,"pm2_5":13.7,"mosquito_risk":4,"arthritis_risk":5,"migraine_risk":7,"frizz_risk":0,"updated_at":"2026-03-18T10:29:29.833047+05:30"},{"city":"Sagar","state":"Madhya Pradesh","latitude":23.8388,"longitude":78.7378,"temp":30.2,"humidity":33,"rain":0.0,"pressure":954.1,"uv_index":7.7,"wind_gusts":34.9,"aqi":41,"pm10":51.8,"pm2_5":17.2,"mosquito_risk":0,"arthritis_risk":5,"migraine_risk":7,"frizz_risk":0,"updated_at":"2026-03-18T10:29:29.833053+05:30"},{"city":"Satna","state":"Madhya Pradesh","latitude":24.6005,"longitude":80.8322,"temp":31.3,"humidity":30,"rain":0.0,"pressure":975.2,"uv_index":7.35,"wind_gusts":31.3,"aqi":62,"pm10":36.3,"pm2_5":21.4,"mosquito_risk":0,"arthritis_risk":5,"migraine_risk":7,"frizz_risk":0,"updated_at":"2026-03-18T10:29:29.833060+05:30"},{"city":"Akola","state":"Maharashtra","latitude":20.7002,"longitude":77.0082,"temp":30.5,"humidity":31,"rain":0.0,"pressure":979.2,"uv_index":8.15,"wind_gusts":32.0,"aqi":75,"pm10":36.1,"pm2_5":31.2,"mosquito_risk":0,"arthritis_risk":5,"migraine_risk":7,"frizz_risk":0,"updated_at":"2026-03-18T10:29:29.833067+05:30"},{"city":"Amravati","state":"Maharashtra","latitude":20.9374,"longitude":77.7796,"temp":30.8,"humidity":33,"rain":0.0,"pressure":971.5,"uv_index":8.15,"wind_gusts":44.6,"aqi":81,"pm10":43.8,"pm2_5":39.1,"mosquito_risk":0,"arthritis_risk":5,"migraine_risk":7,"frizz_risk":0,"updated_at":"2026-03-18T10:29:29.833074+05:30"},{"city":"Latur","state":"Maharashtra","latitude":18.4088,"longitude":76.5604,"temp":28.0,"humidity":48,"rain":0.0,"pressure":943.9,"uv_index":8.55,"wind_gusts":36.4,"aqi":106,"pm10":40.9,"pm2_5":36.2,"mosquito_risk":4,"arthritis_risk":5,"migraine_risk":7,"frizz_risk":0,"updated_at":"2026-03-18T10:29:29.833081+05:30"},{"city":"Nanded","state":"Maharashtra","latitude":19.1383,"longitude":77.3091,"temp":30.8,"humidity":41,"rain":0.0,"pressure":973.0,"uv_index":8.35,"wind_gusts":32.4,"aqi":104,"pm10":48.4,"pm2_5":42.5,"mosquito_risk":0,"arthritis_risk":5,"migraine_risk":7,"frizz_risk":0,"updated_at":"2026-03-18T10:29:29.833087+05:30"},{"city":"Gulbarga","state":"Karnataka","latitude":17.3297,"longitude":76.8343,"temp":29.1,"humidity":47,"rain":0.0,"pressure":963.0,"uv_index":8.6,"wind_gusts":28.8,"aqi":112,"pm10":23.4,"pm2_5":20.7,"mosquito_risk":4,"arthritis_risk":5,"migraine_risk":7,"frizz_risk":1,"updated_at":"2026-03-18T10:29:29.833093+05:30"},{"city":"Bidar","state":"Karnataka","latitude":17.9104,"longitude":77.5199,"temp":28.4,"humidity":47,"rain":0.0,"pressure":939.9,"uv_index":8.15,"wind_gusts":34.6,"aqi":100,"pm10":18.9,"pm2_5":15.7,"mosquito_risk":4,"arthritis_risk":5,"migraine_risk":7,"frizz_risk":0,"updated_at":"2026-03-18T10:29:29.833099+05:30"},{"city":"Hospet","state":"Karnataka","latitude":15.2689,"longitude":76.3909,"temp":26.5,"humidity":61,"rain":0.0,"pressure":960.1,"uv_index":8.95,"wind_gusts":41.0,"aqi":110,"pm10":19.3,"pm2_5":17.9,"mosquito_risk":7,"arthritis_risk":5,"migraine_risk":7,"frizz_risk":1,"updated_at":"2026-03-18T10:29:29.833105+05:30"},{"city":"Tirupur","state":"Tamil Nadu","latitude":11.1085,"longitude":77.3411,"temp":28.9,"humidity":62,"rain":0.0,"pressure":979.2,"uv_index":9.3,"wind_gusts":29.2,"aqi":82,"pm10":18.7,"pm2_5":16.5,"mosquito_risk":7,"arthritis_risk":5,"migraine_risk":7,"frizz_risk":1,"updated_at":"2026-03-18T10:29:29.833111+05:30"},{"city":"Alappuzha","state":"Kerala","latitude":9.4981,"longitude":76.3388,"temp":27.5,"humidity":82,"rain":0.0,"pressure":1011.5,"uv_index":8.95,"wind_gusts":20.2,"aqi":78,"pm10":28.5,"pm2_5":26.8,"mosquito_risk":7,"arthritis_risk":0,"migraine_risk":4,"frizz_risk":1,"updated_at":"2026-03-18T10:29:29.833117+05:30"},{"city":"Munnar","state":"Kerala","latitude":10.0889,"longitude":77.0595,"temp":26.8,"humidity":54,"rain":0.0,"pressure":861.0,"uv_index":9.55,"wind_gusts":30.2,"aqi":88,"pm10":23.6,"pm2_5":21.1,"mosquito_risk":4,"arthritis_risk":5,"migraine_risk":7,"frizz_risk":1,"updated_at":"2026-03-18T10:29:29.833124+05:30"},{"city":"Silchar","state":"Assam","latitude":24.8333,"longitude":92.7789,"temp":24.6,"humidity":73,"rain":0.0,"pressure":1012.0,"uv_index":7.8,"wind_gusts":43.6,"aqi":94,"pm10":35.3,"pm2_5":26.8,"mosquito_risk":3,"arthritis_risk":0,"migraine_risk":4,"frizz_risk":1,"updated_at":"2026-03-18T10:29:29.833131+05:30"},{"city":"Dibrugarh","state":"Assam","latitude":27.4728,"longitude":94.912,"temp":22.2,"humidity":74,"rain":0.0,"pressure":1002.3,"uv_index":7.55,"wind_gusts":28.1,"aqi":88,"pm10":59.1,"pm2_5":35.2,"mosquito_risk":3,"arthritis_risk":5,"migraine_risk":4,"frizz_risk":1,"updated_at":"2026-03-18T10:29:29.833137+05:30"}]