[{"city":"Delhi","state":"Delhi","latitude":28.6139,"longitude":77.209,"temp":30.7,"humidity":46,"rain":0.0,"pressure":978.2,"uv_index":7.8,"wind_gusts":34.6,"aqi":509,"pm10":627.7,"pm2_5":165.3,"no2":31.0,"co":304.0,"o3":49.0,"so2":14.6,"mosquito_risk":0,"arthritis_risk":5,"migraine_risk":7,"frizz_risk":1,"updated_at":"2026-06-21T03:41:41.059144+05:30"},{"city":"Mumbai","state":"Maharashtra","latitude":19.076,"longitude":72.8777,"temp":30.0,"humidity":65,"rain":0.0,"pressure":1007.0,"uv_index":7.55,"wind_gusts":38.5,"aqi":51,"pm10":13.6,"pm2_5":8.1,"no2":6.2,"co":132.0,"o3":40.0,"so2":4.8,"mosquito_risk":7,"arthritis_risk":5,"migraine_risk":4,"frizz_risk":1,"updated_at":"2026-06-21T03:41:41.059201+05:30"},{"city":"Bangalore","state":"Karnataka","latitude":12.9716,"longitude":77.5946,"temp":21.0,"humidity":93,"rain":0.0,"pressure":910.7,"uv_index":7.85,"wind_gusts":42.5,"aqi":81,"pm10":22.2,"pm2_5":16.3,"no2":21.9,"co":359.0,"o3":23.0,"so2":6.1,"mosquito_risk":3,"arthritis_risk":5,"migraine_risk":7,"frizz_risk":1,"updated_at":"2026-06-21T03:41:41.059217+05:30"},{"city":"Hyderabad","state":"Telangana","latitude":17.385,"longitude":78.4867,"temp":26.4,"humidity":77,"rain":0.0,"pressure":952.2,"uv_index":8.95,"wind_gusts":31.3,"aqi":77,"pm10":24.9,"pm2_5":22.4,"no2":17.1,"co":340.0,"o3":57.0,"so2":4.9,"mosquito_risk":7,"arthritis_risk":5,"migraine_risk":7,"frizz_risk":1,"updated_at":"2026-06-21T03:41:41.059229+05:30"},{"city":"Chennai","state":"Tamil Nadu","latitude":13.0827,"longitude":80.2707,"temp":28.1,"humidity":82,"rain":0.0,"pressure":1005.7,"uv_index":8.05,"wind_gusts":40.3,"aqi":80,"pm10":24.7,"pm2_5":22.4,"no2":13.4,"co":361.0,"o3":83.0,"so2":10.5,"mosquito_risk":7,"arthritis_risk":5,"migraine_risk":4,"frizz_risk":1,"updated_at":"2026-06-21T03:41:41.059238+05:30"},{"city":"Kolkata","state":"West Bengal","latitude":22.5726,"longitude":88.3639,"temp":28.8,"humidity":93,"rain":0.0,"pressure":1001.6,"uv_index":8.3,"wind_gusts":34.6,"aqi":131,"pm10":35.3,"pm2_5":32.8,"no2":10.3,"co":383.0,"o3":94.0,"so2":8.3,"mosquito_risk":7,"arthritis_risk":5,"migraine_risk":4,"frizz_risk":1,"updated_at":"2026-06-21T03:41:41.059248+05:30"},{"city":"Pune","state":"Maharashtra","latitude":18.5204,"longitude":73.8567,"temp":24.9,"humidity":77,"rain":0.0,"pressure":946.9,"uv_index":8.2,"wind_gusts":48.6,"aqi":39,"pm10":15.5,"pm2_5":9.5,"no2":7.1,"co":118.0,"o3":39.0,"so2":6.6,"mosquito_risk":3,"arthritis_risk":5,"migraine_risk":7,"frizz_risk":1,"updated_at":"2026-06-21T03:41:41.059257+05:30"},{"city":"Ahmedabad","state":"Gujarat","latitude":23.0225,"longitude":72.5714,"temp":30.7,"humidity":62,"rain":0.0,"pressure":1000.1,"uv_index":8.05,"wind_gusts":45.4,"aqi":71,"pm10":37.5,"pm2_5":17.6,"no2":4.2,"co":126.0,"o3":46.0,"so2":3.8,"mosquito_risk":3,"arthritis_risk":5,"migraine_risk":4,"frizz_risk":1,"updated_at":"2026-06-21T03:41:41.059265+05:30"},{"city":"Jaipur","state":"Rajasthan","latitude":26.9124,"longitude":75.7873,"temp":27.0,"humidity":68,"rain":0.0,"pressure":956.5,"uv_index":8.2,"wind_gusts":34.9,"aqi":125,"pm10":183.0,"pm2_5":45.5,"no2":10.2,"co":172.0,"o3":40.0,"so2":4.2,"mosquito_risk":7,"arthritis_risk":5,"migraine_risk":7,"frizz_risk":1,"updated_at":"2026-06-21T03:41:41.059274+05:30"},{"city":"Lucknow","state":"Uttar Pradesh","latitude":26.8467,"longitude":80.9462,"temp":32.3,"humidity":44,"rain":0.0,"pressure":988.3,"uv_index":8.05,"wind_gusts":37.4,"aqi":279,"pm10":272.9,"pm2_5":89.9,"no2":12.6,"co":224.0,"o3":75.0,"so2":7.2,"mosquito_risk":0,"arthritis_risk":5,"migraine_risk":7,"frizz_risk":1,"updated_at":"2026-06-21T03:41:41.059288+05:30"},{"city":"Kanpur","state":"Uttar Pradesh","latitude":26.4499,"longitude":80.3319,"temp":32.8,"humidity":48,"rain":0.0,"pressure":987.0,"uv_index":7.85,"wind_gusts":37.4,"aqi":384,"pm10":387.4,"pm2_5":84.3,"no2":13.3,"co":202.0,"o3":61.0,"so2":5.8,"mosquito_risk":0,"arthritis_risk":5,"migraine_risk":7,"frizz_risk":1,"updated_at":"2026-06-21T03:41:41.059297+05:30"},{"city":"Chandigarh","state":"Chandigarh","latitude":30.7333,"longitude":76.7794,"temp":26.4,"humidity":61,"rain":0.0,"pressure":963.4,"uv_index":7.8,"wind_gusts":36.4,"aqi":117,"pm10":40.5,"pm2_5":39.3,"no2":31.7,"co":418.0,"o3":41.0,"so2":8.1,"mosquito_risk":7,"arthritis_risk":5,"migraine_risk":7,"frizz_risk":1,"updated_at":"2026-06-21T03:41:41.059305+05:30"},{"city":"Srinagar","state":"Jammu and Kashmir","latitude":34.0837,"longitude":74.7973,"temp":14.1,"humidity":100,"rain":0.0,"pressure":839.7,"uv_index":8.5,"wind_gusts":24.5,"aqi":68,"pm10":33.6,"pm2_5":31.3,"no2":22.7,"co":464.0,"o3":13.0,"so2":0.7,"mosquito_risk":3,"arthritis_risk":10,"migraine_risk":7,"frizz_risk":0,"updated_at":"2026-06-21T03:41:41.059313+05:30"},{"city":"Jammu","state":"Jammu and Kashmir","latitude":32.7266,"longitude":74.857,"temp":25.0,"humidity":62,"rain":0.0,"pressure":967.1,"uv_index":8.55,"wind_gusts":45.4,"aqi":82,"pm10":37.0,"pm2_5":34.3,"no2":47.1,"co":425.0,"o3":1.0,"so2":2.5,"mosquito_risk":7,"arthritis_risk":5,"migraine_risk":7,"frizz_risk":1,"updated_at":"2026-06-21T03:41:41.059321+05:30"},{"city":"Amritsar","state":"Punjab","latitude":31.634,"longitude":74.8723,"temp":26.4,"humidity":67,"rain":0.0,"pressure":975.6,"uv_index":8.45,"wind_gusts":19.8,"aqi":143,"pm10":64.3,"pm2_5":44.6,"no2":28.8,"co":578.0,"o3":51.0,"so2":9.1,"mosquito_risk":7,"arthritis_risk":5,"migraine_risk":7,"frizz_risk":1,"updated_at":"2026-06-21T03:41:41.059330+05:30"},{"city":"Ludhiana","state":"Punjab","latitude":30.901,"longitude":75.8573,"temp":28.8,"humidity":58,"rain":0.0,"pressure":973.6,"uv_index":8.05,"wind_gusts":36.4,"aqi":135,"pm10":111.1,"pm2_5":55.3,"no2":20.8,"co":566.0,"o3":60.0,"so2":9.2,"mosquito_risk":4,"arthritis_risk":5,"migraine_risk":7,"frizz_risk":1,"updated_at":"2026-06-21T03:41:41.059338+05:30"},{"city":"Jalandhar","state":"Punjab","latitude":31.326,"longitude":75.5762,"temp":27.5,"humidity":63,"rain":0.0,"pressure":974.7,"uv_index":8.25,"wind_gusts":32.4,"aqi":137,"pm10":106.2,"pm2_5":58.3,"no2":31.2,"co":498.0,"o3":45.0,"so2":10.3,"mosquito_risk":7,"arthritis_risk":5,"migraine_risk":7,"frizz_risk":1,"updated_at":"2026-06-21T03:41:41.059346+05:30"},{"city":"Dehradun","state":"Uttarakhand","latitude":30.6284,"longitude":78.0322,"temp":17.3,"humidity":85,"rain":0.0,"pressure":827.1,"uv_index":8.25,"wind_gusts":31.3,"aqi":78,"pm10":22.9,"pm2_5":22.2,"no2":24.5,"co":286.0,"o3":17.0,"so2":0.1,"mosquito_risk":3,"arthritis_risk":10,"migraine_risk":7,"frizz_risk":0,"updated_at":"2026-06-21T03:41:41.059354+05:30"},{"city":"Shimla","state":"Himachal Pradesh","latitude":31.1048,"longitude":77.1734,"temp":13.9,"humidity":80,"rain":0.0,"pressure":780.8,"uv_index":7.9,"wind_gusts":41.0,"aqi":77,"pm10":33.2,"pm2_5":27.8,"no2":18.2,"co":249.0,"o3":40.0,"so2":1.2,"mosquito_risk":3,"arthritis_risk":5,"migraine_risk":7,"frizz_risk":0,"updated_at":"2026-06-21T03:41:41.059361+05:30"},{"city":"Manali","state":"Himachal Pradesh","latitude":32.2396,"longitude":77.1887,"temp":14.0,"humidity":66,"rain":0.0,"pressure":815.3,"uv_index":9.35,"wind_gusts":35.6,"aqi":45,"pm10":4.5,"pm2_5":3.5,"no2":13.7,"co":177.0,"o3":122.0,"so2":0.0,"mosquito_risk":3,"arthritis_risk":5,"migraine_risk":7,"frizz_risk":0,"updated_at":"2026-06-21T03:41:41.059371+05:30"},{"city":"Gurgaon","state":"Haryana","latitude":28.4595,"longitude":77.0266,"temp":29.3,"humidity":49,"rain":0.0,"pressure":976.8,"uv_index":7.85,"wind_gusts":32.0,"aqi":882,"pm10":1341.1,"pm2_5":234.2,"no2":29.0,"co":263.0,"o3":30.0,"so2":10.6,"mosquito_risk":4,"arthritis_risk":5,"migraine_risk":7,"frizz_risk":1,"updated_at":"2026-06-21T03:41:41.059381+05:30"},{"city":"Noida","state":"Uttar Pradesh","latitude":28.5355,"longitude":77.391,"temp":29.7,"humidity":51,"rain":0.0,"pressure":979.4,"uv_index":7.85,"wind_gusts":24.5,"aqi":882,"pm10":1341.1,"pm2_5":234.2,"no2":29.0,"co":363.0,"o3":30.0,"so2":10.6,"mosquito_risk":4,"arthritis_risk":5,"migraine_risk":7,"frizz_risk":1,"updated_at":"2026-06-21T03:41:41.059389+05:30"},{"city":"Ghaziabad","state":"Uttar Pradesh","latitude":28.6692,"longitude":77.4538,"temp":29.9,"humidity":50,"rain":0.0,"pressure":977.7,"uv_index":7.8,"wind_gusts":32.0,"aqi":414,"pm10":635.2,"pm2_5":170.9,"no2":32.6,"co":394.0,"o3":57.0,"so2":18.8,"mosquito_risk":4,"arthritis_risk":5,"migraine_risk":7,"frizz_risk":1,"updated_at":"2026-06-21T03:41:41.059396+05:30"},{"city":"Faridabad","state":"Haryana","latitude":28.4089,"longitude":77.3178,"temp":30.5,"humidity":46,"rain":0.0,"pressure":978.9,"uv_index":7.85,"wind_gusts":35.3,"aqi":882,"pm10":1341.1,"pm2_5":234.2,"no2":29.0,"co":337.0,"o3":30.0,"so2":10.6,"mosquito_risk":0,"arthritis_risk":5,"migraine_risk":7,"frizz_risk":1,"updated_at":"2026-06-21T03:41:41.059404+05:30"},{"city":"Meerut","state":"Uttar Pradesh","latitude":28.9845,"longitude":77.7064,"temp":28.5,"humidity":64,"rain":0.0,"pressure":976.3,"uv_index":7.15,"wind_gusts":32.0,"aqi":414,"pm10":635.2,"pm2_5":170.9,"no2":32.6,"co":337.0,"o3":57.0,"so2":18.8,"mosquito_risk":7,"arthritis_risk":5,"migraine_risk":7,"frizz_risk":1,"updated_at":"2026-06-21T03:41:41.059412+05:30"},{"city":"Agra","state":"Uttar Pradesh","latitude":27.1767,"longitude":78.0081,"temp":31.4,"humidity":52,"rain":0.0,"pressure":983.6,"uv_index":8.15,"wind_gusts":32.8,"aqi":772,"pm10":1300.1,"pm2_5":178.3,"no2":14.1,"co":183.0,"o3":46.0,"so2":4.4,"mosquito_risk":0,"arthritis_risk":5,"migraine_risk":7,"frizz_risk":1,"updated_at":"2026-06-21T03:41:41.059420+05:30"},{"city":"Varanasi","state":"Uttar Pradesh","latitude":25.3176,"longitude":82.9739,"temp":31.8,"humidity":58,"rain":0.0,"pressure":991.9,"uv_index":8.8,"wind_gusts":36.7,"aqi":113,"pm10":57.5,"pm2_5":30.4,"no2":13.1,"co":210.0,"o3":61.0,"so2":7.4,"mosquito_risk":0,"arthritis_risk":5,"migraine_risk":7,"frizz_risk":1,"updated_at":"2026-06-21T03:41:41.059429+05:30"},{"city":"Prayagraj","state":"Uttar Pradesh","latitude":25.4358,"longitude":81.8463,"temp":32.6,"humidity":50,"rain":0.0,"pressure":990.8,"uv_index":8.7,"wind_gusts":37.1,"aqi":116,"pm10":125.3,"pm2_5":50.4,"no2":15.0,"co":164.0,"o3":58.0,"so2":7.6,"mosquito_risk":0,"arthritis_risk":5,"migraine_risk":7,"frizz_risk":1,"updated_at":"2026-06-21T03:41:41.059437+05:30"},{"city":"Gorakhpur","state":"Uttar Pradesh","latitude":26.7606,"longitude":83.3732,"temp":28.8,"humidity":77,"rain":0.0,"pressure":992.0,"uv_index":8.7,"wind_gusts":35.3,"aqi":166,"pm10":122.9,"pm2_5":84.5,"no2":26.0,"co":344.0,"o3":51.0,"so2":11.8,"mosquito_risk":7,"arthritis_risk":5,"migraine_risk":7,"frizz_risk":1,"updated_at":"2026-06-21T03:41:41.059445+05:30"},{"city":"Bareilly","state":"Uttar Pradesh","latitude":28.367,"longitude":79.4304,"temp":30.3,"humidity":52,"rain":0.0,"pressure":981.5,"uv_index":8.15,"wind_gusts":35.3,"aqi":163,"pm10":346.5,"pm2_5":110.4,"no2":22.6,"co":315.0,"o3":56.0,"so2":13.2,"mosquito_risk":0,"arthritis_risk":5,"migraine_risk":7,"frizz_risk":1,"updated_at":"2026-06-21T03:41:41.059454+05:30"},{"city":"Aligarh","state":"Uttar Pradesh","latitude":27.8974,"longitude":78.088,"temp":30.7,"humidity":49,"rain":0.0,"pressure":980.8,"uv_index":8.0,"wind_gusts":29.2,"aqi":557,"pm10":881.0,"pm2_5":180.2,"no2":27.3,"co":262.0,"o3":25.0,"so2":6.4,"mosquito_risk":0,"arthritis_risk":5,"migraine_risk":7,"frizz_risk":1,"updated_at":"2026-06-21T03:41:41.059462+05:30"},{"city":"Moradabad","state":"Uttar Pradesh","latitude":28.8386,"longitude":78.7733,"temp":28.8,"humidity":63,"rain":0.0,"pressure":978.5,"uv_index":7.95,"wind_gusts":38.5,"aqi":171,"pm10":414.4,"pm2_5":138.3,"no2":22.5,"co":345.0,"o3":59.0,"so2":11.2,"mosquito_risk":7,"arthritis_risk":5,"migraine_risk":7,"frizz_risk":1,"updated_at":"2026-06-21T03:41:41.059469+05:30"},{"city":"Saharanpur","state":"Uttar Pradesh","latitude":29.9637,"longitude":77.546,"temp":27.3,"humidity":61,"rain":0.0,"pressure":970.4,"uv_index":7.45,"wind_gusts":33.5,"aqi":165,"pm10":459.1,"pm2_5":139.7,"no2":33.6,"co":431.0,"o3":58.0,"so2":11.4,"mosquito_risk":7,"arthritis_risk":5,"migraine_risk":7,"frizz_risk":1,"updated_at":"2026-06-21T03:41:41.059476+05:30"},{"city":"Jhansi","state":"Uttar Pradesh","latitude":25.4484,"longitude":78.5685,"temp":30.3,"humidity":60,"rain":0.0,"pressure":974.6,"uv_index":7.7,"wind_gusts":41.0,"aqi":89,"pm10":51.1,"pm2_5":28.2,"no2":7.7,"co":168.0,"o3":62.0,"so2":10.1,"mosquito_risk":0,"arthritis_risk":5,"migraine_risk":7,"frizz_risk":1,"updated_at":"2026-06-21T03:41:44.422068+05:30"},{"city":"Surat","state":"Gujarat","latitude":21.1702,"longitude":72.8311,"temp":28.8,"humidity":79,"rain":0.0,"pressure":1005.2,"uv_index":7.6,"wind_gusts":45.0,"aqi":59,"pm10":18.0,"pm2_5":12.9,"no2":18.2,"co":263.0,"o3":28.0,"so2":29.9,"mosquito_risk":7,"arthritis_risk":5,"migraine_risk":4,"frizz_risk":1,"updated_at":"2026-06-21T03:41:44.422100+05:30"},{"city":"Vadodara","state":"Gujarat","latitude":22.3072,"longitude":73.1812,"temp":29.3,"humidity":75,"rain":0.0,"pressure":1002.5,"uv_index":8.0,"wind_gusts":49.0,"aqi":59,"pm10":15.7,"pm2_5":10.6,"no2":9.6,"co":112.0,"o3":33.0,"so2":6.6,"mosquito_risk":7,"arthritis_risk":5,"migraine_risk":4,"frizz_risk":1,"updated_at":"2026-06-21T03:41:44.422111+05:30"},{"city":"Rajkot","state":"Gujarat","latitude":22.3039,"longitude":70.8022,"temp":28.0,"humidity":77,"rain":0.0,"pressure":992.5,"uv_index":7.55,"wind_gusts":40.7,"aqi":65,"pm10":39.6,"pm2_5":16.8,"no2":5.1,"co":95.0,"o3":40.0,"so2":4.4,"mosquito_risk":7,"arthritis_risk":5,"migraine_risk":7,"frizz_risk":1,"updated_at":"2026-06-21T03:41:44.422120+05:30"},{"city":"Thane","state":"Maharashtra","latitude":19.2183,"longitude":72.9781,"temp":29.7,"humidity":64,"rain":0.0,"pressure":1006.5,"uv_index":7.05,"wind_gusts":37.8,"aqi":51,"pm10":13.6,"pm2_5":8.1,"no2":6.2,"co":157.0,"o3":40.0,"so2":4.8,"mosquito_risk":7,"arthritis_risk":5,"migraine_risk":4,"frizz_risk":1,"updated_at":"2026-06-21T03:41:44.422129+05:30"},{"city":"Nagpur","state":"Maharashtra","latitude":21.1458,"longitude":79.0882,"temp":31.3,"humidity":51,"rain":0.0,"pressure":970.5,"uv_index":8.9,"wind_gusts":45.0,"aqi":66,"pm10":29.1,"pm2_5":21.6,"no2":11.9,"co":240.0,"o3":51.0,"so2":7.1,"mosquito_risk":0,"arthritis_risk":5,"migraine_risk":7,"frizz_risk":1,"updated_at":"2026-06-21T03:41:44.422137+05:30"},{"city":"Nashik","state":"Maharashtra","latitude":19.9975,"longitude":73.7898,"temp":24.0,"humidity":86,"rain":0.0,"pressure":944.4,"uv_index":7.95,"wind_gusts":42.8,"aqi":38,"pm10":13.2,"pm2_5":8.2,"no2":5.9,"co":118.0,"o3":37.0,"so2":4.6,"mosquito_risk":3,"arthritis_risk":5,"migraine_risk":7,"frizz_risk":1,"updated_at":"2026-06-21T03:41:44.422146+05:30"},{"city":"Aurangabad","state":"Maharashtra","latitude":19.8762,"longitude":75.3433,"temp":26.7,"humidity":70,"rain":0.0,"pressure":943.2,"uv_index":9.0,"wind_gusts":34.2,"aqi":40,"pm10":13.8,"pm2_5":9.2,"no2":6.6,"co":116.0,"o3":39.0,"so2":5.1,"mosquito_risk":7,"arthritis_risk":5,"migraine_risk":7,"frizz_risk":1,"updated_at":"2026-06-21T03:41:44.422154+05:30"},{"city":"Solapur","state":"Maharashtra","latitude":17.6599,"longitude":75.9064,"temp":28.6,"humidity":59,"rain":0.0,"pressure":956.4,"uv_index":8.85,"wind_gusts":42.1,"aqi":51,"pm10":14.3,"pm2_5":10.3,"no2":6.7,"co":119.0,"o3":48.0,"so2":2.8,"mosquito_risk":4,"arthritis_risk":5,"migraine_risk":7,"frizz_risk":1,"updated_at":"2026-06-21T03:41:44.422162+05:30"},{"city":"Kolhapur","state":"Maharashtra","latitude":16.705,"longitude":74.2433,"temp":23.7,"humidity":85,"rain":0.0,"pressure":946.7,"uv_index":8.35,"wind_gusts":41.8,"aqi":45,"pm10":15.5,"pm2_5":11.2,"no2":8.9,"co":124.0,"o3":28.0,"so2":2.9,"mosquito_risk":3,"arthritis_risk":5,"migraine_risk":7,"frizz_risk":1,"updated_at":"2026-06-21T03:41:44.422170+05:30"},{"city":"Goa","state":"Goa","latitude":15.2993,"longitude":74.124,"temp":26.4,"humidity":87,"rain":0.0,"pressure":996.7,"uv_index":6.6,"wind_gusts":35.3,"aqi":58,"pm10":15.7,"pm2_5":12.5,"no2":6.3,"co":282.0,"o3":36.0,"so2":1.4,"mosquito_risk":7,"arthritis_risk":5,"migraine_risk":7,"frizz_risk":1,"updated_at":"2026-06-21T03:41:44.422177+05:30"},{"city":"Jodhpur","state":"Rajasthan","latitude":26.2389,"longitude":73.0243,"temp":30.6,"humidity":55,"rain":0.0,"pressure":979.1,"uv_index":8.4,"wind_gusts":40.0,"aqi":113,"pm10":195.6,"pm2_5":47.0,"no2":3.3,"co":110.0,"o3":53.0,"so2":1.9,"mosquito_risk":0,"arthritis_risk":5,"migraine_risk":7,"frizz_risk":1,"updated_at":"2026-06-21T03:41:44.422185+05:30"},{"city":"Udaipur","state":"Rajasthan","latitude":24.5854,"longitude":73.7125,"temp":26.2,"humidity":65,"rain":0.0,"pressure":943.9,"uv_index":8.8,"wind_gusts":37.8,"aqi":72,"pm10":35.7,"pm2_5":21.7,"no2":8.1,"co":132.0,"o3":48.0,"so2":5.7,"mosquito_risk":7,"arthritis_risk":5,"migraine_risk":7,"frizz_risk":1,"updated_at":"2026-06-21T03:41:44.422193+05:30"},{"city":"Kota","state":"Rajasthan","latitude":25.2138,"longitude":75.8648,"temp":24.8,"humidity":86,"rain":0.2,"pressure":976.0,"uv_index":8.35,"wind_gusts":35.3,"aqi":95,"pm10":37.3,"pm2_5":21.5,"no2":6.5,"co":157.0,"o3":61.0,"so2":6.0,"mosquito_risk":6,"arthritis_risk":5,"migraine_risk":7,"frizz_risk":1,"updated_at":"2026-06-21T03:41:44.422201+05:30"},{"city":"Bikaner","state":"Rajasthan","latitude":28.0229,"longitude":73.3119,"temp":29.6,"humidity":54,"rain":0.0,"pressure":977.1,"uv_index":8.45,"wind_gusts":32.4,"aqi":130,"pm10":231.4,"pm2_5":64.7,"no2":3.3,"co":112.0,"o3":50.0,"so2":2.6,"mosquito_risk":4,"arthritis_risk":5,"migraine_risk":7,"frizz_risk":1,"updated_at":"2026-06-21T03:41:44.422209+05:30"},{"city":"Ajmer","state":"Rajasthan","latitude":26.4499,"longitude":74.6399,"temp":26.5,"humidity":71,"rain":0.0,"pressure":951.4,"uv_index":8.3,"wind_gusts":47.2,"aqi":83,"pm10":55.4,"pm2_5":22.9,"no2":6.0,"co":138.0,"o3":51.0,"so2":3.2,"mosquito_risk":7,"arthritis_risk":5,"migraine_risk":7,"frizz_risk":1,"updated_at":"2026-06-21T03:41:44.422220+05:30"},{"city":"Gwalior","state":"Madhya Pradesh","latitude":26.2183,"longitude":78.1828,"temp":30.0,"humidity":61,"rain":0.0,"pressure":979.7,"uv_index":5.95,"wind_gusts":41.0,"aqi":103,"pm10":52.3,"pm2_5":30.0,"no2":7.8,"co":137.0,"o3":50.0,"so2":3.1,"mosquito_risk":7,"arthritis_risk":5,"migraine_risk":3,"frizz_risk":1,"updated_at":"2026-06-21T03:41:44.422228+05:30"},{"city":"Indore","state":"Madhya Pradesh","latitude":22.7196,"longitude":75.8577,"temp":26.2,"humidity":74,"rain":0.0,"pressure":946.7,"uv_index":7.85,"wind_gusts":46.8,"aqi":75,"pm10":23.9,"pm2_5":17.8,"no2":7.3,"co":172.0,"o3":63.0,"so2":8.4,"mosquito_risk":7,"arthritis_risk":5,"migraine_risk":7,"frizz_risk":1,"updated_at":"2026-06-21T03:41:44.422236+05:30"},{"city":"Bhopal","state":"Madhya Pradesh","latitude":23.2599,"longitude":77.4126,"temp":26.5,"humidity":72,"rain":0.0,"pressure":951.7,"uv_index":7.3,"wind_gusts":33.1,"aqi":74,"pm10":32.8,"pm2_5":20.7,"no2":6.4,"co":225.0,"o3":64.0,"so2":2.4,"mosquito_risk":7,"arthritis_risk":5,"migraine_risk":7,"frizz_risk":1,"updated_at":"2026-06-21T03:41:44.422244+05:30"},{"city":"Jabalpur","state":"Madhya Pradesh","latitude":23.1815,"longitude":79.9864,"temp":28.8,"humidity":65,"rain":0.0,"pressure":958.8,"uv_index":8.85,"wind_gusts":37.8,"aqi":75,"pm10":25.9,"pm2_5":19.7,"no2":9.0,"co":206.0,"o3":56.0,"so2":3.4,"mosquito_risk":7,"arthritis_risk":5,"migraine_risk":7,"frizz_risk":1,"updated_at":"2026-06-21T03:41:44.422251+05:30"},{"city":"Ujjain","state":"Madhya Pradesh","latitude":23.1765,"longitude":75.7885,"temp":27.2,"humidity":65,"rain":0.0,"pressure":952.2,"uv_index":7.8,"wind_gusts":39.6,"aqi":75,"pm10":20.0,"pm2_5":14.8,"no2":6.2,"co":156.0,"o3":60.0,"so2":8.8,"mosquito_risk":7,"arthritis_risk":5,"migraine_risk":7,"frizz_risk":1,"updated_at":"2026-06-21T03:41:44.422259+05:30"},{"city":"Visakhapatnam","state":"Andhra Pradesh","latitude":17.6868,"longitude":83.2185,"temp":28.4,"humidity":88,"rain":0.0,"pressure":1000.5,"uv_index":2.7,"wind_gusts":38.9,"aqi":127,"pm10":35.9,"pm2_5":30.7,"no2":26.2,"co":349.0,"o3":73.0,"so2":35.0,"mosquito_risk":7,"arthritis_risk":5,"migraine_risk":0,"frizz_risk":1,"updated_at":"2026-06-21T03:41:44.422267+05:30"},{"city":"Vijayawada","state":"Andhra Pradesh","latitude":16.5062,"longitude":80.648,"temp":28.3,"humidity":76,"rain":0.0,"pressure":1001.0,"uv_index":8.25,"wind_gusts":41.0,"aqi":80,"pm10":29.8,"pm2_5":24.9,"no2":7.9,"co":196.0,"o3":87.0,"so2":7.2,"mosquito_risk":7,"arthritis_risk":5,"migraine_risk":4,"frizz_risk":1,"updated_at":"2026-06-21T03:41:44.422274+05:30"},{"city":"Guntur","state":"Andhra Pradesh","latitude":16.3067,"longitude":80.4365,"temp":27.7,"humidity":77,"rain":0.0,"pressure":1001.7,"uv_index":7.45,"wind_gusts":34.6,"aqi":79,"pm10":27.2,"pm2_5":23.1,"no2":10.9,"co":175.0,"o3":67.0,"so2":6.4,"mosquito_risk":7,"arthritis_risk":5,"migraine_risk":4,"frizz_risk":1,"updated_at":"2026-06-21T03:41:44.422282+05:30"},{"city":"Nellore","state":"Andhra Pradesh","latitude":14.4426,"longitude":79.9865,"temp":28.5,"humidity":70,"rain":0.0,"pressure":1003.3,"uv_index":8.15,"wind_gusts":31.7,"aqi":70,"pm10":16.9,"pm2_5":14.1,"no2":7.5,"co":177.0,"o3":70.0,"so2":3.1,"mosquito_risk":7,"arthritis_risk":5,"migraine_risk":4,"frizz_risk":1,"updated_at":"2026-06-21T03:41:44.422290+05:30"},{"city":"Kurnool","state":"Andhra Pradesh","latitude":15.8281,"longitude":78.0373,"temp":29.0,"humidity":57,"rain":0.0,"pressure":975.6,"uv_index":7.3,"wind_gusts":51.1,"aqi":70,"pm10":23.1,"pm2_5":16.9,"no2":11.4,"co":159.0,"o3":48.0,"so2":4.2,"mosquito_risk":4,"arthritis_risk":5,"migraine_risk":7,"frizz_risk":1,"updated_at":"2026-06-21T03:41:44.422298+05:30"},{"city":"Kakinada","state":"Andhra Pradesh","latitude":16.9891,"longitude":82.2475,"temp":28.5,"humidity":81,"rain":0.0,"pressure":1004.7,"uv_index":6.1,"wind_gusts":38.5,"aqi":73,"pm10":30.7,"pm2_5":22.6,"no2":2.9,"co":246.0,"o3":111.0,"so2":3.9,"mosquito_risk":7,"arthritis_risk":5,"migraine_risk":4,"frizz_risk":1,"updated_at":"2026-06-21T03:41:44.422306+05:30"},{"city":"Tirupati","state":"Andhra Pradesh","latitude":13.6288,"longitude":79.4192,"temp":26.5,"humidity":78,"rain":0.0,"pressure":989.6,"uv_index":8.65,"wind_gusts":32.8,"aqi":62,"pm10":19.5,"pm2_5":18.4,"no2":16.7,"co":186.0,"o3":46.0,"so2":2.2,"mosquito_risk":7,"arthritis_risk":5,"migraine_risk":7,"frizz_risk":1,"updated_at":"2026-06-21T03:41:44.422313+05:30"},{"city":"Warangal","state":"Telangana","latitude":17.9689,"longitude":79.5941,"temp":25.1,"humidity":91,"rain":0.2,"pressure":977.2,"uv_index":8.25,"wind_gusts":40.7,"aqi":113,"pm10":24.4,"pm2_5":21.2,"no2":11.2,"co":187.0,"o3":68.0,"so2":3.7,"mosquito_risk":10,"arthritis_risk":5,"migraine_risk":7,"frizz_risk":1,"updated_at":"2026-06-21T03:41:44.422321+05:30"},{"city":"Nizamabad","state":"Telangana","latitude":18.6725,"longitude":78.0941,"temp":25.2,"humidity":84,"rain":0.1,"pressure":963.3,"uv_index":8.95,"wind_gusts":43.9,"aqi":71,"pm10":18.3,"pm2_5":15.5,"no2":7.3,"co":147.0,"o3":78.0,"so2":2.8,"mosquito_risk":10,"arthritis_risk":5,"migraine_risk":7,"frizz_risk":1,"updated_at":"2026-06-21T03:41:44.422328+05:30"},{"city":"Mysore","state":"Karnataka","latitude":12.2958,"longitude":76.6396,"temp":21.5,"humidity":96,"rain":0.0,"pressure":928.1,"uv_index":8.55,"wind_gusts":38.2,"aqi":59,"pm10":14.4,"pm2_5":10.6,"no2":9.4,"co":190.0,"o3":35.0,"so2":2.6,"mosquito_risk":3,"arthritis_risk":5,"migraine_risk":7,"frizz_risk":1,"updated_at":"2026-06-21T03:41:44.422336+05:30"},{"city":"Mangalore","state":"Karnataka","latitude":12.9141,"longitude":74.856,"temp":24.0,"humidity":98,"rain":0.1,"pressure":1006.9,"uv_index":8.0,"wind_gusts":41.8,"aqi":58,"pm10":9.2,"pm2_5":7.5,"no2":8.1,"co":151.0,"o3":28.0,"so2":2.3,"mosquito_risk":6,"arthritis_risk":5,"migraine_risk":4,"frizz_risk":1,"updated_at":"2026-06-21T03:41:44.422343+05:30"},{"city":"Hubli-Dharwad","state":"Karnataka","latitude":15.3647,"longitude":75.124,"temp":22.7,"humidity":93,"rain":0.0,"pressure":939.8,"uv_index":8.45,"wind_gusts":41.0,"aqi":42,"pm10":11.1,"pm2_5":7.5,"no2":6.1,"co":91.0,"o3":33.0,"so2":1.5,"mosquito_risk":3,"arthritis_risk":5,"migraine_risk":7,"frizz_risk":1,"updated_at":"2026-06-21T03:41:44.422351+05:30"},{"city":"Belgaum","state":"Karnataka","latitude":15.8497,"longitude":74.4977,"temp":21.3,"humidity":96,"rain":0.0,"pressure":924.2,"uv_index":8.7,"wind_gusts":39.2,"aqi":50,"pm10":26.3,"pm2_5":17.8,"no2":12.7,"co":99.0,"o3":23.0,"so2":1.6,"mosquito_risk":3,"arthritis_risk":5,"migraine_risk":7,"frizz_risk":1,"updated_at":"2026-06-21T03:41:47.780443+05:30"},{"city":"Coimbatore","state":"Tamil Nadu","latitude":11.0168,"longitude":76.9558,"temp":23.3,"humidity":91,"rain":0.0,"pressure":961.7,"uv_index":6.85,"wind_gusts":50.0,"aqi":58,"pm10":18.7,"pm2_5":13.1,"no2":8.9,"co":180.0,"o3":35.0,"so2":3.3,"mosquito_risk":3,"arthritis_risk":5,"migraine_risk":7,"frizz_risk":1,"updated_at":"2026-06-21T03:41:47.780475+05:30"},{"city":"Madurai","state":"Tamil Nadu","latitude":9.9252,"longitude":78.1198,"temp":26.6,"humidity":90,"rain":0.0,"pressure":992.6,"uv_index":8.55,"wind_gusts":32.8,"aqi":65,"pm10":29.4,"pm2_5":25.4,"no2":37.2,"co":330.0,"o3":0.0,"so2":5.0,"mosquito_risk":7,"arthritis_risk":5,"migraine_risk":7,"frizz_risk":1,"updated_at":"2026-06-21T03:41:47.780486+05:30"},{"city":"Trichy","state":"Tamil Nadu","latitude":10.7905,"longitude":78.7047,"temp":26.5,"humidity":86,"rain":0.0,"pressure":999.5,"uv_index":6.75,"wind_gusts":39.2,"aqi":59,"pm10":22.3,"pm2_5":17.8,"no2":19.0,"co":180.0,"o3":24.0,"so2":3.9,"mosquito_risk":7,"arthritis_risk":5,"migraine_risk":7,"frizz_risk":1,"updated_at":"2026-06-21T03:41:47.780496+05:30"},{"city":"Salem","state":"Tamil Nadu","latitude":11.6643,"longitude":78.146,"temp":25.6,"humidity":82,"rain":0.0,"pressure":977.1,"uv_index":8.2,"wind_gusts":32.8,"aqi":70,"pm10":33.2,"pm2_5":24.0,"no2":19.9,"co":443.0,"o3":30.0,"so2":5.7,"mosquito_risk":7,"arthritis_risk":5,"migraine_risk":7,"frizz_risk":1,"updated_at":"2026-06-21T03:41:47.780505+05:30"},{"city":"Tirunelveli","state":"Tamil Nadu","latitude":8.7139,"longitude":77.7567,"temp":27.8,"humidity":74,"rain":0.0,"pressure":1003.3,"uv_index":8.4,"wind_gusts":28.4,"aqi":58,"pm10":11.7,"pm2_5":9.3,"no2":9.4,"co":181.0,"o3":30.0,"so2":2.6,"mosquito_risk":7,"arthritis_risk":5,"migraine_risk":4,"frizz_risk":1,"updated_at":"2026-06-21T03:41:47.780513+05:30"},{"city":"Vellore","state":"Tamil Nadu","latitude":12.9165,"longitude":79.1325,"temp":25.2,"humidity":89,"rain":0.0,"pressure":983.3,"uv_index":8.4,"wind_gusts":36.0,"aqi":69,"pm10":31.0,"pm2_5":29.2,"no2":18.8,"co":298.0,"o3":45.0,"so2":4.6,"mosquito_risk":7,"arthritis_risk":5,"migraine_risk":7,"frizz_risk":1,"updated_at":"2026-06-21T03:41:47.780521+05:30"},{"city":"Erode","state":"Tamil Nadu","latitude":11.341,"longitude":77.7172,"temp":25.9,"humidity":83,"rain":0.0,"pressure":988.8,"uv_index":7.9,"wind_gusts":44.6,"aqi":66,"pm10":18.8,"pm2_5":14.4,"no2":13.7,"co":249.0,"o3":35.0,"so2":4.0,"mosquito_risk":7,"arthritis_risk":5,"migraine_risk":7,"frizz_risk":1,"updated_at":"2026-06-21T03:41:47.780529+05:30"},{"city":"Kochi","state":"Kerala","latitude":9.9312,"longitude":76.2673,"temp":24.9,"humidity":99,"rain":0.0,"pressure":1009.7,"uv_index":8.5,"wind_gusts":33.5,"aqi":85,"pm10":19.9,"pm2_5":17.2,"no2":19.2,"co":82.0,"o3":17.0,"so2":5.3,"mosquito_risk":3,"arthritis_risk":0,"migraine_risk":4,"frizz_risk":1,"updated_at":"2026-06-21T03:41:47.780537+05:30"},{"city":"Thiruvananthapuram","state":"Kerala","latitude":8.5241,"longitude":76.9366,"temp":24.7,"humidity":97,"rain":0.0,"pressure":1009.0,"uv_index":7.65,"wind_gusts":42.1,"aqi":51,"pm10":6.2,"pm2_5":4.0,"no2":2.3,"co":128.0,"o3":50.0,"so2":1.0,"mosquito_risk":3,"arthritis_risk":0,"migraine_risk":4,"frizz_risk":1,"updated_at":"2026-06-21T03:41:47.780544+05:30"},{"city":"Kozhikode","state":"Kerala","latitude":11.2588,"longitude":75.7804,"temp":24.4,"humidity":99,"rain":0.1,"pressure":1008.6,"uv_index":7.1,"wind_gusts":31.3,"aqi":41,"pm10":6.3,"pm2_5":4.3,"no2":1.6,"co":181.0,"o3":51.0,"so2":1.0,"mosquito_risk":6,"arthritis_risk":0,"migraine_risk":4,"frizz_risk":1,"updated_at":"2026-06-21T03:41:47.780551+05:30"},{"city":"Thrissur","state":"Kerala","latitude":10.5276,"longitude":76.2144,"temp":23.9,"humidity":98,"rain":0.0,"pressure":1008.1,"uv_index":8.25,"wind_gusts":37.1,"aqi":87,"pm10":21.4,"pm2_5":19.1,"no2":20.1,"co":204.0,"o3":13.0,"so2":5.1,"mosquito_risk":3,"arthritis_risk":0,"migraine_risk":4,"frizz_risk":1,"updated_at":"2026-06-21T03:41:47.780560+05:30"},{"city":"Kannur","state":"Kerala","latitude":11.8745,"longitude":75.3704,"temp":24.7,"humidity":98,"rain":0.2,"pressure":1007.7,"uv_index":8.35,"wind_gusts":41.4,"aqi":55,"pm10":8.0,"pm2_5":6.4,"no2":5.3,"co":140.0,"o3":33.0,"so2":2.1,"mosquito_risk":6,"arthritis_risk":5,"migraine_risk":4,"frizz_risk":1,"updated_at":"2026-06-21T03:41:47.780567+05:30"},{"city":"Patna","state":"Bihar","latitude":25.5941,"longitude":85.1376,"temp":28.9,"humidity":78,"rain":0.0,"pressure":995.6,"uv_index":8.7,"wind_gusts":28.8,"aqi":158,"pm10":92.4,"pm2_5":61.9,"no2":20.1,"co":417.0,"o3":61.0,"so2":8.0,"mosquito_risk":7,"arthritis_risk":5,"migraine_risk":7,"frizz_risk":1,"updated_at":"2026-06-21T03:41:47.780575+05:30"},{"city":"Gaya","state":"Bihar","latitude":24.7914,"longitude":85.0002,"temp":30.0,"humidity":61,"rain":0.0,"pressure":988.8,"uv_index":8.9,"wind_gusts":30.2,"aqi":115,"pm10":69.2,"pm2_5":38.1,"no2":12.0,"co":200.0,"o3":77.0,"so2":8.4,"mosquito_risk":7,"arthritis_risk":5,"migraine_risk":7,"frizz_risk":1,"updated_at":"2026-06-21T03:41:47.780583+05:30"},{"city":"Muzaffarpur","state":"Bihar","latitude":26.1209,"longitude":85.3647,"temp":26.3,"humidity":93,"rain":0.0,"pressure":995.7,"uv_index":8.6,"wind_gusts":44.6,"aqi":163,"pm10":98.5,"pm2_5":78.2,"no2":17.4,"co":988.0,"o3":74.0,"so2":10.3,"mosquito_risk":7,"arthritis_risk":5,"migraine_risk":7,"frizz_risk":1,"updated_at":"2026-06-21T03:41:47.780590+05:30"},{"city":"Bhagalpur","state":"Bihar","latitude":25.2425,"longitude":87.0117,"temp":28.5,"humidity":89,"rain":0.0,"pressure":996.7,"uv_index":8.2,"wind_gusts":34.6,"aqi":156,"pm10":71.0,"pm2_5":58.2,"no2":14.7,"co":276.0,"o3":83.0,"so2":24.0,"mosquito_risk":7,"arthritis_risk":5,"migraine_risk":7,"frizz_risk":1,"updated_at":"2026-06-21T03:41:47.780598+05:30"},{"city":"Ranchi","state":"Jharkhand","latitude":23.3441,"longitude":85.3096,"temp":25.6,"humidity":73,"rain":0.0,"pressure":934.2,"uv_index":6.5,"wind_gusts":29.2,"aqi":99,"pm10":39.5,"pm2_5":29.5,"no2":9.0,"co":251.0,"o3":82.0,"so2":3.5,"mosquito_risk":7,"arthritis_risk":5,"migraine_risk":7,"frizz_risk":1,"updated_at":"2026-06-21T03:41:47.780625+05:30"},{"city":"Jamshedpur","state":"Jharkhand","latitude":22.8046,"longitude":86.2029,"temp":27.3,"humidity":89,"rain":0.0,"pressure":986.9,"uv_index":9.0,"wind_gusts":30.2,"aqi":150,"pm10":60.1,"pm2_5":53.6,"no2":20.6,"co":315.0,"o3":66.0,"so2":21.9,"mosquito_risk":7,"arthritis_risk":5,"migraine_risk":7,"frizz_risk":1,"updated_at":"2026-06-21T03:41:47.780635+05:30"},{"city":"Dhanbad","state":"Jharkhand","latitude":23.7957,"longitude":86.4304,"temp":28.2,"humidity":81,"rain":0.0,"pressure":975.4,"uv_index":8.85,"wind_gusts":33.8,"aqi":158,"pm10":74.7,"pm2_5":63.6,"no2":49.4,"co":235.0,"o3":32.0,"so2":106.2,"mosquito_risk":7,"arthritis_risk":5,"migraine_risk":7,"frizz_risk":1,"updated_at":"2026-06-21T03:41:47.780643+05:30"},{"city":"Bokaro","state":"Jharkhand","latitude":23.6693,"longitude":86.1511,"temp":28.7,"humidity":73,"rain":0.0,"pressure":979.2,"uv_index":8.35,"wind_gusts":34.9,"aqi":150,"pm10":72.6,"pm2_5":56.8,"no2":37.2,"co":235.0,"o3":38.0,"so2":73.5,"mosquito_risk":7,"arthritis_risk":5,"migraine_risk":7,"frizz_risk":1,"updated_at":"2026-06-21T03:41:47.780651+05:30"},{"city":"Bhubaneswar","state":"Odisha","latitude":20.2961,"longitude":85.8245,"temp":28.5,"humidity":88,"rain":0.0,"pressure":998.6,"uv_index":6.9,"wind_gusts":38.9,"aqi":93,"pm10":29.3,"pm2_5":27.2,"no2":5.9,"co":306.0,"o3":122.0,"so2":7.2,"mosquito_risk":7,"arthritis_risk":5,"migraine_risk":7,"frizz_risk":1,"updated_at":"2026-06-21T03:41:47.780658+05:30"},{"city":"Cuttack","state":"Odisha","latitude":20.4625,"longitude":85.8828,"temp":28.3,"humidity":90,"rain":0.0,"pressure":1000.4,"uv_index":6.25,"wind_gusts":35.6,"aqi":93,"pm10":29.3,"pm2_5":27.2,"no2":5.9,"co":298.0,"o3":122.0,"so2":7.2,"mosquito_risk":7,"arthritis_risk":5,"migraine_risk":4,"frizz_risk":1,"updated_at":"2026-06-21T03:41:47.780665+05:30"},{"city":"Rourkela","state":"Odisha","latitude":22.2604,"longitude":84.8536,"temp":27.4,"humidity":86,"rain":0.0,"pressure":981.3,"uv_index":7.6,"wind_gusts":28.4,"aqi":135,"pm10":69.2,"pm2_5":60.8,"no2":26.9,"co":294.0,"o3":53.0,"so2":18.8,"mosquito_risk":7,"arthritis_risk":5,"migraine_risk":7,"frizz_risk":1,"updated_at":"2026-06-21T03:41:47.780673+05:30"},{"city":"Raipur","state":"Chhattisgarh","latitude":21.2514,"longitude":81.6296,"temp":30.1,"humidity":51,"rain":0.0,"pressure":971.1,"uv_index":8.85,"wind_gusts":38.9,"aqi":102,"pm10":36.2,"pm2_5":31.1,"no2":34.8,"co":462.0,"o3":40.0,"so2":50.9,"mosquito_risk":0,"arthritis_risk":5,"migraine_risk":7,"frizz_risk":1,"updated_at":"2026-06-21T03:41:47.780680+05:30"},{"city":"Bhilai","state":"Chhattisgarh","latitude":21.1938,"longitude":81.3509,"temp":30.6,"humidity":47,"rain":0.0,"pressure":971.7,"uv_index":8.95,"wind_gusts":42.5,"aqi":93,"pm10":32.2,"pm2_5":26.4,"no2":24.2,"co":690.0,"o3":48.0,"so2":35.5,"mosquito_risk":0,"arthritis_risk":5,"migraine_risk":7,"frizz_risk":1,"updated_at":"2026-06-21T03:41:47.780686+05:30"},{"city":"Guwahati","state":"Assam","latitude":26.1158,"longitude":91.7086,"temp":24.4,"humidity":98,"rain":0.0,"pressure":998.8,"uv_index":8.4,"wind_gusts":27.0,"aqi":125,"pm10":38.5,"pm2_5":33.3,"no2":6.0,"co":385.0,"o3":89.0,"so2":3.8,"mosquito_risk":3,"arthritis_risk":5,"migraine_risk":7,"frizz_risk":1,"updated_at":"2026-06-21T03:41:47.780693+05:30"},{"city":"Agartala","state":"Tripura","latitude":23.8315,"longitude":91.2868,"temp":25.7,"humidity":94,"rain":0.0,"pressure":1003.8,"uv_index":7.6,"wind_gusts":43.2,"aqi":74,"pm10":15.4,"pm2_5":13.2,"no2":6.0,"co":201.0,"o3":89.0,"so2":1.2,"mosquito_risk":7,"arthritis_risk":5,"migraine_risk":4,"frizz_risk":1,"updated_at":"2026-06-21T03:41:47.780700+05:30"},{"city":"Shillong","state":"Meghalaya","latitude":25.5788,"longitude":91.8933,"temp":19.8,"humidity":94,"rain":0.0,"pressure":855.6,"uv_index":8.4,"wind_gusts":31.0,"aqi":60,"pm10":2.2,"pm2_5":1.8,"no2":3.5,"co":196.0,"o3":89.0,"so2":2.9,"mosquito_risk":3,"arthritis_risk":10,"migraine_risk":7,"frizz_risk":1,"updated_at":"2026-06-21T03:41:47.780708+05:30"},{"city":"Imphal","state":"Manipur","latitude":24.817,"longitude":93.9368,"temp":22.5,"humidity":96,"rain":0.0,"pressure":921.7,"uv_index":9.25,"wind_gusts":37.8,"aqi":64,"pm10":21.2,"pm2_5":19.6,"no2":7.7,"co":372.0,"o3":53.0,"so2":2.5,"mosquito_risk":3,"arthritis_risk":5,"migraine_risk":7,"frizz_risk":1,"updated_at":"2026-06-21T03:41:47.780715+05:30"},{"city":"Aizawl","state":"Mizoram","latitude":23.7271,"longitude":92.7176,"temp":19.5,"humidity":92,"rain":0.0,"pressure":890.9,"uv_index":9.05,"wind_gusts":35.6,"aqi":39,"pm10":7.2,"pm2_5":5.4,"no2":1.8,"co":142.0,"o3":63.0,"so2":0.6,"mosquito_risk":3,"arthritis_risk":10,"migraine_risk":7,"frizz_risk":1,"updated_at":"2026-06-21T03:41:47.780723+05:30"},{"city":"Kohima","state":"Nagaland","latitude":25.6701,"longitude":94.1077,"temp":17.6,"humidity":97,"rain":0.0,"pressure":852.6,"uv_index":8.5,"wind_gusts":25.2,"aqi":45,"pm10":7.3,"pm2_5":5.2,"no2":3.9,"co":186.0,"o3":64.0,"so2":1.3,"mosquito_risk":3,"arthritis_risk":10,"migraine_risk":7,"frizz_risk":1,"updated_at":"2026-06-21T03:41:47.780730+05:30"},{"city":"Gangtok","state":"Sikkim","latitude":27.3314,"longitude":88.6138,"temp":18.1,"humidity":96,"rain":0.8,"pressure":834.9,"uv_index":8.65,"wind_gusts":27.0,"aqi":78,"pm10":4.1,"pm2_5":3.9,"no2":4.8,"co":429.0,"o3":126.0,"so2":4.9,"mosquito_risk":6,"arthritis_risk":10,"migraine_risk":7,"frizz_risk":1,"updated_at":"2026-06-21T03:41:47.780737+05:30"},{"city":"Siliguri","state":"West Bengal","latitude":26.7271,"longitude":88.3953,"temp":24.2,"humidity":97,"rain":0.0,"pressure":989.5,"uv_index":8.25,"wind_gusts":22.0,"aqi":119,"pm10":25.0,"pm2_5":22.2,"no2":9.4,"co":432.0,"o3":101.0,"so2":6.1,"mosquito_risk":3,"arthritis_risk":5,"migraine_risk":7,"frizz_risk":1,"updated_at":"2026-06-21T03:41:51.143874+05:30"},{"city":"Durgapur","state":"West Bengal","latitude":23.5204,"longitude":87.3119,"temp":27.1,"humidity":91,"rain":0.0,"pressure":990.6,"uv_index":8.95,"wind_gusts":41.0,"aqi":164,"pm10":75.7,"pm2_5":71.2,"no2":35.3,"co":822.0,"o3":46.0,"so2":45.3,"mosquito_risk":7,"arthritis_risk":5,"migraine_risk":7,"frizz_risk":1,"updated_at":"2026-06-21T03:41:51.143919+05:30"},{"city":"Asansol","state":"West Bengal","latitude":23.6739,"longitude":86.9524,"temp":27.9,"humidity":83,"rain":0.0,"pressure":989.1,"uv_index":8.85,"wind_gusts":42.8,"aqi":160,"pm10":67.3,"pm2_5":60.5,"no2":41.1,"co":336.0,"o3":34.0,"so2":57.1,"mosquito_risk":7,"arthritis_risk":5,"migraine_risk":7,"frizz_risk":1,"updated_at":"2026-06-21T03:41:51.143934+05:30"},{"city":"Pondicherry","state":"Puducherry","latitude":11.9139,"longitude":79.8145,"temp":27.6,"humidity":83,"rain":0.0,"pressure":1007.5,"uv_index":8.25,"wind_gusts":57.2,"aqi":75,"pm10":22.4,"pm2_5":16.0,"no2":13.0,"co":182.0,"o3":54.0,"so2":12.2,"mosquito_risk":7,"arthritis_risk":5,"migraine_risk":4,"frizz_risk":1,"updated_at":"2026-06-21T03:41:51.143944+05:30"},{"city":"Port Blair","state":"Andaman and Nicobar Islands","latitude":11.6234,"longitude":92.7265,"temp":26.9,"humidity":84,"rain":0.0,"pressure":1008.0,"uv_index":8.6,"wind_gusts":36.4,"aqi":54,"pm10":30.0,"pm2_5":12.8,"no2":0.2,"co":89.0,"o3":51.0,"so2":0.4,"mosquito_risk":7,"arthritis_risk":0,"migraine_risk":4,"frizz_risk":1,"updated_at":"2026-06-21T03:41:51.143952+05:30"},{"city":"Haridwar","state":"Uttarakhand","latitude":29.9457,"longitude":78.1642,"temp":25.8,"humidity":78,"rain":0.0,"pressure":968.6,"uv_index":7.6,"wind_gusts":29.9,"aqi":155,"pm10":219.8,"pm2_5":85.4,"no2":41.1,"co":546.0,"o3":40.0,"so2":11.7,"mosquito_risk":7,"arthritis_risk":5,"migraine_risk":7,"frizz_risk":1,"updated_at":"2026-06-21T03:41:51.143961+05:30"},{"city":"Rishikesh","state":"Uttarakhand","latitude":30.0869,"longitude":78.2676,"temp":22.8,"humidity":88,"rain":0.0,"pressure":961.0,"uv_index":7.7,"wind_gusts":27.7,"aqi":110,"pm10":97.8,"pm2_5":47.7,"no2":20.7,"co":315.0,"o3":82.0,"so2":8.6,"mosquito_risk":3,"arthritis_risk":5,"migraine_risk":7,"frizz_risk":1,"updated_at":"2026-06-21T03:41:51.143969+05:30"},{"city":"Nainital","state":"Uttarakhand","latitude":29.3919,"longitude":79.4542,"temp":15.2,"humidity":90,"rain":0.0,"pressure":802.2,"uv_index":8.35,"wind_gusts":33.1,"aqi":115,"pm10":168.6,"pm2_5":61.9,"no2":19.8,"co":333.0,"o3":69.0,"so2":6.1,"mosquito_risk":3,"arthritis_risk":10,"migraine_risk":7,"frizz_risk":0,"updated_at":"2026-06-21T03:41:51.143978+05:30"},{"city":"Mussoorie","state":"Uttarakhand","latitude":30.4599,"longitude":78.0664,"temp":17.2,"humidity":79,"rain":0.0,"pressure":800.6,"uv_index":8.1,"wind_gusts":42.1,"aqi":106,"pm10":55.1,"pm2_5":42.8,"no2":23.5,"co":292.0,"o3":61.0,"so2":7.2,"mosquito_risk":3,"arthritis_risk":5,"migraine_risk":7,"frizz_risk":0,"updated_at":"2026-06-21T03:41:51.143986+05:30"},{"city":"Dharamshala","state":"Himachal Pradesh","latitude":32.219,"longitude":76.3234,"temp":21.8,"humidity":61,"rain":0.0,"pressure":866.2,"uv_index":8.5,"wind_gusts":40.3,"aqi":49,"pm10":13.8,"pm2_5":11.3,"no2":9.8,"co":250.0,"o3":73.0,"so2":0.1,"mosquito_risk":3,"arthritis_risk":5,"migraine_risk":7,"frizz_risk":0,"updated_at":"2026-06-21T03:41:51.143994+05:30"},{"city":"Dalhousie","state":"Himachal Pradesh","latitude":32.5387,"longitude":75.971,"temp":14.3,"humidity":83,"rain":0.0,"pressure":800.8,"uv_index":8.75,"wind_gusts":37.4,"aqi":67,"pm10":25.8,"pm2_5":22.8,"no2":32.4,"co":303.0,"o3":12.0,"so2":0.3,"mosquito_risk":3,"arthritis_risk":10,"migraine_risk":7,"frizz_risk":0,"updated_at":"2026-06-21T03:41:51.144002+05:30"},{"city":"Patiala","state":"Punjab","latitude":30.3398,"longitude":76.3869,"temp":28.7,"humidity":60,"rain":0.0,"pressure":973.0,"uv_index":7.6,"wind_gusts":36.0,"aqi":593,"pm10":681.7,"pm2_5":144.4,"no2":15.5,"co":395.0,"o3":66.0,"so2":8.7,"mosquito_risk":4,"arthritis_risk":5,"migraine_risk":7,"frizz_risk":1,"updated_at":"2026-06-21T03:41:51.144011+05:30"},{"city":"Bhatinda","state":"Punjab","latitude":30.211,"longitude":74.9455,"temp":29.7,"humidity":59,"rain":0.0,"pressure":978.8,"uv_index":8.25,"wind_gusts":35.3,"aqi":123,"pm10":86.6,"pm2_5":55.6,"no2":45.5,"co":415.0,"o3":24.0,"so2":5.6,"mosquito_risk":4,"arthritis_risk":5,"migraine_risk":7,"frizz_risk":1,"updated_at":"2026-06-21T03:41:51.144025+05:30"},{"city":"Rohtak","state":"Haryana","latitude":28.8955,"longitude":76.6066,"temp":28.7,"humidity":56,"rain":0.0,"pressure":976.9,"uv_index":7.75,"wind_gusts":29.2,"aqi":516,"pm10":486.2,"pm2_5":129.0,"no2":31.1,"co":292.0,"o3":34.0,"so2":5.5,"mosquito_risk":4,"arthritis_risk":5,"migraine_risk":7,"frizz_risk":1,"updated_at":"2026-06-21T03:41:51.144040+05:30"},{"city":"Panipat","state":"Haryana","latitude":29.3909,"longitude":76.9635,"temp":28.6,"humidity":60,"rain":0.0,"pressure":975.3,"uv_index":7.65,"wind_gusts":29.5,"aqi":1662,"pm10":1423.1,"pm2_5":253.3,"no2":20.7,"co":341.0,"o3":66.0,"so2":9.8,"mosquito_risk":4,"arthritis_risk":5,"migraine_risk":7,"frizz_risk":1,"updated_at":"2026-06-21T03:41:51.144052+05:30"},{"city":"Mathura","state":"Uttar Pradesh","latitude":27.4924,"longitude":77.6737,"temp":30.2,"humidity":54,"rain":0.0,"pressure":982.4,"uv_index":8.1,"wind_gusts":28.8,"aqi":539,"pm10":1031.9,"pm2_5":155.5,"no2":14.6,"co":204.0,"o3":44.0,"so2":3.5,"mosquito_risk":0,"arthritis_risk":5,"migraine_risk":7,"frizz_risk":1,"updated_at":"2026-06-21T03:41:51.144060+05:30"},{"city":"Vrindavan","state":"Uttar Pradesh","latitude":27.5823,"longitude":77.7027,"temp":30.1,"humidity":53,"rain":0.0,"pressure":982.9,"uv_index":8.05,"wind_gusts":27.4,"aqi":539,"pm10":1031.9,"pm2_5":155.5,"no2":14.6,"co":201.0,"o3":44.0,"so2":3.5,"mosquito_risk":0,"arthritis_risk":5,"migraine_risk":7,"frizz_risk":1,"updated_at":"2026-06-21T03:41:51.144067+05:30"},{"city":"Ayodhya","state":"Uttar Pradesh","latitude":26.7922,"longitude":82.1998,"temp":29.5,"humidity":70,"rain":0.0,"pressure":989.9,"uv_index":8.45,"wind_gusts":34.9,"aqi":165,"pm10":273.8,"pm2_5":90.1,"no2":11.9,"co":317.0,"o3":98.0,"so2":10.2,"mosquito_risk":7,"arthritis_risk":5,"migraine_risk":7,"frizz_risk":1,"updated_at":"2026-06-21T03:41:51.144074+05:30"},{"city":"Ratlam","state":"Madhya Pradesh","latitude":23.3315,"longitude":75.0367,"temp":26.3,"humidity":70,"rain":0.0,"pressure":953.2,"uv_index":8.5,"wind_gusts":40.7,"aqi":69,"pm10":16.9,"pm2_5":12.3,"no2":8.2,"co":139.0,"o3":49.0,"so2":11.2,"mosquito_risk":7,"arthritis_risk":5,"migraine_risk":7,"frizz_risk":1,"updated_at":"2026-06-21T03:41:51.144082+05:30"},{"city":"Sagar","state":"Madhya Pradesh","latitude":23.8388,"longitude":78.7378,"temp":26.3,"humidity":75,"rain":0.0,"pressure":947.9,"uv_index":8.2,"wind_gusts":38.5,"aqi":76,"pm10":29.8,"pm2_5":20.2,"no2":7.5,"co":184.0,"o3":61.0,"so2":3.1,"mosquito_risk":7,"arthritis_risk":5,"migraine_risk":7,"frizz_risk":1,"updated_at":"2026-06-21T03:41:51.144089+05:30"},{"city":"Satna","state":"Madhya Pradesh","latitude":24.6005,"longitude":80.8322,"temp":29.9,"humidity":61,"rain":0.0,"pressure":967.6,"uv_index":8.3,"wind_gusts":41.0,"aqi":72,"pm10":62.6,"pm2_5":33.9,"no2":8.5,"co":160.0,"o3":59.0,"so2":4.1,"mosquito_risk":7,"arthritis_risk":5,"migraine_risk":7,"frizz_risk":1,"updated_at":"2026-06-21T03:41:51.144096+05:30"},{"city":"Akola","state":"Maharashtra","latitude":20.7002,"longitude":77.0082,"temp":31.1,"humidity":52,"rain":0.0,"pressure":973.4,"uv_index":8.8,"wind_gusts":38.9,"aqi":56,"pm10":25.3,"pm2_5":17.8,"no2":9.4,"co":112.0,"o3":63.0,"so2":8.2,"mosquito_risk":0,"arthritis_risk":5,"migraine_risk":7,"frizz_risk":1,"updated_at":"2026-06-21T03:41:51.144104+05:30"},{"city":"Amravati","state":"Maharashtra","latitude":20.9374,"longitude":77.7796,"temp":28.8,"humidity":72,"rain":0.0,"pressure":965.1,"uv_index":8.85,"wind_gusts":37.4,"aqi":58,"pm10":27.2,"pm2_5":18.5,"no2":10.5,"co":312.0,"o3":56.0,"so2":5.8,"mosquito_risk":7,"arthritis_risk":5,"migraine_risk":7,"frizz_risk":1,"updated_at":"2026-06-21T03:41:51.144112+05:30"},{"city":"Latur","state":"Maharashtra","latitude":18.4088,"longitude":76.5604,"temp":28.5,"humidity":53,"rain":0.0,"pressure":938.7,"uv_index":6.9,"wind_gusts":36.0,"aqi":58,"pm10":15.1,"pm2_5":12.0,"no2":7.9,"co":158.0,"o3":58.0,"so2":4.4,"mosquito_risk":4,"arthritis_risk":5,"migraine_risk":7,"frizz_risk":1,"updated_at":"2026-06-21T03:41:51.144120+05:30"},{"city":"Nanded","state":"Maharashtra","latitude":19.1383,"longitude":77.3091,"temp":29.8,"humidity":58,"rain":0.0,"pressure":967.4,"uv_index":8.9,"wind_gusts":33.8,"aqi":61,"pm10":24.0,"pm2_5":19.6,"no2":9.5,"co":205.0,"o3":69.0,"so2":7.7,"mosquito_risk":4,"arthritis_risk":5,"migraine_risk":7,"frizz_risk":1,"updated_at":"2026-06-21T03:41:51.144127+05:30"},{"city":"Gulbarga","state":"Karnataka","latitude":17.3297,"longitude":76.8343,"temp":28.8,"humidity":53,"rain":0.0,"pressure":957.6,"uv_index":7.15,"wind_gusts":45.7,"aqi":57,"pm10":14.2,"pm2_5":10.9,"no2":5.7,"co":168.0,"o3":55.0,"so2":2.4,"mosquito_risk":4,"arthritis_risk":5,"migraine_risk":7,"frizz_risk":1,"updated_at":"2026-06-21T03:41:51.144134+05:30"},{"city":"Bidar","state":"Karnataka","latitude":17.9104,"longitude":77.5199,"temp":24.9,"humidity":94,"rain":0.0,"pressure":934.0,"uv_index":7.4,"wind_gusts":38.9,"aqi":66,"pm10":18.3,"pm2_5":15.9,"no2":10.3,"co":128.0,"o3":66.0,"so2":2.0,"mosquito_risk":3,"arthritis_risk":5,"migraine_risk":7,"frizz_risk":1,"updated_at":"2026-06-21T03:41:51.144144+05:30"},{"city":"Hospet","state":"Karnataka","latitude":15.2689,"longitude":76.3909,"temp":24.9,"humidity":81,"rain":0.0,"pressure":954.9,"uv_index":8.2,"wind_gusts":46.1,"aqi":49,"pm10":12.8,"pm2_5":8.9,"no2":6.6,"co":135.0,"o3":34.0,"so2":1.8,"mosquito_risk":3,"arthritis_risk":5,"migraine_risk":7,"frizz_risk":1,"updated_at":"2026-06-21T03:41:51.144159+05:30"},{"city":"Tirupur","state":"Tamil Nadu","latitude":11.1085,"longitude":77.3411,"temp":24.9,"humidity":84,"rain":0.0,"pressure":974.9,"uv_index":8.5,"wind_gusts":51.5,"aqi":67,"pm10":22.0,"pm2_5":16.9,"no2":15.7,"co":162.0,"o3":31.0,"so2":4.7,"mosquito_risk":3,"arthritis_risk":5,"migraine_risk":7,"frizz_risk":1,"updated_at":"2026-06-21T03:41:51.144173+05:30"},{"city":"Alappuzha","state":"Kerala","latitude":9.4981,"longitude":76.3388,"temp":25.6,"humidity":94,"rain":0.1,"pressure":1009.7,"uv_index":8.3,"wind_gusts":37.1,"aqi":65,"pm10":8.9,"pm2_5":6.9,"no2":6.6,"co":88.0,"o3":38.0,"so2":1.8,"mosquito_risk":10,"arthritis_risk":0,"migraine_risk":4,"frizz_risk":1,"updated_at":"2026-06-21T03:41:51.144182+05:30"},{"city":"Munnar","state":"Kerala","latitude":10.0889,"longitude":77.0595,"temp":16.2,"humidity":91,"rain":0.0,"pressure":856.2,"uv_index":8.3,"wind_gusts":32.0,"aqi":61,"pm10":16.2,"pm2_5":12.4,"no2":11.3,"co":123.0,"o3":20.0,"so2":2.0,"mosquito_risk":3,"arthritis_risk":10,"migraine_risk":7,"frizz_risk":0,"updated_at":"2026-06-21T03:41:51.144190+05:30"},{"city":"Silchar","state":"Assam","latitude":24.8333,"longitude":92.7789,"temp":25.2,"humidity":99,"rain":0.0,"pressure":1003.4,"uv_index":8.75,"wind_gusts":30.2,"aqi":72,"pm10":15.2,"pm2_5":12.8,"no2":4.8,"co":239.0,"o3":79.0,"so2":2.8,"mosquito_risk":7,"arthritis_risk":5,"migraine_risk":4,"frizz_risk":1,"updated_at":"2026-06-21T03:41:51.144197+05:30"},{"city":"Dibrugarh","state":"Assam","latitude":27.4728,"longitude":94.912,"temp":24.4,"humidity":99,"rain":0.0,"pressure":993.0,"uv_index":1.1,"wind_gusts":35.3,"aqi":87,"pm10":30.5,"pm2_5":24.2,"no2":6.8,"co":274.0,"o3":86.0,"so2":2.3,"mosquito_risk":3,"arthritis_risk":5,"migraine_risk":3,"frizz_risk":1,"updated_at":"2026-06-21T03:41:51.144204+05:30"}]