[{"city":"Delhi","state":"Delhi","latitude":28.6139,"longitude":77.209,"temp":36.2,"humidity":46,"rain":0.0,"pressure":974.3,"uv_index":6.6,"wind_gusts":38.2,"aqi":450,"pm10":609.1,"pm2_5":133.6,"no2":8.7,"co":278.0,"o3":148.0,"so2":12.7,"mosquito_risk":0,"arthritis_risk":5,"migraine_risk":10,"frizz_risk":1,"updated_at":"2026-07-14T16:19:10.495192+05:30"},{"city":"Mumbai","state":"Maharashtra","latitude":19.076,"longitude":72.8777,"temp":29.3,"humidity":74,"rain":0.0,"pressure":1006.2,"uv_index":7.0,"wind_gusts":44.3,"aqi":70,"pm10":44.6,"pm2_5":20.8,"no2":5.2,"co":155.0,"o3":71.0,"so2":6.4,"mosquito_risk":7,"arthritis_risk":5,"migraine_risk":4,"frizz_risk":1,"updated_at":"2026-07-14T16:19:10.495233+05:30"},{"city":"Bangalore","state":"Karnataka","latitude":12.9716,"longitude":77.5946,"temp":32.2,"humidity":33,"rain":0.0,"pressure":910.4,"uv_index":8.55,"wind_gusts":40.3,"aqi":59,"pm10":23.1,"pm2_5":12.1,"no2":6.6,"co":236.0,"o3":90.0,"so2":2.9,"mosquito_risk":0,"arthritis_risk":5,"migraine_risk":7,"frizz_risk":0,"updated_at":"2026-07-14T16:19:10.495248+05:30"},{"city":"Hyderabad","state":"Telangana","latitude":17.385,"longitude":78.4867,"temp":32.7,"humidity":44,"rain":0.0,"pressure":949.8,"uv_index":7.8,"wind_gusts":47.5,"aqi":57,"pm10":24.6,"pm2_5":15.0,"no2":2.9,"co":216.0,"o3":104.0,"so2":3.1,"mosquito_risk":0,"arthritis_risk":5,"migraine_risk":7,"frizz_risk":1,"updated_at":"2026-07-14T16:19:10.495258+05:30"},{"city":"Chennai","state":"Tamil Nadu","latitude":13.0827,"longitude":80.2707,"temp":34.9,"humidity":50,"rain":0.0,"pressure":1001.6,"uv_index":8.25,"wind_gusts":36.7,"aqi":77,"pm10":42.3,"pm2_5":27.8,"no2":6.1,"co":220.0,"o3":149.0,"so2":6.8,"mosquito_risk":0,"arthritis_risk":5,"migraine_risk":4,"frizz_risk":1,"updated_at":"2026-07-14T16:19:10.495266+05:30"},{"city":"Kolkata","state":"West Bengal","latitude":22.5726,"longitude":88.3639,"temp":27.4,"humidity":93,"rain":0.1,"pressure":996.5,"uv_index":8.7,"wind_gusts":28.8,"aqi":145,"pm10":31.7,"pm2_5":26.7,"no2":7.5,"co":621.0,"o3":158.0,"so2":12.2,"mosquito_risk":10,"arthritis_risk":5,"migraine_risk":7,"frizz_risk":1,"updated_at":"2026-07-14T16:19:10.495274+05:30"},{"city":"Pune","state":"Maharashtra","latitude":18.5204,"longitude":73.8567,"temp":29.2,"humidity":56,"rain":0.0,"pressure":945.9,"uv_index":8.4,"wind_gusts":48.2,"aqi":54,"pm10":31.0,"pm2_5":15.0,"no2":1.8,"co":126.0,"o3":78.0,"so2":3.3,"mosquito_risk":4,"arthritis_risk":5,"migraine_risk":7,"frizz_risk":1,"updated_at":"2026-07-14T16:19:10.495281+05:30"},{"city":"Ahmedabad","state":"Gujarat","latitude":23.0225,"longitude":72.5714,"temp":36.2,"humidity":40,"rain":0.0,"pressure":996.1,"uv_index":5.85,"wind_gusts":43.9,"aqi":67,"pm10":74.5,"pm2_5":25.6,"no2":2.2,"co":124.0,"o3":79.0,"so2":2.8,"mosquito_risk":0,"arthritis_risk":5,"migraine_risk":6,"frizz_risk":1,"updated_at":"2026-07-14T16:19:10.495288+05:30"},{"city":"Jaipur","state":"Rajasthan","latitude":26.9124,"longitude":75.7873,"temp":34.0,"humidity":47,"rain":0.0,"pressure":953.6,"uv_index":8.1,"wind_gusts":41.0,"aqi":428,"pm10":212.3,"pm2_5":58.2,"no2":1.6,"co":134.0,"o3":90.0,"so2":3.2,"mosquito_risk":0,"arthritis_risk":5,"migraine_risk":7,"frizz_risk":1,"updated_at":"2026-07-14T16:19:10.495294+05:30"},{"city":"Lucknow","state":"Uttar Pradesh","latitude":26.8467,"longitude":80.9462,"temp":35.3,"humidity":55,"rain":0.0,"pressure":984.6,"uv_index":8.0,"wind_gusts":24.8,"aqi":153,"pm10":231.4,"pm2_5":71.7,"no2":3.0,"co":194.0,"o3":129.0,"so2":5.3,"mosquito_risk":0,"arthritis_risk":5,"migraine_risk":10,"frizz_risk":1,"updated_at":"2026-07-14T16:19:10.495305+05:30"},{"city":"Kanpur","state":"Uttar Pradesh","latitude":26.4499,"longitude":80.3319,"temp":35.8,"humidity":50,"rain":0.0,"pressure":983.0,"uv_index":7.3,"wind_gusts":35.3,"aqi":136,"pm10":204.0,"pm2_5":61.2,"no2":2.7,"co":160.0,"o3":124.0,"so2":4.8,"mosquito_risk":0,"arthritis_risk":5,"migraine_risk":10,"frizz_risk":1,"updated_at":"2026-07-14T16:19:10.495312+05:30"},{"city":"Chandigarh","state":"Chandigarh","latitude":30.7333,"longitude":76.7794,"temp":33.5,"humidity":56,"rain":0.0,"pressure":960.8,"uv_index":7.7,"wind_gusts":24.5,"aqi":172,"pm10":124.8,"pm2_5":61.2,"no2":2.8,"co":387.0,"o3":187.0,"so2":14.2,"mosquito_risk":0,"arthritis_risk":5,"migraine_risk":7,"frizz_risk":1,"updated_at":"2026-07-14T16:19:10.495319+05:30"},{"city":"Srinagar","state":"Jammu and Kashmir","latitude":34.0837,"longitude":74.7973,"temp":28.5,"humidity":41,"rain":0.0,"pressure":838.3,"uv_index":8.95,"wind_gusts":20.2,"aqi":95,"pm10":21.1,"pm2_5":11.1,"no2":1.7,"co":257.0,"o3":147.0,"so2":2.3,"mosquito_risk":4,"arthritis_risk":5,"migraine_risk":7,"frizz_risk":0,"updated_at":"2026-07-14T16:19:10.495325+05:30"},{"city":"Jammu","state":"Jammu and Kashmir","latitude":32.7266,"longitude":74.857,"temp":34.2,"humidity":49,"rain":0.0,"pressure":964.7,"uv_index":8.35,"wind_gusts":25.2,"aqi":154,"pm10":85.9,"pm2_5":41.2,"no2":1.2,"co":317.0,"o3":165.0,"so2":3.8,"mosquito_risk":0,"arthritis_risk":5,"migraine_risk":7,"frizz_risk":1,"updated_at":"2026-07-14T16:19:10.495332+05:30"},{"city":"Amritsar","state":"Punjab","latitude":31.634,"longitude":74.8723,"temp":33.9,"humidity":60,"rain":0.0,"pressure":972.4,"uv_index":8.3,"wind_gusts":16.9,"aqi":188,"pm10":115.3,"pm2_5":59.6,"no2":1.9,"co":362.0,"o3":213.0,"so2":10.6,"mosquito_risk":0,"arthritis_risk":5,"migraine_risk":7,"frizz_risk":1,"updated_at":"2026-07-14T16:19:10.495338+05:30"},{"city":"Ludhiana","state":"Punjab","latitude":30.901,"longitude":75.8573,"temp":34.6,"humidity":54,"rain":0.0,"pressure":970.2,"uv_index":7.9,"wind_gusts":24.5,"aqi":189,"pm10":112.7,"pm2_5":61.0,"no2":2.2,"co":396.0,"o3":180.0,"so2":5.4,"mosquito_risk":0,"arthritis_risk":5,"migraine_risk":7,"frizz_risk":1,"updated_at":"2026-07-14T16:19:10.495344+05:30"},{"city":"Jalandhar","state":"Punjab","latitude":31.326,"longitude":75.5762,"temp":34.3,"humidity":56,"rain":0.0,"pressure":971.4,"uv_index":7.9,"wind_gusts":19.1,"aqi":195,"pm10":113.6,"pm2_5":61.2,"no2":2.2,"co":413.0,"o3":187.0,"so2":6.8,"mosquito_risk":0,"arthritis_risk":5,"migraine_risk":7,"frizz_risk":1,"updated_at":"2026-07-14T16:19:10.495350+05:30"},{"city":"Dehradun","state":"Uttarakhand","latitude":30.6284,"longitude":78.0322,"temp":23.8,"humidity":65,"rain":0.0,"pressure":827.9,"uv_index":8.1,"wind_gusts":28.4,"aqi":115,"pm10":70.5,"pm2_5":30.5,"no2":0.6,"co":240.0,"o3":127.0,"so2":3.6,"mosquito_risk":3,"arthritis_risk":5,"migraine_risk":7,"frizz_risk":1,"updated_at":"2026-07-14T16:19:10.495356+05:30"},{"city":"Shimla","state":"Himachal Pradesh","latitude":31.1048,"longitude":77.1734,"temp":21.6,"humidity":63,"rain":0.0,"pressure":783.2,"uv_index":7.4,"wind_gusts":36.4,"aqi":152,"pm10":72.2,"pm2_5":35.5,"no2":1.5,"co":230.0,"o3":149.0,"so2":9.7,"mosquito_risk":3,"arthritis_risk":5,"migraine_risk":7,"frizz_risk":0,"updated_at":"2026-07-14T16:19:10.495363+05:30"},{"city":"Manali","state":"Himachal Pradesh","latitude":32.2396,"longitude":77.1887,"temp":24.0,"humidity":64,"rain":0.0,"pressure":817.3,"uv_index":9.55,"wind_gusts":31.7,"aqi":104,"pm10":21.5,"pm2_5":10.0,"no2":0.0,"co":146.0,"o3":160.0,"so2":1.1,"mosquito_risk":3,"arthritis_risk":5,"migraine_risk":7,"frizz_risk":1,"updated_at":"2026-07-14T16:19:10.495371+05:30"},{"city":"Gurgaon","state":"Haryana","latitude":28.4595,"longitude":77.0266,"temp":36.2,"humidity":44,"rain":0.0,"pressure":972.9,"uv_index":7.05,"wind_gusts":34.2,"aqi":521,"pm10":556.9,"pm2_5":124.8,"no2":8.9,"co":209.0,"o3":136.0,"so2":11.4,"mosquito_risk":0,"arthritis_risk":5,"migraine_risk":10,"frizz_risk":1,"updated_at":"2026-07-14T16:19:10.495377+05:30"},{"city":"Noida","state":"Uttar Pradesh","latitude":28.5355,"longitude":77.391,"temp":36.3,"humidity":45,"rain":0.0,"pressure":975.8,"uv_index":6.6,"wind_gusts":30.6,"aqi":521,"pm10":556.9,"pm2_5":124.8,"no2":8.9,"co":281.0,"o3":136.0,"so2":11.4,"mosquito_risk":0,"arthritis_risk":5,"migraine_risk":10,"frizz_risk":1,"updated_at":"2026-07-14T16:19:10.495384+05:30"},{"city":"Ghaziabad","state":"Uttar Pradesh","latitude":28.6692,"longitude":77.4538,"temp":36.0,"humidity":47,"rain":0.0,"pressure":974.0,"uv_index":6.7,"wind_gusts":30.6,"aqi":327,"pm10":530.9,"pm2_5":134.1,"no2":4.8,"co":210.0,"o3":169.0,"so2":15.0,"mosquito_risk":0,"arthritis_risk":5,"migraine_risk":10,"frizz_risk":1,"updated_at":"2026-07-14T16:19:10.495390+05:30"},{"city":"Faridabad","state":"Haryana","latitude":28.4089,"longitude":77.3178,"temp":36.4,"humidity":44,"rain":0.0,"pressure":975.1,"uv_index":6.7,"wind_gusts":43.9,"aqi":521,"pm10":556.9,"pm2_5":124.8,"no2":8.9,"co":195.0,"o3":136.0,"so2":11.4,"mosquito_risk":0,"arthritis_risk":5,"migraine_risk":10,"frizz_risk":1,"updated_at":"2026-07-14T16:19:10.495399+05:30"},{"city":"Meerut","state":"Uttar Pradesh","latitude":28.9845,"longitude":77.7064,"temp":34.7,"humidity":56,"rain":0.0,"pressure":972.9,"uv_index":7.6,"wind_gusts":29.9,"aqi":327,"pm10":530.9,"pm2_5":134.1,"no2":4.8,"co":183.0,"o3":169.0,"so2":15.0,"mosquito_risk":0,"arthritis_risk":5,"migraine_risk":7,"frizz_risk":1,"updated_at":"2026-07-14T16:19:10.495406+05:30"},{"city":"Agra","state":"Uttar Pradesh","latitude":27.1767,"longitude":78.0081,"temp":34.9,"humidity":53,"rain":0.0,"pressure":979.6,"uv_index":7.95,"wind_gusts":30.2,"aqi":154,"pm10":310.1,"pm2_5":89.2,"no2":3.6,"co":148.0,"o3":120.0,"so2":4.1,"mosquito_risk":0,"arthritis_risk":5,"migraine_risk":7,"frizz_risk":1,"updated_at":"2026-07-14T16:19:10.495412+05:30"},{"city":"Varanasi","state":"Uttar Pradesh","latitude":25.3176,"longitude":82.9739,"temp":34.7,"humidity":55,"rain":0.0,"pressure":988.7,"uv_index":6.5,"wind_gusts":22.3,"aqi":151,"pm10":168.1,"pm2_5":61.9,"no2":3.2,"co":258.0,"o3":140.0,"so2":8.6,"mosquito_risk":0,"arthritis_risk":5,"migraine_risk":7,"frizz_risk":1,"updated_at":"2026-07-14T16:19:10.495418+05:30"},{"city":"Prayagraj","state":"Uttar Pradesh","latitude":25.4358,"longitude":81.8463,"temp":35.8,"humidity":49,"rain":0.0,"pressure":987.1,"uv_index":7.7,"wind_gusts":28.4,"aqi":132,"pm10":185.3,"pm2_5":61.5,"no2":3.1,"co":177.0,"o3":129.0,"so2":7.4,"mosquito_risk":0,"arthritis_risk":5,"migraine_risk":10,"frizz_risk":1,"updated_at":"2026-07-14T16:19:10.495424+05:30"},{"city":"Gorakhpur","state":"Uttar Pradesh","latitude":26.7606,"longitude":83.3732,"temp":33.1,"humidity":67,"rain":0.0,"pressure":988.2,"uv_index":7.85,"wind_gusts":24.1,"aqi":159,"pm10":174.6,"pm2_5":74.5,"no2":3.1,"co":266.0,"o3":164.0,"so2":7.7,"mosquito_risk":3,"arthritis_risk":5,"migraine_risk":7,"frizz_risk":1,"updated_at":"2026-07-14T16:19:10.495431+05:30"},{"city":"Bareilly","state":"Uttar Pradesh","latitude":28.367,"longitude":79.4304,"temp":34.9,"humidity":53,"rain":0.0,"pressure":977.9,"uv_index":8.0,"wind_gusts":25.2,"aqi":175,"pm10":334.3,"pm2_5":106.4,"no2":3.1,"co":196.0,"o3":155.0,"so2":8.4,"mosquito_risk":0,"arthritis_risk":5,"migraine_risk":7,"frizz_risk":1,"updated_at":"2026-07-14T16:19:10.495439+05:30"},{"city":"Aligarh","state":"Uttar Pradesh","latitude":27.8974,"longitude":78.088,"temp":35.0,"humidity":51,"rain":0.0,"pressure":977.1,"uv_index":7.85,"wind_gusts":46.1,"aqi":486,"pm10":769.3,"pm2_5":163.9,"no2":3.4,"co":178.0,"o3":135.0,"so2":8.0,"mosquito_risk":0,"arthritis_risk":5,"migraine_risk":7,"frizz_risk":1,"updated_at":"2026-07-14T16:19:10.495445+05:30"},{"city":"Moradabad","state":"Uttar Pradesh","latitude":28.8386,"longitude":78.7733,"temp":34.7,"humidity":55,"rain":0.0,"pressure":974.9,"uv_index":7.6,"wind_gusts":25.6,"aqi":200,"pm10":409.8,"pm2_5":127.1,"no2":4.0,"co":175.0,"o3":176.0,"so2":11.9,"mosquito_risk":0,"arthritis_risk":5,"migraine_risk":7,"frizz_risk":1,"updated_at":"2026-07-14T16:19:10.495451+05:30"},{"city":"Saharanpur","state":"Uttar Pradesh","latitude":29.9637,"longitude":77.546,"temp":33.5,"humidity":60,"rain":0.0,"pressure":967.4,"uv_index":7.35,"wind_gusts":30.6,"aqi":192,"pm10":243.1,"pm2_5":93.6,"no2":3.1,"co":264.0,"o3":179.0,"so2":17.2,"mosquito_risk":0,"arthritis_risk":5,"migraine_risk":7,"frizz_risk":1,"updated_at":"2026-07-14T16:19:10.495457+05:30"},{"city":"Jhansi","state":"Uttar Pradesh","latitude":25.4484,"longitude":78.5685,"temp":33.9,"humidity":53,"rain":0.0,"pressure":970.9,"uv_index":8.4,"wind_gusts":41.4,"aqi":109,"pm10":170.4,"pm2_5":49.6,"no2":1.6,"co":114.0,"o3":99.0,"so2":4.8,"mosquito_risk":0,"arthritis_risk":5,"migraine_risk":7,"frizz_risk":1,"updated_at":"2026-07-14T16:19:13.739138+05:30"},{"city":"Surat","state":"Gujarat","latitude":21.1702,"longitude":72.8311,"temp":30.7,"humidity":68,"rain":0.1,"pressure":1002.8,"uv_index":6.35,"wind_gusts":55.4,"aqi":73,"pm10":39.5,"pm2_5":22.3,"no2":9.8,"co":239.0,"o3":45.0,"so2":26.8,"mosquito_risk":6,"arthritis_risk":5,"migraine_risk":4,"frizz_risk":1,"updated_at":"2026-07-14T16:19:13.739171+05:30"},{"city":"Vadodara","state":"Gujarat","latitude":22.3072,"longitude":73.1812,"temp":33.1,"humidity":56,"rain":0.0,"pressure":999.3,"uv_index":4.35,"wind_gusts":48.2,"aqi":65,"pm10":44.0,"pm2_5":20.0,"no2":3.3,"co":139.0,"o3":74.0,"so2":3.2,"mosquito_risk":0,"arthritis_risk":5,"migraine_risk":3,"frizz_risk":1,"updated_at":"2026-07-14T16:19:13.739183+05:30"},{"city":"Rajkot","state":"Gujarat","latitude":22.3039,"longitude":70.8022,"temp":33.8,"humidity":47,"rain":0.0,"pressure":988.8,"uv_index":7.15,"wind_gusts":54.0,"aqi":62,"pm10":52.9,"pm2_5":19.4,"no2":1.3,"co":100.0,"o3":70.0,"so2":2.9,"mosquito_risk":0,"arthritis_risk":5,"migraine_risk":7,"frizz_risk":1,"updated_at":"2026-07-14T16:19:13.739193+05:30"},{"city":"Thane","state":"Maharashtra","latitude":19.2183,"longitude":72.9781,"temp":30.0,"humidity":70,"rain":0.0,"pressure":1005.4,"uv_index":7.1,"wind_gusts":37.1,"aqi":70,"pm10":44.6,"pm2_5":20.8,"no2":5.2,"co":151.0,"o3":71.0,"so2":6.4,"mosquito_risk":7,"arthritis_risk":5,"migraine_risk":4,"frizz_risk":1,"updated_at":"2026-07-14T16:19:13.739202+05:30"},{"city":"Nagpur","state":"Maharashtra","latitude":21.1458,"longitude":79.0882,"temp":33.6,"humidity":45,"rain":0.0,"pressure":968.1,"uv_index":7.8,"wind_gusts":49.0,"aqi":84,"pm10":77.3,"pm2_5":31.8,"no2":4.7,"co":136.0,"o3":95.0,"so2":12.1,"mosquito_risk":0,"arthritis_risk":5,"migraine_risk":7,"frizz_risk":1,"updated_at":"2026-07-14T16:19:13.739210+05:30"},{"city":"Nashik","state":"Maharashtra","latitude":19.9975,"longitude":73.7898,"temp":28.0,"humidity":64,"rain":0.0,"pressure":942.7,"uv_index":7.25,"wind_gusts":50.8,"aqi":57,"pm10":32.1,"pm2_5":15.0,"no2":1.3,"co":111.0,"o3":70.0,"so2":1.8,"mosquito_risk":7,"arthritis_risk":5,"migraine_risk":7,"frizz_risk":1,"updated_at":"2026-07-14T16:19:13.739218+05:30"},{"city":"Aurangabad","state":"Maharashtra","latitude":19.8762,"longitude":75.3433,"temp":30.4,"humidity":48,"rain":0.0,"pressure":941.2,"uv_index":7.55,"wind_gusts":50.4,"aqi":60,"pm10":28.3,"pm2_5":15.3,"no2":1.2,"co":121.0,"o3":96.0,"so2":3.3,"mosquito_risk":0,"arthritis_risk":5,"migraine_risk":7,"frizz_risk":1,"updated_at":"2026-07-14T16:19:13.739226+05:30"},{"city":"Solapur","state":"Maharashtra","latitude":17.6599,"longitude":75.9064,"temp":33.3,"humidity":43,"rain":0.1,"pressure":954.0,"uv_index":8.55,"wind_gusts":39.6,"aqi":56,"pm10":31.2,"pm2_5":17.1,"no2":1.2,"co":117.0,"o3":95.0,"so2":1.8,"mosquito_risk":3,"arthritis_risk":5,"migraine_risk":7,"frizz_risk":1,"updated_at":"2026-07-14T16:19:13.739235+05:30"},{"city":"Kolhapur","state":"Maharashtra","latitude":16.705,"longitude":74.2433,"temp":27.7,"humidity":65,"rain":0.0,"pressure":946.4,"uv_index":8.9,"wind_gusts":46.1,"aqi":54,"pm10":27.7,"pm2_5":15.8,"no2":1.5,"co":113.0,"o3":72.0,"so2":1.6,"mosquito_risk":7,"arthritis_risk":5,"migraine_risk":7,"frizz_risk":1,"updated_at":"2026-07-14T16:19:13.739242+05:30"},{"city":"Goa","state":"Goa","latitude":15.2993,"longitude":74.124,"temp":29.3,"humidity":72,"rain":0.0,"pressure":997.2,"uv_index":8.0,"wind_gusts":33.8,"aqi":69,"pm10":35.3,"pm2_5":17.8,"no2":0.9,"co":104.0,"o3":58.0,"so2":1.3,"mosquito_risk":7,"arthritis_risk":5,"migraine_risk":7,"frizz_risk":1,"updated_at":"2026-07-14T16:19:13.739250+05:30"},{"city":"Jodhpur","state":"Rajasthan","latitude":26.2389,"longitude":73.0243,"temp":35.6,"humidity":40,"rain":0.0,"pressure":976.2,"uv_index":8.0,"wind_gusts":47.5,"aqi":202,"pm10":372.5,"pm2_5":66.4,"no2":1.5,"co":107.0,"o3":71.0,"so2":2.2,"mosquito_risk":0,"arthritis_risk":5,"migraine_risk":10,"frizz_risk":1,"updated_at":"2026-07-14T16:19:13.739258+05:30"},{"city":"Udaipur","state":"Rajasthan","latitude":24.5854,"longitude":73.7125,"temp":30.8,"humidity":53,"rain":0.0,"pressure":941.6,"uv_index":8.15,"wind_gusts":47.9,"aqi":74,"pm10":75.9,"pm2_5":25.5,"no2":1.1,"co":110.0,"o3":74.0,"so2":2.6,"mosquito_risk":0,"arthritis_risk":5,"migraine_risk":7,"frizz_risk":1,"updated_at":"2026-07-14T16:19:13.739266+05:30"},{"city":"Kota","state":"Rajasthan","latitude":25.2138,"longitude":75.8648,"temp":35.0,"humidity":41,"rain":0.0,"pressure":972.4,"uv_index":8.3,"wind_gusts":37.8,"aqi":94,"pm10":160.7,"pm2_5":43.1,"no2":2.0,"co":130.0,"o3":80.0,"so2":4.8,"mosquito_risk":0,"arthritis_risk":5,"migraine_risk":7,"frizz_risk":1,"updated_at":"2026-07-14T16:19:13.739274+05:30"},{"city":"Bikaner","state":"Rajasthan","latitude":28.0229,"longitude":73.3119,"temp":37.8,"humidity":36,"rain":0.0,"pressure":973.9,"uv_index":8.4,"wind_gusts":39.6,"aqi":173,"pm10":265.4,"pm2_5":73.6,"no2":0.4,"co":109.0,"o3":84.0,"so2":3.1,"mosquito_risk":0,"arthritis_risk":5,"migraine_risk":10,"frizz_risk":1,"updated_at":"2026-07-14T16:19:13.739282+05:30"},{"city":"Ajmer","state":"Rajasthan","latitude":26.4499,"longitude":74.6399,"temp":32.1,"humidity":48,"rain":0.0,"pressure":948.8,"uv_index":8.2,"wind_gusts":56.2,"aqi":107,"pm10":195.1,"pm2_5":50.1,"no2":1.1,"co":118.0,"o3":78.0,"so2":2.4,"mosquito_risk":0,"arthritis_risk":5,"migraine_risk":7,"frizz_risk":1,"updated_at":"2026-07-14T16:19:13.739289+05:30"},{"city":"Gwalior","state":"Madhya Pradesh","latitude":26.2183,"longitude":78.1828,"temp":33.8,"humidity":54,"rain":0.0,"pressure":975.7,"uv_index":8.05,"wind_gusts":42.5,"aqi":115,"pm10":201.6,"pm2_5":55.8,"no2":1.3,"co":122.0,"o3":94.0,"so2":2.4,"mosquito_risk":0,"arthritis_risk":5,"migraine_risk":7,"frizz_risk":1,"updated_at":"2026-07-14T16:19:13.739297+05:30"},{"city":"Indore","state":"Madhya Pradesh","latitude":22.7196,"longitude":75.8577,"temp":31.0,"humidity":46,"rain":0.0,"pressure":944.3,"uv_index":8.4,"wind_gusts":52.2,"aqi":72,"pm10":39.5,"pm2_5":19.0,"no2":2.0,"co":171.0,"o3":86.0,"so2":2.9,"mosquito_risk":0,"arthritis_risk":5,"migraine_risk":7,"frizz_risk":1,"updated_at":"2026-07-14T16:19:13.739304+05:30"},{"city":"Bhopal","state":"Madhya Pradesh","latitude":23.2599,"longitude":77.4126,"temp":31.3,"humidity":49,"rain":0.0,"pressure":949.1,"uv_index":8.6,"wind_gusts":41.8,"aqi":82,"pm10":96.4,"pm2_5":32.8,"no2":1.5,"co":163.0,"o3":84.0,"so2":2.8,"mosquito_risk":0,"arthritis_risk":5,"migraine_risk":7,"frizz_risk":1,"updated_at":"2026-07-14T16:19:13.739312+05:30"},{"city":"Jabalpur","state":"Madhya Pradesh","latitude":23.1815,"longitude":79.9864,"temp":30.6,"humidity":66,"rain":0.0,"pressure":955.5,"uv_index":8.55,"wind_gusts":38.2,"aqi":92,"pm10":72.6,"pm2_5":28.3,"no2":2.1,"co":137.0,"o3":93.0,"so2":4.3,"mosquito_risk":3,"arthritis_risk":5,"migraine_risk":7,"frizz_risk":1,"updated_at":"2026-07-14T16:19:13.739319+05:30"},{"city":"Ujjain","state":"Madhya Pradesh","latitude":23.1765,"longitude":75.7885,"temp":30.8,"humidity":51,"rain":0.0,"pressure":949.5,"uv_index":8.5,"wind_gusts":49.0,"aqi":71,"pm10":45.1,"pm2_5":20.9,"no2":1.3,"co":143.0,"o3":84.0,"so2":3.2,"mosquito_risk":0,"arthritis_risk":5,"migraine_risk":7,"frizz_risk":1,"updated_at":"2026-07-14T16:19:13.739327+05:30"},{"city":"Visakhapatnam","state":"Andhra Pradesh","latitude":17.6868,"longitude":83.2185,"temp":35.0,"humidity":51,"rain":0.0,"pressure":995.2,"uv_index":8.55,"wind_gusts":26.6,"aqi":136,"pm10":109.7,"pm2_5":50.6,"no2":15.7,"co":677.0,"o3":137.0,"so2":44.5,"mosquito_risk":0,"arthritis_risk":5,"migraine_risk":7,"frizz_risk":1,"updated_at":"2026-07-14T16:19:13.739334+05:30"},{"city":"Vijayawada","state":"Andhra Pradesh","latitude":16.5062,"longitude":80.648,"temp":34.4,"humidity":47,"rain":0.0,"pressure":996.7,"uv_index":5.8,"wind_gusts":48.6,"aqi":82,"pm10":37.7,"pm2_5":22.8,"no2":2.3,"co":136.0,"o3":111.0,"so2":5.5,"mosquito_risk":0,"arthritis_risk":5,"migraine_risk":3,"frizz_risk":1,"updated_at":"2026-07-14T16:19:13.739341+05:30"},{"city":"Guntur","state":"Andhra Pradesh","latitude":16.3067,"longitude":80.4365,"temp":36.4,"humidity":38,"rain":0.0,"pressure":997.8,"uv_index":6.35,"wind_gusts":49.3,"aqi":73,"pm10":36.2,"pm2_5":21.4,"no2":1.9,"co":135.0,"o3":109.0,"so2":4.2,"mosquito_risk":0,"arthritis_risk":5,"migraine_risk":10,"frizz_risk":1,"updated_at":"2026-07-14T16:19:13.739349+05:30"},{"city":"Nellore","state":"Andhra Pradesh","latitude":14.4426,"longitude":79.9865,"temp":39.0,"humidity":26,"rain":0.0,"pressure":999.5,"uv_index":8.1,"wind_gusts":48.2,"aqi":66,"pm10":37.4,"pm2_5":18.8,"no2":2.9,"co":120.0,"o3":115.0,"so2":4.4,"mosquito_risk":0,"arthritis_risk":5,"migraine_risk":10,"frizz_risk":1,"updated_at":"2026-07-14T16:19:13.739357+05:30"},{"city":"Kurnool","state":"Andhra Pradesh","latitude":15.8281,"longitude":78.0373,"temp":37.0,"humidity":31,"rain":0.0,"pressure":972.9,"uv_index":7.3,"wind_gusts":43.2,"aqi":54,"pm10":28.9,"pm2_5":15.9,"no2":1.5,"co":120.0,"o3":116.0,"so2":7.5,"mosquito_risk":0,"arthritis_risk":5,"migraine_risk":10,"frizz_risk":1,"updated_at":"2026-07-14T16:19:13.739365+05:30"},{"city":"Kakinada","state":"Andhra Pradesh","latitude":16.9891,"longitude":82.2475,"temp":34.0,"humidity":55,"rain":0.0,"pressure":999.6,"uv_index":7.15,"wind_gusts":53.6,"aqi":94,"pm10":44.9,"pm2_5":23.6,"no2":2.9,"co":155.0,"o3":137.0,"so2":6.1,"mosquito_risk":0,"arthritis_risk":5,"migraine_risk":7,"frizz_risk":1,"updated_at":"2026-07-14T16:19:13.739373+05:30"},{"city":"Tirupati","state":"Andhra Pradesh","latitude":13.6288,"longitude":79.4192,"temp":37.8,"humidity":27,"rain":0.0,"pressure":985.9,"uv_index":8.25,"wind_gusts":38.5,"aqi":76,"pm10":36.4,"pm2_5":16.8,"no2":2.8,"co":112.0,"o3":107.0,"so2":3.2,"mosquito_risk":0,"arthritis_risk":5,"migraine_risk":10,"frizz_risk":0,"updated_at":"2026-07-14T16:19:13.739381+05:30"},{"city":"Warangal","state":"Telangana","latitude":17.9689,"longitude":79.5941,"temp":31.3,"humidity":57,"rain":0.0,"pressure":974.2,"uv_index":7.25,"wind_gusts":43.2,"aqi":71,"pm10":29.0,"pm2_5":18.3,"no2":3.1,"co":147.0,"o3":88.0,"so2":5.2,"mosquito_risk":0,"arthritis_risk":5,"migraine_risk":7,"frizz_risk":1,"updated_at":"2026-07-14T16:19:13.739389+05:30"},{"city":"Nizamabad","state":"Telangana","latitude":18.6725,"longitude":78.0941,"temp":31.3,"humidity":55,"rain":0.0,"pressure":961.1,"uv_index":5.0,"wind_gusts":43.9,"aqi":63,"pm10":25.6,"pm2_5":16.9,"no2":2.3,"co":135.0,"o3":96.0,"so2":3.8,"mosquito_risk":0,"arthritis_risk":5,"migraine_risk":3,"frizz_risk":1,"updated_at":"2026-07-14T16:19:13.739396+05:30"},{"city":"Mysore","state":"Karnataka","latitude":12.2958,"longitude":76.6396,"temp":31.4,"humidity":43,"rain":0.0,"pressure":927.0,"uv_index":8.95,"wind_gusts":38.9,"aqi":55,"pm10":18.8,"pm2_5":10.4,"no2":2.6,"co":137.0,"o3":96.0,"so2":1.7,"mosquito_risk":0,"arthritis_risk":5,"migraine_risk":7,"frizz_risk":1,"updated_at":"2026-07-14T16:19:13.739404+05:30"},{"city":"Mangalore","state":"Karnataka","latitude":12.9141,"longitude":74.856,"temp":29.0,"humidity":70,"rain":0.0,"pressure":1006.4,"uv_index":8.25,"wind_gusts":38.9,"aqi":61,"pm10":32.0,"pm2_5":16.2,"no2":1.2,"co":98.0,"o3":59.0,"so2":1.4,"mosquito_risk":7,"arthritis_risk":5,"migraine_risk":4,"frizz_risk":1,"updated_at":"2026-07-14T16:19:13.739412+05:30"},{"city":"Hubli-Dharwad","state":"Karnataka","latitude":15.3647,"longitude":75.124,"temp":29.4,"humidity":55,"rain":0.0,"pressure":939.6,"uv_index":8.75,"wind_gusts":46.4,"aqi":51,"pm10":28.5,"pm2_5":15.8,"no2":1.9,"co":110.0,"o3":71.0,"so2":1.3,"mosquito_risk":4,"arthritis_risk":5,"migraine_risk":7,"frizz_risk":1,"updated_at":"2026-07-14T16:19:13.739419+05:30"},{"city":"Belgaum","state":"Karnataka","latitude":15.8497,"longitude":74.4977,"temp":26.4,"humidity":62,"rain":0.0,"pressure":924.7,"uv_index":8.45,"wind_gusts":42.5,"aqi":52,"pm10":26.5,"pm2_5":15.0,"no2":1.4,"co":103.0,"o3":62.0,"so2":1.2,"mosquito_risk":7,"arthritis_risk":5,"migraine_risk":7,"frizz_risk":1,"updated_at":"2026-07-14T16:19:17.002684+05:30"},{"city":"Coimbatore","state":"Tamil Nadu","latitude":11.0168,"longitude":76.9558,"temp":32.2,"humidity":48,"rain":0.0,"pressure":959.0,"uv_index":8.35,"wind_gusts":54.4,"aqi":54,"pm10":19.1,"pm2_5":11.1,"no2":1.5,"co":141.0,"o3":90.0,"so2":2.3,"mosquito_risk":0,"arthritis_risk":5,"migraine_risk":7,"frizz_risk":1,"updated_at":"2026-07-14T16:19:17.002716+05:30"},{"city":"Madurai","state":"Tamil Nadu","latitude":9.9252,"longitude":78.1198,"temp":40.3,"humidity":20,"rain":0.0,"pressure":988.1,"uv_index":8.65,"wind_gusts":29.5,"aqi":71,"pm10":50.8,"pm2_5":20.1,"no2":1.8,"co":129.0,"o3":123.0,"so2":2.4,"mosquito_risk":0,"arthritis_risk":5,"migraine_risk":10,"frizz_risk":0,"updated_at":"2026-07-14T16:19:17.002727+05:30"},{"city":"Trichy","state":"Tamil Nadu","latitude":10.7905,"longitude":78.7047,"temp":39.8,"humidity":22,"rain":0.0,"pressure":994.5,"uv_index":8.5,"wind_gusts":45.0,"aqi":65,"pm10":38.3,"pm2_5":17.9,"no2":0.9,"co":134.0,"o3":116.0,"so2":2.4,"mosquito_risk":0,"arthritis_risk":5,"migraine_risk":10,"frizz_risk":0,"updated_at":"2026-07-14T16:19:17.002736+05:30"},{"city":"Salem","state":"Tamil Nadu","latitude":11.6643,"longitude":78.146,"temp":37.1,"humidity":28,"rain":0.0,"pressure":973.1,"uv_index":8.35,"wind_gusts":28.4,"aqi":72,"pm10":33.1,"pm2_5":16.1,"no2":3.0,"co":178.0,"o3":118.0,"so2":5.5,"mosquito_risk":0,"arthritis_risk":5,"migraine_risk":10,"frizz_risk":0,"updated_at":"2026-07-14T16:19:17.002744+05:30"},{"city":"Tirunelveli","state":"Tamil Nadu","latitude":8.7139,"longitude":77.7567,"temp":37.8,"humidity":31,"rain":0.0,"pressure":998.5,"uv_index":7.6,"wind_gusts":42.8,"aqi":51,"pm10":18.2,"pm2_5":11.1,"no2":1.7,"co":120.0,"o3":86.0,"so2":1.6,"mosquito_risk":0,"arthritis_risk":5,"migraine_risk":10,"frizz_risk":1,"updated_at":"2026-07-14T16:19:17.002751+05:30"},{"city":"Vellore","state":"Tamil Nadu","latitude":12.9165,"longitude":79.1325,"temp":38.4,"humidity":24,"rain":0.0,"pressure":979.5,"uv_index":8.9,"wind_gusts":42.8,"aqi":73,"pm10":35.6,"pm2_5":16.9,"no2":4.7,"co":121.0,"o3":93.0,"so2":1.9,"mosquito_risk":0,"arthritis_risk":5,"migraine_risk":10,"frizz_risk":0,"updated_at":"2026-07-14T16:19:17.002759+05:30"},{"city":"Erode","state":"Tamil Nadu","latitude":11.341,"longitude":77.7172,"temp":36.6,"humidity":34,"rain":0.0,"pressure":984.8,"uv_index":8.5,"wind_gusts":49.3,"aqi":61,"pm10":28.1,"pm2_5":14.2,"no2":2.4,"co":157.0,"o3":111.0,"so2":2.2,"mosquito_risk":0,"arthritis_risk":5,"migraine_risk":10,"frizz_risk":1,"updated_at":"2026-07-14T16:19:17.002766+05:30"},{"city":"Kochi","state":"Kerala","latitude":9.9312,"longitude":76.2673,"temp":29.0,"humidity":75,"rain":0.0,"pressure":1007.8,"uv_index":8.4,"wind_gusts":43.6,"aqi":58,"pm10":21.0,"pm2_5":12.8,"no2":2.5,"co":110.0,"o3":68.0,"so2":2.3,"mosquito_risk":7,"arthritis_risk":5,"migraine_risk":4,"frizz_risk":1,"updated_at":"2026-07-14T16:19:17.002773+05:30"},{"city":"Thiruvananthapuram","state":"Kerala","latitude":8.5241,"longitude":76.9366,"temp":28.3,"humidity":78,"rain":0.0,"pressure":1006.7,"uv_index":7.9,"wind_gusts":52.9,"aqi":54,"pm10":23.4,"pm2_5":12.8,"no2":2.3,"co":102.0,"o3":64.0,"so2":1.0,"mosquito_risk":7,"arthritis_risk":5,"migraine_risk":4,"frizz_risk":1,"updated_at":"2026-07-14T16:19:17.002780+05:30"},{"city":"Kozhikode","state":"Kerala","latitude":11.2588,"longitude":75.7804,"temp":29.3,"humidity":73,"rain":0.0,"pressure":1006.6,"uv_index":8.15,"wind_gusts":45.0,"aqi":53,"pm10":26.6,"pm2_5":13.2,"no2":0.6,"co":98.0,"o3":67.0,"so2":1.1,"mosquito_risk":7,"arthritis_risk":5,"migraine_risk":4,"frizz_risk":1,"updated_at":"2026-07-14T16:19:17.002787+05:30"},{"city":"Thrissur","state":"Kerala","latitude":10.5276,"longitude":76.2144,"temp":29.5,"humidity":71,"rain":0.0,"pressure":1005.9,"uv_index":7.9,"wind_gusts":40.7,"aqi":56,"pm10":19.1,"pm2_5":12.1,"no2":1.9,"co":103.0,"o3":69.0,"so2":1.8,"mosquito_risk":7,"arthritis_risk":5,"migraine_risk":4,"frizz_risk":1,"updated_at":"2026-07-14T16:19:17.002795+05:30"},{"city":"Kannur","state":"Kerala","latitude":11.8745,"longitude":75.3704,"temp":29.6,"humidity":71,"rain":0.0,"pressure":1006.2,"uv_index":8.75,"wind_gusts":43.6,"aqi":56,"pm10":28.3,"pm2_5":14.8,"no2":1.4,"co":98.0,"o3":63.0,"so2":1.4,"mosquito_risk":7,"arthritis_risk":5,"migraine_risk":4,"frizz_risk":1,"updated_at":"2026-07-14T16:19:17.002802+05:30"},{"city":"Patna","state":"Bihar","latitude":25.5941,"longitude":85.1376,"temp":33.7,"humidity":64,"rain":0.0,"pressure":991.3,"uv_index":7.6,"wind_gusts":29.2,"aqi":156,"pm10":128.5,"pm2_5":64.5,"no2":3.0,"co":285.0,"o3":163.0,"so2":11.0,"mosquito_risk":3,"arthritis_risk":5,"migraine_risk":7,"frizz_risk":1,"updated_at":"2026-07-14T16:19:17.002809+05:30"},{"city":"Gaya","state":"Bihar","latitude":24.7914,"longitude":85.0002,"temp":33.3,"humidity":65,"rain":0.0,"pressure":985.1,"uv_index":8.45,"wind_gusts":21.6,"aqi":160,"pm10":133.6,"pm2_5":64.7,"no2":2.9,"co":290.0,"o3":151.0,"so2":8.4,"mosquito_risk":3,"arthritis_risk":5,"migraine_risk":7,"frizz_risk":1,"updated_at":"2026-07-14T16:19:17.002816+05:30"},{"city":"Muzaffarpur","state":"Bihar","latitude":26.1209,"longitude":85.3647,"temp":33.7,"humidity":64,"rain":0.0,"pressure":991.1,"uv_index":7.55,"wind_gusts":18.7,"aqi":154,"pm10":94.1,"pm2_5":49.5,"no2":3.4,"co":301.0,"o3":166.0,"so2":13.0,"mosquito_risk":3,"arthritis_risk":5,"migraine_risk":7,"frizz_risk":1,"updated_at":"2026-07-14T16:19:17.002822+05:30"},{"city":"Bhagalpur","state":"Bihar","latitude":25.2425,"longitude":87.0117,"temp":32.3,"humidity":73,"rain":0.0,"pressure":991.7,"uv_index":7.8,"wind_gusts":27.7,"aqi":113,"pm10":19.2,"pm2_5":17.3,"no2":6.8,"co":259.0,"o3":132.0,"so2":12.1,"mosquito_risk":3,"arthritis_risk":5,"migraine_risk":7,"frizz_risk":1,"updated_at":"2026-07-14T16:19:17.002829+05:30"},{"city":"Ranchi","state":"Jharkhand","latitude":23.3441,"longitude":85.3096,"temp":28.8,"humidity":72,"rain":0.0,"pressure":931.0,"uv_index":8.65,"wind_gusts":40.0,"aqi":154,"pm10":101.3,"pm2_5":45.5,"no2":3.8,"co":201.0,"o3":121.0,"so2":11.4,"mosquito_risk":7,"arthritis_risk":5,"migraine_risk":7,"frizz_risk":1,"updated_at":"2026-07-14T16:19:17.002869+05:30"},{"city":"Jamshedpur","state":"Jharkhand","latitude":22.8046,"longitude":86.2029,"temp":31.6,"humidity":70,"rain":0.0,"pressure":982.3,"uv_index":5.8,"wind_gusts":31.3,"aqi":162,"pm10":104.1,"pm2_5":59.6,"no2":21.4,"co":289.0,"o3":125.0,"so2":42.7,"mosquito_risk":3,"arthritis_risk":5,"migraine_risk":3,"frizz_risk":1,"updated_at":"2026-07-14T16:19:17.002882+05:30"},{"city":"Dhanbad","state":"Jharkhand","latitude":23.7957,"longitude":86.4304,"temp":32.3,"humidity":66,"rain":0.0,"pressure":971.3,"uv_index":7.7,"wind_gusts":28.8,"aqi":172,"pm10":90.3,"pm2_5":49.5,"no2":18.3,"co":274.0,"o3":113.0,"so2":39.5,"mosquito_risk":3,"arthritis_risk":5,"migraine_risk":7,"frizz_risk":1,"updated_at":"2026-07-14T16:19:17.002889+05:30"},{"city":"Bokaro","state":"Jharkhand","latitude":23.6693,"longitude":86.1511,"temp":31.1,"humidity":72,"rain":0.0,"pressure":975.3,"uv_index":8.65,"wind_gusts":29.5,"aqi":174,"pm10":128.5,"pm2_5":65.2,"no2":19.0,"co":227.0,"o3":125.0,"so2":48.7,"mosquito_risk":3,"arthritis_risk":5,"migraine_risk":7,"frizz_risk":1,"updated_at":"2026-07-14T16:19:17.002897+05:30"},{"city":"Bhubaneswar","state":"Odisha","latitude":20.2961,"longitude":85.8245,"temp":30.0,"humidity":84,"rain":0.0,"pressure":993.7,"uv_index":5.85,"wind_gusts":37.8,"aqi":136,"pm10":101.7,"pm2_5":60.3,"no2":15.1,"co":260.0,"o3":110.0,"so2":24.4,"mosquito_risk":7,"arthritis_risk":5,"migraine_risk":3,"frizz_risk":1,"updated_at":"2026-07-14T16:19:17.002904+05:30"},{"city":"Cuttack","state":"Odisha","latitude":20.4625,"longitude":85.8828,"temp":29.7,"humidity":86,"rain":0.0,"pressure":995.4,"uv_index":2.2,"wind_gusts":29.2,"aqi":136,"pm10":101.7,"pm2_5":60.3,"no2":15.1,"co":238.0,"o3":110.0,"so2":24.4,"mosquito_risk":7,"arthritis_risk":5,"migraine_risk":3,"frizz_risk":1,"updated_at":"2026-07-14T16:19:17.002911+05:30"},{"city":"Rourkela","state":"Odisha","latitude":22.2604,"longitude":84.8536,"temp":30.7,"humidity":74,"rain":0.0,"pressure":977.0,"uv_index":7.8,"wind_gusts":36.0,"aqi":153,"pm10":122.5,"pm2_5":56.2,"no2":7.3,"co":459.0,"o3":110.0,"so2":15.1,"mosquito_risk":3,"arthritis_risk":5,"migraine_risk":7,"frizz_risk":1,"updated_at":"2026-07-14T16:19:17.002918+05:30"},{"city":"Raipur","state":"Chhattisgarh","latitude":21.2514,"longitude":81.6296,"temp":28.3,"humidity":79,"rain":0.3,"pressure":968.4,"uv_index":8.8,"wind_gusts":47.5,"aqi":131,"pm10":97.1,"pm2_5":42.4,"no2":16.7,"co":145.0,"o3":95.0,"so2":39.6,"mosquito_risk":10,"arthritis_risk":5,"migraine_risk":7,"frizz_risk":1,"updated_at":"2026-07-14T16:19:17.002925+05:30"},{"city":"Bhilai","state":"Chhattisgarh","latitude":21.1938,"longitude":81.3509,"temp":27.7,"humidity":81,"rain":0.2,"pressure":969.3,"uv_index":8.75,"wind_gusts":43.6,"aqi":119,"pm10":73.6,"pm2_5":34.3,"no2":15.7,"co":243.0,"o3":87.0,"so2":34.9,"mosquito_risk":10,"arthritis_risk":5,"migraine_risk":7,"frizz_risk":1,"updated_at":"2026-07-14T16:19:17.002932+05:30"},{"city":"Guwahati","state":"Assam","latitude":26.1158,"longitude":91.7086,"temp":28.8,"humidity":92,"rain":0.1,"pressure":991.9,"uv_index":8.1,"wind_gusts":26.3,"aqi":56,"pm10":11.9,"pm2_5":11.2,"no2":2.7,"co":236.0,"o3":99.0,"so2":1.8,"mosquito_risk":10,"arthritis_risk":5,"migraine_risk":7,"frizz_risk":1,"updated_at":"2026-07-14T16:19:17.002939+05:30"},{"city":"Agartala","state":"Tripura","latitude":23.8315,"longitude":91.2868,"temp":30.5,"humidity":81,"rain":0.1,"pressure":996.4,"uv_index":8.65,"wind_gusts":22.7,"aqi":82,"pm10":17.7,"pm2_5":15.5,"no2":5.7,"co":195.0,"o3":144.0,"so2":3.4,"mosquito_risk":6,"arthritis_risk":5,"migraine_risk":7,"frizz_risk":1,"updated_at":"2026-07-14T16:19:17.002946+05:30"},{"city":"Shillong","state":"Meghalaya","latitude":25.5788,"longitude":91.8933,"temp":24.3,"humidity":85,"rain":0.1,"pressure":852.0,"uv_index":8.45,"wind_gusts":25.9,"aqi":61,"pm10":12.0,"pm2_5":11.2,"no2":3.9,"co":183.0,"o3":86.0,"so2":1.8,"mosquito_risk":6,"arthritis_risk":5,"migraine_risk":7,"frizz_risk":1,"updated_at":"2026-07-14T16:19:17.002953+05:30"},{"city":"Imphal","state":"Manipur","latitude":24.817,"longitude":93.9368,"temp":29.1,"humidity":68,"rain":0.0,"pressure":915.7,"uv_index":9.2,"wind_gusts":26.3,"aqi":55,"pm10":5.7,"pm2_5":4.6,"no2":1.0,"co":189.0,"o3":80.0,"so2":1.2,"mosquito_risk":7,"arthritis_risk":5,"migraine_risk":7,"frizz_risk":1,"updated_at":"2026-07-14T16:19:17.002960+05:30"},{"city":"Aizawl","state":"Mizoram","latitude":23.7271,"longitude":92.7176,"temp":23.0,"humidity":92,"rain":0.1,"pressure":885.2,"uv_index":8.95,"wind_gusts":20.9,"aqi":53,"pm10":7.6,"pm2_5":6.6,"no2":3.4,"co":149.0,"o3":63.0,"so2":0.6,"mosquito_risk":6,"arthritis_risk":5,"migraine_risk":7,"frizz_risk":1,"updated_at":"2026-07-14T16:19:17.002966+05:30"},{"city":"Kohima","state":"Nagaland","latitude":25.6701,"longitude":94.1077,"temp":24.6,"humidity":91,"rain":0.0,"pressure":850.0,"uv_index":8.25,"wind_gusts":25.9,"aqi":45,"pm10":5.7,"pm2_5":5.5,"no2":1.7,"co":176.0,"o3":82.0,"so2":0.6,"mosquito_risk":3,"arthritis_risk":5,"migraine_risk":7,"frizz_risk":1,"updated_at":"2026-07-14T16:19:17.002973+05:30"},{"city":"Gangtok","state":"Sikkim","latitude":27.3314,"longitude":88.6138,"temp":21.1,"humidity":89,"rain":0.1,"pressure":833.8,"uv_index":8.25,"wind_gusts":26.6,"aqi":44,"pm10":3.7,"pm2_5":3.3,"no2":3.2,"co":258.0,"o3":93.0,"so2":0.8,"mosquito_risk":6,"arthritis_risk":5,"migraine_risk":7,"frizz_risk":1,"updated_at":"2026-07-14T16:19:17.002980+05:30"},{"city":"Siliguri","state":"West Bengal","latitude":26.7271,"longitude":88.3953,"temp":32.5,"humidity":67,"rain":0.0,"pressure":983.7,"uv_index":7.95,"wind_gusts":25.9,"aqi":69,"pm10":12.5,"pm2_5":9.8,"no2":2.0,"co":333.0,"o3":117.0,"so2":1.9,"mosquito_risk":3,"arthritis_risk":5,"migraine_risk":7,"frizz_risk":1,"updated_at":"2026-07-14T16:19:20.257959+05:30"},{"city":"Durgapur","state":"West Bengal","latitude":23.5204,"longitude":87.3119,"temp":32.7,"humidity":70,"rain":0.0,"pressure":985.6,"uv_index":8.85,"wind_gusts":26.3,"aqi":164,"pm10":44.1,"pm2_5":32.9,"no2":17.5,"co":350.0,"o3":149.0,"so2":39.3,"mosquito_risk":3,"arthritis_risk":5,"migraine_risk":7,"frizz_risk":1,"updated_at":"2026-07-14T16:19:20.257991+05:30"},{"city":"Asansol","state":"West Bengal","latitude":23.6739,"longitude":86.9524,"temp":32.5,"humidity":68,"rain":0.0,"pressure":984.3,"uv_index":6.5,"wind_gusts":26.3,"aqi":162,"pm10":53.4,"pm2_5":35.3,"no2":17.4,"co":310.0,"o3":123.0,"so2":30.6,"mosquito_risk":3,"arthritis_risk":5,"migraine_risk":7,"frizz_risk":1,"updated_at":"2026-07-14T16:19:20.258002+05:30"},{"city":"Pondicherry","state":"Puducherry","latitude":11.9139,"longitude":79.8145,"temp":34.7,"humidity":55,"rain":0.0,"pressure":1002.8,"uv_index":8.2,"wind_gusts":43.2,"aqi":72,"pm10":41.9,"pm2_5":28.5,"no2":12.3,"co":205.0,"o3":146.0,"so2":4.8,"mosquito_risk":0,"arthritis_risk":5,"migraine_risk":4,"frizz_risk":1,"updated_at":"2026-07-14T16:19:20.258010+05:30"},{"city":"Port Blair","state":"Andaman and Nicobar Islands","latitude":11.6234,"longitude":92.7265,"temp":29.3,"humidity":75,"rain":0.0,"pressure":1003.2,"uv_index":8.2,"wind_gusts":60.8,"aqi":48,"pm10":16.7,"pm2_5":7.5,"no2":0.3,"co":90.0,"o3":47.0,"so2":0.4,"mosquito_risk":7,"arthritis_risk":5,"migraine_risk":4,"frizz_risk":1,"updated_at":"2026-07-14T16:19:20.258018+05:30"},{"city":"Haridwar","state":"Uttarakhand","latitude":29.9457,"longitude":78.1642,"temp":34.1,"humidity":55,"rain":0.0,"pressure":965.7,"uv_index":7.45,"wind_gusts":32.8,"aqi":178,"pm10":226.3,"pm2_5":85.4,"no2":1.8,"co":332.0,"o3":161.0,"so2":12.9,"mosquito_risk":0,"arthritis_risk":5,"migraine_risk":7,"frizz_risk":1,"updated_at":"2026-07-14T16:19:20.258026+05:30"},{"city":"Rishikesh","state":"Uttarakhand","latitude":30.0869,"longitude":78.2676,"temp":33.3,"humidity":58,"rain":0.0,"pressure":958.8,"uv_index":7.6,"wind_gusts":28.4,"aqi":165,"pm10":169.0,"pm2_5":63.1,"no2":1.0,"co":313.0,"o3":137.0,"so2":8.0,"mosquito_risk":0,"arthritis_risk":5,"migraine_risk":7,"frizz_risk":1,"updated_at":"2026-07-14T16:19:20.258034+05:30"},{"city":"Nainital","state":"Uttarakhand","latitude":29.3919,"longitude":79.4542,"temp":22.6,"humidity":66,"rain":0.0,"pressure":803.4,"uv_index":8.5,"wind_gusts":28.8,"aqi":161,"pm10":262.6,"pm2_5":84.1,"no2":1.6,"co":257.0,"o3":160.0,"so2":11.4,"mosquito_risk":3,"arthritis_risk":5,"migraine_risk":7,"frizz_risk":0,"updated_at":"2026-07-14T16:19:20.258041+05:30"},{"city":"Mussoorie","state":"Uttarakhand","latitude":30.4599,"longitude":78.0664,"temp":22.5,"humidity":70,"rain":0.0,"pressure":801.2,"uv_index":8.0,"wind_gusts":36.7,"aqi":160,"pm10":140.6,"pm2_5":55.4,"no2":1.9,"co":231.0,"o3":136.0,"so2":7.5,"mosquito_risk":3,"arthritis_risk":5,"migraine_risk":7,"frizz_risk":1,"updated_at":"2026-07-14T16:19:20.258049+05:30"},{"city":"Dharamshala","state":"Himachal Pradesh","latitude":32.219,"longitude":76.3234,"temp":25.4,"humidity":64,"rain":0.0,"pressure":865.1,"uv_index":8.4,"wind_gusts":33.1,"aqi":86,"pm10":50.1,"pm2_5":23.8,"no2":0.6,"co":205.0,"o3":146.0,"so2":1.2,"mosquito_risk":7,"arthritis_risk":5,"migraine_risk":7,"frizz_risk":1,"updated_at":"2026-07-14T16:19:20.258057+05:30"},{"city":"Dalhousie","state":"Himachal Pradesh","latitude":32.5387,"longitude":75.971,"temp":20.6,"humidity":83,"rain":0.0,"pressure":802.5,"uv_index":8.65,"wind_gusts":30.2,"aqi":148,"pm10":95.9,"pm2_5":44.4,"no2":1.1,"co":235.0,"o3":165.0,"so2":2.7,"mosquito_risk":3,"arthritis_risk":5,"migraine_risk":7,"frizz_risk":1,"updated_at":"2026-07-14T16:19:20.258065+05:30"},{"city":"Patiala","state":"Punjab","latitude":30.3398,"longitude":76.3869,"temp":34.2,"humidity":57,"rain":0.0,"pressure":969.9,"uv_index":7.5,"wind_gusts":45.7,"aqi":186,"pm10":113.4,"pm2_5":57.4,"no2":2.4,"co":268.0,"o3":175.0,"so2":7.4,"mosquito_risk":0,"arthritis_risk":5,"migraine_risk":7,"frizz_risk":1,"updated_at":"2026-07-14T16:19:20.258072+05:30"},{"city":"Bhatinda","state":"Punjab","latitude":30.211,"longitude":74.9455,"temp":32.9,"humidity":60,"rain":0.2,"pressure":975.6,"uv_index":8.2,"wind_gusts":30.2,"aqi":190,"pm10":188.1,"pm2_5":71.5,"no2":2.2,"co":210.0,"o3":165.0,"so2":11.2,"mosquito_risk":3,"arthritis_risk":5,"migraine_risk":7,"frizz_risk":1,"updated_at":"2026-07-14T16:19:20.258079+05:30"},{"city":"Rohtak","state":"Haryana","latitude":28.8955,"longitude":76.6066,"temp":36.7,"humidity":44,"rain":0.0,"pressure":972.8,"uv_index":7.3,"wind_gusts":36.7,"aqi":655,"pm10":610.9,"pm2_5":124.3,"no2":3.8,"co":185.0,"o3":132.0,"so2":6.4,"mosquito_risk":0,"arthritis_risk":5,"migraine_risk":10,"frizz_risk":1,"updated_at":"2026-07-14T16:19:20.258087+05:30"},{"city":"Panipat","state":"Haryana","latitude":29.3909,"longitude":76.9635,"temp":35.3,"humidity":52,"rain":0.0,"pressure":971.6,"uv_index":7.3,"wind_gusts":42.1,"aqi":660,"pm10":420.0,"pm2_5":113.4,"no2":3.8,"co":181.0,"o3":167.0,"so2":13.8,"mosquito_risk":0,"arthritis_risk":5,"migraine_risk":10,"frizz_risk":1,"updated_at":"2026-07-14T16:19:20.258094+05:30"},{"city":"Mathura","state":"Uttar Pradesh","latitude":27.4924,"longitude":77.6737,"temp":35.3,"humidity":49,"rain":0.0,"pressure":978.5,"uv_index":7.9,"wind_gusts":29.9,"aqi":791,"pm10":586.7,"pm2_5":121.1,"no2":3.8,"co":160.0,"o3":113.0,"so2":3.4,"mosquito_risk":0,"arthritis_risk":5,"migraine_risk":10,"frizz_risk":1,"updated_at":"2026-07-14T16:19:20.258101+05:30"},{"city":"Vrindavan","state":"Uttar Pradesh","latitude":27.5823,"longitude":77.7027,"temp":35.5,"humidity":48,"rain":0.0,"pressure":978.9,"uv_index":7.9,"wind_gusts":29.2,"aqi":791,"pm10":586.7,"pm2_5":121.1,"no2":3.8,"co":154.0,"o3":113.0,"so2":3.4,"mosquito_risk":0,"arthritis_risk":5,"migraine_risk":10,"frizz_risk":1,"updated_at":"2026-07-14T16:19:20.258108+05:30"},{"city":"Ayodhya","state":"Uttar Pradesh","latitude":26.7922,"longitude":82.1998,"temp":32.2,"humidity":73,"rain":0.0,"pressure":986.8,"uv_index":7.8,"wind_gusts":34.2,"aqi":158,"pm10":259.8,"pm2_5":80.1,"no2":2.4,"co":313.0,"o3":157.0,"so2":6.7,"mosquito_risk":3,"arthritis_risk":5,"migraine_risk":7,"frizz_risk":1,"updated_at":"2026-07-14T16:19:20.258115+05:30"},{"city":"Ratlam","state":"Madhya Pradesh","latitude":23.3315,"longitude":75.0367,"temp":31.0,"humidity":50,"rain":0.0,"pressure":950.5,"uv_index":8.25,"wind_gusts":49.0,"aqi":68,"pm10":47.5,"pm2_5":21.7,"no2":1.2,"co":119.0,"o3":85.0,"so2":3.4,"mosquito_risk":0,"arthritis_risk":5,"migraine_risk":7,"frizz_risk":1,"updated_at":"2026-07-14T16:19:20.258122+05:30"},{"city":"Sagar","state":"Madhya Pradesh","latitude":23.8388,"longitude":78.7378,"temp":31.1,"humidity":58,"rain":0.0,"pressure":944.8,"uv_index":8.6,"wind_gusts":44.3,"aqi":93,"pm10":114.6,"pm2_5":34.9,"no2":1.2,"co":127.0,"o3":94.0,"so2":3.6,"mosquito_risk":0,"arthritis_risk":5,"migraine_risk":7,"frizz_risk":1,"updated_at":"2026-07-14T16:19:20.258129+05:30"},{"city":"Satna","state":"Madhya Pradesh","latitude":24.6005,"longitude":80.8322,"temp":33.2,"humidity":57,"rain":0.0,"pressure":964.2,"uv_index":6.9,"wind_gusts":41.4,"aqi":103,"pm10":109.9,"pm2_5":39.0,"no2":1.4,"co":136.0,"o3":111.0,"so2":4.1,"mosquito_risk":0,"arthritis_risk":5,"migraine_risk":7,"frizz_risk":1,"updated_at":"2026-07-14T16:19:20.258136+05:30"},{"city":"Akola","state":"Maharashtra","latitude":20.7002,"longitude":77.0082,"temp":32.7,"humidity":47,"rain":0.0,"pressure":971.4,"uv_index":5.85,"wind_gusts":51.1,"aqi":62,"pm10":31.0,"pm2_5":17.0,"no2":1.6,"co":114.0,"o3":96.0,"so2":5.3,"mosquito_risk":0,"arthritis_risk":5,"migraine_risk":3,"frizz_risk":1,"updated_at":"2026-07-14T16:19:20.258144+05:30"},{"city":"Amravati","state":"Maharashtra","latitude":20.9374,"longitude":77.7796,"temp":32.8,"humidity":47,"rain":0.0,"pressure":963.1,"uv_index":7.5,"wind_gusts":50.4,"aqi":63,"pm10":31.8,"pm2_5":17.3,"no2":1.9,"co":119.0,"o3":96.0,"so2":5.8,"mosquito_risk":0,"arthritis_risk":5,"migraine_risk":7,"frizz_risk":1,"updated_at":"2026-07-14T16:19:20.258151+05:30"},{"city":"Latur","state":"Maharashtra","latitude":18.4088,"longitude":76.5604,"temp":31.4,"humidity":51,"rain":0.0,"pressure":937.2,"uv_index":7.55,"wind_gusts":41.0,"aqi":57,"pm10":32.9,"pm2_5":18.1,"no2":1.4,"co":111.0,"o3":86.0,"so2":1.9,"mosquito_risk":0,"arthritis_risk":5,"migraine_risk":7,"frizz_risk":1,"updated_at":"2026-07-14T16:19:20.258159+05:30"},{"city":"Nanded","state":"Maharashtra","latitude":19.1383,"longitude":77.3091,"temp":31.9,"humidity":53,"rain":0.0,"pressure":965.1,"uv_index":8.05,"wind_gusts":41.0,"aqi":63,"pm10":27.6,"pm2_5":17.3,"no2":1.9,"co":135.0,"o3":94.0,"so2":2.7,"mosquito_risk":0,"arthritis_risk":5,"migraine_risk":7,"frizz_risk":1,"updated_at":"2026-07-14T16:19:20.258166+05:30"},{"city":"Gulbarga","state":"Karnataka","latitude":17.3297,"longitude":76.8343,"temp":33.6,"humidity":41,"rain":0.0,"pressure":955.7,"uv_index":8.15,"wind_gusts":44.3,"aqi":55,"pm10":27.5,"pm2_5":14.9,"no2":1.7,"co":131.0,"o3":99.0,"so2":2.1,"mosquito_risk":0,"arthritis_risk":5,"migraine_risk":7,"frizz_risk":1,"updated_at":"2026-07-14T16:19:20.258172+05:30"},{"city":"Bidar","state":"Karnataka","latitude":17.9104,"longitude":77.5199,"temp":30.7,"humidity":51,"rain":0.0,"pressure":932.5,"uv_index":7.25,"wind_gusts":41.0,"aqi":58,"pm10":29.5,"pm2_5":17.0,"no2":2.8,"co":132.0,"o3":90.0,"so2":3.1,"mosquito_risk":0,"arthritis_risk":5,"migraine_risk":7,"frizz_risk":1,"updated_at":"2026-07-14T16:19:20.258179+05:30"},{"city":"Hospet","state":"Karnataka","latitude":15.2689,"longitude":76.3909,"temp":34.0,"humidity":35,"rain":0.0,"pressure":953.1,"uv_index":7.5,"wind_gusts":43.2,"aqi":51,"pm10":26.1,"pm2_5":15.0,"no2":2.5,"co":121.0,"o3":90.0,"so2":2.2,"mosquito_risk":0,"arthritis_risk":5,"migraine_risk":7,"frizz_risk":1,"updated_at":"2026-07-14T16:19:20.258185+05:30"},{"city":"Tirupur","state":"Tamil Nadu","latitude":11.1085,"longitude":77.3411,"temp":33.8,"humidity":42,"rain":0.0,"pressure":971.7,"uv_index":8.3,"wind_gusts":58.3,"aqi":62,"pm10":26.0,"pm2_5":13.4,"no2":2.2,"co":137.0,"o3":106.0,"so2":2.7,"mosquito_risk":0,"arthritis_risk":5,"migraine_risk":7,"frizz_risk":1,"updated_at":"2026-07-14T16:19:20.258191+05:30"},{"city":"Alappuzha","state":"Kerala","latitude":9.4981,"longitude":76.3388,"temp":29.0,"humidity":76,"rain":0.0,"pressure":1007.8,"uv_index":8.0,"wind_gusts":43.9,"aqi":57,"pm10":23.8,"pm2_5":13.4,"no2":2.8,"co":91.0,"o3":67.0,"so2":2.0,"mosquito_risk":7,"arthritis_risk":5,"migraine_risk":4,"frizz_risk":1,"updated_at":"2026-07-14T16:19:20.258198+05:30"},{"city":"Munnar","state":"Kerala","latitude":10.0889,"longitude":77.0595,"temp":20.7,"humidity":90,"rain":0.0,"pressure":856.6,"uv_index":8.4,"wind_gusts":35.6,"aqi":48,"pm10":17.8,"pm2_5":9.9,"no2":1.4,"co":110.0,"o3":77.0,"so2":1.5,"mosquito_risk":3,"arthritis_risk":5,"migraine_risk":7,"frizz_risk":1,"updated_at":"2026-07-14T16:19:20.258206+05:30"},{"city":"Silchar","state":"Assam","latitude":24.8333,"longitude":92.7789,"temp":29.7,"humidity":88,"rain":0.4,"pressure":994.8,"uv_index":8.85,"wind_gusts":27.0,"aqi":92,"pm10":12.6,"pm2_5":11.0,"no2":2.8,"co":185.0,"o3":113.0,"so2":3.4,"mosquito_risk":10,"arthritis_risk":5,"migraine_risk":7,"frizz_risk":1,"updated_at":"2026-07-14T16:19:20.258212+05:30"},{"city":"Dibrugarh","state":"Assam","latitude":27.4728,"longitude":94.912,"temp":33.4,"humidity":63,"rain":0.0,"pressure":983.9,"uv_index":8.6,"wind_gusts":17.6,"aqi":81,"pm10":15.7,"pm2_5":15.5,"no2":2.5,"co":201.0,"o3":121.0,"so2":1.5,"mosquito_risk":3,"arthritis_risk":5,"migraine_risk":7,"frizz_risk":1,"updated_at":"2026-07-14T16:19:20.258219+05:30"}]