[{"city":"Delhi","state":"Delhi","latitude":28.6139,"longitude":77.209,"temp":30.8,"humidity":57,"rain":0.0,"pressure":979.0,"uv_index":7.75,"wind_gusts":31.3,"aqi":169,"pm10":207.7,"pm2_5":91.0,"no2":67.3,"co":664.0,"o3":10.0,"so2":30.9,"mosquito_risk":0,"arthritis_risk":5,"migraine_risk":7,"frizz_risk":1,"updated_at":"2026-06-26T04:50:44.917700+05:30"},{"city":"Mumbai","state":"Maharashtra","latitude":19.076,"longitude":72.8777,"temp":26.8,"humidity":86,"rain":0.0,"pressure":1006.3,"uv_index":6.85,"wind_gusts":34.2,"aqi":58,"pm10":32.0,"pm2_5":15.4,"no2":11.2,"co":163.0,"o3":42.0,"so2":10.5,"mosquito_risk":7,"arthritis_risk":5,"migraine_risk":4,"frizz_risk":1,"updated_at":"2026-06-26T04:50:44.917746+05:30"},{"city":"Bangalore","state":"Karnataka","latitude":12.9716,"longitude":77.5946,"temp":20.7,"humidity":93,"rain":0.0,"pressure":910.5,"uv_index":6.9,"wind_gusts":45.0,"aqi":28,"pm10":8.9,"pm2_5":6.3,"no2":11.4,"co":163.0,"o3":29.0,"so2":4.8,"mosquito_risk":3,"arthritis_risk":5,"migraine_risk":7,"frizz_risk":1,"updated_at":"2026-06-26T04:50:44.917761+05:30"},{"city":"Hyderabad","state":"Telangana","latitude":17.385,"longitude":78.4867,"temp":24.6,"humidity":83,"rain":0.0,"pressure":950.4,"uv_index":7.55,"wind_gusts":35.3,"aqi":53,"pm10":16.0,"pm2_5":11.2,"no2":9.8,"co":183.0,"o3":46.0,"so2":4.3,"mosquito_risk":3,"arthritis_risk":5,"migraine_risk":7,"frizz_risk":1,"updated_at":"2026-06-26T04:50:44.917769+05:30"},{"city":"Chennai","state":"Tamil Nadu","latitude":13.0827,"longitude":80.2707,"temp":28.9,"humidity":67,"rain":0.0,"pressure":1004.8,"uv_index":8.3,"wind_gusts":36.4,"aqi":58,"pm10":20.0,"pm2_5":17.1,"no2":22.4,"co":179.0,"o3":27.0,"so2":8.6,"mosquito_risk":7,"arthritis_risk":5,"migraine_risk":4,"frizz_risk":1,"updated_at":"2026-06-26T04:50:44.917777+05:30"},{"city":"Kolkata","state":"West Bengal","latitude":22.5726,"longitude":88.3639,"temp":27.5,"humidity":95,"rain":0.0,"pressure":1003.0,"uv_index":8.85,"wind_gusts":35.3,"aqi":104,"pm10":56.6,"pm2_5":52.7,"no2":19.5,"co":342.0,"o3":30.0,"so2":8.3,"mosquito_risk":7,"arthritis_risk":5,"migraine_risk":4,"frizz_risk":1,"updated_at":"2026-06-26T04:50:44.917785+05:30"},{"city":"Pune","state":"Maharashtra","latitude":18.5204,"longitude":73.8567,"temp":23.3,"humidity":90,"rain":0.0,"pressure":945.8,"uv_index":7.85,"wind_gusts":43.6,"aqi":32,"pm10":16.8,"pm2_5":12.7,"no2":13.6,"co":128.0,"o3":22.0,"so2":8.0,"mosquito_risk":3,"arthritis_risk":5,"migraine_risk":7,"frizz_risk":1,"updated_at":"2026-06-26T04:50:44.917792+05:30"},{"city":"Ahmedabad","state":"Gujarat","latitude":23.0225,"longitude":72.5714,"temp":29.7,"humidity":71,"rain":0.0,"pressure":998.5,"uv_index":8.05,"wind_gusts":31.3,"aqi":74,"pm10":33.8,"pm2_5":15.9,"no2":5.5,"co":111.0,"o3":41.0,"so2":3.4,"mosquito_risk":7,"arthritis_risk":5,"migraine_risk":7,"frizz_risk":1,"updated_at":"2026-06-26T04:50:44.917799+05:30"},{"city":"Jaipur","state":"Rajasthan","latitude":26.9124,"longitude":75.7873,"temp":28.0,"humidity":71,"rain":0.0,"pressure":956.3,"uv_index":8.15,"wind_gusts":22.0,"aqi":117,"pm10":75.2,"pm2_5":32.5,"no2":15.2,"co":176.0,"o3":32.0,"so2":5.1,"mosquito_risk":7,"arthritis_risk":5,"migraine_risk":7,"frizz_risk":1,"updated_at":"2026-06-26T04:50:44.917805+05:30"},{"city":"Lucknow","state":"Uttar Pradesh","latitude":26.8467,"longitude":80.9462,"temp":31.4,"humidity":57,"rain":0.0,"pressure":989.1,"uv_index":8.3,"wind_gusts":26.3,"aqi":152,"pm10":84.3,"pm2_5":53.3,"no2":34.6,"co":602.0,"o3":23.0,"so2":11.4,"mosquito_risk":0,"arthritis_risk":5,"migraine_risk":7,"frizz_risk":1,"updated_at":"2026-06-26T04:50:44.917815+05:30"},{"city":"Kanpur","state":"Uttar Pradesh","latitude":26.4499,"longitude":80.3319,"temp":31.9,"humidity":52,"rain":0.0,"pressure":987.2,"uv_index":8.05,"wind_gusts":19.4,"aqi":142,"pm10":141.6,"pm2_5":43.0,"no2":21.2,"co":304.0,"o3":42.0,"so2":7.3,"mosquito_risk":0,"arthritis_risk":5,"migraine_risk":7,"frizz_risk":1,"updated_at":"2026-06-26T04:50:44.917822+05:30"},{"city":"Chandigarh","state":"Chandigarh","latitude":30.7333,"longitude":76.7794,"temp":26.7,"humidity":78,"rain":0.0,"pressure":964.8,"uv_index":7.8,"wind_gusts":20.9,"aqi":154,"pm10":73.1,"pm2_5":47.1,"no2":36.0,"co":623.0,"o3":28.0,"so2":4.7,"mosquito_risk":7,"arthritis_risk":5,"migraine_risk":7,"frizz_risk":1,"updated_at":"2026-06-26T04:50:44.917828+05:30"},{"city":"Srinagar","state":"Jammu and Kashmir","latitude":34.0837,"longitude":74.7973,"temp":16.2,"humidity":97,"rain":0.0,"pressure":839.3,"uv_index":9.05,"wind_gusts":22.3,"aqi":81,"pm10":32.4,"pm2_5":31.4,"no2":24.9,"co":280.0,"o3":18.0,"so2":0.1,"mosquito_risk":3,"arthritis_risk":10,"migraine_risk":7,"frizz_risk":0,"updated_at":"2026-06-26T04:50:44.917835+05:30"},{"city":"Jammu","state":"Jammu and Kashmir","latitude":32.7266,"longitude":74.857,"temp":25.9,"humidity":76,"rain":0.0,"pressure":968.8,"uv_index":8.65,"wind_gusts":25.2,"aqi":106,"pm10":58.4,"pm2_5":56.6,"no2":52.9,"co":455.0,"o3":0.0,"so2":3.7,"mosquito_risk":7,"arthritis_risk":5,"migraine_risk":7,"frizz_risk":1,"updated_at":"2026-06-26T04:50:44.917841+05:30"},{"city":"Amritsar","state":"Punjab","latitude":31.634,"longitude":74.8723,"temp":26.6,"humidity":85,"rain":0.0,"pressure":976.9,"uv_index":8.5,"wind_gusts":14.4,"aqi":152,"pm10":93.8,"pm2_5":68.5,"no2":36.3,"co":658.0,"o3":34.0,"so2":7.6,"mosquito_risk":7,"arthritis_risk":5,"migraine_risk":7,"frizz_risk":1,"updated_at":"2026-06-26T04:50:44.917847+05:30"},{"city":"Ludhiana","state":"Punjab","latitude":30.901,"longitude":75.8573,"temp":28.6,"humidity":68,"rain":0.0,"pressure":974.8,"uv_index":8.05,"wind_gusts":27.0,"aqi":163,"pm10":134.6,"pm2_5":85.0,"no2":41.1,"co":758.0,"o3":30.0,"so2":12.5,"mosquito_risk":7,"arthritis_risk":5,"migraine_risk":7,"frizz_risk":1,"updated_at":"2026-06-26T04:50:44.917852+05:30"},{"city":"Jalandhar","state":"Punjab","latitude":31.326,"longitude":75.5762,"temp":28.1,"humidity":70,"rain":0.0,"pressure":975.7,"uv_index":8.25,"wind_gusts":25.9,"aqi":152,"pm10":86.6,"pm2_5":65.4,"no2":39.5,"co":606.0,"o3":22.0,"so2":7.4,"mosquito_risk":7,"arthritis_risk":5,"migraine_risk":7,"frizz_risk":1,"updated_at":"2026-06-26T04:50:44.917858+05:30"},{"city":"Dehradun","state":"Uttarakhand","latitude":30.6284,"longitude":78.0322,"temp":15.7,"humidity":98,"rain":0.0,"pressure":828.0,"uv_index":7.65,"wind_gusts":32.4,"aqi":80,"pm10":38.3,"pm2_5":25.7,"no2":25.6,"co":218.0,"o3":16.0,"so2":0.3,"mosquito_risk":3,"arthritis_risk":10,"migraine_risk":7,"frizz_risk":0,"updated_at":"2026-06-26T04:50:44.917865+05:30"},{"city":"Shimla","state":"Himachal Pradesh","latitude":31.1048,"longitude":77.1734,"temp":11.6,"humidity":97,"rain":0.0,"pressure":780.4,"uv_index":7.65,"wind_gusts":28.1,"aqi":89,"pm10":48.4,"pm2_5":31.2,"no2":11.9,"co":327.0,"o3":72.0,"so2":0.2,"mosquito_risk":3,"arthritis_risk":10,"migraine_risk":7,"frizz_risk":0,"updated_at":"2026-06-26T04:50:44.917872+05:30"},{"city":"Manali","state":"Himachal Pradesh","latitude":32.2396,"longitude":77.1887,"temp":13.4,"humidity":86,"rain":0.0,"pressure":815.2,"uv_index":7.35,"wind_gusts":34.9,"aqi":61,"pm10":4.4,"pm2_5":3.3,"no2":62.1,"co":208.0,"o3":51.0,"so2":0.0,"mosquito_risk":3,"arthritis_risk":10,"migraine_risk":7,"frizz_risk":0,"updated_at":"2026-06-26T04:50:44.917879+05:30"},{"city":"Gurgaon","state":"Haryana","latitude":28.4595,"longitude":77.0266,"temp":29.3,"humidity":63,"rain":0.0,"pressure":977.3,"uv_index":7.7,"wind_gusts":23.8,"aqi":162,"pm10":173.2,"pm2_5":72.2,"no2":55.2,"co":747.0,"o3":2.0,"so2":16.7,"mosquito_risk":7,"arthritis_risk":5,"migraine_risk":7,"frizz_risk":1,"updated_at":"2026-06-26T04:50:44.917884+05:30"},{"city":"Noida","state":"Uttar Pradesh","latitude":28.5355,"longitude":77.391,"temp":29.7,"humidity":63,"rain":0.0,"pressure":980.3,"uv_index":7.7,"wind_gusts":24.8,"aqi":162,"pm10":173.2,"pm2_5":72.2,"no2":55.2,"co":1129.0,"o3":2.0,"so2":16.7,"mosquito_risk":7,"arthritis_risk":5,"migraine_risk":7,"frizz_risk":1,"updated_at":"2026-06-26T04:50:44.917891+05:30"},{"city":"Ghaziabad","state":"Uttar Pradesh","latitude":28.6692,"longitude":77.4538,"temp":29.6,"humidity":65,"rain":0.0,"pressure":978.4,"uv_index":7.6,"wind_gusts":22.0,"aqi":171,"pm10":156.0,"pm2_5":81.7,"no2":64.5,"co":591.0,"o3":12.0,"so2":21.8,"mosquito_risk":7,"arthritis_risk":5,"migraine_risk":7,"frizz_risk":1,"updated_at":"2026-06-26T04:50:44.917897+05:30"},{"city":"Faridabad","state":"Haryana","latitude":28.4089,"longitude":77.3178,"temp":30.3,"humidity":60,"rain":0.0,"pressure":979.6,"uv_index":7.75,"wind_gusts":28.4,"aqi":162,"pm10":173.2,"pm2_5":72.2,"no2":55.2,"co":1064.0,"o3":2.0,"so2":16.7,"mosquito_risk":0,"arthritis_risk":5,"migraine_risk":7,"frizz_risk":1,"updated_at":"2026-06-26T04:50:44.917903+05:30"},{"city":"Meerut","state":"Uttar Pradesh","latitude":28.9845,"longitude":77.7064,"temp":30.2,"humidity":63,"rain":0.0,"pressure":977.3,"uv_index":7.7,"wind_gusts":24.8,"aqi":171,"pm10":156.0,"pm2_5":81.7,"no2":64.5,"co":855.0,"o3":12.0,"so2":21.8,"mosquito_risk":3,"arthritis_risk":5,"migraine_risk":7,"frizz_risk":1,"updated_at":"2026-06-26T04:50:44.917909+05:30"},{"city":"Agra","state":"Uttar Pradesh","latitude":27.1767,"longitude":78.0081,"temp":30.1,"humidity":62,"rain":0.0,"pressure":983.7,"uv_index":8.1,"wind_gusts":25.9,"aqi":174,"pm10":388.4,"pm2_5":67.3,"no2":26.2,"co":837.0,"o3":27.0,"so2":4.7,"mosquito_risk":3,"arthritis_risk":5,"migraine_risk":7,"frizz_risk":1,"updated_at":"2026-06-26T04:50:44.917915+05:30"},{"city":"Varanasi","state":"Uttar Pradesh","latitude":25.3176,"longitude":82.9739,"temp":29.1,"humidity":78,"rain":0.1,"pressure":993.9,"uv_index":8.8,"wind_gusts":25.2,"aqi":102,"pm10":19.7,"pm2_5":19.0,"no2":17.6,"co":356.0,"o3":51.0,"so2":10.2,"mosquito_risk":10,"arthritis_risk":5,"migraine_risk":7,"frizz_risk":1,"updated_at":"2026-06-26T04:50:44.917921+05:30"},{"city":"Prayagraj","state":"Uttar Pradesh","latitude":25.4358,"longitude":81.8463,"temp":30.4,"humidity":66,"rain":0.0,"pressure":991.9,"uv_index":8.75,"wind_gusts":29.5,"aqi":124,"pm10":36.6,"pm2_5":29.5,"no2":19.5,"co":254.0,"o3":51.0,"so2":7.2,"mosquito_risk":3,"arthritis_risk":5,"migraine_risk":7,"frizz_risk":1,"updated_at":"2026-06-26T04:50:44.917928+05:30"},{"city":"Gorakhpur","state":"Uttar Pradesh","latitude":26.7606,"longitude":83.3732,"temp":26.9,"humidity":91,"rain":0.0,"pressure":993.9,"uv_index":8.3,"wind_gusts":23.8,"aqi":157,"pm10":65.0,"pm2_5":51.6,"no2":19.0,"co":761.0,"o3":70.0,"so2":8.8,"mosquito_risk":7,"arthritis_risk":5,"migraine_risk":7,"frizz_risk":1,"updated_at":"2026-06-26T04:50:44.917934+05:30"},{"city":"Bareilly","state":"Uttar Pradesh","latitude":28.367,"longitude":79.4304,"temp":30.4,"humidity":61,"rain":0.0,"pressure":982.4,"uv_index":8.1,"wind_gusts":19.8,"aqi":164,"pm10":131.8,"pm2_5":88.2,"no2":56.4,"co":809.0,"o3":17.0,"so2":15.6,"mosquito_risk":3,"arthritis_risk":5,"migraine_risk":7,"frizz_risk":1,"updated_at":"2026-06-26T04:50:44.917941+05:30"},{"city":"Aligarh","state":"Uttar Pradesh","latitude":27.8974,"longitude":78.088,"temp":29.7,"humidity":64,"rain":0.0,"pressure":981.5,"uv_index":6.0,"wind_gusts":22.3,"aqi":167,"pm10":129.0,"pm2_5":53.7,"no2":40.5,"co":809.0,"o3":15.0,"so2":5.9,"mosquito_risk":7,"arthritis_risk":5,"migraine_risk":3,"frizz_risk":1,"updated_at":"2026-06-26T04:50:44.917947+05:30"},{"city":"Moradabad","state":"Uttar Pradesh","latitude":28.8386,"longitude":78.7733,"temp":30.3,"humidity":62,"rain":0.0,"pressure":979.5,"uv_index":7.9,"wind_gusts":27.4,"aqi":164,"pm10":118.5,"pm2_5":69.8,"no2":48.5,"co":871.0,"o3":24.0,"so2":10.6,"mosquito_risk":3,"arthritis_risk":5,"migraine_risk":7,"frizz_risk":1,"updated_at":"2026-06-26T04:50:44.917952+05:30"},{"city":"Saharanpur","state":"Uttar Pradesh","latitude":29.9637,"longitude":77.546,"temp":28.5,"humidity":74,"rain":0.0,"pressure":971.7,"uv_index":7.55,"wind_gusts":21.6,"aqi":152,"pm10":72.6,"pm2_5":50.5,"no2":35.4,"co":731.0,"o3":13.0,"so2":6.7,"mosquito_risk":7,"arthritis_risk":5,"migraine_risk":7,"frizz_risk":1,"updated_at":"2026-06-26T04:50:44.917958+05:30"},{"city":"Jhansi","state":"Uttar Pradesh","latitude":25.4484,"longitude":78.5685,"temp":28.9,"humidity":68,"rain":0.0,"pressure":974.3,"uv_index":8.0,"wind_gusts":28.4,"aqi":77,"pm10":23.4,"pm2_5":17.3,"no2":10.1,"co":174.0,"o3":49.0,"so2":3.1,"mosquito_risk":7,"arthritis_risk":5,"migraine_risk":7,"frizz_risk":1,"updated_at":"2026-06-26T04:50:48.257719+05:30"},{"city":"Surat","state":"Gujarat","latitude":21.1702,"longitude":72.8311,"temp":28.6,"humidity":78,"rain":0.0,"pressure":1003.5,"uv_index":7.6,"wind_gusts":41.0,"aqi":81,"pm10":45.1,"pm2_5":26.1,"no2":27.4,"co":353.0,"o3":19.0,"so2":41.1,"mosquito_risk":7,"arthritis_risk":5,"migraine_risk":4,"frizz_risk":1,"updated_at":"2026-06-26T04:50:48.257755+05:30"},{"city":"Vadodara","state":"Gujarat","latitude":22.3072,"longitude":73.1812,"temp":30.7,"humidity":55,"rain":0.0,"pressure":1000.8,"uv_index":8.0,"wind_gusts":45.0,"aqi":80,"pm10":35.2,"pm2_5":23.7,"no2":20.0,"co":162.0,"o3":19.0,"so2":12.2,"mosquito_risk":0,"arthritis_risk":5,"migraine_risk":4,"frizz_risk":1,"updated_at":"2026-06-26T04:50:48.257767+05:30"},{"city":"Rajkot","state":"Gujarat","latitude":22.3039,"longitude":70.8022,"temp":28.0,"humidity":77,"rain":0.0,"pressure":990.9,"uv_index":7.55,"wind_gusts":44.6,"aqi":66,"pm10":36.9,"pm2_5":16.9,"no2":6.7,"co":101.0,"o3":39.0,"so2":5.9,"mosquito_risk":7,"arthritis_risk":5,"migraine_risk":7,"frizz_risk":1,"updated_at":"2026-06-26T04:50:48.257777+05:30"},{"city":"Thane","state":"Maharashtra","latitude":19.2183,"longitude":72.9781,"temp":25.6,"humidity":94,"rain":0.0,"pressure":1005.7,"uv_index":7.15,"wind_gusts":32.0,"aqi":58,"pm10":32.0,"pm2_5":15.4,"no2":11.2,"co":148.0,"o3":42.0,"so2":10.5,"mosquito_risk":7,"arthritis_risk":5,"migraine_risk":4,"frizz_risk":1,"updated_at":"2026-06-26T04:50:48.257785+05:30"},{"city":"Nagpur","state":"Maharashtra","latitude":21.1458,"longitude":79.0882,"temp":26.8,"humidity":85,"rain":0.0,"pressure":969.6,"uv_index":8.75,"wind_gusts":32.0,"aqi":74,"pm10":36.7,"pm2_5":32.1,"no2":30.0,"co":249.0,"o3":41.0,"so2":37.4,"mosquito_risk":7,"arthritis_risk":5,"migraine_risk":7,"frizz_risk":1,"updated_at":"2026-06-26T04:50:48.257792+05:30"},{"city":"Nashik","state":"Maharashtra","latitude":19.9975,"longitude":73.7898,"temp":23.7,"humidity":91,"rain":0.0,"pressure":943.0,"uv_index":7.2,"wind_gusts":41.0,"aqi":53,"pm10":22.7,"pm2_5":14.6,"no2":14.6,"co":134.0,"o3":29.0,"so2":17.5,"mosquito_risk":3,"arthritis_risk":5,"migraine_risk":7,"frizz_risk":1,"updated_at":"2026-06-26T04:50:48.257800+05:30"},{"city":"Aurangabad","state":"Maharashtra","latitude":19.8762,"longitude":75.3433,"temp":23.2,"humidity":92,"rain":0.0,"pressure":941.5,"uv_index":6.15,"wind_gusts":36.0,"aqi":58,"pm10":27.6,"pm2_5":13.9,"no2":9.7,"co":146.0,"o3":41.0,"so2":10.2,"mosquito_risk":3,"arthritis_risk":5,"migraine_risk":7,"frizz_risk":1,"updated_at":"2026-06-26T04:50:48.257808+05:30"},{"city":"Solapur","state":"Maharashtra","latitude":17.6599,"longitude":75.9064,"temp":25.4,"humidity":78,"rain":0.0,"pressure":955.0,"uv_index":2.25,"wind_gusts":53.6,"aqi":42,"pm10":9.3,"pm2_5":7.6,"no2":12.2,"co":152.0,"o3":26.0,"so2":3.2,"mosquito_risk":7,"arthritis_risk":5,"migraine_risk":3,"frizz_risk":1,"updated_at":"2026-06-26T04:50:48.257817+05:30"},{"city":"Kolhapur","state":"Maharashtra","latitude":16.705,"longitude":74.2433,"temp":22.5,"humidity":94,"rain":0.0,"pressure":946.0,"uv_index":8.2,"wind_gusts":46.4,"aqi":25,"pm10":14.1,"pm2_5":10.4,"no2":7.6,"co":109.0,"o3":30.0,"so2":2.3,"mosquito_risk":3,"arthritis_risk":5,"migraine_risk":7,"frizz_risk":1,"updated_at":"2026-06-26T04:50:48.257824+05:30"},{"city":"Goa","state":"Goa","latitude":15.2993,"longitude":74.124,"temp":24.4,"humidity":97,"rain":0.0,"pressure":997.1,"uv_index":7.15,"wind_gusts":32.0,"aqi":52,"pm10":28.0,"pm2_5":16.6,"no2":6.7,"co":230.0,"o3":38.0,"so2":1.8,"mosquito_risk":3,"arthritis_risk":5,"migraine_risk":7,"frizz_risk":1,"updated_at":"2026-06-26T04:50:48.257831+05:30"},{"city":"Jodhpur","state":"Rajasthan","latitude":26.2389,"longitude":73.0243,"temp":29.4,"humidity":62,"rain":0.0,"pressure":978.4,"uv_index":8.4,"wind_gusts":33.5,"aqi":128,"pm10":132.2,"pm2_5":37.7,"no2":6.7,"co":214.0,"o3":45.0,"so2":2.1,"mosquito_risk":7,"arthritis_risk":5,"migraine_risk":7,"frizz_risk":1,"updated_at":"2026-06-26T04:50:48.257838+05:30"},{"city":"Udaipur","state":"Rajasthan","latitude":24.5854,"longitude":73.7125,"temp":26.8,"humidity":65,"rain":0.0,"pressure":942.9,"uv_index":8.55,"wind_gusts":50.4,"aqi":74,"pm10":51.8,"pm2_5":25.0,"no2":6.4,"co":141.0,"o3":50.0,"so2":2.5,"mosquito_risk":7,"arthritis_risk":5,"migraine_risk":7,"frizz_risk":1,"updated_at":"2026-06-26T04:50:48.257845+05:30"},{"city":"Kota","state":"Rajasthan","latitude":25.2138,"longitude":75.8648,"temp":27.4,"humidity":79,"rain":0.0,"pressure":975.0,"uv_index":8.3,"wind_gusts":21.6,"aqi":79,"pm10":47.1,"pm2_5":26.5,"no2":12.0,"co":234.0,"o3":46.0,"so2":3.1,"mosquito_risk":7,"arthritis_risk":5,"migraine_risk":7,"frizz_risk":1,"updated_at":"2026-06-26T04:50:48.257852+05:30"},{"city":"Bikaner","state":"Rajasthan","latitude":28.0229,"longitude":73.3119,"temp":30.7,"humidity":55,"rain":0.0,"pressure":977.2,"uv_index":8.45,"wind_gusts":30.6,"aqi":152,"pm10":81.7,"pm2_5":26.3,"no2":2.7,"co":112.0,"o3":60.0,"so2":1.1,"mosquito_risk":0,"arthritis_risk":5,"migraine_risk":7,"frizz_risk":1,"updated_at":"2026-06-26T04:50:48.257859+05:30"},{"city":"Ajmer","state":"Rajasthan","latitude":26.4499,"longitude":74.6399,"temp":27.0,"humidity":70,"rain":0.0,"pressure":950.7,"uv_index":8.25,"wind_gusts":31.0,"aqi":92,"pm10":53.3,"pm2_5":29.5,"no2":12.9,"co":180.0,"o3":36.0,"so2":4.8,"mosquito_risk":7,"arthritis_risk":5,"migraine_risk":7,"frizz_risk":1,"updated_at":"2026-06-26T04:50:48.257867+05:30"},{"city":"Gwalior","state":"Madhya Pradesh","latitude":26.2183,"longitude":78.1828,"temp":29.3,"humidity":65,"rain":0.0,"pressure":979.3,"uv_index":8.25,"wind_gusts":31.3,"aqi":82,"pm10":24.9,"pm2_5":15.6,"no2":9.8,"co":161.0,"o3":51.0,"so2":5.4,"mosquito_risk":7,"arthritis_risk":5,"migraine_risk":7,"frizz_risk":1,"updated_at":"2026-06-26T04:50:48.257874+05:30"},{"city":"Indore","state":"Madhya Pradesh","latitude":22.7196,"longitude":75.8577,"temp":25.5,"humidity":84,"rain":0.0,"pressure":944.9,"uv_index":8.55,"wind_gusts":31.3,"aqi":97,"pm10":60.3,"pm2_5":41.4,"no2":18.2,"co":265.0,"o3":33.0,"so2":7.7,"mosquito_risk":7,"arthritis_risk":5,"migraine_risk":7,"frizz_risk":1,"updated_at":"2026-06-26T04:50:48.257881+05:30"},{"city":"Bhopal","state":"Madhya Pradesh","latitude":23.2599,"longitude":77.4126,"temp":24.7,"humidity":89,"rain":0.0,"pressure":950.1,"uv_index":8.5,"wind_gusts":31.3,"aqi":81,"pm10":39.8,"pm2_5":30.9,"no2":15.5,"co":281.0,"o3":33.0,"so2":3.6,"mosquito_risk":3,"arthritis_risk":5,"migraine_risk":7,"frizz_risk":1,"updated_at":"2026-06-26T04:50:48.257888+05:30"},{"city":"Jabalpur","state":"Madhya Pradesh","latitude":23.1815,"longitude":79.9864,"temp":25.7,"humidity":91,"rain":0.0,"pressure":958.5,"uv_index":8.8,"wind_gusts":25.9,"aqi":68,"pm10":27.6,"pm2_5":21.1,"no2":11.7,"co":249.0,"o3":52.0,"so2":3.4,"mosquito_risk":7,"arthritis_risk":5,"migraine_risk":7,"frizz_risk":1,"updated_at":"2026-06-26T04:50:48.257895+05:30"},{"city":"Ujjain","state":"Madhya Pradesh","latitude":23.1765,"longitude":75.7885,"temp":25.8,"humidity":81,"rain":0.0,"pressure":950.5,"uv_index":8.5,"wind_gusts":42.1,"aqi":90,"pm10":51.8,"pm2_5":32.8,"no2":12.1,"co":266.0,"o3":43.0,"so2":11.6,"mosquito_risk":7,"arthritis_risk":5,"migraine_risk":7,"frizz_risk":1,"updated_at":"2026-06-26T04:50:48.257903+05:30"},{"city":"Visakhapatnam","state":"Andhra Pradesh","latitude":17.6868,"longitude":83.2185,"temp":27.9,"humidity":87,"rain":0.0,"pressure":999.9,"uv_index":8.6,"wind_gusts":32.4,"aqi":82,"pm10":35.5,"pm2_5":31.2,"no2":35.5,"co":370.0,"o3":30.0,"so2":44.6,"mosquito_risk":7,"arthritis_risk":5,"migraine_risk":7,"frizz_risk":1,"updated_at":"2026-06-26T04:50:48.257910+05:30"},{"city":"Vijayawada","state":"Andhra Pradesh","latitude":16.5062,"longitude":80.648,"temp":29.4,"humidity":83,"rain":0.0,"pressure":998.7,"uv_index":7.1,"wind_gusts":40.3,"aqi":73,"pm10":34.2,"pm2_5":28.9,"no2":15.9,"co":283.0,"o3":55.0,"so2":6.7,"mosquito_risk":7,"arthritis_risk":5,"migraine_risk":7,"frizz_risk":1,"updated_at":"2026-06-26T04:50:48.257917+05:30"},{"city":"Guntur","state":"Andhra Pradesh","latitude":16.3067,"longitude":80.4365,"temp":29.5,"humidity":77,"rain":0.0,"pressure":1000.0,"uv_index":6.95,"wind_gusts":38.5,"aqi":72,"pm10":42.1,"pm2_5":33.2,"no2":20.5,"co":322.0,"o3":45.0,"so2":8.2,"mosquito_risk":7,"arthritis_risk":5,"migraine_risk":4,"frizz_risk":1,"updated_at":"2026-06-26T04:50:48.257924+05:30"},{"city":"Nellore","state":"Andhra Pradesh","latitude":14.4426,"longitude":79.9865,"temp":27.2,"humidity":84,"rain":0.0,"pressure":1003.1,"uv_index":8.95,"wind_gusts":42.8,"aqi":43,"pm10":13.7,"pm2_5":10.2,"no2":10.7,"co":171.0,"o3":32.0,"so2":4.7,"mosquito_risk":7,"arthritis_risk":5,"migraine_risk":4,"frizz_risk":1,"updated_at":"2026-06-26T04:50:48.257932+05:30"},{"city":"Kurnool","state":"Andhra Pradesh","latitude":15.8281,"longitude":78.0373,"temp":25.0,"humidity":91,"rain":0.0,"pressure":974.9,"uv_index":5.3,"wind_gusts":37.8,"aqi":39,"pm10":13.6,"pm2_5":9.7,"no2":11.5,"co":188.0,"o3":30.0,"so2":3.3,"mosquito_risk":7,"arthritis_risk":5,"migraine_risk":3,"frizz_risk":1,"updated_at":"2026-06-26T04:50:48.257940+05:30"},{"city":"Kakinada","state":"Andhra Pradesh","latitude":16.9891,"longitude":82.2475,"temp":28.8,"humidity":79,"rain":0.0,"pressure":1003.4,"uv_index":7.4,"wind_gusts":35.3,"aqi":58,"pm10":22.7,"pm2_5":16.2,"no2":3.9,"co":184.0,"o3":92.0,"so2":3.7,"mosquito_risk":7,"arthritis_risk":5,"migraine_risk":4,"frizz_risk":1,"updated_at":"2026-06-26T04:50:48.257947+05:30"},{"city":"Tirupati","state":"Andhra Pradesh","latitude":13.6288,"longitude":79.4192,"temp":28.5,"humidity":61,"rain":0.0,"pressure":988.9,"uv_index":8.5,"wind_gusts":36.4,"aqi":42,"pm10":13.9,"pm2_5":10.3,"no2":15.1,"co":243.0,"o3":20.0,"so2":2.2,"mosquito_risk":7,"arthritis_risk":5,"migraine_risk":7,"frizz_risk":1,"updated_at":"2026-06-26T04:50:48.257954+05:30"},{"city":"Warangal","state":"Telangana","latitude":17.9689,"longitude":79.5941,"temp":26.9,"humidity":77,"rain":0.0,"pressure":975.3,"uv_index":5.95,"wind_gusts":35.6,"aqi":65,"pm10":24.3,"pm2_5":19.2,"no2":8.9,"co":187.0,"o3":53.0,"so2":3.5,"mosquito_risk":7,"arthritis_risk":5,"migraine_risk":3,"frizz_risk":1,"updated_at":"2026-06-26T04:50:48.257961+05:30"},{"city":"Nizamabad","state":"Telangana","latitude":18.6725,"longitude":78.0941,"temp":25.2,"humidity":86,"rain":0.0,"pressure":962.0,"uv_index":6.9,"wind_gusts":39.6,"aqi":67,"pm10":26.4,"pm2_5":18.6,"no2":9.5,"co":183.0,"o3":54.0,"so2":3.1,"mosquito_risk":7,"arthritis_risk":5,"migraine_risk":7,"frizz_risk":1,"updated_at":"2026-06-26T04:50:48.257968+05:30"},{"city":"Mysore","state":"Karnataka","latitude":12.2958,"longitude":76.6396,"temp":20.7,"humidity":98,"rain":0.0,"pressure":927.4,"uv_index":8.75,"wind_gusts":42.1,"aqi":23,"pm10":10.0,"pm2_5":7.7,"no2":9.5,"co":128.0,"o3":26.0,"so2":1.9,"mosquito_risk":3,"arthritis_risk":5,"migraine_risk":7,"frizz_risk":1,"updated_at":"2026-06-26T04:50:48.257975+05:30"},{"city":"Mangalore","state":"Karnataka","latitude":12.9141,"longitude":74.856,"temp":23.6,"humidity":98,"rain":0.1,"pressure":1006.9,"uv_index":7.9,"wind_gusts":30.2,"aqi":46,"pm10":19.4,"pm2_5":11.8,"no2":8.9,"co":162.0,"o3":26.0,"so2":2.8,"mosquito_risk":6,"arthritis_risk":5,"migraine_risk":4,"frizz_risk":1,"updated_at":"2026-06-26T04:50:48.257982+05:30"},{"city":"Hubli-Dharwad","state":"Karnataka","latitude":15.3647,"longitude":75.124,"temp":22.4,"humidity":93,"rain":0.0,"pressure":939.5,"uv_index":7.2,"wind_gusts":44.6,"aqi":19,"pm10":7.8,"pm2_5":4.9,"no2":4.7,"co":93.0,"o3":35.0,"so2":1.3,"mosquito_risk":3,"arthritis_risk":5,"migraine_risk":7,"frizz_risk":1,"updated_at":"2026-06-26T04:50:48.257990+05:30"},{"city":"Belgaum","state":"Karnataka","latitude":15.8497,"longitude":74.4977,"temp":21.4,"humidity":95,"rain":0.0,"pressure":924.0,"uv_index":8.55,"wind_gusts":46.4,"aqi":19,"pm10":14.5,"pm2_5":9.8,"no2":4.9,"co":105.0,"o3":35.0,"so2":0.6,"mosquito_risk":3,"arthritis_risk":5,"migraine_risk":7,"frizz_risk":1,"updated_at":"2026-06-26T04:50:51.640097+05:30"},{"city":"Coimbatore","state":"Tamil Nadu","latitude":11.0168,"longitude":76.9558,"temp":23.3,"humidity":95,"rain":0.0,"pressure":960.4,"uv_index":8.6,"wind_gusts":46.8,"aqi":28,"pm10":11.3,"pm2_5":8.4,"no2":7.4,"co":155.0,"o3":28.0,"so2":3.0,"mosquito_risk":3,"arthritis_risk":5,"migraine_risk":7,"frizz_risk":1,"updated_at":"2026-06-26T04:50:51.640129+05:30"},{"city":"Madurai","state":"Tamil Nadu","latitude":9.9252,"longitude":78.1198,"temp":27.6,"humidity":63,"rain":0.0,"pressure":991.3,"uv_index":8.4,"wind_gusts":29.2,"aqi":67,"pm10":27.5,"pm2_5":26.5,"no2":34.1,"co":159.0,"o3":0.0,"so2":6.3,"mosquito_risk":7,"arthritis_risk":5,"migraine_risk":7,"frizz_risk":1,"updated_at":"2026-06-26T04:50:51.640140+05:30"},{"city":"Trichy","state":"Tamil Nadu","latitude":10.7905,"longitude":78.7047,"temp":27.6,"humidity":72,"rain":0.0,"pressure":997.9,"uv_index":7.95,"wind_gusts":39.2,"aqi":36,"pm10":13.0,"pm2_5":8.7,"no2":7.0,"co":102.0,"o3":34.0,"so2":3.5,"mosquito_risk":7,"arthritis_risk":5,"migraine_risk":7,"frizz_risk":1,"updated_at":"2026-06-26T04:50:51.640149+05:30"},{"city":"Salem","state":"Tamil Nadu","latitude":11.6643,"longitude":78.146,"temp":25.5,"humidity":82,"rain":0.0,"pressure":976.3,"uv_index":8.55,"wind_gusts":37.4,"aqi":59,"pm10":26.6,"pm2_5":22.9,"no2":31.4,"co":199.0,"o3":12.0,"so2":8.2,"mosquito_risk":7,"arthritis_risk":5,"migraine_risk":7,"frizz_risk":1,"updated_at":"2026-06-26T04:50:51.640157+05:30"},{"city":"Tirunelveli","state":"Tamil Nadu","latitude":8.7139,"longitude":77.7567,"temp":28.4,"humidity":70,"rain":0.0,"pressure":1002.0,"uv_index":8.3,"wind_gusts":52.6,"aqi":24,"pm10":4.7,"pm2_5":3.9,"no2":5.5,"co":118.0,"o3":34.0,"so2":2.3,"mosquito_risk":7,"arthritis_risk":5,"migraine_risk":4,"frizz_risk":1,"updated_at":"2026-06-26T04:50:51.640164+05:30"},{"city":"Vellore","state":"Tamil Nadu","latitude":12.9165,"longitude":79.1325,"temp":27.3,"humidity":67,"rain":0.0,"pressure":982.6,"uv_index":8.55,"wind_gusts":41.0,"aqi":45,"pm10":13.0,"pm2_5":10.1,"no2":17.8,"co":206.0,"o3":20.0,"so2":4.9,"mosquito_risk":7,"arthritis_risk":5,"migraine_risk":7,"frizz_risk":1,"updated_at":"2026-06-26T04:50:51.640172+05:30"},{"city":"Erode","state":"Tamil Nadu","latitude":11.341,"longitude":77.7172,"temp":25.8,"humidity":81,"rain":0.0,"pressure":988.0,"uv_index":8.45,"wind_gusts":40.7,"aqi":49,"pm10":18.2,"pm2_5":15.5,"no2":15.9,"co":134.0,"o3":24.0,"so2":4.0,"mosquito_risk":7,"arthritis_risk":5,"migraine_risk":7,"frizz_risk":1,"updated_at":"2026-06-26T04:50:51.640180+05:30"},{"city":"Kochi","state":"Kerala","latitude":9.9312,"longitude":76.2673,"temp":25.6,"humidity":92,"rain":0.2,"pressure":1009.2,"uv_index":8.0,"wind_gusts":34.2,"aqi":50,"pm10":16.4,"pm2_5":13.4,"no2":13.8,"co":164.0,"o3":15.0,"so2":4.2,"mosquito_risk":10,"arthritis_risk":0,"migraine_risk":4,"frizz_risk":1,"updated_at":"2026-06-26T04:50:51.640187+05:30"},{"city":"Thiruvananthapuram","state":"Kerala","latitude":8.5241,"longitude":76.9366,"temp":24.2,"humidity":98,"rain":0.2,"pressure":1008.7,"uv_index":8.45,"wind_gusts":46.1,"aqi":30,"pm10":11.6,"pm2_5":7.0,"no2":2.9,"co":156.0,"o3":46.0,"so2":1.5,"mosquito_risk":6,"arthritis_risk":0,"migraine_risk":4,"frizz_risk":1,"updated_at":"2026-06-26T04:50:51.640195+05:30"},{"city":"Kozhikode","state":"Kerala","latitude":11.2588,"longitude":75.7804,"temp":24.7,"humidity":96,"rain":0.1,"pressure":1008.0,"uv_index":8.25,"wind_gusts":34.2,"aqi":28,"pm10":13.4,"pm2_5":7.0,"no2":2.3,"co":172.0,"o3":50.0,"so2":1.3,"mosquito_risk":6,"arthritis_risk":0,"migraine_risk":4,"frizz_risk":1,"updated_at":"2026-06-26T04:50:51.640202+05:30"},{"city":"Thrissur","state":"Kerala","latitude":10.5276,"longitude":76.2144,"temp":23.5,"humidity":99,"rain":0.1,"pressure":1007.5,"uv_index":8.0,"wind_gusts":36.4,"aqi":49,"pm10":17.8,"pm2_5":15.4,"no2":13.5,"co":198.0,"o3":14.0,"so2":3.3,"mosquito_risk":6,"arthritis_risk":5,"migraine_risk":4,"frizz_risk":1,"updated_at":"2026-06-26T04:50:51.640210+05:30"},{"city":"Kannur","state":"Kerala","latitude":11.8745,"longitude":75.3704,"temp":23.5,"humidity":98,"rain":0.2,"pressure":1007.5,"uv_index":8.3,"wind_gusts":28.1,"aqi":35,"pm10":13.0,"pm2_5":8.0,"no2":7.2,"co":234.0,"o3":29.0,"so2":2.1,"mosquito_risk":6,"arthritis_risk":5,"migraine_risk":4,"frizz_risk":1,"updated_at":"2026-06-26T04:50:51.640217+05:30"},{"city":"Patna","state":"Bihar","latitude":25.5941,"longitude":85.1376,"temp":29.1,"humidity":81,"rain":0.0,"pressure":996.9,"uv_index":8.9,"wind_gusts":28.4,"aqi":133,"pm10":78.5,"pm2_5":70.8,"no2":28.7,"co":456.0,"o3":50.0,"so2":15.3,"mosquito_risk":7,"arthritis_risk":5,"migraine_risk":7,"frizz_risk":1,"updated_at":"2026-06-26T04:50:51.640224+05:30"},{"city":"Gaya","state":"Bihar","latitude":24.7914,"longitude":85.0002,"temp":29.2,"humidity":77,"rain":0.0,"pressure":990.2,"uv_index":8.95,"wind_gusts":19.8,"aqi":89,"pm10":50.8,"pm2_5":49.0,"no2":25.6,"co":305.0,"o3":54.0,"so2":15.6,"mosquito_risk":7,"arthritis_risk":5,"migraine_risk":7,"frizz_risk":1,"updated_at":"2026-06-26T04:50:51.640231+05:30"},{"city":"Muzaffarpur","state":"Bihar","latitude":26.1209,"longitude":85.3647,"temp":28.1,"humidity":86,"rain":0.0,"pressure":997.4,"uv_index":8.85,"wind_gusts":34.6,"aqi":155,"pm10":76.4,"pm2_5":67.3,"no2":16.5,"co":533.0,"o3":84.0,"so2":13.3,"mosquito_risk":7,"arthritis_risk":5,"migraine_risk":7,"frizz_risk":1,"updated_at":"2026-06-26T04:50:51.640237+05:30"},{"city":"Bhagalpur","state":"Bihar","latitude":25.2425,"longitude":87.0117,"temp":29.1,"humidity":85,"rain":0.0,"pressure":998.2,"uv_index":8.65,"wind_gusts":26.3,"aqi":150,"pm10":53.4,"pm2_5":50.3,"no2":12.6,"co":542.0,"o3":86.0,"so2":17.9,"mosquito_risk":7,"arthritis_risk":5,"migraine_risk":7,"frizz_risk":1,"updated_at":"2026-06-26T04:50:51.640245+05:30"},{"city":"Ranchi","state":"Jharkhand","latitude":23.3441,"longitude":85.3096,"temp":24.2,"humidity":88,"rain":0.0,"pressure":935.1,"uv_index":9.0,"wind_gusts":28.1,"aqi":82,"pm10":35.4,"pm2_5":35.0,"no2":17.7,"co":304.0,"o3":59.0,"so2":23.7,"mosquito_risk":3,"arthritis_risk":5,"migraine_risk":7,"frizz_risk":1,"updated_at":"2026-06-26T04:50:51.640252+05:30"},{"city":"Jamshedpur","state":"Jharkhand","latitude":22.8046,"longitude":86.2029,"temp":27.2,"humidity":90,"rain":0.0,"pressure":988.1,"uv_index":9.05,"wind_gusts":32.8,"aqi":90,"pm10":53.0,"pm2_5":49.1,"no2":37.7,"co":531.0,"o3":18.0,"so2":23.4,"mosquito_risk":7,"arthritis_risk":5,"migraine_risk":7,"frizz_risk":1,"updated_at":"2026-06-26T04:50:51.640259+05:30"},{"city":"Dhanbad","state":"Jharkhand","latitude":23.7957,"longitude":86.4304,"temp":28.2,"humidity":85,"rain":0.0,"pressure":977.1,"uv_index":8.85,"wind_gusts":31.3,"aqi":151,"pm10":73.1,"pm2_5":70.1,"no2":55.9,"co":1889.0,"o3":15.0,"so2":159.6,"mosquito_risk":7,"arthritis_risk":5,"migraine_risk":7,"frizz_risk":1,"updated_at":"2026-06-26T04:50:51.640266+05:30"},{"city":"Bokaro","state":"Jharkhand","latitude":23.6693,"longitude":86.1511,"temp":28.0,"humidity":82,"rain":0.0,"pressure":980.8,"uv_index":8.85,"wind_gusts":32.0,"aqi":148,"pm10":88.5,"pm2_5":87.1,"no2":55.9,"co":533.0,"o3":21.0,"so2":165.8,"mosquito_risk":7,"arthritis_risk":5,"migraine_risk":7,"frizz_risk":1,"updated_at":"2026-06-26T04:50:51.640273+05:30"},{"city":"Bhubaneswar","state":"Odisha","latitude":20.2961,"longitude":85.8245,"temp":27.6,"humidity":100,"rain":0.0,"pressure":998.9,"uv_index":9.05,"wind_gusts":30.6,"aqi":79,"pm10":43.0,"pm2_5":38.8,"no2":24.9,"co":676.0,"o3":54.0,"so2":7.7,"mosquito_risk":7,"arthritis_risk":5,"migraine_risk":7,"frizz_risk":1,"updated_at":"2026-06-26T04:50:51.640280+05:30"},{"city":"Cuttack","state":"Odisha","latitude":20.4625,"longitude":85.8828,"temp":27.9,"humidity":98,"rain":0.0,"pressure":1000.6,"uv_index":9.1,"wind_gusts":30.2,"aqi":79,"pm10":43.0,"pm2_5":38.8,"no2":24.9,"co":683.0,"o3":54.0,"so2":7.7,"mosquito_risk":7,"arthritis_risk":5,"migraine_risk":4,"frizz_risk":1,"updated_at":"2026-06-26T04:50:51.640287+05:30"},{"city":"Rourkela","state":"Odisha","latitude":22.2604,"longitude":84.8536,"temp":28.4,"humidity":76,"rain":0.0,"pressure":982.1,"uv_index":8.7,"wind_gusts":31.7,"aqi":81,"pm10":38.8,"pm2_5":38.2,"no2":33.1,"co":706.0,"o3":41.0,"so2":30.6,"mosquito_risk":7,"arthritis_risk":5,"migraine_risk":7,"frizz_risk":1,"updated_at":"2026-06-26T04:50:51.640294+05:30"},{"city":"Raipur","state":"Chhattisgarh","latitude":21.2514,"longitude":81.6296,"temp":29.3,"humidity":68,"rain":0.0,"pressure":971.1,"uv_index":8.95,"wind_gusts":32.0,"aqi":81,"pm10":35.7,"pm2_5":35.4,"no2":50.6,"co":877.0,"o3":21.0,"so2":71.0,"mosquito_risk":7,"arthritis_risk":5,"migraine_risk":7,"frizz_risk":1,"updated_at":"2026-06-26T04:50:51.640302+05:30"},{"city":"Bhilai","state":"Chhattisgarh","latitude":21.1938,"longitude":81.3509,"temp":28.4,"humidity":74,"rain":0.0,"pressure":971.5,"uv_index":8.95,"wind_gusts":35.3,"aqi":79,"pm10":36.9,"pm2_5":36.4,"no2":39.2,"co":1168.0,"o3":31.0,"so2":57.1,"mosquito_risk":7,"arthritis_risk":5,"migraine_risk":7,"frizz_risk":1,"updated_at":"2026-06-26T04:50:51.640308+05:30"},{"city":"Guwahati","state":"Assam","latitude":26.1158,"longitude":91.7086,"temp":25.9,"humidity":98,"rain":0.1,"pressure":999.8,"uv_index":8.8,"wind_gusts":22.0,"aqi":89,"pm10":39.8,"pm2_5":34.1,"no2":8.1,"co":330.0,"o3":57.0,"so2":4.6,"mosquito_risk":10,"arthritis_risk":5,"migraine_risk":7,"frizz_risk":1,"updated_at":"2026-06-26T04:50:51.640315+05:30"},{"city":"Agartala","state":"Tripura","latitude":23.8315,"longitude":91.2868,"temp":25.4,"humidity":96,"rain":0.0,"pressure":1004.3,"uv_index":8.2,"wind_gusts":26.3,"aqi":86,"pm10":32.1,"pm2_5":27.9,"no2":14.9,"co":217.0,"o3":44.0,"so2":3.6,"mosquito_risk":7,"arthritis_risk":5,"migraine_risk":4,"frizz_risk":1,"updated_at":"2026-06-26T04:50:51.640322+05:30"},{"city":"Shillong","state":"Meghalaya","latitude":25.5788,"longitude":91.8933,"temp":19.5,"humidity":98,"rain":0.0,"pressure":856.0,"uv_index":7.05,"wind_gusts":20.5,"aqi":64,"pm10":11.6,"pm2_5":8.8,"no2":3.9,"co":277.0,"o3":86.0,"so2":3.7,"mosquito_risk":3,"arthritis_risk":10,"migraine_risk":7,"frizz_risk":1,"updated_at":"2026-06-26T04:50:51.640330+05:30"},{"city":"Imphal","state":"Manipur","latitude":24.817,"longitude":93.9368,"temp":22.3,"humidity":98,"rain":0.0,"pressure":921.7,"uv_index":8.95,"wind_gusts":24.1,"aqi":60,"pm10":19.8,"pm2_5":16.9,"no2":7.6,"co":397.0,"o3":55.0,"so2":3.1,"mosquito_risk":3,"arthritis_risk":5,"migraine_risk":7,"frizz_risk":1,"updated_at":"2026-06-26T04:50:51.640336+05:30"},{"city":"Aizawl","state":"Mizoram","latitude":23.7271,"longitude":92.7176,"temp":19.4,"humidity":98,"rain":0.0,"pressure":890.8,"uv_index":7.75,"wind_gusts":21.2,"aqi":64,"pm10":20.7,"pm2_5":13.1,"no2":3.7,"co":189.0,"o3":58.0,"so2":1.5,"mosquito_risk":3,"arthritis_risk":10,"migraine_risk":7,"frizz_risk":1,"updated_at":"2026-06-26T04:50:51.640344+05:30"},{"city":"Kohima","state":"Nagaland","latitude":25.6701,"longitude":94.1077,"temp":19.3,"humidity":96,"rain":0.0,"pressure":854.4,"uv_index":7.8,"wind_gusts":23.0,"aqi":50,"pm10":22.1,"pm2_5":16.0,"no2":3.3,"co":244.0,"o3":77.0,"so2":1.5,"mosquito_risk":3,"arthritis_risk":10,"migraine_risk":7,"frizz_risk":1,"updated_at":"2026-06-26T04:50:51.640351+05:30"},{"city":"Gangtok","state":"Sikkim","latitude":27.3314,"longitude":88.6138,"temp":18.0,"humidity":90,"rain":0.1,"pressure":837.0,"uv_index":8.15,"wind_gusts":35.6,"aqi":82,"pm10":23.2,"pm2_5":18.9,"no2":7.7,"co":687.0,"o3":122.0,"so2":4.0,"mosquito_risk":6,"arthritis_risk":10,"migraine_risk":7,"frizz_risk":1,"updated_at":"2026-06-26T04:50:51.640358+05:30"},{"city":"Siliguri","state":"West Bengal","latitude":26.7271,"longitude":88.3953,"temp":24.8,"humidity":99,"rain":0.1,"pressure":991.5,"uv_index":8.6,"wind_gusts":22.0,"aqi":114,"pm10":67.8,"pm2_5":54.4,"no2":11.7,"co":425.0,"o3":110.0,"so2":7.5,"mosquito_risk":6,"arthritis_risk":5,"migraine_risk":7,"frizz_risk":1,"updated_at":"2026-06-26T04:50:55.020312+05:30"},{"city":"Durgapur","state":"West Bengal","latitude":23.5204,"longitude":87.3119,"temp":28.0,"humidity":87,"rain":0.0,"pressure":992.3,"uv_index":9.0,"wind_gusts":32.4,"aqi":151,"pm10":42.5,"pm2_5":39.9,"no2":32.3,"co":814.0,"o3":23.0,"so2":40.1,"mosquito_risk":7,"arthritis_risk":5,"migraine_risk":7,"frizz_risk":1,"updated_at":"2026-06-26T04:50:55.020346+05:30"},{"city":"Asansol","state":"West Bengal","latitude":23.6739,"longitude":86.9524,"temp":27.9,"humidity":90,"rain":0.0,"pressure":990.6,"uv_index":8.95,"wind_gusts":32.4,"aqi":136,"pm10":41.0,"pm2_5":38.2,"no2":32.8,"co":534.0,"o3":26.0,"so2":41.5,"mosquito_risk":7,"arthritis_risk":5,"migraine_risk":7,"frizz_risk":1,"updated_at":"2026-06-26T04:50:55.020357+05:30"},{"city":"Pondicherry","state":"Puducherry","latitude":11.9139,"longitude":79.8145,"temp":28.4,"humidity":81,"rain":0.0,"pressure":1006.2,"uv_index":7.1,"wind_gusts":41.8,"aqi":63,"pm10":21.1,"pm2_5":17.8,"no2":17.5,"co":220.0,"o3":48.0,"so2":12.9,"mosquito_risk":7,"arthritis_risk":5,"migraine_risk":4,"frizz_risk":1,"updated_at":"2026-06-26T04:50:55.020365+05:30"},{"city":"Port Blair","state":"Andaman and Nicobar Islands","latitude":11.6234,"longitude":92.7265,"temp":24.7,"humidity":98,"rain":0.1,"pressure":1006.5,"uv_index":8.35,"wind_gusts":34.9,"aqi":25,"pm10":6.1,"pm2_5":3.8,"no2":0.3,"co":93.0,"o3":54.0,"so2":0.3,"mosquito_risk":6,"arthritis_risk":5,"migraine_risk":4,"frizz_risk":1,"updated_at":"2026-06-26T04:50:55.020374+05:30"},{"city":"Haridwar","state":"Uttarakhand","latitude":29.9457,"longitude":78.1642,"temp":26.4,"humidity":78,"rain":0.0,"pressure":969.9,"uv_index":7.6,"wind_gusts":21.6,"aqi":128,"pm10":78.5,"pm2_5":47.8,"no2":31.5,"co":290.0,"o3":25.0,"so2":5.0,"mosquito_risk":7,"arthritis_risk":5,"migraine_risk":7,"frizz_risk":1,"updated_at":"2026-06-26T04:50:55.020381+05:30"},{"city":"Rishikesh","state":"Uttarakhand","latitude":30.0869,"longitude":78.2676,"temp":24.5,"humidity":83,"rain":0.0,"pressure":962.8,"uv_index":7.7,"wind_gusts":24.5,"aqi":100,"pm10":76.1,"pm2_5":31.1,"no2":9.1,"co":364.0,"o3":99.0,"so2":3.5,"mosquito_risk":3,"arthritis_risk":5,"migraine_risk":7,"frizz_risk":1,"updated_at":"2026-06-26T04:50:55.020389+05:30"},{"city":"Nainital","state":"Uttarakhand","latitude":29.3919,"longitude":79.4542,"temp":14.2,"humidity":99,"rain":0.0,"pressure":803.2,"uv_index":7.0,"wind_gusts":29.9,"aqi":99,"pm10":56.3,"pm2_5":33.9,"no2":17.3,"co":303.0,"o3":65.0,"so2":3.9,"mosquito_risk":3,"arthritis_risk":10,"migraine_risk":7,"frizz_risk":0,"updated_at":"2026-06-26T04:50:55.020396+05:30"},{"city":"Mussoorie","state":"Uttarakhand","latitude":30.4599,"longitude":78.0664,"temp":15.2,"humidity":91,"rain":0.0,"pressure":801.0,"uv_index":6.8,"wind_gusts":40.0,"aqi":97,"pm10":55.1,"pm2_5":33.6,"no2":30.1,"co":273.0,"o3":30.0,"so2":3.7,"mosquito_risk":3,"arthritis_risk":10,"migraine_risk":7,"frizz_risk":0,"updated_at":"2026-06-26T04:50:55.020421+05:30"},{"city":"Dharamshala","state":"Himachal Pradesh","latitude":32.219,"longitude":76.3234,"temp":21.6,"humidity":65,"rain":0.0,"pressure":867.5,"uv_index":8.55,"wind_gusts":37.1,"aqi":53,"pm10":15.0,"pm2_5":10.3,"no2":18.1,"co":246.0,"o3":31.0,"so2":0.0,"mosquito_risk":3,"arthritis_risk":5,"migraine_risk":7,"frizz_risk":0,"updated_at":"2026-06-26T04:50:55.020429+05:30"},{"city":"Dalhousie","state":"Himachal Pradesh","latitude":32.5387,"longitude":75.971,"temp":15.5,"humidity":83,"rain":0.0,"pressure":802.6,"uv_index":8.3,"wind_gusts":31.3,"aqi":94,"pm10":59.4,"pm2_5":43.9,"no2":29.4,"co":289.0,"o3":50.0,"so2":2.8,"mosquito_risk":3,"arthritis_risk":10,"migraine_risk":7,"frizz_risk":0,"updated_at":"2026-06-26T04:50:55.020437+05:30"},{"city":"Patiala","state":"Punjab","latitude":30.3398,"longitude":76.3869,"temp":28.9,"humidity":71,"rain":0.0,"pressure":974.1,"uv_index":7.7,"wind_gusts":25.2,"aqi":164,"pm10":155.5,"pm2_5":65.2,"no2":17.9,"co":942.0,"o3":65.0,"so2":6.9,"mosquito_risk":7,"arthritis_risk":5,"migraine_risk":7,"frizz_risk":1,"updated_at":"2026-06-26T04:50:55.020445+05:30"},{"city":"Bhatinda","state":"Punjab","latitude":30.211,"longitude":74.9455,"temp":29.4,"humidity":69,"rain":0.0,"pressure":979.6,"uv_index":7.0,"wind_gusts":23.0,"aqi":160,"pm10":95.7,"pm2_5":60.3,"no2":26.8,"co":476.0,"o3":45.0,"so2":5.6,"mosquito_risk":7,"arthritis_risk":5,"migraine_risk":7,"frizz_risk":1,"updated_at":"2026-06-26T04:50:55.020452+05:30"},{"city":"Rohtak","state":"Haryana","latitude":28.8955,"longitude":76.6066,"temp":28.5,"humidity":68,"rain":0.0,"pressure":977.5,"uv_index":7.1,"wind_gusts":18.4,"aqi":164,"pm10":244.9,"pm2_5":85.9,"no2":56.5,"co":731.0,"o3":0.0,"so2":13.9,"mosquito_risk":7,"arthritis_risk":5,"migraine_risk":7,"frizz_risk":1,"updated_at":"2026-06-26T04:50:55.020459+05:30"},{"city":"Panipat","state":"Haryana","latitude":29.3909,"longitude":76.9635,"temp":28.6,"humidity":74,"rain":0.0,"pressure":976.0,"uv_index":6.75,"wind_gusts":16.9,"aqi":194,"pm10":154.6,"pm2_5":83.6,"no2":49.7,"co":680.0,"o3":15.0,"so2":9.9,"mosquito_risk":7,"arthritis_risk":5,"migraine_risk":7,"frizz_risk":1,"updated_at":"2026-06-26T04:50:55.020466+05:30"},{"city":"Mathura","state":"Uttar Pradesh","latitude":27.4924,"longitude":77.6737,"temp":29.8,"humidity":65,"rain":0.0,"pressure":982.7,"uv_index":8.05,"wind_gusts":19.4,"aqi":153,"pm10":79.6,"pm2_5":36.8,"no2":37.2,"co":471.0,"o3":17.0,"so2":4.1,"mosquito_risk":7,"arthritis_risk":5,"migraine_risk":7,"frizz_risk":1,"updated_at":"2026-06-26T04:50:55.020473+05:30"},{"city":"Vrindavan","state":"Uttar Pradesh","latitude":27.5823,"longitude":77.7027,"temp":29.9,"humidity":65,"rain":0.0,"pressure":983.1,"uv_index":8.0,"wind_gusts":18.7,"aqi":153,"pm10":79.6,"pm2_5":36.8,"no2":37.2,"co":535.0,"o3":17.0,"so2":4.1,"mosquito_risk":7,"arthritis_risk":5,"migraine_risk":7,"frizz_risk":1,"updated_at":"2026-06-26T04:50:55.020481+05:30"},{"city":"Ayodhya","state":"Uttar Pradesh","latitude":26.7922,"longitude":82.1998,"temp":27.4,"humidity":91,"rain":0.0,"pressure":991.6,"uv_index":8.45,"wind_gusts":40.0,"aqi":158,"pm10":80.6,"pm2_5":55.8,"no2":22.7,"co":822.0,"o3":60.0,"so2":8.1,"mosquito_risk":7,"arthritis_risk":5,"migraine_risk":7,"frizz_risk":1,"updated_at":"2026-06-26T04:50:55.020488+05:30"},{"city":"Ratlam","state":"Madhya Pradesh","latitude":23.3315,"longitude":75.0367,"temp":26.2,"humidity":78,"rain":0.0,"pressure":951.4,"uv_index":8.15,"wind_gusts":37.8,"aqi":90,"pm10":45.8,"pm2_5":27.1,"no2":10.8,"co":165.0,"o3":43.0,"so2":14.6,"mosquito_risk":7,"arthritis_risk":5,"migraine_risk":7,"frizz_risk":1,"updated_at":"2026-06-26T04:50:55.020495+05:30"},{"city":"Sagar","state":"Madhya Pradesh","latitude":23.8388,"longitude":78.7378,"temp":24.1,"humidity":94,"rain":0.0,"pressure":946.7,"uv_index":8.7,"wind_gusts":29.5,"aqi":73,"pm10":29.7,"pm2_5":20.8,"no2":11.6,"co":202.0,"o3":49.0,"so2":2.7,"mosquito_risk":3,"arthritis_risk":5,"migraine_risk":7,"frizz_risk":1,"updated_at":"2026-06-26T04:50:55.020502+05:30"},{"city":"Satna","state":"Madhya Pradesh","latitude":24.6005,"longitude":80.8322,"temp":28.3,"humidity":71,"rain":0.0,"pressure":967.9,"uv_index":8.8,"wind_gusts":27.7,"aqi":73,"pm10":21.1,"pm2_5":16.2,"no2":9.9,"co":177.0,"o3":56.0,"so2":2.4,"mosquito_risk":7,"arthritis_risk":5,"migraine_risk":7,"frizz_risk":1,"updated_at":"2026-06-26T04:50:55.020509+05:30"},{"city":"Akola","state":"Maharashtra","latitude":20.7002,"longitude":77.0082,"temp":26.6,"humidity":81,"rain":0.0,"pressure":972.2,"uv_index":5.75,"wind_gusts":39.6,"aqi":68,"pm10":40.4,"pm2_5":24.4,"no2":11.7,"co":200.0,"o3":48.0,"so2":4.5,"mosquito_risk":7,"arthritis_risk":5,"migraine_risk":3,"frizz_risk":1,"updated_at":"2026-06-26T04:50:55.020517+05:30"},{"city":"Amravati","state":"Maharashtra","latitude":20.9374,"longitude":77.7796,"temp":26.0,"humidity":84,"rain":0.0,"pressure":964.1,"uv_index":8.5,"wind_gusts":35.6,"aqi":68,"pm10":33.3,"pm2_5":22.0,"no2":12.1,"co":183.0,"o3":47.0,"so2":3.6,"mosquito_risk":7,"arthritis_risk":5,"migraine_risk":7,"frizz_risk":1,"updated_at":"2026-06-26T04:50:55.020525+05:30"},{"city":"Latur","state":"Maharashtra","latitude":18.4088,"longitude":76.5604,"temp":24.6,"humidity":88,"rain":0.0,"pressure":937.0,"uv_index":1.2,"wind_gusts":32.4,"aqi":55,"pm10":19.6,"pm2_5":13.1,"no2":9.6,"co":167.0,"o3":49.0,"so2":6.5,"mosquito_risk":3,"arthritis_risk":5,"migraine_risk":3,"frizz_risk":1,"updated_at":"2026-06-26T04:50:55.020532+05:30"},{"city":"Nanded","state":"Maharashtra","latitude":19.1383,"longitude":77.3091,"temp":25.3,"humidity":85,"rain":0.0,"pressure":965.8,"uv_index":4.0,"wind_gusts":31.7,"aqi":64,"pm10":38.1,"pm2_5":22.7,"no2":11.1,"co":180.0,"o3":45.0,"so2":3.7,"mosquito_risk":7,"arthritis_risk":5,"migraine_risk":3,"frizz_risk":1,"updated_at":"2026-06-26T04:50:55.020539+05:30"},{"city":"Gulbarga","state":"Karnataka","latitude":17.3297,"longitude":76.8343,"temp":24.7,"humidity":91,"rain":0.0,"pressure":956.2,"uv_index":2.9,"wind_gusts":55.1,"aqi":41,"pm10":7.3,"pm2_5":6.1,"no2":10.5,"co":152.0,"o3":30.0,"so2":3.4,"mosquito_risk":3,"arthritis_risk":5,"migraine_risk":3,"frizz_risk":1,"updated_at":"2026-06-26T04:50:55.020546+05:30"},{"city":"Bidar","state":"Karnataka","latitude":17.9104,"longitude":77.5199,"temp":23.5,"humidity":94,"rain":0.0,"pressure":932.6,"uv_index":3.35,"wind_gusts":34.9,"aqi":58,"pm10":20.4,"pm2_5":14.2,"no2":9.4,"co":149.0,"o3":54.0,"so2":2.4,"mosquito_risk":3,"arthritis_risk":5,"migraine_risk":3,"frizz_risk":1,"updated_at":"2026-06-26T04:50:55.020553+05:30"},{"city":"Hospet","state":"Karnataka","latitude":15.2689,"longitude":76.3909,"temp":23.3,"humidity":88,"rain":0.0,"pressure":954.6,"uv_index":8.1,"wind_gusts":41.4,"aqi":19,"pm10":7.0,"pm2_5":4.5,"no2":5.1,"co":119.0,"o3":38.0,"so2":1.7,"mosquito_risk":3,"arthritis_risk":5,"migraine_risk":7,"frizz_risk":1,"updated_at":"2026-06-26T04:50:55.020560+05:30"},{"city":"Tirupur","state":"Tamil Nadu","latitude":11.1085,"longitude":77.3411,"temp":24.2,"humidity":90,"rain":0.0,"pressure":974.2,"uv_index":8.5,"wind_gusts":49.3,"aqi":52,"pm10":22.5,"pm2_5":19.5,"no2":18.8,"co":126.0,"o3":18.0,"so2":4.9,"mosquito_risk":3,"arthritis_risk":5,"migraine_risk":7,"frizz_risk":1,"updated_at":"2026-06-26T04:50:55.020566+05:30"},{"city":"Alappuzha","state":"Kerala","latitude":9.4981,"longitude":76.3388,"temp":25.1,"humidity":95,"rain":0.3,"pressure":1009.5,"uv_index":8.05,"wind_gusts":41.8,"aqi":42,"pm10":14.1,"pm2_5":9.7,"no2":7.3,"co":82.0,"o3":36.0,"so2":3.2,"mosquito_risk":10,"arthritis_risk":0,"migraine_risk":4,"frizz_risk":1,"updated_at":"2026-06-26T04:50:55.020573+05:30"},{"city":"Munnar","state":"Kerala","latitude":10.0889,"longitude":77.0595,"temp":15.9,"humidity":94,"rain":0.0,"pressure":855.3,"uv_index":8.45,"wind_gusts":40.3,"aqi":23,"pm10":5.3,"pm2_5":4.5,"no2":6.7,"co":85.0,"o3":22.0,"so2":1.4,"mosquito_risk":3,"arthritis_risk":10,"migraine_risk":7,"frizz_risk":0,"updated_at":"2026-06-26T04:50:55.020581+05:30"},{"city":"Silchar","state":"Assam","latitude":24.8333,"longitude":92.7789,"temp":25.8,"humidity":96,"rain":0.1,"pressure":1003.6,"uv_index":8.3,"wind_gusts":18.4,"aqi":86,"pm10":45.9,"pm2_5":32.0,"no2":9.9,"co":233.0,"o3":60.0,"so2":6.5,"mosquito_risk":10,"arthritis_risk":5,"migraine_risk":4,"frizz_risk":1,"updated_at":"2026-06-26T04:50:55.020588+05:30"},{"city":"Dibrugarh","state":"Assam","latitude":27.4728,"longitude":94.912,"temp":24.9,"humidity":98,"rain":0.1,"pressure":993.9,"uv_index":8.8,"wind_gusts":24.5,"aqi":76,"pm10":32.8,"pm2_5":29.0,"no2":12.5,"co":255.0,"o3":55.0,"so2":2.6,"mosquito_risk":6,"arthritis_risk":5,"migraine_risk":7,"frizz_risk":1,"updated_at":"2026-06-26T04:50:55.020594+05:30"}]