[{"city":"Delhi","state":"Delhi","latitude":28.6139,"longitude":77.209,"temp":26.6,"humidity":93,"rain":1.2,"pressure":975.0,"uv_index":5.55,"wind_gusts":29.9,"aqi":122,"pm10":15.8,"pm2_5":15.7,"no2":16.4,"co":530.0,"o3":98.0,"so2":20.6,"mosquito_risk":10,"arthritis_risk":5,"migraine_risk":3,"frizz_risk":1,"updated_at":"2026-07-08T11:24:37.957078+05:30"},{"city":"Mumbai","state":"Maharashtra","latitude":19.076,"longitude":72.8777,"temp":29.6,"humidity":75,"rain":0.0,"pressure":1004.2,"uv_index":6.4,"wind_gusts":57.2,"aqi":55,"pm10":31.1,"pm2_5":16.5,"no2":8.4,"co":297.0,"o3":46.0,"so2":5.8,"mosquito_risk":7,"arthritis_risk":5,"migraine_risk":4,"frizz_risk":1,"updated_at":"2026-07-08T11:24:37.957106+05:30"},{"city":"Bangalore","state":"Karnataka","latitude":12.9716,"longitude":77.5946,"temp":27.3,"humidity":58,"rain":0.0,"pressure":912.2,"uv_index":8.4,"wind_gusts":68.0,"aqi":28,"pm10":19.2,"pm2_5":8.6,"no2":3.9,"co":224.0,"o3":52.0,"so2":2.6,"mosquito_risk":4,"arthritis_risk":5,"migraine_risk":7,"frizz_risk":1,"updated_at":"2026-07-08T11:24:37.957116+05:30"},{"city":"Hyderabad","state":"Telangana","latitude":17.385,"longitude":78.4867,"temp":29.8,"humidity":59,"rain":0.0,"pressure":949.5,"uv_index":8.2,"wind_gusts":59.4,"aqi":23,"pm10":4.6,"pm2_5":3.5,"no2":2.6,"co":192.0,"o3":61.0,"so2":3.6,"mosquito_risk":4,"arthritis_risk":5,"migraine_risk":7,"frizz_risk":1,"updated_at":"2026-07-08T11:24:37.957121+05:30"},{"city":"Chennai","state":"Tamil Nadu","latitude":13.0827,"longitude":80.2707,"temp":36.0,"humidity":40,"rain":0.0,"pressure":1005.5,"uv_index":8.0,"wind_gusts":56.9,"aqi":62,"pm10":14.6,"pm2_5":10.0,"no2":5.8,"co":199.0,"o3":74.0,"so2":8.7,"mosquito_risk":0,"arthritis_risk":5,"migraine_risk":7,"frizz_risk":1,"updated_at":"2026-07-08T11:24:37.957126+05:30"},{"city":"Kolkata","state":"West Bengal","latitude":22.5726,"longitude":88.3639,"temp":29.7,"humidity":82,"rain":0.0,"pressure":1001.8,"uv_index":7.85,"wind_gusts":32.4,"aqi":69,"pm10":29.9,"pm2_5":20.8,"no2":5.2,"co":265.0,"o3":87.0,"so2":8.3,"mosquito_risk":7,"arthritis_risk":5,"migraine_risk":4,"frizz_risk":1,"updated_at":"2026-07-08T11:24:37.957130+05:30"},{"city":"Pune","state":"Maharashtra","latitude":18.5204,"longitude":73.8567,"temp":25.3,"humidity":82,"rain":0.1,"pressure":944.0,"uv_index":7.25,"wind_gusts":55.1,"aqi":21,"pm10":9.6,"pm2_5":5.0,"no2":8.0,"co":168.0,"o3":41.0,"so2":4.4,"mosquito_risk":10,"arthritis_risk":5,"migraine_risk":7,"frizz_risk":1,"updated_at":"2026-07-08T11:24:37.957134+05:30"},{"city":"Ahmedabad","state":"Gujarat","latitude":23.0225,"longitude":72.5714,"temp":30.4,"humidity":75,"rain":0.0,"pressure":994.7,"uv_index":6.45,"wind_gusts":32.0,"aqi":86,"pm10":58.3,"pm2_5":23.7,"no2":4.8,"co":188.0,"o3":61.0,"so2":5.2,"mosquito_risk":3,"arthritis_risk":5,"migraine_risk":7,"frizz_risk":1,"updated_at":"2026-07-08T11:24:37.957137+05:30"},{"city":"Jaipur","state":"Rajasthan","latitude":26.9124,"longitude":75.7873,"temp":30.7,"humidity":67,"rain":0.0,"pressure":951.4,"uv_index":8.1,"wind_gusts":32.0,"aqi":63,"pm10":105.2,"pm2_5":36.8,"no2":4.0,"co":268.0,"o3":116.0,"so2":5.5,"mosquito_risk":3,"arthritis_risk":5,"migraine_risk":7,"frizz_risk":1,"updated_at":"2026-07-08T11:24:37.957141+05:30"},{"city":"Lucknow","state":"Uttar Pradesh","latitude":26.8467,"longitude":80.9462,"temp":31.2,"humidity":71,"rain":0.0,"pressure":984.7,"uv_index":7.2,"wind_gusts":45.4,"aqi":76,"pm10":25.1,"pm2_5":24.0,"no2":4.2,"co":248.0,"o3":124.0,"so2":14.3,"mosquito_risk":3,"arthritis_risk":5,"migraine_risk":7,"frizz_risk":1,"updated_at":"2026-07-08T11:24:37.957147+05:30"},{"city":"Kanpur","state":"Uttar Pradesh","latitude":26.4499,"longitude":80.3319,"temp":31.0,"humidity":73,"rain":0.0,"pressure":982.4,"uv_index":7.3,"wind_gusts":39.6,"aqi":72,"pm10":24.7,"pm2_5":20.8,"no2":3.2,"co":240.0,"o3":121.0,"so2":8.6,"mosquito_risk":3,"arthritis_risk":5,"migraine_risk":7,"frizz_risk":1,"updated_at":"2026-07-08T11:24:37.957150+05:30"},{"city":"Chandigarh","state":"Chandigarh","latitude":30.7333,"longitude":76.7794,"temp":28.5,"humidity":83,"rain":0.0,"pressure":962.1,"uv_index":6.6,"wind_gusts":28.4,"aqi":151,"pm10":17.7,"pm2_5":17.5,"no2":7.3,"co":393.0,"o3":121.0,"so2":9.0,"mosquito_risk":7,"arthritis_risk":5,"migraine_risk":7,"frizz_risk":1,"updated_at":"2026-07-08T11:24:37.957154+05:30"},{"city":"Srinagar","state":"Jammu and Kashmir","latitude":34.0837,"longitude":74.7973,"temp":27.6,"humidity":50,"rain":0.0,"pressure":838.9,"uv_index":8.9,"wind_gusts":23.8,"aqi":80,"pm10":34.5,"pm2_5":25.6,"no2":3.3,"co":454.0,"o3":156.0,"so2":5.6,"mosquito_risk":4,"arthritis_risk":5,"migraine_risk":7,"frizz_risk":1,"updated_at":"2026-07-08T11:24:37.957159+05:30"},{"city":"Jammu","state":"Jammu and Kashmir","latitude":32.7266,"longitude":74.857,"temp":30.1,"humidity":75,"rain":0.1,"pressure":965.6,"uv_index":8.5,"wind_gusts":28.8,"aqi":111,"pm10":43.9,"pm2_5":31.2,"no2":5.8,"co":388.0,"o3":170.0,"so2":5.4,"mosquito_risk":6,"arthritis_risk":5,"migraine_risk":7,"frizz_risk":1,"updated_at":"2026-07-08T11:24:37.957163+05:30"},{"city":"Amritsar","state":"Punjab","latitude":31.634,"longitude":74.8723,"temp":31.1,"humidity":71,"rain":0.0,"pressure":972.7,"uv_index":8.35,"wind_gusts":36.7,"aqi":170,"pm10":336.2,"pm2_5":127.6,"no2":7.1,"co":617.0,"o3":139.0,"so2":13.2,"mosquito_risk":3,"arthritis_risk":5,"migraine_risk":7,"frizz_risk":1,"updated_at":"2026-07-08T11:24:37.957166+05:30"},{"city":"Ludhiana","state":"Punjab","latitude":30.901,"longitude":75.8573,"temp":30.0,"humidity":76,"rain":0.0,"pressure":971.1,"uv_index":5.7,"wind_gusts":28.1,"aqi":157,"pm10":46.0,"pm2_5":38.6,"no2":4.8,"co":434.0,"o3":133.0,"so2":7.3,"mosquito_risk":7,"arthritis_risk":5,"migraine_risk":3,"frizz_risk":1,"updated_at":"2026-07-08T11:24:37.957169+05:30"},{"city":"Jalandhar","state":"Punjab","latitude":31.326,"longitude":75.5762,"temp":31.5,"humidity":75,"rain":0.0,"pressure":971.9,"uv_index":8.15,"wind_gusts":29.9,"aqi":164,"pm10":66.1,"pm2_5":45.6,"no2":5.9,"co":441.0,"o3":134.0,"so2":8.8,"mosquito_risk":3,"arthritis_risk":5,"migraine_risk":7,"frizz_risk":1,"updated_at":"2026-07-08T11:24:37.957172+05:30"},{"city":"Dehradun","state":"Uttarakhand","latitude":30.6284,"longitude":78.0322,"temp":21.5,"humidity":82,"rain":0.1,"pressure":827.3,"uv_index":1.55,"wind_gusts":19.1,"aqi":66,"pm10":10.3,"pm2_5":10.2,"no2":9.4,"co":237.0,"o3":92.0,"so2":1.9,"mosquito_risk":6,"arthritis_risk":5,"migraine_risk":3,"frizz_risk":1,"updated_at":"2026-07-08T11:24:37.957175+05:30"},{"city":"Shimla","state":"Himachal Pradesh","latitude":31.1048,"longitude":77.1734,"temp":19.1,"humidity":85,"rain":0.0,"pressure":782.2,"uv_index":2.45,"wind_gusts":24.1,"aqi":68,"pm10":8.6,"pm2_5":8.1,"no2":2.4,"co":282.0,"o3":118.0,"so2":1.7,"mosquito_risk":3,"arthritis_risk":10,"migraine_risk":3,"frizz_risk":1,"updated_at":"2026-07-08T11:24:37.957179+05:30"},{"city":"Manali","state":"Himachal Pradesh","latitude":32.2396,"longitude":77.1887,"temp":23.0,"humidity":83,"rain":0.0,"pressure":816.7,"uv_index":6.75,"wind_gusts":31.3,"aqi":41,"pm10":6.4,"pm2_5":6.3,"no2":13.7,"co":186.0,"o3":117.0,"so2":1.5,"mosquito_risk":3,"arthritis_risk":5,"migraine_risk":7,"frizz_risk":1,"updated_at":"2026-07-08T11:24:37.957183+05:30"},{"city":"Gurgaon","state":"Haryana","latitude":28.4595,"longitude":77.0266,"temp":27.1,"humidity":92,"rain":0.3,"pressure":973.3,"uv_index":7.55,"wind_gusts":31.7,"aqi":114,"pm10":16.4,"pm2_5":16.2,"no2":18.4,"co":492.0,"o3":92.0,"so2":18.9,"mosquito_risk":10,"arthritis_risk":5,"migraine_risk":7,"frizz_risk":1,"updated_at":"2026-07-08T11:24:37.957187+05:30"},{"city":"Noida","state":"Uttar Pradesh","latitude":28.5355,"longitude":77.391,"temp":26.5,"humidity":95,"rain":1.6,"pressure":976.2,"uv_index":5.75,"wind_gusts":30.2,"aqi":114,"pm10":16.4,"pm2_5":16.2,"no2":18.4,"co":416.0,"o3":92.0,"so2":18.9,"mosquito_risk":10,"arthritis_risk":5,"migraine_risk":3,"frizz_risk":1,"updated_at":"2026-07-08T11:24:37.957190+05:30"},{"city":"Ghaziabad","state":"Uttar Pradesh","latitude":28.6692,"longitude":77.4538,"temp":26.5,"humidity":94,"rain":1.2,"pressure":974.8,"uv_index":6.5,"wind_gusts":28.8,"aqi":110,"pm10":14.2,"pm2_5":14.0,"no2":6.9,"co":314.0,"o3":97.0,"so2":11.0,"mosquito_risk":10,"arthritis_risk":5,"migraine_risk":7,"frizz_risk":1,"updated_at":"2026-07-08T11:24:37.957194+05:30"},{"city":"Faridabad","state":"Haryana","latitude":28.4089,"longitude":77.3178,"temp":26.4,"humidity":95,"rain":2.2,"pressure":975.3,"uv_index":5.8,"wind_gusts":39.2,"aqi":114,"pm10":16.4,"pm2_5":16.2,"no2":18.4,"co":423.0,"o3":92.0,"so2":18.9,"mosquito_risk":10,"arthritis_risk":5,"migraine_risk":3,"frizz_risk":1,"updated_at":"2026-07-08T11:24:37.957198+05:30"},{"city":"Meerut","state":"Uttar Pradesh","latitude":28.9845,"longitude":77.7064,"temp":27.1,"humidity":89,"rain":0.0,"pressure":974.1,"uv_index":7.05,"wind_gusts":34.2,"aqi":110,"pm10":14.2,"pm2_5":14.0,"no2":6.9,"co":323.0,"o3":97.0,"so2":11.0,"mosquito_risk":7,"arthritis_risk":5,"migraine_risk":7,"frizz_risk":1,"updated_at":"2026-07-08T11:24:37.957201+05:30"},{"city":"Agra","state":"Uttar Pradesh","latitude":27.1767,"longitude":78.0081,"temp":29.7,"humidity":75,"rain":0.0,"pressure":977.7,"uv_index":6.1,"wind_gusts":31.7,"aqi":87,"pm10":15.3,"pm2_5":15.0,"no2":10.5,"co":315.0,"o3":90.0,"so2":8.6,"mosquito_risk":7,"arthritis_risk":5,"migraine_risk":7,"frizz_risk":1,"updated_at":"2026-07-08T11:24:37.957204+05:30"},{"city":"Varanasi","state":"Uttar Pradesh","latitude":25.3176,"longitude":82.9739,"temp":32.9,"humidity":64,"rain":0.0,"pressure":989.7,"uv_index":5.6,"wind_gusts":29.2,"aqi":68,"pm10":22.1,"pm2_5":20.5,"no2":7.6,"co":374.0,"o3":110.0,"so2":28.0,"mosquito_risk":3,"arthritis_risk":5,"migraine_risk":3,"frizz_risk":1,"updated_at":"2026-07-08T11:24:37.957208+05:30"},{"city":"Prayagraj","state":"Uttar Pradesh","latitude":25.4358,"longitude":81.8463,"temp":32.6,"humidity":67,"rain":0.0,"pressure":987.5,"uv_index":6.65,"wind_gusts":29.9,"aqi":62,"pm10":19.4,"pm2_5":18.6,"no2":4.1,"co":222.0,"o3":117.0,"so2":12.0,"mosquito_risk":3,"arthritis_risk":5,"migraine_risk":7,"frizz_risk":1,"updated_at":"2026-07-08T11:24:37.957211+05:30"},{"city":"Gorakhpur","state":"Uttar Pradesh","latitude":26.7606,"longitude":83.3732,"temp":31.9,"humidity":69,"rain":0.0,"pressure":990.4,"uv_index":6.6,"wind_gusts":40.0,"aqi":82,"pm10":28.5,"pm2_5":25.7,"no2":3.9,"co":235.0,"o3":136.0,"so2":11.5,"mosquito_risk":3,"arthritis_risk":5,"migraine_risk":7,"frizz_risk":1,"updated_at":"2026-07-08T11:24:37.957214+05:30"},{"city":"Bareilly","state":"Uttar Pradesh","latitude":28.367,"longitude":79.4304,"temp":29.8,"humidity":80,"rain":0.0,"pressure":978.6,"uv_index":5.75,"wind_gusts":47.2,"aqi":70,"pm10":25.8,"pm2_5":23.8,"no2":3.8,"co":268.0,"o3":123.0,"so2":11.5,"mosquito_risk":7,"arthritis_risk":5,"migraine_risk":3,"frizz_risk":1,"updated_at":"2026-07-08T11:24:37.957219+05:30"},{"city":"Aligarh","state":"Uttar Pradesh","latitude":27.8974,"longitude":78.088,"temp":27.8,"humidity":88,"rain":0.2,"pressure":976.5,"uv_index":5.8,"wind_gusts":38.2,"aqi":94,"pm10":21.5,"pm2_5":21.0,"no2":8.9,"co":294.0,"o3":97.0,"so2":13.8,"mosquito_risk":10,"arthritis_risk":5,"migraine_risk":3,"frizz_risk":1,"updated_at":"2026-07-08T11:24:37.957222+05:30"},{"city":"Moradabad","state":"Uttar Pradesh","latitude":28.8386,"longitude":78.7733,"temp":28.0,"humidity":86,"rain":0.1,"pressure":976.1,"uv_index":7.25,"wind_gusts":38.9,"aqi":104,"pm10":20.4,"pm2_5":19.1,"no2":6.0,"co":306.0,"o3":106.0,"so2":12.1,"mosquito_risk":10,"arthritis_risk":5,"migraine_risk":7,"frizz_risk":1,"updated_at":"2026-07-08T11:24:37.957225+05:30"},{"city":"Saharanpur","state":"Uttar Pradesh","latitude":29.9637,"longitude":77.546,"temp":28.1,"humidity":83,"rain":0.1,"pressure":968.9,"uv_index":6.7,"wind_gusts":23.4,"aqi":131,"pm10":21.7,"pm2_5":21.6,"no2":8.4,"co":284.0,"o3":97.0,"so2":3.7,"mosquito_risk":10,"arthritis_risk":5,"migraine_risk":7,"frizz_risk":1,"updated_at":"2026-07-08T11:24:37.957228+05:30"},{"city":"Jhansi","state":"Uttar Pradesh","latitude":25.4484,"longitude":78.5685,"temp":30.3,"humidity":72,"rain":0.0,"pressure":968.4,"uv_index":7.0,"wind_gusts":34.2,"aqi":59,"pm10":7.2,"pm2_5":7.2,"no2":5.0,"co":273.0,"o3":96.0,"so2":4.7,"mosquito_risk":3,"arthritis_risk":5,"migraine_risk":7,"frizz_risk":1,"updated_at":"2026-07-08T11:24:41.388784+05:30"},{"city":"Surat","state":"Gujarat","latitude":21.1702,"longitude":72.8311,"temp":29.7,"humidity":74,"rain":0.1,"pressure":1000.7,"uv_index":2.15,"wind_gusts":49.7,"aqi":90,"pm10":39.8,"pm2_5":29.7,"no2":29.9,"co":650.0,"o3":13.0,"so2":55.9,"mosquito_risk":10,"arthritis_risk":5,"migraine_risk":0,"frizz_risk":1,"updated_at":"2026-07-08T11:24:41.388806+05:30"},{"city":"Vadodara","state":"Gujarat","latitude":22.3072,"longitude":73.1812,"temp":26.9,"humidity":95,"rain":0.3,"pressure":997.7,"uv_index":3.85,"wind_gusts":34.6,"aqi":78,"pm10":38.4,"pm2_5":22.9,"no2":14.4,"co":227.0,"o3":33.0,"so2":6.5,"mosquito_risk":10,"arthritis_risk":5,"migraine_risk":3,"frizz_risk":1,"updated_at":"2026-07-08T11:24:41.388811+05:30"},{"city":"Rajkot","state":"Gujarat","latitude":22.3039,"longitude":70.8022,"temp":32.1,"humidity":60,"rain":0.0,"pressure":986.6,"uv_index":5.95,"wind_gusts":46.4,"aqi":72,"pm10":61.2,"pm2_5":23.6,"no2":2.2,"co":115.0,"o3":74.0,"so2":4.9,"mosquito_risk":0,"arthritis_risk":5,"migraine_risk":3,"frizz_risk":1,"updated_at":"2026-07-08T11:24:41.388815+05:30"},{"city":"Thane","state":"Maharashtra","latitude":19.2183,"longitude":72.9781,"temp":29.2,"humidity":74,"rain":0.1,"pressure":1003.6,"uv_index":4.75,"wind_gusts":39.6,"aqi":55,"pm10":31.1,"pm2_5":16.5,"no2":8.4,"co":241.0,"o3":46.0,"so2":5.8,"mosquito_risk":10,"arthritis_risk":5,"migraine_risk":0,"frizz_risk":1,"updated_at":"2026-07-08T11:24:41.388819+05:30"},{"city":"Nagpur","state":"Maharashtra","latitude":21.1458,"longitude":79.0882,"temp":31.0,"humidity":62,"rain":0.1,"pressure":966.4,"uv_index":8.25,"wind_gusts":51.5,"aqi":40,"pm10":8.9,"pm2_5":7.7,"no2":9.7,"co":185.0,"o3":49.0,"so2":17.3,"mosquito_risk":6,"arthritis_risk":5,"migraine_risk":7,"frizz_risk":1,"updated_at":"2026-07-08T11:24:41.388822+05:30"},{"city":"Nashik","state":"Maharashtra","latitude":19.9975,"longitude":73.7898,"temp":23.2,"humidity":88,"rain":0.1,"pressure":940.6,"uv_index":0.75,"wind_gusts":45.0,"aqi":23,"pm10":13.4,"pm2_5":8.0,"no2":4.8,"co":150.0,"o3":45.0,"so2":1.2,"mosquito_risk":6,"arthritis_risk":5,"migraine_risk":3,"frizz_risk":1,"updated_at":"2026-07-08T11:24:41.388826+05:30"},{"city":"Aurangabad","state":"Maharashtra","latitude":19.8762,"longitude":75.3433,"temp":23.8,"humidity":92,"rain":0.2,"pressure":938.9,"uv_index":6.35,"wind_gusts":56.2,"aqi":23,"pm10":4.2,"pm2_5":3.5,"no2":5.8,"co":162.0,"o3":51.0,"so2":2.1,"mosquito_risk":6,"arthritis_risk":5,"migraine_risk":7,"frizz_risk":1,"updated_at":"2026-07-08T11:24:41.388830+05:30"},{"city":"Solapur","state":"Maharashtra","latitude":17.6599,"longitude":75.9064,"temp":30.3,"humidity":59,"rain":0.1,"pressure":953.7,"uv_index":7.7,"wind_gusts":60.1,"aqi":20,"pm10":2.5,"pm2_5":1.9,"no2":1.4,"co":112.0,"o3":60.0,"so2":1.4,"mosquito_risk":3,"arthritis_risk":5,"migraine_risk":7,"frizz_risk":1,"updated_at":"2026-07-08T11:24:41.388833+05:30"},{"city":"Kolhapur","state":"Maharashtra","latitude":16.705,"longitude":74.2433,"temp":25.6,"humidity":81,"rain":0.1,"pressure":945.5,"uv_index":7.55,"wind_gusts":62.6,"aqi":18,"pm10":8.9,"pm2_5":6.2,"no2":3.4,"co":134.0,"o3":46.0,"so2":1.9,"mosquito_risk":10,"arthritis_risk":5,"migraine_risk":7,"frizz_risk":1,"updated_at":"2026-07-08T11:24:41.388837+05:30"},{"city":"Goa","state":"Goa","latitude":15.2993,"longitude":74.124,"temp":27.8,"humidity":93,"rain":0.2,"pressure":997.4,"uv_index":8.35,"wind_gusts":41.8,"aqi":54,"pm10":24.0,"pm2_5":12.8,"no2":1.0,"co":139.0,"o3":46.0,"so2":0.8,"mosquito_risk":10,"arthritis_risk":5,"migraine_risk":7,"frizz_risk":1,"updated_at":"2026-07-08T11:24:41.388840+05:30"},{"city":"Jodhpur","state":"Rajasthan","latitude":26.2389,"longitude":73.0243,"temp":34.2,"humidity":61,"rain":0.0,"pressure":974.0,"uv_index":6.85,"wind_gusts":31.3,"aqi":118,"pm10":219.3,"pm2_5":57.2,"no2":1.9,"co":144.0,"o3":92.0,"so2":5.3,"mosquito_risk":3,"arthritis_risk":5,"migraine_risk":7,"frizz_risk":1,"updated_at":"2026-07-08T11:24:41.388843+05:30"},{"city":"Udaipur","state":"Rajasthan","latitude":24.5854,"longitude":73.7125,"temp":30.7,"humidity":67,"rain":0.0,"pressure":939.0,"uv_index":6.45,"wind_gusts":34.2,"aqi":59,"pm10":47.6,"pm2_5":24.6,"no2":2.6,"co":157.0,"o3":80.0,"so2":4.5,"mosquito_risk":3,"arthritis_risk":5,"migraine_risk":7,"frizz_risk":1,"updated_at":"2026-07-08T11:24:41.388847+05:30"},{"city":"Kota","state":"Rajasthan","latitude":25.2138,"longitude":75.8648,"temp":32.5,"humidity":64,"rain":0.0,"pressure":970.0,"uv_index":7.25,"wind_gusts":48.2,"aqi":54,"pm10":37.7,"pm2_5":18.8,"no2":3.8,"co":228.0,"o3":104.0,"so2":4.5,"mosquito_risk":3,"arthritis_risk":5,"migraine_risk":7,"frizz_risk":1,"updated_at":"2026-07-08T11:24:41.388850+05:30"},{"city":"Bikaner","state":"Rajasthan","latitude":28.0229,"longitude":73.3119,"temp":36.7,"humidity":51,"rain":0.0,"pressure":972.6,"uv_index":8.05,"wind_gusts":62.3,"aqi":141,"pm10":242.1,"pm2_5":88.5,"no2":0.7,"co":139.0,"o3":82.0,"so2":2.4,"mosquito_risk":0,"arthritis_risk":5,"migraine_risk":10,"frizz_risk":1,"updated_at":"2026-07-08T11:24:41.388853+05:30"},{"city":"Ajmer","state":"Rajasthan","latitude":26.4499,"longitude":74.6399,"temp":28.9,"humidity":81,"rain":0.1,"pressure":946.5,"uv_index":7.25,"wind_gusts":47.5,"aqi":63,"pm10":120.1,"pm2_5":42.6,"no2":3.1,"co":167.0,"o3":85.0,"so2":4.7,"mosquito_risk":10,"arthritis_risk":5,"migraine_risk":7,"frizz_risk":1,"updated_at":"2026-07-08T11:24:41.388856+05:30"},{"city":"Gwalior","state":"Madhya Pradesh","latitude":26.2183,"longitude":78.1828,"temp":28.2,"humidity":83,"rain":0.1,"pressure":973.2,"uv_index":7.2,"wind_gusts":43.9,"aqi":67,"pm10":10.7,"pm2_5":10.7,"no2":7.3,"co":270.0,"o3":90.0,"so2":4.7,"mosquito_risk":10,"arthritis_risk":5,"migraine_risk":7,"frizz_risk":1,"updated_at":"2026-07-08T11:24:41.388860+05:30"},{"city":"Indore","state":"Madhya Pradesh","latitude":22.7196,"longitude":75.8577,"temp":25.4,"humidity":92,"rain":0.1,"pressure":941.1,"uv_index":5.3,"wind_gusts":40.7,"aqi":67,"pm10":12.5,"pm2_5":11.1,"no2":7.8,"co":350.0,"o3":73.0,"so2":4.2,"mosquito_risk":10,"arthritis_risk":5,"migraine_risk":3,"frizz_risk":1,"updated_at":"2026-07-08T11:24:41.388863+05:30"},{"city":"Bhopal","state":"Madhya Pradesh","latitude":23.2599,"longitude":77.4126,"temp":26.4,"humidity":84,"rain":0.1,"pressure":945.9,"uv_index":1.8,"wind_gusts":40.0,"aqi":68,"pm10":15.5,"pm2_5":13.7,"no2":6.5,"co":272.0,"o3":81.0,"so2":4.6,"mosquito_risk":10,"arthritis_risk":5,"migraine_risk":3,"frizz_risk":1,"updated_at":"2026-07-08T11:24:41.388866+05:30"},{"city":"Jabalpur","state":"Madhya Pradesh","latitude":23.1815,"longitude":79.9864,"temp":26.2,"humidity":93,"rain":0.5,"pressure":953.8,"uv_index":6.2,"wind_gusts":37.4,"aqi":51,"pm10":7.2,"pm2_5":6.2,"no2":4.6,"co":242.0,"o3":58.0,"so2":7.2,"mosquito_risk":10,"arthritis_risk":5,"migraine_risk":7,"frizz_risk":1,"updated_at":"2026-07-08T11:24:41.388869+05:30"},{"city":"Ujjain","state":"Madhya Pradesh","latitude":23.1765,"longitude":75.7885,"temp":26.1,"humidity":93,"rain":0.1,"pressure":946.5,"uv_index":1.25,"wind_gusts":41.8,"aqi":61,"pm10":18.2,"pm2_5":13.7,"no2":6.4,"co":263.0,"o3":68.0,"so2":4.0,"mosquito_risk":10,"arthritis_risk":5,"migraine_risk":3,"frizz_risk":1,"updated_at":"2026-07-08T11:24:41.388872+05:30"},{"city":"Visakhapatnam","state":"Andhra Pradesh","latitude":17.6868,"longitude":83.2185,"temp":32.4,"humidity":59,"rain":0.0,"pressure":999.8,"uv_index":9.0,"wind_gusts":51.5,"aqi":76,"pm10":31.4,"pm2_5":21.1,"no2":7.6,"co":271.0,"o3":98.0,"so2":23.4,"mosquito_risk":0,"arthritis_risk":5,"migraine_risk":7,"frizz_risk":1,"updated_at":"2026-07-08T11:24:41.388876+05:30"},{"city":"Vijayawada","state":"Andhra Pradesh","latitude":16.5062,"longitude":80.648,"temp":34.5,"humidity":48,"rain":0.0,"pressure":999.1,"uv_index":6.3,"wind_gusts":51.8,"aqi":61,"pm10":5.7,"pm2_5":4.2,"no2":2.2,"co":115.0,"o3":61.0,"so2":4.0,"mosquito_risk":0,"arthritis_risk":5,"migraine_risk":7,"frizz_risk":1,"updated_at":"2026-07-08T11:24:41.388879+05:30"},{"city":"Guntur","state":"Andhra Pradesh","latitude":16.3067,"longitude":80.4365,"temp":36.1,"humidity":42,"rain":0.0,"pressure":1000.1,"uv_index":5.45,"wind_gusts":55.1,"aqi":58,"pm10":6.3,"pm2_5":4.3,"no2":2.0,"co":115.0,"o3":59.0,"so2":3.6,"mosquito_risk":0,"arthritis_risk":5,"migraine_risk":3,"frizz_risk":1,"updated_at":"2026-07-08T11:24:41.388882+05:30"},{"city":"Nellore","state":"Andhra Pradesh","latitude":14.4426,"longitude":79.9865,"temp":36.5,"humidity":38,"rain":0.0,"pressure":1003.3,"uv_index":8.55,"wind_gusts":50.8,"aqi":45,"pm10":5.4,"pm2_5":3.4,"no2":1.9,"co":98.0,"o3":60.0,"so2":2.7,"mosquito_risk":0,"arthritis_risk":5,"migraine_risk":7,"frizz_risk":1,"updated_at":"2026-07-08T11:24:41.388886+05:30"},{"city":"Kurnool","state":"Andhra Pradesh","latitude":15.8281,"longitude":78.0373,"temp":32.6,"humidity":49,"rain":0.0,"pressure":974.5,"uv_index":4.7,"wind_gusts":59.4,"aqi":22,"pm10":7.2,"pm2_5":3.6,"no2":1.2,"co":106.0,"o3":59.0,"so2":2.2,"mosquito_risk":0,"arthritis_risk":5,"migraine_risk":3,"frizz_risk":1,"updated_at":"2026-07-08T11:24:41.388889+05:30"},{"city":"Kakinada","state":"Andhra Pradesh","latitude":16.9891,"longitude":82.2475,"temp":33.7,"humidity":54,"rain":0.1,"pressure":1003.8,"uv_index":8.75,"wind_gusts":51.1,"aqi":68,"pm10":19.6,"pm2_5":12.4,"no2":2.6,"co":146.0,"o3":75.0,"so2":4.5,"mosquito_risk":3,"arthritis_risk":5,"migraine_risk":4,"frizz_risk":1,"updated_at":"2026-07-08T11:24:41.388892+05:30"},{"city":"Tirupati","state":"Andhra Pradesh","latitude":13.6288,"longitude":79.4192,"temp":35.1,"humidity":41,"rain":0.0,"pressure":989.5,"uv_index":8.4,"wind_gusts":50.8,"aqi":39,"pm10":7.5,"pm2_5":3.9,"no2":1.7,"co":104.0,"o3":58.0,"so2":1.4,"mosquito_risk":0,"arthritis_risk":5,"migraine_risk":10,"frizz_risk":1,"updated_at":"2026-07-08T11:24:41.388896+05:30"},{"city":"Warangal","state":"Telangana","latitude":17.9689,"longitude":79.5941,"temp":31.2,"humidity":60,"rain":0.1,"pressure":974.4,"uv_index":5.55,"wind_gusts":53.3,"aqi":38,"pm10":6.7,"pm2_5":5.5,"no2":2.2,"co":137.0,"o3":66.0,"so2":4.1,"mosquito_risk":3,"arthritis_risk":5,"migraine_risk":3,"frizz_risk":1,"updated_at":"2026-07-08T11:24:41.388899+05:30"},{"city":"Nizamabad","state":"Telangana","latitude":18.6725,"longitude":78.0941,"temp":29.5,"humidity":65,"rain":0.0,"pressure":959.9,"uv_index":5.6,"wind_gusts":59.0,"aqi":22,"pm10":3.2,"pm2_5":3.0,"no2":3.0,"co":129.0,"o3":57.0,"so2":3.6,"mosquito_risk":7,"arthritis_risk":5,"migraine_risk":3,"frizz_risk":1,"updated_at":"2026-07-08T11:24:41.388902+05:30"},{"city":"Mysore","state":"Karnataka","latitude":12.2958,"longitude":76.6396,"temp":27.4,"humidity":62,"rain":0.1,"pressure":929.6,"uv_index":5.75,"wind_gusts":59.8,"aqi":26,"pm10":8.0,"pm2_5":4.4,"no2":2.1,"co":111.0,"o3":51.0,"so2":1.4,"mosquito_risk":10,"arthritis_risk":5,"migraine_risk":3,"frizz_risk":1,"updated_at":"2026-07-08T11:24:41.388905+05:30"},{"city":"Mangalore","state":"Karnataka","latitude":12.9141,"longitude":74.856,"temp":28.0,"humidity":78,"rain":0.1,"pressure":1008.5,"uv_index":8.7,"wind_gusts":59.8,"aqi":62,"pm10":25.6,"pm2_5":13.5,"no2":2.4,"co":137.0,"o3":43.0,"so2":1.6,"mosquito_risk":10,"arthritis_risk":0,"migraine_risk":4,"frizz_risk":1,"updated_at":"2026-07-08T11:24:41.388908+05:30"},{"city":"Hubli-Dharwad","state":"Karnataka","latitude":15.3647,"longitude":75.124,"temp":25.6,"humidity":81,"rain":0.2,"pressure":939.5,"uv_index":8.1,"wind_gusts":64.4,"aqi":19,"pm10":5.6,"pm2_5":3.4,"no2":1.8,"co":111.0,"o3":50.0,"so2":0.9,"mosquito_risk":10,"arthritis_risk":5,"migraine_risk":7,"frizz_risk":1,"updated_at":"2026-07-08T11:24:41.388911+05:30"},{"city":"Belgaum","state":"Karnataka","latitude":15.8497,"longitude":74.4977,"temp":25.1,"humidity":78,"rain":0.1,"pressure":924.1,"uv_index":2.05,"wind_gusts":66.2,"aqi":18,"pm10":8.4,"pm2_5":5.4,"no2":2.2,"co":109.0,"o3":47.0,"so2":1.3,"mosquito_risk":10,"arthritis_risk":5,"migraine_risk":3,"frizz_risk":1,"updated_at":"2026-07-08T11:24:44.790516+05:30"},{"city":"Coimbatore","state":"Tamil Nadu","latitude":11.0168,"longitude":76.9558,"temp":29.8,"humidity":60,"rain":0.0,"pressure":962.8,"uv_index":8.4,"wind_gusts":58.7,"aqi":41,"pm10":12.1,"pm2_5":6.1,"no2":1.6,"co":147.0,"o3":54.0,"so2":1.8,"mosquito_risk":4,"arthritis_risk":5,"migraine_risk":7,"frizz_risk":1,"updated_at":"2026-07-08T11:24:44.790530+05:30"},{"city":"Madurai","state":"Tamil Nadu","latitude":9.9252,"longitude":78.1198,"temp":36.1,"humidity":35,"rain":0.0,"pressure":993.0,"uv_index":8.7,"wind_gusts":38.5,"aqi":72,"pm10":37.8,"pm2_5":20.1,"no2":3.1,"co":153.0,"o3":84.0,"so2":3.4,"mosquito_risk":0,"arthritis_risk":5,"migraine_risk":10,"frizz_risk":1,"updated_at":"2026-07-08T11:24:44.790536+05:30"},{"city":"Trichy","state":"Tamil Nadu","latitude":10.7905,"longitude":78.7047,"temp":36.3,"humidity":37,"rain":0.0,"pressure":999.2,"uv_index":8.75,"wind_gusts":62.3,"aqi":55,"pm10":16.3,"pm2_5":8.8,"no2":1.9,"co":108.0,"o3":61.0,"so2":2.1,"mosquito_risk":0,"arthritis_risk":5,"migraine_risk":10,"frizz_risk":1,"updated_at":"2026-07-08T11:24:44.790541+05:30"},{"city":"Salem","state":"Tamil Nadu","latitude":11.6643,"longitude":78.146,"temp":32.6,"humidity":49,"rain":0.0,"pressure":977.8,"uv_index":8.35,"wind_gusts":40.0,"aqi":61,"pm10":24.7,"pm2_5":15.4,"no2":4.5,"co":170.0,"o3":72.0,"so2":7.4,"mosquito_risk":0,"arthritis_risk":5,"migraine_risk":7,"frizz_risk":1,"updated_at":"2026-07-08T11:24:44.790545+05:30"},{"city":"Tirunelveli","state":"Tamil Nadu","latitude":8.7139,"longitude":77.7567,"temp":35.9,"humidity":40,"rain":0.0,"pressure":1003.8,"uv_index":8.65,"wind_gusts":63.0,"aqi":57,"pm10":7.5,"pm2_5":4.3,"no2":1.8,"co":117.0,"o3":56.0,"so2":1.5,"mosquito_risk":0,"arthritis_risk":5,"migraine_risk":7,"frizz_risk":1,"updated_at":"2026-07-08T11:24:44.790549+05:30"},{"city":"Vellore","state":"Tamil Nadu","latitude":12.9165,"longitude":79.1325,"temp":34.6,"humidity":39,"rain":0.0,"pressure":983.3,"uv_index":8.9,"wind_gusts":51.5,"aqi":40,"pm10":13.0,"pm2_5":6.5,"no2":2.0,"co":124.0,"o3":61.0,"so2":2.1,"mosquito_risk":0,"arthritis_risk":5,"migraine_risk":7,"frizz_risk":1,"updated_at":"2026-07-08T11:24:44.790552+05:30"},{"city":"Erode","state":"Tamil Nadu","latitude":11.341,"longitude":77.7172,"temp":34.7,"humidity":40,"rain":0.0,"pressure":989.2,"uv_index":8.8,"wind_gusts":40.3,"aqi":58,"pm10":16.6,"pm2_5":10.1,"no2":2.8,"co":148.0,"o3":65.0,"so2":2.7,"mosquito_risk":0,"arthritis_risk":5,"migraine_risk":7,"frizz_risk":1,"updated_at":"2026-07-08T11:24:44.790555+05:30"},{"city":"Kochi","state":"Kerala","latitude":9.9312,"longitude":76.2673,"temp":27.2,"humidity":83,"rain":0.1,"pressure":1011.4,"uv_index":8.3,"wind_gusts":40.7,"aqi":68,"pm10":20.6,"pm2_5":12.3,"no2":4.1,"co":129.0,"o3":54.0,"so2":3.5,"mosquito_risk":10,"arthritis_risk":0,"migraine_risk":4,"frizz_risk":1,"updated_at":"2026-07-08T11:24:44.790559+05:30"},{"city":"Thiruvananthapuram","state":"Kerala","latitude":8.5241,"longitude":76.9366,"temp":28.8,"humidity":78,"rain":0.0,"pressure":1010.1,"uv_index":8.45,"wind_gusts":54.7,"aqi":52,"pm10":15.3,"pm2_5":8.4,"no2":1.8,"co":111.0,"o3":60.0,"so2":1.4,"mosquito_risk":7,"arthritis_risk":0,"migraine_risk":4,"frizz_risk":1,"updated_at":"2026-07-08T11:24:44.790562+05:30"},{"city":"Kozhikode","state":"Kerala","latitude":11.2588,"longitude":75.7804,"temp":28.3,"humidity":79,"rain":0.0,"pressure":1010.6,"uv_index":7.95,"wind_gusts":41.0,"aqi":61,"pm10":17.3,"pm2_5":8.0,"no2":1.0,"co":133.0,"o3":54.0,"so2":1.7,"mosquito_risk":7,"arthritis_risk":0,"migraine_risk":4,"frizz_risk":1,"updated_at":"2026-07-08T11:24:44.790566+05:30"},{"city":"Thrissur","state":"Kerala","latitude":10.5276,"longitude":76.2144,"temp":28.4,"humidity":79,"rain":0.0,"pressure":1009.6,"uv_index":8.5,"wind_gusts":38.9,"aqi":66,"pm10":17.5,"pm2_5":9.9,"no2":2.7,"co":155.0,"o3":49.0,"so2":2.1,"mosquito_risk":7,"arthritis_risk":0,"migraine_risk":4,"frizz_risk":1,"updated_at":"2026-07-08T11:24:44.790569+05:30"},{"city":"Kannur","state":"Kerala","latitude":11.8745,"longitude":75.3704,"temp":27.1,"humidity":84,"rain":0.1,"pressure":1009.9,"uv_index":8.25,"wind_gusts":42.1,"aqi":58,"pm10":17.1,"pm2_5":9.0,"no2":2.2,"co":140.0,"o3":57.0,"so2":1.9,"mosquito_risk":10,"arthritis_risk":0,"migraine_risk":4,"frizz_risk":1,"updated_at":"2026-07-08T11:24:44.790573+05:30"},{"city":"Patna","state":"Bihar","latitude":25.5941,"longitude":85.1376,"temp":31.7,"humidity":70,"rain":0.0,"pressure":994.0,"uv_index":7.25,"wind_gusts":31.3,"aqi":88,"pm10":17.3,"pm2_5":14.5,"no2":3.4,"co":268.0,"o3":116.0,"so2":7.8,"mosquito_risk":3,"arthritis_risk":5,"migraine_risk":7,"frizz_risk":1,"updated_at":"2026-07-08T11:24:44.790576+05:30"},{"city":"Gaya","state":"Bihar","latitude":24.7914,"longitude":85.0002,"temp":30.1,"humidity":74,"rain":0.1,"pressure":987.8,"uv_index":6.9,"wind_gusts":30.2,"aqi":65,"pm10":17.7,"pm2_5":13.9,"no2":2.7,"co":177.0,"o3":108.0,"so2":8.3,"mosquito_risk":6,"arthritis_risk":5,"migraine_risk":7,"frizz_risk":1,"updated_at":"2026-07-08T11:24:44.790580+05:30"},{"city":"Muzaffarpur","state":"Bihar","latitude":26.1209,"longitude":85.3647,"temp":31.9,"humidity":74,"rain":0.0,"pressure":994.4,"uv_index":7.65,"wind_gusts":32.0,"aqi":80,"pm10":25.1,"pm2_5":22.4,"no2":5.0,"co":276.0,"o3":128.0,"so2":11.2,"mosquito_risk":3,"arthritis_risk":5,"migraine_risk":7,"frizz_risk":1,"updated_at":"2026-07-08T11:24:44.790583+05:30"},{"city":"Bhagalpur","state":"Bihar","latitude":25.2425,"longitude":87.0117,"temp":28.6,"humidity":94,"rain":0.1,"pressure":996.2,"uv_index":6.45,"wind_gusts":24.5,"aqi":89,"pm10":23.2,"pm2_5":20.8,"no2":8.5,"co":336.0,"o3":107.0,"so2":22.0,"mosquito_risk":10,"arthritis_risk":5,"migraine_risk":7,"frizz_risk":1,"updated_at":"2026-07-08T11:24:44.790586+05:30"},{"city":"Ranchi","state":"Jharkhand","latitude":23.3441,"longitude":85.3096,"temp":26.1,"humidity":86,"rain":0.1,"pressure":933.4,"uv_index":8.0,"wind_gusts":45.7,"aqi":64,"pm10":15.2,"pm2_5":11.8,"no2":2.9,"co":158.0,"o3":94.0,"so2":8.4,"mosquito_risk":10,"arthritis_risk":5,"migraine_risk":7,"frizz_risk":1,"updated_at":"2026-07-08T11:24:44.790589+05:30"},{"city":"Jamshedpur","state":"Jharkhand","latitude":22.8046,"longitude":86.2029,"temp":30.6,"humidity":71,"rain":0.0,"pressure":986.1,"uv_index":5.35,"wind_gusts":31.3,"aqi":72,"pm10":30.7,"pm2_5":23.7,"no2":7.2,"co":167.0,"o3":108.0,"so2":21.3,"mosquito_risk":3,"arthritis_risk":5,"migraine_risk":3,"frizz_risk":1,"updated_at":"2026-07-08T11:24:44.790592+05:30"},{"city":"Dhanbad","state":"Jharkhand","latitude":23.7957,"longitude":86.4304,"temp":29.7,"humidity":76,"rain":0.0,"pressure":975.2,"uv_index":7.3,"wind_gusts":33.5,"aqi":104,"pm10":45.4,"pm2_5":40.0,"no2":38.9,"co":357.0,"o3":45.0,"so2":83.9,"mosquito_risk":7,"arthritis_risk":5,"migraine_risk":7,"frizz_risk":1,"updated_at":"2026-07-08T11:24:44.790596+05:30"},{"city":"Bokaro","state":"Jharkhand","latitude":23.6693,"longitude":86.1511,"temp":29.5,"humidity":77,"rain":0.1,"pressure":978.9,"uv_index":8.0,"wind_gusts":33.1,"aqi":85,"pm10":35.0,"pm2_5":31.3,"no2":21.7,"co":197.0,"o3":77.0,"so2":57.8,"mosquito_risk":10,"arthritis_risk":5,"migraine_risk":7,"frizz_risk":1,"updated_at":"2026-07-08T11:24:44.790599+05:30"},{"city":"Bhubaneswar","state":"Odisha","latitude":20.2961,"longitude":85.8245,"temp":31.7,"humidity":70,"rain":0.0,"pressure":998.4,"uv_index":7.95,"wind_gusts":56.9,"aqi":67,"pm10":37.4,"pm2_5":25.3,"no2":3.2,"co":158.0,"o3":98.0,"so2":6.8,"mosquito_risk":3,"arthritis_risk":5,"migraine_risk":7,"frizz_risk":1,"updated_at":"2026-07-08T11:24:44.790602+05:30"},{"city":"Cuttack","state":"Odisha","latitude":20.4625,"longitude":85.8828,"temp":32.2,"humidity":68,"rain":0.0,"pressure":1000.0,"uv_index":7.6,"wind_gusts":45.7,"aqi":67,"pm10":37.4,"pm2_5":25.3,"no2":3.2,"co":182.0,"o3":98.0,"so2":6.8,"mosquito_risk":3,"arthritis_risk":5,"migraine_risk":4,"frizz_risk":1,"updated_at":"2026-07-08T11:24:44.790605+05:30"},{"city":"Rourkela","state":"Odisha","latitude":22.2604,"longitude":84.8536,"temp":31.7,"humidity":63,"rain":0.1,"pressure":979.9,"uv_index":6.3,"wind_gusts":38.2,"aqi":68,"pm10":21.7,"pm2_5":15.5,"no2":2.2,"co":165.0,"o3":105.0,"so2":7.0,"mosquito_risk":6,"arthritis_risk":5,"migraine_risk":7,"frizz_risk":1,"updated_at":"2026-07-08T11:24:44.790608+05:30"},{"city":"Raipur","state":"Chhattisgarh","latitude":21.2514,"longitude":81.6296,"temp":31.1,"humidity":61,"rain":0.1,"pressure":969.1,"uv_index":6.25,"wind_gusts":55.4,"aqi":58,"pm10":10.2,"pm2_5":8.8,"no2":6.3,"co":160.0,"o3":79.0,"so2":19.5,"mosquito_risk":6,"arthritis_risk":5,"migraine_risk":7,"frizz_risk":1,"updated_at":"2026-07-08T11:24:44.790611+05:30"},{"city":"Bhilai","state":"Chhattisgarh","latitude":21.1938,"longitude":81.3509,"temp":30.4,"humidity":63,"rain":0.1,"pressure":969.4,"uv_index":6.8,"wind_gusts":58.7,"aqi":58,"pm10":9.6,"pm2_5":8.5,"no2":6.7,"co":263.0,"o3":75.0,"so2":20.2,"mosquito_risk":6,"arthritis_risk":5,"migraine_risk":7,"frizz_risk":1,"updated_at":"2026-07-08T11:24:44.790614+05:30"},{"city":"Guwahati","state":"Assam","latitude":26.1158,"longitude":91.7086,"temp":30.0,"humidity":80,"rain":0.0,"pressure":996.9,"uv_index":6.2,"wind_gusts":19.8,"aqi":46,"pm10":11.3,"pm2_5":11.1,"no2":1.9,"co":269.0,"o3":97.0,"so2":2.9,"mosquito_risk":7,"arthritis_risk":5,"migraine_risk":7,"frizz_risk":1,"updated_at":"2026-07-08T11:24:44.790617+05:30"},{"city":"Agartala","state":"Tripura","latitude":23.8315,"longitude":91.2868,"temp":26.0,"humidity":93,"rain":0.1,"pressure":1003.3,"uv_index":3.65,"wind_gusts":38.2,"aqi":46,"pm10":19.3,"pm2_5":14.0,"no2":6.8,"co":150.0,"o3":69.0,"so2":4.1,"mosquito_risk":10,"arthritis_risk":5,"migraine_risk":0,"frizz_risk":1,"updated_at":"2026-07-08T11:24:44.790620+05:30"},{"city":"Shillong","state":"Meghalaya","latitude":25.5788,"longitude":91.8933,"temp":23.2,"humidity":79,"rain":0.1,"pressure":855.5,"uv_index":3.05,"wind_gusts":29.2,"aqi":29,"pm10":4.5,"pm2_5":4.5,"no2":4.3,"co":233.0,"o3":76.0,"so2":3.7,"mosquito_risk":6,"arthritis_risk":5,"migraine_risk":3,"frizz_risk":1,"updated_at":"2026-07-08T11:24:44.790623+05:30"},{"city":"Imphal","state":"Manipur","latitude":24.817,"longitude":93.9368,"temp":26.6,"humidity":77,"rain":0.0,"pressure":920.6,"uv_index":0.7,"wind_gusts":35.3,"aqi":21,"pm10":3.1,"pm2_5":2.8,"no2":3.6,"co":188.0,"o3":54.0,"so2":1.1,"mosquito_risk":7,"arthritis_risk":5,"migraine_risk":3,"frizz_risk":1,"updated_at":"2026-07-08T11:24:44.790626+05:30"},{"city":"Aizawl","state":"Mizoram","latitude":23.7271,"longitude":92.7176,"temp":20.7,"humidity":93,"rain":0.0,"pressure":890.6,"uv_index":1.0,"wind_gusts":42.1,"aqi":25,"pm10":0.9,"pm2_5":0.7,"no2":2.2,"co":109.0,"o3":57.0,"so2":0.8,"mosquito_risk":3,"arthritis_risk":5,"migraine_risk":3,"frizz_risk":1,"updated_at":"2026-07-08T11:24:44.790629+05:30"},{"city":"Kohima","state":"Nagaland","latitude":25.6701,"longitude":94.1077,"temp":21.0,"humidity":97,"rain":0.7,"pressure":853.1,"uv_index":6.2,"wind_gusts":18.7,"aqi":23,"pm10":1.9,"pm2_5":1.9,"no2":3.6,"co":161.0,"o3":56.0,"so2":1.0,"mosquito_risk":6,"arthritis_risk":5,"migraine_risk":7,"frizz_risk":1,"updated_at":"2026-07-08T11:24:44.790633+05:30"},{"city":"Gangtok","state":"Sikkim","latitude":27.3314,"longitude":88.6138,"temp":21.4,"humidity":82,"rain":0.0,"pressure":836.3,"uv_index":6.75,"wind_gusts":25.6,"aqi":44,"pm10":4.4,"pm2_5":4.4,"no2":1.6,"co":179.0,"o3":102.0,"so2":1.2,"mosquito_risk":3,"arthritis_risk":5,"migraine_risk":7,"frizz_risk":1,"updated_at":"2026-07-08T11:24:44.790636+05:30"},{"city":"Siliguri","state":"West Bengal","latitude":26.7271,"longitude":88.3953,"temp":27.5,"humidity":88,"rain":0.4,"pressure":988.4,"uv_index":7.85,"wind_gusts":34.6,"aqi":60,"pm10":12.3,"pm2_5":12.1,"no2":2.9,"co":310.0,"o3":116.0,"so2":3.1,"mosquito_risk":10,"arthritis_risk":5,"migraine_risk":7,"frizz_risk":1,"updated_at":"2026-07-08T11:24:48.189877+05:30"},{"city":"Durgapur","state":"West Bengal","latitude":23.5204,"longitude":87.3119,"temp":30.1,"humidity":82,"rain":0.0,"pressure":990.4,"uv_index":8.55,"wind_gusts":36.4,"aqi":93,"pm10":30.9,"pm2_5":25.9,"no2":24.6,"co":562.0,"o3":66.0,"so2":54.9,"mosquito_risk":3,"arthritis_risk":5,"migraine_risk":7,"frizz_risk":1,"updated_at":"2026-07-08T11:24:48.189895+05:30"},{"city":"Asansol","state":"West Bengal","latitude":23.6739,"longitude":86.9524,"temp":29.5,"humidity":85,"rain":0.0,"pressure":988.7,"uv_index":7.5,"wind_gusts":29.9,"aqi":85,"pm10":33.5,"pm2_5":28.4,"no2":29.4,"co":290.0,"o3":47.0,"so2":53.9,"mosquito_risk":7,"arthritis_risk":5,"migraine_risk":7,"frizz_risk":1,"updated_at":"2026-07-08T11:24:48.189901+05:30"},{"city":"Pondicherry","state":"Puducherry","latitude":11.9139,"longitude":79.8145,"temp":34.8,"humidity":45,"rain":0.0,"pressure":1007.4,"uv_index":8.0,"wind_gusts":44.6,"aqi":68,"pm10":42.7,"pm2_5":26.9,"no2":8.1,"co":175.0,"o3":80.0,"so2":11.9,"mosquito_risk":0,"arthritis_risk":5,"migraine_risk":4,"frizz_risk":1,"updated_at":"2026-07-08T11:24:48.189905+05:30"},{"city":"Port Blair","state":"Andaman and Nicobar Islands","latitude":11.6234,"longitude":92.7265,"temp":31.3,"humidity":64,"rain":0.0,"pressure":1008.6,"uv_index":7.4,"wind_gusts":40.3,"aqi":60,"pm10":31.0,"pm2_5":17.9,"no2":0.2,"co":93.0,"o3":66.0,"so2":0.5,"mosquito_risk":3,"arthritis_risk":0,"migraine_risk":4,"frizz_risk":1,"updated_at":"2026-07-08T11:24:48.189909+05:30"},{"city":"Haridwar","state":"Uttarakhand","latitude":29.9457,"longitude":78.1642,"temp":27.0,"humidity":97,"rain":0.4,"pressure":967.4,"uv_index":5.2,"wind_gusts":19.8,"aqi":120,"pm10":23.5,"pm2_5":23.3,"no2":9.1,"co":281.0,"o3":88.0,"so2":3.2,"mosquito_risk":10,"arthritis_risk":5,"migraine_risk":3,"frizz_risk":1,"updated_at":"2026-07-08T11:24:48.189913+05:30"},{"city":"Rishikesh","state":"Uttarakhand","latitude":30.0869,"longitude":78.2676,"temp":27.0,"humidity":95,"rain":0.1,"pressure":960.2,"uv_index":3.9,"wind_gusts":15.8,"aqi":86,"pm10":17.1,"pm2_5":17.0,"no2":5.9,"co":287.0,"o3":98.0,"so2":1.5,"mosquito_risk":10,"arthritis_risk":5,"migraine_risk":3,"frizz_risk":1,"updated_at":"2026-07-08T11:24:48.189917+05:30"},{"city":"Nainital","state":"Uttarakhand","latitude":29.3919,"longitude":79.4542,"temp":20.3,"humidity":89,"rain":0.0,"pressure":802.9,"uv_index":7.25,"wind_gusts":39.6,"aqi":51,"pm10":10.2,"pm2_5":9.1,"no2":2.7,"co":265.0,"o3":106.0,"so2":5.3,"mosquito_risk":3,"arthritis_risk":5,"migraine_risk":7,"frizz_risk":1,"updated_at":"2026-07-08T11:24:48.189920+05:30"},{"city":"Mussoorie","state":"Uttarakhand","latitude":30.4599,"longitude":78.0664,"temp":19.0,"humidity":91,"rain":0.2,"pressure":799.9,"uv_index":2.4,"wind_gusts":22.3,"aqi":84,"pm10":11.2,"pm2_5":11.1,"no2":8.3,"co":279.0,"o3":105.0,"so2":3.8,"mosquito_risk":6,"arthritis_risk":10,"migraine_risk":3,"frizz_risk":1,"updated_at":"2026-07-08T11:24:48.189925+05:30"},{"city":"Dharamshala","state":"Himachal Pradesh","latitude":32.219,"longitude":76.3234,"temp":24.3,"humidity":88,"rain":0.0,"pressure":864.9,"uv_index":8.35,"wind_gusts":32.8,"aqi":44,"pm10":9.3,"pm2_5":8.1,"no2":1.5,"co":327.0,"o3":116.0,"so2":1.3,"mosquito_risk":3,"arthritis_risk":5,"migraine_risk":7,"frizz_risk":1,"updated_at":"2026-07-08T11:24:48.189928+05:30"},{"city":"Dalhousie","state":"Himachal Pradesh","latitude":32.5387,"longitude":75.971,"temp":23.0,"humidity":78,"rain":0.0,"pressure":802.5,"uv_index":8.05,"wind_gusts":28.8,"aqi":89,"pm10":31.5,"pm2_5":24.4,"no2":3.0,"co":333.0,"o3":161.0,"so2":4.6,"mosquito_risk":3,"arthritis_risk":5,"migraine_risk":7,"frizz_risk":1,"updated_at":"2026-07-08T11:24:48.189932+05:30"},{"city":"Patiala","state":"Punjab","latitude":30.3398,"longitude":76.3869,"temp":29.8,"humidity":77,"rain":0.0,"pressure":971.1,"uv_index":3.85,"wind_gusts":31.3,"aqi":148,"pm10":45.6,"pm2_5":25.7,"no2":5.0,"co":373.0,"o3":124.0,"so2":6.8,"mosquito_risk":7,"arthritis_risk":5,"migraine_risk":3,"frizz_risk":1,"updated_at":"2026-07-08T11:24:48.189935+05:30"},{"city":"Bhatinda","state":"Punjab","latitude":30.211,"longitude":74.9455,"temp":33.5,"humidity":66,"rain":0.0,"pressure":975.3,"uv_index":7.5,"wind_gusts":35.3,"aqi":317,"pm10":315.7,"pm2_5":103.4,"no2":7.0,"co":464.0,"o3":144.0,"so2":17.5,"mosquito_risk":3,"arthritis_risk":5,"migraine_risk":7,"frizz_risk":1,"updated_at":"2026-07-08T11:24:48.189939+05:30"},{"city":"Rohtak","state":"Haryana","latitude":28.8955,"longitude":76.6066,"temp":27.6,"humidity":89,"rain":0.1,"pressure":974.1,"uv_index":6.0,"wind_gusts":30.2,"aqi":145,"pm10":18.6,"pm2_5":18.5,"no2":11.4,"co":330.0,"o3":128.0,"so2":15.2,"mosquito_risk":10,"arthritis_risk":5,"migraine_risk":3,"frizz_risk":1,"updated_at":"2026-07-08T11:24:48.189943+05:30"},{"city":"Panipat","state":"Haryana","latitude":29.3909,"longitude":76.9635,"temp":28.7,"humidity":83,"rain":0.0,"pressure":973.2,"uv_index":5.35,"wind_gusts":34.9,"aqi":133,"pm10":17.2,"pm2_5":17.2,"no2":8.0,"co":294.0,"o3":107.0,"so2":8.9,"mosquito_risk":7,"arthritis_risk":5,"migraine_risk":3,"frizz_risk":1,"updated_at":"2026-07-08T11:24:48.189946+05:30"},{"city":"Mathura","state":"Uttar Pradesh","latitude":27.4924,"longitude":77.6737,"temp":29.2,"humidity":80,"rain":0.0,"pressure":977.3,"uv_index":5.9,"wind_gusts":37.1,"aqi":93,"pm10":13.2,"pm2_5":13.0,"no2":11.8,"co":304.0,"o3":80.0,"so2":7.7,"mosquito_risk":7,"arthritis_risk":5,"migraine_risk":3,"frizz_risk":1,"updated_at":"2026-07-08T11:24:48.189950+05:30"},{"city":"Vrindavan","state":"Uttar Pradesh","latitude":27.5823,"longitude":77.7027,"temp":29.6,"humidity":78,"rain":0.0,"pressure":977.7,"uv_index":6.7,"wind_gusts":36.4,"aqi":93,"pm10":13.2,"pm2_5":13.0,"no2":11.8,"co":291.0,"o3":80.0,"so2":7.7,"mosquito_risk":7,"arthritis_risk":5,"migraine_risk":7,"frizz_risk":1,"updated_at":"2026-07-08T11:24:48.189953+05:30"},{"city":"Ayodhya","state":"Uttar Pradesh","latitude":26.7922,"longitude":82.1998,"temp":30.2,"humidity":79,"rain":0.1,"pressure":987.7,"uv_index":6.6,"wind_gusts":44.3,"aqi":82,"pm10":29.5,"pm2_5":27.4,"no2":4.0,"co":232.0,"o3":128.0,"so2":14.4,"mosquito_risk":6,"arthritis_risk":5,"migraine_risk":7,"frizz_risk":1,"updated_at":"2026-07-08T11:24:48.189957+05:30"},{"city":"Ratlam","state":"Madhya Pradesh","latitude":23.3315,"longitude":75.0367,"temp":25.4,"humidity":92,"rain":0.2,"pressure":947.9,"uv_index":1.5,"wind_gusts":45.4,"aqi":57,"pm10":21.1,"pm2_5":14.4,"no2":7.5,"co":200.0,"o3":60.0,"so2":6.1,"mosquito_risk":10,"arthritis_risk":5,"migraine_risk":3,"frizz_risk":1,"updated_at":"2026-07-08T11:24:48.189960+05:30"},{"city":"Sagar","state":"Madhya Pradesh","latitude":23.8388,"longitude":78.7378,"temp":29.2,"humidity":71,"rain":0.1,"pressure":942.0,"uv_index":4.55,"wind_gusts":30.2,"aqi":55,"pm10":5.2,"pm2_5":5.2,"no2":5.9,"co":232.0,"o3":79.0,"so2":2.3,"mosquito_risk":10,"arthritis_risk":5,"migraine_risk":3,"frizz_risk":1,"updated_at":"2026-07-08T11:24:48.189964+05:30"},{"city":"Satna","state":"Madhya Pradesh","latitude":24.6005,"longitude":80.8322,"temp":28.5,"humidity":82,"rain":0.2,"pressure":962.9,"uv_index":8.0,"wind_gusts":45.4,"aqi":56,"pm10":9.1,"pm2_5":9.0,"no2":2.5,"co":244.0,"o3":99.0,"so2":6.9,"mosquito_risk":10,"arthritis_risk":5,"migraine_risk":7,"frizz_risk":1,"updated_at":"2026-07-08T11:24:48.189967+05:30"},{"city":"Akola","state":"Maharashtra","latitude":20.7002,"longitude":77.0082,"temp":26.4,"humidity":90,"rain":0.2,"pressure":968.4,"uv_index":6.8,"wind_gusts":45.7,"aqi":29,"pm10":5.1,"pm2_5":5.0,"no2":8.0,"co":210.0,"o3":68.0,"so2":8.8,"mosquito_risk":10,"arthritis_risk":5,"migraine_risk":7,"frizz_risk":1,"updated_at":"2026-07-08T11:24:48.189971+05:30"},{"city":"Amravati","state":"Maharashtra","latitude":20.9374,"longitude":77.7796,"temp":28.8,"humidity":73,"rain":0.0,"pressure":960.3,"uv_index":7.3,"wind_gusts":45.0,"aqi":30,"pm10":5.4,"pm2_5":5.3,"no2":8.0,"co":193.0,"o3":65.0,"so2":9.0,"mosquito_risk":7,"arthritis_risk":5,"migraine_risk":7,"frizz_risk":1,"updated_at":"2026-07-08T11:24:48.189975+05:30"},{"city":"Latur","state":"Maharashtra","latitude":18.4088,"longitude":76.5604,"temp":27.7,"humidity":71,"rain":0.0,"pressure":935.9,"uv_index":6.8,"wind_gusts":58.3,"aqi":20,"pm10":5.2,"pm2_5":3.5,"no2":2.4,"co":116.0,"o3":57.0,"so2":1.4,"mosquito_risk":7,"arthritis_risk":5,"migraine_risk":7,"frizz_risk":1,"updated_at":"2026-07-08T11:24:48.189979+05:30"},{"city":"Nanded","state":"Maharashtra","latitude":19.1383,"longitude":77.3091,"temp":26.9,"humidity":85,"rain":0.2,"pressure":963.4,"uv_index":7.7,"wind_gusts":48.2,"aqi":23,"pm10":3.4,"pm2_5":3.4,"no2":3.0,"co":135.0,"o3":73.0,"so2":4.1,"mosquito_risk":10,"arthritis_risk":5,"migraine_risk":7,"frizz_risk":1,"updated_at":"2026-07-08T11:24:48.189982+05:30"},{"city":"Gulbarga","state":"Karnataka","latitude":17.3297,"longitude":76.8343,"temp":31.0,"humidity":54,"rain":0.0,"pressure":955.3,"uv_index":6.7,"wind_gusts":61.9,"aqi":19,"pm10":3.4,"pm2_5":2.4,"no2":1.5,"co":114.0,"o3":64.0,"so2":1.9,"mosquito_risk":0,"arthritis_risk":5,"migraine_risk":7,"frizz_risk":1,"updated_at":"2026-07-08T11:24:48.189985+05:30"},{"city":"Bidar","state":"Karnataka","latitude":17.9104,"longitude":77.5199,"temp":28.9,"humidity":65,"rain":0.1,"pressure":931.8,"uv_index":7.1,"wind_gusts":62.3,"aqi":19,"pm10":3.2,"pm2_5":2.6,"no2":1.9,"co":118.0,"o3":68.0,"so2":1.7,"mosquito_risk":10,"arthritis_risk":5,"migraine_risk":7,"frizz_risk":1,"updated_at":"2026-07-08T11:24:48.189988+05:30"},{"city":"Hospet","state":"Karnataka","latitude":15.2689,"longitude":76.3909,"temp":29.5,"humidity":61,"rain":0.0,"pressure":954.4,"uv_index":5.75,"wind_gusts":64.8,"aqi":19,"pm10":5.7,"pm2_5":3.3,"no2":1.5,"co":104.0,"o3":53.0,"so2":1.5,"mosquito_risk":7,"arthritis_risk":5,"migraine_risk":3,"frizz_risk":1,"updated_at":"2026-07-08T11:24:48.189991+05:30"},{"city":"Tirupur","state":"Tamil Nadu","latitude":11.1085,"longitude":77.3411,"temp":32.1,"humidity":50,"rain":0.0,"pressure":975.9,"uv_index":8.85,"wind_gusts":63.0,"aqi":59,"pm10":16.5,"pm2_5":10.1,"no2":2.8,"co":140.0,"o3":66.0,"so2":3.3,"mosquito_risk":0,"arthritis_risk":5,"migraine_risk":7,"frizz_risk":1,"updated_at":"2026-07-08T11:24:48.189995+05:30"},{"city":"Alappuzha","state":"Kerala","latitude":9.4981,"longitude":76.3388,"temp":27.0,"humidity":86,"rain":0.0,"pressure":1011.6,"uv_index":8.25,"wind_gusts":49.3,"aqi":61,"pm10":22.6,"pm2_5":12.3,"no2":4.0,"co":88.0,"o3":58.0,"so2":3.3,"mosquito_risk":7,"arthritis_risk":0,"migraine_risk":4,"frizz_risk":1,"updated_at":"2026-07-08T11:24:48.189998+05:30"},{"city":"Munnar","state":"Kerala","latitude":10.0889,"longitude":77.0595,"temp":18.8,"humidity":92,"rain":0.2,"pressure":858.7,"uv_index":5.9,"wind_gusts":60.1,"aqi":44,"pm10":5.7,"pm2_5":3.5,"no2":1.6,"co":90.0,"o3":45.0,"so2":0.9,"mosquito_risk":6,"arthritis_risk":10,"migraine_risk":3,"frizz_risk":1,"updated_at":"2026-07-08T11:24:48.190002+05:30"},{"city":"Silchar","state":"Assam","latitude":24.8333,"longitude":92.7789,"temp":27.6,"humidity":92,"rain":0.0,"pressure":1002.0,"uv_index":0.75,"wind_gusts":34.9,"aqi":29,"pm10":5.7,"pm2_5":5.2,"no2":4.0,"co":155.0,"o3":58.0,"so2":1.8,"mosquito_risk":7,"arthritis_risk":5,"migraine_risk":0,"frizz_risk":1,"updated_at":"2026-07-08T11:24:48.190005+05:30"},{"city":"Dibrugarh","state":"Assam","latitude":27.4728,"longitude":94.912,"temp":31.0,"humidity":72,"rain":0.0,"pressure":990.3,"uv_index":7.2,"wind_gusts":30.6,"aqi":48,"pm10":7.4,"pm2_5":6.5,"no2":1.1,"co":184.0,"o3":89.0,"so2":1.2,"mosquito_risk":3,"arthritis_risk":5,"migraine_risk":7,"frizz_risk":1,"updated_at":"2026-07-08T11:24:48.190008+05:30"}]