[{"city":"Delhi","state":"Delhi","latitude":28.6139,"longitude":77.209,"temp":40.2,"humidity":14,"rain":0.0,"pressure":979.0,"uv_index":7.45,"wind_gusts":50.4,"aqi":519,"pm10":143.4,"pm2_5":29.6,"mosquito_risk":0,"arthritis_risk":5,"migraine_risk":10,"frizz_risk":0,"updated_at":"2026-04-27T11:59:44.825601+05:30"},{"city":"Mumbai","state":"Maharashtra","latitude":19.076,"longitude":72.8777,"temp":32.7,"humidity":60,"rain":0.0,"pressure":1007.4,"uv_index":8.05,"wind_gusts":41.0,"aqi":93,"pm10":75.2,"pm2_5":36.3,"mosquito_risk":0,"arthritis_risk":5,"migraine_risk":4,"frizz_risk":1,"updated_at":"2026-04-27T11:59:44.825641+05:30"},{"city":"Bangalore","state":"Karnataka","latitude":12.9716,"longitude":77.5946,"temp":34.1,"humidity":27,"rain":0.0,"pressure":912.9,"uv_index":9.55,"wind_gusts":34.6,"aqi":85,"pm10":32.6,"pm2_5":23.9,"mosquito_risk":0,"arthritis_risk":5,"migraine_risk":7,"frizz_risk":0,"updated_at":"2026-04-27T11:59:44.825657+05:30"},{"city":"Hyderabad","state":"Telangana","latitude":17.385,"longitude":78.4867,"temp":38.0,"humidity":22,"rain":0.0,"pressure":952.7,"uv_index":9.25,"wind_gusts":30.2,"aqi":96,"pm10":32.4,"pm2_5":26.3,"mosquito_risk":0,"arthritis_risk":5,"migraine_risk":10,"frizz_risk":0,"updated_at":"2026-04-27T11:59:44.825667+05:30"},{"city":"Chennai","state":"Tamil Nadu","latitude":13.0827,"longitude":80.2707,"temp":35.6,"humidity":48,"rain":0.0,"pressure":1006.0,"uv_index":9.25,"wind_gusts":55.8,"aqi":53,"pm10":22.2,"pm2_5":15.8,"mosquito_risk":0,"arthritis_risk":5,"migraine_risk":7,"frizz_risk":1,"updated_at":"2026-04-27T11:59:44.825676+05:30"},{"city":"Kolkata","state":"West Bengal","latitude":22.5726,"longitude":88.3639,"temp":35.1,"humidity":55,"rain":0.0,"pressure":1001.3,"uv_index":8.85,"wind_gusts":52.2,"aqi":59,"pm10":24.5,"pm2_5":19.6,"mosquito_risk":0,"arthritis_risk":5,"migraine_risk":7,"frizz_risk":1,"updated_at":"2026-04-27T11:59:44.825685+05:30"},{"city":"Pune","state":"Maharashtra","latitude":18.5204,"longitude":73.8567,"temp":38.0,"humidity":19,"rain":0.0,"pressure":948.3,"uv_index":8.55,"wind_gusts":45.7,"aqi":71,"pm10":38.6,"pm2_5":17.5,"mosquito_risk":0,"arthritis_risk":5,"migraine_risk":10,"frizz_risk":0,"updated_at":"2026-04-27T11:59:44.825697+05:30"},{"city":"Ahmedabad","state":"Gujarat","latitude":23.0225,"longitude":72.5714,"temp":39.7,"humidity":17,"rain":0.0,"pressure":1000.0,"uv_index":8.2,"wind_gusts":44.6,"aqi":52,"pm10":30.7,"pm2_5":12.0,"mosquito_risk":0,"arthritis_risk":5,"migraine_risk":7,"frizz_risk":0,"updated_at":"2026-04-27T11:59:44.825705+05:30"},{"city":"Jaipur","state":"Rajasthan","latitude":26.9124,"longitude":75.7873,"temp":40.5,"humidity":14,"rain":0.0,"pressure":957.1,"uv_index":8.05,"wind_gusts":43.6,"aqi":123,"pm10":171.8,"pm2_5":29.3,"mosquito_risk":0,"arthritis_risk":5,"migraine_risk":10,"frizz_risk":0,"updated_at":"2026-04-27T11:59:44.825712+05:30"},{"city":"Lucknow","state":"Uttar Pradesh","latitude":26.8467,"longitude":80.9462,"temp":38.7,"humidity":28,"rain":0.0,"pressure":988.6,"uv_index":7.9,"wind_gusts":45.7,"aqi":148,"pm10":251.5,"pm2_5":59.3,"mosquito_risk":0,"arthritis_risk":5,"migraine_risk":10,"frizz_risk":1,"updated_at":"2026-04-27T11:59:44.825721+05:30"},{"city":"Kanpur","state":"Uttar Pradesh","latitude":26.4499,"longitude":80.3319,"temp":40.8,"humidity":18,"rain":0.0,"pressure":986.7,"uv_index":7.95,"wind_gusts":47.5,"aqi":288,"pm10":380.0,"pm2_5":60.3,"mosquito_risk":0,"arthritis_risk":5,"migraine_risk":10,"frizz_risk":0,"updated_at":"2026-04-27T11:59:44.825728+05:30"},{"city":"Chandigarh","state":"Chandigarh","latitude":30.7333,"longitude":76.7794,"temp":38.5,"humidity":12,"rain":0.0,"pressure":965.1,"uv_index":7.45,"wind_gusts":45.7,"aqi":46,"pm10":8.3,"pm2_5":6.2,"mosquito_risk":0,"arthritis_risk":5,"migraine_risk":10,"frizz_risk":0,"updated_at":"2026-04-27T11:59:44.825736+05:30"},{"city":"Srinagar","state":"Jammu and Kashmir","latitude":34.0837,"longitude":74.7973,"temp":22.0,"humidity":45,"rain":0.0,"pressure":842.3,"uv_index":8.4,"wind_gusts":19.8,"aqi":54,"pm10":12.6,"pm2_5":6.3,"mosquito_risk":0,"arthritis_risk":5,"migraine_risk":7,"frizz_risk":0,"updated_at":"2026-04-27T11:59:44.825744+05:30"},{"city":"Jammu","state":"Jammu and Kashmir","latitude":32.7266,"longitude":74.857,"temp":35.3,"humidity":23,"rain":0.0,"pressure":969.0,"uv_index":8.25,"wind_gusts":30.6,"aqi":58,"pm10":7.4,"pm2_5":5.8,"mosquito_risk":0,"arthritis_risk":5,"migraine_risk":10,"frizz_risk":0,"updated_at":"2026-04-27T11:59:44.825751+05:30"},{"city":"Amritsar","state":"Punjab","latitude":31.634,"longitude":74.8723,"temp":37.8,"humidity":17,"rain":0.0,"pressure":977.0,"uv_index":8.05,"wind_gusts":27.0,"aqi":58,"pm10":28.4,"pm2_5":11.4,"mosquito_risk":0,"arthritis_risk":5,"migraine_risk":10,"frizz_risk":0,"updated_at":"2026-04-27T11:59:44.825757+05:30"},{"city":"Ludhiana","state":"Punjab","latitude":30.901,"longitude":75.8573,"temp":38.2,"humidity":16,"rain":0.0,"pressure":974.9,"uv_index":7.7,"wind_gusts":36.0,"aqi":65,"pm10":12.0,"pm2_5":7.1,"mosquito_risk":0,"arthritis_risk":5,"migraine_risk":10,"frizz_risk":0,"updated_at":"2026-04-27T11:59:44.825764+05:30"},{"city":"Jalandhar","state":"Punjab","latitude":31.326,"longitude":75.5762,"temp":37.4,"humidity":16,"rain":0.0,"pressure":975.9,"uv_index":7.5,"wind_gusts":29.5,"aqi":75,"pm10":26.4,"pm2_5":9.3,"mosquito_risk":0,"arthritis_risk":5,"migraine_risk":10,"frizz_risk":0,"updated_at":"2026-04-27T11:59:44.825773+05:30"},{"city":"Dehradun","state":"Uttarakhand","latitude":30.6284,"longitude":78.0322,"temp":26.6,"humidity":25,"rain":0.0,"pressure":831.5,"uv_index":7.9,"wind_gusts":42.1,"aqi":36,"pm10":9.0,"pm2_5":4.4,"mosquito_risk":4,"arthritis_risk":5,"migraine_risk":7,"frizz_risk":0,"updated_at":"2026-04-27T11:59:44.825780+05:30"},{"city":"Shimla","state":"Himachal Pradesh","latitude":31.1048,"longitude":77.1734,"temp":24.5,"humidity":18,"rain":0.0,"pressure":787.4,"uv_index":7.8,"wind_gusts":51.1,"aqi":42,"pm10":7.4,"pm2_5":3.6,"mosquito_risk":0,"arthritis_risk":5,"migraine_risk":7,"frizz_risk":1,"updated_at":"2026-04-27T11:59:44.825787+05:30"},{"city":"Manali","state":"Himachal Pradesh","latitude":32.2396,"longitude":77.1887,"temp":22.7,"humidity":26,"rain":0.0,"pressure":818.9,"uv_index":9.95,"wind_gusts":42.5,"aqi":79,"pm10":13.1,"pm2_5":5.8,"mosquito_risk":0,"arthritis_risk":5,"migraine_risk":7,"frizz_risk":0,"updated_at":"2026-04-27T11:59:44.825796+05:30"},{"city":"Gurgaon","state":"Haryana","latitude":28.4595,"longitude":77.0266,"temp":39.3,"humidity":15,"rain":0.0,"pressure":977.7,"uv_index":7.55,"wind_gusts":49.0,"aqi":1099,"pm10":642.6,"pm2_5":73.8,"mosquito_risk":0,"arthritis_risk":5,"migraine_risk":10,"frizz_risk":0,"updated_at":"2026-04-27T11:59:44.825803+05:30"},{"city":"Noida","state":"Uttar Pradesh","latitude":28.5355,"longitude":77.391,"temp":40.2,"humidity":14,"rain":0.0,"pressure":980.2,"uv_index":7.45,"wind_gusts":45.7,"aqi":1099,"pm10":642.6,"pm2_5":73.8,"mosquito_risk":0,"arthritis_risk":5,"migraine_risk":10,"frizz_risk":0,"updated_at":"2026-04-27T11:59:44.825809+05:30"},{"city":"Ghaziabad","state":"Uttar Pradesh","latitude":28.6692,"longitude":77.4538,"temp":40.2,"humidity":13,"rain":0.0,"pressure":978.6,"uv_index":7.4,"wind_gusts":43.9,"aqi":457,"pm10":116.4,"pm2_5":25.4,"mosquito_risk":0,"arthritis_risk":5,"migraine_risk":10,"frizz_risk":0,"updated_at":"2026-04-27T11:59:44.825816+05:30"},{"city":"Faridabad","state":"Haryana","latitude":28.4089,"longitude":77.3178,"temp":40.0,"humidity":13,"rain":0.0,"pressure":979.6,"uv_index":7.5,"wind_gusts":50.8,"aqi":1099,"pm10":642.6,"pm2_5":73.8,"mosquito_risk":0,"arthritis_risk":5,"migraine_risk":10,"frizz_risk":0,"updated_at":"2026-04-27T11:59:44.825822+05:30"},{"city":"Meerut","state":"Uttar Pradesh","latitude":28.9845,"longitude":77.7064,"temp":37.6,"humidity":20,"rain":0.0,"pressure":977.5,"uv_index":7.35,"wind_gusts":37.4,"aqi":457,"pm10":116.4,"pm2_5":25.4,"mosquito_risk":0,"arthritis_risk":5,"migraine_risk":10,"frizz_risk":0,"updated_at":"2026-04-27T11:59:44.825829+05:30"},{"city":"Agra","state":"Uttar Pradesh","latitude":27.1767,"longitude":78.0081,"temp":41.4,"humidity":14,"rain":0.0,"pressure":983.4,"uv_index":7.8,"wind_gusts":46.1,"aqi":517,"pm10":476.8,"pm2_5":78.0,"mosquito_risk":0,"arthritis_risk":5,"migraine_risk":10,"frizz_risk":0,"updated_at":"2026-04-27T11:59:44.825835+05:30"},{"city":"Varanasi","state":"Uttar Pradesh","latitude":25.3176,"longitude":82.9739,"temp":38.5,"humidity":32,"rain":0.0,"pressure":992.5,"uv_index":8.5,"wind_gusts":47.5,"aqi":140,"pm10":129.5,"pm2_5":48.5,"mosquito_risk":0,"arthritis_risk":5,"migraine_risk":10,"frizz_risk":1,"updated_at":"2026-04-27T11:59:44.825844+05:30"},{"city":"Prayagraj","state":"Uttar Pradesh","latitude":25.4358,"longitude":81.8463,"temp":39.5,"humidity":29,"rain":0.0,"pressure":990.8,"uv_index":8.4,"wind_gusts":44.6,"aqi":128,"pm10":136.9,"pm2_5":44.0,"mosquito_risk":0,"arthritis_risk":5,"migraine_risk":10,"frizz_risk":1,"updated_at":"2026-04-27T11:59:44.825852+05:30"},{"city":"Gorakhpur","state":"Uttar Pradesh","latitude":26.7606,"longitude":83.3732,"temp":33.9,"humidity":42,"rain":0.0,"pressure":993.1,"uv_index":8.35,"wind_gusts":38.9,"aqi":131,"pm10":83.4,"pm2_5":54.9,"mosquito_risk":0,"arthritis_risk":5,"migraine_risk":7,"frizz_risk":1,"updated_at":"2026-04-27T11:59:44.825858+05:30"},{"city":"Bareilly","state":"Uttar Pradesh","latitude":28.367,"longitude":79.4304,"temp":37.0,"humidity":28,"rain":0.0,"pressure":982.4,"uv_index":7.7,"wind_gusts":45.4,"aqi":103,"pm10":88.2,"pm2_5":38.6,"mosquito_risk":0,"arthritis_risk":5,"migraine_risk":10,"frizz_risk":0,"updated_at":"2026-04-27T11:59:44.825866+05:30"},{"city":"Aligarh","state":"Uttar Pradesh","latitude":27.8974,"longitude":78.088,"temp":40.7,"humidity":14,"rain":0.0,"pressure":981.3,"uv_index":7.6,"wind_gusts":47.2,"aqi":769,"pm10":287.8,"pm2_5":51.2,"mosquito_risk":0,"arthritis_risk":5,"migraine_risk":10,"frizz_risk":0,"updated_at":"2026-04-27T11:59:44.825873+05:30"},{"city":"Moradabad","state":"Uttar Pradesh","latitude":28.8386,"longitude":78.7733,"temp":36.8,"humidity":25,"rain":0.0,"pressure":979.6,"uv_index":7.55,"wind_gusts":47.2,"aqi":139,"pm10":72.9,"pm2_5":39.8,"mosquito_risk":0,"arthritis_risk":5,"migraine_risk":10,"frizz_risk":0,"updated_at":"2026-04-27T11:59:44.825879+05:30"},{"city":"Saharanpur","state":"Uttar Pradesh","latitude":29.9637,"longitude":77.546,"temp":35.0,"humidity":24,"rain":0.0,"pressure":972.0,"uv_index":7.1,"wind_gusts":47.5,"aqi":83,"pm10":17.9,"pm2_5":13.6,"mosquito_risk":0,"arthritis_risk":5,"migraine_risk":7,"frizz_risk":0,"updated_at":"2026-04-27T11:59:44.825885+05:30"},{"city":"Jhansi","state":"Uttar Pradesh","latitude":25.4484,"longitude":78.5685,"temp":42.8,"humidity":13,"rain":0.0,"pressure":973.9,"uv_index":8.3,"wind_gusts":46.1,"aqi":75,"pm10":177.0,"pm2_5":32.6,"mosquito_risk":0,"arthritis_risk":5,"migraine_risk":10,"frizz_risk":0,"updated_at":"2026-04-27T11:59:48.205531+05:30"},{"city":"Surat","state":"Gujarat","latitude":21.1702,"longitude":72.8311,"temp":37.8,"humidity":38,"rain":0.0,"pressure":1004.7,"uv_index":7.8,"wind_gusts":41.0,"aqi":112,"pm10":57.2,"pm2_5":40.4,"mosquito_risk":0,"arthritis_risk":5,"migraine_risk":7,"frizz_risk":1,"updated_at":"2026-04-27T11:59:48.205573+05:30"},{"city":"Vadodara","state":"Gujarat","latitude":22.3072,"longitude":73.1812,"temp":39.7,"humidity":19,"rain":0.0,"pressure":1002.3,"uv_index":8.15,"wind_gusts":46.1,"aqi":79,"pm10":29.7,"pm2_5":15.5,"mosquito_risk":0,"arthritis_risk":5,"migraine_risk":7,"frizz_risk":0,"updated_at":"2026-04-27T11:59:48.205585+05:30"},{"city":"Rajkot","state":"Gujarat","latitude":22.3039,"longitude":70.8022,"temp":39.7,"humidity":17,"rain":0.0,"pressure":992.6,"uv_index":7.9,"wind_gusts":48.6,"aqi":52,"pm10":39.7,"pm2_5":13.9,"mosquito_risk":0,"arthritis_risk":5,"migraine_risk":10,"frizz_risk":0,"updated_at":"2026-04-27T11:59:48.205596+05:30"},{"city":"Thane","state":"Maharashtra","latitude":19.2183,"longitude":72.9781,"temp":36.2,"humidity":45,"rain":0.0,"pressure":1006.3,"uv_index":8.05,"wind_gusts":36.7,"aqi":93,"pm10":75.2,"pm2_5":36.3,"mosquito_risk":0,"arthritis_risk":5,"migraine_risk":7,"frizz_risk":1,"updated_at":"2026-04-27T11:59:48.205606+05:30"},{"city":"Nagpur","state":"Maharashtra","latitude":21.1458,"longitude":79.0882,"temp":42.5,"humidity":12,"rain":0.0,"pressure":971.0,"uv_index":8.7,"wind_gusts":31.7,"aqi":86,"pm10":58.6,"pm2_5":40.2,"mosquito_risk":0,"arthritis_risk":5,"migraine_risk":10,"frizz_risk":0,"updated_at":"2026-04-27T11:59:48.205615+05:30"},{"city":"Nashik","state":"Maharashtra","latitude":19.9975,"longitude":73.7898,"temp":38.1,"humidity":17,"rain":0.0,"pressure":945.7,"uv_index":8.3,"wind_gusts":40.0,"aqi":82,"pm10":44.1,"pm2_5":19.5,"mosquito_risk":0,"arthritis_risk":5,"migraine_risk":10,"frizz_risk":0,"updated_at":"2026-04-27T11:59:48.205625+05:30"},{"city":"Aurangabad","state":"Maharashtra","latitude":19.8762,"longitude":75.3433,"temp":39.4,"humidity":13,"rain":0.0,"pressure":944.2,"uv_index":9.0,"wind_gusts":33.5,"aqi":61,"pm10":25.4,"pm2_5":13.8,"mosquito_risk":0,"arthritis_risk":5,"migraine_risk":10,"frizz_risk":0,"updated_at":"2026-04-27T11:59:48.205635+05:30"},{"city":"Solapur","state":"Maharashtra","latitude":17.6599,"longitude":75.9064,"temp":40.2,"humidity":15,"rain":0.0,"pressure":956.5,"uv_index":9.05,"wind_gusts":32.8,"aqi":100,"pm10":27.3,"pm2_5":22.0,"mosquito_risk":0,"arthritis_risk":5,"migraine_risk":10,"frizz_risk":0,"updated_at":"2026-04-27T11:59:48.205645+05:30"},{"city":"Kolhapur","state":"Maharashtra","latitude":16.705,"longitude":74.2433,"temp":36.4,"humidity":31,"rain":0.0,"pressure":948.1,"uv_index":9.0,"wind_gusts":46.1,"aqi":83,"pm10":36.3,"pm2_5":23.9,"mosquito_risk":0,"arthritis_risk":5,"migraine_risk":10,"frizz_risk":1,"updated_at":"2026-04-27T11:59:48.205655+05:30"},{"city":"Goa","state":"Goa","latitude":15.2993,"longitude":74.124,"temp":36.5,"humidity":47,"rain":0.0,"pressure":997.0,"uv_index":8.95,"wind_gusts":39.6,"aqi":78,"pm10":31.3,"pm2_5":17.9,"mosquito_risk":0,"arthritis_risk":5,"migraine_risk":10,"frizz_risk":1,"updated_at":"2026-04-27T11:59:48.205665+05:30"},{"city":"Jodhpur","state":"Rajasthan","latitude":26.2389,"longitude":73.0243,"temp":39.2,"humidity":17,"rain":0.0,"pressure":980.0,"uv_index":8.3,"wind_gusts":42.5,"aqi":96,"pm10":180.2,"pm2_5":27.8,"mosquito_risk":0,"arthritis_risk":5,"migraine_risk":10,"frizz_risk":0,"updated_at":"2026-04-27T11:59:48.205675+05:30"},{"city":"Udaipur","state":"Rajasthan","latitude":24.5854,"longitude":73.7125,"temp":38.4,"humidity":12,"rain":0.0,"pressure":945.4,"uv_index":8.75,"wind_gusts":45.7,"aqi":39,"pm10":31.5,"pm2_5":8.7,"mosquito_risk":0,"arthritis_risk":5,"migraine_risk":10,"frizz_risk":0,"updated_at":"2026-04-27T11:59:48.205685+05:30"},{"city":"Kota","state":"Rajasthan","latitude":25.2138,"longitude":75.8648,"temp":42.2,"humidity":14,"rain":0.0,"pressure":975.6,"uv_index":8.3,"wind_gusts":32.0,"aqi":72,"pm10":37.7,"pm2_5":14.3,"mosquito_risk":0,"arthritis_risk":5,"migraine_risk":10,"frizz_risk":0,"updated_at":"2026-04-27T11:59:48.205694+05:30"},{"city":"Bikaner","state":"Rajasthan","latitude":28.0229,"longitude":73.3119,"temp":42.7,"humidity":13,"rain":0.0,"pressure":977.3,"uv_index":8.1,"wind_gusts":65.5,"aqi":67,"pm10":133.6,"pm2_5":25.3,"mosquito_risk":0,"arthritis_risk":5,"migraine_risk":10,"frizz_risk":0,"updated_at":"2026-04-27T11:59:48.205702+05:30"},{"city":"Ajmer","state":"Rajasthan","latitude":26.4499,"longitude":74.6399,"temp":39.2,"humidity":16,"rain":0.0,"pressure":952.6,"uv_index":8.25,"wind_gusts":47.5,"aqi":55,"pm10":49.1,"pm2_5":14.3,"mosquito_risk":0,"arthritis_risk":5,"migraine_risk":10,"frizz_risk":0,"updated_at":"2026-04-27T11:59:48.205710+05:30"},{"city":"Gwalior","state":"Madhya Pradesh","latitude":26.2183,"longitude":78.1828,"temp":41.2,"humidity":15,"rain":0.0,"pressure":979.1,"uv_index":8.05,"wind_gusts":44.6,"aqi":86,"pm10":508.5,"pm2_5":74.5,"mosquito_risk":0,"arthritis_risk":5,"migraine_risk":10,"frizz_risk":0,"updated_at":"2026-04-27T11:59:48.205717+05:30"},{"city":"Indore","state":"Madhya Pradesh","latitude":22.7196,"longitude":75.8577,"temp":40.2,"humidity":11,"rain":0.0,"pressure":947.4,"uv_index":8.6,"wind_gusts":47.9,"aqi":72,"pm10":28.2,"pm2_5":10.1,"mosquito_risk":0,"arthritis_risk":5,"migraine_risk":10,"frizz_risk":0,"updated_at":"2026-04-27T11:59:48.205724+05:30"},{"city":"Bhopal","state":"Madhya Pradesh","latitude":23.2599,"longitude":77.4126,"temp":40.7,"humidity":12,"rain":0.0,"pressure":952.1,"uv_index":8.6,"wind_gusts":43.6,"aqi":70,"pm10":15.2,"pm2_5":6.9,"mosquito_risk":0,"arthritis_risk":5,"migraine_risk":10,"frizz_risk":0,"updated_at":"2026-04-27T11:59:48.205731+05:30"},{"city":"Jabalpur","state":"Madhya Pradesh","latitude":23.1815,"longitude":79.9864,"temp":42.2,"humidity":13,"rain":0.0,"pressure":959.1,"uv_index":8.65,"wind_gusts":38.9,"aqi":83,"pm10":61.7,"pm2_5":18.0,"mosquito_risk":0,"arthritis_risk":5,"migraine_risk":10,"frizz_risk":0,"updated_at":"2026-04-27T11:59:48.205738+05:30"},{"city":"Ujjain","state":"Madhya Pradesh","latitude":23.1765,"longitude":75.7885,"temp":40.5,"humidity":10,"rain":0.0,"pressure":952.7,"uv_index":8.55,"wind_gusts":47.5,"aqi":67,"pm10":36.3,"pm2_5":11.2,"mosquito_risk":0,"arthritis_risk":5,"migraine_risk":10,"frizz_risk":0,"updated_at":"2026-04-27T11:59:48.205746+05:30"},{"city":"Visakhapatnam","state":"Andhra Pradesh","latitude":17.6868,"longitude":83.2185,"temp":34.2,"humidity":51,"rain":0.0,"pressure":1002.0,"uv_index":9.2,"wind_gusts":52.9,"aqi":55,"pm10":26.0,"pm2_5":19.2,"mosquito_risk":0,"arthritis_risk":5,"migraine_risk":4,"frizz_risk":1,"updated_at":"2026-04-27T11:59:48.205753+05:30"},{"city":"Vijayawada","state":"Andhra Pradesh","latitude":16.5062,"longitude":80.648,"temp":37.7,"humidity":40,"rain":0.0,"pressure":1001.0,"uv_index":9.2,"wind_gusts":36.4,"aqi":57,"pm10":22.1,"pm2_5":16.6,"mosquito_risk":0,"arthritis_risk":5,"migraine_risk":7,"frizz_risk":1,"updated_at":"2026-04-27T11:59:48.205761+05:30"},{"city":"Guntur","state":"Andhra Pradesh","latitude":16.3067,"longitude":80.4365,"temp":37.7,"humidity":39,"rain":0.0,"pressure":1002.1,"uv_index":9.15,"wind_gusts":40.0,"aqi":58,"pm10":22.6,"pm2_5":18.1,"mosquito_risk":0,"arthritis_risk":5,"migraine_risk":7,"frizz_risk":1,"updated_at":"2026-04-27T11:59:48.205768+05:30"},{"city":"Nellore","state":"Andhra Pradesh","latitude":14.4426,"longitude":79.9865,"temp":39.0,"humidity":32,"rain":0.0,"pressure":1003.7,"uv_index":9.3,"wind_gusts":46.8,"aqi":56,"pm10":25.7,"pm2_5":22.4,"mosquito_risk":0,"arthritis_risk":5,"migraine_risk":7,"frizz_risk":1,"updated_at":"2026-04-27T11:59:48.205775+05:30"},{"city":"Kurnool","state":"Andhra Pradesh","latitude":15.8281,"longitude":78.0373,"temp":40.5,"humidity":22,"rain":0.0,"pressure":975.3,"uv_index":9.2,"wind_gusts":36.7,"aqi":83,"pm10":34.9,"pm2_5":28.2,"mosquito_risk":0,"arthritis_risk":5,"migraine_risk":10,"frizz_risk":0,"updated_at":"2026-04-27T11:59:48.205783+05:30"},{"city":"Kakinada","state":"Andhra Pradesh","latitude":16.9891,"longitude":82.2475,"temp":37.4,"humidity":40,"rain":0.0,"pressure":1005.7,"uv_index":9.05,"wind_gusts":40.7,"aqi":51,"pm10":25.6,"pm2_5":15.9,"mosquito_risk":0,"arthritis_risk":5,"migraine_risk":7,"frizz_risk":1,"updated_at":"2026-04-27T11:59:48.205790+05:30"},{"city":"Tirupati","state":"Andhra Pradesh","latitude":13.6288,"longitude":79.4192,"temp":38.2,"humidity":28,"rain":0.0,"pressure":989.7,"uv_index":9.25,"wind_gusts":45.7,"aqi":65,"pm10":26.0,"pm2_5":22.9,"mosquito_risk":0,"arthritis_risk":5,"migraine_risk":10,"frizz_risk":1,"updated_at":"2026-04-27T11:59:48.205797+05:30"},{"city":"Warangal","state":"Telangana","latitude":17.9689,"longitude":79.5941,"temp":39.0,"humidity":28,"rain":0.0,"pressure":977.2,"uv_index":8.8,"wind_gusts":38.9,"aqi":73,"pm10":28.1,"pm2_5":21.4,"mosquito_risk":0,"arthritis_risk":5,"migraine_risk":10,"frizz_risk":1,"updated_at":"2026-04-27T11:59:48.205804+05:30"},{"city":"Nizamabad","state":"Telangana","latitude":18.6725,"longitude":78.0941,"temp":40.3,"humidity":16,"rain":0.0,"pressure":963.4,"uv_index":9.1,"wind_gusts":32.8,"aqi":111,"pm10":42.8,"pm2_5":36.7,"mosquito_risk":0,"arthritis_risk":5,"migraine_risk":10,"frizz_risk":0,"updated_at":"2026-04-27T11:59:48.205811+05:30"},{"city":"Mysore","state":"Karnataka","latitude":12.2958,"longitude":76.6396,"temp":33.5,"humidity":36,"rain":0.0,"pressure":929.0,"uv_index":9.45,"wind_gusts":41.8,"aqi":98,"pm10":32.4,"pm2_5":26.0,"mosquito_risk":0,"arthritis_risk":5,"migraine_risk":7,"frizz_risk":1,"updated_at":"2026-04-27T11:59:48.205818+05:30"},{"city":"Mangalore","state":"Karnataka","latitude":12.9141,"longitude":74.856,"temp":32.9,"humidity":62,"rain":0.0,"pressure":1006.3,"uv_index":8.2,"wind_gusts":38.5,"aqi":76,"pm10":27.7,"pm2_5":20.5,"mosquito_risk":3,"arthritis_risk":5,"migraine_risk":4,"frizz_risk":1,"updated_at":"2026-04-27T11:59:48.205825+05:30"},{"city":"Hubli-Dharwad","state":"Karnataka","latitude":15.3647,"longitude":75.124,"temp":34.3,"humidity":43,"rain":0.0,"pressure":941.4,"uv_index":9.2,"wind_gusts":49.3,"aqi":85,"pm10":35.9,"pm2_5":29.7,"mosquito_risk":0,"arthritis_risk":5,"migraine_risk":7,"frizz_risk":1,"updated_at":"2026-04-27T11:59:48.205833+05:30"},{"city":"Belgaum","state":"Karnataka","latitude":15.8497,"longitude":74.4977,"temp":33.2,"humidity":45,"rain":0.0,"pressure":926.8,"uv_index":9.2,"wind_gusts":49.3,"aqi":91,"pm10":36.1,"pm2_5":27.5,"mosquito_risk":0,"arthritis_risk":5,"migraine_risk":7,"frizz_risk":1,"updated_at":"2026-04-27T11:59:51.588129+05:30"},{"city":"Coimbatore","state":"Tamil Nadu","latitude":11.0168,"longitude":76.9558,"temp":35.0,"humidity":31,"rain":0.0,"pressure":961.8,"uv_index":9.35,"wind_gusts":47.2,"aqi":75,"pm10":22.8,"pm2_5":17.3,"mosquito_risk":0,"arthritis_risk":5,"migraine_risk":7,"frizz_risk":0,"updated_at":"2026-04-27T11:59:51.588164+05:30"},{"city":"Madurai","state":"Tamil Nadu","latitude":9.9252,"longitude":78.1198,"temp":37.8,"humidity":30,"rain":0.0,"pressure":992.1,"uv_index":8.85,"wind_gusts":50.8,"aqi":47,"pm10":13.5,"pm2_5":11.8,"mosquito_risk":0,"arthritis_risk":5,"migraine_risk":10,"frizz_risk":1,"updated_at":"2026-04-27T11:59:51.588176+05:30"},{"city":"Trichy","state":"Tamil Nadu","latitude":10.7905,"longitude":78.7047,"temp":36.0,"humidity":38,"rain":0.0,"pressure":998.9,"uv_index":9.1,"wind_gusts":46.1,"aqi":55,"pm10":13.5,"pm2_5":11.5,"mosquito_risk":0,"arthritis_risk":5,"migraine_risk":10,"frizz_risk":1,"updated_at":"2026-04-27T11:59:51.588186+05:30"},{"city":"Salem","state":"Tamil Nadu","latitude":11.6643,"longitude":78.146,"temp":36.7,"humidity":32,"rain":0.0,"pressure":976.7,"uv_index":9.2,"wind_gusts":33.1,"aqi":63,"pm10":17.4,"pm2_5":15.3,"mosquito_risk":0,"arthritis_risk":5,"migraine_risk":10,"frizz_risk":1,"updated_at":"2026-04-27T11:59:51.588196+05:30"},{"city":"Tirunelveli","state":"Tamil Nadu","latitude":8.7139,"longitude":77.7567,"temp":37.2,"humidity":34,"rain":0.0,"pressure":1002.3,"uv_index":8.95,"wind_gusts":43.9,"aqi":55,"pm10":12.5,"pm2_5":11.3,"mosquito_risk":0,"arthritis_risk":5,"migraine_risk":7,"frizz_risk":1,"updated_at":"2026-04-27T11:59:51.588205+05:30"},{"city":"Vellore","state":"Tamil Nadu","latitude":12.9165,"longitude":79.1325,"temp":37.8,"humidity":31,"rain":0.0,"pressure":983.3,"uv_index":9.3,"wind_gusts":40.3,"aqi":86,"pm10":24.3,"pm2_5":21.5,"mosquito_risk":0,"arthritis_risk":5,"migraine_risk":10,"frizz_risk":1,"updated_at":"2026-04-27T11:59:51.588214+05:30"},{"city":"Erode","state":"Tamil Nadu","latitude":11.341,"longitude":77.7172,"temp":37.5,"humidity":30,"rain":0.0,"pressure":988.1,"uv_index":9.3,"wind_gusts":50.8,"aqi":58,"pm10":22.1,"pm2_5":20.0,"mosquito_risk":0,"arthritis_risk":5,"migraine_risk":10,"frizz_risk":1,"updated_at":"2026-04-27T11:59:51.588222+05:30"},{"city":"Kochi","state":"Kerala","latitude":9.9312,"longitude":76.2673,"temp":32.5,"humidity":62,"rain":0.0,"pressure":1008.1,"uv_index":9.0,"wind_gusts":36.7,"aqi":86,"pm10":21.1,"pm2_5":18.9,"mosquito_risk":3,"arthritis_risk":0,"migraine_risk":4,"frizz_risk":1,"updated_at":"2026-04-27T11:59:51.588231+05:30"},{"city":"Thiruvananthapuram","state":"Kerala","latitude":8.5241,"longitude":76.9366,"temp":32.5,"humidity":60,"rain":0.0,"pressure":1007.4,"uv_index":8.4,"wind_gusts":37.4,"aqi":50,"pm10":19.2,"pm2_5":16.8,"mosquito_risk":0,"arthritis_risk":5,"migraine_risk":4,"frizz_risk":1,"updated_at":"2026-04-27T11:59:51.588240+05:30"},{"city":"Kozhikode","state":"Kerala","latitude":11.2588,"longitude":75.7804,"temp":31.2,"humidity":73,"rain":0.0,"pressure":1007.1,"uv_index":8.5,"wind_gusts":38.5,"aqi":58,"pm10":17.1,"pm2_5":14.1,"mosquito_risk":3,"arthritis_risk":5,"migraine_risk":4,"frizz_risk":1,"updated_at":"2026-04-27T11:59:51.588249+05:30"},{"city":"Thrissur","state":"Kerala","latitude":10.5276,"longitude":76.2144,"temp":33.4,"humidity":59,"rain":0.0,"pressure":1006.2,"uv_index":8.9,"wind_gusts":36.0,"aqi":81,"pm10":16.6,"pm2_5":14.6,"mosquito_risk":0,"arthritis_risk":5,"migraine_risk":4,"frizz_risk":1,"updated_at":"2026-04-27T11:59:51.588258+05:30"},{"city":"Kannur","state":"Kerala","latitude":11.8745,"longitude":75.3704,"temp":32.3,"humidity":65,"rain":0.0,"pressure":1006.6,"uv_index":9.0,"wind_gusts":41.8,"aqi":69,"pm10":19.7,"pm2_5":15.3,"mosquito_risk":3,"arthritis_risk":5,"migraine_risk":4,"frizz_risk":1,"updated_at":"2026-04-27T11:59:51.588266+05:30"},{"city":"Patna","state":"Bihar","latitude":25.5941,"longitude":85.1376,"temp":33.5,"humidity":48,"rain":0.0,"pressure":996.2,"uv_index":8.6,"wind_gusts":35.6,"aqi":137,"pm10":67.3,"pm2_5":49.2,"mosquito_risk":0,"arthritis_risk":5,"migraine_risk":7,"frizz_risk":1,"updated_at":"2026-04-27T11:59:51.588275+05:30"},{"city":"Gaya","state":"Bihar","latitude":24.7914,"longitude":85.0002,"temp":37.2,"humidity":39,"rain":0.0,"pressure":988.8,"uv_index":8.65,"wind_gusts":39.6,"aqi":128,"pm10":88.2,"pm2_5":50.3,"mosquito_risk":0,"arthritis_risk":5,"migraine_risk":10,"frizz_risk":1,"updated_at":"2026-04-27T11:59:51.588283+05:30"},{"city":"Muzaffarpur","state":"Bihar","latitude":26.1209,"longitude":85.3647,"temp":31.4,"humidity":55,"rain":0.0,"pressure":996.6,"uv_index":8.6,"wind_gusts":39.2,"aqi":139,"pm10":68.9,"pm2_5":52.4,"mosquito_risk":0,"arthritis_risk":5,"migraine_risk":7,"frizz_risk":1,"updated_at":"2026-04-27T11:59:51.588291+05:30"},{"city":"Bhagalpur","state":"Bihar","latitude":25.2425,"longitude":87.0117,"temp":30.0,"humidity":59,"rain":0.0,"pressure":997.4,"uv_index":7.9,"wind_gusts":43.2,"aqi":121,"pm10":35.6,"pm2_5":25.5,"mosquito_risk":4,"arthritis_risk":5,"migraine_risk":7,"frizz_risk":1,"updated_at":"2026-04-27T11:59:51.588299+05:30"},{"city":"Ranchi","state":"Jharkhand","latitude":23.3441,"longitude":85.3096,"temp":36.1,"humidity":24,"rain":0.0,"pressure":935.5,"uv_index":9.15,"wind_gusts":43.9,"aqi":104,"pm10":164.8,"pm2_5":35.2,"mosquito_risk":0,"arthritis_risk":5,"migraine_risk":10,"frizz_risk":0,"updated_at":"2026-04-27T11:59:51.588308+05:30"},{"city":"Jamshedpur","state":"Jharkhand","latitude":22.8046,"longitude":86.2029,"temp":41.8,"humidity":20,"rain":0.0,"pressure":985.9,"uv_index":9.0,"wind_gusts":48.6,"aqi":110,"pm10":110.4,"pm2_5":44.2,"mosquito_risk":0,"arthritis_risk":5,"migraine_risk":10,"frizz_risk":0,"updated_at":"2026-04-27T11:59:51.588316+05:30"},{"city":"Dhanbad","state":"Jharkhand","latitude":23.7957,"longitude":86.4304,"temp":40.5,"humidity":23,"rain":0.0,"pressure":974.9,"uv_index":8.95,"wind_gusts":58.7,"aqi":137,"pm10":143.4,"pm2_5":62.4,"mosquito_risk":0,"arthritis_risk":5,"migraine_risk":10,"frizz_risk":0,"updated_at":"2026-04-27T11:59:51.588324+05:30"},{"city":"Bokaro","state":"Jharkhand","latitude":23.6693,"longitude":86.1511,"temp":41.0,"humidity":21,"rain":0.0,"pressure":978.6,"uv_index":8.95,"wind_gusts":55.4,"aqi":140,"pm10":205.8,"pm2_5":57.3,"mosquito_risk":0,"arthritis_risk":5,"migraine_risk":10,"frizz_risk":0,"updated_at":"2026-04-27T11:59:51.588332+05:30"},{"city":"Bhubaneswar","state":"Odisha","latitude":20.2961,"longitude":85.8245,"temp":35.1,"humidity":52,"rain":0.0,"pressure":999.4,"uv_index":9.05,"wind_gusts":55.1,"aqi":54,"pm10":23.1,"pm2_5":18.4,"mosquito_risk":0,"arthritis_risk":5,"migraine_risk":10,"frizz_risk":1,"updated_at":"2026-04-27T11:59:51.588341+05:30"},{"city":"Cuttack","state":"Odisha","latitude":20.4625,"longitude":85.8828,"temp":36.2,"humidity":51,"rain":0.0,"pressure":1000.8,"uv_index":9.0,"wind_gusts":50.4,"aqi":54,"pm10":23.1,"pm2_5":18.4,"mosquito_risk":0,"arthritis_risk":5,"migraine_risk":7,"frizz_risk":1,"updated_at":"2026-04-27T11:59:51.588349+05:30"},{"city":"Rourkela","state":"Odisha","latitude":22.2604,"longitude":84.8536,"temp":41.3,"humidity":19,"rain":0.0,"pressure":981.1,"uv_index":8.9,"wind_gusts":39.6,"aqi":111,"pm10":88.2,"pm2_5":36.2,"mosquito_risk":0,"arthritis_risk":5,"migraine_risk":10,"frizz_risk":0,"updated_at":"2026-04-27T11:59:51.588357+05:30"},{"city":"Raipur","state":"Chhattisgarh","latitude":21.2514,"longitude":81.6296,"temp":40.2,"humidity":23,"rain":0.0,"pressure":972.1,"uv_index":8.55,"wind_gusts":64.1,"aqi":97,"pm10":37.5,"pm2_5":31.8,"mosquito_risk":0,"arthritis_risk":5,"migraine_risk":10,"frizz_risk":0,"updated_at":"2026-04-27T11:59:51.588365+05:30"},{"city":"Bhilai","state":"Chhattisgarh","latitude":21.1938,"longitude":81.3509,"temp":39.8,"humidity":24,"rain":0.0,"pressure":972.8,"uv_index":9.0,"wind_gusts":52.2,"aqi":92,"pm10":37.8,"pm2_5":30.4,"mosquito_risk":0,"arthritis_risk":5,"migraine_risk":10,"frizz_risk":0,"updated_at":"2026-04-27T11:59:51.588373+05:30"},{"city":"Guwahati","state":"Assam","latitude":26.1158,"longitude":91.7086,"temp":22.5,"humidity":89,"rain":0.1,"pressure":999.4,"uv_index":3.15,"wind_gusts":22.7,"aqi":111,"pm10":31.4,"pm2_5":24.9,"mosquito_risk":6,"arthritis_risk":5,"migraine_risk":3,"frizz_risk":1,"updated_at":"2026-04-27T11:59:51.588381+05:30"},{"city":"Agartala","state":"Tripura","latitude":23.8315,"longitude":91.2868,"temp":31.9,"humidity":58,"rain":0.1,"pressure":1001.6,"uv_index":6.95,"wind_gusts":59.0,"aqi":93,"pm10":31.3,"pm2_5":20.8,"mosquito_risk":3,"arthritis_risk":5,"migraine_risk":4,"frizz_risk":1,"updated_at":"2026-04-27T11:59:51.588389+05:30"},{"city":"Shillong","state":"Meghalaya","latitude":25.5788,"longitude":91.8933,"temp":18.7,"humidity":85,"rain":0.2,"pressure":854.1,"uv_index":2.9,"wind_gusts":43.9,"aqi":111,"pm10":9.5,"pm2_5":7.7,"mosquito_risk":6,"arthritis_risk":10,"migraine_risk":3,"frizz_risk":0,"updated_at":"2026-04-27T11:59:51.588397+05:30"},{"city":"Imphal","state":"Manipur","latitude":24.817,"longitude":93.9368,"temp":21.0,"humidity":89,"rain":0.2,"pressure":921.5,"uv_index":8.55,"wind_gusts":24.8,"aqi":158,"pm10":65.2,"pm2_5":39.9,"mosquito_risk":6,"arthritis_risk":5,"migraine_risk":7,"frizz_risk":1,"updated_at":"2026-04-27T11:59:51.588406+05:30"},{"city":"Aizawl","state":"Mizoram","latitude":23.7271,"longitude":92.7176,"temp":25.0,"humidity":52,"rain":0.0,"pressure":891.7,"uv_index":8.95,"wind_gusts":52.9,"aqi":96,"pm10":50.3,"pm2_5":26.9,"mosquito_risk":4,"arthritis_risk":5,"migraine_risk":7,"frizz_risk":0,"updated_at":"2026-04-27T11:59:51.588440+05:30"},{"city":"Kohima","state":"Nagaland","latitude":25.6701,"longitude":94.1077,"temp":18.6,"humidity":93,"rain":0.4,"pressure":852.9,"uv_index":3.2,"wind_gusts":26.3,"aqi":146,"pm10":35.4,"pm2_5":22.4,"mosquito_risk":6,"arthritis_risk":10,"migraine_risk":3,"frizz_risk":1,"updated_at":"2026-04-27T11:59:51.588449+05:30"},{"city":"Gangtok","state":"Sikkim","latitude":27.3314,"longitude":88.6138,"temp":20.5,"humidity":61,"rain":0.0,"pressure":835.0,"uv_index":8.9,"wind_gusts":41.0,"aqi":59,"pm10":31.0,"pm2_5":21.2,"mosquito_risk":3,"arthritis_risk":5,"migraine_risk":7,"frizz_risk":0,"updated_at":"2026-04-27T11:59:51.588457+05:30"},{"city":"Siliguri","state":"West Bengal","latitude":26.7271,"longitude":88.3953,"temp":28.0,"humidity":58,"rain":0.0,"pressure":989.9,"uv_index":8.4,"wind_gusts":30.6,"aqi":127,"pm10":63.8,"pm2_5":39.6,"mosquito_risk":4,"arthritis_risk":5,"migraine_risk":7,"frizz_risk":1,"updated_at":"2026-04-27T11:59:54.984236+05:30"},{"city":"Durgapur","state":"West Bengal","latitude":23.5204,"longitude":87.3119,"temp":35.6,"humidity":57,"rain":0.0,"pressure":989.6,"uv_index":8.85,"wind_gusts":47.9,"aqi":110,"pm10":78.9,"pm2_5":65.0,"mosquito_risk":0,"arthritis_risk":5,"migraine_risk":10,"frizz_risk":1,"updated_at":"2026-04-27T11:59:54.984266+05:30"},{"city":"Asansol","state":"West Bengal","latitude":23.6739,"longitude":86.9524,"temp":37.5,"humidity":45,"rain":0.0,"pressure":988.3,"uv_index":8.9,"wind_gusts":52.6,"aqi":114,"pm10":94.3,"pm2_5":65.4,"mosquito_risk":0,"arthritis_risk":5,"migraine_risk":10,"frizz_risk":1,"updated_at":"2026-04-27T11:59:54.984277+05:30"},{"city":"Pondicherry","state":"Puducherry","latitude":11.9139,"longitude":79.8145,"temp":33.2,"humidity":59,"rain":0.0,"pressure":1007.7,"uv_index":9.2,"wind_gusts":46.4,"aqi":51,"pm10":21.0,"pm2_5":15.9,"mosquito_risk":0,"arthritis_risk":5,"migraine_risk":4,"frizz_risk":1,"updated_at":"2026-04-27T11:59:54.984284+05:30"},{"city":"Port Blair","state":"Andaman and Nicobar Islands","latitude":11.6234,"longitude":92.7265,"temp":34.3,"humidity":53,"rain":0.0,"pressure":1006.6,"uv_index":9.1,"wind_gusts":35.6,"aqi":54,"pm10":18.5,"pm2_5":14.0,"mosquito_risk":0,"arthritis_risk":5,"migraine_risk":4,"frizz_risk":1,"updated_at":"2026-04-27T11:59:54.984293+05:30"},{"city":"Haridwar","state":"Uttarakhand","latitude":29.9457,"longitude":78.1642,"temp":33.3,"humidity":37,"rain":0.0,"pressure":970.2,"uv_index":7.25,"wind_gusts":31.3,"aqi":57,"pm10":8.9,"pm2_5":8.2,"mosquito_risk":0,"arthritis_risk":5,"migraine_risk":7,"frizz_risk":1,"updated_at":"2026-04-27T11:59:54.984301+05:30"},{"city":"Rishikesh","state":"Uttarakhand","latitude":30.0869,"longitude":78.2676,"temp":32.9,"humidity":37,"rain":0.0,"pressure":963.1,"uv_index":7.35,"wind_gusts":28.8,"aqi":53,"pm10":7.5,"pm2_5":5.5,"mosquito_risk":0,"arthritis_risk":5,"migraine_risk":7,"frizz_risk":1,"updated_at":"2026-04-27T11:59:54.984308+05:30"},{"city":"Nainital","state":"Uttarakhand","latitude":29.3919,"longitude":79.4542,"temp":23.8,"humidity":38,"rain":0.0,"pressure":806.6,"uv_index":8.2,"wind_gusts":38.2,"aqi":60,"pm10":36.7,"pm2_5":19.6,"mosquito_risk":0,"arthritis_risk":5,"migraine_risk":7,"frizz_risk":0,"updated_at":"2026-04-27T11:59:54.984315+05:30"},{"city":"Mussoorie","state":"Uttarakhand","latitude":30.4599,"longitude":78.0664,"temp":24.4,"humidity":27,"rain":0.0,"pressure":804.6,"uv_index":7.75,"wind_gusts":56.2,"aqi":50,"pm10":7.5,"pm2_5":5.9,"mosquito_risk":0,"arthritis_risk":5,"migraine_risk":7,"frizz_risk":0,"updated_at":"2026-04-27T11:59:54.984323+05:30"},{"city":"Dharamshala","state":"Himachal Pradesh","latitude":32.219,"longitude":76.3234,"temp":28.3,"humidity":22,"rain":0.0,"pressure":869.4,"uv_index":8.1,"wind_gusts":47.2,"aqi":47,"pm10":7.7,"pm2_5":3.1,"mosquito_risk":4,"arthritis_risk":5,"migraine_risk":7,"frizz_risk":0,"updated_at":"2026-04-27T11:59:54.984331+05:30"},{"city":"Dalhousie","state":"Himachal Pradesh","latitude":32.5387,"longitude":75.971,"temp":24.6,"humidity":25,"rain":0.0,"pressure":806.6,"uv_index":8.3,"wind_gusts":43.9,"aqi":49,"pm10":4.9,"pm2_5":3.4,"mosquito_risk":0,"arthritis_risk":5,"migraine_risk":7,"frizz_risk":0,"updated_at":"2026-04-27T11:59:54.984338+05:30"},{"city":"Patiala","state":"Punjab","latitude":30.3398,"longitude":76.3869,"temp":39.8,"humidity":11,"rain":0.0,"pressure":974.2,"uv_index":7.35,"wind_gusts":41.8,"aqi":353,"pm10":292.4,"pm2_5":29.7,"mosquito_risk":0,"arthritis_risk":5,"migraine_risk":10,"frizz_risk":0,"updated_at":"2026-04-27T11:59:54.984346+05:30"},{"city":"Bhatinda","state":"Punjab","latitude":30.211,"longitude":74.9455,"temp":40.7,"humidity":14,"rain":0.0,"pressure":979.6,"uv_index":8.0,"wind_gusts":50.4,"aqi":66,"pm10":49.5,"pm2_5":15.7,"mosquito_risk":0,"arthritis_risk":5,"migraine_risk":10,"frizz_risk":0,"updated_at":"2026-04-27T11:59:54.984352+05:30"},{"city":"Rohtak","state":"Haryana","latitude":28.8955,"longitude":76.6066,"temp":39.9,"humidity":14,"rain":0.0,"pressure":977.9,"uv_index":7.5,"wind_gusts":43.2,"aqi":647,"pm10":196.0,"pm2_5":31.2,"mosquito_risk":0,"arthritis_risk":5,"migraine_risk":10,"frizz_risk":0,"updated_at":"2026-04-27T11:59:54.984359+05:30"},{"city":"Panipat","state":"Haryana","latitude":29.3909,"longitude":76.9635,"temp":40.5,"humidity":12,"rain":0.0,"pressure":976.3,"uv_index":7.3,"wind_gusts":43.6,"aqi":1212,"pm10":427.5,"pm2_5":46.4,"mosquito_risk":0,"arthritis_risk":5,"migraine_risk":10,"frizz_risk":0,"updated_at":"2026-04-27T11:59:54.984366+05:30"},{"city":"Mathura","state":"Uttar Pradesh","latitude":27.4924,"longitude":77.6737,"temp":40.8,"humidity":15,"rain":0.0,"pressure":982.6,"uv_index":7.75,"wind_gusts":37.8,"aqi":699,"pm10":328.8,"pm2_5":56.5,"mosquito_risk":0,"arthritis_risk":5,"migraine_risk":10,"frizz_risk":0,"updated_at":"2026-04-27T11:59:54.984373+05:30"},{"city":"Vrindavan","state":"Uttar Pradesh","latitude":27.5823,"longitude":77.7027,"temp":40.7,"humidity":15,"rain":0.0,"pressure":983.0,"uv_index":7.65,"wind_gusts":38.9,"aqi":699,"pm10":328.8,"pm2_5":56.5,"mosquito_risk":0,"arthritis_risk":5,"migraine_risk":10,"frizz_risk":0,"updated_at":"2026-04-27T11:59:54.984379+05:30"},{"city":"Ayodhya","state":"Uttar Pradesh","latitude":26.7922,"longitude":82.1998,"temp":35.2,"humidity":38,"rain":0.0,"pressure":990.9,"uv_index":8.1,"wind_gusts":32.8,"aqi":125,"pm10":102.7,"pm2_5":51.8,"mosquito_risk":0,"arthritis_risk":5,"migraine_risk":10,"frizz_risk":1,"updated_at":"2026-04-27T11:59:54.984386+05:30"},{"city":"Ratlam","state":"Madhya Pradesh","latitude":23.3315,"longitude":75.0367,"temp":39.5,"humidity":13,"rain":0.0,"pressure":954.0,"uv_index":8.45,"wind_gusts":46.4,"aqi":58,"pm10":35.6,"pm2_5":10.8,"mosquito_risk":0,"arthritis_risk":5,"migraine_risk":10,"frizz_risk":0,"updated_at":"2026-04-27T11:59:54.984393+05:30"},{"city":"Sagar","state":"Madhya Pradesh","latitude":23.8388,"longitude":78.7378,"temp":41.0,"humidity":13,"rain":0.0,"pressure":948.4,"uv_index":8.6,"wind_gusts":49.3,"aqi":63,"pm10":32.9,"pm2_5":10.2,"mosquito_risk":0,"arthritis_risk":5,"migraine_risk":10,"frizz_risk":0,"updated_at":"2026-04-27T11:59:54.984399+05:30"},{"city":"Satna","state":"Madhya Pradesh","latitude":24.6005,"longitude":80.8322,"temp":42.3,"humidity":13,"rain":0.0,"pressure":967.5,"uv_index":8.65,"wind_gusts":52.6,"aqi":71,"pm10":63.8,"pm2_5":19.4,"mosquito_risk":0,"arthritis_risk":5,"migraine_risk":10,"frizz_risk":0,"updated_at":"2026-04-27T11:59:54.984426+05:30"},{"city":"Akola","state":"Maharashtra","latitude":20.7002,"longitude":77.0082,"temp":41.5,"humidity":14,"rain":0.0,"pressure":973.3,"uv_index":8.85,"wind_gusts":38.2,"aqi":61,"pm10":21.8,"pm2_5":13.9,"mosquito_risk":0,"arthritis_risk":5,"migraine_risk":10,"frizz_risk":0,"updated_at":"2026-04-27T11:59:54.984435+05:30"},{"city":"Amravati","state":"Maharashtra","latitude":20.9374,"longitude":77.7796,"temp":41.7,"humidity":13,"rain":0.0,"pressure":965.6,"uv_index":8.9,"wind_gusts":35.6,"aqi":67,"pm10":28.9,"pm2_5":15.2,"mosquito_risk":0,"arthritis_risk":5,"migraine_risk":10,"frizz_risk":0,"updated_at":"2026-04-27T11:59:54.984443+05:30"},{"city":"Latur","state":"Maharashtra","latitude":18.4088,"longitude":76.5604,"temp":39.8,"humidity":13,"rain":0.0,"pressure":939.9,"uv_index":9.05,"wind_gusts":39.2,"aqi":91,"pm10":23.0,"pm2_5":16.8,"mosquito_risk":0,"arthritis_risk":5,"migraine_risk":10,"frizz_risk":0,"updated_at":"2026-04-27T11:59:54.984450+05:30"},{"city":"Nanded","state":"Maharashtra","latitude":19.1383,"longitude":77.3091,"temp":41.5,"humidity":13,"rain":0.0,"pressure":967.2,"uv_index":9.0,"wind_gusts":35.3,"aqi":82,"pm10":34.3,"pm2_5":19.2,"mosquito_risk":0,"arthritis_risk":5,"migraine_risk":10,"frizz_risk":0,"updated_at":"2026-04-27T11:59:54.984456+05:30"},{"city":"Gulbarga","state":"Karnataka","latitude":17.3297,"longitude":76.8343,"temp":40.6,"humidity":15,"rain":0.0,"pressure":957.5,"uv_index":9.05,"wind_gusts":35.3,"aqi":100,"pm10":37.5,"pm2_5":29.3,"mosquito_risk":0,"arthritis_risk":5,"migraine_risk":10,"frizz_risk":0,"updated_at":"2026-04-27T11:59:54.984462+05:30"},{"city":"Bidar","state":"Karnataka","latitude":17.9104,"longitude":77.5199,"temp":38.8,"humidity":16,"rain":0.0,"pressure":935.5,"uv_index":9.05,"wind_gusts":34.9,"aqi":106,"pm10":41.3,"pm2_5":34.2,"mosquito_risk":0,"arthritis_risk":5,"migraine_risk":10,"frizz_risk":0,"updated_at":"2026-04-27T11:59:54.984469+05:30"},{"city":"Hospet","state":"Karnataka","latitude":15.2689,"longitude":76.3909,"temp":35.3,"humidity":41,"rain":0.0,"pressure":955.8,"uv_index":9.25,"wind_gusts":36.0,"aqi":96,"pm10":39.7,"pm2_5":33.8,"mosquito_risk":0,"arthritis_risk":5,"migraine_risk":10,"frizz_risk":1,"updated_at":"2026-04-27T11:59:54.984476+05:30"},{"city":"Tirupur","state":"Tamil Nadu","latitude":11.1085,"longitude":77.3411,"temp":36.9,"humidity":30,"rain":0.0,"pressure":974.7,"uv_index":9.35,"wind_gusts":33.1,"aqi":68,"pm10":22.1,"pm2_5":18.9,"mosquito_risk":0,"arthritis_risk":5,"migraine_risk":10,"frizz_risk":1,"updated_at":"2026-04-27T11:59:54.984482+05:30"},{"city":"Alappuzha","state":"Kerala","latitude":9.4981,"longitude":76.3388,"temp":31.7,"humidity":69,"rain":0.0,"pressure":1008.2,"uv_index":7.95,"wind_gusts":34.6,"aqi":75,"pm10":21.8,"pm2_5":19.2,"mosquito_risk":3,"arthritis_risk":0,"migraine_risk":4,"frizz_risk":1,"updated_at":"2026-04-27T11:59:54.984489+05:30"},{"city":"Munnar","state":"Kerala","latitude":10.0889,"longitude":77.0595,"temp":23.9,"humidity":62,"rain":0.0,"pressure":858.8,"uv_index":9.6,"wind_gusts":27.0,"aqi":71,"pm10":17.1,"pm2_5":14.5,"mosquito_risk":3,"arthritis_risk":5,"migraine_risk":7,"frizz_risk":1,"updated_at":"2026-04-27T11:59:54.984496+05:30"},{"city":"Silchar","state":"Assam","latitude":24.8333,"longitude":92.7789,"temp":24.6,"humidity":90,"rain":0.4,"pressure":1003.3,"uv_index":8.75,"wind_gusts":25.6,"aqi":158,"pm10":44.0,"pm2_5":31.0,"mosquito_risk":6,"arthritis_risk":5,"migraine_risk":4,"frizz_risk":1,"updated_at":"2026-04-27T11:59:54.984503+05:30"},{"city":"Dibrugarh","state":"Assam","latitude":27.4728,"longitude":94.912,"temp":25.8,"humidity":74,"rain":0.0,"pressure":994.2,"uv_index":1.6,"wind_gusts":27.0,"aqi":90,"pm10":81.7,"pm2_5":42.8,"mosquito_risk":7,"arthritis_risk":5,"migraine_risk":3,"frizz_risk":1,"updated_at":"2026-04-27T11:59:54.984509+05:30"}]