[{"city":"Delhi","state":"Delhi","latitude":28.6139,"longitude":77.209,"temp":28.1,"humidity":58,"rain":0.0,"pressure":977.8,"uv_index":7.8,"wind_gusts":43.6,"aqi":164,"pm10":361.4,"pm2_5":116.9,"no2":33.4,"co":1085.0,"o3":53.0,"so2":27.2,"mosquito_risk":4,"arthritis_risk":5,"migraine_risk":7,"frizz_risk":1,"updated_at":"2026-06-05T05:41:52.629799+05:30"},{"city":"Mumbai","state":"Maharashtra","latitude":19.076,"longitude":72.8777,"temp":29.2,"humidity":80,"rain":0.1,"pressure":1004.9,"uv_index":7.4,"wind_gusts":40.3,"aqi":61,"pm10":46.3,"pm2_5":20.5,"no2":10.4,"co":171.0,"o3":42.0,"so2":10.4,"mosquito_risk":10,"arthritis_risk":5,"migraine_risk":4,"frizz_risk":1,"updated_at":"2026-06-05T05:41:52.629843+05:30"},{"city":"Bangalore","state":"Karnataka","latitude":12.9716,"longitude":77.5946,"temp":20.6,"humidity":96,"rain":0.0,"pressure":909.7,"uv_index":6.05,"wind_gusts":49.3,"aqi":32,"pm10":4.4,"pm2_5":4.0,"no2":8.9,"co":186.0,"o3":34.0,"so2":4.6,"mosquito_risk":3,"arthritis_risk":5,"migraine_risk":7,"frizz_risk":1,"updated_at":"2026-06-05T05:41:52.629858+05:30"},{"city":"Hyderabad","state":"Telangana","latitude":17.385,"longitude":78.4867,"temp":27.3,"humidity":65,"rain":0.0,"pressure":950.7,"uv_index":8.95,"wind_gusts":48.6,"aqi":67,"pm10":8.7,"pm2_5":6.9,"no2":10.0,"co":206.0,"o3":45.0,"so2":4.3,"mosquito_risk":7,"arthritis_risk":5,"migraine_risk":7,"frizz_risk":1,"updated_at":"2026-06-05T05:41:52.629868+05:30"},{"city":"Chennai","state":"Tamil Nadu","latitude":13.0827,"longitude":80.2707,"temp":30.4,"humidity":59,"rain":0.0,"pressure":1003.4,"uv_index":8.9,"wind_gusts":38.9,"aqi":56,"pm10":17.5,"pm2_5":14.4,"no2":17.4,"co":247.0,"o3":37.0,"so2":9.4,"mosquito_risk":0,"arthritis_risk":5,"migraine_risk":4,"frizz_risk":1,"updated_at":"2026-06-05T05:41:52.629876+05:30"},{"city":"Kolkata","state":"West Bengal","latitude":22.5726,"longitude":88.3639,"temp":30.2,"humidity":91,"rain":0.0,"pressure":1000.4,"uv_index":8.95,"wind_gusts":30.2,"aqi":117,"pm10":51.8,"pm2_5":45.9,"no2":13.7,"co":451.0,"o3":68.0,"so2":8.2,"mosquito_risk":3,"arthritis_risk":5,"migraine_risk":4,"frizz_risk":1,"updated_at":"2026-06-05T05:41:52.629883+05:30"},{"city":"Pune","state":"Maharashtra","latitude":18.5204,"longitude":73.8567,"temp":24.5,"humidity":86,"rain":0.0,"pressure":945.1,"uv_index":8.25,"wind_gusts":42.8,"aqi":54,"pm10":14.1,"pm2_5":8.7,"no2":10.3,"co":127.0,"o3":36.0,"so2":8.4,"mosquito_risk":3,"arthritis_risk":5,"migraine_risk":7,"frizz_risk":1,"updated_at":"2026-06-05T05:41:52.629890+05:30"},{"city":"Ahmedabad","state":"Gujarat","latitude":23.0225,"longitude":72.5714,"temp":30.2,"humidity":68,"rain":0.0,"pressure":997.5,"uv_index":8.1,"wind_gusts":38.9,"aqi":78,"pm10":40.7,"pm2_5":22.5,"no2":5.0,"co":134.0,"o3":42.0,"so2":3.8,"mosquito_risk":3,"arthritis_risk":5,"migraine_risk":7,"frizz_risk":1,"updated_at":"2026-06-05T05:41:52.629897+05:30"},{"city":"Jaipur","state":"Rajasthan","latitude":26.9124,"longitude":75.7873,"temp":25.0,"humidity":74,"rain":0.0,"pressure":955.2,"uv_index":8.2,"wind_gusts":34.9,"aqi":101,"pm10":60.3,"pm2_5":27.3,"no2":6.5,"co":161.0,"o3":57.0,"so2":5.0,"mosquito_risk":7,"arthritis_risk":5,"migraine_risk":7,"frizz_risk":1,"updated_at":"2026-06-05T05:41:52.629908+05:30"},{"city":"Lucknow","state":"Uttar Pradesh","latitude":26.8467,"longitude":80.9462,"temp":28.9,"humidity":63,"rain":0.0,"pressure":987.1,"uv_index":8.35,"wind_gusts":36.7,"aqi":153,"pm10":89.2,"pm2_5":65.2,"no2":26.9,"co":751.0,"o3":75.0,"so2":13.5,"mosquito_risk":7,"arthritis_risk":5,"migraine_risk":7,"frizz_risk":1,"updated_at":"2026-06-05T05:41:52.629915+05:30"},{"city":"Kanpur","state":"Uttar Pradesh","latitude":26.4499,"longitude":80.3319,"temp":29.8,"humidity":53,"rain":0.0,"pressure":985.3,"uv_index":8.35,"wind_gusts":35.6,"aqi":150,"pm10":122.0,"pm2_5":56.8,"no2":20.1,"co":289.0,"o3":78.0,"so2":10.1,"mosquito_risk":4,"arthritis_risk":5,"migraine_risk":7,"frizz_risk":1,"updated_at":"2026-06-05T05:41:52.629921+05:30"},{"city":"Chandigarh","state":"Chandigarh","latitude":30.7333,"longitude":76.7794,"temp":23.7,"humidity":76,"rain":0.0,"pressure":963.0,"uv_index":7.8,"wind_gusts":25.9,"aqi":115,"pm10":41.7,"pm2_5":34.2,"no2":28.8,"co":875.0,"o3":39.0,"so2":5.0,"mosquito_risk":3,"arthritis_risk":5,"migraine_risk":7,"frizz_risk":1,"updated_at":"2026-06-05T05:41:52.629928+05:30"},{"city":"Srinagar","state":"Jammu and Kashmir","latitude":34.0837,"longitude":74.7973,"temp":13.1,"humidity":96,"rain":0.1,"pressure":839.7,"uv_index":9.0,"wind_gusts":29.2,"aqi":72,"pm10":36.1,"pm2_5":30.2,"no2":13.0,"co":249.0,"o3":40.0,"so2":0.3,"mosquito_risk":6,"arthritis_risk":10,"migraine_risk":7,"frizz_risk":0,"updated_at":"2026-06-05T05:41:52.629934+05:30"},{"city":"Jammu","state":"Jammu and Kashmir","latitude":32.7266,"longitude":74.857,"temp":23.5,"humidity":69,"rain":0.0,"pressure":967.6,"uv_index":8.6,"wind_gusts":23.8,"aqi":116,"pm10":52.3,"pm2_5":40.9,"no2":29.7,"co":388.0,"o3":25.0,"so2":2.1,"mosquito_risk":3,"arthritis_risk":5,"migraine_risk":7,"frizz_risk":1,"updated_at":"2026-06-05T05:41:52.629941+05:30"},{"city":"Amritsar","state":"Punjab","latitude":31.634,"longitude":74.8723,"temp":24.4,"humidity":70,"rain":0.0,"pressure":975.7,"uv_index":8.45,"wind_gusts":24.1,"aqi":138,"pm10":78.7,"pm2_5":63.1,"no2":30.2,"co":968.0,"o3":46.0,"so2":6.5,"mosquito_risk":3,"arthritis_risk":5,"migraine_risk":7,"frizz_risk":1,"updated_at":"2026-06-05T05:41:52.629946+05:30"},{"city":"Ludhiana","state":"Punjab","latitude":30.901,"longitude":75.8573,"temp":25.2,"humidity":79,"rain":0.0,"pressure":973.6,"uv_index":8.0,"wind_gusts":29.5,"aqi":148,"pm10":224.4,"pm2_5":75.7,"no2":17.3,"co":703.0,"o3":74.0,"so2":11.7,"mosquito_risk":7,"arthritis_risk":5,"migraine_risk":7,"frizz_risk":1,"updated_at":"2026-06-05T05:41:52.629952+05:30"},{"city":"Jalandhar","state":"Punjab","latitude":31.326,"longitude":75.5762,"temp":24.8,"humidity":79,"rain":0.0,"pressure":974.8,"uv_index":8.2,"wind_gusts":23.4,"aqi":129,"pm10":93.4,"pm2_5":65.7,"no2":31.3,"co":913.0,"o3":45.0,"so2":9.7,"mosquito_risk":3,"arthritis_risk":5,"migraine_risk":7,"frizz_risk":1,"updated_at":"2026-06-05T05:41:52.629958+05:30"},{"city":"Dehradun","state":"Uttarakhand","latitude":30.6284,"longitude":78.0322,"temp":14.0,"humidity":95,"rain":0.0,"pressure":825.7,"uv_index":7.15,"wind_gusts":33.1,"aqi":63,"pm10":32.6,"pm2_5":17.3,"no2":19.5,"co":202.0,"o3":31.0,"so2":0.6,"mosquito_risk":3,"arthritis_risk":10,"migraine_risk":7,"frizz_risk":0,"updated_at":"2026-06-05T05:41:52.629965+05:30"},{"city":"Shimla","state":"Himachal Pradesh","latitude":31.1048,"longitude":77.1734,"temp":12.2,"humidity":89,"rain":0.0,"pressure":779.1,"uv_index":7.3,"wind_gusts":40.7,"aqi":67,"pm10":27.6,"pm2_5":16.8,"no2":13.1,"co":280.0,"o3":75.0,"so2":0.2,"mosquito_risk":3,"arthritis_risk":10,"migraine_risk":7,"frizz_risk":0,"updated_at":"2026-06-05T05:41:52.629978+05:30"},{"city":"Manali","state":"Himachal Pradesh","latitude":32.2396,"longitude":77.1887,"temp":14.6,"humidity":77,"rain":0.0,"pressure":815.3,"uv_index":5.3,"wind_gusts":34.2,"aqi":51,"pm10":4.0,"pm2_5":2.9,"no2":8.9,"co":184.0,"o3":126.0,"so2":0.0,"mosquito_risk":3,"arthritis_risk":5,"migraine_risk":3,"frizz_risk":0,"updated_at":"2026-06-05T05:41:52.629984+05:30"},{"city":"Gurgaon","state":"Haryana","latitude":28.4595,"longitude":77.0266,"temp":26.6,"humidity":63,"rain":0.0,"pressure":976.1,"uv_index":7.85,"wind_gusts":48.2,"aqi":862,"pm10":480.6,"pm2_5":138.8,"no2":25.9,"co":525.0,"o3":46.0,"so2":15.4,"mosquito_risk":7,"arthritis_risk":5,"migraine_risk":7,"frizz_risk":1,"updated_at":"2026-06-05T05:41:52.629990+05:30"},{"city":"Noida","state":"Uttar Pradesh","latitude":28.5355,"longitude":77.391,"temp":27.4,"humidity":62,"rain":0.0,"pressure":979.2,"uv_index":7.75,"wind_gusts":26.6,"aqi":862,"pm10":480.6,"pm2_5":138.8,"no2":25.9,"co":1783.0,"o3":46.0,"so2":15.4,"mosquito_risk":7,"arthritis_risk":5,"migraine_risk":7,"frizz_risk":1,"updated_at":"2026-06-05T05:41:52.629997+05:30"},{"city":"Ghaziabad","state":"Uttar Pradesh","latitude":28.6692,"longitude":77.4538,"temp":27.1,"humidity":66,"rain":0.0,"pressure":977.3,"uv_index":7.75,"wind_gusts":25.6,"aqi":155,"pm10":147.1,"pm2_5":65.7,"no2":19.3,"co":983.0,"o3":73.0,"so2":10.9,"mosquito_risk":7,"arthritis_risk":5,"migraine_risk":7,"frizz_risk":1,"updated_at":"2026-06-05T05:41:52.630005+05:30"},{"city":"Faridabad","state":"Haryana","latitude":28.4089,"longitude":77.3178,"temp":27.9,"humidity":59,"rain":0.0,"pressure":978.5,"uv_index":7.75,"wind_gusts":27.7,"aqi":862,"pm10":480.6,"pm2_5":138.8,"no2":25.9,"co":1160.0,"o3":46.0,"so2":15.4,"mosquito_risk":4,"arthritis_risk":5,"migraine_risk":7,"frizz_risk":1,"updated_at":"2026-06-05T05:41:52.630011+05:30"},{"city":"Meerut","state":"Uttar Pradesh","latitude":28.9845,"longitude":77.7064,"temp":26.9,"humidity":68,"rain":0.0,"pressure":976.0,"uv_index":7.5,"wind_gusts":27.4,"aqi":155,"pm10":147.1,"pm2_5":65.7,"no2":19.3,"co":739.0,"o3":73.0,"so2":10.9,"mosquito_risk":7,"arthritis_risk":5,"migraine_risk":7,"frizz_risk":1,"updated_at":"2026-06-05T05:41:52.630017+05:30"},{"city":"Agra","state":"Uttar Pradesh","latitude":27.1767,"longitude":78.0081,"temp":27.5,"humidity":64,"rain":0.0,"pressure":982.2,"uv_index":8.15,"wind_gusts":36.4,"aqi":181,"pm10":123.9,"pm2_5":44.6,"no2":15.4,"co":196.0,"o3":52.0,"so2":5.4,"mosquito_risk":7,"arthritis_risk":5,"migraine_risk":7,"frizz_risk":1,"updated_at":"2026-06-05T05:41:52.630024+05:30"},{"city":"Varanasi","state":"Uttar Pradesh","latitude":25.3176,"longitude":82.9739,"temp":29.3,"humidity":63,"rain":0.0,"pressure":991.9,"uv_index":8.8,"wind_gusts":24.1,"aqi":144,"pm10":68.7,"pm2_5":52.0,"no2":22.9,"co":998.0,"o3":66.0,"so2":15.0,"mosquito_risk":7,"arthritis_risk":5,"migraine_risk":7,"frizz_risk":1,"updated_at":"2026-06-05T05:41:52.630030+05:30"},{"city":"Prayagraj","state":"Uttar Pradesh","latitude":25.4358,"longitude":81.8463,"temp":29.4,"humidity":65,"rain":0.0,"pressure":989.8,"uv_index":8.75,"wind_gusts":31.0,"aqi":140,"pm10":105.9,"pm2_5":74.7,"no2":63.4,"co":366.0,"o3":9.0,"so2":14.7,"mosquito_risk":7,"arthritis_risk":5,"migraine_risk":7,"frizz_risk":1,"updated_at":"2026-06-05T05:41:52.630036+05:30"},{"city":"Gorakhpur","state":"Uttar Pradesh","latitude":26.7606,"longitude":83.3732,"temp":27.9,"humidity":79,"rain":0.0,"pressure":991.2,"uv_index":8.75,"wind_gusts":23.8,"aqi":152,"pm10":82.0,"pm2_5":57.7,"no2":27.1,"co":597.0,"o3":54.0,"so2":9.2,"mosquito_risk":7,"arthritis_risk":5,"migraine_risk":7,"frizz_risk":1,"updated_at":"2026-06-05T05:41:52.630045+05:30"},{"city":"Bareilly","state":"Uttar Pradesh","latitude":28.367,"longitude":79.4304,"temp":26.6,"humidity":72,"rain":0.0,"pressure":981.0,"uv_index":8.1,"wind_gusts":24.5,"aqi":132,"pm10":81.5,"pm2_5":58.8,"no2":23.1,"co":919.0,"o3":68.0,"so2":11.5,"mosquito_risk":7,"arthritis_risk":5,"migraine_risk":7,"frizz_risk":1,"updated_at":"2026-06-05T05:41:52.630051+05:30"},{"city":"Aligarh","state":"Uttar Pradesh","latitude":27.8974,"longitude":78.088,"temp":27.2,"humidity":66,"rain":0.0,"pressure":980.1,"uv_index":7.85,"wind_gusts":33.5,"aqi":154,"pm10":156.5,"pm2_5":58.1,"no2":15.2,"co":621.0,"o3":69.0,"so2":8.4,"mosquito_risk":7,"arthritis_risk":5,"migraine_risk":7,"frizz_risk":1,"updated_at":"2026-06-05T05:41:52.630059+05:30"},{"city":"Moradabad","state":"Uttar Pradesh","latitude":28.8386,"longitude":78.7733,"temp":27.3,"humidity":69,"rain":0.0,"pressure":977.8,"uv_index":7.9,"wind_gusts":28.1,"aqi":152,"pm10":116.2,"pm2_5":66.8,"no2":27.9,"co":716.0,"o3":60.0,"so2":9.8,"mosquito_risk":7,"arthritis_risk":5,"migraine_risk":7,"frizz_risk":1,"updated_at":"2026-06-05T05:41:52.630065+05:30"},{"city":"Saharanpur","state":"Uttar Pradesh","latitude":29.9637,"longitude":77.546,"temp":25.9,"humidity":75,"rain":0.0,"pressure":970.1,"uv_index":6.2,"wind_gusts":26.6,"aqi":129,"pm10":102.7,"pm2_5":65.4,"no2":38.8,"co":539.0,"o3":51.0,"so2":12.0,"mosquito_risk":7,"arthritis_risk":5,"migraine_risk":7,"frizz_risk":1,"updated_at":"2026-06-05T05:41:52.630071+05:30"},{"city":"Jhansi","state":"Uttar Pradesh","latitude":25.4484,"longitude":78.5685,"temp":28.6,"humidity":54,"rain":0.0,"pressure":972.5,"uv_index":8.5,"wind_gusts":39.2,"aqi":77,"pm10":41.7,"pm2_5":22.1,"no2":4.5,"co":180.0,"o3":67.0,"so2":2.0,"mosquito_risk":4,"arthritis_risk":5,"migraine_risk":7,"frizz_risk":1,"updated_at":"2026-06-05T05:41:55.993506+05:30"},{"city":"Surat","state":"Gujarat","latitude":21.1702,"longitude":72.8311,"temp":29.3,"humidity":81,"rain":0.0,"pressure":1002.6,"uv_index":7.55,"wind_gusts":51.5,"aqi":81,"pm10":59.1,"pm2_5":32.9,"no2":22.7,"co":363.0,"o3":31.0,"so2":38.0,"mosquito_risk":7,"arthritis_risk":5,"migraine_risk":4,"frizz_risk":1,"updated_at":"2026-06-05T05:41:55.993539+05:30"},{"city":"Vadodara","state":"Gujarat","latitude":22.3072,"longitude":73.1812,"temp":28.8,"humidity":78,"rain":0.0,"pressure":1000.2,"uv_index":8.0,"wind_gusts":48.6,"aqi":83,"pm10":33.4,"pm2_5":19.3,"no2":8.3,"co":120.0,"o3":39.0,"so2":8.3,"mosquito_risk":7,"arthritis_risk":5,"migraine_risk":4,"frizz_risk":1,"updated_at":"2026-06-05T05:41:55.993550+05:30"},{"city":"Rajkot","state":"Gujarat","latitude":22.3039,"longitude":70.8022,"temp":28.4,"humidity":79,"rain":0.0,"pressure":989.6,"uv_index":7.55,"wind_gusts":48.2,"aqi":70,"pm10":49.1,"pm2_5":24.6,"no2":3.4,"co":101.0,"o3":45.0,"so2":2.2,"mosquito_risk":7,"arthritis_risk":5,"migraine_risk":7,"frizz_risk":1,"updated_at":"2026-06-05T05:41:55.993558+05:30"},{"city":"Thane","state":"Maharashtra","latitude":19.2183,"longitude":72.9781,"temp":27.9,"humidity":84,"rain":0.0,"pressure":1004.3,"uv_index":7.55,"wind_gusts":38.2,"aqi":61,"pm10":46.3,"pm2_5":20.5,"no2":10.4,"co":152.0,"o3":42.0,"so2":10.4,"mosquito_risk":7,"arthritis_risk":5,"migraine_risk":4,"frizz_risk":1,"updated_at":"2026-06-05T05:41:55.993567+05:30"},{"city":"Nagpur","state":"Maharashtra","latitude":21.1458,"longitude":79.0882,"temp":30.6,"humidity":46,"rain":0.0,"pressure":968.4,"uv_index":8.9,"wind_gusts":63.0,"aqi":85,"pm10":46.6,"pm2_5":30.9,"no2":12.9,"co":230.0,"o3":57.0,"so2":8.0,"mosquito_risk":0,"arthritis_risk":5,"migraine_risk":7,"frizz_risk":1,"updated_at":"2026-06-05T05:41:55.993575+05:30"},{"city":"Nashik","state":"Maharashtra","latitude":19.9975,"longitude":73.7898,"temp":24.3,"humidity":91,"rain":0.0,"pressure":942.4,"uv_index":8.0,"wind_gusts":43.6,"aqi":64,"pm10":25.8,"pm2_5":14.0,"no2":12.2,"co":186.0,"o3":32.0,"so2":14.0,"mosquito_risk":3,"arthritis_risk":5,"migraine_risk":7,"frizz_risk":1,"updated_at":"2026-06-05T05:41:55.993583+05:30"},{"city":"Aurangabad","state":"Maharashtra","latitude":19.8762,"longitude":75.3433,"temp":26.2,"humidity":73,"rain":0.0,"pressure":941.4,"uv_index":8.95,"wind_gusts":45.4,"aqi":74,"pm10":26.6,"pm2_5":15.5,"no2":9.5,"co":143.0,"o3":47.0,"so2":11.1,"mosquito_risk":7,"arthritis_risk":5,"migraine_risk":7,"frizz_risk":1,"updated_at":"2026-06-05T05:41:55.993590+05:30"},{"city":"Solapur","state":"Maharashtra","latitude":17.6599,"longitude":75.9064,"temp":27.1,"humidity":71,"rain":0.0,"pressure":954.9,"uv_index":5.75,"wind_gusts":34.2,"aqi":56,"pm10":10.0,"pm2_5":8.0,"no2":8.3,"co":169.0,"o3":38.0,"so2":2.8,"mosquito_risk":7,"arthritis_risk":5,"migraine_risk":3,"frizz_risk":1,"updated_at":"2026-06-05T05:41:55.993597+05:30"},{"city":"Kolhapur","state":"Maharashtra","latitude":16.705,"longitude":74.2433,"temp":23.3,"humidity":92,"rain":0.0,"pressure":945.2,"uv_index":8.3,"wind_gusts":46.1,"aqi":42,"pm10":9.9,"pm2_5":7.6,"no2":5.9,"co":118.0,"o3":41.0,"so2":1.8,"mosquito_risk":3,"arthritis_risk":5,"migraine_risk":7,"frizz_risk":1,"updated_at":"2026-06-05T05:41:55.993604+05:30"},{"city":"Goa","state":"Goa","latitude":15.2993,"longitude":74.124,"temp":25.0,"humidity":96,"rain":0.0,"pressure":995.7,"uv_index":8.45,"wind_gusts":25.9,"aqi":30,"pm10":14.0,"pm2_5":9.0,"no2":3.7,"co":195.0,"o3":47.0,"so2":0.8,"mosquito_risk":7,"arthritis_risk":5,"migraine_risk":7,"frizz_risk":1,"updated_at":"2026-06-05T05:41:55.993612+05:30"},{"city":"Jodhpur","state":"Rajasthan","latitude":26.2389,"longitude":73.0243,"temp":29.9,"humidity":65,"rain":0.0,"pressure":978.2,"uv_index":8.4,"wind_gusts":45.0,"aqi":137,"pm10":356.7,"pm2_5":83.6,"no2":2.0,"co":116.0,"o3":57.0,"so2":2.2,"mosquito_risk":7,"arthritis_risk":5,"migraine_risk":7,"frizz_risk":1,"updated_at":"2026-06-05T05:41:55.993619+05:30"},{"city":"Udaipur","state":"Rajasthan","latitude":24.5854,"longitude":73.7125,"temp":25.6,"humidity":84,"rain":0.0,"pressure":942.5,"uv_index":8.8,"wind_gusts":46.8,"aqi":79,"pm10":37.5,"pm2_5":24.1,"no2":7.4,"co":152.0,"o3":45.0,"so2":7.9,"mosquito_risk":7,"arthritis_risk":5,"migraine_risk":7,"frizz_risk":1,"updated_at":"2026-06-05T05:41:55.993626+05:30"},{"city":"Kota","state":"Rajasthan","latitude":25.2138,"longitude":75.8648,"temp":28.8,"humidity":63,"rain":0.0,"pressure":974.1,"uv_index":8.35,"wind_gusts":48.2,"aqi":88,"pm10":40.0,"pm2_5":26.0,"no2":5.3,"co":171.0,"o3":74.0,"so2":6.7,"mosquito_risk":7,"arthritis_risk":5,"migraine_risk":7,"frizz_risk":1,"updated_at":"2026-06-05T05:41:55.993634+05:30"},{"city":"Bikaner","state":"Rajasthan","latitude":28.0229,"longitude":73.3119,"temp":29.8,"humidity":55,"rain":0.0,"pressure":974.2,"uv_index":8.45,"wind_gusts":40.7,"aqi":151,"pm10":175.1,"pm2_5":62.4,"no2":2.8,"co":143.0,"o3":57.0,"so2":3.9,"mosquito_risk":4,"arthritis_risk":5,"migraine_risk":7,"frizz_risk":1,"updated_at":"2026-06-05T05:41:55.993641+05:30"},{"city":"Ajmer","state":"Rajasthan","latitude":26.4499,"longitude":74.6399,"temp":26.2,"humidity":66,"rain":0.0,"pressure":949.5,"uv_index":8.35,"wind_gusts":43.6,"aqi":76,"pm10":32.2,"pm2_5":20.2,"no2":4.8,"co":131.0,"o3":68.0,"so2":4.5,"mosquito_risk":7,"arthritis_risk":5,"migraine_risk":7,"frizz_risk":1,"updated_at":"2026-06-05T05:41:55.993648+05:30"},{"city":"Gwalior","state":"Madhya Pradesh","latitude":26.2183,"longitude":78.1828,"temp":28.0,"humidity":60,"rain":0.0,"pressure":977.5,"uv_index":8.3,"wind_gusts":55.1,"aqi":82,"pm10":58.8,"pm2_5":24.6,"no2":6.6,"co":150.0,"o3":63.0,"so2":2.6,"mosquito_risk":4,"arthritis_risk":5,"migraine_risk":7,"frizz_risk":1,"updated_at":"2026-06-05T05:41:55.993655+05:30"},{"city":"Indore","state":"Madhya Pradesh","latitude":22.7196,"longitude":75.8577,"temp":26.2,"humidity":74,"rain":0.0,"pressure":944.7,"uv_index":8.65,"wind_gusts":43.6,"aqi":94,"pm10":49.7,"pm2_5":28.2,"no2":6.5,"co":202.0,"o3":60.0,"so2":10.6,"mosquito_risk":7,"arthritis_risk":5,"migraine_risk":7,"frizz_risk":1,"updated_at":"2026-06-05T05:41:55.993662+05:30"},{"city":"Bhopal","state":"Madhya Pradesh","latitude":23.2599,"longitude":77.4126,"temp":27.0,"humidity":67,"rain":0.0,"pressure":949.4,"uv_index":8.7,"wind_gusts":47.9,"aqi":88,"pm10":48.5,"pm2_5":30.7,"no2":7.1,"co":236.0,"o3":63.0,"so2":4.2,"mosquito_risk":7,"arthritis_risk":5,"migraine_risk":7,"frizz_risk":1,"updated_at":"2026-06-05T05:41:55.993668+05:30"},{"city":"Jabalpur","state":"Madhya Pradesh","latitude":23.1815,"longitude":79.9864,"temp":28.2,"humidity":56,"rain":0.0,"pressure":957.0,"uv_index":8.85,"wind_gusts":70.6,"aqi":91,"pm10":38.9,"pm2_5":25.3,"no2":7.7,"co":204.0,"o3":72.0,"so2":4.1,"mosquito_risk":4,"arthritis_risk":5,"migraine_risk":7,"frizz_risk":1,"updated_at":"2026-06-05T05:41:55.993674+05:30"},{"city":"Ujjain","state":"Madhya Pradesh","latitude":23.1765,"longitude":75.7885,"temp":26.1,"humidity":78,"rain":0.0,"pressure":950.2,"uv_index":8.55,"wind_gusts":45.0,"aqi":90,"pm10":45.4,"pm2_5":25.8,"no2":6.6,"co":231.0,"o3":51.0,"so2":9.9,"mosquito_risk":7,"arthritis_risk":5,"migraine_risk":7,"frizz_risk":1,"updated_at":"2026-06-05T05:41:55.993681+05:30"},{"city":"Visakhapatnam","state":"Andhra Pradesh","latitude":17.6868,"longitude":83.2185,"temp":29.7,"humidity":68,"rain":0.0,"pressure":998.3,"uv_index":9.05,"wind_gusts":38.9,"aqi":95,"pm10":26.7,"pm2_5":24.7,"no2":24.0,"co":431.0,"o3":56.0,"so2":36.9,"mosquito_risk":7,"arthritis_risk":5,"migraine_risk":7,"frizz_risk":1,"updated_at":"2026-06-05T05:41:55.993688+05:30"},{"city":"Vijayawada","state":"Andhra Pradesh","latitude":16.5062,"longitude":80.648,"temp":27.8,"humidity":86,"rain":0.0,"pressure":998.3,"uv_index":8.6,"wind_gusts":61.6,"aqi":71,"pm10":19.4,"pm2_5":17.8,"no2":10.9,"co":245.0,"o3":71.0,"so2":4.5,"mosquito_risk":7,"arthritis_risk":5,"migraine_risk":7,"frizz_risk":1,"updated_at":"2026-06-05T05:41:55.993694+05:30"},{"city":"Guntur","state":"Andhra Pradesh","latitude":16.3067,"longitude":80.4365,"temp":27.5,"humidity":80,"rain":0.0,"pressure":999.6,"uv_index":9.05,"wind_gusts":54.4,"aqi":66,"pm10":16.6,"pm2_5":15.1,"no2":10.1,"co":218.0,"o3":75.0,"so2":5.0,"mosquito_risk":7,"arthritis_risk":5,"migraine_risk":7,"frizz_risk":1,"updated_at":"2026-06-05T05:41:55.993700+05:30"},{"city":"Nellore","state":"Andhra Pradesh","latitude":14.4426,"longitude":79.9865,"temp":27.5,"humidity":81,"rain":0.0,"pressure":1001.9,"uv_index":8.7,"wind_gusts":40.7,"aqi":51,"pm10":14.7,"pm2_5":12.6,"no2":12.2,"co":160.0,"o3":46.0,"so2":5.1,"mosquito_risk":7,"arthritis_risk":5,"migraine_risk":4,"frizz_risk":1,"updated_at":"2026-06-05T05:41:55.993708+05:30"},{"city":"Kurnool","state":"Andhra Pradesh","latitude":15.8281,"longitude":78.0373,"temp":27.7,"humidity":68,"rain":0.0,"pressure":974.6,"uv_index":8.4,"wind_gusts":41.8,"aqi":44,"pm10":7.4,"pm2_5":6.0,"no2":10.3,"co":145.0,"o3":33.0,"so2":5.1,"mosquito_risk":7,"arthritis_risk":5,"migraine_risk":7,"frizz_risk":1,"updated_at":"2026-06-05T05:41:55.993715+05:30"},{"city":"Kakinada","state":"Andhra Pradesh","latitude":16.9891,"longitude":82.2475,"temp":29.3,"humidity":81,"rain":0.0,"pressure":1002.6,"uv_index":9.05,"wind_gusts":52.9,"aqi":70,"pm10":13.0,"pm2_5":10.9,"no2":6.1,"co":222.0,"o3":98.0,"so2":5.5,"mosquito_risk":7,"arthritis_risk":5,"migraine_risk":4,"frizz_risk":1,"updated_at":"2026-06-05T05:41:55.993722+05:30"},{"city":"Tirupati","state":"Andhra Pradesh","latitude":13.6288,"longitude":79.4192,"temp":27.5,"humidity":68,"rain":0.0,"pressure":987.8,"uv_index":8.55,"wind_gusts":39.6,"aqi":52,"pm10":14.3,"pm2_5":11.4,"no2":14.1,"co":139.0,"o3":32.0,"so2":3.3,"mosquito_risk":7,"arthritis_risk":5,"migraine_risk":7,"frizz_risk":1,"updated_at":"2026-06-05T05:41:55.993728+05:30"},{"city":"Warangal","state":"Telangana","latitude":17.9689,"longitude":79.5941,"temp":27.5,"humidity":74,"rain":0.0,"pressure":974.7,"uv_index":8.5,"wind_gusts":39.2,"aqi":75,"pm10":28.1,"pm2_5":23.7,"no2":16.9,"co":213.0,"o3":50.0,"so2":5.5,"mosquito_risk":7,"arthritis_risk":5,"migraine_risk":7,"frizz_risk":1,"updated_at":"2026-06-05T05:41:55.993734+05:30"},{"city":"Nizamabad","state":"Telangana","latitude":18.6725,"longitude":78.0941,"temp":28.5,"humidity":61,"rain":0.0,"pressure":960.9,"uv_index":8.75,"wind_gusts":39.2,"aqi":81,"pm10":25.1,"pm2_5":18.1,"no2":8.4,"co":199.0,"o3":67.0,"so2":3.4,"mosquito_risk":7,"arthritis_risk":5,"migraine_risk":7,"frizz_risk":1,"updated_at":"2026-06-05T05:41:55.993741+05:30"},{"city":"Mysore","state":"Karnataka","latitude":12.2958,"longitude":76.6396,"temp":21.5,"humidity":93,"rain":0.0,"pressure":926.8,"uv_index":7.55,"wind_gusts":57.6,"aqi":20,"pm10":2.7,"pm2_5":2.6,"no2":5.5,"co":124.0,"o3":37.0,"so2":2.0,"mosquito_risk":3,"arthritis_risk":5,"migraine_risk":7,"frizz_risk":1,"updated_at":"2026-06-05T05:41:55.993747+05:30"},{"city":"Mangalore","state":"Karnataka","latitude":12.9141,"longitude":74.856,"temp":25.0,"humidity":95,"rain":0.6,"pressure":1005.6,"uv_index":3.55,"wind_gusts":32.0,"aqi":28,"pm10":11.4,"pm2_5":6.1,"no2":2.3,"co":134.0,"o3":44.0,"so2":1.1,"mosquito_risk":10,"arthritis_risk":5,"migraine_risk":0,"frizz_risk":1,"updated_at":"2026-06-05T05:41:55.993754+05:30"},{"city":"Hubli-Dharwad","state":"Karnataka","latitude":15.3647,"longitude":75.124,"temp":23.2,"humidity":92,"rain":0.0,"pressure":938.4,"uv_index":6.0,"wind_gusts":41.0,"aqi":20,"pm10":2.8,"pm2_5":2.0,"no2":2.9,"co":108.0,"o3":46.0,"so2":1.0,"mosquito_risk":3,"arthritis_risk":5,"migraine_risk":3,"frizz_risk":1,"updated_at":"2026-06-05T05:41:55.993760+05:30"},{"city":"Belgaum","state":"Karnataka","latitude":15.8497,"longitude":74.4977,"temp":22.9,"humidity":89,"rain":0.0,"pressure":922.9,"uv_index":8.25,"wind_gusts":44.3,"aqi":24,"pm10":4.6,"pm2_5":3.1,"no2":2.9,"co":112.0,"o3":51.0,"so2":1.5,"mosquito_risk":3,"arthritis_risk":5,"migraine_risk":7,"frizz_risk":1,"updated_at":"2026-06-05T05:41:59.535210+05:30"},{"city":"Coimbatore","state":"Tamil Nadu","latitude":11.0168,"longitude":76.9558,"temp":22.9,"humidity":96,"rain":0.1,"pressure":960.0,"uv_index":4.3,"wind_gusts":65.2,"aqi":18,"pm10":2.1,"pm2_5":1.9,"no2":4.6,"co":127.0,"o3":38.0,"so2":2.2,"mosquito_risk":6,"arthritis_risk":5,"migraine_risk":3,"frizz_risk":1,"updated_at":"2026-06-05T05:41:59.535243+05:30"},{"city":"Madurai","state":"Tamil Nadu","latitude":9.9252,"longitude":78.1198,"temp":27.6,"humidity":70,"rain":0.0,"pressure":991.0,"uv_index":7.9,"wind_gusts":55.1,"aqi":32,"pm10":11.4,"pm2_5":11.0,"no2":21.8,"co":229.0,"o3":6.0,"so2":4.7,"mosquito_risk":7,"arthritis_risk":5,"migraine_risk":7,"frizz_risk":1,"updated_at":"2026-06-05T05:41:59.535254+05:30"},{"city":"Trichy","state":"Tamil Nadu","latitude":10.7905,"longitude":78.7047,"temp":28.3,"humidity":67,"rain":0.0,"pressure":997.6,"uv_index":8.05,"wind_gusts":58.3,"aqi":29,"pm10":4.0,"pm2_5":3.4,"no2":6.5,"co":119.0,"o3":35.0,"so2":2.9,"mosquito_risk":7,"arthritis_risk":5,"migraine_risk":7,"frizz_risk":1,"updated_at":"2026-06-05T05:41:59.535262+05:30"},{"city":"Salem","state":"Tamil Nadu","latitude":11.6643,"longitude":78.146,"temp":25.8,"humidity":80,"rain":0.0,"pressure":975.8,"uv_index":7.1,"wind_gusts":41.8,"aqi":44,"pm10":11.3,"pm2_5":10.3,"no2":18.1,"co":191.0,"o3":21.0,"so2":6.5,"mosquito_risk":7,"arthritis_risk":5,"migraine_risk":7,"frizz_risk":1,"updated_at":"2026-06-05T05:41:59.535270+05:30"},{"city":"Tirunelveli","state":"Tamil Nadu","latitude":8.7139,"longitude":77.7567,"temp":27.0,"humidity":78,"rain":0.0,"pressure":1002.3,"uv_index":8.1,"wind_gusts":47.2,"aqi":16,"pm10":3.6,"pm2_5":3.0,"no2":5.5,"co":154.0,"o3":34.0,"so2":1.6,"mosquito_risk":7,"arthritis_risk":5,"migraine_risk":4,"frizz_risk":1,"updated_at":"2026-06-05T05:41:59.535278+05:30"},{"city":"Vellore","state":"Tamil Nadu","latitude":12.9165,"longitude":79.1325,"temp":27.4,"humidity":65,"rain":0.0,"pressure":981.4,"uv_index":8.85,"wind_gusts":46.8,"aqi":48,"pm10":8.5,"pm2_5":6.3,"no2":8.7,"co":142.0,"o3":34.0,"so2":4.0,"mosquito_risk":7,"arthritis_risk":5,"migraine_risk":7,"frizz_risk":1,"updated_at":"2026-06-05T05:41:59.535286+05:30"},{"city":"Erode","state":"Tamil Nadu","latitude":11.341,"longitude":77.7172,"temp":25.6,"humidity":81,"rain":0.0,"pressure":987.4,"uv_index":7.3,"wind_gusts":46.4,"aqi":27,"pm10":5.4,"pm2_5":5.0,"no2":9.7,"co":127.0,"o3":32.0,"so2":2.9,"mosquito_risk":7,"arthritis_risk":5,"migraine_risk":7,"frizz_risk":1,"updated_at":"2026-06-05T05:41:59.535294+05:30"},{"city":"Kochi","state":"Kerala","latitude":9.9312,"longitude":76.2673,"temp":26.0,"humidity":91,"rain":0.1,"pressure":1008.9,"uv_index":3.95,"wind_gusts":41.0,"aqi":34,"pm10":9.8,"pm2_5":6.9,"no2":8.6,"co":97.0,"o3":27.0,"so2":2.5,"mosquito_risk":10,"arthritis_risk":0,"migraine_risk":0,"frizz_risk":1,"updated_at":"2026-06-05T05:41:59.535302+05:30"},{"city":"Thiruvananthapuram","state":"Kerala","latitude":8.5241,"longitude":76.9366,"temp":24.9,"humidity":96,"rain":0.1,"pressure":1008.1,"uv_index":3.75,"wind_gusts":47.9,"aqi":24,"pm10":12.4,"pm2_5":6.0,"no2":1.6,"co":92.0,"o3":45.0,"so2":0.5,"mosquito_risk":6,"arthritis_risk":0,"migraine_risk":0,"frizz_risk":1,"updated_at":"2026-06-05T05:41:59.535308+05:30"},{"city":"Kozhikode","state":"Kerala","latitude":11.2588,"longitude":75.7804,"temp":24.6,"humidity":98,"rain":0.5,"pressure":1007.6,"uv_index":7.65,"wind_gusts":26.3,"aqi":25,"pm10":13.1,"pm2_5":5.2,"no2":0.6,"co":132.0,"o3":54.0,"so2":0.3,"mosquito_risk":6,"arthritis_risk":5,"migraine_risk":4,"frizz_risk":1,"updated_at":"2026-06-05T05:41:59.535315+05:30"},{"city":"Thrissur","state":"Kerala","latitude":10.5276,"longitude":76.2144,"temp":23.9,"humidity":99,"rain":0.2,"pressure":1007.2,"uv_index":7.35,"wind_gusts":31.7,"aqi":33,"pm10":9.2,"pm2_5":6.7,"no2":6.8,"co":171.0,"o3":34.0,"so2":2.4,"mosquito_risk":6,"arthritis_risk":5,"migraine_risk":4,"frizz_risk":1,"updated_at":"2026-06-05T05:41:59.535323+05:30"},{"city":"Kannur","state":"Kerala","latitude":11.8745,"longitude":75.3704,"temp":25.5,"humidity":95,"rain":0.5,"pressure":1006.5,"uv_index":6.25,"wind_gusts":36.7,"aqi":25,"pm10":11.6,"pm2_5":5.4,"no2":1.6,"co":157.0,"o3":48.0,"so2":0.7,"mosquito_risk":10,"arthritis_risk":5,"migraine_risk":4,"frizz_risk":1,"updated_at":"2026-06-05T05:41:59.535330+05:30"},{"city":"Patna","state":"Bihar","latitude":25.5941,"longitude":85.1376,"temp":26.4,"humidity":90,"rain":0.2,"pressure":995.5,"uv_index":8.9,"wind_gusts":31.7,"aqi":161,"pm10":90.6,"pm2_5":81.0,"no2":22.9,"co":431.0,"o3":63.0,"so2":13.4,"mosquito_risk":10,"arthritis_risk":5,"migraine_risk":7,"frizz_risk":1,"updated_at":"2026-06-05T05:41:59.535337+05:30"},{"city":"Gaya","state":"Bihar","latitude":24.7914,"longitude":85.0002,"temp":25.9,"humidity":87,"rain":0.0,"pressure":989.0,"uv_index":8.95,"wind_gusts":46.4,"aqi":162,"pm10":130.4,"pm2_5":105.9,"no2":27.4,"co":329.0,"o3":69.0,"so2":13.5,"mosquito_risk":7,"arthritis_risk":5,"migraine_risk":7,"frizz_risk":1,"updated_at":"2026-06-05T05:41:59.535343+05:30"},{"city":"Muzaffarpur","state":"Bihar","latitude":26.1209,"longitude":85.3647,"temp":27.0,"humidity":82,"rain":0.0,"pressure":995.9,"uv_index":8.85,"wind_gusts":31.3,"aqi":158,"pm10":72.9,"pm2_5":68.0,"no2":16.2,"co":799.0,"o3":83.0,"so2":13.3,"mosquito_risk":7,"arthritis_risk":5,"migraine_risk":7,"frizz_risk":1,"updated_at":"2026-06-05T05:41:59.535349+05:30"},{"city":"Bhagalpur","state":"Bihar","latitude":25.2425,"longitude":87.0117,"temp":28.8,"humidity":80,"rain":0.0,"pressure":996.4,"uv_index":7.7,"wind_gusts":24.5,"aqi":157,"pm10":72.4,"pm2_5":70.3,"no2":12.9,"co":389.0,"o3":82.0,"so2":9.5,"mosquito_risk":7,"arthritis_risk":5,"migraine_risk":7,"frizz_risk":1,"updated_at":"2026-06-05T05:41:59.535355+05:30"},{"city":"Ranchi","state":"Jharkhand","latitude":23.3441,"longitude":85.3096,"temp":25.0,"humidity":70,"rain":0.0,"pressure":933.4,"uv_index":9.05,"wind_gusts":36.4,"aqi":109,"pm10":41.8,"pm2_5":36.7,"no2":11.5,"co":412.0,"o3":79.0,"so2":12.2,"mosquito_risk":7,"arthritis_risk":5,"migraine_risk":7,"frizz_risk":1,"updated_at":"2026-06-05T05:41:59.535362+05:30"},{"city":"Jamshedpur","state":"Jharkhand","latitude":22.8046,"longitude":86.2029,"temp":28.1,"humidity":73,"rain":0.0,"pressure":985.7,"uv_index":9.05,"wind_gusts":32.0,"aqi":151,"pm10":48.9,"pm2_5":43.9,"no2":22.0,"co":442.0,"o3":68.0,"so2":30.2,"mosquito_risk":7,"arthritis_risk":5,"migraine_risk":7,"frizz_risk":1,"updated_at":"2026-06-05T05:41:59.535368+05:30"},{"city":"Dhanbad","state":"Jharkhand","latitude":23.7957,"longitude":86.4304,"temp":29.7,"humidity":66,"rain":0.0,"pressure":974.6,"uv_index":9.05,"wind_gusts":27.7,"aqi":161,"pm10":99.7,"pm2_5":92.4,"no2":60.2,"co":525.0,"o3":31.0,"so2":128.5,"mosquito_risk":7,"arthritis_risk":5,"migraine_risk":7,"frizz_risk":1,"updated_at":"2026-06-05T05:41:59.535375+05:30"},{"city":"Bokaro","state":"Jharkhand","latitude":23.6693,"longitude":86.1511,"temp":28.3,"humidity":72,"rain":0.0,"pressure":978.4,"uv_index":9.05,"wind_gusts":25.9,"aqi":158,"pm10":96.2,"pm2_5":88.2,"no2":50.2,"co":1449.0,"o3":21.0,"so2":87.4,"mosquito_risk":7,"arthritis_risk":5,"migraine_risk":7,"frizz_risk":1,"updated_at":"2026-06-05T05:41:59.535382+05:30"},{"city":"Bhubaneswar","state":"Odisha","latitude":20.2961,"longitude":85.8245,"temp":29.1,"humidity":93,"rain":0.0,"pressure":996.8,"uv_index":9.05,"wind_gusts":24.1,"aqi":107,"pm10":55.1,"pm2_5":50.3,"no2":20.9,"co":373.0,"o3":43.0,"so2":6.7,"mosquito_risk":7,"arthritis_risk":5,"migraine_risk":7,"frizz_risk":1,"updated_at":"2026-06-05T05:41:59.535388+05:30"},{"city":"Cuttack","state":"Odisha","latitude":20.4625,"longitude":85.8828,"temp":29.3,"humidity":87,"rain":0.0,"pressure":998.7,"uv_index":9.1,"wind_gusts":27.0,"aqi":107,"pm10":55.1,"pm2_5":50.3,"no2":20.9,"co":447.0,"o3":43.0,"so2":6.7,"mosquito_risk":7,"arthritis_risk":5,"migraine_risk":7,"frizz_risk":1,"updated_at":"2026-06-05T05:41:59.535395+05:30"},{"city":"Rourkela","state":"Odisha","latitude":22.2604,"longitude":84.8536,"temp":27.6,"humidity":88,"rain":0.0,"pressure":980.0,"uv_index":8.75,"wind_gusts":29.5,"aqi":126,"pm10":45.8,"pm2_5":42.1,"no2":24.6,"co":462.0,"o3":53.0,"so2":5.8,"mosquito_risk":7,"arthritis_risk":5,"migraine_risk":7,"frizz_risk":1,"updated_at":"2026-06-05T05:41:59.535401+05:30"},{"city":"Raipur","state":"Chhattisgarh","latitude":21.2514,"longitude":81.6296,"temp":31.0,"humidity":49,"rain":0.0,"pressure":969.6,"uv_index":9.0,"wind_gusts":32.0,"aqi":107,"pm10":48.8,"pm2_5":39.6,"no2":27.0,"co":489.0,"o3":67.0,"so2":46.3,"mosquito_risk":0,"arthritis_risk":5,"migraine_risk":7,"frizz_risk":1,"updated_at":"2026-06-05T05:41:59.535408+05:30"},{"city":"Bhilai","state":"Chhattisgarh","latitude":21.1938,"longitude":81.3509,"temp":30.0,"humidity":54,"rain":0.0,"pressure":969.9,"uv_index":9.0,"wind_gusts":33.1,"aqi":101,"pm10":46.8,"pm2_5":38.4,"no2":23.6,"co":648.0,"o3":62.0,"so2":40.4,"mosquito_risk":4,"arthritis_risk":5,"migraine_risk":7,"frizz_risk":1,"updated_at":"2026-06-05T05:41:59.535413+05:30"},{"city":"Guwahati","state":"Assam","latitude":26.1158,"longitude":91.7086,"temp":24.2,"humidity":97,"rain":0.0,"pressure":998.9,"uv_index":8.8,"wind_gusts":25.6,"aqi":111,"pm10":27.1,"pm2_5":25.6,"no2":9.1,"co":458.0,"o3":53.0,"so2":3.5,"mosquito_risk":3,"arthritis_risk":5,"migraine_risk":7,"frizz_risk":1,"updated_at":"2026-06-05T05:41:59.535419+05:30"},{"city":"Agartala","state":"Tripura","latitude":23.8315,"longitude":91.2868,"temp":26.9,"humidity":96,"rain":0.0,"pressure":1002.1,"uv_index":8.9,"wind_gusts":42.8,"aqi":120,"pm10":32.5,"pm2_5":29.7,"no2":14.8,"co":227.0,"o3":48.0,"so2":2.7,"mosquito_risk":7,"arthritis_risk":5,"migraine_risk":4,"frizz_risk":1,"updated_at":"2026-06-05T05:41:59.535426+05:30"},{"city":"Shillong","state":"Meghalaya","latitude":25.5788,"longitude":91.8933,"temp":19.1,"humidity":91,"rain":0.0,"pressure":854.3,"uv_index":8.9,"wind_gusts":20.9,"aqi":65,"pm10":20.7,"pm2_5":17.7,"no2":6.6,"co":311.0,"o3":75.0,"so2":3.3,"mosquito_risk":3,"arthritis_risk":10,"migraine_risk":7,"frizz_risk":1,"updated_at":"2026-06-05T05:41:59.535432+05:30"},{"city":"Imphal","state":"Manipur","latitude":24.817,"longitude":93.9368,"temp":22.3,"humidity":91,"rain":0.0,"pressure":920.5,"uv_index":9.3,"wind_gusts":27.7,"aqi":100,"pm10":57.4,"pm2_5":55.1,"no2":14.9,"co":525.0,"o3":26.0,"so2":2.2,"mosquito_risk":3,"arthritis_risk":5,"migraine_risk":7,"frizz_risk":1,"updated_at":"2026-06-05T05:41:59.535438+05:30"},{"city":"Aizawl","state":"Mizoram","latitude":23.7271,"longitude":92.7176,"temp":20.1,"humidity":96,"rain":0.0,"pressure":889.2,"uv_index":8.5,"wind_gusts":28.4,"aqi":89,"pm10":33.5,"pm2_5":30.2,"no2":10.2,"co":282.0,"o3":23.0,"so2":1.3,"mosquito_risk":3,"arthritis_risk":5,"migraine_risk":7,"frizz_risk":1,"updated_at":"2026-06-05T05:41:59.535462+05:30"},{"city":"Kohima","state":"Nagaland","latitude":25.6701,"longitude":94.1077,"temp":18.4,"humidity":95,"rain":0.0,"pressure":852.8,"uv_index":9.05,"wind_gusts":29.9,"aqi":64,"pm10":15.9,"pm2_5":14.2,"no2":6.2,"co":315.0,"o3":42.0,"so2":1.0,"mosquito_risk":3,"arthritis_risk":10,"migraine_risk":7,"frizz_risk":1,"updated_at":"2026-06-05T05:41:59.535469+05:30"},{"city":"Gangtok","state":"Sikkim","latitude":27.3314,"longitude":88.6138,"temp":17.0,"humidity":89,"rain":0.0,"pressure":834.5,"uv_index":9.25,"wind_gusts":39.2,"aqi":78,"pm10":24.3,"pm2_5":20.8,"no2":10.0,"co":505.0,"o3":104.0,"so2":2.3,"mosquito_risk":3,"arthritis_risk":10,"migraine_risk":7,"frizz_risk":0,"updated_at":"2026-06-05T05:41:59.535477+05:30"},{"city":"Siliguri","state":"West Bengal","latitude":26.7271,"longitude":88.3953,"temp":23.0,"humidity":96,"rain":0.1,"pressure":989.2,"uv_index":8.8,"wind_gusts":29.9,"aqi":148,"pm10":43.9,"pm2_5":38.1,"no2":8.9,"co":414.0,"o3":111.0,"so2":4.2,"mosquito_risk":6,"arthritis_risk":5,"migraine_risk":7,"frizz_risk":1,"updated_at":"2026-06-05T05:42:02.836249+05:30"},{"city":"Durgapur","state":"West Bengal","latitude":23.5204,"longitude":87.3119,"temp":27.8,"humidity":97,"rain":0.0,"pressure":990.0,"uv_index":8.95,"wind_gusts":42.8,"aqi":165,"pm10":75.0,"pm2_5":71.9,"no2":36.1,"co":713.0,"o3":31.0,"so2":43.2,"mosquito_risk":7,"arthritis_risk":5,"migraine_risk":7,"frizz_risk":1,"updated_at":"2026-06-05T05:42:02.836284+05:30"},{"city":"Asansol","state":"West Bengal","latitude":23.6739,"longitude":86.9524,"temp":28.0,"humidity":91,"rain":0.0,"pressure":988.3,"uv_index":9.0,"wind_gusts":29.9,"aqi":160,"pm10":85.0,"pm2_5":79.4,"no2":45.7,"co":846.0,"o3":36.0,"so2":61.0,"mosquito_risk":7,"arthritis_risk":5,"migraine_risk":7,"frizz_risk":1,"updated_at":"2026-06-05T05:42:02.836295+05:30"},{"city":"Pondicherry","state":"Puducherry","latitude":11.9139,"longitude":79.8145,"temp":28.4,"humidity":69,"rain":0.0,"pressure":1005.2,"uv_index":8.85,"wind_gusts":40.7,"aqi":59,"pm10":14.5,"pm2_5":12.0,"no2":16.7,"co":280.0,"o3":26.0,"so2":8.6,"mosquito_risk":7,"arthritis_risk":5,"migraine_risk":4,"frizz_risk":1,"updated_at":"2026-06-05T05:42:02.836304+05:30"},{"city":"Port Blair","state":"Andaman and Nicobar Islands","latitude":11.6234,"longitude":92.7265,"temp":25.4,"humidity":97,"rain":0.2,"pressure":1004.6,"uv_index":1.95,"wind_gusts":41.4,"aqi":31,"pm10":7.2,"pm2_5":4.7,"no2":0.3,"co":115.0,"o3":73.0,"so2":0.3,"mosquito_risk":10,"arthritis_risk":5,"migraine_risk":0,"frizz_risk":1,"updated_at":"2026-06-05T05:42:02.836313+05:30"},{"city":"Haridwar","state":"Uttarakhand","latitude":29.9457,"longitude":78.1642,"temp":25.2,"humidity":74,"rain":0.0,"pressure":968.3,"uv_index":6.4,"wind_gusts":31.3,"aqi":111,"pm10":63.8,"pm2_5":42.1,"no2":26.5,"co":292.0,"o3":42.0,"so2":4.8,"mosquito_risk":7,"arthritis_risk":5,"migraine_risk":7,"frizz_risk":1,"updated_at":"2026-06-05T05:42:02.836320+05:30"},{"city":"Rishikesh","state":"Uttarakhand","latitude":30.0869,"longitude":78.2676,"temp":23.0,"humidity":85,"rain":0.0,"pressure":961.2,"uv_index":6.45,"wind_gusts":29.2,"aqi":89,"pm10":44.9,"pm2_5":27.5,"no2":12.6,"co":297.0,"o3":74.0,"so2":2.3,"mosquito_risk":3,"arthritis_risk":5,"migraine_risk":7,"frizz_risk":1,"updated_at":"2026-06-05T05:42:02.836328+05:30"},{"city":"Nainital","state":"Uttarakhand","latitude":29.3919,"longitude":79.4542,"temp":12.3,"humidity":99,"rain":0.0,"pressure":800.9,"uv_index":6.1,"wind_gusts":25.2,"aqi":89,"pm10":28.3,"pm2_5":24.4,"no2":14.1,"co":238.0,"o3":84.0,"so2":1.9,"mosquito_risk":3,"arthritis_risk":10,"migraine_risk":7,"frizz_risk":0,"updated_at":"2026-06-05T05:42:02.836336+05:30"},{"city":"Mussoorie","state":"Uttarakhand","latitude":30.4599,"longitude":78.0664,"temp":13.1,"humidity":87,"rain":0.0,"pressure":797.8,"uv_index":6.65,"wind_gusts":34.2,"aqi":82,"pm10":46.3,"pm2_5":25.8,"no2":17.2,"co":268.0,"o3":61.0,"so2":3.1,"mosquito_risk":3,"arthritis_risk":10,"migraine_risk":7,"frizz_risk":0,"updated_at":"2026-06-05T05:42:02.836343+05:30"},{"city":"Dharamshala","state":"Himachal Pradesh","latitude":32.219,"longitude":76.3234,"temp":18.6,"humidity":73,"rain":0.0,"pressure":864.9,"uv_index":8.5,"wind_gusts":46.1,"aqi":46,"pm10":5.1,"pm2_5":3.9,"no2":6.1,"co":365.0,"o3":102.0,"so2":0.1,"mosquito_risk":3,"arthritis_risk":5,"migraine_risk":7,"frizz_risk":0,"updated_at":"2026-06-05T05:42:02.836351+05:30"},{"city":"Dalhousie","state":"Himachal Pradesh","latitude":32.5387,"longitude":75.971,"temp":13.0,"humidity":91,"rain":0.1,"pressure":800.1,"uv_index":6.3,"wind_gusts":37.4,"aqi":70,"pm10":19.0,"pm2_5":15.1,"no2":15.4,"co":290.0,"o3":57.0,"so2":0.7,"mosquito_risk":6,"arthritis_risk":10,"migraine_risk":7,"frizz_risk":0,"updated_at":"2026-06-05T05:42:02.836358+05:30"},{"city":"Patiala","state":"Punjab","latitude":30.3398,"longitude":76.3869,"temp":25.7,"humidity":77,"rain":0.0,"pressure":973.0,"uv_index":7.65,"wind_gusts":33.1,"aqi":221,"pm10":335.3,"pm2_5":79.4,"no2":9.3,"co":686.0,"o3":84.0,"so2":7.9,"mosquito_risk":7,"arthritis_risk":5,"migraine_risk":7,"frizz_risk":1,"updated_at":"2026-06-05T05:42:02.836366+05:30"},{"city":"Bhatinda","state":"Punjab","latitude":30.211,"longitude":74.9455,"temp":27.1,"humidity":58,"rain":0.0,"pressure":977.4,"uv_index":8.3,"wind_gusts":31.3,"aqi":154,"pm10":737.6,"pm2_5":173.2,"no2":13.9,"co":556.0,"o3":86.0,"so2":8.3,"mosquito_risk":4,"arthritis_risk":5,"migraine_risk":7,"frizz_risk":1,"updated_at":"2026-06-05T05:42:02.836373+05:30"},{"city":"Rohtak","state":"Haryana","latitude":28.8955,"longitude":76.6066,"temp":26.4,"humidity":68,"rain":0.0,"pressure":976.2,"uv_index":7.8,"wind_gusts":28.1,"aqi":337,"pm10":326.9,"pm2_5":100.6,"no2":25.8,"co":654.0,"o3":51.0,"so2":15.0,"mosquito_risk":7,"arthritis_risk":5,"migraine_risk":7,"frizz_risk":1,"updated_at":"2026-06-05T05:42:02.836380+05:30"},{"city":"Panipat","state":"Haryana","latitude":29.3909,"longitude":76.9635,"temp":26.5,"humidity":68,"rain":0.0,"pressure":975.2,"uv_index":7.6,"wind_gusts":31.7,"aqi":462,"pm10":184.4,"pm2_5":78.7,"no2":23.7,"co":603.0,"o3":61.0,"so2":12.4,"mosquito_risk":7,"arthritis_risk":5,"migraine_risk":7,"frizz_risk":1,"updated_at":"2026-06-05T05:42:02.836386+05:30"},{"city":"Mathura","state":"Uttar Pradesh","latitude":27.4924,"longitude":77.6737,"temp":27.0,"humidity":65,"rain":0.0,"pressure":981.2,"uv_index":8.1,"wind_gusts":28.8,"aqi":352,"pm10":98.5,"pm2_5":42.1,"no2":18.7,"co":203.0,"o3":37.0,"so2":3.0,"mosquito_risk":7,"arthritis_risk":5,"migraine_risk":7,"frizz_risk":1,"updated_at":"2026-06-05T05:42:02.836392+05:30"},{"city":"Vrindavan","state":"Uttar Pradesh","latitude":27.5823,"longitude":77.7027,"temp":27.1,"humidity":64,"rain":0.0,"pressure":981.6,"uv_index":8.05,"wind_gusts":28.4,"aqi":352,"pm10":98.5,"pm2_5":42.1,"no2":18.7,"co":229.0,"o3":37.0,"so2":3.0,"mosquito_risk":7,"arthritis_risk":5,"migraine_risk":7,"frizz_risk":1,"updated_at":"2026-06-05T05:42:02.836399+05:30"},{"city":"Ayodhya","state":"Uttar Pradesh","latitude":26.7922,"longitude":82.1998,"temp":28.5,"humidity":76,"rain":0.0,"pressure":989.1,"uv_index":8.5,"wind_gusts":24.1,"aqi":154,"pm10":121.5,"pm2_5":84.3,"no2":55.3,"co":595.0,"o3":18.0,"so2":11.9,"mosquito_risk":7,"arthritis_risk":5,"migraine_risk":7,"frizz_risk":1,"updated_at":"2026-06-05T05:42:02.836406+05:30"},{"city":"Ratlam","state":"Madhya Pradesh","latitude":23.3315,"longitude":75.0367,"temp":25.9,"humidity":85,"rain":0.0,"pressure":951.4,"uv_index":8.45,"wind_gusts":44.6,"aqi":87,"pm10":44.1,"pm2_5":25.0,"no2":8.4,"co":175.0,"o3":40.0,"so2":11.9,"mosquito_risk":7,"arthritis_risk":5,"migraine_risk":7,"frizz_risk":1,"updated_at":"2026-06-05T05:42:02.836414+05:30"},{"city":"Sagar","state":"Madhya Pradesh","latitude":23.8388,"longitude":78.7378,"temp":26.4,"humidity":62,"rain":0.0,"pressure":945.6,"uv_index":8.75,"wind_gusts":44.3,"aqi":80,"pm10":48.1,"pm2_5":29.3,"no2":6.6,"co":184.0,"o3":70.0,"so2":5.0,"mosquito_risk":7,"arthritis_risk":5,"migraine_risk":7,"frizz_risk":1,"updated_at":"2026-06-05T05:42:02.836420+05:30"},{"city":"Satna","state":"Madhya Pradesh","latitude":24.6005,"longitude":80.8322,"temp":27.1,"humidity":64,"rain":0.0,"pressure":965.7,"uv_index":8.85,"wind_gusts":38.2,"aqi":88,"pm10":39.2,"pm2_5":25.1,"no2":17.4,"co":247.0,"o3":62.0,"so2":6.2,"mosquito_risk":7,"arthritis_risk":5,"migraine_risk":7,"frizz_risk":1,"updated_at":"2026-06-05T05:42:02.836428+05:30"},{"city":"Akola","state":"Maharashtra","latitude":20.7002,"longitude":77.0082,"temp":28.6,"humidity":63,"rain":0.0,"pressure":971.3,"uv_index":8.8,"wind_gusts":46.8,"aqi":87,"pm10":44.0,"pm2_5":29.0,"no2":11.7,"co":163.0,"o3":52.0,"so2":6.3,"mosquito_risk":7,"arthritis_risk":5,"migraine_risk":7,"frizz_risk":1,"updated_at":"2026-06-05T05:42:02.836461+05:30"},{"city":"Amravati","state":"Maharashtra","latitude":20.9374,"longitude":77.7796,"temp":29.0,"humidity":61,"rain":0.0,"pressure":963.3,"uv_index":8.85,"wind_gusts":67.7,"aqi":89,"pm10":48.8,"pm2_5":31.8,"no2":14.3,"co":197.0,"o3":47.0,"so2":5.0,"mosquito_risk":7,"arthritis_risk":5,"migraine_risk":7,"frizz_risk":1,"updated_at":"2026-06-05T05:42:02.836471+05:30"},{"city":"Latur","state":"Maharashtra","latitude":18.4088,"longitude":76.5604,"temp":26.4,"humidity":73,"rain":0.0,"pressure":937.0,"uv_index":8.9,"wind_gusts":52.2,"aqi":67,"pm10":19.6,"pm2_5":13.2,"no2":8.0,"co":197.0,"o3":46.0,"so2":4.5,"mosquito_risk":7,"arthritis_risk":5,"migraine_risk":7,"frizz_risk":1,"updated_at":"2026-06-05T05:42:02.836479+05:30"},{"city":"Nanded","state":"Maharashtra","latitude":19.1383,"longitude":77.3091,"temp":27.8,"humidity":71,"rain":0.0,"pressure":964.8,"uv_index":8.45,"wind_gusts":33.1,"aqi":85,"pm10":38.9,"pm2_5":25.3,"no2":9.7,"co":213.0,"o3":62.0,"so2":5.1,"mosquito_risk":7,"arthritis_risk":5,"migraine_risk":7,"frizz_risk":1,"updated_at":"2026-06-05T05:42:02.836486+05:30"},{"city":"Gulbarga","state":"Karnataka","latitude":17.3297,"longitude":76.8343,"temp":26.8,"humidity":75,"rain":0.0,"pressure":956.4,"uv_index":8.15,"wind_gusts":31.7,"aqi":55,"pm10":9.4,"pm2_5":7.7,"no2":11.5,"co":206.0,"o3":35.0,"so2":3.8,"mosquito_risk":7,"arthritis_risk":5,"migraine_risk":7,"frizz_risk":1,"updated_at":"2026-06-05T05:42:02.836493+05:30"},{"city":"Bidar","state":"Karnataka","latitude":17.9104,"longitude":77.5199,"temp":26.2,"humidity":72,"rain":0.0,"pressure":932.9,"uv_index":3.25,"wind_gusts":41.4,"aqi":68,"pm10":17.9,"pm2_5":12.9,"no2":8.5,"co":197.0,"o3":52.0,"so2":2.4,"mosquito_risk":7,"arthritis_risk":5,"migraine_risk":3,"frizz_risk":1,"updated_at":"2026-06-05T05:42:02.836500+05:30"},{"city":"Hospet","state":"Karnataka","latitude":15.2689,"longitude":76.3909,"temp":24.2,"humidity":87,"rain":0.0,"pressure":953.9,"uv_index":7.8,"wind_gusts":39.2,"aqi":29,"pm10":5.3,"pm2_5":4.0,"no2":5.2,"co":132.0,"o3":40.0,"so2":1.5,"mosquito_risk":3,"arthritis_risk":5,"migraine_risk":7,"frizz_risk":1,"updated_at":"2026-06-05T05:42:02.836507+05:30"},{"city":"Tirupur","state":"Tamil Nadu","latitude":11.1085,"longitude":77.3411,"temp":24.6,"humidity":86,"rain":0.0,"pressure":973.4,"uv_index":7.95,"wind_gusts":65.2,"aqi":31,"pm10":6.7,"pm2_5":6.2,"no2":11.7,"co":114.0,"o3":27.0,"so2":3.7,"mosquito_risk":3,"arthritis_risk":5,"migraine_risk":7,"frizz_risk":1,"updated_at":"2026-06-05T05:42:02.836514+05:30"},{"city":"Alappuzha","state":"Kerala","latitude":9.4981,"longitude":76.3388,"temp":26.2,"humidity":93,"rain":0.1,"pressure":1008.6,"uv_index":4.0,"wind_gusts":40.7,"aqi":28,"pm10":11.1,"pm2_5":6.0,"no2":3.7,"co":86.0,"o3":42.0,"so2":1.3,"mosquito_risk":10,"arthritis_risk":0,"migraine_risk":0,"frizz_risk":1,"updated_at":"2026-06-05T05:42:02.836521+05:30"},{"city":"Munnar","state":"Kerala","latitude":10.0889,"longitude":77.0595,"temp":16.8,"humidity":100,"rain":0.1,"pressure":855.6,"uv_index":7.35,"wind_gusts":56.5,"aqi":13,"pm10":1.3,"pm2_5":1.2,"no2":5.3,"co":95.0,"o3":27.0,"so2":1.5,"mosquito_risk":6,"arthritis_risk":10,"migraine_risk":7,"frizz_risk":1,"updated_at":"2026-06-05T05:42:02.836528+05:30"},{"city":"Silchar","state":"Assam","latitude":24.8333,"longitude":92.7789,"temp":25.5,"humidity":94,"rain":0.0,"pressure":1001.8,"uv_index":8.95,"wind_gusts":28.1,"aqi":122,"pm10":47.7,"pm2_5":44.9,"no2":18.9,"co":270.0,"o3":26.0,"so2":3.1,"mosquito_risk":7,"arthritis_risk":5,"migraine_risk":4,"frizz_risk":1,"updated_at":"2026-06-05T05:42:02.836535+05:30"},{"city":"Dibrugarh","state":"Assam","latitude":27.4728,"longitude":94.912,"temp":23.5,"humidity":96,"rain":0.1,"pressure":992.8,"uv_index":9.0,"wind_gusts":17.3,"aqi":124,"pm10":59.1,"pm2_5":58.0,"no2":33.5,"co":276.0,"o3":22.0,"so2":0.7,"mosquito_risk":6,"arthritis_risk":5,"migraine_risk":7,"frizz_risk":1,"updated_at":"2026-06-05T05:42:02.836542+05:30"}]