[{"city":"Delhi","state":"Delhi","latitude":28.6139,"longitude":77.209,"temp":24.5,"humidity":56,"rain":0.0,"pressure":986.5,"uv_index":5.95,"wind_gusts":26.6,"aqi":181,"pm10":181.6,"pm2_5":61.0,"mosquito_risk":0,"arthritis_risk":5,"migraine_risk":3,"frizz_risk":0,"updated_at":"2026-03-18T20:36:35.910127+05:30"},{"city":"Mumbai","state":"Maharashtra","latitude":19.076,"longitude":72.8777,"temp":27.5,"humidity":67,"rain":0.0,"pressure":1010.5,"uv_index":7.7,"wind_gusts":21.6,"aqi":83,"pm10":31.7,"pm2_5":14.1,"mosquito_risk":7,"arthritis_risk":0,"migraine_risk":4,"frizz_risk":1,"updated_at":"2026-03-18T20:36:35.910160+05:30"},{"city":"Bangalore","state":"Karnataka","latitude":12.9716,"longitude":77.5946,"temp":23.0,"humidity":65,"rain":0.0,"pressure":913.5,"uv_index":9.35,"wind_gusts":24.8,"aqi":85,"pm10":30.0,"pm2_5":27.7,"mosquito_risk":3,"arthritis_risk":5,"migraine_risk":7,"frizz_risk":1,"updated_at":"2026-03-18T20:36:35.910175+05:30"},{"city":"Hyderabad","state":"Telangana","latitude":17.385,"longitude":78.4867,"temp":25.6,"humidity":62,"rain":0.0,"pressure":955.8,"uv_index":7.45,"wind_gusts":22.0,"aqi":101,"pm10":44.8,"pm2_5":39.2,"mosquito_risk":7,"arthritis_risk":5,"migraine_risk":7,"frizz_risk":1,"updated_at":"2026-03-18T20:36:35.910185+05:30"},{"city":"Chennai","state":"Tamil Nadu","latitude":13.0827,"longitude":80.2707,"temp":27.1,"humidity":78,"rain":0.0,"pressure":1010.2,"uv_index":9.1,"wind_gusts":29.9,"aqi":36,"pm10":11.5,"pm2_5":8.3,"mosquito_risk":7,"arthritis_risk":0,"migraine_risk":4,"frizz_risk":1,"updated_at":"2026-03-18T20:36:35.910193+05:30"},{"city":"Kolkata","state":"West Bengal","latitude":22.5726,"longitude":88.3639,"temp":24.7,"humidity":82,"rain":0.0,"pressure":1011.4,"uv_index":7.85,"wind_gusts":33.8,"aqi":66,"pm10":25.3,"pm2_5":22.1,"mosquito_risk":3,"arthritis_risk":0,"migraine_risk":4,"frizz_risk":1,"updated_at":"2026-03-18T20:36:35.910201+05:30"},{"city":"Pune","state":"Maharashtra","latitude":18.5204,"longitude":73.8567,"temp":25.0,"humidity":68,"rain":0.0,"pressure":949.8,"uv_index":8.25,"wind_gusts":40.0,"aqi":137,"pm10":31.1,"pm2_5":24.0,"mosquito_risk":7,"arthritis_risk":5,"migraine_risk":7,"frizz_risk":1,"updated_at":"2026-03-18T20:36:35.910213+05:30"},{"city":"Ahmedabad","state":"Gujarat","latitude":23.0225,"longitude":72.5714,"temp":29.5,"humidity":26,"rain":0.0,"pressure":1003.6,"uv_index":7.6,"wind_gusts":24.1,"aqi":91,"pm10":54.6,"pm2_5":39.6,"mosquito_risk":4,"arthritis_risk":5,"migraine_risk":4,"frizz_risk":0,"updated_at":"2026-03-18T20:36:35.910220+05:30"},{"city":"Jaipur","state":"Rajasthan","latitude":26.9124,"longitude":75.7873,"temp":25.4,"humidity":47,"rain":0.0,"pressure":961.9,"uv_index":7.0,"wind_gusts":27.7,"aqi":170,"pm10":341.8,"pm2_5":53.1,"mosquito_risk":4,"arthritis_risk":5,"migraine_risk":7,"frizz_risk":0,"updated_at":"2026-03-18T20:36:35.910227+05:30"},{"city":"Lucknow","state":"Uttar Pradesh","latitude":26.8467,"longitude":80.9462,"temp":26.7,"humidity":38,"rain":0.0,"pressure":996.2,"uv_index":6.55,"wind_gusts":24.1,"aqi":90,"pm10":64.5,"pm2_5":31.1,"mosquito_risk":4,"arthritis_risk":5,"migraine_risk":7,"frizz_risk":0,"updated_at":"2026-03-18T20:36:35.910234+05:30"},{"city":"Kanpur","state":"Uttar Pradesh","latitude":26.4499,"longitude":80.3319,"temp":24.9,"humidity":50,"rain":0.0,"pressure":994.1,"uv_index":6.5,"wind_gusts":21.6,"aqi":100,"pm10":163.9,"pm2_5":40.7,"mosquito_risk":0,"arthritis_risk":5,"migraine_risk":7,"frizz_risk":0,"updated_at":"2026-03-18T20:36:35.910241+05:30"},{"city":"Chandigarh","state":"Chandigarh","latitude":30.7333,"longitude":76.7794,"temp":18.2,"humidity":72,"rain":0.0,"pressure":972.4,"uv_index":5.4,"wind_gusts":25.6,"aqi":85,"pm10":36.2,"pm2_5":19.0,"mosquito_risk":3,"arthritis_risk":5,"migraine_risk":3,"frizz_risk":0,"updated_at":"2026-03-18T20:36:35.910248+05:30"},{"city":"Srinagar","state":"Jammu and Kashmir","latitude":34.0837,"longitude":74.7973,"temp":6.5,"humidity":85,"rain":0.1,"pressure":842.0,"uv_index":3.85,"wind_gusts":19.8,"aqi":135,"pm10":54.2,"pm2_5":45.2,"mosquito_risk":6,"arthritis_risk":10,"migraine_risk":3,"frizz_risk":0,"updated_at":"2026-03-18T20:36:35.910255+05:30"},{"city":"Jammu","state":"Jammu and Kashmir","latitude":32.7266,"longitude":74.857,"temp":17.0,"humidity":84,"rain":0.0,"pressure":978.4,"uv_index":2.95,"wind_gusts":15.5,"aqi":87,"pm10":25.3,"pm2_5":15.7,"mosquito_risk":3,"arthritis_risk":10,"migraine_risk":3,"frizz_risk":0,"updated_at":"2026-03-18T20:36:35.910262+05:30"},{"city":"Amritsar","state":"Punjab","latitude":31.634,"longitude":74.8723,"temp":15.9,"humidity":85,"rain":0.0,"pressure":986.1,"uv_index":3.95,"wind_gusts":25.6,"aqi":124,"pm10":40.2,"pm2_5":21.1,"mosquito_risk":3,"arthritis_risk":10,"migraine_risk":3,"frizz_risk":0,"updated_at":"2026-03-18T20:36:35.910270+05:30"},{"city":"Ludhiana","state":"Punjab","latitude":30.901,"longitude":75.8573,"temp":17.9,"humidity":73,"rain":0.0,"pressure":982.9,"uv_index":5.35,"wind_gusts":37.8,"aqi":136,"pm10":33.6,"pm2_5":14.8,"mosquito_risk":3,"arthritis_risk":5,"migraine_risk":3,"frizz_risk":0,"updated_at":"2026-03-18T20:36:35.910276+05:30"},{"city":"Jalandhar","state":"Punjab","latitude":31.326,"longitude":75.5762,"temp":16.3,"humidity":83,"rain":0.0,"pressure":984.6,"uv_index":4.8,"wind_gusts":38.9,"aqi":127,"pm10":32.9,"pm2_5":14.6,"mosquito_risk":3,"arthritis_risk":10,"migraine_risk":3,"frizz_risk":0,"updated_at":"2026-03-18T20:36:35.910285+05:30"},{"city":"Dehradun","state":"Uttarakhand","latitude":30.6284,"longitude":78.0322,"temp":13.1,"humidity":47,"rain":0.0,"pressure":832.6,"uv_index":5.4,"wind_gusts":29.5,"aqi":59,"pm10":52.7,"pm2_5":18.3,"mosquito_risk":0,"arthritis_risk":5,"migraine_risk":3,"frizz_risk":0,"updated_at":"2026-03-18T20:36:35.910292+05:30"},{"city":"Shimla","state":"Himachal Pradesh","latitude":31.1048,"longitude":77.1734,"temp":9.7,"humidity":63,"rain":0.0,"pressure":785.0,"uv_index":4.9,"wind_gusts":45.0,"aqi":66,"pm10":41.2,"pm2_5":19.6,"mosquito_risk":3,"arthritis_risk":5,"migraine_risk":3,"frizz_risk":0,"updated_at":"2026-03-18T20:36:35.910298+05:30"},{"city":"Manali","state":"Himachal Pradesh","latitude":32.2396,"longitude":77.1887,"temp":8.8,"humidity":93,"rain":0.2,"pressure":819.0,"uv_index":6.1,"wind_gusts":24.5,"aqi":50,"pm10":22.3,"pm2_5":9.2,"mosquito_risk":6,"arthritis_risk":10,"migraine_risk":7,"frizz_risk":0,"updated_at":"2026-03-18T20:36:35.910305+05:30"},{"city":"Gurgaon","state":"Haryana","latitude":28.4595,"longitude":77.0266,"temp":22.6,"humidity":67,"rain":0.0,"pressure":984.8,"uv_index":6.3,"wind_gusts":24.8,"aqi":649,"pm10":648.2,"pm2_5":119.7,"mosquito_risk":3,"arthritis_risk":5,"migraine_risk":7,"frizz_risk":1,"updated_at":"2026-03-18T20:36:35.910311+05:30"},{"city":"Noida","state":"Uttar Pradesh","latitude":28.5355,"longitude":77.391,"temp":24.9,"humidity":56,"rain":0.0,"pressure":988.0,"uv_index":6.2,"wind_gusts":19.4,"aqi":649,"pm10":648.2,"pm2_5":119.7,"mosquito_risk":0,"arthritis_risk":5,"migraine_risk":7,"frizz_risk":0,"updated_at":"2026-03-18T20:36:35.910318+05:30"},{"city":"Ghaziabad","state":"Uttar Pradesh","latitude":28.6692,"longitude":77.4538,"temp":24.5,"humidity":56,"rain":0.0,"pressure":986.3,"uv_index":6.1,"wind_gusts":17.6,"aqi":154,"pm10":116.6,"pm2_5":66.8,"mosquito_risk":0,"arthritis_risk":5,"migraine_risk":7,"frizz_risk":0,"updated_at":"2026-03-18T20:36:35.910324+05:30"},{"city":"Faridabad","state":"Haryana","latitude":28.4089,"longitude":77.3178,"temp":24.2,"humidity":57,"rain":0.0,"pressure":987.1,"uv_index":6.25,"wind_gusts":20.9,"aqi":649,"pm10":648.2,"pm2_5":119.7,"mosquito_risk":0,"arthritis_risk":5,"migraine_risk":7,"frizz_risk":0,"updated_at":"2026-03-18T20:36:35.910331+05:30"},{"city":"Meerut","state":"Uttar Pradesh","latitude":28.9845,"longitude":77.7064,"temp":23.4,"humidity":49,"rain":0.0,"pressure":984.8,"uv_index":5.55,"wind_gusts":17.6,"aqi":154,"pm10":116.6,"pm2_5":66.8,"mosquito_risk":0,"arthritis_risk":5,"migraine_risk":3,"frizz_risk":0,"updated_at":"2026-03-18T20:36:35.910337+05:30"},{"city":"Agra","state":"Uttar Pradesh","latitude":27.1767,"longitude":78.0081,"temp":24.6,"humidity":53,"rain":0.0,"pressure":990.3,"uv_index":6.55,"wind_gusts":26.3,"aqi":388,"pm10":1158.6,"pm2_5":137.8,"mosquito_risk":0,"arthritis_risk":5,"migraine_risk":7,"frizz_risk":0,"updated_at":"2026-03-18T20:36:35.910343+05:30"},{"city":"Varanasi","state":"Uttar Pradesh","latitude":25.3176,"longitude":82.9739,"temp":26.2,"humidity":55,"rain":0.0,"pressure":999.6,"uv_index":6.7,"wind_gusts":17.6,"aqi":121,"pm10":50.2,"pm2_5":37.7,"mosquito_risk":4,"arthritis_risk":5,"migraine_risk":7,"frizz_risk":1,"updated_at":"2026-03-18T20:36:35.910352+05:30"},{"city":"Prayagraj","state":"Uttar Pradesh","latitude":25.4358,"longitude":81.8463,"temp":27.5,"humidity":51,"rain":0.0,"pressure":997.8,"uv_index":6.5,"wind_gusts":14.8,"aqi":111,"pm10":43.3,"pm2_5":27.5,"mosquito_risk":4,"arthritis_risk":5,"migraine_risk":7,"frizz_risk":1,"updated_at":"2026-03-18T20:36:35.910359+05:30"},{"city":"Gorakhpur","state":"Uttar Pradesh","latitude":26.7606,"longitude":83.3732,"temp":23.6,"humidity":64,"rain":0.0,"pressure":999.5,"uv_index":6.45,"wind_gusts":22.0,"aqi":107,"pm10":52.7,"pm2_5":31.4,"mosquito_risk":3,"arthritis_risk":5,"migraine_risk":7,"frizz_risk":1,"updated_at":"2026-03-18T20:36:35.910365+05:30"},{"city":"Bareilly","state":"Uttar Pradesh","latitude":28.367,"longitude":79.4304,"temp":23.7,"humidity":58,"rain":0.0,"pressure":989.7,"uv_index":6.4,"wind_gusts":13.0,"aqi":111,"pm10":65.0,"pm2_5":40.9,"mosquito_risk":0,"arthritis_risk":5,"migraine_risk":7,"frizz_risk":0,"updated_at":"2026-03-18T20:36:35.910372+05:30"},{"city":"Aligarh","state":"Uttar Pradesh","latitude":27.8974,"longitude":78.088,"temp":25.9,"humidity":49,"rain":0.0,"pressure":988.4,"uv_index":6.35,"wind_gusts":15.5,"aqi":153,"pm10":146.7,"pm2_5":65.0,"mosquito_risk":4,"arthritis_risk":5,"migraine_risk":7,"frizz_risk":0,"updated_at":"2026-03-18T20:36:35.910380+05:30"},{"city":"Moradabad","state":"Uttar Pradesh","latitude":28.8386,"longitude":78.7733,"temp":24.9,"humidity":47,"rain":0.0,"pressure":986.8,"uv_index":5.95,"wind_gusts":11.2,"aqi":150,"pm10":128.1,"pm2_5":73.3,"mosquito_risk":0,"arthritis_risk":5,"migraine_risk":3,"frizz_risk":0,"updated_at":"2026-03-18T20:36:35.910386+05:30"},{"city":"Saharanpur","state":"Uttar Pradesh","latitude":29.9637,"longitude":77.546,"temp":20.9,"humidity":50,"rain":0.0,"pressure":979.1,"uv_index":5.35,"wind_gusts":21.2,"aqi":121,"pm10":58.8,"pm2_5":38.6,"mosquito_risk":0,"arthritis_risk":5,"migraine_risk":3,"frizz_risk":0,"updated_at":"2026-03-18T20:36:35.910392+05:30"},{"city":"Jhansi","state":"Uttar Pradesh","latitude":25.4484,"longitude":78.5685,"temp":25.4,"humidity":50,"rain":0.0,"pressure":980.0,"uv_index":7.2,"wind_gusts":41.0,"aqi":105,"pm10":40.6,"pm2_5":18.0,"mosquito_risk":4,"arthritis_risk":5,"migraine_risk":7,"frizz_risk":0,"updated_at":"2026-03-18T20:36:39.165860+05:30"},{"city":"Surat","state":"Gujarat","latitude":21.1702,"longitude":72.8311,"temp":25.0,"humidity":79,"rain":0.0,"pressure":1008.8,"uv_index":7.4,"wind_gusts":27.4,"aqi":80,"pm10":38.1,"pm2_5":25.3,"mosquito_risk":7,"arthritis_risk":0,"migraine_risk":4,"frizz_risk":1,"updated_at":"2026-03-18T20:36:39.165893+05:30"},{"city":"Vadodara","state":"Gujarat","latitude":22.3072,"longitude":73.1812,"temp":26.6,"humidity":40,"rain":0.0,"pressure":1006.1,"uv_index":7.55,"wind_gusts":26.6,"aqi":112,"pm10":41.1,"pm2_5":33.1,"mosquito_risk":4,"arthritis_risk":5,"migraine_risk":4,"frizz_risk":0,"updated_at":"2026-03-18T20:36:39.165905+05:30"},{"city":"Rajkot","state":"Gujarat","latitude":22.3039,"longitude":70.8022,"temp":25.2,"humidity":75,"rain":0.0,"pressure":997.3,"uv_index":7.05,"wind_gusts":40.3,"aqi":61,"pm10":19.4,"pm2_5":12.4,"mosquito_risk":7,"arthritis_risk":5,"migraine_risk":7,"frizz_risk":1,"updated_at":"2026-03-18T20:36:39.165915+05:30"},{"city":"Thane","state":"Maharashtra","latitude":19.2183,"longitude":72.9781,"temp":26.2,"humidity":67,"rain":0.0,"pressure":1009.9,"uv_index":7.7,"wind_gusts":34.9,"aqi":83,"pm10":31.7,"pm2_5":14.1,"mosquito_risk":7,"arthritis_risk":0,"migraine_risk":4,"frizz_risk":1,"updated_at":"2026-03-18T20:36:39.165923+05:30"},{"city":"Nagpur","state":"Maharashtra","latitude":21.1458,"longitude":79.0882,"temp":25.1,"humidity":67,"rain":0.0,"pressure":977.1,"uv_index":5.65,"wind_gusts":29.9,"aqi":102,"pm10":66.6,"pm2_5":56.0,"mosquito_risk":7,"arthritis_risk":5,"migraine_risk":3,"frizz_risk":1,"updated_at":"2026-03-18T20:36:39.165932+05:30"},{"city":"Nashik","state":"Maharashtra","latitude":19.9975,"longitude":73.7898,"temp":23.8,"humidity":76,"rain":0.0,"pressure":946.7,"uv_index":7.95,"wind_gusts":29.2,"aqi":113,"pm10":18.2,"pm2_5":9.4,"mosquito_risk":3,"arthritis_risk":5,"migraine_risk":7,"frizz_risk":1,"updated_at":"2026-03-18T20:36:39.165941+05:30"},{"city":"Aurangabad","state":"Maharashtra","latitude":19.8762,"longitude":75.3433,"temp":27.9,"humidity":36,"rain":0.0,"pressure":945.5,"uv_index":8.45,"wind_gusts":29.2,"aqi":120,"pm10":32.7,"pm2_5":27.7,"mosquito_risk":4,"arthritis_risk":5,"migraine_risk":7,"frizz_risk":0,"updated_at":"2026-03-18T20:36:39.165949+05:30"},{"city":"Solapur","state":"Maharashtra","latitude":17.6599,"longitude":75.9064,"temp":25.7,"humidity":57,"rain":0.0,"pressure":959.2,"uv_index":8.6,"wind_gusts":31.7,"aqi":150,"pm10":39.8,"pm2_5":34.5,"mosquito_risk":4,"arthritis_risk":5,"migraine_risk":7,"frizz_risk":1,"updated_at":"2026-03-18T20:36:39.165958+05:30"},{"city":"Kolhapur","state":"Maharashtra","latitude":16.705,"longitude":74.2433,"temp":23.4,"humidity":65,"rain":0.0,"pressure":949.7,"uv_index":8.75,"wind_gusts":36.0,"aqi":140,"pm10":48.4,"pm2_5":41.1,"mosquito_risk":3,"arthritis_risk":5,"migraine_risk":7,"frizz_risk":1,"updated_at":"2026-03-18T20:36:39.165967+05:30"},{"city":"Goa","state":"Goa","latitude":15.2993,"longitude":74.124,"temp":27.9,"humidity":70,"rain":0.0,"pressure":999.9,"uv_index":8.75,"wind_gusts":26.6,"aqi":87,"pm10":49.1,"pm2_5":25.4,"mosquito_risk":7,"arthritis_risk":5,"migraine_risk":7,"frizz_risk":1,"updated_at":"2026-03-18T20:36:39.165975+05:30"},{"city":"Jodhpur","state":"Rajasthan","latitude":26.2389,"longitude":73.0243,"temp":26.4,"humidity":41,"rain":0.0,"pressure":986.0,"uv_index":7.05,"wind_gusts":42.1,"aqi":70,"pm10":142.5,"pm2_5":23.5,"mosquito_risk":4,"arthritis_risk":5,"migraine_risk":7,"frizz_risk":0,"updated_at":"2026-03-18T20:36:39.165983+05:30"},{"city":"Udaipur","state":"Rajasthan","latitude":24.5854,"longitude":73.7125,"temp":24.7,"humidity":43,"rain":0.0,"pressure":948.5,"uv_index":7.95,"wind_gusts":23.4,"aqi":76,"pm10":15.5,"pm2_5":7.6,"mosquito_risk":0,"arthritis_risk":5,"migraine_risk":7,"frizz_risk":0,"updated_at":"2026-03-18T20:36:39.165992+05:30"},{"city":"Kota","state":"Rajasthan","latitude":25.2138,"longitude":75.8648,"temp":26.9,"humidity":42,"rain":0.0,"pressure":979.6,"uv_index":7.3,"wind_gusts":18.7,"aqi":102,"pm10":37.6,"pm2_5":28.3,"mosquito_risk":4,"arthritis_risk":5,"migraine_risk":7,"frizz_risk":0,"updated_at":"2026-03-18T20:36:39.166000+05:30"},{"city":"Bikaner","state":"Rajasthan","latitude":28.0229,"longitude":73.3119,"temp":22.1,"humidity":58,"rain":0.0,"pressure":985.0,"uv_index":5.6,"wind_gusts":42.8,"aqi":55,"pm10":27.0,"pm2_5":11.3,"mosquito_risk":0,"arthritis_risk":5,"migraine_risk":3,"frizz_risk":0,"updated_at":"2026-03-18T20:36:39.166007+05:30"},{"city":"Ajmer","state":"Rajasthan","latitude":26.4499,"longitude":74.6399,"temp":26.0,"humidity":34,"rain":0.0,"pressure":956.0,"uv_index":7.25,"wind_gusts":27.4,"aqi":94,"pm10":30.4,"pm2_5":13.9,"mosquito_risk":4,"arthritis_risk":5,"migraine_risk":7,"frizz_risk":0,"updated_at":"2026-03-18T20:36:39.166015+05:30"},{"city":"Gwalior","state":"Madhya Pradesh","latitude":26.2183,"longitude":78.1828,"temp":26.8,"humidity":51,"rain":0.0,"pressure":985.4,"uv_index":6.9,"wind_gusts":27.0,"aqi":116,"pm10":83.1,"pm2_5":26.3,"mosquito_risk":4,"arthritis_risk":5,"migraine_risk":7,"frizz_risk":0,"updated_at":"2026-03-18T20:36:39.166023+05:30"},{"city":"Indore","state":"Madhya Pradesh","latitude":22.7196,"longitude":75.8577,"temp":25.1,"humidity":41,"rain":0.0,"pressure":949.2,"uv_index":7.85,"wind_gusts":27.0,"aqi":119,"pm10":28.8,"pm2_5":26.1,"mosquito_risk":4,"arthritis_risk":5,"migraine_risk":7,"frizz_risk":0,"updated_at":"2026-03-18T20:36:39.166031+05:30"},{"city":"Bhopal","state":"Madhya Pradesh","latitude":23.2599,"longitude":77.4126,"temp":26.2,"humidity":34,"rain":0.0,"pressure":954.9,"uv_index":7.75,"wind_gusts":32.0,"aqi":117,"pm10":25.3,"pm2_5":22.8,"mosquito_risk":4,"arthritis_risk":5,"migraine_risk":7,"frizz_risk":0,"updated_at":"2026-03-18T20:36:39.166039+05:30"},{"city":"Jabalpur","state":"Madhya Pradesh","latitude":23.1815,"longitude":79.9864,"temp":26.7,"humidity":46,"rain":0.0,"pressure":963.5,"uv_index":6.5,"wind_gusts":29.9,"aqi":112,"pm10":29.0,"pm2_5":25.5,"mosquito_risk":4,"arthritis_risk":5,"migraine_risk":7,"frizz_risk":0,"updated_at":"2026-03-18T20:36:39.166047+05:30"},{"city":"Ujjain","state":"Madhya Pradesh","latitude":23.1765,"longitude":75.7885,"temp":24.7,"humidity":40,"rain":0.0,"pressure":954.8,"uv_index":7.75,"wind_gusts":23.4,"aqi":96,"pm10":28.1,"pm2_5":25.7,"mosquito_risk":0,"arthritis_risk":5,"migraine_risk":7,"frizz_risk":0,"updated_at":"2026-03-18T20:36:39.166055+05:30"},{"city":"Visakhapatnam","state":"Andhra Pradesh","latitude":17.6868,"longitude":83.2185,"temp":25.1,"humidity":83,"rain":0.0,"pressure":1008.4,"uv_index":8.0,"wind_gusts":32.0,"aqi":49,"pm10":12.6,"pm2_5":11.1,"mosquito_risk":7,"arthritis_risk":0,"migraine_risk":4,"frizz_risk":1,"updated_at":"2026-03-18T20:36:39.166064+05:30"},{"city":"Vijayawada","state":"Andhra Pradesh","latitude":16.5062,"longitude":80.648,"temp":27.5,"humidity":65,"rain":0.0,"pressure":1005.9,"uv_index":8.55,"wind_gusts":22.7,"aqi":54,"pm10":20.8,"pm2_5":19.4,"mosquito_risk":7,"arthritis_risk":5,"migraine_risk":4,"frizz_risk":1,"updated_at":"2026-03-18T20:36:39.166072+05:30"},{"city":"Guntur","state":"Andhra Pradesh","latitude":16.3067,"longitude":80.4365,"temp":26.4,"humidity":75,"rain":0.0,"pressure":1007.2,"uv_index":8.65,"wind_gusts":23.0,"aqi":51,"pm10":20.0,"pm2_5":18.7,"mosquito_risk":7,"arthritis_risk":5,"migraine_risk":4,"frizz_risk":1,"updated_at":"2026-03-18T20:36:39.166080+05:30"},{"city":"Nellore","state":"Andhra Pradesh","latitude":14.4426,"longitude":79.9865,"temp":26.7,"humidity":80,"rain":0.0,"pressure":1009.4,"uv_index":8.95,"wind_gusts":29.2,"aqi":35,"pm10":8.4,"pm2_5":5.9,"mosquito_risk":7,"arthritis_risk":0,"migraine_risk":4,"frizz_risk":1,"updated_at":"2026-03-18T20:36:39.166088+05:30"},{"city":"Kurnool","state":"Andhra Pradesh","latitude":15.8281,"longitude":78.0373,"temp":25.8,"humidity":62,"rain":0.0,"pressure":979.7,"uv_index":8.5,"wind_gusts":37.8,"aqi":85,"pm10":36.1,"pm2_5":30.7,"mosquito_risk":7,"arthritis_risk":5,"migraine_risk":7,"frizz_risk":1,"updated_at":"2026-03-18T20:36:39.166097+05:30"},{"city":"Kakinada","state":"Andhra Pradesh","latitude":16.9891,"longitude":82.2475,"temp":25.0,"humidity":84,"rain":0.0,"pressure":1011.3,"uv_index":8.45,"wind_gusts":28.1,"aqi":40,"pm10":10.0,"pm2_5":7.9,"mosquito_risk":7,"arthritis_risk":0,"migraine_risk":4,"frizz_risk":1,"updated_at":"2026-03-18T20:36:39.166105+05:30"},{"city":"Tirupati","state":"Andhra Pradesh","latitude":13.6288,"longitude":79.4192,"temp":26.5,"humidity":66,"rain":0.0,"pressure":994.5,"uv_index":9.1,"wind_gusts":36.4,"aqi":62,"pm10":25.8,"pm2_5":23.3,"mosquito_risk":7,"arthritis_risk":5,"migraine_risk":7,"frizz_risk":1,"updated_at":"2026-03-18T20:36:39.166112+05:30"},{"city":"Warangal","state":"Telangana","latitude":17.9689,"longitude":79.5941,"temp":26.4,"humidity":63,"rain":0.0,"pressure":982.2,"uv_index":8.15,"wind_gusts":27.0,"aqi":68,"pm10":54.9,"pm2_5":47.6,"mosquito_risk":7,"arthritis_risk":5,"migraine_risk":7,"frizz_risk":1,"updated_at":"2026-03-18T20:36:39.166120+05:30"},{"city":"Nizamabad","state":"Telangana","latitude":18.6725,"longitude":78.0941,"temp":25.1,"humidity":63,"rain":0.0,"pressure":967.3,"uv_index":7.5,"wind_gusts":38.2,"aqi":116,"pm10":54.4,"pm2_5":49.0,"mosquito_risk":7,"arthritis_risk":5,"migraine_risk":7,"frizz_risk":1,"updated_at":"2026-03-18T20:36:39.166128+05:30"},{"city":"Mysore","state":"Karnataka","latitude":12.2958,"longitude":76.6396,"temp":22.5,"humidity":76,"rain":0.0,"pressure":930.2,"uv_index":9.3,"wind_gusts":23.8,"aqi":88,"pm10":31.9,"pm2_5":29.9,"mosquito_risk":3,"arthritis_risk":5,"migraine_risk":7,"frizz_risk":1,"updated_at":"2026-03-18T20:36:39.166135+05:30"},{"city":"Mangalore","state":"Karnataka","latitude":12.9141,"longitude":74.856,"temp":28.8,"humidity":75,"rain":0.0,"pressure":1008.5,"uv_index":9.0,"wind_gusts":19.8,"aqi":84,"pm10":36.2,"pm2_5":21.2,"mosquito_risk":7,"arthritis_risk":0,"migraine_risk":4,"frizz_risk":1,"updated_at":"2026-03-18T20:36:39.166143+05:30"},{"city":"Hubli-Dharwad","state":"Karnataka","latitude":15.3647,"longitude":75.124,"temp":22.0,"humidity":77,"rain":0.0,"pressure":942.9,"uv_index":8.95,"wind_gusts":44.6,"aqi":144,"pm10":48.3,"pm2_5":45.3,"mosquito_risk":3,"arthritis_risk":5,"migraine_risk":7,"frizz_risk":1,"updated_at":"2026-03-18T20:36:39.166151+05:30"},{"city":"Belgaum","state":"Karnataka","latitude":15.8497,"longitude":74.4977,"temp":22.0,"humidity":81,"rain":0.0,"pressure":927.2,"uv_index":9.0,"wind_gusts":21.2,"aqi":136,"pm10":48.0,"pm2_5":40.3,"mosquito_risk":3,"arthritis_risk":5,"migraine_risk":7,"frizz_risk":1,"updated_at":"2026-03-18T20:36:42.413361+05:30"},{"city":"Coimbatore","state":"Tamil Nadu","latitude":11.0168,"longitude":76.9558,"temp":24.9,"humidity":74,"rain":0.0,"pressure":963.5,"uv_index":9.0,"wind_gusts":29.9,"aqi":84,"pm10":28.3,"pm2_5":27.1,"mosquito_risk":3,"arthritis_risk":5,"migraine_risk":7,"frizz_risk":1,"updated_at":"2026-03-18T20:36:42.413388+05:30"},{"city":"Madurai","state":"Tamil Nadu","latitude":9.9252,"longitude":78.1198,"temp":26.2,"humidity":82,"rain":0.0,"pressure":995.7,"uv_index":8.1,"wind_gusts":36.7,"aqi":61,"pm10":15.5,"pm2_5":14.6,"mosquito_risk":7,"arthritis_risk":5,"migraine_risk":7,"frizz_risk":1,"updated_at":"2026-03-18T20:36:42.413397+05:30"},{"city":"Trichy","state":"Tamil Nadu","latitude":10.7905,"longitude":78.7047,"temp":26.0,"humidity":83,"rain":0.0,"pressure":1002.3,"uv_index":8.4,"wind_gusts":28.8,"aqi":55,"pm10":17.5,"pm2_5":16.0,"mosquito_risk":7,"arthritis_risk":5,"migraine_risk":4,"frizz_risk":1,"updated_at":"2026-03-18T20:36:42.413404+05:30"},{"city":"Salem","state":"Tamil Nadu","latitude":11.6643,"longitude":78.146,"temp":27.0,"humidity":72,"rain":0.0,"pressure":979.3,"uv_index":8.15,"wind_gusts":31.7,"aqi":77,"pm10":21.1,"pm2_5":19.4,"mosquito_risk":7,"arthritis_risk":5,"migraine_risk":7,"frizz_risk":1,"updated_at":"2026-03-18T20:36:42.413411+05:30"},{"city":"Tirunelveli","state":"Tamil Nadu","latitude":8.7139,"longitude":77.7567,"temp":26.1,"humidity":83,"rain":0.0,"pressure":1005.6,"uv_index":8.25,"wind_gusts":33.5,"aqi":74,"pm10":26.5,"pm2_5":26.0,"mosquito_risk":7,"arthritis_risk":5,"migraine_risk":4,"frizz_risk":1,"updated_at":"2026-03-18T20:36:42.413417+05:30"},{"city":"Vellore","state":"Tamil Nadu","latitude":12.9165,"longitude":79.1325,"temp":25.6,"humidity":73,"rain":0.0,"pressure":987.2,"uv_index":9.15,"wind_gusts":32.4,"aqi":57,"pm10":15.0,"pm2_5":13.3,"mosquito_risk":7,"arthritis_risk":5,"migraine_risk":7,"frizz_risk":1,"updated_at":"2026-03-18T20:36:42.413423+05:30"},{"city":"Erode","state":"Tamil Nadu","latitude":11.341,"longitude":77.7172,"temp":26.4,"humidity":76,"rain":0.0,"pressure":991.4,"uv_index":9.2,"wind_gusts":31.3,"aqi":59,"pm10":16.2,"pm2_5":14.8,"mosquito_risk":7,"arthritis_risk":5,"migraine_risk":7,"frizz_risk":1,"updated_at":"2026-03-18T20:36:42.413429+05:30"},{"city":"Kochi","state":"Kerala","latitude":9.9312,"longitude":76.2673,"temp":27.8,"humidity":80,"rain":0.0,"pressure":1010.6,"uv_index":9.05,"wind_gusts":23.8,"aqi":103,"pm10":19.6,"pm2_5":19.3,"mosquito_risk":7,"arthritis_risk":0,"migraine_risk":4,"frizz_risk":1,"updated_at":"2026-03-18T20:36:42.413435+05:30"},{"city":"Thiruvananthapuram","state":"Kerala","latitude":8.5241,"longitude":76.9366,"temp":27.8,"humidity":79,"rain":0.0,"pressure":1009.8,"uv_index":8.7,"wind_gusts":17.6,"aqi":89,"pm10":10.7,"pm2_5":9.3,"mosquito_risk":7,"arthritis_risk":0,"migraine_risk":4,"frizz_risk":1,"updated_at":"2026-03-18T20:36:42.413441+05:30"},{"city":"Kozhikode","state":"Kerala","latitude":11.2588,"longitude":75.7804,"temp":28.5,"humidity":79,"rain":0.0,"pressure":1009.6,"uv_index":8.6,"wind_gusts":25.9,"aqi":93,"pm10":18.3,"pm2_5":13.2,"mosquito_risk":7,"arthritis_risk":0,"migraine_risk":4,"frizz_risk":1,"updated_at":"2026-03-18T20:36:42.413446+05:30"},{"city":"Thrissur","state":"Kerala","latitude":10.5276,"longitude":76.2144,"temp":27.4,"humidity":82,"rain":0.0,"pressure":1008.9,"uv_index":8.05,"wind_gusts":30.6,"aqi":100,"pm10":22.6,"pm2_5":21.9,"mosquito_risk":7,"arthritis_risk":0,"migraine_risk":4,"frizz_risk":1,"updated_at":"2026-03-18T20:36:42.413453+05:30"},{"city":"Kannur","state":"Kerala","latitude":11.8745,"longitude":75.3704,"temp":28.4,"humidity":76,"rain":0.0,"pressure":1008.8,"uv_index":9.05,"wind_gusts":26.6,"aqi":77,"pm10":29.9,"pm2_5":23.0,"mosquito_risk":7,"arthritis_risk":0,"migraine_risk":4,"frizz_risk":1,"updated_at":"2026-03-18T20:36:42.413459+05:30"},{"city":"Patna","state":"Bihar","latitude":25.5941,"longitude":85.1376,"temp":27.5,"humidity":58,"rain":0.0,"pressure":1003.0,"uv_index":6.75,"wind_gusts":20.2,"aqi":149,"pm10":94.5,"pm2_5":76.6,"mosquito_risk":4,"arthritis_risk":5,"migraine_risk":4,"frizz_risk":1,"updated_at":"2026-03-18T20:36:42.413465+05:30"},{"city":"Gaya","state":"Bihar","latitude":24.7914,"longitude":85.0002,"temp":25.3,"humidity":68,"rain":0.0,"pressure":996.3,"uv_index":6.55,"wind_gusts":19.4,"aqi":124,"pm10":67.5,"pm2_5":54.6,"mosquito_risk":7,"arthritis_risk":5,"migraine_risk":7,"frizz_risk":1,"updated_at":"2026-03-18T20:36:42.413471+05:30"},{"city":"Muzaffarpur","state":"Bihar","latitude":26.1209,"longitude":85.3647,"temp":25.4,"humidity":61,"rain":0.0,"pressure":1002.9,"uv_index":6.95,"wind_gusts":21.6,"aqi":151,"pm10":106.6,"pm2_5":84.8,"mosquito_risk":7,"arthritis_risk":5,"migraine_risk":4,"frizz_risk":1,"updated_at":"2026-03-18T20:36:42.413477+05:30"},{"city":"Bhagalpur","state":"Bihar","latitude":25.2425,"longitude":87.0117,"temp":26.1,"humidity":71,"rain":0.0,"pressure":1004.3,"uv_index":7.15,"wind_gusts":27.7,"aqi":143,"pm10":82.7,"pm2_5":60.1,"mosquito_risk":7,"arthritis_risk":5,"migraine_risk":4,"frizz_risk":1,"updated_at":"2026-03-18T20:36:42.413483+05:30"},{"city":"Ranchi","state":"Jharkhand","latitude":23.3441,"longitude":85.3096,"temp":23.5,"humidity":56,"rain":0.0,"pressure":940.8,"uv_index":7.6,"wind_gusts":34.2,"aqi":124,"pm10":39.5,"pm2_5":36.0,"mosquito_risk":0,"arthritis_risk":5,"migraine_risk":7,"frizz_risk":0,"updated_at":"2026-03-18T20:36:42.413490+05:30"},{"city":"Jamshedpur","state":"Jharkhand","latitude":22.8046,"longitude":86.2029,"temp":28.8,"humidity":47,"rain":0.0,"pressure":993.9,"uv_index":8.15,"wind_gusts":39.6,"aqi":149,"pm10":49.4,"pm2_5":42.0,"mosquito_risk":4,"arthritis_risk":5,"migraine_risk":7,"frizz_risk":1,"updated_at":"2026-03-18T20:36:42.413496+05:30"},{"city":"Dhanbad","state":"Jharkhand","latitude":23.7957,"longitude":86.4304,"temp":26.0,"humidity":56,"rain":0.0,"pressure":984.0,"uv_index":7.9,"wind_gusts":34.2,"aqi":154,"pm10":52.9,"pm2_5":48.5,"mosquito_risk":4,"arthritis_risk":5,"migraine_risk":7,"frizz_risk":1,"updated_at":"2026-03-18T20:36:42.413502+05:30"},{"city":"Bokaro","state":"Jharkhand","latitude":23.6693,"longitude":86.1511,"temp":26.7,"humidity":50,"rain":0.0,"pressure":987.2,"uv_index":7.85,"wind_gusts":39.6,"aqi":147,"pm10":44.2,"pm2_5":39.5,"mosquito_risk":4,"arthritis_risk":5,"migraine_risk":7,"frizz_risk":0,"updated_at":"2026-03-18T20:36:42.413508+05:30"},{"city":"Bhubaneswar","state":"Odisha","latitude":20.2961,"longitude":85.8245,"temp":25.1,"humidity":85,"rain":0.0,"pressure":1006.6,"uv_index":8.25,"wind_gusts":26.3,"aqi":96,"pm10":32.6,"pm2_5":28.3,"mosquito_risk":7,"arthritis_risk":5,"migraine_risk":4,"frizz_risk":1,"updated_at":"2026-03-18T20:36:42.413514+05:30"},{"city":"Cuttack","state":"Odisha","latitude":20.4625,"longitude":85.8828,"temp":25.5,"humidity":83,"rain":0.0,"pressure":1008.5,"uv_index":8.1,"wind_gusts":23.4,"aqi":96,"pm10":32.6,"pm2_5":28.3,"mosquito_risk":7,"arthritis_risk":0,"migraine_risk":4,"frizz_risk":1,"updated_at":"2026-03-18T20:36:42.413520+05:30"},{"city":"Rourkela","state":"Odisha","latitude":22.2604,"longitude":84.8536,"temp":28.7,"humidity":47,"rain":0.0,"pressure":988.2,"uv_index":7.85,"wind_gusts":25.9,"aqi":165,"pm10":51.6,"pm2_5":44.8,"mosquito_risk":4,"arthritis_risk":5,"migraine_risk":7,"frizz_risk":1,"updated_at":"2026-03-18T20:36:42.413526+05:30"},{"city":"Raipur","state":"Chhattisgarh","latitude":21.2514,"longitude":81.6296,"temp":27.5,"humidity":52,"rain":0.0,"pressure":978.3,"uv_index":6.95,"wind_gusts":48.2,"aqi":101,"pm10":44.9,"pm2_5":40.2,"mosquito_risk":4,"arthritis_risk":5,"migraine_risk":7,"frizz_risk":1,"updated_at":"2026-03-18T20:36:42.413532+05:30"},{"city":"Bhilai","state":"Chhattisgarh","latitude":21.1938,"longitude":81.3509,"temp":26.3,"humidity":61,"rain":0.0,"pressure":978.5,"uv_index":7.05,"wind_gusts":42.5,"aqi":103,"pm10":49.7,"pm2_5":45.2,"mosquito_risk":7,"arthritis_risk":5,"migraine_risk":7,"frizz_risk":1,"updated_at":"2026-03-18T20:36:42.413538+05:30"},{"city":"Guwahati","state":"Assam","latitude":26.1158,"longitude":91.7086,"temp":23.7,"humidity":77,"rain":0.0,"pressure":1006.9,"uv_index":7.45,"wind_gusts":38.9,"aqi":113,"pm10":47.0,"pm2_5":41.0,"mosquito_risk":3,"arthritis_risk":5,"migraine_risk":4,"frizz_risk":1,"updated_at":"2026-03-18T20:36:42.413544+05:30"},{"city":"Agartala","state":"Tripura","latitude":23.8315,"longitude":91.2868,"temp":22.6,"humidity":86,"rain":0.0,"pressure":1011.3,"uv_index":7.85,"wind_gusts":29.2,"aqi":60,"pm10":49.8,"pm2_5":46.7,"mosquito_risk":3,"arthritis_risk":0,"migraine_risk":4,"frizz_risk":1,"updated_at":"2026-03-18T20:36:42.413550+05:30"},{"city":"Shillong","state":"Meghalaya","latitude":25.5788,"longitude":91.8933,"temp":12.8,"humidity":88,"rain":0.0,"pressure":858.7,"uv_index":7.85,"wind_gusts":61.9,"aqi":94,"pm10":39.8,"pm2_5":32.4,"mosquito_risk":3,"arthritis_risk":10,"migraine_risk":7,"frizz_risk":0,"updated_at":"2026-03-18T20:36:42.413556+05:30"},{"city":"Imphal","state":"Manipur","latitude":24.817,"longitude":93.9368,"temp":16.5,"humidity":83,"rain":0.0,"pressure":927.1,"uv_index":8.1,"wind_gusts":66.2,"aqi":80,"pm10":43.1,"pm2_5":34.2,"mosquito_risk":3,"arthritis_risk":10,"migraine_risk":7,"frizz_risk":0,"updated_at":"2026-03-18T20:36:42.413597+05:30"},{"city":"Aizawl","state":"Mizoram","latitude":23.7271,"longitude":92.7176,"temp":18.3,"humidity":81,"rain":0.0,"pressure":896.2,"uv_index":8.05,"wind_gusts":44.3,"aqi":70,"pm10":29.5,"pm2_5":24.1,"mosquito_risk":3,"arthritis_risk":10,"migraine_risk":7,"frizz_risk":0,"updated_at":"2026-03-18T20:36:42.413606+05:30"},{"city":"Kohima","state":"Nagaland","latitude":25.6701,"longitude":94.1077,"temp":14.1,"humidity":72,"rain":0.0,"pressure":857.4,"uv_index":8.0,"wind_gusts":100.8,"aqi":69,"pm10":45.4,"pm2_5":32.0,"mosquito_risk":3,"arthritis_risk":5,"migraine_risk":7,"frizz_risk":0,"updated_at":"2026-03-18T20:36:42.413613+05:30"},{"city":"Gangtok","state":"Sikkim","latitude":27.3314,"longitude":88.6138,"temp":13.2,"humidity":89,"rain":0.0,"pressure":839.3,"uv_index":7.8,"wind_gusts":16.2,"aqi":106,"pm10":69.4,"pm2_5":43.3,"mosquito_risk":3,"arthritis_risk":10,"migraine_risk":7,"frizz_risk":0,"updated_at":"2026-03-18T20:36:42.413619+05:30"},{"city":"Siliguri","state":"West Bengal","latitude":26.7271,"longitude":88.3953,"temp":21.8,"humidity":63,"rain":0.0,"pressure":997.9,"uv_index":7.2,"wind_gusts":24.1,"aqi":118,"pm10":68.2,"pm2_5":49.5,"mosquito_risk":3,"arthritis_risk":5,"migraine_risk":7,"frizz_risk":0,"updated_at":"2026-03-18T20:36:45.662698+05:30"},{"city":"Durgapur","state":"West Bengal","latitude":23.5204,"longitude":87.3119,"temp":24.1,"humidity":76,"rain":0.0,"pressure":1000.2,"uv_index":8.05,"wind_gusts":33.8,"aqi":153,"pm10":55.8,"pm2_5":48.4,"mosquito_risk":3,"arthritis_risk":5,"migraine_risk":4,"frizz_risk":1,"updated_at":"2026-03-18T20:36:45.662724+05:30"},{"city":"Asansol","state":"West Bengal","latitude":23.6739,"longitude":86.9524,"temp":25.3,"humidity":65,"rain":0.0,"pressure":998.8,"uv_index":8.05,"wind_gusts":40.0,"aqi":148,"pm10":47.5,"pm2_5":41.7,"mosquito_risk":7,"arthritis_risk":5,"migraine_risk":7,"frizz_risk":1,"updated_at":"2026-03-18T20:36:45.662733+05:30"},{"city":"Pondicherry","state":"Puducherry","latitude":11.9139,"longitude":79.8145,"temp":25.8,"humidity":88,"rain":0.0,"pressure":1011.3,"uv_index":9.1,"wind_gusts":27.4,"aqi":39,"pm10":10.9,"pm2_5":7.6,"mosquito_risk":7,"arthritis_risk":0,"migraine_risk":4,"frizz_risk":1,"updated_at":"2026-03-18T20:36:45.662739+05:30"},{"city":"Port Blair","state":"Andaman and Nicobar Islands","latitude":11.6234,"longitude":92.7265,"temp":27.9,"humidity":78,"rain":0.0,"pressure":1010.0,"uv_index":9.05,"wind_gusts":23.8,"aqi":48,"pm10":13.1,"pm2_5":10.0,"mosquito_risk":7,"arthritis_risk":0,"migraine_risk":4,"frizz_risk":1,"updated_at":"2026-03-18T20:36:45.662746+05:30"},{"city":"Haridwar","state":"Uttarakhand","latitude":29.9457,"longitude":78.1642,"temp":20.8,"humidity":50,"rain":0.0,"pressure":978.0,"uv_index":5.55,"wind_gusts":25.9,"aqi":74,"pm10":57.3,"pm2_5":36.0,"mosquito_risk":0,"arthritis_risk":5,"migraine_risk":3,"frizz_risk":0,"updated_at":"2026-03-18T20:36:45.662752+05:30"},{"city":"Rishikesh","state":"Uttarakhand","latitude":30.0869,"longitude":78.2676,"temp":20.5,"humidity":48,"rain":0.0,"pressure":970.7,"uv_index":5.1,"wind_gusts":26.3,"aqi":68,"pm10":43.2,"pm2_5":18.9,"mosquito_risk":0,"arthritis_risk":5,"migraine_risk":3,"frizz_risk":0,"updated_at":"2026-03-18T20:36:45.662759+05:30"},{"city":"Nainital","state":"Uttarakhand","latitude":29.3919,"longitude":79.4542,"temp":16.8,"humidity":37,"rain":0.0,"pressure":807.6,"uv_index":5.95,"wind_gusts":31.0,"aqi":104,"pm10":53.2,"pm2_5":33.9,"mosquito_risk":0,"arthritis_risk":5,"migraine_risk":3,"frizz_risk":0,"updated_at":"2026-03-18T20:36:45.662765+05:30"},{"city":"Mussoorie","state":"Uttarakhand","latitude":30.4599,"longitude":78.0664,"temp":14.9,"humidity":36,"rain":0.0,"pressure":805.0,"uv_index":5.35,"wind_gusts":32.4,"aqi":67,"pm10":47.5,"pm2_5":25.6,"mosquito_risk":0,"arthritis_risk":5,"migraine_risk":3,"frizz_risk":0,"updated_at":"2026-03-18T20:36:45.662771+05:30"},{"city":"Dharamshala","state":"Himachal Pradesh","latitude":32.219,"longitude":76.3234,"temp":15.6,"humidity":50,"rain":0.0,"pressure":871.3,"uv_index":4.15,"wind_gusts":38.5,"aqi":47,"pm10":16.1,"pm2_5":7.1,"mosquito_risk":0,"arthritis_risk":5,"migraine_risk":3,"frizz_risk":0,"updated_at":"2026-03-18T20:36:45.662777+05:30"},{"city":"Dalhousie","state":"Himachal Pradesh","latitude":32.5387,"longitude":75.971,"temp":11.5,"humidity":55,"rain":0.0,"pressure":804.4,"uv_index":4.75,"wind_gusts":31.0,"aqi":75,"pm10":21.7,"pm2_5":15.4,"mosquito_risk":0,"arthritis_risk":5,"migraine_risk":3,"frizz_risk":0,"updated_at":"2026-03-18T20:36:45.662783+05:30"},{"city":"Patiala","state":"Punjab","latitude":30.3398,"longitude":76.3869,"temp":19.0,"humidity":69,"rain":0.0,"pressure":981.9,"uv_index":4.65,"wind_gusts":29.5,"aqi":138,"pm10":27.1,"pm2_5":16.9,"mosquito_risk":3,"arthritis_risk":5,"migraine_risk":3,"frizz_risk":0,"updated_at":"2026-03-18T20:36:45.662789+05:30"},{"city":"Bhatinda","state":"Punjab","latitude":30.211,"longitude":74.9455,"temp":17.9,"humidity":77,"rain":0.0,"pressure":988.1,"uv_index":6.0,"wind_gusts":34.6,"aqi":115,"pm10":67.3,"pm2_5":23.7,"mosquito_risk":3,"arthritis_risk":5,"migraine_risk":3,"frizz_risk":0,"updated_at":"2026-03-18T20:36:45.662796+05:30"},{"city":"Rohtak","state":"Haryana","latitude":28.8955,"longitude":76.6066,"temp":22.3,"humidity":75,"rain":0.0,"pressure":985.5,"uv_index":6.1,"wind_gusts":28.8,"aqi":278,"pm10":385.6,"pm2_5":83.1,"mosquito_risk":3,"arthritis_risk":5,"migraine_risk":7,"frizz_risk":1,"updated_at":"2026-03-18T20:36:45.662801+05:30"},{"city":"Panipat","state":"Haryana","latitude":29.3909,"longitude":76.9635,"temp":22.2,"humidity":67,"rain":0.0,"pressure":983.9,"uv_index":5.8,"wind_gusts":19.1,"aqi":236,"pm10":365.1,"pm2_5":73.3,"mosquito_risk":3,"arthritis_risk":5,"migraine_risk":3,"frizz_risk":0,"updated_at":"2026-03-18T20:36:45.662807+05:30"},{"city":"Mathura","state":"Uttar Pradesh","latitude":27.4924,"longitude":77.6737,"temp":23.9,"humidity":58,"rain":0.0,"pressure":989.5,"uv_index":6.45,"wind_gusts":21.2,"aqi":463,"pm10":666.8,"pm2_5":96.4,"mosquito_risk":0,"arthritis_risk":5,"migraine_risk":7,"frizz_risk":0,"updated_at":"2026-03-18T20:36:45.662813+05:30"},{"city":"Vrindavan","state":"Uttar Pradesh","latitude":27.5823,"longitude":77.7027,"temp":25.4,"humidity":50,"rain":0.0,"pressure":990.1,"uv_index":6.45,"wind_gusts":20.5,"aqi":463,"pm10":666.8,"pm2_5":96.4,"mosquito_risk":4,"arthritis_risk":5,"migraine_risk":7,"frizz_risk":0,"updated_at":"2026-03-18T20:36:45.662819+05:30"},{"city":"Ayodhya","state":"Uttar Pradesh","latitude":26.7922,"longitude":82.1998,"temp":24.8,"humidity":43,"rain":0.0,"pressure":997.8,"uv_index":6.4,"wind_gusts":23.4,"aqi":90,"pm10":83.1,"pm2_5":49.0,"mosquito_risk":0,"arthritis_risk":5,"migraine_risk":7,"frizz_risk":0,"updated_at":"2026-03-18T20:36:45.662825+05:30"},{"city":"Ratlam","state":"Madhya Pradesh","latitude":23.3315,"longitude":75.0367,"temp":25.8,"humidity":47,"rain":0.0,"pressure":955.9,"uv_index":7.7,"wind_gusts":25.6,"aqi":102,"pm10":18.4,"pm2_5":16.4,"mosquito_risk":4,"arthritis_risk":5,"migraine_risk":7,"frizz_risk":0,"updated_at":"2026-03-18T20:36:45.662831+05:30"},{"city":"Sagar","state":"Madhya Pradesh","latitude":23.8388,"longitude":78.7378,"temp":27.2,"humidity":37,"rain":0.0,"pressure":951.6,"uv_index":7.6,"wind_gusts":35.3,"aqi":96,"pm10":12.2,"pm2_5":10.3,"mosquito_risk":4,"arthritis_risk":5,"migraine_risk":7,"frizz_risk":0,"updated_at":"2026-03-18T20:36:45.662837+05:30"},{"city":"Satna","state":"Madhya Pradesh","latitude":24.6005,"longitude":80.8322,"temp":28.5,"humidity":29,"rain":0.0,"pressure":973.5,"uv_index":7.0,"wind_gusts":28.1,"aqi":101,"pm10":23.6,"pm2_5":15.1,"mosquito_risk":4,"arthritis_risk":5,"migraine_risk":7,"frizz_risk":0,"updated_at":"2026-03-18T20:36:45.662843+05:30"},{"city":"Akola","state":"Maharashtra","latitude":20.7002,"longitude":77.0082,"temp":28.0,"humidity":48,"rain":0.0,"pressure":976.7,"uv_index":8.15,"wind_gusts":21.2,"aqi":116,"pm10":62.4,"pm2_5":53.3,"mosquito_risk":4,"arthritis_risk":5,"migraine_risk":7,"frizz_risk":0,"updated_at":"2026-03-18T20:36:45.662849+05:30"},{"city":"Amravati","state":"Maharashtra","latitude":20.9374,"longitude":77.7796,"temp":26.8,"humidity":51,"rain":0.0,"pressure":969.7,"uv_index":7.2,"wind_gusts":45.4,"aqi":109,"pm10":57.9,"pm2_5":49.4,"mosquito_risk":4,"arthritis_risk":5,"migraine_risk":7,"frizz_risk":0,"updated_at":"2026-03-18T20:36:45.662855+05:30"},{"city":"Latur","state":"Maharashtra","latitude":18.4088,"longitude":76.5604,"temp":24.3,"humidity":59,"rain":0.0,"pressure":941.7,"uv_index":8.55,"wind_gusts":27.7,"aqi":116,"pm10":38.9,"pm2_5":33.9,"mosquito_risk":0,"arthritis_risk":5,"migraine_risk":7,"frizz_risk":0,"updated_at":"2026-03-18T20:36:45.662861+05:30"},{"city":"Nanded","state":"Maharashtra","latitude":19.1383,"longitude":77.3091,"temp":26.5,"humidity":55,"rain":0.0,"pressure":970.7,"uv_index":7.9,"wind_gusts":24.5,"aqi":107,"pm10":36.9,"pm2_5":32.9,"mosquito_risk":4,"arthritis_risk":5,"migraine_risk":7,"frizz_risk":1,"updated_at":"2026-03-18T20:36:45.662867+05:30"},{"city":"Gulbarga","state":"Karnataka","latitude":17.3297,"longitude":76.8343,"temp":25.9,"humidity":60,"rain":0.0,"pressure":961.4,"uv_index":8.6,"wind_gusts":43.2,"aqi":162,"pm10":38.3,"pm2_5":33.8,"mosquito_risk":4,"arthritis_risk":5,"migraine_risk":7,"frizz_risk":1,"updated_at":"2026-03-18T20:36:45.662872+05:30"},{"city":"Bidar","state":"Karnataka","latitude":17.9104,"longitude":77.5199,"temp":24.4,"humidity":65,"rain":0.0,"pressure":937.7,"uv_index":8.6,"wind_gusts":30.2,"aqi":127,"pm10":42.6,"pm2_5":37.4,"mosquito_risk":3,"arthritis_risk":5,"migraine_risk":7,"frizz_risk":1,"updated_at":"2026-03-18T20:36:45.662878+05:30"},{"city":"Hospet","state":"Karnataka","latitude":15.2689,"longitude":76.3909,"temp":24.3,"humidity":73,"rain":0.0,"pressure":958.6,"uv_index":8.9,"wind_gusts":22.7,"aqi":151,"pm10":44.8,"pm2_5":40.0,"mosquito_risk":3,"arthritis_risk":5,"migraine_risk":7,"frizz_risk":1,"updated_at":"2026-03-18T20:36:45.662884+05:30"},{"city":"Tirupur","state":"Tamil Nadu","latitude":11.1085,"longitude":77.3411,"temp":27.9,"humidity":63,"rain":0.0,"pressure":977.2,"uv_index":9.2,"wind_gusts":31.7,"aqi":74,"pm10":24.4,"pm2_5":22.6,"mosquito_risk":7,"arthritis_risk":5,"migraine_risk":7,"frizz_risk":1,"updated_at":"2026-03-18T20:36:45.662889+05:30"},{"city":"Alappuzha","state":"Kerala","latitude":9.4981,"longitude":76.3388,"temp":27.7,"humidity":80,"rain":0.0,"pressure":1010.7,"uv_index":8.5,"wind_gusts":20.5,"aqi":100,"pm10":19.0,"pm2_5":18.3,"mosquito_risk":7,"arthritis_risk":0,"migraine_risk":4,"frizz_risk":1,"updated_at":"2026-03-18T20:36:45.662895+05:30"},{"city":"Munnar","state":"Kerala","latitude":10.0889,"longitude":77.0595,"temp":20.3,"humidity":94,"rain":0.0,"pressure":858.0,"uv_index":9.55,"wind_gusts":31.3,"aqi":79,"pm10":26.0,"pm2_5":25.1,"mosquito_risk":3,"arthritis_risk":5,"migraine_risk":7,"frizz_risk":1,"updated_at":"2026-03-18T20:36:45.662901+05:30"},{"city":"Silchar","state":"Assam","latitude":24.8333,"longitude":92.7789,"temp":23.2,"humidity":85,"rain":0.0,"pressure":1010.2,"uv_index":7.8,"wind_gusts":43.6,"aqi":89,"pm10":49.5,"pm2_5":43.8,"mosquito_risk":3,"arthritis_risk":0,"migraine_risk":4,"frizz_risk":1,"updated_at":"2026-03-18T20:36:45.662907+05:30"},{"city":"Dibrugarh","state":"Assam","latitude":27.4728,"longitude":94.912,"temp":20.7,"humidity":85,"rain":0.0,"pressure":1002.1,"uv_index":7.55,"wind_gusts":28.1,"aqi":79,"pm10":43.5,"pm2_5":35.2,"mosquito_risk":3,"arthritis_risk":5,"migraine_risk":4,"frizz_risk":1,"updated_at":"2026-03-18T20:36:45.662912+05:30"}]