[{"city":"Delhi","state":"Delhi","latitude":28.6139,"longitude":77.209,"temp":36.5,"humidity":34,"rain":0.0,"pressure":978.5,"uv_index":7.75,"wind_gusts":28.1,"aqi":256,"pm10":318.5,"pm2_5":71.9,"no2":9.6,"co":331.0,"o3":116.0,"so2":14.8,"mosquito_risk":0,"arthritis_risk":5,"migraine_risk":10,"frizz_risk":1,"updated_at":"2026-06-24T10:33:00.652829+05:30"},{"city":"Mumbai","state":"Maharashtra","latitude":19.076,"longitude":72.8777,"temp":25.1,"humidity":93,"rain":0.3,"pressure":1007.9,"uv_index":0.75,"wind_gusts":31.3,"aqi":45,"pm10":30.5,"pm2_5":14.0,"no2":13.1,"co":357.0,"o3":55.0,"so2":9.4,"mosquito_risk":10,"arthritis_risk":5,"migraine_risk":0,"frizz_risk":1,"updated_at":"2026-06-24T10:33:00.652876+05:30"},{"city":"Bangalore","state":"Karnataka","latitude":12.9716,"longitude":77.5946,"temp":24.6,"humidity":67,"rain":0.0,"pressure":912.9,"uv_index":7.9,"wind_gusts":60.1,"aqi":26,"pm10":11.7,"pm2_5":7.2,"no2":5.5,"co":290.0,"o3":53.0,"so2":3.5,"mosquito_risk":3,"arthritis_risk":5,"migraine_risk":7,"frizz_risk":1,"updated_at":"2026-06-24T10:33:00.652892+05:30"},{"city":"Hyderabad","state":"Telangana","latitude":17.385,"longitude":78.4867,"temp":28.5,"humidity":59,"rain":0.0,"pressure":951.7,"uv_index":6.5,"wind_gusts":42.8,"aqi":24,"pm10":3.7,"pm2_5":3.6,"no2":2.9,"co":203.0,"o3":68.0,"so2":3.0,"mosquito_risk":4,"arthritis_risk":5,"migraine_risk":7,"frizz_risk":1,"updated_at":"2026-06-24T10:33:00.652902+05:30"},{"city":"Chennai","state":"Tamil Nadu","latitude":13.0827,"longitude":80.2707,"temp":32.1,"humidity":52,"rain":0.0,"pressure":1006.6,"uv_index":8.85,"wind_gusts":47.5,"aqi":61,"pm10":21.9,"pm2_5":16.6,"no2":11.4,"co":397.0,"o3":92.0,"so2":12.6,"mosquito_risk":0,"arthritis_risk":5,"migraine_risk":4,"frizz_risk":1,"updated_at":"2026-06-24T10:33:00.652910+05:30"},{"city":"Kolkata","state":"West Bengal","latitude":22.5726,"longitude":88.3639,"temp":30.7,"humidity":71,"rain":0.0,"pressure":1001.7,"uv_index":8.85,"wind_gusts":21.2,"aqi":150,"pm10":61.7,"pm2_5":52.4,"no2":5.3,"co":460.0,"o3":161.0,"so2":19.3,"mosquito_risk":3,"arthritis_risk":5,"migraine_risk":4,"frizz_risk":1,"updated_at":"2026-06-24T10:33:00.652918+05:30"},{"city":"Pune","state":"Maharashtra","latitude":18.5204,"longitude":73.8567,"temp":24.8,"humidity":79,"rain":0.1,"pressure":946.9,"uv_index":3.8,"wind_gusts":38.5,"aqi":20,"pm10":5.4,"pm2_5":4.1,"no2":6.9,"co":189.0,"o3":60.0,"so2":6.4,"mosquito_risk":6,"arthritis_risk":5,"migraine_risk":3,"frizz_risk":1,"updated_at":"2026-06-24T10:33:00.652925+05:30"},{"city":"Ahmedabad","state":"Gujarat","latitude":23.0225,"longitude":72.5714,"temp":34.5,"humidity":49,"rain":0.0,"pressure":999.0,"uv_index":8.05,"wind_gusts":42.8,"aqi":74,"pm10":54.6,"pm2_5":20.3,"no2":2.1,"co":137.0,"o3":66.0,"so2":2.9,"mosquito_risk":0,"arthritis_risk":5,"migraine_risk":7,"frizz_risk":1,"updated_at":"2026-06-24T10:33:00.652932+05:30"},{"city":"Jaipur","state":"Rajasthan","latitude":26.9124,"longitude":75.7873,"temp":31.8,"humidity":48,"rain":0.0,"pressure":956.8,"uv_index":8.2,"wind_gusts":49.3,"aqi":114,"pm10":161.1,"pm2_5":43.0,"no2":4.1,"co":217.0,"o3":93.0,"so2":6.1,"mosquito_risk":0,"arthritis_risk":5,"migraine_risk":7,"frizz_risk":1,"updated_at":"2026-06-24T10:33:00.652938+05:30"},{"city":"Lucknow","state":"Uttar Pradesh","latitude":26.8467,"longitude":80.9462,"temp":38.5,"humidity":30,"rain":0.0,"pressure":988.4,"uv_index":8.3,"wind_gusts":33.5,"aqi":152,"pm10":208.2,"pm2_5":57.5,"no2":2.9,"co":250.0,"o3":125.0,"so2":6.4,"mosquito_risk":0,"arthritis_risk":5,"migraine_risk":10,"frizz_risk":1,"updated_at":"2026-06-24T10:33:00.652955+05:30"},{"city":"Kanpur","state":"Uttar Pradesh","latitude":26.4499,"longitude":80.3319,"temp":38.2,"humidity":31,"rain":0.0,"pressure":986.9,"uv_index":8.3,"wind_gusts":33.8,"aqi":194,"pm10":417.2,"pm2_5":82.7,"no2":2.6,"co":188.0,"o3":126.0,"so2":5.8,"mosquito_risk":0,"arthritis_risk":5,"migraine_risk":10,"frizz_risk":1,"updated_at":"2026-06-24T10:33:00.652962+05:30"},{"city":"Chandigarh","state":"Chandigarh","latitude":30.7333,"longitude":76.7794,"temp":34.7,"humidity":38,"rain":0.0,"pressure":964.7,"uv_index":7.8,"wind_gusts":31.7,"aqi":99,"pm10":41.9,"pm2_5":30.5,"no2":3.7,"co":437.0,"o3":183.0,"so2":12.1,"mosquito_risk":0,"arthritis_risk":5,"migraine_risk":7,"frizz_risk":1,"updated_at":"2026-06-24T10:33:00.652969+05:30"},{"city":"Srinagar","state":"Jammu and Kashmir","latitude":34.0837,"longitude":74.7973,"temp":25.0,"humidity":48,"rain":0.0,"pressure":841.4,"uv_index":9.1,"wind_gusts":19.1,"aqi":72,"pm10":16.2,"pm2_5":13.6,"no2":3.0,"co":389.0,"o3":146.0,"so2":4.3,"mosquito_risk":4,"arthritis_risk":5,"migraine_risk":7,"frizz_risk":0,"updated_at":"2026-06-24T10:33:00.652977+05:30"},{"city":"Jammu","state":"Jammu and Kashmir","latitude":32.7266,"longitude":74.857,"temp":34.6,"humidity":38,"rain":0.0,"pressure":968.4,"uv_index":8.65,"wind_gusts":29.5,"aqi":80,"pm10":38.0,"pm2_5":24.4,"no2":3.9,"co":298.0,"o3":165.0,"so2":6.1,"mosquito_risk":0,"arthritis_risk":5,"migraine_risk":7,"frizz_risk":1,"updated_at":"2026-06-24T10:33:00.652984+05:30"},{"city":"Amritsar","state":"Punjab","latitude":31.634,"longitude":74.8723,"temp":33.2,"humidity":49,"rain":0.0,"pressure":976.4,"uv_index":8.45,"wind_gusts":41.4,"aqi":124,"pm10":93.8,"pm2_5":45.9,"no2":5.8,"co":314.0,"o3":151.0,"so2":9.2,"mosquito_risk":0,"arthritis_risk":5,"migraine_risk":7,"frizz_risk":1,"updated_at":"2026-06-24T10:33:00.652990+05:30"},{"city":"Ludhiana","state":"Punjab","latitude":30.901,"longitude":75.8573,"temp":35.5,"humidity":39,"rain":0.0,"pressure":974.2,"uv_index":8.0,"wind_gusts":37.4,"aqi":150,"pm10":231.4,"pm2_5":67.3,"no2":6.1,"co":442.0,"o3":163.0,"so2":11.9,"mosquito_risk":0,"arthritis_risk":5,"migraine_risk":10,"frizz_risk":1,"updated_at":"2026-06-24T10:33:00.652996+05:30"},{"city":"Jalandhar","state":"Punjab","latitude":31.326,"longitude":75.5762,"temp":35.9,"humidity":34,"rain":0.0,"pressure":975.1,"uv_index":8.25,"wind_gusts":27.4,"aqi":136,"pm10":142.5,"pm2_5":56.7,"no2":7.1,"co":390.0,"o3":166.0,"so2":10.2,"mosquito_risk":0,"arthritis_risk":5,"migraine_risk":10,"frizz_risk":1,"updated_at":"2026-06-24T10:33:00.653003+05:30"},{"city":"Dehradun","state":"Uttarakhand","latitude":30.6284,"longitude":78.0322,"temp":24.1,"humidity":52,"rain":0.0,"pressure":830.6,"uv_index":7.7,"wind_gusts":26.6,"aqi":63,"pm10":16.8,"pm2_5":15.6,"no2":0.8,"co":190.0,"o3":153.0,"so2":2.7,"mosquito_risk":0,"arthritis_risk":5,"migraine_risk":7,"frizz_risk":0,"updated_at":"2026-06-24T10:33:00.653010+05:30"},{"city":"Shimla","state":"Himachal Pradesh","latitude":31.1048,"longitude":77.1734,"temp":22.3,"humidity":41,"rain":0.1,"pressure":785.6,"uv_index":7.7,"wind_gusts":33.1,"aqi":64,"pm10":17.5,"pm2_5":12.1,"no2":0.8,"co":216.0,"o3":140.0,"so2":2.5,"mosquito_risk":3,"arthritis_risk":5,"migraine_risk":7,"frizz_risk":0,"updated_at":"2026-06-24T10:33:00.653016+05:30"},{"city":"Manali","state":"Himachal Pradesh","latitude":32.2396,"longitude":77.1887,"temp":25.1,"humidity":47,"rain":0.0,"pressure":819.1,"uv_index":8.0,"wind_gusts":38.5,"aqi":41,"pm10":5.5,"pm2_5":4.5,"no2":5.9,"co":159.0,"o3":113.0,"so2":0.4,"mosquito_risk":4,"arthritis_risk":5,"migraine_risk":7,"frizz_risk":0,"updated_at":"2026-06-24T10:33:00.653025+05:30"},{"city":"Gurgaon","state":"Haryana","latitude":28.4595,"longitude":77.0266,"temp":35.1,"humidity":39,"rain":0.0,"pressure":977.2,"uv_index":7.8,"wind_gusts":24.1,"aqi":552,"pm10":1143.7,"pm2_5":155.5,"no2":7.4,"co":265.0,"o3":117.0,"so2":9.7,"mosquito_risk":0,"arthritis_risk":5,"migraine_risk":10,"frizz_risk":1,"updated_at":"2026-06-24T10:33:00.653034+05:30"},{"city":"Noida","state":"Uttar Pradesh","latitude":28.5355,"longitude":77.391,"temp":35.0,"humidity":41,"rain":0.0,"pressure":980.0,"uv_index":7.8,"wind_gusts":24.8,"aqi":552,"pm10":1143.7,"pm2_5":155.5,"no2":7.4,"co":378.0,"o3":117.0,"so2":9.7,"mosquito_risk":0,"arthritis_risk":5,"migraine_risk":7,"frizz_risk":1,"updated_at":"2026-06-24T10:33:00.653040+05:30"},{"city":"Ghaziabad","state":"Uttar Pradesh","latitude":28.6692,"longitude":77.4538,"temp":35.5,"humidity":39,"rain":0.0,"pressure":978.3,"uv_index":7.75,"wind_gusts":17.3,"aqi":231,"pm10":425.6,"pm2_5":96.4,"no2":11.1,"co":274.0,"o3":140.0,"so2":23.9,"mosquito_risk":0,"arthritis_risk":5,"migraine_risk":10,"frizz_risk":1,"updated_at":"2026-06-24T10:33:00.653046+05:30"},{"city":"Faridabad","state":"Haryana","latitude":28.4089,"longitude":77.3178,"temp":34.6,"humidity":42,"rain":0.0,"pressure":979.4,"uv_index":7.8,"wind_gusts":24.1,"aqi":552,"pm10":1143.7,"pm2_5":155.5,"no2":7.4,"co":281.0,"o3":117.0,"so2":9.7,"mosquito_risk":0,"arthritis_risk":5,"migraine_risk":7,"frizz_risk":1,"updated_at":"2026-06-24T10:33:00.653053+05:30"},{"city":"Meerut","state":"Uttar Pradesh","latitude":28.9845,"longitude":77.7064,"temp":34.5,"humidity":45,"rain":0.0,"pressure":977.2,"uv_index":7.7,"wind_gusts":23.0,"aqi":231,"pm10":425.6,"pm2_5":96.4,"no2":11.1,"co":240.0,"o3":140.0,"so2":23.9,"mosquito_risk":0,"arthritis_risk":5,"migraine_risk":7,"frizz_risk":1,"updated_at":"2026-06-24T10:33:00.653059+05:30"},{"city":"Agra","state":"Uttar Pradesh","latitude":27.1767,"longitude":78.0081,"temp":35.6,"humidity":37,"rain":0.0,"pressure":983.5,"uv_index":8.1,"wind_gusts":28.8,"aqi":219,"pm10":514.1,"pm2_5":73.1,"no2":5.0,"co":179.0,"o3":120.0,"so2":4.9,"mosquito_risk":0,"arthritis_risk":5,"migraine_risk":10,"frizz_risk":1,"updated_at":"2026-06-24T10:33:00.653068+05:30"},{"city":"Varanasi","state":"Uttar Pradesh","latitude":25.3176,"longitude":82.9739,"temp":37.3,"humidity":39,"rain":0.0,"pressure":992.6,"uv_index":8.75,"wind_gusts":43.9,"aqi":113,"pm10":47.4,"pm2_5":23.2,"no2":2.8,"co":235.0,"o3":128.0,"so2":7.7,"mosquito_risk":0,"arthritis_risk":5,"migraine_risk":10,"frizz_risk":1,"updated_at":"2026-06-24T10:33:00.653074+05:30"},{"city":"Prayagraj","state":"Uttar Pradesh","latitude":25.4358,"longitude":81.8463,"temp":36.9,"humidity":40,"rain":0.0,"pressure":991.2,"uv_index":8.2,"wind_gusts":38.5,"aqi":112,"pm10":106.6,"pm2_5":38.5,"no2":2.9,"co":195.0,"o3":138.0,"so2":8.7,"mosquito_risk":0,"arthritis_risk":5,"migraine_risk":10,"frizz_risk":1,"updated_at":"2026-06-24T10:33:00.653081+05:30"},{"city":"Gorakhpur","state":"Uttar Pradesh","latitude":26.7606,"longitude":83.3732,"temp":35.9,"humidity":47,"rain":0.0,"pressure":992.1,"uv_index":8.6,"wind_gusts":28.1,"aqi":155,"pm10":141.6,"pm2_5":80.3,"no2":5.5,"co":382.0,"o3":203.0,"so2":14.0,"mosquito_risk":0,"arthritis_risk":5,"migraine_risk":10,"frizz_risk":1,"updated_at":"2026-06-24T10:33:00.653087+05:30"},{"city":"Bareilly","state":"Uttar Pradesh","latitude":28.367,"longitude":79.4304,"temp":35.6,"humidity":40,"rain":0.0,"pressure":982.2,"uv_index":8.1,"wind_gusts":26.3,"aqi":152,"pm10":302.7,"pm2_5":87.1,"no2":5.8,"co":286.0,"o3":154.0,"so2":12.8,"mosquito_risk":0,"arthritis_risk":5,"migraine_risk":10,"frizz_risk":1,"updated_at":"2026-06-24T10:33:00.653095+05:30"},{"city":"Aligarh","state":"Uttar Pradesh","latitude":27.8974,"longitude":78.088,"temp":35.0,"humidity":39,"rain":0.0,"pressure":981.4,"uv_index":7.95,"wind_gusts":32.4,"aqi":359,"pm10":525.3,"pm2_5":82.7,"no2":4.4,"co":217.0,"o3":117.0,"so2":8.0,"mosquito_risk":0,"arthritis_risk":5,"migraine_risk":7,"frizz_risk":1,"updated_at":"2026-06-24T10:33:00.653101+05:30"},{"city":"Moradabad","state":"Uttar Pradesh","latitude":28.8386,"longitude":78.7733,"temp":35.6,"humidity":41,"rain":0.0,"pressure":979.3,"uv_index":7.9,"wind_gusts":29.2,"aqi":162,"pm10":431.2,"pm2_5":112.0,"no2":8.8,"co":283.0,"o3":168.0,"so2":20.4,"mosquito_risk":0,"arthritis_risk":5,"migraine_risk":10,"frizz_risk":1,"updated_at":"2026-06-24T10:33:00.653107+05:30"},{"city":"Saharanpur","state":"Uttar Pradesh","latitude":29.9637,"longitude":77.546,"temp":33.4,"humidity":51,"rain":0.0,"pressure":971.5,"uv_index":7.45,"wind_gusts":25.6,"aqi":154,"pm10":77.1,"pm2_5":34.6,"no2":4.8,"co":362.0,"o3":184.0,"so2":11.3,"mosquito_risk":0,"arthritis_risk":5,"migraine_risk":7,"frizz_risk":1,"updated_at":"2026-06-24T10:33:00.653113+05:30"},{"city":"Jhansi","state":"Uttar Pradesh","latitude":25.4484,"longitude":78.5685,"temp":32.3,"humidity":49,"rain":0.0,"pressure":974.6,"uv_index":8.45,"wind_gusts":41.4,"aqi":82,"pm10":39.6,"pm2_5":21.4,"no2":2.5,"co":164.0,"o3":111.0,"so2":9.1,"mosquito_risk":0,"arthritis_risk":5,"migraine_risk":7,"frizz_risk":1,"updated_at":"2026-06-24T10:33:04.042290+05:30"},{"city":"Surat","state":"Gujarat","latitude":21.1702,"longitude":72.8311,"temp":31.0,"humidity":69,"rain":0.0,"pressure":1004.4,"uv_index":1.2,"wind_gusts":50.4,"aqi":75,"pm10":72.6,"pm2_5":31.3,"no2":15.6,"co":469.0,"o3":50.0,"so2":45.1,"mosquito_risk":3,"arthritis_risk":5,"migraine_risk":0,"frizz_risk":1,"updated_at":"2026-06-24T10:33:04.042325+05:30"},{"city":"Vadodara","state":"Gujarat","latitude":22.3072,"longitude":73.1812,"temp":33.4,"humidity":55,"rain":0.0,"pressure":1001.5,"uv_index":5.55,"wind_gusts":50.0,"aqi":71,"pm10":55.6,"pm2_5":24.3,"no2":4.0,"co":156.0,"o3":75.0,"so2":8.2,"mosquito_risk":0,"arthritis_risk":5,"migraine_risk":0,"frizz_risk":1,"updated_at":"2026-06-24T10:33:04.042336+05:30"},{"city":"Rajkot","state":"Gujarat","latitude":22.3039,"longitude":70.8022,"temp":34.0,"humidity":46,"rain":0.0,"pressure":991.3,"uv_index":7.55,"wind_gusts":45.4,"aqi":70,"pm10":44.6,"pm2_5":18.5,"no2":2.0,"co":104.0,"o3":69.0,"so2":4.5,"mosquito_risk":0,"arthritis_risk":5,"migraine_risk":7,"frizz_risk":1,"updated_at":"2026-06-24T10:33:04.042345+05:30"},{"city":"Thane","state":"Maharashtra","latitude":19.2183,"longitude":72.9781,"temp":24.9,"humidity":98,"rain":0.1,"pressure":1007.1,"uv_index":0.7,"wind_gusts":31.3,"aqi":45,"pm10":30.5,"pm2_5":14.0,"no2":13.1,"co":305.0,"o3":55.0,"so2":9.4,"mosquito_risk":6,"arthritis_risk":5,"migraine_risk":0,"frizz_risk":1,"updated_at":"2026-06-24T10:33:04.042353+05:30"},{"city":"Nagpur","state":"Maharashtra","latitude":21.1458,"longitude":79.0882,"temp":29.6,"humidity":66,"rain":0.0,"pressure":971.2,"uv_index":8.8,"wind_gusts":25.2,"aqi":42,"pm10":10.0,"pm2_5":10.0,"no2":12.8,"co":207.0,"o3":81.0,"so2":36.2,"mosquito_risk":7,"arthritis_risk":5,"migraine_risk":7,"frizz_risk":1,"updated_at":"2026-06-24T10:33:04.042361+05:30"},{"city":"Nashik","state":"Maharashtra","latitude":19.9975,"longitude":73.7898,"temp":25.2,"humidity":77,"rain":0.0,"pressure":943.9,"uv_index":1.05,"wind_gusts":40.3,"aqi":19,"pm10":5.2,"pm2_5":2.8,"no2":6.6,"co":125.0,"o3":52.0,"so2":1.7,"mosquito_risk":7,"arthritis_risk":5,"migraine_risk":3,"frizz_risk":1,"updated_at":"2026-06-24T10:33:04.042368+05:30"},{"city":"Aurangabad","state":"Maharashtra","latitude":19.8762,"longitude":75.3433,"temp":23.5,"humidity":93,"rain":0.4,"pressure":942.1,"uv_index":5.65,"wind_gusts":36.4,"aqi":24,"pm10":15.4,"pm2_5":7.2,"no2":5.4,"co":148.0,"o3":58.0,"so2":5.5,"mosquito_risk":6,"arthritis_risk":5,"migraine_risk":3,"frizz_risk":1,"updated_at":"2026-06-24T10:33:04.042375+05:30"},{"city":"Solapur","state":"Maharashtra","latitude":17.6599,"longitude":75.9064,"temp":30.2,"humidity":51,"rain":0.0,"pressure":956.2,"uv_index":5.2,"wind_gusts":57.6,"aqi":21,"pm10":5.6,"pm2_5":3.2,"no2":1.6,"co":127.0,"o3":71.0,"so2":1.7,"mosquito_risk":0,"arthritis_risk":5,"migraine_risk":3,"frizz_risk":1,"updated_at":"2026-06-24T10:33:04.042382+05:30"},{"city":"Kolhapur","state":"Maharashtra","latitude":16.705,"longitude":74.2433,"temp":23.3,"humidity":86,"rain":0.2,"pressure":947.8,"uv_index":4.3,"wind_gusts":42.1,"aqi":22,"pm10":3.6,"pm2_5":3.3,"no2":4.0,"co":174.0,"o3":60.0,"so2":1.9,"mosquito_risk":6,"arthritis_risk":5,"migraine_risk":3,"frizz_risk":1,"updated_at":"2026-06-24T10:33:04.042390+05:30"},{"city":"Goa","state":"Goa","latitude":15.2993,"longitude":74.124,"temp":27.0,"humidity":83,"rain":0.1,"pressure":999.6,"uv_index":6.1,"wind_gusts":29.5,"aqi":35,"pm10":18.2,"pm2_5":9.5,"no2":1.8,"co":175.0,"o3":61.0,"so2":1.3,"mosquito_risk":10,"arthritis_risk":5,"migraine_risk":7,"frizz_risk":1,"updated_at":"2026-06-24T10:33:04.042398+05:30"},{"city":"Jodhpur","state":"Rajasthan","latitude":26.2389,"longitude":73.0243,"temp":34.5,"humidity":46,"rain":0.0,"pressure":978.8,"uv_index":8.4,"wind_gusts":41.0,"aqi":138,"pm10":248.7,"pm2_5":55.8,"no2":1.2,"co":113.0,"o3":70.0,"so2":3.1,"mosquito_risk":0,"arthritis_risk":5,"migraine_risk":7,"frizz_risk":1,"updated_at":"2026-06-24T10:33:04.042404+05:30"},{"city":"Udaipur","state":"Rajasthan","latitude":24.5854,"longitude":73.7125,"temp":32.0,"humidity":49,"rain":0.0,"pressure":943.9,"uv_index":8.75,"wind_gusts":34.2,"aqi":71,"pm10":55.3,"pm2_5":22.5,"no2":0.9,"co":115.0,"o3":73.0,"so2":2.9,"mosquito_risk":0,"arthritis_risk":5,"migraine_risk":7,"frizz_risk":1,"updated_at":"2026-06-24T10:33:04.042411+05:30"},{"city":"Kota","state":"Rajasthan","latitude":25.2138,"longitude":75.8648,"temp":35.5,"humidity":43,"rain":0.0,"pressure":975.1,"uv_index":8.3,"wind_gusts":35.6,"aqi":80,"pm10":69.6,"pm2_5":29.7,"no2":3.0,"co":167.0,"o3":97.0,"so2":9.6,"mosquito_risk":0,"arthritis_risk":5,"migraine_risk":10,"frizz_risk":1,"updated_at":"2026-06-24T10:33:04.042418+05:30"},{"city":"Bikaner","state":"Rajasthan","latitude":28.0229,"longitude":73.3119,"temp":36.7,"humidity":38,"rain":0.0,"pressure":977.0,"uv_index":8.45,"wind_gusts":40.0,"aqi":153,"pm10":304.5,"pm2_5":103.8,"no2":0.7,"co":134.0,"o3":92.0,"so2":4.1,"mosquito_risk":0,"arthritis_risk":5,"migraine_risk":10,"frizz_risk":1,"updated_at":"2026-06-24T10:33:04.042424+05:30"},{"city":"Ajmer","state":"Rajasthan","latitude":26.4499,"longitude":74.6399,"temp":27.5,"humidity":68,"rain":0.1,"pressure":952.0,"uv_index":8.35,"wind_gusts":39.6,"aqi":83,"pm10":121.1,"pm2_5":38.6,"no2":1.4,"co":125.0,"o3":78.0,"so2":4.0,"mosquito_risk":10,"arthritis_risk":5,"migraine_risk":7,"frizz_risk":1,"updated_at":"2026-06-24T10:33:04.042431+05:30"},{"city":"Gwalior","state":"Madhya Pradesh","latitude":26.2183,"longitude":78.1828,"temp":35.2,"humidity":42,"rain":0.0,"pressure":979.2,"uv_index":8.15,"wind_gusts":36.4,"aqi":109,"pm10":54.2,"pm2_5":25.7,"no2":1.8,"co":149.0,"o3":108.0,"so2":4.6,"mosquito_risk":0,"arthritis_risk":5,"migraine_risk":10,"frizz_risk":1,"updated_at":"2026-06-24T10:33:04.042438+05:30"},{"city":"Indore","state":"Madhya Pradesh","latitude":22.7196,"longitude":75.8577,"temp":27.7,"humidity":72,"rain":0.0,"pressure":946.0,"uv_index":7.65,"wind_gusts":37.1,"aqi":68,"pm10":49.2,"pm2_5":23.9,"no2":4.7,"co":196.0,"o3":81.0,"so2":9.7,"mosquito_risk":7,"arthritis_risk":5,"migraine_risk":7,"frizz_risk":1,"updated_at":"2026-06-24T10:33:04.042444+05:30"},{"city":"Bhopal","state":"Madhya Pradesh","latitude":23.2599,"longitude":77.4126,"temp":29.2,"humidity":69,"rain":0.0,"pressure":951.1,"uv_index":3.8,"wind_gusts":47.2,"aqi":54,"pm10":37.3,"pm2_5":21.5,"no2":2.0,"co":249.0,"o3":110.0,"so2":5.3,"mosquito_risk":7,"arthritis_risk":5,"migraine_risk":3,"frizz_risk":1,"updated_at":"2026-06-24T10:33:04.042451+05:30"},{"city":"Jabalpur","state":"Madhya Pradesh","latitude":23.1815,"longitude":79.9864,"temp":32.4,"humidity":53,"rain":0.0,"pressure":959.1,"uv_index":8.55,"wind_gusts":27.0,"aqi":53,"pm10":9.5,"pm2_5":8.3,"no2":2.0,"co":154.0,"o3":106.0,"so2":5.4,"mosquito_risk":0,"arthritis_risk":5,"migraine_risk":7,"frizz_risk":1,"updated_at":"2026-06-24T10:33:04.042457+05:30"},{"city":"Ujjain","state":"Madhya Pradesh","latitude":23.1765,"longitude":75.7885,"temp":29.3,"humidity":68,"rain":0.0,"pressure":951.5,"uv_index":3.8,"wind_gusts":36.4,"aqi":74,"pm10":52.7,"pm2_5":26.0,"no2":3.2,"co":168.0,"o3":80.0,"so2":9.6,"mosquito_risk":7,"arthritis_risk":5,"migraine_risk":3,"frizz_risk":1,"updated_at":"2026-06-24T10:33:04.042464+05:30"},{"city":"Visakhapatnam","state":"Andhra Pradesh","latitude":17.6868,"longitude":83.2185,"temp":32.7,"humidity":59,"rain":0.0,"pressure":1000.5,"uv_index":6.65,"wind_gusts":38.2,"aqi":73,"pm10":22.9,"pm2_5":20.0,"no2":12.5,"co":414.0,"o3":102.0,"so2":35.7,"mosquito_risk":0,"arthritis_risk":5,"migraine_risk":4,"frizz_risk":1,"updated_at":"2026-06-24T10:33:04.042470+05:30"},{"city":"Vijayawada","state":"Andhra Pradesh","latitude":16.5062,"longitude":80.648,"temp":32.8,"humidity":52,"rain":0.0,"pressure":1000.6,"uv_index":8.75,"wind_gusts":32.0,"aqi":63,"pm10":7.5,"pm2_5":6.2,"no2":2.6,"co":155.0,"o3":74.0,"so2":5.2,"mosquito_risk":0,"arthritis_risk":5,"migraine_risk":4,"frizz_risk":1,"updated_at":"2026-06-24T10:33:04.042476+05:30"},{"city":"Guntur","state":"Andhra Pradesh","latitude":16.3067,"longitude":80.4365,"temp":32.8,"humidity":52,"rain":0.0,"pressure":1001.9,"uv_index":8.0,"wind_gusts":35.6,"aqi":55,"pm10":5.6,"pm2_5":4.8,"no2":2.1,"co":141.0,"o3":71.0,"so2":4.9,"mosquito_risk":0,"arthritis_risk":5,"migraine_risk":4,"frizz_risk":1,"updated_at":"2026-06-24T10:33:04.042482+05:30"},{"city":"Nellore","state":"Andhra Pradesh","latitude":14.4426,"longitude":79.9865,"temp":33.7,"humidity":47,"rain":0.0,"pressure":1004.6,"uv_index":8.8,"wind_gusts":45.7,"aqi":47,"pm10":10.5,"pm2_5":6.6,"no2":2.2,"co":151.0,"o3":72.0,"so2":4.6,"mosquito_risk":0,"arthritis_risk":5,"migraine_risk":4,"frizz_risk":1,"updated_at":"2026-06-24T10:33:04.042489+05:30"},{"city":"Kurnool","state":"Andhra Pradesh","latitude":15.8281,"longitude":78.0373,"temp":30.6,"humidity":55,"rain":0.0,"pressure":976.4,"uv_index":6.9,"wind_gusts":51.1,"aqi":18,"pm10":5.8,"pm2_5":3.6,"no2":1.4,"co":111.0,"o3":69.0,"so2":2.3,"mosquito_risk":0,"arthritis_risk":5,"migraine_risk":7,"frizz_risk":1,"updated_at":"2026-06-24T10:33:04.042497+05:30"},{"city":"Kakinada","state":"Andhra Pradesh","latitude":16.9891,"longitude":82.2475,"temp":32.3,"humidity":56,"rain":0.0,"pressure":1004.8,"uv_index":7.9,"wind_gusts":34.6,"aqi":65,"pm10":22.4,"pm2_5":17.2,"no2":2.5,"co":240.0,"o3":104.0,"so2":5.1,"mosquito_risk":0,"arthritis_risk":5,"migraine_risk":4,"frizz_risk":1,"updated_at":"2026-06-24T10:33:04.042503+05:30"},{"city":"Tirupati","state":"Andhra Pradesh","latitude":13.6288,"longitude":79.4192,"temp":31.8,"humidity":49,"rain":0.0,"pressure":990.6,"uv_index":8.7,"wind_gusts":40.7,"aqi":47,"pm10":12.3,"pm2_5":8.6,"no2":4.0,"co":126.0,"o3":71.0,"so2":2.4,"mosquito_risk":0,"arthritis_risk":5,"migraine_risk":7,"frizz_risk":1,"updated_at":"2026-06-24T10:33:04.042509+05:30"},{"city":"Warangal","state":"Telangana","latitude":17.9689,"longitude":79.5941,"temp":30.4,"humidity":57,"rain":0.0,"pressure":976.8,"uv_index":6.75,"wind_gusts":37.8,"aqi":43,"pm10":4.7,"pm2_5":4.5,"no2":1.9,"co":147.0,"o3":70.0,"so2":2.7,"mosquito_risk":0,"arthritis_risk":5,"migraine_risk":7,"frizz_risk":1,"updated_at":"2026-06-24T10:33:04.042516+05:30"},{"city":"Nizamabad","state":"Telangana","latitude":18.6725,"longitude":78.0941,"temp":30.6,"humidity":56,"rain":0.1,"pressure":962.7,"uv_index":6.5,"wind_gusts":38.5,"aqi":23,"pm10":3.6,"pm2_5":3.6,"no2":3.0,"co":133.0,"o3":59.0,"so2":3.5,"mosquito_risk":3,"arthritis_risk":5,"migraine_risk":7,"frizz_risk":1,"updated_at":"2026-06-24T10:33:04.042523+05:30"},{"city":"Mysore","state":"Karnataka","latitude":12.2958,"longitude":76.6396,"temp":26.6,"humidity":63,"rain":0.0,"pressure":930.6,"uv_index":8.7,"wind_gusts":55.8,"aqi":22,"pm10":7.4,"pm2_5":4.4,"no2":2.3,"co":123.0,"o3":60.0,"so2":1.6,"mosquito_risk":7,"arthritis_risk":5,"migraine_risk":7,"frizz_risk":1,"updated_at":"2026-06-24T10:33:04.042529+05:30"},{"city":"Mangalore","state":"Karnataka","latitude":12.9141,"longitude":74.856,"temp":25.7,"humidity":92,"rain":0.1,"pressure":1009.3,"uv_index":8.35,"wind_gusts":38.9,"aqi":40,"pm10":13.2,"pm2_5":8.4,"no2":4.4,"co":159.0,"o3":45.0,"so2":1.9,"mosquito_risk":10,"arthritis_risk":0,"migraine_risk":4,"frizz_risk":1,"updated_at":"2026-06-24T10:33:04.042536+05:30"},{"city":"Hubli-Dharwad","state":"Karnataka","latitude":15.3647,"longitude":75.124,"temp":25.5,"humidity":78,"rain":0.1,"pressure":941.6,"uv_index":5.9,"wind_gusts":49.3,"aqi":20,"pm10":5.8,"pm2_5":3.1,"no2":2.2,"co":110.0,"o3":57.0,"so2":1.0,"mosquito_risk":10,"arthritis_risk":5,"migraine_risk":3,"frizz_risk":1,"updated_at":"2026-06-24T10:33:04.042543+05:30"},{"city":"Belgaum","state":"Karnataka","latitude":15.8497,"longitude":74.4977,"temp":23.3,"humidity":83,"rain":0.0,"pressure":926.0,"uv_index":7.55,"wind_gusts":46.1,"aqi":21,"pm10":5.8,"pm2_5":2.9,"no2":2.4,"co":119.0,"o3":54.0,"so2":1.0,"mosquito_risk":3,"arthritis_risk":5,"migraine_risk":7,"frizz_risk":1,"updated_at":"2026-06-24T10:33:07.265871+05:30"},{"city":"Coimbatore","state":"Tamil Nadu","latitude":11.0168,"longitude":76.9558,"temp":29.4,"humidity":59,"rain":0.0,"pressure":963.8,"uv_index":8.15,"wind_gusts":50.8,"aqi":29,"pm10":8.4,"pm2_5":5.6,"no2":2.1,"co":177.0,"o3":66.0,"so2":2.6,"mosquito_risk":4,"arthritis_risk":5,"migraine_risk":7,"frizz_risk":1,"updated_at":"2026-06-24T10:33:07.265906+05:30"},{"city":"Madurai","state":"Tamil Nadu","latitude":9.9252,"longitude":78.1198,"temp":33.9,"humidity":42,"rain":0.0,"pressure":993.8,"uv_index":7.75,"wind_gusts":27.4,"aqi":62,"pm10":14.3,"pm2_5":9.5,"no2":5.6,"co":160.0,"o3":71.0,"so2":4.1,"mosquito_risk":0,"arthritis_risk":5,"migraine_risk":7,"frizz_risk":1,"updated_at":"2026-06-24T10:33:07.265917+05:30"},{"city":"Trichy","state":"Tamil Nadu","latitude":10.7905,"longitude":78.7047,"temp":32.7,"humidity":47,"rain":0.0,"pressure":1000.2,"uv_index":7.85,"wind_gusts":46.4,"aqi":29,"pm10":16.6,"pm2_5":10.6,"no2":3.8,"co":124.0,"o3":66.0,"so2":3.5,"mosquito_risk":0,"arthritis_risk":5,"migraine_risk":4,"frizz_risk":1,"updated_at":"2026-06-24T10:33:07.265925+05:30"},{"city":"Salem","state":"Tamil Nadu","latitude":11.6643,"longitude":78.146,"temp":29.8,"humidity":61,"rain":0.0,"pressure":978.5,"uv_index":8.7,"wind_gusts":37.4,"aqi":50,"pm10":23.5,"pm2_5":16.3,"no2":7.1,"co":210.0,"o3":90.0,"so2":10.3,"mosquito_risk":7,"arthritis_risk":5,"migraine_risk":7,"frizz_risk":1,"updated_at":"2026-06-24T10:33:07.265934+05:30"},{"city":"Tirunelveli","state":"Tamil Nadu","latitude":8.7139,"longitude":77.7567,"temp":34.7,"humidity":43,"rain":0.0,"pressure":1004.2,"uv_index":8.25,"wind_gusts":46.8,"aqi":27,"pm10":6.7,"pm2_5":4.9,"no2":2.0,"co":133.0,"o3":65.0,"so2":1.5,"mosquito_risk":0,"arthritis_risk":5,"migraine_risk":4,"frizz_risk":1,"updated_at":"2026-06-24T10:33:07.265941+05:30"},{"city":"Vellore","state":"Tamil Nadu","latitude":12.9165,"longitude":79.1325,"temp":31.0,"humidity":53,"rain":0.0,"pressure":984.6,"uv_index":7.7,"wind_gusts":51.8,"aqi":39,"pm10":13.4,"pm2_5":9.2,"no2":4.2,"co":144.0,"o3":73.0,"so2":4.1,"mosquito_risk":0,"arthritis_risk":5,"migraine_risk":7,"frizz_risk":1,"updated_at":"2026-06-24T10:33:07.265949+05:30"},{"city":"Erode","state":"Tamil Nadu","latitude":11.341,"longitude":77.7172,"temp":30.7,"humidity":53,"rain":0.0,"pressure":990.3,"uv_index":8.35,"wind_gusts":47.5,"aqi":46,"pm10":14.4,"pm2_5":9.9,"no2":4.5,"co":180.0,"o3":73.0,"so2":3.5,"mosquito_risk":0,"arthritis_risk":5,"migraine_risk":7,"frizz_risk":1,"updated_at":"2026-06-24T10:33:07.265956+05:30"},{"city":"Kochi","state":"Kerala","latitude":9.9312,"longitude":76.2673,"temp":27.9,"humidity":80,"rain":0.0,"pressure":1011.9,"uv_index":7.05,"wind_gusts":47.9,"aqi":48,"pm10":9.2,"pm2_5":6.9,"no2":5.4,"co":193.0,"o3":58.0,"so2":4.1,"mosquito_risk":7,"arthritis_risk":0,"migraine_risk":4,"frizz_risk":1,"updated_at":"2026-06-24T10:33:07.265963+05:30"},{"city":"Thiruvananthapuram","state":"Kerala","latitude":8.5241,"longitude":76.9366,"temp":28.1,"humidity":78,"rain":0.1,"pressure":1010.8,"uv_index":7.95,"wind_gusts":43.9,"aqi":32,"pm10":10.2,"pm2_5":7.0,"no2":1.9,"co":131.0,"o3":64.0,"so2":1.8,"mosquito_risk":10,"arthritis_risk":0,"migraine_risk":4,"frizz_risk":1,"updated_at":"2026-06-24T10:33:07.265970+05:30"},{"city":"Kozhikode","state":"Kerala","latitude":11.2588,"longitude":75.7804,"temp":25.6,"humidity":92,"rain":0.1,"pressure":1011.4,"uv_index":8.35,"wind_gusts":43.2,"aqi":24,"pm10":9.9,"pm2_5":5.5,"no2":0.7,"co":138.0,"o3":54.0,"so2":0.7,"mosquito_risk":10,"arthritis_risk":0,"migraine_risk":4,"frizz_risk":1,"updated_at":"2026-06-24T10:33:07.265976+05:30"},{"city":"Thrissur","state":"Kerala","latitude":10.5276,"longitude":76.2144,"temp":25.3,"humidity":94,"rain":0.2,"pressure":1010.2,"uv_index":7.4,"wind_gusts":40.3,"aqi":49,"pm10":8.4,"pm2_5":6.7,"no2":3.8,"co":168.0,"o3":59.0,"so2":2.7,"mosquito_risk":10,"arthritis_risk":0,"migraine_risk":4,"frizz_risk":1,"updated_at":"2026-06-24T10:33:07.265983+05:30"},{"city":"Kannur","state":"Kerala","latitude":11.8745,"longitude":75.3704,"temp":25.6,"humidity":94,"rain":0.4,"pressure":1010.4,"uv_index":8.5,"wind_gusts":39.6,"aqi":34,"pm10":8.5,"pm2_5":5.1,"no2":2.9,"co":128.0,"o3":49.0,"so2":1.6,"mosquito_risk":10,"arthritis_risk":0,"migraine_risk":4,"frizz_risk":1,"updated_at":"2026-06-24T10:33:07.265990+05:30"},{"city":"Patna","state":"Bihar","latitude":25.5941,"longitude":85.1376,"temp":36.1,"humidity":44,"rain":0.0,"pressure":995.5,"uv_index":8.85,"wind_gusts":28.1,"aqi":164,"pm10":67.1,"pm2_5":51.0,"no2":7.2,"co":287.0,"o3":178.0,"so2":15.1,"mosquito_risk":0,"arthritis_risk":5,"migraine_risk":10,"frizz_risk":1,"updated_at":"2026-06-24T10:33:07.265997+05:30"},{"city":"Gaya","state":"Bihar","latitude":24.7914,"longitude":85.0002,"temp":35.5,"humidity":47,"rain":0.0,"pressure":989.4,"uv_index":8.9,"wind_gusts":31.7,"aqi":133,"pm10":40.4,"pm2_5":29.3,"no2":3.4,"co":204.0,"o3":145.0,"so2":13.7,"mosquito_risk":0,"arthritis_risk":5,"migraine_risk":10,"frizz_risk":1,"updated_at":"2026-06-24T10:33:07.266004+05:30"},{"city":"Muzaffarpur","state":"Bihar","latitude":26.1209,"longitude":85.3647,"temp":32.7,"humidity":67,"rain":0.0,"pressure":995.9,"uv_index":8.8,"wind_gusts":30.2,"aqi":162,"pm10":102.4,"pm2_5":76.1,"no2":6.5,"co":476.0,"o3":214.0,"so2":21.0,"mosquito_risk":3,"arthritis_risk":5,"migraine_risk":7,"frizz_risk":1,"updated_at":"2026-06-24T10:33:07.266010+05:30"},{"city":"Bhagalpur","state":"Bihar","latitude":25.2425,"longitude":87.0117,"temp":33.8,"humidity":64,"rain":0.0,"pressure":996.6,"uv_index":8.8,"wind_gusts":25.2,"aqi":155,"pm10":104.5,"pm2_5":64.3,"no2":7.1,"co":379.0,"o3":191.0,"so2":37.4,"mosquito_risk":3,"arthritis_risk":5,"migraine_risk":7,"frizz_risk":1,"updated_at":"2026-06-24T10:33:07.266016+05:30"},{"city":"Ranchi","state":"Jharkhand","latitude":23.3441,"longitude":85.3096,"temp":31.8,"humidity":51,"rain":0.0,"pressure":935.2,"uv_index":8.45,"wind_gusts":34.2,"aqi":103,"pm10":38.3,"pm2_5":26.3,"no2":2.2,"co":194.0,"o3":135.0,"so2":12.5,"mosquito_risk":0,"arthritis_risk":5,"migraine_risk":7,"frizz_risk":1,"updated_at":"2026-06-24T10:33:07.266023+05:30"},{"city":"Jamshedpur","state":"Jharkhand","latitude":22.8046,"longitude":86.2029,"temp":32.1,"humidity":65,"rain":0.0,"pressure":987.0,"uv_index":8.75,"wind_gusts":23.8,"aqi":133,"pm10":45.4,"pm2_5":38.8,"no2":5.3,"co":238.0,"o3":158.0,"so2":29.2,"mosquito_risk":3,"arthritis_risk":5,"migraine_risk":7,"frizz_risk":1,"updated_at":"2026-06-24T10:33:07.266030+05:30"},{"city":"Dhanbad","state":"Jharkhand","latitude":23.7957,"longitude":86.4304,"temp":34.5,"humidity":51,"rain":0.0,"pressure":975.8,"uv_index":8.75,"wind_gusts":29.5,"aqi":152,"pm10":69.6,"pm2_5":47.5,"no2":14.3,"co":218.0,"o3":148.0,"so2":54.4,"mosquito_risk":0,"arthritis_risk":5,"migraine_risk":7,"frizz_risk":1,"updated_at":"2026-06-24T10:33:07.266036+05:30"},{"city":"Bokaro","state":"Jharkhand","latitude":23.6693,"longitude":86.1511,"temp":35.0,"humidity":47,"rain":0.0,"pressure":979.6,"uv_index":8.9,"wind_gusts":31.0,"aqi":138,"pm10":62.2,"pm2_5":42.4,"no2":12.3,"co":225.0,"o3":146.0,"so2":51.3,"mosquito_risk":0,"arthritis_risk":5,"migraine_risk":7,"frizz_risk":1,"updated_at":"2026-06-24T10:33:07.266043+05:30"},{"city":"Bhubaneswar","state":"Odisha","latitude":20.2961,"longitude":85.8245,"temp":32.2,"humidity":64,"rain":0.0,"pressure":999.0,"uv_index":9.05,"wind_gusts":27.4,"aqi":86,"pm10":22.9,"pm2_5":21.9,"no2":5.0,"co":225.0,"o3":148.0,"so2":13.9,"mosquito_risk":3,"arthritis_risk":5,"migraine_risk":7,"frizz_risk":1,"updated_at":"2026-06-24T10:33:07.266049+05:30"},{"city":"Cuttack","state":"Odisha","latitude":20.4625,"longitude":85.8828,"temp":32.3,"humidity":64,"rain":0.0,"pressure":1000.7,"uv_index":9.1,"wind_gusts":32.0,"aqi":86,"pm10":22.9,"pm2_5":21.9,"no2":5.0,"co":275.0,"o3":148.0,"so2":13.9,"mosquito_risk":3,"arthritis_risk":5,"migraine_risk":4,"frizz_risk":1,"updated_at":"2026-06-24T10:33:07.266056+05:30"},{"city":"Rourkela","state":"Odisha","latitude":22.2604,"longitude":84.8536,"temp":32.4,"humidity":60,"rain":0.0,"pressure":982.0,"uv_index":8.8,"wind_gusts":29.5,"aqi":132,"pm10":26.3,"pm2_5":24.3,"no2":4.9,"co":230.0,"o3":136.0,"so2":18.9,"mosquito_risk":0,"arthritis_risk":5,"migraine_risk":7,"frizz_risk":1,"updated_at":"2026-06-24T10:33:07.266062+05:30"},{"city":"Raipur","state":"Chhattisgarh","latitude":21.2514,"longitude":81.6296,"temp":32.5,"humidity":55,"rain":0.0,"pressure":972.3,"uv_index":8.75,"wind_gusts":32.4,"aqi":65,"pm10":17.9,"pm2_5":17.7,"no2":13.9,"co":454.0,"o3":93.0,"so2":47.6,"mosquito_risk":0,"arthritis_risk":5,"migraine_risk":7,"frizz_risk":1,"updated_at":"2026-06-24T10:33:07.266069+05:30"},{"city":"Bhilai","state":"Chhattisgarh","latitude":21.1938,"longitude":81.3509,"temp":31.4,"humidity":59,"rain":0.0,"pressure":972.8,"uv_index":8.9,"wind_gusts":30.6,"aqi":59,"pm10":15.5,"pm2_5":15.3,"no2":12.1,"co":679.0,"o3":93.0,"so2":41.4,"mosquito_risk":0,"arthritis_risk":5,"migraine_risk":7,"frizz_risk":1,"updated_at":"2026-06-24T10:33:07.266075+05:30"},{"city":"Guwahati","state":"Assam","latitude":26.1158,"longitude":91.7086,"temp":28.9,"humidity":76,"rain":0.0,"pressure":997.7,"uv_index":8.75,"wind_gusts":22.7,"aqi":57,"pm10":21.9,"pm2_5":13.5,"no2":2.0,"co":298.0,"o3":123.0,"so2":3.1,"mosquito_risk":7,"arthritis_risk":5,"migraine_risk":7,"frizz_risk":1,"updated_at":"2026-06-24T10:33:07.266081+05:30"},{"city":"Agartala","state":"Tripura","latitude":23.8315,"longitude":91.2868,"temp":30.4,"humidity":74,"rain":0.0,"pressure":1002.6,"uv_index":7.8,"wind_gusts":23.8,"aqi":69,"pm10":20.3,"pm2_5":17.0,"no2":5.6,"co":184.0,"o3":116.0,"so2":2.9,"mosquito_risk":3,"arthritis_risk":5,"migraine_risk":4,"frizz_risk":1,"updated_at":"2026-06-24T10:33:07.266087+05:30"},{"city":"Shillong","state":"Meghalaya","latitude":25.5788,"longitude":91.8933,"temp":23.6,"humidity":75,"rain":0.1,"pressure":856.1,"uv_index":7.8,"wind_gusts":21.6,"aqi":42,"pm10":10.7,"pm2_5":6.3,"no2":2.0,"co":231.0,"o3":113.0,"so2":3.1,"mosquito_risk":6,"arthritis_risk":5,"migraine_risk":7,"frizz_risk":1,"updated_at":"2026-06-24T10:33:07.266093+05:30"},{"city":"Imphal","state":"Manipur","latitude":24.817,"longitude":93.9368,"temp":27.5,"humidity":74,"rain":0.0,"pressure":920.4,"uv_index":8.25,"wind_gusts":28.1,"aqi":49,"pm10":9.2,"pm2_5":6.7,"no2":1.3,"co":184.0,"o3":105.0,"so2":1.6,"mosquito_risk":7,"arthritis_risk":5,"migraine_risk":7,"frizz_risk":1,"updated_at":"2026-06-24T10:33:07.266100+05:30"},{"city":"Aizawl","state":"Mizoram","latitude":23.7271,"longitude":92.7176,"temp":23.6,"humidity":82,"rain":0.0,"pressure":890.3,"uv_index":4.85,"wind_gusts":21.2,"aqi":23,"pm10":10.5,"pm2_5":6.5,"no2":0.8,"co":143.0,"o3":95.0,"so2":0.8,"mosquito_risk":3,"arthritis_risk":5,"migraine_risk":3,"frizz_risk":1,"updated_at":"2026-06-24T10:33:07.266106+05:30"},{"city":"Kohima","state":"Nagaland","latitude":25.6701,"longitude":94.1077,"temp":20.9,"humidity":96,"rain":0.0,"pressure":852.9,"uv_index":7.5,"wind_gusts":26.3,"aqi":34,"pm10":5.6,"pm2_5":4.4,"no2":1.2,"co":185.0,"o3":99.0,"so2":1.1,"mosquito_risk":3,"arthritis_risk":5,"migraine_risk":7,"frizz_risk":1,"updated_at":"2026-06-24T10:33:07.266113+05:30"},{"city":"Gangtok","state":"Sikkim","latitude":27.3314,"longitude":88.6138,"temp":24.2,"humidity":61,"rain":0.0,"pressure":836.9,"uv_index":8.85,"wind_gusts":36.4,"aqi":72,"pm10":26.5,"pm2_5":13.7,"no2":1.2,"co":290.0,"o3":139.0,"so2":3.7,"mosquito_risk":3,"arthritis_risk":5,"migraine_risk":7,"frizz_risk":1,"updated_at":"2026-06-24T10:33:07.266120+05:30"},{"city":"Siliguri","state":"West Bengal","latitude":26.7271,"longitude":88.3953,"temp":29.1,"humidity":75,"rain":0.0,"pressure":989.2,"uv_index":8.75,"wind_gusts":24.1,"aqi":86,"pm10":33.3,"pm2_5":21.1,"no2":2.8,"co":418.0,"o3":153.0,"so2":9.7,"mosquito_risk":7,"arthritis_risk":5,"migraine_risk":7,"frizz_risk":1,"updated_at":"2026-06-24T10:33:10.497027+05:30"},{"city":"Durgapur","state":"West Bengal","latitude":23.5204,"longitude":87.3119,"temp":32.0,"humidity":63,"rain":0.0,"pressure":990.5,"uv_index":8.8,"wind_gusts":26.6,"aqi":163,"pm10":88.0,"pm2_5":66.6,"no2":25.6,"co":533.0,"o3":147.0,"so2":78.8,"mosquito_risk":3,"arthritis_risk":5,"migraine_risk":7,"frizz_risk":1,"updated_at":"2026-06-24T10:33:10.497062+05:30"},{"city":"Asansol","state":"West Bengal","latitude":23.6739,"longitude":86.9524,"temp":34.0,"humidity":56,"rain":0.0,"pressure":989.0,"uv_index":8.8,"wind_gusts":29.9,"aqi":154,"pm10":77.3,"pm2_5":55.5,"no2":19.1,"co":525.0,"o3":144.0,"so2":58.8,"mosquito_risk":0,"arthritis_risk":5,"migraine_risk":7,"frizz_risk":1,"updated_at":"2026-06-24T10:33:10.497073+05:30"},{"city":"Pondicherry","state":"Puducherry","latitude":11.9139,"longitude":79.8145,"temp":32.2,"humidity":56,"rain":0.0,"pressure":1008.3,"uv_index":8.55,"wind_gusts":31.3,"aqi":62,"pm10":24.1,"pm2_5":19.3,"no2":10.9,"co":319.0,"o3":87.0,"so2":11.7,"mosquito_risk":0,"arthritis_risk":0,"migraine_risk":4,"frizz_risk":1,"updated_at":"2026-06-24T10:33:10.497083+05:30"},{"city":"Port Blair","state":"Andaman and Nicobar Islands","latitude":11.6234,"longitude":92.7265,"temp":31.0,"humidity":71,"rain":0.0,"pressure":1006.6,"uv_index":8.75,"wind_gusts":51.5,"aqi":29,"pm10":9.9,"pm2_5":6.0,"no2":0.2,"co":87.0,"o3":56.0,"so2":0.4,"mosquito_risk":3,"arthritis_risk":5,"migraine_risk":4,"frizz_risk":1,"updated_at":"2026-06-24T10:33:10.497092+05:30"},{"city":"Haridwar","state":"Uttarakhand","latitude":29.9457,"longitude":78.1642,"temp":33.9,"humidity":48,"rain":0.0,"pressure":969.8,"uv_index":7.6,"wind_gusts":23.8,"aqi":104,"pm10":43.0,"pm2_5":25.2,"no2":1.7,"co":282.0,"o3":173.0,"so2":6.1,"mosquito_risk":0,"arthritis_risk":5,"migraine_risk":7,"frizz_risk":1,"updated_at":"2026-06-24T10:33:10.497100+05:30"},{"city":"Rishikesh","state":"Uttarakhand","latitude":30.0869,"longitude":78.2676,"temp":33.2,"humidity":48,"rain":0.0,"pressure":962.7,"uv_index":7.7,"wind_gusts":25.2,"aqi":65,"pm10":23.4,"pm2_5":19.6,"no2":1.2,"co":253.0,"o3":157.0,"so2":4.6,"mosquito_risk":0,"arthritis_risk":5,"migraine_risk":7,"frizz_risk":1,"updated_at":"2026-06-24T10:33:10.497107+05:30"},{"city":"Nainital","state":"Uttarakhand","latitude":29.3919,"longitude":79.4542,"temp":22.8,"humidity":44,"rain":0.1,"pressure":806.7,"uv_index":7.8,"wind_gusts":28.8,"aqi":76,"pm10":61.7,"pm2_5":26.2,"no2":1.1,"co":253.0,"o3":171.0,"so2":6.0,"mosquito_risk":3,"arthritis_risk":5,"migraine_risk":7,"frizz_risk":0,"updated_at":"2026-06-24T10:33:10.497114+05:30"},{"city":"Mussoorie","state":"Uttarakhand","latitude":30.4599,"longitude":78.0664,"temp":21.7,"humidity":59,"rain":0.0,"pressure":803.6,"uv_index":7.55,"wind_gusts":39.2,"aqi":71,"pm10":20.1,"pm2_5":19.2,"no2":1.1,"co":240.0,"o3":165.0,"so2":4.3,"mosquito_risk":0,"arthritis_risk":5,"migraine_risk":7,"frizz_risk":0,"updated_at":"2026-06-24T10:33:10.497122+05:30"},{"city":"Dharamshala","state":"Himachal Pradesh","latitude":32.219,"longitude":76.3234,"temp":25.7,"humidity":55,"rain":0.0,"pressure":867.9,"uv_index":8.5,"wind_gusts":42.1,"aqi":50,"pm10":16.4,"pm2_5":12.5,"no2":0.5,"co":259.0,"o3":139.0,"so2":1.0,"mosquito_risk":4,"arthritis_risk":5,"migraine_risk":7,"frizz_risk":0,"updated_at":"2026-06-24T10:33:10.497130+05:30"},{"city":"Dalhousie","state":"Himachal Pradesh","latitude":32.5387,"longitude":75.971,"temp":22.3,"humidity":61,"rain":0.0,"pressure":805.1,"uv_index":7.45,"wind_gusts":33.1,"aqi":78,"pm10":31.8,"pm2_5":21.9,"no2":1.1,"co":242.0,"o3":170.0,"so2":3.4,"mosquito_risk":3,"arthritis_risk":5,"migraine_risk":7,"frizz_risk":0,"updated_at":"2026-06-24T10:33:10.497137+05:30"},{"city":"Patiala","state":"Punjab","latitude":30.3398,"longitude":76.3869,"temp":35.6,"humidity":38,"rain":0.0,"pressure":973.9,"uv_index":7.65,"wind_gusts":27.7,"aqi":158,"pm10":568.1,"pm2_5":97.1,"no2":4.8,"co":302.0,"o3":159.0,"so2":10.1,"mosquito_risk":0,"arthritis_risk":5,"migraine_risk":10,"frizz_risk":1,"updated_at":"2026-06-24T10:33:10.497145+05:30"},{"city":"Bhatinda","state":"Punjab","latitude":30.211,"longitude":74.9455,"temp":35.7,"humidity":37,"rain":0.0,"pressure":979.3,"uv_index":8.3,"wind_gusts":25.2,"aqi":134,"pm10":147.6,"pm2_5":49.5,"no2":4.7,"co":205.0,"o3":130.0,"so2":13.6,"mosquito_risk":0,"arthritis_risk":5,"migraine_risk":10,"frizz_risk":1,"updated_at":"2026-06-24T10:33:10.497152+05:30"},{"city":"Rohtak","state":"Haryana","latitude":28.8955,"longitude":76.6066,"temp":35.2,"humidity":39,"rain":0.0,"pressure":977.4,"uv_index":7.75,"wind_gusts":19.8,"aqi":303,"pm10":99.7,"pm2_5":37.8,"no2":3.3,"co":232.0,"o3":109.0,"so2":3.3,"mosquito_risk":0,"arthritis_risk":5,"migraine_risk":10,"frizz_risk":1,"updated_at":"2026-06-24T10:33:10.497159+05:30"},{"city":"Panipat","state":"Haryana","latitude":29.3909,"longitude":76.9635,"temp":34.7,"humidity":43,"rain":0.0,"pressure":976.1,"uv_index":7.65,"wind_gusts":20.9,"aqi":668,"pm10":167.2,"pm2_5":50.9,"no2":7.2,"co":270.0,"o3":99.0,"so2":9.3,"mosquito_risk":0,"arthritis_risk":5,"migraine_risk":7,"frizz_risk":1,"updated_at":"2026-06-24T10:33:10.497167+05:30"},{"city":"Mathura","state":"Uttar Pradesh","latitude":27.4924,"longitude":77.6737,"temp":33.2,"humidity":46,"rain":0.0,"pressure":982.6,"uv_index":8.05,"wind_gusts":26.6,"aqi":213,"pm10":616.5,"pm2_5":81.3,"no2":5.0,"co":213.0,"o3":105.0,"so2":2.8,"mosquito_risk":0,"arthritis_risk":5,"migraine_risk":7,"frizz_risk":1,"updated_at":"2026-06-24T10:33:10.497174+05:30"},{"city":"Vrindavan","state":"Uttar Pradesh","latitude":27.5823,"longitude":77.7027,"temp":32.8,"humidity":48,"rain":0.0,"pressure":983.0,"uv_index":8.05,"wind_gusts":28.1,"aqi":213,"pm10":616.5,"pm2_5":81.3,"no2":5.0,"co":198.0,"o3":105.0,"so2":2.8,"mosquito_risk":0,"arthritis_risk":5,"migraine_risk":7,"frizz_risk":1,"updated_at":"2026-06-24T10:33:10.497181+05:30"},{"city":"Ayodhya","state":"Uttar Pradesh","latitude":26.7922,"longitude":82.1998,"temp":36.4,"humidity":40,"rain":0.0,"pressure":990.2,"uv_index":8.35,"wind_gusts":29.5,"aqi":155,"pm10":206.3,"pm2_5":71.5,"no2":6.4,"co":280.0,"o3":195.0,"so2":13.7,"mosquito_risk":0,"arthritis_risk":5,"migraine_risk":10,"frizz_risk":1,"updated_at":"2026-06-24T10:33:10.497187+05:30"},{"city":"Ratlam","state":"Madhya Pradesh","latitude":23.3315,"longitude":75.0367,"temp":30.9,"humidity":62,"rain":0.0,"pressure":952.4,"uv_index":8.0,"wind_gusts":41.4,"aqi":76,"pm10":52.7,"pm2_5":26.0,"no2":3.3,"co":139.0,"o3":80.0,"so2":9.3,"mosquito_risk":3,"arthritis_risk":5,"migraine_risk":7,"frizz_risk":1,"updated_at":"2026-06-24T10:33:10.497195+05:30"},{"city":"Sagar","state":"Madhya Pradesh","latitude":23.8388,"longitude":78.7378,"temp":31.6,"humidity":55,"rain":0.0,"pressure":947.7,"uv_index":4.85,"wind_gusts":28.8,"aqi":57,"pm10":38.1,"pm2_5":18.9,"no2":1.4,"co":184.0,"o3":109.0,"so2":3.7,"mosquito_risk":0,"arthritis_risk":5,"migraine_risk":3,"frizz_risk":1,"updated_at":"2026-06-24T10:33:10.497201+05:30"},{"city":"Satna","state":"Madhya Pradesh","latitude":24.6005,"longitude":80.8322,"temp":34.0,"humidity":46,"rain":0.0,"pressure":968.0,"uv_index":8.75,"wind_gusts":38.9,"aqi":81,"pm10":72.6,"pm2_5":26.2,"no2":1.6,"co":164.0,"o3":114.0,"so2":4.7,"mosquito_risk":0,"arthritis_risk":5,"migraine_risk":7,"frizz_risk":1,"updated_at":"2026-06-24T10:33:10.497208+05:30"},{"city":"Akola","state":"Maharashtra","latitude":20.7002,"longitude":77.0082,"temp":24.9,"humidity":93,"rain":0.4,"pressure":973.2,"uv_index":8.6,"wind_gusts":28.1,"aqi":33,"pm10":11.8,"pm2_5":8.7,"no2":4.8,"co":147.0,"o3":83.0,"so2":7.5,"mosquito_risk":6,"arthritis_risk":5,"migraine_risk":7,"frizz_risk":1,"updated_at":"2026-06-24T10:33:10.497216+05:30"},{"city":"Amravati","state":"Maharashtra","latitude":20.9374,"longitude":77.7796,"temp":28.8,"humidity":70,"rain":0.0,"pressure":965.2,"uv_index":8.15,"wind_gusts":39.2,"aqi":30,"pm10":11.2,"pm2_5":9.1,"no2":4.9,"co":161.0,"o3":87.0,"so2":9.5,"mosquito_risk":7,"arthritis_risk":5,"migraine_risk":7,"frizz_risk":1,"updated_at":"2026-06-24T10:33:10.497223+05:30"},{"city":"Latur","state":"Maharashtra","latitude":18.4088,"longitude":76.5604,"temp":28.5,"humidity":61,"rain":0.1,"pressure":938.5,"uv_index":3.3,"wind_gusts":47.2,"aqi":20,"pm10":12.5,"pm2_5":6.3,"no2":3.0,"co":156.0,"o3":70.0,"so2":2.6,"mosquito_risk":10,"arthritis_risk":5,"migraine_risk":3,"frizz_risk":1,"updated_at":"2026-06-24T10:33:10.497230+05:30"},{"city":"Nanded","state":"Maharashtra","latitude":19.1383,"longitude":77.3091,"temp":26.1,"humidity":83,"rain":0.1,"pressure":966.4,"uv_index":7.2,"wind_gusts":36.7,"aqi":22,"pm10":4.1,"pm2_5":4.1,"no2":2.9,"co":141.0,"o3":56.0,"so2":2.0,"mosquito_risk":10,"arthritis_risk":5,"migraine_risk":7,"frizz_risk":1,"updated_at":"2026-06-24T10:33:10.497237+05:30"},{"city":"Gulbarga","state":"Karnataka","latitude":17.3297,"longitude":76.8343,"temp":30.3,"humidity":55,"rain":0.0,"pressure":957.6,"uv_index":4.75,"wind_gusts":68.8,"aqi":19,"pm10":5.0,"pm2_5":3.0,"no2":2.0,"co":124.0,"o3":67.0,"so2":1.8,"mosquito_risk":0,"arthritis_risk":5,"migraine_risk":3,"frizz_risk":1,"updated_at":"2026-06-24T10:33:10.497243+05:30"},{"city":"Bidar","state":"Karnataka","latitude":17.9104,"longitude":77.5199,"temp":28.3,"humidity":62,"rain":0.1,"pressure":933.9,"uv_index":7.95,"wind_gusts":42.8,"aqi":19,"pm10":3.9,"pm2_5":3.2,"no2":2.8,"co":127.0,"o3":67.0,"so2":2.5,"mosquito_risk":10,"arthritis_risk":5,"migraine_risk":7,"frizz_risk":1,"updated_at":"2026-06-24T10:33:10.497250+05:30"},{"city":"Hospet","state":"Karnataka","latitude":15.2689,"longitude":76.3909,"temp":28.0,"humidity":65,"rain":0.0,"pressure":956.0,"uv_index":8.3,"wind_gusts":56.5,"aqi":20,"pm10":6.6,"pm2_5":3.4,"no2":1.6,"co":109.0,"o3":64.0,"so2":1.6,"mosquito_risk":7,"arthritis_risk":5,"migraine_risk":7,"frizz_risk":1,"updated_at":"2026-06-24T10:33:10.497256+05:30"},{"city":"Tirupur","state":"Tamil Nadu","latitude":11.1085,"longitude":77.3411,"temp":31.6,"humidity":50,"rain":0.0,"pressure":976.8,"uv_index":8.25,"wind_gusts":49.3,"aqi":53,"pm10":14.5,"pm2_5":10.0,"no2":4.3,"co":144.0,"o3":75.0,"so2":4.1,"mosquito_risk":0,"arthritis_risk":5,"migraine_risk":7,"frizz_risk":1,"updated_at":"2026-06-24T10:33:10.497262+05:30"},{"city":"Alappuzha","state":"Kerala","latitude":9.4981,"longitude":76.3388,"temp":28.4,"humidity":79,"rain":0.0,"pressure":1011.8,"uv_index":7.6,"wind_gusts":45.0,"aqi":39,"pm10":11.0,"pm2_5":8.1,"no2":4.2,"co":88.0,"o3":64.0,"so2":3.5,"mosquito_risk":7,"arthritis_risk":0,"migraine_risk":4,"frizz_risk":1,"updated_at":"2026-06-24T10:33:10.497268+05:30"},{"city":"Munnar","state":"Kerala","latitude":10.0889,"longitude":77.0595,"temp":19.5,"humidity":87,"rain":0.0,"pressure":859.6,"uv_index":7.3,"wind_gusts":40.3,"aqi":21,"pm10":5.8,"pm2_5":3.9,"no2":1.8,"co":93.0,"o3":57.0,"so2":1.4,"mosquito_risk":3,"arthritis_risk":10,"migraine_risk":7,"frizz_risk":1,"updated_at":"2026-06-24T10:33:10.497274+05:30"},{"city":"Silchar","state":"Assam","latitude":24.8333,"longitude":92.7789,"temp":30.9,"humidity":72,"rain":0.0,"pressure":1001.2,"uv_index":8.2,"wind_gusts":22.7,"aqi":63,"pm10":15.9,"pm2_5":12.7,"no2":1.8,"co":198.0,"o3":106.0,"so2":3.2,"mosquito_risk":3,"arthritis_risk":5,"migraine_risk":4,"frizz_risk":1,"updated_at":"2026-06-24T10:33:10.497281+05:30"},{"city":"Dibrugarh","state":"Assam","latitude":27.4728,"longitude":94.912,"temp":30.2,"humidity":74,"rain":0.0,"pressure":991.2,"uv_index":8.55,"wind_gusts":29.2,"aqi":69,"pm10":17.9,"pm2_5":13.8,"no2":1.3,"co":201.0,"o3":129.0,"so2":1.3,"mosquito_risk":3,"arthritis_risk":5,"migraine_risk":7,"frizz_risk":1,"updated_at":"2026-06-24T10:33:10.497288+05:30"}]