[{"city":"Delhi","state":"Delhi","latitude":28.6139,"longitude":77.209,"temp":30.3,"humidity":70,"rain":0.0,"pressure":975.7,"uv_index":7.65,"wind_gusts":27.0,"aqi":593,"pm10":380.9,"pm2_5":86.6,"no2":24.9,"co":505.0,"o3":73.0,"so2":25.6,"mosquito_risk":3,"arthritis_risk":5,"migraine_risk":7,"frizz_risk":1,"updated_at":"2026-07-01T01:39:39.938751+05:30"},{"city":"Mumbai","state":"Maharashtra","latitude":19.076,"longitude":72.8777,"temp":26.4,"humidity":91,"rain":0.2,"pressure":1003.9,"uv_index":0.45,"wind_gusts":42.5,"aqi":37,"pm10":15.9,"pm2_5":7.8,"no2":4.7,"co":154.0,"o3":49.0,"so2":3.6,"mosquito_risk":10,"arthritis_risk":5,"migraine_risk":0,"frizz_risk":1,"updated_at":"2026-07-01T01:39:39.938792+05:30"},{"city":"Bangalore","state":"Karnataka","latitude":12.9716,"longitude":77.5946,"temp":21.2,"humidity":88,"rain":0.0,"pressure":910.3,"uv_index":6.75,"wind_gusts":63.7,"aqi":18,"pm10":2.6,"pm2_5":2.5,"no2":7.9,"co":176.0,"o3":35.0,"so2":3.3,"mosquito_risk":3,"arthritis_risk":5,"migraine_risk":7,"frizz_risk":1,"updated_at":"2026-07-01T01:39:39.938807+05:30"},{"city":"Hyderabad","state":"Telangana","latitude":17.385,"longitude":78.4867,"temp":24.1,"humidity":83,"rain":0.1,"pressure":949.6,"uv_index":6.95,"wind_gusts":46.8,"aqi":26,"pm10":4.4,"pm2_5":4.0,"no2":7.7,"co":193.0,"o3":40.0,"so2":4.0,"mosquito_risk":6,"arthritis_risk":5,"migraine_risk":7,"frizz_risk":1,"updated_at":"2026-07-01T01:39:39.938816+05:30"},{"city":"Chennai","state":"Tamil Nadu","latitude":13.0827,"longitude":80.2707,"temp":27.0,"humidity":71,"rain":0.0,"pressure":1004.6,"uv_index":4.9,"wind_gusts":46.4,"aqi":37,"pm10":13.5,"pm2_5":12.1,"no2":20.8,"co":261.0,"o3":36.0,"so2":8.4,"mosquito_risk":7,"arthritis_risk":5,"migraine_risk":0,"frizz_risk":1,"updated_at":"2026-07-01T01:39:39.938825+05:30"},{"city":"Kolkata","state":"West Bengal","latitude":22.5726,"longitude":88.3639,"temp":25.7,"humidity":99,"rain":0.0,"pressure":999.8,"uv_index":8.65,"wind_gusts":25.6,"aqi":110,"pm10":29.2,"pm2_5":28.6,"no2":15.6,"co":550.0,"o3":58.0,"so2":6.9,"mosquito_risk":7,"arthritis_risk":5,"migraine_risk":7,"frizz_risk":1,"updated_at":"2026-07-01T01:39:39.938833+05:30"},{"city":"Pune","state":"Maharashtra","latitude":18.5204,"longitude":73.8567,"temp":24.0,"humidity":89,"rain":0.0,"pressure":943.6,"uv_index":1.6,"wind_gusts":55.4,"aqi":18,"pm10":1.5,"pm2_5":1.5,"no2":5.5,"co":124.0,"o3":42.0,"so2":3.9,"mosquito_risk":3,"arthritis_risk":5,"migraine_risk":3,"frizz_risk":1,"updated_at":"2026-07-01T01:39:39.938840+05:30"},{"city":"Ahmedabad","state":"Gujarat","latitude":23.0225,"longitude":72.5714,"temp":30.1,"humidity":75,"rain":0.0,"pressure":995.6,"uv_index":7.65,"wind_gusts":41.8,"aqi":53,"pm10":18.1,"pm2_5":12.3,"no2":7.6,"co":166.0,"o3":45.0,"so2":4.2,"mosquito_risk":3,"arthritis_risk":5,"migraine_risk":7,"frizz_risk":1,"updated_at":"2026-07-01T01:39:39.938846+05:30"},{"city":"Jaipur","state":"Rajasthan","latitude":26.9124,"longitude":75.7873,"temp":27.1,"humidity":71,"rain":0.0,"pressure":953.1,"uv_index":8.2,"wind_gusts":33.8,"aqi":170,"pm10":220.3,"pm2_5":44.9,"no2":14.2,"co":213.0,"o3":42.0,"so2":5.3,"mosquito_risk":7,"arthritis_risk":5,"migraine_risk":7,"frizz_risk":1,"updated_at":"2026-07-01T01:39:39.938853+05:30"},{"city":"Lucknow","state":"Uttar Pradesh","latitude":26.8467,"longitude":80.9462,"temp":28.3,"humidity":86,"rain":0.1,"pressure":986.8,"uv_index":5.55,"wind_gusts":25.6,"aqi":102,"pm10":51.8,"pm2_5":34.6,"no2":13.6,"co":476.0,"o3":72.0,"so2":7.0,"mosquito_risk":10,"arthritis_risk":5,"migraine_risk":3,"frizz_risk":1,"updated_at":"2026-07-01T01:39:39.938864+05:30"},{"city":"Kanpur","state":"Uttar Pradesh","latitude":26.4499,"longitude":80.3319,"temp":28.6,"humidity":72,"rain":0.0,"pressure":985.1,"uv_index":6.25,"wind_gusts":27.0,"aqi":108,"pm10":82.0,"pm2_5":38.2,"no2":16.7,"co":220.0,"o3":56.0,"so2":6.5,"mosquito_risk":7,"arthritis_risk":5,"migraine_risk":7,"frizz_risk":1,"updated_at":"2026-07-01T01:39:39.938871+05:30"},{"city":"Chandigarh","state":"Chandigarh","latitude":30.7333,"longitude":76.7794,"temp":26.9,"humidity":86,"rain":0.0,"pressure":961.8,"uv_index":6.6,"wind_gusts":38.9,"aqi":122,"pm10":56.8,"pm2_5":41.3,"no2":30.1,"co":321.0,"o3":48.0,"so2":8.5,"mosquito_risk":7,"arthritis_risk":5,"migraine_risk":7,"frizz_risk":1,"updated_at":"2026-07-01T01:39:39.938878+05:30"},{"city":"Srinagar","state":"Jammu and Kashmir","latitude":34.0837,"longitude":74.7973,"temp":24.2,"humidity":70,"rain":0.0,"pressure":836.1,"uv_index":9.1,"wind_gusts":40.0,"aqi":93,"pm10":29.0,"pm2_5":28.1,"no2":25.9,"co":632.0,"o3":24.0,"so2":2.3,"mosquito_risk":3,"arthritis_risk":5,"migraine_risk":7,"frizz_risk":1,"updated_at":"2026-07-01T01:39:39.938887+05:30"},{"city":"Jammu","state":"Jammu and Kashmir","latitude":32.7266,"longitude":74.857,"temp":25.2,"humidity":98,"rain":0.3,"pressure":965.2,"uv_index":8.65,"wind_gusts":28.1,"aqi":133,"pm10":29.1,"pm2_5":23.9,"no2":17.6,"co":394.0,"o3":80.0,"so2":3.2,"mosquito_risk":10,"arthritis_risk":5,"migraine_risk":7,"frizz_risk":1,"updated_at":"2026-07-01T01:39:39.938893+05:30"},{"city":"Amritsar","state":"Punjab","latitude":31.634,"longitude":74.8723,"temp":30.1,"humidity":74,"rain":0.0,"pressure":971.9,"uv_index":8.15,"wind_gusts":41.0,"aqi":153,"pm10":140.2,"pm2_5":63.6,"no2":13.4,"co":502.0,"o3":108.0,"so2":15.1,"mosquito_risk":3,"arthritis_risk":5,"migraine_risk":7,"frizz_risk":1,"updated_at":"2026-07-01T01:39:39.938899+05:30"},{"city":"Ludhiana","state":"Punjab","latitude":30.901,"longitude":75.8573,"temp":28.8,"humidity":84,"rain":0.0,"pressure":970.4,"uv_index":3.1,"wind_gusts":41.0,"aqi":164,"pm10":223.5,"pm2_5":63.1,"no2":16.3,"co":529.0,"o3":90.0,"so2":16.4,"mosquito_risk":7,"arthritis_risk":5,"migraine_risk":3,"frizz_risk":1,"updated_at":"2026-07-01T01:39:39.938905+05:30"},{"city":"Jalandhar","state":"Punjab","latitude":31.326,"longitude":75.5762,"temp":29.3,"humidity":83,"rain":0.0,"pressure":971.5,"uv_index":4.3,"wind_gusts":36.7,"aqi":154,"pm10":105.0,"pm2_5":47.1,"no2":16.7,"co":555.0,"o3":94.0,"so2":17.4,"mosquito_risk":7,"arthritis_risk":5,"migraine_risk":3,"frizz_risk":1,"updated_at":"2026-07-01T01:39:39.938912+05:30"},{"city":"Dehradun","state":"Uttarakhand","latitude":30.6284,"longitude":78.0322,"temp":18.8,"humidity":96,"rain":0.0,"pressure":826.7,"uv_index":7.7,"wind_gusts":13.3,"aqi":50,"pm10":32.7,"pm2_5":22.0,"no2":23.7,"co":201.0,"o3":46.0,"so2":0.2,"mosquito_risk":3,"arthritis_risk":10,"migraine_risk":7,"frizz_risk":1,"updated_at":"2026-07-01T01:39:39.938918+05:30"},{"city":"Shimla","state":"Himachal Pradesh","latitude":31.1048,"longitude":77.1734,"temp":15.4,"humidity":100,"rain":0.0,"pressure":780.0,"uv_index":6.75,"wind_gusts":20.5,"aqi":71,"pm10":34.1,"pm2_5":23.7,"no2":17.8,"co":330.0,"o3":71.0,"so2":0.4,"mosquito_risk":3,"arthritis_risk":10,"migraine_risk":7,"frizz_risk":0,"updated_at":"2026-07-01T01:39:39.938928+05:30"},{"city":"Manali","state":"Himachal Pradesh","latitude":32.2396,"longitude":77.1887,"temp":18.7,"humidity":85,"rain":0.0,"pressure":814.9,"uv_index":4.85,"wind_gusts":29.9,"aqi":57,"pm10":7.1,"pm2_5":6.8,"no2":105.7,"co":329.0,"o3":9.0,"so2":0.0,"mosquito_risk":3,"arthritis_risk":10,"migraine_risk":3,"frizz_risk":1,"updated_at":"2026-07-01T01:39:39.938936+05:30"},{"city":"Gurgaon","state":"Haryana","latitude":28.4595,"longitude":77.0266,"temp":30.7,"humidity":70,"rain":0.0,"pressure":974.0,"uv_index":7.3,"wind_gusts":28.4,"aqi":1162,"pm10":1281.5,"pm2_5":238.0,"no2":21.6,"co":453.0,"o3":78.0,"so2":19.6,"mosquito_risk":3,"arthritis_risk":5,"migraine_risk":7,"frizz_risk":1,"updated_at":"2026-07-01T01:39:39.938943+05:30"},{"city":"Noida","state":"Uttar Pradesh","latitude":28.5355,"longitude":77.391,"temp":29.9,"humidity":72,"rain":0.0,"pressure":977.2,"uv_index":7.55,"wind_gusts":29.2,"aqi":1162,"pm10":1281.5,"pm2_5":238.0,"no2":21.6,"co":533.0,"o3":78.0,"so2":19.6,"mosquito_risk":7,"arthritis_risk":5,"migraine_risk":7,"frizz_risk":1,"updated_at":"2026-07-01T01:39:39.938949+05:30"},{"city":"Ghaziabad","state":"Uttar Pradesh","latitude":28.6692,"longitude":77.4538,"temp":29.3,"humidity":77,"rain":0.0,"pressure":975.6,"uv_index":5.65,"wind_gusts":30.2,"aqi":185,"pm10":143.0,"pm2_5":36.0,"no2":17.8,"co":480.0,"o3":65.0,"so2":11.1,"mosquito_risk":7,"arthritis_risk":5,"migraine_risk":3,"frizz_risk":1,"updated_at":"2026-07-01T01:39:39.938955+05:30"},{"city":"Faridabad","state":"Haryana","latitude":28.4089,"longitude":77.3178,"temp":30.6,"humidity":67,"rain":0.0,"pressure":976.5,"uv_index":6.9,"wind_gusts":30.6,"aqi":1162,"pm10":1281.5,"pm2_5":238.0,"no2":21.6,"co":463.0,"o3":78.0,"so2":19.6,"mosquito_risk":3,"arthritis_risk":5,"migraine_risk":7,"frizz_risk":1,"updated_at":"2026-07-01T01:39:39.938961+05:30"},{"city":"Meerut","state":"Uttar Pradesh","latitude":28.9845,"longitude":77.7064,"temp":27.7,"humidity":87,"rain":0.0,"pressure":974.8,"uv_index":7.5,"wind_gusts":32.8,"aqi":185,"pm10":143.0,"pm2_5":36.0,"no2":17.8,"co":468.0,"o3":65.0,"so2":11.1,"mosquito_risk":7,"arthritis_risk":5,"migraine_risk":7,"frizz_risk":1,"updated_at":"2026-07-01T01:39:39.938967+05:30"},{"city":"Agra","state":"Uttar Pradesh","latitude":27.1767,"longitude":78.0081,"temp":26.4,"humidity":87,"rain":0.4,"pressure":980.8,"uv_index":3.7,"wind_gusts":28.4,"aqi":417,"pm10":449.8,"pm2_5":102.2,"no2":16.7,"co":180.0,"o3":62.0,"so2":8.1,"mosquito_risk":10,"arthritis_risk":5,"migraine_risk":3,"frizz_risk":1,"updated_at":"2026-07-01T01:39:39.938974+05:30"},{"city":"Varanasi","state":"Uttar Pradesh","latitude":25.3176,"longitude":82.9739,"temp":29.3,"humidity":84,"rain":0.0,"pressure":991.1,"uv_index":7.95,"wind_gusts":21.6,"aqi":77,"pm10":27.1,"pm2_5":23.1,"no2":20.1,"co":529.0,"o3":52.0,"so2":13.3,"mosquito_risk":7,"arthritis_risk":5,"migraine_risk":7,"frizz_risk":1,"updated_at":"2026-07-01T01:39:39.938981+05:30"},{"city":"Prayagraj","state":"Uttar Pradesh","latitude":25.4358,"longitude":81.8463,"temp":30.4,"humidity":79,"rain":0.0,"pressure":989.1,"uv_index":7.35,"wind_gusts":27.4,"aqi":95,"pm10":61.9,"pm2_5":47.3,"no2":23.9,"co":213.0,"o3":56.0,"so2":10.8,"mosquito_risk":3,"arthritis_risk":5,"migraine_risk":7,"frizz_risk":1,"updated_at":"2026-07-01T01:39:39.938987+05:30"},{"city":"Gorakhpur","state":"Uttar Pradesh","latitude":26.7606,"longitude":83.3732,"temp":26.3,"humidity":97,"rain":0.0,"pressure":991.3,"uv_index":7.35,"wind_gusts":27.4,"aqi":90,"pm10":39.3,"pm2_5":36.9,"no2":15.6,"co":387.0,"o3":83.0,"so2":4.9,"mosquito_risk":7,"arthritis_risk":5,"migraine_risk":7,"frizz_risk":1,"updated_at":"2026-07-01T01:39:39.938994+05:30"},{"city":"Bareilly","state":"Uttar Pradesh","latitude":28.367,"longitude":79.4304,"temp":26.4,"humidity":91,"rain":0.0,"pressure":981.1,"uv_index":7.95,"wind_gusts":23.4,"aqi":84,"pm10":46.8,"pm2_5":37.4,"no2":19.7,"co":319.0,"o3":56.0,"so2":11.1,"mosquito_risk":7,"arthritis_risk":5,"migraine_risk":7,"frizz_risk":1,"updated_at":"2026-07-01T01:39:39.939002+05:30"},{"city":"Aligarh","state":"Uttar Pradesh","latitude":27.8974,"longitude":78.088,"temp":28.0,"humidity":78,"rain":0.1,"pressure":978.3,"uv_index":4.35,"wind_gusts":30.6,"aqi":405,"pm10":345.5,"pm2_5":79.9,"no2":18.0,"co":343.0,"o3":67.0,"so2":12.0,"mosquito_risk":10,"arthritis_risk":5,"migraine_risk":3,"frizz_risk":1,"updated_at":"2026-07-01T01:39:39.939008+05:30"},{"city":"Moradabad","state":"Uttar Pradesh","latitude":28.8386,"longitude":78.7733,"temp":26.6,"humidity":92,"rain":0.1,"pressure":977.5,"uv_index":7.25,"wind_gusts":22.3,"aqi":77,"pm10":30.2,"pm2_5":27.1,"no2":18.3,"co":315.0,"o3":62.0,"so2":8.9,"mosquito_risk":10,"arthritis_risk":5,"migraine_risk":7,"frizz_risk":1,"updated_at":"2026-07-01T01:39:39.939014+05:30"},{"city":"Saharanpur","state":"Uttar Pradesh","latitude":29.9637,"longitude":77.546,"temp":26.3,"humidity":88,"rain":0.1,"pressure":969.5,"uv_index":6.55,"wind_gusts":42.1,"aqi":95,"pm10":27.4,"pm2_5":22.5,"no2":17.3,"co":413.0,"o3":56.0,"so2":9.3,"mosquito_risk":10,"arthritis_risk":5,"migraine_risk":7,"frizz_risk":1,"updated_at":"2026-07-01T01:39:39.939020+05:30"},{"city":"Jhansi","state":"Uttar Pradesh","latitude":25.4484,"longitude":78.5685,"temp":29.3,"humidity":71,"rain":0.0,"pressure":971.0,"uv_index":6.95,"wind_gusts":31.0,"aqi":61,"pm10":22.1,"pm2_5":18.0,"no2":9.4,"co":168.0,"o3":58.0,"so2":3.3,"mosquito_risk":7,"arthritis_risk":5,"migraine_risk":7,"frizz_risk":1,"updated_at":"2026-07-01T01:39:43.306580+05:30"},{"city":"Surat","state":"Gujarat","latitude":21.1702,"longitude":72.8311,"temp":26.1,"humidity":100,"rain":0.2,"pressure":1001.3,"uv_index":4.3,"wind_gusts":40.0,"aqi":57,"pm10":14.4,"pm2_5":11.9,"no2":20.0,"co":304.0,"o3":32.0,"so2":29.8,"mosquito_risk":10,"arthritis_risk":5,"migraine_risk":0,"frizz_risk":1,"updated_at":"2026-07-01T01:39:43.306611+05:30"},{"city":"Vadodara","state":"Gujarat","latitude":22.3072,"longitude":73.1812,"temp":29.0,"humidity":80,"rain":0.0,"pressure":998.2,"uv_index":5.5,"wind_gusts":32.0,"aqi":54,"pm10":14.8,"pm2_5":12.0,"no2":18.4,"co":133.0,"o3":30.0,"so2":20.0,"mosquito_risk":7,"arthritis_risk":5,"migraine_risk":3,"frizz_risk":1,"updated_at":"2026-07-01T01:39:43.306621+05:30"},{"city":"Rajkot","state":"Gujarat","latitude":22.3039,"longitude":70.8022,"temp":29.5,"humidity":72,"rain":0.0,"pressure":988.0,"uv_index":4.35,"wind_gusts":46.1,"aqi":48,"pm10":15.1,"pm2_5":8.6,"no2":5.2,"co":98.0,"o3":44.0,"so2":5.3,"mosquito_risk":7,"arthritis_risk":5,"migraine_risk":3,"frizz_risk":1,"updated_at":"2026-07-01T01:39:43.306629+05:30"},{"city":"Thane","state":"Maharashtra","latitude":19.2183,"longitude":72.9781,"temp":25.8,"humidity":97,"rain":0.1,"pressure":1003.3,"uv_index":0.35,"wind_gusts":35.6,"aqi":37,"pm10":15.9,"pm2_5":7.8,"no2":4.7,"co":171.0,"o3":49.0,"so2":3.6,"mosquito_risk":10,"arthritis_risk":5,"migraine_risk":0,"frizz_risk":1,"updated_at":"2026-07-01T01:39:43.306637+05:30"},{"city":"Nagpur","state":"Maharashtra","latitude":21.1458,"longitude":79.0882,"temp":25.8,"humidity":95,"rain":0.0,"pressure":967.8,"uv_index":5.85,"wind_gusts":31.0,"aqi":61,"pm10":17.8,"pm2_5":15.6,"no2":11.6,"co":268.0,"o3":61.0,"so2":7.6,"mosquito_risk":7,"arthritis_risk":5,"migraine_risk":3,"frizz_risk":1,"updated_at":"2026-07-01T01:39:43.306646+05:30"},{"city":"Nashik","state":"Maharashtra","latitude":19.9975,"longitude":73.7898,"temp":23.3,"humidity":98,"rain":0.0,"pressure":940.7,"uv_index":4.35,"wind_gusts":49.3,"aqi":22,"pm10":2.5,"pm2_5":2.2,"no2":10.9,"co":137.0,"o3":34.0,"so2":9.0,"mosquito_risk":3,"arthritis_risk":5,"migraine_risk":3,"frizz_risk":1,"updated_at":"2026-07-01T01:39:43.306653+05:30"},{"city":"Aurangabad","state":"Maharashtra","latitude":19.8762,"longitude":75.3433,"temp":23.9,"humidity":94,"rain":0.0,"pressure":939.6,"uv_index":3.05,"wind_gusts":45.4,"aqi":34,"pm10":5.6,"pm2_5":5.1,"no2":11.0,"co":173.0,"o3":39.0,"so2":10.3,"mosquito_risk":3,"arthritis_risk":5,"migraine_risk":3,"frizz_risk":1,"updated_at":"2026-07-01T01:39:43.306660+05:30"},{"city":"Solapur","state":"Maharashtra","latitude":17.6599,"longitude":75.9064,"temp":25.2,"humidity":87,"rain":0.0,"pressure":953.9,"uv_index":1.95,"wind_gusts":54.4,"aqi":21,"pm10":2.9,"pm2_5":2.8,"no2":6.4,"co":137.0,"o3":37.0,"so2":2.2,"mosquito_risk":7,"arthritis_risk":5,"migraine_risk":3,"frizz_risk":1,"updated_at":"2026-07-01T01:39:43.306668+05:30"},{"city":"Kolhapur","state":"Maharashtra","latitude":16.705,"longitude":74.2433,"temp":22.8,"humidity":96,"rain":0.2,"pressure":945.2,"uv_index":0.95,"wind_gusts":52.6,"aqi":20,"pm10":2.4,"pm2_5":2.2,"no2":3.7,"co":113.0,"o3":43.0,"so2":1.6,"mosquito_risk":6,"arthritis_risk":5,"migraine_risk":3,"frizz_risk":1,"updated_at":"2026-07-01T01:39:43.306676+05:30"},{"city":"Goa","state":"Goa","latitude":15.2993,"longitude":74.124,"temp":24.5,"humidity":98,"rain":0.3,"pressure":997.1,"uv_index":2.2,"wind_gusts":30.6,"aqi":29,"pm10":12.6,"pm2_5":7.3,"no2":2.4,"co":164.0,"o3":48.0,"so2":0.5,"mosquito_risk":6,"arthritis_risk":5,"migraine_risk":3,"frizz_risk":1,"updated_at":"2026-07-01T01:39:43.306683+05:30"},{"city":"Jodhpur","state":"Rajasthan","latitude":26.2389,"longitude":73.0243,"temp":32.7,"humidity":48,"rain":0.0,"pressure":975.0,"uv_index":8.45,"wind_gusts":36.7,"aqi":167,"pm10":197.9,"pm2_5":47.5,"no2":5.2,"co":146.0,"o3":52.0,"so2":2.0,"mosquito_risk":0,"arthritis_risk":5,"migraine_risk":7,"frizz_risk":1,"updated_at":"2026-07-01T01:39:43.306690+05:30"},{"city":"Udaipur","state":"Rajasthan","latitude":24.5854,"longitude":73.7125,"temp":26.2,"humidity":78,"rain":0.0,"pressure":940.5,"uv_index":8.7,"wind_gusts":38.2,"aqi":55,"pm10":15.9,"pm2_5":12.3,"no2":10.2,"co":150.0,"o3":53.0,"so2":10.8,"mosquito_risk":7,"arthritis_risk":5,"migraine_risk":7,"frizz_risk":1,"updated_at":"2026-07-01T01:39:43.306697+05:30"},{"city":"Kota","state":"Rajasthan","latitude":25.2138,"longitude":75.8648,"temp":27.7,"humidity":79,"rain":0.0,"pressure":972.0,"uv_index":5.65,"wind_gusts":31.7,"aqi":61,"pm10":25.8,"pm2_5":17.3,"no2":7.4,"co":194.0,"o3":66.0,"so2":5.4,"mosquito_risk":7,"arthritis_risk":5,"migraine_risk":3,"frizz_risk":1,"updated_at":"2026-07-01T01:39:43.306704+05:30"},{"city":"Bikaner","state":"Rajasthan","latitude":28.0229,"longitude":73.3119,"temp":33.6,"humidity":45,"rain":0.0,"pressure":973.1,"uv_index":8.45,"wind_gusts":32.0,"aqi":164,"pm10":205.4,"pm2_5":63.6,"no2":2.7,"co":115.0,"o3":58.0,"so2":3.2,"mosquito_risk":0,"arthritis_risk":5,"migraine_risk":7,"frizz_risk":1,"updated_at":"2026-07-01T01:39:43.306711+05:30"},{"city":"Ajmer","state":"Rajasthan","latitude":26.4499,"longitude":74.6399,"temp":29.7,"humidity":58,"rain":0.0,"pressure":947.9,"uv_index":8.2,"wind_gusts":45.4,"aqi":67,"pm10":25.3,"pm2_5":14.3,"no2":9.5,"co":164.0,"o3":49.0,"so2":4.1,"mosquito_risk":4,"arthritis_risk":5,"migraine_risk":7,"frizz_risk":1,"updated_at":"2026-07-01T01:39:43.306718+05:30"},{"city":"Gwalior","state":"Madhya Pradesh","latitude":26.2183,"longitude":78.1828,"temp":28.8,"humidity":74,"rain":0.0,"pressure":976.0,"uv_index":8.2,"wind_gusts":28.1,"aqi":89,"pm10":21.8,"pm2_5":15.3,"no2":6.1,"co":146.0,"o3":71.0,"so2":3.7,"mosquito_risk":7,"arthritis_risk":5,"migraine_risk":7,"frizz_risk":1,"updated_at":"2026-07-01T01:39:43.306725+05:30"},{"city":"Indore","state":"Madhya Pradesh","latitude":22.7196,"longitude":75.8577,"temp":24.7,"humidity":89,"rain":0.0,"pressure":942.7,"uv_index":7.45,"wind_gusts":37.8,"aqi":67,"pm10":15.3,"pm2_5":14.2,"no2":8.5,"co":207.0,"o3":70.0,"so2":9.1,"mosquito_risk":3,"arthritis_risk":5,"migraine_risk":7,"frizz_risk":1,"updated_at":"2026-07-01T01:39:43.306732+05:30"},{"city":"Bhopal","state":"Madhya Pradesh","latitude":23.2599,"longitude":77.4126,"temp":24.6,"humidity":94,"rain":0.0,"pressure":948.1,"uv_index":7.3,"wind_gusts":32.4,"aqi":62,"pm10":20.5,"pm2_5":18.0,"no2":7.7,"co":228.0,"o3":64.0,"so2":3.4,"mosquito_risk":3,"arthritis_risk":5,"migraine_risk":7,"frizz_risk":1,"updated_at":"2026-07-01T01:39:43.306739+05:30"},{"city":"Jabalpur","state":"Madhya Pradesh","latitude":23.1815,"longitude":79.9864,"temp":25.2,"humidity":96,"rain":0.0,"pressure":955.9,"uv_index":8.15,"wind_gusts":27.7,"aqi":55,"pm10":22.7,"pm2_5":17.2,"no2":7.4,"co":231.0,"o3":73.0,"so2":4.0,"mosquito_risk":7,"arthritis_risk":5,"migraine_risk":7,"frizz_risk":1,"updated_at":"2026-07-01T01:39:43.306745+05:30"},{"city":"Ujjain","state":"Madhya Pradesh","latitude":23.1765,"longitude":75.7885,"temp":25.7,"humidity":82,"rain":0.0,"pressure":948.3,"uv_index":8.1,"wind_gusts":34.9,"aqi":64,"pm10":14.3,"pm2_5":13.0,"no2":6.5,"co":218.0,"o3":71.0,"so2":9.0,"mosquito_risk":7,"arthritis_risk":5,"migraine_risk":7,"frizz_risk":1,"updated_at":"2026-07-01T01:39:43.306752+05:30"},{"city":"Visakhapatnam","state":"Andhra Pradesh","latitude":17.6868,"longitude":83.2185,"temp":28.3,"humidity":88,"rain":0.0,"pressure":997.3,"uv_index":5.8,"wind_gusts":34.9,"aqi":78,"pm10":42.6,"pm2_5":40.2,"no2":41.2,"co":673.0,"o3":32.0,"so2":43.6,"mosquito_risk":7,"arthritis_risk":5,"migraine_risk":3,"frizz_risk":1,"updated_at":"2026-07-01T01:39:43.306759+05:30"},{"city":"Vijayawada","state":"Andhra Pradesh","latitude":16.5062,"longitude":80.648,"temp":25.7,"humidity":81,"rain":0.2,"pressure":998.6,"uv_index":6.45,"wind_gusts":35.6,"aqi":41,"pm10":9.2,"pm2_5":8.8,"no2":9.1,"co":157.0,"o3":51.0,"so2":3.4,"mosquito_risk":10,"arthritis_risk":5,"migraine_risk":7,"frizz_risk":1,"updated_at":"2026-07-01T01:39:43.306766+05:30"},{"city":"Guntur","state":"Andhra Pradesh","latitude":16.3067,"longitude":80.4365,"temp":25.7,"humidity":77,"rain":0.2,"pressure":999.9,"uv_index":6.5,"wind_gusts":46.1,"aqi":34,"pm10":9.0,"pm2_5":8.5,"no2":9.9,"co":190.0,"o3":49.0,"so2":4.1,"mosquito_risk":10,"arthritis_risk":5,"migraine_risk":7,"frizz_risk":1,"updated_at":"2026-07-01T01:39:43.306773+05:30"},{"city":"Nellore","state":"Andhra Pradesh","latitude":14.4426,"longitude":79.9865,"temp":27.3,"humidity":68,"rain":0.0,"pressure":1002.5,"uv_index":4.85,"wind_gusts":52.2,"aqi":28,"pm10":6.8,"pm2_5":5.9,"no2":8.7,"co":210.0,"o3":38.0,"so2":2.9,"mosquito_risk":7,"arthritis_risk":5,"migraine_risk":0,"frizz_risk":1,"updated_at":"2026-07-01T01:39:43.306780+05:30"},{"city":"Kurnool","state":"Andhra Pradesh","latitude":15.8281,"longitude":78.0373,"temp":26.7,"humidity":73,"rain":0.0,"pressure":974.4,"uv_index":3.15,"wind_gusts":61.2,"aqi":26,"pm10":2.8,"pm2_5":2.5,"no2":6.4,"co":126.0,"o3":39.0,"so2":2.0,"mosquito_risk":7,"arthritis_risk":5,"migraine_risk":3,"frizz_risk":1,"updated_at":"2026-07-01T01:39:43.306788+05:30"},{"city":"Kakinada","state":"Andhra Pradesh","latitude":16.9891,"longitude":82.2475,"temp":27.8,"humidity":86,"rain":0.0,"pressure":1001.8,"uv_index":6.4,"wind_gusts":47.9,"aqi":47,"pm10":11.2,"pm2_5":8.8,"no2":6.1,"co":253.0,"o3":69.0,"so2":2.4,"mosquito_risk":7,"arthritis_risk":5,"migraine_risk":4,"frizz_risk":1,"updated_at":"2026-07-01T01:39:43.306795+05:30"},{"city":"Tirupati","state":"Andhra Pradesh","latitude":13.6288,"longitude":79.4192,"temp":27.7,"humidity":64,"rain":0.0,"pressure":988.4,"uv_index":6.8,"wind_gusts":45.0,"aqi":19,"pm10":5.5,"pm2_5":5.1,"no2":10.9,"co":175.0,"o3":31.0,"so2":2.1,"mosquito_risk":7,"arthritis_risk":5,"migraine_risk":7,"frizz_risk":1,"updated_at":"2026-07-01T01:39:43.306802+05:30"},{"city":"Warangal","state":"Telangana","latitude":17.9689,"longitude":79.5941,"temp":26.2,"humidity":86,"rain":0.0,"pressure":974.7,"uv_index":2.45,"wind_gusts":37.8,"aqi":39,"pm10":4.3,"pm2_5":4.2,"no2":5.9,"co":129.0,"o3":50.0,"so2":1.4,"mosquito_risk":7,"arthritis_risk":5,"migraine_risk":3,"frizz_risk":1,"updated_at":"2026-07-01T01:39:43.306808+05:30"},{"city":"Nizamabad","state":"Telangana","latitude":18.6725,"longitude":78.0941,"temp":24.2,"humidity":99,"rain":0.1,"pressure":960.7,"uv_index":1.1,"wind_gusts":40.3,"aqi":42,"pm10":5.6,"pm2_5":5.4,"no2":9.1,"co":166.0,"o3":42.0,"so2":4.3,"mosquito_risk":6,"arthritis_risk":5,"migraine_risk":3,"frizz_risk":1,"updated_at":"2026-07-01T01:39:43.306815+05:30"},{"city":"Mysore","state":"Karnataka","latitude":12.2958,"longitude":76.6396,"temp":21.9,"humidity":89,"rain":0.0,"pressure":927.9,"uv_index":2.05,"wind_gusts":58.7,"aqi":19,"pm10":1.9,"pm2_5":1.8,"no2":4.9,"co":115.0,"o3":38.0,"so2":1.5,"mosquito_risk":3,"arthritis_risk":5,"migraine_risk":3,"frizz_risk":1,"updated_at":"2026-07-01T01:39:43.306822+05:30"},{"city":"Mangalore","state":"Karnataka","latitude":12.9141,"longitude":74.856,"temp":25.1,"humidity":91,"rain":0.6,"pressure":1007.5,"uv_index":3.75,"wind_gusts":37.8,"aqi":31,"pm10":10.2,"pm2_5":6.3,"no2":3.4,"co":101.0,"o3":39.0,"so2":1.1,"mosquito_risk":10,"arthritis_risk":5,"migraine_risk":0,"frizz_risk":1,"updated_at":"2026-07-01T01:39:43.306828+05:30"},{"city":"Hubli-Dharwad","state":"Karnataka","latitude":15.3647,"longitude":75.124,"temp":22.3,"humidity":96,"rain":0.1,"pressure":938.8,"uv_index":4.9,"wind_gusts":61.6,"aqi":20,"pm10":0.9,"pm2_5":0.8,"no2":2.9,"co":108.0,"o3":43.0,"so2":0.8,"mosquito_risk":6,"arthritis_risk":5,"migraine_risk":3,"frizz_risk":1,"updated_at":"2026-07-01T01:39:43.306835+05:30"},{"city":"Belgaum","state":"Karnataka","latitude":15.8497,"longitude":74.4977,"temp":21.5,"humidity":99,"rain":0.2,"pressure":923.5,"uv_index":1.85,"wind_gusts":55.1,"aqi":20,"pm10":1.3,"pm2_5":1.2,"no2":2.9,"co":105.0,"o3":45.0,"so2":1.0,"mosquito_risk":6,"arthritis_risk":5,"migraine_risk":3,"frizz_risk":1,"updated_at":"2026-07-01T01:39:46.711451+05:30"},{"city":"Coimbatore","state":"Tamil Nadu","latitude":11.0168,"longitude":76.9558,"temp":22.8,"humidity":95,"rain":0.0,"pressure":961.3,"uv_index":1.8,"wind_gusts":56.5,"aqi":20,"pm10":4.7,"pm2_5":3.6,"no2":5.9,"co":168.0,"o3":33.0,"so2":2.3,"mosquito_risk":3,"arthritis_risk":5,"migraine_risk":3,"frizz_risk":1,"updated_at":"2026-07-01T01:39:46.711486+05:30"},{"city":"Madurai","state":"Tamil Nadu","latitude":9.9252,"longitude":78.1198,"temp":26.7,"humidity":75,"rain":0.0,"pressure":992.5,"uv_index":7.2,"wind_gusts":50.8,"aqi":56,"pm10":17.6,"pm2_5":15.1,"no2":26.1,"co":120.0,"o3":10.0,"so2":5.4,"mosquito_risk":7,"arthritis_risk":5,"migraine_risk":7,"frizz_risk":1,"updated_at":"2026-07-01T01:39:46.711498+05:30"},{"city":"Trichy","state":"Tamil Nadu","latitude":10.7905,"longitude":78.7047,"temp":28.2,"humidity":62,"rain":0.0,"pressure":998.9,"uv_index":4.0,"wind_gusts":57.6,"aqi":26,"pm10":5.4,"pm2_5":3.7,"no2":4.4,"co":106.0,"o3":36.0,"so2":2.1,"mosquito_risk":7,"arthritis_risk":5,"migraine_risk":3,"frizz_risk":1,"updated_at":"2026-07-01T01:39:46.711509+05:30"},{"city":"Salem","state":"Tamil Nadu","latitude":11.6643,"longitude":78.146,"temp":24.4,"humidity":86,"rain":0.0,"pressure":976.7,"uv_index":2.2,"wind_gusts":33.8,"aqi":49,"pm10":16.1,"pm2_5":13.6,"no2":21.7,"co":326.0,"o3":24.0,"so2":7.1,"mosquito_risk":3,"arthritis_risk":5,"migraine_risk":3,"frizz_risk":1,"updated_at":"2026-07-01T01:39:46.711517+05:30"},{"city":"Tirunelveli","state":"Tamil Nadu","latitude":8.7139,"longitude":77.7567,"temp":27.6,"humidity":64,"rain":0.0,"pressure":1003.5,"uv_index":6.35,"wind_gusts":42.8,"aqi":26,"pm10":6.3,"pm2_5":4.2,"no2":4.2,"co":154.0,"o3":36.0,"so2":1.8,"mosquito_risk":7,"arthritis_risk":5,"migraine_risk":4,"frizz_risk":1,"updated_at":"2026-07-01T01:39:46.711525+05:30"},{"city":"Vellore","state":"Tamil Nadu","latitude":12.9165,"longitude":79.1325,"temp":26.8,"humidity":66,"rain":0.0,"pressure":982.5,"uv_index":3.85,"wind_gusts":51.5,"aqi":25,"pm10":5.7,"pm2_5":5.1,"no2":11.2,"co":144.0,"o3":33.0,"so2":3.6,"mosquito_risk":7,"arthritis_risk":5,"migraine_risk":3,"frizz_risk":1,"updated_at":"2026-07-01T01:39:46.711533+05:30"},{"city":"Erode","state":"Tamil Nadu","latitude":11.341,"longitude":77.7172,"temp":25.1,"humidity":82,"rain":0.0,"pressure":988.7,"uv_index":2.25,"wind_gusts":46.1,"aqi":42,"pm10":13.5,"pm2_5":11.6,"no2":16.0,"co":147.0,"o3":26.0,"so2":3.8,"mosquito_risk":7,"arthritis_risk":5,"migraine_risk":3,"frizz_risk":1,"updated_at":"2026-07-01T01:39:46.711540+05:30"},{"city":"Kochi","state":"Kerala","latitude":9.9312,"longitude":76.2673,"temp":24.5,"humidity":98,"rain":0.2,"pressure":1010.6,"uv_index":4.7,"wind_gusts":34.6,"aqi":46,"pm10":14.7,"pm2_5":11.5,"no2":15.4,"co":217.0,"o3":15.0,"so2":4.0,"mosquito_risk":6,"arthritis_risk":0,"migraine_risk":0,"frizz_risk":1,"updated_at":"2026-07-01T01:39:46.711547+05:30"},{"city":"Thiruvananthapuram","state":"Kerala","latitude":8.5241,"longitude":76.9366,"temp":24.3,"humidity":94,"rain":0.0,"pressure":1009.6,"uv_index":7.85,"wind_gusts":44.6,"aqi":37,"pm10":15.0,"pm2_5":9.4,"no2":4.8,"co":183.0,"o3":39.0,"so2":2.1,"mosquito_risk":3,"arthritis_risk":0,"migraine_risk":4,"frizz_risk":1,"updated_at":"2026-07-01T01:39:46.711553+05:30"},{"city":"Kozhikode","state":"Kerala","latitude":11.2588,"longitude":75.7804,"temp":23.9,"humidity":98,"rain":0.5,"pressure":1009.8,"uv_index":7.3,"wind_gusts":28.4,"aqi":28,"pm10":9.9,"pm2_5":4.8,"no2":0.9,"co":167.0,"o3":51.0,"so2":0.6,"mosquito_risk":6,"arthritis_risk":0,"migraine_risk":4,"frizz_risk":1,"updated_at":"2026-07-01T01:39:46.711559+05:30"},{"city":"Thrissur","state":"Kerala","latitude":10.5276,"longitude":76.2144,"temp":23.7,"humidity":100,"rain":0.0,"pressure":1008.9,"uv_index":3.05,"wind_gusts":33.1,"aqi":42,"pm10":13.9,"pm2_5":10.7,"no2":9.2,"co":294.0,"o3":27.0,"so2":3.0,"mosquito_risk":3,"arthritis_risk":0,"migraine_risk":0,"frizz_risk":1,"updated_at":"2026-07-01T01:39:46.711566+05:30"},{"city":"Kannur","state":"Kerala","latitude":11.8745,"longitude":75.3704,"temp":24.3,"humidity":98,"rain":0.1,"pressure":1008.6,"uv_index":8.25,"wind_gusts":30.2,"aqi":31,"pm10":9.5,"pm2_5":5.6,"no2":4.2,"co":161.0,"o3":38.0,"so2":1.1,"mosquito_risk":6,"arthritis_risk":0,"migraine_risk":4,"frizz_risk":1,"updated_at":"2026-07-01T01:39:46.711573+05:30"},{"city":"Patna","state":"Bihar","latitude":25.5941,"longitude":85.1376,"temp":27.0,"humidity":98,"rain":0.0,"pressure":994.2,"uv_index":8.25,"wind_gusts":27.7,"aqi":116,"pm10":61.7,"pm2_5":59.4,"no2":18.0,"co":428.0,"o3":88.0,"so2":14.0,"mosquito_risk":7,"arthritis_risk":5,"migraine_risk":7,"frizz_risk":1,"updated_at":"2026-07-01T01:39:46.711579+05:30"},{"city":"Gaya","state":"Bihar","latitude":24.7914,"longitude":85.0002,"temp":27.6,"humidity":95,"rain":0.0,"pressure":987.6,"uv_index":8.3,"wind_gusts":30.2,"aqi":103,"pm10":51.5,"pm2_5":50.3,"no2":20.5,"co":457.0,"o3":64.0,"so2":10.1,"mosquito_risk":7,"arthritis_risk":5,"migraine_risk":7,"frizz_risk":1,"updated_at":"2026-07-01T01:39:46.711585+05:30"},{"city":"Muzaffarpur","state":"Bihar","latitude":26.1209,"longitude":85.3647,"temp":26.1,"humidity":99,"rain":0.0,"pressure":994.7,"uv_index":8.2,"wind_gusts":26.6,"aqi":104,"pm10":48.7,"pm2_5":46.3,"no2":17.4,"co":377.0,"o3":83.0,"so2":11.2,"mosquito_risk":7,"arthritis_risk":5,"migraine_risk":7,"frizz_risk":1,"updated_at":"2026-07-01T01:39:46.711592+05:30"},{"city":"Bhagalpur","state":"Bihar","latitude":25.2425,"longitude":87.0117,"temp":27.2,"humidity":95,"rain":0.0,"pressure":995.1,"uv_index":7.65,"wind_gusts":31.3,"aqi":133,"pm10":60.5,"pm2_5":60.1,"no2":12.3,"co":325.0,"o3":104.0,"so2":16.4,"mosquito_risk":7,"arthritis_risk":5,"migraine_risk":7,"frizz_risk":1,"updated_at":"2026-07-01T01:39:46.711598+05:30"},{"city":"Ranchi","state":"Jharkhand","latitude":23.3441,"longitude":85.3096,"temp":23.2,"humidity":94,"rain":0.0,"pressure":931.7,"uv_index":8.9,"wind_gusts":24.5,"aqi":100,"pm10":35.7,"pm2_5":35.3,"no2":10.3,"co":329.0,"o3":86.0,"so2":7.4,"mosquito_risk":3,"arthritis_risk":5,"migraine_risk":7,"frizz_risk":1,"updated_at":"2026-07-01T01:39:46.711605+05:30"},{"city":"Jamshedpur","state":"Jharkhand","latitude":22.8046,"longitude":86.2029,"temp":26.4,"humidity":99,"rain":0.0,"pressure":984.6,"uv_index":5.1,"wind_gusts":17.3,"aqi":128,"pm10":36.6,"pm2_5":36.1,"no2":21.4,"co":418.0,"o3":64.0,"so2":25.1,"mosquito_risk":7,"arthritis_risk":5,"migraine_risk":3,"frizz_risk":1,"updated_at":"2026-07-01T01:39:46.711612+05:30"},{"city":"Dhanbad","state":"Jharkhand","latitude":23.7957,"longitude":86.4304,"temp":26.0,"humidity":100,"rain":0.1,"pressure":973.9,"uv_index":6.3,"wind_gusts":22.3,"aqi":166,"pm10":121.5,"pm2_5":121.1,"no2":60.6,"co":438.0,"o3":42.0,"so2":156.4,"mosquito_risk":10,"arthritis_risk":5,"migraine_risk":7,"frizz_risk":1,"updated_at":"2026-07-01T01:39:46.711619+05:30"},{"city":"Bokaro","state":"Jharkhand","latitude":23.6693,"longitude":86.1511,"temp":26.0,"humidity":97,"rain":0.1,"pressure":977.6,"uv_index":7.3,"wind_gusts":29.2,"aqi":159,"pm10":113.2,"pm2_5":112.0,"no2":47.7,"co":3511.0,"o3":64.0,"so2":137.2,"mosquito_risk":10,"arthritis_risk":5,"migraine_risk":7,"frizz_risk":1,"updated_at":"2026-07-01T01:39:46.711626+05:30"},{"city":"Bhubaneswar","state":"Odisha","latitude":20.2961,"longitude":85.8245,"temp":26.2,"humidity":95,"rain":0.1,"pressure":996.4,"uv_index":7.15,"wind_gusts":28.8,"aqi":71,"pm10":24.0,"pm2_5":23.5,"no2":11.8,"co":326.0,"o3":69.0,"so2":5.3,"mosquito_risk":10,"arthritis_risk":5,"migraine_risk":7,"frizz_risk":1,"updated_at":"2026-07-01T01:39:46.711633+05:30"},{"city":"Cuttack","state":"Odisha","latitude":20.4625,"longitude":85.8828,"temp":26.3,"humidity":93,"rain":0.2,"pressure":998.2,"uv_index":5.45,"wind_gusts":30.2,"aqi":71,"pm10":24.0,"pm2_5":23.5,"no2":11.8,"co":282.0,"o3":69.0,"so2":5.3,"mosquito_risk":10,"arthritis_risk":5,"migraine_risk":3,"frizz_risk":1,"updated_at":"2026-07-01T01:39:46.711639+05:30"},{"city":"Rourkela","state":"Odisha","latitude":22.2604,"longitude":84.8536,"temp":25.8,"humidity":97,"rain":0.0,"pressure":979.0,"uv_index":8.6,"wind_gusts":31.0,"aqi":80,"pm10":24.9,"pm2_5":24.4,"no2":9.9,"co":590.0,"o3":91.0,"so2":7.5,"mosquito_risk":7,"arthritis_risk":5,"migraine_risk":7,"frizz_risk":1,"updated_at":"2026-07-01T01:39:46.711646+05:30"},{"city":"Raipur","state":"Chhattisgarh","latitude":21.2514,"longitude":81.6296,"temp":25.9,"humidity":93,"rain":0.0,"pressure":968.6,"uv_index":5.9,"wind_gusts":21.6,"aqi":82,"pm10":32.4,"pm2_5":31.0,"no2":36.5,"co":405.0,"o3":48.0,"so2":46.6,"mosquito_risk":7,"arthritis_risk":5,"migraine_risk":3,"frizz_risk":1,"updated_at":"2026-07-01T01:39:46.711652+05:30"},{"city":"Bhilai","state":"Chhattisgarh","latitude":21.1938,"longitude":81.3509,"temp":26.5,"humidity":90,"rain":0.0,"pressure":969.0,"uv_index":7.5,"wind_gusts":27.4,"aqi":77,"pm10":30.6,"pm2_5":28.9,"no2":31.8,"co":583.0,"o3":52.0,"so2":41.0,"mosquito_risk":7,"arthritis_risk":5,"migraine_risk":7,"frizz_risk":1,"updated_at":"2026-07-01T01:39:46.711658+05:30"},{"city":"Guwahati","state":"Assam","latitude":26.1158,"longitude":91.7086,"temp":25.7,"humidity":97,"rain":0.1,"pressure":996.5,"uv_index":8.25,"wind_gusts":18.0,"aqi":61,"pm10":10.3,"pm2_5":10.2,"no2":10.4,"co":390.0,"o3":37.0,"so2":1.7,"mosquito_risk":10,"arthritis_risk":5,"migraine_risk":7,"frizz_risk":1,"updated_at":"2026-07-01T01:39:46.711665+05:30"},{"city":"Agartala","state":"Tripura","latitude":23.8315,"longitude":91.2868,"temp":25.9,"humidity":97,"rain":0.0,"pressure":1000.6,"uv_index":8.05,"wind_gusts":36.0,"aqi":53,"pm10":14.4,"pm2_5":14.2,"no2":12.3,"co":221.0,"o3":48.0,"so2":2.6,"mosquito_risk":7,"arthritis_risk":5,"migraine_risk":4,"frizz_risk":1,"updated_at":"2026-07-01T01:39:46.711671+05:30"},{"city":"Shillong","state":"Meghalaya","latitude":25.5788,"longitude":91.8933,"temp":19.2,"humidity":100,"rain":0.0,"pressure":853.2,"uv_index":5.1,"wind_gusts":16.2,"aqi":36,"pm10":10.7,"pm2_5":10.6,"no2":8.5,"co":233.0,"o3":47.0,"so2":2.3,"mosquito_risk":3,"arthritis_risk":10,"migraine_risk":3,"frizz_risk":1,"updated_at":"2026-07-01T01:39:46.711678+05:30"},{"city":"Imphal","state":"Manipur","latitude":24.817,"longitude":93.9368,"temp":23.4,"humidity":95,"rain":0.0,"pressure":919.0,"uv_index":5.0,"wind_gusts":23.0,"aqi":37,"pm10":16.2,"pm2_5":15.9,"no2":12.6,"co":379.0,"o3":27.0,"so2":2.7,"mosquito_risk":3,"arthritis_risk":5,"migraine_risk":3,"frizz_risk":1,"updated_at":"2026-07-01T01:39:46.711684+05:30"},{"city":"Aizawl","state":"Mizoram","latitude":23.7271,"longitude":92.7176,"temp":20.1,"humidity":99,"rain":0.1,"pressure":888.0,"uv_index":6.2,"wind_gusts":24.8,"aqi":24,"pm10":7.1,"pm2_5":7.1,"no2":8.2,"co":164.0,"o3":20.0,"so2":0.5,"mosquito_risk":6,"arthritis_risk":5,"migraine_risk":7,"frizz_risk":1,"updated_at":"2026-07-01T01:39:46.711691+05:30"},{"city":"Kohima","state":"Nagaland","latitude":25.6701,"longitude":94.1077,"temp":20.0,"humidity":93,"rain":0.1,"pressure":851.7,"uv_index":5.25,"wind_gusts":23.0,"aqi":23,"pm10":5.5,"pm2_5":5.4,"no2":12.8,"co":278.0,"o3":18.0,"so2":0.8,"mosquito_risk":6,"arthritis_risk":5,"migraine_risk":3,"frizz_risk":1,"updated_at":"2026-07-01T01:39:46.711697+05:30"},{"city":"Gangtok","state":"Sikkim","latitude":27.3314,"longitude":88.6138,"temp":18.8,"humidity":95,"rain":0.1,"pressure":835.0,"uv_index":6.85,"wind_gusts":30.6,"aqi":64,"pm10":11.4,"pm2_5":10.6,"no2":6.1,"co":420.0,"o3":111.0,"so2":2.5,"mosquito_risk":6,"arthritis_risk":10,"migraine_risk":7,"frizz_risk":1,"updated_at":"2026-07-01T01:39:46.711703+05:30"},{"city":"Siliguri","state":"West Bengal","latitude":26.7271,"longitude":88.3953,"temp":25.3,"humidity":92,"rain":0.1,"pressure":987.9,"uv_index":8.3,"wind_gusts":23.4,"aqi":82,"pm10":44.5,"pm2_5":42.6,"no2":14.4,"co":340.0,"o3":89.0,"so2":6.5,"mosquito_risk":10,"arthritis_risk":5,"migraine_risk":7,"frizz_risk":1,"updated_at":"2026-07-01T01:39:50.084126+05:30"},{"city":"Durgapur","state":"West Bengal","latitude":23.5204,"longitude":87.3119,"temp":25.6,"humidity":100,"rain":0.1,"pressure":989.0,"uv_index":8.75,"wind_gusts":21.6,"aqi":163,"pm10":61.9,"pm2_5":61.7,"no2":26.5,"co":522.0,"o3":70.0,"so2":26.6,"mosquito_risk":10,"arthritis_risk":5,"migraine_risk":7,"frizz_risk":1,"updated_at":"2026-07-01T01:39:50.084158+05:30"},{"city":"Asansol","state":"West Bengal","latitude":23.6739,"longitude":86.9524,"temp":26.0,"humidity":99,"rain":0.2,"pressure":987.7,"uv_index":7.0,"wind_gusts":21.6,"aqi":161,"pm10":66.6,"pm2_5":66.4,"no2":28.9,"co":834.0,"o3":69.0,"so2":38.4,"mosquito_risk":10,"arthritis_risk":5,"migraine_risk":7,"frizz_risk":1,"updated_at":"2026-07-01T01:39:50.084169+05:30"},{"city":"Pondicherry","state":"Puducherry","latitude":11.9139,"longitude":79.8145,"temp":27.5,"humidity":75,"rain":0.0,"pressure":1006.9,"uv_index":2.3,"wind_gusts":40.7,"aqi":46,"pm10":16.4,"pm2_5":13.4,"no2":17.3,"co":307.0,"o3":51.0,"so2":10.6,"mosquito_risk":7,"arthritis_risk":5,"migraine_risk":0,"frizz_risk":1,"updated_at":"2026-07-01T01:39:50.084179+05:30"},{"city":"Port Blair","state":"Andaman and Nicobar Islands","latitude":11.6234,"longitude":92.7265,"temp":25.6,"humidity":99,"rain":0.4,"pressure":1005.2,"uv_index":3.25,"wind_gusts":48.6,"aqi":27,"pm10":7.8,"pm2_5":4.9,"no2":0.1,"co":86.0,"o3":65.0,"so2":0.4,"mosquito_risk":10,"arthritis_risk":5,"migraine_risk":0,"frizz_risk":1,"updated_at":"2026-07-01T01:39:50.084188+05:30"},{"city":"Haridwar","state":"Uttarakhand","latitude":29.9457,"longitude":78.1642,"temp":25.5,"humidity":91,"rain":0.2,"pressure":968.3,"uv_index":6.15,"wind_gusts":20.9,"aqi":83,"pm10":32.6,"pm2_5":26.3,"no2":16.5,"co":304.0,"o3":48.0,"so2":6.2,"mosquito_risk":10,"arthritis_risk":5,"migraine_risk":7,"frizz_risk":1,"updated_at":"2026-07-01T01:39:50.084196+05:30"},{"city":"Rishikesh","state":"Uttarakhand","latitude":30.0869,"longitude":78.2676,"temp":25.2,"humidity":100,"rain":0.1,"pressure":961.2,"uv_index":6.85,"wind_gusts":14.0,"aqi":69,"pm10":37.5,"pm2_5":19.4,"no2":9.9,"co":373.0,"o3":77.0,"so2":3.9,"mosquito_risk":10,"arthritis_risk":5,"migraine_risk":7,"frizz_risk":1,"updated_at":"2026-07-01T01:39:50.084203+05:30"},{"city":"Nainital","state":"Uttarakhand","latitude":29.3919,"longitude":79.4542,"temp":16.7,"humidity":97,"rain":0.0,"pressure":801.8,"uv_index":4.65,"wind_gusts":27.0,"aqi":42,"pm10":14.3,"pm2_5":11.2,"no2":10.0,"co":235.0,"o3":89.0,"so2":1.8,"mosquito_risk":3,"arthritis_risk":10,"migraine_risk":3,"frizz_risk":1,"updated_at":"2026-07-01T01:39:50.084212+05:30"},{"city":"Mussoorie","state":"Uttarakhand","latitude":30.4599,"longitude":78.0664,"temp":17.1,"humidity":99,"rain":0.0,"pressure":799.5,"uv_index":4.9,"wind_gusts":20.2,"aqi":73,"pm10":32.2,"pm2_5":21.9,"no2":21.1,"co":320.0,"o3":54.0,"so2":5.3,"mosquito_risk":3,"arthritis_risk":10,"migraine_risk":3,"frizz_risk":1,"updated_at":"2026-07-01T01:39:50.084220+05:30"},{"city":"Dharamshala","state":"Himachal Pradesh","latitude":32.219,"longitude":76.3234,"temp":22.0,"humidity":96,"rain":0.0,"pressure":864.0,"uv_index":6.5,"wind_gusts":31.0,"aqi":37,"pm10":8.1,"pm2_5":7.3,"no2":12.4,"co":349.0,"o3":70.0,"so2":0.2,"mosquito_risk":3,"arthritis_risk":5,"migraine_risk":7,"frizz_risk":1,"updated_at":"2026-07-01T01:39:50.084227+05:30"},{"city":"Dalhousie","state":"Himachal Pradesh","latitude":32.5387,"longitude":75.971,"temp":17.4,"humidity":96,"rain":0.0,"pressure":800.3,"uv_index":7.9,"wind_gusts":22.7,"aqi":81,"pm10":24.3,"pm2_5":18.8,"no2":21.2,"co":493.0,"o3":80.0,"so2":2.2,"mosquito_risk":3,"arthritis_risk":10,"migraine_risk":7,"frizz_risk":1,"updated_at":"2026-07-01T01:39:50.084236+05:30"},{"city":"Patiala","state":"Punjab","latitude":30.3398,"longitude":76.3869,"temp":28.0,"humidity":80,"rain":0.0,"pressure":970.9,"uv_index":5.25,"wind_gusts":41.4,"aqi":173,"pm10":726.4,"pm2_5":117.6,"no2":13.5,"co":454.0,"o3":87.0,"so2":16.1,"mosquito_risk":7,"arthritis_risk":5,"migraine_risk":3,"frizz_risk":1,"updated_at":"2026-07-01T01:39:50.084243+05:30"},{"city":"Bhatinda","state":"Punjab","latitude":30.211,"longitude":74.9455,"temp":31.7,"humidity":69,"rain":0.0,"pressure":974.6,"uv_index":5.15,"wind_gusts":32.8,"aqi":165,"pm10":845.6,"pm2_5":207.7,"no2":12.8,"co":404.0,"o3":104.0,"so2":15.5,"mosquito_risk":3,"arthritis_risk":5,"migraine_risk":3,"frizz_risk":1,"updated_at":"2026-07-01T01:39:50.084251+05:30"},{"city":"Rohtak","state":"Haryana","latitude":28.8955,"longitude":76.6066,"temp":30.7,"humidity":71,"rain":0.0,"pressure":974.1,"uv_index":6.7,"wind_gusts":29.5,"aqi":1434,"pm10":1549.7,"pm2_5":260.8,"no2":20.9,"co":505.0,"o3":93.0,"so2":28.2,"mosquito_risk":3,"arthritis_risk":5,"migraine_risk":7,"frizz_risk":1,"updated_at":"2026-07-01T01:39:50.084258+05:30"},{"city":"Panipat","state":"Haryana","latitude":29.3909,"longitude":76.9635,"temp":28.5,"humidity":77,"rain":0.0,"pressure":973.4,"uv_index":5.65,"wind_gusts":33.8,"aqi":1953,"pm10":2548.1,"pm2_5":346.5,"no2":22.5,"co":467.0,"o3":69.0,"so2":21.2,"mosquito_risk":7,"arthritis_risk":5,"migraine_risk":3,"frizz_risk":1,"updated_at":"2026-07-01T01:39:50.084265+05:30"},{"city":"Mathura","state":"Uttar Pradesh","latitude":27.4924,"longitude":77.6737,"temp":27.6,"humidity":83,"rain":0.1,"pressure":980.1,"uv_index":7.95,"wind_gusts":33.1,"aqi":616,"pm10":933.2,"pm2_5":172.3,"no2":18.3,"co":204.0,"o3":65.0,"so2":9.1,"mosquito_risk":10,"arthritis_risk":5,"migraine_risk":7,"frizz_risk":1,"updated_at":"2026-07-01T01:39:50.084272+05:30"},{"city":"Vrindavan","state":"Uttar Pradesh","latitude":27.5823,"longitude":77.7027,"temp":29.0,"humidity":77,"rain":0.0,"pressure":980.4,"uv_index":7.9,"wind_gusts":31.0,"aqi":616,"pm10":933.2,"pm2_5":172.3,"no2":18.3,"co":227.0,"o3":65.0,"so2":9.1,"mosquito_risk":7,"arthritis_risk":5,"migraine_risk":7,"frizz_risk":1,"updated_at":"2026-07-01T01:39:50.084279+05:30"},{"city":"Ayodhya","state":"Uttar Pradesh","latitude":26.7922,"longitude":82.1998,"temp":27.3,"humidity":89,"rain":0.0,"pressure":989.0,"uv_index":5.8,"wind_gusts":29.5,"aqi":97,"pm10":41.8,"pm2_5":36.6,"no2":12.3,"co":513.0,"o3":96.0,"so2":5.6,"mosquito_risk":7,"arthritis_risk":5,"migraine_risk":3,"frizz_risk":1,"updated_at":"2026-07-01T01:39:50.084286+05:30"},{"city":"Ratlam","state":"Madhya Pradesh","latitude":23.3315,"longitude":75.0367,"temp":25.9,"humidity":81,"rain":0.0,"pressure":949.3,"uv_index":6.45,"wind_gusts":37.4,"aqi":60,"pm10":12.8,"pm2_5":11.5,"no2":6.8,"co":180.0,"o3":65.0,"so2":11.2,"mosquito_risk":7,"arthritis_risk":5,"migraine_risk":7,"frizz_risk":1,"updated_at":"2026-07-01T01:39:50.084294+05:30"},{"city":"Sagar","state":"Madhya Pradesh","latitude":23.8388,"longitude":78.7378,"temp":25.1,"humidity":89,"rain":0.0,"pressure":944.3,"uv_index":8.7,"wind_gusts":35.6,"aqi":58,"pm10":18.1,"pm2_5":14.6,"no2":7.1,"co":231.0,"o3":69.0,"so2":3.5,"mosquito_risk":7,"arthritis_risk":5,"migraine_risk":7,"frizz_risk":1,"updated_at":"2026-07-01T01:39:50.084301+05:30"},{"city":"Satna","state":"Madhya Pradesh","latitude":24.6005,"longitude":80.8322,"temp":27.3,"humidity":91,"rain":0.0,"pressure":964.9,"uv_index":8.3,"wind_gusts":25.6,"aqi":67,"pm10":23.3,"pm2_5":18.0,"no2":10.2,"co":222.0,"o3":64.0,"so2":4.7,"mosquito_risk":7,"arthritis_risk":5,"migraine_risk":7,"frizz_risk":1,"updated_at":"2026-07-01T01:39:50.084308+05:30"},{"city":"Akola","state":"Maharashtra","latitude":20.7002,"longitude":77.0082,"temp":25.8,"humidity":98,"rain":0.1,"pressure":970.4,"uv_index":1.3,"wind_gusts":32.8,"aqi":56,"pm10":13.7,"pm2_5":11.8,"no2":10.5,"co":187.0,"o3":51.0,"so2":6.1,"mosquito_risk":10,"arthritis_risk":5,"migraine_risk":3,"frizz_risk":1,"updated_at":"2026-07-01T01:39:50.084316+05:30"},{"city":"Amravati","state":"Maharashtra","latitude":20.9374,"longitude":77.7796,"temp":25.2,"humidity":97,"rain":0.0,"pressure":962.5,"uv_index":1.4,"wind_gusts":34.6,"aqi":56,"pm10":16.2,"pm2_5":14.1,"no2":11.5,"co":176.0,"o3":57.0,"so2":5.3,"mosquito_risk":7,"arthritis_risk":5,"migraine_risk":3,"frizz_risk":1,"updated_at":"2026-07-01T01:39:50.084324+05:30"},{"city":"Latur","state":"Maharashtra","latitude":18.4088,"longitude":76.5604,"temp":24.3,"humidity":83,"rain":0.0,"pressure":935.9,"uv_index":4.0,"wind_gusts":50.0,"aqi":24,"pm10":3.6,"pm2_5":3.5,"no2":6.9,"co":152.0,"o3":37.0,"so2":2.3,"mosquito_risk":3,"arthritis_risk":5,"migraine_risk":3,"frizz_risk":1,"updated_at":"2026-07-01T01:39:50.084332+05:30"},{"city":"Nanded","state":"Maharashtra","latitude":19.1383,"longitude":77.3091,"temp":25.0,"humidity":96,"rain":0.4,"pressure":964.6,"uv_index":0.9,"wind_gusts":36.0,"aqi":40,"pm10":5.4,"pm2_5":5.0,"no2":8.1,"co":169.0,"o3":43.0,"so2":2.6,"mosquito_risk":10,"arthritis_risk":5,"migraine_risk":3,"frizz_risk":1,"updated_at":"2026-07-01T01:39:50.084339+05:30"},{"city":"Gulbarga","state":"Karnataka","latitude":17.3297,"longitude":76.8343,"temp":25.3,"humidity":79,"rain":0.0,"pressure":955.7,"uv_index":2.05,"wind_gusts":55.4,"aqi":22,"pm10":2.4,"pm2_5":2.3,"no2":6.6,"co":129.0,"o3":38.0,"so2":2.6,"mosquito_risk":7,"arthritis_risk":5,"migraine_risk":3,"frizz_risk":1,"updated_at":"2026-07-01T01:39:50.084346+05:30"},{"city":"Bidar","state":"Karnataka","latitude":17.9104,"longitude":77.5199,"temp":23.9,"humidity":86,"rain":0.0,"pressure":931.8,"uv_index":3.5,"wind_gusts":47.5,"aqi":23,"pm10":3.7,"pm2_5":3.5,"no2":7.2,"co":141.0,"o3":37.0,"so2":2.1,"mosquito_risk":3,"arthritis_risk":5,"migraine_risk":3,"frizz_risk":1,"updated_at":"2026-07-01T01:39:50.084352+05:30"},{"city":"Hospet","state":"Karnataka","latitude":15.2689,"longitude":76.3909,"temp":24.1,"humidity":86,"rain":0.0,"pressure":953.9,"uv_index":6.1,"wind_gusts":63.4,"aqi":21,"pm10":1.4,"pm2_5":1.3,"no2":3.8,"co":116.0,"o3":41.0,"so2":1.3,"mosquito_risk":3,"arthritis_risk":5,"migraine_risk":7,"frizz_risk":1,"updated_at":"2026-07-01T01:39:50.084379+05:30"},{"city":"Tirupur","state":"Tamil Nadu","latitude":11.1085,"longitude":77.3411,"temp":23.4,"humidity":90,"rain":0.0,"pressure":974.8,"uv_index":2.5,"wind_gusts":62.3,"aqi":48,"pm10":16.7,"pm2_5":14.5,"no2":20.2,"co":140.0,"o3":20.0,"so2":4.8,"mosquito_risk":3,"arthritis_risk":5,"migraine_risk":3,"frizz_risk":1,"updated_at":"2026-07-01T01:39:50.084388+05:30"},{"city":"Alappuzha","state":"Kerala","latitude":9.4981,"longitude":76.3388,"temp":25.2,"humidity":93,"rain":0.0,"pressure":1010.5,"uv_index":7.55,"wind_gusts":35.6,"aqi":43,"pm10":13.5,"pm2_5":7.8,"no2":7.5,"co":85.0,"o3":35.0,"so2":2.5,"mosquito_risk":7,"arthritis_risk":0,"migraine_risk":4,"frizz_risk":1,"updated_at":"2026-07-01T01:39:50.084395+05:30"},{"city":"Munnar","state":"Kerala","latitude":10.0889,"longitude":77.0595,"temp":16.5,"humidity":95,"rain":0.2,"pressure":856.6,"uv_index":5.95,"wind_gusts":43.9,"aqi":18,"pm10":2.1,"pm2_5":2.0,"no2":5.8,"co":88.0,"o3":25.0,"so2":1.3,"mosquito_risk":6,"arthritis_risk":10,"migraine_risk":3,"frizz_risk":0,"updated_at":"2026-07-01T01:39:50.084403+05:30"},{"city":"Silchar","state":"Assam","latitude":24.8333,"longitude":92.7789,"temp":25.7,"humidity":99,"rain":0.1,"pressure":1000.1,"uv_index":7.55,"wind_gusts":19.4,"aqi":53,"pm10":15.0,"pm2_5":14.6,"no2":6.8,"co":201.0,"o3":56.0,"so2":3.6,"mosquito_risk":10,"arthritis_risk":5,"migraine_risk":4,"frizz_risk":1,"updated_at":"2026-07-01T01:39:50.084410+05:30"},{"city":"Dibrugarh","state":"Assam","latitude":27.4728,"longitude":94.912,"temp":26.6,"humidity":92,"rain":0.0,"pressure":990.2,"uv_index":8.4,"wind_gusts":26.3,"aqi":70,"pm10":33.1,"pm2_5":32.5,"no2":18.9,"co":443.0,"o3":38.0,"so2":2.6,"mosquito_risk":7,"arthritis_risk":5,"migraine_risk":7,"frizz_risk":1,"updated_at":"2026-07-01T01:39:50.084417+05:30"}]