[{"city":"Delhi","state":"Delhi","latitude":28.6139,"longitude":77.209,"temp":31.8,"humidity":37,"rain":0.0,"pressure":983.7,"uv_index":5.9,"wind_gusts":40.0,"aqi":153,"pm10":469.4,"pm2_5":65.9,"mosquito_risk":0,"arthritis_risk":5,"migraine_risk":3,"frizz_risk":0,"updated_at":"2026-04-03T14:28:53.333050+05:30"},{"city":"Mumbai","state":"Maharashtra","latitude":19.076,"longitude":72.8777,"temp":28.2,"humidity":74,"rain":0.0,"pressure":1009.5,"uv_index":7.6,"wind_gusts":25.2,"aqi":75,"pm10":53.7,"pm2_5":25.8,"mosquito_risk":7,"arthritis_risk":0,"migraine_risk":4,"frizz_risk":1,"updated_at":"2026-04-03T14:28:53.333094+05:30"},{"city":"Bangalore","state":"Karnataka","latitude":12.9716,"longitude":77.5946,"temp":32.6,"humidity":34,"rain":0.0,"pressure":912.6,"uv_index":9.6,"wind_gusts":27.7,"aqi":72,"pm10":19.3,"pm2_5":17.0,"mosquito_risk":0,"arthritis_risk":5,"migraine_risk":7,"frizz_risk":0,"updated_at":"2026-04-03T14:28:53.333109+05:30"},{"city":"Hyderabad","state":"Telangana","latitude":17.385,"longitude":78.4867,"temp":36.0,"humidity":28,"rain":0.0,"pressure":953.7,"uv_index":8.85,"wind_gusts":22.7,"aqi":70,"pm10":25.4,"pm2_5":18.1,"mosquito_risk":0,"arthritis_risk":5,"migraine_risk":10,"frizz_risk":0,"updated_at":"2026-04-03T14:28:53.333119+05:30"},{"city":"Chennai","state":"Tamil Nadu","latitude":13.0827,"longitude":80.2707,"temp":34.4,"humidity":44,"rain":0.0,"pressure":1007.7,"uv_index":9.3,"wind_gusts":36.0,"aqi":45,"pm10":15.3,"pm2_5":12.2,"mosquito_risk":0,"arthritis_risk":5,"migraine_risk":4,"frizz_risk":1,"updated_at":"2026-04-03T14:28:53.333128+05:30"},{"city":"Kolkata","state":"West Bengal","latitude":22.5726,"longitude":88.3639,"temp":36.2,"humidity":45,"rain":0.0,"pressure":1004.3,"uv_index":8.7,"wind_gusts":20.9,"aqi":67,"pm10":39.0,"pm2_5":31.3,"mosquito_risk":0,"arthritis_risk":5,"migraine_risk":7,"frizz_risk":1,"updated_at":"2026-04-03T14:28:53.333137+05:30"},{"city":"Pune","state":"Maharashtra","latitude":18.5204,"longitude":73.8567,"temp":34.5,"humidity":35,"rain":0.0,"pressure":948.9,"uv_index":8.5,"wind_gusts":37.1,"aqi":132,"pm10":44.2,"pm2_5":35.4,"mosquito_risk":0,"arthritis_risk":5,"migraine_risk":7,"frizz_risk":1,"updated_at":"2026-04-03T14:28:53.333149+05:30"},{"city":"Ahmedabad","state":"Gujarat","latitude":23.0225,"longitude":72.5714,"temp":33.4,"humidity":30,"rain":0.0,"pressure":1002.8,"uv_index":7.25,"wind_gusts":42.5,"aqi":63,"pm10":65.7,"pm2_5":18.2,"mosquito_risk":0,"arthritis_risk":5,"migraine_risk":4,"frizz_risk":0,"updated_at":"2026-04-03T14:28:53.333157+05:30"},{"city":"Jaipur","state":"Rajasthan","latitude":26.9124,"longitude":75.7873,"temp":28.0,"humidity":48,"rain":0.0,"pressure":961.6,"uv_index":7.5,"wind_gusts":63.0,"aqi":127,"pm10":259.8,"pm2_5":37.5,"mosquito_risk":4,"arthritis_risk":5,"migraine_risk":7,"frizz_risk":0,"updated_at":"2026-04-03T14:28:53.333165+05:30"},{"city":"Lucknow","state":"Uttar Pradesh","latitude":26.8467,"longitude":80.9462,"temp":33.7,"humidity":41,"rain":0.0,"pressure":993.5,"uv_index":6.85,"wind_gusts":32.4,"aqi":81,"pm10":65.9,"pm2_5":22.6,"mosquito_risk":0,"arthritis_risk":5,"migraine_risk":7,"frizz_risk":1,"updated_at":"2026-04-03T14:28:53.333173+05:30"},{"city":"Kanpur","state":"Uttar Pradesh","latitude":26.4499,"longitude":80.3319,"temp":34.1,"humidity":47,"rain":0.0,"pressure":991.9,"uv_index":5.2,"wind_gusts":26.3,"aqi":106,"pm10":280.3,"pm2_5":40.0,"mosquito_risk":0,"arthritis_risk":5,"migraine_risk":3,"frizz_risk":1,"updated_at":"2026-04-03T14:28:53.333179+05:30"},{"city":"Chandigarh","state":"Chandigarh","latitude":30.7333,"longitude":76.7794,"temp":23.8,"humidity":73,"rain":0.0,"pressure":970.5,"uv_index":5.85,"wind_gusts":43.9,"aqi":76,"pm10":138.3,"pm2_5":41.6,"mosquito_risk":3,"arthritis_risk":5,"migraine_risk":3,"frizz_risk":1,"updated_at":"2026-04-03T14:28:53.333187+05:30"},{"city":"Srinagar","state":"Jammu and Kashmir","latitude":34.0837,"longitude":74.7973,"temp":15.3,"humidity":74,"rain":0.0,"pressure":840.6,"uv_index":6.45,"wind_gusts":42.8,"aqi":100,"pm10":25.1,"pm2_5":13.4,"mosquito_risk":3,"arthritis_risk":5,"migraine_risk":7,"frizz_risk":0,"updated_at":"2026-04-03T14:28:53.333194+05:30"},{"city":"Jammu","state":"Jammu and Kashmir","latitude":32.7266,"longitude":74.857,"temp":23.1,"humidity":72,"rain":0.0,"pressure":973.3,"uv_index":6.05,"wind_gusts":40.3,"aqi":68,"pm10":42.6,"pm2_5":18.1,"mosquito_risk":3,"arthritis_risk":5,"migraine_risk":7,"frizz_risk":1,"updated_at":"2026-04-03T14:28:53.333201+05:30"},{"city":"Amritsar","state":"Punjab","latitude":31.634,"longitude":74.8723,"temp":23.6,"humidity":73,"rain":0.0,"pressure":981.0,"uv_index":4.15,"wind_gusts":49.7,"aqi":93,"pm10":44.2,"pm2_5":18.0,"mosquito_risk":3,"arthritis_risk":5,"migraine_risk":3,"frizz_risk":1,"updated_at":"2026-04-03T14:28:53.333207+05:30"},{"city":"Ludhiana","state":"Punjab","latitude":30.901,"longitude":75.8573,"temp":26.9,"humidity":56,"rain":0.0,"pressure":979.0,"uv_index":4.9,"wind_gusts":47.5,"aqi":115,"pm10":60.3,"pm2_5":22.3,"mosquito_risk":4,"arthritis_risk":5,"migraine_risk":3,"frizz_risk":1,"updated_at":"2026-04-03T14:28:53.333214+05:30"},{"city":"Jalandhar","state":"Punjab","latitude":31.326,"longitude":75.5762,"temp":24.0,"humidity":70,"rain":0.0,"pressure":980.2,"uv_index":5.2,"wind_gusts":51.5,"aqi":94,"pm10":60.5,"pm2_5":20.1,"mosquito_risk":3,"arthritis_risk":5,"migraine_risk":3,"frizz_risk":1,"updated_at":"2026-04-03T14:28:53.333222+05:30"},{"city":"Dehradun","state":"Uttarakhand","latitude":30.6284,"longitude":78.0322,"temp":20.5,"humidity":55,"rain":0.0,"pressure":833.4,"uv_index":5.4,"wind_gusts":46.8,"aqi":36,"pm10":22.4,"pm2_5":7.4,"mosquito_risk":0,"arthritis_risk":5,"migraine_risk":3,"frizz_risk":0,"updated_at":"2026-04-03T14:28:53.333231+05:30"},{"city":"Shimla","state":"Himachal Pradesh","latitude":31.1048,"longitude":77.1734,"temp":18.0,"humidity":63,"rain":0.0,"pressure":787.0,"uv_index":6.15,"wind_gusts":59.0,"aqi":53,"pm10":21.0,"pm2_5":8.4,"mosquito_risk":3,"arthritis_risk":5,"migraine_risk":7,"frizz_risk":0,"updated_at":"2026-04-03T14:28:53.333238+05:30"},{"city":"Manali","state":"Himachal Pradesh","latitude":32.2396,"longitude":77.1887,"temp":19.7,"humidity":59,"rain":0.0,"pressure":821.7,"uv_index":7.1,"wind_gusts":50.0,"aqi":58,"pm10":13.6,"pm2_5":5.7,"mosquito_risk":0,"arthritis_risk":5,"migraine_risk":7,"frizz_risk":0,"updated_at":"2026-04-03T14:28:53.333244+05:30"},{"city":"Gurgaon","state":"Haryana","latitude":28.4595,"longitude":77.0266,"temp":31.9,"humidity":32,"rain":0.0,"pressure":982.4,"uv_index":6.3,"wind_gusts":41.4,"aqi":656,"pm10":1292.7,"pm2_5":130.4,"mosquito_risk":0,"arthritis_risk":5,"migraine_risk":7,"frizz_risk":0,"updated_at":"2026-04-03T14:28:53.333251+05:30"},{"city":"Noida","state":"Uttar Pradesh","latitude":28.5355,"longitude":77.391,"temp":32.2,"humidity":37,"rain":0.0,"pressure":985.2,"uv_index":6.0,"wind_gusts":40.0,"aqi":656,"pm10":1292.7,"pm2_5":130.4,"mosquito_risk":0,"arthritis_risk":5,"migraine_risk":3,"frizz_risk":0,"updated_at":"2026-04-03T14:28:53.333257+05:30"},{"city":"Ghaziabad","state":"Uttar Pradesh","latitude":28.6692,"longitude":77.4538,"temp":31.1,"humidity":42,"rain":0.0,"pressure":983.4,"uv_index":5.85,"wind_gusts":33.5,"aqi":145,"pm10":392.1,"pm2_5":70.1,"mosquito_risk":0,"arthritis_risk":5,"migraine_risk":3,"frizz_risk":1,"updated_at":"2026-04-03T14:28:53.333263+05:30"},{"city":"Faridabad","state":"Haryana","latitude":28.4089,"longitude":77.3178,"temp":33.2,"humidity":29,"rain":0.0,"pressure":984.4,"uv_index":6.25,"wind_gusts":37.8,"aqi":656,"pm10":1292.7,"pm2_5":130.4,"mosquito_risk":0,"arthritis_risk":5,"migraine_risk":7,"frizz_risk":0,"updated_at":"2026-04-03T14:28:53.333270+05:30"},{"city":"Meerut","state":"Uttar Pradesh","latitude":28.9845,"longitude":77.7064,"temp":32.0,"humidity":43,"rain":0.0,"pressure":982.0,"uv_index":6.3,"wind_gusts":29.9,"aqi":145,"pm10":392.1,"pm2_5":70.1,"mosquito_risk":0,"arthritis_risk":5,"migraine_risk":7,"frizz_risk":1,"updated_at":"2026-04-03T14:28:53.333276+05:30"},{"city":"Agra","state":"Uttar Pradesh","latitude":27.1767,"longitude":78.0081,"temp":37.9,"humidity":21,"rain":0.0,"pressure":987.4,"uv_index":7.35,"wind_gusts":48.2,"aqi":351,"pm10":817.7,"pm2_5":79.2,"mosquito_risk":0,"arthritis_risk":5,"migraine_risk":10,"frizz_risk":0,"updated_at":"2026-04-03T14:28:53.333282+05:30"},{"city":"Varanasi","state":"Uttar Pradesh","latitude":25.3176,"longitude":82.9739,"temp":37.2,"humidity":32,"rain":0.0,"pressure":996.8,"uv_index":7.7,"wind_gusts":37.1,"aqi":91,"pm10":36.8,"pm2_5":21.7,"mosquito_risk":0,"arthritis_risk":5,"migraine_risk":10,"frizz_risk":1,"updated_at":"2026-04-03T14:28:53.333291+05:30"},{"city":"Prayagraj","state":"Uttar Pradesh","latitude":25.4358,"longitude":81.8463,"temp":37.0,"humidity":27,"rain":0.0,"pressure":995.5,"uv_index":7.25,"wind_gusts":36.7,"aqi":91,"pm10":33.4,"pm2_5":21.7,"mosquito_risk":0,"arthritis_risk":5,"migraine_risk":10,"frizz_risk":0,"updated_at":"2026-04-03T14:28:53.333298+05:30"},{"city":"Gorakhpur","state":"Uttar Pradesh","latitude":26.7606,"longitude":83.3732,"temp":38.7,"humidity":21,"rain":0.0,"pressure":995.4,"uv_index":7.1,"wind_gusts":42.8,"aqi":61,"pm10":26.1,"pm2_5":15.3,"mosquito_risk":0,"arthritis_risk":5,"migraine_risk":10,"frizz_risk":0,"updated_at":"2026-04-03T14:28:53.333304+05:30"},{"city":"Bareilly","state":"Uttar Pradesh","latitude":28.367,"longitude":79.4304,"temp":34.0,"humidity":39,"rain":0.0,"pressure":987.2,"uv_index":6.1,"wind_gusts":25.2,"aqi":69,"pm10":36.4,"pm2_5":16.2,"mosquito_risk":0,"arthritis_risk":5,"migraine_risk":7,"frizz_risk":1,"updated_at":"2026-04-03T14:28:53.333311+05:30"},{"city":"Aligarh","state":"Uttar Pradesh","latitude":27.8974,"longitude":78.088,"temp":36.2,"humidity":25,"rain":0.0,"pressure":985.4,"uv_index":7.0,"wind_gusts":36.7,"aqi":147,"pm10":983.5,"pm2_5":114.8,"mosquito_risk":0,"arthritis_risk":5,"migraine_risk":10,"frizz_risk":0,"updated_at":"2026-04-03T14:28:53.333317+05:30"},{"city":"Moradabad","state":"Uttar Pradesh","latitude":28.8386,"longitude":78.7733,"temp":33.5,"humidity":38,"rain":0.0,"pressure":984.2,"uv_index":6.25,"wind_gusts":22.0,"aqi":96,"pm10":68.5,"pm2_5":28.9,"mosquito_risk":0,"arthritis_risk":5,"migraine_risk":7,"frizz_risk":1,"updated_at":"2026-04-03T14:28:53.333323+05:30"},{"city":"Saharanpur","state":"Uttar Pradesh","latitude":29.9637,"longitude":77.546,"temp":26.8,"humidity":59,"rain":0.0,"pressure":976.9,"uv_index":6.55,"wind_gusts":42.5,"aqi":87,"pm10":207.7,"pm2_5":56.6,"mosquito_risk":4,"arthritis_risk":5,"migraine_risk":7,"frizz_risk":1,"updated_at":"2026-04-03T14:28:53.333329+05:30"},{"city":"Jhansi","state":"Uttar Pradesh","latitude":25.4484,"longitude":78.5685,"temp":37.0,"humidity":24,"rain":0.0,"pressure":978.0,"uv_index":7.8,"wind_gusts":33.5,"aqi":61,"pm10":48.8,"pm2_5":16.2,"mosquito_risk":0,"arthritis_risk":5,"migraine_risk":10,"frizz_risk":0,"updated_at":"2026-04-03T14:28:56.636242+05:30"},{"city":"Surat","state":"Gujarat","latitude":21.1702,"longitude":72.8311,"temp":30.8,"humidity":54,"rain":0.0,"pressure":1008.1,"uv_index":7.65,"wind_gusts":29.9,"aqi":98,"pm10":58.7,"pm2_5":40.2,"mosquito_risk":0,"arthritis_risk":0,"migraine_risk":4,"frizz_risk":1,"updated_at":"2026-04-03T14:28:56.636271+05:30"},{"city":"Vadodara","state":"Gujarat","latitude":22.3072,"longitude":73.1812,"temp":32.7,"humidity":38,"rain":0.0,"pressure":1005.3,"uv_index":7.85,"wind_gusts":27.7,"aqi":78,"pm10":44.9,"pm2_5":22.2,"mosquito_risk":0,"arthritis_risk":5,"migraine_risk":4,"frizz_risk":1,"updated_at":"2026-04-03T14:28:56.636280+05:30"},{"city":"Rajkot","state":"Gujarat","latitude":22.3039,"longitude":70.8022,"temp":29.1,"humidity":52,"rain":0.0,"pressure":995.8,"uv_index":7.25,"wind_gusts":39.2,"aqi":66,"pm10":37.1,"pm2_5":10.5,"mosquito_risk":4,"arthritis_risk":5,"migraine_risk":7,"frizz_risk":1,"updated_at":"2026-04-03T14:28:56.636288+05:30"},{"city":"Thane","state":"Maharashtra","latitude":19.2183,"longitude":72.9781,"temp":30.9,"humidity":58,"rain":0.0,"pressure":1009.1,"uv_index":7.7,"wind_gusts":37.8,"aqi":75,"pm10":53.7,"pm2_5":25.8,"mosquito_risk":0,"arthritis_risk":0,"migraine_risk":4,"frizz_risk":1,"updated_at":"2026-04-03T14:28:56.636295+05:30"},{"city":"Nagpur","state":"Maharashtra","latitude":21.1458,"longitude":79.0882,"temp":36.1,"humidity":36,"rain":0.0,"pressure":973.4,"uv_index":8.7,"wind_gusts":23.4,"aqi":82,"pm10":34.0,"pm2_5":28.6,"mosquito_risk":0,"arthritis_risk":5,"migraine_risk":10,"frizz_risk":1,"updated_at":"2026-04-03T14:28:56.636302+05:30"},{"city":"Nashik","state":"Maharashtra","latitude":19.9975,"longitude":73.7898,"temp":32.3,"humidity":32,"rain":0.0,"pressure":946.7,"uv_index":8.15,"wind_gusts":41.4,"aqi":72,"pm10":21.4,"pm2_5":10.7,"mosquito_risk":0,"arthritis_risk":5,"migraine_risk":7,"frizz_risk":0,"updated_at":"2026-04-03T14:28:56.636309+05:30"},{"city":"Aurangabad","state":"Maharashtra","latitude":19.8762,"longitude":75.3433,"temp":33.8,"humidity":35,"rain":0.0,"pressure":944.9,"uv_index":8.75,"wind_gusts":25.6,"aqi":104,"pm10":49.5,"pm2_5":38.2,"mosquito_risk":0,"arthritis_risk":5,"migraine_risk":7,"frizz_risk":1,"updated_at":"2026-04-03T14:28:56.636315+05:30"},{"city":"Solapur","state":"Maharashtra","latitude":17.6599,"longitude":75.9064,"temp":37.3,"humidity":26,"rain":0.0,"pressure":956.7,"uv_index":8.95,"wind_gusts":34.9,"aqi":102,"pm10":27.9,"pm2_5":22.4,"mosquito_risk":0,"arthritis_risk":5,"migraine_risk":10,"frizz_risk":0,"updated_at":"2026-04-03T14:28:56.636323+05:30"},{"city":"Kolhapur","state":"Maharashtra","latitude":16.705,"longitude":74.2433,"temp":31.6,"humidity":51,"rain":0.0,"pressure":948.5,"uv_index":8.95,"wind_gusts":37.1,"aqi":144,"pm10":34.3,"pm2_5":29.5,"mosquito_risk":0,"arthritis_risk":5,"migraine_risk":7,"frizz_risk":1,"updated_at":"2026-04-03T14:28:56.636330+05:30"},{"city":"Goa","state":"Goa","latitude":15.2993,"longitude":74.124,"temp":32.3,"humidity":64,"rain":0.0,"pressure":998.0,"uv_index":9.0,"wind_gusts":31.3,"aqi":76,"pm10":26.4,"pm2_5":22.5,"mosquito_risk":3,"arthritis_risk":5,"migraine_risk":7,"frizz_risk":1,"updated_at":"2026-04-03T14:28:56.636337+05:30"},{"city":"Jodhpur","state":"Rajasthan","latitude":26.2389,"longitude":73.0243,"temp":29.9,"humidity":35,"rain":0.0,"pressure":983.2,"uv_index":7.45,"wind_gusts":46.8,"aqi":131,"pm10":202.6,"pm2_5":28.0,"mosquito_risk":4,"arthritis_risk":5,"migraine_risk":7,"frizz_risk":0,"updated_at":"2026-04-03T14:28:56.636344+05:30"},{"city":"Udaipur","state":"Rajasthan","latitude":24.5854,"longitude":73.7125,"temp":28.0,"humidity":38,"rain":0.0,"pressure":947.5,"uv_index":7.95,"wind_gusts":56.5,"aqi":45,"pm10":48.7,"pm2_5":14.1,"mosquito_risk":4,"arthritis_risk":5,"migraine_risk":7,"frizz_risk":0,"updated_at":"2026-04-03T14:28:56.636350+05:30"},{"city":"Kota","state":"Rajasthan","latitude":25.2138,"longitude":75.8648,"temp":37.5,"humidity":20,"rain":0.0,"pressure":977.8,"uv_index":7.85,"wind_gusts":47.2,"aqi":59,"pm10":56.3,"pm2_5":20.1,"mosquito_risk":0,"arthritis_risk":5,"migraine_risk":10,"frizz_risk":0,"updated_at":"2026-04-03T14:28:56.636356+05:30"},{"city":"Bikaner","state":"Rajasthan","latitude":28.0229,"longitude":73.3119,"temp":25.4,"humidity":55,"rain":0.0,"pressure":982.9,"uv_index":7.25,"wind_gusts":54.7,"aqi":63,"pm10":62.2,"pm2_5":19.8,"mosquito_risk":4,"arthritis_risk":5,"migraine_risk":7,"frizz_risk":0,"updated_at":"2026-04-03T14:28:56.636363+05:30"},{"city":"Ajmer","state":"Rajasthan","latitude":26.4499,"longitude":74.6399,"temp":29.8,"humidity":34,"rain":0.0,"pressure":955.0,"uv_index":7.55,"wind_gusts":62.6,"aqi":74,"pm10":54.8,"pm2_5":16.6,"mosquito_risk":4,"arthritis_risk":5,"migraine_risk":7,"frizz_risk":0,"updated_at":"2026-04-03T14:28:56.636370+05:30"},{"city":"Gwalior","state":"Madhya Pradesh","latitude":26.2183,"longitude":78.1828,"temp":36.3,"humidity":27,"rain":0.0,"pressure":983.1,"uv_index":7.65,"wind_gusts":34.9,"aqi":63,"pm10":68.9,"pm2_5":20.3,"mosquito_risk":0,"arthritis_risk":5,"migraine_risk":10,"frizz_risk":0,"updated_at":"2026-04-03T14:28:56.636376+05:30"},{"city":"Indore","state":"Madhya Pradesh","latitude":22.7196,"longitude":75.8577,"temp":34.7,"humidity":22,"rain":0.0,"pressure":948.7,"uv_index":8.3,"wind_gusts":38.9,"aqi":79,"pm10":29.9,"pm2_5":23.1,"mosquito_risk":0,"arthritis_risk":5,"migraine_risk":7,"frizz_risk":0,"updated_at":"2026-04-03T14:28:56.636383+05:30"},{"city":"Bhopal","state":"Madhya Pradesh","latitude":23.2599,"longitude":77.4126,"temp":35.4,"humidity":30,"rain":0.0,"pressure":954.2,"uv_index":8.1,"wind_gusts":34.9,"aqi":71,"pm10":24.0,"pm2_5":19.7,"mosquito_risk":0,"arthritis_risk":5,"migraine_risk":10,"frizz_risk":0,"updated_at":"2026-04-03T14:28:56.636389+05:30"},{"city":"Jabalpur","state":"Madhya Pradesh","latitude":23.1815,"longitude":79.9864,"temp":35.3,"humidity":28,"rain":0.0,"pressure":962.2,"uv_index":7.65,"wind_gusts":31.3,"aqi":72,"pm10":25.5,"pm2_5":19.6,"mosquito_risk":0,"arthritis_risk":5,"migraine_risk":10,"frizz_risk":0,"updated_at":"2026-04-03T14:28:56.636396+05:30"},{"city":"Ujjain","state":"Madhya Pradesh","latitude":23.1765,"longitude":75.7885,"temp":34.8,"humidity":24,"rain":0.0,"pressure":954.2,"uv_index":8.2,"wind_gusts":40.3,"aqi":77,"pm10":28.2,"pm2_5":20.8,"mosquito_risk":0,"arthritis_risk":5,"migraine_risk":7,"frizz_risk":0,"updated_at":"2026-04-03T14:28:56.636402+05:30"},{"city":"Visakhapatnam","state":"Andhra Pradesh","latitude":17.6868,"longitude":83.2185,"temp":34.1,"humidity":49,"rain":0.0,"pressure":1003.5,"uv_index":8.95,"wind_gusts":42.1,"aqi":58,"pm10":26.2,"pm2_5":22.6,"mosquito_risk":0,"arthritis_risk":5,"migraine_risk":4,"frizz_risk":1,"updated_at":"2026-04-03T14:28:56.636408+05:30"},{"city":"Vijayawada","state":"Andhra Pradesh","latitude":16.5062,"longitude":80.648,"temp":36.5,"humidity":38,"rain":0.0,"pressure":1002.3,"uv_index":8.5,"wind_gusts":29.9,"aqi":51,"pm10":16.4,"pm2_5":12.4,"mosquito_risk":0,"arthritis_risk":5,"migraine_risk":7,"frizz_risk":1,"updated_at":"2026-04-03T14:28:56.636415+05:30"},{"city":"Guntur","state":"Andhra Pradesh","latitude":16.3067,"longitude":80.4365,"temp":36.7,"humidity":37,"rain":0.0,"pressure":1003.5,"uv_index":8.45,"wind_gusts":30.2,"aqi":48,"pm10":15.6,"pm2_5":11.1,"mosquito_risk":0,"arthritis_risk":5,"migraine_risk":7,"frizz_risk":1,"updated_at":"2026-04-03T14:28:56.636421+05:30"},{"city":"Nellore","state":"Andhra Pradesh","latitude":14.4426,"longitude":79.9865,"temp":36.6,"humidity":39,"rain":0.0,"pressure":1005.4,"uv_index":9.25,"wind_gusts":34.2,"aqi":41,"pm10":15.8,"pm2_5":14.2,"mosquito_risk":0,"arthritis_risk":5,"migraine_risk":7,"frizz_risk":1,"updated_at":"2026-04-03T14:28:56.636427+05:30"},{"city":"Kurnool","state":"Andhra Pradesh","latitude":15.8281,"longitude":78.0373,"temp":37.7,"humidity":27,"rain":0.0,"pressure":976.4,"uv_index":8.75,"wind_gusts":19.8,"aqi":53,"pm10":20.0,"pm2_5":14.7,"mosquito_risk":0,"arthritis_risk":5,"migraine_risk":10,"frizz_risk":0,"updated_at":"2026-04-03T14:28:56.636434+05:30"},{"city":"Kakinada","state":"Andhra Pradesh","latitude":16.9891,"longitude":82.2475,"temp":38.3,"humidity":34,"rain":0.0,"pressure":1006.8,"uv_index":8.85,"wind_gusts":39.6,"aqi":41,"pm10":11.5,"pm2_5":8.5,"mosquito_risk":0,"arthritis_risk":5,"migraine_risk":7,"frizz_risk":1,"updated_at":"2026-04-03T14:28:56.636440+05:30"},{"city":"Tirupati","state":"Andhra Pradesh","latitude":13.6288,"longitude":79.4192,"temp":36.4,"humidity":32,"rain":0.0,"pressure":991.1,"uv_index":9.35,"wind_gusts":31.7,"aqi":54,"pm10":12.3,"pm2_5":10.1,"mosquito_risk":0,"arthritis_risk":5,"migraine_risk":10,"frizz_risk":1,"updated_at":"2026-04-03T14:28:56.636446+05:30"},{"city":"Warangal","state":"Telangana","latitude":17.9689,"longitude":79.5941,"temp":36.0,"humidity":39,"rain":0.0,"pressure":978.9,"uv_index":8.75,"wind_gusts":18.4,"aqi":74,"pm10":28.3,"pm2_5":21.5,"mosquito_risk":0,"arthritis_risk":5,"migraine_risk":10,"frizz_risk":1,"updated_at":"2026-04-03T14:28:56.636452+05:30"},{"city":"Nizamabad","state":"Telangana","latitude":18.6725,"longitude":78.0941,"temp":35.7,"humidity":34,"rain":0.0,"pressure":965.0,"uv_index":8.55,"wind_gusts":25.9,"aqi":116,"pm10":34.6,"pm2_5":27.4,"mosquito_risk":0,"arthritis_risk":5,"migraine_risk":10,"frizz_risk":1,"updated_at":"2026-04-03T14:28:56.636464+05:30"},{"city":"Mysore","state":"Karnataka","latitude":12.2958,"longitude":76.6396,"temp":33.6,"humidity":33,"rain":0.0,"pressure":929.0,"uv_index":9.5,"wind_gusts":42.8,"aqi":82,"pm10":22.1,"pm2_5":19.2,"mosquito_risk":0,"arthritis_risk":5,"migraine_risk":7,"frizz_risk":0,"updated_at":"2026-04-03T14:28:56.636471+05:30"},{"city":"Mangalore","state":"Karnataka","latitude":12.9141,"longitude":74.856,"temp":29.5,"humidity":79,"rain":0.0,"pressure":1006.6,"uv_index":9.15,"wind_gusts":24.8,"aqi":70,"pm10":28.3,"pm2_5":22.8,"mosquito_risk":7,"arthritis_risk":5,"migraine_risk":4,"frizz_risk":1,"updated_at":"2026-04-03T14:28:56.636478+05:30"},{"city":"Hubli-Dharwad","state":"Karnataka","latitude":15.3647,"longitude":75.124,"temp":33.4,"humidity":40,"rain":0.0,"pressure":941.2,"uv_index":9.2,"wind_gusts":40.7,"aqi":80,"pm10":27.5,"pm2_5":22.7,"mosquito_risk":0,"arthritis_risk":5,"migraine_risk":7,"frizz_risk":1,"updated_at":"2026-04-03T14:28:56.636485+05:30"},{"city":"Belgaum","state":"Karnataka","latitude":15.8497,"longitude":74.4977,"temp":29.9,"humidity":58,"rain":0.0,"pressure":926.6,"uv_index":9.25,"wind_gusts":35.3,"aqi":90,"pm10":32.1,"pm2_5":26.5,"mosquito_risk":4,"arthritis_risk":5,"migraine_risk":7,"frizz_risk":1,"updated_at":"2026-04-03T14:28:59.940462+05:30"},{"city":"Coimbatore","state":"Tamil Nadu","latitude":11.0168,"longitude":76.9558,"temp":33.8,"humidity":40,"rain":0.0,"pressure":962.2,"uv_index":9.45,"wind_gusts":45.4,"aqi":73,"pm10":22.8,"pm2_5":19.9,"mosquito_risk":0,"arthritis_risk":5,"migraine_risk":7,"frizz_risk":1,"updated_at":"2026-04-03T14:28:59.940525+05:30"},{"city":"Madurai","state":"Tamil Nadu","latitude":9.9252,"longitude":78.1198,"temp":35.0,"humidity":44,"rain":0.0,"pressure":992.9,"uv_index":9.1,"wind_gusts":31.3,"aqi":51,"pm10":14.4,"pm2_5":13.2,"mosquito_risk":0,"arthritis_risk":5,"migraine_risk":7,"frizz_risk":1,"updated_at":"2026-04-03T14:28:59.940538+05:30"},{"city":"Trichy","state":"Tamil Nadu","latitude":10.7905,"longitude":78.7047,"temp":36.1,"humidity":39,"rain":0.0,"pressure":999.3,"uv_index":9.4,"wind_gusts":30.6,"aqi":57,"pm10":13.8,"pm2_5":12.6,"mosquito_risk":0,"arthritis_risk":5,"migraine_risk":10,"frizz_risk":1,"updated_at":"2026-04-03T14:28:59.940546+05:30"},{"city":"Salem","state":"Tamil Nadu","latitude":11.6643,"longitude":78.146,"temp":36.2,"humidity":35,"rain":0.0,"pressure":977.1,"uv_index":9.45,"wind_gusts":24.8,"aqi":63,"pm10":16.2,"pm2_5":14.5,"mosquito_risk":0,"arthritis_risk":5,"migraine_risk":10,"frizz_risk":1,"updated_at":"2026-04-03T14:28:59.940554+05:30"},{"city":"Tirunelveli","state":"Tamil Nadu","latitude":8.7139,"longitude":77.7567,"temp":33.6,"humidity":52,"rain":0.0,"pressure":1003.4,"uv_index":9.35,"wind_gusts":29.5,"aqi":60,"pm10":18.5,"pm2_5":16.0,"mosquito_risk":0,"arthritis_risk":5,"migraine_risk":4,"frizz_risk":1,"updated_at":"2026-04-03T14:28:59.940562+05:30"},{"city":"Vellore","state":"Tamil Nadu","latitude":12.9165,"longitude":79.1325,"temp":36.3,"humidity":30,"rain":0.0,"pressure":984.2,"uv_index":9.4,"wind_gusts":30.2,"aqi":65,"pm10":19.4,"pm2_5":17.1,"mosquito_risk":0,"arthritis_risk":5,"migraine_risk":10,"frizz_risk":0,"updated_at":"2026-04-03T14:28:59.940572+05:30"},{"city":"Erode","state":"Tamil Nadu","latitude":11.341,"longitude":77.7172,"temp":37.5,"humidity":33,"rain":0.0,"pressure":988.3,"uv_index":9.4,"wind_gusts":20.2,"aqi":48,"pm10":16.9,"pm2_5":15.1,"mosquito_risk":0,"arthritis_risk":5,"migraine_risk":10,"frizz_risk":1,"updated_at":"2026-04-03T14:28:59.940579+05:30"},{"city":"Kochi","state":"Kerala","latitude":9.9312,"longitude":76.2673,"temp":29.1,"humidity":75,"rain":0.0,"pressure":1008.8,"uv_index":9.2,"wind_gusts":22.3,"aqi":66,"pm10":16.7,"pm2_5":14.5,"mosquito_risk":7,"arthritis_risk":0,"migraine_risk":4,"frizz_risk":1,"updated_at":"2026-04-03T14:28:59.940587+05:30"},{"city":"Thiruvananthapuram","state":"Kerala","latitude":8.5241,"longitude":76.9366,"temp":28.9,"humidity":78,"rain":0.0,"pressure":1008.3,"uv_index":8.95,"wind_gusts":17.6,"aqi":63,"pm10":22.5,"pm2_5":18.9,"mosquito_risk":7,"arthritis_risk":0,"migraine_risk":4,"frizz_risk":1,"updated_at":"2026-04-03T14:28:59.940594+05:30"},{"city":"Kozhikode","state":"Kerala","latitude":11.2588,"longitude":75.7804,"temp":30.3,"humidity":71,"rain":0.0,"pressure":1007.9,"uv_index":9.15,"wind_gusts":25.6,"aqi":61,"pm10":14.3,"pm2_5":12.0,"mosquito_risk":3,"arthritis_risk":5,"migraine_risk":4,"frizz_risk":1,"updated_at":"2026-04-03T14:28:59.940601+05:30"},{"city":"Thrissur","state":"Kerala","latitude":10.5276,"longitude":76.2144,"temp":33.0,"humidity":58,"rain":0.0,"pressure":1007.1,"uv_index":9.2,"wind_gusts":29.2,"aqi":63,"pm10":18.2,"pm2_5":15.8,"mosquito_risk":0,"arthritis_risk":5,"migraine_risk":4,"frizz_risk":1,"updated_at":"2026-04-03T14:28:59.940609+05:30"},{"city":"Kannur","state":"Kerala","latitude":11.8745,"longitude":75.3704,"temp":31.2,"humidity":67,"rain":0.0,"pressure":1007.3,"uv_index":9.15,"wind_gusts":27.4,"aqi":72,"pm10":16.8,"pm2_5":14.1,"mosquito_risk":3,"arthritis_risk":5,"migraine_risk":4,"frizz_risk":1,"updated_at":"2026-04-03T14:28:59.940616+05:30"},{"city":"Patna","state":"Bihar","latitude":25.5941,"longitude":85.1376,"temp":38.4,"humidity":26,"rain":0.0,"pressure":998.3,"uv_index":8.3,"wind_gusts":36.0,"aqi":77,"pm10":33.9,"pm2_5":19.3,"mosquito_risk":0,"arthritis_risk":5,"migraine_risk":10,"frizz_risk":0,"updated_at":"2026-04-03T14:28:59.940622+05:30"},{"city":"Gaya","state":"Bihar","latitude":24.7914,"longitude":85.0002,"temp":38.5,"humidity":28,"rain":0.0,"pressure":992.0,"uv_index":8.4,"wind_gusts":31.3,"aqi":73,"pm10":29.1,"pm2_5":18.5,"mosquito_risk":0,"arthritis_risk":5,"migraine_risk":10,"frizz_risk":1,"updated_at":"2026-04-03T14:28:59.940629+05:30"},{"city":"Muzaffarpur","state":"Bihar","latitude":26.1209,"longitude":85.3647,"temp":38.9,"humidity":22,"rain":0.0,"pressure":997.7,"uv_index":8.25,"wind_gusts":36.4,"aqi":73,"pm10":29.4,"pm2_5":18.5,"mosquito_risk":0,"arthritis_risk":5,"migraine_risk":10,"frizz_risk":0,"updated_at":"2026-04-03T14:28:59.940635+05:30"},{"city":"Bhagalpur","state":"Bihar","latitude":25.2425,"longitude":87.0117,"temp":36.5,"humidity":32,"rain":0.0,"pressure":999.1,"uv_index":8.3,"wind_gusts":25.9,"aqi":79,"pm10":37.3,"pm2_5":19.6,"mosquito_risk":0,"arthritis_risk":5,"migraine_risk":10,"frizz_risk":1,"updated_at":"2026-04-03T14:28:59.940641+05:30"},{"city":"Ranchi","state":"Jharkhand","latitude":23.3441,"longitude":85.3096,"temp":35.6,"humidity":23,"rain":0.0,"pressure":938.1,"uv_index":8.95,"wind_gusts":29.9,"aqi":94,"pm10":26.5,"pm2_5":19.6,"mosquito_risk":0,"arthritis_risk":5,"migraine_risk":10,"frizz_risk":0,"updated_at":"2026-04-03T14:28:59.940648+05:30"},{"city":"Jamshedpur","state":"Jharkhand","latitude":22.8046,"longitude":86.2029,"temp":38.7,"humidity":29,"rain":0.0,"pressure":989.2,"uv_index":8.8,"wind_gusts":24.5,"aqi":106,"pm10":34.6,"pm2_5":28.2,"mosquito_risk":0,"arthritis_risk":5,"migraine_risk":10,"frizz_risk":1,"updated_at":"2026-04-03T14:28:59.940653+05:30"},{"city":"Dhanbad","state":"Jharkhand","latitude":23.7957,"longitude":86.4304,"temp":39.4,"humidity":20,"rain":0.0,"pressure":978.0,"uv_index":8.7,"wind_gusts":22.7,"aqi":147,"pm10":38.8,"pm2_5":31.3,"mosquito_risk":0,"arthritis_risk":5,"migraine_risk":10,"frizz_risk":0,"updated_at":"2026-04-03T14:28:59.940660+05:30"},{"city":"Bokaro","state":"Jharkhand","latitude":23.6693,"longitude":86.1511,"temp":39.1,"humidity":19,"rain":0.0,"pressure":982.0,"uv_index":8.7,"wind_gusts":25.2,"aqi":146,"pm10":35.7,"pm2_5":28.8,"mosquito_risk":0,"arthritis_risk":5,"migraine_risk":10,"frizz_risk":0,"updated_at":"2026-04-03T14:28:59.940666+05:30"},{"city":"Bhubaneswar","state":"Odisha","latitude":20.2961,"longitude":85.8245,"temp":36.8,"humidity":44,"rain":0.0,"pressure":1001.6,"uv_index":8.95,"wind_gusts":27.4,"aqi":53,"pm10":31.0,"pm2_5":22.9,"mosquito_risk":0,"arthritis_risk":5,"migraine_risk":7,"frizz_risk":1,"updated_at":"2026-04-03T14:28:59.940673+05:30"},{"city":"Cuttack","state":"Odisha","latitude":20.4625,"longitude":85.8828,"temp":39.2,"humidity":32,"rain":0.0,"pressure":1002.8,"uv_index":9.0,"wind_gusts":39.6,"aqi":53,"pm10":31.0,"pm2_5":22.9,"mosquito_risk":0,"arthritis_risk":5,"migraine_risk":7,"frizz_risk":1,"updated_at":"2026-04-03T14:28:59.940679+05:30"},{"city":"Rourkela","state":"Odisha","latitude":22.2604,"longitude":84.8536,"temp":38.9,"humidity":27,"rain":0.0,"pressure":984.1,"uv_index":8.7,"wind_gusts":27.0,"aqi":123,"pm10":40.6,"pm2_5":33.8,"mosquito_risk":0,"arthritis_risk":5,"migraine_risk":10,"frizz_risk":1,"updated_at":"2026-04-03T14:28:59.940685+05:30"},{"city":"Raipur","state":"Chhattisgarh","latitude":21.2514,"longitude":81.6296,"temp":37.7,"humidity":30,"rain":0.0,"pressure":974.6,"uv_index":8.8,"wind_gusts":34.9,"aqi":145,"pm10":34.1,"pm2_5":28.7,"mosquito_risk":0,"arthritis_risk":5,"migraine_risk":10,"frizz_risk":1,"updated_at":"2026-04-03T14:28:59.940691+05:30"},{"city":"Bhilai","state":"Chhattisgarh","latitude":21.1938,"longitude":81.3509,"temp":37.8,"humidity":30,"rain":0.0,"pressure":974.8,"uv_index":8.8,"wind_gusts":24.5,"aqi":124,"pm10":30.5,"pm2_5":25.0,"mosquito_risk":0,"arthritis_risk":5,"migraine_risk":10,"frizz_risk":1,"updated_at":"2026-04-03T14:28:59.940698+05:30"},{"city":"Guwahati","state":"Assam","latitude":26.1158,"longitude":91.7086,"temp":30.3,"humidity":68,"rain":0.0,"pressure":999.8,"uv_index":8.25,"wind_gusts":43.6,"aqi":124,"pm10":48.4,"pm2_5":39.3,"mosquito_risk":3,"arthritis_risk":5,"migraine_risk":7,"frizz_risk":1,"updated_at":"2026-04-03T14:28:59.940704+05:30"},{"city":"Agartala","state":"Tripura","latitude":23.8315,"longitude":91.2868,"temp":34.1,"humidity":58,"rain":0.0,"pressure":1004.3,"uv_index":8.45,"wind_gusts":24.1,"aqi":78,"pm10":34.5,"pm2_5":27.2,"mosquito_risk":0,"arthritis_risk":5,"migraine_risk":4,"frizz_risk":1,"updated_at":"2026-04-03T14:28:59.940710+05:30"},{"city":"Shillong","state":"Meghalaya","latitude":25.5788,"longitude":91.8933,"temp":21.6,"humidity":54,"rain":0.0,"pressure":857.4,"uv_index":8.55,"wind_gusts":55.1,"aqi":112,"pm10":36.4,"pm2_5":28.2,"mosquito_risk":0,"arthritis_risk":5,"migraine_risk":7,"frizz_risk":0,"updated_at":"2026-04-03T14:28:59.940717+05:30"},{"city":"Imphal","state":"Manipur","latitude":24.817,"longitude":93.9368,"temp":24.1,"humidity":64,"rain":0.0,"pressure":923.0,"uv_index":8.85,"wind_gusts":60.8,"aqi":108,"pm10":37.3,"pm2_5":27.3,"mosquito_risk":3,"arthritis_risk":5,"migraine_risk":7,"frizz_risk":1,"updated_at":"2026-04-03T14:28:59.940723+05:30"},{"city":"Aizawl","state":"Mizoram","latitude":23.7271,"longitude":92.7176,"temp":27.3,"humidity":54,"rain":0.0,"pressure":894.0,"uv_index":8.7,"wind_gusts":52.9,"aqi":112,"pm10":37.8,"pm2_5":26.6,"mosquito_risk":4,"arthritis_risk":5,"migraine_risk":7,"frizz_risk":1,"updated_at":"2026-04-03T14:28:59.940730+05:30"},{"city":"Kohima","state":"Nagaland","latitude":25.6701,"longitude":94.1077,"temp":21.9,"humidity":56,"rain":0.0,"pressure":855.8,"uv_index":8.75,"wind_gusts":80.6,"aqi":104,"pm10":36.4,"pm2_5":26.2,"mosquito_risk":0,"arthritis_risk":5,"migraine_risk":7,"frizz_risk":0,"updated_at":"2026-04-03T14:28:59.940736+05:30"},{"city":"Gangtok","state":"Sikkim","latitude":27.3314,"longitude":88.6138,"temp":22.3,"humidity":64,"rain":0.0,"pressure":838.8,"uv_index":7.55,"wind_gusts":19.1,"aqi":92,"pm10":36.1,"pm2_5":28.1,"mosquito_risk":3,"arthritis_risk":5,"migraine_risk":7,"frizz_risk":0,"updated_at":"2026-04-03T14:28:59.940742+05:30"},{"city":"Siliguri","state":"West Bengal","latitude":26.7271,"longitude":88.3953,"temp":28.2,"humidity":58,"rain":0.0,"pressure":992.2,"uv_index":8.25,"wind_gusts":18.7,"aqi":143,"pm10":55.4,"pm2_5":42.4,"mosquito_risk":4,"arthritis_risk":5,"migraine_risk":7,"frizz_risk":1,"updated_at":"2026-04-03T14:29:03.252522+05:30"},{"city":"Durgapur","state":"West Bengal","latitude":23.5204,"longitude":87.3119,"temp":39.4,"humidity":25,"rain":0.0,"pressure":992.9,"uv_index":8.65,"wind_gusts":18.7,"aqi":154,"pm10":40.7,"pm2_5":32.7,"mosquito_risk":0,"arthritis_risk":5,"migraine_risk":10,"frizz_risk":0,"updated_at":"2026-04-03T14:29:03.252553+05:30"},{"city":"Asansol","state":"West Bengal","latitude":23.6739,"longitude":86.9524,"temp":38.9,"humidity":26,"rain":0.0,"pressure":991.5,"uv_index":8.65,"wind_gusts":18.7,"aqi":127,"pm10":38.5,"pm2_5":30.7,"mosquito_risk":0,"arthritis_risk":5,"migraine_risk":10,"frizz_risk":0,"updated_at":"2026-04-03T14:29:03.252563+05:30"},{"city":"Pondicherry","state":"Puducherry","latitude":11.9139,"longitude":79.8145,"temp":35.2,"humidity":45,"rain":0.0,"pressure":1008.1,"uv_index":9.3,"wind_gusts":34.2,"aqi":42,"pm10":20.8,"pm2_5":17.0,"mosquito_risk":0,"arthritis_risk":0,"migraine_risk":7,"frizz_risk":1,"updated_at":"2026-04-03T14:29:03.252571+05:30"},{"city":"Port Blair","state":"Andaman and Nicobar Islands","latitude":11.6234,"longitude":92.7265,"temp":28.6,"humidity":80,"rain":0.0,"pressure":1006.6,"uv_index":9.2,"wind_gusts":23.8,"aqi":39,"pm10":17.5,"pm2_5":9.0,"mosquito_risk":7,"arthritis_risk":5,"migraine_risk":4,"frizz_risk":1,"updated_at":"2026-04-03T14:29:03.252579+05:30"},{"city":"Haridwar","state":"Uttarakhand","latitude":29.9457,"longitude":78.1642,"temp":33.2,"humidity":34,"rain":0.0,"pressure":975.0,"uv_index":6.4,"wind_gusts":40.0,"aqi":57,"pm10":37.6,"pm2_5":16.5,"mosquito_risk":0,"arthritis_risk":5,"migraine_risk":7,"frizz_risk":0,"updated_at":"2026-04-03T14:29:03.252588+05:30"},{"city":"Rishikesh","state":"Uttarakhand","latitude":30.0869,"longitude":78.2676,"temp":33.4,"humidity":32,"rain":0.0,"pressure":967.8,"uv_index":5.85,"wind_gusts":31.7,"aqi":40,"pm10":30.3,"pm2_5":8.9,"mosquito_risk":0,"arthritis_risk":5,"migraine_risk":3,"frizz_risk":0,"updated_at":"2026-04-03T14:29:03.252597+05:30"},{"city":"Nainital","state":"Uttarakhand","latitude":29.3919,"longitude":79.4542,"temp":25.5,"humidity":40,"rain":0.0,"pressure":810.1,"uv_index":4.8,"wind_gusts":36.4,"aqi":50,"pm10":22.0,"pm2_5":8.1,"mosquito_risk":4,"arthritis_risk":5,"migraine_risk":3,"frizz_risk":0,"updated_at":"2026-04-03T14:29:03.252604+05:30"},{"city":"Mussoorie","state":"Uttarakhand","latitude":30.4599,"longitude":78.0664,"temp":22.2,"humidity":47,"rain":0.0,"pressure":806.5,"uv_index":5.3,"wind_gusts":60.5,"aqi":53,"pm10":32.8,"pm2_5":10.7,"mosquito_risk":0,"arthritis_risk":5,"migraine_risk":3,"frizz_risk":0,"updated_at":"2026-04-03T14:29:03.252610+05:30"},{"city":"Dharamshala","state":"Himachal Pradesh","latitude":32.219,"longitude":76.3234,"temp":21.1,"humidity":71,"rain":0.0,"pressure":870.6,"uv_index":5.1,"wind_gusts":56.9,"aqi":48,"pm10":19.5,"pm2_5":11.2,"mosquito_risk":3,"arthritis_risk":5,"migraine_risk":3,"frizz_risk":0,"updated_at":"2026-04-03T14:29:03.252617+05:30"},{"city":"Dalhousie","state":"Himachal Pradesh","latitude":32.5387,"longitude":75.971,"temp":18.0,"humidity":62,"rain":0.0,"pressure":805.2,"uv_index":5.85,"wind_gusts":53.6,"aqi":57,"pm10":29.9,"pm2_5":12.9,"mosquito_risk":3,"arthritis_risk":5,"migraine_risk":3,"frizz_risk":0,"updated_at":"2026-04-03T14:29:03.252624+05:30"},{"city":"Patiala","state":"Punjab","latitude":30.3398,"longitude":76.3869,"temp":25.7,"humidity":62,"rain":0.0,"pressure":979.0,"uv_index":6.25,"wind_gusts":51.1,"aqi":180,"pm10":532.7,"pm2_5":66.6,"mosquito_risk":7,"arthritis_risk":5,"migraine_risk":7,"frizz_risk":1,"updated_at":"2026-04-03T14:29:03.252630+05:30"},{"city":"Bhatinda","state":"Punjab","latitude":30.211,"longitude":74.9455,"temp":23.2,"humidity":74,"rain":0.0,"pressure":985.1,"uv_index":5.45,"wind_gusts":42.8,"aqi":84,"pm10":78.5,"pm2_5":23.4,"mosquito_risk":3,"arthritis_risk":5,"migraine_risk":3,"frizz_risk":1,"updated_at":"2026-04-03T14:29:03.252637+05:30"},{"city":"Rohtak","state":"Haryana","latitude":28.8955,"longitude":76.6066,"temp":30.4,"humidity":41,"rain":0.0,"pressure":982.7,"uv_index":5.9,"wind_gusts":37.1,"aqi":189,"pm10":516.0,"pm2_5":57.4,"mosquito_risk":0,"arthritis_risk":5,"migraine_risk":3,"frizz_risk":0,"updated_at":"2026-04-03T14:29:03.252643+05:30"},{"city":"Panipat","state":"Haryana","latitude":29.3909,"longitude":76.9635,"temp":29.1,"humidity":53,"rain":0.0,"pressure":981.2,"uv_index":5.9,"wind_gusts":43.9,"aqi":311,"pm10":968.6,"pm2_5":96.4,"mosquito_risk":4,"arthritis_risk":5,"migraine_risk":3,"frizz_risk":1,"updated_at":"2026-04-03T14:29:03.252649+05:30"},{"city":"Mathura","state":"Uttar Pradesh","latitude":27.4924,"longitude":77.6737,"temp":35.6,"humidity":25,"rain":0.0,"pressure":986.7,"uv_index":7.25,"wind_gusts":43.6,"aqi":439,"pm10":782.3,"pm2_5":82.4,"mosquito_risk":0,"arthritis_risk":5,"migraine_risk":10,"frizz_risk":0,"updated_at":"2026-04-03T14:29:03.252656+05:30"},{"city":"Vrindavan","state":"Uttar Pradesh","latitude":27.5823,"longitude":77.7027,"temp":35.7,"humidity":25,"rain":0.0,"pressure":987.2,"uv_index":7.2,"wind_gusts":36.7,"aqi":439,"pm10":782.3,"pm2_5":82.4,"mosquito_risk":0,"arthritis_risk":5,"migraine_risk":10,"frizz_risk":0,"updated_at":"2026-04-03T14:29:03.252662+05:30"},{"city":"Ayodhya","state":"Uttar Pradesh","latitude":26.7922,"longitude":82.1998,"temp":37.1,"humidity":28,"rain":0.0,"pressure":994.6,"uv_index":6.85,"wind_gusts":35.3,"aqi":65,"pm10":36.9,"pm2_5":17.6,"mosquito_risk":0,"arthritis_risk":5,"migraine_risk":10,"frizz_risk":0,"updated_at":"2026-04-03T14:29:03.252669+05:30"},{"city":"Ratlam","state":"Madhya Pradesh","latitude":23.3315,"longitude":75.0367,"temp":32.1,"humidity":39,"rain":0.0,"pressure":955.5,"uv_index":8.15,"wind_gusts":45.0,"aqi":71,"pm10":25.7,"pm2_5":17.5,"mosquito_risk":0,"arthritis_risk":5,"migraine_risk":7,"frizz_risk":1,"updated_at":"2026-04-03T14:29:03.252675+05:30"},{"city":"Sagar","state":"Madhya Pradesh","latitude":23.8388,"longitude":78.7378,"temp":35.4,"humidity":25,"rain":0.0,"pressure":951.2,"uv_index":7.35,"wind_gusts":26.6,"aqi":67,"pm10":20.1,"pm2_5":15.7,"mosquito_risk":0,"arthritis_risk":5,"migraine_risk":10,"frizz_risk":0,"updated_at":"2026-04-03T14:29:03.252682+05:30"},{"city":"Satna","state":"Madhya Pradesh","latitude":24.6005,"longitude":80.8322,"temp":36.0,"humidity":25,"rain":0.0,"pressure":972.0,"uv_index":7.2,"wind_gusts":36.0,"aqi":66,"pm10":20.0,"pm2_5":16.2,"mosquito_risk":0,"arthritis_risk":5,"migraine_risk":10,"frizz_risk":0,"updated_at":"2026-04-03T14:29:03.252688+05:30"},{"city":"Akola","state":"Maharashtra","latitude":20.7002,"longitude":77.0082,"temp":36.4,"humidity":34,"rain":0.0,"pressure":975.2,"uv_index":8.6,"wind_gusts":33.8,"aqi":87,"pm10":44.0,"pm2_5":36.7,"mosquito_risk":0,"arthritis_risk":5,"migraine_risk":10,"frizz_risk":1,"updated_at":"2026-04-03T14:29:03.252695+05:30"},{"city":"Amravati","state":"Maharashtra","latitude":20.9374,"longitude":77.7796,"temp":36.2,"humidity":35,"rain":0.0,"pressure":967.7,"uv_index":8.65,"wind_gusts":55.4,"aqi":82,"pm10":40.7,"pm2_5":32.8,"mosquito_risk":0,"arthritis_risk":5,"migraine_risk":10,"frizz_risk":1,"updated_at":"2026-04-03T14:29:03.252702+05:30"},{"city":"Latur","state":"Maharashtra","latitude":18.4088,"longitude":76.5604,"temp":34.7,"humidity":29,"rain":0.0,"pressure":940.1,"uv_index":8.8,"wind_gusts":26.6,"aqi":104,"pm10":27.1,"pm2_5":21.0,"mosquito_risk":0,"arthritis_risk":5,"migraine_risk":7,"frizz_risk":0,"updated_at":"2026-04-03T14:29:03.252709+05:30"},{"city":"Nanded","state":"Maharashtra","latitude":19.1383,"longitude":77.3091,"temp":36.8,"humidity":33,"rain":0.0,"pressure":968.7,"uv_index":8.3,"wind_gusts":19.4,"aqi":102,"pm10":31.9,"pm2_5":25.2,"mosquito_risk":0,"arthritis_risk":5,"migraine_risk":10,"frizz_risk":1,"updated_at":"2026-04-03T14:29:03.252715+05:30"},{"city":"Gulbarga","state":"Karnataka","latitude":17.3297,"longitude":76.8343,"temp":37.6,"humidity":22,"rain":0.0,"pressure":958.6,"uv_index":8.6,"wind_gusts":45.0,"aqi":82,"pm10":22.2,"pm2_5":18.0,"mosquito_risk":0,"arthritis_risk":5,"migraine_risk":10,"frizz_risk":0,"updated_at":"2026-04-03T14:29:03.252721+05:30"},{"city":"Bidar","state":"Karnataka","latitude":17.9104,"longitude":77.5199,"temp":35.4,"humidity":26,"rain":0.0,"pressure":935.9,"uv_index":8.45,"wind_gusts":32.8,"aqi":93,"pm10":24.0,"pm2_5":17.9,"mosquito_risk":0,"arthritis_risk":5,"migraine_risk":10,"frizz_risk":0,"updated_at":"2026-04-03T14:29:03.252727+05:30"},{"city":"Hospet","state":"Karnataka","latitude":15.2689,"longitude":76.3909,"temp":35.7,"humidity":28,"rain":0.0,"pressure":955.8,"uv_index":9.2,"wind_gusts":37.8,"aqi":75,"pm10":18.5,"pm2_5":15.2,"mosquito_risk":0,"arthritis_risk":5,"migraine_risk":10,"frizz_risk":0,"updated_at":"2026-04-03T14:29:03.252733+05:30"},{"city":"Tirupur","state":"Tamil Nadu","latitude":11.1085,"longitude":77.3411,"temp":36.6,"humidity":33,"rain":0.0,"pressure":974.9,"uv_index":9.5,"wind_gusts":39.2,"aqi":66,"pm10":22.6,"pm2_5":20.4,"mosquito_risk":0,"arthritis_risk":5,"migraine_risk":10,"frizz_risk":1,"updated_at":"2026-04-03T14:29:03.252739+05:30"},{"city":"Alappuzha","state":"Kerala","latitude":9.4981,"longitude":76.3388,"temp":28.9,"humidity":76,"rain":0.0,"pressure":1008.9,"uv_index":9.2,"wind_gusts":19.8,"aqi":66,"pm10":19.5,"pm2_5":16.9,"mosquito_risk":7,"arthritis_risk":0,"migraine_risk":4,"frizz_risk":1,"updated_at":"2026-04-03T14:29:03.252745+05:30"},{"city":"Munnar","state":"Kerala","latitude":10.0889,"longitude":77.0595,"temp":26.5,"humidity":69,"rain":0.0,"pressure":859.1,"uv_index":8.0,"wind_gusts":32.0,"aqi":68,"pm10":13.3,"pm2_5":12.2,"mosquito_risk":7,"arthritis_risk":5,"migraine_risk":7,"frizz_risk":1,"updated_at":"2026-04-03T14:29:03.252751+05:30"},{"city":"Silchar","state":"Assam","latitude":24.8333,"longitude":92.7789,"temp":30.5,"humidity":66,"rain":0.0,"pressure":1004.1,"uv_index":8.5,"wind_gusts":29.5,"aqi":143,"pm10":46.4,"pm2_5":34.3,"mosquito_risk":3,"arthritis_risk":5,"migraine_risk":4,"frizz_risk":1,"updated_at":"2026-04-03T14:29:03.252758+05:30"},{"city":"Dibrugarh","state":"Assam","latitude":27.4728,"longitude":94.912,"temp":27.3,"humidity":68,"rain":0.0,"pressure":994.4,"uv_index":8.3,"wind_gusts":12.6,"aqi":96,"pm10":28.2,"pm2_5":23.1,"mosquito_risk":7,"arthritis_risk":5,"migraine_risk":7,"frizz_risk":1,"updated_at":"2026-04-03T14:29:03.252764+05:30"}]