[{"city":"Delhi","state":"Delhi","latitude":28.6139,"longitude":77.209,"temp":28.3,"humidity":47,"rain":0.0,"pressure":982.6,"uv_index":6.5,"wind_gusts":42.8,"aqi":179,"pm10":268.2,"pm2_5":46.7,"mosquito_risk":4,"arthritis_risk":5,"migraine_risk":7,"frizz_risk":0,"updated_at":"2026-03-27T15:30:45.661609+05:30"},{"city":"Mumbai","state":"Maharashtra","latitude":19.076,"longitude":72.8777,"temp":29.4,"humidity":66,"rain":0.0,"pressure":1006.9,"uv_index":8.0,"wind_gusts":28.4,"aqi":146,"pm10":46.4,"pm2_5":41.7,"mosquito_risk":7,"arthritis_risk":5,"migraine_risk":4,"frizz_risk":1,"updated_at":"2026-03-27T15:30:45.661657+05:30"},{"city":"Bangalore","state":"Karnataka","latitude":12.9716,"longitude":77.5946,"temp":35.1,"humidity":18,"rain":0.0,"pressure":911.1,"uv_index":9.5,"wind_gusts":28.1,"aqi":92,"pm10":23.1,"pm2_5":17.5,"mosquito_risk":0,"arthritis_risk":5,"migraine_risk":10,"frizz_risk":0,"updated_at":"2026-03-27T15:30:45.661673+05:30"},{"city":"Hyderabad","state":"Telangana","latitude":17.385,"longitude":78.4867,"temp":35.6,"humidity":30,"rain":0.0,"pressure":951.9,"uv_index":9.0,"wind_gusts":23.4,"aqi":77,"pm10":31.1,"pm2_5":23.5,"mosquito_risk":0,"arthritis_risk":5,"migraine_risk":10,"frizz_risk":0,"updated_at":"2026-03-27T15:30:45.661684+05:30"},{"city":"Chennai","state":"Tamil Nadu","latitude":13.0827,"longitude":80.2707,"temp":33.2,"humidity":48,"rain":0.0,"pressure":1005.8,"uv_index":9.25,"wind_gusts":29.5,"aqi":69,"pm10":33.2,"pm2_5":19.2,"mosquito_risk":0,"arthritis_risk":5,"migraine_risk":4,"frizz_risk":1,"updated_at":"2026-03-27T15:30:45.661715+05:30"},{"city":"Kolkata","state":"West Bengal","latitude":22.5726,"longitude":88.3639,"temp":34.6,"humidity":41,"rain":0.0,"pressure":1002.8,"uv_index":8.45,"wind_gusts":22.7,"aqi":129,"pm10":47.8,"pm2_5":30.3,"mosquito_risk":0,"arthritis_risk":5,"migraine_risk":4,"frizz_risk":1,"updated_at":"2026-03-27T15:30:45.661725+05:30"},{"city":"Pune","state":"Maharashtra","latitude":18.5204,"longitude":73.8567,"temp":37.3,"humidity":23,"rain":0.0,"pressure":947.7,"uv_index":8.55,"wind_gusts":39.2,"aqi":110,"pm10":43.8,"pm2_5":32.1,"mosquito_risk":0,"arthritis_risk":5,"migraine_risk":10,"frizz_risk":0,"updated_at":"2026-03-27T15:30:45.661737+05:30"},{"city":"Ahmedabad","state":"Gujarat","latitude":23.0225,"longitude":72.5714,"temp":37.6,"humidity":25,"rain":0.0,"pressure":1001.6,"uv_index":7.9,"wind_gusts":34.9,"aqi":57,"pm10":29.6,"pm2_5":12.6,"mosquito_risk":0,"arthritis_risk":5,"migraine_risk":7,"frizz_risk":0,"updated_at":"2026-03-27T15:30:45.661746+05:30"},{"city":"Jaipur","state":"Rajasthan","latitude":26.9124,"longitude":75.7873,"temp":33.2,"humidity":24,"rain":0.0,"pressure":958.2,"uv_index":7.35,"wind_gusts":43.2,"aqi":101,"pm10":289.6,"pm2_5":37.3,"mosquito_risk":0,"arthritis_risk":5,"migraine_risk":7,"frizz_risk":0,"updated_at":"2026-03-27T15:30:45.661757+05:30"},{"city":"Lucknow","state":"Uttar Pradesh","latitude":26.8467,"longitude":80.9462,"temp":33.1,"humidity":31,"rain":0.0,"pressure":991.2,"uv_index":6.0,"wind_gusts":49.3,"aqi":83,"pm10":78.7,"pm2_5":20.7,"mosquito_risk":0,"arthritis_risk":5,"migraine_risk":3,"frizz_risk":0,"updated_at":"2026-03-27T15:30:45.661765+05:30"},{"city":"Kanpur","state":"Uttar Pradesh","latitude":26.4499,"longitude":80.3319,"temp":32.2,"humidity":36,"rain":0.0,"pressure":989.5,"uv_index":6.7,"wind_gusts":64.1,"aqi":137,"pm10":143.4,"pm2_5":24.6,"mosquito_risk":0,"arthritis_risk":5,"migraine_risk":7,"frizz_risk":0,"updated_at":"2026-03-27T15:30:45.661773+05:30"},{"city":"Chandigarh","state":"Chandigarh","latitude":30.7333,"longitude":76.7794,"temp":27.5,"humidity":45,"rain":0.0,"pressure":968.5,"uv_index":6.45,"wind_gusts":31.3,"aqi":70,"pm10":30.7,"pm2_5":15.8,"mosquito_risk":4,"arthritis_risk":5,"migraine_risk":7,"frizz_risk":0,"updated_at":"2026-03-27T15:30:45.661781+05:30"},{"city":"Srinagar","state":"Jammu and Kashmir","latitude":34.0837,"longitude":74.7973,"temp":20.4,"humidity":33,"rain":0.0,"pressure":841.4,"uv_index":7.5,"wind_gusts":16.6,"aqi":106,"pm10":24.7,"pm2_5":11.8,"mosquito_risk":0,"arthritis_risk":5,"migraine_risk":7,"frizz_risk":0,"updated_at":"2026-03-27T15:30:45.661789+05:30"},{"city":"Jammu","state":"Jammu and Kashmir","latitude":32.7266,"longitude":74.857,"temp":28.9,"humidity":45,"rain":0.0,"pressure":972.5,"uv_index":7.15,"wind_gusts":20.2,"aqi":87,"pm10":22.3,"pm2_5":14.7,"mosquito_risk":4,"arthritis_risk":5,"migraine_risk":7,"frizz_risk":0,"updated_at":"2026-03-27T15:30:45.661797+05:30"},{"city":"Amritsar","state":"Punjab","latitude":31.634,"longitude":74.8723,"temp":28.3,"humidity":42,"rain":0.0,"pressure":980.8,"uv_index":7.1,"wind_gusts":25.9,"aqi":82,"pm10":35.5,"pm2_5":21.9,"mosquito_risk":4,"arthritis_risk":5,"migraine_risk":7,"frizz_risk":0,"updated_at":"2026-03-27T15:30:45.661805+05:30"},{"city":"Ludhiana","state":"Punjab","latitude":30.901,"longitude":75.8573,"temp":28.5,"humidity":39,"rain":0.0,"pressure":978.4,"uv_index":6.6,"wind_gusts":25.9,"aqi":87,"pm10":28.8,"pm2_5":14.7,"mosquito_risk":4,"arthritis_risk":5,"migraine_risk":7,"frizz_risk":0,"updated_at":"2026-03-27T15:30:45.661812+05:30"},{"city":"Jalandhar","state":"Punjab","latitude":31.326,"longitude":75.5762,"temp":28.0,"humidity":43,"rain":0.0,"pressure":979.8,"uv_index":4.4,"wind_gusts":22.3,"aqi":87,"pm10":41.4,"pm2_5":16.9,"mosquito_risk":4,"arthritis_risk":5,"migraine_risk":3,"frizz_risk":0,"updated_at":"2026-03-27T15:30:45.661821+05:30"},{"city":"Dehradun","state":"Uttarakhand","latitude":30.6284,"longitude":78.0322,"temp":17.9,"humidity":54,"rain":0.0,"pressure":829.0,"uv_index":5.8,"wind_gusts":27.0,"aqi":65,"pm10":28.5,"pm2_5":14.7,"mosquito_risk":0,"arthritis_risk":5,"migraine_risk":3,"frizz_risk":0,"updated_at":"2026-03-27T15:30:45.661829+05:30"},{"city":"Shimla","state":"Himachal Pradesh","latitude":31.1048,"longitude":77.1734,"temp":15.6,"humidity":59,"rain":0.0,"pressure":783.6,"uv_index":6.0,"wind_gusts":37.4,"aqi":59,"pm10":25.2,"pm2_5":13.2,"mosquito_risk":0,"arthritis_risk":5,"migraine_risk":3,"frizz_risk":0,"updated_at":"2026-03-27T15:30:45.661836+05:30"},{"city":"Manali","state":"Himachal Pradesh","latitude":32.2396,"longitude":77.1887,"temp":18.1,"humidity":70,"rain":0.0,"pressure":818.7,"uv_index":8.7,"wind_gusts":27.7,"aqi":103,"pm10":19.8,"pm2_5":8.4,"mosquito_risk":3,"arthritis_risk":5,"migraine_risk":7,"frizz_risk":0,"updated_at":"2026-03-27T15:30:45.661843+05:30"},{"city":"Gurgaon","state":"Haryana","latitude":28.4595,"longitude":77.0266,"temp":28.9,"humidity":44,"rain":0.0,"pressure":980.8,"uv_index":6.65,"wind_gusts":40.7,"aqi":788,"pm10":1177.2,"pm2_5":121.5,"mosquito_risk":4,"arthritis_risk":5,"migraine_risk":7,"frizz_risk":0,"updated_at":"2026-03-27T15:30:45.661851+05:30"},{"city":"Noida","state":"Uttar Pradesh","latitude":28.5355,"longitude":77.391,"temp":28.4,"humidity":49,"rain":0.0,"pressure":984.2,"uv_index":6.5,"wind_gusts":41.0,"aqi":788,"pm10":1177.2,"pm2_5":121.5,"mosquito_risk":4,"arthritis_risk":5,"migraine_risk":7,"frizz_risk":1,"updated_at":"2026-03-27T15:30:45.661858+05:30"},{"city":"Ghaziabad","state":"Uttar Pradesh","latitude":28.6692,"longitude":77.4538,"temp":28.2,"humidity":48,"rain":0.0,"pressure":982.3,"uv_index":6.5,"wind_gusts":40.0,"aqi":136,"pm10":229.6,"pm2_5":42.4,"mosquito_risk":4,"arthritis_risk":5,"migraine_risk":7,"frizz_risk":1,"updated_at":"2026-03-27T15:30:45.661864+05:30"},{"city":"Faridabad","state":"Haryana","latitude":28.4089,"longitude":77.3178,"temp":28.5,"humidity":47,"rain":0.0,"pressure":983.4,"uv_index":6.6,"wind_gusts":41.4,"aqi":788,"pm10":1177.2,"pm2_5":121.5,"mosquito_risk":4,"arthritis_risk":5,"migraine_risk":7,"frizz_risk":1,"updated_at":"2026-03-27T15:30:45.661871+05:30"},{"city":"Meerut","state":"Uttar Pradesh","latitude":28.9845,"longitude":77.7064,"temp":28.5,"humidity":45,"rain":0.0,"pressure":980.8,"uv_index":6.35,"wind_gusts":41.4,"aqi":136,"pm10":229.6,"pm2_5":42.4,"mosquito_risk":4,"arthritis_risk":5,"migraine_risk":7,"frizz_risk":0,"updated_at":"2026-03-27T15:30:45.661878+05:30"},{"city":"Agra","state":"Uttar Pradesh","latitude":27.1767,"longitude":78.0081,"temp":31.3,"humidity":35,"rain":0.0,"pressure":986.5,"uv_index":6.8,"wind_gusts":47.5,"aqi":596,"pm10":748.8,"pm2_5":73.1,"mosquito_risk":0,"arthritis_risk":5,"migraine_risk":7,"frizz_risk":0,"updated_at":"2026-03-27T15:30:45.661885+05:30"},{"city":"Varanasi","state":"Uttar Pradesh","latitude":25.3176,"longitude":82.9739,"temp":33.7,"humidity":32,"rain":0.0,"pressure":995.1,"uv_index":7.3,"wind_gusts":42.5,"aqi":89,"pm10":47.3,"pm2_5":17.8,"mosquito_risk":0,"arthritis_risk":5,"migraine_risk":7,"frizz_risk":0,"updated_at":"2026-03-27T15:30:45.661894+05:30"},{"city":"Prayagraj","state":"Uttar Pradesh","latitude":25.4358,"longitude":81.8463,"temp":32.2,"humidity":39,"rain":0.0,"pressure":993.6,"uv_index":6.25,"wind_gusts":37.8,"aqi":84,"pm10":56.5,"pm2_5":18.3,"mosquito_risk":0,"arthritis_risk":5,"migraine_risk":7,"frizz_risk":1,"updated_at":"2026-03-27T15:30:45.661901+05:30"},{"city":"Gorakhpur","state":"Uttar Pradesh","latitude":26.7606,"longitude":83.3732,"temp":33.9,"humidity":27,"rain":0.0,"pressure":993.8,"uv_index":6.75,"wind_gusts":50.0,"aqi":97,"pm10":45.6,"pm2_5":15.5,"mosquito_risk":0,"arthritis_risk":5,"migraine_risk":7,"frizz_risk":0,"updated_at":"2026-03-27T15:30:45.661909+05:30"},{"city":"Bareilly","state":"Uttar Pradesh","latitude":28.367,"longitude":79.4304,"temp":27.5,"humidity":52,"rain":0.0,"pressure":986.5,"uv_index":5.75,"wind_gusts":41.0,"aqi":62,"pm10":49.5,"pm2_5":17.1,"mosquito_risk":4,"arthritis_risk":5,"migraine_risk":3,"frizz_risk":1,"updated_at":"2026-03-27T15:30:45.661916+05:30"},{"city":"Aligarh","state":"Uttar Pradesh","latitude":27.8974,"longitude":78.088,"temp":26.7,"humidity":57,"rain":0.0,"pressure":985.8,"uv_index":6.45,"wind_gusts":37.8,"aqi":364,"pm10":663.1,"pm2_5":80.1,"mosquito_risk":4,"arthritis_risk":5,"migraine_risk":7,"frizz_risk":1,"updated_at":"2026-03-27T15:30:45.661923+05:30"},{"city":"Moradabad","state":"Uttar Pradesh","latitude":28.8386,"longitude":78.7733,"temp":27.9,"humidity":47,"rain":0.0,"pressure":982.8,"uv_index":5.35,"wind_gusts":45.0,"aqi":73,"pm10":43.0,"pm2_5":18.2,"mosquito_risk":4,"arthritis_risk":5,"migraine_risk":3,"frizz_risk":0,"updated_at":"2026-03-27T15:30:45.661929+05:30"},{"city":"Saharanpur","state":"Uttar Pradesh","latitude":29.9637,"longitude":77.546,"temp":28.4,"humidity":39,"rain":0.0,"pressure":974.9,"uv_index":6.15,"wind_gusts":32.8,"aqi":88,"pm10":59.0,"pm2_5":19.1,"mosquito_risk":4,"arthritis_risk":5,"migraine_risk":7,"frizz_risk":0,"updated_at":"2026-03-27T15:30:45.661938+05:30"},{"city":"Jhansi","state":"Uttar Pradesh","latitude":25.4484,"longitude":78.5685,"temp":31.8,"humidity":38,"rain":0.0,"pressure":975.1,"uv_index":7.55,"wind_gusts":61.2,"aqi":87,"pm10":153.7,"pm2_5":38.3,"mosquito_risk":0,"arthritis_risk":5,"migraine_risk":7,"frizz_risk":0,"updated_at":"2026-03-27T15:30:50.035454+05:30"},{"city":"Surat","state":"Gujarat","latitude":21.1702,"longitude":72.8311,"temp":35.3,"humidity":31,"rain":0.0,"pressure":1006.2,"uv_index":7.75,"wind_gusts":27.7,"aqi":122,"pm10":35.2,"pm2_5":25.7,"mosquito_risk":0,"arthritis_risk":5,"migraine_risk":7,"frizz_risk":0,"updated_at":"2026-03-27T15:30:50.035485+05:30"},{"city":"Vadodara","state":"Gujarat","latitude":22.3072,"longitude":73.1812,"temp":39.0,"humidity":23,"rain":0.0,"pressure":1003.3,"uv_index":7.9,"wind_gusts":29.2,"aqi":75,"pm10":24.6,"pm2_5":14.6,"mosquito_risk":0,"arthritis_risk":5,"migraine_risk":7,"frizz_risk":0,"updated_at":"2026-03-27T15:30:50.035495+05:30"},{"city":"Rajkot","state":"Gujarat","latitude":22.3039,"longitude":70.8022,"temp":36.7,"humidity":27,"rain":0.0,"pressure":995.0,"uv_index":7.75,"wind_gusts":36.7,"aqi":51,"pm10":23.0,"pm2_5":12.0,"mosquito_risk":0,"arthritis_risk":5,"migraine_risk":10,"frizz_risk":0,"updated_at":"2026-03-27T15:30:50.035503+05:30"},{"city":"Thane","state":"Maharashtra","latitude":19.2183,"longitude":72.9781,"temp":33.9,"humidity":43,"rain":0.0,"pressure":1006.8,"uv_index":8.0,"wind_gusts":39.6,"aqi":146,"pm10":46.4,"pm2_5":41.7,"mosquito_risk":0,"arthritis_risk":5,"migraine_risk":4,"frizz_risk":1,"updated_at":"2026-03-27T15:30:50.035510+05:30"},{"city":"Nagpur","state":"Maharashtra","latitude":21.1458,"longitude":79.0882,"temp":37.7,"humidity":19,"rain":0.0,"pressure":970.4,"uv_index":8.25,"wind_gusts":46.4,"aqi":116,"pm10":18.3,"pm2_5":12.7,"mosquito_risk":0,"arthritis_risk":5,"migraine_risk":10,"frizz_risk":0,"updated_at":"2026-03-27T15:30:50.035518+05:30"},{"city":"Nashik","state":"Maharashtra","latitude":19.9975,"longitude":73.7898,"temp":35.2,"humidity":21,"rain":0.0,"pressure":945.1,"uv_index":8.2,"wind_gusts":43.2,"aqi":79,"pm10":28.9,"pm2_5":21.4,"mosquito_risk":0,"arthritis_risk":5,"migraine_risk":10,"frizz_risk":0,"updated_at":"2026-03-27T15:30:50.035525+05:30"},{"city":"Aurangabad","state":"Maharashtra","latitude":19.8762,"longitude":75.3433,"temp":37.6,"humidity":17,"rain":0.0,"pressure":943.0,"uv_index":8.75,"wind_gusts":37.1,"aqi":85,"pm10":33.6,"pm2_5":23.6,"mosquito_risk":0,"arthritis_risk":5,"migraine_risk":10,"frizz_risk":0,"updated_at":"2026-03-27T15:30:50.035531+05:30"},{"city":"Solapur","state":"Maharashtra","latitude":17.6599,"longitude":75.9064,"temp":38.8,"humidity":19,"rain":0.0,"pressure":955.5,"uv_index":8.85,"wind_gusts":27.4,"aqi":113,"pm10":38.9,"pm2_5":30.6,"mosquito_risk":0,"arthritis_risk":5,"migraine_risk":10,"frizz_risk":0,"updated_at":"2026-03-27T15:30:50.035538+05:30"},{"city":"Kolhapur","state":"Maharashtra","latitude":16.705,"longitude":74.2433,"temp":30.2,"humidity":55,"rain":0.0,"pressure":948.1,"uv_index":8.95,"wind_gusts":47.9,"aqi":156,"pm10":41.0,"pm2_5":33.2,"mosquito_risk":0,"arthritis_risk":5,"migraine_risk":7,"frizz_risk":1,"updated_at":"2026-03-27T15:30:50.035545+05:30"},{"city":"Goa","state":"Goa","latitude":15.2993,"longitude":74.124,"temp":32.7,"humidity":67,"rain":0.0,"pressure":996.9,"uv_index":8.9,"wind_gusts":31.7,"aqi":95,"pm10":32.7,"pm2_5":25.1,"mosquito_risk":3,"arthritis_risk":5,"migraine_risk":7,"frizz_risk":1,"updated_at":"2026-03-27T15:30:50.035552+05:30"},{"city":"Jodhpur","state":"Rajasthan","latitude":26.2389,"longitude":73.0243,"temp":35.1,"humidity":25,"rain":0.0,"pressure":982.9,"uv_index":7.7,"wind_gusts":36.0,"aqi":77,"pm10":94.5,"pm2_5":18.0,"mosquito_risk":0,"arthritis_risk":5,"migraine_risk":10,"frizz_risk":0,"updated_at":"2026-03-27T15:30:50.035558+05:30"},{"city":"Udaipur","state":"Rajasthan","latitude":24.5854,"longitude":73.7125,"temp":33.0,"humidity":26,"rain":0.0,"pressure":946.7,"uv_index":8.35,"wind_gusts":43.2,"aqi":39,"pm10":47.4,"pm2_5":13.7,"mosquito_risk":0,"arthritis_risk":5,"migraine_risk":7,"frizz_risk":0,"updated_at":"2026-03-27T15:30:50.035564+05:30"},{"city":"Kota","state":"Rajasthan","latitude":25.2138,"longitude":75.8648,"temp":37.2,"humidity":18,"rain":0.0,"pressure":976.1,"uv_index":7.7,"wind_gusts":41.4,"aqi":65,"pm10":110.6,"pm2_5":22.5,"mosquito_risk":0,"arthritis_risk":5,"migraine_risk":10,"frizz_risk":0,"updated_at":"2026-03-27T15:30:50.035571+05:30"},{"city":"Bikaner","state":"Rajasthan","latitude":28.0229,"longitude":73.3119,"temp":32.5,"humidity":29,"rain":0.0,"pressure":982.0,"uv_index":7.45,"wind_gusts":30.2,"aqi":72,"pm10":31.0,"pm2_5":14.1,"mosquito_risk":0,"arthritis_risk":5,"migraine_risk":7,"frizz_risk":0,"updated_at":"2026-03-27T15:30:50.035578+05:30"},{"city":"Ajmer","state":"Rajasthan","latitude":26.4499,"longitude":74.6399,"temp":32.8,"humidity":27,"rain":0.0,"pressure":953.8,"uv_index":7.65,"wind_gusts":40.0,"aqi":58,"pm10":32.8,"pm2_5":12.4,"mosquito_risk":0,"arthritis_risk":5,"migraine_risk":7,"frizz_risk":0,"updated_at":"2026-03-27T15:30:50.035585+05:30"},{"city":"Gwalior","state":"Madhya Pradesh","latitude":26.2183,"longitude":78.1828,"temp":33.7,"humidity":30,"rain":0.0,"pressure":980.9,"uv_index":7.2,"wind_gusts":55.8,"aqi":121,"pm10":121.1,"pm2_5":29.5,"mosquito_risk":0,"arthritis_risk":5,"migraine_risk":7,"frizz_risk":0,"updated_at":"2026-03-27T15:30:50.035591+05:30"},{"city":"Indore","state":"Madhya Pradesh","latitude":22.7196,"longitude":75.8577,"temp":35.6,"humidity":17,"rain":0.0,"pressure":947.1,"uv_index":8.2,"wind_gusts":41.8,"aqi":46,"pm10":13.5,"pm2_5":6.4,"mosquito_risk":0,"arthritis_risk":5,"migraine_risk":10,"frizz_risk":0,"updated_at":"2026-03-27T15:30:50.035597+05:30"},{"city":"Bhopal","state":"Madhya Pradesh","latitude":23.2599,"longitude":77.4126,"temp":37.1,"humidity":15,"rain":0.0,"pressure":951.3,"uv_index":8.1,"wind_gusts":45.0,"aqi":56,"pm10":29.3,"pm2_5":9.1,"mosquito_risk":0,"arthritis_risk":5,"migraine_risk":10,"frizz_risk":0,"updated_at":"2026-03-27T15:30:50.035603+05:30"},{"city":"Jabalpur","state":"Madhya Pradesh","latitude":23.1815,"longitude":79.9864,"temp":37.2,"humidity":15,"rain":0.0,"pressure":957.9,"uv_index":8.15,"wind_gusts":46.4,"aqi":63,"pm10":11.2,"pm2_5":6.6,"mosquito_risk":0,"arthritis_risk":5,"migraine_risk":10,"frizz_risk":0,"updated_at":"2026-03-27T15:30:50.035609+05:30"},{"city":"Ujjain","state":"Madhya Pradesh","latitude":23.1765,"longitude":75.7885,"temp":35.3,"humidity":19,"rain":0.0,"pressure":952.7,"uv_index":8.1,"wind_gusts":41.8,"aqi":40,"pm10":16.4,"pm2_5":6.6,"mosquito_risk":0,"arthritis_risk":5,"migraine_risk":10,"frizz_risk":0,"updated_at":"2026-03-27T15:30:50.035617+05:30"},{"city":"Visakhapatnam","state":"Andhra Pradesh","latitude":17.6868,"longitude":83.2185,"temp":32.8,"humidity":48,"rain":0.0,"pressure":1001.5,"uv_index":8.95,"wind_gusts":38.2,"aqi":84,"pm10":35.9,"pm2_5":25.1,"mosquito_risk":0,"arthritis_risk":5,"migraine_risk":4,"frizz_risk":1,"updated_at":"2026-03-27T15:30:50.035623+05:30"},{"city":"Vijayawada","state":"Andhra Pradesh","latitude":16.5062,"longitude":80.648,"temp":36.5,"humidity":40,"rain":0.0,"pressure":1000.1,"uv_index":9.05,"wind_gusts":26.3,"aqi":76,"pm10":37.4,"pm2_5":24.9,"mosquito_risk":0,"arthritis_risk":5,"migraine_risk":7,"frizz_risk":1,"updated_at":"2026-03-27T15:30:50.035629+05:30"},{"city":"Guntur","state":"Andhra Pradesh","latitude":16.3067,"longitude":80.4365,"temp":37.0,"humidity":37,"rain":0.0,"pressure":1001.3,"uv_index":9.05,"wind_gusts":30.2,"aqi":71,"pm10":34.7,"pm2_5":23.0,"mosquito_risk":0,"arthritis_risk":5,"migraine_risk":7,"frizz_risk":1,"updated_at":"2026-03-27T15:30:50.035635+05:30"},{"city":"Nellore","state":"Andhra Pradesh","latitude":14.4426,"longitude":79.9865,"temp":36.2,"humidity":36,"rain":0.0,"pressure":1003.9,"uv_index":9.15,"wind_gusts":28.1,"aqi":72,"pm10":35.5,"pm2_5":24.2,"mosquito_risk":0,"arthritis_risk":5,"migraine_risk":7,"frizz_risk":1,"updated_at":"2026-03-27T15:30:50.035666+05:30"},{"city":"Kurnool","state":"Andhra Pradesh","latitude":15.8281,"longitude":78.0373,"temp":39.6,"humidity":19,"rain":0.0,"pressure":974.4,"uv_index":9.05,"wind_gusts":17.6,"aqi":87,"pm10":30.0,"pm2_5":21.8,"mosquito_risk":0,"arthritis_risk":5,"migraine_risk":10,"frizz_risk":0,"updated_at":"2026-03-27T15:30:50.035684+05:30"},{"city":"Kakinada","state":"Andhra Pradesh","latitude":16.9891,"longitude":82.2475,"temp":37.5,"humidity":38,"rain":0.0,"pressure":1004.5,"uv_index":9.0,"wind_gusts":28.1,"aqi":70,"pm10":30.7,"pm2_5":18.0,"mosquito_risk":0,"arthritis_risk":5,"migraine_risk":7,"frizz_risk":1,"updated_at":"2026-03-27T15:30:50.035698+05:30"},{"city":"Tirupati","state":"Andhra Pradesh","latitude":13.6288,"longitude":79.4192,"temp":36.5,"humidity":27,"rain":0.0,"pressure":989.5,"uv_index":9.25,"wind_gusts":30.2,"aqi":96,"pm10":38.1,"pm2_5":28.8,"mosquito_risk":0,"arthritis_risk":5,"migraine_risk":10,"frizz_risk":0,"updated_at":"2026-03-27T15:30:50.035706+05:30"},{"city":"Warangal","state":"Telangana","latitude":17.9689,"longitude":79.5941,"temp":37.8,"humidity":27,"rain":0.0,"pressure":976.2,"uv_index":8.85,"wind_gusts":26.3,"aqi":81,"pm10":29.7,"pm2_5":22.6,"mosquito_risk":0,"arthritis_risk":5,"migraine_risk":10,"frizz_risk":0,"updated_at":"2026-03-27T15:30:50.035713+05:30"},{"city":"Nizamabad","state":"Telangana","latitude":18.6725,"longitude":78.0941,"temp":38.6,"humidity":21,"rain":0.0,"pressure":962.6,"uv_index":8.75,"wind_gusts":29.5,"aqi":99,"pm10":22.0,"pm2_5":14.8,"mosquito_risk":0,"arthritis_risk":5,"migraine_risk":10,"frizz_risk":0,"updated_at":"2026-03-27T15:30:50.035719+05:30"},{"city":"Mysore","state":"Karnataka","latitude":12.2958,"longitude":76.6396,"temp":36.7,"humidity":14,"rain":0.0,"pressure":927.4,"uv_index":9.45,"wind_gusts":44.6,"aqi":98,"pm10":23.7,"pm2_5":17.6,"mosquito_risk":0,"arthritis_risk":5,"migraine_risk":10,"frizz_risk":0,"updated_at":"2026-03-27T15:30:50.035725+05:30"},{"city":"Mangalore","state":"Karnataka","latitude":12.9141,"longitude":74.856,"temp":29.8,"humidity":84,"rain":0.0,"pressure":1005.0,"uv_index":9.1,"wind_gusts":25.9,"aqi":98,"pm10":38.6,"pm2_5":30.4,"mosquito_risk":7,"arthritis_risk":5,"migraine_risk":4,"frizz_risk":1,"updated_at":"2026-03-27T15:30:50.035732+05:30"},{"city":"Hubli-Dharwad","state":"Karnataka","latitude":15.3647,"longitude":75.124,"temp":35.2,"humidity":28,"rain":0.0,"pressure":940.1,"uv_index":9.1,"wind_gusts":44.6,"aqi":98,"pm10":29.2,"pm2_5":22.6,"mosquito_risk":0,"arthritis_risk":5,"migraine_risk":10,"frizz_risk":0,"updated_at":"2026-03-27T15:30:50.035739+05:30"},{"city":"Belgaum","state":"Karnataka","latitude":15.8497,"longitude":74.4977,"temp":29.8,"humidity":57,"rain":0.0,"pressure":926.2,"uv_index":9.15,"wind_gusts":38.2,"aqi":130,"pm10":34.2,"pm2_5":27.8,"mosquito_risk":4,"arthritis_risk":5,"migraine_risk":7,"frizz_risk":1,"updated_at":"2026-03-27T15:30:53.872539+05:30"},{"city":"Coimbatore","state":"Tamil Nadu","latitude":11.0168,"longitude":76.9558,"temp":37.2,"humidity":20,"rain":0.0,"pressure":959.9,"uv_index":9.4,"wind_gusts":43.2,"aqi":109,"pm10":24.6,"pm2_5":19.1,"mosquito_risk":0,"arthritis_risk":5,"migraine_risk":10,"frizz_risk":0,"updated_at":"2026-03-27T15:30:53.872569+05:30"},{"city":"Madurai","state":"Tamil Nadu","latitude":9.9252,"longitude":78.1198,"temp":36.6,"humidity":32,"rain":0.0,"pressure":990.5,"uv_index":9.35,"wind_gusts":21.6,"aqi":77,"pm10":29.6,"pm2_5":18.7,"mosquito_risk":0,"arthritis_risk":5,"migraine_risk":10,"frizz_risk":1,"updated_at":"2026-03-27T15:30:53.872580+05:30"},{"city":"Trichy","state":"Tamil Nadu","latitude":10.7905,"longitude":78.7047,"temp":35.4,"humidity":40,"rain":0.0,"pressure":997.4,"uv_index":9.3,"wind_gusts":18.0,"aqi":87,"pm10":38.8,"pm2_5":27.4,"mosquito_risk":0,"arthritis_risk":5,"migraine_risk":10,"frizz_risk":1,"updated_at":"2026-03-27T15:30:53.872588+05:30"},{"city":"Salem","state":"Tamil Nadu","latitude":11.6643,"longitude":78.146,"temp":38.3,"humidity":21,"rain":0.0,"pressure":974.9,"uv_index":9.35,"wind_gusts":25.9,"aqi":127,"pm10":31.8,"pm2_5":24.4,"mosquito_risk":0,"arthritis_risk":5,"migraine_risk":10,"frizz_risk":0,"updated_at":"2026-03-27T15:30:53.872596+05:30"},{"city":"Tirunelveli","state":"Tamil Nadu","latitude":8.7139,"longitude":77.7567,"temp":38.5,"humidity":21,"rain":0.0,"pressure":1000.3,"uv_index":9.35,"wind_gusts":47.5,"aqi":60,"pm10":25.0,"pm2_5":15.7,"mosquito_risk":0,"arthritis_risk":5,"migraine_risk":7,"frizz_risk":0,"updated_at":"2026-03-27T15:30:53.872604+05:30"},{"city":"Vellore","state":"Tamil Nadu","latitude":12.9165,"longitude":79.1325,"temp":36.0,"humidity":25,"rain":0.0,"pressure":982.8,"uv_index":9.3,"wind_gusts":30.6,"aqi":96,"pm10":28.3,"pm2_5":19.6,"mosquito_risk":0,"arthritis_risk":5,"migraine_risk":10,"frizz_risk":0,"updated_at":"2026-03-27T15:30:53.872610+05:30"},{"city":"Erode","state":"Tamil Nadu","latitude":11.341,"longitude":77.7172,"temp":38.1,"humidity":25,"rain":0.0,"pressure":986.3,"uv_index":9.35,"wind_gusts":25.9,"aqi":88,"pm10":33.2,"pm2_5":25.8,"mosquito_risk":0,"arthritis_risk":5,"migraine_risk":10,"frizz_risk":0,"updated_at":"2026-03-27T15:30:53.872617+05:30"},{"city":"Kochi","state":"Kerala","latitude":9.9312,"longitude":76.2673,"temp":29.5,"humidity":77,"rain":0.0,"pressure":1006.3,"uv_index":9.2,"wind_gusts":40.3,"aqi":108,"pm10":34.5,"pm2_5":28.9,"mosquito_risk":7,"arthritis_risk":5,"migraine_risk":4,"frizz_risk":1,"updated_at":"2026-03-27T15:30:53.872624+05:30"},{"city":"Thiruvananthapuram","state":"Kerala","latitude":8.5241,"longitude":76.9366,"temp":29.7,"humidity":75,"rain":0.0,"pressure":1005.6,"uv_index":9.2,"wind_gusts":32.8,"aqi":108,"pm10":21.3,"pm2_5":16.6,"mosquito_risk":7,"arthritis_risk":5,"migraine_risk":4,"frizz_risk":1,"updated_at":"2026-03-27T15:30:53.872631+05:30"},{"city":"Kozhikode","state":"Kerala","latitude":11.2588,"longitude":75.7804,"temp":30.9,"humidity":74,"rain":0.0,"pressure":1005.7,"uv_index":9.1,"wind_gusts":31.7,"aqi":92,"pm10":33.2,"pm2_5":26.9,"mosquito_risk":3,"arthritis_risk":5,"migraine_risk":4,"frizz_risk":1,"updated_at":"2026-03-27T15:30:53.872638+05:30"},{"city":"Thrissur","state":"Kerala","latitude":10.5276,"longitude":76.2144,"temp":33.1,"humidity":61,"rain":0.0,"pressure":1004.7,"uv_index":9.15,"wind_gusts":41.0,"aqi":102,"pm10":33.9,"pm2_5":27.0,"mosquito_risk":3,"arthritis_risk":5,"migraine_risk":4,"frizz_risk":1,"updated_at":"2026-03-27T15:30:53.872645+05:30"},{"city":"Kannur","state":"Kerala","latitude":11.8745,"longitude":75.3704,"temp":32.0,"humidity":66,"rain":0.0,"pressure":1005.3,"uv_index":9.1,"wind_gusts":32.4,"aqi":104,"pm10":36.8,"pm2_5":29.7,"mosquito_risk":3,"arthritis_risk":5,"migraine_risk":4,"frizz_risk":1,"updated_at":"2026-03-27T15:30:53.872653+05:30"},{"city":"Patna","state":"Bihar","latitude":25.5941,"longitude":85.1376,"temp":33.9,"humidity":32,"rain":0.0,"pressure":997.5,"uv_index":7.95,"wind_gusts":43.9,"aqi":150,"pm10":46.9,"pm2_5":16.0,"mosquito_risk":0,"arthritis_risk":5,"migraine_risk":7,"frizz_risk":0,"updated_at":"2026-03-27T15:30:53.872659+05:30"},{"city":"Gaya","state":"Bihar","latitude":24.7914,"longitude":85.0002,"temp":33.7,"humidity":31,"rain":0.0,"pressure":991.3,"uv_index":8.05,"wind_gusts":31.3,"aqi":91,"pm10":46.8,"pm2_5":14.6,"mosquito_risk":0,"arthritis_risk":5,"migraine_risk":7,"frizz_risk":0,"updated_at":"2026-03-27T15:30:53.872666+05:30"},{"city":"Muzaffarpur","state":"Bihar","latitude":26.1209,"longitude":85.3647,"temp":32.6,"humidity":39,"rain":0.0,"pressure":997.4,"uv_index":7.6,"wind_gusts":38.2,"aqi":168,"pm10":46.7,"pm2_5":20.9,"mosquito_risk":0,"arthritis_risk":5,"migraine_risk":7,"frizz_risk":1,"updated_at":"2026-03-27T15:30:53.872672+05:30"},{"city":"Bhagalpur","state":"Bihar","latitude":25.2425,"longitude":87.0117,"temp":31.5,"humidity":50,"rain":0.0,"pressure":998.3,"uv_index":8.0,"wind_gusts":31.3,"aqi":152,"pm10":39.2,"pm2_5":19.8,"mosquito_risk":0,"arthritis_risk":5,"migraine_risk":7,"frizz_risk":1,"updated_at":"2026-03-27T15:30:53.872678+05:30"},{"city":"Ranchi","state":"Jharkhand","latitude":23.3441,"longitude":85.3096,"temp":30.4,"humidity":32,"rain":0.0,"pressure":936.3,"uv_index":8.7,"wind_gusts":33.8,"aqi":107,"pm10":26.8,"pm2_5":9.1,"mosquito_risk":0,"arthritis_risk":5,"migraine_risk":7,"frizz_risk":0,"updated_at":"2026-03-27T15:30:53.872709+05:30"},{"city":"Jamshedpur","state":"Jharkhand","latitude":22.8046,"longitude":86.2029,"temp":37.1,"humidity":22,"rain":0.0,"pressure":987.5,"uv_index":8.55,"wind_gusts":22.3,"aqi":152,"pm10":32.7,"pm2_5":14.2,"mosquito_risk":0,"arthritis_risk":5,"migraine_risk":10,"frizz_risk":0,"updated_at":"2026-03-27T15:30:53.872719+05:30"},{"city":"Dhanbad","state":"Jharkhand","latitude":23.7957,"longitude":86.4304,"temp":35.2,"humidity":21,"rain":0.0,"pressure":977.1,"uv_index":8.4,"wind_gusts":25.6,"aqi":123,"pm10":37.6,"pm2_5":13.9,"mosquito_risk":0,"arthritis_risk":5,"migraine_risk":10,"frizz_risk":0,"updated_at":"2026-03-27T15:30:53.872726+05:30"},{"city":"Bokaro","state":"Jharkhand","latitude":23.6693,"longitude":86.1511,"temp":35.0,"humidity":22,"rain":0.0,"pressure":980.9,"uv_index":8.3,"wind_gusts":27.0,"aqi":115,"pm10":37.7,"pm2_5":14.6,"mosquito_risk":0,"arthritis_risk":5,"migraine_risk":7,"frizz_risk":0,"updated_at":"2026-03-27T15:30:53.872733+05:30"},{"city":"Bhubaneswar","state":"Odisha","latitude":20.2961,"longitude":85.8245,"temp":35.0,"humidity":42,"rain":0.0,"pressure":999.6,"uv_index":8.75,"wind_gusts":29.2,"aqi":114,"pm10":43.5,"pm2_5":33.6,"mosquito_risk":0,"arthritis_risk":5,"migraine_risk":7,"frizz_risk":1,"updated_at":"2026-03-27T15:30:53.872740+05:30"},{"city":"Cuttack","state":"Odisha","latitude":20.4625,"longitude":85.8828,"temp":36.7,"humidity":35,"rain":0.0,"pressure":1000.8,"uv_index":8.8,"wind_gusts":35.3,"aqi":114,"pm10":43.5,"pm2_5":33.6,"mosquito_risk":0,"arthritis_risk":5,"migraine_risk":7,"frizz_risk":1,"updated_at":"2026-03-27T15:30:53.872747+05:30"},{"city":"Rourkela","state":"Odisha","latitude":22.2604,"longitude":84.8536,"temp":36.9,"humidity":24,"rain":0.0,"pressure":982.0,"uv_index":8.45,"wind_gusts":31.7,"aqi":142,"pm10":24.8,"pm2_5":17.3,"mosquito_risk":0,"arthritis_risk":5,"migraine_risk":10,"frizz_risk":0,"updated_at":"2026-03-27T15:30:53.872753+05:30"},{"city":"Raipur","state":"Chhattisgarh","latitude":21.2514,"longitude":81.6296,"temp":35.4,"humidity":32,"rain":0.0,"pressure":972.1,"uv_index":8.55,"wind_gusts":48.6,"aqi":125,"pm10":33.3,"pm2_5":26.9,"mosquito_risk":0,"arthritis_risk":5,"migraine_risk":10,"frizz_risk":1,"updated_at":"2026-03-27T15:30:53.872759+05:30"},{"city":"Bhilai","state":"Chhattisgarh","latitude":21.1938,"longitude":81.3509,"temp":34.3,"humidity":39,"rain":0.0,"pressure":972.1,"uv_index":8.55,"wind_gusts":44.6,"aqi":122,"pm10":30.6,"pm2_5":23.9,"mosquito_risk":0,"arthritis_risk":5,"migraine_risk":7,"frizz_risk":1,"updated_at":"2026-03-27T15:30:53.872766+05:30"},{"city":"Guwahati","state":"Assam","latitude":26.1158,"longitude":91.7086,"temp":28.5,"humidity":59,"rain":0.0,"pressure":1000.3,"uv_index":7.9,"wind_gusts":28.4,"aqi":152,"pm10":77.3,"pm2_5":49.1,"mosquito_risk":4,"arthritis_risk":5,"migraine_risk":4,"frizz_risk":1,"updated_at":"2026-03-27T15:30:53.872773+05:30"},{"city":"Agartala","state":"Tripura","latitude":23.8315,"longitude":91.2868,"temp":31.4,"humidity":51,"rain":0.0,"pressure":1003.7,"uv_index":8.2,"wind_gusts":19.1,"aqi":156,"pm10":68.0,"pm2_5":51.6,"mosquito_risk":0,"arthritis_risk":5,"migraine_risk":4,"frizz_risk":1,"updated_at":"2026-03-27T15:30:53.872779+05:30"},{"city":"Shillong","state":"Meghalaya","latitude":25.5788,"longitude":91.8933,"temp":17.3,"humidity":65,"rain":0.0,"pressure":855.1,"uv_index":8.15,"wind_gusts":42.1,"aqi":145,"pm10":68.2,"pm2_5":45.4,"mosquito_risk":3,"arthritis_risk":5,"migraine_risk":7,"frizz_risk":0,"updated_at":"2026-03-27T15:30:53.872786+05:30"},{"city":"Imphal","state":"Manipur","latitude":24.817,"longitude":93.9368,"temp":23.5,"humidity":47,"rain":0.0,"pressure":921.9,"uv_index":8.55,"wind_gusts":44.3,"aqi":138,"pm10":44.8,"pm2_5":29.8,"mosquito_risk":0,"arthritis_risk":5,"migraine_risk":7,"frizz_risk":0,"updated_at":"2026-03-27T15:30:53.872792+05:30"},{"city":"Aizawl","state":"Mizoram","latitude":23.7271,"longitude":92.7176,"temp":26.1,"humidity":38,"rain":0.0,"pressure":892.2,"uv_index":8.5,"wind_gusts":28.8,"aqi":124,"pm10":49.0,"pm2_5":30.4,"mosquito_risk":4,"arthritis_risk":5,"migraine_risk":7,"frizz_risk":0,"updated_at":"2026-03-27T15:30:53.872798+05:30"},{"city":"Kohima","state":"Nagaland","latitude":25.6701,"longitude":94.1077,"temp":17.2,"humidity":79,"rain":0.0,"pressure":853.9,"uv_index":8.45,"wind_gusts":51.5,"aqi":121,"pm10":39.2,"pm2_5":25.0,"mosquito_risk":3,"arthritis_risk":5,"migraine_risk":7,"frizz_risk":0,"updated_at":"2026-03-27T15:30:53.872805+05:30"},{"city":"Gangtok","state":"Sikkim","latitude":27.3314,"longitude":88.6138,"temp":16.2,"humidity":82,"rain":0.0,"pressure":835.7,"uv_index":7.65,"wind_gusts":19.4,"aqi":130,"pm10":44.2,"pm2_5":31.3,"mosquito_risk":3,"arthritis_risk":10,"migraine_risk":7,"frizz_risk":0,"updated_at":"2026-03-27T15:30:53.872811+05:30"},{"city":"Siliguri","state":"West Bengal","latitude":26.7271,"longitude":88.3953,"temp":22.9,"humidity":78,"rain":0.0,"pressure":992.8,"uv_index":7.8,"wind_gusts":33.1,"aqi":159,"pm10":81.5,"pm2_5":54.2,"mosquito_risk":3,"arthritis_risk":5,"migraine_risk":7,"frizz_risk":1,"updated_at":"2026-03-27T15:30:57.219673+05:30"},{"city":"Durgapur","state":"West Bengal","latitude":23.5204,"longitude":87.3119,"temp":36.9,"humidity":23,"rain":0.0,"pressure":991.6,"uv_index":8.4,"wind_gusts":20.2,"aqi":153,"pm10":52.6,"pm2_5":27.2,"mosquito_risk":0,"arthritis_risk":5,"migraine_risk":10,"frizz_risk":0,"updated_at":"2026-03-27T15:30:57.219725+05:30"},{"city":"Asansol","state":"West Bengal","latitude":23.6739,"longitude":86.9524,"temp":36.6,"humidity":20,"rain":0.0,"pressure":990.1,"uv_index":8.45,"wind_gusts":20.2,"aqi":110,"pm10":43.1,"pm2_5":18.1,"mosquito_risk":0,"arthritis_risk":5,"migraine_risk":10,"frizz_risk":0,"updated_at":"2026-03-27T15:30:57.219737+05:30"},{"city":"Pondicherry","state":"Puducherry","latitude":11.9139,"longitude":79.8145,"temp":33.7,"humidity":54,"rain":0.0,"pressure":1006.4,"uv_index":9.2,"wind_gusts":25.2,"aqi":68,"pm10":32.8,"pm2_5":17.3,"mosquito_risk":0,"arthritis_risk":5,"migraine_risk":4,"frizz_risk":1,"updated_at":"2026-03-27T15:30:57.219745+05:30"},{"city":"Port Blair","state":"Andaman and Nicobar Islands","latitude":11.6234,"longitude":92.7265,"temp":28.2,"humidity":79,"rain":0.0,"pressure":1004.5,"uv_index":9.15,"wind_gusts":25.6,"aqi":65,"pm10":34.7,"pm2_5":24.9,"mosquito_risk":7,"arthritis_risk":5,"migraine_risk":4,"frizz_risk":1,"updated_at":"2026-03-27T15:30:57.219753+05:30"},{"city":"Haridwar","state":"Uttarakhand","latitude":29.9457,"longitude":78.1642,"temp":27.1,"humidity":45,"rain":0.0,"pressure":973.7,"uv_index":5.5,"wind_gusts":38.5,"aqi":78,"pm10":31.8,"pm2_5":16.9,"mosquito_risk":4,"arthritis_risk":5,"migraine_risk":3,"frizz_risk":0,"updated_at":"2026-03-27T15:30:57.219761+05:30"},{"city":"Rishikesh","state":"Uttarakhand","latitude":30.0869,"longitude":78.2676,"temp":25.4,"humidity":52,"rain":0.0,"pressure":966.1,"uv_index":6.05,"wind_gusts":28.4,"aqi":61,"pm10":31.7,"pm2_5":14.5,"mosquito_risk":4,"arthritis_risk":5,"migraine_risk":7,"frizz_risk":0,"updated_at":"2026-03-27T15:30:57.219768+05:30"},{"city":"Nainital","state":"Uttarakhand","latitude":29.3919,"longitude":79.4542,"temp":22.2,"humidity":36,"rain":0.0,"pressure":805.7,"uv_index":6.5,"wind_gusts":50.4,"aqi":49,"pm10":25.0,"pm2_5":10.7,"mosquito_risk":0,"arthritis_risk":5,"migraine_risk":7,"frizz_risk":0,"updated_at":"2026-03-27T15:30:57.219776+05:30"},{"city":"Mussoorie","state":"Uttarakhand","latitude":30.4599,"longitude":78.0664,"temp":18.6,"humidity":50,"rain":0.0,"pressure":801.9,"uv_index":6.25,"wind_gusts":32.8,"aqi":70,"pm10":33.3,"pm2_5":17.2,"mosquito_risk":0,"arthritis_risk":5,"migraine_risk":7,"frizz_risk":0,"updated_at":"2026-03-27T15:30:57.219783+05:30"},{"city":"Dharamshala","state":"Himachal Pradesh","latitude":32.219,"longitude":76.3234,"temp":21.1,"humidity":65,"rain":0.0,"pressure":868.6,"uv_index":6.95,"wind_gusts":19.1,"aqi":59,"pm10":25.6,"pm2_5":13.2,"mosquito_risk":3,"arthritis_risk":5,"migraine_risk":7,"frizz_risk":0,"updated_at":"2026-03-27T15:30:57.219790+05:30"},{"city":"Dalhousie","state":"Himachal Pradesh","latitude":32.5387,"longitude":75.971,"temp":19.9,"humidity":58,"rain":0.0,"pressure":804.0,"uv_index":7.2,"wind_gusts":19.4,"aqi":70,"pm10":21.6,"pm2_5":14.5,"mosquito_risk":0,"arthritis_risk":5,"migraine_risk":7,"frizz_risk":0,"updated_at":"2026-03-27T15:30:57.219799+05:30"},{"city":"Patiala","state":"Punjab","latitude":30.3398,"longitude":76.3869,"temp":28.0,"humidity":45,"rain":0.0,"pressure":977.9,"uv_index":6.3,"wind_gusts":30.2,"aqi":163,"pm10":126.7,"pm2_5":24.7,"mosquito_risk":4,"arthritis_risk":5,"migraine_risk":7,"frizz_risk":0,"updated_at":"2026-03-27T15:30:57.219806+05:30"},{"city":"Bhatinda","state":"Punjab","latitude":30.211,"longitude":74.9455,"temp":29.2,"humidity":39,"rain":0.0,"pressure":983.3,"uv_index":7.0,"wind_gusts":27.0,"aqi":82,"pm10":30.2,"pm2_5":14.9,"mosquito_risk":4,"arthritis_risk":5,"migraine_risk":7,"frizz_risk":0,"updated_at":"2026-03-27T15:30:57.219812+05:30"},{"city":"Rohtak","state":"Haryana","latitude":28.8955,"longitude":76.6066,"temp":28.9,"humidity":43,"rain":0.0,"pressure":981.2,"uv_index":6.55,"wind_gusts":38.5,"aqi":193,"pm10":454.5,"pm2_5":57.2,"mosquito_risk":4,"arthritis_risk":5,"migraine_risk":7,"frizz_risk":0,"updated_at":"2026-03-27T15:30:57.219819+05:30"},{"city":"Panipat","state":"Haryana","latitude":29.3909,"longitude":76.9635,"temp":28.4,"humidity":44,"rain":0.0,"pressure":980.0,"uv_index":6.35,"wind_gusts":37.4,"aqi":373,"pm10":793.5,"pm2_5":80.8,"mosquito_risk":4,"arthritis_risk":5,"migraine_risk":7,"frizz_risk":0,"updated_at":"2026-03-27T15:30:57.219826+05:30"},{"city":"Mathura","state":"Uttar Pradesh","latitude":27.4924,"longitude":77.6737,"temp":29.2,"humidity":47,"rain":0.0,"pressure":986.3,"uv_index":6.75,"wind_gusts":32.4,"aqi":564,"pm10":653.8,"pm2_5":70.8,"mosquito_risk":4,"arthritis_risk":5,"migraine_risk":7,"frizz_risk":1,"updated_at":"2026-03-27T15:30:57.219832+05:30"},{"city":"Vrindavan","state":"Uttar Pradesh","latitude":27.5823,"longitude":77.7027,"temp":28.2,"humidity":51,"rain":0.0,"pressure":987.1,"uv_index":6.5,"wind_gusts":39.2,"aqi":564,"pm10":653.8,"pm2_5":70.8,"mosquito_risk":4,"arthritis_risk":5,"migraine_risk":7,"frizz_risk":1,"updated_at":"2026-03-27T15:30:57.219839+05:30"},{"city":"Ayodhya","state":"Uttar Pradesh","latitude":26.7922,"longitude":82.1998,"temp":33.1,"humidity":28,"rain":0.0,"pressure":992.7,"uv_index":5.5,"wind_gusts":50.4,"aqi":74,"pm10":47.6,"pm2_5":15.6,"mosquito_risk":0,"arthritis_risk":5,"migraine_risk":3,"frizz_risk":0,"updated_at":"2026-03-27T15:30:57.219845+05:30"},{"city":"Ratlam","state":"Madhya Pradesh","latitude":23.3315,"longitude":75.0367,"temp":34.5,"humidity":21,"rain":0.0,"pressure":954.0,"uv_index":8.05,"wind_gusts":38.2,"aqi":41,"pm10":17.1,"pm2_5":6.8,"mosquito_risk":0,"arthritis_risk":5,"migraine_risk":7,"frizz_risk":0,"updated_at":"2026-03-27T15:30:57.219853+05:30"},{"city":"Sagar","state":"Madhya Pradesh","latitude":23.8388,"longitude":78.7378,"temp":36.2,"humidity":19,"rain":0.0,"pressure":947.3,"uv_index":8.05,"wind_gusts":39.2,"aqi":58,"pm10":18.7,"pm2_5":9.0,"mosquito_risk":0,"arthritis_risk":5,"migraine_risk":10,"frizz_risk":0,"updated_at":"2026-03-27T15:30:57.219859+05:30"},{"city":"Satna","state":"Madhya Pradesh","latitude":24.6005,"longitude":80.8322,"temp":29.6,"humidity":47,"rain":0.0,"pressure":969.4,"uv_index":7.75,"wind_gusts":55.4,"aqi":94,"pm10":100.6,"pm2_5":26.4,"mosquito_risk":4,"arthritis_risk":5,"migraine_risk":7,"frizz_risk":1,"updated_at":"2026-03-27T15:30:57.219865+05:30"},{"city":"Akola","state":"Maharashtra","latitude":20.7002,"longitude":77.0082,"temp":39.1,"humidity":18,"rain":0.0,"pressure":972.7,"uv_index":8.45,"wind_gusts":43.6,"aqi":65,"pm10":28.1,"pm2_5":20.3,"mosquito_risk":0,"arthritis_risk":5,"migraine_risk":10,"frizz_risk":0,"updated_at":"2026-03-27T15:30:57.219873+05:30"},{"city":"Amravati","state":"Maharashtra","latitude":20.9374,"longitude":77.7796,"temp":38.6,"humidity":17,"rain":0.0,"pressure":965.2,"uv_index":8.45,"wind_gusts":43.9,"aqi":65,"pm10":26.4,"pm2_5":18.9,"mosquito_risk":0,"arthritis_risk":5,"migraine_risk":10,"frizz_risk":0,"updated_at":"2026-03-27T15:30:57.219880+05:30"},{"city":"Latur","state":"Maharashtra","latitude":18.4088,"longitude":76.5604,"temp":36.4,"humidity":19,"rain":0.0,"pressure":938.8,"uv_index":8.8,"wind_gusts":25.2,"aqi":94,"pm10":39.9,"pm2_5":29.9,"mosquito_risk":0,"arthritis_risk":5,"migraine_risk":10,"frizz_risk":0,"updated_at":"2026-03-27T15:30:57.219887+05:30"},{"city":"Nanded","state":"Maharashtra","latitude":19.1383,"longitude":77.3091,"temp":39.3,"humidity":18,"rain":0.0,"pressure":966.4,"uv_index":8.65,"wind_gusts":28.1,"aqi":88,"pm10":31.2,"pm2_5":22.3,"mosquito_risk":0,"arthritis_risk":5,"migraine_risk":10,"frizz_risk":0,"updated_at":"2026-03-27T15:30:57.219894+05:30"},{"city":"Gulbarga","state":"Karnataka","latitude":17.3297,"longitude":76.8343,"temp":38.5,"humidity":20,"rain":0.0,"pressure":956.9,"uv_index":8.85,"wind_gusts":32.0,"aqi":101,"pm10":36.8,"pm2_5":28.3,"mosquito_risk":0,"arthritis_risk":5,"migraine_risk":10,"frizz_risk":0,"updated_at":"2026-03-27T15:30:57.219900+05:30"},{"city":"Bidar","state":"Karnataka","latitude":17.9104,"longitude":77.5199,"temp":36.2,"humidity":24,"rain":0.0,"pressure":934.3,"uv_index":8.85,"wind_gusts":29.9,"aqi":99,"pm10":37.5,"pm2_5":29.5,"mosquito_risk":0,"arthritis_risk":5,"migraine_risk":10,"frizz_risk":0,"updated_at":"2026-03-27T15:30:57.219907+05:30"},{"city":"Hospet","state":"Karnataka","latitude":15.2689,"longitude":76.3909,"temp":36.7,"humidity":24,"rain":0.0,"pressure":954.5,"uv_index":9.1,"wind_gusts":26.6,"aqi":96,"pm10":31.2,"pm2_5":23.7,"mosquito_risk":0,"arthritis_risk":5,"migraine_risk":10,"frizz_risk":0,"updated_at":"2026-03-27T15:30:57.219913+05:30"},{"city":"Tirupur","state":"Tamil Nadu","latitude":11.1085,"longitude":77.3411,"temp":38.2,"humidity":21,"rain":0.0,"pressure":972.9,"uv_index":9.4,"wind_gusts":34.9,"aqi":101,"pm10":31.9,"pm2_5":25.1,"mosquito_risk":0,"arthritis_risk":5,"migraine_risk":10,"frizz_risk":0,"updated_at":"2026-03-27T15:30:57.219920+05:30"},{"city":"Alappuzha","state":"Kerala","latitude":9.4981,"longitude":76.3388,"temp":29.5,"humidity":77,"rain":0.0,"pressure":1006.5,"uv_index":9.15,"wind_gusts":35.6,"aqi":115,"pm10":29.7,"pm2_5":24.5,"mosquito_risk":7,"arthritis_risk":5,"migraine_risk":4,"frizz_risk":1,"updated_at":"2026-03-27T15:30:57.219927+05:30"},{"city":"Munnar","state":"Kerala","latitude":10.0889,"longitude":77.0595,"temp":29.3,"humidity":48,"rain":0.0,"pressure":857.8,"uv_index":9.65,"wind_gusts":33.8,"aqi":85,"pm10":23.3,"pm2_5":15.6,"mosquito_risk":4,"arthritis_risk":5,"migraine_risk":7,"frizz_risk":1,"updated_at":"2026-03-27T15:30:57.219934+05:30"},{"city":"Silchar","state":"Assam","latitude":24.8333,"longitude":92.7789,"temp":31.8,"humidity":44,"rain":0.0,"pressure":1002.6,"uv_index":8.25,"wind_gusts":16.2,"aqi":154,"pm10":76.4,"pm2_5":48.5,"mosquito_risk":0,"arthritis_risk":5,"migraine_risk":4,"frizz_risk":1,"updated_at":"2026-03-27T15:30:57.219941+05:30"},{"city":"Dibrugarh","state":"Assam","latitude":27.4728,"longitude":94.912,"temp":26.3,"humidity":70,"rain":0.0,"pressure":994.8,"uv_index":4.8,"wind_gusts":12.6,"aqi":125,"pm10":60.3,"pm2_5":39.9,"mosquito_risk":7,"arthritis_risk":5,"migraine_risk":3,"frizz_risk":1,"updated_at":"2026-03-27T15:30:57.219947+05:30"}]