[{"city":"Delhi","state":"Delhi","latitude":28.6139,"longitude":77.209,"temp":20.5,"humidity":64,"rain":0.0,"pressure":987.6,"uv_index":5.75,"wind_gusts":37.4,"aqi":235,"pm10":530.9,"pm2_5":107.6,"mosquito_risk":3,"arthritis_risk":5,"migraine_risk":3,"frizz_risk":0,"updated_at":"2026-03-02T22:24:12.844657+05:30"},{"city":"Mumbai","state":"Maharashtra","latitude":19.076,"longitude":72.8777,"temp":26.8,"humidity":77,"rain":0.0,"pressure":1011.6,"uv_index":7.3,"wind_gusts":25.6,"aqi":89,"pm10":37.3,"pm2_5":27.9,"mosquito_risk":7,"arthritis_risk":0,"migraine_risk":4,"frizz_risk":1,"updated_at":"2026-03-02T22:24:12.844696+05:30"},{"city":"Bangalore","state":"Karnataka","latitude":12.9716,"longitude":77.5946,"temp":24.3,"humidity":49,"rain":0.0,"pressure":913.5,"uv_index":9.05,"wind_gusts":28.8,"aqi":131,"pm10":46.1,"pm2_5":45.5,"mosquito_risk":0,"arthritis_risk":5,"migraine_risk":7,"frizz_risk":0,"updated_at":"2026-03-02T22:24:12.844711+05:30"},{"city":"Hyderabad","state":"Telangana","latitude":17.385,"longitude":78.4867,"temp":25.6,"humidity":61,"rain":0.0,"pressure":956.4,"uv_index":8.3,"wind_gusts":14.8,"aqi":146,"pm10":53.9,"pm2_5":53.4,"mosquito_risk":7,"arthritis_risk":5,"migraine_risk":7,"frizz_risk":1,"updated_at":"2026-03-02T22:24:12.844721+05:30"},{"city":"Chennai","state":"Tamil Nadu","latitude":13.0827,"longitude":80.2707,"temp":25.4,"humidity":80,"rain":0.0,"pressure":1010.5,"uv_index":8.8,"wind_gusts":30.2,"aqi":126,"pm10":42.8,"pm2_5":38.9,"mosquito_risk":7,"arthritis_risk":0,"migraine_risk":4,"frizz_risk":1,"updated_at":"2026-03-02T22:24:12.844730+05:30"},{"city":"Kolkata","state":"West Bengal","latitude":22.5726,"longitude":88.3639,"temp":26.2,"humidity":62,"rain":0.0,"pressure":1008.6,"uv_index":7.65,"wind_gusts":16.6,"aqi":153,"pm10":145.3,"pm2_5":130.9,"mosquito_risk":7,"arthritis_risk":0,"migraine_risk":4,"frizz_risk":1,"updated_at":"2026-03-02T22:24:12.844738+05:30"},{"city":"Pune","state":"Maharashtra","latitude":18.5204,"longitude":73.8567,"temp":25.0,"humidity":67,"rain":0.0,"pressure":951.3,"uv_index":7.85,"wind_gusts":26.3,"aqi":134,"pm10":38.2,"pm2_5":36.8,"mosquito_risk":7,"arthritis_risk":5,"migraine_risk":7,"frizz_risk":1,"updated_at":"2026-03-02T22:24:12.844749+05:30"},{"city":"Ahmedabad","state":"Gujarat","latitude":23.0225,"longitude":72.5714,"temp":26.1,"humidity":51,"rain":0.0,"pressure":1006.3,"uv_index":7.1,"wind_gusts":15.5,"aqi":101,"pm10":55.4,"pm2_5":45.2,"mosquito_risk":4,"arthritis_risk":5,"migraine_risk":4,"frizz_risk":0,"updated_at":"2026-03-02T22:24:12.844756+05:30"},{"city":"Jaipur","state":"Rajasthan","latitude":26.9124,"longitude":75.7873,"temp":24.3,"humidity":36,"rain":0.0,"pressure":964.3,"uv_index":6.5,"wind_gusts":30.2,"aqi":100,"pm10":82.4,"pm2_5":40.9,"mosquito_risk":0,"arthritis_risk":5,"migraine_risk":7,"frizz_risk":0,"updated_at":"2026-03-02T22:24:12.844763+05:30"},{"city":"Lucknow","state":"Uttar Pradesh","latitude":26.8467,"longitude":80.9462,"temp":21.7,"humidity":59,"rain":0.0,"pressure":997.5,"uv_index":6.25,"wind_gusts":37.4,"aqi":150,"pm10":250.5,"pm2_5":69.8,"mosquito_risk":0,"arthritis_risk":5,"migraine_risk":7,"frizz_risk":0,"updated_at":"2026-03-02T22:24:12.844770+05:30"},{"city":"Kanpur","state":"Uttar Pradesh","latitude":26.4499,"longitude":80.3319,"temp":20.3,"humidity":75,"rain":0.0,"pressure":996.0,"uv_index":6.25,"wind_gusts":32.0,"aqi":154,"pm10":308.3,"pm2_5":66.1,"mosquito_risk":3,"arthritis_risk":5,"migraine_risk":7,"frizz_risk":0,"updated_at":"2026-03-02T22:24:12.844777+05:30"},{"city":"Chandigarh","state":"Chandigarh","latitude":30.7333,"longitude":76.7794,"temp":18.7,"humidity":60,"rain":0.0,"pressure":972.8,"uv_index":5.65,"wind_gusts":38.9,"aqi":96,"pm10":31.3,"pm2_5":29.2,"mosquito_risk":0,"arthritis_risk":5,"migraine_risk":3,"frizz_risk":0,"updated_at":"2026-03-02T22:24:12.844784+05:30"},{"city":"Srinagar","state":"Jammu and Kashmir","latitude":34.0837,"longitude":74.7973,"temp":6.1,"humidity":60,"rain":0.0,"pressure":840.9,"uv_index":6.55,"wind_gusts":18.4,"aqi":146,"pm10":97.8,"pm2_5":86.1,"mosquito_risk":0,"arthritis_risk":5,"migraine_risk":7,"frizz_risk":1,"updated_at":"2026-03-02T22:24:12.844790+05:30"},{"city":"Jammu","state":"Jammu and Kashmir","latitude":32.7266,"longitude":74.857,"temp":20.9,"humidity":58,"rain":0.0,"pressure":976.5,"uv_index":6.25,"wind_gusts":26.3,"aqi":100,"pm10":48.4,"pm2_5":42.8,"mosquito_risk":0,"arthritis_risk":5,"migraine_risk":7,"frizz_risk":0,"updated_at":"2026-03-02T22:24:12.844797+05:30"},{"city":"Amritsar","state":"Punjab","latitude":31.634,"longitude":74.8723,"temp":18.2,"humidity":68,"rain":0.0,"pressure":985.3,"uv_index":6.1,"wind_gusts":25.2,"aqi":139,"pm10":34.9,"pm2_5":28.7,"mosquito_risk":3,"arthritis_risk":5,"migraine_risk":7,"frizz_risk":0,"updated_at":"2026-03-02T22:24:12.844804+05:30"},{"city":"Ludhiana","state":"Punjab","latitude":30.901,"longitude":75.8573,"temp":20.4,"humidity":58,"rain":0.0,"pressure":983.4,"uv_index":5.85,"wind_gusts":32.4,"aqi":158,"pm10":65.7,"pm2_5":53.8,"mosquito_risk":0,"arthritis_risk":5,"migraine_risk":3,"frizz_risk":0,"updated_at":"2026-03-02T22:24:12.844811+05:30"},{"city":"Jalandhar","state":"Punjab","latitude":31.326,"longitude":75.5762,"temp":20.8,"humidity":57,"rain":0.0,"pressure":984.5,"uv_index":6.0,"wind_gusts":30.2,"aqi":158,"pm10":69.8,"pm2_5":49.1,"mosquito_risk":0,"arthritis_risk":5,"migraine_risk":3,"frizz_risk":0,"updated_at":"2026-03-02T22:24:12.844820+05:30"},{"city":"Dehradun","state":"Uttarakhand","latitude":30.6284,"longitude":78.0322,"temp":11.8,"humidity":71,"rain":0.0,"pressure":830.2,"uv_index":6.0,"wind_gusts":27.0,"aqi":83,"pm10":29.5,"pm2_5":24.6,"mosquito_risk":3,"arthritis_risk":5,"migraine_risk":3,"frizz_risk":0,"updated_at":"2026-03-02T22:24:12.844827+05:30"},{"city":"Shimla","state":"Himachal Pradesh","latitude":31.1048,"longitude":77.1734,"temp":9.0,"humidity":56,"rain":0.0,"pressure":784.0,"uv_index":6.0,"wind_gusts":56.5,"aqi":85,"pm10":33.3,"pm2_5":26.1,"mosquito_risk":0,"arthritis_risk":5,"migraine_risk":3,"frizz_risk":0,"updated_at":"2026-03-02T22:24:12.844834+05:30"},{"city":"Manali","state":"Himachal Pradesh","latitude":32.2396,"longitude":77.1887,"temp":13.8,"humidity":36,"rain":0.0,"pressure":820.3,"uv_index":7.7,"wind_gusts":36.7,"aqi":100,"pm10":19.8,"pm2_5":15.9,"mosquito_risk":0,"arthritis_risk":5,"migraine_risk":7,"frizz_risk":1,"updated_at":"2026-03-02T22:24:12.844840+05:30"},{"city":"Gurgaon","state":"Haryana","latitude":28.4595,"longitude":77.0266,"temp":17.9,"humidity":75,"rain":0.0,"pressure":986.0,"uv_index":5.85,"wind_gusts":35.3,"aqi":893,"pm10":1110.1,"pm2_5":158.8,"mosquito_risk":3,"arthritis_risk":5,"migraine_risk":3,"frizz_risk":0,"updated_at":"2026-03-02T22:24:12.844847+05:30"},{"city":"Noida","state":"Uttar Pradesh","latitude":28.5355,"longitude":77.391,"temp":20.8,"humidity":63,"rain":0.0,"pressure":989.1,"uv_index":5.75,"wind_gusts":37.1,"aqi":893,"pm10":1110.1,"pm2_5":158.8,"mosquito_risk":3,"arthritis_risk":5,"migraine_risk":3,"frizz_risk":0,"updated_at":"2026-03-02T22:24:12.844853+05:30"},{"city":"Ghaziabad","state":"Uttar Pradesh","latitude":28.6692,"longitude":77.4538,"temp":20.5,"humidity":64,"rain":0.0,"pressure":987.1,"uv_index":5.75,"wind_gusts":36.0,"aqi":188,"pm10":521.5,"pm2_5":102.9,"mosquito_risk":3,"arthritis_risk":5,"migraine_risk":3,"frizz_risk":0,"updated_at":"2026-03-02T22:24:12.844859+05:30"},{"city":"Faridabad","state":"Haryana","latitude":28.4089,"longitude":77.3178,"temp":20.6,"humidity":60,"rain":0.0,"pressure":988.4,"uv_index":5.8,"wind_gusts":33.1,"aqi":893,"pm10":1110.1,"pm2_5":158.8,"mosquito_risk":0,"arthritis_risk":5,"migraine_risk":3,"frizz_risk":0,"updated_at":"2026-03-02T22:24:12.844865+05:30"},{"city":"Meerut","state":"Uttar Pradesh","latitude":28.9845,"longitude":77.7064,"temp":18.2,"humidity":68,"rain":0.0,"pressure":985.6,"uv_index":5.6,"wind_gusts":38.9,"aqi":188,"pm10":521.5,"pm2_5":102.9,"mosquito_risk":3,"arthritis_risk":5,"migraine_risk":3,"frizz_risk":0,"updated_at":"2026-03-02T22:24:12.844871+05:30"},{"city":"Agra","state":"Uttar Pradesh","latitude":27.1767,"longitude":78.0081,"temp":20.8,"humidity":67,"rain":0.0,"pressure":992.3,"uv_index":6.1,"wind_gusts":35.3,"aqi":360,"pm10":678.0,"pm2_5":108.5,"mosquito_risk":3,"arthritis_risk":5,"migraine_risk":7,"frizz_risk":0,"updated_at":"2026-03-02T22:24:12.844878+05:30"},{"city":"Varanasi","state":"Uttar Pradesh","latitude":25.3176,"longitude":82.9739,"temp":20.4,"humidity":61,"rain":0.0,"pressure":1001.6,"uv_index":6.9,"wind_gusts":31.7,"aqi":92,"pm10":52.7,"pm2_5":35.7,"mosquito_risk":3,"arthritis_risk":5,"migraine_risk":4,"frizz_risk":0,"updated_at":"2026-03-02T22:24:12.844889+05:30"},{"city":"Prayagraj","state":"Uttar Pradesh","latitude":25.4358,"longitude":81.8463,"temp":22.5,"humidity":53,"rain":0.0,"pressure":1000.4,"uv_index":6.75,"wind_gusts":29.9,"aqi":101,"pm10":66.4,"pm2_5":39.6,"mosquito_risk":0,"arthritis_risk":5,"migraine_risk":4,"frizz_risk":0,"updated_at":"2026-03-02T22:24:12.844896+05:30"},{"city":"Gorakhpur","state":"Uttar Pradesh","latitude":26.7606,"longitude":83.3732,"temp":18.7,"humidity":57,"rain":0.0,"pressure":1000.7,"uv_index":6.6,"wind_gusts":25.2,"aqi":122,"pm10":55.8,"pm2_5":45.4,"mosquito_risk":0,"arthritis_risk":5,"migraine_risk":4,"frizz_risk":0,"updated_at":"2026-03-02T22:24:12.844903+05:30"},{"city":"Bareilly","state":"Uttar Pradesh","latitude":28.367,"longitude":79.4304,"temp":18.4,"humidity":66,"rain":0.0,"pressure":990.6,"uv_index":5.9,"wind_gusts":31.3,"aqi":132,"pm10":143.4,"pm2_5":47.8,"mosquito_risk":3,"arthritis_risk":5,"migraine_risk":3,"frizz_risk":0,"updated_at":"2026-03-02T22:24:12.844924+05:30"},{"city":"Aligarh","state":"Uttar Pradesh","latitude":27.8974,"longitude":78.088,"temp":19.1,"humidity":70,"rain":0.0,"pressure":989.9,"uv_index":5.85,"wind_gusts":34.2,"aqi":536,"pm10":821.4,"pm2_5":139.7,"mosquito_risk":3,"arthritis_risk":5,"migraine_risk":3,"frizz_risk":0,"updated_at":"2026-03-02T22:24:12.844932+05:30"},{"city":"Moradabad","state":"Uttar Pradesh","latitude":28.8386,"longitude":78.7733,"temp":18.1,"humidity":64,"rain":0.0,"pressure":987.4,"uv_index":5.75,"wind_gusts":35.6,"aqi":142,"pm10":179.3,"pm2_5":54.5,"mosquito_risk":3,"arthritis_risk":5,"migraine_risk":3,"frizz_risk":0,"updated_at":"2026-03-02T22:24:12.844938+05:30"},{"city":"Saharanpur","state":"Uttar Pradesh","latitude":29.9637,"longitude":77.546,"temp":17.9,"humidity":66,"rain":0.0,"pressure":979.1,"uv_index":5.4,"wind_gusts":52.9,"aqi":113,"pm10":76.1,"pm2_5":37.7,"mosquito_risk":3,"arthritis_risk":5,"migraine_risk":3,"frizz_risk":0,"updated_at":"2026-03-02T22:24:12.844944+05:30"},{"city":"Jhansi","state":"Uttar Pradesh","latitude":25.4484,"longitude":78.5685,"temp":22.6,"humidity":55,"rain":0.0,"pressure":982.3,"uv_index":6.7,"wind_gusts":29.2,"aqi":76,"pm10":49.1,"pm2_5":31.1,"mosquito_risk":0,"arthritis_risk":5,"migraine_risk":7,"frizz_risk":0,"updated_at":"2026-03-02T22:24:16.112401+05:30"},{"city":"Surat","state":"Gujarat","latitude":21.1702,"longitude":72.8311,"temp":24.7,"humidity":73,"rain":0.0,"pressure":1010.2,"uv_index":7.0,"wind_gusts":23.0,"aqi":151,"pm10":98.0,"pm2_5":89.9,"mosquito_risk":3,"arthritis_risk":0,"migraine_risk":4,"frizz_risk":1,"updated_at":"2026-03-02T22:24:16.112432+05:30"},{"city":"Vadodara","state":"Gujarat","latitude":22.3072,"longitude":73.1812,"temp":26.5,"humidity":46,"rain":0.0,"pressure":1008.1,"uv_index":7.1,"wind_gusts":13.0,"aqi":150,"pm10":71.5,"pm2_5":64.3,"mosquito_risk":4,"arthritis_risk":0,"migraine_risk":4,"frizz_risk":0,"updated_at":"2026-03-02T22:24:16.112442+05:30"},{"city":"Rajkot","state":"Gujarat","latitude":22.3039,"longitude":70.8022,"temp":25.9,"humidity":50,"rain":0.0,"pressure":998.6,"uv_index":6.9,"wind_gusts":21.2,"aqi":76,"pm10":36.3,"pm2_5":25.6,"mosquito_risk":4,"arthritis_risk":5,"migraine_risk":7,"frizz_risk":0,"updated_at":"2026-03-02T22:24:16.112451+05:30"},{"city":"Thane","state":"Maharashtra","latitude":19.2183,"longitude":72.9781,"temp":25.0,"humidity":82,"rain":0.0,"pressure":1011.0,"uv_index":7.3,"wind_gusts":35.6,"aqi":89,"pm10":37.3,"pm2_5":27.9,"mosquito_risk":7,"arthritis_risk":0,"migraine_risk":4,"frizz_risk":1,"updated_at":"2026-03-02T22:24:16.112458+05:30"},{"city":"Nagpur","state":"Maharashtra","latitude":21.1458,"longitude":79.0882,"temp":24.9,"humidity":55,"rain":0.0,"pressure":977.0,"uv_index":7.7,"wind_gusts":20.9,"aqi":76,"pm10":38.6,"pm2_5":35.4,"mosquito_risk":0,"arthritis_risk":5,"migraine_risk":7,"frizz_risk":0,"updated_at":"2026-03-02T22:24:16.112466+05:30"},{"city":"Nashik","state":"Maharashtra","latitude":19.9975,"longitude":73.7898,"temp":24.6,"humidity":60,"rain":0.0,"pressure":949.1,"uv_index":7.5,"wind_gusts":28.1,"aqi":108,"pm10":30.4,"pm2_5":27.0,"mosquito_risk":0,"arthritis_risk":5,"migraine_risk":7,"frizz_risk":1,"updated_at":"2026-03-02T22:24:16.112472+05:30"},{"city":"Aurangabad","state":"Maharashtra","latitude":19.8762,"longitude":75.3433,"temp":26.7,"humidity":47,"rain":0.0,"pressure":947.2,"uv_index":8.0,"wind_gusts":21.2,"aqi":122,"pm10":33.8,"pm2_5":32.9,"mosquito_risk":4,"arthritis_risk":5,"migraine_risk":7,"frizz_risk":0,"updated_at":"2026-03-02T22:24:16.112479+05:30"},{"city":"Solapur","state":"Maharashtra","latitude":17.6599,"longitude":75.9064,"temp":27.3,"humidity":57,"rain":0.0,"pressure":959.2,"uv_index":8.25,"wind_gusts":14.0,"aqi":158,"pm10":59.5,"pm2_5":59.0,"mosquito_risk":4,"arthritis_risk":5,"migraine_risk":7,"frizz_risk":1,"updated_at":"2026-03-02T22:24:16.112486+05:30"},{"city":"Kolhapur","state":"Maharashtra","latitude":16.705,"longitude":74.2433,"temp":22.8,"humidity":74,"rain":0.0,"pressure":950.5,"uv_index":8.35,"wind_gusts":37.4,"aqi":112,"pm10":63.3,"pm2_5":62.6,"mosquito_risk":3,"arthritis_risk":5,"migraine_risk":7,"frizz_risk":1,"updated_at":"2026-03-02T22:24:16.112493+05:30"},{"city":"Goa","state":"Goa","latitude":15.2993,"longitude":74.124,"temp":27.0,"humidity":76,"rain":0.0,"pressure":1000.8,"uv_index":8.4,"wind_gusts":29.9,"aqi":72,"pm10":34.9,"pm2_5":24.4,"mosquito_risk":7,"arthritis_risk":5,"migraine_risk":4,"frizz_risk":1,"updated_at":"2026-03-02T22:24:16.112499+05:30"},{"city":"Jodhpur","state":"Rajasthan","latitude":26.2389,"longitude":73.0243,"temp":26.2,"humidity":46,"rain":0.0,"pressure":988.0,"uv_index":6.75,"wind_gusts":12.6,"aqi":89,"pm10":79.9,"pm2_5":35.0,"mosquito_risk":4,"arthritis_risk":5,"migraine_risk":7,"frizz_risk":0,"updated_at":"2026-03-02T22:24:16.112506+05:30"},{"city":"Udaipur","state":"Rajasthan","latitude":24.5854,"longitude":73.7125,"temp":24.5,"humidity":49,"rain":0.0,"pressure":951.3,"uv_index":7.4,"wind_gusts":15.5,"aqi":90,"pm10":36.9,"pm2_5":27.6,"mosquito_risk":0,"arthritis_risk":5,"migraine_risk":7,"frizz_risk":0,"updated_at":"2026-03-02T22:24:16.112512+05:30"},{"city":"Kota","state":"Rajasthan","latitude":25.2138,"longitude":75.8648,"temp":25.0,"humidity":49,"rain":0.0,"pressure":983.2,"uv_index":6.8,"wind_gusts":17.6,"aqi":90,"pm10":54.5,"pm2_5":37.6,"mosquito_risk":4,"arthritis_risk":5,"migraine_risk":7,"frizz_risk":0,"updated_at":"2026-03-02T22:24:16.112518+05:30"},{"city":"Bikaner","state":"Rajasthan","latitude":28.0229,"longitude":73.3119,"temp":25.1,"humidity":48,"rain":0.0,"pressure":987.2,"uv_index":6.5,"wind_gusts":20.2,"aqi":71,"pm10":46.2,"pm2_5":25.7,"mosquito_risk":4,"arthritis_risk":5,"migraine_risk":7,"frizz_risk":0,"updated_at":"2026-03-02T22:24:16.112524+05:30"},{"city":"Ajmer","state":"Rajasthan","latitude":26.4499,"longitude":74.6399,"temp":23.3,"humidity":45,"rain":0.0,"pressure":958.8,"uv_index":6.75,"wind_gusts":22.0,"aqi":82,"pm10":66.4,"pm2_5":29.2,"mosquito_risk":0,"arthritis_risk":5,"migraine_risk":7,"frizz_risk":0,"updated_at":"2026-03-02T22:24:16.112531+05:30"},{"city":"Gwalior","state":"Madhya Pradesh","latitude":26.2183,"longitude":78.1828,"temp":22.9,"humidity":63,"rain":0.0,"pressure":987.7,"uv_index":6.4,"wind_gusts":31.0,"aqi":93,"pm10":128.1,"pm2_5":46.1,"mosquito_risk":3,"arthritis_risk":5,"migraine_risk":7,"frizz_risk":0,"updated_at":"2026-03-02T22:24:16.112537+05:30"},{"city":"Indore","state":"Madhya Pradesh","latitude":22.7196,"longitude":75.8577,"temp":22.9,"humidity":51,"rain":0.0,"pressure":951.5,"uv_index":7.4,"wind_gusts":14.4,"aqi":92,"pm10":39.9,"pm2_5":33.2,"mosquito_risk":0,"arthritis_risk":5,"migraine_risk":7,"frizz_risk":0,"updated_at":"2026-03-02T22:24:16.112543+05:30"},{"city":"Bhopal","state":"Madhya Pradesh","latitude":23.2599,"longitude":77.4126,"temp":24.3,"humidity":49,"rain":0.0,"pressure":957.7,"uv_index":7.25,"wind_gusts":20.5,"aqi":80,"pm10":33.3,"pm2_5":24.7,"mosquito_risk":0,"arthritis_risk":5,"migraine_risk":7,"frizz_risk":0,"updated_at":"2026-03-02T22:24:16.112549+05:30"},{"city":"Jabalpur","state":"Madhya Pradesh","latitude":23.1815,"longitude":79.9864,"temp":24.1,"humidity":39,"rain":0.0,"pressure":965.3,"uv_index":7.35,"wind_gusts":20.9,"aqi":73,"pm10":36.6,"pm2_5":25.7,"mosquito_risk":0,"arthritis_risk":5,"migraine_risk":7,"frizz_risk":0,"updated_at":"2026-03-02T22:24:16.112556+05:30"},{"city":"Ujjain","state":"Madhya Pradesh","latitude":23.1765,"longitude":75.7885,"temp":24.0,"humidity":52,"rain":0.0,"pressure":957.6,"uv_index":7.25,"wind_gusts":11.5,"aqi":116,"pm10":41.7,"pm2_5":35.2,"mosquito_risk":0,"arthritis_risk":5,"migraine_risk":7,"frizz_risk":0,"updated_at":"2026-03-02T22:24:16.112562+05:30"},{"city":"Visakhapatnam","state":"Andhra Pradesh","latitude":17.6868,"longitude":83.2185,"temp":25.9,"humidity":75,"rain":0.0,"pressure":1007.0,"uv_index":8.35,"wind_gusts":37.8,"aqi":144,"pm10":42.0,"pm2_5":38.6,"mosquito_risk":7,"arthritis_risk":5,"migraine_risk":4,"frizz_risk":1,"updated_at":"2026-03-02T22:24:16.112569+05:30"},{"city":"Vijayawada","state":"Andhra Pradesh","latitude":16.5062,"longitude":80.648,"temp":25.3,"humidity":72,"rain":0.0,"pressure":1006.0,"uv_index":8.4,"wind_gusts":24.1,"aqi":145,"pm10":42.7,"pm2_5":41.2,"mosquito_risk":7,"arthritis_risk":5,"migraine_risk":4,"frizz_risk":1,"updated_at":"2026-03-02T22:24:16.112575+05:30"},{"city":"Guntur","state":"Andhra Pradesh","latitude":16.3067,"longitude":80.4365,"temp":25.1,"humidity":79,"rain":0.0,"pressure":1007.2,"uv_index":8.4,"wind_gusts":30.2,"aqi":137,"pm10":41.8,"pm2_5":40.6,"mosquito_risk":7,"arthritis_risk":5,"migraine_risk":4,"frizz_risk":1,"updated_at":"2026-03-02T22:24:16.112582+05:30"},{"city":"Nellore","state":"Andhra Pradesh","latitude":14.4426,"longitude":79.9865,"temp":24.8,"humidity":82,"rain":0.0,"pressure":1009.5,"uv_index":8.65,"wind_gusts":29.5,"aqi":125,"pm10":38.9,"pm2_5":36.2,"mosquito_risk":3,"arthritis_risk":0,"migraine_risk":4,"frizz_risk":1,"updated_at":"2026-03-02T22:24:16.112589+05:30"},{"city":"Kurnool","state":"Andhra Pradesh","latitude":15.8281,"longitude":78.0373,"temp":29.6,"humidity":47,"rain":0.0,"pressure":979.1,"uv_index":8.45,"wind_gusts":26.3,"aqi":127,"pm10":49.2,"pm2_5":48.8,"mosquito_risk":4,"arthritis_risk":5,"migraine_risk":7,"frizz_risk":1,"updated_at":"2026-03-02T22:24:16.112596+05:30"},{"city":"Kakinada","state":"Andhra Pradesh","latitude":16.9891,"longitude":82.2475,"temp":24.5,"humidity":83,"rain":0.0,"pressure":1010.9,"uv_index":8.35,"wind_gusts":29.2,"aqi":135,"pm10":42.0,"pm2_5":38.3,"mosquito_risk":3,"arthritis_risk":0,"migraine_risk":4,"frizz_risk":1,"updated_at":"2026-03-02T22:24:16.112602+05:30"},{"city":"Tirupati","state":"Andhra Pradesh","latitude":13.6288,"longitude":79.4192,"temp":25.2,"humidity":60,"rain":0.0,"pressure":995.2,"uv_index":8.75,"wind_gusts":32.4,"aqi":139,"pm10":57.6,"pm2_5":56.0,"mosquito_risk":4,"arthritis_risk":5,"migraine_risk":7,"frizz_risk":1,"updated_at":"2026-03-02T22:24:16.112608+05:30"},{"city":"Warangal","state":"Telangana","latitude":17.9689,"longitude":79.5941,"temp":28.7,"humidity":50,"rain":0.0,"pressure":981.7,"uv_index":8.15,"wind_gusts":17.3,"aqi":134,"pm10":53.4,"pm2_5":52.9,"mosquito_risk":4,"arthritis_risk":5,"migraine_risk":7,"frizz_risk":1,"updated_at":"2026-03-02T22:24:16.112615+05:30"},{"city":"Nizamabad","state":"Telangana","latitude":18.6725,"longitude":78.0941,"temp":25.5,"humidity":53,"rain":0.0,"pressure":967.8,"uv_index":8.05,"wind_gusts":25.6,"aqi":106,"pm10":49.6,"pm2_5":48.7,"mosquito_risk":4,"arthritis_risk":5,"migraine_risk":7,"frizz_risk":0,"updated_at":"2026-03-02T22:24:16.112621+05:30"},{"city":"Mysore","state":"Karnataka","latitude":12.2958,"longitude":76.6396,"temp":24.5,"humidity":67,"rain":0.0,"pressure":929.8,"uv_index":9.1,"wind_gusts":25.6,"aqi":149,"pm10":67.1,"pm2_5":66.1,"mosquito_risk":3,"arthritis_risk":5,"migraine_risk":7,"frizz_risk":1,"updated_at":"2026-03-02T22:24:16.112627+05:30"},{"city":"Mangalore","state":"Karnataka","latitude":12.9141,"longitude":74.856,"temp":28.7,"humidity":76,"rain":0.0,"pressure":1009.1,"uv_index":8.65,"wind_gusts":27.4,"aqi":57,"pm10":21.7,"pm2_5":15.3,"mosquito_risk":7,"arthritis_risk":0,"migraine_risk":4,"frizz_risk":1,"updated_at":"2026-03-02T22:24:16.112633+05:30"},{"city":"Hubli-Dharwad","state":"Karnataka","latitude":15.3647,"longitude":75.124,"temp":23.5,"humidity":78,"rain":0.0,"pressure":942.8,"uv_index":8.6,"wind_gusts":27.0,"aqi":130,"pm10":47.5,"pm2_5":46.4,"mosquito_risk":3,"arthritis_risk":5,"migraine_risk":7,"frizz_risk":1,"updated_at":"2026-03-02T22:24:16.112640+05:30"},{"city":"Belgaum","state":"Karnataka","latitude":15.8497,"longitude":74.4977,"temp":21.7,"humidity":81,"rain":0.0,"pressure":927.7,"uv_index":8.65,"wind_gusts":38.2,"aqi":135,"pm10":26.1,"pm2_5":22.9,"mosquito_risk":3,"arthritis_risk":5,"migraine_risk":7,"frizz_risk":1,"updated_at":"2026-03-02T22:24:19.379762+05:30"},{"city":"Coimbatore","state":"Tamil Nadu","latitude":11.0168,"longitude":76.9558,"temp":24.9,"humidity":82,"rain":0.0,"pressure":964.1,"uv_index":9.1,"wind_gusts":29.5,"aqi":144,"pm10":61.2,"pm2_5":60.1,"mosquito_risk":3,"arthritis_risk":5,"migraine_risk":7,"frizz_risk":1,"updated_at":"2026-03-02T22:24:19.379792+05:30"},{"city":"Madurai","state":"Tamil Nadu","latitude":9.9252,"longitude":78.1198,"temp":26.0,"humidity":70,"rain":0.0,"pressure":995.9,"uv_index":9.05,"wind_gusts":32.8,"aqi":122,"pm10":42.5,"pm2_5":41.6,"mosquito_risk":7,"arthritis_risk":5,"migraine_risk":7,"frizz_risk":1,"updated_at":"2026-03-02T22:24:19.379802+05:30"},{"city":"Trichy","state":"Tamil Nadu","latitude":10.7905,"longitude":78.7047,"temp":25.0,"humidity":76,"rain":0.0,"pressure":1002.5,"uv_index":8.95,"wind_gusts":32.0,"aqi":141,"pm10":45.8,"pm2_5":44.4,"mosquito_risk":7,"arthritis_risk":5,"migraine_risk":4,"frizz_risk":1,"updated_at":"2026-03-02T22:24:19.379810+05:30"},{"city":"Salem","state":"Tamil Nadu","latitude":11.6643,"longitude":78.146,"temp":27.8,"humidity":55,"rain":0.0,"pressure":979.3,"uv_index":9.0,"wind_gusts":31.0,"aqi":138,"pm10":54.6,"pm2_5":53.7,"mosquito_risk":4,"arthritis_risk":5,"migraine_risk":7,"frizz_risk":1,"updated_at":"2026-03-02T22:24:19.379818+05:30"},{"city":"Tirunelveli","state":"Tamil Nadu","latitude":8.7139,"longitude":77.7567,"temp":25.6,"humidity":79,"rain":0.0,"pressure":1006.0,"uv_index":9.05,"wind_gusts":38.2,"aqi":133,"pm10":41.0,"pm2_5":39.8,"mosquito_risk":7,"arthritis_risk":5,"migraine_risk":4,"frizz_risk":1,"updated_at":"2026-03-02T22:24:19.379825+05:30"},{"city":"Vellore","state":"Tamil Nadu","latitude":12.9165,"longitude":79.1325,"temp":24.8,"humidity":67,"rain":0.0,"pressure":987.9,"uv_index":8.85,"wind_gusts":36.7,"aqi":148,"pm10":55.8,"pm2_5":54.2,"mosquito_risk":3,"arthritis_risk":5,"migraine_risk":7,"frizz_risk":1,"updated_at":"2026-03-02T22:24:19.379832+05:30"},{"city":"Erode","state":"Tamil Nadu","latitude":11.341,"longitude":77.7172,"temp":28.2,"humidity":58,"rain":0.0,"pressure":991.1,"uv_index":9.0,"wind_gusts":23.0,"aqi":126,"pm10":49.6,"pm2_5":48.7,"mosquito_risk":4,"arthritis_risk":5,"migraine_risk":7,"frizz_risk":1,"updated_at":"2026-03-02T22:24:19.379839+05:30"},{"city":"Kochi","state":"Kerala","latitude":9.9312,"longitude":76.2673,"temp":28.4,"humidity":79,"rain":0.0,"pressure":1010.7,"uv_index":8.9,"wind_gusts":35.6,"aqi":97,"pm10":53.2,"pm2_5":52.0,"mosquito_risk":7,"arthritis_risk":0,"migraine_risk":4,"frizz_risk":1,"updated_at":"2026-03-02T22:24:19.379846+05:30"},{"city":"Thiruvananthapuram","state":"Kerala","latitude":8.5241,"longitude":76.9366,"temp":27.5,"humidity":80,"rain":0.0,"pressure":1010.3,"uv_index":8.85,"wind_gusts":27.7,"aqi":121,"pm10":32.6,"pm2_5":29.7,"mosquito_risk":7,"arthritis_risk":0,"migraine_risk":4,"frizz_risk":1,"updated_at":"2026-03-02T22:24:19.379853+05:30"},{"city":"Kozhikode","state":"Kerala","latitude":11.2588,"longitude":75.7804,"temp":28.6,"humidity":78,"rain":0.0,"pressure":1009.5,"uv_index":8.75,"wind_gusts":31.7,"aqi":57,"pm10":21.9,"pm2_5":16.9,"mosquito_risk":7,"arthritis_risk":0,"migraine_risk":4,"frizz_risk":1,"updated_at":"2026-03-02T22:24:19.379859+05:30"},{"city":"Thrissur","state":"Kerala","latitude":10.5276,"longitude":76.2144,"temp":26.6,"humidity":88,"rain":0.0,"pressure":1009.0,"uv_index":8.85,"wind_gusts":38.5,"aqi":93,"pm10":36.3,"pm2_5":34.0,"mosquito_risk":7,"arthritis_risk":0,"migraine_risk":4,"frizz_risk":1,"updated_at":"2026-03-02T22:24:19.379866+05:30"},{"city":"Kannur","state":"Kerala","latitude":11.8745,"longitude":75.3704,"temp":28.0,"humidity":76,"rain":0.0,"pressure":1009.3,"uv_index":8.75,"wind_gusts":34.9,"aqi":58,"pm10":20.4,"pm2_5":16.6,"mosquito_risk":7,"arthritis_risk":0,"migraine_risk":4,"frizz_risk":1,"updated_at":"2026-03-02T22:24:19.379873+05:30"},{"city":"Patna","state":"Bihar","latitude":25.5941,"longitude":85.1376,"temp":21.3,"humidity":51,"rain":0.0,"pressure":1004.1,"uv_index":7.05,"wind_gusts":28.8,"aqi":124,"pm10":66.8,"pm2_5":49.2,"mosquito_risk":0,"arthritis_risk":5,"migraine_risk":4,"frizz_risk":0,"updated_at":"2026-03-02T22:24:19.379879+05:30"},{"city":"Gaya","state":"Bihar","latitude":24.7914,"longitude":85.0002,"temp":19.3,"humidity":55,"rain":0.0,"pressure":998.0,"uv_index":7.15,"wind_gusts":23.8,"aqi":116,"pm10":56.9,"pm2_5":36.7,"mosquito_risk":0,"arthritis_risk":5,"migraine_risk":7,"frizz_risk":0,"updated_at":"2026-03-02T22:24:19.379885+05:30"},{"city":"Muzaffarpur","state":"Bihar","latitude":26.1209,"longitude":85.3647,"temp":20.0,"humidity":53,"rain":0.0,"pressure":1003.9,"uv_index":7.0,"wind_gusts":27.0,"aqi":119,"pm10":69.2,"pm2_5":53.3,"mosquito_risk":0,"arthritis_risk":5,"migraine_risk":4,"frizz_risk":0,"updated_at":"2026-03-02T22:24:19.379892+05:30"},{"city":"Bhagalpur","state":"Bihar","latitude":25.2425,"longitude":87.0117,"temp":21.4,"humidity":54,"rain":0.0,"pressure":1004.9,"uv_index":7.1,"wind_gusts":19.4,"aqi":136,"pm10":111.8,"pm2_5":58.7,"mosquito_risk":0,"arthritis_risk":5,"migraine_risk":4,"frizz_risk":0,"updated_at":"2026-03-02T22:24:19.379899+05:30"},{"city":"Ranchi","state":"Jharkhand","latitude":23.3441,"longitude":85.3096,"temp":19.4,"humidity":37,"rain":0.0,"pressure":941.2,"uv_index":7.8,"wind_gusts":40.3,"aqi":86,"pm10":40.5,"pm2_5":22.8,"mosquito_risk":0,"arthritis_risk":5,"migraine_risk":7,"frizz_risk":0,"updated_at":"2026-03-02T22:24:19.379905+05:30"},{"city":"Jamshedpur","state":"Jharkhand","latitude":22.8046,"longitude":86.2029,"temp":23.4,"humidity":43,"rain":0.0,"pressure":994.3,"uv_index":7.75,"wind_gusts":18.7,"aqi":126,"pm10":57.3,"pm2_5":34.7,"mosquito_risk":0,"arthritis_risk":5,"migraine_risk":7,"frizz_risk":0,"updated_at":"2026-03-02T22:24:19.379928+05:30"},{"city":"Dhanbad","state":"Jharkhand","latitude":23.7957,"longitude":86.4304,"temp":23.5,"humidity":31,"rain":0.0,"pressure":983.6,"uv_index":7.6,"wind_gusts":33.8,"aqi":120,"pm10":64.3,"pm2_5":39.8,"mosquito_risk":0,"arthritis_risk":5,"migraine_risk":7,"frizz_risk":0,"updated_at":"2026-03-02T22:24:19.379936+05:30"},{"city":"Bokaro","state":"Jharkhand","latitude":23.6693,"longitude":86.1511,"temp":21.3,"humidity":41,"rain":0.0,"pressure":988.0,"uv_index":7.6,"wind_gusts":37.1,"aqi":123,"pm10":64.0,"pm2_5":41.2,"mosquito_risk":0,"arthritis_risk":5,"migraine_risk":7,"frizz_risk":0,"updated_at":"2026-03-02T22:24:19.379943+05:30"},{"city":"Bhubaneswar","state":"Odisha","latitude":20.2961,"longitude":85.8245,"temp":25.7,"humidity":82,"rain":0.0,"pressure":1005.5,"uv_index":8.05,"wind_gusts":25.2,"aqi":148,"pm10":71.9,"pm2_5":66.8,"mosquito_risk":7,"arthritis_risk":5,"migraine_risk":4,"frizz_risk":1,"updated_at":"2026-03-02T22:24:19.379949+05:30"},{"city":"Cuttack","state":"Odisha","latitude":20.4625,"longitude":85.8828,"temp":26.2,"humidity":79,"rain":0.0,"pressure":1007.4,"uv_index":8.1,"wind_gusts":21.2,"aqi":148,"pm10":71.9,"pm2_5":66.8,"mosquito_risk":7,"arthritis_risk":5,"migraine_risk":4,"frizz_risk":1,"updated_at":"2026-03-02T22:24:19.379956+05:30"},{"city":"Rourkela","state":"Odisha","latitude":22.2604,"longitude":84.8536,"temp":24.0,"humidity":45,"rain":0.0,"pressure":988.7,"uv_index":7.65,"wind_gusts":24.8,"aqi":104,"pm10":54.9,"pm2_5":41.7,"mosquito_risk":0,"arthritis_risk":5,"migraine_risk":7,"frizz_risk":0,"updated_at":"2026-03-02T22:24:19.379963+05:30"},{"city":"Raipur","state":"Chhattisgarh","latitude":21.2514,"longitude":81.6296,"temp":26.7,"humidity":45,"rain":0.0,"pressure":977.8,"uv_index":7.75,"wind_gusts":24.1,"aqi":94,"pm10":68.2,"pm2_5":57.9,"mosquito_risk":4,"arthritis_risk":5,"migraine_risk":7,"frizz_risk":0,"updated_at":"2026-03-02T22:24:19.379969+05:30"},{"city":"Bhilai","state":"Chhattisgarh","latitude":21.1938,"longitude":81.3509,"temp":25.6,"humidity":53,"rain":0.0,"pressure":978.4,"uv_index":7.8,"wind_gusts":22.7,"aqi":88,"pm10":64.0,"pm2_5":54.9,"mosquito_risk":4,"arthritis_risk":5,"migraine_risk":7,"frizz_risk":0,"updated_at":"2026-03-02T22:24:19.379975+05:30"},{"city":"Guwahati","state":"Assam","latitude":26.1158,"longitude":91.7086,"temp":22.6,"humidity":78,"rain":0.0,"pressure":1005.7,"uv_index":7.0,"wind_gusts":28.4,"aqi":152,"pm10":73.3,"pm2_5":61.5,"mosquito_risk":3,"arthritis_risk":5,"migraine_risk":4,"frizz_risk":1,"updated_at":"2026-03-02T22:24:19.379982+05:30"},{"city":"Agartala","state":"Tripura","latitude":23.8315,"longitude":91.2868,"temp":22.3,"humidity":90,"rain":0.0,"pressure":1009.4,"uv_index":7.3,"wind_gusts":18.0,"aqi":150,"pm10":129.0,"pm2_5":111.8,"mosquito_risk":3,"arthritis_risk":0,"migraine_risk":4,"frizz_risk":1,"updated_at":"2026-03-02T22:24:19.379988+05:30"},{"city":"Shillong","state":"Meghalaya","latitude":25.5788,"longitude":91.8933,"temp":9.3,"humidity":88,"rain":0.0,"pressure":855.8,"uv_index":7.35,"wind_gusts":66.2,"aqi":112,"pm10":55.6,"pm2_5":47.4,"mosquito_risk":3,"arthritis_risk":10,"migraine_risk":7,"frizz_risk":0,"updated_at":"2026-03-02T22:24:19.379995+05:30"},{"city":"Imphal","state":"Manipur","latitude":24.817,"longitude":93.9368,"temp":14.1,"humidity":75,"rain":0.0,"pressure":925.0,"uv_index":7.6,"wind_gusts":72.4,"aqi":152,"pm10":104.1,"pm2_5":86.4,"mosquito_risk":3,"arthritis_risk":5,"migraine_risk":7,"frizz_risk":0,"updated_at":"2026-03-02T22:24:19.380002+05:30"},{"city":"Aizawl","state":"Mizoram","latitude":23.7271,"longitude":92.7176,"temp":16.8,"humidity":82,"rain":0.0,"pressure":894.1,"uv_index":7.6,"wind_gusts":42.8,"aqi":149,"pm10":86.8,"pm2_5":81.0,"mosquito_risk":3,"arthritis_risk":10,"migraine_risk":7,"frizz_risk":0,"updated_at":"2026-03-02T22:24:19.380009+05:30"},{"city":"Kohima","state":"Nagaland","latitude":25.6701,"longitude":94.1077,"temp":12.7,"humidity":79,"rain":0.0,"pressure":856.0,"uv_index":7.45,"wind_gusts":82.8,"aqi":146,"pm10":83.8,"pm2_5":73.1,"mosquito_risk":3,"arthritis_risk":5,"migraine_risk":7,"frizz_risk":0,"updated_at":"2026-03-02T22:24:19.380015+05:30"},{"city":"Gangtok","state":"Sikkim","latitude":27.3314,"longitude":88.6138,"temp":11.3,"humidity":83,"rain":0.0,"pressure":837.6,"uv_index":5.8,"wind_gusts":19.4,"aqi":125,"pm10":84.8,"pm2_5":64.5,"mosquito_risk":3,"arthritis_risk":10,"migraine_risk":3,"frizz_risk":0,"updated_at":"2026-03-02T22:24:19.380021+05:30"},{"city":"Siliguri","state":"West Bengal","latitude":26.7271,"longitude":88.3953,"temp":19.4,"humidity":67,"rain":0.0,"pressure":997.6,"uv_index":7.0,"wind_gusts":20.5,"aqi":168,"pm10":122.9,"pm2_5":93.4,"mosquito_risk":3,"arthritis_risk":5,"migraine_risk":7,"frizz_risk":0,"updated_at":"2026-03-02T22:24:22.653034+05:30"},{"city":"Durgapur","state":"West Bengal","latitude":23.5204,"longitude":87.3119,"temp":24.0,"humidity":31,"rain":0.0,"pressure":998.8,"uv_index":7.6,"wind_gusts":26.3,"aqi":115,"pm10":56.0,"pm2_5":31.8,"mosquito_risk":0,"arthritis_risk":5,"migraine_risk":7,"frizz_risk":0,"updated_at":"2026-03-02T22:24:22.653064+05:30"},{"city":"Asansol","state":"West Bengal","latitude":23.6739,"longitude":86.9524,"temp":25.1,"humidity":30,"rain":0.0,"pressure":997.3,"uv_index":7.6,"wind_gusts":28.4,"aqi":99,"pm10":51.7,"pm2_5":28.8,"mosquito_risk":4,"arthritis_risk":5,"migraine_risk":7,"frizz_risk":0,"updated_at":"2026-03-02T22:24:22.653074+05:30"},{"city":"Pondicherry","state":"Puducherry","latitude":11.9139,"longitude":79.8145,"temp":23.4,"humidity":88,"rain":0.0,"pressure":1011.6,"uv_index":8.8,"wind_gusts":29.5,"aqi":120,"pm10":39.2,"pm2_5":35.0,"mosquito_risk":3,"arthritis_risk":0,"migraine_risk":4,"frizz_risk":1,"updated_at":"2026-03-02T22:24:22.653082+05:30"},{"city":"Port Blair","state":"Andaman and Nicobar Islands","latitude":11.6234,"longitude":92.7265,"temp":27.8,"humidity":73,"rain":0.0,"pressure":1009.2,"uv_index":8.75,"wind_gusts":16.2,"aqi":80,"pm10":33.3,"pm2_5":25.8,"mosquito_risk":7,"arthritis_risk":0,"migraine_risk":4,"frizz_risk":1,"updated_at":"2026-03-02T22:24:22.653090+05:30"},{"city":"Haridwar","state":"Uttarakhand","latitude":29.9457,"longitude":78.1642,"temp":18.2,"humidity":67,"rain":0.0,"pressure":977.6,"uv_index":5.55,"wind_gusts":41.8,"aqi":106,"pm10":44.9,"pm2_5":37.4,"mosquito_risk":3,"arthritis_risk":5,"migraine_risk":3,"frizz_risk":0,"updated_at":"2026-03-02T22:24:22.653097+05:30"},{"city":"Rishikesh","state":"Uttarakhand","latitude":30.0869,"longitude":78.2676,"temp":16.5,"humidity":70,"rain":0.0,"pressure":970.1,"uv_index":5.6,"wind_gusts":31.3,"aqi":112,"pm10":34.1,"pm2_5":31.2,"mosquito_risk":3,"arthritis_risk":5,"migraine_risk":3,"frizz_risk":0,"updated_at":"2026-03-02T22:24:22.653104+05:30"},{"city":"Nainital","state":"Uttarakhand","latitude":29.3919,"longitude":79.4542,"temp":14.7,"humidity":59,"rain":0.0,"pressure":806.5,"uv_index":6.4,"wind_gusts":45.7,"aqi":112,"pm10":34.3,"pm2_5":24.9,"mosquito_risk":0,"arthritis_risk":5,"migraine_risk":7,"frizz_risk":0,"updated_at":"2026-03-02T22:24:22.653111+05:30"},{"city":"Mussoorie","state":"Uttarakhand","latitude":30.4599,"longitude":78.0664,"temp":13.4,"humidity":60,"rain":0.0,"pressure":803.1,"uv_index":5.9,"wind_gusts":33.8,"aqi":101,"pm10":42.0,"pm2_5":39.5,"mosquito_risk":0,"arthritis_risk":5,"migraine_risk":3,"frizz_risk":0,"updated_at":"2026-03-02T22:24:22.653118+05:30"},{"city":"Dharamshala","state":"Himachal Pradesh","latitude":32.219,"longitude":76.3234,"temp":17.6,"humidity":47,"rain":0.0,"pressure":871.6,"uv_index":6.1,"wind_gusts":26.3,"aqi":106,"pm10":29.6,"pm2_5":24.4,"mosquito_risk":0,"arthritis_risk":5,"migraine_risk":7,"frizz_risk":0,"updated_at":"2026-03-02T22:24:22.653125+05:30"},{"city":"Dalhousie","state":"Himachal Pradesh","latitude":32.5387,"longitude":75.971,"temp":14.2,"humidity":48,"rain":0.0,"pressure":805.2,"uv_index":6.35,"wind_gusts":22.3,"aqi":100,"pm10":59.8,"pm2_5":53.7,"mosquito_risk":0,"arthritis_risk":5,"migraine_risk":7,"frizz_risk":0,"updated_at":"2026-03-02T22:24:22.653132+05:30"},{"city":"Patiala","state":"Punjab","latitude":30.3398,"longitude":76.3869,"temp":18.1,"humidity":65,"rain":0.0,"pressure":982.5,"uv_index":5.55,"wind_gusts":37.4,"aqi":158,"pm10":296.2,"pm2_5":69.8,"mosquito_risk":3,"arthritis_risk":5,"migraine_risk":3,"frizz_risk":0,"updated_at":"2026-03-02T22:24:22.653139+05:30"},{"city":"Bhatinda","state":"Punjab","latitude":30.211,"longitude":74.9455,"temp":19.3,"humidity":68,"rain":0.0,"pressure":988.6,"uv_index":6.2,"wind_gusts":24.8,"aqi":156,"pm10":63.3,"pm2_5":53.4,"mosquito_risk":3,"arthritis_risk":5,"migraine_risk":7,"frizz_risk":0,"updated_at":"2026-03-02T22:24:22.653145+05:30"},{"city":"Rohtak","state":"Haryana","latitude":28.8955,"longitude":76.6066,"temp":18.7,"humidity":71,"rain":0.0,"pressure":986.4,"uv_index":5.75,"wind_gusts":34.9,"aqi":305,"pm10":530.9,"pm2_5":104.1,"mosquito_risk":3,"arthritis_risk":5,"migraine_risk":3,"frizz_risk":0,"updated_at":"2026-03-02T22:24:22.653152+05:30"},{"city":"Panipat","state":"Haryana","latitude":29.3909,"longitude":76.9635,"temp":17.7,"humidity":70,"rain":0.0,"pressure":984.7,"uv_index":5.55,"wind_gusts":35.3,"aqi":727,"pm10":907.1,"pm2_5":141.6,"mosquito_risk":3,"arthritis_risk":5,"migraine_risk":3,"frizz_risk":0,"updated_at":"2026-03-02T22:24:22.653158+05:30"},{"city":"Mathura","state":"Uttar Pradesh","latitude":27.4924,"longitude":77.6737,"temp":21.4,"humidity":64,"rain":0.0,"pressure":991.5,"uv_index":6.0,"wind_gusts":29.2,"aqi":421,"pm10":741.3,"pm2_5":120.1,"mosquito_risk":3,"arthritis_risk":5,"migraine_risk":3,"frizz_risk":0,"updated_at":"2026-03-02T22:24:22.653165+05:30"},{"city":"Vrindavan","state":"Uttar Pradesh","latitude":27.5823,"longitude":77.7027,"temp":19.6,"humidity":72,"rain":0.0,"pressure":991.9,"uv_index":5.95,"wind_gusts":31.3,"aqi":421,"pm10":741.3,"pm2_5":120.1,"mosquito_risk":3,"arthritis_risk":5,"migraine_risk":3,"frizz_risk":0,"updated_at":"2026-03-02T22:24:22.653171+05:30"},{"city":"Ayodhya","state":"Uttar Pradesh","latitude":26.7922,"longitude":82.1998,"temp":19.5,"humidity":53,"rain":0.0,"pressure":999.3,"uv_index":6.4,"wind_gusts":34.6,"aqi":125,"pm10":106.2,"pm2_5":51.1,"mosquito_risk":0,"arthritis_risk":5,"migraine_risk":7,"frizz_risk":0,"updated_at":"2026-03-02T22:24:22.653177+05:30"},{"city":"Ratlam","state":"Madhya Pradesh","latitude":23.3315,"longitude":75.0367,"temp":24.8,"humidity":52,"rain":0.0,"pressure":958.5,"uv_index":7.25,"wind_gusts":7.2,"aqi":104,"pm10":39.1,"pm2_5":33.9,"mosquito_risk":0,"arthritis_risk":5,"migraine_risk":7,"frizz_risk":0,"updated_at":"2026-03-02T22:24:22.653184+05:30"},{"city":"Sagar","state":"Madhya Pradesh","latitude":23.8388,"longitude":78.7378,"temp":23.9,"humidity":40,"rain":0.0,"pressure":954.0,"uv_index":7.2,"wind_gusts":25.2,"aqi":74,"pm10":30.9,"pm2_5":19.6,"mosquito_risk":0,"arthritis_risk":5,"migraine_risk":7,"frizz_risk":0,"updated_at":"2026-03-02T22:24:22.653190+05:30"},{"city":"Satna","state":"Madhya Pradesh","latitude":24.6005,"longitude":80.8322,"temp":22.7,"humidity":40,"rain":0.0,"pressure":975.7,"uv_index":7.15,"wind_gusts":38.2,"aqi":77,"pm10":34.5,"pm2_5":20.4,"mosquito_risk":0,"arthritis_risk":5,"migraine_risk":7,"frizz_risk":0,"updated_at":"2026-03-02T22:24:22.653197+05:30"},{"city":"Akola","state":"Maharashtra","latitude":20.7002,"longitude":77.0082,"temp":26.5,"humidity":48,"rain":0.0,"pressure":978.5,"uv_index":7.75,"wind_gusts":25.9,"aqi":100,"pm10":28.8,"pm2_5":27.6,"mosquito_risk":4,"arthritis_risk":5,"migraine_risk":7,"frizz_risk":0,"updated_at":"2026-03-02T22:24:22.653204+05:30"},{"city":"Amravati","state":"Maharashtra","latitude":20.9374,"longitude":77.7796,"temp":24.2,"humidity":46,"rain":0.0,"pressure":970.4,"uv_index":7.7,"wind_gusts":24.5,"aqi":98,"pm10":34.3,"pm2_5":32.9,"mosquito_risk":0,"arthritis_risk":5,"migraine_risk":7,"frizz_risk":0,"updated_at":"2026-03-02T22:24:22.653211+05:30"},{"city":"Latur","state":"Maharashtra","latitude":18.4088,"longitude":76.5604,"temp":25.5,"humidity":55,"rain":0.0,"pressure":942.6,"uv_index":8.15,"wind_gusts":26.3,"aqi":149,"pm10":33.9,"pm2_5":33.5,"mosquito_risk":4,"arthritis_risk":5,"migraine_risk":7,"frizz_risk":0,"updated_at":"2026-03-02T22:24:22.653218+05:30"},{"city":"Nanded","state":"Maharashtra","latitude":19.1383,"longitude":77.3091,"temp":27.6,"humidity":53,"rain":0.0,"pressure":971.5,"uv_index":7.95,"wind_gusts":17.3,"aqi":106,"pm10":51.9,"pm2_5":51.0,"mosquito_risk":4,"arthritis_risk":5,"migraine_risk":7,"frizz_risk":1,"updated_at":"2026-03-02T22:24:22.653224+05:30"},{"city":"Gulbarga","state":"Karnataka","latitude":17.3297,"longitude":76.8343,"temp":27.7,"humidity":59,"rain":0.0,"pressure":961.3,"uv_index":8.25,"wind_gusts":19.4,"aqi":160,"pm10":61.5,"pm2_5":60.8,"mosquito_risk":4,"arthritis_risk":5,"migraine_risk":7,"frizz_risk":1,"updated_at":"2026-03-02T22:24:22.653230+05:30"},{"city":"Bidar","state":"Karnataka","latitude":17.9104,"longitude":77.5199,"temp":25.8,"humidity":52,"rain":0.0,"pressure":938.3,"uv_index":8.2,"wind_gusts":16.2,"aqi":150,"pm10":28.3,"pm2_5":27.9,"mosquito_risk":4,"arthritis_risk":5,"migraine_risk":7,"frizz_risk":0,"updated_at":"2026-03-02T22:24:22.653236+05:30"},{"city":"Hospet","state":"Karnataka","latitude":15.2689,"longitude":76.3909,"temp":29.8,"humidity":45,"rain":0.0,"pressure":957.7,"uv_index":8.6,"wind_gusts":21.2,"aqi":170,"pm10":50.2,"pm2_5":49.7,"mosquito_risk":4,"arthritis_risk":5,"migraine_risk":7,"frizz_risk":1,"updated_at":"2026-03-02T22:24:22.653242+05:30"},{"city":"Tirupur","state":"Tamil Nadu","latitude":11.1085,"longitude":77.3411,"temp":28.0,"humidity":54,"rain":0.0,"pressure":977.6,"uv_index":9.1,"wind_gusts":33.5,"aqi":148,"pm10":64.0,"pm2_5":62.9,"mosquito_risk":4,"arthritis_risk":5,"migraine_risk":7,"frizz_risk":1,"updated_at":"2026-03-02T22:24:22.653248+05:30"},{"city":"Alappuzha","state":"Kerala","latitude":9.4981,"longitude":76.3388,"temp":28.2,"humidity":80,"rain":0.0,"pressure":1010.9,"uv_index":8.9,"wind_gusts":32.8,"aqi":114,"pm10":38.9,"pm2_5":35.6,"mosquito_risk":7,"arthritis_risk":0,"migraine_risk":4,"frizz_risk":1,"updated_at":"2026-03-02T22:24:22.653254+05:30"},{"city":"Munnar","state":"Kerala","latitude":10.0889,"longitude":77.0595,"temp":21.3,"humidity":72,"rain":0.0,"pressure":858.5,"uv_index":9.4,"wind_gusts":22.0,"aqi":125,"pm10":50.2,"pm2_5":49.2,"mosquito_risk":3,"arthritis_risk":5,"migraine_risk":7,"frizz_risk":0,"updated_at":"2026-03-02T22:24:22.653261+05:30"},{"city":"Silchar","state":"Assam","latitude":24.8333,"longitude":92.7789,"temp":21.5,"humidity":78,"rain":0.0,"pressure":1008.0,"uv_index":7.35,"wind_gusts":18.7,"aqi":154,"pm10":113.2,"pm2_5":92.0,"mosquito_risk":3,"arthritis_risk":0,"migraine_risk":4,"frizz_risk":1,"updated_at":"2026-03-02T22:24:22.653266+05:30"},{"city":"Dibrugarh","state":"Assam","latitude":27.4728,"longitude":94.912,"temp":20.4,"humidity":91,"rain":0.0,"pressure":1000.7,"uv_index":7.05,"wind_gusts":12.6,"aqi":151,"pm10":106.2,"pm2_5":88.7,"mosquito_risk":3,"arthritis_risk":5,"migraine_risk":4,"frizz_risk":1,"updated_at":"2026-03-02T22:24:22.653272+05:30"}]