[{"city":"Delhi","state":"Delhi","latitude":28.6139,"longitude":77.209,"temp":26.0,"humidity":92,"rain":0.0,"pressure":977.7,"uv_index":6.7,"wind_gusts":37.4,"aqi":78,"pm10":27.9,"pm2_5":27.6,"no2":16.8,"co":386.0,"o3":64.0,"so2":18.0,"mosquito_risk":7,"arthritis_risk":5,"migraine_risk":7,"frizz_risk":1,"updated_at":"2026-07-22T05:31:08.676545+05:30"},{"city":"Mumbai","state":"Maharashtra","latitude":19.076,"longitude":72.8777,"temp":26.0,"humidity":90,"rain":0.6,"pressure":1004.5,"uv_index":1.45,"wind_gusts":54.7,"aqi":61,"pm10":28.0,"pm2_5":12.0,"no2":3.7,"co":108.0,"o3":45.0,"so2":3.3,"mosquito_risk":10,"arthritis_risk":5,"migraine_risk":0,"frizz_risk":1,"updated_at":"2026-07-22T05:31:08.676599+05:30"},{"city":"Bangalore","state":"Karnataka","latitude":12.9716,"longitude":77.5946,"temp":19.6,"humidity":98,"rain":0.0,"pressure":911.0,"uv_index":7.65,"wind_gusts":49.7,"aqi":46,"pm10":6.7,"pm2_5":5.2,"no2":9.7,"co":196.0,"o3":26.0,"so2":5.4,"mosquito_risk":3,"arthritis_risk":10,"migraine_risk":7,"frizz_risk":1,"updated_at":"2026-07-22T05:31:08.676615+05:30"},{"city":"Hyderabad","state":"Telangana","latitude":17.385,"longitude":78.4867,"temp":22.8,"humidity":92,"rain":0.2,"pressure":950.2,"uv_index":4.75,"wind_gusts":56.2,"aqi":49,"pm10":6.6,"pm2_5":4.1,"no2":7.0,"co":143.0,"o3":31.0,"so2":3.8,"mosquito_risk":6,"arthritis_risk":5,"migraine_risk":3,"frizz_risk":1,"updated_at":"2026-07-22T05:31:08.676624+05:30"},{"city":"Chennai","state":"Tamil Nadu","latitude":13.0827,"longitude":80.2707,"temp":27.4,"humidity":79,"rain":0.0,"pressure":1006.1,"uv_index":8.8,"wind_gusts":37.8,"aqi":81,"pm10":30.2,"pm2_5":21.7,"no2":17.1,"co":260.0,"o3":45.0,"so2":15.7,"mosquito_risk":7,"arthritis_risk":5,"migraine_risk":4,"frizz_risk":1,"updated_at":"2026-07-22T05:31:08.676633+05:30"},{"city":"Kolkata","state":"West Bengal","latitude":22.5726,"longitude":88.3639,"temp":25.0,"humidity":97,"rain":0.0,"pressure":1001.3,"uv_index":4.1,"wind_gusts":31.3,"aqi":59,"pm10":11.2,"pm2_5":11.0,"no2":15.2,"co":265.0,"o3":48.0,"so2":7.3,"mosquito_risk":7,"arthritis_risk":5,"migraine_risk":0,"frizz_risk":1,"updated_at":"2026-07-22T05:31:08.676640+05:30"},{"city":"Pune","state":"Maharashtra","latitude":18.5204,"longitude":73.8567,"temp":22.6,"humidity":92,"rain":0.1,"pressure":943.7,"uv_index":1.6,"wind_gusts":52.6,"aqi":23,"pm10":1.0,"pm2_5":0.9,"no2":3.5,"co":106.0,"o3":39.0,"so2":2.8,"mosquito_risk":6,"arthritis_risk":5,"migraine_risk":3,"frizz_risk":1,"updated_at":"2026-07-22T05:31:08.676647+05:30"},{"city":"Ahmedabad","state":"Gujarat","latitude":23.0225,"longitude":72.5714,"temp":26.3,"humidity":91,"rain":0.0,"pressure":995.1,"uv_index":2.45,"wind_gusts":29.2,"aqi":63,"pm10":17.0,"pm2_5":9.6,"no2":8.9,"co":131.0,"o3":32.0,"so2":5.0,"mosquito_risk":7,"arthritis_risk":5,"migraine_risk":3,"frizz_risk":1,"updated_at":"2026-07-22T05:31:08.676654+05:30"},{"city":"Jaipur","state":"Rajasthan","latitude":26.9124,"longitude":75.7873,"temp":25.4,"humidity":93,"rain":0.1,"pressure":953.0,"uv_index":7.3,"wind_gusts":29.2,"aqi":60,"pm10":16.6,"pm2_5":14.9,"no2":15.5,"co":200.0,"o3":56.0,"so2":6.6,"mosquito_risk":10,"arthritis_risk":5,"migraine_risk":7,"frizz_risk":1,"updated_at":"2026-07-22T05:31:08.676661+05:30"},{"city":"Lucknow","state":"Uttar Pradesh","latitude":26.8467,"longitude":80.9462,"temp":26.3,"humidity":88,"rain":0.0,"pressure":988.0,"uv_index":6.1,"wind_gusts":48.6,"aqi":78,"pm10":31.7,"pm2_5":31.2,"no2":13.2,"co":337.0,"o3":59.0,"so2":9.5,"mosquito_risk":7,"arthritis_risk":5,"migraine_risk":7,"frizz_risk":1,"updated_at":"2026-07-22T05:31:08.676670+05:30"},{"city":"Kanpur","state":"Uttar Pradesh","latitude":26.4499,"longitude":80.3319,"temp":26.6,"humidity":89,"rain":0.0,"pressure":985.9,"uv_index":6.55,"wind_gusts":43.9,"aqi":74,"pm10":34.6,"pm2_5":34.0,"no2":13.2,"co":305.0,"o3":61.0,"so2":8.9,"mosquito_risk":7,"arthritis_risk":5,"migraine_risk":7,"frizz_risk":1,"updated_at":"2026-07-22T05:31:08.676677+05:30"},{"city":"Chandigarh","state":"Chandigarh","latitude":30.7333,"longitude":76.7794,"temp":26.9,"humidity":77,"rain":0.0,"pressure":964.5,"uv_index":7.55,"wind_gusts":38.5,"aqi":82,"pm10":17.2,"pm2_5":17.1,"no2":15.2,"co":233.0,"o3":53.0,"so2":5.7,"mosquito_risk":7,"arthritis_risk":5,"migraine_risk":7,"frizz_risk":1,"updated_at":"2026-07-22T05:31:08.676684+05:30"},{"city":"Srinagar","state":"Jammu and Kashmir","latitude":34.0837,"longitude":74.7973,"temp":18.9,"humidity":96,"rain":0.2,"pressure":838.9,"uv_index":8.95,"wind_gusts":17.3,"aqi":61,"pm10":17.3,"pm2_5":16.7,"no2":21.0,"co":266.0,"o3":34.0,"so2":3.4,"mosquito_risk":6,"arthritis_risk":10,"migraine_risk":7,"frizz_risk":1,"updated_at":"2026-07-22T05:31:08.676690+05:30"},{"city":"Jammu","state":"Jammu and Kashmir","latitude":32.7266,"longitude":74.857,"temp":23.3,"humidity":93,"rain":0.1,"pressure":968.5,"uv_index":5.9,"wind_gusts":36.7,"aqi":71,"pm10":15.6,"pm2_5":14.6,"no2":19.9,"co":240.0,"o3":49.0,"so2":2.3,"mosquito_risk":6,"arthritis_risk":5,"migraine_risk":3,"frizz_risk":1,"updated_at":"2026-07-22T05:31:08.676696+05:30"},{"city":"Amritsar","state":"Punjab","latitude":31.634,"longitude":74.8723,"temp":25.9,"humidity":82,"rain":0.0,"pressure":975.8,"uv_index":7.25,"wind_gusts":33.8,"aqi":83,"pm10":29.0,"pm2_5":28.9,"no2":16.7,"co":497.0,"o3":61.0,"so2":6.2,"mosquito_risk":7,"arthritis_risk":5,"migraine_risk":7,"frizz_risk":1,"updated_at":"2026-07-22T05:31:08.676702+05:30"},{"city":"Ludhiana","state":"Punjab","latitude":30.901,"longitude":75.8573,"temp":26.2,"humidity":91,"rain":0.1,"pressure":973.7,"uv_index":7.0,"wind_gusts":34.9,"aqi":90,"pm10":23.0,"pm2_5":23.0,"no2":14.2,"co":340.0,"o3":65.0,"so2":9.0,"mosquito_risk":10,"arthritis_risk":5,"migraine_risk":7,"frizz_risk":1,"updated_at":"2026-07-22T05:31:08.676707+05:30"},{"city":"Jalandhar","state":"Punjab","latitude":31.326,"longitude":75.5762,"temp":25.9,"humidity":87,"rain":0.0,"pressure":974.8,"uv_index":7.15,"wind_gusts":37.8,"aqi":91,"pm10":29.2,"pm2_5":29.0,"no2":16.7,"co":351.0,"o3":63.0,"so2":13.1,"mosquito_risk":7,"arthritis_risk":5,"migraine_risk":7,"frizz_risk":1,"updated_at":"2026-07-22T05:31:08.676713+05:30"},{"city":"Dehradun","state":"Uttarakhand","latitude":30.6284,"longitude":78.0322,"temp":16.8,"humidity":98,"rain":0.2,"pressure":827.9,"uv_index":4.75,"wind_gusts":22.3,"aqi":36,"pm10":3.6,"pm2_5":3.6,"no2":7.2,"co":208.0,"o3":83.0,"so2":1.1,"mosquito_risk":6,"arthritis_risk":10,"migraine_risk":3,"frizz_risk":1,"updated_at":"2026-07-22T05:31:08.676719+05:30"},{"city":"Shimla","state":"Himachal Pradesh","latitude":31.1048,"longitude":77.1734,"temp":14.6,"humidity":99,"rain":0.2,"pressure":781.6,"uv_index":4.65,"wind_gusts":28.8,"aqi":44,"pm10":5.1,"pm2_5":4.7,"no2":5.9,"co":270.0,"o3":79.0,"so2":0.4,"mosquito_risk":6,"arthritis_risk":10,"migraine_risk":3,"frizz_risk":0,"updated_at":"2026-07-22T05:31:08.676725+05:30"},{"city":"Manali","state":"Himachal Pradesh","latitude":32.2396,"longitude":77.1887,"temp":19.0,"humidity":86,"rain":0.0,"pressure":816.6,"uv_index":4.25,"wind_gusts":26.6,"aqi":24,"pm10":3.0,"pm2_5":2.9,"no2":10.5,"co":267.0,"o3":44.0,"so2":0.0,"mosquito_risk":3,"arthritis_risk":10,"migraine_risk":3,"frizz_risk":1,"updated_at":"2026-07-22T05:31:08.676733+05:30"},{"city":"Gurgaon","state":"Haryana","latitude":28.4595,"longitude":77.0266,"temp":25.7,"humidity":95,"rain":0.0,"pressure":975.8,"uv_index":6.55,"wind_gusts":40.7,"aqi":74,"pm10":27.8,"pm2_5":27.6,"no2":13.8,"co":348.0,"o3":74.0,"so2":14.6,"mosquito_risk":7,"arthritis_risk":5,"migraine_risk":7,"frizz_risk":1,"updated_at":"2026-07-22T05:31:08.676740+05:30"},{"city":"Noida","state":"Uttar Pradesh","latitude":28.5355,"longitude":77.391,"temp":26.1,"humidity":92,"rain":0.0,"pressure":979.2,"uv_index":6.7,"wind_gusts":35.3,"aqi":74,"pm10":27.8,"pm2_5":27.6,"no2":13.8,"co":358.0,"o3":74.0,"so2":14.6,"mosquito_risk":7,"arthritis_risk":5,"migraine_risk":7,"frizz_risk":1,"updated_at":"2026-07-22T05:31:08.676746+05:30"},{"city":"Ghaziabad","state":"Uttar Pradesh","latitude":28.6692,"longitude":77.4538,"temp":26.0,"humidity":92,"rain":0.0,"pressure":977.6,"uv_index":6.6,"wind_gusts":38.9,"aqi":72,"pm10":27.8,"pm2_5":27.5,"no2":12.4,"co":370.0,"o3":64.0,"so2":9.0,"mosquito_risk":7,"arthritis_risk":5,"migraine_risk":7,"frizz_risk":1,"updated_at":"2026-07-22T05:31:08.676752+05:30"},{"city":"Faridabad","state":"Haryana","latitude":28.4089,"longitude":77.3178,"temp":25.8,"humidity":94,"rain":0.0,"pressure":978.3,"uv_index":6.5,"wind_gusts":38.5,"aqi":74,"pm10":27.8,"pm2_5":27.6,"no2":13.8,"co":343.0,"o3":74.0,"so2":14.6,"mosquito_risk":7,"arthritis_risk":5,"migraine_risk":7,"frizz_risk":1,"updated_at":"2026-07-22T05:31:08.676758+05:30"},{"city":"Meerut","state":"Uttar Pradesh","latitude":28.9845,"longitude":77.7064,"temp":25.9,"humidity":91,"rain":0.0,"pressure":976.8,"uv_index":6.85,"wind_gusts":41.8,"aqi":72,"pm10":27.8,"pm2_5":27.5,"no2":12.4,"co":351.0,"o3":64.0,"so2":9.0,"mosquito_risk":7,"arthritis_risk":5,"migraine_risk":7,"frizz_risk":1,"updated_at":"2026-07-22T05:31:08.676764+05:30"},{"city":"Agra","state":"Uttar Pradesh","latitude":27.1767,"longitude":78.0081,"temp":25.7,"humidity":96,"rain":0.0,"pressure":981.7,"uv_index":6.9,"wind_gusts":36.4,"aqi":68,"pm10":20.3,"pm2_5":20.1,"no2":10.0,"co":332.0,"o3":81.0,"so2":10.6,"mosquito_risk":7,"arthritis_risk":5,"migraine_risk":7,"frizz_risk":1,"updated_at":"2026-07-22T05:31:08.676769+05:30"},{"city":"Varanasi","state":"Uttar Pradesh","latitude":25.3176,"longitude":82.9739,"temp":25.6,"humidity":94,"rain":0.1,"pressure":991.9,"uv_index":7.9,"wind_gusts":50.4,"aqi":75,"pm10":19.2,"pm2_5":19.2,"no2":14.0,"co":368.0,"o3":46.0,"so2":8.5,"mosquito_risk":10,"arthritis_risk":5,"migraine_risk":7,"frizz_risk":1,"updated_at":"2026-07-22T05:31:08.676775+05:30"},{"city":"Prayagraj","state":"Uttar Pradesh","latitude":25.4358,"longitude":81.8463,"temp":25.8,"humidity":93,"rain":0.0,"pressure":989.9,"uv_index":7.75,"wind_gusts":41.8,"aqi":77,"pm10":21.2,"pm2_5":21.1,"no2":14.0,"co":515.0,"o3":56.0,"so2":8.2,"mosquito_risk":7,"arthritis_risk":5,"migraine_risk":7,"frizz_risk":1,"updated_at":"2026-07-22T05:31:08.676782+05:30"},{"city":"Gorakhpur","state":"Uttar Pradesh","latitude":26.7606,"longitude":83.3732,"temp":26.5,"humidity":87,"rain":0.0,"pressure":992.8,"uv_index":7.0,"wind_gusts":51.8,"aqi":76,"pm10":26.5,"pm2_5":26.3,"no2":13.6,"co":409.0,"o3":54.0,"so2":8.5,"mosquito_risk":7,"arthritis_risk":5,"migraine_risk":7,"frizz_risk":1,"updated_at":"2026-07-22T05:31:08.676787+05:30"},{"city":"Bareilly","state":"Uttar Pradesh","latitude":28.367,"longitude":79.4304,"temp":26.2,"humidity":88,"rain":0.0,"pressure":982.3,"uv_index":7.0,"wind_gusts":40.0,"aqi":65,"pm10":30.4,"pm2_5":30.0,"no2":13.9,"co":357.0,"o3":52.0,"so2":6.3,"mosquito_risk":7,"arthritis_risk":5,"migraine_risk":7,"frizz_risk":1,"updated_at":"2026-07-22T05:31:08.676794+05:30"},{"city":"Aligarh","state":"Uttar Pradesh","latitude":27.8974,"longitude":78.088,"temp":25.7,"humidity":95,"rain":0.0,"pressure":980.0,"uv_index":7.0,"wind_gusts":40.3,"aqi":71,"pm10":31.2,"pm2_5":30.6,"no2":11.5,"co":342.0,"o3":74.0,"so2":9.4,"mosquito_risk":7,"arthritis_risk":5,"migraine_risk":7,"frizz_risk":1,"updated_at":"2026-07-22T05:31:08.676800+05:30"},{"city":"Moradabad","state":"Uttar Pradesh","latitude":28.8386,"longitude":78.7733,"temp":25.9,"humidity":89,"rain":0.0,"pressure":979.4,"uv_index":7.25,"wind_gusts":44.6,"aqi":65,"pm10":26.6,"pm2_5":26.1,"no2":12.3,"co":292.0,"o3":58.0,"so2":6.7,"mosquito_risk":7,"arthritis_risk":5,"migraine_risk":7,"frizz_risk":1,"updated_at":"2026-07-22T05:31:08.676806+05:30"},{"city":"Saharanpur","state":"Uttar Pradesh","latitude":29.9637,"longitude":77.546,"temp":25.7,"humidity":91,"rain":0.0,"pressure":971.6,"uv_index":7.3,"wind_gusts":40.0,"aqi":72,"pm10":26.2,"pm2_5":25.6,"no2":19.3,"co":290.0,"o3":35.0,"so2":6.6,"mosquito_risk":7,"arthritis_risk":5,"migraine_risk":7,"frizz_risk":1,"updated_at":"2026-07-22T05:31:08.676811+05:30"},{"city":"Jhansi","state":"Uttar Pradesh","latitude":25.4484,"longitude":78.5685,"temp":25.4,"humidity":97,"rain":0.0,"pressure":970.9,"uv_index":7.6,"wind_gusts":36.4,"aqi":67,"pm10":13.6,"pm2_5":10.8,"no2":11.8,"co":249.0,"o3":54.0,"so2":3.7,"mosquito_risk":7,"arthritis_risk":5,"migraine_risk":7,"frizz_risk":1,"updated_at":"2026-07-22T05:31:18.871789+05:30"},{"city":"Surat","state":"Gujarat","latitude":21.1702,"longitude":72.8311,"temp":25.4,"humidity":96,"rain":0.1,"pressure":1000.7,"uv_index":0.85,"wind_gusts":40.3,"aqi":68,"pm10":24.6,"pm2_5":16.4,"no2":23.1,"co":319.0,"o3":19.0,"so2":35.3,"mosquito_risk":10,"arthritis_risk":5,"migraine_risk":0,"frizz_risk":1,"updated_at":"2026-07-22T05:31:18.871823+05:30"},{"city":"Vadodara","state":"Gujarat","latitude":22.3072,"longitude":73.1812,"temp":26.1,"humidity":95,"rain":0.0,"pressure":997.5,"uv_index":1.5,"wind_gusts":37.1,"aqi":60,"pm10":16.2,"pm2_5":10.9,"no2":10.2,"co":128.0,"o3":27.0,"so2":4.1,"mosquito_risk":7,"arthritis_risk":5,"migraine_risk":3,"frizz_risk":1,"updated_at":"2026-07-22T05:31:18.871833+05:30"},{"city":"Rajkot","state":"Gujarat","latitude":22.3039,"longitude":70.8022,"temp":25.9,"humidity":90,"rain":0.0,"pressure":987.6,"uv_index":3.95,"wind_gusts":49.3,"aqi":58,"pm10":17.0,"pm2_5":8.4,"no2":4.5,"co":91.0,"o3":37.0,"so2":4.0,"mosquito_risk":7,"arthritis_risk":5,"migraine_risk":3,"frizz_risk":1,"updated_at":"2026-07-22T05:31:18.871842+05:30"},{"city":"Thane","state":"Maharashtra","latitude":19.2183,"longitude":72.9781,"temp":25.4,"humidity":96,"rain":0.9,"pressure":1003.8,"uv_index":1.0,"wind_gusts":42.5,"aqi":61,"pm10":28.0,"pm2_5":12.0,"no2":3.7,"co":115.0,"o3":45.0,"so2":3.3,"mosquito_risk":10,"arthritis_risk":5,"migraine_risk":0,"frizz_risk":1,"updated_at":"2026-07-22T05:31:18.871849+05:30"},{"city":"Nagpur","state":"Maharashtra","latitude":21.1458,"longitude":79.0882,"temp":23.9,"humidity":96,"rain":0.1,"pressure":966.8,"uv_index":1.0,"wind_gusts":46.1,"aqi":40,"pm10":4.5,"pm2_5":4.1,"no2":10.9,"co":145.0,"o3":32.0,"so2":8.5,"mosquito_risk":6,"arthritis_risk":5,"migraine_risk":3,"frizz_risk":1,"updated_at":"2026-07-22T05:31:18.871876+05:30"},{"city":"Nashik","state":"Maharashtra","latitude":19.9975,"longitude":73.7898,"temp":22.9,"humidity":95,"rain":0.2,"pressure":939.7,"uv_index":1.95,"wind_gusts":58.7,"aqi":22,"pm10":1.4,"pm2_5":1.0,"no2":3.8,"co":94.0,"o3":39.0,"so2":2.2,"mosquito_risk":6,"arthritis_risk":5,"migraine_risk":3,"frizz_risk":1,"updated_at":"2026-07-22T05:31:18.871884+05:30"},{"city":"Aurangabad","state":"Maharashtra","latitude":19.8762,"longitude":75.3433,"temp":22.5,"humidity":97,"rain":0.1,"pressure":938.5,"uv_index":1.3,"wind_gusts":67.3,"aqi":27,"pm10":2.1,"pm2_5":1.7,"no2":6.4,"co":116.0,"o3":34.0,"so2":4.9,"mosquito_risk":6,"arthritis_risk":5,"migraine_risk":3,"frizz_risk":1,"updated_at":"2026-07-22T05:31:18.871892+05:30"},{"city":"Solapur","state":"Maharashtra","latitude":17.6599,"longitude":75.9064,"temp":24.0,"humidity":81,"rain":0.0,"pressure":954.3,"uv_index":3.9,"wind_gusts":61.6,"aqi":30,"pm10":4.6,"pm2_5":3.0,"no2":3.8,"co":105.0,"o3":34.0,"so2":2.0,"mosquito_risk":3,"arthritis_risk":5,"migraine_risk":3,"frizz_risk":1,"updated_at":"2026-07-22T05:31:18.871900+05:30"},{"city":"Kolhapur","state":"Maharashtra","latitude":16.705,"longitude":74.2433,"temp":22.1,"humidity":94,"rain":0.0,"pressure":945.6,"uv_index":7.35,"wind_gusts":50.0,"aqi":26,"pm10":5.8,"pm2_5":3.5,"no2":2.4,"co":99.0,"o3":36.0,"so2":1.5,"mosquito_risk":3,"arthritis_risk":5,"migraine_risk":7,"frizz_risk":1,"updated_at":"2026-07-22T05:31:18.871908+05:30"},{"city":"Goa","state":"Goa","latitude":15.2993,"longitude":74.124,"temp":23.2,"humidity":99,"rain":0.1,"pressure":997.6,"uv_index":6.85,"wind_gusts":38.5,"aqi":55,"pm10":21.9,"pm2_5":12.0,"no2":2.9,"co":224.0,"o3":35.0,"so2":0.9,"mosquito_risk":6,"arthritis_risk":5,"migraine_risk":7,"frizz_risk":1,"updated_at":"2026-07-22T05:31:18.871916+05:30"},{"city":"Jodhpur","state":"Rajasthan","latitude":26.2389,"longitude":73.0243,"temp":27.0,"humidity":95,"rain":0.0,"pressure":975.6,"uv_index":4.75,"wind_gusts":25.6,"aqi":80,"pm10":25.4,"pm2_5":11.5,"no2":9.1,"co":139.0,"o3":48.0,"so2":2.2,"mosquito_risk":7,"arthritis_risk":5,"migraine_risk":3,"frizz_risk":1,"updated_at":"2026-07-22T05:31:18.871923+05:30"},{"city":"Udaipur","state":"Rajasthan","latitude":24.5854,"longitude":73.7125,"temp":23.5,"humidity":98,"rain":0.5,"pressure":939.1,"uv_index":2.25,"wind_gusts":33.8,"aqi":55,"pm10":14.8,"pm2_5":9.4,"no2":7.5,"co":143.0,"o3":42.0,"so2":3.0,"mosquito_risk":6,"arthritis_risk":5,"migraine_risk":3,"frizz_risk":1,"updated_at":"2026-07-22T05:31:18.871930+05:30"},{"city":"Kota","state":"Rajasthan","latitude":25.2138,"longitude":75.8648,"temp":25.1,"humidity":97,"rain":0.0,"pressure":971.5,"uv_index":7.95,"wind_gusts":24.8,"aqi":52,"pm10":9.3,"pm2_5":7.9,"no2":10.0,"co":191.0,"o3":59.0,"so2":2.8,"mosquito_risk":7,"arthritis_risk":5,"migraine_risk":7,"frizz_risk":1,"updated_at":"2026-07-22T05:31:18.871938+05:30"},{"city":"Bikaner","state":"Rajasthan","latitude":28.0229,"longitude":73.3119,"temp":26.0,"humidity":95,"rain":0.2,"pressure":974.6,"uv_index":7.45,"wind_gusts":27.0,"aqi":72,"pm10":31.3,"pm2_5":12.7,"no2":2.8,"co":130.0,"o3":76.0,"so2":1.6,"mosquito_risk":10,"arthritis_risk":5,"migraine_risk":7,"frizz_risk":1,"updated_at":"2026-07-22T05:31:18.871945+05:30"},{"city":"Ajmer","state":"Rajasthan","latitude":26.4499,"longitude":74.6399,"temp":24.4,"humidity":96,"rain":0.0,"pressure":947.7,"uv_index":7.3,"wind_gusts":28.4,"aqi":61,"pm10":26.1,"pm2_5":12.8,"no2":7.9,"co":180.0,"o3":64.0,"so2":2.2,"mosquito_risk":3,"arthritis_risk":5,"migraine_risk":7,"frizz_risk":1,"updated_at":"2026-07-22T05:31:18.871952+05:30"},{"city":"Gwalior","state":"Madhya Pradesh","latitude":26.2183,"longitude":78.1828,"temp":25.3,"humidity":97,"rain":0.0,"pressure":976.3,"uv_index":6.6,"wind_gusts":35.6,"aqi":65,"pm10":9.1,"pm2_5":8.1,"no2":9.7,"co":225.0,"o3":62.0,"so2":3.9,"mosquito_risk":7,"arthritis_risk":5,"migraine_risk":7,"frizz_risk":1,"updated_at":"2026-07-22T05:31:18.871959+05:30"},{"city":"Indore","state":"Madhya Pradesh","latitude":22.7196,"longitude":75.8577,"temp":23.4,"humidity":97,"rain":0.1,"pressure":940.5,"uv_index":6.1,"wind_gusts":46.4,"aqi":52,"pm10":6.1,"pm2_5":5.4,"no2":9.2,"co":193.0,"o3":36.0,"so2":6.5,"mosquito_risk":6,"arthritis_risk":5,"migraine_risk":7,"frizz_risk":1,"updated_at":"2026-07-22T05:31:18.871966+05:30"},{"city":"Bhopal","state":"Madhya Pradesh","latitude":23.2599,"longitude":77.4126,"temp":23.1,"humidity":96,"rain":0.1,"pressure":945.9,"uv_index":8.15,"wind_gusts":24.8,"aqi":46,"pm10":8.0,"pm2_5":7.4,"no2":8.7,"co":229.0,"o3":45.0,"so2":3.6,"mosquito_risk":6,"arthritis_risk":5,"migraine_risk":7,"frizz_risk":1,"updated_at":"2026-07-22T05:31:18.871973+05:30"},{"city":"Jabalpur","state":"Madhya Pradesh","latitude":23.1815,"longitude":79.9864,"temp":23.5,"humidity":98,"rain":0.0,"pressure":954.0,"uv_index":6.65,"wind_gusts":16.9,"aqi":42,"pm10":6.4,"pm2_5":6.0,"no2":7.1,"co":192.0,"o3":50.0,"so2":3.4,"mosquito_risk":3,"arthritis_risk":5,"migraine_risk":7,"frizz_risk":1,"updated_at":"2026-07-22T05:31:18.871980+05:30"},{"city":"Ujjain","state":"Madhya Pradesh","latitude":23.1765,"longitude":75.7885,"temp":23.7,"humidity":95,"rain":0.1,"pressure":946.1,"uv_index":6.05,"wind_gusts":39.6,"aqi":52,"pm10":9.4,"pm2_5":7.2,"no2":7.9,"co":195.0,"o3":41.0,"so2":8.7,"mosquito_risk":6,"arthritis_risk":5,"migraine_risk":7,"frizz_risk":1,"updated_at":"2026-07-22T05:31:18.871988+05:30"},{"city":"Visakhapatnam","state":"Andhra Pradesh","latitude":17.6868,"longitude":83.2185,"temp":27.3,"humidity":76,"rain":0.0,"pressure":999.9,"uv_index":7.45,"wind_gusts":56.5,"aqi":59,"pm10":23.7,"pm2_5":16.6,"no2":18.4,"co":254.0,"o3":40.0,"so2":31.4,"mosquito_risk":7,"arthritis_risk":5,"migraine_risk":7,"frizz_risk":1,"updated_at":"2026-07-22T05:31:18.871995+05:30"},{"city":"Vijayawada","state":"Andhra Pradesh","latitude":16.5062,"longitude":80.648,"temp":26.6,"humidity":80,"rain":0.0,"pressure":1000.9,"uv_index":7.45,"wind_gusts":46.8,"aqi":64,"pm10":15.4,"pm2_5":11.6,"no2":11.4,"co":324.0,"o3":33.0,"so2":6.5,"mosquito_risk":7,"arthritis_risk":5,"migraine_risk":4,"frizz_risk":1,"updated_at":"2026-07-22T05:31:18.872002+05:30"},{"city":"Guntur","state":"Andhra Pradesh","latitude":16.3067,"longitude":80.4365,"temp":28.0,"humidity":67,"rain":0.0,"pressure":1002.2,"uv_index":5.7,"wind_gusts":51.1,"aqi":62,"pm10":13.4,"pm2_5":9.7,"no2":10.9,"co":195.0,"o3":32.0,"so2":6.8,"mosquito_risk":7,"arthritis_risk":5,"migraine_risk":0,"frizz_risk":1,"updated_at":"2026-07-22T05:31:18.872009+05:30"},{"city":"Nellore","state":"Andhra Pradesh","latitude":14.4426,"longitude":79.9865,"temp":29.3,"humidity":61,"rain":0.0,"pressure":1004.7,"uv_index":8.2,"wind_gusts":37.8,"aqi":63,"pm10":35.9,"pm2_5":23.5,"no2":14.6,"co":205.0,"o3":41.0,"so2":8.7,"mosquito_risk":7,"arthritis_risk":5,"migraine_risk":4,"frizz_risk":1,"updated_at":"2026-07-22T05:31:18.872017+05:30"},{"city":"Kurnool","state":"Andhra Pradesh","latitude":15.8281,"longitude":78.0373,"temp":25.1,"humidity":79,"rain":0.0,"pressure":975.7,"uv_index":3.4,"wind_gusts":54.4,"aqi":47,"pm10":7.2,"pm2_5":4.6,"no2":7.4,"co":117.0,"o3":27.0,"so2":2.8,"mosquito_risk":7,"arthritis_risk":5,"migraine_risk":3,"frizz_risk":1,"updated_at":"2026-07-22T05:31:18.872025+05:30"},{"city":"Kakinada","state":"Andhra Pradesh","latitude":16.9891,"longitude":82.2475,"temp":27.4,"humidity":81,"rain":0.0,"pressure":1005.0,"uv_index":8.85,"wind_gusts":58.7,"aqi":57,"pm10":26.5,"pm2_5":16.5,"no2":8.8,"co":236.0,"o3":46.0,"so2":7.5,"mosquito_risk":7,"arthritis_risk":5,"migraine_risk":4,"frizz_risk":1,"updated_at":"2026-07-22T05:31:18.872032+05:30"},{"city":"Tirupati","state":"Andhra Pradesh","latitude":13.6288,"longitude":79.4192,"temp":25.4,"humidity":78,"rain":0.0,"pressure":990.3,"uv_index":8.85,"wind_gusts":40.3,"aqi":73,"pm10":41.9,"pm2_5":29.3,"no2":24.8,"co":136.0,"o3":16.0,"so2":5.2,"mosquito_risk":7,"arthritis_risk":5,"migraine_risk":7,"frizz_risk":1,"updated_at":"2026-07-22T05:31:18.872039+05:30"},{"city":"Warangal","state":"Telangana","latitude":17.9689,"longitude":79.5941,"temp":24.6,"humidity":86,"rain":0.0,"pressure":975.6,"uv_index":2.45,"wind_gusts":45.0,"aqi":51,"pm10":6.7,"pm2_5":5.2,"no2":8.4,"co":138.0,"o3":29.0,"so2":3.2,"mosquito_risk":3,"arthritis_risk":5,"migraine_risk":3,"frizz_risk":1,"updated_at":"2026-07-22T05:31:18.872046+05:30"},{"city":"Nizamabad","state":"Telangana","latitude":18.6725,"longitude":78.0941,"temp":23.1,"humidity":96,"rain":0.1,"pressure":960.6,"uv_index":2.35,"wind_gusts":50.4,"aqi":44,"pm10":6.0,"pm2_5":4.3,"no2":6.4,"co":124.0,"o3":31.0,"so2":2.1,"mosquito_risk":6,"arthritis_risk":5,"migraine_risk":3,"frizz_risk":1,"updated_at":"2026-07-22T05:31:18.872052+05:30"},{"city":"Mysore","state":"Karnataka","latitude":12.2958,"longitude":76.6396,"temp":21.1,"humidity":95,"rain":0.0,"pressure":928.2,"uv_index":8.25,"wind_gusts":53.6,"aqi":36,"pm10":6.2,"pm2_5":4.5,"no2":6.2,"co":118.0,"o3":27.0,"so2":2.2,"mosquito_risk":3,"arthritis_risk":5,"migraine_risk":7,"frizz_risk":1,"updated_at":"2026-07-22T05:31:18.872059+05:30"},{"city":"Mangalore","state":"Karnataka","latitude":12.9141,"longitude":74.856,"temp":23.6,"humidity":98,"rain":0.2,"pressure":1007.7,"uv_index":8.05,"wind_gusts":36.0,"aqi":54,"pm10":11.7,"pm2_5":7.6,"no2":4.6,"co":134.0,"o3":27.0,"so2":2.1,"mosquito_risk":6,"arthritis_risk":5,"migraine_risk":4,"frizz_risk":1,"updated_at":"2026-07-22T05:31:18.872066+05:30"},{"city":"Hubli-Dharwad","state":"Karnataka","latitude":15.3647,"longitude":75.124,"temp":21.9,"humidity":98,"rain":0.0,"pressure":939.3,"uv_index":2.2,"wind_gusts":63.7,"aqi":19,"pm10":1.6,"pm2_5":1.2,"no2":2.2,"co":93.0,"o3":32.0,"so2":1.1,"mosquito_risk":3,"arthritis_risk":5,"migraine_risk":3,"frizz_risk":1,"updated_at":"2026-07-22T05:31:18.872073+05:30"},{"city":"Belgaum","state":"Karnataka","latitude":15.8497,"longitude":74.4977,"temp":20.3,"humidity":98,"rain":0.0,"pressure":923.5,"uv_index":7.2,"wind_gusts":60.8,"aqi":19,"pm10":2.3,"pm2_5":1.6,"no2":2.9,"co":95.0,"o3":35.0,"so2":1.6,"mosquito_risk":3,"arthritis_risk":5,"migraine_risk":7,"frizz_risk":1,"updated_at":"2026-07-22T05:31:26.623603+05:30"},{"city":"Coimbatore","state":"Tamil Nadu","latitude":11.0168,"longitude":76.9558,"temp":22.8,"humidity":96,"rain":0.0,"pressure":961.8,"uv_index":8.35,"wind_gusts":52.9,"aqi":46,"pm10":9.1,"pm2_5":6.6,"no2":6.6,"co":182.0,"o3":26.0,"so2":3.4,"mosquito_risk":3,"arthritis_risk":5,"migraine_risk":7,"frizz_risk":1,"updated_at":"2026-07-22T05:31:26.623634+05:30"},{"city":"Madurai","state":"Tamil Nadu","latitude":9.9252,"longitude":78.1198,"temp":27.3,"humidity":68,"rain":0.0,"pressure":993.1,"uv_index":7.8,"wind_gusts":45.7,"aqi":65,"pm10":28.3,"pm2_5":25.0,"no2":31.3,"co":152.0,"o3":2.0,"so2":5.9,"mosquito_risk":7,"arthritis_risk":5,"migraine_risk":7,"frizz_risk":1,"updated_at":"2026-07-22T05:31:26.623645+05:30"},{"city":"Trichy","state":"Tamil Nadu","latitude":10.7905,"longitude":78.7047,"temp":27.4,"humidity":70,"rain":0.0,"pressure":999.5,"uv_index":8.6,"wind_gusts":43.9,"aqi":56,"pm10":12.7,"pm2_5":8.8,"no2":8.9,"co":114.0,"o3":23.0,"so2":3.8,"mosquito_risk":7,"arthritis_risk":5,"migraine_risk":7,"frizz_risk":1,"updated_at":"2026-07-22T05:31:26.623654+05:30"},{"city":"Salem","state":"Tamil Nadu","latitude":11.6643,"longitude":78.146,"temp":24.4,"humidity":88,"rain":0.0,"pressure":977.7,"uv_index":8.65,"wind_gusts":46.4,"aqi":65,"pm10":27.3,"pm2_5":20.8,"no2":24.4,"co":316.0,"o3":15.0,"so2":7.9,"mosquito_risk":3,"arthritis_risk":5,"migraine_risk":7,"frizz_risk":1,"updated_at":"2026-07-22T05:31:26.623662+05:30"},{"city":"Tirunelveli","state":"Tamil Nadu","latitude":8.7139,"longitude":77.7567,"temp":27.7,"humidity":71,"rain":0.0,"pressure":1003.6,"uv_index":8.6,"wind_gusts":45.7,"aqi":49,"pm10":6.4,"pm2_5":5.1,"no2":6.7,"co":130.0,"o3":27.0,"so2":2.6,"mosquito_risk":7,"arthritis_risk":5,"migraine_risk":4,"frizz_risk":1,"updated_at":"2026-07-22T05:31:26.623669+05:30"},{"city":"Vellore","state":"Tamil Nadu","latitude":12.9165,"longitude":79.1325,"temp":26.4,"humidity":66,"rain":0.0,"pressure":984.1,"uv_index":8.9,"wind_gusts":49.0,"aqi":81,"pm10":24.9,"pm2_5":20.5,"no2":25.0,"co":129.0,"o3":13.0,"so2":5.5,"mosquito_risk":7,"arthritis_risk":5,"migraine_risk":7,"frizz_risk":1,"updated_at":"2026-07-22T05:31:26.623677+05:30"},{"city":"Erode","state":"Tamil Nadu","latitude":11.341,"longitude":77.7172,"temp":25.3,"humidity":84,"rain":0.0,"pressure":989.5,"uv_index":8.5,"wind_gusts":45.7,"aqi":57,"pm10":17.6,"pm2_5":13.4,"no2":14.4,"co":156.0,"o3":21.0,"so2":4.4,"mosquito_risk":7,"arthritis_risk":5,"migraine_risk":7,"frizz_risk":1,"updated_at":"2026-07-22T05:31:26.623684+05:30"},{"city":"Kochi","state":"Kerala","latitude":9.9312,"longitude":76.2673,"temp":24.8,"humidity":98,"rain":0.1,"pressure":1010.3,"uv_index":8.2,"wind_gusts":38.2,"aqi":62,"pm10":17.9,"pm2_5":13.0,"no2":14.4,"co":122.0,"o3":17.0,"so2":4.7,"mosquito_risk":6,"arthritis_risk":0,"migraine_risk":4,"frizz_risk":1,"updated_at":"2026-07-22T05:31:26.623691+05:30"},{"city":"Thiruvananthapuram","state":"Kerala","latitude":8.5241,"longitude":76.9366,"temp":24.0,"humidity":99,"rain":0.0,"pressure":1009.7,"uv_index":8.0,"wind_gusts":38.5,"aqi":54,"pm10":11.5,"pm2_5":6.6,"no2":4.0,"co":165.0,"o3":36.0,"so2":2.0,"mosquito_risk":3,"arthritis_risk":0,"migraine_risk":4,"frizz_risk":1,"updated_at":"2026-07-22T05:31:26.623698+05:30"},{"city":"Kozhikode","state":"Kerala","latitude":11.2588,"longitude":75.7804,"temp":23.2,"humidity":99,"rain":0.0,"pressure":1009.1,"uv_index":8.05,"wind_gusts":36.4,"aqi":39,"pm10":11.8,"pm2_5":5.9,"no2":1.8,"co":154.0,"o3":39.0,"so2":1.5,"mosquito_risk":3,"arthritis_risk":0,"migraine_risk":4,"frizz_risk":1,"updated_at":"2026-07-22T05:31:26.623705+05:30"},{"city":"Thrissur","state":"Kerala","latitude":10.5276,"longitude":76.2144,"temp":23.8,"humidity":99,"rain":0.0,"pressure":1008.6,"uv_index":7.85,"wind_gusts":35.6,"aqi":61,"pm10":11.6,"pm2_5":8.7,"no2":8.1,"co":178.0,"o3":23.0,"so2":3.6,"mosquito_risk":3,"arthritis_risk":0,"migraine_risk":4,"frizz_risk":1,"updated_at":"2026-07-22T05:31:26.623713+05:30"},{"city":"Kannur","state":"Kerala","latitude":11.8745,"longitude":75.3704,"temp":23.9,"humidity":99,"rain":0.1,"pressure":1008.3,"uv_index":7.65,"wind_gusts":33.5,"aqi":50,"pm10":11.2,"pm2_5":6.7,"no2":4.7,"co":191.0,"o3":29.0,"so2":2.1,"mosquito_risk":6,"arthritis_risk":0,"migraine_risk":4,"frizz_risk":1,"updated_at":"2026-07-22T05:31:26.623720+05:30"},{"city":"Patna","state":"Bihar","latitude":25.5941,"longitude":85.1376,"temp":25.8,"humidity":95,"rain":0.0,"pressure":995.9,"uv_index":7.45,"wind_gusts":50.8,"aqi":71,"pm10":19.4,"pm2_5":19.3,"no2":17.2,"co":239.0,"o3":42.0,"so2":15.0,"mosquito_risk":7,"arthritis_risk":5,"migraine_risk":7,"frizz_risk":1,"updated_at":"2026-07-22T05:31:26.623727+05:30"},{"city":"Gaya","state":"Bihar","latitude":24.7914,"longitude":85.0002,"temp":25.3,"humidity":96,"rain":0.0,"pressure":988.5,"uv_index":8.3,"wind_gusts":47.2,"aqi":59,"pm10":11.7,"pm2_5":11.6,"no2":12.0,"co":256.0,"o3":42.0,"so2":12.2,"mosquito_risk":7,"arthritis_risk":5,"migraine_risk":7,"frizz_risk":1,"updated_at":"2026-07-22T05:31:26.623735+05:30"},{"city":"Muzaffarpur","state":"Bihar","latitude":26.1209,"longitude":85.3647,"temp":25.9,"humidity":93,"rain":0.0,"pressure":996.4,"uv_index":7.9,"wind_gusts":56.9,"aqi":74,"pm10":23.7,"pm2_5":23.6,"no2":15.8,"co":260.0,"o3":46.0,"so2":11.7,"mosquito_risk":7,"arthritis_risk":5,"migraine_risk":7,"frizz_risk":1,"updated_at":"2026-07-22T05:31:26.623742+05:30"},{"city":"Bhagalpur","state":"Bihar","latitude":25.2425,"longitude":87.0117,"temp":25.8,"humidity":95,"rain":0.0,"pressure":997.6,"uv_index":7.95,"wind_gusts":43.2,"aqi":62,"pm10":20.0,"pm2_5":19.9,"no2":14.8,"co":218.0,"o3":35.0,"so2":7.1,"mosquito_risk":7,"arthritis_risk":5,"migraine_risk":7,"frizz_risk":1,"updated_at":"2026-07-22T05:31:26.623749+05:30"},{"city":"Ranchi","state":"Jharkhand","latitude":23.3441,"longitude":85.3096,"temp":22.3,"humidity":99,"rain":0.0,"pressure":931.8,"uv_index":4.8,"wind_gusts":43.9,"aqi":53,"pm10":7.5,"pm2_5":7.5,"no2":8.2,"co":238.0,"o3":64.0,"so2":12.9,"mosquito_risk":3,"arthritis_risk":5,"migraine_risk":3,"frizz_risk":1,"updated_at":"2026-07-22T05:31:26.623756+05:30"},{"city":"Jamshedpur","state":"Jharkhand","latitude":22.8046,"longitude":86.2029,"temp":24.2,"humidity":98,"rain":0.1,"pressure":985.5,"uv_index":6.95,"wind_gusts":28.4,"aqi":54,"pm10":13.2,"pm2_5":12.9,"no2":14.2,"co":580.0,"o3":55.0,"so2":13.7,"mosquito_risk":6,"arthritis_risk":5,"migraine_risk":7,"frizz_risk":1,"updated_at":"2026-07-22T05:31:26.623763+05:30"},{"city":"Dhanbad","state":"Jharkhand","latitude":23.7957,"longitude":86.4304,"temp":24.2,"humidity":98,"rain":0.1,"pressure":974.9,"uv_index":7.1,"wind_gusts":41.8,"aqi":76,"pm10":29.9,"pm2_5":29.6,"no2":38.7,"co":384.0,"o3":20.0,"so2":81.0,"mosquito_risk":6,"arthritis_risk":5,"migraine_risk":7,"frizz_risk":1,"updated_at":"2026-07-22T05:31:26.623770+05:30"},{"city":"Bokaro","state":"Jharkhand","latitude":23.6693,"longitude":86.1511,"temp":24.0,"humidity":97,"rain":0.1,"pressure":978.6,"uv_index":4.65,"wind_gusts":37.1,"aqi":81,"pm10":31.9,"pm2_5":31.4,"no2":45.8,"co":409.0,"o3":19.0,"so2":95.6,"mosquito_risk":6,"arthritis_risk":5,"migraine_risk":3,"frizz_risk":1,"updated_at":"2026-07-22T05:31:26.623777+05:30"},{"city":"Bhubaneswar","state":"Odisha","latitude":20.2961,"longitude":85.8245,"temp":25.4,"humidity":97,"rain":0.2,"pressure":997.9,"uv_index":7.05,"wind_gusts":44.6,"aqi":66,"pm10":11.2,"pm2_5":10.9,"no2":11.6,"co":177.0,"o3":38.0,"so2":2.9,"mosquito_risk":10,"arthritis_risk":5,"migraine_risk":7,"frizz_risk":1,"updated_at":"2026-07-22T05:31:26.623784+05:30"},{"city":"Cuttack","state":"Odisha","latitude":20.4625,"longitude":85.8828,"temp":25.9,"humidity":96,"rain":0.2,"pressure":999.4,"uv_index":5.25,"wind_gusts":37.4,"aqi":66,"pm10":11.2,"pm2_5":10.9,"no2":11.6,"co":221.0,"o3":38.0,"so2":2.9,"mosquito_risk":10,"arthritis_risk":5,"migraine_risk":3,"frizz_risk":1,"updated_at":"2026-07-22T05:31:26.623791+05:30"},{"city":"Rourkela","state":"Odisha","latitude":22.2604,"longitude":84.8536,"temp":24.2,"humidity":97,"rain":0.2,"pressure":979.1,"uv_index":2.0,"wind_gusts":33.5,"aqi":65,"pm10":9.3,"pm2_5":9.2,"no2":14.8,"co":268.0,"o3":29.0,"so2":4.5,"mosquito_risk":6,"arthritis_risk":5,"migraine_risk":3,"frizz_risk":1,"updated_at":"2026-07-22T05:31:26.623798+05:30"},{"city":"Raipur","state":"Chhattisgarh","latitude":21.2514,"longitude":81.6296,"temp":23.9,"humidity":96,"rain":0.9,"pressure":968.3,"uv_index":0.85,"wind_gusts":49.3,"aqi":63,"pm10":10.1,"pm2_5":9.6,"no2":19.3,"co":298.0,"o3":31.0,"so2":26.6,"mosquito_risk":6,"arthritis_risk":5,"migraine_risk":3,"frizz_risk":1,"updated_at":"2026-07-22T05:31:26.623805+05:30"},{"city":"Bhilai","state":"Chhattisgarh","latitude":21.1938,"longitude":81.3509,"temp":23.8,"humidity":97,"rain":2.8,"pressure":968.8,"uv_index":0.7,"wind_gusts":52.6,"aqi":59,"pm10":9.3,"pm2_5":8.8,"no2":17.0,"co":442.0,"o3":32.0,"so2":23.5,"mosquito_risk":6,"arthritis_risk":5,"migraine_risk":3,"frizz_risk":1,"updated_at":"2026-07-22T05:31:26.623812+05:30"},{"city":"Guwahati","state":"Assam","latitude":26.1158,"longitude":91.7086,"temp":25.0,"humidity":98,"rain":0.2,"pressure":1000.4,"uv_index":8.1,"wind_gusts":24.5,"aqi":50,"pm10":7.6,"pm2_5":7.3,"no2":8.5,"co":191.0,"o3":26.0,"so2":1.2,"mosquito_risk":10,"arthritis_risk":5,"migraine_risk":4,"frizz_risk":1,"updated_at":"2026-07-22T05:31:26.623819+05:30"},{"city":"Agartala","state":"Tripura","latitude":23.8315,"longitude":91.2868,"temp":25.0,"humidity":98,"rain":0.0,"pressure":1004.3,"uv_index":8.4,"wind_gusts":37.8,"aqi":44,"pm10":5.3,"pm2_5":4.8,"no2":7.3,"co":123.0,"o3":35.0,"so2":1.7,"mosquito_risk":7,"arthritis_risk":5,"migraine_risk":4,"frizz_risk":1,"updated_at":"2026-07-22T05:31:26.623826+05:30"},{"city":"Shillong","state":"Meghalaya","latitude":25.5788,"longitude":91.8933,"temp":19.2,"humidity":98,"rain":0.2,"pressure":856.6,"uv_index":8.5,"wind_gusts":27.7,"aqi":35,"pm10":1.7,"pm2_5":1.6,"no2":5.5,"co":185.0,"o3":40.0,"so2":1.5,"mosquito_risk":6,"arthritis_risk":10,"migraine_risk":7,"frizz_risk":1,"updated_at":"2026-07-22T05:31:26.623834+05:30"},{"city":"Imphal","state":"Manipur","latitude":24.817,"longitude":93.9368,"temp":21.8,"humidity":98,"rain":0.1,"pressure":923.0,"uv_index":8.15,"wind_gusts":29.2,"aqi":52,"pm10":6.5,"pm2_5":6.2,"no2":6.1,"co":256.0,"o3":41.0,"so2":1.8,"mosquito_risk":6,"arthritis_risk":5,"migraine_risk":7,"frizz_risk":1,"updated_at":"2026-07-22T05:31:26.623840+05:30"},{"city":"Aizawl","state":"Mizoram","latitude":23.7271,"longitude":92.7176,"temp":19.9,"humidity":98,"rain":0.0,"pressure":891.0,"uv_index":8.85,"wind_gusts":32.0,"aqi":23,"pm10":3.0,"pm2_5":2.8,"no2":5.7,"co":214.0,"o3":15.0,"so2":0.4,"mosquito_risk":3,"arthritis_risk":10,"migraine_risk":7,"frizz_risk":1,"updated_at":"2026-07-22T05:31:26.623847+05:30"},{"city":"Kohima","state":"Nagaland","latitude":25.6701,"longitude":94.1077,"temp":19.4,"humidity":96,"rain":0.0,"pressure":855.3,"uv_index":8.65,"wind_gusts":24.8,"aqi":31,"pm10":4.3,"pm2_5":3.9,"no2":4.2,"co":217.0,"o3":37.0,"so2":0.7,"mosquito_risk":3,"arthritis_risk":10,"migraine_risk":7,"frizz_risk":1,"updated_at":"2026-07-22T05:31:26.623871+05:30"},{"city":"Gangtok","state":"Sikkim","latitude":27.3314,"longitude":88.6138,"temp":17.5,"humidity":97,"rain":0.0,"pressure":836.4,"uv_index":7.75,"wind_gusts":28.8,"aqi":31,"pm10":8.6,"pm2_5":8.6,"no2":8.2,"co":281.0,"o3":57.0,"so2":1.0,"mosquito_risk":3,"arthritis_risk":10,"migraine_risk":7,"frizz_risk":1,"updated_at":"2026-07-22T05:31:26.623880+05:30"},{"city":"Siliguri","state":"West Bengal","latitude":26.7271,"longitude":88.3953,"temp":24.5,"humidity":98,"rain":0.1,"pressure":990.9,"uv_index":8.7,"wind_gusts":30.2,"aqi":57,"pm10":20.1,"pm2_5":20.0,"no2":13.4,"co":215.0,"o3":57.0,"so2":3.7,"mosquito_risk":6,"arthritis_risk":5,"migraine_risk":7,"frizz_risk":1,"updated_at":"2026-07-22T05:31:35.130590+05:30"},{"city":"Durgapur","state":"West Bengal","latitude":23.5204,"longitude":87.3119,"temp":24.8,"humidity":98,"rain":0.2,"pressure":990.1,"uv_index":7.6,"wind_gusts":39.6,"aqi":68,"pm10":23.1,"pm2_5":22.8,"no2":27.0,"co":278.0,"o3":22.0,"so2":27.8,"mosquito_risk":6,"arthritis_risk":5,"migraine_risk":7,"frizz_risk":1,"updated_at":"2026-07-22T05:31:35.130620+05:30"},{"city":"Asansol","state":"West Bengal","latitude":23.6739,"longitude":86.9524,"temp":25.0,"humidity":98,"rain":0.1,"pressure":988.8,"uv_index":6.35,"wind_gusts":40.3,"aqi":64,"pm10":21.0,"pm2_5":20.7,"no2":29.8,"co":307.0,"o3":22.0,"so2":36.0,"mosquito_risk":10,"arthritis_risk":5,"migraine_risk":7,"frizz_risk":1,"updated_at":"2026-07-22T05:31:35.130631+05:30"},{"city":"Pondicherry","state":"Puducherry","latitude":11.9139,"longitude":79.8145,"temp":27.4,"humidity":83,"rain":0.0,"pressure":1007.9,"uv_index":8.0,"wind_gusts":40.3,"aqi":73,"pm10":13.8,"pm2_5":10.1,"no2":10.7,"co":188.0,"o3":40.0,"so2":9.6,"mosquito_risk":7,"arthritis_risk":5,"migraine_risk":4,"frizz_risk":1,"updated_at":"2026-07-22T05:31:35.130640+05:30"},{"city":"Port Blair","state":"Andaman and Nicobar Islands","latitude":11.6234,"longitude":92.7265,"temp":26.9,"humidity":86,"rain":0.0,"pressure":1007.9,"uv_index":8.5,"wind_gusts":42.5,"aqi":43,"pm10":12.9,"pm2_5":7.2,"no2":0.2,"co":96.0,"o3":53.0,"so2":0.5,"mosquito_risk":7,"arthritis_risk":5,"migraine_risk":4,"frizz_risk":1,"updated_at":"2026-07-22T05:31:35.130648+05:30"},{"city":"Haridwar","state":"Uttarakhand","latitude":29.9457,"longitude":78.1642,"temp":25.5,"humidity":91,"rain":0.0,"pressure":970.2,"uv_index":7.3,"wind_gusts":33.1,"aqi":66,"pm10":26.3,"pm2_5":25.9,"no2":23.6,"co":296.0,"o3":23.0,"so2":4.2,"mosquito_risk":7,"arthritis_risk":5,"migraine_risk":7,"frizz_risk":1,"updated_at":"2026-07-22T05:31:35.130656+05:30"},{"city":"Rishikesh","state":"Uttarakhand","latitude":30.0869,"longitude":78.2676,"temp":24.1,"humidity":96,"rain":0.0,"pressure":962.8,"uv_index":7.2,"wind_gusts":24.8,"aqi":52,"pm10":12.1,"pm2_5":11.8,"no2":11.9,"co":247.0,"o3":56.0,"so2":3.1,"mosquito_risk":3,"arthritis_risk":5,"migraine_risk":7,"frizz_risk":1,"updated_at":"2026-07-22T05:31:35.130664+05:30"},{"city":"Nainital","state":"Uttarakhand","latitude":29.3919,"longitude":79.4542,"temp":14.7,"humidity":100,"rain":0.0,"pressure":802.7,"uv_index":7.25,"wind_gusts":49.7,"aqi":44,"pm10":11.9,"pm2_5":11.6,"no2":7.1,"co":186.0,"o3":64.0,"so2":1.9,"mosquito_risk":3,"arthritis_risk":10,"migraine_risk":7,"frizz_risk":0,"updated_at":"2026-07-22T05:31:35.130672+05:30"},{"city":"Mussoorie","state":"Uttarakhand","latitude":30.4599,"longitude":78.0664,"temp":15.9,"humidity":98,"rain":0.0,"pressure":800.8,"uv_index":6.65,"wind_gusts":26.3,"aqi":50,"pm10":7.7,"pm2_5":7.6,"no2":11.1,"co":229.0,"o3":59.0,"so2":1.9,"mosquito_risk":3,"arthritis_risk":10,"migraine_risk":7,"frizz_risk":0,"updated_at":"2026-07-22T05:31:35.130679+05:30"},{"city":"Dharamshala","state":"Himachal Pradesh","latitude":32.219,"longitude":76.3234,"temp":20.4,"humidity":94,"rain":0.0,"pressure":866.3,"uv_index":4.6,"wind_gusts":27.4,"aqi":36,"pm10":8.0,"pm2_5":7.9,"no2":11.9,"co":519.0,"o3":58.0,"so2":0.7,"mosquito_risk":3,"arthritis_risk":5,"migraine_risk":3,"frizz_risk":1,"updated_at":"2026-07-22T05:31:35.130686+05:30"},{"city":"Dalhousie","state":"Himachal Pradesh","latitude":32.5387,"longitude":75.971,"temp":16.7,"humidity":95,"rain":0.1,"pressure":802.8,"uv_index":1.0,"wind_gusts":23.8,"aqi":63,"pm10":21.8,"pm2_5":21.2,"no2":22.1,"co":380.0,"o3":68.0,"so2":3.4,"mosquito_risk":6,"arthritis_risk":10,"migraine_risk":3,"frizz_risk":0,"updated_at":"2026-07-22T05:31:35.130695+05:30"},{"city":"Patiala","state":"Punjab","latitude":30.3398,"longitude":76.3869,"temp":26.6,"humidity":85,"rain":0.0,"pressure":973.5,"uv_index":7.15,"wind_gusts":38.9,"aqi":82,"pm10":22.8,"pm2_5":22.8,"no2":13.1,"co":389.0,"o3":65.0,"so2":9.4,"mosquito_risk":7,"arthritis_risk":5,"migraine_risk":7,"frizz_risk":1,"updated_at":"2026-07-22T05:31:35.130701+05:30"},{"city":"Bhatinda","state":"Punjab","latitude":30.211,"longitude":74.9455,"temp":27.9,"humidity":84,"rain":0.0,"pressure":977.9,"uv_index":6.5,"wind_gusts":33.1,"aqi":92,"pm10":26.8,"pm2_5":26.4,"no2":13.8,"co":372.0,"o3":71.0,"so2":8.6,"mosquito_risk":7,"arthritis_risk":5,"migraine_risk":7,"frizz_risk":1,"updated_at":"2026-07-22T05:31:35.130708+05:30"},{"city":"Rohtak","state":"Haryana","latitude":28.8955,"longitude":76.6066,"temp":25.8,"humidity":94,"rain":0.1,"pressure":976.3,"uv_index":5.5,"wind_gusts":41.4,"aqi":77,"pm10":26.8,"pm2_5":26.7,"no2":16.5,"co":398.0,"o3":69.0,"so2":18.3,"mosquito_risk":10,"arthritis_risk":5,"migraine_risk":3,"frizz_risk":1,"updated_at":"2026-07-22T05:31:35.130715+05:30"},{"city":"Panipat","state":"Haryana","latitude":29.3909,"longitude":76.9635,"temp":26.5,"humidity":88,"rain":0.0,"pressure":975.5,"uv_index":7.4,"wind_gusts":39.2,"aqi":76,"pm10":27.3,"pm2_5":27.1,"no2":14.8,"co":376.0,"o3":64.0,"so2":13.8,"mosquito_risk":7,"arthritis_risk":5,"migraine_risk":7,"frizz_risk":1,"updated_at":"2026-07-22T05:31:35.130722+05:30"},{"city":"Mathura","state":"Uttar Pradesh","latitude":27.4924,"longitude":77.6737,"temp":25.7,"humidity":97,"rain":0.0,"pressure":980.9,"uv_index":6.95,"wind_gusts":38.9,"aqi":62,"pm10":18.6,"pm2_5":18.4,"no2":8.6,"co":321.0,"o3":87.0,"so2":7.0,"mosquito_risk":7,"arthritis_risk":5,"migraine_risk":7,"frizz_risk":1,"updated_at":"2026-07-22T05:31:35.130729+05:30"},{"city":"Vrindavan","state":"Uttar Pradesh","latitude":27.5823,"longitude":77.7027,"temp":25.8,"humidity":96,"rain":0.0,"pressure":981.3,"uv_index":6.45,"wind_gusts":37.8,"aqi":62,"pm10":18.6,"pm2_5":18.4,"no2":8.6,"co":335.0,"o3":87.0,"so2":7.0,"mosquito_risk":7,"arthritis_risk":5,"migraine_risk":7,"frizz_risk":1,"updated_at":"2026-07-22T05:31:35.130735+05:30"},{"city":"Ayodhya","state":"Uttar Pradesh","latitude":26.7922,"longitude":82.1998,"temp":26.1,"humidity":91,"rain":0.0,"pressure":990.4,"uv_index":7.75,"wind_gusts":50.0,"aqi":78,"pm10":28.2,"pm2_5":27.8,"no2":13.2,"co":329.0,"o3":56.0,"so2":8.8,"mosquito_risk":7,"arthritis_risk":5,"migraine_risk":7,"frizz_risk":1,"updated_at":"2026-07-22T05:31:35.130742+05:30"},{"city":"Ratlam","state":"Madhya Pradesh","latitude":23.3315,"longitude":75.0367,"temp":23.6,"humidity":98,"rain":0.3,"pressure":947.2,"uv_index":0.2,"wind_gusts":36.4,"aqi":52,"pm10":10.2,"pm2_5":7.3,"no2":7.9,"co":169.0,"o3":40.0,"so2":8.1,"mosquito_risk":6,"arthritis_risk":5,"migraine_risk":3,"frizz_risk":1,"updated_at":"2026-07-22T05:31:35.130749+05:30"},{"city":"Sagar","state":"Madhya Pradesh","latitude":23.8388,"longitude":78.7378,"temp":23.5,"humidity":99,"rain":0.1,"pressure":942.5,"uv_index":8.25,"wind_gusts":27.0,"aqi":40,"pm10":7.7,"pm2_5":7.3,"no2":9.8,"co":249.0,"o3":51.0,"so2":1.9,"mosquito_risk":6,"arthritis_risk":5,"migraine_risk":7,"frizz_risk":1,"updated_at":"2026-07-22T05:31:35.130756+05:30"},{"city":"Satna","state":"Madhya Pradesh","latitude":24.6005,"longitude":80.8322,"temp":24.5,"humidity":97,"rain":0.0,"pressure":964.4,"uv_index":8.2,"wind_gusts":33.5,"aqi":59,"pm10":23.9,"pm2_5":23.8,"no2":16.4,"co":278.0,"o3":38.0,"so2":16.8,"mosquito_risk":3,"arthritis_risk":5,"migraine_risk":7,"frizz_risk":1,"updated_at":"2026-07-22T05:31:35.130763+05:30"},{"city":"Akola","state":"Maharashtra","latitude":20.7002,"longitude":77.0082,"temp":24.7,"humidity":91,"rain":0.0,"pressure":969.1,"uv_index":2.6,"wind_gusts":41.4,"aqi":28,"pm10":2.1,"pm2_5":2.0,"no2":6.6,"co":123.0,"o3":34.0,"so2":3.0,"mosquito_risk":3,"arthritis_risk":5,"migraine_risk":3,"frizz_risk":1,"updated_at":"2026-07-22T05:31:35.130770+05:30"},{"city":"Amravati","state":"Maharashtra","latitude":20.9374,"longitude":77.7796,"temp":23.7,"humidity":96,"rain":0.3,"pressure":961.2,"uv_index":1.45,"wind_gusts":50.8,"aqi":29,"pm10":2.4,"pm2_5":2.2,"no2":6.6,"co":132.0,"o3":34.0,"so2":2.8,"mosquito_risk":6,"arthritis_risk":5,"migraine_risk":3,"frizz_risk":1,"updated_at":"2026-07-22T05:31:35.130779+05:30"},{"city":"Latur","state":"Maharashtra","latitude":18.4088,"longitude":76.5604,"temp":22.5,"humidity":93,"rain":0.1,"pressure":935.9,"uv_index":1.6,"wind_gusts":60.1,"aqi":33,"pm10":4.0,"pm2_5":2.8,"no2":3.9,"co":115.0,"o3":35.0,"so2":1.6,"mosquito_risk":6,"arthritis_risk":5,"migraine_risk":3,"frizz_risk":1,"updated_at":"2026-07-22T05:31:35.130786+05:30"},{"city":"Nanded","state":"Maharashtra","latitude":19.1383,"longitude":77.3091,"temp":23.8,"humidity":93,"rain":0.1,"pressure":964.1,"uv_index":1.8,"wind_gusts":47.5,"aqi":42,"pm10":4.8,"pm2_5":3.5,"no2":6.0,"co":125.0,"o3":32.0,"so2":2.6,"mosquito_risk":6,"arthritis_risk":5,"migraine_risk":3,"frizz_risk":1,"updated_at":"2026-07-22T05:31:35.130793+05:30"},{"city":"Gulbarga","state":"Karnataka","latitude":17.3297,"longitude":76.8343,"temp":23.2,"humidity":89,"rain":0.0,"pressure":956.2,"uv_index":2.6,"wind_gusts":64.4,"aqi":39,"pm10":6.0,"pm2_5":3.8,"no2":5.3,"co":109.0,"o3":31.0,"so2":2.9,"mosquito_risk":3,"arthritis_risk":5,"migraine_risk":3,"frizz_risk":1,"updated_at":"2026-07-22T05:31:35.130800+05:30"},{"city":"Bidar","state":"Karnataka","latitude":17.9104,"longitude":77.5199,"temp":22.0,"humidity":96,"rain":0.1,"pressure":932.0,"uv_index":3.25,"wind_gusts":66.6,"aqi":35,"pm10":5.6,"pm2_5":3.6,"no2":5.2,"co":113.0,"o3":32.0,"so2":2.3,"mosquito_risk":6,"arthritis_risk":5,"migraine_risk":3,"frizz_risk":1,"updated_at":"2026-07-22T05:31:35.130806+05:30"},{"city":"Hospet","state":"Karnataka","latitude":15.2689,"longitude":76.3909,"temp":23.9,"humidity":86,"rain":0.0,"pressure":954.5,"uv_index":8.4,"wind_gusts":60.1,"aqi":26,"pm10":3.7,"pm2_5":2.6,"no2":3.2,"co":100.0,"o3":32.0,"so2":1.6,"mosquito_risk":3,"arthritis_risk":5,"migraine_risk":7,"frizz_risk":1,"updated_at":"2026-07-22T05:31:35.130813+05:30"},{"city":"Tirupur","state":"Tamil Nadu","latitude":11.1085,"longitude":77.3411,"temp":23.8,"humidity":92,"rain":0.0,"pressure":975.6,"uv_index":8.6,"wind_gusts":56.2,"aqi":59,"pm10":19.4,"pm2_5":15.0,"no2":16.8,"co":146.0,"o3":18.0,"so2":5.2,"mosquito_risk":3,"arthritis_risk":5,"migraine_risk":7,"frizz_risk":1,"updated_at":"2026-07-22T05:31:35.130820+05:30"},{"city":"Alappuzha","state":"Kerala","latitude":9.4981,"longitude":76.3388,"temp":25.4,"humidity":96,"rain":0.1,"pressure":1010.3,"uv_index":7.8,"wind_gusts":36.4,"aqi":58,"pm10":17.6,"pm2_5":10.3,"no2":8.0,"co":125.0,"o3":31.0,"so2":3.2,"mosquito_risk":10,"arthritis_risk":0,"migraine_risk":4,"frizz_risk":1,"updated_at":"2026-07-22T05:31:35.130827+05:30"},{"city":"Munnar","state":"Kerala","latitude":10.0889,"longitude":77.0595,"temp":15.8,"humidity":91,"rain":0.0,"pressure":856.4,"uv_index":8.8,"wind_gusts":34.9,"aqi":42,"pm10":9.5,"pm2_5":7.1,"no2":6.8,"co":95.0,"o3":21.0,"so2":1.6,"mosquito_risk":3,"arthritis_risk":10,"migraine_risk":7,"frizz_risk":0,"updated_at":"2026-07-22T05:31:35.130834+05:30"},{"city":"Silchar","state":"Assam","latitude":24.8333,"longitude":92.7789,"temp":25.3,"humidity":98,"rain":0.1,"pressure":1004.3,"uv_index":8.6,"wind_gusts":20.5,"aqi":55,"pm10":10.9,"pm2_5":10.4,"no2":7.5,"co":224.0,"o3":39.0,"so2":2.7,"mosquito_risk":10,"arthritis_risk":5,"migraine_risk":4,"frizz_risk":1,"updated_at":"2026-07-22T05:31:35.130841+05:30"},{"city":"Dibrugarh","state":"Assam","latitude":27.4728,"longitude":94.912,"temp":25.0,"humidity":98,"rain":0.2,"pressure":994.9,"uv_index":6.45,"wind_gusts":25.2,"aqi":64,"pm10":10.8,"pm2_5":9.9,"no2":7.5,"co":200.0,"o3":63.0,"so2":1.2,"mosquito_risk":10,"arthritis_risk":5,"migraine_risk":7,"frizz_risk":1,"updated_at":"2026-07-22T05:31:35.130848+05:30"}]