[{"city":"Delhi","state":"Delhi","latitude":28.6139,"longitude":77.209,"temp":26.2,"humidity":35,"rain":0.0,"pressure":980.4,"uv_index":7.3,"wind_gusts":22.7,"aqi":253,"pm10":499.2,"pm2_5":107.8,"mosquito_risk":4,"arthritis_risk":5,"migraine_risk":7,"frizz_risk":0,"updated_at":"2026-04-16T05:15:02.289260+05:30"},{"city":"Mumbai","state":"Maharashtra","latitude":19.076,"longitude":72.8777,"temp":28.2,"humidity":79,"rain":0.0,"pressure":1006.1,"uv_index":8.0,"wind_gusts":20.2,"aqi":82,"pm10":42.5,"pm2_5":24.1,"mosquito_risk":7,"arthritis_risk":5,"migraine_risk":4,"frizz_risk":1,"updated_at":"2026-04-16T05:15:02.289309+05:30"},{"city":"Bangalore","state":"Karnataka","latitude":12.9716,"longitude":77.5946,"temp":23.4,"humidity":65,"rain":0.0,"pressure":909.5,"uv_index":9.6,"wind_gusts":32.4,"aqi":72,"pm10":31.7,"pm2_5":27.2,"mosquito_risk":3,"arthritis_risk":5,"migraine_risk":7,"frizz_risk":1,"updated_at":"2026-04-16T05:15:02.289326+05:30"},{"city":"Hyderabad","state":"Telangana","latitude":17.385,"longitude":78.4867,"temp":27.6,"humidity":62,"rain":0.0,"pressure":950.7,"uv_index":9.2,"wind_gusts":27.7,"aqi":89,"pm10":25.2,"pm2_5":22.1,"mosquito_risk":7,"arthritis_risk":5,"migraine_risk":7,"frizz_risk":1,"updated_at":"2026-04-16T05:15:02.289337+05:30"},{"city":"Chennai","state":"Tamil Nadu","latitude":13.0827,"longitude":80.2707,"temp":28.2,"humidity":88,"rain":0.0,"pressure":1004.9,"uv_index":9.35,"wind_gusts":32.8,"aqi":30,"pm10":9.3,"pm2_5":6.4,"mosquito_risk":7,"arthritis_risk":5,"migraine_risk":4,"frizz_risk":1,"updated_at":"2026-04-16T05:15:02.289346+05:30"},{"city":"Kolkata","state":"West Bengal","latitude":22.5726,"longitude":88.3639,"temp":27.5,"humidity":89,"rain":0.0,"pressure":1004.4,"uv_index":8.85,"wind_gusts":34.9,"aqi":90,"pm10":28.8,"pm2_5":21.4,"mosquito_risk":7,"arthritis_risk":5,"migraine_risk":4,"frizz_risk":1,"updated_at":"2026-04-16T05:15:02.289359+05:30"},{"city":"Pune","state":"Maharashtra","latitude":18.5204,"longitude":73.8567,"temp":19.6,"humidity":62,"rain":0.0,"pressure":945.4,"uv_index":8.6,"wind_gusts":41.0,"aqi":68,"pm10":28.0,"pm2_5":20.2,"mosquito_risk":3,"arthritis_risk":5,"migraine_risk":7,"frizz_risk":0,"updated_at":"2026-04-16T05:15:02.289367+05:30"},{"city":"Ahmedabad","state":"Gujarat","latitude":23.0225,"longitude":72.5714,"temp":25.6,"humidity":48,"rain":0.0,"pressure":998.8,"uv_index":8.1,"wind_gusts":16.2,"aqi":87,"pm10":31.2,"pm2_5":14.6,"mosquito_risk":4,"arthritis_risk":5,"migraine_risk":7,"frizz_risk":0,"updated_at":"2026-04-16T05:15:02.289375+05:30"},{"city":"Jaipur","state":"Rajasthan","latitude":26.9124,"longitude":75.7873,"temp":26.5,"humidity":29,"rain":0.0,"pressure":956.8,"uv_index":7.95,"wind_gusts":29.5,"aqi":158,"pm10":183.0,"pm2_5":31.0,"mosquito_risk":4,"arthritis_risk":5,"migraine_risk":7,"frizz_risk":0,"updated_at":"2026-04-16T05:15:02.289383+05:30"},{"city":"Lucknow","state":"Uttar Pradesh","latitude":26.8467,"longitude":80.9462,"temp":23.7,"humidity":44,"rain":0.0,"pressure":991.2,"uv_index":7.85,"wind_gusts":21.2,"aqi":104,"pm10":199.3,"pm2_5":42.7,"mosquito_risk":0,"arthritis_risk":5,"migraine_risk":7,"frizz_risk":0,"updated_at":"2026-04-16T05:15:02.289390+05:30"},{"city":"Kanpur","state":"Uttar Pradesh","latitude":26.4499,"longitude":80.3319,"temp":23.0,"humidity":56,"rain":0.0,"pressure":989.1,"uv_index":7.85,"wind_gusts":20.2,"aqi":139,"pm10":216.1,"pm2_5":42.0,"mosquito_risk":0,"arthritis_risk":5,"migraine_risk":7,"frizz_risk":0,"updated_at":"2026-04-16T05:15:02.289398+05:30"},{"city":"Chandigarh","state":"Chandigarh","latitude":30.7333,"longitude":76.7794,"temp":20.0,"humidity":55,"rain":0.0,"pressure":966.0,"uv_index":7.2,"wind_gusts":21.2,"aqi":45,"pm10":11.5,"pm2_5":11.1,"mosquito_risk":0,"arthritis_risk":5,"migraine_risk":7,"frizz_risk":0,"updated_at":"2026-04-16T05:15:02.289406+05:30"},{"city":"Srinagar","state":"Jammu and Kashmir","latitude":34.0837,"longitude":74.7973,"temp":9.3,"humidity":66,"rain":0.0,"pressure":838.1,"uv_index":7.85,"wind_gusts":25.2,"aqi":70,"pm10":29.0,"pm2_5":23.2,"mosquito_risk":3,"arthritis_risk":5,"migraine_risk":7,"frizz_risk":0,"updated_at":"2026-04-16T05:15:02.289414+05:30"},{"city":"Jammu","state":"Jammu and Kashmir","latitude":32.7266,"longitude":74.857,"temp":18.8,"humidity":68,"rain":0.0,"pressure":969.8,"uv_index":7.45,"wind_gusts":29.5,"aqi":61,"pm10":16.5,"pm2_5":16.2,"mosquito_risk":3,"arthritis_risk":5,"migraine_risk":7,"frizz_risk":0,"updated_at":"2026-04-16T05:15:02.289423+05:30"},{"city":"Amritsar","state":"Punjab","latitude":31.634,"longitude":74.8723,"temp":19.7,"humidity":73,"rain":0.0,"pressure":977.7,"uv_index":7.95,"wind_gusts":26.3,"aqi":81,"pm10":34.3,"pm2_5":32.4,"mosquito_risk":3,"arthritis_risk":5,"migraine_risk":7,"frizz_risk":0,"updated_at":"2026-04-16T05:15:02.289430+05:30"},{"city":"Ludhiana","state":"Punjab","latitude":30.901,"longitude":75.8573,"temp":20.4,"humidity":61,"rain":0.0,"pressure":976.0,"uv_index":7.5,"wind_gusts":18.4,"aqi":72,"pm10":39.5,"pm2_5":37.8,"mosquito_risk":3,"arthritis_risk":5,"migraine_risk":7,"frizz_risk":0,"updated_at":"2026-04-16T05:15:02.289438+05:30"},{"city":"Jalandhar","state":"Punjab","latitude":31.326,"longitude":75.5762,"temp":19.0,"humidity":65,"rain":0.0,"pressure":976.9,"uv_index":7.0,"wind_gusts":22.7,"aqi":64,"pm10":29.4,"pm2_5":28.2,"mosquito_risk":3,"arthritis_risk":5,"migraine_risk":7,"frizz_risk":0,"updated_at":"2026-04-16T05:15:02.289446+05:30"},{"city":"Dehradun","state":"Uttarakhand","latitude":30.6284,"longitude":78.0322,"temp":13.9,"humidity":58,"rain":0.0,"pressure":827.7,"uv_index":7.35,"wind_gusts":34.6,"aqi":42,"pm10":7.0,"pm2_5":6.8,"mosquito_risk":0,"arthritis_risk":5,"migraine_risk":7,"frizz_risk":0,"updated_at":"2026-04-16T05:15:02.289453+05:30"},{"city":"Shimla","state":"Himachal Pradesh","latitude":31.1048,"longitude":77.1734,"temp":11.4,"humidity":70,"rain":0.0,"pressure":781.3,"uv_index":7.3,"wind_gusts":42.5,"aqi":49,"pm10":11.5,"pm2_5":11.2,"mosquito_risk":3,"arthritis_risk":5,"migraine_risk":7,"frizz_risk":0,"updated_at":"2026-04-16T05:15:02.289460+05:30"},{"city":"Manali","state":"Himachal Pradesh","latitude":32.2396,"longitude":77.1887,"temp":14.9,"humidity":49,"rain":0.0,"pressure":818.5,"uv_index":8.65,"wind_gusts":31.7,"aqi":56,"pm10":14.3,"pm2_5":11.9,"mosquito_risk":0,"arthritis_risk":5,"migraine_risk":7,"frizz_risk":0,"updated_at":"2026-04-16T05:15:02.289467+05:30"},{"city":"Gurgaon","state":"Haryana","latitude":28.4595,"longitude":77.0266,"temp":22.7,"humidity":49,"rain":0.0,"pressure":978.6,"uv_index":7.4,"wind_gusts":19.1,"aqi":651,"pm10":651.9,"pm2_5":121.1,"mosquito_risk":0,"arthritis_risk":5,"migraine_risk":7,"frizz_risk":0,"updated_at":"2026-04-16T05:15:02.289474+05:30"},{"city":"Noida","state":"Uttar Pradesh","latitude":28.5355,"longitude":77.391,"temp":25.3,"humidity":39,"rain":0.0,"pressure":981.9,"uv_index":7.35,"wind_gusts":26.6,"aqi":651,"pm10":651.9,"pm2_5":121.1,"mosquito_risk":4,"arthritis_risk":5,"migraine_risk":7,"frizz_risk":0,"updated_at":"2026-04-16T05:15:02.289480+05:30"},{"city":"Ghaziabad","state":"Uttar Pradesh","latitude":28.6692,"longitude":77.4538,"temp":23.6,"humidity":44,"rain":0.0,"pressure":980.0,"uv_index":7.35,"wind_gusts":20.2,"aqi":147,"pm10":220.3,"pm2_5":64.7,"mosquito_risk":0,"arthritis_risk":5,"migraine_risk":7,"frizz_risk":0,"updated_at":"2026-04-16T05:15:02.289488+05:30"},{"city":"Faridabad","state":"Haryana","latitude":28.4089,"longitude":77.3178,"temp":24.1,"humidity":42,"rain":0.0,"pressure":981.0,"uv_index":7.4,"wind_gusts":23.4,"aqi":651,"pm10":651.9,"pm2_5":121.1,"mosquito_risk":0,"arthritis_risk":5,"migraine_risk":7,"frizz_risk":0,"updated_at":"2026-04-16T05:15:02.289494+05:30"},{"city":"Meerut","state":"Uttar Pradesh","latitude":28.9845,"longitude":77.7064,"temp":21.0,"humidity":53,"rain":0.0,"pressure":978.6,"uv_index":7.25,"wind_gusts":25.9,"aqi":147,"pm10":220.3,"pm2_5":64.7,"mosquito_risk":0,"arthritis_risk":5,"migraine_risk":7,"frizz_risk":0,"updated_at":"2026-04-16T05:15:02.289501+05:30"},{"city":"Agra","state":"Uttar Pradesh","latitude":27.1767,"longitude":78.0081,"temp":22.8,"humidity":42,"rain":0.0,"pressure":984.9,"uv_index":7.75,"wind_gusts":19.1,"aqi":364,"pm10":618.4,"pm2_5":96.4,"mosquito_risk":0,"arthritis_risk":5,"migraine_risk":7,"frizz_risk":0,"updated_at":"2026-04-16T05:15:02.289510+05:30"},{"city":"Varanasi","state":"Uttar Pradesh","latitude":25.3176,"longitude":82.9739,"temp":24.6,"humidity":56,"rain":0.0,"pressure":994.5,"uv_index":8.45,"wind_gusts":21.2,"aqi":82,"pm10":98.7,"pm2_5":41.3,"mosquito_risk":0,"arthritis_risk":5,"migraine_risk":7,"frizz_risk":0,"updated_at":"2026-04-16T05:15:02.289517+05:30"},{"city":"Prayagraj","state":"Uttar Pradesh","latitude":25.4358,"longitude":81.8463,"temp":26.2,"humidity":49,"rain":0.0,"pressure":993.3,"uv_index":8.3,"wind_gusts":22.3,"aqi":80,"pm10":75.4,"pm2_5":35.4,"mosquito_risk":4,"arthritis_risk":5,"migraine_risk":7,"frizz_risk":0,"updated_at":"2026-04-16T05:15:02.289525+05:30"},{"city":"Gorakhpur","state":"Uttar Pradesh","latitude":26.7606,"longitude":83.3732,"temp":23.8,"humidity":71,"rain":0.0,"pressure":995.1,"uv_index":8.25,"wind_gusts":29.5,"aqi":94,"pm10":71.2,"pm2_5":49.9,"mosquito_risk":3,"arthritis_risk":5,"migraine_risk":7,"frizz_risk":1,"updated_at":"2026-04-16T05:15:02.289531+05:30"},{"city":"Bareilly","state":"Uttar Pradesh","latitude":28.367,"longitude":79.4304,"temp":19.2,"humidity":70,"rain":0.0,"pressure":983.9,"uv_index":7.6,"wind_gusts":23.8,"aqi":59,"pm10":29.9,"pm2_5":28.8,"mosquito_risk":3,"arthritis_risk":5,"migraine_risk":7,"frizz_risk":0,"updated_at":"2026-04-16T05:15:02.289538+05:30"},{"city":"Aligarh","state":"Uttar Pradesh","latitude":27.8974,"longitude":78.088,"temp":21.4,"humidity":51,"rain":0.0,"pressure":982.8,"uv_index":7.5,"wind_gusts":24.1,"aqi":327,"pm10":319.4,"pm2_5":70.5,"mosquito_risk":0,"arthritis_risk":5,"migraine_risk":7,"frizz_risk":0,"updated_at":"2026-04-16T05:15:02.289546+05:30"},{"city":"Moradabad","state":"Uttar Pradesh","latitude":28.8386,"longitude":78.7733,"temp":20.5,"humidity":60,"rain":0.0,"pressure":980.8,"uv_index":7.45,"wind_gusts":26.6,"aqi":75,"pm10":52.5,"pm2_5":43.8,"mosquito_risk":0,"arthritis_risk":5,"migraine_risk":7,"frizz_risk":0,"updated_at":"2026-04-16T05:15:02.289552+05:30"},{"city":"Saharanpur","state":"Uttar Pradesh","latitude":29.9637,"longitude":77.546,"temp":18.0,"humidity":71,"rain":0.0,"pressure":972.8,"uv_index":6.9,"wind_gusts":26.3,"aqi":72,"pm10":34.2,"pm2_5":33.5,"mosquito_risk":3,"arthritis_risk":5,"migraine_risk":7,"frizz_risk":0,"updated_at":"2026-04-16T05:15:02.289558+05:30"},{"city":"Jhansi","state":"Uttar Pradesh","latitude":25.4484,"longitude":78.5685,"temp":25.9,"humidity":51,"rain":0.0,"pressure":975.0,"uv_index":8.2,"wind_gusts":32.4,"aqi":68,"pm10":161.1,"pm2_5":30.2,"mosquito_risk":4,"arthritis_risk":5,"migraine_risk":7,"frizz_risk":0,"updated_at":"2026-04-16T05:15:05.510635+05:30"},{"city":"Surat","state":"Gujarat","latitude":21.1702,"longitude":72.8311,"temp":26.7,"humidity":85,"rain":0.0,"pressure":1004.1,"uv_index":7.8,"wind_gusts":27.7,"aqi":100,"pm10":31.9,"pm2_5":24.8,"mosquito_risk":7,"arthritis_risk":5,"migraine_risk":4,"frizz_risk":1,"updated_at":"2026-04-16T05:15:05.510670+05:30"},{"city":"Vadodara","state":"Gujarat","latitude":22.3072,"longitude":73.1812,"temp":25.6,"humidity":81,"rain":0.0,"pressure":1001.3,"uv_index":8.1,"wind_gusts":22.7,"aqi":85,"pm10":23.0,"pm2_5":19.7,"mosquito_risk":7,"arthritis_risk":5,"migraine_risk":4,"frizz_risk":1,"updated_at":"2026-04-16T05:15:05.510683+05:30"},{"city":"Rajkot","state":"Gujarat","latitude":22.3039,"longitude":70.8022,"temp":22.6,"humidity":91,"rain":0.0,"pressure":991.6,"uv_index":7.7,"wind_gusts":29.9,"aqi":62,"pm10":33.8,"pm2_5":14.2,"mosquito_risk":3,"arthritis_risk":5,"migraine_risk":7,"frizz_risk":1,"updated_at":"2026-04-16T05:15:05.510693+05:30"},{"city":"Thane","state":"Maharashtra","latitude":19.2183,"longitude":72.9781,"temp":26.1,"humidity":89,"rain":0.0,"pressure":1005.6,"uv_index":8.0,"wind_gusts":32.4,"aqi":82,"pm10":42.5,"pm2_5":24.1,"mosquito_risk":7,"arthritis_risk":5,"migraine_risk":4,"frizz_risk":1,"updated_at":"2026-04-16T05:15:05.510702+05:30"},{"city":"Nagpur","state":"Maharashtra","latitude":21.1458,"longitude":79.0882,"temp":25.7,"humidity":45,"rain":0.0,"pressure":969.7,"uv_index":8.85,"wind_gusts":15.1,"aqi":64,"pm10":19.1,"pm2_5":16.6,"mosquito_risk":4,"arthritis_risk":5,"migraine_risk":7,"frizz_risk":0,"updated_at":"2026-04-16T05:15:05.510711+05:30"},{"city":"Nashik","state":"Maharashtra","latitude":19.9975,"longitude":73.7898,"temp":21.6,"humidity":56,"rain":0.0,"pressure":942.8,"uv_index":8.3,"wind_gusts":31.7,"aqi":58,"pm10":31.0,"pm2_5":20.6,"mosquito_risk":0,"arthritis_risk":5,"migraine_risk":7,"frizz_risk":0,"updated_at":"2026-04-16T05:15:05.510720+05:30"},{"city":"Aurangabad","state":"Maharashtra","latitude":19.8762,"longitude":75.3433,"temp":25.0,"humidity":36,"rain":0.0,"pressure":941.5,"uv_index":9.0,"wind_gusts":27.0,"aqi":42,"pm10":23.3,"pm2_5":9.1,"mosquito_risk":4,"arthritis_risk":5,"migraine_risk":7,"frizz_risk":0,"updated_at":"2026-04-16T05:15:05.510752+05:30"},{"city":"Solapur","state":"Maharashtra","latitude":17.6599,"longitude":75.9064,"temp":26.0,"humidity":46,"rain":0.0,"pressure":954.3,"uv_index":9.05,"wind_gusts":23.8,"aqi":72,"pm10":16.1,"pm2_5":14.3,"mosquito_risk":4,"arthritis_risk":5,"migraine_risk":7,"frizz_risk":0,"updated_at":"2026-04-16T05:15:05.510763+05:30"},{"city":"Kolhapur","state":"Maharashtra","latitude":16.705,"longitude":74.2433,"temp":21.0,"humidity":87,"rain":0.0,"pressure":944.8,"uv_index":9.0,"wind_gusts":38.9,"aqi":83,"pm10":36.0,"pm2_5":27.5,"mosquito_risk":3,"arthritis_risk":5,"migraine_risk":7,"frizz_risk":1,"updated_at":"2026-04-16T05:15:05.510770+05:30"},{"city":"Goa","state":"Goa","latitude":15.2993,"longitude":74.124,"temp":27.6,"humidity":77,"rain":0.0,"pressure":995.4,"uv_index":9.0,"wind_gusts":29.2,"aqi":78,"pm10":58.6,"pm2_5":30.0,"mosquito_risk":7,"arthritis_risk":5,"migraine_risk":7,"frizz_risk":1,"updated_at":"2026-04-16T05:15:05.510777+05:30"},{"city":"Jodhpur","state":"Rajasthan","latitude":26.2389,"longitude":73.0243,"temp":27.0,"humidity":46,"rain":0.0,"pressure":979.0,"uv_index":8.15,"wind_gusts":25.6,"aqi":69,"pm10":49.9,"pm2_5":21.0,"mosquito_risk":4,"arthritis_risk":5,"migraine_risk":7,"frizz_risk":0,"updated_at":"2026-04-16T05:15:05.510784+05:30"},{"city":"Udaipur","state":"Rajasthan","latitude":24.5854,"longitude":73.7125,"temp":23.1,"humidity":53,"rain":0.0,"pressure":943.7,"uv_index":8.7,"wind_gusts":29.2,"aqi":70,"pm10":92.2,"pm2_5":23.4,"mosquito_risk":0,"arthritis_risk":5,"migraine_risk":7,"frizz_risk":0,"updated_at":"2026-04-16T05:15:05.510791+05:30"},{"city":"Kota","state":"Rajasthan","latitude":25.2138,"longitude":75.8648,"temp":25.9,"humidity":63,"rain":0.0,"pressure":975.1,"uv_index":8.2,"wind_gusts":16.9,"aqi":64,"pm10":63.6,"pm2_5":24.4,"mosquito_risk":7,"arthritis_risk":5,"migraine_risk":7,"frizz_risk":1,"updated_at":"2026-04-16T05:15:05.510798+05:30"},{"city":"Bikaner","state":"Rajasthan","latitude":28.0229,"longitude":73.3119,"temp":26.3,"humidity":44,"rain":0.0,"pressure":978.0,"uv_index":7.8,"wind_gusts":24.1,"aqi":59,"pm10":20.8,"pm2_5":11.3,"mosquito_risk":4,"arthritis_risk":5,"migraine_risk":7,"frizz_risk":0,"updated_at":"2026-04-16T05:15:05.510805+05:30"},{"city":"Ajmer","state":"Rajasthan","latitude":26.4499,"longitude":74.6399,"temp":25.8,"humidity":33,"rain":0.0,"pressure":951.3,"uv_index":8.15,"wind_gusts":31.3,"aqi":71,"pm10":36.9,"pm2_5":14.2,"mosquito_risk":4,"arthritis_risk":5,"migraine_risk":7,"frizz_risk":0,"updated_at":"2026-04-16T05:15:05.510812+05:30"},{"city":"Gwalior","state":"Madhya Pradesh","latitude":26.2183,"longitude":78.1828,"temp":25.3,"humidity":51,"rain":0.0,"pressure":980.3,"uv_index":7.95,"wind_gusts":26.6,"aqi":113,"pm10":298.0,"pm2_5":48.5,"mosquito_risk":4,"arthritis_risk":5,"migraine_risk":7,"frizz_risk":0,"updated_at":"2026-04-16T05:15:05.510818+05:30"},{"city":"Indore","state":"Madhya Pradesh","latitude":22.7196,"longitude":75.8577,"temp":23.9,"humidity":59,"rain":0.0,"pressure":945.0,"uv_index":8.55,"wind_gusts":25.2,"aqi":65,"pm10":39.0,"pm2_5":21.5,"mosquito_risk":0,"arthritis_risk":5,"migraine_risk":7,"frizz_risk":0,"updated_at":"2026-04-16T05:15:05.510825+05:30"},{"city":"Bhopal","state":"Madhya Pradesh","latitude":23.2599,"longitude":77.4126,"temp":26.4,"humidity":54,"rain":0.0,"pressure":950.9,"uv_index":8.55,"wind_gusts":20.5,"aqi":58,"pm10":36.9,"pm2_5":25.1,"mosquito_risk":4,"arthritis_risk":5,"migraine_risk":7,"frizz_risk":1,"updated_at":"2026-04-16T05:15:05.510831+05:30"},{"city":"Jabalpur","state":"Madhya Pradesh","latitude":23.1815,"longitude":79.9864,"temp":23.4,"humidity":63,"rain":0.0,"pressure":957.9,"uv_index":8.7,"wind_gusts":23.4,"aqi":48,"pm10":22.4,"pm2_5":14.9,"mosquito_risk":3,"arthritis_risk":5,"migraine_risk":7,"frizz_risk":0,"updated_at":"2026-04-16T05:15:05.510838+05:30"},{"city":"Ujjain","state":"Madhya Pradesh","latitude":23.1765,"longitude":75.7885,"temp":23.9,"humidity":61,"rain":0.0,"pressure":950.6,"uv_index":8.5,"wind_gusts":24.1,"aqi":71,"pm10":42.3,"pm2_5":23.6,"mosquito_risk":3,"arthritis_risk":5,"migraine_risk":7,"frizz_risk":0,"updated_at":"2026-04-16T05:15:05.510845+05:30"},{"city":"Visakhapatnam","state":"Andhra Pradesh","latitude":17.6868,"longitude":83.2185,"temp":26.8,"humidity":89,"rain":0.0,"pressure":1001.7,"uv_index":9.15,"wind_gusts":45.0,"aqi":53,"pm10":13.2,"pm2_5":11.0,"mosquito_risk":7,"arthritis_risk":5,"migraine_risk":4,"frizz_risk":1,"updated_at":"2026-04-16T05:15:05.510852+05:30"},{"city":"Vijayawada","state":"Andhra Pradesh","latitude":16.5062,"longitude":80.648,"temp":27.4,"humidity":90,"rain":0.0,"pressure":1000.2,"uv_index":9.2,"wind_gusts":31.0,"aqi":43,"pm10":8.8,"pm2_5":7.2,"mosquito_risk":7,"arthritis_risk":5,"migraine_risk":4,"frizz_risk":1,"updated_at":"2026-04-16T05:15:05.510859+05:30"},{"city":"Guntur","state":"Andhra Pradesh","latitude":16.3067,"longitude":80.4365,"temp":27.5,"humidity":90,"rain":0.0,"pressure":1001.3,"uv_index":9.2,"wind_gusts":32.4,"aqi":49,"pm10":8.1,"pm2_5":6.4,"mosquito_risk":7,"arthritis_risk":5,"migraine_risk":4,"frizz_risk":1,"updated_at":"2026-04-16T05:15:05.510866+05:30"},{"city":"Nellore","state":"Andhra Pradesh","latitude":14.4426,"longitude":79.9865,"temp":26.9,"humidity":92,"rain":0.0,"pressure":1002.8,"uv_index":9.3,"wind_gusts":38.2,"aqi":43,"pm10":8.6,"pm2_5":7.5,"mosquito_risk":7,"arthritis_risk":5,"migraine_risk":4,"frizz_risk":1,"updated_at":"2026-04-16T05:15:05.510873+05:30"},{"city":"Kurnool","state":"Andhra Pradesh","latitude":15.8281,"longitude":78.0373,"temp":31.1,"humidity":45,"rain":0.0,"pressure":974.3,"uv_index":9.2,"wind_gusts":19.4,"aqi":87,"pm10":12.9,"pm2_5":12.2,"mosquito_risk":0,"arthritis_risk":5,"migraine_risk":7,"frizz_risk":1,"updated_at":"2026-04-16T05:15:05.510881+05:30"},{"city":"Kakinada","state":"Andhra Pradesh","latitude":16.9891,"longitude":82.2475,"temp":26.6,"humidity":91,"rain":0.0,"pressure":1005.6,"uv_index":9.2,"wind_gusts":36.0,"aqi":36,"pm10":10.8,"pm2_5":7.7,"mosquito_risk":7,"arthritis_risk":5,"migraine_risk":4,"frizz_risk":1,"updated_at":"2026-04-16T05:15:05.510888+05:30"},{"city":"Tirupati","state":"Andhra Pradesh","latitude":13.6288,"longitude":79.4192,"temp":25.5,"humidity":92,"rain":0.0,"pressure":989.7,"uv_index":9.4,"wind_gusts":32.8,"aqi":60,"pm10":23.7,"pm2_5":23.2,"mosquito_risk":7,"arthritis_risk":5,"migraine_risk":7,"frizz_risk":1,"updated_at":"2026-04-16T05:15:05.510895+05:30"},{"city":"Warangal","state":"Telangana","latitude":17.9689,"longitude":79.5941,"temp":26.4,"humidity":78,"rain":0.0,"pressure":975.7,"uv_index":9.1,"wind_gusts":26.3,"aqi":72,"pm10":12.9,"pm2_5":12.2,"mosquito_risk":7,"arthritis_risk":5,"migraine_risk":7,"frizz_risk":1,"updated_at":"2026-04-16T05:15:05.510902+05:30"},{"city":"Nizamabad","state":"Telangana","latitude":18.6725,"longitude":78.0941,"temp":27.1,"humidity":54,"rain":0.0,"pressure":962.2,"uv_index":9.05,"wind_gusts":27.4,"aqi":80,"pm10":37.0,"pm2_5":34.9,"mosquito_risk":4,"arthritis_risk":5,"migraine_risk":7,"frizz_risk":1,"updated_at":"2026-04-16T05:15:05.510908+05:30"},{"city":"Mysore","state":"Karnataka","latitude":12.2958,"longitude":76.6396,"temp":23.0,"humidity":93,"rain":0.0,"pressure":926.4,"uv_index":9.5,"wind_gusts":38.5,"aqi":77,"pm10":38.2,"pm2_5":32.4,"mosquito_risk":3,"arthritis_risk":5,"migraine_risk":7,"frizz_risk":1,"updated_at":"2026-04-16T05:15:05.510915+05:30"},{"city":"Mangalore","state":"Karnataka","latitude":12.9141,"longitude":74.856,"temp":29.4,"humidity":80,"rain":0.0,"pressure":1004.1,"uv_index":8.75,"wind_gusts":22.3,"aqi":77,"pm10":53.9,"pm2_5":31.4,"mosquito_risk":7,"arthritis_risk":5,"migraine_risk":4,"frizz_risk":1,"updated_at":"2026-04-16T05:15:05.510922+05:30"},{"city":"Hubli-Dharwad","state":"Karnataka","latitude":15.3647,"longitude":75.124,"temp":23.4,"humidity":93,"rain":0.0,"pressure":938.4,"uv_index":8.35,"wind_gusts":29.5,"aqi":70,"pm10":35.5,"pm2_5":18.2,"mosquito_risk":3,"arthritis_risk":5,"migraine_risk":7,"frizz_risk":1,"updated_at":"2026-04-16T05:15:05.510929+05:30"},{"city":"Belgaum","state":"Karnataka","latitude":15.8497,"longitude":74.4977,"temp":20.9,"humidity":97,"rain":0.0,"pressure":922.8,"uv_index":9.25,"wind_gusts":36.7,"aqi":69,"pm10":38.4,"pm2_5":24.4,"mosquito_risk":3,"arthritis_risk":5,"migraine_risk":7,"frizz_risk":1,"updated_at":"2026-04-16T05:15:08.728191+05:30"},{"city":"Coimbatore","state":"Tamil Nadu","latitude":11.0168,"longitude":76.9558,"temp":24.3,"humidity":95,"rain":0.0,"pressure":959.8,"uv_index":9.45,"wind_gusts":37.1,"aqi":90,"pm10":49.6,"pm2_5":43.9,"mosquito_risk":3,"arthritis_risk":5,"migraine_risk":7,"frizz_risk":1,"updated_at":"2026-04-16T05:15:08.728222+05:30"},{"city":"Madurai","state":"Tamil Nadu","latitude":9.9252,"longitude":78.1198,"temp":27.1,"humidity":90,"rain":0.0,"pressure":991.0,"uv_index":9.05,"wind_gusts":36.7,"aqi":56,"pm10":23.6,"pm2_5":21.7,"mosquito_risk":7,"arthritis_risk":5,"migraine_risk":7,"frizz_risk":1,"updated_at":"2026-04-16T05:15:08.728232+05:30"},{"city":"Trichy","state":"Tamil Nadu","latitude":10.7905,"longitude":78.7047,"temp":26.7,"humidity":92,"rain":0.0,"pressure":997.9,"uv_index":9.35,"wind_gusts":27.0,"aqi":48,"pm10":12.5,"pm2_5":11.7,"mosquito_risk":7,"arthritis_risk":5,"migraine_risk":7,"frizz_risk":1,"updated_at":"2026-04-16T05:15:08.728241+05:30"},{"city":"Salem","state":"Tamil Nadu","latitude":11.6643,"longitude":78.146,"temp":24.8,"humidity":85,"rain":0.0,"pressure":975.4,"uv_index":9.45,"wind_gusts":24.5,"aqi":61,"pm10":16.8,"pm2_5":16.5,"mosquito_risk":3,"arthritis_risk":5,"migraine_risk":7,"frizz_risk":1,"updated_at":"2026-04-16T05:15:08.728249+05:30"},{"city":"Tirunelveli","state":"Tamil Nadu","latitude":8.7139,"longitude":77.7567,"temp":27.5,"humidity":77,"rain":0.0,"pressure":1000.9,"uv_index":8.45,"wind_gusts":41.4,"aqi":65,"pm10":36.9,"pm2_5":30.6,"mosquito_risk":7,"arthritis_risk":5,"migraine_risk":4,"frizz_risk":1,"updated_at":"2026-04-16T05:15:08.728256+05:30"},{"city":"Vellore","state":"Tamil Nadu","latitude":12.9165,"longitude":79.1325,"temp":24.9,"humidity":95,"rain":0.0,"pressure":982.6,"uv_index":9.4,"wind_gusts":32.4,"aqi":76,"pm10":35.6,"pm2_5":35.0,"mosquito_risk":3,"arthritis_risk":5,"migraine_risk":7,"frizz_risk":1,"updated_at":"2026-04-16T05:15:08.728263+05:30"},{"city":"Erode","state":"Tamil Nadu","latitude":11.341,"longitude":77.7172,"temp":27.6,"humidity":83,"rain":0.0,"pressure":987.0,"uv_index":9.4,"wind_gusts":30.2,"aqi":59,"pm10":24.5,"pm2_5":22.8,"mosquito_risk":7,"arthritis_risk":5,"migraine_risk":7,"frizz_risk":1,"updated_at":"2026-04-16T05:15:08.728270+05:30"},{"city":"Kochi","state":"Kerala","latitude":9.9312,"longitude":76.2673,"temp":28.8,"humidity":84,"rain":0.0,"pressure":1006.2,"uv_index":9.2,"wind_gusts":31.7,"aqi":95,"pm10":52.2,"pm2_5":47.7,"mosquito_risk":7,"arthritis_risk":5,"migraine_risk":4,"frizz_risk":1,"updated_at":"2026-04-16T05:15:08.728278+05:30"},{"city":"Thiruvananthapuram","state":"Kerala","latitude":8.5241,"longitude":76.9366,"temp":29.1,"humidity":82,"rain":0.0,"pressure":1005.4,"uv_index":8.7,"wind_gusts":25.9,"aqi":74,"pm10":37.1,"pm2_5":26.1,"mosquito_risk":7,"arthritis_risk":5,"migraine_risk":4,"frizz_risk":1,"updated_at":"2026-04-16T05:15:08.728285+05:30"},{"city":"Kozhikode","state":"Kerala","latitude":11.2588,"longitude":75.7804,"temp":29.2,"humidity":83,"rain":0.0,"pressure":1005.2,"uv_index":9.15,"wind_gusts":31.0,"aqi":77,"pm10":48.4,"pm2_5":30.4,"mosquito_risk":7,"arthritis_risk":5,"migraine_risk":4,"frizz_risk":1,"updated_at":"2026-04-16T05:15:08.728291+05:30"},{"city":"Thrissur","state":"Kerala","latitude":10.5276,"longitude":76.2144,"temp":28.1,"humidity":88,"rain":0.0,"pressure":1004.5,"uv_index":9.1,"wind_gusts":38.5,"aqi":97,"pm10":61.5,"pm2_5":53.7,"mosquito_risk":7,"arthritis_risk":5,"migraine_risk":4,"frizz_risk":1,"updated_at":"2026-04-16T05:15:08.728299+05:30"},{"city":"Kannur","state":"Kerala","latitude":11.8745,"longitude":75.3704,"temp":29.1,"humidity":82,"rain":0.0,"pressure":1004.6,"uv_index":9.15,"wind_gusts":30.2,"aqi":77,"pm10":43.3,"pm2_5":32.8,"mosquito_risk":7,"arthritis_risk":5,"migraine_risk":4,"frizz_risk":1,"updated_at":"2026-04-16T05:15:08.728306+05:30"},{"city":"Patna","state":"Bihar","latitude":25.5941,"longitude":85.1376,"temp":25.3,"humidity":82,"rain":0.0,"pressure":998.1,"uv_index":8.55,"wind_gusts":33.1,"aqi":116,"pm10":71.9,"pm2_5":63.6,"mosquito_risk":7,"arthritis_risk":5,"migraine_risk":7,"frizz_risk":1,"updated_at":"2026-04-16T05:15:08.728314+05:30"},{"city":"Gaya","state":"Bihar","latitude":24.7914,"longitude":85.0002,"temp":23.9,"humidity":75,"rain":0.0,"pressure":990.6,"uv_index":8.65,"wind_gusts":27.0,"aqi":73,"pm10":54.0,"pm2_5":33.1,"mosquito_risk":3,"arthritis_risk":5,"migraine_risk":7,"frizz_risk":1,"updated_at":"2026-04-16T05:15:08.728320+05:30"},{"city":"Muzaffarpur","state":"Bihar","latitude":26.1209,"longitude":85.3647,"temp":24.3,"humidity":85,"rain":0.0,"pressure":998.6,"uv_index":8.55,"wind_gusts":34.2,"aqi":142,"pm10":75.4,"pm2_5":65.9,"mosquito_risk":3,"arthritis_risk":5,"migraine_risk":7,"frizz_risk":1,"updated_at":"2026-04-16T05:15:08.728327+05:30"},{"city":"Bhagalpur","state":"Bihar","latitude":25.2425,"longitude":87.0117,"temp":24.2,"humidity":92,"rain":0.0,"pressure":999.7,"uv_index":8.55,"wind_gusts":35.6,"aqi":145,"pm10":65.9,"pm2_5":56.9,"mosquito_risk":3,"arthritis_risk":5,"migraine_risk":7,"frizz_risk":1,"updated_at":"2026-04-16T05:15:08.728333+05:30"},{"city":"Ranchi","state":"Jharkhand","latitude":23.3441,"longitude":85.3096,"temp":25.0,"humidity":86,"rain":0.0,"pressure":935.6,"uv_index":9.15,"wind_gusts":44.3,"aqi":91,"pm10":76.6,"pm2_5":47.0,"mosquito_risk":7,"arthritis_risk":5,"migraine_risk":7,"frizz_risk":1,"updated_at":"2026-04-16T05:15:08.728339+05:30"},{"city":"Jamshedpur","state":"Jharkhand","latitude":22.8046,"longitude":86.2029,"temp":26.8,"humidity":91,"rain":0.0,"pressure":988.8,"uv_index":9.0,"wind_gusts":43.6,"aqi":124,"pm10":75.2,"pm2_5":58.7,"mosquito_risk":7,"arthritis_risk":5,"migraine_risk":7,"frizz_risk":1,"updated_at":"2026-04-16T05:15:08.728346+05:30"},{"city":"Dhanbad","state":"Jharkhand","latitude":23.7957,"longitude":86.4304,"temp":27.5,"humidity":89,"rain":0.0,"pressure":977.5,"uv_index":8.95,"wind_gusts":42.5,"aqi":150,"pm10":83.1,"pm2_5":77.3,"mosquito_risk":7,"arthritis_risk":5,"migraine_risk":7,"frizz_risk":1,"updated_at":"2026-04-16T05:15:08.728352+05:30"},{"city":"Bokaro","state":"Jharkhand","latitude":23.6693,"longitude":86.1511,"temp":26.1,"humidity":82,"rain":0.0,"pressure":981.5,"uv_index":8.95,"wind_gusts":48.6,"aqi":124,"pm10":93.6,"pm2_5":80.3,"mosquito_risk":7,"arthritis_risk":5,"migraine_risk":7,"frizz_risk":1,"updated_at":"2026-04-16T05:15:08.728359+05:30"},{"city":"Bhubaneswar","state":"Odisha","latitude":20.2961,"longitude":85.8245,"temp":26.9,"humidity":91,"rain":0.0,"pressure":1000.3,"uv_index":9.1,"wind_gusts":40.3,"aqi":66,"pm10":14.6,"pm2_5":10.8,"mosquito_risk":7,"arthritis_risk":5,"migraine_risk":4,"frizz_risk":1,"updated_at":"2026-04-16T05:15:08.728365+05:30"},{"city":"Cuttack","state":"Odisha","latitude":20.4625,"longitude":85.8828,"temp":27.1,"humidity":90,"rain":0.0,"pressure":1002.0,"uv_index":9.15,"wind_gusts":37.4,"aqi":66,"pm10":14.6,"pm2_5":10.8,"mosquito_risk":7,"arthritis_risk":5,"migraine_risk":4,"frizz_risk":1,"updated_at":"2026-04-16T05:15:08.728372+05:30"},{"city":"Rourkela","state":"Odisha","latitude":22.2604,"longitude":84.8536,"temp":28.1,"humidity":83,"rain":0.0,"pressure":982.4,"uv_index":8.9,"wind_gusts":38.9,"aqi":133,"pm10":71.5,"pm2_5":58.2,"mosquito_risk":7,"arthritis_risk":5,"migraine_risk":7,"frizz_risk":1,"updated_at":"2026-04-16T05:15:08.728378+05:30"},{"city":"Raipur","state":"Chhattisgarh","latitude":21.2514,"longitude":81.6296,"temp":28.0,"humidity":54,"rain":0.0,"pressure":971.0,"uv_index":8.95,"wind_gusts":32.0,"aqi":103,"pm10":34.0,"pm2_5":33.3,"mosquito_risk":4,"arthritis_risk":5,"migraine_risk":7,"frizz_risk":1,"updated_at":"2026-04-16T05:15:08.728385+05:30"},{"city":"Bhilai","state":"Chhattisgarh","latitude":21.1938,"longitude":81.3509,"temp":26.8,"humidity":60,"rain":0.0,"pressure":971.3,"uv_index":8.95,"wind_gusts":31.0,"aqi":86,"pm10":25.6,"pm2_5":25.2,"mosquito_risk":4,"arthritis_risk":5,"migraine_risk":7,"frizz_risk":1,"updated_at":"2026-04-16T05:15:08.728391+05:30"},{"city":"Guwahati","state":"Assam","latitude":26.1158,"longitude":91.7086,"temp":22.5,"humidity":92,"rain":0.0,"pressure":1002.4,"uv_index":8.45,"wind_gusts":24.8,"aqi":131,"pm10":56.9,"pm2_5":43.2,"mosquito_risk":3,"arthritis_risk":5,"migraine_risk":4,"frizz_risk":1,"updated_at":"2026-04-16T05:15:08.728397+05:30"},{"city":"Agartala","state":"Tripura","latitude":23.8315,"longitude":91.2868,"temp":22.8,"humidity":94,"rain":0.0,"pressure":1007.5,"uv_index":8.7,"wind_gusts":27.4,"aqi":111,"pm10":29.9,"pm2_5":21.5,"mosquito_risk":3,"arthritis_risk":5,"migraine_risk":4,"frizz_risk":1,"updated_at":"2026-04-16T05:15:08.728403+05:30"},{"city":"Shillong","state":"Meghalaya","latitude":25.5788,"longitude":91.8933,"temp":13.2,"humidity":95,"rain":0.0,"pressure":855.2,"uv_index":7.6,"wind_gusts":53.6,"aqi":99,"pm10":57.6,"pm2_5":36.6,"mosquito_risk":3,"arthritis_risk":10,"migraine_risk":7,"frizz_risk":0,"updated_at":"2026-04-16T05:15:08.728409+05:30"},{"city":"Imphal","state":"Manipur","latitude":24.817,"longitude":93.9368,"temp":17.2,"humidity":91,"rain":0.0,"pressure":923.6,"uv_index":8.45,"wind_gusts":68.0,"aqi":113,"pm10":68.2,"pm2_5":42.6,"mosquito_risk":3,"arthritis_risk":10,"migraine_risk":7,"frizz_risk":0,"updated_at":"2026-04-16T05:15:08.728416+05:30"},{"city":"Aizawl","state":"Mizoram","latitude":23.7271,"longitude":92.7176,"temp":18.4,"humidity":92,"rain":0.0,"pressure":893.0,"uv_index":8.95,"wind_gusts":32.8,"aqi":123,"pm10":83.1,"pm2_5":54.0,"mosquito_risk":3,"arthritis_risk":10,"migraine_risk":7,"frizz_risk":1,"updated_at":"2026-04-16T05:15:08.728422+05:30"},{"city":"Kohima","state":"Nagaland","latitude":25.6701,"longitude":94.1077,"temp":14.4,"humidity":81,"rain":0.0,"pressure":854.5,"uv_index":8.7,"wind_gusts":54.4,"aqi":95,"pm10":53.0,"pm2_5":28.3,"mosquito_risk":3,"arthritis_risk":10,"migraine_risk":7,"frizz_risk":0,"updated_at":"2026-04-16T05:15:08.728429+05:30"},{"city":"Gangtok","state":"Sikkim","latitude":27.3314,"longitude":88.6138,"temp":14.2,"humidity":77,"rain":0.0,"pressure":835.9,"uv_index":8.8,"wind_gusts":18.7,"aqi":151,"pm10":43.9,"pm2_5":31.2,"mosquito_risk":3,"arthritis_risk":5,"migraine_risk":7,"frizz_risk":0,"updated_at":"2026-04-16T05:15:08.728435+05:30"},{"city":"Siliguri","state":"West Bengal","latitude":26.7271,"longitude":88.3953,"temp":19.5,"humidity":85,"rain":0.0,"pressure":994.9,"uv_index":8.45,"wind_gusts":23.4,"aqi":164,"pm10":156.5,"pm2_5":104.5,"mosquito_risk":3,"arthritis_risk":10,"migraine_risk":7,"frizz_risk":1,"updated_at":"2026-04-16T05:15:11.959824+05:30"},{"city":"Durgapur","state":"West Bengal","latitude":23.5204,"longitude":87.3119,"temp":27.5,"humidity":91,"rain":0.0,"pressure":993.2,"uv_index":8.85,"wind_gusts":40.7,"aqi":131,"pm10":46.9,"pm2_5":43.9,"mosquito_risk":7,"arthritis_risk":5,"migraine_risk":7,"frizz_risk":1,"updated_at":"2026-04-16T05:15:11.959859+05:30"},{"city":"Asansol","state":"West Bengal","latitude":23.6739,"longitude":86.9524,"temp":27.9,"humidity":89,"rain":0.0,"pressure":991.5,"uv_index":8.9,"wind_gusts":50.4,"aqi":126,"pm10":52.7,"pm2_5":49.9,"mosquito_risk":7,"arthritis_risk":5,"migraine_risk":7,"frizz_risk":1,"updated_at":"2026-04-16T05:15:11.959871+05:30"},{"city":"Pondicherry","state":"Puducherry","latitude":11.9139,"longitude":79.8145,"temp":27.5,"humidity":96,"rain":0.0,"pressure":1006.7,"uv_index":9.25,"wind_gusts":28.8,"aqi":35,"pm10":8.4,"pm2_5":5.6,"mosquito_risk":7,"arthritis_risk":5,"migraine_risk":4,"frizz_risk":1,"updated_at":"2026-04-16T05:15:11.959881+05:30"},{"city":"Port Blair","state":"Andaman and Nicobar Islands","latitude":11.6234,"longitude":92.7265,"temp":29.2,"humidity":69,"rain":0.0,"pressure":1006.3,"uv_index":9.2,"wind_gusts":13.3,"aqi":65,"pm10":25.3,"pm2_5":18.2,"mosquito_risk":7,"arthritis_risk":5,"migraine_risk":4,"frizz_risk":1,"updated_at":"2026-04-16T05:15:11.959890+05:30"},{"city":"Haridwar","state":"Uttarakhand","latitude":29.9457,"longitude":78.1642,"temp":19.0,"humidity":71,"rain":0.0,"pressure":971.6,"uv_index":7.05,"wind_gusts":31.7,"aqi":53,"pm10":18.9,"pm2_5":18.9,"mosquito_risk":3,"arthritis_risk":5,"migraine_risk":7,"frizz_risk":0,"updated_at":"2026-04-16T05:15:11.959900+05:30"},{"city":"Rishikesh","state":"Uttarakhand","latitude":30.0869,"longitude":78.2676,"temp":19.2,"humidity":71,"rain":0.0,"pressure":964.7,"uv_index":7.0,"wind_gusts":33.1,"aqi":59,"pm10":14.3,"pm2_5":14.2,"mosquito_risk":3,"arthritis_risk":5,"migraine_risk":7,"frizz_risk":0,"updated_at":"2026-04-16T05:15:11.959909+05:30"},{"city":"Nainital","state":"Uttarakhand","latitude":29.3919,"longitude":79.4542,"temp":19.6,"humidity":33,"rain":0.0,"pressure":804.7,"uv_index":8.1,"wind_gusts":50.0,"aqi":66,"pm10":10.8,"pm2_5":9.3,"mosquito_risk":0,"arthritis_risk":5,"migraine_risk":7,"frizz_risk":0,"updated_at":"2026-04-16T05:15:11.959918+05:30"},{"city":"Mussoorie","state":"Uttarakhand","latitude":30.4599,"longitude":78.0664,"temp":16.6,"humidity":56,"rain":0.0,"pressure":800.9,"uv_index":7.1,"wind_gusts":38.2,"aqi":51,"pm10":14.9,"pm2_5":14.9,"mosquito_risk":0,"arthritis_risk":5,"migraine_risk":7,"frizz_risk":0,"updated_at":"2026-04-16T05:15:11.959925+05:30"},{"city":"Dharamshala","state":"Himachal Pradesh","latitude":32.219,"longitude":76.3234,"temp":20.6,"humidity":41,"rain":0.0,"pressure":867.5,"uv_index":7.2,"wind_gusts":25.2,"aqi":52,"pm10":5.7,"pm2_5":4.8,"mosquito_risk":0,"arthritis_risk":5,"migraine_risk":7,"frizz_risk":0,"updated_at":"2026-04-16T05:15:11.959932+05:30"},{"city":"Dalhousie","state":"Himachal Pradesh","latitude":32.5387,"longitude":75.971,"temp":17.2,"humidity":40,"rain":0.0,"pressure":801.9,"uv_index":7.75,"wind_gusts":25.6,"aqi":50,"pm10":11.6,"pm2_5":11.1,"mosquito_risk":0,"arthritis_risk":5,"migraine_risk":7,"frizz_risk":0,"updated_at":"2026-04-16T05:15:11.959940+05:30"},{"city":"Patiala","state":"Punjab","latitude":30.3398,"longitude":76.3869,"temp":18.2,"humidity":65,"rain":0.0,"pressure":975.4,"uv_index":7.1,"wind_gusts":19.8,"aqi":160,"pm10":39.3,"pm2_5":37.8,"mosquito_risk":3,"arthritis_risk":5,"migraine_risk":7,"frizz_risk":0,"updated_at":"2026-04-16T05:15:11.959947+05:30"},{"city":"Bhatinda","state":"Punjab","latitude":30.211,"longitude":74.9455,"temp":22.3,"humidity":57,"rain":0.0,"pressure":980.3,"uv_index":7.45,"wind_gusts":23.0,"aqi":61,"pm10":42.5,"pm2_5":27.8,"mosquito_risk":0,"arthritis_risk":5,"migraine_risk":7,"frizz_risk":0,"updated_at":"2026-04-16T05:15:11.959954+05:30"},{"city":"Rohtak","state":"Haryana","latitude":28.8955,"longitude":76.6066,"temp":20.9,"humidity":54,"rain":0.0,"pressure":978.7,"uv_index":7.35,"wind_gusts":27.0,"aqi":421,"pm10":711.5,"pm2_5":125.7,"mosquito_risk":0,"arthritis_risk":5,"migraine_risk":7,"frizz_risk":0,"updated_at":"2026-04-16T05:15:11.959961+05:30"},{"city":"Panipat","state":"Haryana","latitude":29.3909,"longitude":76.9635,"temp":19.7,"humidity":60,"rain":0.0,"pressure":977.5,"uv_index":7.2,"wind_gusts":23.0,"aqi":696,"pm10":408.9,"pm2_5":98.0,"mosquito_risk":0,"arthritis_risk":5,"migraine_risk":7,"frizz_risk":0,"updated_at":"2026-04-16T05:15:11.959967+05:30"},{"city":"Mathura","state":"Uttar Pradesh","latitude":27.4924,"longitude":77.6737,"temp":23.3,"humidity":43,"rain":0.0,"pressure":984.2,"uv_index":7.65,"wind_gusts":25.2,"aqi":418,"pm10":538.3,"pm2_5":99.4,"mosquito_risk":0,"arthritis_risk":5,"migraine_risk":7,"frizz_risk":0,"updated_at":"2026-04-16T05:15:11.959974+05:30"},{"city":"Vrindavan","state":"Uttar Pradesh","latitude":27.5823,"longitude":77.7027,"temp":21.8,"humidity":46,"rain":0.0,"pressure":984.7,"uv_index":7.6,"wind_gusts":26.6,"aqi":418,"pm10":538.3,"pm2_5":99.4,"mosquito_risk":0,"arthritis_risk":5,"migraine_risk":7,"frizz_risk":0,"updated_at":"2026-04-16T05:15:11.959980+05:30"},{"city":"Ayodhya","state":"Uttar Pradesh","latitude":26.7922,"longitude":82.1998,"temp":22.7,"humidity":52,"rain":0.0,"pressure":992.8,"uv_index":8.0,"wind_gusts":22.7,"aqi":84,"pm10":91.7,"pm2_5":30.4,"mosquito_risk":0,"arthritis_risk":5,"migraine_risk":7,"frizz_risk":0,"updated_at":"2026-04-16T05:15:11.959987+05:30"},{"city":"Ratlam","state":"Madhya Pradesh","latitude":23.3315,"longitude":75.0367,"temp":23.0,"humidity":68,"rain":0.0,"pressure":951.4,"uv_index":8.4,"wind_gusts":28.8,"aqi":65,"pm10":43.8,"pm2_5":22.1,"mosquito_risk":3,"arthritis_risk":5,"migraine_risk":7,"frizz_risk":1,"updated_at":"2026-04-16T05:15:11.959994+05:30"},{"city":"Sagar","state":"Madhya Pradesh","latitude":23.8388,"longitude":78.7378,"temp":25.6,"humidity":48,"rain":0.0,"pressure":947.2,"uv_index":8.55,"wind_gusts":21.6,"aqi":48,"pm10":43.2,"pm2_5":16.6,"mosquito_risk":4,"arthritis_risk":5,"migraine_risk":7,"frizz_risk":0,"updated_at":"2026-04-16T05:15:11.960001+05:30"},{"city":"Satna","state":"Madhya Pradesh","latitude":24.6005,"longitude":80.8322,"temp":27.9,"humidity":45,"rain":0.0,"pressure":968.4,"uv_index":8.6,"wind_gusts":28.8,"aqi":72,"pm10":68.2,"pm2_5":21.5,"mosquito_risk":4,"arthritis_risk":5,"migraine_risk":7,"frizz_risk":0,"updated_at":"2026-04-16T05:15:11.960007+05:30"},{"city":"Akola","state":"Maharashtra","latitude":20.7002,"longitude":77.0082,"temp":25.5,"humidity":59,"rain":0.0,"pressure":972.1,"uv_index":8.8,"wind_gusts":24.1,"aqi":51,"pm10":29.7,"pm2_5":19.0,"mosquito_risk":4,"arthritis_risk":5,"migraine_risk":7,"frizz_risk":1,"updated_at":"2026-04-16T05:15:11.960015+05:30"},{"city":"Amravati","state":"Maharashtra","latitude":20.9374,"longitude":77.7796,"temp":23.8,"humidity":59,"rain":0.0,"pressure":963.9,"uv_index":8.8,"wind_gusts":19.1,"aqi":47,"pm10":26.8,"pm2_5":17.5,"mosquito_risk":0,"arthritis_risk":5,"migraine_risk":7,"frizz_risk":0,"updated_at":"2026-04-16T05:15:11.960022+05:30"},{"city":"Latur","state":"Maharashtra","latitude":18.4088,"longitude":76.5604,"temp":24.0,"humidity":54,"rain":0.0,"pressure":936.8,"uv_index":9.05,"wind_gusts":23.4,"aqi":64,"pm10":20.4,"pm2_5":13.3,"mosquito_risk":0,"arthritis_risk":5,"migraine_risk":7,"frizz_risk":0,"updated_at":"2026-04-16T05:15:11.960029+05:30"},{"city":"Nanded","state":"Maharashtra","latitude":19.1383,"longitude":77.3091,"temp":24.7,"humidity":57,"rain":0.0,"pressure":965.7,"uv_index":8.95,"wind_gusts":17.3,"aqi":63,"pm10":25.7,"pm2_5":19.2,"mosquito_risk":0,"arthritis_risk":5,"migraine_risk":7,"frizz_risk":0,"updated_at":"2026-04-16T05:15:11.960036+05:30"},{"city":"Gulbarga","state":"Karnataka","latitude":17.3297,"longitude":76.8343,"temp":28.5,"humidity":43,"rain":0.0,"pressure":955.6,"uv_index":9.05,"wind_gusts":27.4,"aqi":93,"pm10":26.0,"pm2_5":24.0,"mosquito_risk":4,"arthritis_risk":5,"migraine_risk":7,"frizz_risk":0,"updated_at":"2026-04-16T05:15:11.960042+05:30"},{"city":"Bidar","state":"Karnataka","latitude":17.9104,"longitude":77.5199,"temp":26.9,"humidity":51,"rain":0.0,"pressure":933.0,"uv_index":9.1,"wind_gusts":33.8,"aqi":106,"pm10":49.8,"pm2_5":41.4,"mosquito_risk":4,"arthritis_risk":5,"migraine_risk":7,"frizz_risk":0,"updated_at":"2026-04-16T05:15:11.960049+05:30"},{"city":"Hospet","state":"Karnataka","latitude":15.2689,"longitude":76.3909,"temp":26.5,"humidity":81,"rain":0.0,"pressure":954.5,"uv_index":9.25,"wind_gusts":31.7,"aqi":79,"pm10":25.3,"pm2_5":18.9,"mosquito_risk":7,"arthritis_risk":5,"migraine_risk":7,"frizz_risk":1,"updated_at":"2026-04-16T05:15:11.960055+05:30"},{"city":"Tirupur","state":"Tamil Nadu","latitude":11.1085,"longitude":77.3411,"temp":26.4,"humidity":90,"rain":0.0,"pressure":973.3,"uv_index":9.5,"wind_gusts":32.8,"aqi":74,"pm10":37.6,"pm2_5":32.8,"mosquito_risk":7,"arthritis_risk":5,"migraine_risk":7,"frizz_risk":1,"updated_at":"2026-04-16T05:15:11.960062+05:30"},{"city":"Alappuzha","state":"Kerala","latitude":9.4981,"longitude":76.3388,"temp":28.7,"humidity":84,"rain":0.0,"pressure":1006.3,"uv_index":8.65,"wind_gusts":29.5,"aqi":92,"pm10":51.1,"pm2_5":39.2,"mosquito_risk":7,"arthritis_risk":5,"migraine_risk":4,"frizz_risk":1,"updated_at":"2026-04-16T05:15:11.960068+05:30"},{"city":"Munnar","state":"Kerala","latitude":10.0889,"longitude":77.0595,"temp":20.4,"humidity":70,"rain":0.0,"pressure":854.5,"uv_index":9.05,"wind_gusts":22.0,"aqi":71,"pm10":32.0,"pm2_5":28.9,"mosquito_risk":3,"arthritis_risk":5,"migraine_risk":7,"frizz_risk":0,"updated_at":"2026-04-16T05:15:11.960075+05:30"},{"city":"Silchar","state":"Assam","latitude":24.8333,"longitude":92.7789,"temp":22.3,"humidity":95,"rain":0.0,"pressure":1006.9,"uv_index":8.7,"wind_gusts":26.6,"aqi":114,"pm10":55.8,"pm2_5":34.1,"mosquito_risk":3,"arthritis_risk":5,"migraine_risk":4,"frizz_risk":1,"updated_at":"2026-04-16T05:15:11.960082+05:30"},{"city":"Dibrugarh","state":"Assam","latitude":27.4728,"longitude":94.912,"temp":19.9,"humidity":91,"rain":0.0,"pressure":997.9,"uv_index":8.55,"wind_gusts":9.4,"aqi":148,"pm10":57.5,"pm2_5":39.7,"mosquito_risk":3,"arthritis_risk":10,"migraine_risk":7,"frizz_risk":1,"updated_at":"2026-04-16T05:15:11.960088+05:30"}]