[{"city":"Delhi","state":"Delhi","latitude":28.6139,"longitude":77.209,"temp":31.4,"humidity":32,"rain":0.0,"pressure":979.6,"uv_index":6.15,"wind_gusts":21.6,"aqi":139,"pm10":168.1,"pm2_5":31.4,"mosquito_risk":0,"arthritis_risk":5,"migraine_risk":7,"frizz_risk":0,"updated_at":"2026-03-28T16:06:11.533733+05:30"},{"city":"Mumbai","state":"Maharashtra","latitude":19.076,"longitude":72.8777,"temp":27.8,"humidity":75,"rain":0.0,"pressure":1006.4,"uv_index":8.0,"wind_gusts":24.5,"aqi":98,"pm10":25.6,"pm2_5":18.5,"mosquito_risk":7,"arthritis_risk":5,"migraine_risk":4,"frizz_risk":1,"updated_at":"2026-03-28T16:06:11.533783+05:30"},{"city":"Bangalore","state":"Karnataka","latitude":12.9716,"longitude":77.5946,"temp":29.0,"humidity":49,"rain":0.0,"pressure":909.7,"uv_index":9.5,"wind_gusts":42.5,"aqi":116,"pm10":41.9,"pm2_5":33.8,"mosquito_risk":4,"arthritis_risk":5,"migraine_risk":7,"frizz_risk":1,"updated_at":"2026-03-28T16:06:11.533829+05:30"},{"city":"Hyderabad","state":"Telangana","latitude":17.385,"longitude":78.4867,"temp":37.8,"humidity":18,"rain":0.0,"pressure":949.3,"uv_index":9.0,"wind_gusts":24.8,"aqi":115,"pm10":31.9,"pm2_5":25.6,"mosquito_risk":0,"arthritis_risk":5,"migraine_risk":10,"frizz_risk":0,"updated_at":"2026-03-28T16:06:11.533848+05:30"},{"city":"Chennai","state":"Tamil Nadu","latitude":13.0827,"longitude":80.2707,"temp":32.3,"humidity":58,"rain":0.0,"pressure":1004.1,"uv_index":9.25,"wind_gusts":34.6,"aqi":68,"pm10":28.8,"pm2_5":20.3,"mosquito_risk":0,"arthritis_risk":5,"migraine_risk":4,"frizz_risk":1,"updated_at":"2026-03-28T16:06:11.533863+05:30"},{"city":"Kolkata","state":"West Bengal","latitude":22.5726,"longitude":88.3639,"temp":31.0,"humidity":57,"rain":0.0,"pressure":1002.5,"uv_index":8.4,"wind_gusts":31.7,"aqi":161,"pm10":61.0,"pm2_5":50.6,"mosquito_risk":0,"arthritis_risk":5,"migraine_risk":4,"frizz_risk":1,"updated_at":"2026-03-28T16:06:11.533879+05:30"},{"city":"Pune","state":"Maharashtra","latitude":18.5204,"longitude":73.8567,"temp":35.7,"humidity":23,"rain":0.0,"pressure":946.4,"uv_index":8.5,"wind_gusts":49.0,"aqi":79,"pm10":17.9,"pm2_5":14.6,"mosquito_risk":0,"arthritis_risk":5,"migraine_risk":10,"frizz_risk":0,"updated_at":"2026-03-28T16:06:11.533897+05:30"},{"city":"Ahmedabad","state":"Gujarat","latitude":23.0225,"longitude":72.5714,"temp":35.6,"humidity":33,"rain":0.0,"pressure":998.3,"uv_index":7.95,"wind_gusts":34.2,"aqi":37,"pm10":51.0,"pm2_5":11.0,"mosquito_risk":0,"arthritis_risk":5,"migraine_risk":10,"frizz_risk":1,"updated_at":"2026-03-28T16:06:11.533911+05:30"},{"city":"Jaipur","state":"Rajasthan","latitude":26.9124,"longitude":75.7873,"temp":34.0,"humidity":23,"rain":0.0,"pressure":956.1,"uv_index":7.25,"wind_gusts":32.4,"aqi":96,"pm10":177.4,"pm2_5":21.4,"mosquito_risk":0,"arthritis_risk":5,"migraine_risk":7,"frizz_risk":0,"updated_at":"2026-03-28T16:06:11.533923+05:30"},{"city":"Lucknow","state":"Uttar Pradesh","latitude":26.8467,"longitude":80.9462,"temp":32.8,"humidity":29,"rain":0.0,"pressure":989.4,"uv_index":7.15,"wind_gusts":28.1,"aqi":127,"pm10":154.1,"pm2_5":30.7,"mosquito_risk":0,"arthritis_risk":5,"migraine_risk":7,"frizz_risk":0,"updated_at":"2026-03-28T16:06:11.533941+05:30"},{"city":"Kanpur","state":"Uttar Pradesh","latitude":26.4499,"longitude":80.3319,"temp":32.0,"humidity":37,"rain":0.0,"pressure":988.1,"uv_index":6.95,"wind_gusts":25.2,"aqi":193,"pm10":341.8,"pm2_5":45.8,"mosquito_risk":0,"arthritis_risk":5,"migraine_risk":7,"frizz_risk":0,"updated_at":"2026-03-28T16:06:11.533953+05:30"},{"city":"Chandigarh","state":"Chandigarh","latitude":30.7333,"longitude":76.7794,"temp":29.2,"humidity":46,"rain":0.0,"pressure":965.6,"uv_index":5.25,"wind_gusts":23.4,"aqi":90,"pm10":18.9,"pm2_5":14.0,"mosquito_risk":4,"arthritis_risk":5,"migraine_risk":3,"frizz_risk":1,"updated_at":"2026-03-28T16:06:11.533965+05:30"},{"city":"Srinagar","state":"Jammu and Kashmir","latitude":34.0837,"longitude":74.7973,"temp":18.8,"humidity":50,"rain":0.0,"pressure":838.2,"uv_index":6.0,"wind_gusts":16.2,"aqi":90,"pm10":27.5,"pm2_5":11.8,"mosquito_risk":0,"arthritis_risk":5,"migraine_risk":3,"frizz_risk":0,"updated_at":"2026-03-28T16:06:11.533976+05:30"},{"city":"Jammu","state":"Jammu and Kashmir","latitude":32.7266,"longitude":74.857,"temp":28.9,"humidity":43,"rain":0.0,"pressure":969.5,"uv_index":6.85,"wind_gusts":16.6,"aqi":73,"pm10":13.5,"pm2_5":11.9,"mosquito_risk":4,"arthritis_risk":5,"migraine_risk":7,"frizz_risk":0,"updated_at":"2026-03-28T16:06:11.533987+05:30"},{"city":"Amritsar","state":"Punjab","latitude":31.634,"longitude":74.8723,"temp":29.2,"humidity":44,"rain":0.0,"pressure":977.3,"uv_index":6.15,"wind_gusts":14.0,"aqi":133,"pm10":18.5,"pm2_5":13.5,"mosquito_risk":4,"arthritis_risk":5,"migraine_risk":7,"frizz_risk":0,"updated_at":"2026-03-28T16:06:11.534000+05:30"},{"city":"Ludhiana","state":"Punjab","latitude":30.901,"longitude":75.8573,"temp":29.9,"humidity":39,"rain":0.0,"pressure":975.4,"uv_index":6.15,"wind_gusts":13.7,"aqi":94,"pm10":29.9,"pm2_5":13.6,"mosquito_risk":4,"arthritis_risk":5,"migraine_risk":7,"frizz_risk":0,"updated_at":"2026-03-28T16:06:11.534012+05:30"},{"city":"Jalandhar","state":"Punjab","latitude":31.326,"longitude":75.5762,"temp":29.5,"humidity":43,"rain":0.0,"pressure":976.6,"uv_index":6.25,"wind_gusts":11.5,"aqi":102,"pm10":28.1,"pm2_5":12.7,"mosquito_risk":4,"arthritis_risk":5,"migraine_risk":7,"frizz_risk":0,"updated_at":"2026-03-28T16:06:11.534030+05:30"},{"city":"Dehradun","state":"Uttarakhand","latitude":30.6284,"longitude":78.0322,"temp":18.6,"humidity":66,"rain":0.0,"pressure":827.6,"uv_index":5.8,"wind_gusts":22.3,"aqi":62,"pm10":22.3,"pm2_5":14.1,"mosquito_risk":3,"arthritis_risk":5,"migraine_risk":3,"frizz_risk":0,"updated_at":"2026-03-28T16:06:11.534039+05:30"},{"city":"Shimla","state":"Himachal Pradesh","latitude":31.1048,"longitude":77.1734,"temp":16.9,"humidity":65,"rain":0.0,"pressure":782.6,"uv_index":6.0,"wind_gusts":33.1,"aqi":82,"pm10":17.2,"pm2_5":11.1,"mosquito_risk":3,"arthritis_risk":5,"migraine_risk":3,"frizz_risk":0,"updated_at":"2026-03-28T16:06:11.534046+05:30"},{"city":"Manali","state":"Himachal Pradesh","latitude":32.2396,"longitude":77.1887,"temp":19.6,"humidity":58,"rain":0.0,"pressure":817.6,"uv_index":8.55,"wind_gusts":29.9,"aqi":109,"pm10":23.7,"pm2_5":7.0,"mosquito_risk":0,"arthritis_risk":5,"migraine_risk":7,"frizz_risk":0,"updated_at":"2026-03-28T16:06:11.534053+05:30"},{"city":"Gurgaon","state":"Haryana","latitude":28.4595,"longitude":77.0266,"temp":31.7,"humidity":31,"rain":0.0,"pressure":978.0,"uv_index":6.3,"wind_gusts":17.3,"aqi":444,"pm10":678.0,"pm2_5":73.6,"mosquito_risk":0,"arthritis_risk":5,"migraine_risk":7,"frizz_risk":0,"updated_at":"2026-03-28T16:06:11.534060+05:30"},{"city":"Noida","state":"Uttar Pradesh","latitude":28.5355,"longitude":77.391,"temp":31.6,"humidity":31,"rain":0.0,"pressure":981.1,"uv_index":6.05,"wind_gusts":21.6,"aqi":444,"pm10":678.0,"pm2_5":73.6,"mosquito_risk":0,"arthritis_risk":5,"migraine_risk":7,"frizz_risk":0,"updated_at":"2026-03-28T16:06:11.534066+05:30"},{"city":"Ghaziabad","state":"Uttar Pradesh","latitude":28.6692,"longitude":77.4538,"temp":30.9,"humidity":36,"rain":0.0,"pressure":979.3,"uv_index":5.8,"wind_gusts":20.5,"aqi":123,"pm10":110.1,"pm2_5":27.7,"mosquito_risk":0,"arthritis_risk":5,"migraine_risk":3,"frizz_risk":0,"updated_at":"2026-03-28T16:06:11.534072+05:30"},{"city":"Faridabad","state":"Haryana","latitude":28.4089,"longitude":77.3178,"temp":31.8,"humidity":30,"rain":0.0,"pressure":980.3,"uv_index":6.3,"wind_gusts":19.8,"aqi":444,"pm10":678.0,"pm2_5":73.6,"mosquito_risk":0,"arthritis_risk":5,"migraine_risk":7,"frizz_risk":0,"updated_at":"2026-03-28T16:06:11.534081+05:30"},{"city":"Meerut","state":"Uttar Pradesh","latitude":28.9845,"longitude":77.7064,"temp":30.6,"humidity":39,"rain":0.0,"pressure":978.0,"uv_index":5.85,"wind_gusts":23.0,"aqi":123,"pm10":110.1,"pm2_5":27.7,"mosquito_risk":0,"arthritis_risk":5,"migraine_risk":3,"frizz_risk":0,"updated_at":"2026-03-28T16:06:11.534089+05:30"},{"city":"Agra","state":"Uttar Pradesh","latitude":27.1767,"longitude":78.0081,"temp":34.8,"humidity":25,"rain":0.0,"pressure":983.6,"uv_index":6.35,"wind_gusts":25.6,"aqi":432,"pm10":674.3,"pm2_5":66.8,"mosquito_risk":0,"arthritis_risk":5,"migraine_risk":7,"frizz_risk":0,"updated_at":"2026-03-28T16:06:11.534095+05:30"},{"city":"Varanasi","state":"Uttar Pradesh","latitude":25.3176,"longitude":82.9739,"temp":33.4,"humidity":31,"rain":0.0,"pressure":993.6,"uv_index":7.8,"wind_gusts":37.4,"aqi":89,"pm10":77.8,"pm2_5":23.5,"mosquito_risk":0,"arthritis_risk":5,"migraine_risk":7,"frizz_risk":0,"updated_at":"2026-03-28T16:06:11.534103+05:30"},{"city":"Prayagraj","state":"Uttar Pradesh","latitude":25.4358,"longitude":81.8463,"temp":33.2,"humidity":33,"rain":0.0,"pressure":991.9,"uv_index":7.7,"wind_gusts":30.2,"aqi":84,"pm10":101.7,"pm2_5":25.4,"mosquito_risk":0,"arthritis_risk":5,"migraine_risk":7,"frizz_risk":0,"updated_at":"2026-03-28T16:06:11.534110+05:30"},{"city":"Gorakhpur","state":"Uttar Pradesh","latitude":26.7606,"longitude":83.3732,"temp":31.5,"humidity":37,"rain":0.0,"pressure":993.1,"uv_index":7.0,"wind_gusts":28.1,"aqi":91,"pm10":49.8,"pm2_5":21.0,"mosquito_risk":0,"arthritis_risk":5,"migraine_risk":7,"frizz_risk":0,"updated_at":"2026-03-28T16:06:11.534117+05:30"},{"city":"Bareilly","state":"Uttar Pradesh","latitude":28.367,"longitude":79.4304,"temp":30.7,"humidity":41,"rain":0.0,"pressure":983.2,"uv_index":6.35,"wind_gusts":24.5,"aqi":81,"pm10":31.0,"pm2_5":16.8,"mosquito_risk":0,"arthritis_risk":5,"migraine_risk":7,"frizz_risk":0,"updated_at":"2026-03-28T16:06:11.534124+05:30"},{"city":"Aligarh","state":"Uttar Pradesh","latitude":27.8974,"longitude":78.088,"temp":32.2,"humidity":34,"rain":0.0,"pressure":982.0,"uv_index":6.45,"wind_gusts":23.8,"aqi":212,"pm10":525.3,"pm2_5":59.8,"mosquito_risk":0,"arthritis_risk":5,"migraine_risk":7,"frizz_risk":0,"updated_at":"2026-03-28T16:06:11.534130+05:30"},{"city":"Moradabad","state":"Uttar Pradesh","latitude":28.8386,"longitude":78.7733,"temp":30.4,"humidity":44,"rain":0.0,"pressure":980.1,"uv_index":6.1,"wind_gusts":23.0,"aqi":87,"pm10":37.7,"pm2_5":20.5,"mosquito_risk":0,"arthritis_risk":5,"migraine_risk":7,"frizz_risk":1,"updated_at":"2026-03-28T16:06:11.534136+05:30"},{"city":"Saharanpur","state":"Uttar Pradesh","latitude":29.9637,"longitude":77.546,"temp":29.8,"humidity":43,"rain":0.0,"pressure":972.2,"uv_index":5.25,"wind_gusts":24.8,"aqi":98,"pm10":39.5,"pm2_5":18.7,"mosquito_risk":4,"arthritis_risk":5,"migraine_risk":3,"frizz_risk":0,"updated_at":"2026-03-28T16:06:11.534143+05:30"},{"city":"Jhansi","state":"Uttar Pradesh","latitude":25.4484,"longitude":78.5685,"temp":36.2,"humidity":21,"rain":0.0,"pressure":973.2,"uv_index":7.1,"wind_gusts":31.3,"aqi":94,"pm10":52.2,"pm2_5":12.9,"mosquito_risk":0,"arthritis_risk":5,"migraine_risk":10,"frizz_risk":0,"updated_at":"2026-03-28T16:06:14.750107+05:30"},{"city":"Surat","state":"Gujarat","latitude":21.1702,"longitude":72.8311,"temp":30.2,"humidity":56,"rain":0.0,"pressure":1004.4,"uv_index":7.75,"wind_gusts":30.6,"aqi":86,"pm10":26.5,"pm2_5":21.4,"mosquito_risk":0,"arthritis_risk":5,"migraine_risk":4,"frizz_risk":1,"updated_at":"2026-03-28T16:06:14.750137+05:30"},{"city":"Vadodara","state":"Gujarat","latitude":22.3072,"longitude":73.1812,"temp":36.5,"humidity":31,"rain":0.0,"pressure":1000.5,"uv_index":7.95,"wind_gusts":32.8,"aqi":61,"pm10":27.4,"pm2_5":10.1,"mosquito_risk":0,"arthritis_risk":5,"migraine_risk":7,"frizz_risk":1,"updated_at":"2026-03-28T16:06:14.750148+05:30"},{"city":"Rajkot","state":"Gujarat","latitude":22.3039,"longitude":70.8022,"temp":34.3,"humidity":40,"rain":0.0,"pressure":991.4,"uv_index":7.75,"wind_gusts":43.2,"aqi":34,"pm10":20.1,"pm2_5":8.8,"mosquito_risk":0,"arthritis_risk":5,"migraine_risk":7,"frizz_risk":1,"updated_at":"2026-03-28T16:06:14.750156+05:30"},{"city":"Thane","state":"Maharashtra","latitude":19.2183,"longitude":72.9781,"temp":30.5,"humidity":59,"rain":0.0,"pressure":1006.0,"uv_index":8.0,"wind_gusts":37.8,"aqi":98,"pm10":25.6,"pm2_5":18.5,"mosquito_risk":0,"arthritis_risk":5,"migraine_risk":4,"frizz_risk":1,"updated_at":"2026-03-28T16:06:14.750164+05:30"},{"city":"Nagpur","state":"Maharashtra","latitude":21.1458,"longitude":79.0882,"temp":37.4,"humidity":20,"rain":0.0,"pressure":968.3,"uv_index":8.5,"wind_gusts":31.3,"aqi":61,"pm10":14.4,"pm2_5":10.1,"mosquito_risk":0,"arthritis_risk":5,"migraine_risk":10,"frizz_risk":0,"updated_at":"2026-03-28T16:06:14.750172+05:30"},{"city":"Nashik","state":"Maharashtra","latitude":19.9975,"longitude":73.7898,"temp":33.6,"humidity":24,"rain":0.0,"pressure":943.5,"uv_index":8.2,"wind_gusts":43.6,"aqi":57,"pm10":22.6,"pm2_5":8.3,"mosquito_risk":0,"arthritis_risk":5,"migraine_risk":7,"frizz_risk":0,"updated_at":"2026-03-28T16:06:14.750179+05:30"},{"city":"Aurangabad","state":"Maharashtra","latitude":19.8762,"longitude":75.3433,"temp":36.8,"humidity":16,"rain":0.0,"pressure":940.8,"uv_index":8.75,"wind_gusts":43.6,"aqi":68,"pm10":10.1,"pm2_5":8.3,"mosquito_risk":0,"arthritis_risk":5,"migraine_risk":10,"frizz_risk":0,"updated_at":"2026-03-28T16:06:14.750186+05:30"},{"city":"Solapur","state":"Maharashtra","latitude":17.6599,"longitude":75.9064,"temp":38.3,"humidity":17,"rain":0.0,"pressure":953.4,"uv_index":8.85,"wind_gusts":31.7,"aqi":88,"pm10":19.2,"pm2_5":13.8,"mosquito_risk":0,"arthritis_risk":5,"migraine_risk":10,"frizz_risk":0,"updated_at":"2026-03-28T16:06:14.750194+05:30"},{"city":"Kolhapur","state":"Maharashtra","latitude":16.705,"longitude":74.2433,"temp":33.3,"humidity":33,"rain":0.0,"pressure":945.8,"uv_index":8.95,"wind_gusts":43.6,"aqi":128,"pm10":33.8,"pm2_5":27.3,"mosquito_risk":0,"arthritis_risk":5,"migraine_risk":7,"frizz_risk":0,"updated_at":"2026-03-28T16:06:14.750202+05:30"},{"city":"Goa","state":"Goa","latitude":15.2993,"longitude":74.124,"temp":31.7,"humidity":69,"rain":0.0,"pressure":995.7,"uv_index":8.95,"wind_gusts":28.4,"aqi":93,"pm10":37.1,"pm2_5":30.3,"mosquito_risk":3,"arthritis_risk":5,"migraine_risk":7,"frizz_risk":1,"updated_at":"2026-03-28T16:06:14.750209+05:30"},{"city":"Jodhpur","state":"Rajasthan","latitude":26.2389,"longitude":73.0243,"temp":35.2,"humidity":26,"rain":0.0,"pressure":978.6,"uv_index":7.8,"wind_gusts":31.0,"aqi":60,"pm10":207.2,"pm2_5":25.8,"mosquito_risk":0,"arthritis_risk":5,"migraine_risk":10,"frizz_risk":0,"updated_at":"2026-03-28T16:06:14.750216+05:30"},{"city":"Udaipur","state":"Rajasthan","latitude":24.5854,"longitude":73.7125,"temp":32.2,"humidity":33,"rain":0.0,"pressure":943.5,"uv_index":8.35,"wind_gusts":33.5,"aqi":41,"pm10":27.4,"pm2_5":7.5,"mosquito_risk":0,"arthritis_risk":5,"migraine_risk":7,"frizz_risk":0,"updated_at":"2026-03-28T16:06:14.750223+05:30"},{"city":"Kota","state":"Rajasthan","latitude":25.2138,"longitude":75.8648,"temp":37.3,"humidity":20,"rain":0.0,"pressure":973.8,"uv_index":7.65,"wind_gusts":24.5,"aqi":43,"pm10":106.9,"pm2_5":19.0,"mosquito_risk":0,"arthritis_risk":5,"migraine_risk":10,"frizz_risk":0,"updated_at":"2026-03-28T16:06:14.750229+05:30"},{"city":"Bikaner","state":"Rajasthan","latitude":28.0229,"longitude":73.3119,"temp":35.7,"humidity":24,"rain":0.0,"pressure":977.0,"uv_index":7.2,"wind_gusts":20.9,"aqi":41,"pm10":28.1,"pm2_5":7.9,"mosquito_risk":0,"arthritis_risk":5,"migraine_risk":10,"frizz_risk":0,"updated_at":"2026-03-28T16:06:14.750236+05:30"},{"city":"Ajmer","state":"Rajasthan","latitude":26.4499,"longitude":74.6399,"temp":33.7,"humidity":26,"rain":0.0,"pressure":950.7,"uv_index":7.65,"wind_gusts":30.6,"aqi":43,"pm10":59.1,"pm2_5":13.5,"mosquito_risk":0,"arthritis_risk":5,"migraine_risk":7,"frizz_risk":0,"updated_at":"2026-03-28T16:06:14.750242+05:30"},{"city":"Gwalior","state":"Madhya Pradesh","latitude":26.2183,"longitude":78.1828,"temp":34.6,"humidity":26,"rain":0.0,"pressure":979.1,"uv_index":6.95,"wind_gusts":36.4,"aqi":149,"pm10":85.9,"pm2_5":22.2,"mosquito_risk":0,"arthritis_risk":5,"migraine_risk":7,"frizz_risk":0,"updated_at":"2026-03-28T16:06:14.750249+05:30"},{"city":"Indore","state":"Madhya Pradesh","latitude":22.7196,"longitude":75.8577,"temp":34.6,"humidity":23,"rain":0.0,"pressure":944.7,"uv_index":8.2,"wind_gusts":37.1,"aqi":46,"pm10":14.3,"pm2_5":6.8,"mosquito_risk":0,"arthritis_risk":5,"migraine_risk":7,"frizz_risk":0,"updated_at":"2026-03-28T16:06:14.750255+05:30"},{"city":"Bhopal","state":"Madhya Pradesh","latitude":23.2599,"longitude":77.4126,"temp":35.6,"humidity":23,"rain":0.0,"pressure":949.7,"uv_index":8.15,"wind_gusts":31.3,"aqi":46,"pm10":30.5,"pm2_5":8.6,"mosquito_risk":0,"arthritis_risk":5,"migraine_risk":10,"frizz_risk":0,"updated_at":"2026-03-28T16:06:14.750262+05:30"},{"city":"Jabalpur","state":"Madhya Pradesh","latitude":23.1815,"longitude":79.9864,"temp":34.7,"humidity":26,"rain":0.0,"pressure":957.3,"uv_index":8.25,"wind_gusts":29.9,"aqi":53,"pm10":30.5,"pm2_5":10.4,"mosquito_risk":0,"arthritis_risk":5,"migraine_risk":7,"frizz_risk":0,"updated_at":"2026-03-28T16:06:14.750268+05:30"},{"city":"Ujjain","state":"Madhya Pradesh","latitude":23.1765,"longitude":75.7885,"temp":34.0,"humidity":27,"rain":0.0,"pressure":950.4,"uv_index":8.15,"wind_gusts":34.2,"aqi":42,"pm10":13.9,"pm2_5":5.5,"mosquito_risk":0,"arthritis_risk":5,"migraine_risk":7,"frizz_risk":0,"updated_at":"2026-03-28T16:06:14.750275+05:30"},{"city":"Visakhapatnam","state":"Andhra Pradesh","latitude":17.6868,"longitude":83.2185,"temp":32.2,"humidity":56,"rain":0.0,"pressure":1000.2,"uv_index":9.0,"wind_gusts":41.8,"aqi":94,"pm10":46.0,"pm2_5":32.1,"mosquito_risk":0,"arthritis_risk":5,"migraine_risk":4,"frizz_risk":1,"updated_at":"2026-03-28T16:06:14.750281+05:30"},{"city":"Vijayawada","state":"Andhra Pradesh","latitude":16.5062,"longitude":80.648,"temp":37.2,"humidity":33,"rain":0.0,"pressure":997.8,"uv_index":9.05,"wind_gusts":30.6,"aqi":80,"pm10":46.4,"pm2_5":34.2,"mosquito_risk":0,"arthritis_risk":5,"migraine_risk":10,"frizz_risk":1,"updated_at":"2026-03-28T16:06:14.750287+05:30"},{"city":"Guntur","state":"Andhra Pradesh","latitude":16.3067,"longitude":80.4365,"temp":36.1,"humidity":40,"rain":0.0,"pressure":999.4,"uv_index":9.05,"wind_gusts":33.1,"aqi":80,"pm10":47.3,"pm2_5":35.0,"mosquito_risk":0,"arthritis_risk":5,"migraine_risk":10,"frizz_risk":1,"updated_at":"2026-03-28T16:06:14.750294+05:30"},{"city":"Nellore","state":"Andhra Pradesh","latitude":14.4426,"longitude":79.9865,"temp":34.4,"humidity":50,"rain":0.0,"pressure":1002.1,"uv_index":9.2,"wind_gusts":34.6,"aqi":80,"pm10":43.4,"pm2_5":32.4,"mosquito_risk":0,"arthritis_risk":5,"migraine_risk":4,"frizz_risk":1,"updated_at":"2026-03-28T16:06:14.750301+05:30"},{"city":"Kurnool","state":"Andhra Pradesh","latitude":15.8281,"longitude":78.0373,"temp":38.8,"humidity":23,"rain":0.0,"pressure":972.5,"uv_index":9.0,"wind_gusts":33.5,"aqi":135,"pm10":52.4,"pm2_5":41.7,"mosquito_risk":0,"arthritis_risk":5,"migraine_risk":10,"frizz_risk":0,"updated_at":"2026-03-28T16:06:14.750309+05:30"},{"city":"Kakinada","state":"Andhra Pradesh","latitude":16.9891,"longitude":82.2475,"temp":36.4,"humidity":39,"rain":0.0,"pressure":1003.0,"uv_index":9.0,"wind_gusts":35.3,"aqi":73,"pm10":34.0,"pm2_5":19.9,"mosquito_risk":0,"arthritis_risk":5,"migraine_risk":7,"frizz_risk":1,"updated_at":"2026-03-28T16:06:14.750315+05:30"},{"city":"Tirupati","state":"Andhra Pradesh","latitude":13.6288,"longitude":79.4192,"temp":36.3,"humidity":28,"rain":0.0,"pressure":987.5,"uv_index":9.3,"wind_gusts":27.4,"aqi":101,"pm10":46.4,"pm2_5":34.2,"mosquito_risk":0,"arthritis_risk":5,"migraine_risk":10,"frizz_risk":0,"updated_at":"2026-03-28T16:06:14.750321+05:30"},{"city":"Warangal","state":"Telangana","latitude":17.9689,"longitude":79.5941,"temp":38.6,"humidity":22,"rain":0.0,"pressure":974.0,"uv_index":8.85,"wind_gusts":25.6,"aqi":102,"pm10":31.5,"pm2_5":26.8,"mosquito_risk":0,"arthritis_risk":5,"migraine_risk":10,"frizz_risk":0,"updated_at":"2026-03-28T16:06:14.750328+05:30"},{"city":"Nizamabad","state":"Telangana","latitude":18.6725,"longitude":78.0941,"temp":38.0,"humidity":18,"rain":0.0,"pressure":960.8,"uv_index":8.8,"wind_gusts":26.3,"aqi":93,"pm10":12.7,"pm2_5":9.5,"mosquito_risk":0,"arthritis_risk":5,"migraine_risk":10,"frizz_risk":0,"updated_at":"2026-03-28T16:06:14.750334+05:30"},{"city":"Mysore","state":"Karnataka","latitude":12.2958,"longitude":76.6396,"temp":32.2,"humidity":39,"rain":0.0,"pressure":925.9,"uv_index":9.45,"wind_gusts":45.7,"aqi":125,"pm10":37.3,"pm2_5":30.6,"mosquito_risk":0,"arthritis_risk":5,"migraine_risk":7,"frizz_risk":1,"updated_at":"2026-03-28T16:06:14.750340+05:30"},{"city":"Mangalore","state":"Karnataka","latitude":12.9141,"longitude":74.856,"temp":29.8,"humidity":81,"rain":0.0,"pressure":1003.6,"uv_index":9.1,"wind_gusts":23.8,"aqi":95,"pm10":38.4,"pm2_5":30.7,"mosquito_risk":7,"arthritis_risk":5,"migraine_risk":4,"frizz_risk":1,"updated_at":"2026-03-28T16:06:14.750347+05:30"},{"city":"Hubli-Dharwad","state":"Karnataka","latitude":15.3647,"longitude":75.124,"temp":31.3,"humidity":46,"rain":0.0,"pressure":938.7,"uv_index":9.1,"wind_gusts":44.3,"aqi":113,"pm10":51.6,"pm2_5":39.1,"mosquito_risk":0,"arthritis_risk":5,"migraine_risk":7,"frizz_risk":1,"updated_at":"2026-03-28T16:06:14.750353+05:30"},{"city":"Belgaum","state":"Karnataka","latitude":15.8497,"longitude":74.4977,"temp":30.5,"humidity":50,"rain":0.0,"pressure":924.5,"uv_index":9.2,"wind_gusts":36.4,"aqi":115,"pm10":36.3,"pm2_5":28.3,"mosquito_risk":0,"arthritis_risk":5,"migraine_risk":7,"frizz_risk":1,"updated_at":"2026-03-28T16:06:17.965929+05:30"},{"city":"Coimbatore","state":"Tamil Nadu","latitude":11.0168,"longitude":76.9558,"temp":32.9,"humidity":46,"rain":0.0,"pressure":958.7,"uv_index":9.45,"wind_gusts":54.4,"aqi":98,"pm10":33.2,"pm2_5":26.5,"mosquito_risk":0,"arthritis_risk":5,"migraine_risk":7,"frizz_risk":1,"updated_at":"2026-03-28T16:06:17.965960+05:30"},{"city":"Madurai","state":"Tamil Nadu","latitude":9.9252,"longitude":78.1198,"temp":36.9,"humidity":33,"rain":0.0,"pressure":988.7,"uv_index":9.4,"wind_gusts":38.5,"aqi":80,"pm10":25.2,"pm2_5":19.0,"mosquito_risk":0,"arthritis_risk":5,"migraine_risk":10,"frizz_risk":1,"updated_at":"2026-03-28T16:06:17.965970+05:30"},{"city":"Trichy","state":"Tamil Nadu","latitude":10.7905,"longitude":78.7047,"temp":36.5,"humidity":35,"rain":0.0,"pressure":995.5,"uv_index":9.35,"wind_gusts":25.9,"aqi":76,"pm10":22.3,"pm2_5":16.8,"mosquito_risk":0,"arthritis_risk":5,"migraine_risk":10,"frizz_risk":1,"updated_at":"2026-03-28T16:06:17.965978+05:30"},{"city":"Salem","state":"Tamil Nadu","latitude":11.6643,"longitude":78.146,"temp":37.5,"humidity":28,"rain":0.0,"pressure":973.1,"uv_index":9.4,"wind_gusts":30.6,"aqi":121,"pm10":42.0,"pm2_5":33.3,"mosquito_risk":0,"arthritis_risk":5,"migraine_risk":10,"frizz_risk":0,"updated_at":"2026-03-28T16:06:17.965986+05:30"},{"city":"Tirunelveli","state":"Tamil Nadu","latitude":8.7139,"longitude":77.7567,"temp":37.3,"humidity":35,"rain":0.0,"pressure":998.7,"uv_index":9.35,"wind_gusts":47.5,"aqi":74,"pm10":23.3,"pm2_5":19.0,"mosquito_risk":0,"arthritis_risk":5,"migraine_risk":10,"frizz_risk":1,"updated_at":"2026-03-28T16:06:17.965994+05:30"},{"city":"Vellore","state":"Tamil Nadu","latitude":12.9165,"longitude":79.1325,"temp":35.7,"humidity":30,"rain":0.0,"pressure":980.8,"uv_index":9.35,"wind_gusts":31.0,"aqi":118,"pm10":50.4,"pm2_5":39.6,"mosquito_risk":0,"arthritis_risk":5,"migraine_risk":10,"frizz_risk":0,"updated_at":"2026-03-28T16:06:17.966001+05:30"},{"city":"Erode","state":"Tamil Nadu","latitude":11.341,"longitude":77.7172,"temp":38.3,"humidity":27,"rain":0.0,"pressure":984.3,"uv_index":9.35,"wind_gusts":26.3,"aqi":116,"pm10":36.4,"pm2_5":28.5,"mosquito_risk":0,"arthritis_risk":5,"migraine_risk":10,"frizz_risk":0,"updated_at":"2026-03-28T16:06:17.966009+05:30"},{"city":"Kochi","state":"Kerala","latitude":9.9312,"longitude":76.2673,"temp":29.2,"humidity":81,"rain":0.0,"pressure":1005.6,"uv_index":8.8,"wind_gusts":31.7,"aqi":94,"pm10":31.2,"pm2_5":26.5,"mosquito_risk":7,"arthritis_risk":5,"migraine_risk":4,"frizz_risk":1,"updated_at":"2026-03-28T16:06:17.966016+05:30"},{"city":"Thiruvananthapuram","state":"Kerala","latitude":8.5241,"longitude":76.9366,"temp":29.2,"humidity":80,"rain":0.0,"pressure":1005.1,"uv_index":9.15,"wind_gusts":39.6,"aqi":65,"pm10":22.8,"pm2_5":17.7,"mosquito_risk":7,"arthritis_risk":5,"migraine_risk":4,"frizz_risk":1,"updated_at":"2026-03-28T16:06:17.966023+05:30"},{"city":"Kozhikode","state":"Kerala","latitude":11.2588,"longitude":75.7804,"temp":30.6,"humidity":75,"rain":0.0,"pressure":1004.9,"uv_index":9.1,"wind_gusts":31.0,"aqi":82,"pm10":26.8,"pm2_5":21.1,"mosquito_risk":3,"arthritis_risk":5,"migraine_risk":4,"frizz_risk":1,"updated_at":"2026-03-28T16:06:17.966030+05:30"},{"city":"Thrissur","state":"Kerala","latitude":10.5276,"longitude":76.2144,"temp":32.6,"humidity":64,"rain":0.0,"pressure":1004.0,"uv_index":9.15,"wind_gusts":36.4,"aqi":90,"pm10":32.7,"pm2_5":27.5,"mosquito_risk":3,"arthritis_risk":5,"migraine_risk":4,"frizz_risk":1,"updated_at":"2026-03-28T16:06:17.966038+05:30"},{"city":"Kannur","state":"Kerala","latitude":11.8745,"longitude":75.3704,"temp":31.3,"humidity":68,"rain":0.0,"pressure":1004.4,"uv_index":9.1,"wind_gusts":31.0,"aqi":90,"pm10":32.1,"pm2_5":26.0,"mosquito_risk":3,"arthritis_risk":5,"migraine_risk":4,"frizz_risk":1,"updated_at":"2026-03-28T16:06:17.966045+05:30"},{"city":"Patna","state":"Bihar","latitude":25.5941,"longitude":85.1376,"temp":30.3,"humidity":47,"rain":0.0,"pressure":997.2,"uv_index":7.9,"wind_gusts":29.5,"aqi":88,"pm10":59.4,"pm2_5":20.0,"mosquito_risk":0,"arthritis_risk":5,"migraine_risk":7,"frizz_risk":1,"updated_at":"2026-03-28T16:06:17.966052+05:30"},{"city":"Gaya","state":"Bihar","latitude":24.7914,"longitude":85.0002,"temp":29.9,"humidity":49,"rain":0.0,"pressure":990.6,"uv_index":7.7,"wind_gusts":24.1,"aqi":84,"pm10":52.5,"pm2_5":19.5,"mosquito_risk":4,"arthritis_risk":5,"migraine_risk":7,"frizz_risk":1,"updated_at":"2026-03-28T16:06:17.966058+05:30"},{"city":"Muzaffarpur","state":"Bihar","latitude":26.1209,"longitude":85.3647,"temp":29.4,"humidity":49,"rain":0.0,"pressure":997.4,"uv_index":7.85,"wind_gusts":20.5,"aqi":107,"pm10":59.0,"pm2_5":21.7,"mosquito_risk":4,"arthritis_risk":5,"migraine_risk":7,"frizz_risk":1,"updated_at":"2026-03-28T16:06:17.966064+05:30"},{"city":"Bhagalpur","state":"Bihar","latitude":25.2425,"longitude":87.0117,"temp":27.7,"humidity":60,"rain":0.0,"pressure":998.7,"uv_index":7.3,"wind_gusts":25.2,"aqi":106,"pm10":78.0,"pm2_5":27.3,"mosquito_risk":4,"arthritis_risk":5,"migraine_risk":7,"frizz_risk":1,"updated_at":"2026-03-28T16:06:17.966071+05:30"},{"city":"Ranchi","state":"Jharkhand","latitude":23.3441,"longitude":85.3096,"temp":29.3,"humidity":37,"rain":0.0,"pressure":934.4,"uv_index":8.7,"wind_gusts":31.7,"aqi":122,"pm10":44.8,"pm2_5":25.8,"mosquito_risk":4,"arthritis_risk":5,"migraine_risk":7,"frizz_risk":0,"updated_at":"2026-03-28T16:06:17.966078+05:30"},{"city":"Jamshedpur","state":"Jharkhand","latitude":22.8046,"longitude":86.2029,"temp":32.9,"humidity":44,"rain":0.0,"pressure":986.8,"uv_index":8.5,"wind_gusts":32.4,"aqi":129,"pm10":65.7,"pm2_5":48.3,"mosquito_risk":0,"arthritis_risk":5,"migraine_risk":7,"frizz_risk":1,"updated_at":"2026-03-28T16:06:17.966085+05:30"},{"city":"Dhanbad","state":"Jharkhand","latitude":23.7957,"longitude":86.4304,"temp":31.7,"humidity":39,"rain":0.0,"pressure":976.2,"uv_index":8.4,"wind_gusts":30.2,"aqi":146,"pm10":69.2,"pm2_5":49.2,"mosquito_risk":0,"arthritis_risk":5,"migraine_risk":7,"frizz_risk":1,"updated_at":"2026-03-28T16:06:17.966091+05:30"},{"city":"Bokaro","state":"Jharkhand","latitude":23.6693,"longitude":86.1511,"temp":29.8,"humidity":49,"rain":0.0,"pressure":980.3,"uv_index":8.45,"wind_gusts":31.0,"aqi":134,"pm10":63.6,"pm2_5":42.0,"mosquito_risk":4,"arthritis_risk":5,"migraine_risk":7,"frizz_risk":1,"updated_at":"2026-03-28T16:06:17.966098+05:30"},{"city":"Bhubaneswar","state":"Odisha","latitude":20.2961,"longitude":85.8245,"temp":32.8,"humidity":56,"rain":0.0,"pressure":998.8,"uv_index":8.8,"wind_gusts":31.7,"aqi":124,"pm10":47.6,"pm2_5":38.2,"mosquito_risk":0,"arthritis_risk":5,"migraine_risk":7,"frizz_risk":1,"updated_at":"2026-03-28T16:06:17.966104+05:30"},{"city":"Cuttack","state":"Odisha","latitude":20.4625,"longitude":85.8828,"temp":35.1,"humidity":44,"rain":0.0,"pressure":999.9,"uv_index":8.85,"wind_gusts":30.6,"aqi":124,"pm10":47.6,"pm2_5":38.2,"mosquito_risk":0,"arthritis_risk":5,"migraine_risk":10,"frizz_risk":1,"updated_at":"2026-03-28T16:06:17.966110+05:30"},{"city":"Rourkela","state":"Odisha","latitude":22.2604,"longitude":84.8536,"temp":34.8,"humidity":34,"rain":0.0,"pressure":980.7,"uv_index":8.45,"wind_gusts":43.9,"aqi":147,"pm10":38.8,"pm2_5":27.0,"mosquito_risk":0,"arthritis_risk":5,"migraine_risk":7,"frizz_risk":1,"updated_at":"2026-03-28T16:06:17.966117+05:30"},{"city":"Raipur","state":"Chhattisgarh","latitude":21.2514,"longitude":81.6296,"temp":38.2,"humidity":19,"rain":0.0,"pressure":969.6,"uv_index":8.55,"wind_gusts":34.6,"aqi":96,"pm10":24.4,"pm2_5":13.3,"mosquito_risk":0,"arthritis_risk":5,"migraine_risk":10,"frizz_risk":0,"updated_at":"2026-03-28T16:06:17.966123+05:30"},{"city":"Bhilai","state":"Chhattisgarh","latitude":21.1938,"longitude":81.3509,"temp":38.3,"humidity":17,"rain":0.0,"pressure":969.9,"uv_index":8.6,"wind_gusts":33.8,"aqi":81,"pm10":20.1,"pm2_5":10.3,"mosquito_risk":0,"arthritis_risk":5,"migraine_risk":10,"frizz_risk":0,"updated_at":"2026-03-28T16:06:17.966129+05:30"},{"city":"Guwahati","state":"Assam","latitude":26.1158,"longitude":91.7086,"temp":22.5,"humidity":83,"rain":0.0,"pressure":1000.2,"uv_index":4.5,"wind_gusts":28.1,"aqi":151,"pm10":31.2,"pm2_5":26.0,"mosquito_risk":3,"arthritis_risk":5,"migraine_risk":0,"frizz_risk":1,"updated_at":"2026-03-28T16:06:17.966135+05:30"},{"city":"Agartala","state":"Tripura","latitude":23.8315,"longitude":91.2868,"temp":24.8,"humidity":77,"rain":0.0,"pressure":1004.8,"uv_index":6.4,"wind_gusts":38.5,"aqi":147,"pm10":48.4,"pm2_5":38.3,"mosquito_risk":3,"arthritis_risk":5,"migraine_risk":4,"frizz_risk":1,"updated_at":"2026-03-28T16:06:17.966142+05:30"},{"city":"Shillong","state":"Meghalaya","latitude":25.5788,"longitude":91.8933,"temp":13.1,"humidity":85,"rain":0.0,"pressure":852.5,"uv_index":4.85,"wind_gusts":43.9,"aqi":98,"pm10":23.0,"pm2_5":17.2,"mosquito_risk":3,"arthritis_risk":10,"migraine_risk":3,"frizz_risk":0,"updated_at":"2026-03-28T16:06:17.966148+05:30"},{"city":"Imphal","state":"Manipur","latitude":24.817,"longitude":93.9368,"temp":18.4,"humidity":82,"rain":0.0,"pressure":920.7,"uv_index":7.7,"wind_gusts":52.6,"aqi":146,"pm10":53.1,"pm2_5":41.4,"mosquito_risk":3,"arthritis_risk":10,"migraine_risk":7,"frizz_risk":0,"updated_at":"2026-03-28T16:06:17.966155+05:30"},{"city":"Aizawl","state":"Mizoram","latitude":23.7271,"longitude":92.7176,"temp":19.1,"humidity":82,"rain":0.0,"pressure":890.5,"uv_index":7.2,"wind_gusts":38.2,"aqi":114,"pm10":49.1,"pm2_5":37.4,"mosquito_risk":3,"arthritis_risk":10,"migraine_risk":7,"frizz_risk":0,"updated_at":"2026-03-28T16:06:17.966162+05:30"},{"city":"Kohima","state":"Nagaland","latitude":25.6701,"longitude":94.1077,"temp":14.0,"humidity":90,"rain":0.0,"pressure":851.7,"uv_index":4.95,"wind_gusts":71.3,"aqi":112,"pm10":46.1,"pm2_5":36.2,"mosquito_risk":3,"arthritis_risk":10,"migraine_risk":3,"frizz_risk":0,"updated_at":"2026-03-28T16:06:17.966168+05:30"},{"city":"Gangtok","state":"Sikkim","latitude":27.3314,"longitude":88.6138,"temp":14.2,"humidity":86,"rain":0.0,"pressure":833.5,"uv_index":7.6,"wind_gusts":17.3,"aqi":98,"pm10":8.8,"pm2_5":7.7,"mosquito_risk":3,"arthritis_risk":10,"migraine_risk":7,"frizz_risk":0,"updated_at":"2026-03-28T16:06:17.966175+05:30"},{"city":"Siliguri","state":"West Bengal","latitude":26.7271,"longitude":88.3953,"temp":20.7,"humidity":80,"rain":0.0,"pressure":992.1,"uv_index":7.35,"wind_gusts":26.3,"aqi":154,"pm10":48.4,"pm2_5":38.5,"mosquito_risk":3,"arthritis_risk":5,"migraine_risk":7,"frizz_risk":1,"updated_at":"2026-03-28T16:06:21.182301+05:30"},{"city":"Durgapur","state":"West Bengal","latitude":23.5204,"longitude":87.3119,"temp":31.7,"humidity":47,"rain":0.0,"pressure":991.4,"uv_index":8.35,"wind_gusts":28.4,"aqi":120,"pm10":84.8,"pm2_5":65.0,"mosquito_risk":0,"arthritis_risk":5,"migraine_risk":7,"frizz_risk":1,"updated_at":"2026-03-28T16:06:21.182331+05:30"},{"city":"Asansol","state":"West Bengal","latitude":23.6739,"longitude":86.9524,"temp":32.0,"humidity":40,"rain":0.0,"pressure":989.8,"uv_index":8.4,"wind_gusts":31.7,"aqi":116,"pm10":80.3,"pm2_5":60.1,"mosquito_risk":0,"arthritis_risk":5,"migraine_risk":7,"frizz_risk":1,"updated_at":"2026-03-28T16:06:21.182341+05:30"},{"city":"Pondicherry","state":"Puducherry","latitude":11.9139,"longitude":79.8145,"temp":33.9,"humidity":58,"rain":0.0,"pressure":1004.6,"uv_index":9.25,"wind_gusts":32.4,"aqi":61,"pm10":25.7,"pm2_5":20.3,"mosquito_risk":0,"arthritis_risk":5,"migraine_risk":4,"frizz_risk":1,"updated_at":"2026-03-28T16:06:21.182349+05:30"},{"city":"Port Blair","state":"Andaman and Nicobar Islands","latitude":11.6234,"longitude":92.7265,"temp":28.1,"humidity":81,"rain":0.0,"pressure":1004.3,"uv_index":9.15,"wind_gusts":27.0,"aqi":69,"pm10":28.7,"pm2_5":20.9,"mosquito_risk":7,"arthritis_risk":5,"migraine_risk":4,"frizz_risk":1,"updated_at":"2026-03-28T16:06:21.182357+05:30"},{"city":"Haridwar","state":"Uttarakhand","latitude":29.9457,"longitude":78.1642,"temp":30.5,"humidity":42,"rain":0.0,"pressure":970.7,"uv_index":5.7,"wind_gusts":27.0,"aqi":75,"pm10":19.6,"pm2_5":14.5,"mosquito_risk":0,"arthritis_risk":5,"migraine_risk":3,"frizz_risk":1,"updated_at":"2026-03-28T16:06:21.182365+05:30"},{"city":"Rishikesh","state":"Uttarakhand","latitude":30.0869,"longitude":78.2676,"temp":29.3,"humidity":44,"rain":0.0,"pressure":963.5,"uv_index":5.8,"wind_gusts":24.8,"aqi":65,"pm10":20.1,"pm2_5":12.8,"mosquito_risk":4,"arthritis_risk":5,"migraine_risk":3,"frizz_risk":0,"updated_at":"2026-03-28T16:06:21.182373+05:30"},{"city":"Nainital","state":"Uttarakhand","latitude":29.3919,"longitude":79.4542,"temp":21.4,"humidity":54,"rain":0.0,"pressure":804.2,"uv_index":4.8,"wind_gusts":25.9,"aqi":78,"pm10":27.9,"pm2_5":18.1,"mosquito_risk":0,"arthritis_risk":5,"migraine_risk":3,"frizz_risk":0,"updated_at":"2026-03-28T16:06:21.182381+05:30"},{"city":"Mussoorie","state":"Uttarakhand","latitude":30.4599,"longitude":78.0664,"temp":19.4,"humidity":61,"rain":0.0,"pressure":800.6,"uv_index":5.65,"wind_gusts":25.9,"aqi":69,"pm10":22.2,"pm2_5":17.2,"mosquito_risk":3,"arthritis_risk":5,"migraine_risk":3,"frizz_risk":0,"updated_at":"2026-03-28T16:06:21.182388+05:30"},{"city":"Dharamshala","state":"Himachal Pradesh","latitude":32.219,"longitude":76.3234,"temp":20.9,"humidity":73,"rain":0.0,"pressure":866.3,"uv_index":6.9,"wind_gusts":16.6,"aqi":88,"pm10":17.3,"pm2_5":9.2,"mosquito_risk":3,"arthritis_risk":5,"migraine_risk":7,"frizz_risk":0,"updated_at":"2026-03-28T16:06:21.182396+05:30"},{"city":"Dalhousie","state":"Himachal Pradesh","latitude":32.5387,"longitude":75.971,"temp":19.3,"humidity":60,"rain":0.0,"pressure":801.7,"uv_index":6.5,"wind_gusts":17.3,"aqi":85,"pm10":16.1,"pm2_5":11.1,"mosquito_risk":0,"arthritis_risk":5,"migraine_risk":7,"frizz_risk":0,"updated_at":"2026-03-28T16:06:21.182404+05:30"},{"city":"Patiala","state":"Punjab","latitude":30.3398,"longitude":76.3869,"temp":30.2,"humidity":39,"rain":0.0,"pressure":974.9,"uv_index":5.9,"wind_gusts":17.3,"aqi":95,"pm10":171.8,"pm2_5":28.6,"mosquito_risk":0,"arthritis_risk":5,"migraine_risk":3,"frizz_risk":0,"updated_at":"2026-03-28T16:06:21.182411+05:30"},{"city":"Bhatinda","state":"Punjab","latitude":30.211,"longitude":74.9455,"temp":32.5,"humidity":28,"rain":0.0,"pressure":979.7,"uv_index":6.9,"wind_gusts":17.3,"aqi":78,"pm10":41.0,"pm2_5":14.2,"mosquito_risk":0,"arthritis_risk":5,"migraine_risk":7,"frizz_risk":0,"updated_at":"2026-03-28T16:06:21.182418+05:30"},{"city":"Rohtak","state":"Haryana","latitude":28.8955,"longitude":76.6066,"temp":31.2,"humidity":35,"rain":0.0,"pressure":978.3,"uv_index":6.55,"wind_gusts":14.8,"aqi":150,"pm10":202.6,"pm2_5":29.8,"mosquito_risk":0,"arthritis_risk":5,"migraine_risk":7,"frizz_risk":0,"updated_at":"2026-03-28T16:06:21.182425+05:30"},{"city":"Panipat","state":"Haryana","latitude":29.3909,"longitude":76.9635,"temp":30.7,"humidity":37,"rain":0.0,"pressure":977.0,"uv_index":5.7,"wind_gusts":19.4,"aqi":315,"pm10":323.2,"pm2_5":42.4,"mosquito_risk":0,"arthritis_risk":5,"migraine_risk":3,"frizz_risk":0,"updated_at":"2026-03-28T16:06:21.182431+05:30"},{"city":"Mathura","state":"Uttar Pradesh","latitude":27.4924,"longitude":77.6737,"temp":33.4,"humidity":32,"rain":0.0,"pressure":983.0,"uv_index":6.35,"wind_gusts":20.9,"aqi":280,"pm10":516.0,"pm2_5":53.0,"mosquito_risk":0,"arthritis_risk":5,"migraine_risk":7,"frizz_risk":0,"updated_at":"2026-03-28T16:06:21.182438+05:30"},{"city":"Vrindavan","state":"Uttar Pradesh","latitude":27.5823,"longitude":77.7027,"temp":32.9,"humidity":32,"rain":0.0,"pressure":983.5,"uv_index":6.35,"wind_gusts":22.7,"aqi":280,"pm10":516.0,"pm2_5":53.0,"mosquito_risk":0,"arthritis_risk":5,"migraine_risk":7,"frizz_risk":0,"updated_at":"2026-03-28T16:06:21.182445+05:30"},{"city":"Ayodhya","state":"Uttar Pradesh","latitude":26.7922,"longitude":82.1998,"temp":32.1,"humidity":34,"rain":0.0,"pressure":991.2,"uv_index":6.85,"wind_gusts":31.7,"aqi":96,"pm10":70.5,"pm2_5":22.6,"mosquito_risk":0,"arthritis_risk":5,"migraine_risk":7,"frizz_risk":0,"updated_at":"2026-03-28T16:06:21.182451+05:30"},{"city":"Ratlam","state":"Madhya Pradesh","latitude":23.3315,"longitude":75.0367,"temp":33.0,"humidity":31,"rain":0.0,"pressure":951.5,"uv_index":8.1,"wind_gusts":37.1,"aqi":43,"pm10":14.6,"pm2_5":5.6,"mosquito_risk":0,"arthritis_risk":5,"migraine_risk":7,"frizz_risk":0,"updated_at":"2026-03-28T16:06:21.182458+05:30"},{"city":"Sagar","state":"Madhya Pradesh","latitude":23.8388,"longitude":78.7378,"temp":34.8,"humidity":24,"rain":0.0,"pressure":946.4,"uv_index":8.15,"wind_gusts":32.4,"aqi":51,"pm10":71.2,"pm2_5":13.1,"mosquito_risk":0,"arthritis_risk":5,"migraine_risk":7,"frizz_risk":0,"updated_at":"2026-03-28T16:06:21.182464+05:30"},{"city":"Satna","state":"Madhya Pradesh","latitude":24.6005,"longitude":80.8322,"temp":34.9,"humidity":23,"rain":0.0,"pressure":967.1,"uv_index":8.1,"wind_gusts":23.8,"aqi":88,"pm10":46.7,"pm2_5":14.2,"mosquito_risk":0,"arthritis_risk":5,"migraine_risk":7,"frizz_risk":0,"updated_at":"2026-03-28T16:06:21.182471+05:30"},{"city":"Akola","state":"Maharashtra","latitude":20.7002,"longitude":77.0082,"temp":37.8,"humidity":18,"rain":0.0,"pressure":970.9,"uv_index":8.5,"wind_gusts":37.1,"aqi":49,"pm10":15.4,"pm2_5":6.8,"mosquito_risk":0,"arthritis_risk":5,"migraine_risk":10,"frizz_risk":0,"updated_at":"2026-03-28T16:06:21.182479+05:30"},{"city":"Amravati","state":"Maharashtra","latitude":20.9374,"longitude":77.7796,"temp":37.6,"humidity":20,"rain":0.0,"pressure":963.0,"uv_index":8.45,"wind_gusts":33.5,"aqi":49,"pm10":15.5,"pm2_5":7.0,"mosquito_risk":0,"arthritis_risk":5,"migraine_risk":10,"frizz_risk":0,"updated_at":"2026-03-28T16:06:21.182487+05:30"},{"city":"Latur","state":"Maharashtra","latitude":18.4088,"longitude":76.5604,"temp":36.4,"humidity":17,"rain":0.0,"pressure":936.6,"uv_index":8.8,"wind_gusts":32.4,"aqi":79,"pm10":13.5,"pm2_5":10.4,"mosquito_risk":0,"arthritis_risk":5,"migraine_risk":10,"frizz_risk":0,"updated_at":"2026-03-28T16:06:21.182494+05:30"},{"city":"Nanded","state":"Maharashtra","latitude":19.1383,"longitude":77.3091,"temp":39.1,"humidity":16,"rain":0.0,"pressure":964.3,"uv_index":8.7,"wind_gusts":28.8,"aqi":75,"pm10":9.1,"pm2_5":7.0,"mosquito_risk":0,"arthritis_risk":5,"migraine_risk":10,"frizz_risk":0,"updated_at":"2026-03-28T16:06:21.182501+05:30"},{"city":"Gulbarga","state":"Karnataka","latitude":17.3297,"longitude":76.8343,"temp":38.9,"humidity":15,"rain":0.0,"pressure":954.9,"uv_index":8.9,"wind_gusts":31.7,"aqi":100,"pm10":25.6,"pm2_5":18.7,"mosquito_risk":0,"arthritis_risk":5,"migraine_risk":10,"frizz_risk":0,"updated_at":"2026-03-28T16:06:21.182507+05:30"},{"city":"Bidar","state":"Karnataka","latitude":17.9104,"longitude":77.5199,"temp":37.1,"humidity":16,"rain":0.0,"pressure":932.3,"uv_index":8.85,"wind_gusts":28.8,"aqi":99,"pm10":17.5,"pm2_5":13.5,"mosquito_risk":0,"arthritis_risk":5,"migraine_risk":10,"frizz_risk":0,"updated_at":"2026-03-28T16:06:21.182513+05:30"},{"city":"Hospet","state":"Karnataka","latitude":15.2689,"longitude":76.3909,"temp":35.9,"humidity":28,"rain":0.0,"pressure":952.5,"uv_index":9.1,"wind_gusts":45.0,"aqi":123,"pm10":52.2,"pm2_5":40.3,"mosquito_risk":0,"arthritis_risk":5,"migraine_risk":10,"frizz_risk":0,"updated_at":"2026-03-28T16:06:21.182520+05:30"},{"city":"Tirupur","state":"Tamil Nadu","latitude":11.1085,"longitude":77.3411,"temp":38.4,"humidity":22,"rain":0.0,"pressure":970.9,"uv_index":9.45,"wind_gusts":43.2,"aqi":112,"pm10":34.9,"pm2_5":27.1,"mosquito_risk":0,"arthritis_risk":5,"migraine_risk":10,"frizz_risk":0,"updated_at":"2026-03-28T16:06:21.182527+05:30"},{"city":"Alappuzha","state":"Kerala","latitude":9.4981,"longitude":76.3388,"temp":29.1,"humidity":82,"rain":0.0,"pressure":1005.8,"uv_index":9.15,"wind_gusts":31.3,"aqi":85,"pm10":29.7,"pm2_5":24.4,"mosquito_risk":7,"arthritis_risk":5,"migraine_risk":4,"frizz_risk":1,"updated_at":"2026-03-28T16:06:21.182534+05:30"},{"city":"Munnar","state":"Kerala","latitude":10.0889,"longitude":77.0595,"temp":24.8,"humidity":76,"rain":0.0,"pressure":855.7,"uv_index":9.7,"wind_gusts":40.7,"aqi":75,"pm10":26.9,"pm2_5":21.5,"mosquito_risk":3,"arthritis_risk":5,"migraine_risk":7,"frizz_risk":1,"updated_at":"2026-03-28T16:06:21.182541+05:30"},{"city":"Silchar","state":"Assam","latitude":24.8333,"longitude":92.7789,"temp":23.4,"humidity":78,"rain":0.0,"pressure":1004.0,"uv_index":3.4,"wind_gusts":30.2,"aqi":153,"pm10":57.3,"pm2_5":45.4,"mosquito_risk":3,"arthritis_risk":5,"migraine_risk":0,"frizz_risk":1,"updated_at":"2026-03-28T16:06:21.182548+05:30"},{"city":"Dibrugarh","state":"Assam","latitude":27.4728,"longitude":94.912,"temp":20.8,"humidity":85,"rain":0.0,"pressure":995.6,"uv_index":4.5,"wind_gusts":31.0,"aqi":120,"pm10":42.7,"pm2_5":31.7,"mosquito_risk":3,"arthritis_risk":5,"migraine_risk":3,"frizz_risk":1,"updated_at":"2026-03-28T16:06:21.182554+05:30"}]