[{"city":"Delhi","state":"Delhi","latitude":28.6139,"longitude":77.209,"temp":34.7,"humidity":41,"rain":0.0,"pressure":979.7,"uv_index":7.8,"wind_gusts":37.1,"aqi":368,"pm10":484.3,"pm2_5":116.2,"no2":38.6,"co":381.0,"o3":64.0,"so2":16.6,"mosquito_risk":0,"arthritis_risk":5,"migraine_risk":7,"frizz_risk":1,"updated_at":"2026-06-19T21:37:05.593480+05:30"},{"city":"Mumbai","state":"Maharashtra","latitude":19.076,"longitude":72.8777,"temp":30.5,"humidity":63,"rain":0.0,"pressure":1008.9,"uv_index":7.7,"wind_gusts":45.0,"aqi":57,"pm10":25.9,"pm2_5":13.4,"no2":8.6,"co":177.0,"o3":43.0,"so2":6.7,"mosquito_risk":3,"arthritis_risk":0,"migraine_risk":4,"frizz_risk":1,"updated_at":"2026-06-19T21:37:05.593529+05:30"},{"city":"Bangalore","state":"Karnataka","latitude":12.9716,"longitude":77.5946,"temp":22.2,"humidity":90,"rain":0.0,"pressure":913.0,"uv_index":6.65,"wind_gusts":29.2,"aqi":57,"pm10":29.6,"pm2_5":26.8,"no2":56.2,"co":1141.0,"o3":28.0,"so2":11.5,"mosquito_risk":3,"arthritis_risk":5,"migraine_risk":7,"frizz_risk":1,"updated_at":"2026-06-19T21:37:05.593545+05:30"},{"city":"Hyderabad","state":"Telangana","latitude":17.385,"longitude":78.4867,"temp":30.6,"humidity":57,"rain":0.0,"pressure":953.4,"uv_index":8.8,"wind_gusts":37.4,"aqi":72,"pm10":56.9,"pm2_5":48.8,"no2":54.5,"co":526.0,"o3":29.0,"so2":14.3,"mosquito_risk":0,"arthritis_risk":5,"migraine_risk":7,"frizz_risk":1,"updated_at":"2026-06-19T21:37:05.593555+05:30"},{"city":"Chennai","state":"Tamil Nadu","latitude":13.0827,"longitude":80.2707,"temp":29.8,"humidity":83,"rain":0.0,"pressure":1007.1,"uv_index":7.6,"wind_gusts":36.4,"aqi":129,"pm10":33.9,"pm2_5":26.3,"no2":11.5,"co":324.0,"o3":131.0,"so2":10.3,"mosquito_risk":7,"arthritis_risk":5,"migraine_risk":4,"frizz_risk":1,"updated_at":"2026-06-19T21:37:05.593564+05:30"},{"city":"Kolkata","state":"West Bengal","latitude":22.5726,"longitude":88.3639,"temp":27.0,"humidity":84,"rain":0.0,"pressure":1004.3,"uv_index":9.0,"wind_gusts":27.4,"aqi":105,"pm10":51.1,"pm2_5":48.3,"no2":18.1,"co":641.0,"o3":79.0,"so2":13.0,"mosquito_risk":7,"arthritis_risk":5,"migraine_risk":4,"frizz_risk":1,"updated_at":"2026-06-19T21:37:05.593572+05:30"},{"city":"Pune","state":"Maharashtra","latitude":18.5204,"longitude":73.8567,"temp":26.1,"humidity":69,"rain":0.0,"pressure":948.8,"uv_index":8.25,"wind_gusts":41.4,"aqi":49,"pm10":13.5,"pm2_5":8.9,"no2":6.5,"co":151.0,"o3":48.0,"so2":5.1,"mosquito_risk":7,"arthritis_risk":5,"migraine_risk":7,"frizz_risk":1,"updated_at":"2026-06-19T21:37:05.593580+05:30"},{"city":"Ahmedabad","state":"Gujarat","latitude":23.0225,"longitude":72.5714,"temp":30.4,"humidity":66,"rain":0.0,"pressure":1000.4,"uv_index":6.65,"wind_gusts":39.6,"aqi":68,"pm10":42.3,"pm2_5":23.7,"no2":13.9,"co":181.0,"o3":50.0,"so2":5.8,"mosquito_risk":3,"arthritis_risk":5,"migraine_risk":4,"frizz_risk":1,"updated_at":"2026-06-19T21:37:05.593586+05:30"},{"city":"Jaipur","state":"Rajasthan","latitude":26.9124,"longitude":75.7873,"temp":29.2,"humidity":66,"rain":0.0,"pressure":957.6,"uv_index":8.2,"wind_gusts":28.8,"aqi":122,"pm10":194.6,"pm2_5":51.8,"no2":14.0,"co":449.0,"o3":54.0,"so2":5.4,"mosquito_risk":7,"arthritis_risk":5,"migraine_risk":7,"frizz_risk":1,"updated_at":"2026-06-19T21:37:05.593594+05:30"},{"city":"Lucknow","state":"Uttar Pradesh","latitude":26.8467,"longitude":80.9462,"temp":34.3,"humidity":44,"rain":0.0,"pressure":989.3,"uv_index":8.35,"wind_gusts":47.5,"aqi":158,"pm10":297.1,"pm2_5":80.8,"no2":14.3,"co":325.0,"o3":84.0,"so2":8.0,"mosquito_risk":0,"arthritis_risk":5,"migraine_risk":7,"frizz_risk":1,"updated_at":"2026-06-19T21:37:05.593605+05:30"},{"city":"Kanpur","state":"Uttar Pradesh","latitude":26.4499,"longitude":80.3319,"temp":35.8,"humidity":38,"rain":0.0,"pressure":987.9,"uv_index":8.3,"wind_gusts":40.3,"aqi":155,"pm10":402.3,"pm2_5":85.7,"no2":15.7,"co":222.0,"o3":69.0,"so2":6.9,"mosquito_risk":0,"arthritis_risk":5,"migraine_risk":10,"frizz_risk":1,"updated_at":"2026-06-19T21:37:05.593613+05:30"},{"city":"Chandigarh","state":"Chandigarh","latitude":30.7333,"longitude":76.7794,"temp":28.5,"humidity":67,"rain":0.0,"pressure":965.5,"uv_index":7.8,"wind_gusts":29.5,"aqi":155,"pm10":53.6,"pm2_5":46.2,"no2":24.4,"co":820.0,"o3":106.0,"so2":13.3,"mosquito_risk":7,"arthritis_risk":5,"migraine_risk":7,"frizz_risk":1,"updated_at":"2026-06-19T21:37:05.593620+05:30"},{"city":"Srinagar","state":"Jammu and Kashmir","latitude":34.0837,"longitude":74.7973,"temp":17.7,"humidity":86,"rain":0.0,"pressure":842.3,"uv_index":7.7,"wind_gusts":31.3,"aqi":76,"pm10":16.8,"pm2_5":15.6,"no2":24.5,"co":860.0,"o3":58.0,"so2":1.7,"mosquito_risk":3,"arthritis_risk":10,"migraine_risk":7,"frizz_risk":0,"updated_at":"2026-06-19T21:37:05.593628+05:30"},{"city":"Jammu","state":"Jammu and Kashmir","latitude":32.7266,"longitude":74.857,"temp":29.2,"humidity":56,"rain":0.0,"pressure":969.5,"uv_index":8.6,"wind_gusts":60.8,"aqi":103,"pm10":58.8,"pm2_5":45.8,"no2":47.6,"co":608.0,"o3":69.0,"so2":7.8,"mosquito_risk":4,"arthritis_risk":5,"migraine_risk":7,"frizz_risk":1,"updated_at":"2026-06-19T21:37:05.593635+05:30"},{"city":"Amritsar","state":"Punjab","latitude":31.634,"longitude":74.8723,"temp":28.8,"humidity":69,"rain":0.0,"pressure":977.3,"uv_index":8.4,"wind_gusts":29.5,"aqi":144,"pm10":68.5,"pm2_5":51.3,"no2":30.6,"co":670.0,"o3":88.0,"so2":12.8,"mosquito_risk":7,"arthritis_risk":5,"migraine_risk":7,"frizz_risk":1,"updated_at":"2026-06-19T21:37:05.593641+05:30"},{"city":"Ludhiana","state":"Punjab","latitude":30.901,"longitude":75.8573,"temp":29.5,"humidity":67,"rain":0.0,"pressure":975.4,"uv_index":8.05,"wind_gusts":26.3,"aqi":152,"pm10":110.1,"pm2_5":57.4,"no2":21.0,"co":648.0,"o3":87.0,"so2":7.9,"mosquito_risk":7,"arthritis_risk":5,"migraine_risk":7,"frizz_risk":1,"updated_at":"2026-06-19T21:37:05.593648+05:30"},{"city":"Jalandhar","state":"Punjab","latitude":31.326,"longitude":75.5762,"temp":29.1,"humidity":69,"rain":0.0,"pressure":976.4,"uv_index":8.25,"wind_gusts":28.1,"aqi":152,"pm10":105.9,"pm2_5":58.4,"no2":24.4,"co":850.0,"o3":82.0,"so2":7.7,"mosquito_risk":7,"arthritis_risk":5,"migraine_risk":7,"frizz_risk":1,"updated_at":"2026-06-19T21:37:05.593654+05:30"},{"city":"Dehradun","state":"Uttarakhand","latitude":30.6284,"longitude":78.0322,"temp":18.0,"humidity":92,"rain":0.0,"pressure":829.1,"uv_index":7.7,"wind_gusts":30.2,"aqi":103,"pm10":31.3,"pm2_5":24.0,"no2":24.4,"co":225.0,"o3":85.0,"so2":1.5,"mosquito_risk":3,"arthritis_risk":10,"migraine_risk":7,"frizz_risk":1,"updated_at":"2026-06-19T21:37:05.593661+05:30"},{"city":"Shimla","state":"Himachal Pradesh","latitude":31.1048,"longitude":77.1734,"temp":14.0,"humidity":96,"rain":0.0,"pressure":782.6,"uv_index":7.75,"wind_gusts":28.4,"aqi":125,"pm10":58.2,"pm2_5":41.6,"no2":21.0,"co":459.0,"o3":104.0,"so2":6.8,"mosquito_risk":3,"arthritis_risk":10,"migraine_risk":7,"frizz_risk":0,"updated_at":"2026-06-19T21:37:05.593669+05:30"},{"city":"Manali","state":"Himachal Pradesh","latitude":32.2396,"longitude":77.1887,"temp":17.0,"humidity":85,"rain":0.0,"pressure":818.2,"uv_index":9.45,"wind_gusts":38.9,"aqi":65,"pm10":6.8,"pm2_5":5.7,"no2":65.4,"co":333.0,"o3":65.0,"so2":0.3,"mosquito_risk":3,"arthritis_risk":10,"migraine_risk":7,"frizz_risk":0,"updated_at":"2026-06-19T21:37:05.593678+05:30"},{"city":"Gurgaon","state":"Haryana","latitude":28.4595,"longitude":77.0266,"temp":32.0,"humidity":55,"rain":0.0,"pressure":978.1,"uv_index":7.9,"wind_gusts":32.0,"aqi":501,"pm10":412.6,"pm2_5":109.9,"no2":47.4,"co":1050.0,"o3":50.0,"so2":16.0,"mosquito_risk":0,"arthritis_risk":5,"migraine_risk":7,"frizz_risk":1,"updated_at":"2026-06-19T21:37:05.593686+05:30"},{"city":"Noida","state":"Uttar Pradesh","latitude":28.5355,"longitude":77.391,"temp":32.5,"humidity":53,"rain":0.0,"pressure":980.9,"uv_index":7.85,"wind_gusts":28.4,"aqi":501,"pm10":412.6,"pm2_5":109.9,"no2":47.4,"co":697.0,"o3":50.0,"so2":16.0,"mosquito_risk":0,"arthritis_risk":5,"migraine_risk":7,"frizz_risk":1,"updated_at":"2026-06-19T21:37:05.593692+05:30"},{"city":"Ghaziabad","state":"Uttar Pradesh","latitude":28.6692,"longitude":77.4538,"temp":32.0,"humidity":53,"rain":0.0,"pressure":979.1,"uv_index":7.8,"wind_gusts":25.6,"aqi":228,"pm10":391.2,"pm2_5":117.6,"no2":39.5,"co":401.0,"o3":69.0,"so2":21.6,"mosquito_risk":0,"arthritis_risk":5,"migraine_risk":7,"frizz_risk":1,"updated_at":"2026-06-19T21:37:05.593701+05:30"},{"city":"Faridabad","state":"Haryana","latitude":28.4089,"longitude":77.3178,"temp":34.1,"humidity":44,"rain":0.0,"pressure":980.3,"uv_index":7.9,"wind_gusts":35.6,"aqi":501,"pm10":412.6,"pm2_5":109.9,"no2":47.4,"co":745.0,"o3":50.0,"so2":16.0,"mosquito_risk":0,"arthritis_risk":5,"migraine_risk":7,"frizz_risk":1,"updated_at":"2026-06-19T21:37:05.593708+05:30"},{"city":"Meerut","state":"Uttar Pradesh","latitude":28.9845,"longitude":77.7064,"temp":31.1,"humidity":61,"rain":0.0,"pressure":977.8,"uv_index":7.75,"wind_gusts":31.7,"aqi":228,"pm10":391.2,"pm2_5":117.6,"no2":39.5,"co":502.0,"o3":69.0,"so2":21.6,"mosquito_risk":3,"arthritis_risk":5,"migraine_risk":7,"frizz_risk":1,"updated_at":"2026-06-19T21:37:05.593715+05:30"},{"city":"Agra","state":"Uttar Pradesh","latitude":27.1767,"longitude":78.0081,"temp":34.4,"humidity":39,"rain":0.0,"pressure":984.5,"uv_index":8.15,"wind_gusts":37.8,"aqi":358,"pm10":188.1,"pm2_5":62.2,"no2":32.5,"co":281.0,"o3":44.0,"so2":10.1,"mosquito_risk":0,"arthritis_risk":5,"migraine_risk":7,"frizz_risk":1,"updated_at":"2026-06-19T21:37:05.593721+05:30"},{"city":"Varanasi","state":"Uttar Pradesh","latitude":25.3176,"longitude":82.9739,"temp":32.2,"humidity":57,"rain":0.1,"pressure":994.2,"uv_index":8.8,"wind_gusts":33.8,"aqi":99,"pm10":85.2,"pm2_5":53.4,"no2":26.4,"co":1096.0,"o3":60.0,"so2":12.9,"mosquito_risk":3,"arthritis_risk":5,"migraine_risk":7,"frizz_risk":1,"updated_at":"2026-06-19T21:37:05.593729+05:30"},{"city":"Prayagraj","state":"Uttar Pradesh","latitude":25.4358,"longitude":81.8463,"temp":35.7,"humidity":39,"rain":0.0,"pressure":992.0,"uv_index":8.7,"wind_gusts":36.7,"aqi":112,"pm10":69.2,"pm2_5":42.0,"no2":16.8,"co":284.0,"o3":61.0,"so2":8.4,"mosquito_risk":0,"arthritis_risk":5,"migraine_risk":10,"frizz_risk":1,"updated_at":"2026-06-19T21:37:05.593736+05:30"},{"city":"Gorakhpur","state":"Uttar Pradesh","latitude":26.7606,"longitude":83.3732,"temp":32.3,"humidity":63,"rain":0.0,"pressure":993.0,"uv_index":8.7,"wind_gusts":29.9,"aqi":161,"pm10":123.9,"pm2_5":81.3,"no2":40.4,"co":537.0,"o3":70.0,"so2":19.6,"mosquito_risk":3,"arthritis_risk":5,"migraine_risk":7,"frizz_risk":1,"updated_at":"2026-06-19T21:37:05.593743+05:30"},{"city":"Bareilly","state":"Uttar Pradesh","latitude":28.367,"longitude":79.4304,"temp":31.9,"humidity":56,"rain":0.0,"pressure":982.9,"uv_index":8.15,"wind_gusts":32.4,"aqi":153,"pm10":150.4,"pm2_5":81.3,"no2":21.1,"co":365.0,"o3":107.0,"so2":15.5,"mosquito_risk":0,"arthritis_risk":5,"migraine_risk":7,"frizz_risk":1,"updated_at":"2026-06-19T21:37:05.593751+05:30"},{"city":"Aligarh","state":"Uttar Pradesh","latitude":27.8974,"longitude":78.088,"temp":32.4,"humidity":52,"rain":0.0,"pressure":982.0,"uv_index":8.0,"wind_gusts":35.3,"aqi":340,"pm10":428.4,"pm2_5":110.1,"no2":31.1,"co":471.0,"o3":56.0,"so2":9.7,"mosquito_risk":0,"arthritis_risk":5,"migraine_risk":7,"frizz_risk":1,"updated_at":"2026-06-19T21:37:05.593757+05:30"},{"city":"Moradabad","state":"Uttar Pradesh","latitude":28.8386,"longitude":78.7733,"temp":31.7,"humidity":62,"rain":0.0,"pressure":979.8,"uv_index":7.95,"wind_gusts":34.2,"aqi":159,"pm10":211.9,"pm2_5":114.6,"no2":41.4,"co":477.0,"o3":82.0,"so2":18.6,"mosquito_risk":3,"arthritis_risk":5,"migraine_risk":7,"frizz_risk":1,"updated_at":"2026-06-19T21:37:05.593763+05:30"},{"city":"Saharanpur","state":"Uttar Pradesh","latitude":29.9637,"longitude":77.546,"temp":30.0,"humidity":61,"rain":0.0,"pressure":972.1,"uv_index":7.55,"wind_gusts":27.0,"aqi":160,"pm10":370.7,"pm2_5":108.5,"no2":22.8,"co":509.0,"o3":89.0,"so2":12.5,"mosquito_risk":7,"arthritis_risk":5,"migraine_risk":7,"frizz_risk":1,"updated_at":"2026-06-19T21:37:05.593770+05:30"},{"city":"Jhansi","state":"Uttar Pradesh","latitude":25.4484,"longitude":78.5685,"temp":33.0,"humidity":46,"rain":0.0,"pressure":975.7,"uv_index":8.5,"wind_gusts":36.0,"aqi":72,"pm10":33.6,"pm2_5":19.0,"no2":6.1,"co":153.0,"o3":65.0,"so2":2.6,"mosquito_risk":0,"arthritis_risk":5,"migraine_risk":7,"frizz_risk":1,"updated_at":"2026-06-19T21:37:08.938532+05:30"},{"city":"Surat","state":"Gujarat","latitude":21.1702,"longitude":72.8311,"temp":29.7,"humidity":75,"rain":0.0,"pressure":1006.5,"uv_index":7.6,"wind_gusts":43.6,"aqi":67,"pm10":28.8,"pm2_5":18.8,"no2":20.7,"co":270.0,"o3":31.0,"so2":33.1,"mosquito_risk":7,"arthritis_risk":5,"migraine_risk":4,"frizz_risk":1,"updated_at":"2026-06-19T21:37:08.938566+05:30"},{"city":"Vadodara","state":"Gujarat","latitude":22.3072,"longitude":73.1812,"temp":29.8,"humidity":71,"rain":0.0,"pressure":1003.2,"uv_index":7.85,"wind_gusts":37.8,"aqi":61,"pm10":21.3,"pm2_5":14.9,"no2":14.9,"co":156.0,"o3":39.0,"so2":14.0,"mosquito_risk":7,"arthritis_risk":5,"migraine_risk":4,"frizz_risk":1,"updated_at":"2026-06-19T21:37:08.938577+05:30"},{"city":"Rajkot","state":"Gujarat","latitude":22.3039,"longitude":70.8022,"temp":30.6,"humidity":59,"rain":0.0,"pressure":992.9,"uv_index":7.5,"wind_gusts":42.1,"aqi":62,"pm10":41.9,"pm2_5":17.8,"no2":4.0,"co":115.0,"o3":50.0,"so2":3.3,"mosquito_risk":0,"arthritis_risk":5,"migraine_risk":7,"frizz_risk":1,"updated_at":"2026-06-19T21:37:08.938586+05:30"},{"city":"Thane","state":"Maharashtra","latitude":19.2183,"longitude":72.9781,"temp":30.4,"humidity":63,"rain":0.0,"pressure":1008.3,"uv_index":7.7,"wind_gusts":39.6,"aqi":57,"pm10":25.9,"pm2_5":13.4,"no2":8.6,"co":179.0,"o3":43.0,"so2":6.7,"mosquito_risk":3,"arthritis_risk":0,"migraine_risk":4,"frizz_risk":1,"updated_at":"2026-06-19T21:37:08.938595+05:30"},{"city":"Nagpur","state":"Maharashtra","latitude":21.1458,"longitude":79.0882,"temp":33.3,"humidity":41,"rain":0.0,"pressure":972.4,"uv_index":8.85,"wind_gusts":39.6,"aqi":83,"pm10":27.9,"pm2_5":20.5,"no2":16.0,"co":327.0,"o3":69.0,"so2":12.1,"mosquito_risk":0,"arthritis_risk":5,"migraine_risk":7,"frizz_risk":1,"updated_at":"2026-06-19T21:37:08.938603+05:30"},{"city":"Nashik","state":"Maharashtra","latitude":19.9975,"longitude":73.7898,"temp":26.6,"humidity":64,"rain":0.0,"pressure":946.2,"uv_index":8.05,"wind_gusts":42.8,"aqi":49,"pm10":18.1,"pm2_5":10.8,"no2":4.2,"co":123.0,"o3":54.0,"so2":2.2,"mosquito_risk":7,"arthritis_risk":5,"migraine_risk":7,"frizz_risk":1,"updated_at":"2026-06-19T21:37:08.938611+05:30"},{"city":"Aurangabad","state":"Maharashtra","latitude":19.8762,"longitude":75.3433,"temp":30.9,"humidity":40,"rain":0.0,"pressure":944.3,"uv_index":8.95,"wind_gusts":42.5,"aqi":64,"pm10":16.4,"pm2_5":12.3,"no2":5.0,"co":156.0,"o3":102.0,"so2":6.4,"mosquito_risk":0,"arthritis_risk":5,"migraine_risk":7,"frizz_risk":0,"updated_at":"2026-06-19T21:37:08.938619+05:30"},{"city":"Solapur","state":"Maharashtra","latitude":17.6599,"longitude":75.9064,"temp":32.8,"humidity":39,"rain":0.0,"pressure":956.8,"uv_index":8.3,"wind_gusts":42.1,"aqi":52,"pm10":23.1,"pm2_5":17.1,"no2":11.6,"co":287.0,"o3":65.0,"so2":3.4,"mosquito_risk":0,"arthritis_risk":5,"migraine_risk":7,"frizz_risk":1,"updated_at":"2026-06-19T21:37:08.938628+05:30"},{"city":"Kolhapur","state":"Maharashtra","latitude":16.705,"longitude":74.2433,"temp":25.5,"humidity":74,"rain":0.0,"pressure":949.0,"uv_index":8.0,"wind_gusts":38.9,"aqi":50,"pm10":13.2,"pm2_5":9.3,"no2":5.7,"co":159.0,"o3":44.0,"so2":2.6,"mosquito_risk":7,"arthritis_risk":5,"migraine_risk":7,"frizz_risk":1,"updated_at":"2026-06-19T21:37:08.938635+05:30"},{"city":"Goa","state":"Goa","latitude":15.2993,"longitude":74.124,"temp":27.6,"humidity":82,"rain":0.0,"pressure":999.2,"uv_index":8.4,"wind_gusts":27.7,"aqi":58,"pm10":19.0,"pm2_5":11.9,"no2":4.3,"co":458.0,"o3":42.0,"so2":1.7,"mosquito_risk":7,"arthritis_risk":5,"migraine_risk":7,"frizz_risk":1,"updated_at":"2026-06-19T21:37:08.938643+05:30"},{"city":"Jodhpur","state":"Rajasthan","latitude":26.2389,"longitude":73.0243,"temp":32.8,"humidity":48,"rain":0.0,"pressure":980.4,"uv_index":8.4,"wind_gusts":36.7,"aqi":101,"pm10":177.9,"pm2_5":41.2,"no2":9.4,"co":160.0,"o3":52.0,"so2":2.4,"mosquito_risk":0,"arthritis_risk":5,"migraine_risk":7,"frizz_risk":1,"updated_at":"2026-06-19T21:37:08.938651+05:30"},{"city":"Udaipur","state":"Rajasthan","latitude":24.5854,"longitude":73.7125,"temp":26.2,"humidity":83,"rain":0.0,"pressure":945.3,"uv_index":7.9,"wind_gusts":37.4,"aqi":63,"pm10":46.0,"pm2_5":22.8,"no2":7.1,"co":242.0,"o3":64.0,"so2":3.3,"mosquito_risk":7,"arthritis_risk":5,"migraine_risk":7,"frizz_risk":1,"updated_at":"2026-06-19T21:37:08.938659+05:30"},{"city":"Kota","state":"Rajasthan","latitude":25.2138,"longitude":75.8648,"temp":29.7,"humidity":67,"rain":0.0,"pressure":977.3,"uv_index":8.35,"wind_gusts":52.9,"aqi":67,"pm10":32.5,"pm2_5":23.3,"no2":13.0,"co":296.0,"o3":50.0,"so2":4.4,"mosquito_risk":7,"arthritis_risk":5,"migraine_risk":7,"frizz_risk":1,"updated_at":"2026-06-19T21:37:08.938666+05:30"},{"city":"Bikaner","state":"Rajasthan","latitude":28.0229,"longitude":73.3119,"temp":32.3,"humidity":58,"rain":0.0,"pressure":978.6,"uv_index":8.45,"wind_gusts":22.7,"aqi":110,"pm10":105.9,"pm2_5":37.1,"no2":6.6,"co":285.0,"o3":57.0,"so2":2.9,"mosquito_risk":0,"arthritis_risk":5,"migraine_risk":7,"frizz_risk":1,"updated_at":"2026-06-19T21:37:08.938674+05:30"},{"city":"Ajmer","state":"Rajasthan","latitude":26.4499,"longitude":74.6399,"temp":28.4,"humidity":62,"rain":0.0,"pressure":952.9,"uv_index":8.35,"wind_gusts":34.6,"aqi":84,"pm10":74.3,"pm2_5":36.6,"no2":13.8,"co":181.0,"o3":47.0,"so2":3.7,"mosquito_risk":7,"arthritis_risk":5,"migraine_risk":7,"frizz_risk":1,"updated_at":"2026-06-19T21:37:08.938681+05:30"},{"city":"Gwalior","state":"Madhya Pradesh","latitude":26.2183,"longitude":78.1828,"temp":31.8,"humidity":50,"rain":0.0,"pressure":980.7,"uv_index":8.3,"wind_gusts":40.7,"aqi":90,"pm10":71.9,"pm2_5":30.0,"no2":6.2,"co":153.0,"o3":67.0,"so2":2.8,"mosquito_risk":0,"arthritis_risk":5,"migraine_risk":7,"frizz_risk":1,"updated_at":"2026-06-19T21:37:08.938689+05:30"},{"city":"Indore","state":"Madhya Pradesh","latitude":22.7196,"longitude":75.8577,"temp":29.3,"humidity":54,"rain":0.0,"pressure":948.2,"uv_index":8.6,"wind_gusts":46.8,"aqi":62,"pm10":30.2,"pm2_5":21.4,"no2":12.2,"co":234.0,"o3":57.0,"so2":5.2,"mosquito_risk":4,"arthritis_risk":5,"migraine_risk":7,"frizz_risk":1,"updated_at":"2026-06-19T21:37:08.938697+05:30"},{"city":"Bhopal","state":"Madhya Pradesh","latitude":23.2599,"longitude":77.4126,"temp":28.8,"humidity":58,"rain":0.0,"pressure":952.8,"uv_index":8.7,"wind_gusts":38.5,"aqi":64,"pm10":21.7,"pm2_5":17.3,"no2":6.2,"co":410.0,"o3":72.0,"so2":3.3,"mosquito_risk":4,"arthritis_risk":5,"migraine_risk":7,"frizz_risk":1,"updated_at":"2026-06-19T21:37:08.938705+05:30"},{"city":"Jabalpur","state":"Madhya Pradesh","latitude":23.1815,"longitude":79.9864,"temp":29.4,"humidity":62,"rain":0.0,"pressure":959.8,"uv_index":8.0,"wind_gusts":34.2,"aqi":64,"pm10":39.3,"pm2_5":28.6,"no2":14.8,"co":198.0,"o3":65.0,"so2":5.1,"mosquito_risk":7,"arthritis_risk":5,"migraine_risk":7,"frizz_risk":1,"updated_at":"2026-06-19T21:37:08.938713+05:30"},{"city":"Ujjain","state":"Madhya Pradesh","latitude":23.1765,"longitude":75.7885,"temp":29.1,"humidity":56,"rain":0.0,"pressure":953.5,"uv_index":8.55,"wind_gusts":46.4,"aqi":62,"pm10":36.7,"pm2_5":23.9,"no2":6.1,"co":227.0,"o3":66.0,"so2":3.9,"mosquito_risk":4,"arthritis_risk":5,"migraine_risk":7,"frizz_risk":1,"updated_at":"2026-06-19T21:37:08.938721+05:30"},{"city":"Visakhapatnam","state":"Andhra Pradesh","latitude":17.6868,"longitude":83.2185,"temp":28.6,"humidity":96,"rain":0.0,"pressure":1002.7,"uv_index":8.85,"wind_gusts":30.6,"aqi":128,"pm10":46.9,"pm2_5":43.0,"no2":40.3,"co":388.0,"o3":85.0,"so2":55.7,"mosquito_risk":7,"arthritis_risk":5,"migraine_risk":4,"frizz_risk":1,"updated_at":"2026-06-19T21:37:08.938729+05:30"},{"city":"Vijayawada","state":"Andhra Pradesh","latitude":16.5062,"longitude":80.648,"temp":30.9,"humidity":73,"rain":0.0,"pressure":1001.3,"uv_index":8.75,"wind_gusts":27.4,"aqi":80,"pm10":59.5,"pm2_5":54.9,"no2":35.9,"co":444.0,"o3":59.0,"so2":11.8,"mosquito_risk":3,"arthritis_risk":5,"migraine_risk":4,"frizz_risk":1,"updated_at":"2026-06-19T21:37:08.938736+05:30"},{"city":"Guntur","state":"Andhra Pradesh","latitude":16.3067,"longitude":80.4365,"temp":30.9,"humidity":73,"rain":0.0,"pressure":1002.6,"uv_index":8.9,"wind_gusts":30.2,"aqi":76,"pm10":51.9,"pm2_5":47.4,"no2":35.3,"co":444.0,"o3":52.0,"so2":10.2,"mosquito_risk":3,"arthritis_risk":5,"migraine_risk":4,"frizz_risk":1,"updated_at":"2026-06-19T21:37:08.938744+05:30"},{"city":"Nellore","state":"Andhra Pradesh","latitude":14.4426,"longitude":79.9865,"temp":29.8,"humidity":77,"rain":0.0,"pressure":1005.5,"uv_index":6.9,"wind_gusts":35.6,"aqi":96,"pm10":33.9,"pm2_5":28.1,"no2":7.0,"co":332.0,"o3":127.0,"so2":9.3,"mosquito_risk":7,"arthritis_risk":5,"migraine_risk":4,"frizz_risk":1,"updated_at":"2026-06-19T21:37:08.938752+05:30"},{"city":"Kurnool","state":"Andhra Pradesh","latitude":15.8281,"longitude":78.0373,"temp":30.7,"humidity":55,"rain":0.0,"pressure":976.8,"uv_index":8.0,"wind_gusts":38.2,"aqi":67,"pm10":44.0,"pm2_5":36.0,"no2":28.7,"co":352.0,"o3":65.0,"so2":13.9,"mosquito_risk":0,"arthritis_risk":5,"migraine_risk":7,"frizz_risk":1,"updated_at":"2026-06-19T21:37:08.938761+05:30"},{"city":"Kakinada","state":"Andhra Pradesh","latitude":16.9891,"longitude":82.2475,"temp":29.6,"humidity":79,"rain":0.0,"pressure":1006.0,"uv_index":5.55,"wind_gusts":38.2,"aqi":120,"pm10":26.9,"pm2_5":21.5,"no2":5.8,"co":303.0,"o3":118.0,"so2":5.0,"mosquito_risk":7,"arthritis_risk":5,"migraine_risk":0,"frizz_risk":1,"updated_at":"2026-06-19T21:37:08.938768+05:30"},{"city":"Tirupati","state":"Andhra Pradesh","latitude":13.6288,"longitude":79.4192,"temp":28.4,"humidity":70,"rain":0.0,"pressure":991.5,"uv_index":5.4,"wind_gusts":28.4,"aqi":72,"pm10":46.0,"pm2_5":40.6,"no2":46.2,"co":312.0,"o3":38.0,"so2":8.5,"mosquito_risk":7,"arthritis_risk":5,"migraine_risk":3,"frizz_risk":1,"updated_at":"2026-06-19T21:37:08.938776+05:30"},{"city":"Warangal","state":"Telangana","latitude":17.9689,"longitude":79.5941,"temp":31.5,"humidity":59,"rain":0.0,"pressure":978.0,"uv_index":8.15,"wind_gusts":36.7,"aqi":79,"pm10":66.1,"pm2_5":56.1,"no2":34.7,"co":515.0,"o3":39.0,"so2":10.3,"mosquito_risk":0,"arthritis_risk":5,"migraine_risk":7,"frizz_risk":1,"updated_at":"2026-06-19T21:37:08.938784+05:30"},{"city":"Nizamabad","state":"Telangana","latitude":18.6725,"longitude":78.0941,"temp":32.3,"humidity":47,"rain":0.0,"pressure":964.5,"uv_index":8.95,"wind_gusts":31.3,"aqi":71,"pm10":33.2,"pm2_5":24.2,"no2":12.8,"co":617.0,"o3":77.0,"so2":4.9,"mosquito_risk":0,"arthritis_risk":5,"migraine_risk":7,"frizz_risk":1,"updated_at":"2026-06-19T21:37:08.938791+05:30"},{"city":"Mysore","state":"Karnataka","latitude":12.2958,"longitude":76.6396,"temp":23.0,"humidity":91,"rain":0.0,"pressure":929.9,"uv_index":6.9,"wind_gusts":25.2,"aqi":52,"pm10":19.2,"pm2_5":15.8,"no2":29.8,"co":322.0,"o3":26.0,"so2":3.8,"mosquito_risk":3,"arthritis_risk":5,"migraine_risk":7,"frizz_risk":1,"updated_at":"2026-06-19T21:37:08.938799+05:30"},{"city":"Mangalore","state":"Karnataka","latitude":12.9141,"longitude":74.856,"temp":27.0,"humidity":85,"rain":0.0,"pressure":1008.3,"uv_index":6.95,"wind_gusts":24.8,"aqi":62,"pm10":31.4,"pm2_5":20.8,"no2":16.7,"co":376.0,"o3":29.0,"so2":5.4,"mosquito_risk":7,"arthritis_risk":0,"migraine_risk":4,"frizz_risk":1,"updated_at":"2026-06-19T21:37:08.938807+05:30"},{"city":"Hubli-Dharwad","state":"Karnataka","latitude":15.3647,"longitude":75.124,"temp":25.3,"humidity":76,"rain":0.0,"pressure":941.9,"uv_index":8.9,"wind_gusts":40.7,"aqi":50,"pm10":19.1,"pm2_5":11.7,"no2":6.3,"co":171.0,"o3":49.0,"so2":1.8,"mosquito_risk":7,"arthritis_risk":5,"migraine_risk":7,"frizz_risk":1,"updated_at":"2026-06-19T21:37:08.938814+05:30"},{"city":"Belgaum","state":"Karnataka","latitude":15.8497,"longitude":74.4977,"temp":23.0,"humidity":88,"rain":0.0,"pressure":926.7,"uv_index":8.9,"wind_gusts":41.0,"aqi":50,"pm10":15.4,"pm2_5":10.2,"no2":7.0,"co":145.0,"o3":39.0,"so2":2.4,"mosquito_risk":3,"arthritis_risk":5,"migraine_risk":7,"frizz_risk":1,"updated_at":"2026-06-19T21:37:12.372916+05:30"},{"city":"Coimbatore","state":"Tamil Nadu","latitude":11.0168,"longitude":76.9558,"temp":25.1,"humidity":90,"rain":0.1,"pressure":963.4,"uv_index":8.35,"wind_gusts":33.1,"aqi":30,"pm10":19.6,"pm2_5":17.1,"no2":29.2,"co":437.0,"o3":14.0,"so2":5.4,"mosquito_risk":10,"arthritis_risk":5,"migraine_risk":7,"frizz_risk":1,"updated_at":"2026-06-19T21:37:12.372949+05:30"},{"city":"Madurai","state":"Tamil Nadu","latitude":9.9252,"longitude":78.1198,"temp":26.3,"humidity":95,"rain":0.1,"pressure":994.5,"uv_index":8.1,"wind_gusts":32.8,"aqi":57,"pm10":24.8,"pm2_5":22.2,"no2":43.9,"co":400.0,"o3":19.0,"so2":7.4,"mosquito_risk":10,"arthritis_risk":5,"migraine_risk":7,"frizz_risk":1,"updated_at":"2026-06-19T21:37:12.372960+05:30"},{"city":"Trichy","state":"Tamil Nadu","latitude":10.7905,"longitude":78.7047,"temp":26.2,"humidity":91,"rain":0.1,"pressure":1001.6,"uv_index":8.15,"wind_gusts":40.0,"aqi":50,"pm10":17.8,"pm2_5":14.8,"no2":15.4,"co":224.0,"o3":69.0,"so2":3.3,"mosquito_risk":10,"arthritis_risk":5,"migraine_risk":4,"frizz_risk":1,"updated_at":"2026-06-19T21:37:12.372969+05:30"},{"city":"Salem","state":"Tamil Nadu","latitude":11.6643,"longitude":78.146,"temp":24.4,"humidity":94,"rain":0.1,"pressure":979.6,"uv_index":8.0,"wind_gusts":29.2,"aqi":86,"pm10":21.3,"pm2_5":17.9,"no2":18.1,"co":461.0,"o3":85.0,"so2":9.0,"mosquito_risk":6,"arthritis_risk":5,"migraine_risk":7,"frizz_risk":1,"updated_at":"2026-06-19T21:37:12.372978+05:30"},{"city":"Tirunelveli","state":"Tamil Nadu","latitude":8.7139,"longitude":77.7567,"temp":29.7,"humidity":63,"rain":0.0,"pressure":1004.2,"uv_index":8.1,"wind_gusts":31.7,"aqi":48,"pm10":21.4,"pm2_5":16.8,"no2":14.9,"co":317.0,"o3":48.0,"so2":2.8,"mosquito_risk":7,"arthritis_risk":5,"migraine_risk":4,"frizz_risk":1,"updated_at":"2026-06-19T21:37:12.372987+05:30"},{"city":"Vellore","state":"Tamil Nadu","latitude":12.9165,"longitude":79.1325,"temp":26.2,"humidity":92,"rain":0.1,"pressure":985.0,"uv_index":8.05,"wind_gusts":28.4,"aqi":73,"pm10":24.9,"pm2_5":21.3,"no2":18.6,"co":356.0,"o3":74.0,"so2":5.1,"mosquito_risk":10,"arthritis_risk":5,"migraine_risk":7,"frizz_risk":1,"updated_at":"2026-06-19T21:37:12.372995+05:30"},{"city":"Erode","state":"Tamil Nadu","latitude":11.341,"longitude":77.7172,"temp":26.1,"humidity":87,"rain":0.0,"pressure":991.4,"uv_index":7.25,"wind_gusts":27.7,"aqi":46,"pm10":22.2,"pm2_5":18.7,"no2":29.0,"co":387.0,"o3":45.0,"so2":4.8,"mosquito_risk":7,"arthritis_risk":5,"migraine_risk":7,"frizz_risk":1,"updated_at":"2026-06-19T21:37:12.373004+05:30"},{"city":"Kochi","state":"Kerala","latitude":9.9312,"longitude":76.2673,"temp":27.6,"humidity":84,"rain":0.0,"pressure":1010.7,"uv_index":7.9,"wind_gusts":24.8,"aqi":60,"pm10":51.7,"pm2_5":43.7,"no2":53.0,"co":217.0,"o3":1.0,"so2":12.3,"mosquito_risk":7,"arthritis_risk":0,"migraine_risk":4,"frizz_risk":1,"updated_at":"2026-06-19T21:37:12.373012+05:30"},{"city":"Thiruvananthapuram","state":"Kerala","latitude":8.5241,"longitude":76.9366,"temp":26.3,"humidity":88,"rain":0.0,"pressure":1010.1,"uv_index":7.4,"wind_gusts":34.6,"aqi":59,"pm10":33.1,"pm2_5":16.4,"no2":4.1,"co":269.0,"o3":68.0,"so2":2.4,"mosquito_risk":7,"arthritis_risk":0,"migraine_risk":4,"frizz_risk":1,"updated_at":"2026-06-19T21:37:12.373020+05:30"},{"city":"Kozhikode","state":"Kerala","latitude":11.2588,"longitude":75.7804,"temp":26.8,"humidity":86,"rain":0.0,"pressure":1009.8,"uv_index":8.25,"wind_gusts":23.0,"aqi":51,"pm10":28.6,"pm2_5":14.2,"no2":3.0,"co":303.0,"o3":65.0,"so2":2.1,"mosquito_risk":7,"arthritis_risk":0,"migraine_risk":4,"frizz_risk":1,"updated_at":"2026-06-19T21:37:12.373028+05:30"},{"city":"Thrissur","state":"Kerala","latitude":10.5276,"longitude":76.2144,"temp":26.1,"humidity":90,"rain":0.0,"pressure":1009.2,"uv_index":6.3,"wind_gusts":24.1,"aqi":59,"pm10":58.3,"pm2_5":48.7,"no2":42.0,"co":643.0,"o3":15.0,"so2":10.2,"mosquito_risk":7,"arthritis_risk":0,"migraine_risk":4,"frizz_risk":1,"updated_at":"2026-06-19T21:37:12.373036+05:30"},{"city":"Kannur","state":"Kerala","latitude":11.8745,"longitude":75.3704,"temp":26.8,"humidity":90,"rain":0.0,"pressure":1009.0,"uv_index":7.75,"wind_gusts":25.6,"aqi":61,"pm10":33.4,"pm2_5":21.8,"no2":23.8,"co":484.0,"o3":30.0,"so2":5.2,"mosquito_risk":7,"arthritis_risk":0,"migraine_risk":4,"frizz_risk":1,"updated_at":"2026-06-19T21:37:12.373043+05:30"},{"city":"Patna","state":"Bihar","latitude":25.5941,"longitude":85.1376,"temp":31.7,"humidity":71,"rain":0.0,"pressure":996.6,"uv_index":8.65,"wind_gusts":28.1,"aqi":155,"pm10":140.2,"pm2_5":91.3,"no2":45.0,"co":672.0,"o3":62.0,"so2":21.9,"mosquito_risk":3,"arthritis_risk":5,"migraine_risk":7,"frizz_risk":1,"updated_at":"2026-06-19T21:37:12.373051+05:30"},{"city":"Gaya","state":"Bihar","latitude":24.7914,"longitude":85.0002,"temp":30.9,"humidity":60,"rain":0.0,"pressure":990.7,"uv_index":8.45,"wind_gusts":38.5,"aqi":143,"pm10":96.9,"pm2_5":62.9,"no2":29.7,"co":249.0,"o3":66.0,"so2":13.7,"mosquito_risk":0,"arthritis_risk":5,"migraine_risk":7,"frizz_risk":1,"updated_at":"2026-06-19T21:37:12.373058+05:30"},{"city":"Muzaffarpur","state":"Bihar","latitude":26.1209,"longitude":85.3647,"temp":26.7,"humidity":90,"rain":0.0,"pressure":997.3,"uv_index":8.65,"wind_gusts":41.8,"aqi":156,"pm10":84.1,"pm2_5":65.9,"no2":24.5,"co":487.0,"o3":94.0,"so2":15.9,"mosquito_risk":7,"arthritis_risk":5,"migraine_risk":7,"frizz_risk":1,"updated_at":"2026-06-19T21:37:12.373066+05:30"},{"city":"Bhagalpur","state":"Bihar","latitude":25.2425,"longitude":87.0117,"temp":26.2,"humidity":95,"rain":0.0,"pressure":999.4,"uv_index":8.45,"wind_gusts":48.2,"aqi":181,"pm10":68.7,"pm2_5":61.0,"no2":16.6,"co":268.0,"o3":121.0,"so2":27.7,"mosquito_risk":7,"arthritis_risk":5,"migraine_risk":7,"frizz_risk":1,"updated_at":"2026-06-19T21:37:12.373073+05:30"},{"city":"Ranchi","state":"Jharkhand","latitude":23.3441,"longitude":85.3096,"temp":24.8,"humidity":92,"rain":0.0,"pressure":936.3,"uv_index":8.0,"wind_gusts":43.9,"aqi":140,"pm10":40.7,"pm2_5":38.9,"no2":9.1,"co":290.0,"o3":131.0,"so2":10.4,"mosquito_risk":3,"arthritis_risk":5,"migraine_risk":7,"frizz_risk":1,"updated_at":"2026-06-19T21:37:12.373081+05:30"},{"city":"Jamshedpur","state":"Jharkhand","latitude":22.8046,"longitude":86.2029,"temp":27.8,"humidity":92,"rain":0.0,"pressure":989.1,"uv_index":8.85,"wind_gusts":35.3,"aqi":154,"pm10":54.5,"pm2_5":50.6,"no2":18.8,"co":667.0,"o3":107.0,"so2":29.8,"mosquito_risk":7,"arthritis_risk":5,"migraine_risk":7,"frizz_risk":1,"updated_at":"2026-06-19T21:37:12.373089+05:30"},{"city":"Dhanbad","state":"Jharkhand","latitude":23.7957,"longitude":86.4304,"temp":28.3,"humidity":78,"rain":0.0,"pressure":978.0,"uv_index":7.85,"wind_gusts":40.0,"aqi":164,"pm10":71.0,"pm2_5":67.3,"no2":40.3,"co":381.0,"o3":90.0,"so2":99.2,"mosquito_risk":7,"arthritis_risk":5,"migraine_risk":7,"frizz_risk":1,"updated_at":"2026-06-19T21:37:12.373097+05:30"},{"city":"Bokaro","state":"Jharkhand","latitude":23.6693,"longitude":86.1511,"temp":27.9,"humidity":82,"rain":0.0,"pressure":981.6,"uv_index":7.5,"wind_gusts":38.5,"aqi":158,"pm10":55.4,"pm2_5":52.5,"no2":25.6,"co":315.0,"o3":104.0,"so2":65.5,"mosquito_risk":7,"arthritis_risk":5,"migraine_risk":7,"frizz_risk":1,"updated_at":"2026-06-19T21:37:12.373105+05:30"},{"city":"Bhubaneswar","state":"Odisha","latitude":20.2961,"longitude":85.8245,"temp":27.0,"humidity":93,"rain":0.0,"pressure":1001.2,"uv_index":8.15,"wind_gusts":43.2,"aqi":106,"pm10":30.0,"pm2_5":28.2,"no2":12.0,"co":797.0,"o3":109.0,"so2":7.0,"mosquito_risk":7,"arthritis_risk":5,"migraine_risk":4,"frizz_risk":1,"updated_at":"2026-06-19T21:37:12.373113+05:30"},{"city":"Cuttack","state":"Odisha","latitude":20.4625,"longitude":85.8828,"temp":27.3,"humidity":95,"rain":0.0,"pressure":1002.9,"uv_index":7.2,"wind_gusts":37.1,"aqi":106,"pm10":30.0,"pm2_5":28.2,"no2":12.0,"co":663.0,"o3":109.0,"so2":7.0,"mosquito_risk":7,"arthritis_risk":5,"migraine_risk":4,"frizz_risk":1,"updated_at":"2026-06-19T21:37:12.373121+05:30"},{"city":"Rourkela","state":"Odisha","latitude":22.2604,"longitude":84.8536,"temp":28.4,"humidity":86,"rain":0.0,"pressure":983.4,"uv_index":9.0,"wind_gusts":47.9,"aqi":151,"pm10":59.3,"pm2_5":55.1,"no2":19.4,"co":533.0,"o3":119.0,"so2":17.2,"mosquito_risk":7,"arthritis_risk":5,"migraine_risk":7,"frizz_risk":1,"updated_at":"2026-06-19T21:37:12.373130+05:30"},{"city":"Raipur","state":"Chhattisgarh","latitude":21.2514,"longitude":81.6296,"temp":30.1,"humidity":72,"rain":0.0,"pressure":973.5,"uv_index":7.55,"wind_gusts":34.2,"aqi":101,"pm10":48.4,"pm2_5":40.9,"no2":40.3,"co":435.0,"o3":59.0,"so2":55.5,"mosquito_risk":3,"arthritis_risk":5,"migraine_risk":7,"frizz_risk":1,"updated_at":"2026-06-19T21:37:12.373138+05:30"},{"city":"Bhilai","state":"Chhattisgarh","latitude":21.1938,"longitude":81.3509,"temp":29.5,"humidity":74,"rain":0.0,"pressure":973.9,"uv_index":8.5,"wind_gusts":38.5,"aqi":99,"pm10":61.9,"pm2_5":51.5,"no2":46.4,"co":432.0,"o3":49.0,"so2":51.4,"mosquito_risk":7,"arthritis_risk":5,"migraine_risk":7,"frizz_risk":1,"updated_at":"2026-06-19T21:37:12.373145+05:30"},{"city":"Guwahati","state":"Assam","latitude":26.1158,"longitude":91.7086,"temp":26.8,"humidity":88,"rain":0.0,"pressure":1000.1,"uv_index":8.7,"wind_gusts":32.8,"aqi":96,"pm10":66.1,"pm2_5":51.9,"no2":12.6,"co":517.0,"o3":65.0,"so2":5.9,"mosquito_risk":7,"arthritis_risk":5,"migraine_risk":4,"frizz_risk":1,"updated_at":"2026-06-19T21:37:12.373153+05:30"},{"city":"Agartala","state":"Tripura","latitude":23.8315,"longitude":91.2868,"temp":26.7,"humidity":87,"rain":0.0,"pressure":1005.8,"uv_index":8.0,"wind_gusts":30.2,"aqi":89,"pm10":31.0,"pm2_5":28.6,"no2":12.9,"co":254.0,"o3":58.0,"so2":3.0,"mosquito_risk":7,"arthritis_risk":5,"migraine_risk":4,"frizz_risk":1,"updated_at":"2026-06-19T21:37:12.373160+05:30"},{"city":"Shillong","state":"Meghalaya","latitude":25.5788,"longitude":91.8933,"temp":19.7,"humidity":93,"rain":0.0,"pressure":857.1,"uv_index":7.9,"wind_gusts":23.8,"aqi":56,"pm10":33.9,"pm2_5":26.5,"no2":7.0,"co":288.0,"o3":90.0,"so2":2.9,"mosquito_risk":3,"arthritis_risk":10,"migraine_risk":7,"frizz_risk":1,"updated_at":"2026-06-19T21:37:12.373168+05:30"},{"city":"Imphal","state":"Manipur","latitude":24.817,"longitude":93.9368,"temp":23.8,"humidity":86,"rain":0.0,"pressure":922.9,"uv_index":8.15,"wind_gusts":31.3,"aqi":59,"pm10":24.6,"pm2_5":20.8,"no2":11.5,"co":369.0,"o3":49.0,"so2":2.8,"mosquito_risk":3,"arthritis_risk":5,"migraine_risk":7,"frizz_risk":1,"updated_at":"2026-06-19T21:37:12.373176+05:30"},{"city":"Aizawl","state":"Mizoram","latitude":23.7271,"longitude":92.7176,"temp":19.7,"humidity":93,"rain":0.0,"pressure":892.4,"uv_index":8.55,"wind_gusts":32.0,"aqi":52,"pm10":11.5,"pm2_5":9.6,"no2":5.1,"co":184.0,"o3":60.0,"so2":1.4,"mosquito_risk":3,"arthritis_risk":10,"migraine_risk":7,"frizz_risk":1,"updated_at":"2026-06-19T21:37:12.373183+05:30"},{"city":"Kohima","state":"Nagaland","latitude":25.6701,"longitude":94.1077,"temp":19.4,"humidity":97,"rain":0.0,"pressure":855.1,"uv_index":7.85,"wind_gusts":21.6,"aqi":49,"pm10":9.5,"pm2_5":7.9,"no2":7.4,"co":330.0,"o3":59.0,"so2":1.5,"mosquito_risk":3,"arthritis_risk":10,"migraine_risk":7,"frizz_risk":1,"updated_at":"2026-06-19T21:37:12.373191+05:30"},{"city":"Gangtok","state":"Sikkim","latitude":27.3314,"longitude":88.6138,"temp":18.1,"humidity":97,"rain":0.3,"pressure":837.1,"uv_index":8.45,"wind_gusts":33.8,"aqi":76,"pm10":10.8,"pm2_5":9.7,"no2":6.4,"co":465.0,"o3":130.0,"so2":5.4,"mosquito_risk":6,"arthritis_risk":10,"migraine_risk":7,"frizz_risk":1,"updated_at":"2026-06-19T21:37:12.373198+05:30"},{"city":"Siliguri","state":"West Bengal","latitude":26.7271,"longitude":88.3953,"temp":25.6,"humidity":90,"rain":0.1,"pressure":991.3,"uv_index":6.45,"wind_gusts":23.4,"aqi":102,"pm10":51.0,"pm2_5":42.5,"no2":10.5,"co":702.0,"o3":120.0,"so2":8.8,"mosquito_risk":10,"arthritis_risk":5,"migraine_risk":7,"frizz_risk":1,"updated_at":"2026-06-19T21:37:15.729137+05:30"},{"city":"Durgapur","state":"West Bengal","latitude":23.5204,"longitude":87.3119,"temp":27.0,"humidity":82,"rain":0.0,"pressure":993.1,"uv_index":8.85,"wind_gusts":29.5,"aqi":164,"pm10":89.2,"pm2_5":85.0,"no2":38.3,"co":1058.0,"o3":76.0,"so2":57.7,"mosquito_risk":7,"arthritis_risk":5,"migraine_risk":7,"frizz_risk":1,"updated_at":"2026-06-19T21:37:15.729174+05:30"},{"city":"Asansol","state":"West Bengal","latitude":23.6739,"longitude":86.9524,"temp":28.8,"humidity":83,"rain":0.0,"pressure":991.5,"uv_index":8.9,"wind_gusts":33.1,"aqi":162,"pm10":76.4,"pm2_5":72.4,"no2":39.9,"co":622.0,"o3":79.0,"so2":67.2,"mosquito_risk":7,"arthritis_risk":5,"migraine_risk":7,"frizz_risk":1,"updated_at":"2026-06-19T21:37:15.729186+05:30"},{"city":"Pondicherry","state":"Puducherry","latitude":11.9139,"longitude":79.8145,"temp":28.8,"humidity":88,"rain":0.0,"pressure":1009.1,"uv_index":7.4,"wind_gusts":60.8,"aqi":129,"pm10":26.9,"pm2_5":21.4,"no2":8.8,"co":268.0,"o3":108.0,"so2":6.3,"mosquito_risk":7,"arthritis_risk":0,"migraine_risk":4,"frizz_risk":1,"updated_at":"2026-06-19T21:37:15.729196+05:30"},{"city":"Port Blair","state":"Andaman and Nicobar Islands","latitude":11.6234,"longitude":92.7265,"temp":26.9,"humidity":85,"rain":0.0,"pressure":1009.8,"uv_index":8.75,"wind_gusts":32.0,"aqi":26,"pm10":13.5,"pm2_5":6.0,"no2":0.3,"co":98.0,"o3":42.0,"so2":0.4,"mosquito_risk":7,"arthritis_risk":0,"migraine_risk":4,"frizz_risk":1,"updated_at":"2026-06-19T21:37:15.729229+05:30"},{"city":"Haridwar","state":"Uttarakhand","latitude":29.9457,"longitude":78.1642,"temp":29.6,"humidity":68,"rain":0.0,"pressure":970.2,"uv_index":7.65,"wind_gusts":24.1,"aqi":154,"pm10":159.3,"pm2_5":73.1,"no2":23.0,"co":496.0,"o3":108.0,"so2":14.2,"mosquito_risk":7,"arthritis_risk":5,"migraine_risk":7,"frizz_risk":1,"updated_at":"2026-06-19T21:37:15.729239+05:30"},{"city":"Rishikesh","state":"Uttarakhand","latitude":30.0869,"longitude":78.2676,"temp":29.2,"humidity":67,"rain":0.0,"pressure":963.1,"uv_index":7.75,"wind_gusts":26.3,"aqi":158,"pm10":59.1,"pm2_5":46.9,"no2":9.7,"co":496.0,"o3":149.0,"so2":9.5,"mosquito_risk":7,"arthritis_risk":5,"migraine_risk":7,"frizz_risk":1,"updated_at":"2026-06-19T21:37:15.729247+05:30"},{"city":"Nainital","state":"Uttarakhand","latitude":29.3919,"longitude":79.4542,"temp":16.7,"humidity":90,"rain":0.0,"pressure":804.4,"uv_index":8.6,"wind_gusts":29.9,"aqi":136,"pm10":53.4,"pm2_5":42.1,"no2":10.4,"co":366.0,"o3":110.0,"so2":5.6,"mosquito_risk":3,"arthritis_risk":10,"migraine_risk":7,"frizz_risk":0,"updated_at":"2026-06-19T21:37:15.729256+05:30"},{"city":"Mussoorie","state":"Uttarakhand","latitude":30.4599,"longitude":78.0664,"temp":15.8,"humidity":94,"rain":0.0,"pressure":801.5,"uv_index":7.6,"wind_gusts":36.7,"aqi":146,"pm10":54.8,"pm2_5":49.0,"no2":30.2,"co":368.0,"o3":111.0,"so2":10.4,"mosquito_risk":3,"arthritis_risk":10,"migraine_risk":7,"frizz_risk":0,"updated_at":"2026-06-19T21:37:15.729265+05:30"},{"city":"Dharamshala","state":"Himachal Pradesh","latitude":32.219,"longitude":76.3234,"temp":21.6,"humidity":74,"rain":0.0,"pressure":867.8,"uv_index":8.2,"wind_gusts":40.0,"aqi":80,"pm10":21.5,"pm2_5":15.6,"no2":14.1,"co":386.0,"o3":72.0,"so2":0.7,"mosquito_risk":3,"arthritis_risk":5,"migraine_risk":7,"frizz_risk":1,"updated_at":"2026-06-19T21:37:15.729273+05:30"},{"city":"Dalhousie","state":"Himachal Pradesh","latitude":32.5387,"longitude":75.971,"temp":14.5,"humidity":99,"rain":0.0,"pressure":802.3,"uv_index":7.95,"wind_gusts":26.6,"aqi":123,"pm10":46.3,"pm2_5":33.6,"no2":32.0,"co":550.0,"o3":88.0,"so2":2.7,"mosquito_risk":3,"arthritis_risk":10,"migraine_risk":7,"frizz_risk":0,"updated_at":"2026-06-19T21:37:15.729282+05:30"},{"city":"Patiala","state":"Punjab","latitude":30.3398,"longitude":76.3869,"temp":30.1,"humidity":61,"rain":0.0,"pressure":974.9,"uv_index":7.7,"wind_gusts":31.7,"aqi":200,"pm10":642.6,"pm2_5":132.7,"no2":16.4,"co":364.0,"o3":92.0,"so2":10.6,"mosquito_risk":3,"arthritis_risk":5,"migraine_risk":7,"frizz_risk":1,"updated_at":"2026-06-19T21:37:15.729291+05:30"},{"city":"Bhatinda","state":"Punjab","latitude":30.211,"longitude":74.9455,"temp":30.6,"humidity":59,"rain":0.0,"pressure":980.6,"uv_index":8.3,"wind_gusts":27.7,"aqi":139,"pm10":63.3,"pm2_5":41.2,"no2":23.5,"co":342.0,"o3":56.0,"so2":5.3,"mosquito_risk":0,"arthritis_risk":5,"migraine_risk":7,"frizz_risk":1,"updated_at":"2026-06-19T21:37:15.729299+05:30"},{"city":"Rohtak","state":"Haryana","latitude":28.8955,"longitude":76.6066,"temp":31.1,"humidity":52,"rain":0.0,"pressure":978.2,"uv_index":7.8,"wind_gusts":30.2,"aqi":554,"pm10":493.6,"pm2_5":119.0,"no2":52.0,"co":436.0,"o3":37.0,"so2":10.2,"mosquito_risk":0,"arthritis_risk":5,"migraine_risk":7,"frizz_risk":1,"updated_at":"2026-06-19T21:37:15.729307+05:30"},{"city":"Panipat","state":"Haryana","latitude":29.3909,"longitude":76.9635,"temp":30.7,"humidity":57,"rain":0.0,"pressure":976.9,"uv_index":7.65,"wind_gusts":28.4,"aqi":972,"pm10":1646.6,"pm2_5":269.2,"no2":28.7,"co":475.0,"o3":70.0,"so2":9.0,"mosquito_risk":0,"arthritis_risk":5,"migraine_risk":7,"frizz_risk":1,"updated_at":"2026-06-19T21:37:15.729315+05:30"},{"city":"Mathura","state":"Uttar Pradesh","latitude":27.4924,"longitude":77.6737,"temp":31.9,"humidity":50,"rain":0.0,"pressure":983.4,"uv_index":8.1,"wind_gusts":31.7,"aqi":197,"pm10":238.4,"pm2_5":73.6,"no2":44.6,"co":355.0,"o3":34.0,"so2":7.9,"mosquito_risk":0,"arthritis_risk":5,"migraine_risk":7,"frizz_risk":1,"updated_at":"2026-06-19T21:37:15.729323+05:30"},{"city":"Vrindavan","state":"Uttar Pradesh","latitude":27.5823,"longitude":77.7027,"temp":31.6,"humidity":55,"rain":0.0,"pressure":983.7,"uv_index":8.1,"wind_gusts":31.3,"aqi":197,"pm10":238.4,"pm2_5":73.6,"no2":44.6,"co":310.0,"o3":34.0,"so2":7.9,"mosquito_risk":0,"arthritis_risk":5,"migraine_risk":7,"frizz_risk":1,"updated_at":"2026-06-19T21:37:15.729330+05:30"},{"city":"Ayodhya","state":"Uttar Pradesh","latitude":26.7922,"longitude":82.1998,"temp":32.3,"humidity":59,"rain":0.0,"pressure":990.8,"uv_index":8.45,"wind_gusts":44.3,"aqi":157,"pm10":98.3,"pm2_5":51.0,"no2":18.6,"co":463.0,"o3":72.0,"so2":8.3,"mosquito_risk":0,"arthritis_risk":5,"migraine_risk":7,"frizz_risk":1,"updated_at":"2026-06-19T21:37:15.729338+05:30"},{"city":"Ratlam","state":"Madhya Pradesh","latitude":23.3315,"longitude":75.0367,"temp":28.1,"humidity":66,"rain":0.0,"pressure":954.1,"uv_index":6.6,"wind_gusts":47.9,"aqi":60,"pm10":44.4,"pm2_5":26.7,"no2":4.5,"co":200.0,"o3":75.0,"so2":4.3,"mosquito_risk":7,"arthritis_risk":5,"migraine_risk":7,"frizz_risk":1,"updated_at":"2026-06-19T21:37:15.729346+05:30"},{"city":"Sagar","state":"Madhya Pradesh","latitude":23.8388,"longitude":78.7378,"temp":29.2,"humidity":61,"rain":0.0,"pressure":949.0,"uv_index":8.75,"wind_gusts":35.6,"aqi":58,"pm10":25.2,"pm2_5":16.7,"no2":6.0,"co":178.0,"o3":78.0,"so2":3.2,"mosquito_risk":7,"arthritis_risk":5,"migraine_risk":7,"frizz_risk":1,"updated_at":"2026-06-19T21:37:15.729354+05:30"},{"city":"Satna","state":"Madhya Pradesh","latitude":24.6005,"longitude":80.8322,"temp":30.9,"humidity":63,"rain":0.0,"pressure":968.7,"uv_index":8.8,"wind_gusts":32.8,"aqi":76,"pm10":35.7,"pm2_5":23.9,"no2":11.1,"co":206.0,"o3":67.0,"so2":3.9,"mosquito_risk":3,"arthritis_risk":5,"migraine_risk":7,"frizz_risk":1,"updated_at":"2026-06-19T21:37:15.729362+05:30"},{"city":"Akola","state":"Maharashtra","latitude":20.7002,"longitude":77.0082,"temp":32.8,"humidity":39,"rain":0.0,"pressure":974.4,"uv_index":8.8,"wind_gusts":44.6,"aqi":56,"pm10":22.4,"pm2_5":15.5,"no2":10.7,"co":153.0,"o3":75.0,"so2":6.2,"mosquito_risk":0,"arthritis_risk":5,"migraine_risk":7,"frizz_risk":1,"updated_at":"2026-06-19T21:37:15.729370+05:30"},{"city":"Amravati","state":"Maharashtra","latitude":20.9374,"longitude":77.7796,"temp":31.6,"humidity":41,"rain":0.0,"pressure":966.7,"uv_index":8.8,"wind_gusts":39.2,"aqi":57,"pm10":24.3,"pm2_5":17.2,"no2":14.6,"co":267.0,"o3":67.0,"so2":6.6,"mosquito_risk":0,"arthritis_risk":5,"migraine_risk":7,"frizz_risk":1,"updated_at":"2026-06-19T21:37:15.729379+05:30"},{"city":"Latur","state":"Maharashtra","latitude":18.4088,"longitude":76.5604,"temp":30.6,"humidity":41,"rain":0.0,"pressure":939.9,"uv_index":8.8,"wind_gusts":27.0,"aqi":61,"pm10":25.3,"pm2_5":20.3,"no2":12.8,"co":285.0,"o3":63.0,"so2":3.1,"mosquito_risk":0,"arthritis_risk":5,"migraine_risk":7,"frizz_risk":0,"updated_at":"2026-06-19T21:37:15.729388+05:30"},{"city":"Nanded","state":"Maharashtra","latitude":19.1383,"longitude":77.3091,"temp":33.5,"humidity":32,"rain":0.0,"pressure":968.0,"uv_index":8.85,"wind_gusts":35.3,"aqi":60,"pm10":36.6,"pm2_5":29.0,"no2":23.4,"co":326.0,"o3":59.0,"so2":6.1,"mosquito_risk":0,"arthritis_risk":5,"migraine_risk":7,"frizz_risk":0,"updated_at":"2026-06-19T21:37:15.729396+05:30"},{"city":"Gulbarga","state":"Karnataka","latitude":17.3297,"longitude":76.8343,"temp":31.5,"humidity":43,"rain":0.0,"pressure":958.6,"uv_index":8.1,"wind_gusts":36.7,"aqi":56,"pm10":33.4,"pm2_5":26.4,"no2":37.0,"co":268.0,"o3":42.0,"so2":5.4,"mosquito_risk":0,"arthritis_risk":5,"migraine_risk":7,"frizz_risk":1,"updated_at":"2026-06-19T21:37:15.729404+05:30"},{"city":"Bidar","state":"Karnataka","latitude":17.9104,"longitude":77.5199,"temp":28.9,"humidity":60,"rain":0.0,"pressure":935.5,"uv_index":8.45,"wind_gusts":32.8,"aqi":68,"pm10":58.0,"pm2_5":49.0,"no2":54.9,"co":452.0,"o3":28.0,"so2":8.6,"mosquito_risk":4,"arthritis_risk":5,"migraine_risk":7,"frizz_risk":1,"updated_at":"2026-06-19T21:37:15.729412+05:30"},{"city":"Hospet","state":"Karnataka","latitude":15.2689,"longitude":76.3909,"temp":27.1,"humidity":68,"rain":0.0,"pressure":956.7,"uv_index":5.8,"wind_gusts":40.0,"aqi":52,"pm10":20.0,"pm2_5":13.8,"no2":13.3,"co":173.0,"o3":61.0,"so2":2.2,"mosquito_risk":7,"arthritis_risk":5,"migraine_risk":3,"frizz_risk":1,"updated_at":"2026-06-19T21:37:15.729421+05:30"},{"city":"Tirupur","state":"Tamil Nadu","latitude":11.1085,"longitude":77.3411,"temp":26.2,"humidity":85,"rain":0.0,"pressure":977.0,"uv_index":8.4,"wind_gusts":33.1,"aqi":47,"pm10":27.7,"pm2_5":24.4,"no2":37.9,"co":301.0,"o3":29.0,"so2":7.8,"mosquito_risk":7,"arthritis_risk":5,"migraine_risk":7,"frizz_risk":1,"updated_at":"2026-06-19T21:37:15.729428+05:30"},{"city":"Alappuzha","state":"Kerala","latitude":9.4981,"longitude":76.3388,"temp":27.5,"humidity":84,"rain":0.0,"pressure":1010.7,"uv_index":7.5,"wind_gusts":28.8,"aqi":57,"pm10":37.3,"pm2_5":25.5,"no2":23.0,"co":107.0,"o3":41.0,"so2":7.0,"mosquito_risk":7,"arthritis_risk":0,"migraine_risk":4,"frizz_risk":1,"updated_at":"2026-06-19T21:37:15.729437+05:30"},{"city":"Munnar","state":"Kerala","latitude":10.0889,"longitude":77.0595,"temp":17.0,"humidity":98,"rain":0.0,"pressure":857.7,"uv_index":5.65,"wind_gusts":26.6,"aqi":23,"pm10":8.5,"pm2_5":8.1,"no2":17.6,"co":216.0,"o3":18.0,"so2":1.6,"mosquito_risk":3,"arthritis_risk":10,"migraine_risk":3,"frizz_risk":1,"updated_at":"2026-06-19T21:37:15.729444+05:30"},{"city":"Silchar","state":"Assam","latitude":24.8333,"longitude":92.7789,"temp":25.6,"humidity":96,"rain":0.2,"pressure":1004.9,"uv_index":8.2,"wind_gusts":24.5,"aqi":85,"pm10":30.7,"pm2_5":24.6,"no2":10.5,"co":388.0,"o3":80.0,"so2":5.0,"mosquito_risk":10,"arthritis_risk":5,"migraine_risk":4,"frizz_risk":1,"updated_at":"2026-06-19T21:37:15.729452+05:30"},{"city":"Dibrugarh","state":"Assam","latitude":27.4728,"longitude":94.912,"temp":26.0,"humidity":97,"rain":0.0,"pressure":993.9,"uv_index":8.9,"wind_gusts":28.4,"aqi":67,"pm10":18.3,"pm2_5":16.6,"no2":10.8,"co":323.0,"o3":80.0,"so2":2.6,"mosquito_risk":7,"arthritis_risk":5,"migraine_risk":7,"frizz_risk":1,"updated_at":"2026-06-19T21:37:15.729460+05:30"}]