[{"city":"Delhi","state":"Delhi","latitude":28.6139,"longitude":77.209,"temp":25.9,"humidity":39,"rain":0.0,"pressure":984.4,"uv_index":6.0,"wind_gusts":24.5,"aqi":229,"pm10":195.6,"pm2_5":66.8,"mosquito_risk":4,"arthritis_risk":5,"migraine_risk":3,"frizz_risk":0,"updated_at":"2026-03-14T22:06:29.283886+05:30"},{"city":"Mumbai","state":"Maharashtra","latitude":19.076,"longitude":72.8777,"temp":28.3,"humidity":76,"rain":0.0,"pressure":1011.0,"uv_index":7.65,"wind_gusts":18.4,"aqi":112,"pm10":79.9,"pm2_5":39.6,"mosquito_risk":7,"arthritis_risk":0,"migraine_risk":4,"frizz_risk":1,"updated_at":"2026-03-14T22:06:29.283929+05:30"},{"city":"Bangalore","state":"Karnataka","latitude":12.9716,"longitude":77.5946,"temp":24.0,"humidity":48,"rain":0.0,"pressure":914.1,"uv_index":9.3,"wind_gusts":32.8,"aqi":114,"pm10":29.9,"pm2_5":27.9,"mosquito_risk":0,"arthritis_risk":5,"migraine_risk":7,"frizz_risk":0,"updated_at":"2026-03-14T22:06:29.283945+05:30"},{"city":"Hyderabad","state":"Telangana","latitude":17.385,"longitude":78.4867,"temp":26.5,"humidity":52,"rain":0.0,"pressure":955.5,"uv_index":8.7,"wind_gusts":30.2,"aqi":126,"pm10":44.9,"pm2_5":38.6,"mosquito_risk":4,"arthritis_risk":5,"migraine_risk":7,"frizz_risk":0,"updated_at":"2026-03-14T22:06:29.283955+05:30"},{"city":"Chennai","state":"Tamil Nadu","latitude":13.0827,"longitude":80.2707,"temp":26.3,"humidity":84,"rain":0.0,"pressure":1011.0,"uv_index":9.05,"wind_gusts":32.0,"aqi":52,"pm10":14.5,"pm2_5":11.5,"mosquito_risk":7,"arthritis_risk":0,"migraine_risk":4,"frizz_risk":1,"updated_at":"2026-03-14T22:06:29.283964+05:30"},{"city":"Kolkata","state":"West Bengal","latitude":22.5726,"longitude":88.3639,"temp":25.8,"humidity":86,"rain":0.0,"pressure":1009.0,"uv_index":8.05,"wind_gusts":33.8,"aqi":78,"pm10":19.1,"pm2_5":15.4,"mosquito_risk":7,"arthritis_risk":0,"migraine_risk":4,"frizz_risk":1,"updated_at":"2026-03-14T22:06:29.283973+05:30"},{"city":"Pune","state":"Maharashtra","latitude":18.5204,"longitude":73.8567,"temp":26.0,"humidity":37,"rain":0.0,"pressure":951.3,"uv_index":8.25,"wind_gusts":45.7,"aqi":165,"pm10":29.4,"pm2_5":27.3,"mosquito_risk":4,"arthritis_risk":5,"migraine_risk":7,"frizz_risk":0,"updated_at":"2026-03-14T22:06:29.283992+05:30"},{"city":"Ahmedabad","state":"Gujarat","latitude":23.0225,"longitude":72.5714,"temp":28.6,"humidity":41,"rain":0.0,"pressure":1003.6,"uv_index":7.5,"wind_gusts":24.8,"aqi":80,"pm10":58.7,"pm2_5":28.9,"mosquito_risk":4,"arthritis_risk":5,"migraine_risk":4,"frizz_risk":0,"updated_at":"2026-03-14T22:06:29.284000+05:30"},{"city":"Jaipur","state":"Rajasthan","latitude":26.9124,"longitude":75.7873,"temp":25.2,"humidity":43,"rain":0.0,"pressure":961.0,"uv_index":7.0,"wind_gusts":28.8,"aqi":142,"pm10":118.5,"pm2_5":47.7,"mosquito_risk":4,"arthritis_risk":5,"migraine_risk":7,"frizz_risk":0,"updated_at":"2026-03-14T22:06:29.284007+05:30"},{"city":"Lucknow","state":"Uttar Pradesh","latitude":26.8467,"longitude":80.9462,"temp":24.8,"humidity":52,"rain":0.0,"pressure":994.9,"uv_index":6.7,"wind_gusts":24.5,"aqi":165,"pm10":209.5,"pm2_5":72.9,"mosquito_risk":0,"arthritis_risk":5,"migraine_risk":7,"frizz_risk":0,"updated_at":"2026-03-14T22:06:29.284015+05:30"},{"city":"Kanpur","state":"Uttar Pradesh","latitude":26.4499,"longitude":80.3319,"temp":24.3,"humidity":57,"rain":0.0,"pressure":992.6,"uv_index":6.7,"wind_gusts":17.3,"aqi":342,"pm10":224.4,"pm2_5":67.1,"mosquito_risk":0,"arthritis_risk":5,"migraine_risk":7,"frizz_risk":0,"updated_at":"2026-03-14T22:06:29.284022+05:30"},{"city":"Chandigarh","state":"Chandigarh","latitude":30.7333,"longitude":76.7794,"temp":21.2,"humidity":52,"rain":0.0,"pressure":969.6,"uv_index":5.2,"wind_gusts":20.2,"aqi":71,"pm10":51.6,"pm2_5":48.7,"mosquito_risk":0,"arthritis_risk":5,"migraine_risk":3,"frizz_risk":0,"updated_at":"2026-03-14T22:06:29.284030+05:30"},{"city":"Srinagar","state":"Jammu and Kashmir","latitude":34.0837,"longitude":74.7973,"temp":10.2,"humidity":79,"rain":0.0,"pressure":839.4,"uv_index":5.6,"wind_gusts":20.2,"aqi":98,"pm10":80.8,"pm2_5":59.1,"mosquito_risk":3,"arthritis_risk":5,"migraine_risk":3,"frizz_risk":0,"updated_at":"2026-03-14T22:06:29.284036+05:30"},{"city":"Jammu","state":"Jammu and Kashmir","latitude":32.7266,"longitude":74.857,"temp":22.2,"humidity":53,"rain":0.0,"pressure":973.0,"uv_index":6.35,"wind_gusts":19.1,"aqi":82,"pm10":46.3,"pm2_5":38.6,"mosquito_risk":0,"arthritis_risk":5,"migraine_risk":7,"frizz_risk":0,"updated_at":"2026-03-14T22:06:29.284044+05:30"},{"city":"Amritsar","state":"Punjab","latitude":31.634,"longitude":74.8723,"temp":20.5,"humidity":55,"rain":0.0,"pressure":981.5,"uv_index":4.65,"wind_gusts":17.6,"aqi":83,"pm10":42.6,"pm2_5":39.9,"mosquito_risk":0,"arthritis_risk":5,"migraine_risk":3,"frizz_risk":0,"updated_at":"2026-03-14T22:06:29.284050+05:30"},{"city":"Ludhiana","state":"Punjab","latitude":30.901,"longitude":75.8573,"temp":21.0,"humidity":52,"rain":0.0,"pressure":979.6,"uv_index":5.25,"wind_gusts":20.2,"aqi":92,"pm10":103.6,"pm2_5":67.5,"mosquito_risk":0,"arthritis_risk":5,"migraine_risk":3,"frizz_risk":0,"updated_at":"2026-03-14T22:06:29.284056+05:30"},{"city":"Jalandhar","state":"Punjab","latitude":31.326,"longitude":75.5762,"temp":21.2,"humidity":47,"rain":0.0,"pressure":980.6,"uv_index":6.15,"wind_gusts":23.0,"aqi":93,"pm10":66.4,"pm2_5":39.6,"mosquito_risk":0,"arthritis_risk":5,"migraine_risk":7,"frizz_risk":0,"updated_at":"2026-03-14T22:06:29.284066+05:30"},{"city":"Dehradun","state":"Uttarakhand","latitude":30.6284,"longitude":78.0322,"temp":12.0,"humidity":56,"rain":0.0,"pressure":829.0,"uv_index":4.2,"wind_gusts":21.6,"aqi":62,"pm10":33.1,"pm2_5":19.8,"mosquito_risk":0,"arthritis_risk":5,"migraine_risk":3,"frizz_risk":0,"updated_at":"2026-03-14T22:06:29.284073+05:30"},{"city":"Shimla","state":"Himachal Pradesh","latitude":31.1048,"longitude":77.1734,"temp":11.8,"humidity":44,"rain":0.0,"pressure":783.3,"uv_index":5.5,"wind_gusts":22.3,"aqi":57,"pm10":36.4,"pm2_5":26.3,"mosquito_risk":0,"arthritis_risk":5,"migraine_risk":3,"frizz_risk":0,"updated_at":"2026-03-14T22:06:29.284080+05:30"},{"city":"Manali","state":"Himachal Pradesh","latitude":32.2396,"longitude":77.1887,"temp":13.1,"humidity":46,"rain":0.0,"pressure":820.3,"uv_index":7.3,"wind_gusts":29.2,"aqi":52,"pm10":46.2,"pm2_5":16.1,"mosquito_risk":0,"arthritis_risk":5,"migraine_risk":7,"frizz_risk":0,"updated_at":"2026-03-14T22:06:29.284087+05:30"},{"city":"Gurgaon","state":"Haryana","latitude":28.4595,"longitude":77.0266,"temp":23.1,"humidity":49,"rain":0.0,"pressure":982.8,"uv_index":5.85,"wind_gusts":19.4,"aqi":708,"pm10":312.0,"pm2_5":106.2,"mosquito_risk":0,"arthritis_risk":5,"migraine_risk":3,"frizz_risk":0,"updated_at":"2026-03-14T22:06:29.284094+05:30"},{"city":"Noida","state":"Uttar Pradesh","latitude":28.5355,"longitude":77.391,"temp":25.0,"humidity":42,"rain":0.0,"pressure":985.9,"uv_index":5.75,"wind_gusts":23.8,"aqi":708,"pm10":312.0,"pm2_5":106.2,"mosquito_risk":4,"arthritis_risk":5,"migraine_risk":3,"frizz_risk":0,"updated_at":"2026-03-14T22:06:29.284101+05:30"},{"city":"Ghaziabad","state":"Uttar Pradesh","latitude":28.6692,"longitude":77.4538,"temp":24.2,"humidity":46,"rain":0.0,"pressure":984.0,"uv_index":5.95,"wind_gusts":23.8,"aqi":181,"pm10":257.0,"pm2_5":89.6,"mosquito_risk":0,"arthritis_risk":5,"migraine_risk":3,"frizz_risk":0,"updated_at":"2026-03-14T22:06:29.284108+05:30"},{"city":"Faridabad","state":"Haryana","latitude":28.4089,"longitude":77.3178,"temp":23.1,"humidity":46,"rain":0.0,"pressure":985.2,"uv_index":5.75,"wind_gusts":22.0,"aqi":708,"pm10":312.0,"pm2_5":106.2,"mosquito_risk":0,"arthritis_risk":5,"migraine_risk":3,"frizz_risk":0,"updated_at":"2026-03-14T22:06:29.284114+05:30"},{"city":"Meerut","state":"Uttar Pradesh","latitude":28.9845,"longitude":77.7064,"temp":22.2,"humidity":55,"rain":0.0,"pressure":982.9,"uv_index":5.8,"wind_gusts":27.4,"aqi":181,"pm10":257.0,"pm2_5":89.6,"mosquito_risk":0,"arthritis_risk":5,"migraine_risk":3,"frizz_risk":0,"updated_at":"2026-03-14T22:06:29.284123+05:30"},{"city":"Agra","state":"Uttar Pradesh","latitude":27.1767,"longitude":78.0081,"temp":21.3,"humidity":54,"rain":0.0,"pressure":989.1,"uv_index":6.35,"wind_gusts":15.5,"aqi":541,"pm10":299.0,"pm2_5":86.6,"mosquito_risk":0,"arthritis_risk":5,"migraine_risk":7,"frizz_risk":0,"updated_at":"2026-03-14T22:06:29.284130+05:30"},{"city":"Varanasi","state":"Uttar Pradesh","latitude":25.3176,"longitude":82.9739,"temp":26.0,"humidity":60,"rain":0.0,"pressure":999.2,"uv_index":6.85,"wind_gusts":27.7,"aqi":139,"pm10":124.3,"pm2_5":73.8,"mosquito_risk":4,"arthritis_risk":5,"migraine_risk":7,"frizz_risk":1,"updated_at":"2026-03-14T22:06:29.284142+05:30"},{"city":"Prayagraj","state":"Uttar Pradesh","latitude":25.4358,"longitude":81.8463,"temp":26.7,"humidity":56,"rain":0.0,"pressure":997.4,"uv_index":7.1,"wind_gusts":15.5,"aqi":151,"pm10":96.9,"pm2_5":51.3,"mosquito_risk":4,"arthritis_risk":5,"migraine_risk":7,"frizz_risk":1,"updated_at":"2026-03-14T22:06:29.284149+05:30"},{"city":"Gorakhpur","state":"Uttar Pradesh","latitude":26.7606,"longitude":83.3732,"temp":24.7,"humidity":53,"rain":0.0,"pressure":999.0,"uv_index":6.7,"wind_gusts":24.8,"aqi":137,"pm10":143.9,"pm2_5":84.1,"mosquito_risk":0,"arthritis_risk":5,"migraine_risk":7,"frizz_risk":0,"updated_at":"2026-03-14T22:06:29.284156+05:30"},{"city":"Bareilly","state":"Uttar Pradesh","latitude":28.367,"longitude":79.4304,"temp":21.8,"humidity":65,"rain":0.0,"pressure":988.3,"uv_index":6.4,"wind_gusts":19.4,"aqi":130,"pm10":111.1,"pm2_5":53.0,"mosquito_risk":3,"arthritis_risk":5,"migraine_risk":7,"frizz_risk":0,"updated_at":"2026-03-14T22:06:29.284162+05:30"},{"city":"Aligarh","state":"Uttar Pradesh","latitude":27.8974,"longitude":78.088,"temp":20.6,"humidity":53,"rain":0.0,"pressure":987.0,"uv_index":6.3,"wind_gusts":26.6,"aqi":462,"pm10":277.5,"pm2_5":95.0,"mosquito_risk":0,"arthritis_risk":5,"migraine_risk":7,"frizz_risk":0,"updated_at":"2026-03-14T22:06:29.284169+05:30"},{"city":"Moradabad","state":"Uttar Pradesh","latitude":28.8386,"longitude":78.7733,"temp":21.1,"humidity":58,"rain":0.0,"pressure":985.0,"uv_index":5.95,"wind_gusts":23.0,"aqi":141,"pm10":153.2,"pm2_5":76.8,"mosquito_risk":0,"arthritis_risk":5,"migraine_risk":3,"frizz_risk":0,"updated_at":"2026-03-14T22:06:29.284175+05:30"},{"city":"Saharanpur","state":"Uttar Pradesh","latitude":29.9637,"longitude":77.546,"temp":19.9,"humidity":53,"rain":0.0,"pressure":976.8,"uv_index":4.65,"wind_gusts":23.8,"aqi":127,"pm10":168.1,"pm2_5":79.6,"mosquito_risk":0,"arthritis_risk":5,"migraine_risk":3,"frizz_risk":0,"updated_at":"2026-03-14T22:06:29.284181+05:30"},{"city":"Jhansi","state":"Uttar Pradesh","latitude":25.4484,"longitude":78.5685,"temp":23.7,"humidity":66,"rain":0.0,"pressure":978.9,"uv_index":7.2,"wind_gusts":19.1,"aqi":151,"pm10":129.5,"pm2_5":42.6,"mosquito_risk":3,"arthritis_risk":5,"migraine_risk":7,"frizz_risk":1,"updated_at":"2026-03-14T22:06:32.529519+05:30"},{"city":"Surat","state":"Gujarat","latitude":21.1702,"longitude":72.8311,"temp":25.8,"humidity":80,"rain":0.0,"pressure":1009.0,"uv_index":7.35,"wind_gusts":23.4,"aqi":140,"pm10":71.7,"pm2_5":44.6,"mosquito_risk":7,"arthritis_risk":0,"migraine_risk":4,"frizz_risk":1,"updated_at":"2026-03-14T22:06:32.529549+05:30"},{"city":"Vadodara","state":"Gujarat","latitude":22.3072,"longitude":73.1812,"temp":27.1,"humidity":46,"rain":0.0,"pressure":1006.1,"uv_index":7.5,"wind_gusts":28.1,"aqi":97,"pm10":64.0,"pm2_5":39.8,"mosquito_risk":4,"arthritis_risk":5,"migraine_risk":4,"frizz_risk":0,"updated_at":"2026-03-14T22:06:32.529560+05:30"},{"city":"Rajkot","state":"Gujarat","latitude":22.3039,"longitude":70.8022,"temp":27.4,"humidity":56,"rain":0.0,"pressure":996.7,"uv_index":7.35,"wind_gusts":34.9,"aqi":96,"pm10":56.6,"pm2_5":23.1,"mosquito_risk":4,"arthritis_risk":5,"migraine_risk":7,"frizz_risk":1,"updated_at":"2026-03-14T22:06:32.529568+05:30"},{"city":"Thane","state":"Maharashtra","latitude":19.2183,"longitude":72.9781,"temp":26.9,"humidity":82,"rain":0.0,"pressure":1010.5,"uv_index":7.65,"wind_gusts":31.7,"aqi":112,"pm10":79.9,"pm2_5":39.6,"mosquito_risk":7,"arthritis_risk":0,"migraine_risk":4,"frizz_risk":1,"updated_at":"2026-03-14T22:06:32.529575+05:30"},{"city":"Nagpur","state":"Maharashtra","latitude":21.1458,"longitude":79.0882,"temp":26.1,"humidity":47,"rain":0.0,"pressure":973.7,"uv_index":8.1,"wind_gusts":19.8,"aqi":154,"pm10":47.7,"pm2_5":43.4,"mosquito_risk":4,"arthritis_risk":5,"migraine_risk":7,"frizz_risk":0,"updated_at":"2026-03-14T22:06:32.529583+05:30"},{"city":"Nashik","state":"Maharashtra","latitude":19.9975,"longitude":73.7898,"temp":24.1,"humidity":32,"rain":0.0,"pressure":948.1,"uv_index":7.9,"wind_gusts":39.2,"aqi":109,"pm10":31.5,"pm2_5":21.4,"mosquito_risk":0,"arthritis_risk":5,"migraine_risk":7,"frizz_risk":0,"updated_at":"2026-03-14T22:06:32.529590+05:30"},{"city":"Aurangabad","state":"Maharashtra","latitude":19.8762,"longitude":75.3433,"temp":26.9,"humidity":38,"rain":0.0,"pressure":945.9,"uv_index":8.4,"wind_gusts":32.8,"aqi":137,"pm10":31.2,"pm2_5":28.8,"mosquito_risk":4,"arthritis_risk":5,"migraine_risk":7,"frizz_risk":0,"updated_at":"2026-03-14T22:06:32.529597+05:30"},{"city":"Solapur","state":"Maharashtra","latitude":17.6599,"longitude":75.9064,"temp":28.2,"humidity":49,"rain":0.0,"pressure":958.2,"uv_index":8.6,"wind_gusts":18.7,"aqi":159,"pm10":43.0,"pm2_5":37.7,"mosquito_risk":4,"arthritis_risk":5,"migraine_risk":7,"frizz_risk":1,"updated_at":"2026-03-14T22:06:32.529604+05:30"},{"city":"Kolhapur","state":"Maharashtra","latitude":16.705,"longitude":74.2433,"temp":24.7,"humidity":83,"rain":0.0,"pressure":950.4,"uv_index":8.7,"wind_gusts":44.6,"aqi":158,"pm10":47.0,"pm2_5":44.4,"mosquito_risk":3,"arthritis_risk":5,"migraine_risk":7,"frizz_risk":1,"updated_at":"2026-03-14T22:06:32.529611+05:30"},{"city":"Goa","state":"Goa","latitude":15.2993,"longitude":74.124,"temp":28.8,"humidity":78,"rain":0.0,"pressure":1000.9,"uv_index":8.75,"wind_gusts":32.4,"aqi":135,"pm10":48.0,"pm2_5":43.4,"mosquito_risk":7,"arthritis_risk":5,"migraine_risk":4,"frizz_risk":1,"updated_at":"2026-03-14T22:06:32.529617+05:30"},{"city":"Jodhpur","state":"Rajasthan","latitude":26.2389,"longitude":73.0243,"temp":29.1,"humidity":33,"rain":0.0,"pressure":983.0,"uv_index":7.1,"wind_gusts":37.4,"aqi":91,"pm10":190.9,"pm2_5":42.8,"mosquito_risk":4,"arthritis_risk":5,"migraine_risk":7,"frizz_risk":0,"updated_at":"2026-03-14T22:06:32.529623+05:30"},{"city":"Udaipur","state":"Rajasthan","latitude":24.5854,"longitude":73.7125,"temp":25.2,"humidity":31,"rain":0.0,"pressure":947.9,"uv_index":7.85,"wind_gusts":37.1,"aqi":67,"pm10":39.3,"pm2_5":19.4,"mosquito_risk":4,"arthritis_risk":5,"migraine_risk":7,"frizz_risk":0,"updated_at":"2026-03-14T22:06:32.529630+05:30"},{"city":"Kota","state":"Rajasthan","latitude":25.2138,"longitude":75.8648,"temp":26.5,"humidity":52,"rain":0.0,"pressure":979.3,"uv_index":7.25,"wind_gusts":18.0,"aqi":76,"pm10":55.4,"pm2_5":38.6,"mosquito_risk":4,"arthritis_risk":5,"migraine_risk":7,"frizz_risk":0,"updated_at":"2026-03-14T22:06:32.529636+05:30"},{"city":"Bikaner","state":"Rajasthan","latitude":28.0229,"longitude":73.3119,"temp":26.8,"humidity":39,"rain":0.0,"pressure":982.4,"uv_index":6.7,"wind_gusts":21.6,"aqi":84,"pm10":75.9,"pm2_5":24.9,"mosquito_risk":4,"arthritis_risk":5,"migraine_risk":7,"frizz_risk":0,"updated_at":"2026-03-14T22:06:32.529642+05:30"},{"city":"Ajmer","state":"Rajasthan","latitude":26.4499,"longitude":74.6399,"temp":25.5,"humidity":43,"rain":0.0,"pressure":955.1,"uv_index":7.05,"wind_gusts":41.4,"aqi":78,"pm10":64.0,"pm2_5":29.3,"mosquito_risk":4,"arthritis_risk":5,"migraine_risk":7,"frizz_risk":0,"updated_at":"2026-03-14T22:06:32.529648+05:30"},{"city":"Gwalior","state":"Madhya Pradesh","latitude":26.2183,"longitude":78.1828,"temp":24.7,"humidity":63,"rain":0.0,"pressure":984.4,"uv_index":6.9,"wind_gusts":22.0,"aqi":260,"pm10":77.5,"pm2_5":31.8,"mosquito_risk":3,"arthritis_risk":5,"migraine_risk":7,"frizz_risk":1,"updated_at":"2026-03-14T22:06:32.529655+05:30"},{"city":"Indore","state":"Madhya Pradesh","latitude":22.7196,"longitude":75.8577,"temp":23.6,"humidity":38,"rain":0.0,"pressure":949.3,"uv_index":7.8,"wind_gusts":38.2,"aqi":122,"pm10":25.8,"pm2_5":21.7,"mosquito_risk":0,"arthritis_risk":5,"migraine_risk":7,"frizz_risk":0,"updated_at":"2026-03-14T22:06:32.529661+05:30"},{"city":"Bhopal","state":"Madhya Pradesh","latitude":23.2599,"longitude":77.4126,"temp":24.3,"humidity":37,"rain":0.0,"pressure":954.7,"uv_index":7.65,"wind_gusts":35.3,"aqi":118,"pm10":34.9,"pm2_5":32.1,"mosquito_risk":0,"arthritis_risk":5,"migraine_risk":7,"frizz_risk":0,"updated_at":"2026-03-14T22:06:32.529668+05:30"},{"city":"Jabalpur","state":"Madhya Pradesh","latitude":23.1815,"longitude":79.9864,"temp":25.9,"humidity":42,"rain":0.0,"pressure":962.1,"uv_index":7.8,"wind_gusts":27.0,"aqi":108,"pm10":22.9,"pm2_5":21.1,"mosquito_risk":4,"arthritis_risk":5,"migraine_risk":7,"frizz_risk":0,"updated_at":"2026-03-14T22:06:32.529674+05:30"},{"city":"Ujjain","state":"Madhya Pradesh","latitude":23.1765,"longitude":75.7885,"temp":23.3,"humidity":40,"rain":0.0,"pressure":954.9,"uv_index":7.7,"wind_gusts":41.8,"aqi":97,"pm10":26.3,"pm2_5":21.0,"mosquito_risk":0,"arthritis_risk":5,"migraine_risk":7,"frizz_risk":0,"updated_at":"2026-03-14T22:06:32.529681+05:30"},{"city":"Visakhapatnam","state":"Andhra Pradesh","latitude":17.6868,"longitude":83.2185,"temp":26.3,"humidity":83,"rain":0.0,"pressure":1007.8,"uv_index":8.65,"wind_gusts":41.0,"aqi":58,"pm10":16.2,"pm2_5":12.7,"mosquito_risk":7,"arthritis_risk":5,"migraine_risk":4,"frizz_risk":1,"updated_at":"2026-03-14T22:06:32.529687+05:30"},{"city":"Vijayawada","state":"Andhra Pradesh","latitude":16.5062,"longitude":80.648,"temp":25.6,"humidity":84,"rain":0.0,"pressure":1006.3,"uv_index":8.75,"wind_gusts":31.3,"aqi":58,"pm10":17.9,"pm2_5":15.7,"mosquito_risk":7,"arthritis_risk":5,"migraine_risk":4,"frizz_risk":1,"updated_at":"2026-03-14T22:06:32.529693+05:30"},{"city":"Guntur","state":"Andhra Pradesh","latitude":16.3067,"longitude":80.4365,"temp":25.5,"humidity":88,"rain":0.0,"pressure":1007.6,"uv_index":8.75,"wind_gusts":33.8,"aqi":55,"pm10":16.1,"pm2_5":13.8,"mosquito_risk":7,"arthritis_risk":5,"migraine_risk":4,"frizz_risk":1,"updated_at":"2026-03-14T22:06:32.529700+05:30"},{"city":"Nellore","state":"Andhra Pradesh","latitude":14.4426,"longitude":79.9865,"temp":25.5,"humidity":91,"rain":0.0,"pressure":1009.5,"uv_index":8.9,"wind_gusts":33.1,"aqi":57,"pm10":11.2,"pm2_5":9.0,"mosquito_risk":7,"arthritis_risk":0,"migraine_risk":4,"frizz_risk":1,"updated_at":"2026-03-14T22:06:32.529708+05:30"},{"city":"Kurnool","state":"Andhra Pradesh","latitude":15.8281,"longitude":78.0373,"temp":29.8,"humidity":39,"rain":0.0,"pressure":978.6,"uv_index":8.75,"wind_gusts":23.4,"aqi":124,"pm10":40.2,"pm2_5":33.2,"mosquito_risk":4,"arthritis_risk":5,"migraine_risk":7,"frizz_risk":0,"updated_at":"2026-03-14T22:06:32.529714+05:30"},{"city":"Kakinada","state":"Andhra Pradesh","latitude":16.9891,"longitude":82.2475,"temp":24.4,"humidity":89,"rain":0.0,"pressure":1011.7,"uv_index":8.7,"wind_gusts":34.6,"aqi":51,"pm10":12.8,"pm2_5":9.3,"mosquito_risk":3,"arthritis_risk":0,"migraine_risk":4,"frizz_risk":1,"updated_at":"2026-03-14T22:06:32.529721+05:30"},{"city":"Tirupati","state":"Andhra Pradesh","latitude":13.6288,"longitude":79.4192,"temp":26.0,"humidity":74,"rain":0.0,"pressure":995.5,"uv_index":9.0,"wind_gusts":32.4,"aqi":71,"pm10":17.3,"pm2_5":16.4,"mosquito_risk":7,"arthritis_risk":5,"migraine_risk":7,"frizz_risk":1,"updated_at":"2026-03-14T22:06:32.529727+05:30"},{"city":"Warangal","state":"Telangana","latitude":17.9689,"longitude":79.5941,"temp":26.6,"humidity":70,"rain":0.0,"pressure":980.9,"uv_index":8.5,"wind_gusts":27.7,"aqi":92,"pm10":31.7,"pm2_5":27.8,"mosquito_risk":7,"arthritis_risk":5,"migraine_risk":7,"frizz_risk":1,"updated_at":"2026-03-14T22:06:32.529734+05:30"},{"city":"Nizamabad","state":"Telangana","latitude":18.6725,"longitude":78.0941,"temp":28.3,"humidity":47,"rain":0.0,"pressure":966.3,"uv_index":8.4,"wind_gusts":28.4,"aqi":126,"pm10":78.2,"pm2_5":66.8,"mosquito_risk":4,"arthritis_risk":5,"migraine_risk":7,"frizz_risk":0,"updated_at":"2026-03-14T22:06:32.529740+05:30"},{"city":"Mysore","state":"Karnataka","latitude":12.2958,"longitude":76.6396,"temp":24.0,"humidity":67,"rain":0.0,"pressure":930.9,"uv_index":9.3,"wind_gusts":32.8,"aqi":124,"pm10":28.2,"pm2_5":25.7,"mosquito_risk":3,"arthritis_risk":5,"migraine_risk":7,"frizz_risk":1,"updated_at":"2026-03-14T22:06:32.529746+05:30"},{"city":"Mangalore","state":"Karnataka","latitude":12.9141,"longitude":74.856,"temp":28.7,"humidity":81,"rain":0.0,"pressure":1009.9,"uv_index":8.95,"wind_gusts":24.8,"aqi":98,"pm10":29.3,"pm2_5":24.1,"mosquito_risk":7,"arthritis_risk":0,"migraine_risk":4,"frizz_risk":1,"updated_at":"2026-03-14T22:06:32.529752+05:30"},{"city":"Hubli-Dharwad","state":"Karnataka","latitude":15.3647,"longitude":75.124,"temp":24.9,"humidity":83,"rain":0.0,"pressure":943.7,"uv_index":8.9,"wind_gusts":46.4,"aqi":137,"pm10":38.1,"pm2_5":36.6,"mosquito_risk":3,"arthritis_risk":5,"migraine_risk":7,"frizz_risk":1,"updated_at":"2026-03-14T22:06:32.529759+05:30"},{"city":"Belgaum","state":"Karnataka","latitude":15.8497,"longitude":74.4977,"temp":23.4,"humidity":90,"rain":0.0,"pressure":928.2,"uv_index":8.95,"wind_gusts":44.3,"aqi":157,"pm10":52.9,"pm2_5":50.9,"mosquito_risk":3,"arthritis_risk":5,"migraine_risk":7,"frizz_risk":1,"updated_at":"2026-03-14T22:06:35.774080+05:30"},{"city":"Coimbatore","state":"Tamil Nadu","latitude":11.0168,"longitude":76.9558,"temp":24.4,"humidity":85,"rain":0.0,"pressure":965.0,"uv_index":9.3,"wind_gusts":37.1,"aqi":83,"pm10":30.9,"pm2_5":28.3,"mosquito_risk":3,"arthritis_risk":5,"migraine_risk":7,"frizz_risk":1,"updated_at":"2026-03-14T22:06:35.774109+05:30"},{"city":"Madurai","state":"Tamil Nadu","latitude":9.9252,"longitude":78.1198,"temp":27.3,"humidity":63,"rain":0.0,"pressure":996.7,"uv_index":9.25,"wind_gusts":25.9,"aqi":58,"pm10":10.6,"pm2_5":9.8,"mosquito_risk":7,"arthritis_risk":5,"migraine_risk":7,"frizz_risk":1,"updated_at":"2026-03-14T22:06:35.774119+05:30"},{"city":"Trichy","state":"Tamil Nadu","latitude":10.7905,"longitude":78.7047,"temp":26.8,"humidity":73,"rain":0.0,"pressure":1003.4,"uv_index":9.2,"wind_gusts":25.9,"aqi":64,"pm10":17.9,"pm2_5":16.6,"mosquito_risk":7,"arthritis_risk":5,"migraine_risk":4,"frizz_risk":1,"updated_at":"2026-03-14T22:06:35.774126+05:30"},{"city":"Salem","state":"Tamil Nadu","latitude":11.6643,"longitude":78.146,"temp":26.5,"humidity":56,"rain":0.0,"pressure":980.1,"uv_index":9.2,"wind_gusts":23.8,"aqi":87,"pm10":22.9,"pm2_5":21.4,"mosquito_risk":4,"arthritis_risk":5,"migraine_risk":7,"frizz_risk":1,"updated_at":"2026-03-14T22:06:35.774134+05:30"},{"city":"Tirunelveli","state":"Tamil Nadu","latitude":8.7139,"longitude":77.7567,"temp":26.6,"humidity":80,"rain":0.0,"pressure":1006.8,"uv_index":9.25,"wind_gusts":37.1,"aqi":51,"pm10":10.9,"pm2_5":10.4,"mosquito_risk":7,"arthritis_risk":5,"migraine_risk":4,"frizz_risk":1,"updated_at":"2026-03-14T22:06:35.774140+05:30"},{"city":"Vellore","state":"Tamil Nadu","latitude":12.9165,"longitude":79.1325,"temp":25.3,"humidity":71,"rain":0.0,"pressure":988.4,"uv_index":9.1,"wind_gusts":32.8,"aqi":95,"pm10":29.8,"pm2_5":28.5,"mosquito_risk":7,"arthritis_risk":5,"migraine_risk":7,"frizz_risk":1,"updated_at":"2026-03-14T22:06:35.774147+05:30"},{"city":"Erode","state":"Tamil Nadu","latitude":11.341,"longitude":77.7172,"temp":28.1,"humidity":47,"rain":0.0,"pressure":991.9,"uv_index":9.2,"wind_gusts":24.8,"aqi":58,"pm10":14.4,"pm2_5":13.2,"mosquito_risk":4,"arthritis_risk":5,"migraine_risk":7,"frizz_risk":0,"updated_at":"2026-03-14T22:06:35.774154+05:30"},{"city":"Kochi","state":"Kerala","latitude":9.9312,"longitude":76.2673,"temp":28.4,"humidity":81,"rain":0.0,"pressure":1012.0,"uv_index":9.1,"wind_gusts":31.3,"aqi":85,"pm10":37.8,"pm2_5":35.5,"mosquito_risk":7,"arthritis_risk":0,"migraine_risk":4,"frizz_risk":1,"updated_at":"2026-03-14T22:06:35.774162+05:30"},{"city":"Thiruvananthapuram","state":"Kerala","latitude":8.5241,"longitude":76.9366,"temp":28.2,"humidity":78,"rain":0.0,"pressure":1011.0,"uv_index":9.1,"wind_gusts":26.3,"aqi":65,"pm10":11.7,"pm2_5":8.5,"mosquito_risk":7,"arthritis_risk":0,"migraine_risk":4,"frizz_risk":1,"updated_at":"2026-03-14T22:06:35.774168+05:30"},{"city":"Kozhikode","state":"Kerala","latitude":11.2588,"longitude":75.7804,"temp":27.8,"humidity":84,"rain":0.0,"pressure":1011.5,"uv_index":9.0,"wind_gusts":24.8,"aqi":71,"pm10":23.4,"pm2_5":19.9,"mosquito_risk":7,"arthritis_risk":0,"migraine_risk":4,"frizz_risk":1,"updated_at":"2026-03-14T22:06:35.774175+05:30"},{"city":"Thrissur","state":"Kerala","latitude":10.5276,"longitude":76.2144,"temp":27.5,"humidity":85,"rain":0.0,"pressure":1010.4,"uv_index":9.05,"wind_gusts":36.0,"aqi":90,"pm10":21.9,"pm2_5":20.4,"mosquito_risk":7,"arthritis_risk":0,"migraine_risk":4,"frizz_risk":1,"updated_at":"2026-03-14T22:06:35.774182+05:30"},{"city":"Kannur","state":"Kerala","latitude":11.8745,"longitude":75.3704,"temp":28.0,"humidity":81,"rain":0.0,"pressure":1010.6,"uv_index":8.95,"wind_gusts":29.2,"aqi":91,"pm10":28.6,"pm2_5":25.3,"mosquito_risk":7,"arthritis_risk":0,"migraine_risk":4,"frizz_risk":1,"updated_at":"2026-03-14T22:06:35.774188+05:30"},{"city":"Patna","state":"Bihar","latitude":25.5941,"longitude":85.1376,"temp":27.2,"humidity":62,"rain":0.0,"pressure":1002.2,"uv_index":7.5,"wind_gusts":20.2,"aqi":138,"pm10":131.8,"pm2_5":84.1,"mosquito_risk":7,"arthritis_risk":5,"migraine_risk":4,"frizz_risk":1,"updated_at":"2026-03-14T22:06:35.774212+05:30"},{"city":"Gaya","state":"Bihar","latitude":24.7914,"longitude":85.0002,"temp":27.1,"humidity":52,"rain":0.0,"pressure":995.6,"uv_index":7.55,"wind_gusts":21.2,"aqi":122,"pm10":109.2,"pm2_5":61.5,"mosquito_risk":4,"arthritis_risk":5,"migraine_risk":7,"frizz_risk":1,"updated_at":"2026-03-14T22:06:35.774220+05:30"},{"city":"Muzaffarpur","state":"Bihar","latitude":26.1209,"longitude":85.3647,"temp":25.9,"humidity":56,"rain":0.0,"pressure":1002.2,"uv_index":7.45,"wind_gusts":24.5,"aqi":159,"pm10":141.6,"pm2_5":87.3,"mosquito_risk":4,"arthritis_risk":5,"migraine_risk":4,"frizz_risk":1,"updated_at":"2026-03-14T22:06:35.774226+05:30"},{"city":"Bhagalpur","state":"Bihar","latitude":25.2425,"longitude":87.0117,"temp":26.0,"humidity":63,"rain":0.0,"pressure":1003.2,"uv_index":7.5,"wind_gusts":20.5,"aqi":155,"pm10":149.5,"pm2_5":78.9,"mosquito_risk":7,"arthritis_risk":5,"migraine_risk":4,"frizz_risk":1,"updated_at":"2026-03-14T22:06:35.774233+05:30"},{"city":"Ranchi","state":"Jharkhand","latitude":23.3441,"longitude":85.3096,"temp":24.3,"humidity":35,"rain":0.0,"pressure":939.9,"uv_index":8.2,"wind_gusts":24.5,"aqi":101,"pm10":32.9,"pm2_5":22.9,"mosquito_risk":0,"arthritis_risk":5,"migraine_risk":7,"frizz_risk":0,"updated_at":"2026-03-14T22:06:35.774239+05:30"},{"city":"Jamshedpur","state":"Jharkhand","latitude":22.8046,"longitude":86.2029,"temp":27.2,"humidity":79,"rain":0.0,"pressure":993.0,"uv_index":8.1,"wind_gusts":31.0,"aqi":153,"pm10":51.5,"pm2_5":44.6,"mosquito_risk":7,"arthritis_risk":5,"migraine_risk":7,"frizz_risk":1,"updated_at":"2026-03-14T22:06:35.774246+05:30"},{"city":"Dhanbad","state":"Jharkhand","latitude":23.7957,"longitude":86.4304,"temp":27.9,"humidity":57,"rain":0.0,"pressure":982.1,"uv_index":7.95,"wind_gusts":19.8,"aqi":158,"pm10":99.7,"pm2_5":79.6,"mosquito_risk":4,"arthritis_risk":5,"migraine_risk":7,"frizz_risk":1,"updated_at":"2026-03-14T22:06:35.774253+05:30"},{"city":"Bokaro","state":"Jharkhand","latitude":23.6693,"longitude":86.1511,"temp":26.8,"humidity":47,"rain":0.0,"pressure":986.2,"uv_index":8.0,"wind_gusts":20.2,"aqi":152,"pm10":81.5,"pm2_5":61.5,"mosquito_risk":4,"arthritis_risk":5,"migraine_risk":7,"frizz_risk":0,"updated_at":"2026-03-14T22:06:35.774259+05:30"},{"city":"Bhubaneswar","state":"Odisha","latitude":20.2961,"longitude":85.8245,"temp":25.5,"humidity":86,"rain":0.0,"pressure":1006.1,"uv_index":8.4,"wind_gusts":38.9,"aqi":60,"pm10":13.6,"pm2_5":10.8,"mosquito_risk":7,"arthritis_risk":5,"migraine_risk":4,"frizz_risk":1,"updated_at":"2026-03-14T22:06:35.774266+05:30"},{"city":"Cuttack","state":"Odisha","latitude":20.4625,"longitude":85.8828,"temp":25.6,"humidity":85,"rain":0.0,"pressure":1007.9,"uv_index":8.45,"wind_gusts":34.2,"aqi":60,"pm10":13.6,"pm2_5":10.8,"mosquito_risk":7,"arthritis_risk":5,"migraine_risk":4,"frizz_risk":1,"updated_at":"2026-03-14T22:06:35.774273+05:30"},{"city":"Rourkela","state":"Odisha","latitude":22.2604,"longitude":84.8536,"temp":29.3,"humidity":53,"rain":0.0,"pressure":986.1,"uv_index":8.05,"wind_gusts":21.2,"aqi":164,"pm10":44.1,"pm2_5":41.3,"mosquito_risk":4,"arthritis_risk":5,"migraine_risk":7,"frizz_risk":1,"updated_at":"2026-03-14T22:06:35.774279+05:30"},{"city":"Raipur","state":"Chhattisgarh","latitude":21.2514,"longitude":81.6296,"temp":28.5,"humidity":43,"rain":0.0,"pressure":975.6,"uv_index":8.15,"wind_gusts":30.6,"aqi":134,"pm10":81.3,"pm2_5":76.6,"mosquito_risk":4,"arthritis_risk":5,"migraine_risk":7,"frizz_risk":0,"updated_at":"2026-03-14T22:06:35.774285+05:30"},{"city":"Bhilai","state":"Chhattisgarh","latitude":21.1938,"longitude":81.3509,"temp":28.1,"humidity":45,"rain":0.0,"pressure":975.8,"uv_index":8.15,"wind_gusts":27.7,"aqi":129,"pm10":78.2,"pm2_5":73.3,"mosquito_risk":4,"arthritis_risk":5,"migraine_risk":7,"frizz_risk":0,"updated_at":"2026-03-14T22:06:35.774291+05:30"},{"city":"Guwahati","state":"Assam","latitude":26.1158,"longitude":91.7086,"temp":22.2,"humidity":89,"rain":0.0,"pressure":1005.2,"uv_index":7.35,"wind_gusts":32.0,"aqi":66,"pm10":22.5,"pm2_5":19.2,"mosquito_risk":3,"arthritis_risk":5,"migraine_risk":4,"frizz_risk":1,"updated_at":"2026-03-14T22:06:35.774298+05:30"},{"city":"Agartala","state":"Tripura","latitude":23.8315,"longitude":91.2868,"temp":22.5,"humidity":88,"rain":0.0,"pressure":1010.7,"uv_index":7.8,"wind_gusts":39.2,"aqi":78,"pm10":17.2,"pm2_5":13.9,"mosquito_risk":3,"arthritis_risk":0,"migraine_risk":4,"frizz_risk":1,"updated_at":"2026-03-14T22:06:35.774304+05:30"},{"city":"Shillong","state":"Meghalaya","latitude":25.5788,"longitude":91.8933,"temp":13.5,"humidity":88,"rain":0.0,"pressure":857.7,"uv_index":7.85,"wind_gusts":73.8,"aqi":52,"pm10":18.2,"pm2_5":15.9,"mosquito_risk":3,"arthritis_risk":10,"migraine_risk":7,"frizz_risk":0,"updated_at":"2026-03-14T22:06:35.774311+05:30"},{"city":"Imphal","state":"Manipur","latitude":24.817,"longitude":93.9368,"temp":16.3,"humidity":87,"rain":0.0,"pressure":927.4,"uv_index":7.1,"wind_gusts":82.8,"aqi":135,"pm10":60.5,"pm2_5":52.6,"mosquito_risk":3,"arthritis_risk":10,"migraine_risk":7,"frizz_risk":0,"updated_at":"2026-03-14T22:06:35.774319+05:30"},{"city":"Aizawl","state":"Mizoram","latitude":23.7271,"longitude":92.7176,"temp":17.1,"humidity":87,"rain":0.0,"pressure":896.4,"uv_index":8.0,"wind_gusts":63.4,"aqi":106,"pm10":32.8,"pm2_5":25.4,"mosquito_risk":3,"arthritis_risk":10,"migraine_risk":7,"frizz_risk":0,"updated_at":"2026-03-14T22:06:35.774326+05:30"},{"city":"Kohima","state":"Nagaland","latitude":25.6701,"longitude":94.1077,"temp":14.5,"humidity":77,"rain":0.0,"pressure":856.9,"uv_index":6.9,"wind_gusts":100.8,"aqi":98,"pm10":32.9,"pm2_5":26.5,"mosquito_risk":3,"arthritis_risk":5,"migraine_risk":7,"frizz_risk":0,"updated_at":"2026-03-14T22:06:35.774332+05:30"},{"city":"Gangtok","state":"Sikkim","latitude":27.3314,"longitude":88.6138,"temp":13.3,"humidity":85,"rain":0.0,"pressure":837.7,"uv_index":7.55,"wind_gusts":20.2,"aqi":74,"pm10":23.9,"pm2_5":17.2,"mosquito_risk":3,"arthritis_risk":10,"migraine_risk":7,"frizz_risk":0,"updated_at":"2026-03-14T22:06:35.774339+05:30"},{"city":"Siliguri","state":"West Bengal","latitude":26.7271,"longitude":88.3953,"temp":21.0,"humidity":71,"rain":0.0,"pressure":996.3,"uv_index":7.4,"wind_gusts":31.7,"aqi":139,"pm10":68.0,"pm2_5":52.6,"mosquito_risk":3,"arthritis_risk":5,"migraine_risk":7,"frizz_risk":0,"updated_at":"2026-03-14T22:06:39.021030+05:30"},{"city":"Durgapur","state":"West Bengal","latitude":23.5204,"longitude":87.3119,"temp":26.3,"humidity":79,"rain":0.0,"pressure":997.6,"uv_index":7.95,"wind_gusts":27.0,"aqi":154,"pm10":46.6,"pm2_5":42.6,"mosquito_risk":7,"arthritis_risk":5,"migraine_risk":7,"frizz_risk":1,"updated_at":"2026-03-14T22:06:39.021058+05:30"},{"city":"Asansol","state":"West Bengal","latitude":23.6739,"longitude":86.9524,"temp":27.3,"humidity":75,"rain":0.0,"pressure":996.0,"uv_index":7.95,"wind_gusts":21.2,"aqi":150,"pm10":68.5,"pm2_5":55.3,"mosquito_risk":7,"arthritis_risk":5,"migraine_risk":7,"frizz_risk":1,"updated_at":"2026-03-14T22:06:39.021068+05:30"},{"city":"Pondicherry","state":"Puducherry","latitude":11.9139,"longitude":79.8145,"temp":25.9,"humidity":91,"rain":0.0,"pressure":1012.4,"uv_index":9.05,"wind_gusts":29.9,"aqi":49,"pm10":13.0,"pm2_5":9.9,"mosquito_risk":7,"arthritis_risk":0,"migraine_risk":4,"frizz_risk":1,"updated_at":"2026-03-14T22:06:39.021075+05:30"},{"city":"Port Blair","state":"Andaman and Nicobar Islands","latitude":11.6234,"longitude":92.7265,"temp":27.4,"humidity":84,"rain":0.0,"pressure":1011.4,"uv_index":8.95,"wind_gusts":22.3,"aqi":70,"pm10":13.1,"pm2_5":9.8,"mosquito_risk":7,"arthritis_risk":0,"migraine_risk":4,"frizz_risk":1,"updated_at":"2026-03-14T22:06:39.021083+05:30"},{"city":"Haridwar","state":"Uttarakhand","latitude":29.9457,"longitude":78.1642,"temp":21.4,"humidity":66,"rain":0.0,"pressure":975.8,"uv_index":5.0,"wind_gusts":21.2,"aqi":100,"pm10":61.5,"pm2_5":45.2,"mosquito_risk":3,"arthritis_risk":5,"migraine_risk":3,"frizz_risk":0,"updated_at":"2026-03-14T22:06:39.021091+05:30"},{"city":"Rishikesh","state":"Uttarakhand","latitude":30.0869,"longitude":78.2676,"temp":19.9,"humidity":70,"rain":0.0,"pressure":968.4,"uv_index":4.55,"wind_gusts":20.9,"aqi":91,"pm10":31.1,"pm2_5":20.9,"mosquito_risk":3,"arthritis_risk":5,"migraine_risk":3,"frizz_risk":0,"updated_at":"2026-03-14T22:06:39.021098+05:30"},{"city":"Nainital","state":"Uttarakhand","latitude":29.3919,"longitude":79.4542,"temp":16.4,"humidity":61,"rain":0.0,"pressure":806.3,"uv_index":6.15,"wind_gusts":34.9,"aqi":108,"pm10":48.9,"pm2_5":40.2,"mosquito_risk":3,"arthritis_risk":5,"migraine_risk":7,"frizz_risk":0,"updated_at":"2026-03-14T22:06:39.021105+05:30"},{"city":"Mussoorie","state":"Uttarakhand","latitude":30.4599,"longitude":78.0664,"temp":14.4,"humidity":64,"rain":0.0,"pressure":802.4,"uv_index":4.9,"wind_gusts":25.2,"aqi":85,"pm10":49.1,"pm2_5":36.0,"mosquito_risk":3,"arthritis_risk":5,"migraine_risk":3,"frizz_risk":0,"updated_at":"2026-03-14T22:06:39.021112+05:30"},{"city":"Dharamshala","state":"Himachal Pradesh","latitude":32.219,"longitude":76.3234,"temp":19.8,"humidity":22,"rain":0.0,"pressure":869.2,"uv_index":5.45,"wind_gusts":18.0,"aqi":59,"pm10":36.8,"pm2_5":19.6,"mosquito_risk":0,"arthritis_risk":5,"migraine_risk":3,"frizz_risk":1,"updated_at":"2026-03-14T22:06:39.021120+05:30"},{"city":"Dalhousie","state":"Himachal Pradesh","latitude":32.5387,"longitude":75.971,"temp":15.1,"humidity":39,"rain":0.0,"pressure":802.8,"uv_index":6.05,"wind_gusts":18.7,"aqi":67,"pm10":52.0,"pm2_5":36.3,"mosquito_risk":0,"arthritis_risk":5,"migraine_risk":7,"frizz_risk":0,"updated_at":"2026-03-14T22:06:39.021128+05:30"},{"city":"Patiala","state":"Punjab","latitude":30.3398,"longitude":76.3869,"temp":20.5,"humidity":54,"rain":0.0,"pressure":979.2,"uv_index":5.45,"wind_gusts":27.0,"aqi":166,"pm10":169.5,"pm2_5":75.4,"mosquito_risk":0,"arthritis_risk":5,"migraine_risk":3,"frizz_risk":0,"updated_at":"2026-03-14T22:06:39.021135+05:30"},{"city":"Bhatinda","state":"Punjab","latitude":30.211,"longitude":74.9455,"temp":21.1,"humidity":64,"rain":0.0,"pressure":984.6,"uv_index":6.15,"wind_gusts":22.0,"aqi":94,"pm10":50.1,"pm2_5":46.6,"mosquito_risk":3,"arthritis_risk":5,"migraine_risk":7,"frizz_risk":0,"updated_at":"2026-03-14T22:06:39.021141+05:30"},{"city":"Rohtak","state":"Haryana","latitude":28.8955,"longitude":76.6066,"temp":21.5,"humidity":62,"rain":0.0,"pressure":982.9,"uv_index":5.9,"wind_gusts":22.0,"aqi":262,"pm10":190.5,"pm2_5":69.6,"mosquito_risk":3,"arthritis_risk":5,"migraine_risk":3,"frizz_risk":0,"updated_at":"2026-03-14T22:06:39.021148+05:30"},{"city":"Panipat","state":"Haryana","latitude":29.3909,"longitude":76.9635,"temp":22.2,"humidity":59,"rain":0.0,"pressure":981.7,"uv_index":5.6,"wind_gusts":23.0,"aqi":644,"pm10":347.4,"pm2_5":95.5,"mosquito_risk":0,"arthritis_risk":5,"migraine_risk":3,"frizz_risk":0,"updated_at":"2026-03-14T22:06:39.021155+05:30"},{"city":"Mathura","state":"Uttar Pradesh","latitude":27.4924,"longitude":77.6737,"temp":23.4,"humidity":46,"rain":0.0,"pressure":988.3,"uv_index":5.95,"wind_gusts":29.2,"aqi":451,"pm10":167.2,"pm2_5":67.8,"mosquito_risk":0,"arthritis_risk":5,"migraine_risk":3,"frizz_risk":0,"updated_at":"2026-03-14T22:06:39.021161+05:30"},{"city":"Vrindavan","state":"Uttar Pradesh","latitude":27.5823,"longitude":77.7027,"temp":21.5,"humidity":53,"rain":0.0,"pressure":988.7,"uv_index":5.9,"wind_gusts":35.3,"aqi":451,"pm10":167.2,"pm2_5":67.8,"mosquito_risk":0,"arthritis_risk":5,"migraine_risk":3,"frizz_risk":0,"updated_at":"2026-03-14T22:06:39.021167+05:30"},{"city":"Ayodhya","state":"Uttar Pradesh","latitude":26.7922,"longitude":82.1998,"temp":23.7,"humidity":63,"rain":0.0,"pressure":997.0,"uv_index":6.85,"wind_gusts":21.6,"aqi":153,"pm10":79.2,"pm2_5":53.1,"mosquito_risk":3,"arthritis_risk":5,"migraine_risk":7,"frizz_risk":1,"updated_at":"2026-03-14T22:06:39.021173+05:30"},{"city":"Ratlam","state":"Madhya Pradesh","latitude":23.3315,"longitude":75.0367,"temp":26.6,"humidity":38,"rain":0.0,"pressure":955.8,"uv_index":7.65,"wind_gusts":39.6,"aqi":102,"pm10":26.0,"pm2_5":18.6,"mosquito_risk":4,"arthritis_risk":5,"migraine_risk":7,"frizz_risk":0,"updated_at":"2026-03-14T22:06:39.021180+05:30"},{"city":"Sagar","state":"Madhya Pradesh","latitude":23.8388,"longitude":78.7378,"temp":27.5,"humidity":39,"rain":0.0,"pressure":950.9,"uv_index":7.6,"wind_gusts":34.2,"aqi":119,"pm10":19.5,"pm2_5":17.5,"mosquito_risk":4,"arthritis_risk":5,"migraine_risk":7,"frizz_risk":0,"updated_at":"2026-03-14T22:06:39.021186+05:30"},{"city":"Satna","state":"Madhya Pradesh","latitude":24.6005,"longitude":80.8322,"temp":25.9,"humidity":54,"rain":0.0,"pressure":972.3,"uv_index":7.6,"wind_gusts":26.3,"aqi":100,"pm10":76.1,"pm2_5":29.5,"mosquito_risk":4,"arthritis_risk":5,"migraine_risk":7,"frizz_risk":0,"updated_at":"2026-03-14T22:06:39.021193+05:30"},{"city":"Akola","state":"Maharashtra","latitude":20.7002,"longitude":77.0082,"temp":27.8,"humidity":38,"rain":0.0,"pressure":976.1,"uv_index":8.1,"wind_gusts":17.3,"aqi":138,"pm10":33.9,"pm2_5":30.9,"mosquito_risk":4,"arthritis_risk":5,"migraine_risk":7,"frizz_risk":0,"updated_at":"2026-03-14T22:06:39.021223+05:30"},{"city":"Amravati","state":"Maharashtra","latitude":20.9374,"longitude":77.7796,"temp":26.2,"humidity":41,"rain":0.0,"pressure":967.8,"uv_index":8.05,"wind_gusts":22.3,"aqi":138,"pm10":37.1,"pm2_5":34.5,"mosquito_risk":4,"arthritis_risk":5,"migraine_risk":7,"frizz_risk":0,"updated_at":"2026-03-14T22:06:39.021232+05:30"},{"city":"Latur","state":"Maharashtra","latitude":18.4088,"longitude":76.5604,"temp":25.7,"humidity":53,"rain":0.0,"pressure":941.2,"uv_index":8.5,"wind_gusts":26.6,"aqi":143,"pm10":56.6,"pm2_5":49.4,"mosquito_risk":4,"arthritis_risk":5,"migraine_risk":7,"frizz_risk":0,"updated_at":"2026-03-14T22:06:39.021239+05:30"},{"city":"Nanded","state":"Maharashtra","latitude":19.1383,"longitude":77.3091,"temp":28.8,"humidity":44,"rain":0.0,"pressure":969.7,"uv_index":8.3,"wind_gusts":31.0,"aqi":157,"pm10":74.0,"pm2_5":65.0,"mosquito_risk":4,"arthritis_risk":5,"migraine_risk":7,"frizz_risk":0,"updated_at":"2026-03-14T22:06:39.021245+05:30"},{"city":"Gulbarga","state":"Karnataka","latitude":17.3297,"longitude":76.8343,"temp":29.7,"humidity":37,"rain":0.0,"pressure":960.3,"uv_index":8.6,"wind_gusts":38.9,"aqi":155,"pm10":50.2,"pm2_5":41.9,"mosquito_risk":4,"arthritis_risk":5,"migraine_risk":7,"frizz_risk":0,"updated_at":"2026-03-14T22:06:39.021251+05:30"},{"city":"Bidar","state":"Karnataka","latitude":17.9104,"longitude":77.5199,"temp":27.5,"humidity":47,"rain":0.0,"pressure":937.1,"uv_index":8.55,"wind_gusts":37.1,"aqi":125,"pm10":70.5,"pm2_5":57.7,"mosquito_risk":4,"arthritis_risk":5,"migraine_risk":7,"frizz_risk":0,"updated_at":"2026-03-14T22:06:39.021257+05:30"},{"city":"Hospet","state":"Karnataka","latitude":15.2689,"longitude":76.3909,"temp":30.3,"humidity":52,"rain":0.0,"pressure":957.9,"uv_index":8.85,"wind_gusts":29.5,"aqi":170,"pm10":52.3,"pm2_5":44.7,"mosquito_risk":0,"arthritis_risk":5,"migraine_risk":7,"frizz_risk":1,"updated_at":"2026-03-14T22:06:39.021263+05:30"},{"city":"Tirupur","state":"Tamil Nadu","latitude":11.1085,"longitude":77.3411,"temp":27.7,"humidity":46,"rain":0.0,"pressure":978.4,"uv_index":9.3,"wind_gusts":30.2,"aqi":67,"pm10":22.0,"pm2_5":20.3,"mosquito_risk":4,"arthritis_risk":5,"migraine_risk":7,"frizz_risk":0,"updated_at":"2026-03-14T22:06:39.021269+05:30"},{"city":"Alappuzha","state":"Kerala","latitude":9.4981,"longitude":76.3388,"temp":28.2,"humidity":79,"rain":0.0,"pressure":1012.0,"uv_index":9.1,"wind_gusts":28.4,"aqi":81,"pm10":28.0,"pm2_5":24.9,"mosquito_risk":7,"arthritis_risk":0,"migraine_risk":4,"frizz_risk":1,"updated_at":"2026-03-14T22:06:39.021275+05:30"},{"city":"Munnar","state":"Kerala","latitude":10.0889,"longitude":77.0595,"temp":21.2,"humidity":89,"rain":0.0,"pressure":859.4,"uv_index":9.55,"wind_gusts":28.8,"aqi":57,"pm10":27.3,"pm2_5":26.3,"mosquito_risk":3,"arthritis_risk":5,"migraine_risk":7,"frizz_risk":1,"updated_at":"2026-03-14T22:06:39.021282+05:30"},{"city":"Silchar","state":"Assam","latitude":24.8333,"longitude":92.7789,"temp":21.4,"humidity":90,"rain":0.0,"pressure":1011.0,"uv_index":7.75,"wind_gusts":36.4,"aqi":97,"pm10":36.3,"pm2_5":29.7,"mosquito_risk":3,"arthritis_risk":0,"migraine_risk":4,"frizz_risk":1,"updated_at":"2026-03-14T22:06:39.021289+05:30"},{"city":"Dibrugarh","state":"Assam","latitude":27.4728,"longitude":94.912,"temp":19.8,"humidity":90,"rain":0.0,"pressure":1000.6,"uv_index":4.45,"wind_gusts":22.0,"aqi":85,"pm10":29.3,"pm2_5":25.6,"mosquito_risk":3,"arthritis_risk":10,"migraine_risk":0,"frizz_risk":1,"updated_at":"2026-03-14T22:06:39.021295+05:30"}]