[{"city":"Delhi","state":"Delhi","latitude":28.6139,"longitude":77.209,"temp":25.2,"humidity":61,"rain":0.0,"pressure":981.7,"uv_index":5.05,"wind_gusts":39.2,"aqi":319,"pm10":523.4,"pm2_5":74.7,"mosquito_risk":7,"arthritis_risk":5,"migraine_risk":3,"frizz_risk":1,"updated_at":"2026-04-07T17:28:58.019949+05:30"},{"city":"Mumbai","state":"Maharashtra","latitude":19.076,"longitude":72.8777,"temp":28.2,"humidity":73,"rain":0.0,"pressure":1008.9,"uv_index":7.95,"wind_gusts":20.9,"aqi":116,"pm10":55.8,"pm2_5":21.7,"mosquito_risk":7,"arthritis_risk":0,"migraine_risk":4,"frizz_risk":1,"updated_at":"2026-04-07T17:28:58.019997+05:30"},{"city":"Bangalore","state":"Karnataka","latitude":12.9716,"longitude":77.5946,"temp":33.5,"humidity":21,"rain":0.0,"pressure":911.0,"uv_index":9.65,"wind_gusts":28.8,"aqi":82,"pm10":10.1,"pm2_5":6.8,"mosquito_risk":0,"arthritis_risk":5,"migraine_risk":7,"frizz_risk":0,"updated_at":"2026-04-07T17:28:58.020012+05:30"},{"city":"Hyderabad","state":"Telangana","latitude":17.385,"longitude":78.4867,"temp":36.4,"humidity":17,"rain":0.0,"pressure":951.0,"uv_index":9.15,"wind_gusts":30.6,"aqi":137,"pm10":22.6,"pm2_5":16.5,"mosquito_risk":0,"arthritis_risk":5,"migraine_risk":10,"frizz_risk":0,"updated_at":"2026-04-07T17:28:58.020023+05:30"},{"city":"Chennai","state":"Tamil Nadu","latitude":13.0827,"longitude":80.2707,"temp":31.7,"humidity":73,"rain":0.0,"pressure":1004.9,"uv_index":9.35,"wind_gusts":38.5,"aqi":136,"pm10":40.9,"pm2_5":34.0,"mosquito_risk":3,"arthritis_risk":5,"migraine_risk":4,"frizz_risk":1,"updated_at":"2026-04-07T17:28:58.020032+05:30"},{"city":"Kolkata","state":"West Bengal","latitude":22.5726,"longitude":88.3639,"temp":28.5,"humidity":66,"rain":0.0,"pressure":1005.5,"uv_index":8.65,"wind_gusts":20.9,"aqi":140,"pm10":29.2,"pm2_5":26.0,"mosquito_risk":7,"arthritis_risk":5,"migraine_risk":4,"frizz_risk":1,"updated_at":"2026-04-07T17:28:58.020041+05:30"},{"city":"Pune","state":"Maharashtra","latitude":18.5204,"longitude":73.8567,"temp":32.0,"humidity":37,"rain":0.0,"pressure":948.5,"uv_index":8.55,"wind_gusts":41.0,"aqi":95,"pm10":82.9,"pm2_5":26.5,"mosquito_risk":0,"arthritis_risk":5,"migraine_risk":7,"frizz_risk":0,"updated_at":"2026-04-07T17:28:58.020053+05:30"},{"city":"Ahmedabad","state":"Gujarat","latitude":23.0225,"longitude":72.5714,"temp":29.9,"humidity":59,"rain":0.0,"pressure":1000.5,"uv_index":7.95,"wind_gusts":43.9,"aqi":56,"pm10":88.7,"pm2_5":27.5,"mosquito_risk":4,"arthritis_risk":5,"migraine_risk":4,"frizz_risk":1,"updated_at":"2026-04-07T17:28:58.020061+05:30"},{"city":"Jaipur","state":"Rajasthan","latitude":26.9124,"longitude":75.7873,"temp":25.1,"humidity":57,"rain":0.0,"pressure":957.4,"uv_index":5.7,"wind_gusts":42.8,"aqi":144,"pm10":444.2,"pm2_5":58.7,"mosquito_risk":4,"arthritis_risk":5,"migraine_risk":3,"frizz_risk":0,"updated_at":"2026-04-07T17:28:58.020069+05:30"},{"city":"Lucknow","state":"Uttar Pradesh","latitude":26.8467,"longitude":80.9462,"temp":30.0,"humidity":36,"rain":0.0,"pressure":992.1,"uv_index":7.45,"wind_gusts":43.9,"aqi":121,"pm10":74.5,"pm2_5":16.8,"mosquito_risk":4,"arthritis_risk":5,"migraine_risk":7,"frizz_risk":0,"updated_at":"2026-04-07T17:28:58.020076+05:30"},{"city":"Kanpur","state":"Uttar Pradesh","latitude":26.4499,"longitude":80.3319,"temp":29.8,"humidity":40,"rain":0.0,"pressure":990.6,"uv_index":7.45,"wind_gusts":55.1,"aqi":140,"pm10":113.2,"pm2_5":22.9,"mosquito_risk":4,"arthritis_risk":5,"migraine_risk":7,"frizz_risk":0,"updated_at":"2026-04-07T17:28:58.020083+05:30"},{"city":"Chandigarh","state":"Chandigarh","latitude":30.7333,"longitude":76.7794,"temp":21.1,"humidity":83,"rain":0.1,"pressure":967.9,"uv_index":4.55,"wind_gusts":48.6,"aqi":100,"pm10":90.1,"pm2_5":22.9,"mosquito_risk":6,"arthritis_risk":5,"migraine_risk":3,"frizz_risk":1,"updated_at":"2026-04-07T17:28:58.020091+05:30"},{"city":"Srinagar","state":"Jammu and Kashmir","latitude":34.0837,"longitude":74.7973,"temp":14.7,"humidity":51,"rain":0.0,"pressure":835.4,"uv_index":7.1,"wind_gusts":36.4,"aqi":76,"pm10":11.0,"pm2_5":7.9,"mosquito_risk":0,"arthritis_risk":5,"migraine_risk":7,"frizz_risk":0,"updated_at":"2026-04-07T17:28:58.020099+05:30"},{"city":"Jammu","state":"Jammu and Kashmir","latitude":32.7266,"longitude":74.857,"temp":19.7,"humidity":84,"rain":0.0,"pressure":971.1,"uv_index":5.5,"wind_gusts":41.8,"aqi":65,"pm10":59.6,"pm2_5":19.3,"mosquito_risk":3,"arthritis_risk":10,"migraine_risk":3,"frizz_risk":1,"updated_at":"2026-04-07T17:28:58.020106+05:30"},{"city":"Amritsar","state":"Punjab","latitude":31.634,"longitude":74.8723,"temp":20.0,"humidity":82,"rain":0.1,"pressure":978.7,"uv_index":3.0,"wind_gusts":46.4,"aqi":88,"pm10":380.9,"pm2_5":71.5,"mosquito_risk":6,"arthritis_risk":5,"migraine_risk":3,"frizz_risk":1,"updated_at":"2026-04-07T17:28:58.020113+05:30"},{"city":"Ludhiana","state":"Punjab","latitude":30.901,"longitude":75.8573,"temp":21.1,"humidity":80,"rain":0.1,"pressure":977.3,"uv_index":3.55,"wind_gusts":52.2,"aqi":121,"pm10":455.4,"pm2_5":81.5,"mosquito_risk":6,"arthritis_risk":5,"migraine_risk":3,"frizz_risk":1,"updated_at":"2026-04-07T17:28:58.020120+05:30"},{"city":"Jalandhar","state":"Punjab","latitude":31.326,"longitude":75.5762,"temp":20.0,"humidity":84,"rain":0.0,"pressure":978.8,"uv_index":4.25,"wind_gusts":47.2,"aqi":103,"pm10":478.7,"pm2_5":85.4,"mosquito_risk":3,"arthritis_risk":5,"migraine_risk":3,"frizz_risk":1,"updated_at":"2026-04-07T17:28:58.020129+05:30"},{"city":"Dehradun","state":"Uttarakhand","latitude":30.6284,"longitude":78.0322,"temp":12.4,"humidity":85,"rain":0.0,"pressure":828.3,"uv_index":6.35,"wind_gusts":36.4,"aqi":93,"pm10":31.0,"pm2_5":10.7,"mosquito_risk":3,"arthritis_risk":10,"migraine_risk":7,"frizz_risk":0,"updated_at":"2026-04-07T17:28:58.020136+05:30"},{"city":"Shimla","state":"Himachal Pradesh","latitude":31.1048,"longitude":77.1734,"temp":12.0,"humidity":75,"rain":0.0,"pressure":781.1,"uv_index":6.35,"wind_gusts":46.4,"aqi":84,"pm10":24.6,"pm2_5":10.1,"mosquito_risk":3,"arthritis_risk":5,"migraine_risk":7,"frizz_risk":0,"updated_at":"2026-04-07T17:28:58.020143+05:30"},{"city":"Manali","state":"Himachal Pradesh","latitude":32.2396,"longitude":77.1887,"temp":13.5,"humidity":76,"rain":0.0,"pressure":815.5,"uv_index":8.95,"wind_gusts":29.2,"aqi":137,"pm10":8.0,"pm2_5":4.9,"mosquito_risk":3,"arthritis_risk":5,"migraine_risk":7,"frizz_risk":0,"updated_at":"2026-04-07T17:28:58.020150+05:30"},{"city":"Gurgaon","state":"Haryana","latitude":28.4595,"longitude":77.0266,"temp":25.0,"humidity":60,"rain":0.0,"pressure":979.9,"uv_index":3.75,"wind_gusts":39.2,"aqi":863,"pm10":1110.1,"pm2_5":111.8,"mosquito_risk":4,"arthritis_risk":5,"migraine_risk":3,"frizz_risk":1,"updated_at":"2026-04-07T17:28:58.020157+05:30"},{"city":"Noida","state":"Uttar Pradesh","latitude":28.5355,"longitude":77.391,"temp":24.5,"humidity":67,"rain":0.0,"pressure":983.3,"uv_index":4.95,"wind_gusts":40.0,"aqi":863,"pm10":1110.1,"pm2_5":111.8,"mosquito_risk":3,"arthritis_risk":5,"migraine_risk":3,"frizz_risk":1,"updated_at":"2026-04-07T17:28:58.020165+05:30"},{"city":"Ghaziabad","state":"Uttar Pradesh","latitude":28.6692,"longitude":77.4538,"temp":24.0,"humidity":70,"rain":0.0,"pressure":981.6,"uv_index":5.3,"wind_gusts":37.1,"aqi":160,"pm10":310.1,"pm2_5":47.7,"mosquito_risk":3,"arthritis_risk":5,"migraine_risk":3,"frizz_risk":1,"updated_at":"2026-04-07T17:28:58.020172+05:30"},{"city":"Faridabad","state":"Haryana","latitude":28.4089,"longitude":77.3178,"temp":24.1,"humidity":67,"rain":0.0,"pressure":982.6,"uv_index":5.4,"wind_gusts":37.4,"aqi":863,"pm10":1110.1,"pm2_5":111.8,"mosquito_risk":3,"arthritis_risk":5,"migraine_risk":3,"frizz_risk":1,"updated_at":"2026-04-07T17:28:58.020178+05:30"},{"city":"Meerut","state":"Uttar Pradesh","latitude":28.9845,"longitude":77.7064,"temp":22.7,"humidity":75,"rain":0.1,"pressure":980.6,"uv_index":5.65,"wind_gusts":37.1,"aqi":160,"pm10":310.1,"pm2_5":47.7,"mosquito_risk":6,"arthritis_risk":5,"migraine_risk":3,"frizz_risk":1,"updated_at":"2026-04-07T17:28:58.020185+05:30"},{"city":"Agra","state":"Uttar Pradesh","latitude":27.1767,"longitude":78.0081,"temp":27.4,"humidity":51,"rain":0.0,"pressure":986.1,"uv_index":5.6,"wind_gusts":37.1,"aqi":403,"pm10":344.6,"pm2_5":39.1,"mosquito_risk":4,"arthritis_risk":5,"migraine_risk":3,"frizz_risk":1,"updated_at":"2026-04-07T17:28:58.020191+05:30"},{"city":"Varanasi","state":"Uttar Pradesh","latitude":25.3176,"longitude":82.9739,"temp":33.1,"humidity":26,"rain":0.0,"pressure":995.6,"uv_index":8.05,"wind_gusts":55.8,"aqi":123,"pm10":74.3,"pm2_5":17.9,"mosquito_risk":0,"arthritis_risk":5,"migraine_risk":7,"frizz_risk":0,"updated_at":"2026-04-07T17:28:58.020200+05:30"},{"city":"Prayagraj","state":"Uttar Pradesh","latitude":25.4358,"longitude":81.8463,"temp":32.7,"humidity":28,"rain":0.0,"pressure":993.6,"uv_index":7.95,"wind_gusts":69.5,"aqi":126,"pm10":84.8,"pm2_5":20.3,"mosquito_risk":0,"arthritis_risk":5,"migraine_risk":7,"frizz_risk":0,"updated_at":"2026-04-07T17:28:58.020207+05:30"},{"city":"Gorakhpur","state":"Uttar Pradesh","latitude":26.7606,"longitude":83.3732,"temp":33.1,"humidity":22,"rain":0.0,"pressure":995.3,"uv_index":7.85,"wind_gusts":27.0,"aqi":123,"pm10":67.8,"pm2_5":16.8,"mosquito_risk":0,"arthritis_risk":5,"migraine_risk":7,"frizz_risk":0,"updated_at":"2026-04-07T17:28:58.020216+05:30"},{"city":"Bareilly","state":"Uttar Pradesh","latitude":28.367,"longitude":79.4304,"temp":27.2,"humidity":49,"rain":0.0,"pressure":986.1,"uv_index":7.05,"wind_gusts":37.1,"aqi":118,"pm10":88.2,"pm2_5":19.7,"mosquito_risk":4,"arthritis_risk":5,"migraine_risk":7,"frizz_risk":0,"updated_at":"2026-04-07T17:28:58.020222+05:30"},{"city":"Aligarh","state":"Uttar Pradesh","latitude":27.8974,"longitude":78.088,"temp":24.8,"humidity":59,"rain":0.0,"pressure":984.6,"uv_index":6.0,"wind_gusts":32.4,"aqi":321,"pm10":274.7,"pm2_5":40.7,"mosquito_risk":0,"arthritis_risk":5,"migraine_risk":3,"frizz_risk":1,"updated_at":"2026-04-07T17:28:58.020229+05:30"},{"city":"Moradabad","state":"Uttar Pradesh","latitude":28.8386,"longitude":78.7733,"temp":25.5,"humidity":60,"rain":0.0,"pressure":982.9,"uv_index":6.95,"wind_gusts":30.2,"aqi":113,"pm10":99.4,"pm2_5":23.8,"mosquito_risk":4,"arthritis_risk":5,"migraine_risk":7,"frizz_risk":1,"updated_at":"2026-04-07T17:28:58.020235+05:30"},{"city":"Saharanpur","state":"Uttar Pradesh","latitude":29.9637,"longitude":77.546,"temp":22.4,"humidity":74,"rain":0.1,"pressure":975.3,"uv_index":4.3,"wind_gusts":35.3,"aqi":99,"pm10":95.2,"pm2_5":27.8,"mosquito_risk":6,"arthritis_risk":5,"migraine_risk":3,"frizz_risk":1,"updated_at":"2026-04-07T17:28:58.020243+05:30"},{"city":"Jhansi","state":"Uttar Pradesh","latitude":25.4484,"longitude":78.5685,"temp":28.7,"humidity":46,"rain":0.0,"pressure":976.0,"uv_index":7.75,"wind_gusts":47.2,"aqi":112,"pm10":32.0,"pm2_5":16.6,"mosquito_risk":4,"arthritis_risk":5,"migraine_risk":7,"frizz_risk":0,"updated_at":"2026-04-07T17:29:01.368890+05:30"},{"city":"Surat","state":"Gujarat","latitude":21.1702,"longitude":72.8311,"temp":28.7,"humidity":70,"rain":0.0,"pressure":1006.6,"uv_index":7.7,"wind_gusts":45.0,"aqi":71,"pm10":42.6,"pm2_5":19.2,"mosquito_risk":7,"arthritis_risk":5,"migraine_risk":4,"frizz_risk":1,"updated_at":"2026-04-07T17:29:01.368920+05:30"},{"city":"Vadodara","state":"Gujarat","latitude":22.3072,"longitude":73.1812,"temp":30.9,"humidity":60,"rain":0.0,"pressure":1003.1,"uv_index":7.95,"wind_gusts":46.4,"aqi":58,"pm10":97.8,"pm2_5":32.4,"mosquito_risk":0,"arthritis_risk":5,"migraine_risk":4,"frizz_risk":1,"updated_at":"2026-04-07T17:29:01.368930+05:30"},{"city":"Rajkot","state":"Gujarat","latitude":22.3039,"longitude":70.8022,"temp":31.5,"humidity":48,"rain":0.0,"pressure":993.1,"uv_index":7.7,"wind_gusts":46.8,"aqi":54,"pm10":53.8,"pm2_5":20.2,"mosquito_risk":0,"arthritis_risk":5,"migraine_risk":7,"frizz_risk":1,"updated_at":"2026-04-07T17:29:01.368938+05:30"},{"city":"Thane","state":"Maharashtra","latitude":19.2183,"longitude":72.9781,"temp":29.4,"humidity":65,"rain":0.0,"pressure":1008.3,"uv_index":7.95,"wind_gusts":33.8,"aqi":116,"pm10":55.8,"pm2_5":21.7,"mosquito_risk":7,"arthritis_risk":0,"migraine_risk":4,"frizz_risk":1,"updated_at":"2026-04-07T17:29:01.368945+05:30"},{"city":"Nagpur","state":"Maharashtra","latitude":21.1458,"longitude":79.0882,"temp":33.1,"humidity":31,"rain":0.0,"pressure":970.3,"uv_index":8.7,"wind_gusts":22.3,"aqi":129,"pm10":14.1,"pm2_5":10.3,"mosquito_risk":0,"arthritis_risk":5,"migraine_risk":7,"frizz_risk":0,"updated_at":"2026-04-07T17:29:01.368953+05:30"},{"city":"Nashik","state":"Maharashtra","latitude":19.9975,"longitude":73.7898,"temp":30.0,"humidity":43,"rain":0.0,"pressure":945.5,"uv_index":8.2,"wind_gusts":40.7,"aqi":62,"pm10":91.3,"pm2_5":22.9,"mosquito_risk":4,"arthritis_risk":5,"migraine_risk":7,"frizz_risk":1,"updated_at":"2026-04-07T17:29:01.368960+05:30"},{"city":"Aurangabad","state":"Maharashtra","latitude":19.8762,"longitude":75.3433,"temp":32.8,"humidity":25,"rain":0.0,"pressure":943.1,"uv_index":8.85,"wind_gusts":36.7,"aqi":66,"pm10":68.0,"pm2_5":20.0,"mosquito_risk":0,"arthritis_risk":5,"migraine_risk":7,"frizz_risk":0,"updated_at":"2026-04-07T17:29:01.368967+05:30"},{"city":"Solapur","state":"Maharashtra","latitude":17.6599,"longitude":75.9064,"temp":36.0,"humidity":16,"rain":0.0,"pressure":955.5,"uv_index":9.0,"wind_gusts":30.2,"aqi":120,"pm10":27.6,"pm2_5":12.0,"mosquito_risk":0,"arthritis_risk":5,"migraine_risk":10,"frizz_risk":0,"updated_at":"2026-04-07T17:29:01.368975+05:30"},{"city":"Kolhapur","state":"Maharashtra","latitude":16.705,"longitude":74.2433,"temp":29.2,"humidity":49,"rain":0.0,"pressure":947.8,"uv_index":9.0,"wind_gusts":45.7,"aqi":75,"pm10":36.3,"pm2_5":15.4,"mosquito_risk":4,"arthritis_risk":5,"migraine_risk":7,"frizz_risk":1,"updated_at":"2026-04-07T17:29:01.368982+05:30"},{"city":"Goa","state":"Goa","latitude":15.2993,"longitude":74.124,"temp":29.6,"humidity":60,"rain":0.0,"pressure":998.4,"uv_index":9.0,"wind_gusts":33.1,"aqi":55,"pm10":18.7,"pm2_5":10.6,"mosquito_risk":4,"arthritis_risk":5,"migraine_risk":7,"frizz_risk":1,"updated_at":"2026-04-07T17:29:01.368989+05:30"},{"city":"Jodhpur","state":"Rajasthan","latitude":26.2389,"longitude":73.0243,"temp":26.6,"humidity":59,"rain":0.0,"pressure":978.9,"uv_index":7.9,"wind_gusts":47.2,"aqi":106,"pm10":388.4,"pm2_5":50.6,"mosquito_risk":4,"arthritis_risk":5,"migraine_risk":7,"frizz_risk":1,"updated_at":"2026-04-07T17:29:01.368997+05:30"},{"city":"Udaipur","state":"Rajasthan","latitude":24.5854,"longitude":73.7125,"temp":28.4,"humidity":42,"rain":0.0,"pressure":943.6,"uv_index":8.5,"wind_gusts":55.1,"aqi":47,"pm10":52.0,"pm2_5":18.7,"mosquito_risk":4,"arthritis_risk":5,"migraine_risk":7,"frizz_risk":0,"updated_at":"2026-04-07T17:29:01.369005+05:30"},{"city":"Kota","state":"Rajasthan","latitude":25.2138,"longitude":75.8648,"temp":33.7,"humidity":23,"rain":0.0,"pressure":974.7,"uv_index":7.9,"wind_gusts":42.8,"aqi":68,"pm10":53.3,"pm2_5":18.2,"mosquito_risk":0,"arthritis_risk":5,"migraine_risk":7,"frizz_risk":0,"updated_at":"2026-04-07T17:29:01.369012+05:30"},{"city":"Bikaner","state":"Rajasthan","latitude":28.0229,"longitude":73.3119,"temp":24.9,"humidity":60,"rain":0.0,"pressure":978.8,"uv_index":6.6,"wind_gusts":36.4,"aqi":89,"pm10":69.8,"pm2_5":18.5,"mosquito_risk":0,"arthritis_risk":5,"migraine_risk":7,"frizz_risk":1,"updated_at":"2026-04-07T17:29:01.369019+05:30"},{"city":"Ajmer","state":"Rajasthan","latitude":26.4499,"longitude":74.6399,"temp":24.1,"humidity":66,"rain":0.0,"pressure":951.5,"uv_index":7.8,"wind_gusts":52.6,"aqi":56,"pm10":47.1,"pm2_5":16.6,"mosquito_risk":3,"arthritis_risk":5,"migraine_risk":7,"frizz_risk":1,"updated_at":"2026-04-07T17:29:01.369026+05:30"},{"city":"Gwalior","state":"Madhya Pradesh","latitude":26.2183,"longitude":78.1828,"temp":29.1,"humidity":45,"rain":0.0,"pressure":981.5,"uv_index":7.25,"wind_gusts":37.8,"aqi":102,"pm10":42.8,"pm2_5":17.1,"mosquito_risk":4,"arthritis_risk":5,"migraine_risk":7,"frizz_risk":0,"updated_at":"2026-04-07T17:29:01.369033+05:30"},{"city":"Indore","state":"Madhya Pradesh","latitude":22.7196,"longitude":75.8577,"temp":32.0,"humidity":25,"rain":0.0,"pressure":946.0,"uv_index":8.4,"wind_gusts":42.8,"aqi":62,"pm10":77.5,"pm2_5":23.9,"mosquito_risk":0,"arthritis_risk":5,"migraine_risk":7,"frizz_risk":0,"updated_at":"2026-04-07T17:29:01.369040+05:30"},{"city":"Bhopal","state":"Madhya Pradesh","latitude":23.2599,"longitude":77.4126,"temp":32.7,"humidity":23,"rain":0.0,"pressure":951.0,"uv_index":8.35,"wind_gusts":45.7,"aqi":85,"pm10":61.5,"pm2_5":21.0,"mosquito_risk":0,"arthritis_risk":5,"migraine_risk":7,"frizz_risk":0,"updated_at":"2026-04-07T17:29:01.369046+05:30"},{"city":"Jabalpur","state":"Madhya Pradesh","latitude":23.1815,"longitude":79.9864,"temp":33.9,"humidity":18,"rain":0.0,"pressure":958.6,"uv_index":8.5,"wind_gusts":38.2,"aqi":124,"pm10":17.7,"pm2_5":12.9,"mosquito_risk":0,"arthritis_risk":5,"migraine_risk":7,"frizz_risk":0,"updated_at":"2026-04-07T17:29:01.369052+05:30"},{"city":"Ujjain","state":"Madhya Pradesh","latitude":23.1765,"longitude":75.7885,"temp":31.8,"humidity":27,"rain":0.0,"pressure":951.5,"uv_index":8.3,"wind_gusts":45.7,"aqi":60,"pm10":73.8,"pm2_5":22.4,"mosquito_risk":0,"arthritis_risk":5,"migraine_risk":7,"frizz_risk":0,"updated_at":"2026-04-07T17:29:01.369059+05:30"},{"city":"Visakhapatnam","state":"Andhra Pradesh","latitude":17.6868,"longitude":83.2185,"temp":30.9,"humidity":63,"rain":0.0,"pressure":1002.2,"uv_index":9.1,"wind_gusts":33.5,"aqi":76,"pm10":29.2,"pm2_5":24.0,"mosquito_risk":3,"arthritis_risk":5,"migraine_risk":4,"frizz_risk":1,"updated_at":"2026-04-07T17:29:01.369066+05:30"},{"city":"Vijayawada","state":"Andhra Pradesh","latitude":16.5062,"longitude":80.648,"temp":34.9,"humidity":46,"rain":0.0,"pressure":999.5,"uv_index":9.15,"wind_gusts":31.7,"aqi":130,"pm10":44.7,"pm2_5":40.5,"mosquito_risk":0,"arthritis_risk":5,"migraine_risk":7,"frizz_risk":1,"updated_at":"2026-04-07T17:29:01.369073+05:30"},{"city":"Guntur","state":"Andhra Pradesh","latitude":16.3067,"longitude":80.4365,"temp":34.4,"humidity":53,"rain":0.0,"pressure":1000.7,"uv_index":9.2,"wind_gusts":31.7,"aqi":134,"pm10":28.6,"pm2_5":25.7,"mosquito_risk":0,"arthritis_risk":5,"migraine_risk":4,"frizz_risk":1,"updated_at":"2026-04-07T17:29:01.369080+05:30"},{"city":"Nellore","state":"Andhra Pradesh","latitude":14.4426,"longitude":79.9865,"temp":32.4,"humidity":65,"rain":0.0,"pressure":1003.0,"uv_index":9.3,"wind_gusts":37.4,"aqi":164,"pm10":26.3,"pm2_5":22.6,"mosquito_risk":3,"arthritis_risk":5,"migraine_risk":4,"frizz_risk":1,"updated_at":"2026-04-07T17:29:01.369087+05:30"},{"city":"Kurnool","state":"Andhra Pradesh","latitude":15.8281,"longitude":78.0373,"temp":37.7,"humidity":18,"rain":0.0,"pressure":974.2,"uv_index":9.2,"wind_gusts":25.2,"aqi":135,"pm10":22.9,"pm2_5":16.6,"mosquito_risk":0,"arthritis_risk":5,"migraine_risk":10,"frizz_risk":0,"updated_at":"2026-04-07T17:29:01.369094+05:30"},{"city":"Kakinada","state":"Andhra Pradesh","latitude":16.9891,"longitude":82.2475,"temp":32.8,"humidity":59,"rain":0.0,"pressure":1005.3,"uv_index":9.1,"wind_gusts":27.0,"aqi":59,"pm10":24.7,"pm2_5":18.5,"mosquito_risk":0,"arthritis_risk":5,"migraine_risk":4,"frizz_risk":1,"updated_at":"2026-04-07T17:29:01.369101+05:30"},{"city":"Tirupati","state":"Andhra Pradesh","latitude":13.6288,"longitude":79.4192,"temp":37.5,"humidity":24,"rain":0.0,"pressure":988.3,"uv_index":9.4,"wind_gusts":29.5,"aqi":135,"pm10":8.3,"pm2_5":6.5,"mosquito_risk":0,"arthritis_risk":5,"migraine_risk":10,"frizz_risk":0,"updated_at":"2026-04-07T17:29:01.369108+05:30"},{"city":"Warangal","state":"Telangana","latitude":17.9689,"longitude":79.5941,"temp":36.1,"humidity":29,"rain":0.0,"pressure":975.9,"uv_index":9.05,"wind_gusts":33.5,"aqi":128,"pm10":24.6,"pm2_5":19.7,"mosquito_risk":0,"arthritis_risk":5,"migraine_risk":10,"frizz_risk":0,"updated_at":"2026-04-07T17:29:01.369115+05:30"},{"city":"Nizamabad","state":"Telangana","latitude":18.6725,"longitude":78.0941,"temp":34.6,"humidity":27,"rain":0.0,"pressure":962.7,"uv_index":8.95,"wind_gusts":28.4,"aqi":110,"pm10":27.8,"pm2_5":17.7,"mosquito_risk":0,"arthritis_risk":5,"migraine_risk":7,"frizz_risk":0,"updated_at":"2026-04-07T17:29:01.369121+05:30"},{"city":"Mysore","state":"Karnataka","latitude":12.2958,"longitude":76.6396,"temp":32.4,"humidity":34,"rain":0.0,"pressure":927.5,"uv_index":9.55,"wind_gusts":37.1,"aqi":72,"pm10":8.2,"pm2_5":4.9,"mosquito_risk":0,"arthritis_risk":5,"migraine_risk":7,"frizz_risk":0,"updated_at":"2026-04-07T17:29:01.369128+05:30"},{"city":"Mangalore","state":"Karnataka","latitude":12.9141,"longitude":74.856,"temp":29.0,"humidity":69,"rain":0.0,"pressure":1006.6,"uv_index":9.15,"wind_gusts":31.0,"aqi":59,"pm10":21.1,"pm2_5":11.4,"mosquito_risk":7,"arthritis_risk":5,"migraine_risk":4,"frizz_risk":1,"updated_at":"2026-04-07T17:29:01.369135+05:30"},{"city":"Hubli-Dharwad","state":"Karnataka","latitude":15.3647,"longitude":75.124,"temp":31.8,"humidity":41,"rain":0.0,"pressure":940.1,"uv_index":9.2,"wind_gusts":41.4,"aqi":88,"pm10":15.1,"pm2_5":7.9,"mosquito_risk":0,"arthritis_risk":5,"migraine_risk":7,"frizz_risk":1,"updated_at":"2026-04-07T17:29:01.369142+05:30"},{"city":"Belgaum","state":"Karnataka","latitude":15.8497,"longitude":74.4977,"temp":28.1,"humidity":56,"rain":0.0,"pressure":925.9,"uv_index":9.25,"wind_gusts":37.1,"aqi":82,"pm10":26.1,"pm2_5":12.0,"mosquito_risk":4,"arthritis_risk":5,"migraine_risk":7,"frizz_risk":1,"updated_at":"2026-04-07T17:29:04.714374+05:30"},{"city":"Coimbatore","state":"Tamil Nadu","latitude":11.0168,"longitude":76.9558,"temp":30.7,"humidity":48,"rain":0.0,"pressure":960.4,"uv_index":9.5,"wind_gusts":56.2,"aqi":61,"pm10":13.1,"pm2_5":8.4,"mosquito_risk":0,"arthritis_risk":5,"migraine_risk":7,"frizz_risk":1,"updated_at":"2026-04-07T17:29:04.714408+05:30"},{"city":"Madurai","state":"Tamil Nadu","latitude":9.9252,"longitude":78.1198,"temp":35.3,"humidity":45,"rain":0.0,"pressure":990.2,"uv_index":7.9,"wind_gusts":33.8,"aqi":110,"pm10":28.5,"pm2_5":21.6,"mosquito_risk":0,"arthritis_risk":5,"migraine_risk":10,"frizz_risk":1,"updated_at":"2026-04-07T17:29:04.714418+05:30"},{"city":"Trichy","state":"Tamil Nadu","latitude":10.7905,"longitude":78.7047,"temp":37.8,"humidity":32,"rain":0.0,"pressure":996.0,"uv_index":8.7,"wind_gusts":35.3,"aqi":91,"pm10":23.4,"pm2_5":17.9,"mosquito_risk":0,"arthritis_risk":5,"migraine_risk":10,"frizz_risk":1,"updated_at":"2026-04-07T17:29:04.714427+05:30"},{"city":"Salem","state":"Tamil Nadu","latitude":11.6643,"longitude":78.146,"temp":38.1,"humidity":27,"rain":0.0,"pressure":974.1,"uv_index":9.45,"wind_gusts":31.3,"aqi":121,"pm10":15.4,"pm2_5":11.4,"mosquito_risk":0,"arthritis_risk":5,"migraine_risk":10,"frizz_risk":0,"updated_at":"2026-04-07T17:29:04.714435+05:30"},{"city":"Tirunelveli","state":"Tamil Nadu","latitude":8.7139,"longitude":77.7567,"temp":36.3,"humidity":36,"rain":0.0,"pressure":1000.5,"uv_index":9.15,"wind_gusts":23.8,"aqi":74,"pm10":18.8,"pm2_5":13.8,"mosquito_risk":0,"arthritis_risk":5,"migraine_risk":7,"frizz_risk":1,"updated_at":"2026-04-07T17:29:04.714442+05:30"},{"city":"Vellore","state":"Tamil Nadu","latitude":12.9165,"longitude":79.1325,"temp":37.1,"humidity":29,"rain":0.0,"pressure":981.3,"uv_index":9.45,"wind_gusts":27.0,"aqi":134,"pm10":10.3,"pm2_5":8.7,"mosquito_risk":0,"arthritis_risk":5,"migraine_risk":10,"frizz_risk":1,"updated_at":"2026-04-07T17:29:04.714449+05:30"},{"city":"Erode","state":"Tamil Nadu","latitude":11.341,"longitude":77.7172,"temp":39.0,"humidity":25,"rain":0.0,"pressure":985.3,"uv_index":9.4,"wind_gusts":37.4,"aqi":99,"pm10":19.8,"pm2_5":14.7,"mosquito_risk":0,"arthritis_risk":5,"migraine_risk":10,"frizz_risk":0,"updated_at":"2026-04-07T17:29:04.714456+05:30"},{"city":"Kochi","state":"Kerala","latitude":9.9312,"longitude":76.2673,"temp":29.2,"humidity":71,"rain":0.0,"pressure":1007.9,"uv_index":9.25,"wind_gusts":41.0,"aqi":68,"pm10":22.6,"pm2_5":13.0,"mosquito_risk":7,"arthritis_risk":5,"migraine_risk":4,"frizz_risk":1,"updated_at":"2026-04-07T17:29:04.714464+05:30"},{"city":"Thiruvananthapuram","state":"Kerala","latitude":8.5241,"longitude":76.9366,"temp":29.6,"humidity":74,"rain":0.0,"pressure":1006.8,"uv_index":8.5,"wind_gusts":54.4,"aqi":63,"pm10":26.2,"pm2_5":15.3,"mosquito_risk":7,"arthritis_risk":5,"migraine_risk":4,"frizz_risk":1,"updated_at":"2026-04-07T17:29:04.714471+05:30"},{"city":"Kozhikode","state":"Kerala","latitude":11.2588,"longitude":75.7804,"temp":29.5,"humidity":69,"rain":0.0,"pressure":1007.2,"uv_index":9.15,"wind_gusts":37.1,"aqi":58,"pm10":29.6,"pm2_5":15.5,"mosquito_risk":7,"arthritis_risk":5,"migraine_risk":4,"frizz_risk":1,"updated_at":"2026-04-07T17:29:04.714478+05:30"},{"city":"Thrissur","state":"Kerala","latitude":10.5276,"longitude":76.2144,"temp":30.4,"humidity":62,"rain":0.0,"pressure":1006.2,"uv_index":9.2,"wind_gusts":40.3,"aqi":63,"pm10":21.9,"pm2_5":12.8,"mosquito_risk":3,"arthritis_risk":5,"migraine_risk":4,"frizz_risk":1,"updated_at":"2026-04-07T17:29:04.714485+05:30"},{"city":"Kannur","state":"Kerala","latitude":11.8745,"longitude":75.3704,"temp":29.9,"humidity":62,"rain":0.0,"pressure":1006.7,"uv_index":9.15,"wind_gusts":39.6,"aqi":56,"pm10":22.3,"pm2_5":12.8,"mosquito_risk":7,"arthritis_risk":5,"migraine_risk":4,"frizz_risk":1,"updated_at":"2026-04-07T17:29:04.714492+05:30"},{"city":"Patna","state":"Bihar","latitude":25.5941,"longitude":85.1376,"temp":33.4,"humidity":23,"rain":0.0,"pressure":998.6,"uv_index":8.2,"wind_gusts":27.0,"aqi":131,"pm10":69.6,"pm2_5":18.3,"mosquito_risk":0,"arthritis_risk":5,"migraine_risk":7,"frizz_risk":0,"updated_at":"2026-04-07T17:29:04.714499+05:30"},{"city":"Gaya","state":"Bihar","latitude":24.7914,"longitude":85.0002,"temp":33.0,"humidity":25,"rain":0.0,"pressure":992.1,"uv_index":8.3,"wind_gusts":20.5,"aqi":122,"pm10":45.5,"pm2_5":13.2,"mosquito_risk":0,"arthritis_risk":5,"migraine_risk":7,"frizz_risk":0,"updated_at":"2026-04-07T17:29:04.714505+05:30"},{"city":"Muzaffarpur","state":"Bihar","latitude":26.1209,"longitude":85.3647,"temp":32.9,"humidity":25,"rain":0.0,"pressure":998.7,"uv_index":8.15,"wind_gusts":24.5,"aqi":138,"pm10":65.4,"pm2_5":19.1,"mosquito_risk":0,"arthritis_risk":5,"migraine_risk":7,"frizz_risk":0,"updated_at":"2026-04-07T17:29:04.714511+05:30"},{"city":"Bhagalpur","state":"Bihar","latitude":25.2425,"longitude":87.0117,"temp":32.4,"humidity":29,"rain":0.0,"pressure":999.2,"uv_index":8.25,"wind_gusts":20.5,"aqi":127,"pm10":32.4,"pm2_5":14.6,"mosquito_risk":0,"arthritis_risk":5,"migraine_risk":7,"frizz_risk":0,"updated_at":"2026-04-07T17:29:04.714518+05:30"},{"city":"Ranchi","state":"Jharkhand","latitude":23.3441,"longitude":85.3096,"temp":25.6,"humidity":51,"rain":0.0,"pressure":937.1,"uv_index":8.9,"wind_gusts":31.0,"aqi":122,"pm10":23.5,"pm2_5":10.6,"mosquito_risk":4,"arthritis_risk":5,"migraine_risk":7,"frizz_risk":0,"updated_at":"2026-04-07T17:29:04.714525+05:30"},{"city":"Jamshedpur","state":"Jharkhand","latitude":22.8046,"longitude":86.2029,"temp":28.6,"humidity":62,"rain":0.0,"pressure":989.8,"uv_index":8.75,"wind_gusts":37.4,"aqi":144,"pm10":31.4,"pm2_5":23.4,"mosquito_risk":7,"arthritis_risk":5,"migraine_risk":7,"frizz_risk":1,"updated_at":"2026-04-07T17:29:04.714532+05:30"},{"city":"Dhanbad","state":"Jharkhand","latitude":23.7957,"longitude":86.4304,"temp":32.4,"humidity":25,"rain":0.0,"pressure":978.7,"uv_index":8.65,"wind_gusts":27.7,"aqi":122,"pm10":35.7,"pm2_5":24.0,"mosquito_risk":0,"arthritis_risk":5,"migraine_risk":7,"frizz_risk":0,"updated_at":"2026-04-07T17:29:04.714538+05:30"},{"city":"Bokaro","state":"Jharkhand","latitude":23.6693,"longitude":86.1511,"temp":30.2,"humidity":39,"rain":0.0,"pressure":983.0,"uv_index":8.7,"wind_gusts":33.5,"aqi":117,"pm10":32.4,"pm2_5":18.0,"mosquito_risk":0,"arthritis_risk":5,"migraine_risk":7,"frizz_risk":0,"updated_at":"2026-04-07T17:29:04.714545+05:30"},{"city":"Bhubaneswar","state":"Odisha","latitude":20.2961,"longitude":85.8245,"temp":30.7,"humidity":63,"rain":0.0,"pressure":1001.5,"uv_index":8.95,"wind_gusts":33.8,"aqi":116,"pm10":25.4,"pm2_5":21.8,"mosquito_risk":3,"arthritis_risk":5,"migraine_risk":4,"frizz_risk":1,"updated_at":"2026-04-07T17:29:04.714552+05:30"},{"city":"Cuttack","state":"Odisha","latitude":20.4625,"longitude":85.8828,"temp":31.2,"humidity":60,"rain":0.0,"pressure":1003.2,"uv_index":9.0,"wind_gusts":37.8,"aqi":116,"pm10":25.4,"pm2_5":21.8,"mosquito_risk":0,"arthritis_risk":5,"migraine_risk":4,"frizz_risk":1,"updated_at":"2026-04-07T17:29:04.714558+05:30"},{"city":"Rourkela","state":"Odisha","latitude":22.2604,"longitude":84.8536,"temp":31.7,"humidity":47,"rain":0.0,"pressure":983.1,"uv_index":8.7,"wind_gusts":25.6,"aqi":138,"pm10":30.4,"pm2_5":20.7,"mosquito_risk":0,"arthritis_risk":5,"migraine_risk":7,"frizz_risk":1,"updated_at":"2026-04-07T17:29:04.714565+05:30"},{"city":"Raipur","state":"Chhattisgarh","latitude":21.2514,"longitude":81.6296,"temp":35.5,"humidity":25,"rain":0.0,"pressure":971.4,"uv_index":8.8,"wind_gusts":24.1,"aqi":168,"pm10":48.9,"pm2_5":38.9,"mosquito_risk":0,"arthritis_risk":5,"migraine_risk":10,"frizz_risk":0,"updated_at":"2026-04-07T17:29:04.714572+05:30"},{"city":"Bhilai","state":"Chhattisgarh","latitude":21.1938,"longitude":81.3509,"temp":36.0,"humidity":22,"rain":0.0,"pressure":971.6,"uv_index":8.8,"wind_gusts":25.9,"aqi":157,"pm10":42.5,"pm2_5":32.1,"mosquito_risk":0,"arthritis_risk":5,"migraine_risk":10,"frizz_risk":0,"updated_at":"2026-04-07T17:29:04.714579+05:30"},{"city":"Guwahati","state":"Assam","latitude":26.1158,"longitude":91.7086,"temp":27.9,"humidity":60,"rain":0.0,"pressure":1001.4,"uv_index":8.15,"wind_gusts":35.3,"aqi":111,"pm10":36.6,"pm2_5":32.1,"mosquito_risk":4,"arthritis_risk":5,"migraine_risk":4,"frizz_risk":1,"updated_at":"2026-04-07T17:29:04.714585+05:30"},{"city":"Agartala","state":"Tripura","latitude":23.8315,"longitude":91.2868,"temp":28.1,"humidity":62,"rain":0.0,"pressure":1006.2,"uv_index":8.45,"wind_gusts":38.9,"aqi":156,"pm10":34.9,"pm2_5":31.9,"mosquito_risk":7,"arthritis_risk":5,"migraine_risk":4,"frizz_risk":1,"updated_at":"2026-04-07T17:29:04.714591+05:30"},{"city":"Shillong","state":"Meghalaya","latitude":25.5788,"longitude":91.8933,"temp":14.9,"humidity":73,"rain":0.0,"pressure":855.9,"uv_index":6.3,"wind_gusts":42.5,"aqi":109,"pm10":32.7,"pm2_5":28.8,"mosquito_risk":3,"arthritis_risk":5,"migraine_risk":7,"frizz_risk":0,"updated_at":"2026-04-07T17:29:04.714598+05:30"},{"city":"Imphal","state":"Manipur","latitude":24.817,"longitude":93.9368,"temp":19.6,"humidity":68,"rain":0.0,"pressure":923.6,"uv_index":8.4,"wind_gusts":43.9,"aqi":107,"pm10":21.8,"pm2_5":17.3,"mosquito_risk":3,"arthritis_risk":5,"migraine_risk":7,"frizz_risk":0,"updated_at":"2026-04-07T17:29:04.714604+05:30"},{"city":"Aizawl","state":"Mizoram","latitude":23.7271,"longitude":92.7176,"temp":20.9,"humidity":65,"rain":0.0,"pressure":893.2,"uv_index":8.65,"wind_gusts":42.1,"aqi":100,"pm10":25.0,"pm2_5":22.1,"mosquito_risk":3,"arthritis_risk":5,"migraine_risk":7,"frizz_risk":0,"updated_at":"2026-04-07T17:29:04.714611+05:30"},{"city":"Kohima","state":"Nagaland","latitude":25.6701,"longitude":94.1077,"temp":15.4,"humidity":84,"rain":0.0,"pressure":854.6,"uv_index":8.35,"wind_gusts":71.6,"aqi":106,"pm10":28.8,"pm2_5":22.3,"mosquito_risk":3,"arthritis_risk":10,"migraine_risk":7,"frizz_risk":0,"updated_at":"2026-04-07T17:29:04.714617+05:30"},{"city":"Gangtok","state":"Sikkim","latitude":27.3314,"longitude":88.6138,"temp":14.4,"humidity":77,"rain":0.0,"pressure":837.0,"uv_index":8.5,"wind_gusts":23.4,"aqi":98,"pm10":26.5,"pm2_5":18.6,"mosquito_risk":3,"arthritis_risk":5,"migraine_risk":7,"frizz_risk":0,"updated_at":"2026-04-07T17:29:04.714624+05:30"},{"city":"Siliguri","state":"West Bengal","latitude":26.7271,"longitude":88.3953,"temp":25.2,"humidity":55,"rain":0.0,"pressure":993.1,"uv_index":8.1,"wind_gusts":32.8,"aqi":117,"pm10":27.8,"pm2_5":15.8,"mosquito_risk":4,"arthritis_risk":5,"migraine_risk":7,"frizz_risk":0,"updated_at":"2026-04-07T17:29:08.064239+05:30"},{"city":"Durgapur","state":"West Bengal","latitude":23.5204,"longitude":87.3119,"temp":26.4,"humidity":66,"rain":0.0,"pressure":995.0,"uv_index":8.45,"wind_gusts":29.5,"aqi":126,"pm10":43.1,"pm2_5":35.6,"mosquito_risk":7,"arthritis_risk":5,"migraine_risk":7,"frizz_risk":1,"updated_at":"2026-04-07T17:29:08.064269+05:30"},{"city":"Asansol","state":"West Bengal","latitude":23.6739,"longitude":86.9524,"temp":26.6,"humidity":65,"rain":0.0,"pressure":993.1,"uv_index":8.65,"wind_gusts":36.4,"aqi":120,"pm10":37.3,"pm2_5":27.7,"mosquito_risk":7,"arthritis_risk":5,"migraine_risk":7,"frizz_risk":1,"updated_at":"2026-04-07T17:29:08.064279+05:30"},{"city":"Pondicherry","state":"Puducherry","latitude":11.9139,"longitude":79.8145,"temp":33.2,"humidity":69,"rain":0.0,"pressure":1005.3,"uv_index":8.9,"wind_gusts":31.3,"aqi":130,"pm10":32.9,"pm2_5":26.7,"mosquito_risk":3,"arthritis_risk":5,"migraine_risk":4,"frizz_risk":1,"updated_at":"2026-04-07T17:29:08.064287+05:30"},{"city":"Port Blair","state":"Andaman and Nicobar Islands","latitude":11.6234,"longitude":92.7265,"temp":29.4,"humidity":66,"rain":0.0,"pressure":1007.2,"uv_index":9.25,"wind_gusts":13.0,"aqi":30,"pm10":4.8,"pm2_5":3.2,"mosquito_risk":7,"arthritis_risk":5,"migraine_risk":4,"frizz_risk":1,"updated_at":"2026-04-07T17:29:08.064294+05:30"},{"city":"Haridwar","state":"Uttarakhand","latitude":29.9457,"longitude":78.1642,"temp":23.1,"humidity":71,"rain":0.0,"pressure":974.4,"uv_index":5.3,"wind_gusts":41.4,"aqi":102,"pm10":91.3,"pm2_5":24.3,"mosquito_risk":3,"arthritis_risk":5,"migraine_risk":3,"frizz_risk":1,"updated_at":"2026-04-07T17:29:08.064301+05:30"},{"city":"Rishikesh","state":"Uttarakhand","latitude":30.0869,"longitude":78.2676,"temp":23.7,"humidity":59,"rain":0.0,"pressure":967.1,"uv_index":6.4,"wind_gusts":28.4,"aqi":110,"pm10":81.7,"pm2_5":21.5,"mosquito_risk":0,"arthritis_risk":5,"migraine_risk":7,"frizz_risk":0,"updated_at":"2026-04-07T17:29:08.064308+05:30"},{"city":"Nainital","state":"Uttarakhand","latitude":29.3919,"longitude":79.4542,"temp":19.2,"humidity":46,"rain":0.0,"pressure":805.6,"uv_index":5.85,"wind_gusts":40.0,"aqi":115,"pm10":60.1,"pm2_5":16.1,"mosquito_risk":0,"arthritis_risk":5,"migraine_risk":3,"frizz_risk":0,"updated_at":"2026-04-07T17:29:08.064314+05:30"},{"city":"Mussoorie","state":"Uttarakhand","latitude":30.4599,"longitude":78.0664,"temp":13.2,"humidity":82,"rain":0.0,"pressure":800.5,"uv_index":5.2,"wind_gusts":42.1,"aqi":98,"pm10":57.3,"pm2_5":17.7,"mosquito_risk":3,"arthritis_risk":10,"migraine_risk":3,"frizz_risk":0,"updated_at":"2026-04-07T17:29:08.064344+05:30"},{"city":"Dharamshala","state":"Himachal Pradesh","latitude":32.219,"longitude":76.3234,"temp":17.2,"humidity":77,"rain":0.0,"pressure":865.5,"uv_index":6.4,"wind_gusts":37.4,"aqi":100,"pm10":16.2,"pm2_5":7.9,"mosquito_risk":3,"arthritis_risk":5,"migraine_risk":7,"frizz_risk":0,"updated_at":"2026-04-07T17:29:08.064352+05:30"},{"city":"Dalhousie","state":"Himachal Pradesh","latitude":32.5387,"longitude":75.971,"temp":14.4,"humidity":65,"rain":0.0,"pressure":799.6,"uv_index":5.3,"wind_gusts":33.1,"aqi":91,"pm10":33.8,"pm2_5":12.3,"mosquito_risk":3,"arthritis_risk":5,"migraine_risk":3,"frizz_risk":0,"updated_at":"2026-04-07T17:29:08.064361+05:30"},{"city":"Patiala","state":"Punjab","latitude":30.3398,"longitude":76.3869,"temp":21.0,"humidity":83,"rain":0.0,"pressure":977.0,"uv_index":5.8,"wind_gusts":47.5,"aqi":206,"pm10":399.5,"pm2_5":69.6,"mosquito_risk":3,"arthritis_risk":5,"migraine_risk":3,"frizz_risk":1,"updated_at":"2026-04-07T17:29:08.064368+05:30"},{"city":"Bhatinda","state":"Punjab","latitude":30.211,"longitude":74.9455,"temp":19.3,"humidity":87,"rain":0.0,"pressure":981.9,"uv_index":4.2,"wind_gusts":52.2,"aqi":103,"pm10":117.3,"pm2_5":29.9,"mosquito_risk":3,"arthritis_risk":10,"migraine_risk":3,"frizz_risk":1,"updated_at":"2026-04-07T17:29:08.064374+05:30"},{"city":"Rohtak","state":"Haryana","latitude":28.8955,"longitude":76.6066,"temp":24.8,"humidity":57,"rain":0.0,"pressure":980.1,"uv_index":5.15,"wind_gusts":41.0,"aqi":499,"pm10":360.4,"pm2_5":56.7,"mosquito_risk":0,"arthritis_risk":5,"migraine_risk":3,"frizz_risk":0,"updated_at":"2026-04-07T17:29:08.064381+05:30"},{"city":"Panipat","state":"Haryana","latitude":29.3909,"longitude":76.9635,"temp":22.1,"humidity":80,"rain":0.0,"pressure":979.2,"uv_index":4.7,"wind_gusts":49.7,"aqi":690,"pm10":295.2,"pm2_5":57.4,"mosquito_risk":3,"arthritis_risk":5,"migraine_risk":3,"frizz_risk":1,"updated_at":"2026-04-07T17:29:08.064387+05:30"},{"city":"Mathura","state":"Uttar Pradesh","latitude":27.4924,"longitude":77.6737,"temp":27.5,"humidity":48,"rain":0.0,"pressure":985.0,"uv_index":6.2,"wind_gusts":34.9,"aqi":416,"pm10":1113.9,"pm2_5":101.0,"mosquito_risk":4,"arthritis_risk":5,"migraine_risk":7,"frizz_risk":0,"updated_at":"2026-04-07T17:29:08.064394+05:30"},{"city":"Vrindavan","state":"Uttar Pradesh","latitude":27.5823,"longitude":77.7027,"temp":26.8,"humidity":48,"rain":0.0,"pressure":985.7,"uv_index":5.8,"wind_gusts":38.2,"aqi":416,"pm10":1113.9,"pm2_5":101.0,"mosquito_risk":4,"arthritis_risk":5,"migraine_risk":3,"frizz_risk":0,"updated_at":"2026-04-07T17:29:08.064401+05:30"},{"city":"Ayodhya","state":"Uttar Pradesh","latitude":26.7922,"longitude":82.1998,"temp":32.6,"humidity":24,"rain":0.0,"pressure":993.5,"uv_index":7.6,"wind_gusts":52.9,"aqi":113,"pm10":106.9,"pm2_5":22.6,"mosquito_risk":0,"arthritis_risk":5,"migraine_risk":7,"frizz_risk":0,"updated_at":"2026-04-07T17:29:08.064408+05:30"},{"city":"Ratlam","state":"Madhya Pradesh","latitude":23.3315,"longitude":75.0367,"temp":31.3,"humidity":35,"rain":0.0,"pressure":952.7,"uv_index":8.25,"wind_gusts":50.4,"aqi":54,"pm10":75.4,"pm2_5":22.9,"mosquito_risk":0,"arthritis_risk":5,"migraine_risk":7,"frizz_risk":0,"updated_at":"2026-04-07T17:29:08.064414+05:30"},{"city":"Sagar","state":"Madhya Pradesh","latitude":23.8388,"longitude":78.7378,"temp":32.6,"humidity":20,"rain":0.0,"pressure":947.3,"uv_index":8.35,"wind_gusts":37.4,"aqi":101,"pm10":19.8,"pm2_5":10.5,"mosquito_risk":0,"arthritis_risk":5,"migraine_risk":7,"frizz_risk":0,"updated_at":"2026-04-07T17:29:08.064420+05:30"},{"city":"Satna","state":"Madhya Pradesh","latitude":24.6005,"longitude":80.8322,"temp":32.3,"humidity":26,"rain":0.0,"pressure":969.0,"uv_index":8.3,"wind_gusts":32.4,"aqi":120,"pm10":28.6,"pm2_5":15.0,"mosquito_risk":0,"arthritis_risk":5,"migraine_risk":7,"frizz_risk":0,"updated_at":"2026-04-07T17:29:08.064427+05:30"},{"city":"Akola","state":"Maharashtra","latitude":20.7002,"longitude":77.0082,"temp":35.2,"humidity":23,"rain":0.0,"pressure":973.0,"uv_index":8.65,"wind_gusts":36.0,"aqi":96,"pm10":43.2,"pm2_5":17.0,"mosquito_risk":0,"arthritis_risk":5,"migraine_risk":10,"frizz_risk":0,"updated_at":"2026-04-07T17:29:08.064434+05:30"},{"city":"Amravati","state":"Maharashtra","latitude":20.9374,"longitude":77.7796,"temp":35.2,"humidity":21,"rain":0.0,"pressure":964.8,"uv_index":8.7,"wind_gusts":33.5,"aqi":99,"pm10":36.2,"pm2_5":16.0,"mosquito_risk":0,"arthritis_risk":5,"migraine_risk":10,"frizz_risk":0,"updated_at":"2026-04-07T17:29:08.064441+05:30"},{"city":"Latur","state":"Maharashtra","latitude":18.4088,"longitude":76.5604,"temp":32.8,"humidity":24,"rain":0.0,"pressure":938.6,"uv_index":8.95,"wind_gusts":27.0,"aqi":90,"pm10":37.6,"pm2_5":14.1,"mosquito_risk":0,"arthritis_risk":5,"migraine_risk":7,"frizz_risk":0,"updated_at":"2026-04-07T17:29:08.064448+05:30"},{"city":"Nanded","state":"Maharashtra","latitude":19.1383,"longitude":77.3091,"temp":34.7,"humidity":25,"rain":0.0,"pressure":966.9,"uv_index":8.85,"wind_gusts":25.2,"aqi":110,"pm10":34.1,"pm2_5":14.3,"mosquito_risk":0,"arthritis_risk":5,"migraine_risk":7,"frizz_risk":0,"updated_at":"2026-04-07T17:29:08.064454+05:30"},{"city":"Gulbarga","state":"Karnataka","latitude":17.3297,"longitude":76.8343,"temp":36.2,"humidity":22,"rain":0.0,"pressure":956.6,"uv_index":9.05,"wind_gusts":29.2,"aqi":126,"pm10":22.0,"pm2_5":13.4,"mosquito_risk":0,"arthritis_risk":5,"migraine_risk":10,"frizz_risk":0,"updated_at":"2026-04-07T17:29:08.064460+05:30"},{"city":"Bidar","state":"Karnataka","latitude":17.9104,"longitude":77.5199,"temp":34.7,"humidity":23,"rain":0.0,"pressure":933.8,"uv_index":9.0,"wind_gusts":30.2,"aqi":125,"pm10":27.9,"pm2_5":18.9,"mosquito_risk":0,"arthritis_risk":5,"migraine_risk":7,"frizz_risk":0,"updated_at":"2026-04-07T17:29:08.064466+05:30"},{"city":"Hospet","state":"Karnataka","latitude":15.2689,"longitude":76.3909,"temp":35.8,"humidity":19,"rain":0.0,"pressure":954.3,"uv_index":9.25,"wind_gusts":31.7,"aqi":76,"pm10":13.1,"pm2_5":5.9,"mosquito_risk":0,"arthritis_risk":5,"migraine_risk":10,"frizz_risk":0,"updated_at":"2026-04-07T17:29:08.064472+05:30"},{"city":"Tirupur","state":"Tamil Nadu","latitude":11.1085,"longitude":77.3411,"temp":35.1,"humidity":34,"rain":0.0,"pressure":972.9,"uv_index":9.5,"wind_gusts":45.4,"aqi":93,"pm10":16.2,"pm2_5":11.3,"mosquito_risk":0,"arthritis_risk":5,"migraine_risk":10,"frizz_risk":1,"updated_at":"2026-04-07T17:29:08.064478+05:30"},{"city":"Alappuzha","state":"Kerala","latitude":9.4981,"longitude":76.3388,"temp":29.3,"humidity":72,"rain":0.0,"pressure":1008.0,"uv_index":8.7,"wind_gusts":41.8,"aqi":69,"pm10":28.1,"pm2_5":15.5,"mosquito_risk":7,"arthritis_risk":0,"migraine_risk":4,"frizz_risk":1,"updated_at":"2026-04-07T17:29:08.064485+05:30"},{"city":"Munnar","state":"Kerala","latitude":10.0889,"longitude":77.0595,"temp":25.8,"humidity":67,"rain":0.0,"pressure":857.7,"uv_index":9.0,"wind_gusts":40.3,"aqi":66,"pm10":19.2,"pm2_5":12.9,"mosquito_risk":7,"arthritis_risk":5,"migraine_risk":7,"frizz_risk":1,"updated_at":"2026-04-07T17:29:08.064491+05:30"},{"city":"Silchar","state":"Assam","latitude":24.8333,"longitude":92.7789,"temp":27.5,"humidity":64,"rain":0.0,"pressure":1005.4,"uv_index":8.3,"wind_gusts":26.3,"aqi":154,"pm10":34.6,"pm2_5":29.4,"mosquito_risk":7,"arthritis_risk":5,"migraine_risk":4,"frizz_risk":1,"updated_at":"2026-04-07T17:29:08.064497+05:30"},{"city":"Dibrugarh","state":"Assam","latitude":27.4728,"longitude":94.912,"temp":21.9,"humidity":81,"rain":0.0,"pressure":997.7,"uv_index":7.4,"wind_gusts":31.0,"aqi":82,"pm10":48.1,"pm2_5":38.8,"mosquito_risk":3,"arthritis_risk":5,"migraine_risk":7,"frizz_risk":1,"updated_at":"2026-04-07T17:29:08.064503+05:30"}]