[{"city":"Delhi","state":"Delhi","latitude":28.6139,"longitude":77.209,"temp":38.0,"humidity":37,"rain":0.0,"pressure":975.4,"uv_index":6.1,"wind_gusts":34.2,"aqi":638,"pm10":696.6,"pm2_5":129.9,"no2":6.2,"co":215.0,"o3":134.0,"so2":10.2,"mosquito_risk":0,"arthritis_risk":5,"migraine_risk":10,"frizz_risk":1,"updated_at":"2026-07-17T15:30:13.501080+05:30"},{"city":"Mumbai","state":"Maharashtra","latitude":19.076,"longitude":72.8777,"temp":27.0,"humidity":83,"rain":0.1,"pressure":1006.7,"uv_index":7.5,"wind_gusts":33.8,"aqi":69,"pm10":45.4,"pm2_5":23.9,"no2":11.3,"co":205.0,"o3":73.0,"so2":11.4,"mosquito_risk":10,"arthritis_risk":5,"migraine_risk":4,"frizz_risk":1,"updated_at":"2026-07-17T15:30:13.501123+05:30"},{"city":"Bangalore","state":"Karnataka","latitude":12.9716,"longitude":77.5946,"temp":22.7,"humidity":81,"rain":0.2,"pressure":910.7,"uv_index":5.75,"wind_gusts":46.1,"aqi":54,"pm10":7.6,"pm2_5":6.0,"no2":14.8,"co":264.0,"o3":42.0,"so2":4.1,"mosquito_risk":6,"arthritis_risk":5,"migraine_risk":3,"frizz_risk":1,"updated_at":"2026-07-17T15:30:13.501138+05:30"},{"city":"Hyderabad","state":"Telangana","latitude":17.385,"longitude":78.4867,"temp":27.0,"humidity":74,"rain":0.1,"pressure":950.2,"uv_index":5.35,"wind_gusts":36.7,"aqi":70,"pm10":24.7,"pm2_5":14.4,"no2":4.6,"co":230.0,"o3":76.0,"so2":4.1,"mosquito_risk":10,"arthritis_risk":5,"migraine_risk":3,"frizz_risk":1,"updated_at":"2026-07-17T15:30:13.501148+05:30"},{"city":"Chennai","state":"Tamil Nadu","latitude":13.0827,"longitude":80.2707,"temp":32.5,"humidity":54,"rain":0.0,"pressure":1003.8,"uv_index":7.85,"wind_gusts":41.0,"aqi":80,"pm10":34.5,"pm2_5":21.8,"no2":4.1,"co":195.0,"o3":129.0,"so2":5.5,"mosquito_risk":0,"arthritis_risk":5,"migraine_risk":4,"frizz_risk":1,"updated_at":"2026-07-17T15:30:13.501156+05:30"},{"city":"Kolkata","state":"West Bengal","latitude":22.5726,"longitude":88.3639,"temp":30.7,"humidity":78,"rain":0.2,"pressure":996.9,"uv_index":7.45,"wind_gusts":34.2,"aqi":65,"pm10":27.6,"pm2_5":21.1,"no2":5.0,"co":370.0,"o3":114.0,"so2":7.3,"mosquito_risk":6,"arthritis_risk":5,"migraine_risk":7,"frizz_risk":1,"updated_at":"2026-07-17T15:30:13.501164+05:30"},{"city":"Pune","state":"Maharashtra","latitude":18.5204,"longitude":73.8567,"temp":27.0,"humidity":67,"rain":0.0,"pressure":945.9,"uv_index":7.25,"wind_gusts":45.4,"aqi":43,"pm10":16.5,"pm2_5":8.8,"no2":4.0,"co":134.0,"o3":57.0,"so2":4.3,"mosquito_risk":7,"arthritis_risk":5,"migraine_risk":7,"frizz_risk":1,"updated_at":"2026-07-17T15:30:13.501171+05:30"},{"city":"Ahmedabad","state":"Gujarat","latitude":23.0225,"longitude":72.5714,"temp":36.6,"humidity":40,"rain":0.0,"pressure":996.6,"uv_index":7.85,"wind_gusts":41.0,"aqi":72,"pm10":55.8,"pm2_5":20.7,"no2":2.2,"co":134.0,"o3":86.0,"so2":3.4,"mosquito_risk":0,"arthritis_risk":5,"migraine_risk":10,"frizz_risk":1,"updated_at":"2026-07-17T15:30:13.501178+05:30"},{"city":"Jaipur","state":"Rajasthan","latitude":26.9124,"longitude":75.7873,"temp":36.5,"humidity":39,"rain":0.0,"pressure":954.2,"uv_index":8.05,"wind_gusts":40.0,"aqi":295,"pm10":321.3,"pm2_5":61.7,"no2":1.4,"co":144.0,"o3":105.0,"so2":3.1,"mosquito_risk":0,"arthritis_risk":5,"migraine_risk":10,"frizz_risk":1,"updated_at":"2026-07-17T15:30:13.501184+05:30"},{"city":"Lucknow","state":"Uttar Pradesh","latitude":26.8467,"longitude":80.9462,"temp":32.5,"humidity":75,"rain":0.0,"pressure":985.7,"uv_index":7.25,"wind_gusts":26.3,"aqi":159,"pm10":272.9,"pm2_5":89.6,"no2":3.7,"co":254.0,"o3":169.0,"so2":11.6,"mosquito_risk":3,"arthritis_risk":5,"migraine_risk":7,"frizz_risk":1,"updated_at":"2026-07-17T15:30:13.501196+05:30"},{"city":"Kanpur","state":"Uttar Pradesh","latitude":26.4499,"longitude":80.3319,"temp":36.0,"humidity":51,"rain":0.0,"pressure":983.8,"uv_index":8.1,"wind_gusts":30.2,"aqi":169,"pm10":278.5,"pm2_5":84.8,"no2":3.7,"co":202.0,"o3":154.0,"so2":8.0,"mosquito_risk":0,"arthritis_risk":5,"migraine_risk":10,"frizz_risk":1,"updated_at":"2026-07-17T15:30:13.501205+05:30"},{"city":"Chandigarh","state":"Chandigarh","latitude":30.7333,"longitude":76.7794,"temp":34.8,"humidity":50,"rain":0.0,"pressure":961.4,"uv_index":7.6,"wind_gusts":32.0,"aqi":176,"pm10":88.5,"pm2_5":52.9,"no2":3.0,"co":388.0,"o3":206.0,"so2":12.3,"mosquito_risk":0,"arthritis_risk":5,"migraine_risk":7,"frizz_risk":1,"updated_at":"2026-07-17T15:30:13.501213+05:30"},{"city":"Srinagar","state":"Jammu and Kashmir","latitude":34.0837,"longitude":74.7973,"temp":33.5,"humidity":36,"rain":0.0,"pressure":838.8,"uv_index":9.05,"wind_gusts":19.1,"aqi":124,"pm10":21.4,"pm2_5":15.5,"no2":1.0,"co":357.0,"o3":150.0,"so2":2.2,"mosquito_risk":0,"arthritis_risk":5,"migraine_risk":7,"frizz_risk":1,"updated_at":"2026-07-17T15:30:13.501220+05:30"},{"city":"Jammu","state":"Jammu and Kashmir","latitude":32.7266,"longitude":74.857,"temp":35.1,"humidity":57,"rain":0.0,"pressure":965.3,"uv_index":7.7,"wind_gusts":34.6,"aqi":154,"pm10":115.5,"pm2_5":57.9,"no2":2.3,"co":305.0,"o3":161.0,"so2":6.8,"mosquito_risk":0,"arthritis_risk":5,"migraine_risk":10,"frizz_risk":1,"updated_at":"2026-07-17T15:30:13.501226+05:30"},{"city":"Amritsar","state":"Punjab","latitude":31.634,"longitude":74.8723,"temp":36.1,"humidity":50,"rain":0.0,"pressure":972.9,"uv_index":8.35,"wind_gusts":20.9,"aqi":170,"pm10":106.6,"pm2_5":54.0,"no2":3.4,"co":344.0,"o3":203.0,"so2":9.9,"mosquito_risk":0,"arthritis_risk":5,"migraine_risk":10,"frizz_risk":1,"updated_at":"2026-07-17T15:30:13.501233+05:30"},{"city":"Ludhiana","state":"Punjab","latitude":30.901,"longitude":75.8573,"temp":37.1,"humidity":42,"rain":0.0,"pressure":971.1,"uv_index":7.2,"wind_gusts":32.8,"aqi":179,"pm10":117.6,"pm2_5":55.9,"no2":2.0,"co":334.0,"o3":176.0,"so2":5.6,"mosquito_risk":0,"arthritis_risk":5,"migraine_risk":10,"frizz_risk":1,"updated_at":"2026-07-17T15:30:13.501239+05:30"},{"city":"Jalandhar","state":"Punjab","latitude":31.326,"longitude":75.5762,"temp":35.6,"humidity":53,"rain":0.0,"pressure":972.1,"uv_index":8.15,"wind_gusts":26.6,"aqi":182,"pm10":108.0,"pm2_5":55.2,"no2":2.4,"co":305.0,"o3":183.0,"so2":6.6,"mosquito_risk":0,"arthritis_risk":5,"migraine_risk":10,"frizz_risk":1,"updated_at":"2026-07-17T15:30:13.501246+05:30"},{"city":"Dehradun","state":"Uttarakhand","latitude":30.6284,"longitude":78.0322,"temp":23.5,"humidity":79,"rain":0.1,"pressure":828.3,"uv_index":6.4,"wind_gusts":27.0,"aqi":121,"pm10":39.8,"pm2_5":32.0,"no2":1.0,"co":379.0,"o3":164.0,"so2":5.8,"mosquito_risk":6,"arthritis_risk":5,"migraine_risk":7,"frizz_risk":1,"updated_at":"2026-07-17T15:30:13.501255+05:30"},{"city":"Shimla","state":"Himachal Pradesh","latitude":31.1048,"longitude":77.1734,"temp":22.7,"humidity":63,"rain":0.0,"pressure":784.1,"uv_index":6.85,"wind_gusts":41.4,"aqi":117,"pm10":43.8,"pm2_5":31.8,"no2":1.0,"co":289.0,"o3":161.0,"so2":7.5,"mosquito_risk":3,"arthritis_risk":5,"migraine_risk":7,"frizz_risk":0,"updated_at":"2026-07-17T15:30:13.501262+05:30"},{"city":"Manali","state":"Himachal Pradesh","latitude":32.2396,"longitude":77.1887,"temp":25.2,"humidity":72,"rain":0.0,"pressure":818.3,"uv_index":7.05,"wind_gusts":33.1,"aqi":54,"pm10":13.4,"pm2_5":7.9,"no2":0.1,"co":180.0,"o3":146.0,"so2":1.1,"mosquito_risk":7,"arthritis_risk":5,"migraine_risk":7,"frizz_risk":1,"updated_at":"2026-07-17T15:30:13.501270+05:30"},{"city":"Gurgaon","state":"Haryana","latitude":28.4595,"longitude":77.0266,"temp":38.0,"humidity":36,"rain":0.0,"pressure":974.1,"uv_index":5.9,"wind_gusts":39.2,"aqi":497,"pm10":644.5,"pm2_5":126.2,"no2":8.0,"co":189.0,"o3":129.0,"so2":8.7,"mosquito_risk":0,"arthritis_risk":5,"migraine_risk":6,"frizz_risk":1,"updated_at":"2026-07-17T15:30:13.501277+05:30"},{"city":"Noida","state":"Uttar Pradesh","latitude":28.5355,"longitude":77.391,"temp":37.5,"humidity":41,"rain":0.0,"pressure":976.6,"uv_index":7.7,"wind_gusts":27.4,"aqi":497,"pm10":644.5,"pm2_5":126.2,"no2":8.0,"co":262.0,"o3":129.0,"so2":8.7,"mosquito_risk":0,"arthritis_risk":5,"migraine_risk":10,"frizz_risk":1,"updated_at":"2026-07-17T15:30:13.501283+05:30"},{"city":"Ghaziabad","state":"Uttar Pradesh","latitude":28.6692,"longitude":77.4538,"temp":36.5,"humidity":45,"rain":0.0,"pressure":974.9,"uv_index":7.7,"wind_gusts":29.5,"aqi":526,"pm10":446.1,"pm2_5":106.4,"no2":6.2,"co":179.0,"o3":159.0,"so2":14.6,"mosquito_risk":0,"arthritis_risk":5,"migraine_risk":10,"frizz_risk":1,"updated_at":"2026-07-17T15:30:13.501289+05:30"},{"city":"Faridabad","state":"Haryana","latitude":28.4089,"longitude":77.3178,"temp":37.9,"humidity":37,"rain":0.0,"pressure":976.0,"uv_index":6.05,"wind_gusts":34.9,"aqi":497,"pm10":644.5,"pm2_5":126.2,"no2":8.0,"co":183.0,"o3":129.0,"so2":8.7,"mosquito_risk":0,"arthritis_risk":5,"migraine_risk":10,"frizz_risk":1,"updated_at":"2026-07-17T15:30:13.501295+05:30"},{"city":"Meerut","state":"Uttar Pradesh","latitude":28.9845,"longitude":77.7064,"temp":34.9,"humidity":55,"rain":0.0,"pressure":973.8,"uv_index":7.0,"wind_gusts":33.8,"aqi":526,"pm10":446.1,"pm2_5":106.4,"no2":6.2,"co":183.0,"o3":159.0,"so2":14.6,"mosquito_risk":0,"arthritis_risk":5,"migraine_risk":7,"frizz_risk":1,"updated_at":"2026-07-17T15:30:13.501306+05:30"},{"city":"Agra","state":"Uttar Pradesh","latitude":27.1767,"longitude":78.0081,"temp":37.6,"humidity":41,"rain":0.0,"pressure":980.3,"uv_index":6.8,"wind_gusts":36.7,"aqi":152,"pm10":450.8,"pm2_5":99.2,"no2":5.6,"co":161.0,"o3":124.0,"so2":4.3,"mosquito_risk":0,"arthritis_risk":5,"migraine_risk":10,"frizz_risk":1,"updated_at":"2026-07-17T15:30:13.501313+05:30"},{"city":"Varanasi","state":"Uttar Pradesh","latitude":25.3176,"longitude":82.9739,"temp":31.8,"humidity":78,"rain":0.0,"pressure":988.8,"uv_index":6.15,"wind_gusts":25.9,"aqi":154,"pm10":53.6,"pm2_5":38.5,"no2":5.4,"co":358.0,"o3":151.0,"so2":6.9,"mosquito_risk":3,"arthritis_risk":5,"migraine_risk":7,"frizz_risk":1,"updated_at":"2026-07-17T15:30:13.501320+05:30"},{"city":"Prayagraj","state":"Uttar Pradesh","latitude":25.4358,"longitude":81.8463,"temp":30.0,"humidity":85,"rain":0.2,"pressure":988.0,"uv_index":7.8,"wind_gusts":26.6,"aqi":159,"pm10":124.3,"pm2_5":59.5,"no2":3.0,"co":194.0,"o3":161.0,"so2":9.0,"mosquito_risk":10,"arthritis_risk":5,"migraine_risk":7,"frizz_risk":1,"updated_at":"2026-07-17T15:30:13.501326+05:30"},{"city":"Gorakhpur","state":"Uttar Pradesh","latitude":26.7606,"longitude":83.3732,"temp":30.8,"humidity":83,"rain":0.2,"pressure":989.0,"uv_index":6.8,"wind_gusts":23.8,"aqi":91,"pm10":25.0,"pm2_5":23.6,"no2":2.1,"co":314.0,"o3":164.0,"so2":4.9,"mosquito_risk":6,"arthritis_risk":5,"migraine_risk":7,"frizz_risk":1,"updated_at":"2026-07-17T15:30:13.501333+05:30"},{"city":"Bareilly","state":"Uttar Pradesh","latitude":28.367,"longitude":79.4304,"temp":32.4,"humidity":73,"rain":0.0,"pressure":979.3,"uv_index":7.2,"wind_gusts":27.7,"aqi":167,"pm10":194.6,"pm2_5":79.4,"no2":5.4,"co":330.0,"o3":166.0,"so2":14.4,"mosquito_risk":3,"arthritis_risk":5,"migraine_risk":7,"frizz_risk":1,"updated_at":"2026-07-17T15:30:13.501341+05:30"},{"city":"Aligarh","state":"Uttar Pradesh","latitude":27.8974,"longitude":78.088,"temp":35.7,"humidity":49,"rain":0.0,"pressure":978.0,"uv_index":7.2,"wind_gusts":26.6,"aqi":335,"pm10":646.3,"pm2_5":144.4,"no2":6.6,"co":207.0,"o3":154.0,"so2":11.8,"mosquito_risk":0,"arthritis_risk":5,"migraine_risk":10,"frizz_risk":1,"updated_at":"2026-07-17T15:30:13.501348+05:30"},{"city":"Moradabad","state":"Uttar Pradesh","latitude":28.8386,"longitude":78.7733,"temp":29.9,"humidity":87,"rain":0.3,"pressure":976.0,"uv_index":7.35,"wind_gusts":29.9,"aqi":184,"pm10":218.4,"pm2_5":89.9,"no2":5.3,"co":364.0,"o3":205.0,"so2":15.8,"mosquito_risk":10,"arthritis_risk":5,"migraine_risk":7,"frizz_risk":1,"updated_at":"2026-07-17T15:30:13.501354+05:30"},{"city":"Saharanpur","state":"Uttar Pradesh","latitude":29.9637,"longitude":77.546,"temp":33.5,"humidity":63,"rain":0.0,"pressure":968.0,"uv_index":6.8,"wind_gusts":39.2,"aqi":173,"pm10":113.9,"pm2_5":59.4,"no2":3.9,"co":478.0,"o3":190.0,"so2":13.8,"mosquito_risk":3,"arthritis_risk":5,"migraine_risk":7,"frizz_risk":1,"updated_at":"2026-07-17T15:30:13.501360+05:30"},{"city":"Jhansi","state":"Uttar Pradesh","latitude":25.4484,"longitude":78.5685,"temp":34.9,"humidity":50,"rain":0.0,"pressure":971.5,"uv_index":7.45,"wind_gusts":31.0,"aqi":90,"pm10":124.3,"pm2_5":43.4,"no2":1.9,"co":129.0,"o3":103.0,"so2":3.9,"mosquito_risk":0,"arthritis_risk":5,"migraine_risk":7,"frizz_risk":1,"updated_at":"2026-07-17T15:30:17.097078+05:30"},{"city":"Surat","state":"Gujarat","latitude":21.1702,"longitude":72.8311,"temp":30.9,"humidity":72,"rain":0.0,"pressure":1003.0,"uv_index":7.7,"wind_gusts":42.8,"aqi":76,"pm10":32.0,"pm2_5":21.4,"no2":13.3,"co":263.0,"o3":50.0,"so2":40.2,"mosquito_risk":3,"arthritis_risk":5,"migraine_risk":4,"frizz_risk":1,"updated_at":"2026-07-17T15:30:17.097110+05:30"},{"city":"Vadodara","state":"Gujarat","latitude":22.3072,"longitude":73.1812,"temp":34.0,"humidity":54,"rain":0.0,"pressure":999.3,"uv_index":5.55,"wind_gusts":43.6,"aqi":70,"pm10":49.1,"pm2_5":20.9,"no2":3.0,"co":144.0,"o3":86.0,"so2":4.8,"mosquito_risk":0,"arthritis_risk":5,"migraine_risk":3,"frizz_risk":1,"updated_at":"2026-07-17T15:30:17.097120+05:30"},{"city":"Rajkot","state":"Gujarat","latitude":22.3039,"longitude":70.8022,"temp":33.3,"humidity":55,"rain":0.0,"pressure":989.3,"uv_index":6.85,"wind_gusts":42.1,"aqi":64,"pm10":40.0,"pm2_5":17.3,"no2":1.5,"co":102.0,"o3":79.0,"so2":4.2,"mosquito_risk":0,"arthritis_risk":5,"migraine_risk":7,"frizz_risk":1,"updated_at":"2026-07-17T15:30:17.097129+05:30"},{"city":"Thane","state":"Maharashtra","latitude":19.2183,"longitude":72.9781,"temp":27.5,"humidity":84,"rain":0.1,"pressure":1005.8,"uv_index":6.75,"wind_gusts":31.7,"aqi":69,"pm10":45.4,"pm2_5":23.9,"no2":11.3,"co":212.0,"o3":73.0,"so2":11.4,"mosquito_risk":10,"arthritis_risk":5,"migraine_risk":4,"frizz_risk":1,"updated_at":"2026-07-17T15:30:17.097138+05:30"},{"city":"Nagpur","state":"Maharashtra","latitude":21.1458,"longitude":79.0882,"temp":28.0,"humidity":81,"rain":0.2,"pressure":968.8,"uv_index":1.7,"wind_gusts":25.2,"aqi":95,"pm10":30.7,"pm2_5":23.8,"no2":16.6,"co":158.0,"o3":69.0,"so2":14.7,"mosquito_risk":10,"arthritis_risk":5,"migraine_risk":3,"frizz_risk":1,"updated_at":"2026-07-17T15:30:17.097147+05:30"},{"city":"Nashik","state":"Maharashtra","latitude":19.9975,"longitude":73.7898,"temp":26.4,"humidity":76,"rain":0.1,"pressure":942.9,"uv_index":7.75,"wind_gusts":47.2,"aqi":51,"pm10":15.3,"pm2_5":7.7,"no2":2.5,"co":115.0,"o3":61.0,"so2":1.7,"mosquito_risk":10,"arthritis_risk":5,"migraine_risk":7,"frizz_risk":1,"updated_at":"2026-07-17T15:30:17.097155+05:30"},{"city":"Aurangabad","state":"Maharashtra","latitude":19.8762,"longitude":75.3433,"temp":30.9,"humidity":53,"rain":0.0,"pressure":940.9,"uv_index":7.85,"wind_gusts":44.6,"aqi":60,"pm10":50.3,"pm2_5":20.7,"no2":2.2,"co":140.0,"o3":78.0,"so2":3.3,"mosquito_risk":0,"arthritis_risk":5,"migraine_risk":7,"frizz_risk":1,"updated_at":"2026-07-17T15:30:17.097162+05:30"},{"city":"Solapur","state":"Maharashtra","latitude":17.6599,"longitude":75.9064,"temp":27.6,"humidity":74,"rain":0.1,"pressure":954.3,"uv_index":6.0,"wind_gusts":34.2,"aqi":56,"pm10":27.0,"pm2_5":10.6,"no2":1.8,"co":115.0,"o3":72.0,"so2":1.7,"mosquito_risk":10,"arthritis_risk":5,"migraine_risk":3,"frizz_risk":1,"updated_at":"2026-07-17T15:30:17.097170+05:30"},{"city":"Kolhapur","state":"Maharashtra","latitude":16.705,"longitude":74.2433,"temp":25.1,"humidity":81,"rain":0.0,"pressure":946.6,"uv_index":8.1,"wind_gusts":46.8,"aqi":39,"pm10":16.9,"pm2_5":8.7,"no2":2.4,"co":127.0,"o3":56.0,"so2":1.5,"mosquito_risk":7,"arthritis_risk":5,"migraine_risk":7,"frizz_risk":1,"updated_at":"2026-07-17T15:30:17.097177+05:30"},{"city":"Goa","state":"Goa","latitude":15.2993,"longitude":74.124,"temp":27.2,"humidity":80,"rain":0.0,"pressure":998.1,"uv_index":7.85,"wind_gusts":31.7,"aqi":61,"pm10":25.6,"pm2_5":11.2,"no2":1.4,"co":132.0,"o3":57.0,"so2":1.0,"mosquito_risk":7,"arthritis_risk":5,"migraine_risk":7,"frizz_risk":1,"updated_at":"2026-07-17T15:30:17.097185+05:30"},{"city":"Jodhpur","state":"Rajasthan","latitude":26.2389,"longitude":73.0243,"temp":37.1,"humidity":36,"rain":0.0,"pressure":976.8,"uv_index":8.4,"wind_gusts":43.6,"aqi":125,"pm10":231.0,"pm2_5":44.7,"no2":0.9,"co":107.0,"o3":84.0,"so2":1.7,"mosquito_risk":0,"arthritis_risk":5,"migraine_risk":10,"frizz_risk":1,"updated_at":"2026-07-17T15:30:17.097193+05:30"},{"city":"Udaipur","state":"Rajasthan","latitude":24.5854,"longitude":73.7125,"temp":30.5,"humidity":58,"rain":0.1,"pressure":942.1,"uv_index":8.75,"wind_gusts":34.2,"aqi":78,"pm10":41.6,"pm2_5":17.3,"no2":0.8,"co":112.0,"o3":83.0,"so2":2.5,"mosquito_risk":3,"arthritis_risk":5,"migraine_risk":7,"frizz_risk":1,"updated_at":"2026-07-17T15:30:17.097200+05:30"},{"city":"Kota","state":"Rajasthan","latitude":25.2138,"longitude":75.8648,"temp":36.0,"humidity":43,"rain":0.0,"pressure":972.9,"uv_index":7.55,"wind_gusts":32.4,"aqi":88,"pm10":75.0,"pm2_5":30.2,"no2":1.7,"co":129.0,"o3":113.0,"so2":6.4,"mosquito_risk":0,"arthritis_risk":5,"migraine_risk":10,"frizz_risk":1,"updated_at":"2026-07-17T15:30:17.097207+05:30"},{"city":"Bikaner","state":"Rajasthan","latitude":28.0229,"longitude":73.3119,"temp":39.5,"humidity":29,"rain":0.0,"pressure":974.7,"uv_index":8.4,"wind_gusts":39.2,"aqi":127,"pm10":107.3,"pm2_5":36.4,"no2":0.4,"co":105.0,"o3":83.0,"so2":2.1,"mosquito_risk":0,"arthritis_risk":5,"migraine_risk":10,"frizz_risk":1,"updated_at":"2026-07-17T15:30:17.097214+05:30"},{"city":"Ajmer","state":"Rajasthan","latitude":26.4499,"longitude":74.6399,"temp":34.0,"humidity":45,"rain":0.0,"pressure":949.7,"uv_index":8.3,"wind_gusts":45.7,"aqi":82,"pm10":82.0,"pm2_5":30.4,"no2":1.0,"co":118.0,"o3":98.0,"so2":2.5,"mosquito_risk":0,"arthritis_risk":5,"migraine_risk":7,"frizz_risk":1,"updated_at":"2026-07-17T15:30:17.097221+05:30"},{"city":"Gwalior","state":"Madhya Pradesh","latitude":26.2183,"longitude":78.1828,"temp":35.2,"humidity":50,"rain":0.0,"pressure":976.4,"uv_index":7.15,"wind_gusts":41.0,"aqi":102,"pm10":155.5,"pm2_5":48.8,"no2":1.7,"co":131.0,"o3":103.0,"so2":2.8,"mosquito_risk":0,"arthritis_risk":5,"migraine_risk":10,"frizz_risk":1,"updated_at":"2026-07-17T15:30:17.097228+05:30"},{"city":"Indore","state":"Madhya Pradesh","latitude":22.7196,"longitude":75.8577,"temp":31.2,"humidity":56,"rain":0.0,"pressure":944.1,"uv_index":8.6,"wind_gusts":39.2,"aqi":76,"pm10":48.7,"pm2_5":21.5,"no2":2.8,"co":179.0,"o3":92.0,"so2":4.0,"mosquito_risk":0,"arthritis_risk":5,"migraine_risk":7,"frizz_risk":1,"updated_at":"2026-07-17T15:30:17.097235+05:30"},{"city":"Bhopal","state":"Madhya Pradesh","latitude":23.2599,"longitude":77.4126,"temp":31.5,"humidity":53,"rain":0.0,"pressure":949.2,"uv_index":8.3,"wind_gusts":33.5,"aqi":86,"pm10":58.0,"pm2_5":26.5,"no2":2.5,"co":183.0,"o3":102.0,"so2":5.3,"mosquito_risk":0,"arthritis_risk":5,"migraine_risk":7,"frizz_risk":1,"updated_at":"2026-07-17T15:30:17.097242+05:30"},{"city":"Jabalpur","state":"Madhya Pradesh","latitude":23.1815,"longitude":79.9864,"temp":27.7,"humidity":82,"rain":0.1,"pressure":955.7,"uv_index":3.6,"wind_gusts":38.5,"aqi":83,"pm10":42.7,"pm2_5":26.3,"no2":3.6,"co":206.0,"o3":97.0,"so2":5.2,"mosquito_risk":10,"arthritis_risk":5,"migraine_risk":3,"frizz_risk":1,"updated_at":"2026-07-17T15:30:17.097250+05:30"},{"city":"Ujjain","state":"Madhya Pradesh","latitude":23.1765,"longitude":75.7885,"temp":31.3,"humidity":59,"rain":0.1,"pressure":949.5,"uv_index":7.9,"wind_gusts":38.9,"aqi":76,"pm10":53.0,"pm2_5":23.9,"no2":1.7,"co":148.0,"o3":92.0,"so2":3.7,"mosquito_risk":3,"arthritis_risk":5,"migraine_risk":7,"frizz_risk":1,"updated_at":"2026-07-17T15:30:17.097258+05:30"},{"city":"Visakhapatnam","state":"Andhra Pradesh","latitude":17.6868,"longitude":83.2185,"temp":31.4,"humidity":68,"rain":0.1,"pressure":997.0,"uv_index":7.8,"wind_gusts":45.4,"aqi":93,"pm10":48.5,"pm2_5":28.0,"no2":9.2,"co":322.0,"o3":128.0,"so2":23.3,"mosquito_risk":6,"arthritis_risk":5,"migraine_risk":7,"frizz_risk":1,"updated_at":"2026-07-17T15:30:17.097265+05:30"},{"city":"Vijayawada","state":"Andhra Pradesh","latitude":16.5062,"longitude":80.648,"temp":30.5,"humidity":70,"rain":0.1,"pressure":998.0,"uv_index":2.6,"wind_gusts":40.7,"aqi":85,"pm10":47.0,"pm2_5":27.0,"no2":3.1,"co":167.0,"o3":108.0,"so2":7.0,"mosquito_risk":6,"arthritis_risk":5,"migraine_risk":3,"frizz_risk":1,"updated_at":"2026-07-17T15:30:17.097273+05:30"},{"city":"Guntur","state":"Andhra Pradesh","latitude":16.3067,"longitude":80.4365,"temp":35.7,"humidity":44,"rain":0.0,"pressure":998.8,"uv_index":3.65,"wind_gusts":43.9,"aqi":82,"pm10":39.8,"pm2_5":21.5,"no2":2.7,"co":150.0,"o3":99.0,"so2":5.3,"mosquito_risk":0,"arthritis_risk":5,"migraine_risk":6,"frizz_risk":1,"updated_at":"2026-07-17T15:30:17.097280+05:30"},{"city":"Nellore","state":"Andhra Pradesh","latitude":14.4426,"longitude":79.9865,"temp":35.4,"humidity":44,"rain":0.0,"pressure":1001.6,"uv_index":5.5,"wind_gusts":45.4,"aqi":65,"pm10":19.4,"pm2_5":10.7,"no2":2.5,"co":127.0,"o3":84.0,"so2":3.2,"mosquito_risk":0,"arthritis_risk":5,"migraine_risk":3,"frizz_risk":1,"updated_at":"2026-07-17T15:30:17.097289+05:30"},{"city":"Kurnool","state":"Andhra Pradesh","latitude":15.8281,"longitude":78.0373,"temp":31.3,"humidity":54,"rain":0.0,"pressure":974.2,"uv_index":5.55,"wind_gusts":41.8,"aqi":63,"pm10":33.4,"pm2_5":14.2,"no2":3.0,"co":122.0,"o3":70.0,"so2":5.3,"mosquito_risk":0,"arthritis_risk":5,"migraine_risk":3,"frizz_risk":1,"updated_at":"2026-07-17T15:30:17.097296+05:30"},{"city":"Kakinada","state":"Andhra Pradesh","latitude":16.9891,"longitude":82.2475,"temp":30.8,"humidity":69,"rain":0.2,"pressure":1002.3,"uv_index":8.15,"wind_gusts":49.3,"aqi":82,"pm10":46.3,"pm2_5":24.5,"no2":2.8,"co":176.0,"o3":119.0,"so2":4.5,"mosquito_risk":6,"arthritis_risk":5,"migraine_risk":4,"frizz_risk":1,"updated_at":"2026-07-17T15:30:17.097304+05:30"},{"city":"Tirupati","state":"Andhra Pradesh","latitude":13.6288,"longitude":79.4192,"temp":32.5,"humidity":50,"rain":0.2,"pressure":987.5,"uv_index":7.0,"wind_gusts":38.5,"aqi":83,"pm10":15.9,"pm2_5":9.0,"no2":3.8,"co":134.0,"o3":71.0,"so2":1.3,"mosquito_risk":3,"arthritis_risk":5,"migraine_risk":7,"frizz_risk":1,"updated_at":"2026-07-17T15:30:17.097311+05:30"},{"city":"Warangal","state":"Telangana","latitude":17.9689,"longitude":79.5941,"temp":31.8,"humidity":55,"rain":0.0,"pressure":974.7,"uv_index":5.65,"wind_gusts":38.9,"aqi":90,"pm10":34.1,"pm2_5":21.2,"no2":3.6,"co":182.0,"o3":82.0,"so2":5.1,"mosquito_risk":0,"arthritis_risk":5,"migraine_risk":3,"frizz_risk":1,"updated_at":"2026-07-17T15:30:17.097318+05:30"},{"city":"Nizamabad","state":"Telangana","latitude":18.6725,"longitude":78.0941,"temp":29.7,"humidity":63,"rain":0.0,"pressure":961.4,"uv_index":1.95,"wind_gusts":36.0,"aqi":79,"pm10":36.8,"pm2_5":20.4,"no2":3.9,"co":132.0,"o3":84.0,"so2":6.8,"mosquito_risk":7,"arthritis_risk":5,"migraine_risk":3,"frizz_risk":1,"updated_at":"2026-07-17T15:30:17.097325+05:30"},{"city":"Mysore","state":"Karnataka","latitude":12.2958,"longitude":76.6396,"temp":26.0,"humidity":66,"rain":0.0,"pressure":928.1,"uv_index":2.7,"wind_gusts":48.6,"aqi":40,"pm10":4.4,"pm2_5":2.8,"no2":4.5,"co":126.0,"o3":58.0,"so2":1.3,"mosquito_risk":7,"arthritis_risk":5,"migraine_risk":3,"frizz_risk":1,"updated_at":"2026-07-17T15:30:17.097332+05:30"},{"city":"Mangalore","state":"Karnataka","latitude":12.9141,"longitude":74.856,"temp":27.2,"humidity":80,"rain":0.0,"pressure":1007.8,"uv_index":1.2,"wind_gusts":31.3,"aqi":55,"pm10":26.1,"pm2_5":11.8,"no2":2.3,"co":101.0,"o3":57.0,"so2":1.8,"mosquito_risk":7,"arthritis_risk":5,"migraine_risk":0,"frizz_risk":1,"updated_at":"2026-07-17T15:30:17.097339+05:30"},{"city":"Hubli-Dharwad","state":"Karnataka","latitude":15.3647,"longitude":75.124,"temp":25.3,"humidity":75,"rain":0.0,"pressure":939.7,"uv_index":8.25,"wind_gusts":47.2,"aqi":29,"pm10":13.3,"pm2_5":6.5,"no2":2.0,"co":113.0,"o3":57.0,"so2":1.0,"mosquito_risk":7,"arthritis_risk":5,"migraine_risk":7,"frizz_risk":1,"updated_at":"2026-07-17T15:30:17.097346+05:30"},{"city":"Belgaum","state":"Karnataka","latitude":15.8497,"longitude":74.4977,"temp":23.6,"humidity":81,"rain":0.0,"pressure":924.7,"uv_index":8.7,"wind_gusts":49.7,"aqi":31,"pm10":15.5,"pm2_5":7.4,"no2":2.7,"co":121.0,"o3":56.0,"so2":1.5,"mosquito_risk":3,"arthritis_risk":5,"migraine_risk":7,"frizz_risk":1,"updated_at":"2026-07-17T15:30:20.587741+05:30"},{"city":"Coimbatore","state":"Tamil Nadu","latitude":11.0168,"longitude":76.9558,"temp":26.6,"humidity":73,"rain":0.0,"pressure":961.2,"uv_index":8.5,"wind_gusts":47.2,"aqi":51,"pm10":12.5,"pm2_5":5.8,"no2":2.4,"co":145.0,"o3":60.0,"so2":1.7,"mosquito_risk":7,"arthritis_risk":5,"migraine_risk":7,"frizz_risk":1,"updated_at":"2026-07-17T15:30:20.587774+05:30"},{"city":"Madurai","state":"Tamil Nadu","latitude":9.9252,"longitude":78.1198,"temp":35.1,"humidity":38,"rain":0.0,"pressure":991.2,"uv_index":8.6,"wind_gusts":37.1,"aqi":75,"pm10":32.9,"pm2_5":14.4,"no2":3.3,"co":136.0,"o3":84.0,"so2":2.2,"mosquito_risk":0,"arthritis_risk":5,"migraine_risk":10,"frizz_risk":1,"updated_at":"2026-07-17T15:30:20.587785+05:30"},{"city":"Trichy","state":"Tamil Nadu","latitude":10.7905,"longitude":78.7047,"temp":32.5,"humidity":46,"rain":0.0,"pressure":998.1,"uv_index":8.8,"wind_gusts":62.6,"aqi":61,"pm10":18.9,"pm2_5":9.8,"no2":3.3,"co":120.0,"o3":60.0,"so2":2.2,"mosquito_risk":0,"arthritis_risk":5,"migraine_risk":7,"frizz_risk":1,"updated_at":"2026-07-17T15:30:20.587794+05:30"},{"city":"Salem","state":"Tamil Nadu","latitude":11.6643,"longitude":78.146,"temp":30.4,"humidity":53,"rain":0.0,"pressure":976.3,"uv_index":7.3,"wind_gusts":30.2,"aqi":70,"pm10":25.3,"pm2_5":15.1,"no2":7.0,"co":144.0,"o3":73.0,"so2":8.6,"mosquito_risk":0,"arthritis_risk":5,"migraine_risk":7,"frizz_risk":1,"updated_at":"2026-07-17T15:30:20.587803+05:30"},{"city":"Tirunelveli","state":"Tamil Nadu","latitude":8.7139,"longitude":77.7567,"temp":35.2,"humidity":40,"rain":0.0,"pressure":1001.4,"uv_index":8.25,"wind_gusts":46.4,"aqi":52,"pm10":15.7,"pm2_5":8.7,"no2":1.5,"co":116.0,"o3":74.0,"so2":1.3,"mosquito_risk":0,"arthritis_risk":5,"migraine_risk":7,"frizz_risk":1,"updated_at":"2026-07-17T15:30:20.587811+05:30"},{"city":"Vellore","state":"Tamil Nadu","latitude":12.9165,"longitude":79.1325,"temp":35.2,"humidity":39,"rain":0.0,"pressure":981.1,"uv_index":7.65,"wind_gusts":43.2,"aqi":73,"pm10":13.6,"pm2_5":7.2,"no2":2.9,"co":163.0,"o3":76.0,"so2":2.2,"mosquito_risk":0,"arthritis_risk":5,"migraine_risk":10,"frizz_risk":1,"updated_at":"2026-07-17T15:30:20.587818+05:30"},{"city":"Erode","state":"Tamil Nadu","latitude":11.341,"longitude":77.7172,"temp":31.9,"humidity":48,"rain":0.0,"pressure":987.9,"uv_index":8.8,"wind_gusts":39.6,"aqi":58,"pm10":14.1,"pm2_5":8.8,"no2":5.2,"co":172.0,"o3":67.0,"so2":2.7,"mosquito_risk":0,"arthritis_risk":5,"migraine_risk":7,"frizz_risk":1,"updated_at":"2026-07-17T15:30:20.587826+05:30"},{"city":"Kochi","state":"Kerala","latitude":9.9312,"longitude":76.2673,"temp":28.0,"humidity":78,"rain":0.0,"pressure":1009.7,"uv_index":7.7,"wind_gusts":31.0,"aqi":61,"pm10":14.6,"pm2_5":8.4,"no2":2.6,"co":114.0,"o3":65.0,"so2":2.2,"mosquito_risk":7,"arthritis_risk":0,"migraine_risk":4,"frizz_risk":1,"updated_at":"2026-07-17T15:30:20.587833+05:30"},{"city":"Thiruvananthapuram","state":"Kerala","latitude":8.5241,"longitude":76.9366,"temp":27.3,"humidity":78,"rain":0.0,"pressure":1009.0,"uv_index":8.35,"wind_gusts":47.2,"aqi":62,"pm10":23.9,"pm2_5":13.4,"no2":2.3,"co":103.0,"o3":73.0,"so2":1.2,"mosquito_risk":7,"arthritis_risk":0,"migraine_risk":4,"frizz_risk":1,"updated_at":"2026-07-17T15:30:20.587841+05:30"},{"city":"Kozhikode","state":"Kerala","latitude":11.2588,"longitude":75.7804,"temp":28.0,"humidity":79,"rain":0.0,"pressure":1008.8,"uv_index":1.4,"wind_gusts":27.0,"aqi":55,"pm10":20.7,"pm2_5":8.6,"no2":0.6,"co":119.0,"o3":61.0,"so2":0.9,"mosquito_risk":7,"arthritis_risk":0,"migraine_risk":0,"frizz_risk":1,"updated_at":"2026-07-17T15:30:20.587848+05:30"},{"city":"Thrissur","state":"Kerala","latitude":10.5276,"longitude":76.2144,"temp":28.3,"humidity":75,"rain":0.0,"pressure":1007.9,"uv_index":3.9,"wind_gusts":32.0,"aqi":56,"pm10":11.6,"pm2_5":6.7,"no2":1.8,"co":102.0,"o3":66.0,"so2":1.6,"mosquito_risk":7,"arthritis_risk":5,"migraine_risk":0,"frizz_risk":1,"updated_at":"2026-07-17T15:30:20.587856+05:30"},{"city":"Kannur","state":"Kerala","latitude":11.8745,"longitude":75.3704,"temp":27.0,"humidity":82,"rain":0.0,"pressure":1008.4,"uv_index":1.9,"wind_gusts":30.2,"aqi":53,"pm10":23.9,"pm2_5":10.7,"no2":1.6,"co":124.0,"o3":59.0,"so2":1.2,"mosquito_risk":7,"arthritis_risk":0,"migraine_risk":0,"frizz_risk":1,"updated_at":"2026-07-17T15:30:20.587863+05:30"},{"city":"Patna","state":"Bihar","latitude":25.5941,"longitude":85.1376,"temp":33.5,"humidity":69,"rain":0.0,"pressure":990.6,"uv_index":8.45,"wind_gusts":27.4,"aqi":108,"pm10":31.2,"pm2_5":29.7,"no2":4.4,"co":277.0,"o3":143.0,"so2":6.5,"mosquito_risk":3,"arthritis_risk":5,"migraine_risk":7,"frizz_risk":1,"updated_at":"2026-07-17T15:30:20.587869+05:30"},{"city":"Gaya","state":"Bihar","latitude":24.7914,"longitude":85.0002,"temp":33.4,"humidity":63,"rain":0.0,"pressure":983.9,"uv_index":7.4,"wind_gusts":23.0,"aqi":104,"pm10":20.3,"pm2_5":19.4,"no2":3.5,"co":261.0,"o3":138.0,"so2":6.3,"mosquito_risk":3,"arthritis_risk":5,"migraine_risk":7,"frizz_risk":1,"updated_at":"2026-07-17T15:30:20.587877+05:30"},{"city":"Muzaffarpur","state":"Bihar","latitude":26.1209,"longitude":85.3647,"temp":33.2,"humidity":67,"rain":0.0,"pressure":990.8,"uv_index":7.4,"wind_gusts":30.6,"aqi":99,"pm10":22.4,"pm2_5":21.2,"no2":5.0,"co":242.0,"o3":127.0,"so2":5.6,"mosquito_risk":3,"arthritis_risk":5,"migraine_risk":7,"frizz_risk":1,"updated_at":"2026-07-17T15:30:20.587884+05:30"},{"city":"Bhagalpur","state":"Bihar","latitude":25.2425,"longitude":87.0117,"temp":33.0,"humidity":71,"rain":0.0,"pressure":991.1,"uv_index":7.7,"wind_gusts":30.2,"aqi":73,"pm10":17.7,"pm2_5":15.7,"no2":5.1,"co":274.0,"o3":128.0,"so2":10.2,"mosquito_risk":3,"arthritis_risk":5,"migraine_risk":7,"frizz_risk":1,"updated_at":"2026-07-17T15:30:20.587890+05:30"},{"city":"Ranchi","state":"Jharkhand","latitude":23.3441,"longitude":85.3096,"temp":28.6,"humidity":79,"rain":0.0,"pressure":929.7,"uv_index":8.85,"wind_gusts":27.4,"aqi":72,"pm10":13.6,"pm2_5":13.0,"no2":4.7,"co":264.0,"o3":118.0,"so2":6.2,"mosquito_risk":7,"arthritis_risk":5,"migraine_risk":7,"frizz_risk":1,"updated_at":"2026-07-17T15:30:20.587897+05:30"},{"city":"Jamshedpur","state":"Jharkhand","latitude":22.8046,"longitude":86.2029,"temp":29.7,"humidity":82,"rain":0.1,"pressure":981.5,"uv_index":8.7,"wind_gusts":22.7,"aqi":89,"pm10":34.9,"pm2_5":34.5,"no2":13.9,"co":317.0,"o3":140.0,"so2":34.2,"mosquito_risk":10,"arthritis_risk":5,"migraine_risk":7,"frizz_risk":1,"updated_at":"2026-07-17T15:30:20.587904+05:30"},{"city":"Dhanbad","state":"Jharkhand","latitude":23.7957,"longitude":86.4304,"temp":30.7,"humidity":80,"rain":0.0,"pressure":970.4,"uv_index":7.15,"wind_gusts":20.2,"aqi":93,"pm10":35.0,"pm2_5":34.5,"no2":25.2,"co":248.0,"o3":125.0,"so2":65.1,"mosquito_risk":3,"arthritis_risk":5,"migraine_risk":7,"frizz_risk":1,"updated_at":"2026-07-17T15:30:20.587912+05:30"},{"city":"Bokaro","state":"Jharkhand","latitude":23.6693,"longitude":86.1511,"temp":30.7,"humidity":78,"rain":0.0,"pressure":974.3,"uv_index":7.7,"wind_gusts":26.3,"aqi":94,"pm10":28.6,"pm2_5":28.4,"no2":25.2,"co":266.0,"o3":103.0,"so2":65.8,"mosquito_risk":3,"arthritis_risk":5,"migraine_risk":7,"frizz_risk":1,"updated_at":"2026-07-17T15:30:20.587919+05:30"},{"city":"Bhubaneswar","state":"Odisha","latitude":20.2961,"longitude":85.8245,"temp":29.9,"humidity":79,"rain":0.1,"pressure":994.6,"uv_index":7.55,"wind_gusts":37.1,"aqi":75,"pm10":16.2,"pm2_5":12.3,"no2":4.3,"co":222.0,"o3":94.0,"so2":3.2,"mosquito_risk":10,"arthritis_risk":5,"migraine_risk":7,"frizz_risk":1,"updated_at":"2026-07-17T15:30:20.587926+05:30"},{"city":"Cuttack","state":"Odisha","latitude":20.4625,"longitude":85.8828,"temp":29.0,"humidity":89,"rain":0.1,"pressure":996.3,"uv_index":7.5,"wind_gusts":33.8,"aqi":75,"pm10":16.2,"pm2_5":12.3,"no2":4.3,"co":235.0,"o3":94.0,"so2":3.2,"mosquito_risk":10,"arthritis_risk":5,"migraine_risk":7,"frizz_risk":1,"updated_at":"2026-07-17T15:30:20.587934+05:30"},{"city":"Rourkela","state":"Odisha","latitude":22.2604,"longitude":84.8536,"temp":30.3,"humidity":77,"rain":0.1,"pressure":976.2,"uv_index":6.45,"wind_gusts":27.0,"aqi":75,"pm10":17.1,"pm2_5":15.8,"no2":4.1,"co":295.0,"o3":127.0,"so2":6.6,"mosquito_risk":6,"arthritis_risk":5,"migraine_risk":7,"frizz_risk":1,"updated_at":"2026-07-17T15:30:20.587941+05:30"},{"city":"Raipur","state":"Chhattisgarh","latitude":21.2514,"longitude":81.6296,"temp":29.9,"humidity":73,"rain":0.0,"pressure":968.4,"uv_index":1.05,"wind_gusts":41.4,"aqi":104,"pm10":31.3,"pm2_5":25.5,"no2":28.1,"co":321.0,"o3":60.0,"so2":55.8,"mosquito_risk":7,"arthritis_risk":5,"migraine_risk":3,"frizz_risk":1,"updated_at":"2026-07-17T15:30:20.587948+05:30"},{"city":"Bhilai","state":"Chhattisgarh","latitude":21.1938,"longitude":81.3509,"temp":29.3,"humidity":74,"rain":0.0,"pressure":969.2,"uv_index":2.5,"wind_gusts":41.4,"aqi":97,"pm10":25.4,"pm2_5":19.6,"no2":20.7,"co":916.0,"o3":65.0,"so2":38.1,"mosquito_risk":7,"arthritis_risk":5,"migraine_risk":3,"frizz_risk":1,"updated_at":"2026-07-17T15:30:20.587955+05:30"},{"city":"Guwahati","state":"Assam","latitude":26.1158,"longitude":91.7086,"temp":28.0,"humidity":95,"rain":0.1,"pressure":993.6,"uv_index":7.3,"wind_gusts":24.5,"aqi":56,"pm10":13.2,"pm2_5":10.0,"no2":2.6,"co":235.0,"o3":94.0,"so2":1.8,"mosquito_risk":10,"arthritis_risk":5,"migraine_risk":7,"frizz_risk":1,"updated_at":"2026-07-17T15:30:20.587962+05:30"},{"city":"Agartala","state":"Tripura","latitude":23.8315,"longitude":91.2868,"temp":29.2,"humidity":82,"rain":0.1,"pressure":999.2,"uv_index":7.55,"wind_gusts":51.8,"aqi":60,"pm10":11.6,"pm2_5":9.9,"no2":3.8,"co":148.0,"o3":84.0,"so2":1.5,"mosquito_risk":10,"arthritis_risk":5,"migraine_risk":7,"frizz_risk":1,"updated_at":"2026-07-17T15:30:20.587969+05:30"},{"city":"Shillong","state":"Meghalaya","latitude":25.5788,"longitude":91.8933,"temp":22.7,"humidity":84,"rain":0.0,"pressure":852.6,"uv_index":4.4,"wind_gusts":48.2,"aqi":40,"pm10":9.0,"pm2_5":6.8,"no2":3.2,"co":159.0,"o3":89.0,"so2":2.3,"mosquito_risk":3,"arthritis_risk":5,"migraine_risk":3,"frizz_risk":1,"updated_at":"2026-07-17T15:30:20.587976+05:30"},{"city":"Imphal","state":"Manipur","latitude":24.817,"longitude":93.9368,"temp":26.1,"humidity":77,"rain":0.0,"pressure":918.7,"uv_index":5.3,"wind_gusts":20.5,"aqi":61,"pm10":21.0,"pm2_5":11.8,"no2":1.7,"co":160.0,"o3":87.0,"so2":1.9,"mosquito_risk":7,"arthritis_risk":5,"migraine_risk":3,"frizz_risk":1,"updated_at":"2026-07-17T15:30:20.587983+05:30"},{"city":"Aizawl","state":"Mizoram","latitude":23.7271,"longitude":92.7176,"temp":22.1,"humidity":85,"rain":0.0,"pressure":888.5,"uv_index":6.15,"wind_gusts":42.5,"aqi":59,"pm10":12.6,"pm2_5":9.2,"no2":1.5,"co":119.0,"o3":68.0,"so2":1.0,"mosquito_risk":3,"arthritis_risk":5,"migraine_risk":7,"frizz_risk":1,"updated_at":"2026-07-17T15:30:20.587989+05:30"},{"city":"Kohima","state":"Nagaland","latitude":25.6701,"longitude":94.1077,"temp":22.6,"humidity":91,"rain":0.0,"pressure":851.5,"uv_index":3.25,"wind_gusts":23.0,"aqi":50,"pm10":20.8,"pm2_5":11.3,"no2":1.5,"co":160.0,"o3":84.0,"so2":1.5,"mosquito_risk":3,"arthritis_risk":5,"migraine_risk":3,"frizz_risk":1,"updated_at":"2026-07-17T15:30:20.587997+05:30"},{"city":"Gangtok","state":"Sikkim","latitude":27.3314,"longitude":88.6138,"temp":21.6,"humidity":90,"rain":0.0,"pressure":834.1,"uv_index":6.75,"wind_gusts":30.6,"aqi":46,"pm10":4.0,"pm2_5":3.3,"no2":2.4,"co":192.0,"o3":101.0,"so2":1.3,"mosquito_risk":3,"arthritis_risk":5,"migraine_risk":7,"frizz_risk":1,"updated_at":"2026-07-17T15:30:20.588004+05:30"},{"city":"Siliguri","state":"West Bengal","latitude":26.7271,"longitude":88.3953,"temp":29.1,"humidity":88,"rain":0.1,"pressure":984.8,"uv_index":7.85,"wind_gusts":29.2,"aqi":69,"pm10":16.7,"pm2_5":12.7,"no2":2.8,"co":331.0,"o3":120.0,"so2":2.3,"mosquito_risk":10,"arthritis_risk":5,"migraine_risk":7,"frizz_risk":1,"updated_at":"2026-07-17T15:30:25.209953+05:30"},{"city":"Durgapur","state":"West Bengal","latitude":23.5204,"longitude":87.3119,"temp":29.4,"humidity":86,"rain":0.0,"pressure":985.5,"uv_index":8.55,"wind_gusts":28.4,"aqi":81,"pm10":27.2,"pm2_5":26.9,"no2":21.1,"co":324.0,"o3":119.0,"so2":41.6,"mosquito_risk":7,"arthritis_risk":5,"migraine_risk":7,"frizz_risk":1,"updated_at":"2026-07-17T15:30:25.209986+05:30"},{"city":"Asansol","state":"West Bengal","latitude":23.6739,"longitude":86.9524,"temp":31.6,"humidity":74,"rain":0.0,"pressure":983.6,"uv_index":8.05,"wind_gusts":29.5,"aqi":79,"pm10":28.2,"pm2_5":27.6,"no2":19.8,"co":318.0,"o3":132.0,"so2":42.0,"mosquito_risk":3,"arthritis_risk":5,"migraine_risk":7,"frizz_risk":1,"updated_at":"2026-07-17T15:30:25.209998+05:30"},{"city":"Pondicherry","state":"Puducherry","latitude":11.9139,"longitude":79.8145,"temp":33.0,"humidity":56,"rain":0.0,"pressure":1005.2,"uv_index":8.8,"wind_gusts":38.5,"aqi":74,"pm10":35.2,"pm2_5":24.4,"no2":7.0,"co":221.0,"o3":143.0,"so2":11.0,"mosquito_risk":0,"arthritis_risk":5,"migraine_risk":4,"frizz_risk":1,"updated_at":"2026-07-17T15:30:25.210007+05:30"},{"city":"Port Blair","state":"Andaman and Nicobar Islands","latitude":11.6234,"longitude":92.7265,"temp":29.3,"humidity":75,"rain":0.1,"pressure":1006.3,"uv_index":7.3,"wind_gusts":37.8,"aqi":45,"pm10":14.6,"pm2_5":6.9,"no2":0.4,"co":95.0,"o3":44.0,"so2":0.5,"mosquito_risk":10,"arthritis_risk":5,"migraine_risk":4,"frizz_risk":1,"updated_at":"2026-07-17T15:30:25.210015+05:30"},{"city":"Haridwar","state":"Uttarakhand","latitude":29.9457,"longitude":78.1642,"temp":34.7,"humidity":55,"rain":0.0,"pressure":966.4,"uv_index":7.35,"wind_gusts":26.3,"aqi":161,"pm10":83.8,"pm2_5":59.4,"no2":2.1,"co":379.0,"o3":204.0,"so2":13.6,"mosquito_risk":0,"arthritis_risk":5,"migraine_risk":7,"frizz_risk":1,"updated_at":"2026-07-17T15:30:25.210023+05:30"},{"city":"Rishikesh","state":"Uttarakhand","latitude":30.0869,"longitude":78.2676,"temp":33.3,"humidity":62,"rain":0.0,"pressure":959.3,"uv_index":7.4,"wind_gusts":25.9,"aqi":147,"pm10":88.0,"pm2_5":54.2,"no2":1.5,"co":404.0,"o3":187.0,"so2":10.3,"mosquito_risk":3,"arthritis_risk":5,"migraine_risk":7,"frizz_risk":1,"updated_at":"2026-07-17T15:30:25.210031+05:30"},{"city":"Nainital","state":"Uttarakhand","latitude":29.3919,"longitude":79.4542,"temp":22.0,"humidity":77,"rain":0.1,"pressure":803.6,"uv_index":6.15,"wind_gusts":28.8,"aqi":140,"pm10":116.2,"pm2_5":58.2,"no2":2.0,"co":295.0,"o3":172.0,"so2":11.5,"mosquito_risk":6,"arthritis_risk":5,"migraine_risk":7,"frizz_risk":1,"updated_at":"2026-07-17T15:30:25.210039+05:30"},{"city":"Mussoorie","state":"Uttarakhand","latitude":30.4599,"longitude":78.0664,"temp":22.1,"humidity":78,"rain":0.0,"pressure":801.5,"uv_index":6.65,"wind_gusts":39.2,"aqi":159,"pm10":58.3,"pm2_5":49.8,"no2":2.9,"co":392.0,"o3":193.0,"so2":10.4,"mosquito_risk":3,"arthritis_risk":5,"migraine_risk":7,"frizz_risk":1,"updated_at":"2026-07-17T15:30:25.210047+05:30"},{"city":"Dharamshala","state":"Himachal Pradesh","latitude":32.219,"longitude":76.3234,"temp":24.6,"humidity":86,"rain":0.1,"pressure":865.7,"uv_index":8.15,"wind_gusts":31.0,"aqi":103,"pm10":22.7,"pm2_5":16.8,"no2":1.1,"co":312.0,"o3":146.0,"so2":1.9,"mosquito_risk":6,"arthritis_risk":5,"migraine_risk":7,"frizz_risk":1,"updated_at":"2026-07-17T15:30:25.210054+05:30"},{"city":"Dalhousie","state":"Himachal Pradesh","latitude":32.5387,"longitude":75.971,"temp":22.0,"humidity":83,"rain":0.2,"pressure":803.2,"uv_index":7.8,"wind_gusts":24.8,"aqi":142,"pm10":59.6,"pm2_5":38.2,"no2":1.8,"co":289.0,"o3":164.0,"so2":3.8,"mosquito_risk":6,"arthritis_risk":5,"migraine_risk":7,"frizz_risk":1,"updated_at":"2026-07-17T15:30:25.210062+05:30"},{"city":"Patiala","state":"Punjab","latitude":30.3398,"longitude":76.3869,"temp":35.2,"humidity":53,"rain":0.0,"pressure":970.7,"uv_index":6.6,"wind_gusts":31.7,"aqi":192,"pm10":248.7,"pm2_5":75.0,"no2":2.5,"co":277.0,"o3":167.0,"so2":7.7,"mosquito_risk":0,"arthritis_risk":5,"migraine_risk":10,"frizz_risk":1,"updated_at":"2026-07-17T15:30:25.210069+05:30"},{"city":"Bhatinda","state":"Punjab","latitude":30.211,"longitude":74.9455,"temp":39.1,"humidity":32,"rain":0.0,"pressure":976.1,"uv_index":7.65,"wind_gusts":30.6,"aqi":174,"pm10":159.7,"pm2_5":50.5,"no2":1.9,"co":139.0,"o3":115.0,"so2":5.1,"mosquito_risk":0,"arthritis_risk":5,"migraine_risk":10,"frizz_risk":1,"updated_at":"2026-07-17T15:30:25.210076+05:30"},{"city":"Rohtak","state":"Haryana","latitude":28.8955,"longitude":76.6066,"temp":36.7,"humidity":42,"rain":0.0,"pressure":974.3,"uv_index":6.55,"wind_gusts":33.8,"aqi":814,"pm10":774.9,"pm2_5":135.5,"no2":3.5,"co":161.0,"o3":118.0,"so2":5.0,"mosquito_risk":0,"arthritis_risk":5,"migraine_risk":10,"frizz_risk":1,"updated_at":"2026-07-17T15:30:25.210083+05:30"},{"city":"Panipat","state":"Haryana","latitude":29.3909,"longitude":76.9635,"temp":35.4,"humidity":51,"rain":0.0,"pressure":972.9,"uv_index":7.5,"wind_gusts":31.7,"aqi":1248,"pm10":2145.8,"pm2_5":258.0,"no2":3.6,"co":160.0,"o3":125.0,"so2":8.7,"mosquito_risk":0,"arthritis_risk":5,"migraine_risk":10,"frizz_risk":1,"updated_at":"2026-07-17T15:30:25.210090+05:30"},{"city":"Mathura","state":"Uttar Pradesh","latitude":27.4924,"longitude":77.6737,"temp":36.9,"humidity":44,"rain":0.0,"pressure":979.3,"uv_index":7.25,"wind_gusts":32.0,"aqi":611,"pm10":920.1,"pm2_5":156.0,"no2":7.9,"co":197.0,"o3":103.0,"so2":3.6,"mosquito_risk":0,"arthritis_risk":5,"migraine_risk":10,"frizz_risk":1,"updated_at":"2026-07-17T15:30:25.210097+05:30"},{"city":"Vrindavan","state":"Uttar Pradesh","latitude":27.5823,"longitude":77.7027,"temp":36.5,"humidity":46,"rain":0.0,"pressure":979.7,"uv_index":7.05,"wind_gusts":31.7,"aqi":611,"pm10":920.1,"pm2_5":156.0,"no2":7.9,"co":192.0,"o3":103.0,"so2":3.6,"mosquito_risk":0,"arthritis_risk":5,"migraine_risk":10,"frizz_risk":1,"updated_at":"2026-07-17T15:30:25.210104+05:30"},{"city":"Ayodhya","state":"Uttar Pradesh","latitude":26.7922,"longitude":82.1998,"temp":29.4,"humidity":93,"rain":0.3,"pressure":987.4,"uv_index":8.15,"wind_gusts":18.4,"aqi":111,"pm10":39.2,"pm2_5":31.8,"no2":2.2,"co":304.0,"o3":167.0,"so2":3.8,"mosquito_risk":10,"arthritis_risk":5,"migraine_risk":7,"frizz_risk":1,"updated_at":"2026-07-17T15:30:25.210111+05:30"},{"city":"Ratlam","state":"Madhya Pradesh","latitude":23.3315,"longitude":75.0367,"temp":31.8,"humidity":60,"rain":0.0,"pressure":950.4,"uv_index":8.5,"wind_gusts":34.6,"aqi":74,"pm10":58.0,"pm2_5":25.0,"no2":1.3,"co":123.0,"o3":91.0,"so2":3.6,"mosquito_risk":0,"arthritis_risk":5,"migraine_risk":7,"frizz_risk":1,"updated_at":"2026-07-17T15:30:25.210118+05:30"},{"city":"Sagar","state":"Madhya Pradesh","latitude":23.8388,"longitude":78.7378,"temp":26.0,"humidity":95,"rain":0.2,"pressure":945.2,"uv_index":7.7,"wind_gusts":39.6,"aqi":86,"pm10":62.4,"pm2_5":30.0,"no2":1.9,"co":148.0,"o3":108.0,"so2":6.0,"mosquito_risk":10,"arthritis_risk":5,"migraine_risk":7,"frizz_risk":1,"updated_at":"2026-07-17T15:30:25.210124+05:30"},{"city":"Satna","state":"Madhya Pradesh","latitude":24.6005,"longitude":80.8322,"temp":27.2,"humidity":92,"rain":0.2,"pressure":964.5,"uv_index":8.45,"wind_gusts":41.4,"aqi":127,"pm10":99.0,"pm2_5":40.2,"no2":1.8,"co":151.0,"o3":124.0,"so2":3.9,"mosquito_risk":10,"arthritis_risk":5,"migraine_risk":7,"frizz_risk":1,"updated_at":"2026-07-17T15:30:25.210131+05:30"},{"city":"Akola","state":"Maharashtra","latitude":20.7002,"longitude":77.0082,"temp":32.0,"humidity":54,"rain":0.0,"pressure":971.2,"uv_index":8.65,"wind_gusts":42.1,"aqi":69,"pm10":40.0,"pm2_5":18.0,"no2":3.3,"co":117.0,"o3":81.0,"so2":7.3,"mosquito_risk":0,"arthritis_risk":5,"migraine_risk":7,"frizz_risk":1,"updated_at":"2026-07-17T15:30:25.210139+05:30"},{"city":"Amravati","state":"Maharashtra","latitude":20.9374,"longitude":77.7796,"temp":30.8,"humidity":56,"rain":0.0,"pressure":963.4,"uv_index":7.8,"wind_gusts":39.6,"aqi":70,"pm10":41.7,"pm2_5":19.8,"no2":4.1,"co":124.0,"o3":77.0,"so2":8.9,"mosquito_risk":0,"arthritis_risk":5,"migraine_risk":7,"frizz_risk":1,"updated_at":"2026-07-17T15:30:25.210147+05:30"},{"city":"Latur","state":"Maharashtra","latitude":18.4088,"longitude":76.5604,"temp":26.2,"humidity":80,"rain":0.0,"pressure":936.9,"uv_index":8.15,"wind_gusts":35.3,"aqi":61,"pm10":25.6,"pm2_5":10.5,"no2":1.7,"co":124.0,"o3":71.0,"so2":2.0,"mosquito_risk":7,"arthritis_risk":5,"migraine_risk":7,"frizz_risk":1,"updated_at":"2026-07-17T15:30:25.210155+05:30"},{"city":"Nanded","state":"Maharashtra","latitude":19.1383,"longitude":77.3091,"temp":31.1,"humidity":59,"rain":0.0,"pressure":965.0,"uv_index":8.4,"wind_gusts":33.8,"aqi":74,"pm10":37.4,"pm2_5":18.9,"no2":3.9,"co":135.0,"o3":78.0,"so2":4.7,"mosquito_risk":0,"arthritis_risk":5,"migraine_risk":7,"frizz_risk":1,"updated_at":"2026-07-17T15:30:25.210162+05:30"},{"city":"Gulbarga","state":"Karnataka","latitude":17.3297,"longitude":76.8343,"temp":30.3,"humidity":56,"rain":0.0,"pressure":956.0,"uv_index":7.7,"wind_gusts":41.8,"aqi":57,"pm10":28.1,"pm2_5":11.3,"no2":2.8,"co":126.0,"o3":71.0,"so2":2.2,"mosquito_risk":0,"arthritis_risk":5,"migraine_risk":7,"frizz_risk":1,"updated_at":"2026-07-17T15:30:25.210169+05:30"},{"city":"Bidar","state":"Karnataka","latitude":17.9104,"longitude":77.5199,"temp":24.4,"humidity":92,"rain":0.2,"pressure":932.6,"uv_index":7.95,"wind_gusts":31.0,"aqi":73,"pm10":38.8,"pm2_5":17.7,"no2":4.4,"co":156.0,"o3":68.0,"so2":2.7,"mosquito_risk":6,"arthritis_risk":5,"migraine_risk":7,"frizz_risk":1,"updated_at":"2026-07-17T15:30:25.210175+05:30"},{"city":"Hospet","state":"Karnataka","latitude":15.2689,"longitude":76.3909,"temp":25.9,"humidity":76,"rain":0.1,"pressure":954.4,"uv_index":4.4,"wind_gusts":48.2,"aqi":39,"pm10":13.6,"pm2_5":7.1,"no2":2.8,"co":120.0,"o3":60.0,"so2":1.8,"mosquito_risk":10,"arthritis_risk":5,"migraine_risk":3,"frizz_risk":1,"updated_at":"2026-07-17T15:30:25.210182+05:30"},{"city":"Tirupur","state":"Tamil Nadu","latitude":11.1085,"longitude":77.3411,"temp":27.4,"humidity":67,"rain":0.0,"pressure":974.4,"uv_index":8.55,"wind_gusts":49.0,"aqi":61,"pm10":15.4,"pm2_5":9.1,"no2":4.6,"co":137.0,"o3":69.0,"so2":3.0,"mosquito_risk":7,"arthritis_risk":5,"migraine_risk":7,"frizz_risk":1,"updated_at":"2026-07-17T15:30:25.210188+05:30"},{"city":"Alappuzha","state":"Kerala","latitude":9.4981,"longitude":76.3388,"temp":27.8,"humidity":79,"rain":0.0,"pressure":1009.7,"uv_index":7.85,"wind_gusts":37.8,"aqi":62,"pm10":20.5,"pm2_5":11.3,"no2":2.6,"co":94.0,"o3":76.0,"so2":2.6,"mosquito_risk":7,"arthritis_risk":0,"migraine_risk":4,"frizz_risk":1,"updated_at":"2026-07-17T15:30:25.210195+05:30"},{"city":"Munnar","state":"Kerala","latitude":10.0889,"longitude":77.0595,"temp":17.9,"humidity":91,"rain":0.1,"pressure":856.9,"uv_index":9.0,"wind_gusts":38.9,"aqi":42,"pm10":12.5,"pm2_5":6.8,"no2":2.1,"co":110.0,"o3":60.0,"so2":1.3,"mosquito_risk":6,"arthritis_risk":10,"migraine_risk":7,"frizz_risk":1,"updated_at":"2026-07-17T15:30:25.210203+05:30"},{"city":"Silchar","state":"Assam","latitude":24.8333,"longitude":92.7789,"temp":29.9,"humidity":77,"rain":0.0,"pressure":998.8,"uv_index":8.7,"wind_gusts":34.9,"aqi":70,"pm10":30.3,"pm2_5":19.4,"no2":2.8,"co":157.0,"o3":90.0,"so2":3.7,"mosquito_risk":7,"arthritis_risk":5,"migraine_risk":7,"frizz_risk":1,"updated_at":"2026-07-17T15:30:25.210210+05:30"},{"city":"Dibrugarh","state":"Assam","latitude":27.4728,"longitude":94.912,"temp":28.7,"humidity":88,"rain":0.0,"pressure":987.4,"uv_index":3.65,"wind_gusts":38.5,"aqi":52,"pm10":13.3,"pm2_5":9.8,"no2":2.3,"co":193.0,"o3":96.0,"so2":2.0,"mosquito_risk":7,"arthritis_risk":5,"migraine_risk":3,"frizz_risk":1,"updated_at":"2026-07-17T15:30:25.210216+05:30"}]