[{"city":"Delhi","state":"Delhi","latitude":28.6139,"longitude":77.209,"temp":32.4,"humidity":42,"rain":0.0,"pressure":978.8,"uv_index":7.75,"wind_gusts":30.6,"aqi":551,"pm10":855.0,"pm2_5":176.0,"no2":33.9,"co":292.0,"o3":55.0,"so2":18.3,"mosquito_risk":0,"arthritis_risk":5,"migraine_risk":7,"frizz_risk":1,"updated_at":"2026-06-21T23:12:02.599383+05:30"},{"city":"Mumbai","state":"Maharashtra","latitude":19.076,"longitude":72.8777,"temp":29.9,"humidity":68,"rain":0.0,"pressure":1007.1,"uv_index":7.7,"wind_gusts":37.8,"aqi":50,"pm10":14.7,"pm2_5":9.6,"no2":7.8,"co":145.0,"o3":36.0,"so2":5.9,"mosquito_risk":7,"arthritis_risk":5,"migraine_risk":4,"frizz_risk":1,"updated_at":"2026-06-21T23:12:02.599424+05:30"},{"city":"Bangalore","state":"Karnataka","latitude":12.9716,"longitude":77.5946,"temp":21.1,"humidity":97,"rain":0.0,"pressure":912.9,"uv_index":7.55,"wind_gusts":32.0,"aqi":51,"pm10":10.8,"pm2_5":10.3,"no2":19.6,"co":389.0,"o3":34.0,"so2":6.4,"mosquito_risk":3,"arthritis_risk":5,"migraine_risk":7,"frizz_risk":1,"updated_at":"2026-06-21T23:12:02.599439+05:30"},{"city":"Hyderabad","state":"Telangana","latitude":17.385,"longitude":78.4867,"temp":28.6,"humidity":64,"rain":0.0,"pressure":953.3,"uv_index":9.0,"wind_gusts":31.3,"aqi":67,"pm10":28.3,"pm2_5":23.9,"no2":21.3,"co":475.0,"o3":47.0,"so2":6.5,"mosquito_risk":7,"arthritis_risk":5,"migraine_risk":7,"frizz_risk":1,"updated_at":"2026-06-21T23:12:02.599449+05:30"},{"city":"Chennai","state":"Tamil Nadu","latitude":13.0827,"longitude":80.2707,"temp":28.5,"humidity":86,"rain":0.0,"pressure":1007.7,"uv_index":7.15,"wind_gusts":32.8,"aqi":77,"pm10":25.0,"pm2_5":18.7,"no2":14.9,"co":192.0,"o3":84.0,"so2":10.6,"mosquito_risk":7,"arthritis_risk":5,"migraine_risk":4,"frizz_risk":1,"updated_at":"2026-06-21T23:12:02.599457+05:30"},{"city":"Kolkata","state":"West Bengal","latitude":22.5726,"longitude":88.3639,"temp":29.0,"humidity":90,"rain":0.0,"pressure":1003.1,"uv_index":6.5,"wind_gusts":28.4,"aqi":104,"pm10":37.4,"pm2_5":33.5,"no2":9.5,"co":394.0,"o3":113.0,"so2":10.1,"mosquito_risk":7,"arthritis_risk":5,"migraine_risk":4,"frizz_risk":1,"updated_at":"2026-06-21T23:12:02.599465+05:30"},{"city":"Pune","state":"Maharashtra","latitude":18.5204,"longitude":73.8567,"temp":25.4,"humidity":80,"rain":0.0,"pressure":947.6,"uv_index":8.25,"wind_gusts":51.5,"aqi":43,"pm10":15.1,"pm2_5":11.9,"no2":10.9,"co":134.0,"o3":48.0,"so2":9.6,"mosquito_risk":7,"arthritis_risk":5,"migraine_risk":7,"frizz_risk":1,"updated_at":"2026-06-21T23:12:02.599471+05:30"},{"city":"Ahmedabad","state":"Gujarat","latitude":23.0225,"longitude":72.5714,"temp":31.8,"humidity":67,"rain":0.0,"pressure":999.4,"uv_index":8.05,"wind_gusts":37.1,"aqi":73,"pm10":37.3,"pm2_5":21.0,"no2":10.2,"co":153.0,"o3":50.0,"so2":6.3,"mosquito_risk":3,"arthritis_risk":5,"migraine_risk":7,"frizz_risk":1,"updated_at":"2026-06-21T23:12:02.599477+05:30"},{"city":"Jaipur","state":"Rajasthan","latitude":26.9124,"longitude":75.7873,"temp":27.6,"humidity":64,"rain":0.0,"pressure":956.7,"uv_index":7.45,"wind_gusts":41.8,"aqi":119,"pm10":186.3,"pm2_5":54.8,"no2":14.1,"co":300.0,"o3":45.0,"so2":6.1,"mosquito_risk":7,"arthritis_risk":5,"migraine_risk":7,"frizz_risk":1,"updated_at":"2026-06-21T23:12:02.599483+05:30"},{"city":"Lucknow","state":"Uttar Pradesh","latitude":26.8467,"longitude":80.9462,"temp":34.3,"humidity":41,"rain":0.0,"pressure":989.1,"uv_index":8.2,"wind_gusts":39.2,"aqi":272,"pm10":315.7,"pm2_5":83.6,"no2":11.4,"co":194.0,"o3":77.0,"so2":6.3,"mosquito_risk":0,"arthritis_risk":5,"migraine_risk":7,"frizz_risk":1,"updated_at":"2026-06-21T23:12:02.599494+05:30"},{"city":"Kanpur","state":"Uttar Pradesh","latitude":26.4499,"longitude":80.3319,"temp":34.5,"humidity":39,"rain":0.0,"pressure":987.6,"uv_index":8.3,"wind_gusts":44.6,"aqi":384,"pm10":371.6,"pm2_5":78.2,"no2":11.2,"co":158.0,"o3":66.0,"so2":5.4,"mosquito_risk":0,"arthritis_risk":5,"migraine_risk":7,"frizz_risk":1,"updated_at":"2026-06-21T23:12:02.599501+05:30"},{"city":"Chandigarh","state":"Chandigarh","latitude":30.7333,"longitude":76.7794,"temp":29.9,"humidity":45,"rain":0.0,"pressure":963.5,"uv_index":7.8,"wind_gusts":39.6,"aqi":101,"pm10":34.1,"pm2_5":30.9,"no2":21.7,"co":498.0,"o3":80.0,"so2":10.3,"mosquito_risk":4,"arthritis_risk":5,"migraine_risk":7,"frizz_risk":1,"updated_at":"2026-06-21T23:12:02.599508+05:30"},{"city":"Srinagar","state":"Jammu and Kashmir","latitude":34.0837,"longitude":74.7973,"temp":17.6,"humidity":84,"rain":0.0,"pressure":840.0,"uv_index":8.95,"wind_gusts":27.4,"aqi":73,"pm10":40.0,"pm2_5":38.0,"no2":26.1,"co":798.0,"o3":34.0,"so2":2.0,"mosquito_risk":3,"arthritis_risk":10,"migraine_risk":7,"frizz_risk":0,"updated_at":"2026-06-21T23:12:02.599514+05:30"},{"city":"Jammu","state":"Jammu and Kashmir","latitude":32.7266,"longitude":74.857,"temp":29.9,"humidity":39,"rain":0.0,"pressure":967.1,"uv_index":8.6,"wind_gusts":36.7,"aqi":74,"pm10":35.0,"pm2_5":30.9,"no2":34.9,"co":518.0,"o3":49.0,"so2":5.4,"mosquito_risk":4,"arthritis_risk":5,"migraine_risk":7,"frizz_risk":0,"updated_at":"2026-06-21T23:12:02.599521+05:30"},{"city":"Amritsar","state":"Punjab","latitude":31.634,"longitude":74.8723,"temp":28.7,"humidity":67,"rain":0.0,"pressure":975.3,"uv_index":8.45,"wind_gusts":25.2,"aqi":119,"pm10":70.1,"pm2_5":48.8,"no2":26.1,"co":474.0,"o3":71.0,"so2":11.2,"mosquito_risk":7,"arthritis_risk":5,"migraine_risk":7,"frizz_risk":1,"updated_at":"2026-06-21T23:12:02.599527+05:30"},{"city":"Ludhiana","state":"Punjab","latitude":30.901,"longitude":75.8573,"temp":31.7,"humidity":49,"rain":0.0,"pressure":973.4,"uv_index":8.05,"wind_gusts":39.2,"aqi":140,"pm10":147.6,"pm2_5":62.4,"no2":18.1,"co":698.0,"o3":73.0,"so2":6.2,"mosquito_risk":0,"arthritis_risk":5,"migraine_risk":7,"frizz_risk":1,"updated_at":"2026-06-21T23:12:02.599536+05:30"},{"city":"Jalandhar","state":"Punjab","latitude":31.326,"longitude":75.5762,"temp":31.1,"humidity":53,"rain":0.0,"pressure":974.3,"uv_index":8.2,"wind_gusts":33.1,"aqi":140,"pm10":117.8,"pm2_5":58.1,"no2":24.2,"co":710.0,"o3":69.0,"so2":7.5,"mosquito_risk":0,"arthritis_risk":5,"migraine_risk":7,"frizz_risk":1,"updated_at":"2026-06-21T23:12:02.599542+05:30"},{"city":"Dehradun","state":"Uttarakhand","latitude":30.6284,"longitude":78.0322,"temp":17.1,"humidity":85,"rain":0.0,"pressure":827.2,"uv_index":8.25,"wind_gusts":32.0,"aqi":90,"pm10":27.6,"pm2_5":21.0,"no2":19.8,"co":280.0,"o3":70.0,"so2":1.5,"mosquito_risk":3,"arthritis_risk":10,"migraine_risk":7,"frizz_risk":0,"updated_at":"2026-06-21T23:12:02.599548+05:30"},{"city":"Shimla","state":"Himachal Pradesh","latitude":31.1048,"longitude":77.1734,"temp":16.0,"humidity":63,"rain":0.0,"pressure":782.5,"uv_index":8.35,"wind_gusts":45.0,"aqi":85,"pm10":24.2,"pm2_5":17.8,"no2":14.1,"co":284.0,"o3":100.0,"so2":5.1,"mosquito_risk":3,"arthritis_risk":5,"migraine_risk":7,"frizz_risk":0,"updated_at":"2026-06-21T23:12:02.599554+05:30"},{"city":"Manali","state":"Himachal Pradesh","latitude":32.2396,"longitude":77.1887,"temp":15.7,"humidity":74,"rain":0.0,"pressure":816.1,"uv_index":9.75,"wind_gusts":37.1,"aqi":82,"pm10":10.9,"pm2_5":9.2,"no2":52.8,"co":250.0,"o3":64.0,"so2":0.1,"mosquito_risk":3,"arthritis_risk":5,"migraine_risk":7,"frizz_risk":0,"updated_at":"2026-06-21T23:12:02.599562+05:30"},{"city":"Gurgaon","state":"Haryana","latitude":28.4595,"longitude":77.0266,"temp":30.3,"humidity":46,"rain":0.0,"pressure":977.4,"uv_index":7.85,"wind_gusts":29.5,"aqi":1230,"pm10":733.9,"pm2_5":143.4,"no2":36.8,"co":299.0,"o3":37.0,"so2":13.8,"mosquito_risk":0,"arthritis_risk":5,"migraine_risk":7,"frizz_risk":1,"updated_at":"2026-06-21T23:12:02.599568+05:30"},{"city":"Noida","state":"Uttar Pradesh","latitude":28.5355,"longitude":77.391,"temp":31.4,"humidity":49,"rain":0.0,"pressure":979.9,"uv_index":7.8,"wind_gusts":25.2,"aqi":1230,"pm10":733.9,"pm2_5":143.4,"no2":36.8,"co":440.0,"o3":37.0,"so2":13.8,"mosquito_risk":0,"arthritis_risk":5,"migraine_risk":7,"frizz_risk":1,"updated_at":"2026-06-21T23:12:02.599575+05:30"},{"city":"Ghaziabad","state":"Uttar Pradesh","latitude":28.6692,"longitude":77.4538,"temp":31.1,"humidity":51,"rain":0.0,"pressure":978.0,"uv_index":7.8,"wind_gusts":27.7,"aqi":457,"pm10":752.5,"pm2_5":162.1,"no2":35.4,"co":374.0,"o3":60.0,"so2":20.2,"mosquito_risk":0,"arthritis_risk":5,"migraine_risk":7,"frizz_risk":1,"updated_at":"2026-06-21T23:12:02.599580+05:30"},{"city":"Faridabad","state":"Haryana","latitude":28.4089,"longitude":77.3178,"temp":32.0,"humidity":43,"rain":0.0,"pressure":979.4,"uv_index":7.85,"wind_gusts":30.6,"aqi":1230,"pm10":733.9,"pm2_5":143.4,"no2":36.8,"co":299.0,"o3":37.0,"so2":13.8,"mosquito_risk":0,"arthritis_risk":5,"migraine_risk":7,"frizz_risk":1,"updated_at":"2026-06-21T23:12:02.599586+05:30"},{"city":"Meerut","state":"Uttar Pradesh","latitude":28.9845,"longitude":77.7064,"temp":30.5,"humidity":54,"rain":0.0,"pressure":976.5,"uv_index":7.7,"wind_gusts":34.6,"aqi":457,"pm10":752.5,"pm2_5":162.1,"no2":35.4,"co":350.0,"o3":60.0,"so2":20.2,"mosquito_risk":0,"arthritis_risk":5,"migraine_risk":7,"frizz_risk":1,"updated_at":"2026-06-21T23:12:02.599592+05:30"},{"city":"Agra","state":"Uttar Pradesh","latitude":27.1767,"longitude":78.0081,"temp":31.5,"humidity":49,"rain":0.0,"pressure":983.9,"uv_index":8.15,"wind_gusts":37.8,"aqi":841,"pm10":115.5,"pm2_5":54.2,"no2":30.3,"co":220.0,"o3":36.0,"so2":9.6,"mosquito_risk":0,"arthritis_risk":5,"migraine_risk":7,"frizz_risk":1,"updated_at":"2026-06-21T23:12:02.599598+05:30"},{"city":"Varanasi","state":"Uttar Pradesh","latitude":25.3176,"longitude":82.9739,"temp":34.0,"humidity":50,"rain":0.0,"pressure":993.1,"uv_index":8.75,"wind_gusts":40.3,"aqi":110,"pm10":62.2,"pm2_5":37.0,"no2":12.6,"co":218.0,"o3":63.0,"so2":7.2,"mosquito_risk":0,"arthritis_risk":5,"migraine_risk":7,"frizz_risk":1,"updated_at":"2026-06-21T23:12:02.599605+05:30"},{"city":"Prayagraj","state":"Uttar Pradesh","latitude":25.4358,"longitude":81.8463,"temp":35.1,"humidity":42,"rain":0.0,"pressure":991.6,"uv_index":8.7,"wind_gusts":41.0,"aqi":121,"pm10":52.4,"pm2_5":32.8,"no2":11.9,"co":195.0,"o3":62.0,"so2":7.0,"mosquito_risk":0,"arthritis_risk":5,"migraine_risk":10,"frizz_risk":1,"updated_at":"2026-06-21T23:12:02.599611+05:30"},{"city":"Gorakhpur","state":"Uttar Pradesh","latitude":26.7606,"longitude":83.3732,"temp":32.1,"humidity":55,"rain":0.0,"pressure":992.4,"uv_index":8.65,"wind_gusts":37.1,"aqi":160,"pm10":166.2,"pm2_5":89.9,"no2":30.0,"co":359.0,"o3":61.0,"so2":14.6,"mosquito_risk":0,"arthritis_risk":5,"migraine_risk":7,"frizz_risk":1,"updated_at":"2026-06-21T23:12:02.599618+05:30"},{"city":"Bareilly","state":"Uttar Pradesh","latitude":28.367,"longitude":79.4304,"temp":31.2,"humidity":52,"rain":0.0,"pressure":981.9,"uv_index":8.1,"wind_gusts":40.0,"aqi":164,"pm10":257.0,"pm2_5":94.8,"no2":13.7,"co":366.0,"o3":112.0,"so2":13.0,"mosquito_risk":0,"arthritis_risk":5,"migraine_risk":7,"frizz_risk":1,"updated_at":"2026-06-21T23:12:02.599625+05:30"},{"city":"Aligarh","state":"Uttar Pradesh","latitude":27.8974,"longitude":78.088,"temp":30.6,"humidity":51,"rain":0.0,"pressure":981.2,"uv_index":8.0,"wind_gusts":37.1,"aqi":805,"pm10":493.6,"pm2_5":92.9,"no2":18.1,"co":315.0,"o3":58.0,"so2":6.3,"mosquito_risk":0,"arthritis_risk":5,"migraine_risk":7,"frizz_risk":1,"updated_at":"2026-06-21T23:12:02.599631+05:30"},{"city":"Moradabad","state":"Uttar Pradesh","latitude":28.8386,"longitude":78.7733,"temp":30.4,"humidity":58,"rain":0.0,"pressure":978.6,"uv_index":7.95,"wind_gusts":39.2,"aqi":172,"pm10":327.8,"pm2_5":111.1,"no2":23.1,"co":380.0,"o3":79.0,"so2":13.3,"mosquito_risk":0,"arthritis_risk":5,"migraine_risk":7,"frizz_risk":1,"updated_at":"2026-06-21T23:12:02.599637+05:30"},{"city":"Saharanpur","state":"Uttar Pradesh","latitude":29.9637,"longitude":77.546,"temp":29.9,"humidity":48,"rain":0.0,"pressure":970.4,"uv_index":7.45,"wind_gusts":36.4,"aqi":165,"pm10":448.9,"pm2_5":109.9,"no2":16.0,"co":343.0,"o3":89.0,"so2":10.2,"mosquito_risk":4,"arthritis_risk":5,"migraine_risk":7,"frizz_risk":1,"updated_at":"2026-06-21T23:12:02.599643+05:30"},{"city":"Jhansi","state":"Uttar Pradesh","latitude":25.4484,"longitude":78.5685,"temp":31.0,"humidity":55,"rain":0.0,"pressure":975.0,"uv_index":8.3,"wind_gusts":42.1,"aqi":98,"pm10":73.6,"pm2_5":35.9,"no2":7.0,"co":145.0,"o3":53.0,"so2":2.1,"mosquito_risk":0,"arthritis_risk":5,"migraine_risk":7,"frizz_risk":1,"updated_at":"2026-06-21T23:12:05.929544+05:30"},{"city":"Surat","state":"Gujarat","latitude":21.1702,"longitude":72.8311,"temp":29.8,"humidity":76,"rain":0.0,"pressure":1005.1,"uv_index":7.6,"wind_gusts":42.8,"aqi":59,"pm10":23.6,"pm2_5":16.1,"no2":17.2,"co":191.0,"o3":32.0,"so2":28.0,"mosquito_risk":7,"arthritis_risk":5,"migraine_risk":4,"frizz_risk":1,"updated_at":"2026-06-21T23:12:05.929578+05:30"},{"city":"Vadodara","state":"Gujarat","latitude":22.3072,"longitude":73.1812,"temp":30.0,"humidity":74,"rain":0.0,"pressure":1002.0,"uv_index":8.0,"wind_gusts":43.9,"aqi":55,"pm10":18.2,"pm2_5":13.2,"no2":14.3,"co":181.0,"o3":32.0,"so2":15.1,"mosquito_risk":7,"arthritis_risk":5,"migraine_risk":4,"frizz_risk":1,"updated_at":"2026-06-21T23:12:05.929589+05:30"},{"city":"Rajkot","state":"Gujarat","latitude":22.3039,"longitude":70.8022,"temp":29.5,"humidity":68,"rain":0.0,"pressure":992.0,"uv_index":7.5,"wind_gusts":40.3,"aqi":69,"pm10":44.6,"pm2_5":19.3,"no2":4.0,"co":102.0,"o3":47.0,"so2":3.6,"mosquito_risk":7,"arthritis_risk":5,"migraine_risk":7,"frizz_risk":1,"updated_at":"2026-06-21T23:12:05.929598+05:30"},{"city":"Thane","state":"Maharashtra","latitude":19.2183,"longitude":72.9781,"temp":30.0,"humidity":65,"rain":0.0,"pressure":1006.6,"uv_index":7.7,"wind_gusts":37.4,"aqi":50,"pm10":14.7,"pm2_5":9.6,"no2":7.8,"co":145.0,"o3":36.0,"so2":5.9,"mosquito_risk":7,"arthritis_risk":5,"migraine_risk":4,"frizz_risk":1,"updated_at":"2026-06-21T23:12:05.929606+05:30"},{"city":"Nagpur","state":"Maharashtra","latitude":21.1458,"longitude":79.0882,"temp":29.0,"humidity":70,"rain":0.0,"pressure":972.1,"uv_index":8.85,"wind_gusts":40.7,"aqi":66,"pm10":39.6,"pm2_5":24.3,"no2":12.5,"co":246.0,"o3":68.0,"so2":13.8,"mosquito_risk":7,"arthritis_risk":5,"migraine_risk":7,"frizz_risk":1,"updated_at":"2026-06-21T23:12:05.929614+05:30"},{"city":"Nashik","state":"Maharashtra","latitude":19.9975,"longitude":73.7898,"temp":26.1,"humidity":73,"rain":0.0,"pressure":944.7,"uv_index":7.95,"wind_gusts":39.2,"aqi":32,"pm10":12.9,"pm2_5":8.8,"no2":3.9,"co":125.0,"o3":50.0,"so2":2.0,"mosquito_risk":7,"arthritis_risk":5,"migraine_risk":7,"frizz_risk":1,"updated_at":"2026-06-21T23:12:05.929621+05:30"},{"city":"Aurangabad","state":"Maharashtra","latitude":19.8762,"longitude":75.3433,"temp":29.9,"humidity":52,"rain":0.0,"pressure":943.3,"uv_index":8.95,"wind_gusts":47.9,"aqi":38,"pm10":16.8,"pm2_5":14.1,"no2":11.8,"co":150.0,"o3":54.0,"so2":6.7,"mosquito_risk":4,"arthritis_risk":5,"migraine_risk":7,"frizz_risk":1,"updated_at":"2026-06-21T23:12:05.929629+05:30"},{"city":"Solapur","state":"Maharashtra","latitude":17.6599,"longitude":75.9064,"temp":28.4,"humidity":66,"rain":0.0,"pressure":957.0,"uv_index":8.9,"wind_gusts":39.2,"aqi":46,"pm10":6.3,"pm2_5":5.7,"no2":4.6,"co":124.0,"o3":61.0,"so2":2.0,"mosquito_risk":7,"arthritis_risk":5,"migraine_risk":7,"frizz_risk":1,"updated_at":"2026-06-21T23:12:05.929637+05:30"},{"city":"Kolhapur","state":"Maharashtra","latitude":16.705,"longitude":74.2433,"temp":25.0,"humidity":86,"rain":0.0,"pressure":947.8,"uv_index":8.05,"wind_gusts":40.3,"aqi":34,"pm10":9.4,"pm2_5":8.8,"no2":7.6,"co":181.0,"o3":39.0,"so2":3.0,"mosquito_risk":7,"arthritis_risk":5,"migraine_risk":7,"frizz_risk":1,"updated_at":"2026-06-21T23:12:05.929645+05:30"},{"city":"Goa","state":"Goa","latitude":15.2993,"longitude":74.124,"temp":25.5,"humidity":96,"rain":0.0,"pressure":998.4,"uv_index":7.65,"wind_gusts":36.0,"aqi":25,"pm10":6.0,"pm2_5":4.3,"no2":2.2,"co":255.0,"o3":45.0,"so2":0.9,"mosquito_risk":7,"arthritis_risk":5,"migraine_risk":7,"frizz_risk":1,"updated_at":"2026-06-21T23:12:05.929652+05:30"},{"city":"Jodhpur","state":"Rajasthan","latitude":26.2389,"longitude":73.0243,"temp":32.9,"humidity":44,"rain":0.0,"pressure":979.1,"uv_index":8.35,"wind_gusts":43.2,"aqi":149,"pm10":204.9,"pm2_5":48.4,"no2":6.7,"co":160.0,"o3":52.0,"so2":2.1,"mosquito_risk":0,"arthritis_risk":5,"migraine_risk":7,"frizz_risk":1,"updated_at":"2026-06-21T23:12:05.929659+05:30"},{"city":"Udaipur","state":"Rajasthan","latitude":24.5854,"longitude":73.7125,"temp":28.6,"humidity":53,"rain":0.0,"pressure":944.2,"uv_index":8.8,"wind_gusts":41.4,"aqi":72,"pm10":51.2,"pm2_5":23.5,"no2":5.4,"co":128.0,"o3":62.0,"so2":2.6,"mosquito_risk":4,"arthritis_risk":5,"migraine_risk":7,"frizz_risk":1,"updated_at":"2026-06-21T23:12:05.929667+05:30"},{"city":"Kota","state":"Rajasthan","latitude":25.2138,"longitude":75.8648,"temp":29.7,"humidity":67,"rain":0.0,"pressure":975.9,"uv_index":8.35,"wind_gusts":42.8,"aqi":89,"pm10":63.1,"pm2_5":34.9,"no2":10.0,"co":289.0,"o3":52.0,"so2":4.8,"mosquito_risk":7,"arthritis_risk":5,"migraine_risk":7,"frizz_risk":1,"updated_at":"2026-06-21T23:12:05.929675+05:30"},{"city":"Bikaner","state":"Rajasthan","latitude":28.0229,"longitude":73.3119,"temp":29.9,"humidity":51,"rain":0.0,"pressure":976.6,"uv_index":8.45,"wind_gusts":37.8,"aqi":154,"pm10":181.6,"pm2_5":51.9,"no2":3.6,"co":153.0,"o3":62.0,"so2":2.3,"mosquito_risk":4,"arthritis_risk":5,"migraine_risk":7,"frizz_risk":1,"updated_at":"2026-06-21T23:12:05.929682+05:30"},{"city":"Ajmer","state":"Rajasthan","latitude":26.4499,"longitude":74.6399,"temp":26.5,"humidity":73,"rain":0.1,"pressure":952.1,"uv_index":8.25,"wind_gusts":48.2,"aqi":93,"pm10":72.9,"pm2_5":32.4,"no2":8.5,"co":158.0,"o3":48.0,"so2":3.8,"mosquito_risk":10,"arthritis_risk":5,"migraine_risk":7,"frizz_risk":1,"updated_at":"2026-06-21T23:12:05.929689+05:30"},{"city":"Gwalior","state":"Madhya Pradesh","latitude":26.2183,"longitude":78.1828,"temp":31.3,"humidity":48,"rain":0.0,"pressure":980.0,"uv_index":8.15,"wind_gusts":46.4,"aqi":101,"pm10":71.7,"pm2_5":33.6,"no2":7.1,"co":130.0,"o3":56.0,"so2":2.9,"mosquito_risk":0,"arthritis_risk":5,"migraine_risk":7,"frizz_risk":1,"updated_at":"2026-06-21T23:12:05.929696+05:30"},{"city":"Indore","state":"Madhya Pradesh","latitude":22.7196,"longitude":75.8577,"temp":28.8,"humidity":59,"rain":0.0,"pressure":946.8,"uv_index":8.5,"wind_gusts":37.1,"aqi":77,"pm10":42.4,"pm2_5":30.3,"no2":13.1,"co":217.0,"o3":52.0,"so2":6.8,"mosquito_risk":4,"arthritis_risk":5,"migraine_risk":7,"frizz_risk":1,"updated_at":"2026-06-21T23:12:05.929703+05:30"},{"city":"Bhopal","state":"Madhya Pradesh","latitude":23.2599,"longitude":77.4126,"temp":27.5,"humidity":81,"rain":0.0,"pressure":951.9,"uv_index":8.0,"wind_gusts":37.4,"aqi":85,"pm10":55.5,"pm2_5":34.5,"no2":11.9,"co":343.0,"o3":51.0,"so2":4.7,"mosquito_risk":7,"arthritis_risk":5,"migraine_risk":7,"frizz_risk":1,"updated_at":"2026-06-21T23:12:05.929710+05:30"},{"city":"Jabalpur","state":"Madhya Pradesh","latitude":23.1815,"longitude":79.9864,"temp":30.5,"humidity":57,"rain":0.0,"pressure":959.6,"uv_index":8.3,"wind_gusts":37.4,"aqi":76,"pm10":34.9,"pm2_5":25.1,"no2":13.5,"co":245.0,"o3":54.0,"so2":4.6,"mosquito_risk":0,"arthritis_risk":5,"migraine_risk":7,"frizz_risk":1,"updated_at":"2026-06-21T23:12:05.929717+05:30"},{"city":"Ujjain","state":"Madhya Pradesh","latitude":23.1765,"longitude":75.7885,"temp":29.8,"humidity":51,"rain":0.0,"pressure":952.3,"uv_index":7.8,"wind_gusts":40.3,"aqi":73,"pm10":38.6,"pm2_5":26.5,"no2":6.3,"co":212.0,"o3":64.0,"so2":5.2,"mosquito_risk":4,"arthritis_risk":5,"migraine_risk":7,"frizz_risk":1,"updated_at":"2026-06-21T23:12:05.929725+05:30"},{"city":"Visakhapatnam","state":"Andhra Pradesh","latitude":17.6868,"longitude":83.2185,"temp":28.5,"humidity":89,"rain":0.0,"pressure":1002.0,"uv_index":4.75,"wind_gusts":39.2,"aqi":73,"pm10":26.3,"pm2_5":23.8,"no2":20.6,"co":248.0,"o3":72.0,"so2":32.1,"mosquito_risk":7,"arthritis_risk":5,"migraine_risk":0,"frizz_risk":1,"updated_at":"2026-06-21T23:12:05.929732+05:30"},{"city":"Vijayawada","state":"Andhra Pradesh","latitude":16.5062,"longitude":80.648,"temp":28.3,"humidity":73,"rain":0.0,"pressure":1002.1,"uv_index":6.8,"wind_gusts":40.3,"aqi":80,"pm10":39.2,"pm2_5":37.0,"no2":19.9,"co":272.0,"o3":46.0,"so2":6.9,"mosquito_risk":7,"arthritis_risk":5,"migraine_risk":4,"frizz_risk":1,"updated_at":"2026-06-21T23:12:05.929739+05:30"},{"city":"Guntur","state":"Andhra Pradesh","latitude":16.3067,"longitude":80.4365,"temp":28.5,"humidity":75,"rain":0.0,"pressure":1003.6,"uv_index":5.55,"wind_gusts":22.0,"aqi":80,"pm10":33.5,"pm2_5":32.4,"no2":20.4,"co":242.0,"o3":44.0,"so2":6.3,"mosquito_risk":7,"arthritis_risk":5,"migraine_risk":0,"frizz_risk":1,"updated_at":"2026-06-21T23:12:05.929747+05:30"},{"city":"Nellore","state":"Andhra Pradesh","latitude":14.4426,"longitude":79.9865,"temp":29.0,"humidity":80,"rain":0.0,"pressure":1006.3,"uv_index":4.55,"wind_gusts":32.8,"aqi":90,"pm10":27.3,"pm2_5":22.7,"no2":6.4,"co":221.0,"o3":112.0,"so2":7.4,"mosquito_risk":7,"arthritis_risk":5,"migraine_risk":0,"frizz_risk":1,"updated_at":"2026-06-21T23:12:05.929754+05:30"},{"city":"Kurnool","state":"Andhra Pradesh","latitude":15.8281,"longitude":78.0373,"temp":26.2,"humidity":82,"rain":0.0,"pressure":977.8,"uv_index":8.05,"wind_gusts":45.0,"aqi":57,"pm10":23.8,"pm2_5":18.7,"no2":7.4,"co":187.0,"o3":76.0,"so2":4.8,"mosquito_risk":7,"arthritis_risk":5,"migraine_risk":7,"frizz_risk":1,"updated_at":"2026-06-21T23:12:05.929762+05:30"},{"city":"Kakinada","state":"Andhra Pradesh","latitude":16.9891,"longitude":82.2475,"temp":28.4,"humidity":81,"rain":0.0,"pressure":1006.3,"uv_index":2.85,"wind_gusts":42.8,"aqi":71,"pm10":31.7,"pm2_5":25.8,"no2":6.1,"co":290.0,"o3":107.0,"so2":6.6,"mosquito_risk":7,"arthritis_risk":5,"migraine_risk":0,"frizz_risk":1,"updated_at":"2026-06-21T23:12:05.929769+05:30"},{"city":"Tirupati","state":"Andhra Pradesh","latitude":13.6288,"longitude":79.4192,"temp":27.0,"humidity":84,"rain":0.0,"pressure":992.1,"uv_index":7.9,"wind_gusts":22.3,"aqi":75,"pm10":26.8,"pm2_5":23.2,"no2":14.0,"co":230.0,"o3":69.0,"so2":3.2,"mosquito_risk":7,"arthritis_risk":5,"migraine_risk":7,"frizz_risk":1,"updated_at":"2026-06-21T23:12:05.929777+05:30"},{"city":"Warangal","state":"Telangana","latitude":17.9689,"longitude":79.5941,"temp":28.4,"humidity":64,"rain":0.0,"pressure":978.3,"uv_index":7.8,"wind_gusts":34.2,"aqi":74,"pm10":37.5,"pm2_5":32.9,"no2":15.6,"co":266.0,"o3":51.0,"so2":5.8,"mosquito_risk":7,"arthritis_risk":5,"migraine_risk":7,"frizz_risk":1,"updated_at":"2026-06-21T23:12:05.929784+05:30"},{"city":"Nizamabad","state":"Telangana","latitude":18.6725,"longitude":78.0941,"temp":29.6,"humidity":66,"rain":0.0,"pressure":964.1,"uv_index":8.7,"wind_gusts":36.0,"aqi":64,"pm10":28.4,"pm2_5":25.7,"no2":12.7,"co":192.0,"o3":65.0,"so2":4.5,"mosquito_risk":7,"arthritis_risk":5,"migraine_risk":7,"frizz_risk":1,"updated_at":"2026-06-21T23:12:05.929791+05:30"},{"city":"Mysore","state":"Karnataka","latitude":12.2958,"longitude":76.6396,"temp":21.7,"humidity":96,"rain":0.0,"pressure":929.8,"uv_index":8.4,"wind_gusts":43.6,"aqi":28,"pm10":5.6,"pm2_5":5.4,"no2":8.2,"co":185.0,"o3":39.0,"so2":2.4,"mosquito_risk":3,"arthritis_risk":5,"migraine_risk":7,"frizz_risk":1,"updated_at":"2026-06-21T23:12:05.929798+05:30"},{"city":"Mangalore","state":"Karnataka","latitude":12.9141,"longitude":74.856,"temp":25.3,"humidity":97,"rain":0.0,"pressure":1008.8,"uv_index":7.85,"wind_gusts":34.2,"aqi":25,"pm10":10.4,"pm2_5":8.1,"no2":5.6,"co":215.0,"o3":39.0,"so2":2.3,"mosquito_risk":7,"arthritis_risk":0,"migraine_risk":4,"frizz_risk":1,"updated_at":"2026-06-21T23:12:05.929805+05:30"},{"city":"Hubli-Dharwad","state":"Karnataka","latitude":15.3647,"longitude":75.124,"temp":23.5,"humidity":89,"rain":0.0,"pressure":941.5,"uv_index":7.55,"wind_gusts":43.9,"aqi":23,"pm10":3.7,"pm2_5":3.1,"no2":4.9,"co":122.0,"o3":37.0,"so2":1.3,"mosquito_risk":3,"arthritis_risk":5,"migraine_risk":7,"frizz_risk":1,"updated_at":"2026-06-21T23:12:05.929812+05:30"},{"city":"Belgaum","state":"Karnataka","latitude":15.8497,"longitude":74.4977,"temp":22.3,"humidity":93,"rain":0.0,"pressure":925.9,"uv_index":8.85,"wind_gusts":37.4,"aqi":29,"pm10":6.6,"pm2_5":5.9,"no2":5.6,"co":116.0,"o3":38.0,"so2":1.9,"mosquito_risk":3,"arthritis_risk":5,"migraine_risk":7,"frizz_risk":1,"updated_at":"2026-06-21T23:12:09.252714+05:30"},{"city":"Coimbatore","state":"Tamil Nadu","latitude":11.0168,"longitude":76.9558,"temp":23.6,"humidity":92,"rain":0.0,"pressure":963.5,"uv_index":8.2,"wind_gusts":45.4,"aqi":25,"pm10":4.8,"pm2_5":4.4,"no2":6.4,"co":163.0,"o3":42.0,"so2":3.1,"mosquito_risk":3,"arthritis_risk":5,"migraine_risk":7,"frizz_risk":1,"updated_at":"2026-06-21T23:12:09.252745+05:30"},{"city":"Madurai","state":"Tamil Nadu","latitude":9.9252,"longitude":78.1198,"temp":27.9,"humidity":84,"rain":0.0,"pressure":994.2,"uv_index":8.15,"wind_gusts":35.6,"aqi":71,"pm10":27.6,"pm2_5":24.5,"no2":33.6,"co":322.0,"o3":20.0,"so2":7.5,"mosquito_risk":7,"arthritis_risk":5,"migraine_risk":7,"frizz_risk":1,"updated_at":"2026-06-21T23:12:09.252756+05:30"},{"city":"Trichy","state":"Tamil Nadu","latitude":10.7905,"longitude":78.7047,"temp":25.9,"humidity":91,"rain":0.2,"pressure":1001.5,"uv_index":8.25,"wind_gusts":29.2,"aqi":58,"pm10":18.2,"pm2_5":15.3,"no2":12.0,"co":262.0,"o3":62.0,"so2":3.7,"mosquito_risk":10,"arthritis_risk":5,"migraine_risk":4,"frizz_risk":1,"updated_at":"2026-06-21T23:12:09.252765+05:30"},{"city":"Salem","state":"Tamil Nadu","latitude":11.6643,"longitude":78.146,"temp":25.2,"humidity":96,"rain":0.0,"pressure":978.8,"uv_index":7.85,"wind_gusts":22.3,"aqi":63,"pm10":17.6,"pm2_5":16.1,"no2":15.6,"co":274.0,"o3":50.0,"so2":5.8,"mosquito_risk":7,"arthritis_risk":5,"migraine_risk":7,"frizz_risk":1,"updated_at":"2026-06-21T23:12:09.252774+05:30"},{"city":"Tirunelveli","state":"Tamil Nadu","latitude":8.7139,"longitude":77.7567,"temp":28.2,"humidity":71,"rain":0.0,"pressure":1004.8,"uv_index":8.55,"wind_gusts":30.6,"aqi":29,"pm10":7.7,"pm2_5":6.5,"no2":5.7,"co":201.0,"o3":39.0,"so2":1.6,"mosquito_risk":7,"arthritis_risk":5,"migraine_risk":4,"frizz_risk":1,"updated_at":"2026-06-21T23:12:09.252781+05:30"},{"city":"Vellore","state":"Tamil Nadu","latitude":12.9165,"longitude":79.1325,"temp":25.7,"humidity":86,"rain":0.0,"pressure":985.7,"uv_index":6.05,"wind_gusts":28.1,"aqi":84,"pm10":27.9,"pm2_5":23.8,"no2":16.8,"co":312.0,"o3":65.0,"so2":5.2,"mosquito_risk":7,"arthritis_risk":5,"migraine_risk":7,"frizz_risk":1,"updated_at":"2026-06-21T23:12:09.252788+05:30"},{"city":"Erode","state":"Tamil Nadu","latitude":11.341,"longitude":77.7172,"temp":26.4,"humidity":79,"rain":0.0,"pressure":990.8,"uv_index":8.7,"wind_gusts":45.4,"aqi":44,"pm10":10.9,"pm2_5":10.0,"no2":11.5,"co":172.0,"o3":42.0,"so2":3.6,"mosquito_risk":7,"arthritis_risk":5,"migraine_risk":7,"frizz_risk":1,"updated_at":"2026-06-21T23:12:09.252796+05:30"},{"city":"Kochi","state":"Kerala","latitude":9.9312,"longitude":76.2673,"temp":24.9,"humidity":97,"rain":0.0,"pressure":1011.6,"uv_index":8.3,"wind_gusts":29.5,"aqi":45,"pm10":12.4,"pm2_5":11.1,"no2":12.8,"co":144.0,"o3":25.0,"so2":4.7,"mosquito_risk":3,"arthritis_risk":0,"migraine_risk":4,"frizz_risk":1,"updated_at":"2026-06-21T23:12:09.252804+05:30"},{"city":"Thiruvananthapuram","state":"Kerala","latitude":8.5241,"longitude":76.9366,"temp":24.1,"humidity":98,"rain":0.0,"pressure":1011.4,"uv_index":8.0,"wind_gusts":31.7,"aqi":27,"pm10":7.5,"pm2_5":4.8,"no2":2.5,"co":184.0,"o3":52.0,"so2":1.1,"mosquito_risk":3,"arthritis_risk":0,"migraine_risk":4,"frizz_risk":1,"updated_at":"2026-06-21T23:12:09.252811+05:30"},{"city":"Kozhikode","state":"Kerala","latitude":11.2588,"longitude":75.7804,"temp":24.7,"humidity":98,"rain":0.0,"pressure":1010.9,"uv_index":8.15,"wind_gusts":27.0,"aqi":26,"pm10":6.5,"pm2_5":4.0,"no2":0.9,"co":337.0,"o3":54.0,"so2":0.6,"mosquito_risk":3,"arthritis_risk":0,"migraine_risk":4,"frizz_risk":1,"updated_at":"2026-06-21T23:12:09.252818+05:30"},{"city":"Thrissur","state":"Kerala","latitude":10.5276,"longitude":76.2144,"temp":24.4,"humidity":99,"rain":0.1,"pressure":1010.0,"uv_index":7.95,"wind_gusts":32.0,"aqi":43,"pm10":14.1,"pm2_5":13.3,"no2":11.7,"co":306.0,"o3":26.0,"so2":3.9,"mosquito_risk":6,"arthritis_risk":0,"migraine_risk":4,"frizz_risk":1,"updated_at":"2026-06-21T23:12:09.252825+05:30"},{"city":"Kannur","state":"Kerala","latitude":11.8745,"longitude":75.3704,"temp":25.4,"humidity":96,"rain":0.1,"pressure":1009.7,"uv_index":8.35,"wind_gusts":30.6,"aqi":21,"pm10":8.9,"pm2_5":7.0,"no2":6.5,"co":221.0,"o3":37.0,"so2":2.0,"mosquito_risk":10,"arthritis_risk":0,"migraine_risk":4,"frizz_risk":1,"updated_at":"2026-06-21T23:12:09.252832+05:30"},{"city":"Patna","state":"Bihar","latitude":25.5941,"longitude":85.1376,"temp":30.7,"humidity":71,"rain":0.0,"pressure":995.9,"uv_index":8.6,"wind_gusts":31.7,"aqi":156,"pm10":113.2,"pm2_5":70.3,"no2":23.4,"co":302.0,"o3":66.0,"so2":12.9,"mosquito_risk":3,"arthritis_risk":5,"migraine_risk":7,"frizz_risk":1,"updated_at":"2026-06-21T23:12:09.252839+05:30"},{"city":"Gaya","state":"Bihar","latitude":24.7914,"longitude":85.0002,"temp":31.1,"humidity":62,"rain":0.0,"pressure":989.7,"uv_index":8.6,"wind_gusts":37.4,"aqi":134,"pm10":89.4,"pm2_5":44.1,"no2":11.3,"co":238.0,"o3":81.0,"so2":12.8,"mosquito_risk":3,"arthritis_risk":5,"migraine_risk":7,"frizz_risk":1,"updated_at":"2026-06-21T23:12:09.252846+05:30"},{"city":"Muzaffarpur","state":"Bihar","latitude":26.1209,"longitude":85.3647,"temp":27.5,"humidity":85,"rain":0.0,"pressure":996.8,"uv_index":8.45,"wind_gusts":39.6,"aqi":159,"pm10":88.0,"pm2_5":64.5,"no2":18.9,"co":355.0,"o3":91.0,"so2":14.0,"mosquito_risk":7,"arthritis_risk":5,"migraine_risk":7,"frizz_risk":1,"updated_at":"2026-06-21T23:12:09.252854+05:30"},{"city":"Bhagalpur","state":"Bihar","latitude":25.2425,"longitude":87.0117,"temp":28.7,"humidity":88,"rain":0.0,"pressure":997.5,"uv_index":8.4,"wind_gusts":28.8,"aqi":127,"pm10":67.1,"pm2_5":49.1,"no2":13.2,"co":230.0,"o3":110.0,"so2":18.6,"mosquito_risk":7,"arthritis_risk":5,"migraine_risk":7,"frizz_risk":1,"updated_at":"2026-06-21T23:12:09.252861+05:30"},{"city":"Ranchi","state":"Jharkhand","latitude":23.3441,"longitude":85.3096,"temp":25.9,"humidity":84,"rain":0.0,"pressure":935.8,"uv_index":6.9,"wind_gusts":31.0,"aqi":109,"pm10":41.9,"pm2_5":39.8,"no2":8.8,"co":282.0,"o3":129.0,"so2":11.5,"mosquito_risk":7,"arthritis_risk":5,"migraine_risk":7,"frizz_risk":1,"updated_at":"2026-06-21T23:12:09.252869+05:30"},{"city":"Jamshedpur","state":"Jharkhand","latitude":22.8046,"longitude":86.2029,"temp":29.4,"humidity":74,"rain":0.0,"pressure":988.0,"uv_index":8.6,"wind_gusts":27.0,"aqi":127,"pm10":53.9,"pm2_5":50.5,"no2":21.4,"co":735.0,"o3":87.0,"so2":21.3,"mosquito_risk":7,"arthritis_risk":5,"migraine_risk":7,"frizz_risk":1,"updated_at":"2026-06-21T23:12:09.252876+05:30"},{"city":"Dhanbad","state":"Jharkhand","latitude":23.7957,"longitude":86.4304,"temp":29.2,"humidity":86,"rain":0.0,"pressure":976.7,"uv_index":5.9,"wind_gusts":33.8,"aqi":143,"pm10":64.3,"pm2_5":62.2,"no2":40.0,"co":176.0,"o3":84.0,"so2":101.0,"mosquito_risk":7,"arthritis_risk":5,"migraine_risk":3,"frizz_risk":1,"updated_at":"2026-06-21T23:12:09.252883+05:30"},{"city":"Bokaro","state":"Jharkhand","latitude":23.6693,"longitude":86.1511,"temp":29.0,"humidity":90,"rain":0.0,"pressure":980.6,"uv_index":6.05,"wind_gusts":36.7,"aqi":116,"pm10":51.8,"pm2_5":49.8,"no2":25.9,"co":189.0,"o3":103.0,"so2":69.4,"mosquito_risk":7,"arthritis_risk":5,"migraine_risk":7,"frizz_risk":1,"updated_at":"2026-06-21T23:12:09.252890+05:30"},{"city":"Bhubaneswar","state":"Odisha","latitude":20.2961,"longitude":85.8245,"temp":28.1,"humidity":97,"rain":0.0,"pressure":1000.2,"uv_index":8.4,"wind_gusts":32.4,"aqi":99,"pm10":35.4,"pm2_5":33.4,"no2":12.2,"co":271.0,"o3":89.0,"so2":7.1,"mosquito_risk":7,"arthritis_risk":5,"migraine_risk":4,"frizz_risk":1,"updated_at":"2026-06-21T23:12:09.252897+05:30"},{"city":"Cuttack","state":"Odisha","latitude":20.4625,"longitude":85.8828,"temp":28.2,"humidity":95,"rain":0.0,"pressure":1002.0,"uv_index":8.5,"wind_gusts":22.7,"aqi":99,"pm10":35.4,"pm2_5":33.4,"no2":12.2,"co":289.0,"o3":89.0,"so2":7.1,"mosquito_risk":7,"arthritis_risk":5,"migraine_risk":4,"frizz_risk":1,"updated_at":"2026-06-21T23:12:09.252904+05:30"},{"city":"Rourkela","state":"Odisha","latitude":22.2604,"longitude":84.8536,"temp":27.1,"humidity":84,"rain":0.0,"pressure":982.4,"uv_index":8.7,"wind_gusts":53.6,"aqi":153,"pm10":43.3,"pm2_5":39.7,"no2":13.1,"co":561.0,"o3":101.0,"so2":9.8,"mosquito_risk":7,"arthritis_risk":5,"migraine_risk":7,"frizz_risk":1,"updated_at":"2026-06-21T23:12:09.252911+05:30"},{"city":"Raipur","state":"Chhattisgarh","latitude":21.2514,"longitude":81.6296,"temp":31.7,"humidity":51,"rain":0.0,"pressure":972.9,"uv_index":8.85,"wind_gusts":44.6,"aqi":82,"pm10":44.2,"pm2_5":35.0,"no2":27.6,"co":281.0,"o3":57.0,"so2":40.8,"mosquito_risk":0,"arthritis_risk":5,"migraine_risk":7,"frizz_risk":1,"updated_at":"2026-06-21T23:12:09.252918+05:30"},{"city":"Bhilai","state":"Chhattisgarh","latitude":21.1938,"longitude":81.3509,"temp":30.9,"humidity":55,"rain":0.0,"pressure":973.4,"uv_index":8.9,"wind_gusts":49.3,"aqi":77,"pm10":44.9,"pm2_5":34.9,"no2":27.6,"co":677.0,"o3":51.0,"so2":35.3,"mosquito_risk":0,"arthritis_risk":5,"migraine_risk":7,"frizz_risk":1,"updated_at":"2026-06-21T23:12:09.252924+05:30"},{"city":"Guwahati","state":"Assam","latitude":26.1158,"longitude":91.7086,"temp":24.7,"humidity":99,"rain":0.2,"pressure":999.7,"uv_index":7.95,"wind_gusts":25.6,"aqi":77,"pm10":18.7,"pm2_5":17.3,"no2":11.0,"co":347.0,"o3":52.0,"so2":3.2,"mosquito_risk":6,"arthritis_risk":5,"migraine_risk":7,"frizz_risk":1,"updated_at":"2026-06-21T23:12:09.252931+05:30"},{"city":"Agartala","state":"Tripura","latitude":23.8315,"longitude":91.2868,"temp":26.6,"humidity":91,"rain":0.0,"pressure":1004.3,"uv_index":8.45,"wind_gusts":40.0,"aqi":61,"pm10":14.4,"pm2_5":13.6,"no2":8.5,"co":214.0,"o3":67.0,"so2":2.1,"mosquito_risk":7,"arthritis_risk":5,"migraine_risk":4,"frizz_risk":1,"updated_at":"2026-06-21T23:12:09.252938+05:30"},{"city":"Shillong","state":"Meghalaya","latitude":25.5788,"longitude":91.8933,"temp":19.9,"humidity":96,"rain":0.0,"pressure":856.0,"uv_index":6.35,"wind_gusts":37.8,"aqi":39,"pm10":2.1,"pm2_5":1.9,"no2":5.9,"co":212.0,"o3":70.0,"so2":1.8,"mosquito_risk":3,"arthritis_risk":10,"migraine_risk":7,"frizz_risk":1,"updated_at":"2026-06-21T23:12:09.252945+05:30"},{"city":"Imphal","state":"Manipur","latitude":24.817,"longitude":93.9368,"temp":23.3,"humidity":93,"rain":0.1,"pressure":922.3,"uv_index":8.8,"wind_gusts":27.4,"aqi":65,"pm10":20.0,"pm2_5":17.9,"no2":7.9,"co":537.0,"o3":51.0,"so2":2.4,"mosquito_risk":6,"arthritis_risk":5,"migraine_risk":7,"frizz_risk":1,"updated_at":"2026-06-21T23:12:09.252952+05:30"},{"city":"Aizawl","state":"Mizoram","latitude":23.7271,"longitude":92.7176,"temp":19.8,"humidity":96,"rain":0.0,"pressure":891.3,"uv_index":9.0,"wind_gusts":32.0,"aqi":31,"pm10":4.6,"pm2_5":4.3,"no2":2.8,"co":164.0,"o3":50.0,"so2":0.5,"mosquito_risk":3,"arthritis_risk":10,"migraine_risk":7,"frizz_risk":1,"updated_at":"2026-06-21T23:12:09.252958+05:30"},{"city":"Kohima","state":"Nagaland","latitude":25.6701,"longitude":94.1077,"temp":19.2,"humidity":94,"rain":0.0,"pressure":853.9,"uv_index":7.95,"wind_gusts":24.1,"aqi":46,"pm10":12.7,"pm2_5":10.5,"no2":5.3,"co":306.0,"o3":60.0,"so2":1.2,"mosquito_risk":3,"arthritis_risk":10,"migraine_risk":7,"frizz_risk":1,"updated_at":"2026-06-21T23:12:09.252965+05:30"},{"city":"Gangtok","state":"Sikkim","latitude":27.3314,"longitude":88.6138,"temp":18.4,"humidity":95,"rain":0.1,"pressure":836.1,"uv_index":8.25,"wind_gusts":29.2,"aqi":76,"pm10":4.1,"pm2_5":3.6,"no2":4.3,"co":369.0,"o3":127.0,"so2":4.4,"mosquito_risk":6,"arthritis_risk":10,"migraine_risk":7,"frizz_risk":1,"updated_at":"2026-06-21T23:12:09.252971+05:30"},{"city":"Siliguri","state":"West Bengal","latitude":26.7271,"longitude":88.3953,"temp":24.3,"humidity":98,"rain":0.1,"pressure":990.7,"uv_index":7.75,"wind_gusts":29.2,"aqi":70,"pm10":19.2,"pm2_5":15.0,"no2":9.2,"co":478.0,"o3":91.0,"so2":4.1,"mosquito_risk":6,"arthritis_risk":5,"migraine_risk":7,"frizz_risk":1,"updated_at":"2026-06-21T23:12:12.584065+05:30"},{"city":"Durgapur","state":"West Bengal","latitude":23.5204,"longitude":87.3119,"temp":28.5,"humidity":93,"rain":0.0,"pressure":991.7,"uv_index":8.75,"wind_gusts":34.2,"aqi":154,"pm10":65.7,"pm2_5":64.0,"no2":24.6,"co":1056.0,"o3":92.0,"so2":42.8,"mosquito_risk":7,"arthritis_risk":5,"migraine_risk":7,"frizz_risk":1,"updated_at":"2026-06-21T23:12:12.584097+05:30"},{"city":"Asansol","state":"West Bengal","latitude":23.6739,"longitude":86.9524,"temp":28.8,"humidity":85,"rain":0.0,"pressure":990.2,"uv_index":8.05,"wind_gusts":40.7,"aqi":149,"pm10":61.2,"pm2_5":59.6,"no2":30.7,"co":609.0,"o3":80.0,"so2":54.9,"mosquito_risk":7,"arthritis_risk":5,"migraine_risk":7,"frizz_risk":1,"updated_at":"2026-06-21T23:12:12.584109+05:30"},{"city":"Pondicherry","state":"Puducherry","latitude":11.9139,"longitude":79.8145,"temp":28.9,"humidity":84,"rain":0.0,"pressure":1009.2,"uv_index":8.05,"wind_gusts":37.1,"aqi":62,"pm10":16.4,"pm2_5":13.2,"no2":11.0,"co":211.0,"o3":75.0,"so2":11.7,"mosquito_risk":7,"arthritis_risk":0,"migraine_risk":4,"frizz_risk":1,"updated_at":"2026-06-21T23:12:12.584118+05:30"},{"city":"Port Blair","state":"Andaman and Nicobar Islands","latitude":11.6234,"longitude":92.7265,"temp":26.2,"humidity":92,"rain":0.0,"pressure":1009.9,"uv_index":7.95,"wind_gusts":33.8,"aqi":52,"pm10":9.7,"pm2_5":5.3,"no2":0.2,"co":88.0,"o3":45.0,"so2":0.3,"mosquito_risk":7,"arthritis_risk":0,"migraine_risk":4,"frizz_risk":1,"updated_at":"2026-06-21T23:12:12.584126+05:30"},{"city":"Haridwar","state":"Uttarakhand","latitude":29.9457,"longitude":78.1642,"temp":28.7,"humidity":67,"rain":0.0,"pressure":968.7,"uv_index":7.6,"wind_gusts":29.9,"aqi":134,"pm10":144.8,"pm2_5":55.9,"no2":21.8,"co":492.0,"o3":82.0,"so2":12.3,"mosquito_risk":7,"arthritis_risk":5,"migraine_risk":7,"frizz_risk":1,"updated_at":"2026-06-21T23:12:12.584134+05:30"},{"city":"Rishikesh","state":"Uttarakhand","latitude":30.0869,"longitude":78.2676,"temp":25.0,"humidity":80,"rain":0.0,"pressure":961.3,"uv_index":7.7,"wind_gusts":23.0,"aqi":139,"pm10":57.4,"pm2_5":30.4,"no2":12.9,"co":387.0,"o3":119.0,"so2":9.3,"mosquito_risk":7,"arthritis_risk":5,"migraine_risk":7,"frizz_risk":1,"updated_at":"2026-06-21T23:12:12.584142+05:30"},{"city":"Nainital","state":"Uttarakhand","latitude":29.3919,"longitude":79.4542,"temp":16.1,"humidity":88,"rain":0.0,"pressure":803.0,"uv_index":8.6,"wind_gusts":31.0,"aqi":119,"pm10":96.2,"pm2_5":46.0,"no2":13.1,"co":358.0,"o3":105.0,"so2":7.8,"mosquito_risk":3,"arthritis_risk":10,"migraine_risk":7,"frizz_risk":0,"updated_at":"2026-06-21T23:12:12.584150+05:30"},{"city":"Mussoorie","state":"Uttarakhand","latitude":30.4599,"longitude":78.0664,"temp":16.5,"humidity":74,"rain":0.0,"pressure":800.5,"uv_index":8.15,"wind_gusts":42.8,"aqi":126,"pm10":35.7,"pm2_5":31.0,"no2":24.1,"co":378.0,"o3":88.0,"so2":9.3,"mosquito_risk":3,"arthritis_risk":5,"migraine_risk":7,"frizz_risk":0,"updated_at":"2026-06-21T23:12:12.584158+05:30"},{"city":"Dharamshala","state":"Himachal Pradesh","latitude":32.219,"longitude":76.3234,"temp":22.2,"humidity":54,"rain":0.0,"pressure":866.4,"uv_index":8.5,"wind_gusts":42.5,"aqi":49,"pm10":15.9,"pm2_5":14.0,"no2":14.4,"co":314.0,"o3":45.0,"so2":0.8,"mosquito_risk":0,"arthritis_risk":5,"migraine_risk":7,"frizz_risk":0,"updated_at":"2026-06-21T23:12:12.584165+05:30"},{"city":"Dalhousie","state":"Himachal Pradesh","latitude":32.5387,"longitude":75.971,"temp":15.3,"humidity":77,"rain":0.0,"pressure":801.3,"uv_index":8.75,"wind_gusts":38.5,"aqi":89,"pm10":29.0,"pm2_5":24.7,"no2":28.3,"co":374.0,"o3":82.0,"so2":3.2,"mosquito_risk":3,"arthritis_risk":5,"migraine_risk":7,"frizz_risk":0,"updated_at":"2026-06-21T23:12:12.584173+05:30"},{"city":"Patiala","state":"Punjab","latitude":30.3398,"longitude":76.3869,"temp":30.9,"humidity":48,"rain":0.0,"pressure":973.0,"uv_index":7.7,"wind_gusts":41.4,"aqi":437,"pm10":871.7,"pm2_5":164.8,"no2":13.6,"co":337.0,"o3":77.0,"so2":7.3,"mosquito_risk":0,"arthritis_risk":5,"migraine_risk":7,"frizz_risk":1,"updated_at":"2026-06-21T23:12:12.584181+05:30"},{"city":"Bhatinda","state":"Punjab","latitude":30.211,"longitude":74.9455,"temp":30.9,"humidity":54,"rain":0.0,"pressure":978.5,"uv_index":8.3,"wind_gusts":40.0,"aqi":149,"pm10":69.2,"pm2_5":43.5,"no2":28.5,"co":331.0,"o3":46.0,"so2":5.4,"mosquito_risk":0,"arthritis_risk":5,"migraine_risk":7,"frizz_risk":1,"updated_at":"2026-06-21T23:12:12.584188+05:30"},{"city":"Rohtak","state":"Haryana","latitude":28.8955,"longitude":76.6066,"temp":29.9,"humidity":50,"rain":0.0,"pressure":977.3,"uv_index":7.75,"wind_gusts":32.4,"aqi":662,"pm10":938.8,"pm2_5":184.9,"no2":41.3,"co":239.0,"o3":40.0,"so2":10.2,"mosquito_risk":4,"arthritis_risk":5,"migraine_risk":7,"frizz_risk":1,"updated_at":"2026-06-21T23:12:12.584196+05:30"},{"city":"Panipat","state":"Haryana","latitude":29.3909,"longitude":76.9635,"temp":30.1,"humidity":54,"rain":0.0,"pressure":975.7,"uv_index":7.65,"wind_gusts":33.8,"aqi":1818,"pm10":2108.5,"pm2_5":339.0,"no2":17.3,"co":376.0,"o3":82.0,"so2":8.8,"mosquito_risk":0,"arthritis_risk":5,"migraine_risk":7,"frizz_risk":1,"updated_at":"2026-06-21T23:12:12.584202+05:30"},{"city":"Mathura","state":"Uttar Pradesh","latitude":27.4924,"longitude":77.6737,"temp":30.6,"humidity":51,"rain":0.0,"pressure":982.9,"uv_index":8.05,"wind_gusts":39.2,"aqi":775,"pm10":277.5,"pm2_5":60.5,"no2":26.5,"co":239.0,"o3":42.0,"so2":5.4,"mosquito_risk":0,"arthritis_risk":5,"migraine_risk":7,"frizz_risk":1,"updated_at":"2026-06-21T23:12:12.584209+05:30"},{"city":"Vrindavan","state":"Uttar Pradesh","latitude":27.5823,"longitude":77.7027,"temp":30.4,"humidity":53,"rain":0.0,"pressure":983.3,"uv_index":8.05,"wind_gusts":34.6,"aqi":775,"pm10":277.5,"pm2_5":60.5,"no2":26.5,"co":207.0,"o3":42.0,"so2":5.4,"mosquito_risk":0,"arthritis_risk":5,"migraine_risk":7,"frizz_risk":1,"updated_at":"2026-06-21T23:12:12.584215+05:30"},{"city":"Ayodhya","state":"Uttar Pradesh","latitude":26.7922,"longitude":82.1998,"temp":32.8,"humidity":57,"rain":0.0,"pressure":990.4,"uv_index":8.45,"wind_gusts":36.7,"aqi":163,"pm10":197.9,"pm2_5":80.1,"no2":17.2,"co":218.0,"o3":59.0,"so2":7.3,"mosquito_risk":0,"arthritis_risk":5,"migraine_risk":7,"frizz_risk":1,"updated_at":"2026-06-21T23:12:12.584222+05:30"},{"city":"Ratlam","state":"Madhya Pradesh","latitude":23.3315,"longitude":75.0367,"temp":28.9,"humidity":60,"rain":0.0,"pressure":953.1,"uv_index":8.45,"wind_gusts":40.7,"aqi":67,"pm10":33.9,"pm2_5":22.9,"no2":4.5,"co":143.0,"o3":71.0,"so2":4.8,"mosquito_risk":4,"arthritis_risk":5,"migraine_risk":7,"frizz_risk":1,"updated_at":"2026-06-21T23:12:12.584229+05:30"},{"city":"Sagar","state":"Madhya Pradesh","latitude":23.8388,"longitude":78.7378,"temp":27.6,"humidity":69,"rain":0.0,"pressure":948.5,"uv_index":6.75,"wind_gusts":41.0,"aqi":80,"pm10":47.0,"pm2_5":30.4,"no2":11.7,"co":168.0,"o3":52.0,"so2":2.8,"mosquito_risk":7,"arthritis_risk":5,"migraine_risk":7,"frizz_risk":1,"updated_at":"2026-06-21T23:12:12.584236+05:30"},{"city":"Satna","state":"Madhya Pradesh","latitude":24.6005,"longitude":80.8322,"temp":31.8,"humidity":52,"rain":0.0,"pressure":968.5,"uv_index":8.3,"wind_gusts":38.2,"aqi":88,"pm10":41.3,"pm2_5":27.0,"no2":7.2,"co":160.0,"o3":72.0,"so2":3.7,"mosquito_risk":0,"arthritis_risk":5,"migraine_risk":7,"frizz_risk":1,"updated_at":"2026-06-21T23:12:12.584242+05:30"},{"city":"Akola","state":"Maharashtra","latitude":20.7002,"longitude":77.0082,"temp":34.0,"humidity":39,"rain":0.0,"pressure":973.2,"uv_index":8.8,"wind_gusts":42.8,"aqi":56,"pm10":33.6,"pm2_5":26.3,"no2":25.1,"co":137.0,"o3":42.0,"so2":7.0,"mosquito_risk":0,"arthritis_risk":5,"migraine_risk":7,"frizz_risk":1,"updated_at":"2026-06-21T23:12:12.584249+05:30"},{"city":"Amravati","state":"Maharashtra","latitude":20.9374,"longitude":77.7796,"temp":31.1,"humidity":55,"rain":0.0,"pressure":966.0,"uv_index":8.35,"wind_gusts":42.5,"aqi":58,"pm10":35.0,"pm2_5":26.7,"no2":24.6,"co":176.0,"o3":40.0,"so2":6.8,"mosquito_risk":0,"arthritis_risk":5,"migraine_risk":7,"frizz_risk":1,"updated_at":"2026-06-21T23:12:12.584257+05:30"},{"city":"Latur","state":"Maharashtra","latitude":18.4088,"longitude":76.5604,"temp":31.0,"humidity":45,"rain":0.0,"pressure":939.4,"uv_index":6.85,"wind_gusts":28.1,"aqi":63,"pm10":12.5,"pm2_5":10.2,"no2":5.6,"co":242.0,"o3":65.0,"so2":1.9,"mosquito_risk":0,"arthritis_risk":5,"migraine_risk":7,"frizz_risk":1,"updated_at":"2026-06-21T23:12:12.584264+05:30"},{"city":"Nanded","state":"Maharashtra","latitude":19.1383,"longitude":77.3091,"temp":29.6,"humidity":65,"rain":0.0,"pressure":967.8,"uv_index":8.0,"wind_gusts":35.3,"aqi":60,"pm10":29.4,"pm2_5":24.0,"no2":9.1,"co":229.0,"o3":80.0,"so2":7.4,"mosquito_risk":7,"arthritis_risk":5,"migraine_risk":7,"frizz_risk":1,"updated_at":"2026-06-21T23:12:12.584271+05:30"},{"city":"Gulbarga","state":"Karnataka","latitude":17.3297,"longitude":76.8343,"temp":28.6,"humidity":61,"rain":0.0,"pressure":958.8,"uv_index":8.35,"wind_gusts":33.5,"aqi":52,"pm10":10.2,"pm2_5":8.3,"no2":8.3,"co":198.0,"o3":63.0,"so2":2.5,"mosquito_risk":7,"arthritis_risk":5,"migraine_risk":7,"frizz_risk":1,"updated_at":"2026-06-21T23:12:12.584277+05:30"},{"city":"Bidar","state":"Karnataka","latitude":17.9104,"longitude":77.5199,"temp":28.2,"humidity":64,"rain":0.0,"pressure":935.3,"uv_index":8.8,"wind_gusts":30.2,"aqi":67,"pm10":34.6,"pm2_5":29.1,"no2":22.4,"co":219.0,"o3":49.0,"so2":3.7,"mosquito_risk":7,"arthritis_risk":5,"migraine_risk":7,"frizz_risk":1,"updated_at":"2026-06-21T23:12:12.584284+05:30"},{"city":"Hospet","state":"Karnataka","latitude":15.2689,"longitude":76.3909,"temp":25.2,"humidity":85,"rain":0.0,"pressure":956.8,"uv_index":8.5,"wind_gusts":44.6,"aqi":31,"pm10":4.9,"pm2_5":4.3,"no2":6.2,"co":146.0,"o3":46.0,"so2":1.6,"mosquito_risk":7,"arthritis_risk":5,"migraine_risk":7,"frizz_risk":1,"updated_at":"2026-06-21T23:12:12.584312+05:30"},{"city":"Tirupur","state":"Tamil Nadu","latitude":11.1085,"longitude":77.3411,"temp":24.4,"humidity":88,"rain":0.0,"pressure":976.9,"uv_index":8.45,"wind_gusts":47.5,"aqi":45,"pm10":11.4,"pm2_5":10.5,"no2":13.0,"co":152.0,"o3":38.0,"so2":4.6,"mosquito_risk":3,"arthritis_risk":5,"migraine_risk":7,"frizz_risk":1,"updated_at":"2026-06-21T23:12:12.584320+05:30"},{"city":"Alappuzha","state":"Kerala","latitude":9.4981,"longitude":76.3388,"temp":25.8,"humidity":91,"rain":0.1,"pressure":1011.8,"uv_index":8.1,"wind_gusts":33.8,"aqi":33,"pm10":11.0,"pm2_5":8.7,"no2":7.2,"co":86.0,"o3":39.0,"so2":2.6,"mosquito_risk":10,"arthritis_risk":0,"migraine_risk":4,"frizz_risk":1,"updated_at":"2026-06-21T23:12:12.584327+05:30"},{"city":"Munnar","state":"Kerala","latitude":10.0889,"longitude":77.0595,"temp":17.2,"humidity":99,"rain":0.0,"pressure":858.1,"uv_index":8.25,"wind_gusts":32.4,"aqi":34,"pm10":5.1,"pm2_5":4.8,"no2":7.4,"co":104.0,"o3":35.0,"so2":2.3,"mosquito_risk":3,"arthritis_risk":10,"migraine_risk":7,"frizz_risk":1,"updated_at":"2026-06-21T23:12:12.584335+05:30"},{"city":"Silchar","state":"Assam","latitude":24.8333,"longitude":92.7789,"temp":25.1,"humidity":100,"rain":0.0,"pressure":1004.1,"uv_index":8.85,"wind_gusts":30.6,"aqi":67,"pm10":22.3,"pm2_5":18.3,"no2":5.7,"co":307.0,"o3":82.0,"so2":3.1,"mosquito_risk":7,"arthritis_risk":5,"migraine_risk":4,"frizz_risk":1,"updated_at":"2026-06-21T23:12:12.584342+05:30"},{"city":"Dibrugarh","state":"Assam","latitude":27.4728,"longitude":94.912,"temp":24.8,"humidity":96,"rain":0.0,"pressure":993.4,"uv_index":3.45,"wind_gusts":35.3,"aqi":68,"pm10":22.9,"pm2_5":21.2,"no2":10.1,"co":230.0,"o3":71.0,"so2":1.9,"mosquito_risk":3,"arthritis_risk":5,"migraine_risk":3,"frizz_risk":1,"updated_at":"2026-06-21T23:12:12.584348+05:30"}]