[{"city":"Delhi","state":"Delhi","latitude":28.6139,"longitude":77.209,"temp":40.5,"humidity":13,"rain":0.0,"pressure":974.5,"uv_index":7.45,"wind_gusts":47.2,"aqi":466,"pm10":502.9,"pm2_5":58.0,"mosquito_risk":0,"arthritis_risk":5,"migraine_risk":10,"frizz_risk":0,"updated_at":"2026-04-27T17:16:27.824619+05:30"},{"city":"Mumbai","state":"Maharashtra","latitude":19.076,"longitude":72.8777,"temp":31.4,"humidity":69,"rain":0.0,"pressure":1003.9,"uv_index":8.0,"wind_gusts":39.6,"aqi":89,"pm10":49.6,"pm2_5":24.8,"mosquito_risk":3,"arthritis_risk":5,"migraine_risk":4,"frizz_risk":1,"updated_at":"2026-04-27T17:16:27.824670+05:30"},{"city":"Bangalore","state":"Karnataka","latitude":12.9716,"longitude":77.5946,"temp":35.7,"humidity":19,"rain":0.0,"pressure":908.6,"uv_index":9.55,"wind_gusts":37.4,"aqi":167,"pm10":48.1,"pm2_5":28.4,"mosquito_risk":0,"arthritis_risk":5,"migraine_risk":10,"frizz_risk":0,"updated_at":"2026-04-27T17:16:27.824687+05:30"},{"city":"Hyderabad","state":"Telangana","latitude":17.385,"longitude":78.4867,"temp":39.2,"humidity":16,"rain":0.0,"pressure":948.5,"uv_index":9.25,"wind_gusts":33.8,"aqi":154,"pm10":47.4,"pm2_5":36.6,"mosquito_risk":0,"arthritis_risk":5,"migraine_risk":10,"frizz_risk":0,"updated_at":"2026-04-27T17:16:27.824698+05:30"},{"city":"Chennai","state":"Tamil Nadu","latitude":13.0827,"longitude":80.2707,"temp":31.7,"humidity":64,"rain":0.0,"pressure":1002.9,"uv_index":9.25,"wind_gusts":55.1,"aqi":55,"pm10":20.4,"pm2_5":15.3,"mosquito_risk":3,"arthritis_risk":5,"migraine_risk":4,"frizz_risk":1,"updated_at":"2026-04-27T17:16:27.824712+05:30"},{"city":"Kolkata","state":"West Bengal","latitude":22.5726,"longitude":88.3639,"temp":31.4,"humidity":71,"rain":0.0,"pressure":998.2,"uv_index":8.85,"wind_gusts":58.7,"aqi":59,"pm10":17.9,"pm2_5":14.1,"mosquito_risk":3,"arthritis_risk":5,"migraine_risk":7,"frizz_risk":1,"updated_at":"2026-04-27T17:16:27.824722+05:30"},{"city":"Pune","state":"Maharashtra","latitude":18.5204,"longitude":73.8567,"temp":36.6,"humidity":24,"rain":0.0,"pressure":944.5,"uv_index":8.55,"wind_gusts":41.4,"aqi":109,"pm10":37.3,"pm2_5":20.6,"mosquito_risk":0,"arthritis_risk":5,"migraine_risk":10,"frizz_risk":0,"updated_at":"2026-04-27T17:16:27.824735+05:30"},{"city":"Ahmedabad","state":"Gujarat","latitude":23.0225,"longitude":72.5714,"temp":42.9,"humidity":10,"rain":0.0,"pressure":994.9,"uv_index":8.2,"wind_gusts":48.6,"aqi":48,"pm10":19.4,"pm2_5":8.7,"mosquito_risk":0,"arthritis_risk":5,"migraine_risk":10,"frizz_risk":0,"updated_at":"2026-04-27T17:16:27.824744+05:30"},{"city":"Jaipur","state":"Rajasthan","latitude":26.9124,"longitude":75.7873,"temp":40.8,"humidity":13,"rain":0.0,"pressure":952.9,"uv_index":8.05,"wind_gusts":37.8,"aqi":129,"pm10":251.5,"pm2_5":32.1,"mosquito_risk":0,"arthritis_risk":5,"migraine_risk":10,"frizz_risk":0,"updated_at":"2026-04-27T17:16:27.824752+05:30"},{"city":"Lucknow","state":"Uttar Pradesh","latitude":26.8467,"longitude":80.9462,"temp":42.0,"humidity":14,"rain":0.0,"pressure":983.5,"uv_index":7.9,"wind_gusts":46.4,"aqi":174,"pm10":202.1,"pm2_5":40.9,"mosquito_risk":0,"arthritis_risk":5,"migraine_risk":10,"frizz_risk":0,"updated_at":"2026-04-27T17:16:27.824761+05:30"},{"city":"Kanpur","state":"Uttar Pradesh","latitude":26.4499,"longitude":80.3319,"temp":42.4,"humidity":12,"rain":0.0,"pressure":982.2,"uv_index":7.95,"wind_gusts":49.0,"aqi":264,"pm10":581.1,"pm2_5":64.7,"mosquito_risk":0,"arthritis_risk":5,"migraine_risk":10,"frizz_risk":0,"updated_at":"2026-04-27T17:16:27.824769+05:30"},{"city":"Chandigarh","state":"Chandigarh","latitude":30.7333,"longitude":76.7794,"temp":36.1,"humidity":18,"rain":0.0,"pressure":961.5,"uv_index":7.45,"wind_gusts":46.1,"aqi":138,"pm10":7.6,"pm2_5":6.2,"mosquito_risk":0,"arthritis_risk":5,"migraine_risk":10,"frizz_risk":0,"updated_at":"2026-04-27T17:16:27.824777+05:30"},{"city":"Srinagar","state":"Jammu and Kashmir","latitude":34.0837,"longitude":74.7973,"temp":24.1,"humidity":40,"rain":0.0,"pressure":839.3,"uv_index":8.3,"wind_gusts":18.7,"aqi":87,"pm10":17.1,"pm2_5":9.0,"mosquito_risk":0,"arthritis_risk":5,"migraine_risk":7,"frizz_risk":0,"updated_at":"2026-04-27T17:16:27.824785+05:30"},{"city":"Jammu","state":"Jammu and Kashmir","latitude":32.7266,"longitude":74.857,"temp":34.8,"humidity":26,"rain":0.0,"pressure":965.8,"uv_index":8.25,"wind_gusts":33.5,"aqi":119,"pm10":8.7,"pm2_5":5.6,"mosquito_risk":0,"arthritis_risk":5,"migraine_risk":7,"frizz_risk":0,"updated_at":"2026-04-27T17:16:27.824793+05:30"},{"city":"Amritsar","state":"Punjab","latitude":31.634,"longitude":74.8723,"temp":37.2,"humidity":20,"rain":0.0,"pressure":973.3,"uv_index":8.1,"wind_gusts":43.9,"aqi":128,"pm10":33.1,"pm2_5":13.5,"mosquito_risk":0,"arthritis_risk":5,"migraine_risk":10,"frizz_risk":0,"updated_at":"2026-04-27T17:16:27.824801+05:30"},{"city":"Ludhiana","state":"Punjab","latitude":30.901,"longitude":75.8573,"temp":38.3,"humidity":16,"rain":0.0,"pressure":970.9,"uv_index":7.7,"wind_gusts":40.0,"aqi":108,"pm10":30.7,"pm2_5":9.4,"mosquito_risk":0,"arthritis_risk":5,"migraine_risk":10,"frizz_risk":0,"updated_at":"2026-04-27T17:16:27.824808+05:30"},{"city":"Jalandhar","state":"Punjab","latitude":31.326,"longitude":75.5762,"temp":37.3,"humidity":19,"rain":0.0,"pressure":972.0,"uv_index":7.7,"wind_gusts":33.5,"aqi":115,"pm10":43.1,"pm2_5":12.5,"mosquito_risk":0,"arthritis_risk":5,"migraine_risk":10,"frizz_risk":0,"updated_at":"2026-04-27T17:16:27.824818+05:30"},{"city":"Dehradun","state":"Uttarakhand","latitude":30.6284,"longitude":78.0322,"temp":24.2,"humidity":24,"rain":0.0,"pressure":827.5,"uv_index":7.9,"wind_gusts":44.6,"aqi":121,"pm10":9.5,"pm2_5":5.5,"mosquito_risk":0,"arthritis_risk":5,"migraine_risk":7,"frizz_risk":0,"updated_at":"2026-04-27T17:16:27.824826+05:30"},{"city":"Shimla","state":"Himachal Pradesh","latitude":31.1048,"longitude":77.1734,"temp":21.6,"humidity":22,"rain":0.0,"pressure":783.3,"uv_index":7.95,"wind_gusts":45.7,"aqi":123,"pm10":8.4,"pm2_5":4.2,"mosquito_risk":0,"arthritis_risk":5,"migraine_risk":7,"frizz_risk":1,"updated_at":"2026-04-27T17:16:27.824834+05:30"},{"city":"Manali","state":"Himachal Pradesh","latitude":32.2396,"longitude":77.1887,"temp":19.5,"humidity":41,"rain":0.0,"pressure":814.9,"uv_index":9.9,"wind_gusts":38.9,"aqi":137,"pm10":13.9,"pm2_5":6.4,"mosquito_risk":0,"arthritis_risk":5,"migraine_risk":7,"frizz_risk":0,"updated_at":"2026-04-27T17:16:27.824841+05:30"},{"city":"Gurgaon","state":"Haryana","latitude":28.4595,"longitude":77.0266,"temp":39.6,"humidity":14,"rain":0.0,"pressure":973.1,"uv_index":7.55,"wind_gusts":47.9,"aqi":935,"pm10":1825.4,"pm2_5":166.7,"mosquito_risk":0,"arthritis_risk":5,"migraine_risk":10,"frizz_risk":0,"updated_at":"2026-04-27T17:16:27.824848+05:30"},{"city":"Noida","state":"Uttar Pradesh","latitude":28.5355,"longitude":77.391,"temp":40.7,"humidity":13,"rain":0.0,"pressure":975.6,"uv_index":7.45,"wind_gusts":41.4,"aqi":935,"pm10":1825.4,"pm2_5":166.7,"mosquito_risk":0,"arthritis_risk":5,"migraine_risk":10,"frizz_risk":0,"updated_at":"2026-04-27T17:16:27.824855+05:30"},{"city":"Ghaziabad","state":"Uttar Pradesh","latitude":28.6692,"longitude":77.4538,"temp":40.8,"humidity":13,"rain":0.0,"pressure":973.9,"uv_index":7.45,"wind_gusts":47.2,"aqi":390,"pm10":433.1,"pm2_5":50.9,"mosquito_risk":0,"arthritis_risk":5,"migraine_risk":10,"frizz_risk":0,"updated_at":"2026-04-27T17:16:27.824862+05:30"},{"city":"Faridabad","state":"Haryana","latitude":28.4089,"longitude":77.3178,"temp":40.8,"humidity":12,"rain":0.0,"pressure":975.1,"uv_index":7.5,"wind_gusts":50.8,"aqi":935,"pm10":1825.4,"pm2_5":166.7,"mosquito_risk":0,"arthritis_risk":5,"migraine_risk":10,"frizz_risk":0,"updated_at":"2026-04-27T17:16:27.824872+05:30"},{"city":"Meerut","state":"Uttar Pradesh","latitude":28.9845,"longitude":77.7064,"temp":39.0,"humidity":18,"rain":0.0,"pressure":972.2,"uv_index":7.35,"wind_gusts":38.2,"aqi":390,"pm10":433.1,"pm2_5":50.9,"mosquito_risk":0,"arthritis_risk":5,"migraine_risk":10,"frizz_risk":0,"updated_at":"2026-04-27T17:16:27.824879+05:30"},{"city":"Agra","state":"Uttar Pradesh","latitude":27.1767,"longitude":78.0081,"temp":41.0,"humidity":15,"rain":0.0,"pressure":979.5,"uv_index":7.8,"wind_gusts":45.4,"aqi":481,"pm10":707.8,"pm2_5":72.6,"mosquito_risk":0,"arthritis_risk":5,"migraine_risk":10,"frizz_risk":0,"updated_at":"2026-04-27T17:16:27.824887+05:30"},{"city":"Varanasi","state":"Uttar Pradesh","latitude":25.3176,"longitude":82.9739,"temp":42.0,"humidity":13,"rain":0.0,"pressure":987.6,"uv_index":8.5,"wind_gusts":51.5,"aqi":164,"pm10":90.3,"pm2_5":25.6,"mosquito_risk":0,"arthritis_risk":5,"migraine_risk":10,"frizz_risk":0,"updated_at":"2026-04-27T17:16:27.824897+05:30"},{"city":"Prayagraj","state":"Uttar Pradesh","latitude":25.4358,"longitude":81.8463,"temp":41.2,"humidity":15,"rain":0.0,"pressure":986.5,"uv_index":8.4,"wind_gusts":44.3,"aqi":151,"pm10":122.0,"pm2_5":29.6,"mosquito_risk":0,"arthritis_risk":5,"migraine_risk":10,"frizz_risk":0,"updated_at":"2026-04-27T17:16:27.824904+05:30"},{"city":"Gorakhpur","state":"Uttar Pradesh","latitude":26.7606,"longitude":83.3732,"temp":36.8,"humidity":30,"rain":0.0,"pressure":988.4,"uv_index":8.35,"wind_gusts":38.9,"aqi":155,"pm10":100.4,"pm2_5":51.5,"mosquito_risk":0,"arthritis_risk":5,"migraine_risk":10,"frizz_risk":1,"updated_at":"2026-04-27T17:16:27.824912+05:30"},{"city":"Bareilly","state":"Uttar Pradesh","latitude":28.367,"longitude":79.4304,"temp":38.8,"humidity":18,"rain":0.0,"pressure":977.5,"uv_index":7.7,"wind_gusts":46.4,"aqi":156,"pm10":27.9,"pm2_5":18.7,"mosquito_risk":0,"arthritis_risk":5,"migraine_risk":10,"frizz_risk":0,"updated_at":"2026-04-27T17:16:27.824919+05:30"},{"city":"Aligarh","state":"Uttar Pradesh","latitude":27.8974,"longitude":78.088,"temp":40.5,"humidity":14,"rain":0.0,"pressure":976.7,"uv_index":7.6,"wind_gusts":50.0,"aqi":672,"pm10":936.9,"pm2_5":92.9,"mosquito_risk":0,"arthritis_risk":5,"migraine_risk":10,"frizz_risk":0,"updated_at":"2026-04-27T17:16:27.824926+05:30"},{"city":"Moradabad","state":"Uttar Pradesh","latitude":28.8386,"longitude":78.7733,"temp":39.5,"humidity":15,"rain":0.0,"pressure":974.4,"uv_index":7.55,"wind_gusts":49.3,"aqi":168,"pm10":25.8,"pm2_5":12.3,"mosquito_risk":0,"arthritis_risk":5,"migraine_risk":10,"frizz_risk":0,"updated_at":"2026-04-27T17:16:27.824933+05:30"},{"city":"Saharanpur","state":"Uttar Pradesh","latitude":29.9637,"longitude":77.546,"temp":37.0,"humidity":18,"rain":0.0,"pressure":967.1,"uv_index":7.1,"wind_gusts":47.2,"aqi":146,"pm10":115.0,"pm2_5":20.4,"mosquito_risk":0,"arthritis_risk":5,"migraine_risk":10,"frizz_risk":0,"updated_at":"2026-04-27T17:16:27.824941+05:30"},{"city":"Jhansi","state":"Uttar Pradesh","latitude":25.4484,"longitude":78.5685,"temp":42.0,"humidity":13,"rain":0.0,"pressure":969.8,"uv_index":8.3,"wind_gusts":49.3,"aqi":67,"pm10":41.3,"pm2_5":10.8,"mosquito_risk":0,"arthritis_risk":5,"migraine_risk":10,"frizz_risk":0,"updated_at":"2026-04-27T17:16:31.139848+05:30"},{"city":"Surat","state":"Gujarat","latitude":21.1702,"longitude":72.8311,"temp":35.2,"humidity":43,"rain":0.0,"pressure":1001.1,"uv_index":7.8,"wind_gusts":37.8,"aqi":101,"pm10":41.9,"pm2_5":29.2,"mosquito_risk":0,"arthritis_risk":5,"migraine_risk":7,"frizz_risk":1,"updated_at":"2026-04-27T17:16:31.139881+05:30"},{"city":"Vadodara","state":"Gujarat","latitude":22.3072,"longitude":73.1812,"temp":42.8,"humidity":12,"rain":0.0,"pressure":996.8,"uv_index":8.15,"wind_gusts":48.6,"aqi":79,"pm10":32.0,"pm2_5":15.5,"mosquito_risk":0,"arthritis_risk":5,"migraine_risk":10,"frizz_risk":0,"updated_at":"2026-04-27T17:16:31.139893+05:30"},{"city":"Rajkot","state":"Gujarat","latitude":22.3039,"longitude":70.8022,"temp":38.8,"humidity":16,"rain":0.0,"pressure":988.9,"uv_index":7.9,"wind_gusts":52.2,"aqi":49,"pm10":31.5,"pm2_5":11.4,"mosquito_risk":0,"arthritis_risk":5,"migraine_risk":10,"frizz_risk":0,"updated_at":"2026-04-27T17:16:31.139903+05:30"},{"city":"Thane","state":"Maharashtra","latitude":19.2183,"longitude":72.9781,"temp":34.3,"humidity":53,"rain":0.0,"pressure":1003.1,"uv_index":8.05,"wind_gusts":37.1,"aqi":89,"pm10":49.6,"pm2_5":24.8,"mosquito_risk":0,"arthritis_risk":5,"migraine_risk":4,"frizz_risk":1,"updated_at":"2026-04-27T17:16:31.139911+05:30"},{"city":"Nagpur","state":"Maharashtra","latitude":21.1458,"longitude":79.0882,"temp":42.2,"humidity":11,"rain":0.0,"pressure":966.5,"uv_index":8.7,"wind_gusts":40.7,"aqi":181,"pm10":43.2,"pm2_5":19.6,"mosquito_risk":0,"arthritis_risk":5,"migraine_risk":10,"frizz_risk":0,"updated_at":"2026-04-27T17:16:31.139920+05:30"},{"city":"Nashik","state":"Maharashtra","latitude":19.9975,"longitude":73.7898,"temp":36.7,"humidity":21,"rain":0.0,"pressure":942.4,"uv_index":8.3,"wind_gusts":38.2,"aqi":97,"pm10":35.6,"pm2_5":21.5,"mosquito_risk":0,"arthritis_risk":5,"migraine_risk":10,"frizz_risk":0,"updated_at":"2026-04-27T17:16:31.139928+05:30"},{"city":"Aurangabad","state":"Maharashtra","latitude":19.8762,"longitude":75.3433,"temp":39.0,"humidity":14,"rain":0.0,"pressure":940.2,"uv_index":9.0,"wind_gusts":33.8,"aqi":105,"pm10":27.5,"pm2_5":17.5,"mosquito_risk":0,"arthritis_risk":5,"migraine_risk":10,"frizz_risk":0,"updated_at":"2026-04-27T17:16:31.139935+05:30"},{"city":"Solapur","state":"Maharashtra","latitude":17.6599,"longitude":75.9064,"temp":40.8,"humidity":13,"rain":0.0,"pressure":951.7,"uv_index":9.05,"wind_gusts":29.5,"aqi":135,"pm10":27.5,"pm2_5":18.8,"mosquito_risk":0,"arthritis_risk":5,"migraine_risk":10,"frizz_risk":0,"updated_at":"2026-04-27T17:16:31.139942+05:30"},{"city":"Kolhapur","state":"Maharashtra","latitude":16.705,"longitude":74.2433,"temp":33.0,"humidity":42,"rain":0.0,"pressure":944.4,"uv_index":9.0,"wind_gusts":46.4,"aqi":102,"pm10":28.9,"pm2_5":19.7,"mosquito_risk":0,"arthritis_risk":5,"migraine_risk":7,"frizz_risk":1,"updated_at":"2026-04-27T17:16:31.139949+05:30"},{"city":"Goa","state":"Goa","latitude":15.2993,"longitude":74.124,"temp":32.5,"humidity":60,"rain":0.0,"pressure":993.8,"uv_index":8.95,"wind_gusts":37.4,"aqi":74,"pm10":32.0,"pm2_5":15.3,"mosquito_risk":0,"arthritis_risk":5,"migraine_risk":7,"frizz_risk":1,"updated_at":"2026-04-27T17:16:31.139956+05:30"},{"city":"Jodhpur","state":"Rajasthan","latitude":26.2389,"longitude":73.0243,"temp":42.0,"humidity":11,"rain":0.0,"pressure":975.1,"uv_index":8.3,"wind_gusts":43.9,"aqi":112,"pm10":213.3,"pm2_5":26.2,"mosquito_risk":0,"arthritis_risk":5,"migraine_risk":10,"frizz_risk":0,"updated_at":"2026-04-27T17:16:31.139962+05:30"},{"city":"Udaipur","state":"Rajasthan","latitude":24.5854,"longitude":73.7125,"temp":38.0,"humidity":10,"rain":0.0,"pressure":941.5,"uv_index":8.75,"wind_gusts":45.0,"aqi":47,"pm10":17.1,"pm2_5":7.0,"mosquito_risk":0,"arthritis_risk":5,"migraine_risk":10,"frizz_risk":0,"updated_at":"2026-04-27T17:16:31.139969+05:30"},{"city":"Kota","state":"Rajasthan","latitude":25.2138,"longitude":75.8648,"temp":42.3,"humidity":12,"rain":0.0,"pressure":970.8,"uv_index":8.3,"wind_gusts":33.1,"aqi":76,"pm10":41.9,"pm2_5":13.2,"mosquito_risk":0,"arthritis_risk":5,"migraine_risk":10,"frizz_risk":0,"updated_at":"2026-04-27T17:16:31.139975+05:30"},{"city":"Bikaner","state":"Rajasthan","latitude":28.0229,"longitude":73.3119,"temp":39.0,"humidity":18,"rain":0.0,"pressure":974.5,"uv_index":8.1,"wind_gusts":58.3,"aqi":60,"pm10":62.6,"pm2_5":15.7,"mosquito_risk":0,"arthritis_risk":5,"migraine_risk":10,"frizz_risk":0,"updated_at":"2026-04-27T17:16:31.139982+05:30"},{"city":"Ajmer","state":"Rajasthan","latitude":26.4499,"longitude":74.6399,"temp":39.5,"humidity":12,"rain":0.0,"pressure":948.4,"uv_index":8.25,"wind_gusts":49.0,"aqi":58,"pm10":87.1,"pm2_5":18.1,"mosquito_risk":0,"arthritis_risk":5,"migraine_risk":10,"frizz_risk":0,"updated_at":"2026-04-27T17:16:31.139989+05:30"},{"city":"Gwalior","state":"Madhya Pradesh","latitude":26.2183,"longitude":78.1828,"temp":41.8,"humidity":14,"rain":0.0,"pressure":975.0,"uv_index":8.05,"wind_gusts":49.7,"aqi":85,"pm10":92.7,"pm2_5":19.0,"mosquito_risk":0,"arthritis_risk":5,"migraine_risk":10,"frizz_risk":0,"updated_at":"2026-04-27T17:16:31.139995+05:30"},{"city":"Indore","state":"Madhya Pradesh","latitude":22.7196,"longitude":75.8577,"temp":39.2,"humidity":10,"rain":0.0,"pressure":943.5,"uv_index":8.6,"wind_gusts":51.5,"aqi":68,"pm10":20.1,"pm2_5":8.7,"mosquito_risk":0,"arthritis_risk":5,"migraine_risk":10,"frizz_risk":0,"updated_at":"2026-04-27T17:16:31.140002+05:30"},{"city":"Bhopal","state":"Madhya Pradesh","latitude":23.2599,"longitude":77.4126,"temp":41.7,"humidity":10,"rain":0.0,"pressure":947.3,"uv_index":8.6,"wind_gusts":44.3,"aqi":87,"pm10":20.8,"pm2_5":10.5,"mosquito_risk":0,"arthritis_risk":5,"migraine_risk":10,"frizz_risk":0,"updated_at":"2026-04-27T17:16:31.140008+05:30"},{"city":"Jabalpur","state":"Madhya Pradesh","latitude":23.1815,"longitude":79.9864,"temp":39.2,"humidity":15,"rain":0.0,"pressure":955.9,"uv_index":8.75,"wind_gusts":49.7,"aqi":95,"pm10":46.9,"pm2_5":13.9,"mosquito_risk":0,"arthritis_risk":5,"migraine_risk":10,"frizz_risk":0,"updated_at":"2026-04-27T17:16:31.140015+05:30"},{"city":"Ujjain","state":"Madhya Pradesh","latitude":23.1765,"longitude":75.7885,"temp":39.2,"humidity":10,"rain":0.0,"pressure":948.7,"uv_index":8.55,"wind_gusts":49.0,"aqi":63,"pm10":18.9,"pm2_5":7.6,"mosquito_risk":0,"arthritis_risk":5,"migraine_risk":10,"frizz_risk":0,"updated_at":"2026-04-27T17:16:31.140021+05:30"},{"city":"Visakhapatnam","state":"Andhra Pradesh","latitude":17.6868,"longitude":83.2185,"temp":31.0,"humidity":72,"rain":0.0,"pressure":998.8,"uv_index":9.2,"wind_gusts":54.0,"aqi":56,"pm10":25.1,"pm2_5":18.0,"mosquito_risk":3,"arthritis_risk":5,"migraine_risk":7,"frizz_risk":1,"updated_at":"2026-04-27T17:16:31.140028+05:30"},{"city":"Vijayawada","state":"Andhra Pradesh","latitude":16.5062,"longitude":80.648,"temp":37.3,"humidity":35,"rain":0.0,"pressure":996.8,"uv_index":9.15,"wind_gusts":36.4,"aqi":58,"pm10":29.7,"pm2_5":23.1,"mosquito_risk":0,"arthritis_risk":5,"migraine_risk":10,"frizz_risk":1,"updated_at":"2026-04-27T17:16:31.140035+05:30"},{"city":"Guntur","state":"Andhra Pradesh","latitude":16.3067,"longitude":80.4365,"temp":34.7,"humidity":50,"rain":0.0,"pressure":998.3,"uv_index":9.0,"wind_gusts":38.2,"aqi":73,"pm10":32.6,"pm2_5":24.6,"mosquito_risk":0,"arthritis_risk":5,"migraine_risk":7,"frizz_risk":1,"updated_at":"2026-04-27T17:16:31.140042+05:30"},{"city":"Nellore","state":"Andhra Pradesh","latitude":14.4426,"longitude":79.9865,"temp":33.0,"humidity":61,"rain":0.0,"pressure":1000.1,"uv_index":9.3,"wind_gusts":47.9,"aqi":77,"pm10":33.4,"pm2_5":23.5,"mosquito_risk":3,"arthritis_risk":5,"migraine_risk":4,"frizz_risk":1,"updated_at":"2026-04-27T17:16:31.140049+05:30"},{"city":"Kurnool","state":"Andhra Pradesh","latitude":15.8281,"longitude":78.0373,"temp":41.0,"humidity":17,"rain":0.0,"pressure":970.9,"uv_index":9.2,"wind_gusts":34.9,"aqi":173,"pm10":41.4,"pm2_5":32.4,"mosquito_risk":0,"arthritis_risk":5,"migraine_risk":10,"frizz_risk":0,"updated_at":"2026-04-27T17:16:31.140057+05:30"},{"city":"Kakinada","state":"Andhra Pradesh","latitude":16.9891,"longitude":82.2475,"temp":35.3,"humidity":46,"rain":0.0,"pressure":1002.1,"uv_index":8.9,"wind_gusts":40.7,"aqi":52,"pm10":24.2,"pm2_5":15.7,"mosquito_risk":0,"arthritis_risk":5,"migraine_risk":7,"frizz_risk":1,"updated_at":"2026-04-27T17:16:31.140064+05:30"},{"city":"Tirupati","state":"Andhra Pradesh","latitude":13.6288,"longitude":79.4192,"temp":39.2,"humidity":21,"rain":0.0,"pressure":985.4,"uv_index":9.05,"wind_gusts":50.0,"aqi":90,"pm10":30.9,"pm2_5":25.9,"mosquito_risk":0,"arthritis_risk":5,"migraine_risk":10,"frizz_risk":0,"updated_at":"2026-04-27T17:16:31.140070+05:30"},{"city":"Warangal","state":"Telangana","latitude":17.9689,"longitude":79.5941,"temp":40.3,"humidity":18,"rain":0.0,"pressure":972.8,"uv_index":8.85,"wind_gusts":37.8,"aqi":122,"pm10":42.0,"pm2_5":34.8,"mosquito_risk":0,"arthritis_risk":5,"migraine_risk":10,"frizz_risk":0,"updated_at":"2026-04-27T17:16:31.140076+05:30"},{"city":"Nizamabad","state":"Telangana","latitude":18.6725,"longitude":78.0941,"temp":40.5,"humidity":15,"rain":0.0,"pressure":959.0,"uv_index":9.1,"wind_gusts":33.8,"aqi":139,"pm10":30.0,"pm2_5":16.1,"mosquito_risk":0,"arthritis_risk":5,"migraine_risk":10,"frizz_risk":0,"updated_at":"2026-04-27T17:16:31.140082+05:30"},{"city":"Mysore","state":"Karnataka","latitude":12.2958,"longitude":76.6396,"temp":33.8,"humidity":28,"rain":0.0,"pressure":925.2,"uv_index":9.45,"wind_gusts":41.8,"aqi":147,"pm10":44.9,"pm2_5":27.2,"mosquito_risk":0,"arthritis_risk":5,"migraine_risk":7,"frizz_risk":0,"updated_at":"2026-04-27T17:16:31.140089+05:30"},{"city":"Mangalore","state":"Karnataka","latitude":12.9141,"longitude":74.856,"temp":31.5,"humidity":67,"rain":0.0,"pressure":1003.0,"uv_index":8.15,"wind_gusts":38.9,"aqi":78,"pm10":28.8,"pm2_5":20.9,"mosquito_risk":3,"arthritis_risk":5,"migraine_risk":4,"frizz_risk":1,"updated_at":"2026-04-27T17:16:31.140095+05:30"},{"city":"Hubli-Dharwad","state":"Karnataka","latitude":15.3647,"longitude":75.124,"temp":30.2,"humidity":55,"rain":0.0,"pressure":937.7,"uv_index":9.2,"wind_gusts":48.2,"aqi":106,"pm10":42.0,"pm2_5":34.5,"mosquito_risk":0,"arthritis_risk":5,"migraine_risk":7,"frizz_risk":1,"updated_at":"2026-04-27T17:16:31.140102+05:30"},{"city":"Belgaum","state":"Karnataka","latitude":15.8497,"longitude":74.4977,"temp":28.5,"humidity":64,"rain":0.0,"pressure":923.0,"uv_index":9.2,"wind_gusts":52.9,"aqi":113,"pm10":36.6,"pm2_5":26.7,"mosquito_risk":7,"arthritis_risk":5,"migraine_risk":7,"frizz_risk":1,"updated_at":"2026-04-27T17:16:34.442262+05:30"},{"city":"Coimbatore","state":"Tamil Nadu","latitude":11.0168,"longitude":76.9558,"temp":35.5,"humidity":32,"rain":0.0,"pressure":957.6,"uv_index":9.35,"wind_gusts":46.8,"aqi":117,"pm10":28.7,"pm2_5":19.6,"mosquito_risk":0,"arthritis_risk":5,"migraine_risk":10,"frizz_risk":1,"updated_at":"2026-04-27T17:16:34.442292+05:30"},{"city":"Madurai","state":"Tamil Nadu","latitude":9.9252,"longitude":78.1198,"temp":35.9,"humidity":36,"rain":0.0,"pressure":988.9,"uv_index":8.75,"wind_gusts":52.6,"aqi":74,"pm10":11.9,"pm2_5":10.7,"mosquito_risk":0,"arthritis_risk":5,"migraine_risk":10,"frizz_risk":1,"updated_at":"2026-04-27T17:16:34.442303+05:30"},{"city":"Trichy","state":"Tamil Nadu","latitude":10.7905,"longitude":78.7047,"temp":35.2,"humidity":43,"rain":0.0,"pressure":995.5,"uv_index":9.1,"wind_gusts":48.6,"aqi":57,"pm10":17.6,"pm2_5":14.0,"mosquito_risk":0,"arthritis_risk":5,"migraine_risk":10,"frizz_risk":1,"updated_at":"2026-04-27T17:16:34.442311+05:30"},{"city":"Salem","state":"Tamil Nadu","latitude":11.6643,"longitude":78.146,"temp":38.8,"humidity":20,"rain":0.0,"pressure":972.3,"uv_index":9.2,"wind_gusts":34.6,"aqi":104,"pm10":26.8,"pm2_5":19.7,"mosquito_risk":0,"arthritis_risk":5,"migraine_risk":10,"frizz_risk":0,"updated_at":"2026-04-27T17:16:34.442318+05:30"},{"city":"Tirunelveli","state":"Tamil Nadu","latitude":8.7139,"longitude":77.7567,"temp":33.5,"humidity":51,"rain":0.0,"pressure":999.6,"uv_index":8.95,"wind_gusts":52.2,"aqi":76,"pm10":14.3,"pm2_5":13.4,"mosquito_risk":0,"arthritis_risk":5,"migraine_risk":7,"frizz_risk":1,"updated_at":"2026-04-27T17:16:34.442326+05:30"},{"city":"Vellore","state":"Tamil Nadu","latitude":12.9165,"longitude":79.1325,"temp":37.8,"humidity":26,"rain":0.0,"pressure":979.4,"uv_index":9.25,"wind_gusts":43.6,"aqi":96,"pm10":28.0,"pm2_5":24.4,"mosquito_risk":0,"arthritis_risk":5,"migraine_risk":10,"frizz_risk":0,"updated_at":"2026-04-27T17:16:34.442333+05:30"},{"city":"Erode","state":"Tamil Nadu","latitude":11.341,"longitude":77.7172,"temp":39.3,"humidity":20,"rain":0.0,"pressure":983.5,"uv_index":9.3,"wind_gusts":50.8,"aqi":133,"pm10":26.2,"pm2_5":18.9,"mosquito_risk":0,"arthritis_risk":5,"migraine_risk":10,"frizz_risk":0,"updated_at":"2026-04-27T17:16:34.442340+05:30"},{"city":"Kochi","state":"Kerala","latitude":9.9312,"longitude":76.2673,"temp":31.0,"humidity":71,"rain":0.0,"pressure":1005.0,"uv_index":8.8,"wind_gusts":37.1,"aqi":83,"pm10":23.0,"pm2_5":18.9,"mosquito_risk":3,"arthritis_risk":5,"migraine_risk":4,"frizz_risk":1,"updated_at":"2026-04-27T17:16:34.442348+05:30"},{"city":"Thiruvananthapuram","state":"Kerala","latitude":8.5241,"longitude":76.9366,"temp":28.3,"humidity":76,"rain":0.1,"pressure":1005.5,"uv_index":8.45,"wind_gusts":38.5,"aqi":53,"pm10":20.4,"pm2_5":16.0,"mosquito_risk":10,"arthritis_risk":5,"migraine_risk":4,"frizz_risk":1,"updated_at":"2026-04-27T17:16:34.442355+05:30"},{"city":"Kozhikode","state":"Kerala","latitude":11.2588,"longitude":75.7804,"temp":30.0,"humidity":76,"rain":0.0,"pressure":1004.2,"uv_index":8.55,"wind_gusts":41.4,"aqi":60,"pm10":21.0,"pm2_5":15.1,"mosquito_risk":7,"arthritis_risk":5,"migraine_risk":4,"frizz_risk":1,"updated_at":"2026-04-27T17:16:34.442361+05:30"},{"city":"Thrissur","state":"Kerala","latitude":10.5276,"longitude":76.2144,"temp":31.1,"humidity":68,"rain":0.0,"pressure":1003.4,"uv_index":8.75,"wind_gusts":39.6,"aqi":79,"pm10":21.6,"pm2_5":17.9,"mosquito_risk":3,"arthritis_risk":5,"migraine_risk":4,"frizz_risk":1,"updated_at":"2026-04-27T17:16:34.442368+05:30"},{"city":"Kannur","state":"Kerala","latitude":11.8745,"longitude":75.3704,"temp":31.6,"humidity":65,"rain":0.0,"pressure":1003.5,"uv_index":9.05,"wind_gusts":45.0,"aqi":73,"pm10":29.2,"pm2_5":21.7,"mosquito_risk":3,"arthritis_risk":5,"migraine_risk":4,"frizz_risk":1,"updated_at":"2026-04-27T17:16:34.442375+05:30"},{"city":"Patna","state":"Bihar","latitude":25.5941,"longitude":85.1376,"temp":32.8,"humidity":50,"rain":0.0,"pressure":992.8,"uv_index":8.6,"wind_gusts":35.6,"aqi":151,"pm10":101.3,"pm2_5":51.0,"mosquito_risk":0,"arthritis_risk":5,"migraine_risk":7,"frizz_risk":1,"updated_at":"2026-04-27T17:16:34.442381+05:30"},{"city":"Gaya","state":"Bihar","latitude":24.7914,"longitude":85.0002,"temp":36.0,"humidity":32,"rain":0.0,"pressure":985.3,"uv_index":8.65,"wind_gusts":42.1,"aqi":168,"pm10":107.3,"pm2_5":50.1,"mosquito_risk":0,"arthritis_risk":5,"migraine_risk":10,"frizz_risk":1,"updated_at":"2026-04-27T17:16:34.442388+05:30"},{"city":"Muzaffarpur","state":"Bihar","latitude":26.1209,"longitude":85.3647,"temp":31.1,"humidity":54,"rain":0.0,"pressure":993.4,"uv_index":8.55,"wind_gusts":39.2,"aqi":134,"pm10":108.0,"pm2_5":48.8,"mosquito_risk":0,"arthritis_risk":5,"migraine_risk":7,"frizz_risk":1,"updated_at":"2026-04-27T17:16:34.442394+05:30"},{"city":"Bhagalpur","state":"Bihar","latitude":25.2425,"longitude":87.0117,"temp":29.0,"humidity":65,"rain":0.0,"pressure":994.0,"uv_index":7.5,"wind_gusts":43.2,"aqi":116,"pm10":68.0,"pm2_5":39.8,"mosquito_risk":7,"arthritis_risk":5,"migraine_risk":7,"frizz_risk":1,"updated_at":"2026-04-27T17:16:34.442401+05:30"},{"city":"Ranchi","state":"Jharkhand","latitude":23.3441,"longitude":85.3096,"temp":35.2,"humidity":21,"rain":0.0,"pressure":931.6,"uv_index":9.15,"wind_gusts":50.0,"aqi":138,"pm10":66.8,"pm2_5":19.4,"mosquito_risk":0,"arthritis_risk":5,"migraine_risk":10,"frizz_risk":0,"updated_at":"2026-04-27T17:16:34.442407+05:30"},{"city":"Jamshedpur","state":"Jharkhand","latitude":22.8046,"longitude":86.2029,"temp":38.7,"humidity":22,"rain":0.0,"pressure":982.4,"uv_index":9.0,"wind_gusts":44.3,"aqi":169,"pm10":55.6,"pm2_5":27.2,"mosquito_risk":0,"arthritis_risk":5,"migraine_risk":10,"frizz_risk":0,"updated_at":"2026-04-27T17:16:34.442413+05:30"},{"city":"Dhanbad","state":"Jharkhand","latitude":23.7957,"longitude":86.4304,"temp":36.8,"humidity":32,"rain":0.0,"pressure":971.8,"uv_index":8.9,"wind_gusts":44.6,"aqi":149,"pm10":112.0,"pm2_5":34.8,"mosquito_risk":0,"arthritis_risk":5,"migraine_risk":10,"frizz_risk":1,"updated_at":"2026-04-27T17:16:34.442419+05:30"},{"city":"Bokaro","state":"Jharkhand","latitude":23.6693,"longitude":86.1511,"temp":37.7,"humidity":23,"rain":0.0,"pressure":975.3,"uv_index":8.65,"wind_gusts":46.8,"aqi":136,"pm10":106.6,"pm2_5":33.4,"mosquito_risk":0,"arthritis_risk":5,"migraine_risk":10,"frizz_risk":0,"updated_at":"2026-04-27T17:16:34.442426+05:30"},{"city":"Bhubaneswar","state":"Odisha","latitude":20.2961,"longitude":85.8245,"temp":31.1,"humidity":70,"rain":0.0,"pressure":997.0,"uv_index":9.1,"wind_gusts":54.0,"aqi":51,"pm10":16.7,"pm2_5":13.9,"mosquito_risk":3,"arthritis_risk":5,"migraine_risk":7,"frizz_risk":1,"updated_at":"2026-04-27T17:16:34.442432+05:30"},{"city":"Cuttack","state":"Odisha","latitude":20.4625,"longitude":85.8828,"temp":32.5,"humidity":65,"rain":0.0,"pressure":998.3,"uv_index":9.15,"wind_gusts":49.0,"aqi":51,"pm10":16.7,"pm2_5":13.9,"mosquito_risk":3,"arthritis_risk":5,"migraine_risk":7,"frizz_risk":1,"updated_at":"2026-04-27T17:16:34.442438+05:30"},{"city":"Rourkela","state":"Odisha","latitude":22.2604,"longitude":84.8536,"temp":37.4,"humidity":24,"rain":0.0,"pressure":977.2,"uv_index":8.9,"wind_gusts":51.1,"aqi":190,"pm10":44.0,"pm2_5":19.5,"mosquito_risk":0,"arthritis_risk":5,"migraine_risk":10,"frizz_risk":0,"updated_at":"2026-04-27T17:16:34.442444+05:30"},{"city":"Raipur","state":"Chhattisgarh","latitude":21.2514,"longitude":81.6296,"temp":39.5,"humidity":20,"rain":0.0,"pressure":968.7,"uv_index":8.95,"wind_gusts":59.8,"aqi":171,"pm10":53.2,"pm2_5":26.6,"mosquito_risk":0,"arthritis_risk":5,"migraine_risk":10,"frizz_risk":0,"updated_at":"2026-04-27T17:16:34.442450+05:30"},{"city":"Bhilai","state":"Chhattisgarh","latitude":21.1938,"longitude":81.3509,"temp":39.2,"humidity":21,"rain":0.0,"pressure":969.1,"uv_index":8.95,"wind_gusts":56.2,"aqi":150,"pm10":52.2,"pm2_5":22.9,"mosquito_risk":0,"arthritis_risk":5,"migraine_risk":10,"frizz_risk":0,"updated_at":"2026-04-27T17:16:34.442457+05:30"},{"city":"Guwahati","state":"Assam","latitude":26.1158,"longitude":91.7086,"temp":22.0,"humidity":91,"rain":0.0,"pressure":996.6,"uv_index":3.15,"wind_gusts":23.4,"aqi":116,"pm10":32.0,"pm2_5":26.0,"mosquito_risk":3,"arthritis_risk":5,"migraine_risk":3,"frizz_risk":1,"updated_at":"2026-04-27T17:16:34.442463+05:30"},{"city":"Agartala","state":"Tripura","latitude":23.8315,"longitude":91.2868,"temp":23.5,"humidity":97,"rain":0.1,"pressure":1000.3,"uv_index":7.75,"wind_gusts":71.6,"aqi":91,"pm10":51.2,"pm2_5":24.4,"mosquito_risk":6,"arthritis_risk":5,"migraine_risk":4,"frizz_risk":1,"updated_at":"2026-04-27T17:16:34.442470+05:30"},{"city":"Shillong","state":"Meghalaya","latitude":25.5788,"longitude":91.8933,"temp":17.2,"humidity":93,"rain":0.1,"pressure":851.7,"uv_index":2.2,"wind_gusts":48.2,"aqi":110,"pm10":13.4,"pm2_5":9.6,"mosquito_risk":6,"arthritis_risk":10,"migraine_risk":3,"frizz_risk":0,"updated_at":"2026-04-27T17:16:34.442476+05:30"},{"city":"Imphal","state":"Manipur","latitude":24.817,"longitude":93.9368,"temp":21.4,"humidity":83,"rain":0.0,"pressure":918.4,"uv_index":6.4,"wind_gusts":28.8,"aqi":157,"pm10":74.0,"pm2_5":38.4,"mosquito_risk":3,"arthritis_risk":5,"migraine_risk":7,"frizz_risk":1,"updated_at":"2026-04-27T17:16:34.442483+05:30"},{"city":"Aizawl","state":"Mizoram","latitude":23.7271,"longitude":92.7176,"temp":21.3,"humidity":73,"rain":0.0,"pressure":887.9,"uv_index":8.95,"wind_gusts":60.5,"aqi":90,"pm10":38.5,"pm2_5":21.2,"mosquito_risk":3,"arthritis_risk":5,"migraine_risk":7,"frizz_risk":1,"updated_at":"2026-04-27T17:16:34.442490+05:30"},{"city":"Kohima","state":"Nagaland","latitude":25.6701,"longitude":94.1077,"temp":17.0,"humidity":97,"rain":0.0,"pressure":850.8,"uv_index":3.2,"wind_gusts":39.2,"aqi":151,"pm10":71.5,"pm2_5":41.1,"mosquito_risk":3,"arthritis_risk":10,"migraine_risk":3,"frizz_risk":1,"updated_at":"2026-04-27T17:16:34.442496+05:30"},{"city":"Gangtok","state":"Sikkim","latitude":27.3314,"longitude":88.6138,"temp":16.2,"humidity":98,"rain":0.1,"pressure":831.5,"uv_index":8.85,"wind_gusts":42.5,"aqi":115,"pm10":41.6,"pm2_5":25.1,"mosquito_risk":6,"arthritis_risk":10,"migraine_risk":7,"frizz_risk":0,"updated_at":"2026-04-27T17:16:34.442503+05:30"},{"city":"Siliguri","state":"West Bengal","latitude":26.7271,"longitude":88.3953,"temp":25.6,"humidity":71,"rain":0.0,"pressure":986.8,"uv_index":8.4,"wind_gusts":34.6,"aqi":120,"pm10":27.7,"pm2_5":16.5,"mosquito_risk":7,"arthritis_risk":5,"migraine_risk":7,"frizz_risk":1,"updated_at":"2026-04-27T17:16:37.748462+05:30"},{"city":"Durgapur","state":"West Bengal","latitude":23.5204,"longitude":87.3119,"temp":28.4,"humidity":81,"rain":0.0,"pressure":986.9,"uv_index":8.85,"wind_gusts":42.8,"aqi":168,"pm10":88.2,"pm2_5":53.9,"mosquito_risk":7,"arthritis_risk":5,"migraine_risk":7,"frizz_risk":1,"updated_at":"2026-04-27T17:16:37.748492+05:30"},{"city":"Asansol","state":"West Bengal","latitude":23.6739,"longitude":86.9524,"temp":35.4,"humidity":42,"rain":0.0,"pressure":985.1,"uv_index":8.9,"wind_gusts":43.9,"aqi":160,"pm10":108.3,"pm2_5":41.4,"mosquito_risk":0,"arthritis_risk":5,"migraine_risk":10,"frizz_risk":1,"updated_at":"2026-04-27T17:16:37.748502+05:30"},{"city":"Pondicherry","state":"Puducherry","latitude":11.9139,"longitude":79.8145,"temp":31.0,"humidity":69,"rain":0.0,"pressure":1004.7,"uv_index":9.2,"wind_gusts":52.6,"aqi":52,"pm10":16.5,"pm2_5":11.7,"mosquito_risk":3,"arthritis_risk":5,"migraine_risk":4,"frizz_risk":1,"updated_at":"2026-04-27T17:16:37.748511+05:30"},{"city":"Port Blair","state":"Andaman and Nicobar Islands","latitude":11.6234,"longitude":92.7265,"temp":30.6,"humidity":68,"rain":0.0,"pressure":1004.8,"uv_index":9.1,"wind_gusts":33.1,"aqi":48,"pm10":10.6,"pm2_5":7.7,"mosquito_risk":3,"arthritis_risk":5,"migraine_risk":4,"frizz_risk":1,"updated_at":"2026-04-27T17:16:37.748519+05:30"},{"city":"Haridwar","state":"Uttarakhand","latitude":29.9457,"longitude":78.1642,"temp":35.4,"humidity":24,"rain":0.0,"pressure":965.2,"uv_index":7.25,"wind_gusts":28.8,"aqi":149,"pm10":36.7,"pm2_5":10.2,"mosquito_risk":0,"arthritis_risk":5,"migraine_risk":10,"frizz_risk":0,"updated_at":"2026-04-27T17:16:37.748527+05:30"},{"city":"Rishikesh","state":"Uttarakhand","latitude":30.0869,"longitude":78.2676,"temp":33.7,"humidity":35,"rain":0.0,"pressure":958.2,"uv_index":7.35,"wind_gusts":27.4,"aqi":140,"pm10":10.8,"pm2_5":7.9,"mosquito_risk":0,"arthritis_risk":5,"migraine_risk":7,"frizz_risk":1,"updated_at":"2026-04-27T17:16:37.748535+05:30"},{"city":"Nainital","state":"Uttarakhand","latitude":29.3919,"longitude":79.4542,"temp":21.8,"humidity":38,"rain":0.0,"pressure":802.8,"uv_index":8.2,"wind_gusts":37.8,"aqi":155,"pm10":21.7,"pm2_5":15.9,"mosquito_risk":0,"arthritis_risk":5,"migraine_risk":7,"frizz_risk":0,"updated_at":"2026-04-27T17:16:37.748542+05:30"},{"city":"Mussoorie","state":"Uttarakhand","latitude":30.4599,"longitude":78.0664,"temp":22.0,"humidity":27,"rain":0.0,"pressure":800.6,"uv_index":7.75,"wind_gusts":51.8,"aqi":144,"pm10":10.2,"pm2_5":8.1,"mosquito_risk":0,"arthritis_risk":5,"migraine_risk":7,"frizz_risk":0,"updated_at":"2026-04-27T17:16:37.748548+05:30"},{"city":"Dharamshala","state":"Himachal Pradesh","latitude":32.219,"longitude":76.3234,"temp":26.5,"humidity":27,"rain":0.0,"pressure":866.0,"uv_index":8.1,"wind_gusts":52.2,"aqi":116,"pm10":6.8,"pm2_5":3.3,"mosquito_risk":4,"arthritis_risk":5,"migraine_risk":7,"frizz_risk":0,"updated_at":"2026-04-27T17:16:37.748555+05:30"},{"city":"Dalhousie","state":"Himachal Pradesh","latitude":32.5387,"longitude":75.971,"temp":21.8,"humidity":36,"rain":0.0,"pressure":803.1,"uv_index":8.3,"wind_gusts":42.1,"aqi":129,"pm10":6.4,"pm2_5":4.0,"mosquito_risk":0,"arthritis_risk":5,"migraine_risk":7,"frizz_risk":0,"updated_at":"2026-04-27T17:16:37.748563+05:30"},{"city":"Patiala","state":"Punjab","latitude":30.3398,"longitude":76.3869,"temp":39.5,"humidity":14,"rain":0.0,"pressure":970.0,"uv_index":7.35,"wind_gusts":47.9,"aqi":338,"pm10":700.4,"pm2_5":61.5,"mosquito_risk":0,"arthritis_risk":5,"migraine_risk":10,"frizz_risk":0,"updated_at":"2026-04-27T17:16:37.748570+05:30"},{"city":"Bhatinda","state":"Punjab","latitude":30.211,"longitude":74.9455,"temp":39.4,"humidity":15,"rain":0.0,"pressure":976.3,"uv_index":8.0,"wind_gusts":46.4,"aqi":106,"pm10":69.4,"pm2_5":17.2,"mosquito_risk":0,"arthritis_risk":5,"migraine_risk":10,"frizz_risk":0,"updated_at":"2026-04-27T17:16:37.748576+05:30"},{"city":"Rohtak","state":"Haryana","latitude":28.8955,"longitude":76.6066,"temp":40.5,"humidity":14,"rain":0.0,"pressure":973.2,"uv_index":7.5,"wind_gusts":42.8,"aqi":601,"pm10":756.2,"pm2_5":73.3,"mosquito_risk":0,"arthritis_risk":5,"migraine_risk":10,"frizz_risk":0,"updated_at":"2026-04-27T17:16:37.748583+05:30"},{"city":"Panipat","state":"Haryana","latitude":29.3909,"longitude":76.9635,"temp":41.2,"humidity":11,"rain":0.0,"pressure":971.4,"uv_index":7.3,"wind_gusts":49.7,"aqi":1081,"pm10":1590.7,"pm2_5":137.8,"mosquito_risk":0,"arthritis_risk":5,"migraine_risk":10,"frizz_risk":0,"updated_at":"2026-04-27T17:16:37.748590+05:30"},{"city":"Mathura","state":"Uttar Pradesh","latitude":27.4924,"longitude":77.6737,"temp":41.0,"humidity":15,"rain":0.0,"pressure":978.2,"uv_index":7.75,"wind_gusts":38.2,"aqi":656,"pm10":745.1,"pm2_5":72.9,"mosquito_risk":0,"arthritis_risk":5,"migraine_risk":10,"frizz_risk":0,"updated_at":"2026-04-27T17:16:37.748616+05:30"},{"city":"Vrindavan","state":"Uttar Pradesh","latitude":27.5823,"longitude":77.7027,"temp":40.5,"humidity":16,"rain":0.0,"pressure":978.7,"uv_index":7.65,"wind_gusts":41.4,"aqi":656,"pm10":745.1,"pm2_5":72.9,"mosquito_risk":0,"arthritis_risk":5,"migraine_risk":10,"frizz_risk":0,"updated_at":"2026-04-27T17:16:37.748625+05:30"},{"city":"Ayodhya","state":"Uttar Pradesh","latitude":26.7922,"longitude":82.1998,"temp":39.4,"humidity":19,"rain":0.0,"pressure":985.8,"uv_index":8.1,"wind_gusts":36.4,"aqi":159,"pm10":128.5,"pm2_5":41.7,"mosquito_risk":0,"arthritis_risk":5,"migraine_risk":10,"frizz_risk":0,"updated_at":"2026-04-27T17:16:37.748632+05:30"},{"city":"Ratlam","state":"Madhya Pradesh","latitude":23.3315,"longitude":75.0367,"temp":38.7,"humidity":11,"rain":0.0,"pressure":949.9,"uv_index":8.45,"wind_gusts":48.6,"aqi":54,"pm10":17.3,"pm2_5":7.4,"mosquito_risk":0,"arthritis_risk":5,"migraine_risk":10,"frizz_risk":0,"updated_at":"2026-04-27T17:16:37.748639+05:30"},{"city":"Sagar","state":"Madhya Pradesh","latitude":23.8388,"longitude":78.7378,"temp":39.2,"humidity":15,"rain":0.0,"pressure":944.3,"uv_index":8.6,"wind_gusts":44.3,"aqi":80,"pm10":24.2,"pm2_5":9.1,"mosquito_risk":0,"arthritis_risk":5,"migraine_risk":10,"frizz_risk":0,"updated_at":"2026-04-27T17:16:37.748645+05:30"},{"city":"Satna","state":"Madhya Pradesh","latitude":24.6005,"longitude":80.8322,"temp":40.6,"humidity":13,"rain":0.0,"pressure":963.9,"uv_index":8.6,"wind_gusts":54.4,"aqi":70,"pm10":38.1,"pm2_5":12.1,"mosquito_risk":0,"arthritis_risk":5,"migraine_risk":10,"frizz_risk":0,"updated_at":"2026-04-27T17:16:37.748652+05:30"},{"city":"Akola","state":"Maharashtra","latitude":20.7002,"longitude":77.0082,"temp":41.5,"humidity":13,"rain":0.0,"pressure":968.9,"uv_index":8.85,"wind_gusts":34.2,"aqi":108,"pm10":26.5,"pm2_5":16.0,"mosquito_risk":0,"arthritis_risk":5,"migraine_risk":10,"frizz_risk":0,"updated_at":"2026-04-27T17:16:37.748659+05:30"},{"city":"Amravati","state":"Maharashtra","latitude":20.9374,"longitude":77.7796,"temp":41.4,"humidity":11,"rain":0.0,"pressure":961.4,"uv_index":8.9,"wind_gusts":34.6,"aqi":108,"pm10":24.7,"pm2_5":13.9,"mosquito_risk":0,"arthritis_risk":5,"migraine_risk":10,"frizz_risk":0,"updated_at":"2026-04-27T17:16:37.748666+05:30"},{"city":"Latur","state":"Maharashtra","latitude":18.4088,"longitude":76.5604,"temp":39.7,"humidity":13,"rain":0.0,"pressure":935.5,"uv_index":9.05,"wind_gusts":40.3,"aqi":130,"pm10":30.2,"pm2_5":19.2,"mosquito_risk":0,"arthritis_risk":5,"migraine_risk":10,"frizz_risk":0,"updated_at":"2026-04-27T17:16:37.748673+05:30"},{"city":"Nanded","state":"Maharashtra","latitude":19.1383,"longitude":77.3091,"temp":41.0,"humidity":13,"rain":0.0,"pressure":962.8,"uv_index":9.0,"wind_gusts":40.7,"aqi":124,"pm10":26.3,"pm2_5":14.8,"mosquito_risk":0,"arthritis_risk":5,"migraine_risk":10,"frizz_risk":0,"updated_at":"2026-04-27T17:16:37.748680+05:30"},{"city":"Gulbarga","state":"Karnataka","latitude":17.3297,"longitude":76.8343,"temp":40.6,"humidity":13,"rain":0.0,"pressure":953.2,"uv_index":9.05,"wind_gusts":31.3,"aqi":150,"pm10":31.5,"pm2_5":22.7,"mosquito_risk":0,"arthritis_risk":5,"migraine_risk":10,"frizz_risk":0,"updated_at":"2026-04-27T17:16:37.748686+05:30"},{"city":"Bidar","state":"Karnataka","latitude":17.9104,"longitude":77.5199,"temp":38.6,"humidity":15,"rain":0.0,"pressure":931.4,"uv_index":9.1,"wind_gusts":30.6,"aqi":138,"pm10":26.8,"pm2_5":15.9,"mosquito_risk":0,"arthritis_risk":5,"migraine_risk":10,"frizz_risk":0,"updated_at":"2026-04-27T17:16:37.748692+05:30"},{"city":"Hospet","state":"Karnataka","latitude":15.2689,"longitude":76.3909,"temp":37.0,"humidity":27,"rain":0.0,"pressure":951.5,"uv_index":9.25,"wind_gusts":36.4,"aqi":140,"pm10":43.0,"pm2_5":34.7,"mosquito_risk":0,"arthritis_risk":5,"migraine_risk":10,"frizz_risk":0,"updated_at":"2026-04-27T17:16:37.748699+05:30"},{"city":"Tirupur","state":"Tamil Nadu","latitude":11.1085,"longitude":77.3411,"temp":39.6,"humidity":18,"rain":0.0,"pressure":970.1,"uv_index":9.35,"wind_gusts":37.1,"aqi":132,"pm10":29.3,"pm2_5":19.8,"mosquito_risk":0,"arthritis_risk":5,"migraine_risk":10,"frizz_risk":0,"updated_at":"2026-04-27T17:16:37.748705+05:30"},{"city":"Alappuzha","state":"Kerala","latitude":9.4981,"longitude":76.3388,"temp":30.1,"humidity":74,"rain":0.0,"pressure":1005.4,"uv_index":7.95,"wind_gusts":37.4,"aqi":76,"pm10":24.0,"pm2_5":18.7,"mosquito_risk":3,"arthritis_risk":5,"migraine_risk":4,"frizz_risk":1,"updated_at":"2026-04-27T17:16:37.748712+05:30"},{"city":"Munnar","state":"Kerala","latitude":10.0889,"longitude":77.0595,"temp":21.3,"humidity":87,"rain":0.2,"pressure":855.7,"uv_index":9.6,"wind_gusts":27.0,"aqi":92,"pm10":17.4,"pm2_5":13.4,"mosquito_risk":6,"arthritis_risk":5,"migraine_risk":7,"frizz_risk":1,"updated_at":"2026-04-27T17:16:37.748719+05:30"},{"city":"Silchar","state":"Assam","latitude":24.8333,"longitude":92.7789,"temp":24.7,"humidity":92,"rain":0.2,"pressure":999.8,"uv_index":8.75,"wind_gusts":32.8,"aqi":159,"pm10":57.3,"pm2_5":39.0,"mosquito_risk":6,"arthritis_risk":5,"migraine_risk":7,"frizz_risk":1,"updated_at":"2026-04-27T17:16:37.748726+05:30"},{"city":"Dibrugarh","state":"Assam","latitude":27.4728,"longitude":94.912,"temp":23.1,"humidity":83,"rain":0.0,"pressure":992.1,"uv_index":1.7,"wind_gusts":28.8,"aqi":93,"pm10":67.1,"pm2_5":47.0,"mosquito_risk":3,"arthritis_risk":5,"migraine_risk":3,"frizz_risk":1,"updated_at":"2026-04-27T17:16:37.748732+05:30"}]