[{"city":"Delhi","state":"Delhi","latitude":28.6139,"longitude":77.209,"temp":31.8,"humidity":62,"rain":0.0,"pressure":977.3,"uv_index":7.7,"wind_gusts":35.3,"aqi":667,"pm10":646.3,"pm2_5":180.7,"no2":60.1,"co":729.0,"o3":22.0,"so2":22.1,"mosquito_risk":3,"arthritis_risk":5,"migraine_risk":7,"frizz_risk":1,"updated_at":"2026-07-18T22:37:22.107749+05:30"},{"city":"Mumbai","state":"Maharashtra","latitude":19.076,"longitude":72.8777,"temp":26.2,"humidity":92,"rain":0.0,"pressure":1007.6,"uv_index":6.3,"wind_gusts":51.8,"aqi":62,"pm10":26.3,"pm2_5":14.5,"no2":12.6,"co":366.0,"o3":39.0,"so2":8.7,"mosquito_risk":7,"arthritis_risk":5,"migraine_risk":4,"frizz_risk":1,"updated_at":"2026-07-18T22:37:22.107796+05:30"},{"city":"Bangalore","state":"Karnataka","latitude":12.9716,"longitude":77.5946,"temp":21.7,"humidity":87,"rain":0.0,"pressure":912.7,"uv_index":3.35,"wind_gusts":45.0,"aqi":49,"pm10":12.5,"pm2_5":9.5,"no2":19.9,"co":405.0,"o3":36.0,"so2":5.2,"mosquito_risk":3,"arthritis_risk":5,"migraine_risk":3,"frizz_risk":1,"updated_at":"2026-07-18T22:37:22.107812+05:30"},{"city":"Hyderabad","state":"Telangana","latitude":17.385,"longitude":78.4867,"temp":24.9,"humidity":86,"rain":0.0,"pressure":952.7,"uv_index":3.55,"wind_gusts":42.5,"aqi":51,"pm10":15.1,"pm2_5":10.9,"no2":12.6,"co":330.0,"o3":40.0,"so2":5.8,"mosquito_risk":3,"arthritis_risk":5,"migraine_risk":3,"frizz_risk":1,"updated_at":"2026-07-18T22:37:22.107822+05:30"},{"city":"Chennai","state":"Tamil Nadu","latitude":13.0827,"longitude":80.2707,"temp":26.7,"humidity":85,"rain":0.0,"pressure":1007.3,"uv_index":5.3,"wind_gusts":35.6,"aqi":68,"pm10":40.6,"pm2_5":27.2,"no2":17.6,"co":314.0,"o3":82.0,"so2":11.3,"mosquito_risk":7,"arthritis_risk":5,"migraine_risk":0,"frizz_risk":1,"updated_at":"2026-07-18T22:37:22.107831+05:30"},{"city":"Kolkata","state":"West Bengal","latitude":22.5726,"longitude":88.3639,"temp":27.5,"humidity":89,"rain":0.0,"pressure":1002.7,"uv_index":7.65,"wind_gusts":38.9,"aqi":61,"pm10":20.7,"pm2_5":16.9,"no2":7.0,"co":307.0,"o3":100.0,"so2":6.0,"mosquito_risk":7,"arthritis_risk":5,"migraine_risk":4,"frizz_risk":1,"updated_at":"2026-07-18T22:37:22.107838+05:30"},{"city":"Pune","state":"Maharashtra","latitude":18.5204,"longitude":73.8567,"temp":23.0,"humidity":93,"rain":0.0,"pressure":947.2,"uv_index":8.05,"wind_gusts":49.0,"aqi":35,"pm10":4.8,"pm2_5":4.1,"no2":13.6,"co":197.0,"o3":28.0,"so2":7.5,"mosquito_risk":3,"arthritis_risk":5,"migraine_risk":7,"frizz_risk":1,"updated_at":"2026-07-18T22:37:22.107845+05:30"},{"city":"Ahmedabad","state":"Gujarat","latitude":23.0225,"longitude":72.5714,"temp":29.4,"humidity":76,"rain":0.0,"pressure":998.6,"uv_index":6.6,"wind_gusts":33.8,"aqi":65,"pm10":29.1,"pm2_5":17.5,"no2":12.4,"co":193.0,"o3":47.0,"so2":4.8,"mosquito_risk":7,"arthritis_risk":5,"migraine_risk":7,"frizz_risk":1,"updated_at":"2026-07-18T22:37:22.107853+05:30"},{"city":"Jaipur","state":"Rajasthan","latitude":26.9124,"longitude":75.7873,"temp":32.2,"humidity":56,"rain":0.0,"pressure":955.6,"uv_index":7.45,"wind_gusts":37.8,"aqi":201,"pm10":200.7,"pm2_5":51.8,"no2":23.9,"co":266.0,"o3":37.0,"so2":6.7,"mosquito_risk":0,"arthritis_risk":5,"migraine_risk":7,"frizz_risk":1,"updated_at":"2026-07-18T22:37:22.107860+05:30"},{"city":"Lucknow","state":"Uttar Pradesh","latitude":26.8467,"longitude":80.9462,"temp":28.8,"humidity":87,"rain":0.0,"pressure":989.2,"uv_index":7.05,"wind_gusts":19.1,"aqi":167,"pm10":130.4,"pm2_5":75.7,"no2":29.0,"co":750.0,"o3":57.0,"so2":12.8,"mosquito_risk":7,"arthritis_risk":5,"migraine_risk":7,"frizz_risk":1,"updated_at":"2026-07-18T22:37:22.107872+05:30"},{"city":"Kanpur","state":"Uttar Pradesh","latitude":26.4499,"longitude":80.3319,"temp":29.7,"humidity":86,"rain":0.0,"pressure":987.4,"uv_index":7.95,"wind_gusts":26.3,"aqi":161,"pm10":106.4,"pm2_5":62.9,"no2":20.7,"co":390.0,"o3":69.0,"so2":7.6,"mosquito_risk":7,"arthritis_risk":5,"migraine_risk":7,"frizz_risk":1,"updated_at":"2026-07-18T22:37:22.107879+05:30"},{"city":"Chandigarh","state":"Chandigarh","latitude":30.7333,"longitude":76.7794,"temp":29.4,"humidity":80,"rain":0.0,"pressure":962.9,"uv_index":7.55,"wind_gusts":30.2,"aqi":154,"pm10":130.4,"pm2_5":83.4,"no2":52.0,"co":1313.0,"o3":59.0,"so2":18.1,"mosquito_risk":7,"arthritis_risk":5,"migraine_risk":7,"frizz_risk":1,"updated_at":"2026-07-18T22:37:22.107886+05:30"},{"city":"Srinagar","state":"Jammu and Kashmir","latitude":34.0837,"longitude":74.7973,"temp":28.5,"humidity":60,"rain":0.0,"pressure":838.7,"uv_index":9.05,"wind_gusts":20.2,"aqi":95,"pm10":41.2,"pm2_5":36.7,"no2":38.3,"co":772.0,"o3":34.0,"so2":4.1,"mosquito_risk":4,"arthritis_risk":5,"migraine_risk":7,"frizz_risk":1,"updated_at":"2026-07-18T22:37:22.107892+05:30"},{"city":"Jammu","state":"Jammu and Kashmir","latitude":32.7266,"longitude":74.857,"temp":29.7,"humidity":81,"rain":0.0,"pressure":965.8,"uv_index":8.15,"wind_gusts":23.0,"aqi":142,"pm10":70.1,"pm2_5":55.3,"no2":40.8,"co":535.0,"o3":38.0,"so2":6.1,"mosquito_risk":7,"arthritis_risk":5,"migraine_risk":7,"frizz_risk":1,"updated_at":"2026-07-18T22:37:22.107899+05:30"},{"city":"Amritsar","state":"Punjab","latitude":31.634,"longitude":74.8723,"temp":32.1,"humidity":69,"rain":0.0,"pressure":973.5,"uv_index":6.45,"wind_gusts":18.4,"aqi":170,"pm10":134.1,"pm2_5":84.5,"no2":44.9,"co":485.0,"o3":39.0,"so2":8.7,"mosquito_risk":3,"arthritis_risk":5,"migraine_risk":7,"frizz_risk":1,"updated_at":"2026-07-18T22:37:22.107904+05:30"},{"city":"Ludhiana","state":"Punjab","latitude":30.901,"longitude":75.8573,"temp":32.3,"humidity":76,"rain":0.0,"pressure":972.2,"uv_index":7.85,"wind_gusts":22.3,"aqi":177,"pm10":263.6,"pm2_5":126.2,"no2":65.2,"co":1742.0,"o3":22.0,"so2":11.1,"mosquito_risk":3,"arthritis_risk":5,"migraine_risk":7,"frizz_risk":1,"updated_at":"2026-07-18T22:37:22.107910+05:30"},{"city":"Jalandhar","state":"Punjab","latitude":31.326,"longitude":75.5762,"temp":31.6,"humidity":78,"rain":0.0,"pressure":973.0,"uv_index":8.2,"wind_gusts":16.9,"aqi":175,"pm10":143.4,"pm2_5":86.8,"no2":42.2,"co":1568.0,"o3":37.0,"so2":6.3,"mosquito_risk":3,"arthritis_risk":5,"migraine_risk":7,"frizz_risk":1,"updated_at":"2026-07-18T22:37:22.107917+05:30"},{"city":"Dehradun","state":"Uttarakhand","latitude":30.6284,"longitude":78.0322,"temp":20.2,"humidity":98,"rain":0.0,"pressure":828.8,"uv_index":7.1,"wind_gusts":25.2,"aqi":80,"pm10":48.2,"pm2_5":26.8,"no2":8.8,"co":233.0,"o3":114.0,"so2":5.9,"mosquito_risk":3,"arthritis_risk":5,"migraine_risk":7,"frizz_risk":1,"updated_at":"2026-07-18T22:37:22.107923+05:30"},{"city":"Shimla","state":"Himachal Pradesh","latitude":31.1048,"longitude":77.1734,"temp":17.2,"humidity":97,"rain":0.0,"pressure":783.1,"uv_index":6.2,"wind_gusts":42.8,"aqi":84,"pm10":64.3,"pm2_5":30.6,"no2":14.1,"co":282.0,"o3":93.0,"so2":7.4,"mosquito_risk":3,"arthritis_risk":10,"migraine_risk":7,"frizz_risk":1,"updated_at":"2026-07-18T22:37:22.107933+05:30"},{"city":"Manali","state":"Himachal Pradesh","latitude":32.2396,"longitude":77.1887,"temp":20.8,"humidity":96,"rain":0.0,"pressure":818.0,"uv_index":7.05,"wind_gusts":33.1,"aqi":55,"pm10":17.4,"pm2_5":15.4,"no2":30.7,"co":270.0,"o3":51.0,"so2":0.2,"mosquito_risk":3,"arthritis_risk":5,"migraine_risk":7,"frizz_risk":1,"updated_at":"2026-07-18T22:37:22.107942+05:30"},{"city":"Gurgaon","state":"Haryana","latitude":28.4595,"longitude":77.0266,"temp":31.7,"humidity":62,"rain":0.0,"pressure":975.8,"uv_index":7.75,"wind_gusts":38.5,"aqi":565,"pm10":590.5,"pm2_5":133.2,"no2":36.9,"co":595.0,"o3":42.0,"so2":10.9,"mosquito_risk":3,"arthritis_risk":5,"migraine_risk":7,"frizz_risk":1,"updated_at":"2026-07-18T22:37:22.107948+05:30"},{"city":"Noida","state":"Uttar Pradesh","latitude":28.5355,"longitude":77.391,"temp":31.3,"humidity":65,"rain":0.0,"pressure":978.7,"uv_index":7.65,"wind_gusts":30.6,"aqi":565,"pm10":590.5,"pm2_5":133.2,"no2":36.9,"co":610.0,"o3":42.0,"so2":10.9,"mosquito_risk":3,"arthritis_risk":5,"migraine_risk":7,"frizz_risk":1,"updated_at":"2026-07-18T22:37:22.107954+05:30"},{"city":"Ghaziabad","state":"Uttar Pradesh","latitude":28.6692,"longitude":77.4538,"temp":31.2,"humidity":62,"rain":0.0,"pressure":977.0,"uv_index":7.7,"wind_gusts":30.6,"aqi":626,"pm10":653.8,"pm2_5":201.6,"no2":61.5,"co":837.0,"o3":22.0,"so2":20.3,"mosquito_risk":3,"arthritis_risk":5,"migraine_risk":7,"frizz_risk":1,"updated_at":"2026-07-18T22:37:22.107961+05:30"},{"city":"Faridabad","state":"Haryana","latitude":28.4089,"longitude":77.3178,"temp":32.0,"humidity":66,"rain":0.0,"pressure":978.2,"uv_index":7.6,"wind_gusts":38.9,"aqi":565,"pm10":590.5,"pm2_5":133.2,"no2":36.9,"co":532.0,"o3":42.0,"so2":10.9,"mosquito_risk":3,"arthritis_risk":5,"migraine_risk":7,"frizz_risk":1,"updated_at":"2026-07-18T22:37:22.107967+05:30"},{"city":"Meerut","state":"Uttar Pradesh","latitude":28.9845,"longitude":77.7064,"temp":29.7,"humidity":84,"rain":0.0,"pressure":975.9,"uv_index":7.65,"wind_gusts":32.0,"aqi":626,"pm10":653.8,"pm2_5":201.6,"no2":61.5,"co":672.0,"o3":22.0,"so2":20.3,"mosquito_risk":7,"arthritis_risk":5,"migraine_risk":7,"frizz_risk":1,"updated_at":"2026-07-18T22:37:22.107973+05:30"},{"city":"Agra","state":"Uttar Pradesh","latitude":27.1767,"longitude":78.0081,"temp":32.5,"humidity":65,"rain":0.0,"pressure":982.7,"uv_index":7.05,"wind_gusts":40.0,"aqi":151,"pm10":100.4,"pm2_5":53.0,"no2":39.1,"co":482.0,"o3":31.0,"so2":9.6,"mosquito_risk":3,"arthritis_risk":5,"migraine_risk":7,"frizz_risk":1,"updated_at":"2026-07-18T22:37:22.107980+05:30"},{"city":"Varanasi","state":"Uttar Pradesh","latitude":25.3176,"longitude":82.9739,"temp":28.1,"humidity":96,"rain":0.1,"pressure":993.4,"uv_index":7.15,"wind_gusts":18.7,"aqi":143,"pm10":81.3,"pm2_5":52.2,"no2":16.7,"co":491.0,"o3":86.0,"so2":8.5,"mosquito_risk":10,"arthritis_risk":5,"migraine_risk":7,"frizz_risk":1,"updated_at":"2026-07-18T22:37:22.107987+05:30"},{"city":"Prayagraj","state":"Uttar Pradesh","latitude":25.4358,"longitude":81.8463,"temp":28.8,"humidity":94,"rain":0.0,"pressure":991.8,"uv_index":6.45,"wind_gusts":26.6,"aqi":152,"pm10":102.0,"pm2_5":58.3,"no2":15.3,"co":317.0,"o3":94.0,"so2":8.3,"mosquito_risk":7,"arthritis_risk":5,"migraine_risk":7,"frizz_risk":1,"updated_at":"2026-07-18T22:37:22.107993+05:30"},{"city":"Gorakhpur","state":"Uttar Pradesh","latitude":26.7606,"longitude":83.3732,"temp":28.1,"humidity":93,"rain":0.0,"pressure":993.2,"uv_index":6.8,"wind_gusts":26.3,"aqi":86,"pm10":24.6,"pm2_5":24.4,"no2":14.8,"co":451.0,"o3":76.0,"so2":5.0,"mosquito_risk":7,"arthritis_risk":5,"migraine_risk":7,"frizz_risk":1,"updated_at":"2026-07-18T22:37:22.107999+05:30"},{"city":"Bareilly","state":"Uttar Pradesh","latitude":28.367,"longitude":79.4304,"temp":28.3,"humidity":94,"rain":0.0,"pressure":982.5,"uv_index":7.7,"wind_gusts":30.6,"aqi":156,"pm10":78.5,"pm2_5":48.7,"no2":14.6,"co":378.0,"o3":91.0,"so2":12.0,"mosquito_risk":7,"arthritis_risk":5,"migraine_risk":7,"frizz_risk":1,"updated_at":"2026-07-18T22:37:22.108007+05:30"},{"city":"Aligarh","state":"Uttar Pradesh","latitude":27.8974,"longitude":78.088,"temp":30.2,"humidity":76,"rain":0.0,"pressure":980.3,"uv_index":7.4,"wind_gusts":27.4,"aqi":308,"pm10":235.2,"pm2_5":78.2,"no2":25.6,"co":391.0,"o3":50.0,"so2":6.8,"mosquito_risk":3,"arthritis_risk":5,"migraine_risk":7,"frizz_risk":1,"updated_at":"2026-07-18T22:37:22.108013+05:30"},{"city":"Moradabad","state":"Uttar Pradesh","latitude":28.8386,"longitude":78.7733,"temp":27.5,"humidity":96,"rain":0.0,"pressure":979.0,"uv_index":7.45,"wind_gusts":35.3,"aqi":171,"pm10":60.1,"pm2_5":49.0,"no2":15.5,"co":511.0,"o3":88.0,"so2":14.7,"mosquito_risk":7,"arthritis_risk":5,"migraine_risk":7,"frizz_risk":1,"updated_at":"2026-07-18T22:37:22.108019+05:30"},{"city":"Saharanpur","state":"Uttar Pradesh","latitude":29.9637,"longitude":77.546,"temp":28.8,"humidity":92,"rain":0.0,"pressure":970.4,"uv_index":7.3,"wind_gusts":32.0,"aqi":194,"pm10":406.1,"pm2_5":147.1,"no2":40.7,"co":528.0,"o3":54.0,"so2":17.4,"mosquito_risk":7,"arthritis_risk":5,"migraine_risk":7,"frizz_risk":1,"updated_at":"2026-07-18T22:37:22.108025+05:30"},{"city":"Jhansi","state":"Uttar Pradesh","latitude":25.4484,"longitude":78.5685,"temp":27.5,"humidity":88,"rain":0.0,"pressure":974.3,"uv_index":7.05,"wind_gusts":43.6,"aqi":87,"pm10":43.8,"pm2_5":28.5,"no2":18.7,"co":177.0,"o3":46.0,"so2":4.6,"mosquito_risk":7,"arthritis_risk":5,"migraine_risk":7,"frizz_risk":1,"updated_at":"2026-07-18T22:37:25.426827+05:30"},{"city":"Surat","state":"Gujarat","latitude":21.1702,"longitude":72.8311,"temp":28.4,"humidity":82,"rain":0.0,"pressure":1004.2,"uv_index":7.15,"wind_gusts":43.2,"aqi":70,"pm10":23.4,"pm2_5":17.3,"no2":19.8,"co":277.0,"o3":29.0,"so2":30.2,"mosquito_risk":7,"arthritis_risk":5,"migraine_risk":4,"frizz_risk":1,"updated_at":"2026-07-18T22:37:25.426864+05:30"},{"city":"Vadodara","state":"Gujarat","latitude":22.3072,"longitude":73.1812,"temp":28.7,"humidity":82,"rain":0.0,"pressure":1001.1,"uv_index":5.75,"wind_gusts":39.2,"aqi":65,"pm10":19.0,"pm2_5":14.7,"no2":20.4,"co":200.0,"o3":35.0,"so2":18.9,"mosquito_risk":7,"arthritis_risk":5,"migraine_risk":0,"frizz_risk":1,"updated_at":"2026-07-18T22:37:25.426875+05:30"},{"city":"Rajkot","state":"Gujarat","latitude":22.3039,"longitude":70.8022,"temp":27.8,"humidity":77,"rain":0.0,"pressure":991.0,"uv_index":5.25,"wind_gusts":46.1,"aqi":59,"pm10":24.2,"pm2_5":13.4,"no2":5.4,"co":120.0,"o3":44.0,"so2":5.0,"mosquito_risk":7,"arthritis_risk":5,"migraine_risk":3,"frizz_risk":1,"updated_at":"2026-07-18T22:37:25.426884+05:30"},{"city":"Thane","state":"Maharashtra","latitude":19.2183,"longitude":72.9781,"temp":24.8,"humidity":100,"rain":0.1,"pressure":1007.2,"uv_index":6.4,"wind_gusts":43.9,"aqi":62,"pm10":26.3,"pm2_5":14.5,"no2":12.6,"co":316.0,"o3":39.0,"so2":8.7,"mosquito_risk":6,"arthritis_risk":5,"migraine_risk":4,"frizz_risk":1,"updated_at":"2026-07-18T22:37:25.426892+05:30"},{"city":"Nagpur","state":"Maharashtra","latitude":21.1458,"longitude":79.0882,"temp":26.1,"humidity":91,"rain":0.0,"pressure":971.4,"uv_index":1.0,"wind_gusts":27.0,"aqi":66,"pm10":25.1,"pm2_5":18.3,"no2":17.4,"co":227.0,"o3":40.0,"so2":9.0,"mosquito_risk":7,"arthritis_risk":5,"migraine_risk":3,"frizz_risk":1,"updated_at":"2026-07-18T22:37:25.426900+05:30"},{"city":"Nashik","state":"Maharashtra","latitude":19.9975,"longitude":73.7898,"temp":22.7,"humidity":95,"rain":0.0,"pressure":944.0,"uv_index":6.9,"wind_gusts":45.0,"aqi":31,"pm10":4.0,"pm2_5":3.1,"no2":13.1,"co":161.0,"o3":33.0,"so2":10.0,"mosquito_risk":3,"arthritis_risk":5,"migraine_risk":7,"frizz_risk":1,"updated_at":"2026-07-18T22:37:25.426907+05:30"},{"city":"Aurangabad","state":"Maharashtra","latitude":19.8762,"longitude":75.3433,"temp":23.0,"humidity":97,"rain":0.3,"pressure":943.0,"uv_index":6.7,"wind_gusts":38.5,"aqi":40,"pm10":11.7,"pm2_5":9.1,"no2":11.0,"co":164.0,"o3":44.0,"so2":7.4,"mosquito_risk":6,"arthritis_risk":5,"migraine_risk":7,"frizz_risk":1,"updated_at":"2026-07-18T22:37:25.426914+05:30"},{"city":"Solapur","state":"Maharashtra","latitude":17.6599,"longitude":75.9064,"temp":24.3,"humidity":95,"rain":0.1,"pressure":957.1,"uv_index":3.15,"wind_gusts":34.9,"aqi":41,"pm10":9.4,"pm2_5":6.7,"no2":6.4,"co":192.0,"o3":39.0,"so2":2.6,"mosquito_risk":6,"arthritis_risk":5,"migraine_risk":3,"frizz_risk":1,"updated_at":"2026-07-18T22:37:25.426922+05:30"},{"city":"Kolhapur","state":"Maharashtra","latitude":16.705,"longitude":74.2433,"temp":21.8,"humidity":96,"rain":0.1,"pressure":948.2,"uv_index":5.3,"wind_gusts":46.1,"aqi":32,"pm10":5.5,"pm2_5":4.7,"no2":7.0,"co":162.0,"o3":35.0,"so2":2.5,"mosquito_risk":6,"arthritis_risk":5,"migraine_risk":3,"frizz_risk":1,"updated_at":"2026-07-18T22:37:25.426930+05:30"},{"city":"Goa","state":"Goa","latitude":15.2993,"longitude":74.124,"temp":24.8,"humidity":98,"rain":0.2,"pressure":999.8,"uv_index":6.25,"wind_gusts":35.6,"aqi":63,"pm10":28.4,"pm2_5":16.6,"no2":5.7,"co":512.0,"o3":37.0,"so2":1.6,"mosquito_risk":6,"arthritis_risk":5,"migraine_risk":7,"frizz_risk":1,"updated_at":"2026-07-18T22:37:25.426937+05:30"},{"city":"Jodhpur","state":"Rajasthan","latitude":26.2389,"longitude":73.0243,"temp":31.8,"humidity":52,"rain":0.0,"pressure":977.9,"uv_index":8.4,"wind_gusts":42.8,"aqi":129,"pm10":182.5,"pm2_5":42.8,"no2":9.2,"co":150.0,"o3":48.0,"so2":2.4,"mosquito_risk":0,"arthritis_risk":5,"migraine_risk":7,"frizz_risk":1,"updated_at":"2026-07-18T22:37:25.426943+05:30"},{"city":"Udaipur","state":"Rajasthan","latitude":24.5854,"longitude":73.7125,"temp":27.2,"humidity":72,"rain":0.0,"pressure":943.1,"uv_index":8.25,"wind_gusts":33.8,"aqi":73,"pm10":23.6,"pm2_5":14.4,"no2":6.5,"co":147.0,"o3":72.0,"so2":5.8,"mosquito_risk":7,"arthritis_risk":5,"migraine_risk":7,"frizz_risk":1,"updated_at":"2026-07-18T22:37:25.426951+05:30"},{"city":"Kota","state":"Rajasthan","latitude":25.2138,"longitude":75.8648,"temp":32.8,"humidity":51,"rain":0.0,"pressure":974.8,"uv_index":8.25,"wind_gusts":32.4,"aqi":83,"pm10":31.4,"pm2_5":21.6,"no2":11.1,"co":194.0,"o3":61.0,"so2":5.9,"mosquito_risk":0,"arthritis_risk":5,"migraine_risk":7,"frizz_risk":1,"updated_at":"2026-07-18T22:37:25.426958+05:30"},{"city":"Bikaner","state":"Rajasthan","latitude":28.0229,"longitude":73.3119,"temp":34.2,"humidity":44,"rain":0.0,"pressure":975.7,"uv_index":8.25,"wind_gusts":38.5,"aqi":123,"pm10":180.2,"pm2_5":53.8,"no2":2.1,"co":122.0,"o3":71.0,"so2":2.6,"mosquito_risk":0,"arthritis_risk":5,"migraine_risk":7,"frizz_risk":1,"updated_at":"2026-07-18T22:37:25.426964+05:30"},{"city":"Ajmer","state":"Rajasthan","latitude":26.4499,"longitude":74.6399,"temp":30.2,"humidity":55,"rain":0.0,"pressure":950.6,"uv_index":8.0,"wind_gusts":43.2,"aqi":76,"pm10":34.0,"pm2_5":20.7,"no2":11.9,"co":157.0,"o3":48.0,"so2":3.9,"mosquito_risk":0,"arthritis_risk":5,"migraine_risk":7,"frizz_risk":1,"updated_at":"2026-07-18T22:37:25.426971+05:30"},{"city":"Gwalior","state":"Madhya Pradesh","latitude":26.2183,"longitude":78.1828,"temp":30.4,"humidity":67,"rain":0.0,"pressure":979.1,"uv_index":3.4,"wind_gusts":37.1,"aqi":94,"pm10":38.9,"pm2_5":24.1,"no2":16.2,"co":201.0,"o3":46.0,"so2":3.8,"mosquito_risk":3,"arthritis_risk":5,"migraine_risk":3,"frizz_risk":1,"updated_at":"2026-07-18T22:37:25.426978+05:30"},{"city":"Indore","state":"Madhya Pradesh","latitude":22.7196,"longitude":75.8577,"temp":26.2,"humidity":80,"rain":0.0,"pressure":945.8,"uv_index":6.0,"wind_gusts":38.5,"aqi":71,"pm10":28.3,"pm2_5":22.0,"no2":13.9,"co":284.0,"o3":58.0,"so2":7.7,"mosquito_risk":7,"arthritis_risk":5,"migraine_risk":3,"frizz_risk":1,"updated_at":"2026-07-18T22:37:25.426984+05:30"},{"city":"Bhopal","state":"Madhya Pradesh","latitude":23.2599,"longitude":77.4126,"temp":27.3,"humidity":80,"rain":0.0,"pressure":951.1,"uv_index":6.3,"wind_gusts":36.7,"aqi":79,"pm10":26.5,"pm2_5":18.5,"no2":8.6,"co":369.0,"o3":60.0,"so2":4.1,"mosquito_risk":7,"arthritis_risk":5,"migraine_risk":7,"frizz_risk":1,"updated_at":"2026-07-18T22:37:25.426990+05:30"},{"city":"Jabalpur","state":"Madhya Pradesh","latitude":23.1815,"longitude":79.9864,"temp":25.7,"humidity":96,"rain":0.0,"pressure":958.5,"uv_index":8.2,"wind_gusts":34.9,"aqi":84,"pm10":39.5,"pm2_5":27.6,"no2":9.0,"co":357.0,"o3":68.0,"so2":5.1,"mosquito_risk":7,"arthritis_risk":5,"migraine_risk":7,"frizz_risk":1,"updated_at":"2026-07-18T22:37:25.426996+05:30"},{"city":"Ujjain","state":"Madhya Pradesh","latitude":23.1765,"longitude":75.7885,"temp":26.3,"humidity":79,"rain":0.0,"pressure":951.2,"uv_index":6.65,"wind_gusts":36.4,"aqi":73,"pm10":24.6,"pm2_5":18.6,"no2":7.6,"co":255.0,"o3":73.0,"so2":5.7,"mosquito_risk":7,"arthritis_risk":5,"migraine_risk":7,"frizz_risk":1,"updated_at":"2026-07-18T22:37:25.427003+05:30"},{"city":"Visakhapatnam","state":"Andhra Pradesh","latitude":17.6868,"longitude":83.2185,"temp":27.3,"humidity":90,"rain":0.0,"pressure":1000.6,"uv_index":6.55,"wind_gusts":39.6,"aqi":79,"pm10":27.3,"pm2_5":23.2,"no2":25.1,"co":320.0,"o3":52.0,"so2":35.9,"mosquito_risk":7,"arthritis_risk":5,"migraine_risk":4,"frizz_risk":1,"updated_at":"2026-07-18T22:37:25.427009+05:30"},{"city":"Vijayawada","state":"Andhra Pradesh","latitude":16.5062,"longitude":80.648,"temp":27.2,"humidity":89,"rain":0.1,"pressure":1001.6,"uv_index":5.25,"wind_gusts":38.9,"aqi":63,"pm10":21.8,"pm2_5":15.5,"no2":10.3,"co":245.0,"o3":48.0,"so2":5.1,"mosquito_risk":10,"arthritis_risk":5,"migraine_risk":0,"frizz_risk":1,"updated_at":"2026-07-18T22:37:25.427015+05:30"},{"city":"Guntur","state":"Andhra Pradesh","latitude":16.3067,"longitude":80.4365,"temp":29.2,"humidity":68,"rain":0.0,"pressure":1002.9,"uv_index":3.95,"wind_gusts":43.6,"aqi":62,"pm10":19.2,"pm2_5":13.2,"no2":9.7,"co":187.0,"o3":45.0,"so2":4.7,"mosquito_risk":7,"arthritis_risk":5,"migraine_risk":0,"frizz_risk":1,"updated_at":"2026-07-18T22:37:25.427022+05:30"},{"city":"Nellore","state":"Andhra Pradesh","latitude":14.4426,"longitude":79.9865,"temp":28.4,"humidity":79,"rain":0.0,"pressure":1005.7,"uv_index":2.55,"wind_gusts":42.8,"aqi":54,"pm10":21.7,"pm2_5":12.8,"no2":9.5,"co":198.0,"o3":47.0,"so2":4.4,"mosquito_risk":7,"arthritis_risk":5,"migraine_risk":0,"frizz_risk":1,"updated_at":"2026-07-18T22:37:25.427028+05:30"},{"city":"Kurnool","state":"Andhra Pradesh","latitude":15.8281,"longitude":78.0373,"temp":25.6,"humidity":84,"rain":0.0,"pressure":977.3,"uv_index":4.85,"wind_gusts":42.8,"aqi":53,"pm10":20.4,"pm2_5":13.0,"no2":12.0,"co":206.0,"o3":49.0,"so2":8.2,"mosquito_risk":7,"arthritis_risk":5,"migraine_risk":3,"frizz_risk":1,"updated_at":"2026-07-18T22:37:25.427035+05:30"},{"city":"Kakinada","state":"Andhra Pradesh","latitude":16.9891,"longitude":82.2475,"temp":27.3,"humidity":88,"rain":0.0,"pressure":1005.5,"uv_index":7.2,"wind_gusts":47.2,"aqi":67,"pm10":26.3,"pm2_5":19.2,"no2":8.0,"co":238.0,"o3":80.0,"so2":5.6,"mosquito_risk":7,"arthritis_risk":5,"migraine_risk":4,"frizz_risk":1,"updated_at":"2026-07-18T22:37:25.427042+05:30"},{"city":"Tirupati","state":"Andhra Pradesh","latitude":13.6288,"longitude":79.4192,"temp":26.8,"humidity":78,"rain":0.0,"pressure":991.4,"uv_index":3.3,"wind_gusts":38.9,"aqi":56,"pm10":21.6,"pm2_5":15.3,"no2":21.3,"co":290.0,"o3":29.0,"so2":3.0,"mosquito_risk":7,"arthritis_risk":5,"migraine_risk":3,"frizz_risk":1,"updated_at":"2026-07-18T22:37:25.427048+05:30"},{"city":"Warangal","state":"Telangana","latitude":17.9689,"longitude":79.5941,"temp":25.6,"humidity":91,"rain":0.0,"pressure":977.9,"uv_index":6.05,"wind_gusts":38.2,"aqi":62,"pm10":22.5,"pm2_5":17.8,"no2":11.9,"co":208.0,"o3":45.0,"so2":4.5,"mosquito_risk":7,"arthritis_risk":5,"migraine_risk":7,"frizz_risk":1,"updated_at":"2026-07-18T22:37:25.427054+05:30"},{"city":"Nizamabad","state":"Telangana","latitude":18.6725,"longitude":78.0941,"temp":24.1,"humidity":98,"rain":0.2,"pressure":964.0,"uv_index":1.1,"wind_gusts":42.1,"aqi":62,"pm10":24.8,"pm2_5":15.5,"no2":8.1,"co":223.0,"o3":60.0,"so2":10.1,"mosquito_risk":6,"arthritis_risk":5,"migraine_risk":3,"frizz_risk":1,"updated_at":"2026-07-18T22:37:25.427060+05:30"},{"city":"Mysore","state":"Karnataka","latitude":12.2958,"longitude":76.6396,"temp":21.8,"humidity":89,"rain":0.0,"pressure":930.2,"uv_index":3.75,"wind_gusts":49.3,"aqi":35,"pm10":7.1,"pm2_5":5.3,"no2":9.5,"co":155.0,"o3":41.0,"so2":2.4,"mosquito_risk":3,"arthritis_risk":5,"migraine_risk":3,"frizz_risk":1,"updated_at":"2026-07-18T22:37:25.427083+05:30"},{"city":"Mangalore","state":"Karnataka","latitude":12.9141,"longitude":74.856,"temp":23.8,"humidity":97,"rain":0.0,"pressure":1009.3,"uv_index":4.25,"wind_gusts":35.3,"aqi":57,"pm10":22.6,"pm2_5":15.5,"no2":14.5,"co":345.0,"o3":23.0,"so2":3.5,"mosquito_risk":3,"arthritis_risk":0,"migraine_risk":0,"frizz_risk":1,"updated_at":"2026-07-18T22:37:25.427090+05:30"},{"city":"Hubli-Dharwad","state":"Karnataka","latitude":15.3647,"longitude":75.124,"temp":22.0,"humidity":96,"rain":0.0,"pressure":941.7,"uv_index":7.7,"wind_gusts":49.3,"aqi":25,"pm10":4.2,"pm2_5":3.3,"no2":6.9,"co":132.0,"o3":35.0,"so2":1.6,"mosquito_risk":3,"arthritis_risk":5,"migraine_risk":7,"frizz_risk":1,"updated_at":"2026-07-18T22:37:25.427097+05:30"},{"city":"Belgaum","state":"Karnataka","latitude":15.8497,"longitude":74.4977,"temp":21.2,"humidity":97,"rain":0.1,"pressure":926.1,"uv_index":6.85,"wind_gusts":50.4,"aqi":21,"pm10":3.3,"pm2_5":2.8,"no2":4.8,"co":117.0,"o3":41.0,"so2":1.6,"mosquito_risk":6,"arthritis_risk":5,"migraine_risk":7,"frizz_risk":1,"updated_at":"2026-07-18T22:37:28.758840+05:30"},{"city":"Coimbatore","state":"Tamil Nadu","latitude":11.0168,"longitude":76.9558,"temp":23.5,"humidity":90,"rain":0.0,"pressure":963.0,"uv_index":7.1,"wind_gusts":44.6,"aqi":44,"pm10":10.9,"pm2_5":8.8,"no2":11.3,"co":210.0,"o3":31.0,"so2":3.8,"mosquito_risk":3,"arthritis_risk":5,"migraine_risk":7,"frizz_risk":1,"updated_at":"2026-07-18T22:37:28.758876+05:30"},{"city":"Madurai","state":"Tamil Nadu","latitude":9.9252,"longitude":78.1198,"temp":29.5,"humidity":64,"rain":0.0,"pressure":993.8,"uv_index":8.0,"wind_gusts":26.3,"aqi":63,"pm10":35.5,"pm2_5":19.7,"no2":15.4,"co":282.0,"o3":62.0,"so2":5.6,"mosquito_risk":7,"arthritis_risk":5,"migraine_risk":7,"frizz_risk":1,"updated_at":"2026-07-18T22:37:28.758888+05:30"},{"city":"Trichy","state":"Tamil Nadu","latitude":10.7905,"longitude":78.7047,"temp":29.9,"humidity":59,"rain":0.0,"pressure":1000.6,"uv_index":6.95,"wind_gusts":47.9,"aqi":53,"pm10":21.6,"pm2_5":16.6,"no2":16.3,"co":169.0,"o3":43.0,"so2":4.9,"mosquito_risk":4,"arthritis_risk":5,"migraine_risk":4,"frizz_risk":1,"updated_at":"2026-07-18T22:37:28.758897+05:30"},{"city":"Salem","state":"Tamil Nadu","latitude":11.6643,"longitude":78.146,"temp":27.3,"humidity":78,"rain":0.0,"pressure":978.5,"uv_index":7.05,"wind_gusts":37.1,"aqi":66,"pm10":35.4,"pm2_5":23.1,"no2":24.2,"co":536.0,"o3":34.0,"so2":7.7,"mosquito_risk":7,"arthritis_risk":5,"migraine_risk":7,"frizz_risk":1,"updated_at":"2026-07-18T22:37:28.758906+05:30"},{"city":"Tirunelveli","state":"Tamil Nadu","latitude":8.7139,"longitude":77.7567,"temp":29.3,"humidity":59,"rain":0.0,"pressure":1004.8,"uv_index":8.65,"wind_gusts":54.4,"aqi":51,"pm10":7.2,"pm2_5":5.5,"no2":5.7,"co":139.0,"o3":41.0,"so2":1.9,"mosquito_risk":4,"arthritis_risk":5,"migraine_risk":4,"frizz_risk":1,"updated_at":"2026-07-18T22:37:28.758913+05:30"},{"city":"Vellore","state":"Tamil Nadu","latitude":12.9165,"longitude":79.1325,"temp":26.5,"humidity":90,"rain":0.1,"pressure":985.1,"uv_index":6.3,"wind_gusts":43.2,"aqi":59,"pm10":44.7,"pm2_5":27.6,"no2":24.5,"co":203.0,"o3":32.0,"so2":5.2,"mosquito_risk":10,"arthritis_risk":5,"migraine_risk":7,"frizz_risk":1,"updated_at":"2026-07-18T22:37:28.758921+05:30"},{"city":"Erode","state":"Tamil Nadu","latitude":11.341,"longitude":77.7172,"temp":27.1,"humidity":70,"rain":0.0,"pressure":990.4,"uv_index":6.7,"wind_gusts":39.2,"aqi":56,"pm10":19.8,"pm2_5":12.7,"no2":13.9,"co":187.0,"o3":37.0,"so2":4.0,"mosquito_risk":7,"arthritis_risk":5,"migraine_risk":7,"frizz_risk":1,"updated_at":"2026-07-18T22:37:28.758929+05:30"},{"city":"Kochi","state":"Kerala","latitude":9.9312,"longitude":76.2673,"temp":25.8,"humidity":93,"rain":0.0,"pressure":1011.4,"uv_index":7.75,"wind_gusts":36.7,"aqi":56,"pm10":20.0,"pm2_5":15.8,"no2":16.6,"co":163.0,"o3":24.0,"so2":4.2,"mosquito_risk":7,"arthritis_risk":0,"migraine_risk":4,"frizz_risk":1,"updated_at":"2026-07-18T22:37:28.758937+05:30"},{"city":"Thiruvananthapuram","state":"Kerala","latitude":8.5241,"longitude":76.9366,"temp":24.8,"humidity":91,"rain":0.1,"pressure":1011.1,"uv_index":8.45,"wind_gusts":49.3,"aqi":58,"pm10":15.5,"pm2_5":9.2,"no2":5.1,"co":144.0,"o3":44.0,"so2":1.7,"mosquito_risk":6,"arthritis_risk":0,"migraine_risk":4,"frizz_risk":1,"updated_at":"2026-07-18T22:37:28.758944+05:30"},{"city":"Kozhikode","state":"Kerala","latitude":11.2588,"longitude":75.7804,"temp":24.6,"humidity":94,"rain":0.0,"pressure":1011.0,"uv_index":7.8,"wind_gusts":34.2,"aqi":52,"pm10":15.0,"pm2_5":8.1,"no2":2.1,"co":167.0,"o3":50.0,"so2":1.4,"mosquito_risk":3,"arthritis_risk":0,"migraine_risk":4,"frizz_risk":1,"updated_at":"2026-07-18T22:37:28.758951+05:30"},{"city":"Thrissur","state":"Kerala","latitude":10.5276,"longitude":76.2144,"temp":25.3,"humidity":92,"rain":0.0,"pressure":1009.9,"uv_index":7.55,"wind_gusts":37.8,"aqi":57,"pm10":14.9,"pm2_5":11.7,"no2":10.7,"co":179.0,"o3":31.0,"so2":3.4,"mosquito_risk":7,"arthritis_risk":0,"migraine_risk":4,"frizz_risk":1,"updated_at":"2026-07-18T22:37:28.758958+05:30"},{"city":"Kannur","state":"Kerala","latitude":11.8745,"longitude":75.3704,"temp":24.1,"humidity":97,"rain":0.0,"pressure":1010.2,"uv_index":7.75,"wind_gusts":33.8,"aqi":53,"pm10":18.9,"pm2_5":13.5,"no2":16.6,"co":237.0,"o3":22.0,"so2":3.1,"mosquito_risk":3,"arthritis_risk":0,"migraine_risk":4,"frizz_risk":1,"updated_at":"2026-07-18T22:37:28.758966+05:30"},{"city":"Patna","state":"Bihar","latitude":25.5941,"longitude":85.1376,"temp":27.3,"humidity":96,"rain":0.1,"pressure":996.9,"uv_index":6.7,"wind_gusts":26.3,"aqi":81,"pm10":28.3,"pm2_5":28.2,"no2":13.3,"co":442.0,"o3":93.0,"so2":11.6,"mosquito_risk":10,"arthritis_risk":5,"migraine_risk":7,"frizz_risk":1,"updated_at":"2026-07-18T22:37:28.758973+05:30"},{"city":"Gaya","state":"Bihar","latitude":24.7914,"longitude":85.0002,"temp":26.7,"humidity":98,"rain":0.0,"pressure":990.2,"uv_index":6.65,"wind_gusts":25.9,"aqi":112,"pm10":29.9,"pm2_5":29.6,"no2":13.0,"co":440.0,"o3":80.0,"so2":7.3,"mosquito_risk":7,"arthritis_risk":5,"migraine_risk":7,"frizz_risk":1,"updated_at":"2026-07-18T22:37:28.758980+05:30"},{"city":"Muzaffarpur","state":"Bihar","latitude":26.1209,"longitude":85.3647,"temp":27.0,"humidity":96,"rain":0.2,"pressure":997.3,"uv_index":7.25,"wind_gusts":29.2,"aqi":76,"pm10":26.5,"pm2_5":26.4,"no2":13.3,"co":430.0,"o3":89.0,"so2":9.2,"mosquito_risk":10,"arthritis_risk":5,"migraine_risk":7,"frizz_risk":1,"updated_at":"2026-07-18T22:37:28.758987+05:30"},{"city":"Bhagalpur","state":"Bihar","latitude":25.2425,"longitude":87.0117,"temp":27.0,"humidity":96,"rain":0.2,"pressure":998.0,"uv_index":7.85,"wind_gusts":29.9,"aqi":77,"pm10":25.1,"pm2_5":24.6,"no2":13.8,"co":314.0,"o3":89.0,"so2":10.6,"mosquito_risk":10,"arthritis_risk":5,"migraine_risk":7,"frizz_risk":1,"updated_at":"2026-07-18T22:37:28.758994+05:30"},{"city":"Ranchi","state":"Jharkhand","latitude":23.3441,"longitude":85.3096,"temp":23.9,"humidity":98,"rain":0.0,"pressure":934.1,"uv_index":9.2,"wind_gusts":26.6,"aqi":70,"pm10":23.6,"pm2_5":23.5,"no2":11.5,"co":321.0,"o3":75.0,"so2":6.0,"mosquito_risk":3,"arthritis_risk":5,"migraine_risk":7,"frizz_risk":1,"updated_at":"2026-07-18T22:37:28.759001+05:30"},{"city":"Jamshedpur","state":"Jharkhand","latitude":22.8046,"longitude":86.2029,"temp":25.8,"humidity":98,"rain":0.0,"pressure":987.1,"uv_index":8.75,"wind_gusts":32.0,"aqi":87,"pm10":32.6,"pm2_5":31.7,"no2":19.5,"co":364.0,"o3":67.0,"so2":19.7,"mosquito_risk":7,"arthritis_risk":5,"migraine_risk":7,"frizz_risk":1,"updated_at":"2026-07-18T22:37:28.759008+05:30"},{"city":"Dhanbad","state":"Jharkhand","latitude":23.7957,"longitude":86.4304,"temp":25.7,"humidity":98,"rain":0.0,"pressure":976.2,"uv_index":7.6,"wind_gusts":25.9,"aqi":151,"pm10":62.9,"pm2_5":62.2,"no2":57.4,"co":436.0,"o3":41.0,"so2":112.7,"mosquito_risk":7,"arthritis_risk":5,"migraine_risk":7,"frizz_risk":1,"updated_at":"2026-07-18T22:37:28.759014+05:30"},{"city":"Bokaro","state":"Jharkhand","latitude":23.6693,"longitude":86.1511,"temp":26.0,"humidity":98,"rain":0.0,"pressure":979.9,"uv_index":7.7,"wind_gusts":19.1,"aqi":128,"pm10":60.3,"pm2_5":59.8,"no2":49.4,"co":1495.0,"o3":55.0,"so2":108.1,"mosquito_risk":7,"arthritis_risk":5,"migraine_risk":7,"frizz_risk":1,"updated_at":"2026-07-18T22:37:28.759021+05:30"},{"city":"Bhubaneswar","state":"Odisha","latitude":20.2961,"longitude":85.8245,"temp":26.2,"humidity":97,"rain":0.0,"pressure":999.4,"uv_index":8.55,"wind_gusts":34.9,"aqi":65,"pm10":28.0,"pm2_5":23.7,"no2":10.3,"co":437.0,"o3":95.0,"so2":6.5,"mosquito_risk":7,"arthritis_risk":5,"migraine_risk":7,"frizz_risk":1,"updated_at":"2026-07-18T22:37:28.759028+05:30"},{"city":"Cuttack","state":"Odisha","latitude":20.4625,"longitude":85.8828,"temp":26.3,"humidity":97,"rain":0.1,"pressure":1001.1,"uv_index":8.6,"wind_gusts":32.8,"aqi":65,"pm10":28.0,"pm2_5":23.7,"no2":10.3,"co":481.0,"o3":95.0,"so2":6.5,"mosquito_risk":10,"arthritis_risk":5,"migraine_risk":4,"frizz_risk":1,"updated_at":"2026-07-18T22:37:28.759035+05:30"},{"city":"Rourkela","state":"Odisha","latitude":22.2604,"longitude":84.8536,"temp":25.9,"humidity":97,"rain":0.0,"pressure":981.4,"uv_index":7.55,"wind_gusts":42.8,"aqi":77,"pm10":26.2,"pm2_5":24.5,"no2":11.0,"co":372.0,"o3":86.0,"so2":7.9,"mosquito_risk":7,"arthritis_risk":5,"migraine_risk":7,"frizz_risk":1,"updated_at":"2026-07-18T22:37:28.759041+05:30"},{"city":"Raipur","state":"Chhattisgarh","latitude":21.2514,"longitude":81.6296,"temp":25.0,"humidity":96,"rain":0.1,"pressure":972.2,"uv_index":7.05,"wind_gusts":42.8,"aqi":87,"pm10":32.6,"pm2_5":23.8,"no2":23.3,"co":499.0,"o3":61.0,"so2":26.3,"mosquito_risk":10,"arthritis_risk":5,"migraine_risk":7,"frizz_risk":1,"updated_at":"2026-07-18T22:37:28.759048+05:30"},{"city":"Bhilai","state":"Chhattisgarh","latitude":21.1938,"longitude":81.3509,"temp":25.0,"humidity":97,"rain":0.2,"pressure":972.6,"uv_index":6.2,"wind_gusts":36.4,"aqi":82,"pm10":33.2,"pm2_5":23.9,"no2":21.1,"co":509.0,"o3":55.0,"so2":24.0,"mosquito_risk":10,"arthritis_risk":5,"migraine_risk":7,"frizz_risk":1,"updated_at":"2026-07-18T22:37:28.759055+05:30"},{"city":"Guwahati","state":"Assam","latitude":26.1158,"longitude":91.7086,"temp":26.1,"humidity":99,"rain":0.1,"pressure":999.6,"uv_index":7.15,"wind_gusts":22.7,"aqi":52,"pm10":20.5,"pm2_5":19.4,"no2":14.8,"co":246.0,"o3":29.0,"so2":2.8,"mosquito_risk":10,"arthritis_risk":5,"migraine_risk":7,"frizz_risk":1,"updated_at":"2026-07-18T22:37:28.759061+05:30"},{"city":"Agartala","state":"Tripura","latitude":23.8315,"longitude":91.2868,"temp":27.2,"humidity":82,"rain":0.0,"pressure":1005.3,"uv_index":7.4,"wind_gusts":42.1,"aqi":55,"pm10":23.2,"pm2_5":17.5,"no2":8.3,"co":150.0,"o3":48.0,"so2":2.1,"mosquito_risk":7,"arthritis_risk":5,"migraine_risk":4,"frizz_risk":1,"updated_at":"2026-07-18T22:37:28.759084+05:30"},{"city":"Shillong","state":"Meghalaya","latitude":25.5788,"longitude":91.8933,"temp":20.7,"humidity":92,"rain":0.1,"pressure":857.0,"uv_index":2.9,"wind_gusts":41.4,"aqi":33,"pm10":2.4,"pm2_5":2.3,"no2":6.6,"co":171.0,"o3":57.0,"so2":1.8,"mosquito_risk":6,"arthritis_risk":5,"migraine_risk":3,"frizz_risk":1,"updated_at":"2026-07-18T22:37:28.759091+05:30"},{"city":"Imphal","state":"Manipur","latitude":24.817,"longitude":93.9368,"temp":23.8,"humidity":91,"rain":0.0,"pressure":922.3,"uv_index":4.05,"wind_gusts":31.0,"aqi":58,"pm10":19.8,"pm2_5":17.9,"no2":17.4,"co":455.0,"o3":24.0,"so2":3.0,"mosquito_risk":3,"arthritis_risk":5,"migraine_risk":3,"frizz_risk":1,"updated_at":"2026-07-18T22:37:28.759098+05:30"},{"city":"Aizawl","state":"Mizoram","latitude":23.7271,"longitude":92.7176,"temp":20.3,"humidity":88,"rain":0.0,"pressure":892.3,"uv_index":6.7,"wind_gusts":39.2,"aqi":51,"pm10":7.0,"pm2_5":5.0,"no2":3.1,"co":125.0,"o3":44.0,"so2":0.5,"mosquito_risk":3,"arthritis_risk":5,"migraine_risk":7,"frizz_risk":1,"updated_at":"2026-07-18T22:37:28.759104+05:30"},{"city":"Kohima","state":"Nagaland","latitude":25.6701,"longitude":94.1077,"temp":20.5,"humidity":96,"rain":0.0,"pressure":855.0,"uv_index":2.55,"wind_gusts":24.8,"aqi":36,"pm10":12.1,"pm2_5":9.8,"no2":10.8,"co":324.0,"o3":36.0,"so2":1.7,"mosquito_risk":3,"arthritis_risk":5,"migraine_risk":3,"frizz_risk":1,"updated_at":"2026-07-18T22:37:28.759111+05:30"},{"city":"Gangtok","state":"Sikkim","latitude":27.3314,"longitude":88.6138,"temp":18.9,"humidity":99,"rain":0.3,"pressure":837.8,"uv_index":4.15,"wind_gusts":25.6,"aqi":37,"pm10":4.5,"pm2_5":4.4,"no2":6.0,"co":261.0,"o3":87.0,"so2":1.4,"mosquito_risk":6,"arthritis_risk":10,"migraine_risk":3,"frizz_risk":1,"updated_at":"2026-07-18T22:37:28.759118+05:30"},{"city":"Siliguri","state":"West Bengal","latitude":26.7271,"longitude":88.3953,"temp":25.5,"humidity":96,"rain":0.6,"pressure":991.7,"uv_index":6.35,"wind_gusts":31.0,"aqi":58,"pm10":18.1,"pm2_5":17.3,"no2":9.9,"co":354.0,"o3":88.0,"so2":3.2,"mosquito_risk":10,"arthritis_risk":5,"migraine_risk":7,"frizz_risk":1,"updated_at":"2026-07-18T22:37:32.076814+05:30"},{"city":"Durgapur","state":"West Bengal","latitude":23.5204,"longitude":87.3119,"temp":26.8,"humidity":95,"rain":0.0,"pressure":991.2,"uv_index":8.55,"wind_gusts":30.2,"aqi":101,"pm10":41.2,"pm2_5":40.2,"no2":26.5,"co":335.0,"o3":65.0,"so2":31.1,"mosquito_risk":7,"arthritis_risk":5,"migraine_risk":7,"frizz_risk":1,"updated_at":"2026-07-18T22:37:32.076850+05:30"},{"city":"Asansol","state":"West Bengal","latitude":23.6739,"longitude":86.9524,"temp":26.6,"humidity":97,"rain":0.0,"pressure":989.8,"uv_index":8.3,"wind_gusts":31.0,"aqi":109,"pm10":33.9,"pm2_5":32.9,"no2":29.1,"co":639.0,"o3":59.0,"so2":32.5,"mosquito_risk":7,"arthritis_risk":5,"migraine_risk":7,"frizz_risk":1,"updated_at":"2026-07-18T22:37:32.076862+05:30"},{"city":"Pondicherry","state":"Puducherry","latitude":11.9139,"longitude":79.8145,"temp":26.8,"humidity":85,"rain":0.0,"pressure":1009.1,"uv_index":5.9,"wind_gusts":33.5,"aqi":72,"pm10":37.5,"pm2_5":24.4,"no2":17.4,"co":278.0,"o3":68.0,"so2":8.3,"mosquito_risk":7,"arthritis_risk":0,"migraine_risk":0,"frizz_risk":1,"updated_at":"2026-07-18T22:37:32.076872+05:30"},{"city":"Port Blair","state":"Andaman and Nicobar Islands","latitude":11.6234,"longitude":92.7265,"temp":26.7,"humidity":84,"rain":0.0,"pressure":1008.9,"uv_index":8.6,"wind_gusts":35.6,"aqi":50,"pm10":22.6,"pm2_5":10.8,"no2":0.2,"co":97.0,"o3":50.0,"so2":0.5,"mosquito_risk":7,"arthritis_risk":0,"migraine_risk":4,"frizz_risk":1,"updated_at":"2026-07-18T22:37:32.076880+05:30"},{"city":"Haridwar","state":"Uttarakhand","latitude":29.9457,"longitude":78.1642,"temp":27.7,"humidity":97,"rain":0.1,"pressure":969.0,"uv_index":7.5,"wind_gusts":28.1,"aqi":170,"pm10":96.4,"pm2_5":64.7,"no2":16.1,"co":435.0,"o3":78.0,"so2":10.8,"mosquito_risk":10,"arthritis_risk":5,"migraine_risk":7,"frizz_risk":1,"updated_at":"2026-07-18T22:37:32.076888+05:30"},{"city":"Rishikesh","state":"Uttarakhand","latitude":30.0869,"longitude":78.2676,"temp":27.2,"humidity":94,"rain":0.2,"pressure":962.1,"uv_index":7.0,"wind_gusts":28.8,"aqi":157,"pm10":104.1,"pm2_5":53.9,"no2":9.4,"co":355.0,"o3":95.0,"so2":8.3,"mosquito_risk":10,"arthritis_risk":5,"migraine_risk":7,"frizz_risk":1,"updated_at":"2026-07-18T22:37:32.076895+05:30"},{"city":"Nainital","state":"Uttarakhand","latitude":29.3919,"longitude":79.4542,"temp":17.8,"humidity":100,"rain":0.0,"pressure":804.3,"uv_index":7.0,"wind_gusts":25.6,"aqi":100,"pm10":40.7,"pm2_5":20.8,"no2":7.2,"co":300.0,"o3":115.0,"so2":6.3,"mosquito_risk":3,"arthritis_risk":10,"migraine_risk":7,"frizz_risk":1,"updated_at":"2026-07-18T22:37:32.076903+05:30"},{"city":"Mussoorie","state":"Uttarakhand","latitude":30.4599,"longitude":78.0664,"temp":18.6,"humidity":100,"rain":0.0,"pressure":801.7,"uv_index":6.7,"wind_gusts":33.5,"aqi":149,"pm10":80.3,"pm2_5":44.8,"no2":15.7,"co":309.0,"o3":100.0,"so2":10.4,"mosquito_risk":3,"arthritis_risk":10,"migraine_risk":7,"frizz_risk":1,"updated_at":"2026-07-18T22:37:32.076910+05:30"},{"city":"Dharamshala","state":"Himachal Pradesh","latitude":32.219,"longitude":76.3234,"temp":23.1,"humidity":99,"rain":0.0,"pressure":866.3,"uv_index":8.05,"wind_gusts":27.0,"aqi":51,"pm10":10.3,"pm2_5":7.2,"no2":11.7,"co":414.0,"o3":64.0,"so2":1.0,"mosquito_risk":3,"arthritis_risk":5,"migraine_risk":7,"frizz_risk":1,"updated_at":"2026-07-18T22:37:32.076918+05:30"},{"city":"Dalhousie","state":"Himachal Pradesh","latitude":32.5387,"longitude":75.971,"temp":19.8,"humidity":99,"rain":0.1,"pressure":803.4,"uv_index":8.1,"wind_gusts":22.3,"aqi":91,"pm10":46.6,"pm2_5":30.9,"no2":22.1,"co":680.0,"o3":80.0,"so2":3.0,"mosquito_risk":6,"arthritis_risk":10,"migraine_risk":7,"frizz_risk":1,"updated_at":"2026-07-18T22:37:32.076925+05:30"},{"city":"Patiala","state":"Punjab","latitude":30.3398,"longitude":76.3869,"temp":31.2,"humidity":75,"rain":0.0,"pressure":971.8,"uv_index":7.0,"wind_gusts":22.7,"aqi":238,"pm10":651.9,"pm2_5":196.0,"no2":82.3,"co":993.0,"o3":18.0,"so2":14.6,"mosquito_risk":3,"arthritis_risk":5,"migraine_risk":7,"frizz_risk":1,"updated_at":"2026-07-18T22:37:32.076932+05:30"},{"city":"Bhatinda","state":"Punjab","latitude":30.211,"longitude":74.9455,"temp":34.8,"humidity":52,"rain":0.0,"pressure":976.6,"uv_index":8.05,"wind_gusts":32.4,"aqi":177,"pm10":244.9,"pm2_5":134.6,"no2":75.5,"co":413.0,"o3":7.0,"so2":10.5,"mosquito_risk":0,"arthritis_risk":5,"migraine_risk":7,"frizz_risk":1,"updated_at":"2026-07-18T22:37:32.076938+05:30"},{"city":"Rohtak","state":"Haryana","latitude":28.8955,"longitude":76.6066,"temp":31.8,"humidity":60,"rain":0.0,"pressure":975.7,"uv_index":7.65,"wind_gusts":34.2,"aqi":842,"pm10":625.8,"pm2_5":147.1,"no2":37.4,"co":409.0,"o3":38.0,"so2":6.4,"mosquito_risk":0,"arthritis_risk":5,"migraine_risk":7,"frizz_risk":1,"updated_at":"2026-07-18T22:37:32.076945+05:30"},{"city":"Panipat","state":"Haryana","latitude":29.3909,"longitude":76.9635,"temp":30.8,"humidity":76,"rain":0.0,"pressure":974.5,"uv_index":7.55,"wind_gusts":28.4,"aqi":1216,"pm10":1035.6,"pm2_5":258.9,"no2":47.4,"co":486.0,"o3":30.0,"so2":10.8,"mosquito_risk":3,"arthritis_risk":5,"migraine_risk":7,"frizz_risk":1,"updated_at":"2026-07-18T22:37:32.076951+05:30"},{"city":"Mathura","state":"Uttar Pradesh","latitude":27.4924,"longitude":77.6737,"temp":31.0,"humidity":74,"rain":0.0,"pressure":981.6,"uv_index":7.85,"wind_gusts":31.0,"aqi":428,"pm10":333.4,"pm2_5":71.7,"no2":40.7,"co":565.0,"o3":32.0,"so2":5.9,"mosquito_risk":3,"arthritis_risk":5,"migraine_risk":7,"frizz_risk":1,"updated_at":"2026-07-18T22:37:32.076957+05:30"},{"city":"Vrindavan","state":"Uttar Pradesh","latitude":27.5823,"longitude":77.7027,"temp":30.8,"humidity":76,"rain":0.0,"pressure":982.0,"uv_index":7.55,"wind_gusts":30.6,"aqi":428,"pm10":333.4,"pm2_5":71.7,"no2":40.7,"co":569.0,"o3":32.0,"so2":5.9,"mosquito_risk":3,"arthritis_risk":5,"migraine_risk":7,"frizz_risk":1,"updated_at":"2026-07-18T22:37:32.076964+05:30"},{"city":"Ayodhya","state":"Uttar Pradesh","latitude":26.7922,"longitude":82.1998,"temp":27.6,"humidity":94,"rain":0.1,"pressure":991.7,"uv_index":6.85,"wind_gusts":20.9,"aqi":94,"pm10":34.3,"pm2_5":33.8,"no2":22.7,"co":560.0,"o3":55.0,"so2":6.6,"mosquito_risk":10,"arthritis_risk":5,"migraine_risk":7,"frizz_risk":1,"updated_at":"2026-07-18T22:37:32.076971+05:30"},{"city":"Ratlam","state":"Madhya Pradesh","latitude":23.3315,"longitude":75.0367,"temp":26.4,"humidity":83,"rain":0.0,"pressure":952.1,"uv_index":7.4,"wind_gusts":37.8,"aqi":70,"pm10":18.7,"pm2_5":14.3,"no2":5.7,"co":165.0,"o3":81.0,"so2":6.9,"mosquito_risk":7,"arthritis_risk":5,"migraine_risk":7,"frizz_risk":1,"updated_at":"2026-07-18T22:37:32.076978+05:30"},{"city":"Sagar","state":"Madhya Pradesh","latitude":23.8388,"longitude":78.7378,"temp":25.5,"humidity":98,"rain":0.3,"pressure":947.4,"uv_index":7.25,"wind_gusts":37.8,"aqi":86,"pm10":53.6,"pm2_5":33.8,"no2":8.6,"co":224.0,"o3":67.0,"so2":4.3,"mosquito_risk":10,"arthritis_risk":5,"migraine_risk":7,"frizz_risk":1,"updated_at":"2026-07-18T22:37:32.076984+05:30"},{"city":"Satna","state":"Madhya Pradesh","latitude":24.6005,"longitude":80.8322,"temp":26.2,"humidity":94,"rain":0.0,"pressure":967.5,"uv_index":8.1,"wind_gusts":34.9,"aqi":105,"pm10":45.2,"pm2_5":30.2,"no2":13.5,"co":207.0,"o3":53.0,"so2":3.1,"mosquito_risk":7,"arthritis_risk":5,"migraine_risk":7,"frizz_risk":1,"updated_at":"2026-07-18T22:37:32.076991+05:30"},{"city":"Akola","state":"Maharashtra","latitude":20.7002,"longitude":77.0082,"temp":26.0,"humidity":94,"rain":0.2,"pressure":973.8,"uv_index":5.35,"wind_gusts":32.8,"aqi":56,"pm10":11.1,"pm2_5":8.6,"no2":9.8,"co":201.0,"o3":47.0,"so2":8.4,"mosquito_risk":10,"arthritis_risk":5,"migraine_risk":3,"frizz_risk":1,"updated_at":"2026-07-18T22:37:32.076999+05:30"},{"city":"Amravati","state":"Maharashtra","latitude":20.9374,"longitude":77.7796,"temp":25.2,"humidity":94,"rain":0.0,"pressure":965.9,"uv_index":2.85,"wind_gusts":39.6,"aqi":57,"pm10":14.0,"pm2_5":10.2,"no2":10.5,"co":184.0,"o3":50.0,"so2":10.5,"mosquito_risk":7,"arthritis_risk":5,"migraine_risk":3,"frizz_risk":1,"updated_at":"2026-07-18T22:37:32.077007+05:30"},{"city":"Latur","state":"Maharashtra","latitude":18.4088,"longitude":76.5604,"temp":23.5,"humidity":93,"rain":0.0,"pressure":939.4,"uv_index":2.05,"wind_gusts":34.9,"aqi":50,"pm10":15.1,"pm2_5":10.8,"no2":6.7,"co":176.0,"o3":47.0,"so2":3.6,"mosquito_risk":3,"arthritis_risk":5,"migraine_risk":3,"frizz_risk":1,"updated_at":"2026-07-18T22:37:32.077014+05:30"},{"city":"Nanded","state":"Maharashtra","latitude":19.1383,"longitude":77.3091,"temp":24.9,"humidity":94,"rain":0.0,"pressure":967.8,"uv_index":1.4,"wind_gusts":38.9,"aqi":56,"pm10":19.8,"pm2_5":13.2,"no2":5.7,"co":197.0,"o3":61.0,"so2":4.2,"mosquito_risk":3,"arthritis_risk":5,"migraine_risk":3,"frizz_risk":1,"updated_at":"2026-07-18T22:37:32.077021+05:30"},{"city":"Gulbarga","state":"Karnataka","latitude":17.3297,"longitude":76.8343,"temp":23.6,"humidity":94,"rain":0.1,"pressure":958.7,"uv_index":2.35,"wind_gusts":38.2,"aqi":44,"pm10":9.4,"pm2_5":7.2,"no2":10.6,"co":175.0,"o3":36.0,"so2":3.2,"mosquito_risk":6,"arthritis_risk":5,"migraine_risk":3,"frizz_risk":1,"updated_at":"2026-07-18T22:37:32.077028+05:30"},{"city":"Bidar","state":"Karnataka","latitude":17.9104,"longitude":77.5199,"temp":23.0,"humidity":94,"rain":0.0,"pressure":934.9,"uv_index":1.95,"wind_gusts":38.9,"aqi":54,"pm10":18.2,"pm2_5":12.8,"no2":13.1,"co":188.0,"o3":37.0,"so2":3.5,"mosquito_risk":3,"arthritis_risk":5,"migraine_risk":3,"frizz_risk":1,"updated_at":"2026-07-18T22:37:32.077034+05:30"},{"city":"Hospet","state":"Karnataka","latitude":15.2689,"longitude":76.3909,"temp":23.3,"humidity":93,"rain":0.0,"pressure":956.7,"uv_index":5.8,"wind_gusts":48.6,"aqi":33,"pm10":7.3,"pm2_5":5.3,"no2":7.5,"co":160.0,"o3":35.0,"so2":1.8,"mosquito_risk":3,"arthritis_risk":5,"migraine_risk":3,"frizz_risk":1,"updated_at":"2026-07-18T22:37:32.077040+05:30"},{"city":"Tirupur","state":"Tamil Nadu","latitude":11.1085,"longitude":77.3411,"temp":24.8,"humidity":83,"rain":0.0,"pressure":976.6,"uv_index":7.15,"wind_gusts":43.9,"aqi":58,"pm10":23.7,"pm2_5":15.7,"no2":18.2,"co":166.0,"o3":30.0,"so2":5.4,"mosquito_risk":3,"arthritis_risk":5,"migraine_risk":7,"frizz_risk":1,"updated_at":"2026-07-18T22:37:32.077046+05:30"},{"city":"Alappuzha","state":"Kerala","latitude":9.4981,"longitude":76.3388,"temp":25.5,"humidity":96,"rain":0.0,"pressure":1011.5,"uv_index":7.9,"wind_gusts":40.7,"aqi":55,"pm10":17.9,"pm2_5":11.7,"no2":10.9,"co":87.0,"o3":36.0,"so2":3.1,"mosquito_risk":7,"arthritis_risk":0,"migraine_risk":4,"frizz_risk":1,"updated_at":"2026-07-18T22:37:32.077052+05:30"},{"city":"Munnar","state":"Kerala","latitude":10.0889,"longitude":77.0595,"temp":16.5,"humidity":99,"rain":0.0,"pressure":858.0,"uv_index":7.15,"wind_gusts":42.5,"aqi":27,"pm10":8.8,"pm2_5":6.8,"no2":8.9,"co":121.0,"o3":32.0,"so2":2.2,"mosquito_risk":3,"arthritis_risk":10,"migraine_risk":7,"frizz_risk":1,"updated_at":"2026-07-18T22:37:32.077059+05:30"},{"city":"Silchar","state":"Assam","latitude":24.8333,"longitude":92.7789,"temp":26.5,"humidity":97,"rain":0.2,"pressure":1004.4,"uv_index":8.4,"wind_gusts":29.2,"aqi":64,"pm10":20.0,"pm2_5":15.2,"no2":5.7,"co":307.0,"o3":63.0,"so2":3.6,"mosquito_risk":10,"arthritis_risk":5,"migraine_risk":4,"frizz_risk":1,"updated_at":"2026-07-18T22:37:32.077065+05:30"},{"city":"Dibrugarh","state":"Assam","latitude":27.4728,"longitude":94.912,"temp":25.2,"humidity":98,"rain":0.1,"pressure":993.2,"uv_index":1.8,"wind_gusts":33.8,"aqi":58,"pm10":12.1,"pm2_5":11.6,"no2":9.2,"co":198.0,"o3":50.0,"so2":1.5,"mosquito_risk":10,"arthritis_risk":5,"migraine_risk":3,"frizz_risk":1,"updated_at":"2026-07-18T22:37:32.077088+05:30"}]