[{"city":"Delhi","state":"Delhi","latitude":28.6139,"longitude":77.209,"temp":27.4,"humidity":35,"rain":0.0,"pressure":981.2,"uv_index":6.15,"wind_gusts":24.5,"aqi":158,"pm10":222.1,"pm2_5":59.1,"mosquito_risk":4,"arthritis_risk":5,"migraine_risk":7,"frizz_risk":0,"updated_at":"2026-04-17T02:23:15.458957+05:30"},{"city":"Mumbai","state":"Maharashtra","latitude":19.076,"longitude":72.8777,"temp":28.5,"humidity":75,"rain":0.0,"pressure":1007.4,"uv_index":7.05,"wind_gusts":21.2,"aqi":79,"pm10":57.0,"pm2_5":22.1,"mosquito_risk":7,"arthritis_risk":5,"migraine_risk":4,"frizz_risk":1,"updated_at":"2026-04-17T02:23:15.458994+05:30"},{"city":"Bangalore","state":"Karnataka","latitude":12.9716,"longitude":77.5946,"temp":25.0,"humidity":69,"rain":0.0,"pressure":910.9,"uv_index":9.55,"wind_gusts":34.9,"aqi":82,"pm10":28.2,"pm2_5":26.0,"mosquito_risk":7,"arthritis_risk":5,"migraine_risk":7,"frizz_risk":1,"updated_at":"2026-04-17T02:23:15.459010+05:30"},{"city":"Hyderabad","state":"Telangana","latitude":17.385,"longitude":78.4867,"temp":28.4,"humidity":61,"rain":0.0,"pressure":951.9,"uv_index":9.2,"wind_gusts":45.7,"aqi":86,"pm10":23.6,"pm2_5":22.5,"mosquito_risk":7,"arthritis_risk":5,"migraine_risk":7,"frizz_risk":1,"updated_at":"2026-04-17T02:23:15.459020+05:30"},{"city":"Chennai","state":"Tamil Nadu","latitude":13.0827,"longitude":80.2707,"temp":27.7,"humidity":91,"rain":0.0,"pressure":1005.7,"uv_index":8.7,"wind_gusts":33.8,"aqi":31,"pm10":11.2,"pm2_5":7.7,"mosquito_risk":7,"arthritis_risk":5,"migraine_risk":4,"frizz_risk":1,"updated_at":"2026-04-17T02:23:15.459028+05:30"},{"city":"Kolkata","state":"West Bengal","latitude":22.5726,"longitude":88.3639,"temp":25.9,"humidity":95,"rain":0.0,"pressure":1006.0,"uv_index":8.9,"wind_gusts":22.7,"aqi":73,"pm10":21.0,"pm2_5":16.8,"mosquito_risk":7,"arthritis_risk":5,"migraine_risk":4,"frizz_risk":1,"updated_at":"2026-04-17T02:23:15.459040+05:30"},{"city":"Pune","state":"Maharashtra","latitude":18.5204,"longitude":73.8567,"temp":23.0,"humidity":78,"rain":0.0,"pressure":947.1,"uv_index":7.75,"wind_gusts":44.3,"aqi":119,"pm10":36.3,"pm2_5":27.5,"mosquito_risk":3,"arthritis_risk":5,"migraine_risk":7,"frizz_risk":1,"updated_at":"2026-04-17T02:23:15.459048+05:30"},{"city":"Ahmedabad","state":"Gujarat","latitude":23.0225,"longitude":72.5714,"temp":28.3,"humidity":58,"rain":0.0,"pressure":1000.5,"uv_index":7.75,"wind_gusts":21.2,"aqi":74,"pm10":33.8,"pm2_5":18.2,"mosquito_risk":4,"arthritis_risk":5,"migraine_risk":4,"frizz_risk":1,"updated_at":"2026-04-17T02:23:15.459055+05:30"},{"city":"Jaipur","state":"Rajasthan","latitude":26.9124,"longitude":75.7873,"temp":28.4,"humidity":33,"rain":0.0,"pressure":958.4,"uv_index":6.4,"wind_gusts":31.0,"aqi":121,"pm10":125.7,"pm2_5":35.7,"mosquito_risk":4,"arthritis_risk":5,"migraine_risk":7,"frizz_risk":0,"updated_at":"2026-04-17T02:23:15.459063+05:30"},{"city":"Lucknow","state":"Uttar Pradesh","latitude":26.8467,"longitude":80.9462,"temp":25.2,"humidity":44,"rain":0.0,"pressure":992.0,"uv_index":7.05,"wind_gusts":24.1,"aqi":103,"pm10":154.1,"pm2_5":43.1,"mosquito_risk":4,"arthritis_risk":5,"migraine_risk":7,"frizz_risk":0,"updated_at":"2026-04-17T02:23:15.459070+05:30"},{"city":"Kanpur","state":"Uttar Pradesh","latitude":26.4499,"longitude":80.3319,"temp":25.2,"humidity":53,"rain":0.0,"pressure":990.0,"uv_index":7.4,"wind_gusts":15.8,"aqi":144,"pm10":227.2,"pm2_5":56.6,"mosquito_risk":4,"arthritis_risk":5,"migraine_risk":7,"frizz_risk":0,"updated_at":"2026-04-17T02:23:15.459078+05:30"},{"city":"Chandigarh","state":"Chandigarh","latitude":30.7333,"longitude":76.7794,"temp":21.3,"humidity":51,"rain":0.0,"pressure":966.8,"uv_index":7.2,"wind_gusts":51.8,"aqi":53,"pm10":18.6,"pm2_5":16.5,"mosquito_risk":0,"arthritis_risk":5,"migraine_risk":7,"frizz_risk":0,"updated_at":"2026-04-17T02:23:15.459087+05:30"},{"city":"Srinagar","state":"Jammu and Kashmir","latitude":34.0837,"longitude":74.7973,"temp":10.6,"humidity":91,"rain":0.0,"pressure":842.9,"uv_index":5.1,"wind_gusts":25.2,"aqi":73,"pm10":38.3,"pm2_5":25.0,"mosquito_risk":3,"arthritis_risk":10,"migraine_risk":3,"frizz_risk":0,"updated_at":"2026-04-17T02:23:15.459094+05:30"},{"city":"Jammu","state":"Jammu and Kashmir","latitude":32.7266,"longitude":74.857,"temp":25.6,"humidity":41,"rain":0.0,"pressure":971.6,"uv_index":5.2,"wind_gusts":42.1,"aqi":56,"pm10":15.6,"pm2_5":11.9,"mosquito_risk":4,"arthritis_risk":5,"migraine_risk":3,"frizz_risk":0,"updated_at":"2026-04-17T02:23:15.459102+05:30"},{"city":"Amritsar","state":"Punjab","latitude":31.634,"longitude":74.8723,"temp":22.6,"humidity":61,"rain":0.0,"pressure":979.0,"uv_index":7.1,"wind_gusts":47.9,"aqi":66,"pm10":21.9,"pm2_5":17.6,"mosquito_risk":3,"arthritis_risk":5,"migraine_risk":7,"frizz_risk":0,"updated_at":"2026-04-17T02:23:15.459109+05:30"},{"city":"Ludhiana","state":"Punjab","latitude":30.901,"longitude":75.8573,"temp":23.9,"humidity":44,"rain":0.0,"pressure":976.9,"uv_index":6.7,"wind_gusts":42.1,"aqi":73,"pm10":27.8,"pm2_5":24.6,"mosquito_risk":0,"arthritis_risk":5,"migraine_risk":7,"frizz_risk":0,"updated_at":"2026-04-17T02:23:15.459117+05:30"},{"city":"Jalandhar","state":"Punjab","latitude":31.326,"longitude":75.5762,"temp":22.2,"humidity":52,"rain":0.0,"pressure":978.0,"uv_index":6.1,"wind_gusts":41.0,"aqi":64,"pm10":22.9,"pm2_5":15.4,"mosquito_risk":0,"arthritis_risk":5,"migraine_risk":7,"frizz_risk":0,"updated_at":"2026-04-17T02:23:15.459124+05:30"},{"city":"Dehradun","state":"Uttarakhand","latitude":30.6284,"longitude":78.0322,"temp":15.7,"humidity":51,"rain":0.0,"pressure":830.6,"uv_index":6.6,"wind_gusts":40.7,"aqi":46,"pm10":12.8,"pm2_5":11.3,"mosquito_risk":0,"arthritis_risk":5,"migraine_risk":7,"frizz_risk":0,"updated_at":"2026-04-17T02:23:15.459130+05:30"},{"city":"Shimla","state":"Himachal Pradesh","latitude":31.1048,"longitude":77.1734,"temp":14.1,"humidity":49,"rain":0.0,"pressure":784.7,"uv_index":6.85,"wind_gusts":42.5,"aqi":78,"pm10":18.5,"pm2_5":14.6,"mosquito_risk":0,"arthritis_risk":5,"migraine_risk":7,"frizz_risk":0,"updated_at":"2026-04-17T02:23:15.459137+05:30"},{"city":"Manali","state":"Himachal Pradesh","latitude":32.2396,"longitude":77.1887,"temp":15.9,"humidity":45,"rain":0.0,"pressure":821.9,"uv_index":8.05,"wind_gusts":29.5,"aqi":79,"pm10":13.8,"pm2_5":11.3,"mosquito_risk":0,"arthritis_risk":5,"migraine_risk":7,"frizz_risk":0,"updated_at":"2026-04-17T02:23:15.459143+05:30"},{"city":"Gurgaon","state":"Haryana","latitude":28.4595,"longitude":77.0266,"temp":24.8,"humidity":45,"rain":0.0,"pressure":979.4,"uv_index":6.1,"wind_gusts":29.5,"aqi":393,"pm10":325.0,"pm2_5":89.4,"mosquito_risk":0,"arthritis_risk":5,"migraine_risk":7,"frizz_risk":0,"updated_at":"2026-04-17T02:23:15.459149+05:30"},{"city":"Noida","state":"Uttar Pradesh","latitude":28.5355,"longitude":77.391,"temp":26.7,"humidity":39,"rain":0.0,"pressure":982.7,"uv_index":6.0,"wind_gusts":23.4,"aqi":393,"pm10":325.0,"pm2_5":89.4,"mosquito_risk":4,"arthritis_risk":5,"migraine_risk":3,"frizz_risk":0,"updated_at":"2026-04-17T02:23:15.459156+05:30"},{"city":"Ghaziabad","state":"Uttar Pradesh","latitude":28.6692,"longitude":77.4538,"temp":24.9,"humidity":45,"rain":0.0,"pressure":980.8,"uv_index":5.95,"wind_gusts":25.6,"aqi":123,"pm10":188.1,"pm2_5":57.2,"mosquito_risk":0,"arthritis_risk":5,"migraine_risk":3,"frizz_risk":0,"updated_at":"2026-04-17T02:23:15.459162+05:30"},{"city":"Faridabad","state":"Haryana","latitude":28.4089,"longitude":77.3178,"temp":26.5,"humidity":40,"rain":0.0,"pressure":982.1,"uv_index":6.25,"wind_gusts":22.3,"aqi":393,"pm10":325.0,"pm2_5":89.4,"mosquito_risk":4,"arthritis_risk":5,"migraine_risk":7,"frizz_risk":0,"updated_at":"2026-04-17T02:23:15.459168+05:30"},{"city":"Meerut","state":"Uttar Pradesh","latitude":28.9845,"longitude":77.7064,"temp":23.7,"humidity":45,"rain":0.0,"pressure":979.5,"uv_index":6.05,"wind_gusts":28.4,"aqi":123,"pm10":188.1,"pm2_5":57.2,"mosquito_risk":0,"arthritis_risk":5,"migraine_risk":7,"frizz_risk":0,"updated_at":"2026-04-17T02:23:15.459174+05:30"},{"city":"Agra","state":"Uttar Pradesh","latitude":27.1767,"longitude":78.0081,"temp":25.9,"humidity":48,"rain":0.0,"pressure":985.9,"uv_index":6.25,"wind_gusts":26.3,"aqi":398,"pm10":283.1,"pm2_5":76.8,"mosquito_risk":4,"arthritis_risk":5,"migraine_risk":7,"frizz_risk":0,"updated_at":"2026-04-17T02:23:15.459183+05:30"},{"city":"Varanasi","state":"Uttar Pradesh","latitude":25.3176,"longitude":82.9739,"temp":26.0,"humidity":82,"rain":0.0,"pressure":996.3,"uv_index":8.4,"wind_gusts":22.0,"aqi":110,"pm10":137.8,"pm2_5":53.8,"mosquito_risk":7,"arthritis_risk":5,"migraine_risk":7,"frizz_risk":1,"updated_at":"2026-04-17T02:23:15.459189+05:30"},{"city":"Prayagraj","state":"Uttar Pradesh","latitude":25.4358,"longitude":81.8463,"temp":26.0,"humidity":46,"rain":0.0,"pressure":994.5,"uv_index":8.25,"wind_gusts":23.4,"aqi":95,"pm10":66.1,"pm2_5":30.2,"mosquito_risk":4,"arthritis_risk":5,"migraine_risk":7,"frizz_risk":0,"updated_at":"2026-04-17T02:23:15.459198+05:30"},{"city":"Gorakhpur","state":"Uttar Pradesh","latitude":26.7606,"longitude":83.3732,"temp":25.5,"humidity":79,"rain":0.0,"pressure":997.2,"uv_index":7.65,"wind_gusts":28.4,"aqi":139,"pm10":70.3,"pm2_5":58.9,"mosquito_risk":7,"arthritis_risk":5,"migraine_risk":7,"frizz_risk":1,"updated_at":"2026-04-17T02:23:15.459205+05:30"},{"city":"Bareilly","state":"Uttar Pradesh","latitude":28.367,"longitude":79.4304,"temp":23.1,"humidity":53,"rain":0.0,"pressure":985.3,"uv_index":7.45,"wind_gusts":24.8,"aqi":75,"pm10":48.0,"pm2_5":41.4,"mosquito_risk":0,"arthritis_risk":5,"migraine_risk":7,"frizz_risk":0,"updated_at":"2026-04-17T02:23:15.459211+05:30"},{"city":"Aligarh","state":"Uttar Pradesh","latitude":27.8974,"longitude":78.088,"temp":24.2,"humidity":47,"rain":0.0,"pressure":983.7,"uv_index":7.15,"wind_gusts":25.2,"aqi":151,"pm10":203.0,"pm2_5":75.0,"mosquito_risk":0,"arthritis_risk":5,"migraine_risk":7,"frizz_risk":0,"updated_at":"2026-04-17T02:23:15.459217+05:30"},{"city":"Moradabad","state":"Uttar Pradesh","latitude":28.8386,"longitude":78.7733,"temp":23.8,"humidity":51,"rain":0.0,"pressure":982.0,"uv_index":6.65,"wind_gusts":26.3,"aqi":90,"pm10":61.0,"pm2_5":50.8,"mosquito_risk":0,"arthritis_risk":5,"migraine_risk":7,"frizz_risk":0,"updated_at":"2026-04-17T02:23:15.459223+05:30"},{"city":"Saharanpur","state":"Uttar Pradesh","latitude":29.9637,"longitude":77.546,"temp":20.4,"humidity":67,"rain":0.0,"pressure":974.2,"uv_index":6.3,"wind_gusts":24.5,"aqi":74,"pm10":38.2,"pm2_5":33.3,"mosquito_risk":3,"arthritis_risk":5,"migraine_risk":7,"frizz_risk":0,"updated_at":"2026-04-17T02:23:15.459229+05:30"},{"city":"Jhansi","state":"Uttar Pradesh","latitude":25.4484,"longitude":78.5685,"temp":29.4,"humidity":37,"rain":0.0,"pressure":976.1,"uv_index":8.15,"wind_gusts":32.0,"aqi":94,"pm10":103.1,"pm2_5":24.7,"mosquito_risk":4,"arthritis_risk":5,"migraine_risk":7,"frizz_risk":0,"updated_at":"2026-04-17T02:23:18.683888+05:30"},{"city":"Surat","state":"Gujarat","latitude":21.1702,"longitude":72.8311,"temp":26.9,"humidity":90,"rain":0.0,"pressure":1005.2,"uv_index":7.5,"wind_gusts":19.4,"aqi":84,"pm10":40.6,"pm2_5":26.7,"mosquito_risk":7,"arthritis_risk":5,"migraine_risk":4,"frizz_risk":1,"updated_at":"2026-04-17T02:23:18.683916+05:30"},{"city":"Vadodara","state":"Gujarat","latitude":22.3072,"longitude":73.1812,"temp":25.7,"humidity":86,"rain":0.0,"pressure":1002.9,"uv_index":7.25,"wind_gusts":18.7,"aqi":74,"pm10":29.9,"pm2_5":24.2,"mosquito_risk":7,"arthritis_risk":5,"migraine_risk":4,"frizz_risk":1,"updated_at":"2026-04-17T02:23:18.683925+05:30"},{"city":"Rajkot","state":"Gujarat","latitude":22.3039,"longitude":70.8022,"temp":24.5,"humidity":75,"rain":0.0,"pressure":993.2,"uv_index":7.65,"wind_gusts":25.2,"aqi":64,"pm10":71.0,"pm2_5":19.6,"mosquito_risk":3,"arthritis_risk":5,"migraine_risk":7,"frizz_risk":1,"updated_at":"2026-04-17T02:23:18.683933+05:30"},{"city":"Thane","state":"Maharashtra","latitude":19.2183,"longitude":72.9781,"temp":25.4,"humidity":87,"rain":0.0,"pressure":1007.0,"uv_index":7.05,"wind_gusts":33.5,"aqi":79,"pm10":57.0,"pm2_5":22.1,"mosquito_risk":7,"arthritis_risk":5,"migraine_risk":4,"frizz_risk":1,"updated_at":"2026-04-17T02:23:18.683939+05:30"},{"city":"Nagpur","state":"Maharashtra","latitude":21.1458,"longitude":79.0882,"temp":26.8,"humidity":56,"rain":0.0,"pressure":970.4,"uv_index":8.85,"wind_gusts":18.4,"aqi":61,"pm10":28.3,"pm2_5":21.5,"mosquito_risk":4,"arthritis_risk":5,"migraine_risk":7,"frizz_risk":1,"updated_at":"2026-04-17T02:23:18.683945+05:30"},{"city":"Nashik","state":"Maharashtra","latitude":19.9975,"longitude":73.7898,"temp":22.5,"humidity":74,"rain":0.0,"pressure":944.4,"uv_index":7.4,"wind_gusts":31.3,"aqi":57,"pm10":39.3,"pm2_5":23.1,"mosquito_risk":3,"arthritis_risk":5,"migraine_risk":7,"frizz_risk":1,"updated_at":"2026-04-17T02:23:18.683952+05:30"},{"city":"Aurangabad","state":"Maharashtra","latitude":19.8762,"longitude":75.3433,"temp":27.1,"humidity":49,"rain":0.0,"pressure":942.7,"uv_index":8.25,"wind_gusts":28.8,"aqi":47,"pm10":20.1,"pm2_5":15.3,"mosquito_risk":4,"arthritis_risk":5,"migraine_risk":7,"frizz_risk":0,"updated_at":"2026-04-17T02:23:18.683958+05:30"},{"city":"Solapur","state":"Maharashtra","latitude":17.6599,"longitude":75.9064,"temp":27.1,"humidity":46,"rain":0.0,"pressure":955.3,"uv_index":8.6,"wind_gusts":19.1,"aqi":60,"pm10":31.1,"pm2_5":28.4,"mosquito_risk":4,"arthritis_risk":5,"migraine_risk":7,"frizz_risk":0,"updated_at":"2026-04-17T02:23:18.683965+05:30"},{"city":"Kolhapur","state":"Maharashtra","latitude":16.705,"longitude":74.2433,"temp":21.2,"humidity":94,"rain":0.0,"pressure":946.2,"uv_index":8.5,"wind_gusts":40.3,"aqi":69,"pm10":24.5,"pm2_5":19.2,"mosquito_risk":3,"arthritis_risk":5,"migraine_risk":7,"frizz_risk":1,"updated_at":"2026-04-17T02:23:18.683972+05:30"},{"city":"Goa","state":"Goa","latitude":15.2993,"longitude":74.124,"temp":27.6,"humidity":83,"rain":0.0,"pressure":997.0,"uv_index":8.5,"wind_gusts":31.3,"aqi":72,"pm10":34.0,"pm2_5":25.0,"mosquito_risk":7,"arthritis_risk":5,"migraine_risk":7,"frizz_risk":1,"updated_at":"2026-04-17T02:23:18.683978+05:30"},{"city":"Jodhpur","state":"Rajasthan","latitude":26.2389,"longitude":73.0243,"temp":28.2,"humidity":50,"rain":0.0,"pressure":980.9,"uv_index":8.05,"wind_gusts":28.8,"aqi":75,"pm10":180.2,"pm2_5":35.9,"mosquito_risk":4,"arthritis_risk":5,"migraine_risk":7,"frizz_risk":1,"updated_at":"2026-04-17T02:23:18.683984+05:30"},{"city":"Udaipur","state":"Rajasthan","latitude":24.5854,"longitude":73.7125,"temp":27.3,"humidity":48,"rain":0.0,"pressure":945.8,"uv_index":8.0,"wind_gusts":25.6,"aqi":68,"pm10":60.8,"pm2_5":20.9,"mosquito_risk":4,"arthritis_risk":5,"migraine_risk":7,"frizz_risk":0,"updated_at":"2026-04-17T02:23:18.683990+05:30"},{"city":"Kota","state":"Rajasthan","latitude":25.2138,"longitude":75.8648,"temp":28.8,"humidity":46,"rain":0.0,"pressure":976.6,"uv_index":7.4,"wind_gusts":25.2,"aqi":82,"pm10":89.4,"pm2_5":33.9,"mosquito_risk":4,"arthritis_risk":5,"migraine_risk":7,"frizz_risk":1,"updated_at":"2026-04-17T02:23:18.683996+05:30"},{"city":"Bikaner","state":"Rajasthan","latitude":28.0229,"longitude":73.3119,"temp":29.4,"humidity":33,"rain":0.0,"pressure":978.8,"uv_index":8.0,"wind_gusts":26.3,"aqi":54,"pm10":72.4,"pm2_5":20.7,"mosquito_risk":4,"arthritis_risk":5,"migraine_risk":7,"frizz_risk":0,"updated_at":"2026-04-17T02:23:18.684003+05:30"},{"city":"Ajmer","state":"Rajasthan","latitude":26.4499,"longitude":74.6399,"temp":27.9,"humidity":43,"rain":0.0,"pressure":953.1,"uv_index":7.55,"wind_gusts":31.0,"aqi":66,"pm10":88.5,"pm2_5":34.7,"mosquito_risk":4,"arthritis_risk":5,"migraine_risk":7,"frizz_risk":0,"updated_at":"2026-04-17T02:23:18.684009+05:30"},{"city":"Gwalior","state":"Madhya Pradesh","latitude":26.2183,"longitude":78.1828,"temp":27.0,"humidity":46,"rain":0.0,"pressure":981.4,"uv_index":7.15,"wind_gusts":27.4,"aqi":133,"pm10":120.6,"pm2_5":27.6,"mosquito_risk":4,"arthritis_risk":5,"migraine_risk":7,"frizz_risk":0,"updated_at":"2026-04-17T02:23:18.684014+05:30"},{"city":"Indore","state":"Madhya Pradesh","latitude":22.7196,"longitude":75.8577,"temp":25.8,"humidity":63,"rain":0.0,"pressure":946.5,"uv_index":7.7,"wind_gusts":26.6,"aqi":75,"pm10":35.6,"pm2_5":25.5,"mosquito_risk":7,"arthritis_risk":5,"migraine_risk":7,"frizz_risk":1,"updated_at":"2026-04-17T02:23:18.684020+05:30"},{"city":"Bhopal","state":"Madhya Pradesh","latitude":23.2599,"longitude":77.4126,"temp":29.0,"humidity":45,"rain":0.0,"pressure":951.8,"uv_index":7.8,"wind_gusts":25.6,"aqi":74,"pm10":61.9,"pm2_5":34.3,"mosquito_risk":4,"arthritis_risk":5,"migraine_risk":7,"frizz_risk":0,"updated_at":"2026-04-17T02:23:18.684027+05:30"},{"city":"Jabalpur","state":"Madhya Pradesh","latitude":23.1815,"longitude":79.9864,"temp":26.0,"humidity":52,"rain":0.0,"pressure":959.3,"uv_index":8.25,"wind_gusts":26.6,"aqi":81,"pm10":53.9,"pm2_5":20.8,"mosquito_risk":4,"arthritis_risk":5,"migraine_risk":7,"frizz_risk":0,"updated_at":"2026-04-17T02:23:18.684032+05:30"},{"city":"Ujjain","state":"Madhya Pradesh","latitude":23.1765,"longitude":75.7885,"temp":26.1,"humidity":61,"rain":0.0,"pressure":952.3,"uv_index":7.8,"wind_gusts":25.2,"aqi":81,"pm10":36.7,"pm2_5":26.1,"mosquito_risk":7,"arthritis_risk":5,"migraine_risk":7,"frizz_risk":1,"updated_at":"2026-04-17T02:23:18.684039+05:30"},{"city":"Visakhapatnam","state":"Andhra Pradesh","latitude":17.6868,"longitude":83.2185,"temp":27.4,"humidity":87,"rain":0.0,"pressure":1002.1,"uv_index":9.2,"wind_gusts":39.2,"aqi":46,"pm10":13.4,"pm2_5":10.7,"mosquito_risk":7,"arthritis_risk":5,"migraine_risk":4,"frizz_risk":1,"updated_at":"2026-04-17T02:23:18.684045+05:30"},{"city":"Vijayawada","state":"Andhra Pradesh","latitude":16.5062,"longitude":80.648,"temp":26.8,"humidity":92,"rain":0.0,"pressure":1001.4,"uv_index":9.2,"wind_gusts":25.2,"aqi":46,"pm10":11.3,"pm2_5":9.2,"mosquito_risk":7,"arthritis_risk":5,"migraine_risk":4,"frizz_risk":1,"updated_at":"2026-04-17T02:23:18.684051+05:30"},{"city":"Guntur","state":"Andhra Pradesh","latitude":16.3067,"longitude":80.4365,"temp":27.0,"humidity":91,"rain":0.0,"pressure":1002.3,"uv_index":9.2,"wind_gusts":28.4,"aqi":52,"pm10":11.2,"pm2_5":9.1,"mosquito_risk":7,"arthritis_risk":5,"migraine_risk":4,"frizz_risk":1,"updated_at":"2026-04-17T02:23:18.684057+05:30"},{"city":"Nellore","state":"Andhra Pradesh","latitude":14.4426,"longitude":79.9865,"temp":27.2,"humidity":88,"rain":0.0,"pressure":1003.7,"uv_index":9.3,"wind_gusts":31.0,"aqi":51,"pm10":10.2,"pm2_5":8.4,"mosquito_risk":7,"arthritis_risk":5,"migraine_risk":4,"frizz_risk":1,"updated_at":"2026-04-17T02:23:18.684063+05:30"},{"city":"Kurnool","state":"Andhra Pradesh","latitude":15.8281,"longitude":78.0373,"temp":31.5,"humidity":49,"rain":0.0,"pressure":974.9,"uv_index":9.15,"wind_gusts":27.0,"aqi":78,"pm10":21.9,"pm2_5":20.7,"mosquito_risk":0,"arthritis_risk":5,"migraine_risk":7,"frizz_risk":1,"updated_at":"2026-04-17T02:23:18.684070+05:30"},{"city":"Kakinada","state":"Andhra Pradesh","latitude":16.9891,"longitude":82.2475,"temp":27.2,"humidity":90,"rain":0.0,"pressure":1006.2,"uv_index":9.2,"wind_gusts":29.9,"aqi":29,"pm10":11.2,"pm2_5":7.5,"mosquito_risk":7,"arthritis_risk":5,"migraine_risk":4,"frizz_risk":1,"updated_at":"2026-04-17T02:23:18.684076+05:30"},{"city":"Tirupati","state":"Andhra Pradesh","latitude":13.6288,"longitude":79.4192,"temp":26.3,"humidity":88,"rain":0.0,"pressure":990.4,"uv_index":9.25,"wind_gusts":33.1,"aqi":67,"pm10":14.6,"pm2_5":13.1,"mosquito_risk":7,"arthritis_risk":5,"migraine_risk":7,"frizz_risk":1,"updated_at":"2026-04-17T02:23:18.684082+05:30"},{"city":"Warangal","state":"Telangana","latitude":17.9689,"longitude":79.5941,"temp":28.2,"humidity":72,"rain":0.0,"pressure":976.7,"uv_index":9.1,"wind_gusts":25.2,"aqi":73,"pm10":19.2,"pm2_5":18.3,"mosquito_risk":7,"arthritis_risk":5,"migraine_risk":7,"frizz_risk":1,"updated_at":"2026-04-17T02:23:18.684088+05:30"},{"city":"Nizamabad","state":"Telangana","latitude":18.6725,"longitude":78.0941,"temp":31.1,"humidity":49,"rain":0.0,"pressure":962.7,"uv_index":8.95,"wind_gusts":25.9,"aqi":82,"pm10":45.5,"pm2_5":39.0,"mosquito_risk":0,"arthritis_risk":5,"migraine_risk":7,"frizz_risk":1,"updated_at":"2026-04-17T02:23:18.684094+05:30"},{"city":"Mysore","state":"Karnataka","latitude":12.2958,"longitude":76.6396,"temp":24.0,"humidity":87,"rain":0.0,"pressure":927.7,"uv_index":9.3,"wind_gusts":38.9,"aqi":81,"pm10":34.5,"pm2_5":30.9,"mosquito_risk":3,"arthritis_risk":5,"migraine_risk":7,"frizz_risk":1,"updated_at":"2026-04-17T02:23:18.684099+05:30"},{"city":"Mangalore","state":"Karnataka","latitude":12.9141,"longitude":74.856,"temp":29.7,"humidity":81,"rain":0.0,"pressure":1005.7,"uv_index":8.95,"wind_gusts":26.6,"aqi":86,"pm10":50.8,"pm2_5":22.1,"mosquito_risk":7,"arthritis_risk":5,"migraine_risk":4,"frizz_risk":1,"updated_at":"2026-04-17T02:23:18.684105+05:30"},{"city":"Hubli-Dharwad","state":"Karnataka","latitude":15.3647,"longitude":75.124,"temp":23.9,"humidity":90,"rain":0.0,"pressure":939.8,"uv_index":9.2,"wind_gusts":37.1,"aqi":61,"pm10":22.4,"pm2_5":13.6,"mosquito_risk":3,"arthritis_risk":5,"migraine_risk":7,"frizz_risk":1,"updated_at":"2026-04-17T02:23:18.684111+05:30"},{"city":"Belgaum","state":"Karnataka","latitude":15.8497,"longitude":74.4977,"temp":21.1,"humidity":98,"rain":0.0,"pressure":924.2,"uv_index":8.75,"wind_gusts":35.6,"aqi":61,"pm10":25.0,"pm2_5":18.8,"mosquito_risk":3,"arthritis_risk":5,"migraine_risk":7,"frizz_risk":1,"updated_at":"2026-04-17T02:23:21.909416+05:30"},{"city":"Coimbatore","state":"Tamil Nadu","latitude":11.0168,"longitude":76.9558,"temp":25.5,"humidity":85,"rain":0.0,"pressure":960.7,"uv_index":9.05,"wind_gusts":38.9,"aqi":97,"pm10":55.5,"pm2_5":49.8,"mosquito_risk":7,"arthritis_risk":5,"migraine_risk":7,"frizz_risk":1,"updated_at":"2026-04-17T02:23:21.909447+05:30"},{"city":"Madurai","state":"Tamil Nadu","latitude":9.9252,"longitude":78.1198,"temp":27.0,"humidity":87,"rain":0.0,"pressure":991.9,"uv_index":8.8,"wind_gusts":29.2,"aqi":65,"pm10":29.5,"pm2_5":27.1,"mosquito_risk":7,"arthritis_risk":5,"migraine_risk":7,"frizz_risk":1,"updated_at":"2026-04-17T02:23:21.909458+05:30"},{"city":"Trichy","state":"Tamil Nadu","latitude":10.7905,"longitude":78.7047,"temp":27.0,"humidity":88,"rain":0.0,"pressure":998.5,"uv_index":8.45,"wind_gusts":18.7,"aqi":53,"pm10":20.5,"pm2_5":18.7,"mosquito_risk":7,"arthritis_risk":5,"migraine_risk":7,"frizz_risk":1,"updated_at":"2026-04-17T02:23:21.909466+05:30"},{"city":"Salem","state":"Tamil Nadu","latitude":11.6643,"longitude":78.146,"temp":26.2,"humidity":84,"rain":0.0,"pressure":976.2,"uv_index":8.35,"wind_gusts":20.9,"aqi":63,"pm10":24.9,"pm2_5":22.7,"mosquito_risk":7,"arthritis_risk":5,"migraine_risk":7,"frizz_risk":1,"updated_at":"2026-04-17T02:23:21.909474+05:30"},{"city":"Tirunelveli","state":"Tamil Nadu","latitude":8.7139,"longitude":77.7567,"temp":26.6,"humidity":77,"rain":0.0,"pressure":1001.7,"uv_index":8.85,"wind_gusts":45.0,"aqi":73,"pm10":33.3,"pm2_5":28.0,"mosquito_risk":7,"arthritis_risk":5,"migraine_risk":4,"frizz_risk":1,"updated_at":"2026-04-17T02:23:21.909482+05:30"},{"city":"Vellore","state":"Tamil Nadu","latitude":12.9165,"longitude":79.1325,"temp":25.8,"humidity":94,"rain":0.0,"pressure":983.5,"uv_index":9.4,"wind_gusts":31.7,"aqi":82,"pm10":31.1,"pm2_5":29.9,"mosquito_risk":7,"arthritis_risk":5,"migraine_risk":7,"frizz_risk":1,"updated_at":"2026-04-17T02:23:21.909490+05:30"},{"city":"Erode","state":"Tamil Nadu","latitude":11.341,"longitude":77.7172,"temp":28.5,"humidity":73,"rain":0.0,"pressure":987.7,"uv_index":8.7,"wind_gusts":27.4,"aqi":68,"pm10":16.0,"pm2_5":14.8,"mosquito_risk":7,"arthritis_risk":5,"migraine_risk":7,"frizz_risk":1,"updated_at":"2026-04-17T02:23:21.909497+05:30"},{"city":"Kochi","state":"Kerala","latitude":9.9312,"longitude":76.2673,"temp":28.8,"humidity":82,"rain":0.0,"pressure":1007.3,"uv_index":8.35,"wind_gusts":32.4,"aqi":101,"pm10":41.3,"pm2_5":37.3,"mosquito_risk":7,"arthritis_risk":5,"migraine_risk":4,"frizz_risk":1,"updated_at":"2026-04-17T02:23:21.909548+05:30"},{"city":"Thiruvananthapuram","state":"Kerala","latitude":8.5241,"longitude":76.9366,"temp":28.5,"humidity":82,"rain":0.0,"pressure":1006.5,"uv_index":8.75,"wind_gusts":35.6,"aqi":81,"pm10":39.8,"pm2_5":28.7,"mosquito_risk":7,"arthritis_risk":5,"migraine_risk":4,"frizz_risk":1,"updated_at":"2026-04-17T02:23:21.909558+05:30"},{"city":"Kozhikode","state":"Kerala","latitude":11.2588,"longitude":75.7804,"temp":29.7,"humidity":82,"rain":0.0,"pressure":1006.7,"uv_index":9.05,"wind_gusts":29.2,"aqi":90,"pm10":54.6,"pm2_5":32.0,"mosquito_risk":7,"arthritis_risk":5,"migraine_risk":4,"frizz_risk":1,"updated_at":"2026-04-17T02:23:21.909566+05:30"},{"city":"Thrissur","state":"Kerala","latitude":10.5276,"longitude":76.2144,"temp":28.0,"humidity":87,"rain":0.0,"pressure":1005.7,"uv_index":8.6,"wind_gusts":38.2,"aqi":105,"pm10":52.3,"pm2_5":40.6,"mosquito_risk":7,"arthritis_risk":5,"migraine_risk":4,"frizz_risk":1,"updated_at":"2026-04-17T02:23:21.909575+05:30"},{"city":"Kannur","state":"Kerala","latitude":11.8745,"longitude":75.3704,"temp":29.2,"humidity":80,"rain":0.0,"pressure":1006.1,"uv_index":8.85,"wind_gusts":31.7,"aqi":95,"pm10":61.7,"pm2_5":39.6,"mosquito_risk":7,"arthritis_risk":5,"migraine_risk":4,"frizz_risk":1,"updated_at":"2026-04-17T02:23:21.909583+05:30"},{"city":"Patna","state":"Bihar","latitude":25.5941,"longitude":85.1376,"temp":26.2,"humidity":84,"rain":0.0,"pressure":1000.8,"uv_index":8.55,"wind_gusts":29.5,"aqi":151,"pm10":49.5,"pm2_5":46.9,"mosquito_risk":7,"arthritis_risk":5,"migraine_risk":4,"frizz_risk":1,"updated_at":"2026-04-17T02:23:21.909590+05:30"},{"city":"Gaya","state":"Bihar","latitude":24.7914,"longitude":85.0002,"temp":25.8,"humidity":88,"rain":0.0,"pressure":993.6,"uv_index":8.65,"wind_gusts":22.3,"aqi":113,"pm10":58.4,"pm2_5":56.0,"mosquito_risk":7,"arthritis_risk":5,"migraine_risk":7,"frizz_risk":1,"updated_at":"2026-04-17T02:23:21.909598+05:30"},{"city":"Muzaffarpur","state":"Bihar","latitude":26.1209,"longitude":85.3647,"temp":24.5,"humidity":90,"rain":0.0,"pressure":1001.4,"uv_index":8.3,"wind_gusts":27.4,"aqi":152,"pm10":50.2,"pm2_5":47.4,"mosquito_risk":3,"arthritis_risk":5,"migraine_risk":4,"frizz_risk":1,"updated_at":"2026-04-17T02:23:21.909605+05:30"},{"city":"Bhagalpur","state":"Bihar","latitude":25.2425,"longitude":87.0117,"temp":25.1,"humidity":91,"rain":0.0,"pressure":1002.0,"uv_index":8.6,"wind_gusts":23.8,"aqi":145,"pm10":42.6,"pm2_5":38.1,"mosquito_risk":7,"arthritis_risk":5,"migraine_risk":4,"frizz_risk":1,"updated_at":"2026-04-17T02:23:21.909613+05:30"},{"city":"Ranchi","state":"Jharkhand","latitude":23.3441,"longitude":85.3096,"temp":23.1,"humidity":98,"rain":0.0,"pressure":937.8,"uv_index":9.15,"wind_gusts":30.6,"aqi":115,"pm10":49.1,"pm2_5":47.5,"mosquito_risk":3,"arthritis_risk":5,"migraine_risk":7,"frizz_risk":1,"updated_at":"2026-04-17T02:23:21.909620+05:30"},{"city":"Jamshedpur","state":"Jharkhand","latitude":22.8046,"longitude":86.2029,"temp":26.9,"humidity":93,"rain":0.0,"pressure":990.6,"uv_index":8.95,"wind_gusts":27.0,"aqi":130,"pm10":22.1,"pm2_5":20.5,"mosquito_risk":7,"arthritis_risk":5,"migraine_risk":7,"frizz_risk":1,"updated_at":"2026-04-17T02:23:21.909627+05:30"},{"city":"Dhanbad","state":"Jharkhand","latitude":23.7957,"longitude":86.4304,"temp":25.9,"humidity":85,"rain":0.0,"pressure":980.4,"uv_index":8.9,"wind_gusts":23.0,"aqi":160,"pm10":85.0,"pm2_5":81.7,"mosquito_risk":7,"arthritis_risk":5,"migraine_risk":7,"frizz_risk":1,"updated_at":"2026-04-17T02:23:21.909634+05:30"},{"city":"Bokaro","state":"Jharkhand","latitude":23.6693,"longitude":86.1511,"temp":25.2,"humidity":94,"rain":0.0,"pressure":984.5,"uv_index":8.95,"wind_gusts":24.1,"aqi":161,"pm10":98.0,"pm2_5":95.5,"mosquito_risk":7,"arthritis_risk":5,"migraine_risk":7,"frizz_risk":1,"updated_at":"2026-04-17T02:23:21.909642+05:30"},{"city":"Bhubaneswar","state":"Odisha","latitude":20.2961,"longitude":85.8245,"temp":26.7,"humidity":88,"rain":0.0,"pressure":1001.0,"uv_index":9.1,"wind_gusts":30.6,"aqi":48,"pm10":10.7,"pm2_5":7.9,"mosquito_risk":7,"arthritis_risk":5,"migraine_risk":4,"frizz_risk":1,"updated_at":"2026-04-17T02:23:21.909649+05:30"},{"city":"Cuttack","state":"Odisha","latitude":20.4625,"longitude":85.8828,"temp":27.0,"humidity":87,"rain":0.0,"pressure":1003.1,"uv_index":9.15,"wind_gusts":30.2,"aqi":48,"pm10":10.7,"pm2_5":7.9,"mosquito_risk":7,"arthritis_risk":5,"migraine_risk":4,"frizz_risk":1,"updated_at":"2026-04-17T02:23:21.909655+05:30"},{"city":"Rourkela","state":"Odisha","latitude":22.2604,"longitude":84.8536,"temp":27.4,"humidity":85,"rain":0.0,"pressure":984.4,"uv_index":8.9,"wind_gusts":39.2,"aqi":115,"pm10":40.7,"pm2_5":39.7,"mosquito_risk":7,"arthritis_risk":5,"migraine_risk":7,"frizz_risk":1,"updated_at":"2026-04-17T02:23:21.909662+05:30"},{"city":"Raipur","state":"Chhattisgarh","latitude":21.2514,"longitude":81.6296,"temp":28.8,"humidity":42,"rain":0.0,"pressure":972.1,"uv_index":8.95,"wind_gusts":29.2,"aqi":88,"pm10":48.3,"pm2_5":41.4,"mosquito_risk":4,"arthritis_risk":5,"migraine_risk":7,"frizz_risk":0,"updated_at":"2026-04-17T02:23:21.909670+05:30"},{"city":"Bhilai","state":"Chhattisgarh","latitude":21.1938,"longitude":81.3509,"temp":28.5,"humidity":46,"rain":0.0,"pressure":972.5,"uv_index":8.95,"wind_gusts":28.8,"aqi":72,"pm10":38.1,"pm2_5":30.3,"mosquito_risk":4,"arthritis_risk":5,"migraine_risk":7,"frizz_risk":0,"updated_at":"2026-04-17T02:23:21.909677+05:30"},{"city":"Guwahati","state":"Assam","latitude":26.1158,"longitude":91.7086,"temp":25.9,"humidity":79,"rain":0.0,"pressure":1002.8,"uv_index":8.55,"wind_gusts":24.5,"aqi":139,"pm10":93.8,"pm2_5":69.2,"mosquito_risk":7,"arthritis_risk":5,"migraine_risk":4,"frizz_risk":1,"updated_at":"2026-04-17T02:23:21.909684+05:30"},{"city":"Agartala","state":"Tripura","latitude":23.8315,"longitude":91.2868,"temp":23.2,"humidity":92,"rain":0.0,"pressure":1007.2,"uv_index":8.75,"wind_gusts":19.4,"aqi":148,"pm10":72.4,"pm2_5":60.5,"mosquito_risk":3,"arthritis_risk":5,"migraine_risk":4,"frizz_risk":1,"updated_at":"2026-04-17T02:23:21.909691+05:30"},{"city":"Shillong","state":"Meghalaya","latitude":25.5788,"longitude":91.8933,"temp":13.6,"humidity":93,"rain":0.0,"pressure":856.3,"uv_index":6.65,"wind_gusts":25.6,"aqi":114,"pm10":48.9,"pm2_5":35.9,"mosquito_risk":3,"arthritis_risk":10,"migraine_risk":7,"frizz_risk":0,"updated_at":"2026-04-17T02:23:21.909699+05:30"},{"city":"Imphal","state":"Manipur","latitude":24.817,"longitude":93.9368,"temp":18.2,"humidity":80,"rain":0.0,"pressure":924.1,"uv_index":9.1,"wind_gusts":38.2,"aqi":130,"pm10":80.1,"pm2_5":61.0,"mosquito_risk":3,"arthritis_risk":5,"migraine_risk":7,"frizz_risk":0,"updated_at":"2026-04-17T02:23:21.909706+05:30"},{"city":"Aizawl","state":"Mizoram","latitude":23.7271,"longitude":92.7176,"temp":18.4,"humidity":86,"rain":0.0,"pressure":892.8,"uv_index":9.0,"wind_gusts":36.0,"aqi":143,"pm10":78.7,"pm2_5":59.0,"mosquito_risk":3,"arthritis_risk":10,"migraine_risk":7,"frizz_risk":0,"updated_at":"2026-04-17T02:23:21.909713+05:30"},{"city":"Kohima","state":"Nagaland","latitude":25.6701,"longitude":94.1077,"temp":15.7,"humidity":79,"rain":0.0,"pressure":855.7,"uv_index":8.25,"wind_gusts":49.7,"aqi":114,"pm10":69.4,"pm2_5":48.8,"mosquito_risk":3,"arthritis_risk":5,"migraine_risk":7,"frizz_risk":0,"updated_at":"2026-04-17T02:23:21.909720+05:30"},{"city":"Gangtok","state":"Sikkim","latitude":27.3314,"longitude":88.6138,"temp":15.3,"humidity":94,"rain":0.0,"pressure":838.5,"uv_index":8.85,"wind_gusts":20.9,"aqi":99,"pm10":48.5,"pm2_5":36.3,"mosquito_risk":3,"arthritis_risk":10,"migraine_risk":7,"frizz_risk":0,"updated_at":"2026-04-17T02:23:21.909727+05:30"},{"city":"Siliguri","state":"West Bengal","latitude":26.7271,"longitude":88.3953,"temp":21.4,"humidity":74,"rain":0.0,"pressure":995.9,"uv_index":8.5,"wind_gusts":20.9,"aqi":158,"pm10":94.5,"pm2_5":65.9,"mosquito_risk":3,"arthritis_risk":5,"migraine_risk":7,"frizz_risk":1,"updated_at":"2026-04-17T02:23:25.136944+05:30"},{"city":"Durgapur","state":"West Bengal","latitude":23.5204,"longitude":87.3119,"temp":25.7,"humidity":92,"rain":0.0,"pressure":995.5,"uv_index":8.85,"wind_gusts":20.9,"aqi":136,"pm10":55.6,"pm2_5":52.0,"mosquito_risk":7,"arthritis_risk":5,"migraine_risk":7,"frizz_risk":1,"updated_at":"2026-04-17T02:23:25.136972+05:30"},{"city":"Asansol","state":"West Bengal","latitude":23.6739,"longitude":86.9524,"temp":26.2,"humidity":89,"rain":0.0,"pressure":994.1,"uv_index":8.85,"wind_gusts":21.2,"aqi":151,"pm10":55.8,"pm2_5":52.7,"mosquito_risk":7,"arthritis_risk":5,"migraine_risk":7,"frizz_risk":1,"updated_at":"2026-04-17T02:23:25.136981+05:30"},{"city":"Pondicherry","state":"Puducherry","latitude":11.9139,"longitude":79.8145,"temp":27.1,"humidity":95,"rain":0.0,"pressure":1007.1,"uv_index":8.85,"wind_gusts":29.5,"aqi":29,"pm10":9.5,"pm2_5":6.2,"mosquito_risk":7,"arthritis_risk":5,"migraine_risk":4,"frizz_risk":1,"updated_at":"2026-04-17T02:23:25.136988+05:30"},{"city":"Port Blair","state":"Andaman and Nicobar Islands","latitude":11.6234,"longitude":92.7265,"temp":29.4,"humidity":70,"rain":0.0,"pressure":1005.7,"uv_index":9.2,"wind_gusts":24.8,"aqi":63,"pm10":23.7,"pm2_5":16.2,"mosquito_risk":7,"arthritis_risk":5,"migraine_risk":4,"frizz_risk":1,"updated_at":"2026-04-17T02:23:25.136996+05:30"},{"city":"Haridwar","state":"Uttarakhand","latitude":29.9457,"longitude":78.1642,"temp":21.0,"humidity":67,"rain":0.0,"pressure":973.2,"uv_index":6.1,"wind_gusts":22.3,"aqi":57,"pm10":27.4,"pm2_5":22.7,"mosquito_risk":3,"arthritis_risk":5,"migraine_risk":7,"frizz_risk":0,"updated_at":"2026-04-17T02:23:25.137003+05:30"},{"city":"Rishikesh","state":"Uttarakhand","latitude":30.0869,"longitude":78.2676,"temp":21.2,"humidity":65,"rain":0.0,"pressure":966.4,"uv_index":6.3,"wind_gusts":22.7,"aqi":59,"pm10":25.0,"pm2_5":16.0,"mosquito_risk":3,"arthritis_risk":5,"migraine_risk":7,"frizz_risk":0,"updated_at":"2026-04-17T02:23:25.137009+05:30"},{"city":"Nainital","state":"Uttarakhand","latitude":29.3919,"longitude":79.4542,"temp":21.6,"humidity":20,"rain":0.0,"pressure":807.4,"uv_index":7.4,"wind_gusts":47.5,"aqi":65,"pm10":16.8,"pm2_5":12.1,"mosquito_risk":0,"arthritis_risk":5,"migraine_risk":7,"frizz_risk":1,"updated_at":"2026-04-17T02:23:25.137016+05:30"},{"city":"Mussoorie","state":"Uttarakhand","latitude":30.4599,"longitude":78.0664,"temp":18.6,"humidity":51,"rain":0.0,"pressure":803.8,"uv_index":6.7,"wind_gusts":44.6,"aqi":52,"pm10":24.4,"pm2_5":20.8,"mosquito_risk":0,"arthritis_risk":5,"migraine_risk":7,"frizz_risk":0,"updated_at":"2026-04-17T02:23:25.137023+05:30"},{"city":"Dharamshala","state":"Himachal Pradesh","latitude":32.219,"longitude":76.3234,"temp":23.2,"humidity":26,"rain":0.0,"pressure":870.0,"uv_index":7.35,"wind_gusts":29.2,"aqi":67,"pm10":12.4,"pm2_5":8.2,"mosquito_risk":0,"arthritis_risk":5,"migraine_risk":7,"frizz_risk":0,"updated_at":"2026-04-17T02:23:25.137029+05:30"},{"city":"Dalhousie","state":"Himachal Pradesh","latitude":32.5387,"longitude":75.971,"temp":19.6,"humidity":28,"rain":0.0,"pressure":804.9,"uv_index":6.85,"wind_gusts":34.2,"aqi":45,"pm10":18.7,"pm2_5":16.5,"mosquito_risk":0,"arthritis_risk":5,"migraine_risk":7,"frizz_risk":0,"updated_at":"2026-04-17T02:23:25.137036+05:30"},{"city":"Patiala","state":"Punjab","latitude":30.3398,"longitude":76.3869,"temp":21.8,"humidity":54,"rain":0.0,"pressure":976.3,"uv_index":7.1,"wind_gusts":47.2,"aqi":107,"pm10":241.2,"pm2_5":42.6,"mosquito_risk":0,"arthritis_risk":5,"migraine_risk":7,"frizz_risk":0,"updated_at":"2026-04-17T02:23:25.137043+05:30"},{"city":"Bhatinda","state":"Punjab","latitude":30.211,"longitude":74.9455,"temp":25.7,"humidity":44,"rain":0.0,"pressure":981.5,"uv_index":7.75,"wind_gusts":53.3,"aqi":70,"pm10":106.2,"pm2_5":25.8,"mosquito_risk":4,"arthritis_risk":5,"migraine_risk":7,"frizz_risk":0,"updated_at":"2026-04-17T02:23:25.137049+05:30"},{"city":"Rohtak","state":"Haryana","latitude":28.8955,"longitude":76.6066,"temp":21.0,"humidity":60,"rain":0.0,"pressure":979.6,"uv_index":6.4,"wind_gusts":34.2,"aqi":246,"pm10":355.8,"pm2_5":73.6,"mosquito_risk":0,"arthritis_risk":5,"migraine_risk":7,"frizz_risk":0,"updated_at":"2026-04-17T02:23:25.137055+05:30"},{"city":"Panipat","state":"Haryana","latitude":29.3909,"longitude":76.9635,"temp":23.1,"humidity":50,"rain":0.0,"pressure":978.5,"uv_index":6.45,"wind_gusts":26.6,"aqi":280,"pm10":359.5,"pm2_5":64.0,"mosquito_risk":0,"arthritis_risk":5,"migraine_risk":7,"frizz_risk":0,"updated_at":"2026-04-17T02:23:25.137060+05:30"},{"city":"Mathura","state":"Uttar Pradesh","latitude":27.4924,"longitude":77.6737,"temp":24.8,"humidity":47,"rain":0.0,"pressure":984.8,"uv_index":7.1,"wind_gusts":25.2,"aqi":283,"pm10":252.4,"pm2_5":79.2,"mosquito_risk":0,"arthritis_risk":5,"migraine_risk":7,"frizz_risk":0,"updated_at":"2026-04-17T02:23:25.137066+05:30"},{"city":"Vrindavan","state":"Uttar Pradesh","latitude":27.5823,"longitude":77.7027,"temp":24.7,"humidity":46,"rain":0.0,"pressure":985.3,"uv_index":7.05,"wind_gusts":24.1,"aqi":283,"pm10":252.4,"pm2_5":79.2,"mosquito_risk":0,"arthritis_risk":5,"migraine_risk":7,"frizz_risk":0,"updated_at":"2026-04-17T02:23:25.137072+05:30"},{"city":"Ayodhya","state":"Uttar Pradesh","latitude":26.7922,"longitude":82.1998,"temp":24.2,"humidity":72,"rain":0.0,"pressure":994.6,"uv_index":7.25,"wind_gusts":31.0,"aqi":94,"pm10":74.5,"pm2_5":41.0,"mosquito_risk":3,"arthritis_risk":5,"migraine_risk":7,"frizz_risk":1,"updated_at":"2026-04-17T02:23:25.137077+05:30"},{"city":"Ratlam","state":"Madhya Pradesh","latitude":23.3315,"longitude":75.0367,"temp":26.4,"humidity":60,"rain":0.0,"pressure":953.0,"uv_index":7.9,"wind_gusts":29.2,"aqi":72,"pm10":36.3,"pm2_5":23.9,"mosquito_risk":4,"arthritis_risk":5,"migraine_risk":7,"frizz_risk":1,"updated_at":"2026-04-17T02:23:25.137083+05:30"},{"city":"Sagar","state":"Madhya Pradesh","latitude":23.8388,"longitude":78.7378,"temp":28.8,"humidity":41,"rain":0.0,"pressure":948.8,"uv_index":7.8,"wind_gusts":23.4,"aqi":91,"pm10":62.6,"pm2_5":18.0,"mosquito_risk":4,"arthritis_risk":5,"migraine_risk":7,"frizz_risk":0,"updated_at":"2026-04-17T02:23:25.137089+05:30"},{"city":"Satna","state":"Madhya Pradesh","latitude":24.6005,"longitude":80.8322,"temp":27.6,"humidity":39,"rain":0.0,"pressure":969.8,"uv_index":8.6,"wind_gusts":23.4,"aqi":79,"pm10":156.0,"pm2_5":26.5,"mosquito_risk":4,"arthritis_risk":5,"migraine_risk":7,"frizz_risk":0,"updated_at":"2026-04-17T02:23:25.137094+05:30"},{"city":"Akola","state":"Maharashtra","latitude":20.7002,"longitude":77.0082,"temp":27.7,"humidity":51,"rain":0.0,"pressure":972.8,"uv_index":7.9,"wind_gusts":19.4,"aqi":60,"pm10":27.1,"pm2_5":19.2,"mosquito_risk":4,"arthritis_risk":5,"migraine_risk":7,"frizz_risk":1,"updated_at":"2026-04-17T02:23:25.137101+05:30"},{"city":"Amravati","state":"Maharashtra","latitude":20.9374,"longitude":77.7796,"temp":26.9,"humidity":57,"rain":0.0,"pressure":964.8,"uv_index":8.1,"wind_gusts":17.6,"aqi":59,"pm10":26.1,"pm2_5":19.4,"mosquito_risk":4,"arthritis_risk":5,"migraine_risk":7,"frizz_risk":1,"updated_at":"2026-04-17T02:23:25.137107+05:30"},{"city":"Latur","state":"Maharashtra","latitude":18.4088,"longitude":76.5604,"temp":25.8,"humidity":47,"rain":0.0,"pressure":938.3,"uv_index":8.7,"wind_gusts":29.5,"aqi":54,"pm10":26.6,"pm2_5":20.9,"mosquito_risk":4,"arthritis_risk":5,"migraine_risk":7,"frizz_risk":0,"updated_at":"2026-04-17T02:23:25.137113+05:30"},{"city":"Nanded","state":"Maharashtra","latitude":19.1383,"longitude":77.3091,"temp":26.3,"humidity":45,"rain":0.0,"pressure":966.4,"uv_index":8.9,"wind_gusts":17.3,"aqi":64,"pm10":38.4,"pm2_5":29.2,"mosquito_risk":4,"arthritis_risk":5,"migraine_risk":7,"frizz_risk":0,"updated_at":"2026-04-17T02:23:25.137119+05:30"},{"city":"Gulbarga","state":"Karnataka","latitude":17.3297,"longitude":76.8343,"temp":30.5,"humidity":47,"rain":0.0,"pressure":957.1,"uv_index":8.55,"wind_gusts":28.1,"aqi":131,"pm10":33.8,"pm2_5":30.4,"mosquito_risk":0,"arthritis_risk":5,"migraine_risk":7,"frizz_risk":1,"updated_at":"2026-04-17T02:23:25.137125+05:30"},{"city":"Bidar","state":"Karnataka","latitude":17.9104,"longitude":77.5199,"temp":29.1,"humidity":50,"rain":0.0,"pressure":934.0,"uv_index":9.05,"wind_gusts":21.2,"aqi":96,"pm10":43.2,"pm2_5":39.8,"mosquito_risk":4,"arthritis_risk":5,"migraine_risk":7,"frizz_risk":1,"updated_at":"2026-04-17T02:23:25.137130+05:30"},{"city":"Hospet","state":"Karnataka","latitude":15.2689,"longitude":76.3909,"temp":27.6,"humidity":77,"rain":0.0,"pressure":955.2,"uv_index":9.25,"wind_gusts":26.6,"aqi":83,"pm10":34.2,"pm2_5":29.5,"mosquito_risk":7,"arthritis_risk":5,"migraine_risk":7,"frizz_risk":1,"updated_at":"2026-04-17T02:23:25.137136+05:30"},{"city":"Tirupur","state":"Tamil Nadu","latitude":11.1085,"longitude":77.3411,"temp":27.0,"humidity":82,"rain":0.0,"pressure":974.0,"uv_index":8.95,"wind_gusts":29.9,"aqi":77,"pm10":31.2,"pm2_5":27.2,"mosquito_risk":7,"arthritis_risk":5,"migraine_risk":7,"frizz_risk":1,"updated_at":"2026-04-17T02:23:25.137141+05:30"},{"city":"Alappuzha","state":"Kerala","latitude":9.4981,"longitude":76.3388,"temp":29.0,"humidity":81,"rain":0.0,"pressure":1007.3,"uv_index":8.15,"wind_gusts":33.5,"aqi":95,"pm10":47.4,"pm2_5":37.1,"mosquito_risk":7,"arthritis_risk":5,"migraine_risk":4,"frizz_risk":1,"updated_at":"2026-04-17T02:23:25.137147+05:30"},{"city":"Munnar","state":"Kerala","latitude":10.0889,"longitude":77.0595,"temp":21.5,"humidity":89,"rain":0.0,"pressure":855.8,"uv_index":9.3,"wind_gusts":23.8,"aqi":74,"pm10":39.3,"pm2_5":35.4,"mosquito_risk":3,"arthritis_risk":5,"migraine_risk":7,"frizz_risk":1,"updated_at":"2026-04-17T02:23:25.137153+05:30"},{"city":"Silchar","state":"Assam","latitude":24.8333,"longitude":92.7789,"temp":23.4,"humidity":93,"rain":0.0,"pressure":1006.1,"uv_index":8.75,"wind_gusts":19.4,"aqi":150,"pm10":70.5,"pm2_5":52.9,"mosquito_risk":3,"arthritis_risk":5,"migraine_risk":4,"frizz_risk":1,"updated_at":"2026-04-17T02:23:25.137160+05:30"},{"city":"Dibrugarh","state":"Assam","latitude":27.4728,"longitude":94.912,"temp":23.0,"humidity":84,"rain":0.0,"pressure":997.4,"uv_index":8.65,"wind_gusts":10.8,"aqi":135,"pm10":71.5,"pm2_5":50.3,"mosquito_risk":3,"arthritis_risk":5,"migraine_risk":7,"frizz_risk":1,"updated_at":"2026-04-17T02:23:25.137165+05:30"}]