[{"city":"Delhi","state":"Delhi","latitude":28.6139,"longitude":77.209,"temp":21.3,"humidity":73,"rain":0.0,"pressure":985.3,"uv_index":5.9,"wind_gusts":27.4,"aqi":165,"pm10":295.2,"pm2_5":86.4,"mosquito_risk":3,"arthritis_risk":5,"migraine_risk":3,"frizz_risk":1,"updated_at":"2026-03-09T02:57:37.351147+05:30"},{"city":"Mumbai","state":"Maharashtra","latitude":19.076,"longitude":72.8777,"temp":28.8,"humidity":65,"rain":0.0,"pressure":1007.6,"uv_index":7.55,"wind_gusts":22.7,"aqi":166,"pm10":30.0,"pm2_5":28.3,"mosquito_risk":7,"arthritis_risk":5,"migraine_risk":4,"frizz_risk":1,"updated_at":"2026-03-09T02:57:37.351197+05:30"},{"city":"Bangalore","state":"Karnataka","latitude":12.9716,"longitude":77.5946,"temp":20.8,"humidity":66,"rain":0.0,"pressure":911.4,"uv_index":9.25,"wind_gusts":38.5,"aqi":109,"pm10":45.6,"pm2_5":39.0,"mosquito_risk":3,"arthritis_risk":5,"migraine_risk":7,"frizz_risk":0,"updated_at":"2026-03-09T02:57:37.351213+05:30"},{"city":"Hyderabad","state":"Telangana","latitude":17.385,"longitude":78.4867,"temp":22.9,"humidity":68,"rain":0.0,"pressure":953.7,"uv_index":8.55,"wind_gusts":29.9,"aqi":100,"pm10":45.5,"pm2_5":35.9,"mosquito_risk":3,"arthritis_risk":5,"migraine_risk":7,"frizz_risk":1,"updated_at":"2026-03-09T02:57:37.351223+05:30"},{"city":"Chennai","state":"Tamil Nadu","latitude":13.0827,"longitude":80.2707,"temp":26.1,"humidity":79,"rain":0.0,"pressure":1008.5,"uv_index":8.95,"wind_gusts":33.5,"aqi":74,"pm10":34.1,"pm2_5":25.1,"mosquito_risk":7,"arthritis_risk":0,"migraine_risk":4,"frizz_risk":1,"updated_at":"2026-03-09T02:57:37.351232+05:30"},{"city":"Kolkata","state":"West Bengal","latitude":22.5726,"longitude":88.3639,"temp":23.3,"humidity":97,"rain":0.0,"pressure":1009.5,"uv_index":7.95,"wind_gusts":17.6,"aqi":148,"pm10":47.6,"pm2_5":43.0,"mosquito_risk":3,"arthritis_risk":0,"migraine_risk":4,"frizz_risk":1,"updated_at":"2026-03-09T02:57:37.351241+05:30"},{"city":"Pune","state":"Maharashtra","latitude":18.5204,"longitude":73.8567,"temp":22.1,"humidity":61,"rain":0.0,"pressure":948.2,"uv_index":8.1,"wind_gusts":32.4,"aqi":91,"pm10":30.5,"pm2_5":26.3,"mosquito_risk":3,"arthritis_risk":5,"migraine_risk":7,"frizz_risk":0,"updated_at":"2026-03-09T02:57:37.351254+05:30"},{"city":"Ahmedabad","state":"Gujarat","latitude":23.0225,"longitude":72.5714,"temp":22.3,"humidity":49,"rain":0.0,"pressure":1004.1,"uv_index":7.4,"wind_gusts":18.7,"aqi":79,"pm10":19.2,"pm2_5":15.1,"mosquito_risk":0,"arthritis_risk":5,"migraine_risk":4,"frizz_risk":0,"updated_at":"2026-03-09T02:57:37.351262+05:30"},{"city":"Jaipur","state":"Rajasthan","latitude":26.9124,"longitude":75.7873,"temp":25.0,"humidity":28,"rain":0.0,"pressure":962.0,"uv_index":6.7,"wind_gusts":22.0,"aqi":79,"pm10":123.4,"pm2_5":25.0,"mosquito_risk":4,"arthritis_risk":5,"migraine_risk":7,"frizz_risk":0,"updated_at":"2026-03-09T02:57:37.351269+05:30"},{"city":"Lucknow","state":"Uttar Pradesh","latitude":26.8467,"longitude":80.9462,"temp":23.6,"humidity":74,"rain":0.0,"pressure":996.1,"uv_index":6.55,"wind_gusts":19.4,"aqi":177,"pm10":236.1,"pm2_5":130.9,"mosquito_risk":3,"arthritis_risk":5,"migraine_risk":7,"frizz_risk":1,"updated_at":"2026-03-09T02:57:37.351278+05:30"},{"city":"Kanpur","state":"Uttar Pradesh","latitude":26.4499,"longitude":80.3319,"temp":22.6,"humidity":75,"rain":0.0,"pressure":994.1,"uv_index":6.55,"wind_gusts":16.2,"aqi":170,"pm10":201.6,"pm2_5":107.1,"mosquito_risk":3,"arthritis_risk":5,"migraine_risk":7,"frizz_risk":1,"updated_at":"2026-03-09T02:57:37.351286+05:30"},{"city":"Chandigarh","state":"Chandigarh","latitude":30.7333,"longitude":76.7794,"temp":20.2,"humidity":79,"rain":0.0,"pressure":970.8,"uv_index":5.95,"wind_gusts":23.8,"aqi":145,"pm10":39.5,"pm2_5":32.5,"mosquito_risk":3,"arthritis_risk":5,"migraine_risk":3,"frizz_risk":1,"updated_at":"2026-03-09T02:57:37.351293+05:30"},{"city":"Srinagar","state":"Jammu and Kashmir","latitude":34.0837,"longitude":74.7973,"temp":6.5,"humidity":81,"rain":0.0,"pressure":841.6,"uv_index":6.35,"wind_gusts":20.2,"aqi":115,"pm10":77.1,"pm2_5":61.7,"mosquito_risk":3,"arthritis_risk":10,"migraine_risk":7,"frizz_risk":0,"updated_at":"2026-03-09T02:57:37.351300+05:30"},{"city":"Jammu","state":"Jammu and Kashmir","latitude":32.7266,"longitude":74.857,"temp":18.3,"humidity":83,"rain":0.0,"pressure":975.5,"uv_index":6.4,"wind_gusts":24.1,"aqi":87,"pm10":37.5,"pm2_5":32.6,"mosquito_risk":3,"arthritis_risk":10,"migraine_risk":7,"frizz_risk":0,"updated_at":"2026-03-09T02:57:37.351308+05:30"},{"city":"Amritsar","state":"Punjab","latitude":31.634,"longitude":74.8723,"temp":20.6,"humidity":72,"rain":0.0,"pressure":983.7,"uv_index":6.5,"wind_gusts":20.2,"aqi":161,"pm10":87.8,"pm2_5":72.9,"mosquito_risk":3,"arthritis_risk":5,"migraine_risk":7,"frizz_risk":0,"updated_at":"2026-03-09T02:57:37.351315+05:30"},{"city":"Ludhiana","state":"Punjab","latitude":30.901,"longitude":75.8573,"temp":21.8,"humidity":77,"rain":0.0,"pressure":981.5,"uv_index":6.1,"wind_gusts":25.6,"aqi":163,"pm10":80.1,"pm2_5":69.4,"mosquito_risk":3,"arthritis_risk":5,"migraine_risk":7,"frizz_risk":1,"updated_at":"2026-03-09T02:57:37.351321+05:30"},{"city":"Jalandhar","state":"Punjab","latitude":31.326,"longitude":75.5762,"temp":20.6,"humidity":83,"rain":0.0,"pressure":982.7,"uv_index":6.2,"wind_gusts":23.8,"aqi":164,"pm10":96.6,"pm2_5":78.5,"mosquito_risk":3,"arthritis_risk":5,"migraine_risk":7,"frizz_risk":1,"updated_at":"2026-03-09T02:57:37.351331+05:30"},{"city":"Dehradun","state":"Uttarakhand","latitude":30.6284,"longitude":78.0322,"temp":14.0,"humidity":67,"rain":0.0,"pressure":831.0,"uv_index":6.3,"wind_gusts":28.8,"aqi":78,"pm10":36.3,"pm2_5":28.2,"mosquito_risk":3,"arthritis_risk":5,"migraine_risk":7,"frizz_risk":0,"updated_at":"2026-03-09T02:57:37.351338+05:30"},{"city":"Shimla","state":"Himachal Pradesh","latitude":31.1048,"longitude":77.1734,"temp":12.1,"humidity":62,"rain":0.0,"pressure":785.1,"uv_index":6.35,"wind_gusts":49.3,"aqi":82,"pm10":42.0,"pm2_5":23.6,"mosquito_risk":3,"arthritis_risk":5,"migraine_risk":7,"frizz_risk":0,"updated_at":"2026-03-09T02:57:37.351345+05:30"},{"city":"Manali","state":"Himachal Pradesh","latitude":32.2396,"longitude":77.1887,"temp":15.7,"humidity":35,"rain":0.0,"pressure":823.1,"uv_index":7.6,"wind_gusts":34.6,"aqi":41,"pm10":35.9,"pm2_5":20.5,"mosquito_risk":0,"arthritis_risk":5,"migraine_risk":7,"frizz_risk":0,"updated_at":"2026-03-09T02:57:37.351352+05:30"},{"city":"Gurgaon","state":"Haryana","latitude":28.4595,"longitude":77.0266,"temp":18.4,"humidity":82,"rain":0.0,"pressure":983.6,"uv_index":5.95,"wind_gusts":26.6,"aqi":448,"pm10":542.0,"pm2_5":106.6,"mosquito_risk":3,"arthritis_risk":10,"migraine_risk":3,"frizz_risk":0,"updated_at":"2026-03-09T02:57:37.351359+05:30"},{"city":"Noida","state":"Uttar Pradesh","latitude":28.5355,"longitude":77.391,"temp":20.9,"humidity":75,"rain":0.0,"pressure":986.8,"uv_index":5.75,"wind_gusts":26.6,"aqi":448,"pm10":542.0,"pm2_5":106.6,"mosquito_risk":3,"arthritis_risk":5,"migraine_risk":3,"frizz_risk":1,"updated_at":"2026-03-09T02:57:37.351366+05:30"},{"city":"Ghaziabad","state":"Uttar Pradesh","latitude":28.6692,"longitude":77.4538,"temp":20.3,"humidity":81,"rain":0.0,"pressure":984.9,"uv_index":5.95,"wind_gusts":24.5,"aqi":166,"pm10":276.6,"pm2_5":80.6,"mosquito_risk":3,"arthritis_risk":5,"migraine_risk":3,"frizz_risk":1,"updated_at":"2026-03-09T02:57:37.351373+05:30"},{"city":"Faridabad","state":"Haryana","latitude":28.4089,"longitude":77.3178,"temp":17.4,"humidity":86,"rain":0.0,"pressure":985.9,"uv_index":5.6,"wind_gusts":25.2,"aqi":448,"pm10":542.0,"pm2_5":106.6,"mosquito_risk":3,"arthritis_risk":10,"migraine_risk":3,"frizz_risk":0,"updated_at":"2026-03-09T02:57:37.351380+05:30"},{"city":"Meerut","state":"Uttar Pradesh","latitude":28.9845,"longitude":77.7064,"temp":20.1,"humidity":86,"rain":0.0,"pressure":983.6,"uv_index":5.85,"wind_gusts":24.8,"aqi":166,"pm10":276.6,"pm2_5":80.6,"mosquito_risk":3,"arthritis_risk":5,"migraine_risk":3,"frizz_risk":1,"updated_at":"2026-03-09T02:57:37.351387+05:30"},{"city":"Agra","state":"Uttar Pradesh","latitude":27.1767,"longitude":78.0081,"temp":18.3,"humidity":81,"rain":0.0,"pressure":990.1,"uv_index":6.05,"wind_gusts":23.4,"aqi":158,"pm10":375.3,"pm2_5":90.6,"mosquito_risk":3,"arthritis_risk":10,"migraine_risk":7,"frizz_risk":0,"updated_at":"2026-03-09T02:57:37.351396+05:30"},{"city":"Varanasi","state":"Uttar Pradesh","latitude":25.3176,"longitude":82.9739,"temp":22.1,"humidity":83,"rain":0.0,"pressure":1000.5,"uv_index":7.2,"wind_gusts":14.4,"aqi":175,"pm10":116.2,"pm2_5":109.0,"mosquito_risk":3,"arthritis_risk":5,"migraine_risk":4,"frizz_risk":1,"updated_at":"2026-03-09T02:57:37.351405+05:30"},{"city":"Prayagraj","state":"Uttar Pradesh","latitude":25.4358,"longitude":81.8463,"temp":22.3,"humidity":77,"rain":0.0,"pressure":998.8,"uv_index":7.1,"wind_gusts":15.8,"aqi":179,"pm10":125.3,"pm2_5":117.1,"mosquito_risk":3,"arthritis_risk":5,"migraine_risk":7,"frizz_risk":1,"updated_at":"2026-03-09T02:57:37.351413+05:30"},{"city":"Gorakhpur","state":"Uttar Pradesh","latitude":26.7606,"longitude":83.3732,"temp":20.9,"humidity":93,"rain":0.0,"pressure":1000.4,"uv_index":6.9,"wind_gusts":27.7,"aqi":173,"pm10":126.2,"pm2_5":121.1,"mosquito_risk":3,"arthritis_risk":5,"migraine_risk":4,"frizz_risk":1,"updated_at":"2026-03-09T02:57:37.351420+05:30"},{"city":"Bareilly","state":"Uttar Pradesh","latitude":28.367,"longitude":79.4304,"temp":21.1,"humidity":87,"rain":0.0,"pressure":988.8,"uv_index":6.25,"wind_gusts":14.4,"aqi":168,"pm10":118.0,"pm2_5":106.4,"mosquito_risk":3,"arthritis_risk":5,"migraine_risk":7,"frizz_risk":1,"updated_at":"2026-03-09T02:57:37.351426+05:30"},{"city":"Aligarh","state":"Uttar Pradesh","latitude":27.8974,"longitude":78.088,"temp":18.2,"humidity":79,"rain":0.0,"pressure":987.8,"uv_index":6.15,"wind_gusts":24.1,"aqi":198,"pm10":383.7,"pm2_5":99.4,"mosquito_risk":3,"arthritis_risk":5,"migraine_risk":7,"frizz_risk":0,"updated_at":"2026-03-09T02:57:37.351433+05:30"},{"city":"Moradabad","state":"Uttar Pradesh","latitude":28.8386,"longitude":78.7733,"temp":21.5,"humidity":78,"rain":0.0,"pressure":985.7,"uv_index":6.05,"wind_gusts":14.4,"aqi":178,"pm10":228.6,"pm2_5":121.1,"mosquito_risk":3,"arthritis_risk":5,"migraine_risk":7,"frizz_risk":1,"updated_at":"2026-03-09T02:57:37.351442+05:30"},{"city":"Saharanpur","state":"Uttar Pradesh","latitude":29.9637,"longitude":77.546,"temp":19.3,"humidity":85,"rain":0.0,"pressure":977.6,"uv_index":5.7,"wind_gusts":20.5,"aqi":164,"pm10":128.5,"pm2_5":90.6,"mosquito_risk":3,"arthritis_risk":10,"migraine_risk":3,"frizz_risk":1,"updated_at":"2026-03-09T02:57:37.351448+05:30"},{"city":"Jhansi","state":"Uttar Pradesh","latitude":25.4484,"longitude":78.5685,"temp":21.4,"humidity":57,"rain":0.0,"pressure":980.1,"uv_index":7.0,"wind_gusts":25.6,"aqi":87,"pm10":33.5,"pm2_5":24.2,"mosquito_risk":0,"arthritis_risk":5,"migraine_risk":7,"frizz_risk":0,"updated_at":"2026-03-09T02:57:40.685867+05:30"},{"city":"Surat","state":"Gujarat","latitude":21.1702,"longitude":72.8311,"temp":25.2,"humidity":61,"rain":0.0,"pressure":1007.5,"uv_index":7.25,"wind_gusts":24.8,"aqi":120,"pm10":34.5,"pm2_5":33.9,"mosquito_risk":7,"arthritis_risk":5,"migraine_risk":4,"frizz_risk":1,"updated_at":"2026-03-09T02:57:40.685897+05:30"},{"city":"Vadodara","state":"Gujarat","latitude":22.3072,"longitude":73.1812,"temp":23.2,"humidity":56,"rain":0.0,"pressure":1005.9,"uv_index":7.4,"wind_gusts":15.8,"aqi":81,"pm10":21.7,"pm2_5":20.8,"mosquito_risk":0,"arthritis_risk":5,"migraine_risk":4,"frizz_risk":0,"updated_at":"2026-03-09T02:57:40.685907+05:30"},{"city":"Rajkot","state":"Gujarat","latitude":22.3039,"longitude":70.8022,"temp":22.6,"humidity":53,"rain":0.0,"pressure":996.5,"uv_index":7.2,"wind_gusts":26.3,"aqi":71,"pm10":28.3,"pm2_5":17.1,"mosquito_risk":0,"arthritis_risk":5,"migraine_risk":7,"frizz_risk":0,"updated_at":"2026-03-09T02:57:40.685950+05:30"},{"city":"Thane","state":"Maharashtra","latitude":19.2183,"longitude":72.9781,"temp":26.6,"humidity":55,"rain":0.0,"pressure":1007.1,"uv_index":7.55,"wind_gusts":36.4,"aqi":166,"pm10":30.0,"pm2_5":28.3,"mosquito_risk":4,"arthritis_risk":5,"migraine_risk":4,"frizz_risk":1,"updated_at":"2026-03-09T02:57:40.685960+05:30"},{"city":"Nagpur","state":"Maharashtra","latitude":21.1458,"longitude":79.0882,"temp":22.4,"humidity":45,"rain":0.0,"pressure":974.3,"uv_index":7.95,"wind_gusts":27.7,"aqi":84,"pm10":46.8,"pm2_5":32.6,"mosquito_risk":0,"arthritis_risk":5,"migraine_risk":7,"frizz_risk":0,"updated_at":"2026-03-09T02:57:40.685967+05:30"},{"city":"Nashik","state":"Maharashtra","latitude":19.9975,"longitude":73.7898,"temp":24.4,"humidity":37,"rain":0.0,"pressure":946.2,"uv_index":7.75,"wind_gusts":30.2,"aqi":66,"pm10":22.2,"pm2_5":20.1,"mosquito_risk":0,"arthritis_risk":5,"migraine_risk":7,"frizz_risk":0,"updated_at":"2026-03-09T02:57:40.685974+05:30"},{"city":"Aurangabad","state":"Maharashtra","latitude":19.8762,"longitude":75.3433,"temp":23.6,"humidity":51,"rain":0.0,"pressure":944.6,"uv_index":8.25,"wind_gusts":38.2,"aqi":71,"pm10":35.7,"pm2_5":30.4,"mosquito_risk":0,"arthritis_risk":5,"migraine_risk":7,"frizz_risk":0,"updated_at":"2026-03-09T02:57:40.685981+05:30"},{"city":"Solapur","state":"Maharashtra","latitude":17.6599,"longitude":75.9064,"temp":23.2,"humidity":67,"rain":0.0,"pressure":957.0,"uv_index":8.45,"wind_gusts":23.8,"aqi":71,"pm10":29.7,"pm2_5":24.3,"mosquito_risk":3,"arthritis_risk":5,"migraine_risk":7,"frizz_risk":1,"updated_at":"2026-03-09T02:57:40.685989+05:30"},{"city":"Kolhapur","state":"Maharashtra","latitude":16.705,"longitude":74.2433,"temp":18.4,"humidity":80,"rain":0.0,"pressure":947.1,"uv_index":8.6,"wind_gusts":34.2,"aqi":140,"pm10":91.5,"pm2_5":89.2,"mosquito_risk":3,"arthritis_risk":5,"migraine_risk":7,"frizz_risk":0,"updated_at":"2026-03-09T02:57:40.685997+05:30"},{"city":"Goa","state":"Goa","latitude":15.2993,"longitude":74.124,"temp":26.1,"humidity":89,"rain":0.0,"pressure":998.0,"uv_index":8.65,"wind_gusts":32.8,"aqi":123,"pm10":55.1,"pm2_5":51.5,"mosquito_risk":7,"arthritis_risk":5,"migraine_risk":7,"frizz_risk":1,"updated_at":"2026-03-09T02:57:40.686004+05:30"},{"city":"Jodhpur","state":"Rajasthan","latitude":26.2389,"longitude":73.0243,"temp":23.8,"humidity":40,"rain":0.0,"pressure":985.8,"uv_index":7.1,"wind_gusts":21.2,"aqi":58,"pm10":56.1,"pm2_5":15.8,"mosquito_risk":0,"arthritis_risk":5,"migraine_risk":7,"frizz_risk":0,"updated_at":"2026-03-09T02:57:40.686011+05:30"},{"city":"Udaipur","state":"Rajasthan","latitude":24.5854,"longitude":73.7125,"temp":20.8,"humidity":40,"rain":0.0,"pressure":949.1,"uv_index":7.7,"wind_gusts":14.8,"aqi":38,"pm10":11.1,"pm2_5":10.4,"mosquito_risk":0,"arthritis_risk":5,"migraine_risk":7,"frizz_risk":0,"updated_at":"2026-03-09T02:57:40.686018+05:30"},{"city":"Kota","state":"Rajasthan","latitude":25.2138,"longitude":75.8648,"temp":20.5,"humidity":62,"rain":0.0,"pressure":980.8,"uv_index":7.1,"wind_gusts":15.1,"aqi":83,"pm10":28.7,"pm2_5":28.5,"mosquito_risk":3,"arthritis_risk":5,"migraine_risk":7,"frizz_risk":0,"updated_at":"2026-03-09T02:57:40.686024+05:30"},{"city":"Bikaner","state":"Rajasthan","latitude":28.0229,"longitude":73.3119,"temp":24.4,"humidity":49,"rain":0.0,"pressure":984.9,"uv_index":6.8,"wind_gusts":18.0,"aqi":55,"pm10":18.5,"pm2_5":9.0,"mosquito_risk":0,"arthritis_risk":5,"migraine_risk":7,"frizz_risk":0,"updated_at":"2026-03-09T02:57:40.686031+05:30"},{"city":"Ajmer","state":"Rajasthan","latitude":26.4499,"longitude":74.6399,"temp":22.2,"humidity":40,"rain":0.0,"pressure":956.9,"uv_index":7.1,"wind_gusts":20.9,"aqi":58,"pm10":17.6,"pm2_5":9.7,"mosquito_risk":0,"arthritis_risk":5,"migraine_risk":7,"frizz_risk":0,"updated_at":"2026-03-09T02:57:40.686038+05:30"},{"city":"Gwalior","state":"Madhya Pradesh","latitude":26.2183,"longitude":78.1828,"temp":23.2,"humidity":56,"rain":0.0,"pressure":985.5,"uv_index":6.75,"wind_gusts":23.0,"aqi":86,"pm10":72.6,"pm2_5":24.6,"mosquito_risk":0,"arthritis_risk":5,"migraine_risk":7,"frizz_risk":0,"updated_at":"2026-03-09T02:57:40.686045+05:30"},{"city":"Indore","state":"Madhya Pradesh","latitude":22.7196,"longitude":75.8577,"temp":20.8,"humidity":44,"rain":0.0,"pressure":949.4,"uv_index":7.65,"wind_gusts":20.5,"aqi":71,"pm10":33.4,"pm2_5":31.7,"mosquito_risk":0,"arthritis_risk":5,"migraine_risk":7,"frizz_risk":0,"updated_at":"2026-03-09T02:57:40.686051+05:30"},{"city":"Bhopal","state":"Madhya Pradesh","latitude":23.2599,"longitude":77.4126,"temp":21.3,"humidity":50,"rain":0.0,"pressure":955.4,"uv_index":7.55,"wind_gusts":17.6,"aqi":71,"pm10":43.7,"pm2_5":33.5,"mosquito_risk":0,"arthritis_risk":5,"migraine_risk":7,"frizz_risk":0,"updated_at":"2026-03-09T02:57:40.686058+05:30"},{"city":"Jabalpur","state":"Madhya Pradesh","latitude":23.1815,"longitude":79.9864,"temp":21.8,"humidity":59,"rain":0.0,"pressure":963.4,"uv_index":7.65,"wind_gusts":21.2,"aqi":137,"pm10":70.5,"pm2_5":49.5,"mosquito_risk":0,"arthritis_risk":5,"migraine_risk":7,"frizz_risk":0,"updated_at":"2026-03-09T02:57:40.686065+05:30"},{"city":"Ujjain","state":"Madhya Pradesh","latitude":23.1765,"longitude":75.7885,"temp":20.7,"humidity":51,"rain":0.0,"pressure":955.6,"uv_index":7.55,"wind_gusts":11.9,"aqi":94,"pm10":45.3,"pm2_5":43.7,"mosquito_risk":0,"arthritis_risk":5,"migraine_risk":7,"frizz_risk":0,"updated_at":"2026-03-09T02:57:40.686072+05:30"},{"city":"Visakhapatnam","state":"Andhra Pradesh","latitude":17.6868,"longitude":83.2185,"temp":25.1,"humidity":84,"rain":0.0,"pressure":1006.4,"uv_index":8.55,"wind_gusts":33.5,"aqi":92,"pm10":40.7,"pm2_5":31.5,"mosquito_risk":7,"arthritis_risk":5,"migraine_risk":4,"frizz_risk":1,"updated_at":"2026-03-09T02:57:40.686079+05:30"},{"city":"Vijayawada","state":"Andhra Pradesh","latitude":16.5062,"longitude":80.648,"temp":25.1,"humidity":86,"rain":0.0,"pressure":1004.5,"uv_index":8.65,"wind_gusts":26.3,"aqi":90,"pm10":35.5,"pm2_5":28.3,"mosquito_risk":7,"arthritis_risk":5,"migraine_risk":4,"frizz_risk":1,"updated_at":"2026-03-09T02:57:40.686086+05:30"},{"city":"Guntur","state":"Andhra Pradesh","latitude":16.3067,"longitude":80.4365,"temp":25.2,"humidity":86,"rain":0.0,"pressure":1005.6,"uv_index":8.65,"wind_gusts":28.4,"aqi":89,"pm10":32.4,"pm2_5":25.8,"mosquito_risk":7,"arthritis_risk":5,"migraine_risk":4,"frizz_risk":1,"updated_at":"2026-03-09T02:57:40.686093+05:30"},{"city":"Nellore","state":"Andhra Pradesh","latitude":14.4426,"longitude":79.9865,"temp":25.5,"humidity":84,"rain":0.0,"pressure":1007.2,"uv_index":8.8,"wind_gusts":32.8,"aqi":81,"pm10":23.9,"pm2_5":18.2,"mosquito_risk":7,"arthritis_risk":5,"migraine_risk":4,"frizz_risk":1,"updated_at":"2026-03-09T02:57:40.686100+05:30"},{"city":"Kurnool","state":"Andhra Pradesh","latitude":15.8281,"longitude":78.0373,"temp":25.7,"humidity":70,"rain":0.0,"pressure":977.4,"uv_index":8.65,"wind_gusts":37.1,"aqi":101,"pm10":36.7,"pm2_5":32.5,"mosquito_risk":7,"arthritis_risk":5,"migraine_risk":7,"frizz_risk":1,"updated_at":"2026-03-09T02:57:40.686107+05:30"},{"city":"Kakinada","state":"Andhra Pradesh","latitude":16.9891,"longitude":82.2475,"temp":25.3,"humidity":83,"rain":0.0,"pressure":1009.8,"uv_index":8.55,"wind_gusts":30.2,"aqi":78,"pm10":42.0,"pm2_5":29.5,"mosquito_risk":7,"arthritis_risk":0,"migraine_risk":4,"frizz_risk":1,"updated_at":"2026-03-09T02:57:40.686114+05:30"},{"city":"Tirupati","state":"Andhra Pradesh","latitude":13.6288,"longitude":79.4192,"temp":23.1,"humidity":89,"rain":0.0,"pressure":993.1,"uv_index":8.95,"wind_gusts":37.1,"aqi":105,"pm10":38.1,"pm2_5":31.8,"mosquito_risk":3,"arthritis_risk":5,"migraine_risk":7,"frizz_risk":1,"updated_at":"2026-03-09T02:57:40.686120+05:30"},{"city":"Warangal","state":"Telangana","latitude":17.9689,"longitude":79.5941,"temp":23.6,"humidity":86,"rain":0.0,"pressure":980.0,"uv_index":8.4,"wind_gusts":29.9,"aqi":121,"pm10":37.4,"pm2_5":34.5,"mosquito_risk":3,"arthritis_risk":5,"migraine_risk":7,"frizz_risk":1,"updated_at":"2026-03-09T02:57:40.686126+05:30"},{"city":"Nizamabad","state":"Telangana","latitude":18.6725,"longitude":78.0941,"temp":22.3,"humidity":58,"rain":0.0,"pressure":964.8,"uv_index":8.25,"wind_gusts":31.3,"aqi":97,"pm10":49.1,"pm2_5":40.7,"mosquito_risk":0,"arthritis_risk":5,"migraine_risk":7,"frizz_risk":0,"updated_at":"2026-03-09T02:57:40.686133+05:30"},{"city":"Mysore","state":"Karnataka","latitude":12.2958,"longitude":76.6396,"temp":22.1,"humidity":92,"rain":0.0,"pressure":928.3,"uv_index":9.25,"wind_gusts":40.7,"aqi":122,"pm10":57.9,"pm2_5":52.3,"mosquito_risk":3,"arthritis_risk":5,"migraine_risk":7,"frizz_risk":1,"updated_at":"2026-03-09T02:57:40.686139+05:30"},{"city":"Mangalore","state":"Karnataka","latitude":12.9141,"longitude":74.856,"temp":28.5,"humidity":78,"rain":0.0,"pressure":1006.6,"uv_index":8.85,"wind_gusts":25.2,"aqi":108,"pm10":44.9,"pm2_5":41.1,"mosquito_risk":7,"arthritis_risk":5,"migraine_risk":4,"frizz_risk":1,"updated_at":"2026-03-09T02:57:40.686145+05:30"},{"city":"Hubli-Dharwad","state":"Karnataka","latitude":15.3647,"longitude":75.124,"temp":21.6,"humidity":93,"rain":0.0,"pressure":940.2,"uv_index":8.85,"wind_gusts":35.3,"aqi":97,"pm10":40.0,"pm2_5":37.4,"mosquito_risk":3,"arthritis_risk":5,"migraine_risk":7,"frizz_risk":1,"updated_at":"2026-03-09T02:57:40.686152+05:30"},{"city":"Belgaum","state":"Karnataka","latitude":15.8497,"longitude":74.4977,"temp":20.4,"humidity":100,"rain":0.0,"pressure":925.0,"uv_index":8.85,"wind_gusts":42.1,"aqi":112,"pm10":60.1,"pm2_5":56.7,"mosquito_risk":3,"arthritis_risk":5,"migraine_risk":7,"frizz_risk":1,"updated_at":"2026-03-09T02:57:44.044123+05:30"},{"city":"Coimbatore","state":"Tamil Nadu","latitude":11.0168,"longitude":76.9558,"temp":22.6,"humidity":96,"rain":0.0,"pressure":961.8,"uv_index":9.25,"wind_gusts":47.5,"aqi":115,"pm10":42.8,"pm2_5":38.2,"mosquito_risk":3,"arthritis_risk":5,"migraine_risk":7,"frizz_risk":1,"updated_at":"2026-03-09T02:57:44.044155+05:30"},{"city":"Madurai","state":"Tamil Nadu","latitude":9.9252,"longitude":78.1198,"temp":24.6,"humidity":81,"rain":0.0,"pressure":994.0,"uv_index":9.2,"wind_gusts":36.7,"aqi":99,"pm10":50.8,"pm2_5":42.3,"mosquito_risk":3,"arthritis_risk":5,"migraine_risk":7,"frizz_risk":1,"updated_at":"2026-03-09T02:57:44.044165+05:30"},{"city":"Trichy","state":"Tamil Nadu","latitude":10.7905,"longitude":78.7047,"temp":23.6,"humidity":92,"rain":0.0,"pressure":1000.8,"uv_index":9.1,"wind_gusts":31.3,"aqi":92,"pm10":26.4,"pm2_5":22.8,"mosquito_risk":3,"arthritis_risk":5,"migraine_risk":4,"frizz_risk":1,"updated_at":"2026-03-09T02:57:44.044173+05:30"},{"city":"Salem","state":"Tamil Nadu","latitude":11.6643,"longitude":78.146,"temp":24.0,"humidity":83,"rain":0.0,"pressure":978.1,"uv_index":9.15,"wind_gusts":33.5,"aqi":110,"pm10":47.0,"pm2_5":39.8,"mosquito_risk":3,"arthritis_risk":5,"migraine_risk":7,"frizz_risk":1,"updated_at":"2026-03-09T02:57:44.044180+05:30"},{"city":"Tirunelveli","state":"Tamil Nadu","latitude":8.7139,"longitude":77.7567,"temp":25.5,"humidity":81,"rain":0.0,"pressure":1003.7,"uv_index":9.2,"wind_gusts":36.7,"aqi":105,"pm10":57.9,"pm2_5":48.7,"mosquito_risk":7,"arthritis_risk":5,"migraine_risk":4,"frizz_risk":1,"updated_at":"2026-03-09T02:57:44.044187+05:30"},{"city":"Vellore","state":"Tamil Nadu","latitude":12.9165,"longitude":79.1325,"temp":22.8,"humidity":89,"rain":0.0,"pressure":985.8,"uv_index":9.05,"wind_gusts":37.1,"aqi":125,"pm10":52.5,"pm2_5":45.5,"mosquito_risk":3,"arthritis_risk":5,"migraine_risk":7,"frizz_risk":1,"updated_at":"2026-03-09T02:57:44.044194+05:30"},{"city":"Erode","state":"Tamil Nadu","latitude":11.341,"longitude":77.7172,"temp":25.5,"humidity":80,"rain":0.0,"pressure":989.9,"uv_index":9.15,"wind_gusts":23.0,"aqi":90,"pm10":29.4,"pm2_5":22.7,"mosquito_risk":7,"arthritis_risk":5,"migraine_risk":7,"frizz_risk":1,"updated_at":"2026-03-09T02:57:44.044202+05:30"},{"city":"Kochi","state":"Kerala","latitude":9.9312,"longitude":76.2673,"temp":26.4,"humidity":87,"rain":0.0,"pressure":1008.9,"uv_index":8.95,"wind_gusts":25.9,"aqi":124,"pm10":50.8,"pm2_5":49.4,"mosquito_risk":7,"arthritis_risk":0,"migraine_risk":4,"frizz_risk":1,"updated_at":"2026-03-09T02:57:44.044209+05:30"},{"city":"Thiruvananthapuram","state":"Kerala","latitude":8.5241,"longitude":76.9366,"temp":27.3,"humidity":85,"rain":0.0,"pressure":1007.7,"uv_index":9.1,"wind_gusts":28.4,"aqi":86,"pm10":31.7,"pm2_5":26.8,"mosquito_risk":7,"arthritis_risk":5,"migraine_risk":4,"frizz_risk":1,"updated_at":"2026-03-09T02:57:44.044217+05:30"},{"city":"Kozhikode","state":"Kerala","latitude":11.2588,"longitude":75.7804,"temp":27.0,"humidity":85,"rain":0.0,"pressure":1008.0,"uv_index":8.15,"wind_gusts":26.3,"aqi":84,"pm10":36.2,"pm2_5":32.2,"mosquito_risk":7,"arthritis_risk":0,"migraine_risk":4,"frizz_risk":1,"updated_at":"2026-03-09T02:57:44.044224+05:30"},{"city":"Thrissur","state":"Kerala","latitude":10.5276,"longitude":76.2144,"temp":25.5,"humidity":91,"rain":0.0,"pressure":1007.2,"uv_index":9.05,"wind_gusts":31.3,"aqi":114,"pm10":43.2,"pm2_5":41.2,"mosquito_risk":7,"arthritis_risk":5,"migraine_risk":4,"frizz_risk":1,"updated_at":"2026-03-09T02:57:44.044231+05:30"},{"city":"Kannur","state":"Kerala","latitude":11.8745,"longitude":75.3704,"temp":27.4,"humidity":83,"rain":0.0,"pressure":1007.1,"uv_index":8.95,"wind_gusts":28.4,"aqi":97,"pm10":39.3,"pm2_5":36.8,"mosquito_risk":7,"arthritis_risk":5,"migraine_risk":4,"frizz_risk":1,"updated_at":"2026-03-09T02:57:44.044237+05:30"},{"city":"Patna","state":"Bihar","latitude":25.5941,"longitude":85.1376,"temp":23.3,"humidity":86,"rain":0.0,"pressure":1003.5,"uv_index":7.4,"wind_gusts":27.7,"aqi":173,"pm10":105.0,"pm2_5":95.9,"mosquito_risk":3,"arthritis_risk":5,"migraine_risk":4,"frizz_risk":1,"updated_at":"2026-03-09T02:57:44.044244+05:30"},{"city":"Gaya","state":"Bihar","latitude":24.7914,"longitude":85.0002,"temp":22.2,"humidity":85,"rain":0.0,"pressure":996.4,"uv_index":7.5,"wind_gusts":23.0,"aqi":161,"pm10":85.7,"pm2_5":76.8,"mosquito_risk":3,"arthritis_risk":5,"migraine_risk":7,"frizz_risk":1,"updated_at":"2026-03-09T02:57:44.044250+05:30"},{"city":"Muzaffarpur","state":"Bihar","latitude":26.1209,"longitude":85.3647,"temp":22.3,"humidity":85,"rain":0.0,"pressure":1003.8,"uv_index":7.35,"wind_gusts":33.5,"aqi":177,"pm10":114.3,"pm2_5":105.7,"mosquito_risk":3,"arthritis_risk":5,"migraine_risk":4,"frizz_risk":1,"updated_at":"2026-03-09T02:57:44.044257+05:30"},{"city":"Bhagalpur","state":"Bihar","latitude":25.2425,"longitude":87.0117,"temp":23.0,"humidity":86,"rain":0.0,"pressure":1004.5,"uv_index":5.45,"wind_gusts":25.2,"aqi":162,"pm10":95.9,"pm2_5":84.1,"mosquito_risk":3,"arthritis_risk":5,"migraine_risk":0,"frizz_risk":1,"updated_at":"2026-03-09T02:57:44.044264+05:30"},{"city":"Ranchi","state":"Jharkhand","latitude":23.3441,"longitude":85.3096,"temp":21.3,"humidity":86,"rain":0.0,"pressure":939.8,"uv_index":8.15,"wind_gusts":25.9,"aqi":164,"pm10":108.5,"pm2_5":92.0,"mosquito_risk":3,"arthritis_risk":5,"migraine_risk":7,"frizz_risk":1,"updated_at":"2026-03-09T02:57:44.044270+05:30"},{"city":"Jamshedpur","state":"Jharkhand","latitude":22.8046,"longitude":86.2029,"temp":24.3,"humidity":93,"rain":0.0,"pressure":993.9,"uv_index":8.0,"wind_gusts":29.5,"aqi":159,"pm10":65.7,"pm2_5":59.1,"mosquito_risk":3,"arthritis_risk":5,"migraine_risk":7,"frizz_risk":1,"updated_at":"2026-03-09T02:57:44.044276+05:30"},{"city":"Dhanbad","state":"Jharkhand","latitude":23.7957,"longitude":86.4304,"temp":24.3,"humidity":83,"rain":0.0,"pressure":982.9,"uv_index":7.9,"wind_gusts":36.7,"aqi":170,"pm10":105.5,"pm2_5":99.0,"mosquito_risk":3,"arthritis_risk":5,"migraine_risk":7,"frizz_risk":1,"updated_at":"2026-03-09T02:57:44.044282+05:30"},{"city":"Bokaro","state":"Jharkhand","latitude":23.6693,"longitude":86.1511,"temp":23.4,"humidity":88,"rain":0.0,"pressure":987.0,"uv_index":7.9,"wind_gusts":37.8,"aqi":174,"pm10":140.2,"pm2_5":129.9,"mosquito_risk":3,"arthritis_risk":5,"migraine_risk":7,"frizz_risk":1,"updated_at":"2026-03-09T02:57:44.044289+05:30"},{"city":"Bhubaneswar","state":"Odisha","latitude":20.2961,"longitude":85.8245,"temp":25.1,"humidity":85,"rain":0.0,"pressure":1005.6,"uv_index":8.3,"wind_gusts":32.8,"aqi":102,"pm10":33.9,"pm2_5":29.1,"mosquito_risk":7,"arthritis_risk":5,"migraine_risk":4,"frizz_risk":1,"updated_at":"2026-03-09T02:57:44.044296+05:30"},{"city":"Cuttack","state":"Odisha","latitude":20.4625,"longitude":85.8828,"temp":25.2,"humidity":86,"rain":0.0,"pressure":1007.6,"uv_index":8.35,"wind_gusts":30.2,"aqi":102,"pm10":33.9,"pm2_5":29.1,"mosquito_risk":7,"arthritis_risk":5,"migraine_risk":4,"frizz_risk":1,"updated_at":"2026-03-09T02:57:44.044302+05:30"},{"city":"Rourkela","state":"Odisha","latitude":22.2604,"longitude":84.8536,"temp":24.9,"humidity":77,"rain":0.0,"pressure":987.4,"uv_index":7.9,"wind_gusts":29.9,"aqi":166,"pm10":98.3,"pm2_5":82.2,"mosquito_risk":3,"arthritis_risk":5,"migraine_risk":7,"frizz_risk":1,"updated_at":"2026-03-09T02:57:44.044308+05:30"},{"city":"Raipur","state":"Chhattisgarh","latitude":21.2514,"longitude":81.6296,"temp":25.3,"humidity":54,"rain":0.0,"pressure":976.0,"uv_index":8.0,"wind_gusts":28.4,"aqi":161,"pm10":93.4,"pm2_5":85.2,"mosquito_risk":4,"arthritis_risk":5,"migraine_risk":7,"frizz_risk":0,"updated_at":"2026-03-09T02:57:44.044314+05:30"},{"city":"Bhilai","state":"Chhattisgarh","latitude":21.1938,"longitude":81.3509,"temp":24.1,"humidity":58,"rain":0.0,"pressure":976.1,"uv_index":8.0,"wind_gusts":28.8,"aqi":156,"pm10":71.0,"pm2_5":64.3,"mosquito_risk":0,"arthritis_risk":5,"migraine_risk":7,"frizz_risk":0,"updated_at":"2026-03-09T02:57:44.044320+05:30"},{"city":"Guwahati","state":"Assam","latitude":26.1158,"longitude":91.7086,"temp":24.7,"humidity":75,"rain":0.0,"pressure":1004.7,"uv_index":7.25,"wind_gusts":14.8,"aqi":146,"pm10":50.9,"pm2_5":45.4,"mosquito_risk":3,"arthritis_risk":5,"migraine_risk":4,"frizz_risk":1,"updated_at":"2026-03-09T02:57:44.044327+05:30"},{"city":"Agartala","state":"Tripura","latitude":23.8315,"longitude":91.2868,"temp":20.5,"humidity":90,"rain":0.0,"pressure":1010.0,"uv_index":7.7,"wind_gusts":12.2,"aqi":154,"pm10":62.4,"pm2_5":57.7,"mosquito_risk":3,"arthritis_risk":0,"migraine_risk":4,"frizz_risk":1,"updated_at":"2026-03-09T02:57:44.044333+05:30"},{"city":"Shillong","state":"Meghalaya","latitude":25.5788,"longitude":91.8933,"temp":11.4,"humidity":85,"rain":0.0,"pressure":857.0,"uv_index":5.65,"wind_gusts":24.5,"aqi":117,"pm10":43.0,"pm2_5":37.8,"mosquito_risk":3,"arthritis_risk":10,"migraine_risk":3,"frizz_risk":0,"updated_at":"2026-03-09T02:57:44.044339+05:30"},{"city":"Imphal","state":"Manipur","latitude":24.817,"longitude":93.9368,"temp":16.4,"humidity":91,"rain":0.0,"pressure":926.0,"uv_index":7.95,"wind_gusts":25.9,"aqi":160,"pm10":115.9,"pm2_5":110.8,"mosquito_risk":3,"arthritis_risk":10,"migraine_risk":7,"frizz_risk":0,"updated_at":"2026-03-09T02:57:44.044346+05:30"},{"city":"Aizawl","state":"Mizoram","latitude":23.7271,"longitude":92.7176,"temp":15.9,"humidity":84,"rain":0.0,"pressure":894.4,"uv_index":7.85,"wind_gusts":25.2,"aqi":154,"pm10":80.6,"pm2_5":73.8,"mosquito_risk":3,"arthritis_risk":10,"migraine_risk":7,"frizz_risk":0,"updated_at":"2026-03-09T02:57:44.044352+05:30"},{"city":"Kohima","state":"Nagaland","latitude":25.6701,"longitude":94.1077,"temp":14.0,"humidity":87,"rain":0.0,"pressure":856.8,"uv_index":6.9,"wind_gusts":53.3,"aqi":160,"pm10":78.7,"pm2_5":74.0,"mosquito_risk":3,"arthritis_risk":10,"migraine_risk":7,"frizz_risk":0,"updated_at":"2026-03-09T02:57:44.044358+05:30"},{"city":"Gangtok","state":"Sikkim","latitude":27.3314,"longitude":88.6138,"temp":13.1,"humidity":79,"rain":0.0,"pressure":838.5,"uv_index":3.1,"wind_gusts":20.2,"aqi":152,"pm10":83.4,"pm2_5":66.1,"mosquito_risk":3,"arthritis_risk":5,"migraine_risk":3,"frizz_risk":0,"updated_at":"2026-03-09T02:57:44.044365+05:30"},{"city":"Siliguri","state":"West Bengal","latitude":26.7271,"longitude":88.3953,"temp":20.8,"humidity":63,"rain":0.1,"pressure":997.9,"uv_index":7.35,"wind_gusts":15.8,"aqi":155,"pm10":93.6,"pm2_5":71.7,"mosquito_risk":6,"arthritis_risk":5,"migraine_risk":7,"frizz_risk":0,"updated_at":"2026-03-09T02:57:47.375765+05:30"},{"city":"Durgapur","state":"West Bengal","latitude":23.5204,"longitude":87.3119,"temp":23.8,"humidity":91,"rain":0.0,"pressure":998.4,"uv_index":7.55,"wind_gusts":23.8,"aqi":162,"pm10":64.7,"pm2_5":61.2,"mosquito_risk":3,"arthritis_risk":5,"migraine_risk":7,"frizz_risk":1,"updated_at":"2026-03-09T02:57:47.375799+05:30"},{"city":"Asansol","state":"West Bengal","latitude":23.6739,"longitude":86.9524,"temp":24.2,"humidity":89,"rain":0.0,"pressure":997.0,"uv_index":7.55,"wind_gusts":20.9,"aqi":162,"pm10":69.4,"pm2_5":64.7,"mosquito_risk":3,"arthritis_risk":5,"migraine_risk":7,"frizz_risk":1,"updated_at":"2026-03-09T02:57:47.375811+05:30"},{"city":"Pondicherry","state":"Puducherry","latitude":11.9139,"longitude":79.8145,"temp":23.4,"humidity":96,"rain":0.0,"pressure":1009.6,"uv_index":8.95,"wind_gusts":32.0,"aqi":68,"pm10":27.1,"pm2_5":19.5,"mosquito_risk":3,"arthritis_risk":0,"migraine_risk":4,"frizz_risk":1,"updated_at":"2026-03-09T02:57:47.375821+05:30"},{"city":"Port Blair","state":"Andaman and Nicobar Islands","latitude":11.6234,"longitude":92.7265,"temp":27.0,"humidity":82,"rain":0.0,"pressure":1007.6,"uv_index":8.9,"wind_gusts":27.0,"aqi":85,"pm10":40.7,"pm2_5":31.8,"mosquito_risk":7,"arthritis_risk":5,"migraine_risk":4,"frizz_risk":1,"updated_at":"2026-03-09T02:57:47.375831+05:30"},{"city":"Haridwar","state":"Uttarakhand","latitude":29.9457,"longitude":78.1642,"temp":20.0,"humidity":90,"rain":0.0,"pressure":976.2,"uv_index":5.8,"wind_gusts":28.8,"aqi":159,"pm10":101.7,"pm2_5":85.2,"mosquito_risk":3,"arthritis_risk":5,"migraine_risk":3,"frizz_risk":1,"updated_at":"2026-03-09T02:57:47.375839+05:30"},{"city":"Rishikesh","state":"Uttarakhand","latitude":30.0869,"longitude":78.2676,"temp":20.3,"humidity":88,"rain":0.0,"pressure":969.0,"uv_index":5.85,"wind_gusts":28.1,"aqi":155,"pm10":71.7,"pm2_5":64.3,"mosquito_risk":3,"arthritis_risk":5,"migraine_risk":3,"frizz_risk":1,"updated_at":"2026-03-09T02:57:47.375850+05:30"},{"city":"Nainital","state":"Uttarakhand","latitude":29.3919,"longitude":79.4542,"temp":17.3,"humidity":79,"rain":0.0,"pressure":807.1,"uv_index":6.7,"wind_gusts":54.4,"aqi":159,"pm10":85.9,"pm2_5":72.2,"mosquito_risk":3,"arthritis_risk":5,"migraine_risk":7,"frizz_risk":0,"updated_at":"2026-03-09T02:57:47.375860+05:30"},{"city":"Mussoorie","state":"Uttarakhand","latitude":30.4599,"longitude":78.0664,"temp":16.5,"humidity":63,"rain":0.0,"pressure":804.1,"uv_index":6.2,"wind_gusts":40.0,"aqi":154,"pm10":61.7,"pm2_5":56.0,"mosquito_risk":3,"arthritis_risk":5,"migraine_risk":7,"frizz_risk":0,"updated_at":"2026-03-09T02:57:47.375870+05:30"},{"city":"Dharamshala","state":"Himachal Pradesh","latitude":32.219,"longitude":76.3234,"temp":21.1,"humidity":32,"rain":0.0,"pressure":872.1,"uv_index":6.25,"wind_gusts":23.8,"aqi":54,"pm10":31.7,"pm2_5":13.9,"mosquito_risk":0,"arthritis_risk":5,"migraine_risk":7,"frizz_risk":0,"updated_at":"2026-03-09T02:57:47.375878+05:30"},{"city":"Dalhousie","state":"Himachal Pradesh","latitude":32.5387,"longitude":75.971,"temp":17.4,"humidity":37,"rain":0.0,"pressure":806.4,"uv_index":6.65,"wind_gusts":24.5,"aqi":81,"pm10":34.8,"pm2_5":28.9,"mosquito_risk":0,"arthritis_risk":5,"migraine_risk":7,"frizz_risk":0,"updated_at":"2026-03-09T02:57:47.375889+05:30"},{"city":"Patiala","state":"Punjab","latitude":30.3398,"longitude":76.3869,"temp":19.9,"humidity":87,"rain":0.0,"pressure":980.6,"uv_index":5.65,"wind_gusts":22.3,"aqi":165,"pm10":328.8,"pm2_5":81.0,"mosquito_risk":3,"arthritis_risk":10,"migraine_risk":3,"frizz_risk":1,"updated_at":"2026-03-09T02:57:47.375897+05:30"},{"city":"Bhatinda","state":"Punjab","latitude":30.211,"longitude":74.9455,"temp":21.6,"humidity":79,"rain":0.0,"pressure":986.5,"uv_index":5.95,"wind_gusts":19.4,"aqi":151,"pm10":89.9,"pm2_5":61.9,"mosquito_risk":3,"arthritis_risk":5,"migraine_risk":3,"frizz_risk":1,"updated_at":"2026-03-09T02:57:47.375906+05:30"},{"city":"Rohtak","state":"Haryana","latitude":28.8955,"longitude":76.6066,"temp":18.9,"humidity":86,"rain":0.0,"pressure":984.0,"uv_index":6.05,"wind_gusts":26.3,"aqi":179,"pm10":301.7,"pm2_5":87.5,"mosquito_risk":3,"arthritis_risk":10,"migraine_risk":7,"frizz_risk":1,"updated_at":"2026-03-09T02:57:47.375936+05:30"},{"city":"Panipat","state":"Haryana","latitude":29.3909,"longitude":76.9635,"temp":19.6,"humidity":88,"rain":0.0,"pressure":982.6,"uv_index":5.8,"wind_gusts":25.6,"aqi":362,"pm10":583.0,"pm2_5":104.5,"mosquito_risk":3,"arthritis_risk":10,"migraine_risk":3,"frizz_risk":1,"updated_at":"2026-03-09T02:57:47.375945+05:30"},{"city":"Mathura","state":"Uttar Pradesh","latitude":27.4924,"longitude":77.6737,"temp":19.6,"humidity":72,"rain":0.0,"pressure":989.2,"uv_index":6.25,"wind_gusts":24.5,"aqi":160,"pm10":273.8,"pm2_5":73.8,"mosquito_risk":3,"arthritis_risk":5,"migraine_risk":7,"frizz_risk":0,"updated_at":"2026-03-09T02:57:47.375954+05:30"},{"city":"Vrindavan","state":"Uttar Pradesh","latitude":27.5823,"longitude":77.7027,"temp":17.2,"humidity":82,"rain":0.0,"pressure":989.7,"uv_index":6.2,"wind_gusts":25.9,"aqi":160,"pm10":273.8,"pm2_5":73.8,"mosquito_risk":3,"arthritis_risk":10,"migraine_risk":7,"frizz_risk":0,"updated_at":"2026-03-09T02:57:47.375962+05:30"},{"city":"Ayodhya","state":"Uttar Pradesh","latitude":26.7922,"longitude":82.1998,"temp":21.2,"humidity":89,"rain":0.0,"pressure":998.1,"uv_index":6.7,"wind_gusts":18.4,"aqi":182,"pm10":118.3,"pm2_5":106.4,"mosquito_risk":3,"arthritis_risk":5,"migraine_risk":7,"frizz_risk":1,"updated_at":"2026-03-09T02:57:47.375970+05:30"},{"city":"Ratlam","state":"Madhya Pradesh","latitude":23.3315,"longitude":75.0367,"temp":19.0,"humidity":85,"rain":0.0,"pressure":956.0,"uv_index":7.5,"wind_gusts":14.8,"aqi":84,"pm10":33.2,"pm2_5":31.7,"mosquito_risk":3,"arthritis_risk":10,"migraine_risk":7,"frizz_risk":1,"updated_at":"2026-03-09T02:57:47.375978+05:30"},{"city":"Sagar","state":"Madhya Pradesh","latitude":23.8388,"longitude":78.7378,"temp":21.4,"humidity":53,"rain":0.0,"pressure":952.0,"uv_index":7.5,"wind_gusts":18.4,"aqi":79,"pm10":48.9,"pm2_5":25.9,"mosquito_risk":0,"arthritis_risk":5,"migraine_risk":7,"frizz_risk":0,"updated_at":"2026-03-09T02:57:47.375986+05:30"},{"city":"Satna","state":"Madhya Pradesh","latitude":24.6005,"longitude":80.8322,"temp":20.9,"humidity":69,"rain":0.0,"pressure":973.7,"uv_index":7.45,"wind_gusts":24.8,"aqi":155,"pm10":90.1,"pm2_5":65.0,"mosquito_risk":3,"arthritis_risk":5,"migraine_risk":7,"frizz_risk":0,"updated_at":"2026-03-09T02:57:47.375994+05:30"},{"city":"Akola","state":"Maharashtra","latitude":20.7002,"longitude":77.0082,"temp":23.8,"humidity":48,"rain":0.0,"pressure":976.2,"uv_index":7.95,"wind_gusts":17.6,"aqi":74,"pm10":37.1,"pm2_5":29.2,"mosquito_risk":0,"arthritis_risk":5,"migraine_risk":7,"frizz_risk":0,"updated_at":"2026-03-09T02:57:47.376003+05:30"},{"city":"Amravati","state":"Maharashtra","latitude":20.9374,"longitude":77.7796,"temp":22.1,"humidity":50,"rain":0.0,"pressure":968.2,"uv_index":7.9,"wind_gusts":23.4,"aqi":70,"pm10":34.8,"pm2_5":24.9,"mosquito_risk":0,"arthritis_risk":5,"migraine_risk":7,"frizz_risk":0,"updated_at":"2026-03-09T02:57:47.376017+05:30"},{"city":"Latur","state":"Maharashtra","latitude":18.4088,"longitude":76.5604,"temp":24.0,"humidity":48,"rain":0.0,"pressure":940.1,"uv_index":8.4,"wind_gusts":26.6,"aqi":89,"pm10":48.0,"pm2_5":37.6,"mosquito_risk":0,"arthritis_risk":5,"migraine_risk":7,"frizz_risk":0,"updated_at":"2026-03-09T02:57:47.376024+05:30"},{"city":"Nanded","state":"Maharashtra","latitude":19.1383,"longitude":77.3091,"temp":22.7,"humidity":56,"rain":0.0,"pressure":969.2,"uv_index":8.15,"wind_gusts":24.8,"aqi":83,"pm10":32.8,"pm2_5":24.9,"mosquito_risk":0,"arthritis_risk":5,"migraine_risk":7,"frizz_risk":0,"updated_at":"2026-03-09T02:57:47.376032+05:30"},{"city":"Gulbarga","state":"Karnataka","latitude":17.3297,"longitude":76.8343,"temp":24.5,"humidity":47,"rain":0.0,"pressure":959.3,"uv_index":8.5,"wind_gusts":31.3,"aqi":79,"pm10":33.6,"pm2_5":27.5,"mosquito_risk":0,"arthritis_risk":5,"migraine_risk":7,"frizz_risk":0,"updated_at":"2026-03-09T02:57:47.376039+05:30"},{"city":"Bidar","state":"Karnataka","latitude":17.9104,"longitude":77.5199,"temp":22.8,"humidity":58,"rain":0.0,"pressure":935.7,"uv_index":8.45,"wind_gusts":32.4,"aqi":98,"pm10":61.0,"pm2_5":49.5,"mosquito_risk":0,"arthritis_risk":5,"migraine_risk":7,"frizz_risk":0,"updated_at":"2026-03-09T02:57:47.376047+05:30"},{"city":"Hospet","state":"Karnataka","latitude":15.2689,"longitude":76.3909,"temp":26.7,"humidity":52,"rain":0.0,"pressure":955.7,"uv_index":8.8,"wind_gusts":37.4,"aqi":94,"pm10":44.0,"pm2_5":34.2,"mosquito_risk":4,"arthritis_risk":5,"migraine_risk":7,"frizz_risk":0,"updated_at":"2026-03-09T02:57:47.376054+05:30"},{"city":"Tirupur","state":"Tamil Nadu","latitude":11.1085,"longitude":77.3411,"temp":25.4,"humidity":84,"rain":0.0,"pressure":975.7,"uv_index":9.25,"wind_gusts":35.6,"aqi":113,"pm10":38.0,"pm2_5":31.1,"mosquito_risk":7,"arthritis_risk":5,"migraine_risk":7,"frizz_risk":1,"updated_at":"2026-03-09T02:57:47.376063+05:30"},{"city":"Alappuzha","state":"Kerala","latitude":9.4981,"longitude":76.3388,"temp":26.4,"humidity":84,"rain":0.0,"pressure":1009.0,"uv_index":8.95,"wind_gusts":25.6,"aqi":113,"pm10":39.3,"pm2_5":36.8,"mosquito_risk":7,"arthritis_risk":0,"migraine_risk":4,"frizz_risk":1,"updated_at":"2026-03-09T02:57:47.376071+05:30"},{"city":"Munnar","state":"Kerala","latitude":10.0889,"longitude":77.0595,"temp":17.7,"humidity":89,"rain":0.0,"pressure":855.3,"uv_index":9.55,"wind_gusts":21.6,"aqi":105,"pm10":47.4,"pm2_5":40.6,"mosquito_risk":3,"arthritis_risk":10,"migraine_risk":7,"frizz_risk":0,"updated_at":"2026-03-09T02:57:47.376080+05:30"},{"city":"Silchar","state":"Assam","latitude":24.8333,"longitude":92.7789,"temp":22.1,"humidity":90,"rain":0.0,"pressure":1009.2,"uv_index":7.65,"wind_gusts":23.0,"aqi":162,"pm10":101.7,"pm2_5":93.6,"mosquito_risk":3,"arthritis_risk":0,"migraine_risk":4,"frizz_risk":1,"updated_at":"2026-03-09T02:57:47.376086+05:30"},{"city":"Dibrugarh","state":"Assam","latitude":27.4728,"longitude":94.912,"temp":22.5,"humidity":86,"rain":0.0,"pressure":1000.2,"uv_index":7.4,"wind_gusts":21.6,"aqi":154,"pm10":66.8,"pm2_5":60.5,"mosquito_risk":3,"arthritis_risk":5,"migraine_risk":4,"frizz_risk":1,"updated_at":"2026-03-09T02:57:47.376093+05:30"}]