[{"city":"Delhi","state":"Delhi","latitude":28.6139,"longitude":77.209,"temp":33.6,"humidity":35,"rain":0.0,"pressure":984.6,"uv_index":6.9,"wind_gusts":18.0,"aqi":128,"pm10":119.7,"pm2_5":29.7,"mosquito_risk":0,"arthritis_risk":5,"migraine_risk":7,"frizz_risk":0,"updated_at":"2026-04-02T14:31:59.510831+05:30"},{"city":"Mumbai","state":"Maharashtra","latitude":19.076,"longitude":72.8777,"temp":27.6,"humidity":75,"rain":0.0,"pressure":1008.9,"uv_index":7.55,"wind_gusts":19.8,"aqi":65,"pm10":26.7,"pm2_5":18.7,"mosquito_risk":7,"arthritis_risk":0,"migraine_risk":4,"frizz_risk":1,"updated_at":"2026-04-02T14:31:59.510874+05:30"},{"city":"Bangalore","state":"Karnataka","latitude":12.9716,"longitude":77.5946,"temp":33.2,"humidity":29,"rain":0.0,"pressure":912.8,"uv_index":9.6,"wind_gusts":23.4,"aqi":52,"pm10":11.8,"pm2_5":8.1,"mosquito_risk":0,"arthritis_risk":5,"migraine_risk":7,"frizz_risk":0,"updated_at":"2026-04-02T14:31:59.510889+05:30"},{"city":"Hyderabad","state":"Telangana","latitude":17.385,"longitude":78.4867,"temp":35.1,"humidity":30,"rain":0.0,"pressure":954.6,"uv_index":9.15,"wind_gusts":26.6,"aqi":63,"pm10":21.5,"pm2_5":16.0,"mosquito_risk":0,"arthritis_risk":5,"migraine_risk":10,"frizz_risk":0,"updated_at":"2026-04-02T14:31:59.510898+05:30"},{"city":"Chennai","state":"Tamil Nadu","latitude":13.0827,"longitude":80.2707,"temp":33.4,"humidity":53,"rain":0.0,"pressure":1008.4,"uv_index":9.3,"wind_gusts":31.0,"aqi":37,"pm10":13.7,"pm2_5":10.7,"mosquito_risk":0,"arthritis_risk":0,"migraine_risk":4,"frizz_risk":1,"updated_at":"2026-04-02T14:31:59.510907+05:30"},{"city":"Kolkata","state":"West Bengal","latitude":22.5726,"longitude":88.3639,"temp":35.1,"humidity":49,"rain":0.0,"pressure":1005.8,"uv_index":8.6,"wind_gusts":24.5,"aqi":87,"pm10":44.7,"pm2_5":34.2,"mosquito_risk":0,"arthritis_risk":5,"migraine_risk":7,"frizz_risk":1,"updated_at":"2026-04-02T14:31:59.510915+05:30"},{"city":"Pune","state":"Maharashtra","latitude":18.5204,"longitude":73.8567,"temp":30.2,"humidity":65,"rain":0.0,"pressure":949.5,"uv_index":8.45,"wind_gusts":24.8,"aqi":115,"pm10":51.2,"pm2_5":43.3,"mosquito_risk":3,"arthritis_risk":5,"migraine_risk":7,"frizz_risk":1,"updated_at":"2026-04-02T14:31:59.510931+05:30"},{"city":"Ahmedabad","state":"Gujarat","latitude":23.0225,"longitude":72.5714,"temp":35.7,"humidity":29,"rain":0.0,"pressure":1001.8,"uv_index":7.9,"wind_gusts":38.5,"aqi":57,"pm10":28.5,"pm2_5":15.7,"mosquito_risk":0,"arthritis_risk":5,"migraine_risk":7,"frizz_risk":0,"updated_at":"2026-04-02T14:31:59.510939+05:30"},{"city":"Jaipur","state":"Rajasthan","latitude":26.9124,"longitude":75.7873,"temp":34.7,"humidity":32,"rain":0.0,"pressure":960.1,"uv_index":7.55,"wind_gusts":34.6,"aqi":101,"pm10":139.2,"pm2_5":23.3,"mosquito_risk":0,"arthritis_risk":5,"migraine_risk":7,"frizz_risk":0,"updated_at":"2026-04-02T14:31:59.510946+05:30"},{"city":"Lucknow","state":"Uttar Pradesh","latitude":26.8467,"longitude":80.9462,"temp":37.8,"humidity":22,"rain":0.0,"pressure":993.9,"uv_index":7.25,"wind_gusts":32.4,"aqi":72,"pm10":48.4,"pm2_5":17.8,"mosquito_risk":0,"arthritis_risk":5,"migraine_risk":10,"frizz_risk":0,"updated_at":"2026-04-02T14:31:59.510953+05:30"},{"city":"Kanpur","state":"Uttar Pradesh","latitude":26.4499,"longitude":80.3319,"temp":36.1,"humidity":28,"rain":0.0,"pressure":992.7,"uv_index":6.85,"wind_gusts":23.0,"aqi":99,"pm10":177.9,"pm2_5":30.5,"mosquito_risk":0,"arthritis_risk":5,"migraine_risk":10,"frizz_risk":0,"updated_at":"2026-04-02T14:31:59.510960+05:30"},{"city":"Chandigarh","state":"Chandigarh","latitude":30.7333,"longitude":76.7794,"temp":31.8,"humidity":35,"rain":0.0,"pressure":971.0,"uv_index":6.65,"wind_gusts":22.0,"aqi":72,"pm10":52.7,"pm2_5":15.5,"mosquito_risk":0,"arthritis_risk":5,"migraine_risk":7,"frizz_risk":0,"updated_at":"2026-04-02T14:31:59.510967+05:30"},{"city":"Srinagar","state":"Jammu and Kashmir","latitude":34.0837,"longitude":74.7973,"temp":16.6,"humidity":64,"rain":0.0,"pressure":846.0,"uv_index":6.8,"wind_gusts":14.4,"aqi":111,"pm10":36.4,"pm2_5":19.3,"mosquito_risk":3,"arthritis_risk":5,"migraine_risk":7,"frizz_risk":0,"updated_at":"2026-04-02T14:31:59.510974+05:30"},{"city":"Jammu","state":"Jammu and Kashmir","latitude":32.7266,"longitude":74.857,"temp":33.4,"humidity":26,"rain":0.0,"pressure":975.0,"uv_index":7.35,"wind_gusts":19.8,"aqi":81,"pm10":67.1,"pm2_5":17.3,"mosquito_risk":0,"arthritis_risk":5,"migraine_risk":7,"frizz_risk":0,"updated_at":"2026-04-02T14:31:59.510981+05:30"},{"city":"Amritsar","state":"Punjab","latitude":31.634,"longitude":74.8723,"temp":32.4,"humidity":32,"rain":0.0,"pressure":983.0,"uv_index":7.35,"wind_gusts":20.9,"aqi":96,"pm10":77.3,"pm2_5":19.2,"mosquito_risk":0,"arthritis_risk":5,"migraine_risk":7,"frizz_risk":0,"updated_at":"2026-04-02T14:31:59.510987+05:30"},{"city":"Ludhiana","state":"Punjab","latitude":30.901,"longitude":75.8573,"temp":32.9,"humidity":33,"rain":0.0,"pressure":980.8,"uv_index":7.0,"wind_gusts":20.2,"aqi":130,"pm10":83.6,"pm2_5":24.0,"mosquito_risk":0,"arthritis_risk":5,"migraine_risk":7,"frizz_risk":0,"updated_at":"2026-04-02T14:31:59.510994+05:30"},{"city":"Jalandhar","state":"Punjab","latitude":31.326,"longitude":75.5762,"temp":33.2,"humidity":29,"rain":0.0,"pressure":981.8,"uv_index":7.15,"wind_gusts":16.9,"aqi":100,"pm10":84.3,"pm2_5":23.2,"mosquito_risk":0,"arthritis_risk":5,"migraine_risk":7,"frizz_risk":0,"updated_at":"2026-04-02T14:31:59.511003+05:30"},{"city":"Dehradun","state":"Uttarakhand","latitude":30.6284,"longitude":78.0322,"temp":23.3,"humidity":33,"rain":0.0,"pressure":834.5,"uv_index":7.15,"wind_gusts":27.4,"aqi":43,"pm10":34.3,"pm2_5":8.9,"mosquito_risk":0,"arthritis_risk":5,"migraine_risk":7,"frizz_risk":0,"updated_at":"2026-04-02T14:31:59.511010+05:30"},{"city":"Shimla","state":"Himachal Pradesh","latitude":31.1048,"longitude":77.1734,"temp":21.4,"humidity":36,"rain":0.0,"pressure":789.7,"uv_index":7.15,"wind_gusts":31.3,"aqi":57,"pm10":42.7,"pm2_5":11.6,"mosquito_risk":0,"arthritis_risk":5,"migraine_risk":7,"frizz_risk":0,"updated_at":"2026-04-02T14:31:59.511016+05:30"},{"city":"Manali","state":"Himachal Pradesh","latitude":32.2396,"longitude":77.1887,"temp":21.4,"humidity":39,"rain":0.0,"pressure":824.9,"uv_index":9.05,"wind_gusts":26.6,"aqi":78,"pm10":14.1,"pm2_5":6.2,"mosquito_risk":0,"arthritis_risk":5,"migraine_risk":7,"frizz_risk":0,"updated_at":"2026-04-02T14:31:59.511023+05:30"},{"city":"Gurgaon","state":"Haryana","latitude":28.4595,"longitude":77.0266,"temp":32.9,"humidity":35,"rain":0.0,"pressure":983.4,"uv_index":6.95,"wind_gusts":18.4,"aqi":188,"pm10":304.5,"pm2_5":44.2,"mosquito_risk":0,"arthritis_risk":5,"migraine_risk":7,"frizz_risk":0,"updated_at":"2026-04-02T14:31:59.511029+05:30"},{"city":"Noida","state":"Uttar Pradesh","latitude":28.5355,"longitude":77.391,"temp":33.9,"humidity":34,"rain":0.0,"pressure":986.1,"uv_index":6.95,"wind_gusts":17.3,"aqi":188,"pm10":304.5,"pm2_5":44.2,"mosquito_risk":0,"arthritis_risk":5,"migraine_risk":7,"frizz_risk":0,"updated_at":"2026-04-02T14:31:59.511036+05:30"},{"city":"Ghaziabad","state":"Uttar Pradesh","latitude":28.6692,"longitude":77.4538,"temp":33.7,"humidity":37,"rain":0.0,"pressure":984.4,"uv_index":6.9,"wind_gusts":16.9,"aqi":114,"pm10":85.2,"pm2_5":23.1,"mosquito_risk":0,"arthritis_risk":5,"migraine_risk":7,"frizz_risk":1,"updated_at":"2026-04-02T14:31:59.511042+05:30"},{"city":"Faridabad","state":"Haryana","latitude":28.4089,"longitude":77.3178,"temp":34.3,"humidity":28,"rain":0.0,"pressure":985.3,"uv_index":6.95,"wind_gusts":19.8,"aqi":188,"pm10":304.5,"pm2_5":44.2,"mosquito_risk":0,"arthritis_risk":5,"migraine_risk":7,"frizz_risk":0,"updated_at":"2026-04-02T14:31:59.511048+05:30"},{"city":"Meerut","state":"Uttar Pradesh","latitude":28.9845,"longitude":77.7064,"temp":34.3,"humidity":33,"rain":0.0,"pressure":983.2,"uv_index":6.8,"wind_gusts":17.3,"aqi":114,"pm10":85.2,"pm2_5":23.1,"mosquito_risk":0,"arthritis_risk":5,"migraine_risk":7,"frizz_risk":0,"updated_at":"2026-04-02T14:31:59.511054+05:30"},{"city":"Agra","state":"Uttar Pradesh","latitude":27.1767,"longitude":78.0081,"temp":37.7,"humidity":27,"rain":0.0,"pressure":988.5,"uv_index":6.6,"wind_gusts":24.1,"aqi":180,"pm10":170.9,"pm2_5":34.5,"mosquito_risk":0,"arthritis_risk":5,"migraine_risk":10,"frizz_risk":0,"updated_at":"2026-04-02T14:31:59.511063+05:30"},{"city":"Varanasi","state":"Uttar Pradesh","latitude":25.3176,"longitude":82.9739,"temp":38.2,"humidity":27,"rain":0.0,"pressure":997.6,"uv_index":7.6,"wind_gusts":33.8,"aqi":85,"pm10":42.0,"pm2_5":18.5,"mosquito_risk":0,"arthritis_risk":5,"migraine_risk":10,"frizz_risk":0,"updated_at":"2026-04-02T14:31:59.511074+05:30"},{"city":"Prayagraj","state":"Uttar Pradesh","latitude":25.4358,"longitude":81.8463,"temp":38.1,"humidity":26,"rain":0.0,"pressure":996.4,"uv_index":7.5,"wind_gusts":24.5,"aqi":72,"pm10":45.3,"pm2_5":19.2,"mosquito_risk":0,"arthritis_risk":5,"migraine_risk":10,"frizz_risk":0,"updated_at":"2026-04-02T14:31:59.511081+05:30"},{"city":"Gorakhpur","state":"Uttar Pradesh","latitude":26.7606,"longitude":83.3732,"temp":38.5,"humidity":14,"rain":0.0,"pressure":996.4,"uv_index":7.8,"wind_gusts":41.0,"aqi":78,"pm10":21.9,"pm2_5":10.6,"mosquito_risk":0,"arthritis_risk":5,"migraine_risk":10,"frizz_risk":0,"updated_at":"2026-04-02T14:31:59.511087+05:30"},{"city":"Bareilly","state":"Uttar Pradesh","latitude":28.367,"longitude":79.4304,"temp":35.3,"humidity":28,"rain":0.0,"pressure":988.0,"uv_index":7.2,"wind_gusts":28.4,"aqi":83,"pm10":36.7,"pm2_5":12.2,"mosquito_risk":0,"arthritis_risk":5,"migraine_risk":10,"frizz_risk":0,"updated_at":"2026-04-02T14:31:59.511093+05:30"},{"city":"Aligarh","state":"Uttar Pradesh","latitude":27.8974,"longitude":78.088,"temp":35.8,"humidity":27,"rain":0.0,"pressure":987.1,"uv_index":7.05,"wind_gusts":15.5,"aqi":130,"pm10":101.0,"pm2_5":23.2,"mosquito_risk":0,"arthritis_risk":5,"migraine_risk":10,"frizz_risk":0,"updated_at":"2026-04-02T14:31:59.511100+05:30"},{"city":"Moradabad","state":"Uttar Pradesh","latitude":28.8386,"longitude":78.7733,"temp":35.1,"humidity":26,"rain":0.0,"pressure":985.0,"uv_index":7.0,"wind_gusts":25.6,"aqi":95,"pm10":51.7,"pm2_5":15.4,"mosquito_risk":0,"arthritis_risk":5,"migraine_risk":10,"frizz_risk":0,"updated_at":"2026-04-02T14:31:59.511106+05:30"},{"city":"Saharanpur","state":"Uttar Pradesh","latitude":29.9637,"longitude":77.546,"temp":32.7,"humidity":32,"rain":0.0,"pressure":977.7,"uv_index":6.5,"wind_gusts":22.0,"aqi":95,"pm10":54.4,"pm2_5":15.7,"mosquito_risk":0,"arthritis_risk":5,"migraine_risk":7,"frizz_risk":0,"updated_at":"2026-04-02T14:31:59.511112+05:30"},{"city":"Jhansi","state":"Uttar Pradesh","latitude":25.4484,"longitude":78.5685,"temp":38.3,"humidity":23,"rain":0.0,"pressure":978.0,"uv_index":6.4,"wind_gusts":28.1,"aqi":73,"pm10":33.6,"pm2_5":23.2,"mosquito_risk":0,"arthritis_risk":5,"migraine_risk":10,"frizz_risk":0,"updated_at":"2026-04-02T14:32:02.860457+05:30"},{"city":"Surat","state":"Gujarat","latitude":21.1702,"longitude":72.8311,"temp":31.3,"humidity":48,"rain":0.0,"pressure":1007.3,"uv_index":7.6,"wind_gusts":32.0,"aqi":87,"pm10":39.3,"pm2_5":32.6,"mosquito_risk":0,"arthritis_risk":5,"migraine_risk":4,"frizz_risk":1,"updated_at":"2026-04-02T14:32:02.860494+05:30"},{"city":"Vadodara","state":"Gujarat","latitude":22.3072,"longitude":73.1812,"temp":36.6,"humidity":31,"rain":0.0,"pressure":1004.0,"uv_index":7.7,"wind_gusts":35.3,"aqi":69,"pm10":28.6,"pm2_5":17.9,"mosquito_risk":0,"arthritis_risk":5,"migraine_risk":7,"frizz_risk":1,"updated_at":"2026-04-02T14:32:02.860507+05:30"},{"city":"Rajkot","state":"Gujarat","latitude":22.3039,"longitude":70.8022,"temp":34.3,"humidity":34,"rain":0.0,"pressure":994.5,"uv_index":6.8,"wind_gusts":42.8,"aqi":56,"pm10":26.0,"pm2_5":13.3,"mosquito_risk":0,"arthritis_risk":5,"migraine_risk":7,"frizz_risk":1,"updated_at":"2026-04-02T14:32:02.860517+05:30"},{"city":"Thane","state":"Maharashtra","latitude":19.2183,"longitude":72.9781,"temp":31.5,"humidity":53,"rain":0.0,"pressure":1008.4,"uv_index":7.3,"wind_gusts":30.2,"aqi":65,"pm10":26.7,"pm2_5":18.7,"mosquito_risk":0,"arthritis_risk":0,"migraine_risk":4,"frizz_risk":1,"updated_at":"2026-04-02T14:32:02.860526+05:30"},{"city":"Nagpur","state":"Maharashtra","latitude":21.1458,"longitude":79.0882,"temp":35.0,"humidity":38,"rain":0.0,"pressure":974.5,"uv_index":8.15,"wind_gusts":34.6,"aqi":92,"pm10":51.9,"pm2_5":39.9,"mosquito_risk":0,"arthritis_risk":5,"migraine_risk":7,"frizz_risk":1,"updated_at":"2026-04-02T14:32:02.860536+05:30"},{"city":"Nashik","state":"Maharashtra","latitude":19.9975,"longitude":73.7898,"temp":33.0,"humidity":39,"rain":0.0,"pressure":946.2,"uv_index":8.15,"wind_gusts":37.8,"aqi":67,"pm10":26.5,"pm2_5":20.7,"mosquito_risk":0,"arthritis_risk":5,"migraine_risk":7,"frizz_risk":1,"updated_at":"2026-04-02T14:32:02.860545+05:30"},{"city":"Aurangabad","state":"Maharashtra","latitude":19.8762,"longitude":75.3433,"temp":32.6,"humidity":42,"rain":0.0,"pressure":945.3,"uv_index":8.85,"wind_gusts":28.1,"aqi":108,"pm10":48.8,"pm2_5":39.8,"mosquito_risk":0,"arthritis_risk":5,"migraine_risk":7,"frizz_risk":1,"updated_at":"2026-04-02T14:32:02.860553+05:30"},{"city":"Solapur","state":"Maharashtra","latitude":17.6599,"longitude":75.9064,"temp":36.3,"humidity":31,"rain":0.0,"pressure":957.6,"uv_index":8.9,"wind_gusts":46.1,"aqi":120,"pm10":21.9,"pm2_5":16.9,"mosquito_risk":0,"arthritis_risk":5,"migraine_risk":10,"frizz_risk":1,"updated_at":"2026-04-02T14:32:02.860563+05:30"},{"city":"Kolhapur","state":"Maharashtra","latitude":16.705,"longitude":74.2433,"temp":30.5,"humidity":56,"rain":0.0,"pressure":948.5,"uv_index":8.95,"wind_gusts":34.9,"aqi":133,"pm10":38.1,"pm2_5":32.1,"mosquito_risk":0,"arthritis_risk":5,"migraine_risk":7,"frizz_risk":1,"updated_at":"2026-04-02T14:32:02.860573+05:30"},{"city":"Goa","state":"Goa","latitude":15.2993,"longitude":74.124,"temp":32.7,"humidity":61,"rain":0.0,"pressure":998.1,"uv_index":8.85,"wind_gusts":31.3,"aqi":75,"pm10":30.0,"pm2_5":22.2,"mosquito_risk":3,"arthritis_risk":5,"migraine_risk":7,"frizz_risk":1,"updated_at":"2026-04-02T14:32:02.860582+05:30"},{"city":"Jodhpur","state":"Rajasthan","latitude":26.2389,"longitude":73.0243,"temp":33.3,"humidity":29,"rain":0.0,"pressure":983.1,"uv_index":7.75,"wind_gusts":37.8,"aqi":73,"pm10":75.9,"pm2_5":13.1,"mosquito_risk":0,"arthritis_risk":5,"migraine_risk":7,"frizz_risk":0,"updated_at":"2026-04-02T14:32:02.860589+05:30"},{"city":"Udaipur","state":"Rajasthan","latitude":24.5854,"longitude":73.7125,"temp":33.3,"humidity":24,"rain":0.0,"pressure":947.0,"uv_index":8.3,"wind_gusts":39.6,"aqi":45,"pm10":11.4,"pm2_5":5.8,"mosquito_risk":0,"arthritis_risk":5,"migraine_risk":7,"frizz_risk":0,"updated_at":"2026-04-02T14:32:02.860597+05:30"},{"city":"Kota","state":"Rajasthan","latitude":25.2138,"longitude":75.8648,"temp":37.8,"humidity":19,"rain":0.0,"pressure":978.6,"uv_index":7.85,"wind_gusts":29.5,"aqi":72,"pm10":39.8,"pm2_5":14.0,"mosquito_risk":0,"arthritis_risk":5,"migraine_risk":10,"frizz_risk":0,"updated_at":"2026-04-02T14:32:02.860604+05:30"},{"city":"Bikaner","state":"Rajasthan","latitude":28.0229,"longitude":73.3119,"temp":36.3,"humidity":18,"rain":0.0,"pressure":981.0,"uv_index":7.3,"wind_gusts":42.5,"aqi":62,"pm10":55.4,"pm2_5":14.5,"mosquito_risk":0,"arthritis_risk":5,"migraine_risk":10,"frizz_risk":0,"updated_at":"2026-04-02T14:32:02.860611+05:30"},{"city":"Ajmer","state":"Rajasthan","latitude":26.4499,"longitude":74.6399,"temp":33.7,"humidity":24,"rain":0.0,"pressure":954.8,"uv_index":7.4,"wind_gusts":31.3,"aqi":66,"pm10":34.0,"pm2_5":9.9,"mosquito_risk":0,"arthritis_risk":5,"migraine_risk":7,"frizz_risk":0,"updated_at":"2026-04-02T14:32:02.860618+05:30"},{"city":"Gwalior","state":"Madhya Pradesh","latitude":26.2183,"longitude":78.1828,"temp":36.8,"humidity":32,"rain":0.0,"pressure":983.4,"uv_index":6.35,"wind_gusts":23.4,"aqi":69,"pm10":43.8,"pm2_5":20.3,"mosquito_risk":0,"arthritis_risk":5,"migraine_risk":10,"frizz_risk":1,"updated_at":"2026-04-02T14:32:02.860625+05:30"},{"city":"Indore","state":"Madhya Pradesh","latitude":22.7196,"longitude":75.8577,"temp":35.4,"humidity":21,"rain":0.0,"pressure":949.0,"uv_index":8.3,"wind_gusts":41.0,"aqi":88,"pm10":38.9,"pm2_5":29.4,"mosquito_risk":0,"arthritis_risk":5,"migraine_risk":10,"frizz_risk":0,"updated_at":"2026-04-02T14:32:02.860632+05:30"},{"city":"Bhopal","state":"Madhya Pradesh","latitude":23.2599,"longitude":77.4126,"temp":35.8,"humidity":27,"rain":0.0,"pressure":955.0,"uv_index":7.95,"wind_gusts":34.6,"aqi":85,"pm10":37.5,"pm2_5":27.9,"mosquito_risk":0,"arthritis_risk":5,"migraine_risk":10,"frizz_risk":0,"updated_at":"2026-04-02T14:32:02.860639+05:30"},{"city":"Jabalpur","state":"Madhya Pradesh","latitude":23.1815,"longitude":79.9864,"temp":36.0,"humidity":28,"rain":0.0,"pressure":962.9,"uv_index":7.85,"wind_gusts":29.5,"aqi":88,"pm10":35.0,"pm2_5":24.5,"mosquito_risk":0,"arthritis_risk":5,"migraine_risk":10,"frizz_risk":0,"updated_at":"2026-04-02T14:32:02.860646+05:30"},{"city":"Ujjain","state":"Madhya Pradesh","latitude":23.1765,"longitude":75.7885,"temp":35.3,"humidity":26,"rain":0.0,"pressure":954.5,"uv_index":8.2,"wind_gusts":31.0,"aqi":74,"pm10":34.1,"pm2_5":25.4,"mosquito_risk":0,"arthritis_risk":5,"migraine_risk":10,"frizz_risk":0,"updated_at":"2026-04-02T14:32:02.860654+05:30"},{"city":"Visakhapatnam","state":"Andhra Pradesh","latitude":17.6868,"longitude":83.2185,"temp":33.5,"humidity":44,"rain":0.0,"pressure":1004.9,"uv_index":9.05,"wind_gusts":35.3,"aqi":53,"pm10":13.4,"pm2_5":10.5,"mosquito_risk":0,"arthritis_risk":5,"migraine_risk":4,"frizz_risk":1,"updated_at":"2026-04-02T14:32:02.860661+05:30"},{"city":"Vijayawada","state":"Andhra Pradesh","latitude":16.5062,"longitude":80.648,"temp":35.5,"humidity":41,"rain":0.0,"pressure":1003.2,"uv_index":9.15,"wind_gusts":27.4,"aqi":45,"pm10":14.1,"pm2_5":10.2,"mosquito_risk":0,"arthritis_risk":5,"migraine_risk":7,"frizz_risk":1,"updated_at":"2026-04-02T14:32:02.860668+05:30"},{"city":"Guntur","state":"Andhra Pradesh","latitude":16.3067,"longitude":80.4365,"temp":35.7,"humidity":39,"rain":0.0,"pressure":1004.5,"uv_index":9.15,"wind_gusts":26.6,"aqi":40,"pm10":14.0,"pm2_5":9.0,"mosquito_risk":0,"arthritis_risk":5,"migraine_risk":7,"frizz_risk":1,"updated_at":"2026-04-02T14:32:02.860675+05:30"},{"city":"Nellore","state":"Andhra Pradesh","latitude":14.4426,"longitude":79.9865,"temp":35.2,"humidity":42,"rain":0.0,"pressure":1006.5,"uv_index":9.25,"wind_gusts":28.8,"aqi":35,"pm10":14.2,"pm2_5":11.3,"mosquito_risk":0,"arthritis_risk":5,"migraine_risk":7,"frizz_risk":1,"updated_at":"2026-04-02T14:32:02.860683+05:30"},{"city":"Kurnool","state":"Andhra Pradesh","latitude":15.8281,"longitude":78.0373,"temp":38.0,"humidity":17,"rain":0.0,"pressure":977.2,"uv_index":9.15,"wind_gusts":24.8,"aqi":49,"pm10":18.7,"pm2_5":12.7,"mosquito_risk":0,"arthritis_risk":5,"migraine_risk":10,"frizz_risk":0,"updated_at":"2026-04-02T14:32:02.860690+05:30"},{"city":"Kakinada","state":"Andhra Pradesh","latitude":16.9891,"longitude":82.2475,"temp":36.9,"humidity":39,"rain":0.0,"pressure":1008.0,"uv_index":9.05,"wind_gusts":34.9,"aqi":33,"pm10":9.8,"pm2_5":7.0,"mosquito_risk":0,"arthritis_risk":0,"migraine_risk":7,"frizz_risk":1,"updated_at":"2026-04-02T14:32:02.860698+05:30"},{"city":"Tirupati","state":"Andhra Pradesh","latitude":13.6288,"longitude":79.4192,"temp":34.6,"humidity":34,"rain":0.0,"pressure":992.4,"uv_index":9.35,"wind_gusts":32.8,"aqi":50,"pm10":13.5,"pm2_5":12.3,"mosquito_risk":0,"arthritis_risk":5,"migraine_risk":7,"frizz_risk":1,"updated_at":"2026-04-02T14:32:02.860704+05:30"},{"city":"Warangal","state":"Telangana","latitude":17.9689,"longitude":79.5941,"temp":35.0,"humidity":38,"rain":0.0,"pressure":979.9,"uv_index":9.0,"wind_gusts":25.9,"aqi":68,"pm10":20.9,"pm2_5":16.1,"mosquito_risk":0,"arthritis_risk":5,"migraine_risk":7,"frizz_risk":1,"updated_at":"2026-04-02T14:32:02.860712+05:30"},{"city":"Nizamabad","state":"Telangana","latitude":18.6725,"longitude":78.0941,"temp":35.2,"humidity":39,"rain":0.0,"pressure":965.9,"uv_index":8.9,"wind_gusts":34.2,"aqi":119,"pm10":34.2,"pm2_5":27.8,"mosquito_risk":0,"arthritis_risk":5,"migraine_risk":10,"frizz_risk":1,"updated_at":"2026-04-02T14:32:02.860719+05:30"},{"city":"Mysore","state":"Karnataka","latitude":12.2958,"longitude":76.6396,"temp":33.1,"humidity":35,"rain":0.0,"pressure":929.1,"uv_index":9.5,"wind_gusts":34.2,"aqi":79,"pm10":20.1,"pm2_5":15.1,"mosquito_risk":0,"arthritis_risk":5,"migraine_risk":7,"frizz_risk":0,"updated_at":"2026-04-02T14:32:02.860725+05:30"},{"city":"Mangalore","state":"Karnataka","latitude":12.9141,"longitude":74.856,"temp":29.4,"humidity":79,"rain":0.0,"pressure":1006.6,"uv_index":9.05,"wind_gusts":22.3,"aqi":78,"pm10":26.3,"pm2_5":21.3,"mosquito_risk":7,"arthritis_risk":5,"migraine_risk":4,"frizz_risk":1,"updated_at":"2026-04-02T14:32:02.860732+05:30"},{"city":"Hubli-Dharwad","state":"Karnataka","latitude":15.3647,"longitude":75.124,"temp":33.8,"humidity":42,"rain":0.0,"pressure":941.2,"uv_index":9.2,"wind_gusts":35.3,"aqi":94,"pm10":26.4,"pm2_5":21.7,"mosquito_risk":0,"arthritis_risk":5,"migraine_risk":7,"frizz_risk":1,"updated_at":"2026-04-02T14:32:02.860740+05:30"},{"city":"Belgaum","state":"Karnataka","latitude":15.8497,"longitude":74.4977,"temp":28.6,"humidity":67,"rain":0.0,"pressure":926.9,"uv_index":9.1,"wind_gusts":32.0,"aqi":99,"pm10":31.5,"pm2_5":26.1,"mosquito_risk":7,"arthritis_risk":5,"migraine_risk":7,"frizz_risk":1,"updated_at":"2026-04-02T14:32:06.219858+05:30"},{"city":"Coimbatore","state":"Tamil Nadu","latitude":11.0168,"longitude":76.9558,"temp":35.5,"humidity":32,"rain":0.0,"pressure":962.0,"uv_index":9.4,"wind_gusts":44.3,"aqi":61,"pm10":13.5,"pm2_5":9.1,"mosquito_risk":0,"arthritis_risk":5,"migraine_risk":10,"frizz_risk":1,"updated_at":"2026-04-02T14:32:06.219892+05:30"},{"city":"Madurai","state":"Tamil Nadu","latitude":9.9252,"longitude":78.1198,"temp":35.9,"humidity":32,"rain":0.0,"pressure":992.8,"uv_index":9.35,"wind_gusts":31.0,"aqi":53,"pm10":7.1,"pm2_5":6.2,"mosquito_risk":0,"arthritis_risk":5,"migraine_risk":10,"frizz_risk":1,"updated_at":"2026-04-02T14:32:06.219905+05:30"},{"city":"Trichy","state":"Tamil Nadu","latitude":10.7905,"longitude":78.7047,"temp":35.0,"humidity":33,"rain":0.0,"pressure":1000.0,"uv_index":9.4,"wind_gusts":19.8,"aqi":54,"pm10":11.4,"pm2_5":9.9,"mosquito_risk":0,"arthritis_risk":5,"migraine_risk":4,"frizz_risk":1,"updated_at":"2026-04-02T14:32:06.219913+05:30"},{"city":"Salem","state":"Tamil Nadu","latitude":11.6643,"longitude":78.146,"temp":35.6,"humidity":33,"rain":0.0,"pressure":977.4,"uv_index":9.4,"wind_gusts":16.6,"aqi":65,"pm10":21.5,"pm2_5":20.5,"mosquito_risk":0,"arthritis_risk":5,"migraine_risk":10,"frizz_risk":1,"updated_at":"2026-04-02T14:32:06.219921+05:30"},{"city":"Tirunelveli","state":"Tamil Nadu","latitude":8.7139,"longitude":77.7567,"temp":37.5,"humidity":32,"rain":0.0,"pressure":1002.5,"uv_index":9.35,"wind_gusts":50.0,"aqi":44,"pm10":7.9,"pm2_5":7.2,"mosquito_risk":0,"arthritis_risk":5,"migraine_risk":7,"frizz_risk":1,"updated_at":"2026-04-02T14:32:06.219929+05:30"},{"city":"Vellore","state":"Tamil Nadu","latitude":12.9165,"longitude":79.1325,"temp":34.2,"humidity":30,"rain":0.0,"pressure":985.5,"uv_index":9.4,"wind_gusts":30.2,"aqi":55,"pm10":12.2,"pm2_5":9.5,"mosquito_risk":0,"arthritis_risk":5,"migraine_risk":7,"frizz_risk":0,"updated_at":"2026-04-02T14:32:06.219936+05:30"},{"city":"Erode","state":"Tamil Nadu","latitude":11.341,"longitude":77.7172,"temp":36.7,"humidity":29,"rain":0.0,"pressure":988.8,"uv_index":9.3,"wind_gusts":25.2,"aqi":54,"pm10":10.9,"pm2_5":9.4,"mosquito_risk":0,"arthritis_risk":5,"migraine_risk":10,"frizz_risk":0,"updated_at":"2026-04-02T14:32:06.219944+05:30"},{"city":"Kochi","state":"Kerala","latitude":9.9312,"longitude":76.2673,"temp":28.9,"humidity":79,"rain":0.0,"pressure":1008.6,"uv_index":9.2,"wind_gusts":29.5,"aqi":80,"pm10":22.5,"pm2_5":19.2,"mosquito_risk":7,"arthritis_risk":0,"migraine_risk":4,"frizz_risk":1,"updated_at":"2026-04-02T14:32:06.219951+05:30"},{"city":"Thiruvananthapuram","state":"Kerala","latitude":8.5241,"longitude":76.9366,"temp":29.5,"humidity":72,"rain":0.0,"pressure":1007.9,"uv_index":9.2,"wind_gusts":26.6,"aqi":83,"pm10":13.2,"pm2_5":11.0,"mosquito_risk":7,"arthritis_risk":5,"migraine_risk":4,"frizz_risk":1,"updated_at":"2026-04-02T14:32:06.219959+05:30"},{"city":"Kozhikode","state":"Kerala","latitude":11.2588,"longitude":75.7804,"temp":29.9,"humidity":75,"rain":0.0,"pressure":1008.1,"uv_index":8.85,"wind_gusts":25.9,"aqi":61,"pm10":14.4,"pm2_5":11.2,"mosquito_risk":7,"arthritis_risk":0,"migraine_risk":4,"frizz_risk":1,"updated_at":"2026-04-02T14:32:06.219965+05:30"},{"city":"Thrissur","state":"Kerala","latitude":10.5276,"longitude":76.2144,"temp":32.4,"humidity":64,"rain":0.0,"pressure":1007.1,"uv_index":9.15,"wind_gusts":33.1,"aqi":74,"pm10":19.9,"pm2_5":16.6,"mosquito_risk":3,"arthritis_risk":5,"migraine_risk":4,"frizz_risk":1,"updated_at":"2026-04-02T14:32:06.219973+05:30"},{"city":"Kannur","state":"Kerala","latitude":11.8745,"longitude":75.3704,"temp":30.6,"humidity":71,"rain":0.0,"pressure":1007.5,"uv_index":9.15,"wind_gusts":24.5,"aqi":76,"pm10":21.1,"pm2_5":17.6,"mosquito_risk":3,"arthritis_risk":5,"migraine_risk":4,"frizz_risk":1,"updated_at":"2026-04-02T14:32:06.219980+05:30"},{"city":"Patna","state":"Bihar","latitude":25.5941,"longitude":85.1376,"temp":37.2,"humidity":29,"rain":0.0,"pressure":999.5,"uv_index":8.1,"wind_gusts":37.4,"aqi":70,"pm10":38.2,"pm2_5":16.1,"mosquito_risk":0,"arthritis_risk":5,"migraine_risk":10,"frizz_risk":1,"updated_at":"2026-04-02T14:32:06.219986+05:30"},{"city":"Gaya","state":"Bihar","latitude":24.7914,"longitude":85.0002,"temp":37.1,"humidity":33,"rain":0.0,"pressure":993.5,"uv_index":8.3,"wind_gusts":32.0,"aqi":78,"pm10":32.2,"pm2_5":15.0,"mosquito_risk":0,"arthritis_risk":5,"migraine_risk":10,"frizz_risk":1,"updated_at":"2026-04-02T14:32:06.219992+05:30"},{"city":"Muzaffarpur","state":"Bihar","latitude":26.1209,"longitude":85.3647,"temp":37.3,"humidity":26,"rain":0.0,"pressure":999.1,"uv_index":8.25,"wind_gusts":35.6,"aqi":81,"pm10":36.9,"pm2_5":17.5,"mosquito_risk":0,"arthritis_risk":5,"migraine_risk":10,"frizz_risk":0,"updated_at":"2026-04-02T14:32:06.219998+05:30"},{"city":"Bhagalpur","state":"Bihar","latitude":25.2425,"longitude":87.0117,"temp":35.7,"humidity":33,"rain":0.0,"pressure":1000.4,"uv_index":7.95,"wind_gusts":30.6,"aqi":90,"pm10":39.5,"pm2_5":18.3,"mosquito_risk":0,"arthritis_risk":5,"migraine_risk":7,"frizz_risk":1,"updated_at":"2026-04-02T14:32:06.220005+05:30"},{"city":"Ranchi","state":"Jharkhand","latitude":23.3441,"longitude":85.3096,"temp":33.9,"humidity":29,"rain":0.0,"pressure":939.3,"uv_index":8.9,"wind_gusts":33.1,"aqi":97,"pm10":28.4,"pm2_5":19.0,"mosquito_risk":0,"arthritis_risk":5,"migraine_risk":7,"frizz_risk":0,"updated_at":"2026-04-02T14:32:06.220011+05:30"},{"city":"Jamshedpur","state":"Jharkhand","latitude":22.8046,"longitude":86.2029,"temp":37.9,"humidity":29,"rain":0.0,"pressure":990.7,"uv_index":8.75,"wind_gusts":33.8,"aqi":130,"pm10":33.2,"pm2_5":21.0,"mosquito_risk":0,"arthritis_risk":5,"migraine_risk":10,"frizz_risk":1,"updated_at":"2026-04-02T14:32:06.220018+05:30"},{"city":"Dhanbad","state":"Jharkhand","latitude":23.7957,"longitude":86.4304,"temp":38.3,"humidity":23,"rain":0.0,"pressure":979.3,"uv_index":8.65,"wind_gusts":31.7,"aqi":153,"pm10":42.4,"pm2_5":31.2,"mosquito_risk":0,"arthritis_risk":5,"migraine_risk":10,"frizz_risk":0,"updated_at":"2026-04-02T14:32:06.220025+05:30"},{"city":"Bokaro","state":"Jharkhand","latitude":23.6693,"longitude":86.1511,"temp":38.0,"humidity":24,"rain":0.0,"pressure":983.4,"uv_index":8.65,"wind_gusts":31.7,"aqi":152,"pm10":38.8,"pm2_5":27.8,"mosquito_risk":0,"arthritis_risk":5,"migraine_risk":10,"frizz_risk":0,"updated_at":"2026-04-02T14:32:06.220032+05:30"},{"city":"Bhubaneswar","state":"Odisha","latitude":20.2961,"longitude":85.8245,"temp":37.2,"humidity":35,"rain":0.0,"pressure":1002.9,"uv_index":8.9,"wind_gusts":32.0,"aqi":61,"pm10":27.9,"pm2_5":20.4,"mosquito_risk":0,"arthritis_risk":5,"migraine_risk":7,"frizz_risk":1,"updated_at":"2026-04-02T14:32:06.220038+05:30"},{"city":"Cuttack","state":"Odisha","latitude":20.4625,"longitude":85.8828,"temp":38.6,"humidity":33,"rain":0.0,"pressure":1004.2,"uv_index":8.95,"wind_gusts":24.5,"aqi":61,"pm10":27.9,"pm2_5":20.4,"mosquito_risk":0,"arthritis_risk":5,"migraine_risk":7,"frizz_risk":1,"updated_at":"2026-04-02T14:32:06.220044+05:30"},{"city":"Rourkela","state":"Odisha","latitude":22.2604,"longitude":84.8536,"temp":37.6,"humidity":30,"rain":0.0,"pressure":985.6,"uv_index":8.65,"wind_gusts":27.0,"aqi":146,"pm10":43.8,"pm2_5":31.4,"mosquito_risk":0,"arthritis_risk":5,"migraine_risk":10,"frizz_risk":1,"updated_at":"2026-04-02T14:32:06.220050+05:30"},{"city":"Raipur","state":"Chhattisgarh","latitude":21.2514,"longitude":81.6296,"temp":37.2,"humidity":28,"rain":0.0,"pressure":975.8,"uv_index":8.7,"wind_gusts":27.7,"aqi":133,"pm10":33.5,"pm2_5":28.8,"mosquito_risk":0,"arthritis_risk":5,"migraine_risk":10,"frizz_risk":0,"updated_at":"2026-04-02T14:32:06.220055+05:30"},{"city":"Bhilai","state":"Chhattisgarh","latitude":21.1938,"longitude":81.3509,"temp":36.8,"humidity":30,"rain":0.0,"pressure":976.2,"uv_index":8.7,"wind_gusts":29.2,"aqi":132,"pm10":33.9,"pm2_5":28.2,"mosquito_risk":0,"arthritis_risk":5,"migraine_risk":10,"frizz_risk":1,"updated_at":"2026-04-02T14:32:06.220061+05:30"},{"city":"Guwahati","state":"Assam","latitude":26.1158,"longitude":91.7086,"temp":29.3,"humidity":73,"rain":0.0,"pressure":1000.3,"uv_index":8.15,"wind_gusts":33.5,"aqi":101,"pm10":44.1,"pm2_5":36.1,"mosquito_risk":7,"arthritis_risk":5,"migraine_risk":4,"frizz_risk":1,"updated_at":"2026-04-02T14:32:06.220068+05:30"},{"city":"Agartala","state":"Tripura","latitude":23.8315,"longitude":91.2868,"temp":34.8,"humidity":48,"rain":0.0,"pressure":1005.3,"uv_index":8.4,"wind_gusts":43.2,"aqi":112,"pm10":50.8,"pm2_5":39.3,"mosquito_risk":0,"arthritis_risk":5,"migraine_risk":4,"frizz_risk":1,"updated_at":"2026-04-02T14:32:06.220074+05:30"},{"city":"Shillong","state":"Meghalaya","latitude":25.5788,"longitude":91.8933,"temp":20.5,"humidity":61,"rain":0.0,"pressure":857.7,"uv_index":8.55,"wind_gusts":70.9,"aqi":94,"pm10":44.8,"pm2_5":37.3,"mosquito_risk":3,"arthritis_risk":5,"migraine_risk":7,"frizz_risk":0,"updated_at":"2026-04-02T14:32:06.220079+05:30"},{"city":"Imphal","state":"Manipur","latitude":24.817,"longitude":93.9368,"temp":21.3,"humidity":78,"rain":0.0,"pressure":924.3,"uv_index":8.7,"wind_gusts":87.5,"aqi":109,"pm10":45.9,"pm2_5":35.0,"mosquito_risk":3,"arthritis_risk":5,"migraine_risk":7,"frizz_risk":1,"updated_at":"2026-04-02T14:32:06.220086+05:30"},{"city":"Aizawl","state":"Mizoram","latitude":23.7271,"longitude":92.7176,"temp":26.7,"humidity":53,"rain":0.0,"pressure":894.9,"uv_index":8.65,"wind_gusts":55.1,"aqi":91,"pm10":50.2,"pm2_5":33.8,"mosquito_risk":4,"arthritis_risk":5,"migraine_risk":7,"frizz_risk":1,"updated_at":"2026-04-02T14:32:06.220092+05:30"},{"city":"Kohima","state":"Nagaland","latitude":25.6701,"longitude":94.1077,"temp":20.4,"humidity":64,"rain":0.0,"pressure":856.2,"uv_index":8.65,"wind_gusts":105.5,"aqi":82,"pm10":38.2,"pm2_5":29.2,"mosquito_risk":3,"arthritis_risk":5,"migraine_risk":7,"frizz_risk":0,"updated_at":"2026-04-02T14:32:06.220098+05:30"},{"city":"Gangtok","state":"Sikkim","latitude":27.3314,"longitude":88.6138,"temp":22.3,"humidity":57,"rain":0.0,"pressure":838.6,"uv_index":8.55,"wind_gusts":20.9,"aqi":88,"pm10":38.8,"pm2_5":29.7,"mosquito_risk":0,"arthritis_risk":5,"migraine_risk":7,"frizz_risk":0,"updated_at":"2026-04-02T14:32:06.220104+05:30"},{"city":"Siliguri","state":"West Bengal","latitude":26.7271,"longitude":88.3953,"temp":27.3,"humidity":62,"rain":0.0,"pressure":992.6,"uv_index":8.05,"wind_gusts":24.5,"aqi":151,"pm10":42.0,"pm2_5":33.5,"mosquito_risk":7,"arthritis_risk":5,"migraine_risk":7,"frizz_risk":1,"updated_at":"2026-04-02T14:32:09.578613+05:30"},{"city":"Durgapur","state":"West Bengal","latitude":23.5204,"longitude":87.3119,"temp":38.5,"humidity":26,"rain":0.0,"pressure":994.2,"uv_index":8.6,"wind_gusts":27.4,"aqi":152,"pm10":48.2,"pm2_5":36.1,"mosquito_risk":0,"arthritis_risk":5,"migraine_risk":10,"frizz_risk":0,"updated_at":"2026-04-02T14:32:09.578644+05:30"},{"city":"Asansol","state":"West Bengal","latitude":23.6739,"longitude":86.9524,"temp":38.0,"humidity":27,"rain":0.0,"pressure":992.7,"uv_index":8.65,"wind_gusts":27.4,"aqi":126,"pm10":44.6,"pm2_5":32.8,"mosquito_risk":0,"arthritis_risk":5,"migraine_risk":10,"frizz_risk":0,"updated_at":"2026-04-02T14:32:09.578654+05:30"},{"city":"Pondicherry","state":"Puducherry","latitude":11.9139,"longitude":79.8145,"temp":33.9,"humidity":46,"rain":0.0,"pressure":1008.8,"uv_index":9.25,"wind_gusts":24.8,"aqi":35,"pm10":13.7,"pm2_5":10.1,"mosquito_risk":0,"arthritis_risk":0,"migraine_risk":4,"frizz_risk":1,"updated_at":"2026-04-02T14:32:09.578662+05:30"},{"city":"Port Blair","state":"Andaman and Nicobar Islands","latitude":11.6234,"longitude":92.7265,"temp":29.0,"humidity":83,"rain":0.0,"pressure":1006.9,"uv_index":9.15,"wind_gusts":31.3,"aqi":38,"pm10":11.8,"pm2_5":6.6,"mosquito_risk":7,"arthritis_risk":5,"migraine_risk":4,"frizz_risk":1,"updated_at":"2026-04-02T14:32:09.578670+05:30"},{"city":"Haridwar","state":"Uttarakhand","latitude":29.9457,"longitude":78.1642,"temp":33.4,"humidity":27,"rain":0.0,"pressure":976.1,"uv_index":6.6,"wind_gusts":25.2,"aqi":65,"pm10":49.2,"pm2_5":13.6,"mosquito_risk":0,"arthritis_risk":5,"migraine_risk":7,"frizz_risk":0,"updated_at":"2026-04-02T14:32:09.578678+05:30"},{"city":"Rishikesh","state":"Uttarakhand","latitude":30.0869,"longitude":78.2676,"temp":33.3,"humidity":24,"rain":0.0,"pressure":969.0,"uv_index":6.7,"wind_gusts":28.1,"aqi":51,"pm10":42.8,"pm2_5":11.4,"mosquito_risk":0,"arthritis_risk":5,"migraine_risk":7,"frizz_risk":0,"updated_at":"2026-04-02T14:32:09.578684+05:30"},{"city":"Nainital","state":"Uttarakhand","latitude":29.3919,"longitude":79.4542,"temp":27.4,"humidity":22,"rain":0.0,"pressure":811.6,"uv_index":7.65,"wind_gusts":44.3,"aqi":65,"pm10":31.8,"pm2_5":10.9,"mosquito_risk":4,"arthritis_risk":5,"migraine_risk":7,"frizz_risk":0,"updated_at":"2026-04-02T14:32:09.578692+05:30"},{"city":"Mussoorie","state":"Uttarakhand","latitude":30.4599,"longitude":78.0664,"temp":24.6,"humidity":29,"rain":0.0,"pressure":807.9,"uv_index":7.05,"wind_gusts":31.3,"aqi":59,"pm10":39.7,"pm2_5":10.8,"mosquito_risk":0,"arthritis_risk":5,"migraine_risk":7,"frizz_risk":0,"updated_at":"2026-04-02T14:32:09.578700+05:30"},{"city":"Dharamshala","state":"Himachal Pradesh","latitude":32.219,"longitude":76.3234,"temp":27.3,"humidity":26,"rain":0.0,"pressure":873.1,"uv_index":7.3,"wind_gusts":28.4,"aqi":47,"pm10":31.8,"pm2_5":9.2,"mosquito_risk":4,"arthritis_risk":5,"migraine_risk":7,"frizz_risk":0,"updated_at":"2026-04-02T14:32:09.578708+05:30"},{"city":"Dalhousie","state":"Himachal Pradesh","latitude":32.5387,"longitude":75.971,"temp":25.7,"humidity":23,"rain":0.0,"pressure":809.2,"uv_index":7.55,"wind_gusts":24.8,"aqi":64,"pm10":43.7,"pm2_5":12.7,"mosquito_risk":4,"arthritis_risk":5,"migraine_risk":7,"frizz_risk":0,"updated_at":"2026-04-02T14:32:09.578716+05:30"},{"city":"Patiala","state":"Punjab","latitude":30.3398,"longitude":76.3869,"temp":32.5,"humidity":32,"rain":0.0,"pressure":980.4,"uv_index":6.7,"wind_gusts":20.9,"aqi":115,"pm10":135.5,"pm2_5":26.7,"mosquito_risk":0,"arthritis_risk":5,"migraine_risk":7,"frizz_risk":0,"updated_at":"2026-04-02T14:32:09.578723+05:30"},{"city":"Bhatinda","state":"Punjab","latitude":30.211,"longitude":74.9455,"temp":31.5,"humidity":37,"rain":0.0,"pressure":986.0,"uv_index":7.35,"wind_gusts":50.4,"aqi":94,"pm10":98.0,"pm2_5":25.1,"mosquito_risk":0,"arthritis_risk":5,"migraine_risk":7,"frizz_risk":0,"updated_at":"2026-04-02T14:32:09.578730+05:30"},{"city":"Rohtak","state":"Haryana","latitude":28.8955,"longitude":76.6066,"temp":31.9,"humidity":40,"rain":0.0,"pressure":983.8,"uv_index":6.65,"wind_gusts":49.0,"aqi":146,"pm10":161.6,"pm2_5":34.0,"mosquito_risk":0,"arthritis_risk":5,"migraine_risk":7,"frizz_risk":1,"updated_at":"2026-04-02T14:32:09.578737+05:30"},{"city":"Panipat","state":"Haryana","latitude":29.3909,"longitude":76.9635,"temp":33.2,"humidity":31,"rain":0.0,"pressure":982.4,"uv_index":6.7,"wind_gusts":23.0,"aqi":152,"pm10":137.4,"pm2_5":30.3,"mosquito_risk":0,"arthritis_risk":5,"migraine_risk":7,"frizz_risk":0,"updated_at":"2026-04-02T14:32:09.578744+05:30"},{"city":"Mathura","state":"Uttar Pradesh","latitude":27.4924,"longitude":77.6737,"temp":37.3,"humidity":25,"rain":0.0,"pressure":987.6,"uv_index":7.2,"wind_gusts":21.6,"aqi":119,"pm10":175.1,"pm2_5":33.5,"mosquito_risk":0,"arthritis_risk":5,"migraine_risk":10,"frizz_risk":0,"updated_at":"2026-04-02T14:32:09.578750+05:30"},{"city":"Vrindavan","state":"Uttar Pradesh","latitude":27.5823,"longitude":77.7027,"temp":35.9,"humidity":29,"rain":0.0,"pressure":988.5,"uv_index":7.2,"wind_gusts":20.5,"aqi":119,"pm10":175.1,"pm2_5":33.5,"mosquito_risk":0,"arthritis_risk":5,"migraine_risk":10,"frizz_risk":0,"updated_at":"2026-04-02T14:32:09.578757+05:30"},{"city":"Ayodhya","state":"Uttar Pradesh","latitude":26.7922,"longitude":82.1998,"temp":38.1,"humidity":18,"rain":0.0,"pressure":995.3,"uv_index":7.65,"wind_gusts":37.1,"aqi":67,"pm10":25.7,"pm2_5":13.4,"mosquito_risk":0,"arthritis_risk":5,"migraine_risk":10,"frizz_risk":0,"updated_at":"2026-04-02T14:32:09.578763+05:30"},{"city":"Ratlam","state":"Madhya Pradesh","latitude":23.3315,"longitude":75.0367,"temp":34.4,"humidity":30,"rain":0.0,"pressure":955.4,"uv_index":8.15,"wind_gusts":35.3,"aqi":64,"pm10":27.2,"pm2_5":20.2,"mosquito_risk":0,"arthritis_risk":5,"migraine_risk":7,"frizz_risk":0,"updated_at":"2026-04-02T14:32:09.578770+05:30"},{"city":"Sagar","state":"Madhya Pradesh","latitude":23.8388,"longitude":78.7378,"temp":36.3,"humidity":23,"rain":0.0,"pressure":951.8,"uv_index":8.0,"wind_gusts":35.3,"aqi":66,"pm10":31.2,"pm2_5":22.0,"mosquito_risk":0,"arthritis_risk":5,"migraine_risk":10,"frizz_risk":0,"updated_at":"2026-04-02T14:32:09.578776+05:30"},{"city":"Satna","state":"Madhya Pradesh","latitude":24.6005,"longitude":80.8322,"temp":37.2,"humidity":24,"rain":0.0,"pressure":972.5,"uv_index":7.7,"wind_gusts":28.4,"aqi":62,"pm10":24.4,"pm2_5":14.5,"mosquito_risk":0,"arthritis_risk":5,"migraine_risk":10,"frizz_risk":0,"updated_at":"2026-04-02T14:32:09.578783+05:30"},{"city":"Akola","state":"Maharashtra","latitude":20.7002,"longitude":77.0082,"temp":35.5,"humidity":36,"rain":0.0,"pressure":976.2,"uv_index":8.6,"wind_gusts":24.1,"aqi":92,"pm10":51.3,"pm2_5":38.6,"mosquito_risk":0,"arthritis_risk":5,"migraine_risk":10,"frizz_risk":1,"updated_at":"2026-04-02T14:32:09.578790+05:30"},{"city":"Amravati","state":"Maharashtra","latitude":20.9374,"longitude":77.7796,"temp":35.0,"humidity":38,"rain":0.0,"pressure":968.9,"uv_index":8.6,"wind_gusts":24.1,"aqi":88,"pm10":46.2,"pm2_5":34.9,"mosquito_risk":0,"arthritis_risk":5,"migraine_risk":7,"frizz_risk":1,"updated_at":"2026-04-02T14:32:09.578797+05:30"},{"city":"Latur","state":"Maharashtra","latitude":18.4088,"longitude":76.5604,"temp":33.3,"humidity":41,"rain":0.0,"pressure":941.0,"uv_index":8.9,"wind_gusts":38.2,"aqi":124,"pm10":27.0,"pm2_5":21.0,"mosquito_risk":0,"arthritis_risk":5,"migraine_risk":7,"frizz_risk":1,"updated_at":"2026-04-02T14:32:09.578804+05:30"},{"city":"Nanded","state":"Maharashtra","latitude":19.1383,"longitude":77.3091,"temp":35.0,"humidity":42,"rain":0.0,"pressure":969.8,"uv_index":8.75,"wind_gusts":35.6,"aqi":108,"pm10":42.1,"pm2_5":34.1,"mosquito_risk":0,"arthritis_risk":5,"migraine_risk":7,"frizz_risk":1,"updated_at":"2026-04-02T14:32:09.578811+05:30"},{"city":"Gulbarga","state":"Karnataka","latitude":17.3297,"longitude":76.8343,"temp":36.1,"humidity":29,"rain":0.0,"pressure":959.4,"uv_index":8.95,"wind_gusts":39.2,"aqi":97,"pm10":18.7,"pm2_5":14.4,"mosquito_risk":0,"arthritis_risk":5,"migraine_risk":10,"frizz_risk":0,"updated_at":"2026-04-02T14:32:09.578817+05:30"},{"city":"Bidar","state":"Karnataka","latitude":17.9104,"longitude":77.5199,"temp":33.4,"humidity":40,"rain":0.0,"pressure":936.8,"uv_index":8.95,"wind_gusts":37.8,"aqi":109,"pm10":22.4,"pm2_5":16.9,"mosquito_risk":0,"arthritis_risk":5,"migraine_risk":7,"frizz_risk":1,"updated_at":"2026-04-02T14:32:09.578823+05:30"},{"city":"Hospet","state":"Karnataka","latitude":15.2689,"longitude":76.3909,"temp":35.3,"humidity":31,"rain":0.0,"pressure":956.0,"uv_index":9.15,"wind_gusts":35.3,"aqi":92,"pm10":19.0,"pm2_5":14.8,"mosquito_risk":0,"arthritis_risk":5,"migraine_risk":10,"frizz_risk":0,"updated_at":"2026-04-02T14:32:09.578829+05:30"},{"city":"Tirupur","state":"Tamil Nadu","latitude":11.1085,"longitude":77.3411,"temp":36.1,"humidity":29,"rain":0.0,"pressure":975.4,"uv_index":9.2,"wind_gusts":25.6,"aqi":58,"pm10":12.8,"pm2_5":10.1,"mosquito_risk":0,"arthritis_risk":5,"migraine_risk":10,"frizz_risk":0,"updated_at":"2026-04-02T14:32:09.578835+05:30"},{"city":"Alappuzha","state":"Kerala","latitude":9.4981,"longitude":76.3388,"temp":29.1,"humidity":77,"rain":0.0,"pressure":1008.7,"uv_index":9.2,"wind_gusts":26.6,"aqi":98,"pm10":22.3,"pm2_5":18.9,"mosquito_risk":7,"arthritis_risk":0,"migraine_risk":4,"frizz_risk":1,"updated_at":"2026-04-02T14:32:09.578842+05:30"},{"city":"Munnar","state":"Kerala","latitude":10.0889,"longitude":77.0595,"temp":30.0,"humidity":42,"rain":0.0,"pressure":859.5,"uv_index":9.75,"wind_gusts":33.1,"aqi":61,"pm10":10.7,"pm2_5":8.8,"mosquito_risk":4,"arthritis_risk":5,"migraine_risk":7,"frizz_risk":0,"updated_at":"2026-04-02T14:32:09.578849+05:30"},{"city":"Silchar","state":"Assam","latitude":24.8333,"longitude":92.7789,"temp":26.5,"humidity":80,"rain":0.0,"pressure":1006.4,"uv_index":8.4,"wind_gusts":34.2,"aqi":138,"pm10":63.6,"pm2_5":50.2,"mosquito_risk":7,"arthritis_risk":5,"migraine_risk":4,"frizz_risk":1,"updated_at":"2026-04-02T14:32:09.578856+05:30"},{"city":"Dibrugarh","state":"Assam","latitude":27.4728,"longitude":94.912,"temp":22.7,"humidity":88,"rain":0.0,"pressure":996.4,"uv_index":7.3,"wind_gusts":26.3,"aqi":98,"pm10":26.0,"pm2_5":22.2,"mosquito_risk":3,"arthritis_risk":5,"migraine_risk":7,"frizz_risk":1,"updated_at":"2026-04-02T14:32:09.578862+05:30"}]