[{"city":"Delhi","state":"Delhi","latitude":28.6139,"longitude":77.209,"temp":28.6,"humidity":31,"rain":0.0,"pressure":986.9,"uv_index":7.05,"wind_gusts":25.6,"aqi":138,"pm10":254.3,"pm2_5":43.4,"mosquito_risk":4,"arthritis_risk":5,"migraine_risk":7,"frizz_risk":0,"updated_at":"2026-04-09T16:31:58.596987+05:30"},{"city":"Mumbai","state":"Maharashtra","latitude":19.076,"longitude":72.8777,"temp":28.2,"humidity":76,"rain":0.0,"pressure":1008.8,"uv_index":7.95,"wind_gusts":19.4,"aqi":81,"pm10":140.2,"pm2_5":32.2,"mosquito_risk":7,"arthritis_risk":0,"migraine_risk":4,"frizz_risk":1,"updated_at":"2026-04-09T16:31:58.597037+05:30"},{"city":"Bangalore","state":"Karnataka","latitude":12.9716,"longitude":77.5946,"temp":34.0,"humidity":29,"rain":0.0,"pressure":910.9,"uv_index":9.6,"wind_gusts":27.4,"aqi":145,"pm10":25.6,"pm2_5":17.3,"mosquito_risk":0,"arthritis_risk":5,"migraine_risk":7,"frizz_risk":0,"updated_at":"2026-04-09T16:31:58.597053+05:30"},{"city":"Hyderabad","state":"Telangana","latitude":17.385,"longitude":78.4867,"temp":36.8,"humidity":21,"rain":0.0,"pressure":952.1,"uv_index":9.2,"wind_gusts":28.8,"aqi":110,"pm10":42.8,"pm2_5":18.7,"mosquito_risk":0,"arthritis_risk":5,"migraine_risk":10,"frizz_risk":0,"updated_at":"2026-04-09T16:31:58.597063+05:30"},{"city":"Chennai","state":"Tamil Nadu","latitude":13.0827,"longitude":80.2707,"temp":34.0,"humidity":56,"rain":0.0,"pressure":1004.9,"uv_index":9.35,"wind_gusts":37.1,"aqi":63,"pm10":25.3,"pm2_5":20.2,"mosquito_risk":0,"arthritis_risk":5,"migraine_risk":4,"frizz_risk":1,"updated_at":"2026-04-09T16:31:58.597074+05:30"},{"city":"Kolkata","state":"West Bengal","latitude":22.5726,"longitude":88.3639,"temp":27.8,"humidity":69,"rain":0.0,"pressure":1006.5,"uv_index":8.45,"wind_gusts":14.4,"aqi":138,"pm10":62.9,"pm2_5":36.0,"mosquito_risk":7,"arthritis_risk":5,"migraine_risk":4,"frizz_risk":1,"updated_at":"2026-04-09T16:31:58.597083+05:30"},{"city":"Pune","state":"Maharashtra","latitude":18.5204,"longitude":73.8567,"temp":33.2,"humidity":40,"rain":0.0,"pressure":948.7,"uv_index":8.5,"wind_gusts":36.4,"aqi":82,"pm10":109.9,"pm2_5":34.6,"mosquito_risk":0,"arthritis_risk":5,"migraine_risk":7,"frizz_risk":1,"updated_at":"2026-04-09T16:31:58.597097+05:30"},{"city":"Ahmedabad","state":"Gujarat","latitude":23.0225,"longitude":72.5714,"temp":36.5,"humidity":23,"rain":0.0,"pressure":1002.5,"uv_index":8.0,"wind_gusts":16.9,"aqi":103,"pm10":62.6,"pm2_5":23.3,"mosquito_risk":0,"arthritis_risk":5,"migraine_risk":7,"frizz_risk":0,"updated_at":"2026-04-09T16:31:58.597106+05:30"},{"city":"Jaipur","state":"Rajasthan","latitude":26.9124,"longitude":75.7873,"temp":29.9,"humidity":26,"rain":0.0,"pressure":962.7,"uv_index":7.75,"wind_gusts":27.0,"aqi":150,"pm10":168.6,"pm2_5":27.1,"mosquito_risk":4,"arthritis_risk":5,"migraine_risk":7,"frizz_risk":0,"updated_at":"2026-04-09T16:31:58.597115+05:30"},{"city":"Lucknow","state":"Uttar Pradesh","latitude":26.8467,"longitude":80.9462,"temp":30.4,"humidity":26,"rain":0.0,"pressure":996.1,"uv_index":7.55,"wind_gusts":37.1,"aqi":127,"pm10":97.6,"pm2_5":22.8,"mosquito_risk":0,"arthritis_risk":5,"migraine_risk":7,"frizz_risk":0,"updated_at":"2026-04-09T16:31:58.597123+05:30"},{"city":"Kanpur","state":"Uttar Pradesh","latitude":26.4499,"longitude":80.3319,"temp":29.7,"humidity":30,"rain":0.0,"pressure":994.8,"uv_index":7.6,"wind_gusts":31.7,"aqi":134,"pm10":396.7,"pm2_5":47.8,"mosquito_risk":4,"arthritis_risk":5,"migraine_risk":7,"frizz_risk":0,"updated_at":"2026-04-09T16:31:58.597131+05:30"},{"city":"Chandigarh","state":"Chandigarh","latitude":30.7333,"longitude":76.7794,"temp":25.4,"humidity":40,"rain":0.0,"pressure":973.9,"uv_index":7.05,"wind_gusts":25.6,"aqi":117,"pm10":35.2,"pm2_5":21.4,"mosquito_risk":4,"arthritis_risk":5,"migraine_risk":7,"frizz_risk":0,"updated_at":"2026-04-09T16:31:58.597140+05:30"},{"city":"Srinagar","state":"Jammu and Kashmir","latitude":34.0837,"longitude":74.7973,"temp":12.5,"humidity":62,"rain":0.0,"pressure":842.4,"uv_index":7.9,"wind_gusts":22.0,"aqi":98,"pm10":10.6,"pm2_5":7.4,"mosquito_risk":3,"arthritis_risk":5,"migraine_risk":7,"frizz_risk":0,"updated_at":"2026-04-09T16:31:58.597148+05:30"},{"city":"Jammu","state":"Jammu and Kashmir","latitude":32.7266,"longitude":74.857,"temp":24.5,"humidity":49,"rain":0.0,"pressure":978.7,"uv_index":7.65,"wind_gusts":27.4,"aqi":76,"pm10":26.7,"pm2_5":13.2,"mosquito_risk":0,"arthritis_risk":5,"migraine_risk":7,"frizz_risk":0,"updated_at":"2026-04-09T16:31:58.597155+05:30"},{"city":"Amritsar","state":"Punjab","latitude":31.634,"longitude":74.8723,"temp":24.6,"humidity":50,"rain":0.0,"pressure":986.7,"uv_index":7.6,"wind_gusts":18.0,"aqi":90,"pm10":32.9,"pm2_5":19.0,"mosquito_risk":0,"arthritis_risk":5,"migraine_risk":7,"frizz_risk":0,"updated_at":"2026-04-09T16:31:58.597162+05:30"},{"city":"Ludhiana","state":"Punjab","latitude":30.901,"longitude":75.8573,"temp":26.1,"humidity":38,"rain":0.0,"pressure":984.1,"uv_index":7.25,"wind_gusts":22.0,"aqi":92,"pm10":48.7,"pm2_5":21.0,"mosquito_risk":4,"arthritis_risk":5,"migraine_risk":7,"frizz_risk":0,"updated_at":"2026-04-09T16:31:58.597169+05:30"},{"city":"Jalandhar","state":"Punjab","latitude":31.326,"longitude":75.5762,"temp":25.2,"humidity":42,"rain":0.0,"pressure":985.6,"uv_index":7.4,"wind_gusts":21.2,"aqi":86,"pm10":45.8,"pm2_5":18.3,"mosquito_risk":4,"arthritis_risk":5,"migraine_risk":7,"frizz_risk":0,"updated_at":"2026-04-09T16:31:58.597178+05:30"},{"city":"Dehradun","state":"Uttarakhand","latitude":30.6284,"longitude":78.0322,"temp":14.0,"humidity":65,"rain":0.0,"pressure":831.4,"uv_index":7.05,"wind_gusts":22.3,"aqi":112,"pm10":24.9,"pm2_5":12.9,"mosquito_risk":3,"arthritis_risk":5,"migraine_risk":7,"frizz_risk":0,"updated_at":"2026-04-09T16:31:58.597185+05:30"},{"city":"Shimla","state":"Himachal Pradesh","latitude":31.1048,"longitude":77.1734,"temp":11.3,"humidity":72,"rain":0.0,"pressure":785.4,"uv_index":7.4,"wind_gusts":27.4,"aqi":117,"pm10":39.9,"pm2_5":26.3,"mosquito_risk":3,"arthritis_risk":5,"migraine_risk":7,"frizz_risk":0,"updated_at":"2026-04-09T16:31:58.597193+05:30"},{"city":"Manali","state":"Himachal Pradesh","latitude":32.2396,"longitude":77.1887,"temp":13.2,"humidity":69,"rain":0.0,"pressure":819.3,"uv_index":9.7,"wind_gusts":27.7,"aqi":141,"pm10":9.4,"pm2_5":6.1,"mosquito_risk":3,"arthritis_risk":5,"migraine_risk":7,"frizz_risk":0,"updated_at":"2026-04-09T16:31:58.597200+05:30"},{"city":"Gurgaon","state":"Haryana","latitude":28.4595,"longitude":77.0266,"temp":28.1,"humidity":37,"rain":0.0,"pressure":985.2,"uv_index":7.15,"wind_gusts":20.5,"aqi":173,"pm10":828.9,"pm2_5":88.9,"mosquito_risk":4,"arthritis_risk":5,"migraine_risk":7,"frizz_risk":0,"updated_at":"2026-04-09T16:31:58.597207+05:30"},{"city":"Noida","state":"Uttar Pradesh","latitude":28.5355,"longitude":77.391,"temp":28.6,"humidity":32,"rain":0.0,"pressure":988.3,"uv_index":7.1,"wind_gusts":25.6,"aqi":173,"pm10":828.9,"pm2_5":88.9,"mosquito_risk":4,"arthritis_risk":5,"migraine_risk":7,"frizz_risk":0,"updated_at":"2026-04-09T16:31:58.597214+05:30"},{"city":"Ghaziabad","state":"Uttar Pradesh","latitude":28.6692,"longitude":77.4538,"temp":27.9,"humidity":33,"rain":0.0,"pressure":986.7,"uv_index":7.05,"wind_gusts":26.3,"aqi":128,"pm10":218.9,"pm2_5":42.4,"mosquito_risk":4,"arthritis_risk":5,"migraine_risk":7,"frizz_risk":0,"updated_at":"2026-04-09T16:31:58.597221+05:30"},{"city":"Faridabad","state":"Haryana","latitude":28.4089,"longitude":77.3178,"temp":28.5,"humidity":34,"rain":0.0,"pressure":987.4,"uv_index":7.15,"wind_gusts":22.0,"aqi":173,"pm10":828.9,"pm2_5":88.9,"mosquito_risk":4,"arthritis_risk":5,"migraine_risk":7,"frizz_risk":0,"updated_at":"2026-04-09T16:31:58.597230+05:30"},{"city":"Meerut","state":"Uttar Pradesh","latitude":28.9845,"longitude":77.7064,"temp":27.4,"humidity":33,"rain":0.0,"pressure":985.6,"uv_index":6.95,"wind_gusts":29.9,"aqi":128,"pm10":218.9,"pm2_5":42.4,"mosquito_risk":4,"arthritis_risk":5,"migraine_risk":7,"frizz_risk":0,"updated_at":"2026-04-09T16:31:58.597237+05:30"},{"city":"Agra","state":"Uttar Pradesh","latitude":27.1767,"longitude":78.0081,"temp":29.8,"humidity":33,"rain":0.0,"pressure":991.0,"uv_index":7.45,"wind_gusts":19.8,"aqi":573,"pm10":752.5,"pm2_5":74.0,"mosquito_risk":4,"arthritis_risk":5,"migraine_risk":7,"frizz_risk":0,"updated_at":"2026-04-09T16:31:58.597244+05:30"},{"city":"Varanasi","state":"Uttar Pradesh","latitude":25.3176,"longitude":82.9739,"temp":31.6,"humidity":22,"rain":0.0,"pressure":999.6,"uv_index":8.15,"wind_gusts":36.0,"aqi":136,"pm10":64.7,"pm2_5":21.9,"mosquito_risk":0,"arthritis_risk":5,"migraine_risk":7,"frizz_risk":0,"updated_at":"2026-04-09T16:31:58.597254+05:30"},{"city":"Prayagraj","state":"Uttar Pradesh","latitude":25.4358,"longitude":81.8463,"temp":30.6,"humidity":27,"rain":0.0,"pressure":998.7,"uv_index":8.05,"wind_gusts":36.4,"aqi":126,"pm10":78.0,"pm2_5":22.6,"mosquito_risk":0,"arthritis_risk":5,"migraine_risk":7,"frizz_risk":0,"updated_at":"2026-04-09T16:31:58.597261+05:30"},{"city":"Gorakhpur","state":"Uttar Pradesh","latitude":26.7606,"longitude":83.3732,"temp":30.8,"humidity":26,"rain":0.0,"pressure":998.7,"uv_index":7.95,"wind_gusts":29.5,"aqi":148,"pm10":42.7,"pm2_5":18.9,"mosquito_risk":0,"arthritis_risk":5,"migraine_risk":7,"frizz_risk":0,"updated_at":"2026-04-09T16:31:58.597268+05:30"},{"city":"Bareilly","state":"Uttar Pradesh","latitude":28.367,"longitude":79.4304,"temp":28.4,"humidity":31,"rain":0.0,"pressure":990.3,"uv_index":7.35,"wind_gusts":33.5,"aqi":105,"pm10":27.7,"pm2_5":15.2,"mosquito_risk":4,"arthritis_risk":5,"migraine_risk":7,"frizz_risk":0,"updated_at":"2026-04-09T16:31:58.597275+05:30"},{"city":"Aligarh","state":"Uttar Pradesh","latitude":27.8974,"longitude":78.088,"temp":29.1,"humidity":31,"rain":0.0,"pressure":989.0,"uv_index":7.2,"wind_gusts":28.4,"aqi":121,"pm10":571.8,"pm2_5":64.0,"mosquito_risk":4,"arthritis_risk":5,"migraine_risk":7,"frizz_risk":0,"updated_at":"2026-04-09T16:31:58.597283+05:30"},{"city":"Moradabad","state":"Uttar Pradesh","latitude":28.8386,"longitude":78.7733,"temp":27.4,"humidity":33,"rain":0.0,"pressure":987.6,"uv_index":7.15,"wind_gusts":29.9,"aqi":103,"pm10":47.6,"pm2_5":17.2,"mosquito_risk":4,"arthritis_risk":5,"migraine_risk":7,"frizz_risk":0,"updated_at":"2026-04-09T16:31:58.597290+05:30"},{"city":"Saharanpur","state":"Uttar Pradesh","latitude":29.9637,"longitude":77.546,"temp":26.1,"humidity":37,"rain":0.0,"pressure":980.3,"uv_index":6.75,"wind_gusts":29.9,"aqi":109,"pm10":77.1,"pm2_5":20.1,"mosquito_risk":4,"arthritis_risk":5,"migraine_risk":7,"frizz_risk":0,"updated_at":"2026-04-09T16:31:58.597297+05:30"},{"city":"Jhansi","state":"Uttar Pradesh","latitude":25.4484,"longitude":78.5685,"temp":31.8,"humidity":25,"rain":0.0,"pressure":980.2,"uv_index":8.0,"wind_gusts":27.4,"aqi":104,"pm10":159.3,"pm2_5":35.4,"mosquito_risk":0,"arthritis_risk":5,"migraine_risk":7,"frizz_risk":0,"updated_at":"2026-04-09T16:32:01.824657+05:30"},{"city":"Surat","state":"Gujarat","latitude":21.1702,"longitude":72.8311,"temp":30.1,"humidity":45,"rain":0.0,"pressure":1008.0,"uv_index":7.7,"wind_gusts":28.1,"aqi":87,"pm10":117.1,"pm2_5":41.2,"mosquito_risk":0,"arthritis_risk":0,"migraine_risk":4,"frizz_risk":1,"updated_at":"2026-04-09T16:32:01.824689+05:30"},{"city":"Vadodara","state":"Gujarat","latitude":22.3072,"longitude":73.1812,"temp":34.6,"humidity":36,"rain":0.0,"pressure":1004.8,"uv_index":8.0,"wind_gusts":20.5,"aqi":87,"pm10":43.9,"pm2_5":20.7,"mosquito_risk":0,"arthritis_risk":5,"migraine_risk":4,"frizz_risk":1,"updated_at":"2026-04-09T16:32:01.824700+05:30"},{"city":"Rajkot","state":"Gujarat","latitude":22.3039,"longitude":70.8022,"temp":35.3,"humidity":26,"rain":0.0,"pressure":994.5,"uv_index":7.7,"wind_gusts":21.2,"aqi":93,"pm10":56.1,"pm2_5":21.1,"mosquito_risk":0,"arthritis_risk":5,"migraine_risk":10,"frizz_risk":0,"updated_at":"2026-04-09T16:32:01.824709+05:30"},{"city":"Thane","state":"Maharashtra","latitude":19.2183,"longitude":72.9781,"temp":30.6,"humidity":56,"rain":0.0,"pressure":1008.4,"uv_index":7.95,"wind_gusts":33.8,"aqi":81,"pm10":140.2,"pm2_5":32.2,"mosquito_risk":0,"arthritis_risk":0,"migraine_risk":4,"frizz_risk":1,"updated_at":"2026-04-09T16:32:01.824718+05:30"},{"city":"Nagpur","state":"Maharashtra","latitude":21.1458,"longitude":79.0882,"temp":34.1,"humidity":32,"rain":0.0,"pressure":972.7,"uv_index":8.75,"wind_gusts":20.5,"aqi":109,"pm10":46.0,"pm2_5":18.7,"mosquito_risk":0,"arthritis_risk":5,"migraine_risk":7,"frizz_risk":0,"updated_at":"2026-04-09T16:32:01.824726+05:30"},{"city":"Nashik","state":"Maharashtra","latitude":19.9975,"longitude":73.7898,"temp":31.1,"humidity":37,"rain":0.0,"pressure":946.3,"uv_index":8.2,"wind_gusts":27.0,"aqi":67,"pm10":86.6,"pm2_5":22.9,"mosquito_risk":0,"arthritis_risk":5,"migraine_risk":7,"frizz_risk":0,"updated_at":"2026-04-09T16:32:01.824734+05:30"},{"city":"Aurangabad","state":"Maharashtra","latitude":19.8762,"longitude":75.3433,"temp":34.2,"humidity":26,"rain":0.0,"pressure":944.4,"uv_index":8.9,"wind_gusts":29.2,"aqi":67,"pm10":53.1,"pm2_5":17.7,"mosquito_risk":0,"arthritis_risk":5,"migraine_risk":7,"frizz_risk":0,"updated_at":"2026-04-09T16:32:01.824742+05:30"},{"city":"Solapur","state":"Maharashtra","latitude":17.6599,"longitude":75.9064,"temp":37.7,"humidity":19,"rain":0.0,"pressure":956.0,"uv_index":8.95,"wind_gusts":23.8,"aqi":75,"pm10":109.0,"pm2_5":30.6,"mosquito_risk":0,"arthritis_risk":5,"migraine_risk":10,"frizz_risk":0,"updated_at":"2026-04-09T16:32:01.824751+05:30"},{"city":"Kolhapur","state":"Maharashtra","latitude":16.705,"longitude":74.2433,"temp":31.3,"humidity":47,"rain":0.0,"pressure":948.1,"uv_index":9.0,"wind_gusts":38.5,"aqi":81,"pm10":93.1,"pm2_5":26.0,"mosquito_risk":0,"arthritis_risk":5,"migraine_risk":7,"frizz_risk":1,"updated_at":"2026-04-09T16:32:01.824758+05:30"},{"city":"Goa","state":"Goa","latitude":15.2993,"longitude":74.124,"temp":31.1,"humidity":66,"rain":0.0,"pressure":997.8,"uv_index":9.0,"wind_gusts":36.0,"aqi":71,"pm10":62.6,"pm2_5":17.8,"mosquito_risk":3,"arthritis_risk":5,"migraine_risk":7,"frizz_risk":1,"updated_at":"2026-04-09T16:32:01.824766+05:30"},{"city":"Jodhpur","state":"Rajasthan","latitude":26.2389,"longitude":73.0243,"temp":33.7,"humidity":12,"rain":0.0,"pressure":985.9,"uv_index":8.0,"wind_gusts":28.4,"aqi":92,"pm10":111.3,"pm2_5":15.1,"mosquito_risk":0,"arthritis_risk":5,"migraine_risk":7,"frizz_risk":0,"updated_at":"2026-04-09T16:32:01.824774+05:30"},{"city":"Udaipur","state":"Rajasthan","latitude":24.5854,"longitude":73.7125,"temp":31.3,"humidity":16,"rain":0.0,"pressure":949.2,"uv_index":8.5,"wind_gusts":36.4,"aqi":100,"pm10":85.0,"pm2_5":17.0,"mosquito_risk":0,"arthritis_risk":5,"migraine_risk":7,"frizz_risk":0,"updated_at":"2026-04-09T16:32:01.824783+05:30"},{"city":"Kota","state":"Rajasthan","latitude":25.2138,"longitude":75.8648,"temp":32.8,"humidity":23,"rain":0.0,"pressure":980.8,"uv_index":8.0,"wind_gusts":24.8,"aqi":115,"pm10":91.5,"pm2_5":25.0,"mosquito_risk":0,"arthritis_risk":5,"migraine_risk":7,"frizz_risk":0,"updated_at":"2026-04-09T16:32:01.824790+05:30"},{"city":"Bikaner","state":"Rajasthan","latitude":28.0229,"longitude":73.3119,"temp":31.6,"humidity":18,"rain":0.0,"pressure":985.9,"uv_index":7.8,"wind_gusts":21.6,"aqi":91,"pm10":69.2,"pm2_5":15.0,"mosquito_risk":0,"arthritis_risk":5,"migraine_risk":7,"frizz_risk":0,"updated_at":"2026-04-09T16:32:01.824798+05:30"},{"city":"Ajmer","state":"Rajasthan","latitude":26.4499,"longitude":74.6399,"temp":30.5,"humidity":21,"rain":0.0,"pressure":957.5,"uv_index":7.95,"wind_gusts":28.8,"aqi":95,"pm10":61.9,"pm2_5":14.6,"mosquito_risk":0,"arthritis_risk":5,"migraine_risk":7,"frizz_risk":0,"updated_at":"2026-04-09T16:32:01.824805+05:30"},{"city":"Gwalior","state":"Madhya Pradesh","latitude":26.2183,"longitude":78.1828,"temp":30.5,"humidity":33,"rain":0.0,"pressure":986.1,"uv_index":7.75,"wind_gusts":28.8,"aqi":109,"pm10":129.0,"pm2_5":27.3,"mosquito_risk":0,"arthritis_risk":5,"migraine_risk":7,"frizz_risk":0,"updated_at":"2026-04-09T16:32:01.824813+05:30"},{"city":"Indore","state":"Madhya Pradesh","latitude":22.7196,"longitude":75.8577,"temp":32.1,"humidity":28,"rain":0.0,"pressure":949.5,"uv_index":8.4,"wind_gusts":22.7,"aqi":84,"pm10":38.9,"pm2_5":18.3,"mosquito_risk":0,"arthritis_risk":5,"migraine_risk":7,"frizz_risk":0,"updated_at":"2026-04-09T16:32:01.824820+05:30"},{"city":"Bhopal","state":"Madhya Pradesh","latitude":23.2599,"longitude":77.4126,"temp":33.5,"humidity":21,"rain":0.0,"pressure":954.9,"uv_index":8.4,"wind_gusts":26.6,"aqi":94,"pm10":67.8,"pm2_5":22.5,"mosquito_risk":0,"arthritis_risk":5,"migraine_risk":7,"frizz_risk":0,"updated_at":"2026-04-09T16:32:01.824828+05:30"},{"city":"Jabalpur","state":"Madhya Pradesh","latitude":23.1815,"longitude":79.9864,"temp":32.0,"humidity":29,"rain":0.0,"pressure":962.8,"uv_index":8.55,"wind_gusts":27.0,"aqi":123,"pm10":68.0,"pm2_5":23.7,"mosquito_risk":0,"arthritis_risk":5,"migraine_risk":7,"frizz_risk":0,"updated_at":"2026-04-09T16:32:01.824836+05:30"},{"city":"Ujjain","state":"Madhya Pradesh","latitude":23.1765,"longitude":75.7885,"temp":33.0,"humidity":21,"rain":0.0,"pressure":955.2,"uv_index":8.35,"wind_gusts":22.0,"aqi":76,"pm10":47.7,"pm2_5":19.3,"mosquito_risk":0,"arthritis_risk":5,"migraine_risk":7,"frizz_risk":0,"updated_at":"2026-04-09T16:32:01.824844+05:30"},{"city":"Visakhapatnam","state":"Andhra Pradesh","latitude":17.6868,"longitude":83.2185,"temp":30.9,"humidity":67,"rain":0.0,"pressure":1002.6,"uv_index":9.15,"wind_gusts":43.2,"aqi":95,"pm10":30.9,"pm2_5":26.3,"mosquito_risk":3,"arthritis_risk":5,"migraine_risk":4,"frizz_risk":1,"updated_at":"2026-04-09T16:32:01.824851+05:30"},{"city":"Vijayawada","state":"Andhra Pradesh","latitude":16.5062,"longitude":80.648,"temp":36.3,"humidity":41,"rain":0.0,"pressure":1000.2,"uv_index":9.15,"wind_gusts":33.1,"aqi":87,"pm10":28.4,"pm2_5":24.2,"mosquito_risk":0,"arthritis_risk":5,"migraine_risk":7,"frizz_risk":1,"updated_at":"2026-04-09T16:32:01.824859+05:30"},{"city":"Guntur","state":"Andhra Pradesh","latitude":16.3067,"longitude":80.4365,"temp":35.2,"humidity":50,"rain":0.0,"pressure":1001.5,"uv_index":8.95,"wind_gusts":31.7,"aqi":101,"pm10":34.5,"pm2_5":27.8,"mosquito_risk":0,"arthritis_risk":5,"migraine_risk":7,"frizz_risk":1,"updated_at":"2026-04-09T16:32:01.824867+05:30"},{"city":"Nellore","state":"Andhra Pradesh","latitude":14.4426,"longitude":79.9865,"temp":34.5,"humidity":59,"rain":0.0,"pressure":1003.1,"uv_index":9.3,"wind_gusts":34.9,"aqi":102,"pm10":30.0,"pm2_5":24.2,"mosquito_risk":0,"arthritis_risk":5,"migraine_risk":4,"frizz_risk":1,"updated_at":"2026-04-09T16:32:01.824876+05:30"},{"city":"Kurnool","state":"Andhra Pradesh","latitude":15.8281,"longitude":78.0373,"temp":39.6,"humidity":19,"rain":0.0,"pressure":974.4,"uv_index":9.2,"wind_gusts":27.7,"aqi":117,"pm10":44.6,"pm2_5":19.7,"mosquito_risk":0,"arthritis_risk":5,"migraine_risk":10,"frizz_risk":0,"updated_at":"2026-04-09T16:32:01.824884+05:30"},{"city":"Kakinada","state":"Andhra Pradesh","latitude":16.9891,"longitude":82.2475,"temp":34.0,"humidity":54,"rain":0.0,"pressure":1006.0,"uv_index":9.15,"wind_gusts":28.4,"aqi":78,"pm10":25.8,"pm2_5":19.8,"mosquito_risk":0,"arthritis_risk":5,"migraine_risk":4,"frizz_risk":1,"updated_at":"2026-04-09T16:32:01.824892+05:30"},{"city":"Tirupati","state":"Andhra Pradesh","latitude":13.6288,"longitude":79.4192,"temp":36.0,"humidity":38,"rain":0.0,"pressure":989.1,"uv_index":9.35,"wind_gusts":29.2,"aqi":105,"pm10":29.3,"pm2_5":26.8,"mosquito_risk":0,"arthritis_risk":5,"migraine_risk":10,"frizz_risk":1,"updated_at":"2026-04-09T16:32:01.824899+05:30"},{"city":"Warangal","state":"Telangana","latitude":17.9689,"longitude":79.5941,"temp":35.9,"humidity":41,"rain":0.0,"pressure":977.1,"uv_index":9.05,"wind_gusts":24.5,"aqi":121,"pm10":52.2,"pm2_5":30.3,"mosquito_risk":0,"arthritis_risk":5,"migraine_risk":10,"frizz_risk":1,"updated_at":"2026-04-09T16:32:01.824907+05:30"},{"city":"Nizamabad","state":"Telangana","latitude":18.6725,"longitude":78.0941,"temp":36.2,"humidity":21,"rain":0.0,"pressure":964.1,"uv_index":8.95,"wind_gusts":26.3,"aqi":88,"pm10":76.6,"pm2_5":28.1,"mosquito_risk":0,"arthritis_risk":5,"migraine_risk":10,"frizz_risk":0,"updated_at":"2026-04-09T16:32:01.824914+05:30"},{"city":"Mysore","state":"Karnataka","latitude":12.2958,"longitude":76.6396,"temp":34.8,"humidity":27,"rain":0.0,"pressure":927.0,"uv_index":9.55,"wind_gusts":41.8,"aqi":104,"pm10":23.1,"pm2_5":13.9,"mosquito_risk":0,"arthritis_risk":5,"migraine_risk":7,"frizz_risk":0,"updated_at":"2026-04-09T16:32:01.824922+05:30"},{"city":"Mangalore","state":"Karnataka","latitude":12.9141,"longitude":74.856,"temp":29.5,"humidity":78,"rain":0.0,"pressure":1005.8,"uv_index":9.15,"wind_gusts":33.5,"aqi":76,"pm10":58.2,"pm2_5":19.5,"mosquito_risk":7,"arthritis_risk":5,"migraine_risk":4,"frizz_risk":1,"updated_at":"2026-04-09T16:32:01.824930+05:30"},{"city":"Hubli-Dharwad","state":"Karnataka","latitude":15.3647,"longitude":75.124,"temp":34.2,"humidity":32,"rain":0.0,"pressure":940.3,"uv_index":9.2,"wind_gusts":38.9,"aqi":68,"pm10":61.5,"pm2_5":19.8,"mosquito_risk":0,"arthritis_risk":5,"migraine_risk":7,"frizz_risk":0,"updated_at":"2026-04-09T16:32:01.824938+05:30"},{"city":"Belgaum","state":"Karnataka","latitude":15.8497,"longitude":74.4977,"temp":31.1,"humidity":44,"rain":0.0,"pressure":925.9,"uv_index":9.2,"wind_gusts":38.2,"aqi":75,"pm10":68.2,"pm2_5":19.8,"mosquito_risk":0,"arthritis_risk":5,"migraine_risk":7,"frizz_risk":1,"updated_at":"2026-04-09T16:32:05.047771+05:30"},{"city":"Coimbatore","state":"Tamil Nadu","latitude":11.0168,"longitude":76.9558,"temp":31.4,"humidity":55,"rain":0.0,"pressure":960.7,"uv_index":9.5,"wind_gusts":42.1,"aqi":57,"pm10":17.1,"pm2_5":10.9,"mosquito_risk":0,"arthritis_risk":5,"migraine_risk":7,"frizz_risk":1,"updated_at":"2026-04-09T16:32:05.047813+05:30"},{"city":"Madurai","state":"Tamil Nadu","latitude":9.9252,"longitude":78.1198,"temp":35.8,"humidity":39,"rain":0.0,"pressure":990.5,"uv_index":9.4,"wind_gusts":23.8,"aqi":117,"pm10":31.9,"pm2_5":27.9,"mosquito_risk":0,"arthritis_risk":5,"migraine_risk":10,"frizz_risk":1,"updated_at":"2026-04-09T16:32:05.047824+05:30"},{"city":"Trichy","state":"Tamil Nadu","latitude":10.7905,"longitude":78.7047,"temp":36.0,"humidity":44,"rain":0.0,"pressure":997.0,"uv_index":9.4,"wind_gusts":22.7,"aqi":86,"pm10":24.7,"pm2_5":21.3,"mosquito_risk":0,"arthritis_risk":5,"migraine_risk":10,"frizz_risk":1,"updated_at":"2026-04-09T16:32:05.047833+05:30"},{"city":"Salem","state":"Tamil Nadu","latitude":11.6643,"longitude":78.146,"temp":36.7,"humidity":34,"rain":0.0,"pressure":974.9,"uv_index":9.3,"wind_gusts":36.4,"aqi":135,"pm10":23.0,"pm2_5":20.1,"mosquito_risk":0,"arthritis_risk":5,"migraine_risk":10,"frizz_risk":1,"updated_at":"2026-04-09T16:32:05.047841+05:30"},{"city":"Tirunelveli","state":"Tamil Nadu","latitude":8.7139,"longitude":77.7567,"temp":36.0,"humidity":39,"rain":0.0,"pressure":1000.6,"uv_index":9.25,"wind_gusts":19.8,"aqi":90,"pm10":26.8,"pm2_5":23.0,"mosquito_risk":0,"arthritis_risk":5,"migraine_risk":7,"frizz_risk":1,"updated_at":"2026-04-09T16:32:05.047850+05:30"},{"city":"Vellore","state":"Tamil Nadu","latitude":12.9165,"longitude":79.1325,"temp":36.2,"humidity":37,"rain":0.0,"pressure":982.0,"uv_index":9.45,"wind_gusts":20.2,"aqi":113,"pm10":27.2,"pm2_5":24.7,"mosquito_risk":0,"arthritis_risk":5,"migraine_risk":10,"frizz_risk":1,"updated_at":"2026-04-09T16:32:05.047859+05:30"},{"city":"Erode","state":"Tamil Nadu","latitude":11.341,"longitude":77.7172,"temp":38.1,"humidity":33,"rain":0.0,"pressure":985.9,"uv_index":8.8,"wind_gusts":20.2,"aqi":98,"pm10":13.9,"pm2_5":11.6,"mosquito_risk":0,"arthritis_risk":5,"migraine_risk":10,"frizz_risk":1,"updated_at":"2026-04-09T16:32:05.047867+05:30"},{"city":"Kochi","state":"Kerala","latitude":9.9312,"longitude":76.2673,"temp":29.6,"humidity":76,"rain":0.0,"pressure":1007.2,"uv_index":8.3,"wind_gusts":25.6,"aqi":64,"pm10":30.9,"pm2_5":17.0,"mosquito_risk":7,"arthritis_risk":5,"migraine_risk":4,"frizz_risk":1,"updated_at":"2026-04-09T16:32:05.047875+05:30"},{"city":"Thiruvananthapuram","state":"Kerala","latitude":8.5241,"longitude":76.9366,"temp":29.2,"humidity":78,"rain":0.0,"pressure":1006.5,"uv_index":9.05,"wind_gusts":34.9,"aqi":51,"pm10":26.5,"pm2_5":15.2,"mosquito_risk":7,"arthritis_risk":5,"migraine_risk":4,"frizz_risk":1,"updated_at":"2026-04-09T16:32:05.047884+05:30"},{"city":"Kozhikode","state":"Kerala","latitude":11.2588,"longitude":75.7804,"temp":30.4,"humidity":75,"rain":0.0,"pressure":1006.6,"uv_index":9.15,"wind_gusts":27.4,"aqi":67,"pm10":47.1,"pm2_5":17.6,"mosquito_risk":3,"arthritis_risk":5,"migraine_risk":4,"frizz_risk":1,"updated_at":"2026-04-09T16:32:05.047892+05:30"},{"city":"Thrissur","state":"Kerala","latitude":10.5276,"longitude":76.2144,"temp":32.5,"humidity":61,"rain":0.0,"pressure":1005.5,"uv_index":7.7,"wind_gusts":30.6,"aqi":63,"pm10":31.3,"pm2_5":16.6,"mosquito_risk":3,"arthritis_risk":5,"migraine_risk":4,"frizz_risk":1,"updated_at":"2026-04-09T16:32:05.047900+05:30"},{"city":"Kannur","state":"Kerala","latitude":11.8745,"longitude":75.3704,"temp":31.7,"humidity":64,"rain":0.0,"pressure":1006.1,"uv_index":9.15,"wind_gusts":32.8,"aqi":72,"pm10":47.1,"pm2_5":18.2,"mosquito_risk":3,"arthritis_risk":5,"migraine_risk":4,"frizz_risk":1,"updated_at":"2026-04-09T16:32:05.047908+05:30"},{"city":"Patna","state":"Bihar","latitude":25.5941,"longitude":85.1376,"temp":30.9,"humidity":33,"rain":0.0,"pressure":1001.3,"uv_index":8.3,"wind_gusts":27.0,"aqi":144,"pm10":47.7,"pm2_5":22.6,"mosquito_risk":0,"arthritis_risk":5,"migraine_risk":4,"frizz_risk":0,"updated_at":"2026-04-09T16:32:05.047916+05:30"},{"city":"Gaya","state":"Bihar","latitude":24.7914,"longitude":85.0002,"temp":30.9,"humidity":35,"rain":0.0,"pressure":994.9,"uv_index":8.4,"wind_gusts":24.1,"aqi":146,"pm10":50.3,"pm2_5":20.8,"mosquito_risk":0,"arthritis_risk":5,"migraine_risk":7,"frizz_risk":0,"updated_at":"2026-04-09T16:32:05.047925+05:30"},{"city":"Muzaffarpur","state":"Bihar","latitude":26.1209,"longitude":85.3647,"temp":29.8,"humidity":40,"rain":0.0,"pressure":1001.3,"uv_index":7.75,"wind_gusts":19.4,"aqi":138,"pm10":49.0,"pm2_5":23.7,"mosquito_risk":4,"arthritis_risk":5,"migraine_risk":4,"frizz_risk":0,"updated_at":"2026-04-09T16:32:05.047933+05:30"},{"city":"Bhagalpur","state":"Bihar","latitude":25.2425,"longitude":87.0117,"temp":28.5,"humidity":52,"rain":0.0,"pressure":1002.0,"uv_index":8.25,"wind_gusts":23.4,"aqi":130,"pm10":52.2,"pm2_5":31.8,"mosquito_risk":4,"arthritis_risk":5,"migraine_risk":4,"frizz_risk":1,"updated_at":"2026-04-09T16:32:05.047941+05:30"},{"city":"Ranchi","state":"Jharkhand","latitude":23.3441,"longitude":85.3096,"temp":28.0,"humidity":35,"rain":0.0,"pressure":938.5,"uv_index":8.85,"wind_gusts":31.0,"aqi":114,"pm10":51.2,"pm2_5":18.7,"mosquito_risk":4,"arthritis_risk":5,"migraine_risk":7,"frizz_risk":0,"updated_at":"2026-04-09T16:32:05.047949+05:30"},{"city":"Jamshedpur","state":"Jharkhand","latitude":22.8046,"longitude":86.2029,"temp":30.9,"humidity":45,"rain":0.0,"pressure":991.0,"uv_index":8.6,"wind_gusts":15.8,"aqi":124,"pm10":76.6,"pm2_5":32.6,"mosquito_risk":0,"arthritis_risk":5,"migraine_risk":7,"frizz_risk":1,"updated_at":"2026-04-09T16:32:05.047957+05:30"},{"city":"Dhanbad","state":"Jharkhand","latitude":23.7957,"longitude":86.4304,"temp":29.5,"humidity":46,"rain":0.0,"pressure":980.5,"uv_index":8.7,"wind_gusts":23.0,"aqi":150,"pm10":51.1,"pm2_5":24.3,"mosquito_risk":4,"arthritis_risk":5,"migraine_risk":7,"frizz_risk":1,"updated_at":"2026-04-09T16:32:05.047965+05:30"},{"city":"Bokaro","state":"Jharkhand","latitude":23.6693,"longitude":86.1511,"temp":28.2,"humidity":53,"rain":0.0,"pressure":984.8,"uv_index":8.7,"wind_gusts":23.8,"aqi":151,"pm10":52.4,"pm2_5":23.2,"mosquito_risk":4,"arthritis_risk":5,"migraine_risk":7,"frizz_risk":1,"updated_at":"2026-04-09T16:32:05.047973+05:30"},{"city":"Bhubaneswar","state":"Odisha","latitude":20.2961,"longitude":85.8245,"temp":28.3,"humidity":75,"rain":0.0,"pressure":1002.8,"uv_index":9.0,"wind_gusts":32.8,"aqi":99,"pm10":56.2,"pm2_5":41.1,"mosquito_risk":7,"arthritis_risk":5,"migraine_risk":4,"frizz_risk":1,"updated_at":"2026-04-09T16:32:05.047981+05:30"},{"city":"Cuttack","state":"Odisha","latitude":20.4625,"longitude":85.8828,"temp":29.7,"humidity":71,"rain":0.0,"pressure":1004.7,"uv_index":9.05,"wind_gusts":31.7,"aqi":99,"pm10":56.2,"pm2_5":41.1,"mosquito_risk":7,"arthritis_risk":5,"migraine_risk":4,"frizz_risk":1,"updated_at":"2026-04-09T16:32:05.047988+05:30"},{"city":"Rourkela","state":"Odisha","latitude":22.2604,"longitude":84.8536,"temp":32.1,"humidity":40,"rain":0.0,"pressure":985.0,"uv_index":8.75,"wind_gusts":19.1,"aqi":116,"pm10":58.1,"pm2_5":22.1,"mosquito_risk":0,"arthritis_risk":5,"migraine_risk":7,"frizz_risk":1,"updated_at":"2026-04-09T16:32:05.047995+05:30"},{"city":"Raipur","state":"Chhattisgarh","latitude":21.2514,"longitude":81.6296,"temp":36.0,"humidity":25,"rain":0.0,"pressure":973.7,"uv_index":8.85,"wind_gusts":27.4,"aqi":119,"pm10":82.4,"pm2_5":37.4,"mosquito_risk":0,"arthritis_risk":5,"migraine_risk":10,"frizz_risk":0,"updated_at":"2026-04-09T16:32:05.048003+05:30"},{"city":"Bhilai","state":"Chhattisgarh","latitude":21.1938,"longitude":81.3509,"temp":36.5,"humidity":24,"rain":0.0,"pressure":974.0,"uv_index":8.6,"wind_gusts":28.4,"aqi":116,"pm10":78.2,"pm2_5":33.2,"mosquito_risk":0,"arthritis_risk":5,"migraine_risk":10,"frizz_risk":0,"updated_at":"2026-04-09T16:32:05.048011+05:30"},{"city":"Guwahati","state":"Assam","latitude":26.1158,"longitude":91.7086,"temp":26.1,"humidity":70,"rain":0.0,"pressure":1001.9,"uv_index":8.05,"wind_gusts":24.8,"aqi":87,"pm10":31.7,"pm2_5":26.5,"mosquito_risk":7,"arthritis_risk":5,"migraine_risk":4,"frizz_risk":1,"updated_at":"2026-04-09T16:32:05.048018+05:30"},{"city":"Agartala","state":"Tripura","latitude":23.8315,"longitude":91.2868,"temp":25.1,"humidity":84,"rain":0.0,"pressure":1007.1,"uv_index":8.25,"wind_gusts":19.1,"aqi":125,"pm10":42.3,"pm2_5":39.8,"mosquito_risk":7,"arthritis_risk":5,"migraine_risk":4,"frizz_risk":1,"updated_at":"2026-04-09T16:32:05.048025+05:30"},{"city":"Shillong","state":"Meghalaya","latitude":25.5788,"longitude":91.8933,"temp":14.7,"humidity":76,"rain":0.0,"pressure":855.1,"uv_index":8.3,"wind_gusts":35.6,"aqi":92,"pm10":33.1,"pm2_5":25.6,"mosquito_risk":3,"arthritis_risk":5,"migraine_risk":7,"frizz_risk":0,"updated_at":"2026-04-09T16:32:05.048033+05:30"},{"city":"Imphal","state":"Manipur","latitude":24.817,"longitude":93.9368,"temp":17.5,"humidity":89,"rain":0.2,"pressure":923.5,"uv_index":7.55,"wind_gusts":47.9,"aqi":84,"pm10":28.7,"pm2_5":25.3,"mosquito_risk":6,"arthritis_risk":10,"migraine_risk":7,"frizz_risk":0,"updated_at":"2026-04-09T16:32:05.048042+05:30"},{"city":"Aizawl","state":"Mizoram","latitude":23.7271,"longitude":92.7176,"temp":18.3,"humidity":89,"rain":0.0,"pressure":892.9,"uv_index":6.4,"wind_gusts":47.5,"aqi":70,"pm10":25.4,"pm2_5":21.7,"mosquito_risk":3,"arthritis_risk":10,"migraine_risk":7,"frizz_risk":1,"updated_at":"2026-04-09T16:32:05.048050+05:30"},{"city":"Kohima","state":"Nagaland","latitude":25.6701,"longitude":94.1077,"temp":15.2,"humidity":83,"rain":0.0,"pressure":854.3,"uv_index":6.7,"wind_gusts":67.0,"aqi":94,"pm10":28.0,"pm2_5":20.8,"mosquito_risk":3,"arthritis_risk":10,"migraine_risk":7,"frizz_risk":0,"updated_at":"2026-04-09T16:32:05.048058+05:30"},{"city":"Gangtok","state":"Sikkim","latitude":27.3314,"longitude":88.6138,"temp":13.8,"humidity":86,"rain":0.0,"pressure":835.9,"uv_index":5.8,"wind_gusts":20.2,"aqi":113,"pm10":18.5,"pm2_5":15.8,"mosquito_risk":3,"arthritis_risk":10,"migraine_risk":3,"frizz_risk":0,"updated_at":"2026-04-09T16:32:05.048066+05:30"},{"city":"Siliguri","state":"West Bengal","latitude":26.7271,"longitude":88.3953,"temp":21.5,"humidity":77,"rain":0.0,"pressure":994.7,"uv_index":4.4,"wind_gusts":21.6,"aqi":125,"pm10":36.4,"pm2_5":29.1,"mosquito_risk":3,"arthritis_risk":5,"migraine_risk":3,"frizz_risk":1,"updated_at":"2026-04-09T16:32:08.270663+05:30"},{"city":"Durgapur","state":"West Bengal","latitude":23.5204,"longitude":87.3119,"temp":29.9,"humidity":50,"rain":0.0,"pressure":995.4,"uv_index":8.7,"wind_gusts":18.0,"aqi":133,"pm10":80.6,"pm2_5":38.3,"mosquito_risk":4,"arthritis_risk":5,"migraine_risk":7,"frizz_risk":1,"updated_at":"2026-04-09T16:32:08.270695+05:30"},{"city":"Asansol","state":"West Bengal","latitude":23.6739,"longitude":86.9524,"temp":29.9,"humidity":51,"rain":0.0,"pressure":994.1,"uv_index":8.7,"wind_gusts":18.4,"aqi":132,"pm10":60.1,"pm2_5":28.6,"mosquito_risk":4,"arthritis_risk":5,"migraine_risk":7,"frizz_risk":1,"updated_at":"2026-04-09T16:32:08.270705+05:30"},{"city":"Pondicherry","state":"Puducherry","latitude":11.9139,"longitude":79.8145,"temp":34.7,"humidity":58,"rain":0.0,"pressure":1005.9,"uv_index":9.3,"wind_gusts":27.7,"aqi":113,"pm10":27.4,"pm2_5":22.2,"mosquito_risk":0,"arthritis_risk":5,"migraine_risk":4,"frizz_risk":1,"updated_at":"2026-04-09T16:32:08.270714+05:30"},{"city":"Port Blair","state":"Andaman and Nicobar Islands","latitude":11.6234,"longitude":92.7265,"temp":29.6,"humidity":71,"rain":0.0,"pressure":1007.6,"uv_index":9.25,"wind_gusts":13.0,"aqi":35,"pm10":6.5,"pm2_5":5.1,"mosquito_risk":7,"arthritis_risk":5,"migraine_risk":4,"frizz_risk":1,"updated_at":"2026-04-09T16:32:08.270723+05:30"},{"city":"Haridwar","state":"Uttarakhand","latitude":29.9457,"longitude":78.1642,"temp":26.4,"humidity":36,"rain":0.0,"pressure":978.4,"uv_index":6.9,"wind_gusts":30.6,"aqi":111,"pm10":41.7,"pm2_5":15.4,"mosquito_risk":4,"arthritis_risk":5,"migraine_risk":7,"frizz_risk":0,"updated_at":"2026-04-09T16:32:08.270731+05:30"},{"city":"Rishikesh","state":"Uttarakhand","latitude":30.0869,"longitude":78.2676,"temp":25.2,"humidity":39,"rain":0.0,"pressure":971.0,"uv_index":6.95,"wind_gusts":28.8,"aqi":107,"pm10":31.0,"pm2_5":11.4,"mosquito_risk":4,"arthritis_risk":5,"migraine_risk":7,"frizz_risk":0,"updated_at":"2026-04-09T16:32:08.270740+05:30"},{"city":"Nainital","state":"Uttarakhand","latitude":29.3919,"longitude":79.4542,"temp":17.7,"humidity":45,"rain":0.0,"pressure":807.7,"uv_index":7.8,"wind_gusts":39.2,"aqi":98,"pm10":24.5,"pm2_5":11.0,"mosquito_risk":0,"arthritis_risk":5,"migraine_risk":7,"frizz_risk":0,"updated_at":"2026-04-09T16:32:08.270748+05:30"},{"city":"Mussoorie","state":"Uttarakhand","latitude":30.4599,"longitude":78.0664,"temp":15.1,"humidity":59,"rain":0.0,"pressure":804.2,"uv_index":6.6,"wind_gusts":26.6,"aqi":113,"pm10":25.6,"pm2_5":11.8,"mosquito_risk":0,"arthritis_risk":5,"migraine_risk":7,"frizz_risk":0,"updated_at":"2026-04-09T16:32:08.270757+05:30"},{"city":"Dharamshala","state":"Himachal Pradesh","latitude":32.219,"longitude":76.3234,"temp":16.9,"humidity":70,"rain":0.0,"pressure":871.9,"uv_index":7.5,"wind_gusts":23.4,"aqi":121,"pm10":17.3,"pm2_5":9.2,"mosquito_risk":3,"arthritis_risk":5,"migraine_risk":7,"frizz_risk":0,"updated_at":"2026-04-09T16:32:08.270765+05:30"},{"city":"Dalhousie","state":"Himachal Pradesh","latitude":32.5387,"longitude":75.971,"temp":14.4,"humidity":60,"rain":0.0,"pressure":805.9,"uv_index":7.65,"wind_gusts":18.7,"aqi":106,"pm10":25.5,"pm2_5":11.2,"mosquito_risk":0,"arthritis_risk":5,"migraine_risk":7,"frizz_risk":0,"updated_at":"2026-04-09T16:32:08.270774+05:30"},{"city":"Patiala","state":"Punjab","latitude":30.3398,"longitude":76.3869,"temp":26.3,"humidity":37,"rain":0.0,"pressure":983.2,"uv_index":6.9,"wind_gusts":27.0,"aqi":95,"pm10":219.8,"pm2_5":38.9,"mosquito_risk":4,"arthritis_risk":5,"migraine_risk":7,"frizz_risk":0,"updated_at":"2026-04-09T16:32:08.270782+05:30"},{"city":"Bhatinda","state":"Punjab","latitude":30.211,"longitude":74.9455,"temp":26.4,"humidity":42,"rain":0.0,"pressure":988.9,"uv_index":7.6,"wind_gusts":27.4,"aqi":102,"pm10":50.2,"pm2_5":21.7,"mosquito_risk":4,"arthritis_risk":5,"migraine_risk":7,"frizz_risk":0,"updated_at":"2026-04-09T16:32:08.270790+05:30"},{"city":"Rohtak","state":"Haryana","latitude":28.8955,"longitude":76.6066,"temp":28.6,"humidity":31,"rain":0.0,"pressure":985.4,"uv_index":7.05,"wind_gusts":32.0,"aqi":144,"pm10":382.8,"pm2_5":47.6,"mosquito_risk":4,"arthritis_risk":5,"migraine_risk":7,"frizz_risk":0,"updated_at":"2026-04-09T16:32:08.270798+05:30"},{"city":"Panipat","state":"Haryana","latitude":29.3909,"longitude":76.9635,"temp":27.8,"humidity":32,"rain":0.0,"pressure":984.6,"uv_index":6.9,"wind_gusts":29.9,"aqi":133,"pm10":730.2,"pm2_5":75.9,"mosquito_risk":4,"arthritis_risk":5,"migraine_risk":7,"frizz_risk":0,"updated_at":"2026-04-09T16:32:08.270806+05:30"},{"city":"Mathura","state":"Uttar Pradesh","latitude":27.4924,"longitude":77.6737,"temp":30.0,"humidity":29,"rain":0.0,"pressure":990.3,"uv_index":7.35,"wind_gusts":25.6,"aqi":375,"pm10":474.0,"pm2_5":53.4,"mosquito_risk":4,"arthritis_risk":5,"migraine_risk":7,"frizz_risk":0,"updated_at":"2026-04-09T16:32:08.270813+05:30"},{"city":"Vrindavan","state":"Uttar Pradesh","latitude":27.5823,"longitude":77.7027,"temp":29.4,"humidity":32,"rain":0.0,"pressure":990.8,"uv_index":7.35,"wind_gusts":27.0,"aqi":375,"pm10":474.0,"pm2_5":53.4,"mosquito_risk":4,"arthritis_risk":5,"migraine_risk":7,"frizz_risk":0,"updated_at":"2026-04-09T16:32:08.270821+05:30"},{"city":"Ayodhya","state":"Uttar Pradesh","latitude":26.7922,"longitude":82.1998,"temp":30.7,"humidity":22,"rain":0.0,"pressure":997.6,"uv_index":7.75,"wind_gusts":36.0,"aqi":116,"pm10":39.3,"pm2_5":16.6,"mosquito_risk":0,"arthritis_risk":5,"migraine_risk":7,"frizz_risk":0,"updated_at":"2026-04-09T16:32:08.270829+05:30"},{"city":"Ratlam","state":"Madhya Pradesh","latitude":23.3315,"longitude":75.0367,"temp":32.4,"humidity":23,"rain":0.0,"pressure":956.4,"uv_index":8.3,"wind_gusts":27.0,"aqi":67,"pm10":48.5,"pm2_5":18.0,"mosquito_risk":0,"arthritis_risk":5,"migraine_risk":7,"frizz_risk":0,"updated_at":"2026-04-09T16:32:08.270837+05:30"},{"city":"Sagar","state":"Madhya Pradesh","latitude":23.8388,"longitude":78.7378,"temp":32.2,"humidity":24,"rain":0.0,"pressure":951.9,"uv_index":8.4,"wind_gusts":25.9,"aqi":94,"pm10":85.4,"pm2_5":26.3,"mosquito_risk":0,"arthritis_risk":5,"migraine_risk":7,"frizz_risk":0,"updated_at":"2026-04-09T16:32:08.270845+05:30"},{"city":"Satna","state":"Madhya Pradesh","latitude":24.6005,"longitude":80.8322,"temp":31.3,"humidity":22,"rain":0.0,"pressure":973.4,"uv_index":8.4,"wind_gusts":26.6,"aqi":111,"pm10":102.4,"pm2_5":23.3,"mosquito_risk":0,"arthritis_risk":5,"migraine_risk":7,"frizz_risk":0,"updated_at":"2026-04-09T16:32:08.270852+05:30"},{"city":"Akola","state":"Maharashtra","latitude":20.7002,"longitude":77.0082,"temp":35.5,"humidity":28,"rain":0.0,"pressure":974.7,"uv_index":8.7,"wind_gusts":25.6,"aqi":72,"pm10":45.5,"pm2_5":18.9,"mosquito_risk":0,"arthritis_risk":5,"migraine_risk":10,"frizz_risk":0,"updated_at":"2026-04-09T16:32:08.270861+05:30"},{"city":"Amravati","state":"Maharashtra","latitude":20.9374,"longitude":77.7796,"temp":36.2,"humidity":23,"rain":0.0,"pressure":966.9,"uv_index":8.7,"wind_gusts":20.2,"aqi":86,"pm10":44.6,"pm2_5":18.7,"mosquito_risk":0,"arthritis_risk":5,"migraine_risk":10,"frizz_risk":0,"updated_at":"2026-04-09T16:32:08.270869+05:30"},{"city":"Latur","state":"Maharashtra","latitude":18.4088,"longitude":76.5604,"temp":34.2,"humidity":24,"rain":0.0,"pressure":939.7,"uv_index":8.95,"wind_gusts":28.4,"aqi":80,"pm10":127.1,"pm2_5":37.3,"mosquito_risk":0,"arthritis_risk":5,"migraine_risk":7,"frizz_risk":0,"updated_at":"2026-04-09T16:32:08.270878+05:30"},{"city":"Nanded","state":"Maharashtra","latitude":19.1383,"longitude":77.3091,"temp":35.4,"humidity":27,"rain":0.0,"pressure":968.3,"uv_index":8.85,"wind_gusts":22.3,"aqi":78,"pm10":117.6,"pm2_5":34.0,"mosquito_risk":0,"arthritis_risk":5,"migraine_risk":10,"frizz_risk":0,"updated_at":"2026-04-09T16:32:08.270886+05:30"},{"city":"Gulbarga","state":"Karnataka","latitude":17.3297,"longitude":76.8343,"temp":37.9,"humidity":18,"rain":0.0,"pressure":957.6,"uv_index":9.0,"wind_gusts":31.3,"aqi":84,"pm10":64.3,"pm2_5":22.8,"mosquito_risk":0,"arthritis_risk":5,"migraine_risk":10,"frizz_risk":0,"updated_at":"2026-04-09T16:32:08.270893+05:30"},{"city":"Bidar","state":"Karnataka","latitude":17.9104,"longitude":77.5199,"temp":35.5,"humidity":20,"rain":0.0,"pressure":935.3,"uv_index":9.05,"wind_gusts":32.4,"aqi":88,"pm10":60.8,"pm2_5":24.1,"mosquito_risk":0,"arthritis_risk":5,"migraine_risk":10,"frizz_risk":0,"updated_at":"2026-04-09T16:32:08.270901+05:30"},{"city":"Hospet","state":"Karnataka","latitude":15.2689,"longitude":76.3909,"temp":36.3,"humidity":24,"rain":0.0,"pressure":954.6,"uv_index":9.2,"wind_gusts":23.4,"aqi":69,"pm10":61.0,"pm2_5":20.8,"mosquito_risk":0,"arthritis_risk":5,"migraine_risk":10,"frizz_risk":0,"updated_at":"2026-04-09T16:32:08.270909+05:30"},{"city":"Tirupur","state":"Tamil Nadu","latitude":11.1085,"longitude":77.3411,"temp":35.1,"humidity":40,"rain":0.0,"pressure":973.2,"uv_index":9.25,"wind_gusts":34.2,"aqi":90,"pm10":13.2,"pm2_5":10.4,"mosquito_risk":0,"arthritis_risk":5,"migraine_risk":10,"frizz_risk":1,"updated_at":"2026-04-09T16:32:08.270917+05:30"},{"city":"Alappuzha","state":"Kerala","latitude":9.4981,"longitude":76.3388,"temp":29.4,"humidity":78,"rain":0.0,"pressure":1007.4,"uv_index":8.2,"wind_gusts":25.6,"aqi":68,"pm10":36.2,"pm2_5":18.6,"mosquito_risk":7,"arthritis_risk":5,"migraine_risk":4,"frizz_risk":1,"updated_at":"2026-04-09T16:32:08.270925+05:30"},{"city":"Munnar","state":"Kerala","latitude":10.0889,"longitude":77.0595,"temp":25.2,"humidity":77,"rain":0.0,"pressure":857.3,"uv_index":9.05,"wind_gusts":33.8,"aqi":79,"pm10":24.2,"pm2_5":20.4,"mosquito_risk":7,"arthritis_risk":5,"migraine_risk":7,"frizz_risk":1,"updated_at":"2026-04-09T16:32:08.270933+05:30"},{"city":"Silchar","state":"Assam","latitude":24.8333,"longitude":92.7789,"temp":23.7,"humidity":83,"rain":0.0,"pressure":1006.4,"uv_index":4.85,"wind_gusts":23.4,"aqi":95,"pm10":37.4,"pm2_5":32.6,"mosquito_risk":3,"arthritis_risk":5,"migraine_risk":0,"frizz_risk":1,"updated_at":"2026-04-09T16:32:08.270941+05:30"},{"city":"Dibrugarh","state":"Assam","latitude":27.4728,"longitude":94.912,"temp":23.7,"humidity":76,"rain":0.0,"pressure":996.7,"uv_index":3.6,"wind_gusts":16.9,"aqi":93,"pm10":36.9,"pm2_5":25.5,"mosquito_risk":3,"arthritis_risk":5,"migraine_risk":3,"frizz_risk":1,"updated_at":"2026-04-09T16:32:08.270949+05:30"}]