[{"city":"Delhi","state":"Delhi","latitude":28.6139,"longitude":77.209,"temp":30.4,"humidity":30,"rain":0.0,"pressure":986.2,"uv_index":5.8,"wind_gusts":39.2,"aqi":281,"pm10":495.5,"pm2_5":82.0,"mosquito_risk":0,"arthritis_risk":5,"migraine_risk":3,"frizz_risk":0,"updated_at":"2026-03-03T14:17:44.688130+05:30"},{"city":"Mumbai","state":"Maharashtra","latitude":19.076,"longitude":72.8777,"temp":27.3,"humidity":76,"rain":0.0,"pressure":1009.4,"uv_index":7.35,"wind_gusts":28.8,"aqi":94,"pm10":52.5,"pm2_5":46.3,"mosquito_risk":7,"arthritis_risk":0,"migraine_risk":4,"frizz_risk":1,"updated_at":"2026-03-03T14:17:44.688186+05:30"},{"city":"Bangalore","state":"Karnataka","latitude":12.9716,"longitude":77.5946,"temp":32.0,"humidity":24,"rain":0.0,"pressure":913.2,"uv_index":9.1,"wind_gusts":38.2,"aqi":111,"pm10":28.1,"pm2_5":27.2,"mosquito_risk":0,"arthritis_risk":5,"migraine_risk":7,"frizz_risk":0,"updated_at":"2026-03-03T14:17:44.688202+05:30"},{"city":"Hyderabad","state":"Telangana","latitude":17.385,"longitude":78.4867,"temp":33.8,"humidity":31,"rain":0.0,"pressure":955.1,"uv_index":8.35,"wind_gusts":23.8,"aqi":141,"pm10":26.5,"pm2_5":25.7,"mosquito_risk":0,"arthritis_risk":5,"migraine_risk":7,"frizz_risk":0,"updated_at":"2026-03-03T14:17:44.688213+05:30"},{"city":"Chennai","state":"Tamil Nadu","latitude":13.0827,"longitude":80.2707,"temp":32.6,"humidity":36,"rain":0.0,"pressure":1009.1,"uv_index":8.8,"wind_gusts":29.5,"aqi":117,"pm10":39.3,"pm2_5":34.7,"mosquito_risk":0,"arthritis_risk":0,"migraine_risk":4,"frizz_risk":0,"updated_at":"2026-03-03T14:17:44.688222+05:30"},{"city":"Kolkata","state":"West Bengal","latitude":22.5726,"longitude":88.3639,"temp":31.8,"humidity":30,"rain":0.0,"pressure":1007.8,"uv_index":7.7,"wind_gusts":20.5,"aqi":179,"pm10":92.0,"pm2_5":43.9,"mosquito_risk":0,"arthritis_risk":5,"migraine_risk":4,"frizz_risk":0,"updated_at":"2026-03-03T14:17:44.688232+05:30"},{"city":"Pune","state":"Maharashtra","latitude":18.5204,"longitude":73.8567,"temp":36.6,"humidity":22,"rain":0.0,"pressure":950.1,"uv_index":7.9,"wind_gusts":33.1,"aqi":84,"pm10":20.1,"pm2_5":19.7,"mosquito_risk":0,"arthritis_risk":5,"migraine_risk":10,"frizz_risk":0,"updated_at":"2026-03-03T14:17:44.688246+05:30"},{"city":"Ahmedabad","state":"Gujarat","latitude":23.0225,"longitude":72.5714,"temp":36.7,"humidity":22,"rain":0.0,"pressure":1005.1,"uv_index":7.15,"wind_gusts":15.5,"aqi":101,"pm10":28.6,"pm2_5":17.3,"mosquito_risk":0,"arthritis_risk":5,"migraine_risk":7,"frizz_risk":0,"updated_at":"2026-03-03T14:17:44.688255+05:30"},{"city":"Jaipur","state":"Rajasthan","latitude":26.9124,"longitude":75.7873,"temp":34.0,"humidity":13,"rain":0.0,"pressure":963.9,"uv_index":6.6,"wind_gusts":31.0,"aqi":101,"pm10":121.1,"pm2_5":28.3,"mosquito_risk":0,"arthritis_risk":5,"migraine_risk":7,"frizz_risk":0,"updated_at":"2026-03-03T14:17:44.688263+05:30"},{"city":"Lucknow","state":"Uttar Pradesh","latitude":26.8467,"longitude":80.9462,"temp":30.6,"humidity":33,"rain":0.0,"pressure":996.2,"uv_index":6.3,"wind_gusts":38.5,"aqi":153,"pm10":112.9,"pm2_5":43.4,"mosquito_risk":0,"arthritis_risk":5,"migraine_risk":7,"frizz_risk":0,"updated_at":"2026-03-03T14:17:44.688272+05:30"},{"city":"Kanpur","state":"Uttar Pradesh","latitude":26.4499,"longitude":80.3319,"temp":30.9,"humidity":30,"rain":0.0,"pressure":994.8,"uv_index":6.3,"wind_gusts":31.7,"aqi":180,"pm10":235.2,"pm2_5":49.4,"mosquito_risk":0,"arthritis_risk":5,"migraine_risk":7,"frizz_risk":0,"updated_at":"2026-03-03T14:17:44.688281+05:30"},{"city":"Chandigarh","state":"Chandigarh","latitude":30.7333,"longitude":76.7794,"temp":28.9,"humidity":33,"rain":0.0,"pressure":971.3,"uv_index":5.7,"wind_gusts":35.6,"aqi":82,"pm10":29.2,"pm2_5":25.1,"mosquito_risk":4,"arthritis_risk":5,"migraine_risk":3,"frizz_risk":0,"updated_at":"2026-03-03T14:17:44.688289+05:30"},{"city":"Srinagar","state":"Jammu and Kashmir","latitude":34.0837,"longitude":74.7973,"temp":19.8,"humidity":17,"rain":0.0,"pressure":846.0,"uv_index":6.6,"wind_gusts":15.8,"aqi":140,"pm10":27.9,"pm2_5":21.5,"mosquito_risk":0,"arthritis_risk":5,"migraine_risk":7,"frizz_risk":1,"updated_at":"2026-03-03T14:17:44.688296+05:30"},{"city":"Jammu","state":"Jammu and Kashmir","latitude":32.7266,"longitude":74.857,"temp":28.6,"humidity":39,"rain":0.0,"pressure":975.2,"uv_index":6.3,"wind_gusts":23.8,"aqi":101,"pm10":28.7,"pm2_5":21.6,"mosquito_risk":4,"arthritis_risk":5,"migraine_risk":7,"frizz_risk":0,"updated_at":"2026-03-03T14:17:44.688304+05:30"},{"city":"Amritsar","state":"Punjab","latitude":31.634,"longitude":74.8723,"temp":29.8,"humidity":31,"rain":0.0,"pressure":984.1,"uv_index":6.25,"wind_gusts":29.5,"aqi":86,"pm10":22.0,"pm2_5":17.2,"mosquito_risk":4,"arthritis_risk":5,"migraine_risk":7,"frizz_risk":0,"updated_at":"2026-03-03T14:17:44.688311+05:30"},{"city":"Ludhiana","state":"Punjab","latitude":30.901,"longitude":75.8573,"temp":29.2,"humidity":32,"rain":0.0,"pressure":981.9,"uv_index":5.9,"wind_gusts":31.7,"aqi":137,"pm10":56.0,"pm2_5":36.3,"mosquito_risk":4,"arthritis_risk":5,"migraine_risk":3,"frizz_risk":0,"updated_at":"2026-03-03T14:17:44.688319+05:30"},{"city":"Jalandhar","state":"Punjab","latitude":31.326,"longitude":75.5762,"temp":28.8,"humidity":35,"rain":0.0,"pressure":983.0,"uv_index":6.1,"wind_gusts":27.0,"aqi":139,"pm10":55.9,"pm2_5":29.5,"mosquito_risk":4,"arthritis_risk":5,"migraine_risk":7,"frizz_risk":0,"updated_at":"2026-03-03T14:17:44.688328+05:30"},{"city":"Dehradun","state":"Uttarakhand","latitude":30.6284,"longitude":78.0322,"temp":21.1,"humidity":43,"rain":0.0,"pressure":832.5,"uv_index":6.05,"wind_gusts":31.3,"aqi":57,"pm10":17.8,"pm2_5":12.9,"mosquito_risk":0,"arthritis_risk":5,"migraine_risk":7,"frizz_risk":0,"updated_at":"2026-03-03T14:17:44.688336+05:30"},{"city":"Shimla","state":"Himachal Pradesh","latitude":31.1048,"longitude":77.1734,"temp":19.7,"humidity":36,"rain":0.0,"pressure":788.2,"uv_index":6.1,"wind_gusts":44.3,"aqi":71,"pm10":16.4,"pm2_5":10.3,"mosquito_risk":0,"arthritis_risk":5,"migraine_risk":7,"frizz_risk":0,"updated_at":"2026-03-03T14:17:44.688342+05:30"},{"city":"Manali","state":"Himachal Pradesh","latitude":32.2396,"longitude":77.1887,"temp":25.2,"humidity":18,"rain":0.0,"pressure":823.4,"uv_index":7.7,"wind_gusts":34.6,"aqi":52,"pm10":8.3,"pm2_5":4.9,"mosquito_risk":4,"arthritis_risk":5,"migraine_risk":7,"frizz_risk":1,"updated_at":"2026-03-03T14:17:44.688350+05:30"},{"city":"Gurgaon","state":"Haryana","latitude":28.4595,"longitude":77.0266,"temp":30.6,"humidity":30,"rain":0.0,"pressure":984.8,"uv_index":5.9,"wind_gusts":36.0,"aqi":1073,"pm10":1713.6,"pm2_5":179.3,"mosquito_risk":0,"arthritis_risk":5,"migraine_risk":3,"frizz_risk":0,"updated_at":"2026-03-03T14:17:44.688357+05:30"},{"city":"Noida","state":"Uttar Pradesh","latitude":28.5355,"longitude":77.391,"temp":30.8,"humidity":29,"rain":0.0,"pressure":987.7,"uv_index":5.85,"wind_gusts":38.5,"aqi":1073,"pm10":1713.6,"pm2_5":179.3,"mosquito_risk":0,"arthritis_risk":5,"migraine_risk":3,"frizz_risk":0,"updated_at":"2026-03-03T14:17:44.688364+05:30"},{"city":"Ghaziabad","state":"Uttar Pradesh","latitude":28.6692,"longitude":77.4538,"temp":29.9,"humidity":35,"rain":0.0,"pressure":985.7,"uv_index":5.8,"wind_gusts":38.2,"aqi":196,"pm10":353.0,"pm2_5":63.3,"mosquito_risk":4,"arthritis_risk":5,"migraine_risk":3,"frizz_risk":0,"updated_at":"2026-03-03T14:17:44.688370+05:30"},{"city":"Faridabad","state":"Haryana","latitude":28.4089,"longitude":77.3178,"temp":30.1,"humidity":32,"rain":0.0,"pressure":987.1,"uv_index":5.85,"wind_gusts":35.3,"aqi":1073,"pm10":1713.6,"pm2_5":179.3,"mosquito_risk":0,"arthritis_risk":5,"migraine_risk":3,"frizz_risk":0,"updated_at":"2026-03-03T14:17:44.688377+05:30"},{"city":"Meerut","state":"Uttar Pradesh","latitude":28.9845,"longitude":77.7064,"temp":30.4,"humidity":33,"rain":0.0,"pressure":984.0,"uv_index":5.65,"wind_gusts":43.9,"aqi":196,"pm10":353.0,"pm2_5":63.3,"mosquito_risk":0,"arthritis_risk":5,"migraine_risk":3,"frizz_risk":0,"updated_at":"2026-03-03T14:17:44.688386+05:30"},{"city":"Agra","state":"Uttar Pradesh","latitude":27.1767,"longitude":78.0081,"temp":32.3,"humidity":22,"rain":0.0,"pressure":991.4,"uv_index":6.15,"wind_gusts":31.0,"aqi":451,"pm10":588.6,"pm2_5":67.3,"mosquito_risk":0,"arthritis_risk":5,"migraine_risk":7,"frizz_risk":0,"updated_at":"2026-03-03T14:17:44.688393+05:30"},{"city":"Varanasi","state":"Uttar Pradesh","latitude":25.3176,"longitude":82.9739,"temp":30.1,"humidity":39,"rain":0.0,"pressure":1000.7,"uv_index":6.95,"wind_gusts":25.6,"aqi":99,"pm10":79.2,"pm2_5":33.6,"mosquito_risk":0,"arthritis_risk":5,"migraine_risk":4,"frizz_risk":0,"updated_at":"2026-03-03T14:17:44.688403+05:30"},{"city":"Prayagraj","state":"Uttar Pradesh","latitude":25.4358,"longitude":81.8463,"temp":30.7,"humidity":40,"rain":0.0,"pressure":999.2,"uv_index":6.8,"wind_gusts":25.6,"aqi":117,"pm10":72.6,"pm2_5":34.0,"mosquito_risk":0,"arthritis_risk":5,"migraine_risk":7,"frizz_risk":0,"updated_at":"2026-03-03T14:17:44.688410+05:30"},{"city":"Gorakhpur","state":"Uttar Pradesh","latitude":26.7606,"longitude":83.3732,"temp":28.7,"humidity":47,"rain":0.0,"pressure":999.9,"uv_index":6.7,"wind_gusts":19.4,"aqi":147,"pm10":148.5,"pm2_5":53.3,"mosquito_risk":4,"arthritis_risk":5,"migraine_risk":7,"frizz_risk":1,"updated_at":"2026-03-03T14:17:44.688417+05:30"},{"city":"Bareilly","state":"Uttar Pradesh","latitude":28.367,"longitude":79.4304,"temp":28.8,"humidity":40,"rain":0.0,"pressure":989.2,"uv_index":6.0,"wind_gusts":32.0,"aqi":124,"pm10":70.1,"pm2_5":41.9,"mosquito_risk":4,"arthritis_risk":5,"migraine_risk":3,"frizz_risk":0,"updated_at":"2026-03-03T14:17:44.688428+05:30"},{"city":"Aligarh","state":"Uttar Pradesh","latitude":27.8974,"longitude":78.088,"temp":30.7,"humidity":29,"rain":0.0,"pressure":988.8,"uv_index":5.95,"wind_gusts":37.1,"aqi":594,"pm10":884.8,"pm2_5":117.8,"mosquito_risk":0,"arthritis_risk":5,"migraine_risk":3,"frizz_risk":0,"updated_at":"2026-03-03T14:17:44.688436+05:30"},{"city":"Moradabad","state":"Uttar Pradesh","latitude":28.8386,"longitude":78.7733,"temp":29.5,"humidity":37,"rain":0.0,"pressure":985.9,"uv_index":5.8,"wind_gusts":31.7,"aqi":130,"pm10":89.2,"pm2_5":44.0,"mosquito_risk":4,"arthritis_risk":5,"migraine_risk":3,"frizz_risk":0,"updated_at":"2026-03-03T14:17:44.688442+05:30"},{"city":"Saharanpur","state":"Uttar Pradesh","latitude":29.9637,"longitude":77.546,"temp":29.5,"humidity":28,"rain":0.0,"pressure":977.4,"uv_index":5.45,"wind_gusts":47.9,"aqi":121,"pm10":98.3,"pm2_5":38.4,"mosquito_risk":4,"arthritis_risk":5,"migraine_risk":3,"frizz_risk":0,"updated_at":"2026-03-03T14:17:44.688449+05:30"},{"city":"Jhansi","state":"Uttar Pradesh","latitude":25.4484,"longitude":78.5685,"temp":33.7,"humidity":26,"rain":0.0,"pressure":981.4,"uv_index":6.75,"wind_gusts":27.0,"aqi":86,"pm10":75.9,"pm2_5":30.0,"mosquito_risk":0,"arthritis_risk":5,"migraine_risk":7,"frizz_risk":0,"updated_at":"2026-03-03T14:17:48.019999+05:30"},{"city":"Surat","state":"Gujarat","latitude":21.1702,"longitude":72.8311,"temp":35.2,"humidity":31,"rain":0.0,"pressure":1009.2,"uv_index":7.05,"wind_gusts":26.3,"aqi":161,"pm10":61.5,"pm2_5":56.7,"mosquito_risk":0,"arthritis_risk":0,"migraine_risk":7,"frizz_risk":0,"updated_at":"2026-03-03T14:17:48.020030+05:30"},{"city":"Vadodara","state":"Gujarat","latitude":22.3072,"longitude":73.1812,"temp":37.4,"humidity":23,"rain":0.0,"pressure":1006.9,"uv_index":7.15,"wind_gusts":13.3,"aqi":155,"pm10":30.0,"pm2_5":24.2,"mosquito_risk":0,"arthritis_risk":5,"migraine_risk":7,"frizz_risk":0,"updated_at":"2026-03-03T14:17:48.020040+05:30"},{"city":"Rajkot","state":"Gujarat","latitude":22.3039,"longitude":70.8022,"temp":35.7,"humidity":22,"rain":0.0,"pressure":997.4,"uv_index":7.0,"wind_gusts":18.0,"aqi":64,"pm10":18.3,"pm2_5":11.6,"mosquito_risk":0,"arthritis_risk":5,"migraine_risk":10,"frizz_risk":0,"updated_at":"2026-03-03T14:17:48.020048+05:30"},{"city":"Thane","state":"Maharashtra","latitude":19.2183,"longitude":72.9781,"temp":32.4,"humidity":53,"rain":0.0,"pressure":1009.4,"uv_index":7.35,"wind_gusts":39.6,"aqi":94,"pm10":52.5,"pm2_5":46.3,"mosquito_risk":0,"arthritis_risk":0,"migraine_risk":4,"frizz_risk":1,"updated_at":"2026-03-03T14:17:48.020055+05:30"},{"city":"Nagpur","state":"Maharashtra","latitude":21.1458,"longitude":79.0882,"temp":34.2,"humidity":23,"rain":0.0,"pressure":975.8,"uv_index":7.75,"wind_gusts":18.0,"aqi":69,"pm10":27.9,"pm2_5":19.6,"mosquito_risk":0,"arthritis_risk":5,"migraine_risk":7,"frizz_risk":0,"updated_at":"2026-03-03T14:17:48.020063+05:30"},{"city":"Nashik","state":"Maharashtra","latitude":19.9975,"longitude":73.7898,"temp":34.8,"humidity":22,"rain":0.0,"pressure":948.0,"uv_index":7.55,"wind_gusts":32.0,"aqi":85,"pm10":21.4,"pm2_5":20.5,"mosquito_risk":0,"arthritis_risk":5,"migraine_risk":7,"frizz_risk":0,"updated_at":"2026-03-03T14:17:48.020070+05:30"},{"city":"Aurangabad","state":"Maharashtra","latitude":19.8762,"longitude":75.3433,"temp":34.4,"humidity":25,"rain":0.0,"pressure":946.5,"uv_index":8.05,"wind_gusts":25.2,"aqi":80,"pm10":19.3,"pm2_5":18.0,"mosquito_risk":0,"arthritis_risk":5,"migraine_risk":7,"frizz_risk":0,"updated_at":"2026-03-03T14:17:48.020077+05:30"},{"city":"Solapur","state":"Maharashtra","latitude":17.6599,"longitude":75.9064,"temp":34.2,"humidity":32,"rain":0.0,"pressure":958.8,"uv_index":8.3,"wind_gusts":18.0,"aqi":120,"pm10":34.2,"pm2_5":33.5,"mosquito_risk":0,"arthritis_risk":5,"migraine_risk":7,"frizz_risk":0,"updated_at":"2026-03-03T14:17:48.020084+05:30"},{"city":"Kolhapur","state":"Maharashtra","latitude":16.705,"longitude":74.2433,"temp":34.4,"humidity":28,"rain":0.0,"pressure":949.1,"uv_index":8.4,"wind_gusts":41.4,"aqi":128,"pm10":49.0,"pm2_5":48.2,"mosquito_risk":0,"arthritis_risk":5,"migraine_risk":7,"frizz_risk":0,"updated_at":"2026-03-03T14:17:48.020091+05:30"},{"city":"Goa","state":"Goa","latitude":15.2993,"longitude":74.124,"temp":31.1,"humidity":62,"rain":0.0,"pressure":998.4,"uv_index":8.45,"wind_gusts":35.6,"aqi":74,"pm10":28.3,"pm2_5":23.7,"mosquito_risk":3,"arthritis_risk":5,"migraine_risk":7,"frizz_risk":1,"updated_at":"2026-03-03T14:17:48.020099+05:30"},{"city":"Jodhpur","state":"Rajasthan","latitude":26.2389,"longitude":73.0243,"temp":35.2,"humidity":20,"rain":0.0,"pressure":987.3,"uv_index":6.85,"wind_gusts":15.5,"aqi":73,"pm10":52.7,"pm2_5":16.0,"mosquito_risk":0,"arthritis_risk":5,"migraine_risk":10,"frizz_risk":0,"updated_at":"2026-03-03T14:17:48.020107+05:30"},{"city":"Udaipur","state":"Rajasthan","latitude":24.5854,"longitude":73.7125,"temp":33.3,"humidity":21,"rain":0.0,"pressure":950.9,"uv_index":7.45,"wind_gusts":18.7,"aqi":65,"pm10":30.4,"pm2_5":15.8,"mosquito_risk":0,"arthritis_risk":5,"migraine_risk":7,"frizz_risk":0,"updated_at":"2026-03-03T14:17:48.020114+05:30"},{"city":"Kota","state":"Rajasthan","latitude":25.2138,"longitude":75.8648,"temp":34.8,"humidity":24,"rain":0.0,"pressure":982.6,"uv_index":6.85,"wind_gusts":21.2,"aqi":86,"pm10":53.1,"pm2_5":21.5,"mosquito_risk":0,"arthritis_risk":5,"migraine_risk":7,"frizz_risk":0,"updated_at":"2026-03-03T14:17:48.020122+05:30"},{"city":"Bikaner","state":"Rajasthan","latitude":28.0229,"longitude":73.3119,"temp":32.9,"humidity":27,"rain":0.0,"pressure":986.5,"uv_index":6.55,"wind_gusts":20.9,"aqi":70,"pm10":47.5,"pm2_5":18.4,"mosquito_risk":0,"arthritis_risk":5,"migraine_risk":7,"frizz_risk":0,"updated_at":"2026-03-03T14:17:48.020129+05:30"},{"city":"Ajmer","state":"Rajasthan","latitude":26.4499,"longitude":74.6399,"temp":33.3,"humidity":16,"rain":0.0,"pressure":959.0,"uv_index":6.8,"wind_gusts":25.6,"aqi":76,"pm10":44.2,"pm2_5":16.9,"mosquito_risk":0,"arthritis_risk":5,"migraine_risk":7,"frizz_risk":0,"updated_at":"2026-03-03T14:17:48.020136+05:30"},{"city":"Gwalior","state":"Madhya Pradesh","latitude":26.2183,"longitude":78.1828,"temp":31.7,"humidity":32,"rain":0.0,"pressure":987.0,"uv_index":6.45,"wind_gusts":29.5,"aqi":127,"pm10":48.3,"pm2_5":24.3,"mosquito_risk":0,"arthritis_risk":5,"migraine_risk":7,"frizz_risk":0,"updated_at":"2026-03-03T14:17:48.020143+05:30"},{"city":"Indore","state":"Madhya Pradesh","latitude":22.7196,"longitude":75.8577,"temp":32.6,"humidity":27,"rain":0.0,"pressure":951.6,"uv_index":7.45,"wind_gusts":16.6,"aqi":91,"pm10":21.4,"pm2_5":16.8,"mosquito_risk":0,"arthritis_risk":5,"migraine_risk":7,"frizz_risk":0,"updated_at":"2026-03-03T14:17:48.020150+05:30"},{"city":"Bhopal","state":"Madhya Pradesh","latitude":23.2599,"longitude":77.4126,"temp":32.8,"humidity":27,"rain":0.0,"pressure":957.3,"uv_index":7.3,"wind_gusts":23.8,"aqi":79,"pm10":27.3,"pm2_5":17.4,"mosquito_risk":0,"arthritis_risk":5,"migraine_risk":7,"frizz_risk":0,"updated_at":"2026-03-03T14:17:48.020157+05:30"},{"city":"Jabalpur","state":"Madhya Pradesh","latitude":23.1815,"longitude":79.9864,"temp":32.1,"humidity":31,"rain":0.0,"pressure":964.8,"uv_index":7.4,"wind_gusts":21.6,"aqi":71,"pm10":27.9,"pm2_5":15.2,"mosquito_risk":0,"arthritis_risk":5,"migraine_risk":7,"frizz_risk":0,"updated_at":"2026-03-03T14:17:48.020164+05:30"},{"city":"Ujjain","state":"Madhya Pradesh","latitude":23.1765,"longitude":75.7885,"temp":32.5,"humidity":30,"rain":0.0,"pressure":957.5,"uv_index":7.3,"wind_gusts":15.5,"aqi":104,"pm10":22.9,"pm2_5":18.1,"mosquito_risk":0,"arthritis_risk":5,"migraine_risk":7,"frizz_risk":0,"updated_at":"2026-03-03T14:17:48.020172+05:30"},{"city":"Visakhapatnam","state":"Andhra Pradesh","latitude":17.6868,"longitude":83.2185,"temp":33.8,"humidity":37,"rain":0.0,"pressure":1004.9,"uv_index":8.35,"wind_gusts":36.0,"aqi":132,"pm10":56.2,"pm2_5":52.6,"mosquito_risk":0,"arthritis_risk":5,"migraine_risk":4,"frizz_risk":1,"updated_at":"2026-03-03T14:17:48.020179+05:30"},{"city":"Vijayawada","state":"Andhra Pradesh","latitude":16.5062,"longitude":80.648,"temp":34.8,"humidity":35,"rain":0.0,"pressure":1003.7,"uv_index":8.4,"wind_gusts":25.9,"aqi":139,"pm10":45.3,"pm2_5":43.2,"mosquito_risk":0,"arthritis_risk":5,"migraine_risk":4,"frizz_risk":1,"updated_at":"2026-03-03T14:17:48.020185+05:30"},{"city":"Guntur","state":"Andhra Pradesh","latitude":16.3067,"longitude":80.4365,"temp":35.8,"humidity":30,"rain":0.0,"pressure":1004.9,"uv_index":8.4,"wind_gusts":28.4,"aqi":131,"pm10":41.9,"pm2_5":40.2,"mosquito_risk":0,"arthritis_risk":5,"migraine_risk":7,"frizz_risk":0,"updated_at":"2026-03-03T14:17:48.020192+05:30"},{"city":"Nellore","state":"Andhra Pradesh","latitude":14.4426,"longitude":79.9865,"temp":35.7,"humidity":25,"rain":0.0,"pressure":1007.1,"uv_index":8.65,"wind_gusts":29.2,"aqi":114,"pm10":38.8,"pm2_5":34.9,"mosquito_risk":0,"arthritis_risk":5,"migraine_risk":7,"frizz_risk":0,"updated_at":"2026-03-03T14:17:48.020199+05:30"},{"city":"Kurnool","state":"Andhra Pradesh","latitude":15.8281,"longitude":78.0373,"temp":36.9,"humidity":22,"rain":0.0,"pressure":978.0,"uv_index":8.45,"wind_gusts":28.8,"aqi":122,"pm10":32.1,"pm2_5":30.9,"mosquito_risk":0,"arthritis_risk":5,"migraine_risk":10,"frizz_risk":0,"updated_at":"2026-03-03T14:17:48.020207+05:30"},{"city":"Kakinada","state":"Andhra Pradesh","latitude":16.9891,"longitude":82.2475,"temp":36.5,"humidity":30,"rain":0.0,"pressure":1008.0,"uv_index":8.35,"wind_gusts":35.3,"aqi":127,"pm10":48.4,"pm2_5":44.7,"mosquito_risk":0,"arthritis_risk":0,"migraine_risk":7,"frizz_risk":1,"updated_at":"2026-03-03T14:17:48.020214+05:30"},{"city":"Tirupati","state":"Andhra Pradesh","latitude":13.6288,"longitude":79.4192,"temp":34.9,"humidity":23,"rain":0.0,"pressure":992.7,"uv_index":8.75,"wind_gusts":36.0,"aqi":152,"pm10":36.8,"pm2_5":34.6,"mosquito_risk":0,"arthritis_risk":5,"migraine_risk":7,"frizz_risk":0,"updated_at":"2026-03-03T14:17:48.020220+05:30"},{"city":"Warangal","state":"Telangana","latitude":17.9689,"longitude":79.5941,"temp":34.7,"humidity":34,"rain":0.0,"pressure":980.4,"uv_index":8.2,"wind_gusts":16.2,"aqi":151,"pm10":25.3,"pm2_5":23.6,"mosquito_risk":0,"arthritis_risk":5,"migraine_risk":7,"frizz_risk":1,"updated_at":"2026-03-03T14:17:48.020227+05:30"},{"city":"Nizamabad","state":"Telangana","latitude":18.6725,"longitude":78.0941,"temp":34.8,"humidity":25,"rain":0.0,"pressure":967.0,"uv_index":8.1,"wind_gusts":26.3,"aqi":92,"pm10":21.0,"pm2_5":18.3,"mosquito_risk":0,"arthritis_risk":5,"migraine_risk":7,"frizz_risk":0,"updated_at":"2026-03-03T14:17:48.020233+05:30"},{"city":"Mysore","state":"Karnataka","latitude":12.2958,"longitude":76.6396,"temp":32.9,"humidity":26,"rain":0.0,"pressure":929.3,"uv_index":9.15,"wind_gusts":33.8,"aqi":136,"pm10":30.5,"pm2_5":29.6,"mosquito_risk":0,"arthritis_risk":5,"migraine_risk":7,"frizz_risk":0,"updated_at":"2026-03-03T14:17:48.020240+05:30"},{"city":"Mangalore","state":"Karnataka","latitude":12.9141,"longitude":74.856,"temp":28.2,"humidity":80,"rain":0.0,"pressure":1007.0,"uv_index":8.75,"wind_gusts":28.8,"aqi":62,"pm10":29.5,"pm2_5":24.9,"mosquito_risk":7,"arthritis_risk":5,"migraine_risk":4,"frizz_risk":1,"updated_at":"2026-03-03T14:17:48.020246+05:30"},{"city":"Hubli-Dharwad","state":"Karnataka","latitude":15.3647,"longitude":75.124,"temp":34.8,"humidity":27,"rain":0.0,"pressure":941.9,"uv_index":8.65,"wind_gusts":29.2,"aqi":92,"pm10":38.5,"pm2_5":37.6,"mosquito_risk":0,"arthritis_risk":5,"migraine_risk":7,"frizz_risk":0,"updated_at":"2026-03-03T14:17:48.020253+05:30"},{"city":"Belgaum","state":"Karnataka","latitude":15.8497,"longitude":74.4977,"temp":34.2,"humidity":27,"rain":0.0,"pressure":927.1,"uv_index":8.65,"wind_gusts":33.5,"aqi":86,"pm10":43.1,"pm2_5":42.3,"mosquito_risk":0,"arthritis_risk":5,"migraine_risk":7,"frizz_risk":0,"updated_at":"2026-03-03T14:17:51.352403+05:30"},{"city":"Coimbatore","state":"Tamil Nadu","latitude":11.0168,"longitude":76.9558,"temp":33.7,"humidity":25,"rain":0.0,"pressure":962.6,"uv_index":9.15,"wind_gusts":42.1,"aqi":127,"pm10":29.0,"pm2_5":28.1,"mosquito_risk":0,"arthritis_risk":5,"migraine_risk":7,"frizz_risk":0,"updated_at":"2026-03-03T14:17:51.352434+05:30"},{"city":"Madurai","state":"Tamil Nadu","latitude":9.9252,"longitude":78.1198,"temp":34.2,"humidity":33,"rain":0.0,"pressure":993.6,"uv_index":9.1,"wind_gusts":32.4,"aqi":116,"pm10":29.9,"pm2_5":27.4,"mosquito_risk":0,"arthritis_risk":5,"migraine_risk":7,"frizz_risk":0,"updated_at":"2026-03-03T14:17:51.352444+05:30"},{"city":"Trichy","state":"Tamil Nadu","latitude":10.7905,"longitude":78.7047,"temp":35.0,"humidity":29,"rain":0.0,"pressure":1000.4,"uv_index":9.0,"wind_gusts":29.9,"aqi":118,"pm10":28.9,"pm2_5":26.1,"mosquito_risk":0,"arthritis_risk":5,"migraine_risk":4,"frizz_risk":0,"updated_at":"2026-03-03T14:17:51.352453+05:30"},{"city":"Salem","state":"Tamil Nadu","latitude":11.6643,"longitude":78.146,"temp":36.6,"humidity":21,"rain":0.0,"pressure":977.7,"uv_index":9.05,"wind_gusts":38.5,"aqi":138,"pm10":37.5,"pm2_5":36.2,"mosquito_risk":0,"arthritis_risk":5,"migraine_risk":10,"frizz_risk":0,"updated_at":"2026-03-03T14:17:51.352461+05:30"},{"city":"Tirunelveli","state":"Tamil Nadu","latitude":8.7139,"longitude":77.7567,"temp":35.5,"humidity":28,"rain":0.0,"pressure":1003.6,"uv_index":9.1,"wind_gusts":40.0,"aqi":108,"pm10":25.1,"pm2_5":23.3,"mosquito_risk":0,"arthritis_risk":5,"migraine_risk":7,"frizz_risk":0,"updated_at":"2026-03-03T14:17:51.352469+05:30"},{"city":"Vellore","state":"Tamil Nadu","latitude":12.9165,"longitude":79.1325,"temp":34.3,"humidity":24,"rain":0.0,"pressure":985.7,"uv_index":8.85,"wind_gusts":38.2,"aqi":151,"pm10":34.8,"pm2_5":32.5,"mosquito_risk":0,"arthritis_risk":5,"migraine_risk":7,"frizz_risk":0,"updated_at":"2026-03-03T14:17:51.352476+05:30"},{"city":"Erode","state":"Tamil Nadu","latitude":11.341,"longitude":77.7172,"temp":35.8,"humidity":28,"rain":0.0,"pressure":989.3,"uv_index":9.05,"wind_gusts":33.5,"aqi":119,"pm10":40.0,"pm2_5":38.9,"mosquito_risk":0,"arthritis_risk":5,"migraine_risk":10,"frizz_risk":0,"updated_at":"2026-03-03T14:17:51.352484+05:30"},{"city":"Kochi","state":"Kerala","latitude":9.9312,"longitude":76.2673,"temp":28.4,"humidity":77,"rain":0.0,"pressure":1008.7,"uv_index":8.95,"wind_gusts":32.8,"aqi":107,"pm10":37.0,"pm2_5":35.0,"mosquito_risk":7,"arthritis_risk":0,"migraine_risk":4,"frizz_risk":1,"updated_at":"2026-03-03T14:17:51.352492+05:30"},{"city":"Thiruvananthapuram","state":"Kerala","latitude":8.5241,"longitude":76.9366,"temp":27.8,"humidity":77,"rain":0.0,"pressure":1008.3,"uv_index":9.0,"wind_gusts":27.4,"aqi":84,"pm10":35.7,"pm2_5":33.6,"mosquito_risk":7,"arthritis_risk":0,"migraine_risk":4,"frizz_risk":1,"updated_at":"2026-03-03T14:17:51.352499+05:30"},{"city":"Kozhikode","state":"Kerala","latitude":11.2588,"longitude":75.7804,"temp":29.7,"humidity":71,"rain":0.0,"pressure":1008.1,"uv_index":8.85,"wind_gusts":34.2,"aqi":66,"pm10":22.1,"pm2_5":19.0,"mosquito_risk":7,"arthritis_risk":0,"migraine_risk":4,"frizz_risk":1,"updated_at":"2026-03-03T14:17:51.352506+05:30"},{"city":"Thrissur","state":"Kerala","latitude":10.5276,"longitude":76.2144,"temp":32.0,"humidity":61,"rain":0.0,"pressure":1006.9,"uv_index":8.95,"wind_gusts":42.5,"aqi":107,"pm10":37.0,"pm2_5":36.0,"mosquito_risk":3,"arthritis_risk":5,"migraine_risk":4,"frizz_risk":1,"updated_at":"2026-03-03T14:17:51.352514+05:30"},{"city":"Kannur","state":"Kerala","latitude":11.8745,"longitude":75.3704,"temp":30.6,"humidity":67,"rain":0.0,"pressure":1007.4,"uv_index":8.85,"wind_gusts":36.4,"aqi":62,"pm10":25.3,"pm2_5":21.4,"mosquito_risk":3,"arthritis_risk":5,"migraine_risk":4,"frizz_risk":1,"updated_at":"2026-03-03T14:17:51.352521+05:30"},{"city":"Patna","state":"Bihar","latitude":25.5941,"longitude":85.1376,"temp":30.0,"humidity":38,"rain":0.0,"pressure":1003.5,"uv_index":7.1,"wind_gusts":19.4,"aqi":141,"pm10":239.3,"pm2_5":64.5,"mosquito_risk":4,"arthritis_risk":5,"migraine_risk":4,"frizz_risk":0,"updated_at":"2026-03-03T14:17:51.352528+05:30"},{"city":"Gaya","state":"Bihar","latitude":24.7914,"longitude":85.0002,"temp":29.9,"humidity":34,"rain":0.0,"pressure":996.8,"uv_index":7.2,"wind_gusts":25.9,"aqi":94,"pm10":161.6,"pm2_5":42.5,"mosquito_risk":4,"arthritis_risk":5,"migraine_risk":7,"frizz_risk":0,"updated_at":"2026-03-03T14:17:51.352554+05:30"},{"city":"Muzaffarpur","state":"Bihar","latitude":26.1209,"longitude":85.3647,"temp":30.1,"humidity":35,"rain":0.0,"pressure":1003.3,"uv_index":7.05,"wind_gusts":11.2,"aqi":153,"pm10":163.4,"pm2_5":57.6,"mosquito_risk":0,"arthritis_risk":5,"migraine_risk":4,"frizz_risk":0,"updated_at":"2026-03-03T14:17:51.352561+05:30"},{"city":"Bhagalpur","state":"Bihar","latitude":25.2425,"longitude":87.0117,"temp":29.1,"humidity":36,"rain":0.0,"pressure":1004.1,"uv_index":7.15,"wind_gusts":14.4,"aqi":122,"pm10":73.8,"pm2_5":45.4,"mosquito_risk":4,"arthritis_risk":5,"migraine_risk":4,"frizz_risk":0,"updated_at":"2026-03-03T14:17:51.352567+05:30"},{"city":"Ranchi","state":"Jharkhand","latitude":23.3441,"longitude":85.3096,"temp":29.8,"humidity":20,"rain":0.0,"pressure":940.4,"uv_index":7.9,"wind_gusts":44.3,"aqi":65,"pm10":59.3,"pm2_5":21.2,"mosquito_risk":4,"arthritis_risk":5,"migraine_risk":7,"frizz_risk":0,"updated_at":"2026-03-03T14:17:51.352574+05:30"},{"city":"Jamshedpur","state":"Jharkhand","latitude":22.8046,"longitude":86.2029,"temp":32.8,"humidity":23,"rain":0.0,"pressure":992.8,"uv_index":7.8,"wind_gusts":14.4,"aqi":92,"pm10":86.8,"pm2_5":28.9,"mosquito_risk":0,"arthritis_risk":5,"migraine_risk":7,"frizz_risk":0,"updated_at":"2026-03-03T14:17:51.352582+05:30"},{"city":"Dhanbad","state":"Jharkhand","latitude":23.7957,"longitude":86.4304,"temp":33.3,"humidity":20,"rain":0.0,"pressure":981.7,"uv_index":7.65,"wind_gusts":32.8,"aqi":99,"pm10":94.3,"pm2_5":30.0,"mosquito_risk":0,"arthritis_risk":5,"migraine_risk":7,"frizz_risk":0,"updated_at":"2026-03-03T14:17:51.352589+05:30"},{"city":"Bokaro","state":"Jharkhand","latitude":23.6693,"longitude":86.1511,"temp":33.0,"humidity":21,"rain":0.0,"pressure":985.6,"uv_index":7.65,"wind_gusts":36.4,"aqi":102,"pm10":91.7,"pm2_5":28.8,"mosquito_risk":0,"arthritis_risk":5,"migraine_risk":7,"frizz_risk":0,"updated_at":"2026-03-03T14:17:51.352597+05:30"},{"city":"Bhubaneswar","state":"Odisha","latitude":20.2961,"longitude":85.8245,"temp":36.3,"humidity":19,"rain":0.0,"pressure":1003.8,"uv_index":8.1,"wind_gusts":27.0,"aqi":153,"pm10":46.9,"pm2_5":28.5,"mosquito_risk":0,"arthritis_risk":5,"migraine_risk":7,"frizz_risk":0,"updated_at":"2026-03-03T14:17:51.352604+05:30"},{"city":"Cuttack","state":"Odisha","latitude":20.4625,"longitude":85.8828,"temp":36.4,"humidity":16,"rain":0.0,"pressure":1006.0,"uv_index":8.1,"wind_gusts":25.2,"aqi":153,"pm10":46.9,"pm2_5":28.5,"mosquito_risk":0,"arthritis_risk":5,"migraine_risk":7,"frizz_risk":0,"updated_at":"2026-03-03T14:17:51.352611+05:30"},{"city":"Rourkela","state":"Odisha","latitude":22.2604,"longitude":84.8536,"temp":34.2,"humidity":23,"rain":0.0,"pressure":987.2,"uv_index":7.7,"wind_gusts":25.9,"aqi":80,"pm10":61.7,"pm2_5":24.6,"mosquito_risk":0,"arthritis_risk":5,"migraine_risk":7,"frizz_risk":0,"updated_at":"2026-03-03T14:17:51.352617+05:30"},{"city":"Raipur","state":"Chhattisgarh","latitude":21.2514,"longitude":81.6296,"temp":34.5,"humidity":19,"rain":0.0,"pressure":977.2,"uv_index":7.8,"wind_gusts":14.4,"aqi":116,"pm10":34.5,"pm2_5":22.8,"mosquito_risk":0,"arthritis_risk":5,"migraine_risk":7,"frizz_risk":0,"updated_at":"2026-03-03T14:17:51.352624+05:30"},{"city":"Bhilai","state":"Chhattisgarh","latitude":21.1938,"longitude":81.3509,"temp":34.8,"humidity":20,"rain":0.0,"pressure":977.5,"uv_index":7.8,"wind_gusts":13.7,"aqi":114,"pm10":36.1,"pm2_5":24.9,"mosquito_risk":0,"arthritis_risk":5,"migraine_risk":7,"frizz_risk":0,"updated_at":"2026-03-03T14:17:51.352630+05:30"},{"city":"Guwahati","state":"Assam","latitude":26.1158,"longitude":91.7086,"temp":29.0,"humidity":40,"rain":0.0,"pressure":1003.5,"uv_index":7.1,"wind_gusts":22.0,"aqi":155,"pm10":91.5,"pm2_5":68.9,"mosquito_risk":4,"arthritis_risk":5,"migraine_risk":4,"frizz_risk":0,"updated_at":"2026-03-03T14:17:51.352637+05:30"},{"city":"Agartala","state":"Tripura","latitude":23.8315,"longitude":91.2868,"temp":28.5,"humidity":59,"rain":0.0,"pressure":1008.0,"uv_index":7.5,"wind_gusts":15.8,"aqi":181,"pm10":83.1,"pm2_5":67.8,"mosquito_risk":4,"arthritis_risk":0,"migraine_risk":4,"frizz_risk":1,"updated_at":"2026-03-03T14:17:51.352643+05:30"},{"city":"Shillong","state":"Meghalaya","latitude":25.5788,"longitude":91.8933,"temp":18.3,"humidity":38,"rain":0.0,"pressure":857.6,"uv_index":7.45,"wind_gusts":28.1,"aqi":138,"pm10":82.4,"pm2_5":58.8,"mosquito_risk":0,"arthritis_risk":5,"migraine_risk":7,"frizz_risk":0,"updated_at":"2026-03-03T14:17:51.352650+05:30"},{"city":"Imphal","state":"Manipur","latitude":24.817,"longitude":93.9368,"temp":21.6,"humidity":47,"rain":0.0,"pressure":924.1,"uv_index":7.65,"wind_gusts":28.8,"aqi":161,"pm10":68.5,"pm2_5":59.8,"mosquito_risk":0,"arthritis_risk":5,"migraine_risk":7,"frizz_risk":0,"updated_at":"2026-03-03T14:17:51.352657+05:30"},{"city":"Aizawl","state":"Mizoram","latitude":23.7271,"longitude":92.7176,"temp":23.8,"humidity":37,"rain":0.0,"pressure":894.3,"uv_index":7.65,"wind_gusts":32.8,"aqi":162,"pm10":49.0,"pm2_5":39.2,"mosquito_risk":0,"arthritis_risk":5,"migraine_risk":7,"frizz_risk":0,"updated_at":"2026-03-03T14:17:51.352664+05:30"},{"city":"Kohima","state":"Nagaland","latitude":25.6701,"longitude":94.1077,"temp":16.1,"humidity":66,"rain":0.0,"pressure":855.4,"uv_index":6.65,"wind_gusts":45.0,"aqi":152,"pm10":77.5,"pm2_5":60.5,"mosquito_risk":3,"arthritis_risk":5,"migraine_risk":7,"frizz_risk":0,"updated_at":"2026-03-03T14:17:51.352671+05:30"},{"city":"Gangtok","state":"Sikkim","latitude":27.3314,"longitude":88.6138,"temp":16.5,"humidity":66,"rain":0.0,"pressure":838.9,"uv_index":7.4,"wind_gusts":18.4,"aqi":150,"pm10":65.7,"pm2_5":48.0,"mosquito_risk":3,"arthritis_risk":5,"migraine_risk":7,"frizz_risk":0,"updated_at":"2026-03-03T14:17:51.352677+05:30"},{"city":"Siliguri","state":"West Bengal","latitude":26.7271,"longitude":88.3953,"temp":22.1,"humidity":65,"rain":0.0,"pressure":997.0,"uv_index":7.1,"wind_gusts":20.2,"aqi":165,"pm10":87.3,"pm2_5":55.9,"mosquito_risk":3,"arthritis_risk":5,"migraine_risk":7,"frizz_risk":0,"updated_at":"2026-03-03T14:17:54.687195+05:30"},{"city":"Durgapur","state":"West Bengal","latitude":23.5204,"longitude":87.3119,"temp":33.9,"humidity":21,"rain":0.0,"pressure":996.9,"uv_index":7.65,"wind_gusts":28.4,"aqi":86,"pm10":93.6,"pm2_5":31.9,"mosquito_risk":0,"arthritis_risk":5,"migraine_risk":7,"frizz_risk":0,"updated_at":"2026-03-03T14:17:54.687231+05:30"},{"city":"Asansol","state":"West Bengal","latitude":23.6739,"longitude":86.9524,"temp":33.9,"humidity":21,"rain":0.0,"pressure":995.5,"uv_index":7.65,"wind_gusts":23.8,"aqi":82,"pm10":93.6,"pm2_5":30.4,"mosquito_risk":0,"arthritis_risk":5,"migraine_risk":7,"frizz_risk":0,"updated_at":"2026-03-03T14:17:54.687243+05:30"},{"city":"Pondicherry","state":"Puducherry","latitude":11.9139,"longitude":79.8145,"temp":33.5,"humidity":39,"rain":0.0,"pressure":1009.5,"uv_index":8.85,"wind_gusts":25.9,"aqi":109,"pm10":38.6,"pm2_5":34.2,"mosquito_risk":0,"arthritis_risk":0,"migraine_risk":4,"frizz_risk":1,"updated_at":"2026-03-03T14:17:54.687251+05:30"},{"city":"Port Blair","state":"Andaman and Nicobar Islands","latitude":11.6234,"longitude":92.7265,"temp":27.6,"humidity":75,"rain":0.0,"pressure":1007.0,"uv_index":8.8,"wind_gusts":17.6,"aqi":84,"pm10":39.2,"pm2_5":28.3,"mosquito_risk":7,"arthritis_risk":5,"migraine_risk":4,"frizz_risk":1,"updated_at":"2026-03-03T14:17:54.687259+05:30"},{"city":"Haridwar","state":"Uttarakhand","latitude":29.9457,"longitude":78.1642,"temp":28.1,"humidity":50,"rain":0.0,"pressure":976.2,"uv_index":5.55,"wind_gusts":23.0,"aqi":98,"pm10":45.2,"pm2_5":34.0,"mosquito_risk":4,"arthritis_risk":5,"migraine_risk":3,"frizz_risk":1,"updated_at":"2026-03-03T14:17:54.687268+05:30"},{"city":"Rishikesh","state":"Uttarakhand","latitude":30.0869,"longitude":78.2676,"temp":27.7,"humidity":41,"rain":0.0,"pressure":968.9,"uv_index":5.6,"wind_gusts":23.8,"aqi":76,"pm10":27.4,"pm2_5":22.7,"mosquito_risk":4,"arthritis_risk":5,"migraine_risk":3,"frizz_risk":0,"updated_at":"2026-03-03T14:17:54.687275+05:30"},{"city":"Nainital","state":"Uttarakhand","latitude":29.3919,"longitude":79.4542,"temp":19.4,"humidity":65,"rain":0.0,"pressure":807.8,"uv_index":6.45,"wind_gusts":51.5,"aqi":83,"pm10":46.1,"pm2_5":34.0,"mosquito_risk":3,"arthritis_risk":5,"migraine_risk":7,"frizz_risk":0,"updated_at":"2026-03-03T14:17:54.687283+05:30"},{"city":"Mussoorie","state":"Uttarakhand","latitude":30.4599,"longitude":78.0664,"temp":20.5,"humidity":46,"rain":0.0,"pressure":805.2,"uv_index":5.95,"wind_gusts":40.0,"aqi":79,"pm10":31.5,"pm2_5":27.0,"mosquito_risk":0,"arthritis_risk":5,"migraine_risk":3,"frizz_risk":0,"updated_at":"2026-03-03T14:17:54.687290+05:30"},{"city":"Dharamshala","state":"Himachal Pradesh","latitude":32.219,"longitude":76.3234,"temp":23.8,"humidity":43,"rain":0.0,"pressure":871.9,"uv_index":6.2,"wind_gusts":23.0,"aqi":51,"pm10":11.7,"pm2_5":6.4,"mosquito_risk":0,"arthritis_risk":5,"migraine_risk":7,"frizz_risk":0,"updated_at":"2026-03-03T14:17:54.687297+05:30"},{"city":"Dalhousie","state":"Himachal Pradesh","latitude":32.5387,"longitude":75.971,"temp":23.5,"humidity":23,"rain":0.0,"pressure":807.9,"uv_index":6.4,"wind_gusts":20.5,"aqi":90,"pm10":20.8,"pm2_5":15.3,"mosquito_risk":0,"arthritis_risk":5,"migraine_risk":7,"frizz_risk":0,"updated_at":"2026-03-03T14:17:54.687305+05:30"},{"city":"Patiala","state":"Punjab","latitude":30.3398,"longitude":76.3869,"temp":29.5,"humidity":30,"rain":0.0,"pressure":981.1,"uv_index":5.6,"wind_gusts":36.4,"aqi":199,"pm10":458.2,"pm2_5":70.3,"mosquito_risk":4,"arthritis_risk":5,"migraine_risk":3,"frizz_risk":0,"updated_at":"2026-03-03T14:17:54.687312+05:30"},{"city":"Bhatinda","state":"Punjab","latitude":30.211,"longitude":74.9455,"temp":30.7,"humidity":33,"rain":0.0,"pressure":987.5,"uv_index":6.25,"wind_gusts":30.2,"aqi":135,"pm10":64.0,"pm2_5":41.7,"mosquito_risk":0,"arthritis_risk":5,"migraine_risk":7,"frizz_risk":0,"updated_at":"2026-03-03T14:17:54.687318+05:30"},{"city":"Rohtak","state":"Haryana","latitude":28.8955,"longitude":76.6066,"temp":30.4,"humidity":32,"rain":0.0,"pressure":985.2,"uv_index":5.8,"wind_gusts":36.4,"aqi":417,"pm10":724.6,"pm2_5":97.8,"mosquito_risk":0,"arthritis_risk":5,"migraine_risk":3,"frizz_risk":0,"updated_at":"2026-03-03T14:17:54.687326+05:30"},{"city":"Panipat","state":"Haryana","latitude":29.3909,"longitude":76.9635,"temp":30.1,"humidity":32,"rain":0.0,"pressure":983.3,"uv_index":5.6,"wind_gusts":40.7,"aqi":954,"pm10":1467.8,"pm2_5":162.1,"mosquito_risk":0,"arthritis_risk":5,"migraine_risk":3,"frizz_risk":0,"updated_at":"2026-03-03T14:17:54.687333+05:30"},{"city":"Mathura","state":"Uttar Pradesh","latitude":27.4924,"longitude":77.6737,"temp":31.6,"humidity":28,"rain":0.0,"pressure":990.5,"uv_index":6.1,"wind_gusts":30.6,"aqi":500,"pm10":678.0,"pm2_5":77.1,"mosquito_risk":0,"arthritis_risk":5,"migraine_risk":7,"frizz_risk":0,"updated_at":"2026-03-03T14:17:54.687339+05:30"},{"city":"Vrindavan","state":"Uttar Pradesh","latitude":27.5823,"longitude":77.7027,"temp":31.1,"humidity":29,"rain":0.0,"pressure":990.8,"uv_index":6.05,"wind_gusts":33.8,"aqi":500,"pm10":678.0,"pm2_5":77.1,"mosquito_risk":0,"arthritis_risk":5,"migraine_risk":7,"frizz_risk":0,"updated_at":"2026-03-03T14:17:54.687346+05:30"},{"city":"Ayodhya","state":"Uttar Pradesh","latitude":26.7922,"longitude":82.1998,"temp":29.7,"humidity":38,"rain":0.0,"pressure":998.0,"uv_index":6.45,"wind_gusts":28.8,"aqi":141,"pm10":98.3,"pm2_5":48.4,"mosquito_risk":4,"arthritis_risk":5,"migraine_risk":7,"frizz_risk":0,"updated_at":"2026-03-03T14:17:54.687352+05:30"},{"city":"Ratlam","state":"Madhya Pradesh","latitude":23.3315,"longitude":75.0367,"temp":32.8,"humidity":29,"rain":0.0,"pressure":958.3,"uv_index":7.3,"wind_gusts":12.2,"aqi":91,"pm10":23.4,"pm2_5":18.1,"mosquito_risk":0,"arthritis_risk":5,"migraine_risk":7,"frizz_risk":0,"updated_at":"2026-03-03T14:17:54.687359+05:30"},{"city":"Sagar","state":"Madhya Pradesh","latitude":23.8388,"longitude":78.7378,"temp":32.2,"humidity":25,"rain":0.0,"pressure":953.8,"uv_index":7.25,"wind_gusts":27.4,"aqi":63,"pm10":38.2,"pm2_5":15.4,"mosquito_risk":0,"arthritis_risk":5,"migraine_risk":7,"frizz_risk":0,"updated_at":"2026-03-03T14:17:54.687366+05:30"},{"city":"Satna","state":"Madhya Pradesh","latitude":24.6005,"longitude":80.8322,"temp":33.6,"humidity":24,"rain":0.0,"pressure":974.3,"uv_index":7.2,"wind_gusts":33.1,"aqi":72,"pm10":67.3,"pm2_5":23.9,"mosquito_risk":0,"arthritis_risk":5,"migraine_risk":7,"frizz_risk":0,"updated_at":"2026-03-03T14:17:54.687372+05:30"},{"city":"Akola","state":"Maharashtra","latitude":20.7002,"longitude":77.0082,"temp":35.8,"humidity":24,"rain":0.0,"pressure":977.5,"uv_index":7.8,"wind_gusts":20.2,"aqi":77,"pm10":23.3,"pm2_5":19.7,"mosquito_risk":0,"arthritis_risk":5,"migraine_risk":10,"frizz_risk":0,"updated_at":"2026-03-03T14:17:54.687380+05:30"},{"city":"Amravati","state":"Maharashtra","latitude":20.9374,"longitude":77.7796,"temp":35.5,"humidity":22,"rain":0.0,"pressure":969.9,"uv_index":7.75,"wind_gusts":16.6,"aqi":75,"pm10":21.8,"pm2_5":17.5,"mosquito_risk":0,"arthritis_risk":5,"migraine_risk":10,"frizz_risk":0,"updated_at":"2026-03-03T14:17:54.687387+05:30"},{"city":"Latur","state":"Maharashtra","latitude":18.4088,"longitude":76.5604,"temp":33.5,"humidity":27,"rain":0.0,"pressure":942.1,"uv_index":8.2,"wind_gusts":31.0,"aqi":84,"pm10":22.4,"pm2_5":21.7,"mosquito_risk":0,"arthritis_risk":5,"migraine_risk":7,"frizz_risk":0,"updated_at":"2026-03-03T14:17:54.687395+05:30"},{"city":"Nanded","state":"Maharashtra","latitude":19.1383,"longitude":77.3091,"temp":36.0,"humidity":24,"rain":0.0,"pressure":970.7,"uv_index":8.0,"wind_gusts":20.9,"aqi":96,"pm10":19.1,"pm2_5":16.5,"mosquito_risk":0,"arthritis_risk":5,"migraine_risk":10,"frizz_risk":0,"updated_at":"2026-03-03T14:17:54.687401+05:30"},{"city":"Gulbarga","state":"Karnataka","latitude":17.3297,"longitude":76.8343,"temp":35.5,"humidity":27,"rain":0.0,"pressure":960.3,"uv_index":8.3,"wind_gusts":18.7,"aqi":133,"pm10":33.3,"pm2_5":32.6,"mosquito_risk":0,"arthritis_risk":5,"migraine_risk":10,"frizz_risk":0,"updated_at":"2026-03-03T14:17:54.687408+05:30"},{"city":"Bidar","state":"Karnataka","latitude":17.9104,"longitude":77.5199,"temp":34.1,"humidity":26,"rain":0.0,"pressure":937.6,"uv_index":8.25,"wind_gusts":21.6,"aqi":106,"pm10":24.0,"pm2_5":23.1,"mosquito_risk":0,"arthritis_risk":5,"migraine_risk":7,"frizz_risk":0,"updated_at":"2026-03-03T14:17:54.687414+05:30"},{"city":"Hospet","state":"Karnataka","latitude":15.2689,"longitude":76.3909,"temp":34.8,"humidity":28,"rain":0.0,"pressure":957.0,"uv_index":8.6,"wind_gusts":26.3,"aqi":110,"pm10":40.6,"pm2_5":39.7,"mosquito_risk":0,"arthritis_risk":5,"migraine_risk":7,"frizz_risk":0,"updated_at":"2026-03-03T14:17:54.687420+05:30"},{"city":"Tirupur","state":"Tamil Nadu","latitude":11.1085,"longitude":77.3411,"temp":35.3,"humidity":24,"rain":0.0,"pressure":975.9,"uv_index":9.15,"wind_gusts":31.7,"aqi":131,"pm10":38.5,"pm2_5":37.4,"mosquito_risk":0,"arthritis_risk":5,"migraine_risk":10,"frizz_risk":0,"updated_at":"2026-03-03T14:17:54.687426+05:30"},{"city":"Alappuzha","state":"Kerala","latitude":9.4981,"longitude":76.3388,"temp":28.0,"humidity":79,"rain":0.0,"pressure":1009.1,"uv_index":8.95,"wind_gusts":28.4,"aqi":94,"pm10":37.3,"pm2_5":34.9,"mosquito_risk":7,"arthritis_risk":0,"migraine_risk":4,"frizz_risk":1,"updated_at":"2026-03-03T14:17:54.687433+05:30"},{"city":"Munnar","state":"Kerala","latitude":10.0889,"longitude":77.0595,"temp":30.0,"humidity":30,"rain":0.0,"pressure":859.3,"uv_index":9.45,"wind_gusts":20.2,"aqi":104,"pm10":31.0,"pm2_5":29.8,"mosquito_risk":4,"arthritis_risk":5,"migraine_risk":7,"frizz_risk":0,"updated_at":"2026-03-03T14:17:54.687440+05:30"},{"city":"Silchar","state":"Assam","latitude":24.8333,"longitude":92.7789,"temp":30.2,"humidity":33,"rain":0.0,"pressure":1006.3,"uv_index":7.4,"wind_gusts":20.2,"aqi":162,"pm10":77.3,"pm2_5":59.5,"mosquito_risk":0,"arthritis_risk":5,"migraine_risk":4,"frizz_risk":0,"updated_at":"2026-03-03T14:17:54.687447+05:30"},{"city":"Dibrugarh","state":"Assam","latitude":27.4728,"longitude":94.912,"temp":26.4,"humidity":56,"rain":0.0,"pressure":997.7,"uv_index":7.1,"wind_gusts":11.2,"aqi":156,"pm10":71.9,"pm2_5":49.2,"mosquito_risk":4,"arthritis_risk":5,"migraine_risk":7,"frizz_risk":1,"updated_at":"2026-03-03T14:17:54.687453+05:30"}]