[{"city":"Delhi","state":"Delhi","latitude":28.6139,"longitude":77.209,"temp":24.7,"humidity":63,"rain":0.0,"pressure":981.9,"uv_index":6.3,"wind_gusts":36.7,"aqi":200,"pm10":285.0,"pm2_5":73.6,"mosquito_risk":3,"arthritis_risk":5,"migraine_risk":7,"frizz_risk":1,"updated_at":"2026-03-30T01:04:32.120692+05:30"},{"city":"Mumbai","state":"Maharashtra","latitude":19.076,"longitude":72.8777,"temp":27.4,"humidity":85,"rain":0.0,"pressure":1007.8,"uv_index":8.0,"wind_gusts":22.7,"aqi":56,"pm10":27.0,"pm2_5":12.6,"mosquito_risk":7,"arthritis_risk":5,"migraine_risk":4,"frizz_risk":1,"updated_at":"2026-03-30T01:04:32.120749+05:30"},{"city":"Bangalore","state":"Karnataka","latitude":12.9716,"longitude":77.5946,"temp":23.5,"humidity":72,"rain":0.0,"pressure":910.8,"uv_index":9.45,"wind_gusts":32.0,"aqi":131,"pm10":79.9,"pm2_5":71.0,"mosquito_risk":3,"arthritis_risk":5,"migraine_risk":7,"frizz_risk":1,"updated_at":"2026-03-30T01:04:32.120765+05:30"},{"city":"Hyderabad","state":"Telangana","latitude":17.385,"longitude":78.4867,"temp":26.8,"humidity":62,"rain":0.0,"pressure":951.4,"uv_index":8.3,"wind_gusts":28.1,"aqi":86,"pm10":46.0,"pm2_5":41.9,"mosquito_risk":7,"arthritis_risk":5,"migraine_risk":7,"frizz_risk":1,"updated_at":"2026-03-30T01:04:32.120775+05:30"},{"city":"Chennai","state":"Tamil Nadu","latitude":13.0827,"longitude":80.2707,"temp":27.1,"humidity":89,"rain":0.0,"pressure":1006.1,"uv_index":9.3,"wind_gusts":30.2,"aqi":54,"pm10":16.6,"pm2_5":12.0,"mosquito_risk":7,"arthritis_risk":5,"migraine_risk":4,"frizz_risk":1,"updated_at":"2026-03-30T01:04:32.120784+05:30"},{"city":"Kolkata","state":"West Bengal","latitude":22.5726,"longitude":88.3639,"temp":25.3,"humidity":92,"rain":0.0,"pressure":1005.7,"uv_index":8.5,"wind_gusts":27.4,"aqi":115,"pm10":39.8,"pm2_5":35.0,"mosquito_risk":7,"arthritis_risk":5,"migraine_risk":4,"frizz_risk":1,"updated_at":"2026-03-30T01:04:32.120794+05:30"},{"city":"Pune","state":"Maharashtra","latitude":18.5204,"longitude":73.8567,"temp":23.4,"humidity":92,"rain":0.0,"pressure":947.2,"uv_index":8.55,"wind_gusts":38.5,"aqi":69,"pm10":29.6,"pm2_5":22.1,"mosquito_risk":3,"arthritis_risk":5,"migraine_risk":7,"frizz_risk":1,"updated_at":"2026-03-30T01:04:32.120807+05:30"},{"city":"Ahmedabad","state":"Gujarat","latitude":23.0225,"longitude":72.5714,"temp":27.6,"humidity":64,"rain":0.0,"pressure":1001.7,"uv_index":8.0,"wind_gusts":24.8,"aqi":48,"pm10":31.3,"pm2_5":13.5,"mosquito_risk":7,"arthritis_risk":5,"migraine_risk":4,"frizz_risk":1,"updated_at":"2026-03-30T01:04:32.120815+05:30"},{"city":"Jaipur","state":"Rajasthan","latitude":26.9124,"longitude":75.7873,"temp":25.5,"humidity":36,"rain":0.0,"pressure":958.7,"uv_index":5.2,"wind_gusts":39.2,"aqi":100,"pm10":173.7,"pm2_5":28.6,"mosquito_risk":4,"arthritis_risk":5,"migraine_risk":3,"frizz_risk":0,"updated_at":"2026-03-30T01:04:32.120823+05:30"},{"city":"Lucknow","state":"Uttar Pradesh","latitude":26.8467,"longitude":80.9462,"temp":24.2,"humidity":64,"rain":0.0,"pressure":992.6,"uv_index":7.3,"wind_gusts":20.5,"aqi":106,"pm10":74.0,"pm2_5":35.0,"mosquito_risk":3,"arthritis_risk":5,"migraine_risk":7,"frizz_risk":1,"updated_at":"2026-03-30T01:04:32.120831+05:30"},{"city":"Kanpur","state":"Uttar Pradesh","latitude":26.4499,"longitude":80.3319,"temp":23.8,"humidity":65,"rain":0.0,"pressure":990.5,"uv_index":7.3,"wind_gusts":17.6,"aqi":103,"pm10":90.6,"pm2_5":32.6,"mosquito_risk":3,"arthritis_risk":5,"migraine_risk":7,"frizz_risk":1,"updated_at":"2026-03-30T01:04:32.120838+05:30"},{"city":"Chandigarh","state":"Chandigarh","latitude":30.7333,"longitude":76.7794,"temp":21.6,"humidity":78,"rain":0.0,"pressure":967.9,"uv_index":5.85,"wind_gusts":21.2,"aqi":94,"pm10":57.7,"pm2_5":33.4,"mosquito_risk":3,"arthritis_risk":5,"migraine_risk":3,"frizz_risk":1,"updated_at":"2026-03-30T01:04:32.120846+05:30"},{"city":"Srinagar","state":"Jammu and Kashmir","latitude":34.0837,"longitude":74.7973,"temp":10.6,"humidity":83,"rain":0.0,"pressure":839.8,"uv_index":6.25,"wind_gusts":25.9,"aqi":74,"pm10":44.9,"pm2_5":42.3,"mosquito_risk":3,"arthritis_risk":10,"migraine_risk":7,"frizz_risk":0,"updated_at":"2026-03-30T01:04:32.120853+05:30"},{"city":"Jammu","state":"Jammu and Kashmir","latitude":32.7266,"longitude":74.857,"temp":20.2,"humidity":77,"rain":0.0,"pressure":971.7,"uv_index":5.45,"wind_gusts":44.6,"aqi":89,"pm10":44.4,"pm2_5":34.8,"mosquito_risk":3,"arthritis_risk":5,"migraine_risk":3,"frizz_risk":1,"updated_at":"2026-03-30T01:04:32.120860+05:30"},{"city":"Amritsar","state":"Punjab","latitude":31.634,"longitude":74.8723,"temp":21.0,"humidity":78,"rain":0.0,"pressure":980.5,"uv_index":5.05,"wind_gusts":41.8,"aqi":79,"pm10":58.1,"pm2_5":28.5,"mosquito_risk":3,"arthritis_risk":5,"migraine_risk":3,"frizz_risk":1,"updated_at":"2026-03-30T01:04:32.120887+05:30"},{"city":"Ludhiana","state":"Punjab","latitude":30.901,"longitude":75.8573,"temp":22.1,"humidity":83,"rain":0.0,"pressure":978.3,"uv_index":5.5,"wind_gusts":42.5,"aqi":108,"pm10":94.8,"pm2_5":49.0,"mosquito_risk":3,"arthritis_risk":5,"migraine_risk":3,"frizz_risk":1,"updated_at":"2026-03-30T01:04:32.120896+05:30"},{"city":"Jalandhar","state":"Punjab","latitude":31.326,"longitude":75.5762,"temp":21.3,"humidity":75,"rain":0.0,"pressure":979.2,"uv_index":4.9,"wind_gusts":42.5,"aqi":90,"pm10":63.1,"pm2_5":28.5,"mosquito_risk":3,"arthritis_risk":5,"migraine_risk":3,"frizz_risk":1,"updated_at":"2026-03-30T01:04:32.120906+05:30"},{"city":"Dehradun","state":"Uttarakhand","latitude":30.6284,"longitude":78.0322,"temp":14.2,"humidity":70,"rain":0.0,"pressure":829.4,"uv_index":6.95,"wind_gusts":25.2,"aqi":61,"pm10":24.6,"pm2_5":12.2,"mosquito_risk":3,"arthritis_risk":5,"migraine_risk":7,"frizz_risk":0,"updated_at":"2026-03-30T01:04:32.120914+05:30"},{"city":"Shimla","state":"Himachal Pradesh","latitude":31.1048,"longitude":77.1734,"temp":12.8,"humidity":64,"rain":0.0,"pressure":783.1,"uv_index":6.45,"wind_gusts":24.5,"aqi":73,"pm10":19.5,"pm2_5":12.1,"mosquito_risk":3,"arthritis_risk":5,"migraine_risk":7,"frizz_risk":0,"updated_at":"2026-03-30T01:04:32.120922+05:30"},{"city":"Manali","state":"Himachal Pradesh","latitude":32.2396,"longitude":77.1887,"temp":13.9,"humidity":59,"rain":0.0,"pressure":818.8,"uv_index":8.15,"wind_gusts":33.8,"aqi":39,"pm10":2.4,"pm2_5":2.4,"mosquito_risk":0,"arthritis_risk":5,"migraine_risk":7,"frizz_risk":0,"updated_at":"2026-03-30T01:04:32.120930+05:30"},{"city":"Gurgaon","state":"Haryana","latitude":28.4595,"longitude":77.0266,"temp":23.9,"humidity":69,"rain":0.0,"pressure":980.0,"uv_index":6.05,"wind_gusts":35.6,"aqi":582,"pm10":305.5,"pm2_5":69.8,"mosquito_risk":3,"arthritis_risk":5,"migraine_risk":7,"frizz_risk":1,"updated_at":"2026-03-30T01:04:32.120937+05:30"},{"city":"Noida","state":"Uttar Pradesh","latitude":28.5355,"longitude":77.391,"temp":24.4,"humidity":67,"rain":0.0,"pressure":983.4,"uv_index":6.2,"wind_gusts":36.0,"aqi":582,"pm10":305.5,"pm2_5":69.8,"mosquito_risk":3,"arthritis_risk":5,"migraine_risk":7,"frizz_risk":1,"updated_at":"2026-03-30T01:04:32.120944+05:30"},{"city":"Ghaziabad","state":"Uttar Pradesh","latitude":28.6692,"longitude":77.4538,"temp":23.8,"humidity":66,"rain":0.0,"pressure":981.6,"uv_index":5.15,"wind_gusts":36.7,"aqi":156,"pm10":175.6,"pm2_5":63.3,"mosquito_risk":3,"arthritis_risk":5,"migraine_risk":3,"frizz_risk":1,"updated_at":"2026-03-30T01:04:32.120951+05:30"},{"city":"Faridabad","state":"Haryana","latitude":28.4089,"longitude":77.3178,"temp":24.6,"humidity":66,"rain":0.0,"pressure":982.7,"uv_index":6.0,"wind_gusts":36.0,"aqi":582,"pm10":305.5,"pm2_5":69.8,"mosquito_risk":3,"arthritis_risk":5,"migraine_risk":3,"frizz_risk":1,"updated_at":"2026-03-30T01:04:32.120960+05:30"},{"city":"Meerut","state":"Uttar Pradesh","latitude":28.9845,"longitude":77.7064,"temp":22.9,"humidity":69,"rain":0.0,"pressure":980.3,"uv_index":6.2,"wind_gusts":30.6,"aqi":156,"pm10":175.6,"pm2_5":63.3,"mosquito_risk":3,"arthritis_risk":5,"migraine_risk":7,"frizz_risk":1,"updated_at":"2026-03-30T01:04:32.120967+05:30"},{"city":"Agra","state":"Uttar Pradesh","latitude":27.1767,"longitude":78.0081,"temp":25.7,"humidity":63,"rain":0.0,"pressure":986.3,"uv_index":6.45,"wind_gusts":47.9,"aqi":258,"pm10":678.0,"pm2_5":89.6,"mosquito_risk":7,"arthritis_risk":5,"migraine_risk":7,"frizz_risk":1,"updated_at":"2026-03-30T01:04:32.120974+05:30"},{"city":"Varanasi","state":"Uttar Pradesh","latitude":25.3176,"longitude":82.9739,"temp":22.6,"humidity":65,"rain":0.0,"pressure":996.3,"uv_index":7.95,"wind_gusts":19.1,"aqi":88,"pm10":70.3,"pm2_5":45.5,"mosquito_risk":3,"arthritis_risk":5,"migraine_risk":7,"frizz_risk":0,"updated_at":"2026-03-30T01:04:32.120983+05:30"},{"city":"Prayagraj","state":"Uttar Pradesh","latitude":25.4358,"longitude":81.8463,"temp":23.6,"humidity":66,"rain":0.0,"pressure":994.6,"uv_index":7.85,"wind_gusts":34.9,"aqi":99,"pm10":62.2,"pm2_5":38.6,"mosquito_risk":3,"arthritis_risk":5,"migraine_risk":7,"frizz_risk":1,"updated_at":"2026-03-30T01:04:32.120991+05:30"},{"city":"Gorakhpur","state":"Uttar Pradesh","latitude":26.7606,"longitude":83.3732,"temp":22.0,"humidity":76,"rain":0.0,"pressure":996.8,"uv_index":7.7,"wind_gusts":27.7,"aqi":132,"pm10":71.2,"pm2_5":51.6,"mosquito_risk":3,"arthritis_risk":5,"migraine_risk":7,"frizz_risk":1,"updated_at":"2026-03-30T01:04:32.120998+05:30"},{"city":"Bareilly","state":"Uttar Pradesh","latitude":28.367,"longitude":79.4304,"temp":22.9,"humidity":76,"rain":0.0,"pressure":986.1,"uv_index":6.55,"wind_gusts":21.6,"aqi":99,"pm10":53.3,"pm2_5":41.3,"mosquito_risk":3,"arthritis_risk":5,"migraine_risk":7,"frizz_risk":1,"updated_at":"2026-03-30T01:04:32.121005+05:30"},{"city":"Aligarh","state":"Uttar Pradesh","latitude":27.8974,"longitude":78.088,"temp":23.7,"humidity":67,"rain":0.0,"pressure":984.1,"uv_index":6.3,"wind_gusts":37.4,"aqi":176,"pm10":248.7,"pm2_5":63.1,"mosquito_risk":3,"arthritis_risk":5,"migraine_risk":7,"frizz_risk":1,"updated_at":"2026-03-30T01:04:32.121012+05:30"},{"city":"Moradabad","state":"Uttar Pradesh","latitude":28.8386,"longitude":78.7733,"temp":24.5,"humidity":63,"rain":0.0,"pressure":982.9,"uv_index":6.8,"wind_gusts":22.3,"aqi":151,"pm10":116.6,"pm2_5":93.8,"mosquito_risk":3,"arthritis_risk":5,"migraine_risk":7,"frizz_risk":1,"updated_at":"2026-03-30T01:04:32.121018+05:30"},{"city":"Saharanpur","state":"Uttar Pradesh","latitude":29.9637,"longitude":77.546,"temp":21.6,"humidity":82,"rain":0.0,"pressure":974.5,"uv_index":6.4,"wind_gusts":20.5,"aqi":99,"pm10":56.0,"pm2_5":39.6,"mosquito_risk":3,"arthritis_risk":5,"migraine_risk":7,"frizz_risk":1,"updated_at":"2026-03-30T01:04:32.121024+05:30"},{"city":"Jhansi","state":"Uttar Pradesh","latitude":25.4484,"longitude":78.5685,"temp":26.1,"humidity":53,"rain":0.0,"pressure":976.1,"uv_index":7.15,"wind_gusts":33.8,"aqi":69,"pm10":32.4,"pm2_5":21.5,"mosquito_risk":4,"arthritis_risk":5,"migraine_risk":7,"frizz_risk":0,"updated_at":"2026-03-30T01:04:35.470556+05:30"},{"city":"Surat","state":"Gujarat","latitude":21.1702,"longitude":72.8311,"temp":26.6,"humidity":90,"rain":0.0,"pressure":1006.1,"uv_index":7.8,"wind_gusts":24.8,"aqi":75,"pm10":36.1,"pm2_5":26.1,"mosquito_risk":7,"arthritis_risk":5,"migraine_risk":4,"frizz_risk":1,"updated_at":"2026-03-30T01:04:35.470587+05:30"},{"city":"Vadodara","state":"Gujarat","latitude":22.3072,"longitude":73.1812,"temp":27.3,"humidity":83,"rain":0.0,"pressure":1003.8,"uv_index":8.0,"wind_gusts":26.3,"aqi":62,"pm10":38.8,"pm2_5":25.2,"mosquito_risk":7,"arthritis_risk":5,"migraine_risk":4,"frizz_risk":1,"updated_at":"2026-03-30T01:04:35.470597+05:30"},{"city":"Rajkot","state":"Gujarat","latitude":22.3039,"longitude":70.8022,"temp":25.4,"humidity":82,"rain":0.0,"pressure":994.2,"uv_index":7.75,"wind_gusts":31.7,"aqi":54,"pm10":44.5,"pm2_5":15.0,"mosquito_risk":7,"arthritis_risk":5,"migraine_risk":7,"frizz_risk":1,"updated_at":"2026-03-30T01:04:35.470605+05:30"},{"city":"Thane","state":"Maharashtra","latitude":19.2183,"longitude":72.9781,"temp":26.4,"humidity":87,"rain":0.0,"pressure":1007.3,"uv_index":8.0,"wind_gusts":35.6,"aqi":56,"pm10":27.0,"pm2_5":12.6,"mosquito_risk":7,"arthritis_risk":5,"migraine_risk":4,"frizz_risk":1,"updated_at":"2026-03-30T01:04:35.470613+05:30"},{"city":"Nagpur","state":"Maharashtra","latitude":21.1458,"longitude":79.0882,"temp":27.6,"humidity":52,"rain":0.0,"pressure":971.2,"uv_index":8.55,"wind_gusts":25.9,"aqi":66,"pm10":49.8,"pm2_5":32.2,"mosquito_risk":4,"arthritis_risk":5,"migraine_risk":7,"frizz_risk":1,"updated_at":"2026-03-30T01:04:35.470621+05:30"},{"city":"Nashik","state":"Maharashtra","latitude":19.9975,"longitude":73.7898,"temp":22.6,"humidity":75,"rain":0.0,"pressure":944.6,"uv_index":8.25,"wind_gusts":28.1,"aqi":44,"pm10":21.0,"pm2_5":13.4,"mosquito_risk":3,"arthritis_risk":5,"migraine_risk":7,"frizz_risk":1,"updated_at":"2026-03-30T01:04:35.470628+05:30"},{"city":"Aurangabad","state":"Maharashtra","latitude":19.8762,"longitude":75.3433,"temp":27.0,"humidity":47,"rain":0.0,"pressure":942.9,"uv_index":8.75,"wind_gusts":42.8,"aqi":42,"pm10":21.4,"pm2_5":16.5,"mosquito_risk":4,"arthritis_risk":5,"migraine_risk":7,"frizz_risk":0,"updated_at":"2026-03-30T01:04:35.470635+05:30"},{"city":"Solapur","state":"Maharashtra","latitude":17.6599,"longitude":75.9064,"temp":27.5,"humidity":44,"rain":0.0,"pressure":955.0,"uv_index":8.9,"wind_gusts":27.4,"aqi":55,"pm10":29.1,"pm2_5":23.9,"mosquito_risk":4,"arthritis_risk":5,"migraine_risk":7,"frizz_risk":0,"updated_at":"2026-03-30T01:04:35.470642+05:30"},{"city":"Kolhapur","state":"Maharashtra","latitude":16.705,"longitude":74.2433,"temp":20.9,"humidity":96,"rain":0.0,"pressure":946.1,"uv_index":7.75,"wind_gusts":42.1,"aqi":69,"pm10":22.8,"pm2_5":20.1,"mosquito_risk":3,"arthritis_risk":5,"migraine_risk":7,"frizz_risk":1,"updated_at":"2026-03-30T01:04:35.470649+05:30"},{"city":"Goa","state":"Goa","latitude":15.2993,"longitude":74.124,"temp":26.9,"humidity":81,"rain":0.0,"pressure":996.0,"uv_index":8.9,"wind_gusts":31.3,"aqi":69,"pm10":22.0,"pm2_5":15.5,"mosquito_risk":7,"arthritis_risk":5,"migraine_risk":7,"frizz_risk":1,"updated_at":"2026-03-30T01:04:35.470657+05:30"},{"city":"Jodhpur","state":"Rajasthan","latitude":26.2389,"longitude":73.0243,"temp":26.4,"humidity":60,"rain":0.0,"pressure":981.6,"uv_index":7.8,"wind_gusts":41.4,"aqi":125,"pm10":190.5,"pm2_5":31.0,"mosquito_risk":4,"arthritis_risk":5,"migraine_risk":7,"frizz_risk":1,"updated_at":"2026-03-30T01:04:35.470664+05:30"},{"city":"Udaipur","state":"Rajasthan","latitude":24.5854,"longitude":73.7125,"temp":24.1,"humidity":61,"rain":0.0,"pressure":946.2,"uv_index":8.1,"wind_gusts":30.2,"aqi":42,"pm10":33.3,"pm2_5":13.6,"mosquito_risk":3,"arthritis_risk":5,"migraine_risk":7,"frizz_risk":1,"updated_at":"2026-03-30T01:04:35.470671+05:30"},{"city":"Kota","state":"Rajasthan","latitude":25.2138,"longitude":75.8648,"temp":26.5,"humidity":38,"rain":0.0,"pressure":977.5,"uv_index":6.9,"wind_gusts":27.4,"aqi":40,"pm10":10.4,"pm2_5":7.5,"mosquito_risk":4,"arthritis_risk":5,"migraine_risk":7,"frizz_risk":0,"updated_at":"2026-03-30T01:04:35.470677+05:30"},{"city":"Bikaner","state":"Rajasthan","latitude":28.0229,"longitude":73.3119,"temp":26.2,"humidity":27,"rain":0.0,"pressure":979.3,"uv_index":5.15,"wind_gusts":43.6,"aqi":112,"pm10":182.1,"pm2_5":41.1,"mosquito_risk":4,"arthritis_risk":5,"migraine_risk":3,"frizz_risk":0,"updated_at":"2026-03-30T01:04:35.470684+05:30"},{"city":"Ajmer","state":"Rajasthan","latitude":26.4499,"longitude":74.6399,"temp":24.0,"humidity":60,"rain":0.0,"pressure":953.5,"uv_index":7.25,"wind_gusts":32.0,"aqi":47,"pm10":50.4,"pm2_5":14.3,"mosquito_risk":0,"arthritis_risk":5,"migraine_risk":7,"frizz_risk":0,"updated_at":"2026-03-30T01:04:35.470690+05:30"},{"city":"Gwalior","state":"Madhya Pradesh","latitude":26.2183,"longitude":78.1828,"temp":26.3,"humidity":60,"rain":0.0,"pressure":981.5,"uv_index":6.4,"wind_gusts":37.1,"aqi":77,"pm10":49.8,"pm2_5":25.8,"mosquito_risk":4,"arthritis_risk":5,"migraine_risk":7,"frizz_risk":1,"updated_at":"2026-03-30T01:04:35.470696+05:30"},{"city":"Indore","state":"Madhya Pradesh","latitude":22.7196,"longitude":75.8577,"temp":23.8,"humidity":68,"rain":0.0,"pressure":947.3,"uv_index":7.75,"wind_gusts":22.7,"aqi":50,"pm10":32.6,"pm2_5":17.8,"mosquito_risk":3,"arthritis_risk":5,"migraine_risk":7,"frizz_risk":1,"updated_at":"2026-03-30T01:04:35.470703+05:30"},{"city":"Bhopal","state":"Madhya Pradesh","latitude":23.2599,"longitude":77.4126,"temp":25.5,"humidity":50,"rain":0.0,"pressure":952.7,"uv_index":8.2,"wind_gusts":31.0,"aqi":38,"pm10":20.7,"pm2_5":11.4,"mosquito_risk":4,"arthritis_risk":5,"migraine_risk":7,"frizz_risk":0,"updated_at":"2026-03-30T01:04:35.470709+05:30"},{"city":"Jabalpur","state":"Madhya Pradesh","latitude":23.1815,"longitude":79.9864,"temp":25.1,"humidity":66,"rain":0.0,"pressure":959.5,"uv_index":8.35,"wind_gusts":25.9,"aqi":58,"pm10":28.8,"pm2_5":20.4,"mosquito_risk":7,"arthritis_risk":5,"migraine_risk":7,"frizz_risk":1,"updated_at":"2026-03-30T01:04:35.470715+05:30"},{"city":"Ujjain","state":"Madhya Pradesh","latitude":23.1765,"longitude":75.7885,"temp":24.0,"humidity":69,"rain":0.0,"pressure":952.9,"uv_index":7.75,"wind_gusts":25.2,"aqi":50,"pm10":32.6,"pm2_5":17.6,"mosquito_risk":3,"arthritis_risk":5,"migraine_risk":7,"frizz_risk":1,"updated_at":"2026-03-30T01:04:35.470722+05:30"},{"city":"Visakhapatnam","state":"Andhra Pradesh","latitude":17.6868,"longitude":83.2185,"temp":27.1,"humidity":87,"rain":0.0,"pressure":1002.4,"uv_index":9.0,"wind_gusts":38.5,"aqi":66,"pm10":22.5,"pm2_5":16.6,"mosquito_risk":7,"arthritis_risk":5,"migraine_risk":4,"frizz_risk":1,"updated_at":"2026-03-30T01:04:35.470729+05:30"},{"city":"Vijayawada","state":"Andhra Pradesh","latitude":16.5062,"longitude":80.648,"temp":26.7,"humidity":92,"rain":0.0,"pressure":1001.1,"uv_index":9.1,"wind_gusts":29.5,"aqi":81,"pm10":19.1,"pm2_5":16.2,"mosquito_risk":7,"arthritis_risk":5,"migraine_risk":4,"frizz_risk":1,"updated_at":"2026-03-30T01:04:35.470735+05:30"},{"city":"Guntur","state":"Andhra Pradesh","latitude":16.3067,"longitude":80.4365,"temp":26.9,"humidity":92,"rain":0.0,"pressure":1002.2,"uv_index":9.1,"wind_gusts":31.3,"aqi":90,"pm10":21.2,"pm2_5":18.5,"mosquito_risk":7,"arthritis_risk":5,"migraine_risk":4,"frizz_risk":1,"updated_at":"2026-03-30T01:04:35.470742+05:30"},{"city":"Nellore","state":"Andhra Pradesh","latitude":14.4426,"longitude":79.9865,"temp":26.5,"humidity":90,"rain":0.0,"pressure":1004.3,"uv_index":9.25,"wind_gusts":31.7,"aqi":67,"pm10":14.2,"pm2_5":11.1,"mosquito_risk":7,"arthritis_risk":5,"migraine_risk":4,"frizz_risk":1,"updated_at":"2026-03-30T01:04:35.470749+05:30"},{"city":"Kurnool","state":"Andhra Pradesh","latitude":15.8281,"longitude":78.0373,"temp":29.6,"humidity":50,"rain":0.0,"pressure":974.5,"uv_index":8.35,"wind_gusts":25.2,"aqi":99,"pm10":54.0,"pm2_5":49.0,"mosquito_risk":4,"arthritis_risk":5,"migraine_risk":7,"frizz_risk":1,"updated_at":"2026-03-30T01:04:35.470757+05:30"},{"city":"Kakinada","state":"Andhra Pradesh","latitude":16.9891,"longitude":82.2475,"temp":25.8,"humidity":95,"rain":0.0,"pressure":1006.3,"uv_index":9.05,"wind_gusts":28.8,"aqi":54,"pm10":18.0,"pm2_5":11.4,"mosquito_risk":7,"arthritis_risk":5,"migraine_risk":4,"frizz_risk":1,"updated_at":"2026-03-30T01:04:35.470763+05:30"},{"city":"Tirupati","state":"Andhra Pradesh","latitude":13.6288,"longitude":79.4192,"temp":26.3,"humidity":88,"rain":0.0,"pressure":990.9,"uv_index":9.35,"wind_gusts":29.5,"aqi":97,"pm10":26.7,"pm2_5":25.5,"mosquito_risk":7,"arthritis_risk":5,"migraine_risk":7,"frizz_risk":1,"updated_at":"2026-03-30T01:04:35.470769+05:30"},{"city":"Warangal","state":"Telangana","latitude":17.9689,"longitude":79.5941,"temp":27.9,"humidity":72,"rain":0.0,"pressure":976.5,"uv_index":8.9,"wind_gusts":32.4,"aqi":101,"pm10":43.8,"pm2_5":41.7,"mosquito_risk":7,"arthritis_risk":5,"migraine_risk":7,"frizz_risk":1,"updated_at":"2026-03-30T01:04:35.470775+05:30"},{"city":"Nizamabad","state":"Telangana","latitude":18.6725,"longitude":78.0941,"temp":27.6,"humidity":52,"rain":0.0,"pressure":962.3,"uv_index":8.85,"wind_gusts":43.6,"aqi":72,"pm10":43.3,"pm2_5":39.1,"mosquito_risk":4,"arthritis_risk":5,"migraine_risk":7,"frizz_risk":1,"updated_at":"2026-03-30T01:04:35.470782+05:30"},{"city":"Mysore","state":"Karnataka","latitude":12.2958,"longitude":76.6396,"temp":23.7,"humidity":87,"rain":0.0,"pressure":927.5,"uv_index":8.9,"wind_gusts":22.0,"aqi":124,"pm10":53.8,"pm2_5":48.8,"mosquito_risk":3,"arthritis_risk":5,"migraine_risk":7,"frizz_risk":1,"updated_at":"2026-03-30T01:04:35.470788+05:30"},{"city":"Mangalore","state":"Karnataka","latitude":12.9141,"longitude":74.856,"temp":29.3,"humidity":81,"rain":0.0,"pressure":1004.5,"uv_index":9.05,"wind_gusts":24.1,"aqi":80,"pm10":32.6,"pm2_5":19.7,"mosquito_risk":7,"arthritis_risk":5,"migraine_risk":4,"frizz_risk":1,"updated_at":"2026-03-30T01:04:35.470794+05:30"},{"city":"Hubli-Dharwad","state":"Karnataka","latitude":15.3647,"longitude":75.124,"temp":24.3,"humidity":75,"rain":0.0,"pressure":938.7,"uv_index":9.15,"wind_gusts":30.2,"aqi":80,"pm10":29.0,"pm2_5":19.7,"mosquito_risk":3,"arthritis_risk":5,"migraine_risk":7,"frizz_risk":1,"updated_at":"2026-03-30T01:04:35.470801+05:30"},{"city":"Belgaum","state":"Karnataka","latitude":15.8497,"longitude":74.4977,"temp":21.8,"humidity":83,"rain":0.0,"pressure":923.5,"uv_index":9.2,"wind_gusts":30.2,"aqi":64,"pm10":22.9,"pm2_5":18.6,"mosquito_risk":3,"arthritis_risk":5,"migraine_risk":7,"frizz_risk":1,"updated_at":"2026-03-30T01:04:38.834306+05:30"},{"city":"Coimbatore","state":"Tamil Nadu","latitude":11.0168,"longitude":76.9558,"temp":25.1,"humidity":83,"rain":0.0,"pressure":960.7,"uv_index":9.45,"wind_gusts":27.7,"aqi":96,"pm10":60.1,"pm2_5":54.7,"mosquito_risk":7,"arthritis_risk":5,"migraine_risk":7,"frizz_risk":1,"updated_at":"2026-03-30T01:04:38.834338+05:30"},{"city":"Madurai","state":"Tamil Nadu","latitude":9.9252,"longitude":78.1198,"temp":26.5,"humidity":82,"rain":0.0,"pressure":992.0,"uv_index":9.4,"wind_gusts":34.9,"aqi":80,"pm10":27.4,"pm2_5":26.0,"mosquito_risk":7,"arthritis_risk":5,"migraine_risk":7,"frizz_risk":1,"updated_at":"2026-03-30T01:04:38.834348+05:30"},{"city":"Trichy","state":"Tamil Nadu","latitude":10.7905,"longitude":78.7047,"temp":26.2,"humidity":93,"rain":0.0,"pressure":998.9,"uv_index":9.35,"wind_gusts":22.0,"aqi":71,"pm10":20.3,"pm2_5":18.7,"mosquito_risk":7,"arthritis_risk":5,"migraine_risk":7,"frizz_risk":1,"updated_at":"2026-03-30T01:04:38.834356+05:30"},{"city":"Salem","state":"Tamil Nadu","latitude":11.6643,"longitude":78.146,"temp":28.0,"humidity":72,"rain":0.0,"pressure":976.4,"uv_index":9.4,"wind_gusts":19.8,"aqi":80,"pm10":29.8,"pm2_5":28.1,"mosquito_risk":7,"arthritis_risk":5,"migraine_risk":7,"frizz_risk":1,"updated_at":"2026-03-30T01:04:38.834364+05:30"},{"city":"Tirunelveli","state":"Tamil Nadu","latitude":8.7139,"longitude":77.7567,"temp":26.6,"humidity":78,"rain":0.0,"pressure":1001.9,"uv_index":9.4,"wind_gusts":50.8,"aqi":71,"pm10":33.4,"pm2_5":31.5,"mosquito_risk":7,"arthritis_risk":5,"migraine_risk":4,"frizz_risk":1,"updated_at":"2026-03-30T01:04:38.834372+05:30"},{"city":"Vellore","state":"Tamil Nadu","latitude":12.9165,"longitude":79.1325,"temp":26.4,"humidity":87,"rain":0.0,"pressure":983.7,"uv_index":8.6,"wind_gusts":30.2,"aqi":107,"pm10":34.5,"pm2_5":32.9,"mosquito_risk":7,"arthritis_risk":5,"migraine_risk":7,"frizz_risk":1,"updated_at":"2026-03-30T01:04:38.834379+05:30"},{"city":"Erode","state":"Tamil Nadu","latitude":11.341,"longitude":77.7172,"temp":28.2,"humidity":74,"rain":0.0,"pressure":988.0,"uv_index":9.4,"wind_gusts":19.8,"aqi":93,"pm10":18.2,"pm2_5":17.1,"mosquito_risk":7,"arthritis_risk":5,"migraine_risk":7,"frizz_risk":1,"updated_at":"2026-03-30T01:04:38.834386+05:30"},{"city":"Kochi","state":"Kerala","latitude":9.9312,"longitude":76.2673,"temp":28.4,"humidity":82,"rain":0.0,"pressure":1007.0,"uv_index":9.2,"wind_gusts":28.8,"aqi":89,"pm10":46.6,"pm2_5":44.6,"mosquito_risk":7,"arthritis_risk":5,"migraine_risk":4,"frizz_risk":1,"updated_at":"2026-03-30T01:04:38.834393+05:30"},{"city":"Thiruvananthapuram","state":"Kerala","latitude":8.5241,"longitude":76.9366,"temp":28.4,"humidity":84,"rain":0.0,"pressure":1006.4,"uv_index":9.25,"wind_gusts":30.6,"aqi":75,"pm10":29.3,"pm2_5":23.7,"mosquito_risk":7,"arthritis_risk":5,"migraine_risk":4,"frizz_risk":1,"updated_at":"2026-03-30T01:04:38.834401+05:30"},{"city":"Kozhikode","state":"Kerala","latitude":11.2588,"longitude":75.7804,"temp":28.4,"humidity":83,"rain":0.0,"pressure":1005.9,"uv_index":6.6,"wind_gusts":25.6,"aqi":117,"pm10":30.6,"pm2_5":26.3,"mosquito_risk":7,"arthritis_risk":5,"migraine_risk":4,"frizz_risk":1,"updated_at":"2026-03-30T01:04:38.834408+05:30"},{"city":"Thrissur","state":"Kerala","latitude":10.5276,"longitude":76.2144,"temp":27.8,"humidity":87,"rain":0.0,"pressure":1005.2,"uv_index":9.15,"wind_gusts":28.1,"aqi":88,"pm10":50.3,"pm2_5":45.8,"mosquito_risk":7,"arthritis_risk":5,"migraine_risk":4,"frizz_risk":1,"updated_at":"2026-03-30T01:04:38.834415+05:30"},{"city":"Kannur","state":"Kerala","latitude":11.8745,"longitude":75.3704,"temp":28.9,"humidity":81,"rain":0.0,"pressure":1005.2,"uv_index":7.9,"wind_gusts":23.0,"aqi":84,"pm10":23.6,"pm2_5":20.9,"mosquito_risk":7,"arthritis_risk":5,"migraine_risk":4,"frizz_risk":1,"updated_at":"2026-03-30T01:04:38.834422+05:30"},{"city":"Patna","state":"Bihar","latitude":25.5941,"longitude":85.1376,"temp":23.2,"humidity":87,"rain":0.0,"pressure":1000.4,"uv_index":8.1,"wind_gusts":31.7,"aqi":138,"pm10":73.6,"pm2_5":65.9,"mosquito_risk":3,"arthritis_risk":5,"migraine_risk":4,"frizz_risk":1,"updated_at":"2026-03-30T01:04:38.834429+05:30"},{"city":"Gaya","state":"Bihar","latitude":24.7914,"longitude":85.0002,"temp":23.2,"humidity":84,"rain":0.0,"pressure":993.3,"uv_index":8.2,"wind_gusts":21.2,"aqi":106,"pm10":58.8,"pm2_5":48.5,"mosquito_risk":3,"arthritis_risk":5,"migraine_risk":7,"frizz_risk":1,"updated_at":"2026-03-30T01:04:38.834436+05:30"},{"city":"Muzaffarpur","state":"Bihar","latitude":26.1209,"longitude":85.3647,"temp":21.7,"humidity":88,"rain":0.0,"pressure":1000.9,"uv_index":8.1,"wind_gusts":33.8,"aqi":148,"pm10":80.1,"pm2_5":71.0,"mosquito_risk":3,"arthritis_risk":5,"migraine_risk":4,"frizz_risk":1,"updated_at":"2026-03-30T01:04:38.834442+05:30"},{"city":"Bhagalpur","state":"Bihar","latitude":25.2425,"longitude":87.0117,"temp":22.0,"humidity":96,"rain":0.0,"pressure":1002.1,"uv_index":8.1,"wind_gusts":20.9,"aqi":145,"pm10":69.8,"pm2_5":60.8,"mosquito_risk":3,"arthritis_risk":5,"migraine_risk":4,"frizz_risk":1,"updated_at":"2026-03-30T01:04:38.834449+05:30"},{"city":"Ranchi","state":"Jharkhand","latitude":23.3441,"longitude":85.3096,"temp":22.8,"humidity":83,"rain":0.0,"pressure":936.9,"uv_index":8.7,"wind_gusts":35.3,"aqi":104,"pm10":36.4,"pm2_5":19.8,"mosquito_risk":3,"arthritis_risk":5,"migraine_risk":7,"frizz_risk":1,"updated_at":"2026-03-30T01:04:38.834456+05:30"},{"city":"Jamshedpur","state":"Jharkhand","latitude":22.8046,"longitude":86.2029,"temp":26.4,"humidity":88,"rain":0.0,"pressure":989.9,"uv_index":8.6,"wind_gusts":30.6,"aqi":140,"pm10":73.3,"pm2_5":61.0,"mosquito_risk":7,"arthritis_risk":5,"migraine_risk":7,"frizz_risk":1,"updated_at":"2026-03-30T01:04:38.834463+05:30"},{"city":"Dhanbad","state":"Jharkhand","latitude":23.7957,"longitude":86.4304,"temp":25.3,"humidity":78,"rain":0.0,"pressure":979.7,"uv_index":8.55,"wind_gusts":36.7,"aqi":159,"pm10":102.9,"pm2_5":95.5,"mosquito_risk":7,"arthritis_risk":5,"migraine_risk":7,"frizz_risk":1,"updated_at":"2026-03-30T01:04:38.834470+05:30"},{"city":"Bokaro","state":"Jharkhand","latitude":23.6693,"longitude":86.1511,"temp":24.8,"humidity":84,"rain":0.0,"pressure":983.7,"uv_index":8.55,"wind_gusts":27.7,"aqi":157,"pm10":87.1,"pm2_5":75.2,"mosquito_risk":3,"arthritis_risk":5,"migraine_risk":7,"frizz_risk":1,"updated_at":"2026-03-30T01:04:38.834478+05:30"},{"city":"Bhubaneswar","state":"Odisha","latitude":20.2961,"longitude":85.8245,"temp":26.8,"humidity":86,"rain":0.0,"pressure":1001.4,"uv_index":8.8,"wind_gusts":41.0,"aqi":75,"pm10":20.5,"pm2_5":16.3,"mosquito_risk":7,"arthritis_risk":5,"migraine_risk":4,"frizz_risk":1,"updated_at":"2026-03-30T01:04:38.834485+05:30"},{"city":"Cuttack","state":"Odisha","latitude":20.4625,"longitude":85.8828,"temp":26.8,"humidity":87,"rain":0.0,"pressure":1003.3,"uv_index":8.85,"wind_gusts":38.5,"aqi":75,"pm10":20.5,"pm2_5":16.3,"mosquito_risk":7,"arthritis_risk":5,"migraine_risk":4,"frizz_risk":1,"updated_at":"2026-03-30T01:04:38.834492+05:30"},{"city":"Rourkela","state":"Odisha","latitude":22.2604,"longitude":84.8536,"temp":28.4,"humidity":69,"rain":0.0,"pressure":983.5,"uv_index":8.5,"wind_gusts":27.4,"aqi":122,"pm10":53.1,"pm2_5":43.0,"mosquito_risk":7,"arthritis_risk":5,"migraine_risk":7,"frizz_risk":1,"updated_at":"2026-03-30T01:04:38.834499+05:30"},{"city":"Raipur","state":"Chhattisgarh","latitude":21.2514,"longitude":81.6296,"temp":28.1,"humidity":40,"rain":0.0,"pressure":971.9,"uv_index":8.6,"wind_gusts":26.3,"aqi":105,"pm10":47.7,"pm2_5":44.9,"mosquito_risk":4,"arthritis_risk":5,"migraine_risk":7,"frizz_risk":0,"updated_at":"2026-03-30T01:04:38.834505+05:30"},{"city":"Bhilai","state":"Chhattisgarh","latitude":21.1938,"longitude":81.3509,"temp":26.9,"humidity":45,"rain":0.0,"pressure":972.2,"uv_index":8.65,"wind_gusts":29.2,"aqi":83,"pm10":29.9,"pm2_5":26.1,"mosquito_risk":4,"arthritis_risk":5,"migraine_risk":7,"frizz_risk":0,"updated_at":"2026-03-30T01:04:38.834511+05:30"},{"city":"Guwahati","state":"Assam","latitude":26.1158,"longitude":91.7086,"temp":21.1,"humidity":94,"rain":0.0,"pressure":1003.2,"uv_index":7.55,"wind_gusts":20.9,"aqi":117,"pm10":60.3,"pm2_5":50.1,"mosquito_risk":3,"arthritis_risk":5,"migraine_risk":4,"frizz_risk":1,"updated_at":"2026-03-30T01:04:38.834518+05:30"},{"city":"Agartala","state":"Tripura","latitude":23.8315,"longitude":91.2868,"temp":22.4,"humidity":93,"rain":0.0,"pressure":1006.6,"uv_index":8.25,"wind_gusts":28.8,"aqi":134,"pm10":38.9,"pm2_5":34.5,"mosquito_risk":3,"arthritis_risk":5,"migraine_risk":4,"frizz_risk":1,"updated_at":"2026-03-30T01:04:38.834524+05:30"},{"city":"Shillong","state":"Meghalaya","latitude":25.5788,"longitude":91.8933,"temp":10.9,"humidity":93,"rain":0.0,"pressure":853.9,"uv_index":6.6,"wind_gusts":38.2,"aqi":85,"pm10":55.6,"pm2_5":44.0,"mosquito_risk":3,"arthritis_risk":10,"migraine_risk":7,"frizz_risk":0,"updated_at":"2026-03-30T01:04:38.834532+05:30"},{"city":"Imphal","state":"Manipur","latitude":24.817,"longitude":93.9368,"temp":16.0,"humidity":89,"rain":0.0,"pressure":922.8,"uv_index":7.95,"wind_gusts":58.3,"aqi":136,"pm10":90.3,"pm2_5":73.6,"mosquito_risk":3,"arthritis_risk":10,"migraine_risk":7,"frizz_risk":0,"updated_at":"2026-03-30T01:04:38.834539+05:30"},{"city":"Aizawl","state":"Mizoram","latitude":23.7271,"longitude":92.7176,"temp":16.2,"humidity":95,"rain":0.0,"pressure":891.7,"uv_index":8.45,"wind_gusts":52.2,"aqi":153,"pm10":56.1,"pm2_5":49.0,"mosquito_risk":3,"arthritis_risk":10,"migraine_risk":7,"frizz_risk":0,"updated_at":"2026-03-30T01:04:38.834545+05:30"},{"city":"Kohima","state":"Nagaland","latitude":25.6701,"longitude":94.1077,"temp":12.6,"humidity":82,"rain":0.0,"pressure":853.3,"uv_index":8.5,"wind_gusts":71.6,"aqi":108,"pm10":65.4,"pm2_5":49.9,"mosquito_risk":3,"arthritis_risk":10,"migraine_risk":7,"frizz_risk":0,"updated_at":"2026-03-30T01:04:38.834551+05:30"},{"city":"Gangtok","state":"Sikkim","latitude":27.3314,"longitude":88.6138,"temp":12.5,"humidity":86,"rain":0.0,"pressure":835.3,"uv_index":8.25,"wind_gusts":20.2,"aqi":72,"pm10":44.0,"pm2_5":37.1,"mosquito_risk":3,"arthritis_risk":10,"migraine_risk":7,"frizz_risk":0,"updated_at":"2026-03-30T01:04:38.834558+05:30"},{"city":"Siliguri","state":"West Bengal","latitude":26.7271,"longitude":88.3953,"temp":17.9,"humidity":86,"rain":0.0,"pressure":995.3,"uv_index":7.7,"wind_gusts":16.6,"aqi":133,"pm10":90.3,"pm2_5":69.4,"mosquito_risk":3,"arthritis_risk":10,"migraine_risk":7,"frizz_risk":0,"updated_at":"2026-03-30T01:04:42.183639+05:30"},{"city":"Durgapur","state":"West Bengal","latitude":23.5204,"longitude":87.3119,"temp":24.5,"humidity":88,"rain":0.0,"pressure":995.1,"uv_index":8.5,"wind_gusts":24.5,"aqi":159,"pm10":89.4,"pm2_5":83.4,"mosquito_risk":3,"arthritis_risk":5,"migraine_risk":7,"frizz_risk":1,"updated_at":"2026-03-30T01:04:42.183672+05:30"},{"city":"Asansol","state":"West Bengal","latitude":23.6739,"longitude":86.9524,"temp":25.0,"humidity":83,"rain":0.0,"pressure":993.7,"uv_index":8.5,"wind_gusts":25.6,"aqi":156,"pm10":89.6,"pm2_5":84.3,"mosquito_risk":7,"arthritis_risk":5,"migraine_risk":7,"frizz_risk":1,"updated_at":"2026-03-30T01:04:42.183684+05:30"},{"city":"Pondicherry","state":"Puducherry","latitude":11.9139,"longitude":79.8145,"temp":25.9,"humidity":96,"rain":0.0,"pressure":1007.5,"uv_index":9.25,"wind_gusts":28.1,"aqi":51,"pm10":15.0,"pm2_5":10.7,"mosquito_risk":7,"arthritis_risk":5,"migraine_risk":4,"frizz_risk":1,"updated_at":"2026-03-30T01:04:42.183694+05:30"},{"city":"Port Blair","state":"Andaman and Nicobar Islands","latitude":11.6234,"longitude":92.7265,"temp":28.3,"humidity":77,"rain":0.0,"pressure":1005.8,"uv_index":9.2,"wind_gusts":16.6,"aqi":72,"pm10":27.8,"pm2_5":21.9,"mosquito_risk":7,"arthritis_risk":5,"migraine_risk":4,"frizz_risk":1,"updated_at":"2026-03-30T01:04:42.183702+05:30"},{"city":"Haridwar","state":"Uttarakhand","latitude":29.9457,"longitude":78.1642,"temp":22.5,"humidity":72,"rain":0.0,"pressure":973.6,"uv_index":6.0,"wind_gusts":22.7,"aqi":85,"pm10":43.4,"pm2_5":33.8,"mosquito_risk":3,"arthritis_risk":5,"migraine_risk":3,"frizz_risk":1,"updated_at":"2026-03-30T01:04:42.183711+05:30"},{"city":"Rishikesh","state":"Uttarakhand","latitude":30.0869,"longitude":78.2676,"temp":21.8,"humidity":69,"rain":0.0,"pressure":966.7,"uv_index":5.9,"wind_gusts":20.9,"aqi":70,"pm10":54.7,"pm2_5":25.4,"mosquito_risk":3,"arthritis_risk":5,"migraine_risk":3,"frizz_risk":0,"updated_at":"2026-03-30T01:04:42.183719+05:30"},{"city":"Nainital","state":"Uttarakhand","latitude":29.3919,"longitude":79.4542,"temp":18.5,"humidity":54,"rain":0.0,"pressure":805.7,"uv_index":7.4,"wind_gusts":46.1,"aqi":77,"pm10":50.9,"pm2_5":31.3,"mosquito_risk":0,"arthritis_risk":5,"migraine_risk":7,"frizz_risk":0,"updated_at":"2026-03-30T01:04:42.183727+05:30"},{"city":"Mussoorie","state":"Uttarakhand","latitude":30.4599,"longitude":78.0664,"temp":16.5,"humidity":59,"rain":0.0,"pressure":802.3,"uv_index":6.95,"wind_gusts":35.3,"aqi":84,"pm10":46.3,"pm2_5":29.7,"mosquito_risk":0,"arthritis_risk":5,"migraine_risk":7,"frizz_risk":0,"updated_at":"2026-03-30T01:04:42.183735+05:30"},{"city":"Dharamshala","state":"Himachal Pradesh","latitude":32.219,"longitude":76.3234,"temp":19.6,"humidity":46,"rain":0.0,"pressure":868.2,"uv_index":5.2,"wind_gusts":40.3,"aqi":44,"pm10":12.9,"pm2_5":11.5,"mosquito_risk":0,"arthritis_risk":5,"migraine_risk":3,"frizz_risk":0,"updated_at":"2026-03-30T01:04:42.183742+05:30"},{"city":"Dalhousie","state":"Himachal Pradesh","latitude":32.5387,"longitude":75.971,"temp":15.7,"humidity":55,"rain":0.0,"pressure":802.2,"uv_index":6.05,"wind_gusts":46.4,"aqi":82,"pm10":48.4,"pm2_5":30.0,"mosquito_risk":0,"arthritis_risk":5,"migraine_risk":7,"frizz_risk":0,"updated_at":"2026-03-30T01:04:42.183750+05:30"},{"city":"Patiala","state":"Punjab","latitude":30.3398,"longitude":76.3869,"temp":21.7,"humidity":78,"rain":0.0,"pressure":977.5,"uv_index":5.65,"wind_gusts":24.1,"aqi":195,"pm10":290.6,"pm2_5":50.4,"mosquito_risk":3,"arthritis_risk":5,"migraine_risk":3,"frizz_risk":1,"updated_at":"2026-03-30T01:04:42.183758+05:30"},{"city":"Bhatinda","state":"Punjab","latitude":30.211,"longitude":74.9455,"temp":22.7,"humidity":78,"rain":0.0,"pressure":982.4,"uv_index":3.5,"wind_gusts":40.3,"aqi":177,"pm10":474.0,"pm2_5":97.8,"mosquito_risk":3,"arthritis_risk":5,"migraine_risk":3,"frizz_risk":1,"updated_at":"2026-03-30T01:04:42.183766+05:30"},{"city":"Rohtak","state":"Haryana","latitude":28.8955,"longitude":76.6066,"temp":22.5,"humidity":74,"rain":0.0,"pressure":980.4,"uv_index":6.8,"wind_gusts":23.0,"aqi":287,"pm10":435.9,"pm2_5":89.6,"mosquito_risk":3,"arthritis_risk":5,"migraine_risk":7,"frizz_risk":1,"updated_at":"2026-03-30T01:04:42.183773+05:30"},{"city":"Panipat","state":"Haryana","latitude":29.3909,"longitude":76.9635,"temp":22.2,"humidity":75,"rain":0.0,"pressure":979.1,"uv_index":6.4,"wind_gusts":24.5,"aqi":436,"pm10":285.0,"pm2_5":72.6,"mosquito_risk":3,"arthritis_risk":5,"migraine_risk":7,"frizz_risk":1,"updated_at":"2026-03-30T01:04:42.183781+05:30"},{"city":"Mathura","state":"Uttar Pradesh","latitude":27.4924,"longitude":77.6737,"temp":24.1,"humidity":69,"rain":0.0,"pressure":985.5,"uv_index":6.3,"wind_gusts":36.7,"aqi":243,"pm10":466.6,"pm2_5":75.7,"mosquito_risk":3,"arthritis_risk":5,"migraine_risk":7,"frizz_risk":1,"updated_at":"2026-03-30T01:04:42.183788+05:30"},{"city":"Vrindavan","state":"Uttar Pradesh","latitude":27.5823,"longitude":77.7027,"temp":24.1,"humidity":70,"rain":0.0,"pressure":986.1,"uv_index":6.3,"wind_gusts":36.7,"aqi":243,"pm10":466.6,"pm2_5":75.7,"mosquito_risk":3,"arthritis_risk":5,"migraine_risk":7,"frizz_risk":1,"updated_at":"2026-03-30T01:04:42.183795+05:30"},{"city":"Ayodhya","state":"Uttar Pradesh","latitude":26.7922,"longitude":82.1998,"temp":21.7,"humidity":66,"rain":0.0,"pressure":994.4,"uv_index":7.5,"wind_gusts":25.6,"aqi":137,"pm10":94.3,"pm2_5":55.5,"mosquito_risk":3,"arthritis_risk":5,"migraine_risk":7,"frizz_risk":0,"updated_at":"2026-03-30T01:04:42.183803+05:30"},{"city":"Ratlam","state":"Madhya Pradesh","latitude":23.3315,"longitude":75.0367,"temp":25.3,"humidity":66,"rain":0.0,"pressure":953.8,"uv_index":7.6,"wind_gusts":28.8,"aqi":49,"pm10":33.6,"pm2_5":16.8,"mosquito_risk":7,"arthritis_risk":5,"migraine_risk":7,"frizz_risk":1,"updated_at":"2026-03-30T01:04:42.183811+05:30"},{"city":"Sagar","state":"Madhya Pradesh","latitude":23.8388,"longitude":78.7378,"temp":27.2,"humidity":51,"rain":0.0,"pressure":948.6,"uv_index":8.2,"wind_gusts":40.0,"aqi":38,"pm10":21.1,"pm2_5":11.4,"mosquito_risk":4,"arthritis_risk":5,"migraine_risk":7,"frizz_risk":1,"updated_at":"2026-03-30T01:04:42.183818+05:30"},{"city":"Satna","state":"Madhya Pradesh","latitude":24.6005,"longitude":80.8322,"temp":25.7,"humidity":49,"rain":0.0,"pressure":970.0,"uv_index":8.2,"wind_gusts":41.4,"aqi":62,"pm10":38.4,"pm2_5":17.4,"mosquito_risk":4,"arthritis_risk":5,"migraine_risk":7,"frizz_risk":0,"updated_at":"2026-03-30T01:04:42.183826+05:30"},{"city":"Akola","state":"Maharashtra","latitude":20.7002,"longitude":77.0082,"temp":27.2,"humidity":57,"rain":0.0,"pressure":973.8,"uv_index":8.55,"wind_gusts":31.3,"aqi":53,"pm10":15.2,"pm2_5":10.6,"mosquito_risk":4,"arthritis_risk":5,"migraine_risk":7,"frizz_risk":1,"updated_at":"2026-03-30T01:04:42.183834+05:30"},{"city":"Amravati","state":"Maharashtra","latitude":20.9374,"longitude":77.7796,"temp":26.8,"humidity":54,"rain":0.0,"pressure":965.5,"uv_index":8.55,"wind_gusts":19.4,"aqi":52,"pm10":17.2,"pm2_5":11.5,"mosquito_risk":4,"arthritis_risk":5,"migraine_risk":7,"frizz_risk":1,"updated_at":"2026-03-30T01:04:42.183842+05:30"},{"city":"Latur","state":"Maharashtra","latitude":18.4088,"longitude":76.5604,"temp":25.7,"humidity":49,"rain":0.0,"pressure":937.7,"uv_index":8.4,"wind_gusts":36.7,"aqi":51,"pm10":31.5,"pm2_5":19.3,"mosquito_risk":4,"arthritis_risk":5,"migraine_risk":7,"frizz_risk":0,"updated_at":"2026-03-30T01:04:42.183850+05:30"},{"city":"Nanded","state":"Maharashtra","latitude":19.1383,"longitude":77.3091,"temp":27.0,"humidity":52,"rain":0.0,"pressure":966.3,"uv_index":7.2,"wind_gusts":52.9,"aqi":56,"pm10":33.3,"pm2_5":22.2,"mosquito_risk":4,"arthritis_risk":5,"migraine_risk":7,"frizz_risk":1,"updated_at":"2026-03-30T01:04:42.183858+05:30"},{"city":"Gulbarga","state":"Karnataka","latitude":17.3297,"longitude":76.8343,"temp":29.2,"humidity":44,"rain":0.0,"pressure":956.4,"uv_index":8.9,"wind_gusts":30.2,"aqi":57,"pm10":23.6,"pm2_5":22.1,"mosquito_risk":4,"arthritis_risk":5,"migraine_risk":7,"frizz_risk":0,"updated_at":"2026-03-30T01:04:42.183865+05:30"},{"city":"Bidar","state":"Karnataka","latitude":17.9104,"longitude":77.5199,"temp":27.5,"humidity":51,"rain":0.0,"pressure":933.4,"uv_index":8.1,"wind_gusts":29.5,"aqi":68,"pm10":32.4,"pm2_5":29.1,"mosquito_risk":4,"arthritis_risk":5,"migraine_risk":7,"frizz_risk":1,"updated_at":"2026-03-30T01:04:42.183893+05:30"},{"city":"Hospet","state":"Karnataka","latitude":15.2689,"longitude":76.3909,"temp":28.0,"humidity":61,"rain":0.0,"pressure":953.6,"uv_index":8.25,"wind_gusts":31.3,"aqi":76,"pm10":30.9,"pm2_5":27.5,"mosquito_risk":7,"arthritis_risk":5,"migraine_risk":7,"frizz_risk":1,"updated_at":"2026-03-30T01:04:42.183903+05:30"},{"city":"Tirupur","state":"Tamil Nadu","latitude":11.1085,"longitude":77.3411,"temp":26.8,"humidity":81,"rain":0.0,"pressure":974.2,"uv_index":9.5,"wind_gusts":19.1,"aqi":112,"pm10":45.6,"pm2_5":42.3,"mosquito_risk":7,"arthritis_risk":5,"migraine_risk":7,"frizz_risk":1,"updated_at":"2026-03-30T01:04:42.183910+05:30"},{"city":"Alappuzha","state":"Kerala","latitude":9.4981,"longitude":76.3388,"temp":28.2,"humidity":85,"rain":0.0,"pressure":1007.2,"uv_index":9.2,"wind_gusts":25.6,"aqi":88,"pm10":48.1,"pm2_5":43.2,"mosquito_risk":7,"arthritis_risk":5,"migraine_risk":4,"frizz_risk":1,"updated_at":"2026-03-30T01:04:42.183917+05:30"},{"city":"Munnar","state":"Kerala","latitude":10.0889,"longitude":77.0595,"temp":20.6,"humidity":87,"rain":0.0,"pressure":855.4,"uv_index":7.65,"wind_gusts":28.1,"aqi":88,"pm10":44.1,"pm2_5":41.9,"mosquito_risk":3,"arthritis_risk":5,"migraine_risk":7,"frizz_risk":1,"updated_at":"2026-03-30T01:04:42.183925+05:30"},{"city":"Silchar","state":"Assam","latitude":24.8333,"longitude":92.7789,"temp":21.5,"humidity":88,"rain":0.0,"pressure":1006.0,"uv_index":8.35,"wind_gusts":29.2,"aqi":151,"pm10":97.1,"pm2_5":73.6,"mosquito_risk":3,"arthritis_risk":5,"migraine_risk":4,"frizz_risk":1,"updated_at":"2026-03-30T01:04:42.183933+05:30"},{"city":"Dibrugarh","state":"Assam","latitude":27.4728,"longitude":94.912,"temp":20.2,"humidity":90,"rain":0.0,"pressure":997.9,"uv_index":6.75,"wind_gusts":11.2,"aqi":71,"pm10":26.5,"pm2_5":23.9,"mosquito_risk":3,"arthritis_risk":5,"migraine_risk":7,"frizz_risk":1,"updated_at":"2026-03-30T01:04:42.183941+05:30"}]