[{"city":"Delhi","state":"Delhi","latitude":28.6139,"longitude":77.209,"temp":26.7,"humidity":39,"rain":0.0,"pressure":981.2,"uv_index":6.15,"wind_gusts":23.0,"aqi":144,"pm10":145.8,"pm2_5":53.4,"mosquito_risk":4,"arthritis_risk":5,"migraine_risk":7,"frizz_risk":0,"updated_at":"2026-04-17T04:13:57.899137+05:30"},{"city":"Mumbai","state":"Maharashtra","latitude":19.076,"longitude":72.8777,"temp":27.6,"humidity":80,"rain":0.0,"pressure":1007.1,"uv_index":7.05,"wind_gusts":22.0,"aqi":78,"pm10":55.6,"pm2_5":24.2,"mosquito_risk":7,"arthritis_risk":5,"migraine_risk":4,"frizz_risk":1,"updated_at":"2026-04-17T04:13:57.899170+05:30"},{"city":"Bangalore","state":"Karnataka","latitude":12.9716,"longitude":77.5946,"temp":23.8,"humidity":71,"rain":0.0,"pressure":910.6,"uv_index":9.55,"wind_gusts":35.6,"aqi":85,"pm10":36.6,"pm2_5":32.5,"mosquito_risk":3,"arthritis_risk":5,"migraine_risk":7,"frizz_risk":1,"updated_at":"2026-04-17T04:13:57.899185+05:30"},{"city":"Hyderabad","state":"Telangana","latitude":17.385,"longitude":78.4867,"temp":28.0,"humidity":64,"rain":0.0,"pressure":951.6,"uv_index":9.2,"wind_gusts":27.7,"aqi":85,"pm10":23.7,"pm2_5":21.9,"mosquito_risk":7,"arthritis_risk":5,"migraine_risk":7,"frizz_risk":1,"updated_at":"2026-04-17T04:13:57.899194+05:30"},{"city":"Chennai","state":"Tamil Nadu","latitude":13.0827,"longitude":80.2707,"temp":27.7,"humidity":91,"rain":0.0,"pressure":1005.7,"uv_index":8.7,"wind_gusts":34.2,"aqi":33,"pm10":10.9,"pm2_5":7.9,"mosquito_risk":7,"arthritis_risk":5,"migraine_risk":4,"frizz_risk":1,"updated_at":"2026-04-17T04:13:57.899201+05:30"},{"city":"Kolkata","state":"West Bengal","latitude":22.5726,"longitude":88.3639,"temp":27.0,"humidity":94,"rain":0.0,"pressure":1006.1,"uv_index":8.9,"wind_gusts":24.5,"aqi":73,"pm10":18.5,"pm2_5":14.1,"mosquito_risk":7,"arthritis_risk":5,"migraine_risk":4,"frizz_risk":1,"updated_at":"2026-04-17T04:13:57.899209+05:30"},{"city":"Pune","state":"Maharashtra","latitude":18.5204,"longitude":73.8567,"temp":21.4,"humidity":78,"rain":0.0,"pressure":946.6,"uv_index":7.75,"wind_gusts":45.4,"aqi":74,"pm10":38.6,"pm2_5":30.6,"mosquito_risk":3,"arthritis_risk":5,"migraine_risk":7,"frizz_risk":1,"updated_at":"2026-04-17T04:13:57.899220+05:30"},{"city":"Ahmedabad","state":"Gujarat","latitude":23.0225,"longitude":72.5714,"temp":27.2,"humidity":49,"rain":0.0,"pressure":1000.6,"uv_index":7.75,"wind_gusts":19.1,"aqi":71,"pm10":28.1,"pm2_5":14.1,"mosquito_risk":4,"arthritis_risk":5,"migraine_risk":4,"frizz_risk":0,"updated_at":"2026-04-17T04:13:57.899227+05:30"},{"city":"Jaipur","state":"Rajasthan","latitude":26.9124,"longitude":75.7873,"temp":29.0,"humidity":29,"rain":0.0,"pressure":958.4,"uv_index":6.4,"wind_gusts":32.4,"aqi":119,"pm10":97.1,"pm2_5":25.2,"mosquito_risk":4,"arthritis_risk":5,"migraine_risk":7,"frizz_risk":0,"updated_at":"2026-04-17T04:13:57.899234+05:30"},{"city":"Lucknow","state":"Uttar Pradesh","latitude":26.8467,"longitude":80.9462,"temp":23.6,"humidity":51,"rain":0.0,"pressure":992.4,"uv_index":7.05,"wind_gusts":24.1,"aqi":103,"pm10":146.2,"pm2_5":40.0,"mosquito_risk":0,"arthritis_risk":5,"migraine_risk":7,"frizz_risk":0,"updated_at":"2026-04-17T04:13:57.899240+05:30"},{"city":"Kanpur","state":"Uttar Pradesh","latitude":26.4499,"longitude":80.3319,"temp":23.3,"humidity":59,"rain":0.0,"pressure":990.1,"uv_index":7.4,"wind_gusts":16.2,"aqi":140,"pm10":184.4,"pm2_5":47.0,"mosquito_risk":0,"arthritis_risk":5,"migraine_risk":7,"frizz_risk":0,"updated_at":"2026-04-17T04:13:57.899246+05:30"},{"city":"Chandigarh","state":"Chandigarh","latitude":30.7333,"longitude":76.7794,"temp":22.0,"humidity":50,"rain":0.0,"pressure":966.9,"uv_index":7.2,"wind_gusts":50.4,"aqi":47,"pm10":13.0,"pm2_5":9.2,"mosquito_risk":0,"arthritis_risk":5,"migraine_risk":7,"frizz_risk":0,"updated_at":"2026-04-17T04:13:57.899253+05:30"},{"city":"Srinagar","state":"Jammu and Kashmir","latitude":34.0837,"longitude":74.7973,"temp":10.8,"humidity":84,"rain":0.0,"pressure":842.7,"uv_index":5.1,"wind_gusts":25.9,"aqi":72,"pm10":33.8,"pm2_5":21.6,"mosquito_risk":3,"arthritis_risk":10,"migraine_risk":3,"frizz_risk":0,"updated_at":"2026-04-17T04:13:57.899260+05:30"},{"city":"Jammu","state":"Jammu and Kashmir","latitude":32.7266,"longitude":74.857,"temp":26.4,"humidity":38,"rain":0.0,"pressure":972.1,"uv_index":5.2,"wind_gusts":43.6,"aqi":53,"pm10":18.2,"pm2_5":14.3,"mosquito_risk":4,"arthritis_risk":5,"migraine_risk":3,"frizz_risk":0,"updated_at":"2026-04-17T04:13:57.899266+05:30"},{"city":"Amritsar","state":"Punjab","latitude":31.634,"longitude":74.8723,"temp":22.0,"humidity":54,"rain":0.0,"pressure":979.5,"uv_index":7.1,"wind_gusts":32.4,"aqi":63,"pm10":19.7,"pm2_5":13.7,"mosquito_risk":0,"arthritis_risk":5,"migraine_risk":7,"frizz_risk":0,"updated_at":"2026-04-17T04:13:57.899272+05:30"},{"city":"Ludhiana","state":"Punjab","latitude":30.901,"longitude":75.8573,"temp":22.7,"humidity":51,"rain":0.0,"pressure":977.1,"uv_index":6.7,"wind_gusts":38.2,"aqi":79,"pm10":30.0,"pm2_5":25.6,"mosquito_risk":0,"arthritis_risk":5,"migraine_risk":7,"frizz_risk":0,"updated_at":"2026-04-17T04:13:57.899278+05:30"},{"city":"Jalandhar","state":"Punjab","latitude":31.326,"longitude":75.5762,"temp":22.6,"humidity":48,"rain":0.0,"pressure":978.1,"uv_index":6.1,"wind_gusts":36.0,"aqi":67,"pm10":23.8,"pm2_5":15.2,"mosquito_risk":0,"arthritis_risk":5,"migraine_risk":7,"frizz_risk":0,"updated_at":"2026-04-17T04:13:57.899286+05:30"},{"city":"Dehradun","state":"Uttarakhand","latitude":30.6284,"longitude":78.0322,"temp":15.5,"humidity":50,"rain":0.0,"pressure":830.4,"uv_index":6.6,"wind_gusts":36.4,"aqi":38,"pm10":11.2,"pm2_5":10.0,"mosquito_risk":0,"arthritis_risk":5,"migraine_risk":7,"frizz_risk":0,"updated_at":"2026-04-17T04:13:57.899292+05:30"},{"city":"Shimla","state":"Himachal Pradesh","latitude":31.1048,"longitude":77.1734,"temp":13.7,"humidity":52,"rain":0.0,"pressure":784.3,"uv_index":6.85,"wind_gusts":38.5,"aqi":43,"pm10":16.4,"pm2_5":10.8,"mosquito_risk":0,"arthritis_risk":5,"migraine_risk":7,"frizz_risk":0,"updated_at":"2026-04-17T04:13:57.899298+05:30"},{"city":"Manali","state":"Himachal Pradesh","latitude":32.2396,"longitude":77.1887,"temp":15.5,"humidity":46,"rain":0.0,"pressure":821.7,"uv_index":8.05,"wind_gusts":23.0,"aqi":49,"pm10":20.3,"pm2_5":13.7,"mosquito_risk":0,"arthritis_risk":5,"migraine_risk":7,"frizz_risk":0,"updated_at":"2026-04-17T04:13:57.899304+05:30"},{"city":"Gurgaon","state":"Haryana","latitude":28.4595,"longitude":77.0266,"temp":24.0,"humidity":49,"rain":0.0,"pressure":979.2,"uv_index":6.1,"wind_gusts":27.4,"aqi":285,"pm10":217.9,"pm2_5":73.3,"mosquito_risk":0,"arthritis_risk":5,"migraine_risk":7,"frizz_risk":0,"updated_at":"2026-04-17T04:13:57.899310+05:30"},{"city":"Noida","state":"Uttar Pradesh","latitude":28.5355,"longitude":77.391,"temp":26.2,"humidity":42,"rain":0.0,"pressure":982.8,"uv_index":6.0,"wind_gusts":20.2,"aqi":285,"pm10":217.9,"pm2_5":73.3,"mosquito_risk":4,"arthritis_risk":5,"migraine_risk":3,"frizz_risk":0,"updated_at":"2026-04-17T04:13:57.899317+05:30"},{"city":"Ghaziabad","state":"Uttar Pradesh","latitude":28.6692,"longitude":77.4538,"temp":24.1,"humidity":50,"rain":0.0,"pressure":980.9,"uv_index":5.95,"wind_gusts":23.8,"aqi":105,"pm10":113.9,"pm2_5":45.1,"mosquito_risk":0,"arthritis_risk":5,"migraine_risk":3,"frizz_risk":0,"updated_at":"2026-04-17T04:13:57.899323+05:30"},{"city":"Faridabad","state":"Haryana","latitude":28.4089,"longitude":77.3178,"temp":25.8,"humidity":43,"rain":0.0,"pressure":982.1,"uv_index":6.25,"wind_gusts":18.7,"aqi":285,"pm10":217.9,"pm2_5":73.3,"mosquito_risk":4,"arthritis_risk":5,"migraine_risk":7,"frizz_risk":0,"updated_at":"2026-04-17T04:13:57.899329+05:30"},{"city":"Meerut","state":"Uttar Pradesh","latitude":28.9845,"longitude":77.7064,"temp":21.7,"humidity":55,"rain":0.0,"pressure":979.9,"uv_index":6.05,"wind_gusts":25.9,"aqi":105,"pm10":113.9,"pm2_5":45.1,"mosquito_risk":0,"arthritis_risk":5,"migraine_risk":7,"frizz_risk":0,"updated_at":"2026-04-17T04:13:57.899335+05:30"},{"city":"Agra","state":"Uttar Pradesh","latitude":27.1767,"longitude":78.0081,"temp":24.1,"humidity":62,"rain":0.0,"pressure":986.0,"uv_index":6.25,"wind_gusts":24.1,"aqi":365,"pm10":393.0,"pm2_5":64.5,"mosquito_risk":3,"arthritis_risk":5,"migraine_risk":7,"frizz_risk":1,"updated_at":"2026-04-17T04:13:57.899341+05:30"},{"city":"Varanasi","state":"Uttar Pradesh","latitude":25.3176,"longitude":82.9739,"temp":25.6,"humidity":90,"rain":0.0,"pressure":996.6,"uv_index":8.4,"wind_gusts":23.8,"aqi":123,"pm10":79.9,"pm2_5":58.7,"mosquito_risk":7,"arthritis_risk":5,"migraine_risk":7,"frizz_risk":1,"updated_at":"2026-04-17T04:13:57.899349+05:30"},{"city":"Prayagraj","state":"Uttar Pradesh","latitude":25.4358,"longitude":81.8463,"temp":23.3,"humidity":61,"rain":0.0,"pressure":994.7,"uv_index":8.25,"wind_gusts":20.9,"aqi":114,"pm10":112.2,"pm2_5":54.7,"mosquito_risk":3,"arthritis_risk":5,"migraine_risk":7,"frizz_risk":0,"updated_at":"2026-04-17T04:13:57.899358+05:30"},{"city":"Gorakhpur","state":"Uttar Pradesh","latitude":26.7606,"longitude":83.3732,"temp":24.7,"humidity":85,"rain":0.0,"pressure":997.5,"uv_index":7.65,"wind_gusts":27.4,"aqi":142,"pm10":74.3,"pm2_5":67.8,"mosquito_risk":3,"arthritis_risk":5,"migraine_risk":7,"frizz_risk":1,"updated_at":"2026-04-17T04:13:57.899363+05:30"},{"city":"Bareilly","state":"Uttar Pradesh","latitude":28.367,"longitude":79.4304,"temp":19.1,"humidity":74,"rain":0.0,"pressure":985.4,"uv_index":7.45,"wind_gusts":27.0,"aqi":75,"pm10":48.4,"pm2_5":40.9,"mosquito_risk":3,"arthritis_risk":5,"migraine_risk":7,"frizz_risk":0,"updated_at":"2026-04-17T04:13:57.899369+05:30"},{"city":"Aligarh","state":"Uttar Pradesh","latitude":27.8974,"longitude":78.088,"temp":24.2,"humidity":50,"rain":0.0,"pressure":983.6,"uv_index":7.15,"wind_gusts":33.8,"aqi":133,"pm10":125.3,"pm2_5":59.1,"mosquito_risk":0,"arthritis_risk":5,"migraine_risk":7,"frizz_risk":0,"updated_at":"2026-04-17T04:13:57.899375+05:30"},{"city":"Moradabad","state":"Uttar Pradesh","latitude":28.8386,"longitude":78.7733,"temp":21.2,"humidity":63,"rain":0.0,"pressure":982.4,"uv_index":6.65,"wind_gusts":26.3,"aqi":82,"pm10":60.5,"pm2_5":41.1,"mosquito_risk":3,"arthritis_risk":5,"migraine_risk":7,"frizz_risk":0,"updated_at":"2026-04-17T04:13:57.899381+05:30"},{"city":"Saharanpur","state":"Uttar Pradesh","latitude":29.9637,"longitude":77.546,"temp":20.1,"humidity":68,"rain":0.0,"pressure":973.9,"uv_index":6.3,"wind_gusts":34.6,"aqi":69,"pm10":30.5,"pm2_5":28.2,"mosquito_risk":3,"arthritis_risk":5,"migraine_risk":7,"frizz_risk":0,"updated_at":"2026-04-17T04:13:57.899386+05:30"},{"city":"Jhansi","state":"Uttar Pradesh","latitude":25.4484,"longitude":78.5685,"temp":28.5,"humidity":39,"rain":0.0,"pressure":976.3,"uv_index":8.15,"wind_gusts":33.1,"aqi":87,"pm10":140.6,"pm2_5":28.2,"mosquito_risk":4,"arthritis_risk":5,"migraine_risk":7,"frizz_risk":0,"updated_at":"2026-04-17T04:14:01.239313+05:30"},{"city":"Surat","state":"Gujarat","latitude":21.1702,"longitude":72.8311,"temp":27.2,"humidity":89,"rain":0.0,"pressure":1005.2,"uv_index":7.5,"wind_gusts":22.0,"aqi":84,"pm10":37.7,"pm2_5":25.8,"mosquito_risk":7,"arthritis_risk":5,"migraine_risk":4,"frizz_risk":1,"updated_at":"2026-04-17T04:14:01.239337+05:30"},{"city":"Vadodara","state":"Gujarat","latitude":22.3072,"longitude":73.1812,"temp":25.2,"humidity":92,"rain":0.0,"pressure":1002.9,"uv_index":7.25,"wind_gusts":18.0,"aqi":74,"pm10":33.1,"pm2_5":24.0,"mosquito_risk":7,"arthritis_risk":5,"migraine_risk":4,"frizz_risk":1,"updated_at":"2026-04-17T04:14:01.239346+05:30"},{"city":"Rajkot","state":"Gujarat","latitude":22.3039,"longitude":70.8022,"temp":24.2,"humidity":72,"rain":0.0,"pressure":993.1,"uv_index":7.65,"wind_gusts":25.2,"aqi":64,"pm10":67.3,"pm2_5":17.8,"mosquito_risk":3,"arthritis_risk":5,"migraine_risk":7,"frizz_risk":1,"updated_at":"2026-04-17T04:14:01.239353+05:30"},{"city":"Thane","state":"Maharashtra","latitude":19.2183,"longitude":72.9781,"temp":24.1,"humidity":96,"rain":0.0,"pressure":1006.7,"uv_index":7.05,"wind_gusts":34.2,"aqi":78,"pm10":55.6,"pm2_5":24.2,"mosquito_risk":3,"arthritis_risk":5,"migraine_risk":4,"frizz_risk":1,"updated_at":"2026-04-17T04:14:01.239360+05:30"},{"city":"Nagpur","state":"Maharashtra","latitude":21.1458,"longitude":79.0882,"temp":27.6,"humidity":53,"rain":0.0,"pressure":970.5,"uv_index":8.85,"wind_gusts":22.3,"aqi":61,"pm10":30.4,"pm2_5":27.1,"mosquito_risk":4,"arthritis_risk":5,"migraine_risk":7,"frizz_risk":1,"updated_at":"2026-04-17T04:14:01.239366+05:30"},{"city":"Nashik","state":"Maharashtra","latitude":19.9975,"longitude":73.7898,"temp":21.8,"humidity":70,"rain":0.0,"pressure":944.1,"uv_index":7.4,"wind_gusts":32.0,"aqi":59,"pm10":40.5,"pm2_5":25.1,"mosquito_risk":3,"arthritis_risk":5,"migraine_risk":7,"frizz_risk":1,"updated_at":"2026-04-17T04:14:01.239372+05:30"},{"city":"Aurangabad","state":"Maharashtra","latitude":19.8762,"longitude":75.3433,"temp":25.7,"humidity":55,"rain":0.0,"pressure":942.5,"uv_index":8.25,"wind_gusts":31.7,"aqi":39,"pm10":16.5,"pm2_5":13.9,"mosquito_risk":4,"arthritis_risk":5,"migraine_risk":7,"frizz_risk":0,"updated_at":"2026-04-17T04:14:01.239378+05:30"},{"city":"Solapur","state":"Maharashtra","latitude":17.6599,"longitude":75.9064,"temp":26.0,"humidity":51,"rain":0.0,"pressure":955.0,"uv_index":8.6,"wind_gusts":21.6,"aqi":63,"pm10":22.4,"pm2_5":21.7,"mosquito_risk":4,"arthritis_risk":5,"migraine_risk":7,"frizz_risk":0,"updated_at":"2026-04-17T04:14:01.239384+05:30"},{"city":"Kolhapur","state":"Maharashtra","latitude":16.705,"longitude":74.2433,"temp":20.0,"humidity":95,"rain":0.0,"pressure":945.8,"uv_index":8.5,"wind_gusts":41.0,"aqi":68,"pm10":25.6,"pm2_5":20.7,"mosquito_risk":3,"arthritis_risk":5,"migraine_risk":7,"frizz_risk":1,"updated_at":"2026-04-17T04:14:01.239390+05:30"},{"city":"Goa","state":"Goa","latitude":15.2993,"longitude":74.124,"temp":26.8,"humidity":87,"rain":0.0,"pressure":996.5,"uv_index":8.5,"wind_gusts":31.0,"aqi":73,"pm10":32.5,"pm2_5":22.5,"mosquito_risk":7,"arthritis_risk":5,"migraine_risk":7,"frizz_risk":1,"updated_at":"2026-04-17T04:14:01.239396+05:30"},{"city":"Jodhpur","state":"Rajasthan","latitude":26.2389,"longitude":73.0243,"temp":28.4,"humidity":47,"rain":0.0,"pressure":980.9,"uv_index":8.05,"wind_gusts":29.5,"aqi":82,"pm10":150.4,"pm2_5":30.2,"mosquito_risk":4,"arthritis_risk":5,"migraine_risk":7,"frizz_risk":0,"updated_at":"2026-04-17T04:14:01.239402+05:30"},{"city":"Udaipur","state":"Rajasthan","latitude":24.5854,"longitude":73.7125,"temp":26.8,"humidity":45,"rain":0.0,"pressure":945.5,"uv_index":8.0,"wind_gusts":26.6,"aqi":65,"pm10":45.5,"pm2_5":17.9,"mosquito_risk":4,"arthritis_risk":5,"migraine_risk":7,"frizz_risk":0,"updated_at":"2026-04-17T04:14:01.239408+05:30"},{"city":"Kota","state":"Rajasthan","latitude":25.2138,"longitude":75.8648,"temp":26.8,"humidity":56,"rain":0.0,"pressure":976.5,"uv_index":7.4,"wind_gusts":25.9,"aqi":81,"pm10":70.3,"pm2_5":24.0,"mosquito_risk":4,"arthritis_risk":5,"migraine_risk":7,"frizz_risk":1,"updated_at":"2026-04-17T04:14:01.239413+05:30"},{"city":"Bikaner","state":"Rajasthan","latitude":28.0229,"longitude":73.3119,"temp":29.0,"humidity":34,"rain":0.0,"pressure":978.7,"uv_index":8.0,"wind_gusts":22.3,"aqi":55,"pm10":173.2,"pm2_5":43.8,"mosquito_risk":4,"arthritis_risk":5,"migraine_risk":7,"frizz_risk":0,"updated_at":"2026-04-17T04:14:01.239419+05:30"},{"city":"Ajmer","state":"Rajasthan","latitude":26.4499,"longitude":74.6399,"temp":26.6,"humidity":51,"rain":0.0,"pressure":953.0,"uv_index":7.55,"wind_gusts":30.6,"aqi":66,"pm10":50.2,"pm2_5":22.2,"mosquito_risk":4,"arthritis_risk":5,"migraine_risk":7,"frizz_risk":0,"updated_at":"2026-04-17T04:14:01.239425+05:30"},{"city":"Gwalior","state":"Madhya Pradesh","latitude":26.2183,"longitude":78.1828,"temp":26.6,"humidity":44,"rain":0.0,"pressure":981.5,"uv_index":7.15,"wind_gusts":29.2,"aqi":123,"pm10":131.8,"pm2_5":27.5,"mosquito_risk":4,"arthritis_risk":5,"migraine_risk":7,"frizz_risk":0,"updated_at":"2026-04-17T04:14:01.239430+05:30"},{"city":"Indore","state":"Madhya Pradesh","latitude":22.7196,"longitude":75.8577,"temp":25.3,"humidity":61,"rain":0.0,"pressure":946.4,"uv_index":7.7,"wind_gusts":26.6,"aqi":75,"pm10":32.1,"pm2_5":23.1,"mosquito_risk":7,"arthritis_risk":5,"migraine_risk":7,"frizz_risk":1,"updated_at":"2026-04-17T04:14:01.239435+05:30"},{"city":"Bhopal","state":"Madhya Pradesh","latitude":23.2599,"longitude":77.4126,"temp":28.3,"humidity":50,"rain":0.0,"pressure":952.2,"uv_index":7.8,"wind_gusts":31.7,"aqi":80,"pm10":47.8,"pm2_5":24.6,"mosquito_risk":4,"arthritis_risk":5,"migraine_risk":7,"frizz_risk":1,"updated_at":"2026-04-17T04:14:01.239441+05:30"},{"city":"Jabalpur","state":"Madhya Pradesh","latitude":23.1815,"longitude":79.9864,"temp":25.1,"humidity":52,"rain":0.0,"pressure":959.6,"uv_index":8.25,"wind_gusts":24.1,"aqi":77,"pm10":63.3,"pm2_5":18.8,"mosquito_risk":4,"arthritis_risk":5,"migraine_risk":7,"frizz_risk":0,"updated_at":"2026-04-17T04:14:01.239446+05:30"},{"city":"Ujjain","state":"Madhya Pradesh","latitude":23.1765,"longitude":75.7885,"temp":25.9,"humidity":58,"rain":0.0,"pressure":952.1,"uv_index":7.8,"wind_gusts":26.6,"aqi":81,"pm10":33.4,"pm2_5":23.6,"mosquito_risk":4,"arthritis_risk":5,"migraine_risk":7,"frizz_risk":1,"updated_at":"2026-04-17T04:14:01.239452+05:30"},{"city":"Visakhapatnam","state":"Andhra Pradesh","latitude":17.6868,"longitude":83.2185,"temp":27.2,"humidity":86,"rain":0.0,"pressure":1001.9,"uv_index":9.2,"wind_gusts":39.2,"aqi":45,"pm10":14.3,"pm2_5":11.7,"mosquito_risk":7,"arthritis_risk":5,"migraine_risk":4,"frizz_risk":1,"updated_at":"2026-04-17T04:14:01.239457+05:30"},{"city":"Vijayawada","state":"Andhra Pradesh","latitude":16.5062,"longitude":80.648,"temp":26.7,"humidity":93,"rain":0.0,"pressure":1001.3,"uv_index":9.2,"wind_gusts":22.7,"aqi":48,"pm10":10.9,"pm2_5":8.7,"mosquito_risk":7,"arthritis_risk":5,"migraine_risk":4,"frizz_risk":1,"updated_at":"2026-04-17T04:14:01.239463+05:30"},{"city":"Guntur","state":"Andhra Pradesh","latitude":16.3067,"longitude":80.4365,"temp":27.0,"humidity":92,"rain":0.0,"pressure":1002.3,"uv_index":9.2,"wind_gusts":28.1,"aqi":52,"pm10":11.0,"pm2_5":8.8,"mosquito_risk":7,"arthritis_risk":5,"migraine_risk":4,"frizz_risk":1,"updated_at":"2026-04-17T04:14:01.239468+05:30"},{"city":"Nellore","state":"Andhra Pradesh","latitude":14.4426,"longitude":79.9865,"temp":26.9,"humidity":90,"rain":0.0,"pressure":1003.8,"uv_index":9.3,"wind_gusts":31.0,"aqi":53,"pm10":12.0,"pm2_5":10.2,"mosquito_risk":7,"arthritis_risk":5,"migraine_risk":4,"frizz_risk":1,"updated_at":"2026-04-17T04:14:01.239475+05:30"},{"city":"Kurnool","state":"Andhra Pradesh","latitude":15.8281,"longitude":78.0373,"temp":30.7,"humidity":54,"rain":0.0,"pressure":974.7,"uv_index":9.15,"wind_gusts":21.2,"aqi":79,"pm10":25.4,"pm2_5":23.5,"mosquito_risk":0,"arthritis_risk":5,"migraine_risk":7,"frizz_risk":1,"updated_at":"2026-04-17T04:14:01.239481+05:30"},{"city":"Kakinada","state":"Andhra Pradesh","latitude":16.9891,"longitude":82.2475,"temp":27.3,"humidity":90,"rain":0.0,"pressure":1006.1,"uv_index":9.2,"wind_gusts":28.8,"aqi":29,"pm10":11.6,"pm2_5":7.8,"mosquito_risk":7,"arthritis_risk":5,"migraine_risk":4,"frizz_risk":1,"updated_at":"2026-04-17T04:14:01.239486+05:30"},{"city":"Tirupati","state":"Andhra Pradesh","latitude":13.6288,"longitude":79.4192,"temp":25.5,"humidity":92,"rain":0.0,"pressure":990.3,"uv_index":9.25,"wind_gusts":34.6,"aqi":70,"pm10":25.0,"pm2_5":23.6,"mosquito_risk":7,"arthritis_risk":5,"migraine_risk":7,"frizz_risk":1,"updated_at":"2026-04-17T04:14:01.239492+05:30"},{"city":"Warangal","state":"Telangana","latitude":17.9689,"longitude":79.5941,"temp":27.1,"humidity":79,"rain":0.0,"pressure":976.8,"uv_index":9.1,"wind_gusts":26.6,"aqi":70,"pm10":18.1,"pm2_5":17.1,"mosquito_risk":7,"arthritis_risk":5,"migraine_risk":7,"frizz_risk":1,"updated_at":"2026-04-17T04:14:01.239497+05:30"},{"city":"Nizamabad","state":"Telangana","latitude":18.6725,"longitude":78.0941,"temp":30.9,"humidity":49,"rain":0.0,"pressure":962.5,"uv_index":8.95,"wind_gusts":25.2,"aqi":86,"pm10":37.3,"pm2_5":36.0,"mosquito_risk":0,"arthritis_risk":5,"migraine_risk":7,"frizz_risk":1,"updated_at":"2026-04-17T04:14:01.239502+05:30"},{"city":"Mysore","state":"Karnataka","latitude":12.2958,"longitude":76.6396,"temp":23.4,"humidity":90,"rain":0.0,"pressure":927.4,"uv_index":9.3,"wind_gusts":38.5,"aqi":83,"pm10":52.9,"pm2_5":45.6,"mosquito_risk":3,"arthritis_risk":5,"migraine_risk":7,"frizz_risk":1,"updated_at":"2026-04-17T04:14:01.239508+05:30"},{"city":"Mangalore","state":"Karnataka","latitude":12.9141,"longitude":74.856,"temp":29.7,"humidity":81,"rain":0.0,"pressure":1005.0,"uv_index":8.95,"wind_gusts":25.2,"aqi":89,"pm10":52.2,"pm2_5":22.4,"mosquito_risk":7,"arthritis_risk":5,"migraine_risk":4,"frizz_risk":1,"updated_at":"2026-04-17T04:14:01.239513+05:30"},{"city":"Hubli-Dharwad","state":"Karnataka","latitude":15.3647,"longitude":75.124,"temp":23.1,"humidity":93,"rain":0.0,"pressure":939.5,"uv_index":9.2,"wind_gusts":37.8,"aqi":65,"pm10":24.0,"pm2_5":15.3,"mosquito_risk":3,"arthritis_risk":5,"migraine_risk":7,"frizz_risk":1,"updated_at":"2026-04-17T04:14:01.239519+05:30"},{"city":"Belgaum","state":"Karnataka","latitude":15.8497,"longitude":74.4977,"temp":20.7,"humidity":100,"rain":0.0,"pressure":923.8,"uv_index":8.75,"wind_gusts":40.0,"aqi":61,"pm10":24.6,"pm2_5":18.1,"mosquito_risk":3,"arthritis_risk":5,"migraine_risk":7,"frizz_risk":1,"updated_at":"2026-04-17T04:14:04.564035+05:30"},{"city":"Coimbatore","state":"Tamil Nadu","latitude":11.0168,"longitude":76.9558,"temp":25.3,"humidity":87,"rain":0.0,"pressure":960.6,"uv_index":9.05,"wind_gusts":36.0,"aqi":95,"pm10":54.1,"pm2_5":49.9,"mosquito_risk":7,"arthritis_risk":5,"migraine_risk":7,"frizz_risk":1,"updated_at":"2026-04-17T04:14:04.564067+05:30"},{"city":"Madurai","state":"Tamil Nadu","latitude":9.9252,"longitude":78.1198,"temp":26.9,"humidity":88,"rain":0.0,"pressure":991.7,"uv_index":8.8,"wind_gusts":32.4,"aqi":69,"pm10":41.8,"pm2_5":38.3,"mosquito_risk":7,"arthritis_risk":5,"migraine_risk":7,"frizz_risk":1,"updated_at":"2026-04-17T04:14:04.564080+05:30"},{"city":"Trichy","state":"Tamil Nadu","latitude":10.7905,"longitude":78.7047,"temp":26.9,"humidity":89,"rain":0.0,"pressure":998.5,"uv_index":8.45,"wind_gusts":19.8,"aqi":58,"pm10":32.5,"pm2_5":30.0,"mosquito_risk":7,"arthritis_risk":5,"migraine_risk":7,"frizz_risk":1,"updated_at":"2026-04-17T04:14:04.564091+05:30"},{"city":"Salem","state":"Tamil Nadu","latitude":11.6643,"longitude":78.146,"temp":25.8,"humidity":85,"rain":0.0,"pressure":976.1,"uv_index":8.35,"wind_gusts":22.7,"aqi":66,"pm10":31.9,"pm2_5":29.3,"mosquito_risk":7,"arthritis_risk":5,"migraine_risk":7,"frizz_risk":1,"updated_at":"2026-04-17T04:14:04.564100+05:30"},{"city":"Tirunelveli","state":"Tamil Nadu","latitude":8.7139,"longitude":77.7567,"temp":27.2,"humidity":73,"rain":0.0,"pressure":1001.5,"uv_index":8.85,"wind_gusts":43.6,"aqi":83,"pm10":49.9,"pm2_5":41.3,"mosquito_risk":7,"arthritis_risk":5,"migraine_risk":4,"frizz_risk":1,"updated_at":"2026-04-17T04:14:04.564109+05:30"},{"city":"Vellore","state":"Tamil Nadu","latitude":12.9165,"longitude":79.1325,"temp":25.2,"humidity":98,"rain":0.0,"pressure":983.4,"uv_index":9.4,"wind_gusts":29.9,"aqi":87,"pm10":43.7,"pm2_5":42.0,"mosquito_risk":7,"arthritis_risk":5,"migraine_risk":7,"frizz_risk":1,"updated_at":"2026-04-17T04:14:04.564117+05:30"},{"city":"Erode","state":"Tamil Nadu","latitude":11.341,"longitude":77.7172,"temp":27.9,"humidity":77,"rain":0.0,"pressure":987.6,"uv_index":8.7,"wind_gusts":26.6,"aqi":69,"pm10":21.0,"pm2_5":19.3,"mosquito_risk":7,"arthritis_risk":5,"migraine_risk":7,"frizz_risk":1,"updated_at":"2026-04-17T04:14:04.564126+05:30"},{"city":"Kochi","state":"Kerala","latitude":9.9312,"longitude":76.2673,"temp":29.3,"humidity":80,"rain":0.0,"pressure":1006.9,"uv_index":8.35,"wind_gusts":33.1,"aqi":101,"pm10":39.9,"pm2_5":37.7,"mosquito_risk":7,"arthritis_risk":5,"migraine_risk":4,"frizz_risk":1,"updated_at":"2026-04-17T04:14:04.564135+05:30"},{"city":"Thiruvananthapuram","state":"Kerala","latitude":8.5241,"longitude":76.9366,"temp":28.6,"humidity":84,"rain":0.0,"pressure":1006.2,"uv_index":8.75,"wind_gusts":34.2,"aqi":91,"pm10":49.1,"pm2_5":36.4,"mosquito_risk":7,"arthritis_risk":5,"migraine_risk":4,"frizz_risk":1,"updated_at":"2026-04-17T04:14:04.564144+05:30"},{"city":"Kozhikode","state":"Kerala","latitude":11.2588,"longitude":75.7804,"temp":29.5,"humidity":81,"rain":0.0,"pressure":1006.2,"uv_index":9.05,"wind_gusts":32.0,"aqi":95,"pm10":62.9,"pm2_5":37.1,"mosquito_risk":7,"arthritis_risk":5,"migraine_risk":4,"frizz_risk":1,"updated_at":"2026-04-17T04:14:04.564153+05:30"},{"city":"Thrissur","state":"Kerala","latitude":10.5276,"longitude":76.2144,"temp":28.3,"humidity":86,"rain":0.0,"pressure":1005.4,"uv_index":8.6,"wind_gusts":38.9,"aqi":99,"pm10":43.1,"pm2_5":37.3,"mosquito_risk":7,"arthritis_risk":5,"migraine_risk":4,"frizz_risk":1,"updated_at":"2026-04-17T04:14:04.564163+05:30"},{"city":"Kannur","state":"Kerala","latitude":11.8745,"longitude":75.3704,"temp":29.3,"humidity":83,"rain":0.0,"pressure":1005.6,"uv_index":8.85,"wind_gusts":30.6,"aqi":105,"pm10":63.6,"pm2_5":38.5,"mosquito_risk":7,"arthritis_risk":5,"migraine_risk":4,"frizz_risk":1,"updated_at":"2026-04-17T04:14:04.564172+05:30"},{"city":"Patna","state":"Bihar","latitude":25.5941,"longitude":85.1376,"temp":25.6,"humidity":84,"rain":0.0,"pressure":1000.8,"uv_index":8.55,"wind_gusts":26.3,"aqi":153,"pm10":61.9,"pm2_5":57.6,"mosquito_risk":7,"arthritis_risk":5,"migraine_risk":4,"frizz_risk":1,"updated_at":"2026-04-17T04:14:04.564181+05:30"},{"city":"Gaya","state":"Bihar","latitude":24.7914,"longitude":85.0002,"temp":25.6,"humidity":89,"rain":0.0,"pressure":993.5,"uv_index":8.65,"wind_gusts":17.6,"aqi":116,"pm10":65.2,"pm2_5":62.6,"mosquito_risk":7,"arthritis_risk":5,"migraine_risk":7,"frizz_risk":1,"updated_at":"2026-04-17T04:14:04.564190+05:30"},{"city":"Muzaffarpur","state":"Bihar","latitude":26.1209,"longitude":85.3647,"temp":24.0,"humidity":90,"rain":0.0,"pressure":1001.1,"uv_index":8.3,"wind_gusts":24.5,"aqi":154,"pm10":69.6,"pm2_5":63.6,"mosquito_risk":3,"arthritis_risk":5,"migraine_risk":4,"frizz_risk":1,"updated_at":"2026-04-17T04:14:04.564197+05:30"},{"city":"Bhagalpur","state":"Bihar","latitude":25.2425,"longitude":87.0117,"temp":24.7,"humidity":92,"rain":0.0,"pressure":1002.0,"uv_index":8.6,"wind_gusts":20.9,"aqi":152,"pm10":72.9,"pm2_5":67.5,"mosquito_risk":3,"arthritis_risk":5,"migraine_risk":4,"frizz_risk":1,"updated_at":"2026-04-17T04:14:04.564204+05:30"},{"city":"Ranchi","state":"Jharkhand","latitude":23.3441,"longitude":85.3096,"temp":23.0,"humidity":97,"rain":0.0,"pressure":937.8,"uv_index":9.15,"wind_gusts":33.5,"aqi":118,"pm10":42.0,"pm2_5":40.2,"mosquito_risk":3,"arthritis_risk":5,"migraine_risk":7,"frizz_risk":1,"updated_at":"2026-04-17T04:14:04.564210+05:30"},{"city":"Jamshedpur","state":"Jharkhand","latitude":22.8046,"longitude":86.2029,"temp":27.5,"humidity":91,"rain":0.0,"pressure":990.8,"uv_index":8.95,"wind_gusts":25.6,"aqi":119,"pm10":16.9,"pm2_5":15.1,"mosquito_risk":7,"arthritis_risk":5,"migraine_risk":7,"frizz_risk":1,"updated_at":"2026-04-17T04:14:04.564217+05:30"},{"city":"Dhanbad","state":"Jharkhand","latitude":23.7957,"longitude":86.4304,"temp":26.6,"humidity":84,"rain":0.0,"pressure":980.2,"uv_index":8.9,"wind_gusts":22.7,"aqi":158,"pm10":65.7,"pm2_5":64.0,"mosquito_risk":7,"arthritis_risk":5,"migraine_risk":7,"frizz_risk":1,"updated_at":"2026-04-17T04:14:04.564224+05:30"},{"city":"Bokaro","state":"Jharkhand","latitude":23.6693,"longitude":86.1511,"temp":25.6,"humidity":94,"rain":0.0,"pressure":984.4,"uv_index":8.95,"wind_gusts":25.2,"aqi":161,"pm10":80.6,"pm2_5":78.2,"mosquito_risk":7,"arthritis_risk":5,"migraine_risk":7,"frizz_risk":1,"updated_at":"2026-04-17T04:14:04.564231+05:30"},{"city":"Bhubaneswar","state":"Odisha","latitude":20.2961,"longitude":85.8245,"temp":26.5,"humidity":91,"rain":0.0,"pressure":1001.2,"uv_index":9.1,"wind_gusts":30.2,"aqi":43,"pm10":9.8,"pm2_5":7.5,"mosquito_risk":7,"arthritis_risk":5,"migraine_risk":4,"frizz_risk":1,"updated_at":"2026-04-17T04:14:04.564237+05:30"},{"city":"Cuttack","state":"Odisha","latitude":20.4625,"longitude":85.8828,"temp":26.8,"humidity":89,"rain":0.0,"pressure":1003.4,"uv_index":9.15,"wind_gusts":27.7,"aqi":43,"pm10":9.8,"pm2_5":7.5,"mosquito_risk":7,"arthritis_risk":5,"migraine_risk":4,"frizz_risk":1,"updated_at":"2026-04-17T04:14:04.564244+05:30"},{"city":"Rourkela","state":"Odisha","latitude":22.2604,"longitude":84.8536,"temp":28.0,"humidity":84,"rain":0.0,"pressure":984.5,"uv_index":8.9,"wind_gusts":46.4,"aqi":108,"pm10":32.0,"pm2_5":31.3,"mosquito_risk":7,"arthritis_risk":5,"migraine_risk":7,"frizz_risk":1,"updated_at":"2026-04-17T04:14:04.564250+05:30"},{"city":"Raipur","state":"Chhattisgarh","latitude":21.2514,"longitude":81.6296,"temp":28.4,"humidity":42,"rain":0.0,"pressure":972.5,"uv_index":8.95,"wind_gusts":36.0,"aqi":87,"pm10":42.8,"pm2_5":32.4,"mosquito_risk":4,"arthritis_risk":5,"migraine_risk":7,"frizz_risk":0,"updated_at":"2026-04-17T04:14:04.564257+05:30"},{"city":"Bhilai","state":"Chhattisgarh","latitude":21.1938,"longitude":81.3509,"temp":28.7,"humidity":42,"rain":0.0,"pressure":973.0,"uv_index":8.95,"wind_gusts":38.9,"aqi":73,"pm10":37.6,"pm2_5":29.2,"mosquito_risk":4,"arthritis_risk":5,"migraine_risk":7,"frizz_risk":0,"updated_at":"2026-04-17T04:14:04.564264+05:30"},{"city":"Guwahati","state":"Assam","latitude":26.1158,"longitude":91.7086,"temp":25.2,"humidity":83,"rain":0.0,"pressure":1002.9,"uv_index":8.55,"wind_gusts":24.5,"aqi":142,"pm10":86.1,"pm2_5":60.3,"mosquito_risk":7,"arthritis_risk":5,"migraine_risk":4,"frizz_risk":1,"updated_at":"2026-04-17T04:14:04.564270+05:30"},{"city":"Agartala","state":"Tripura","latitude":23.8315,"longitude":91.2868,"temp":23.8,"humidity":94,"rain":0.0,"pressure":1007.9,"uv_index":8.75,"wind_gusts":19.4,"aqi":140,"pm10":54.1,"pm2_5":44.9,"mosquito_risk":3,"arthritis_risk":5,"migraine_risk":4,"frizz_risk":1,"updated_at":"2026-04-17T04:14:04.564277+05:30"},{"city":"Shillong","state":"Meghalaya","latitude":25.5788,"longitude":91.8933,"temp":13.7,"humidity":92,"rain":0.0,"pressure":856.2,"uv_index":6.65,"wind_gusts":22.7,"aqi":118,"pm10":53.7,"pm2_5":37.4,"mosquito_risk":3,"arthritis_risk":10,"migraine_risk":7,"frizz_risk":0,"updated_at":"2026-04-17T04:14:04.564284+05:30"},{"city":"Imphal","state":"Manipur","latitude":24.817,"longitude":93.9368,"temp":18.0,"humidity":81,"rain":0.0,"pressure":924.2,"uv_index":9.1,"wind_gusts":40.7,"aqi":138,"pm10":84.8,"pm2_5":59.8,"mosquito_risk":3,"arthritis_risk":10,"migraine_risk":7,"frizz_risk":0,"updated_at":"2026-04-17T04:14:04.564290+05:30"},{"city":"Aizawl","state":"Mizoram","latitude":23.7271,"longitude":92.7176,"temp":18.5,"humidity":92,"rain":0.0,"pressure":893.2,"uv_index":9.0,"wind_gusts":33.8,"aqi":151,"pm10":63.8,"pm2_5":47.3,"mosquito_risk":3,"arthritis_risk":10,"migraine_risk":7,"frizz_risk":1,"updated_at":"2026-04-17T04:14:04.564297+05:30"},{"city":"Kohima","state":"Nagaland","latitude":25.6701,"longitude":94.1077,"temp":15.6,"humidity":82,"rain":0.0,"pressure":855.8,"uv_index":8.25,"wind_gusts":50.0,"aqi":116,"pm10":67.8,"pm2_5":46.0,"mosquito_risk":3,"arthritis_risk":10,"migraine_risk":7,"frizz_risk":0,"updated_at":"2026-04-17T04:14:04.564304+05:30"},{"city":"Gangtok","state":"Sikkim","latitude":27.3314,"longitude":88.6138,"temp":15.3,"humidity":93,"rain":0.0,"pressure":838.3,"uv_index":8.85,"wind_gusts":21.6,"aqi":118,"pm10":71.9,"pm2_5":51.0,"mosquito_risk":3,"arthritis_risk":10,"migraine_risk":7,"frizz_risk":0,"updated_at":"2026-04-17T04:14:04.564310+05:30"},{"city":"Siliguri","state":"West Bengal","latitude":26.7271,"longitude":88.3953,"temp":21.5,"humidity":71,"rain":0.0,"pressure":995.6,"uv_index":8.5,"wind_gusts":19.4,"aqi":161,"pm10":119.2,"pm2_5":84.8,"mosquito_risk":3,"arthritis_risk":5,"migraine_risk":7,"frizz_risk":1,"updated_at":"2026-04-17T04:14:07.900623+05:30"},{"city":"Durgapur","state":"West Bengal","latitude":23.5204,"longitude":87.3119,"temp":26.4,"humidity":92,"rain":0.0,"pressure":995.5,"uv_index":8.85,"wind_gusts":22.7,"aqi":132,"pm10":43.7,"pm2_5":41.8,"mosquito_risk":7,"arthritis_risk":5,"migraine_risk":7,"frizz_risk":1,"updated_at":"2026-04-17T04:14:07.900647+05:30"},{"city":"Asansol","state":"West Bengal","latitude":23.6739,"longitude":86.9524,"temp":27.0,"humidity":87,"rain":0.0,"pressure":994.0,"uv_index":8.85,"wind_gusts":23.0,"aqi":149,"pm10":48.3,"pm2_5":46.7,"mosquito_risk":7,"arthritis_risk":5,"migraine_risk":7,"frizz_risk":1,"updated_at":"2026-04-17T04:14:07.900656+05:30"},{"city":"Pondicherry","state":"Puducherry","latitude":11.9139,"longitude":79.8145,"temp":27.3,"humidity":95,"rain":0.0,"pressure":1007.1,"uv_index":8.85,"wind_gusts":28.4,"aqi":28,"pm10":9.8,"pm2_5":6.9,"mosquito_risk":7,"arthritis_risk":5,"migraine_risk":4,"frizz_risk":1,"updated_at":"2026-04-17T04:14:07.900664+05:30"},{"city":"Port Blair","state":"Andaman and Nicobar Islands","latitude":11.6234,"longitude":92.7265,"temp":29.2,"humidity":71,"rain":0.0,"pressure":1006.2,"uv_index":9.2,"wind_gusts":22.3,"aqi":55,"pm10":10.8,"pm2_5":8.0,"mosquito_risk":7,"arthritis_risk":5,"migraine_risk":4,"frizz_risk":1,"updated_at":"2026-04-17T04:14:07.900670+05:30"},{"city":"Haridwar","state":"Uttarakhand","latitude":29.9457,"longitude":78.1642,"temp":21.2,"humidity":68,"rain":0.0,"pressure":973.0,"uv_index":6.1,"wind_gusts":41.0,"aqi":55,"pm10":20.8,"pm2_5":19.0,"mosquito_risk":3,"arthritis_risk":5,"migraine_risk":7,"frizz_risk":0,"updated_at":"2026-04-17T04:14:07.900677+05:30"},{"city":"Rishikesh","state":"Uttarakhand","latitude":30.0869,"longitude":78.2676,"temp":21.1,"humidity":65,"rain":0.0,"pressure":966.3,"uv_index":6.3,"wind_gusts":31.7,"aqi":44,"pm10":17.2,"pm2_5":14.2,"mosquito_risk":3,"arthritis_risk":5,"migraine_risk":7,"frizz_risk":0,"updated_at":"2026-04-17T04:14:07.900683+05:30"},{"city":"Nainital","state":"Uttarakhand","latitude":29.3919,"longitude":79.4542,"temp":21.7,"humidity":19,"rain":0.0,"pressure":807.4,"uv_index":7.4,"wind_gusts":48.6,"aqi":43,"pm10":14.3,"pm2_5":10.7,"mosquito_risk":0,"arthritis_risk":5,"migraine_risk":7,"frizz_risk":1,"updated_at":"2026-04-17T04:14:07.900689+05:30"},{"city":"Mussoorie","state":"Uttarakhand","latitude":30.4599,"longitude":78.0664,"temp":18.4,"humidity":47,"rain":0.0,"pressure":803.5,"uv_index":6.7,"wind_gusts":45.0,"aqi":51,"pm10":17.3,"pm2_5":15.6,"mosquito_risk":0,"arthritis_risk":5,"migraine_risk":7,"frizz_risk":0,"updated_at":"2026-04-17T04:14:07.900695+05:30"},{"city":"Dharamshala","state":"Himachal Pradesh","latitude":32.219,"longitude":76.3234,"temp":23.1,"humidity":22,"rain":0.0,"pressure":869.8,"uv_index":7.35,"wind_gusts":34.2,"aqi":47,"pm10":12.9,"pm2_5":6.9,"mosquito_risk":0,"arthritis_risk":5,"migraine_risk":7,"frizz_risk":0,"updated_at":"2026-04-17T04:14:07.900701+05:30"},{"city":"Dalhousie","state":"Himachal Pradesh","latitude":32.5387,"longitude":75.971,"temp":19.3,"humidity":26,"rain":0.0,"pressure":804.8,"uv_index":6.85,"wind_gusts":34.2,"aqi":45,"pm10":16.2,"pm2_5":13.5,"mosquito_risk":0,"arthritis_risk":5,"migraine_risk":7,"frizz_risk":1,"updated_at":"2026-04-17T04:14:07.900708+05:30"},{"city":"Patiala","state":"Punjab","latitude":30.3398,"longitude":76.3869,"temp":20.9,"humidity":58,"rain":0.0,"pressure":976.4,"uv_index":7.1,"wind_gusts":49.7,"aqi":106,"pm10":63.1,"pm2_5":23.6,"mosquito_risk":0,"arthritis_risk":5,"migraine_risk":7,"frizz_risk":0,"updated_at":"2026-04-17T04:14:07.900714+05:30"},{"city":"Bhatinda","state":"Punjab","latitude":30.211,"longitude":74.9455,"temp":25.0,"humidity":49,"rain":0.0,"pressure":981.8,"uv_index":7.75,"wind_gusts":39.6,"aqi":67,"pm10":99.4,"pm2_5":32.8,"mosquito_risk":4,"arthritis_risk":5,"migraine_risk":7,"frizz_risk":0,"updated_at":"2026-04-17T04:14:07.900720+05:30"},{"city":"Rohtak","state":"Haryana","latitude":28.8955,"longitude":76.6066,"temp":21.0,"humidity":62,"rain":0.0,"pressure":979.6,"uv_index":6.4,"wind_gusts":35.3,"aqi":199,"pm10":248.7,"pm2_5":68.9,"mosquito_risk":3,"arthritis_risk":5,"migraine_risk":7,"frizz_risk":0,"updated_at":"2026-04-17T04:14:07.900726+05:30"},{"city":"Panipat","state":"Haryana","latitude":29.3909,"longitude":76.9635,"temp":22.7,"humidity":52,"rain":0.0,"pressure":978.8,"uv_index":6.45,"wind_gusts":34.2,"aqi":273,"pm10":176.5,"pm2_5":48.1,"mosquito_risk":0,"arthritis_risk":5,"migraine_risk":7,"frizz_risk":0,"updated_at":"2026-04-17T04:14:07.900732+05:30"},{"city":"Mathura","state":"Uttar Pradesh","latitude":27.4924,"longitude":77.6737,"temp":23.9,"humidity":53,"rain":0.0,"pressure":985.0,"uv_index":7.1,"wind_gusts":28.4,"aqi":238,"pm10":290.6,"pm2_5":58.1,"mosquito_risk":0,"arthritis_risk":5,"migraine_risk":7,"frizz_risk":0,"updated_at":"2026-04-17T04:14:07.900738+05:30"},{"city":"Vrindavan","state":"Uttar Pradesh","latitude":27.5823,"longitude":77.7027,"temp":24.5,"humidity":50,"rain":0.0,"pressure":985.4,"uv_index":7.05,"wind_gusts":26.3,"aqi":238,"pm10":290.6,"pm2_5":58.1,"mosquito_risk":0,"arthritis_risk":5,"migraine_risk":7,"frizz_risk":0,"updated_at":"2026-04-17T04:14:07.900743+05:30"},{"city":"Ayodhya","state":"Uttar Pradesh","latitude":26.7922,"longitude":82.1998,"temp":24.0,"humidity":89,"rain":0.0,"pressure":994.7,"uv_index":7.25,"wind_gusts":29.2,"aqi":114,"pm10":117.6,"pm2_5":63.3,"mosquito_risk":3,"arthritis_risk":5,"migraine_risk":7,"frizz_risk":1,"updated_at":"2026-04-17T04:14:07.900749+05:30"},{"city":"Ratlam","state":"Madhya Pradesh","latitude":23.3315,"longitude":75.0367,"temp":25.1,"humidity":65,"rain":0.0,"pressure":953.0,"uv_index":7.9,"wind_gusts":29.2,"aqi":69,"pm10":32.6,"pm2_5":22.5,"mosquito_risk":7,"arthritis_risk":5,"migraine_risk":7,"frizz_risk":1,"updated_at":"2026-04-17T04:14:07.900756+05:30"},{"city":"Sagar","state":"Madhya Pradesh","latitude":23.8388,"longitude":78.7378,"temp":26.9,"humidity":37,"rain":0.0,"pressure":948.7,"uv_index":7.8,"wind_gusts":20.5,"aqi":86,"pm10":59.4,"pm2_5":16.8,"mosquito_risk":4,"arthritis_risk":5,"migraine_risk":7,"frizz_risk":0,"updated_at":"2026-04-17T04:14:07.900762+05:30"},{"city":"Satna","state":"Madhya Pradesh","latitude":24.6005,"longitude":80.8322,"temp":26.5,"humidity":40,"rain":0.0,"pressure":969.8,"uv_index":8.6,"wind_gusts":22.0,"aqi":76,"pm10":151.3,"pm2_5":29.3,"mosquito_risk":4,"arthritis_risk":5,"migraine_risk":7,"frizz_risk":0,"updated_at":"2026-04-17T04:14:07.900767+05:30"},{"city":"Akola","state":"Maharashtra","latitude":20.7002,"longitude":77.0082,"temp":26.8,"humidity":62,"rain":0.0,"pressure":973.1,"uv_index":7.9,"wind_gusts":25.2,"aqi":58,"pm10":18.5,"pm2_5":14.8,"mosquito_risk":7,"arthritis_risk":5,"migraine_risk":7,"frizz_risk":1,"updated_at":"2026-04-17T04:14:07.900774+05:30"},{"city":"Amravati","state":"Maharashtra","latitude":20.9374,"longitude":77.7796,"temp":25.3,"humidity":65,"rain":0.0,"pressure":965.0,"uv_index":8.1,"wind_gusts":17.3,"aqi":58,"pm10":18.6,"pm2_5":15.2,"mosquito_risk":7,"arthritis_risk":5,"migraine_risk":7,"frizz_risk":1,"updated_at":"2026-04-17T04:14:07.900780+05:30"},{"city":"Latur","state":"Maharashtra","latitude":18.4088,"longitude":76.5604,"temp":25.4,"humidity":43,"rain":0.0,"pressure":938.0,"uv_index":8.7,"wind_gusts":31.3,"aqi":52,"pm10":29.3,"pm2_5":25.1,"mosquito_risk":4,"arthritis_risk":5,"migraine_risk":7,"frizz_risk":0,"updated_at":"2026-04-17T04:14:07.900787+05:30"},{"city":"Nanded","state":"Maharashtra","latitude":19.1383,"longitude":77.3091,"temp":24.5,"humidity":52,"rain":0.0,"pressure":966.8,"uv_index":8.9,"wind_gusts":18.0,"aqi":63,"pm10":30.0,"pm2_5":26.0,"mosquito_risk":0,"arthritis_risk":5,"migraine_risk":7,"frizz_risk":0,"updated_at":"2026-04-17T04:14:07.900793+05:30"},{"city":"Gulbarga","state":"Karnataka","latitude":17.3297,"longitude":76.8343,"temp":29.2,"humidity":54,"rain":0.0,"pressure":956.6,"uv_index":8.55,"wind_gusts":22.0,"aqi":83,"pm10":33.3,"pm2_5":30.5,"mosquito_risk":4,"arthritis_risk":5,"migraine_risk":7,"frizz_risk":1,"updated_at":"2026-04-17T04:14:07.900799+05:30"},{"city":"Bidar","state":"Karnataka","latitude":17.9104,"longitude":77.5199,"temp":28.6,"humidity":54,"rain":0.0,"pressure":933.7,"uv_index":9.05,"wind_gusts":20.9,"aqi":97,"pm10":31.4,"pm2_5":29.5,"mosquito_risk":4,"arthritis_risk":5,"migraine_risk":7,"frizz_risk":1,"updated_at":"2026-04-17T04:14:07.900805+05:30"},{"city":"Hospet","state":"Karnataka","latitude":15.2689,"longitude":76.3909,"temp":26.3,"humidity":79,"rain":0.0,"pressure":954.9,"uv_index":9.25,"wind_gusts":22.7,"aqi":92,"pm10":30.6,"pm2_5":24.6,"mosquito_risk":7,"arthritis_risk":5,"migraine_risk":7,"frizz_risk":1,"updated_at":"2026-04-17T04:14:07.900811+05:30"},{"city":"Tirupur","state":"Tamil Nadu","latitude":11.1085,"longitude":77.3411,"temp":26.9,"humidity":83,"rain":0.0,"pressure":973.9,"uv_index":8.95,"wind_gusts":33.8,"aqi":75,"pm10":32.8,"pm2_5":29.7,"mosquito_risk":7,"arthritis_risk":5,"migraine_risk":7,"frizz_risk":1,"updated_at":"2026-04-17T04:14:07.900817+05:30"},{"city":"Alappuzha","state":"Kerala","latitude":9.4981,"longitude":76.3388,"temp":28.8,"humidity":84,"rain":0.0,"pressure":1007.0,"uv_index":8.15,"wind_gusts":29.9,"aqi":101,"pm10":53.3,"pm2_5":43.2,"mosquito_risk":7,"arthritis_risk":5,"migraine_risk":4,"frizz_risk":1,"updated_at":"2026-04-17T04:14:07.900823+05:30"},{"city":"Munnar","state":"Kerala","latitude":10.0889,"longitude":77.0595,"temp":19.8,"humidity":78,"rain":0.0,"pressure":854.9,"uv_index":9.3,"wind_gusts":32.4,"aqi":76,"pm10":36.6,"pm2_5":33.9,"mosquito_risk":3,"arthritis_risk":5,"migraine_risk":7,"frizz_risk":0,"updated_at":"2026-04-17T04:14:07.900829+05:30"},{"city":"Silchar","state":"Assam","latitude":24.8333,"longitude":92.7789,"temp":24.0,"humidity":92,"rain":0.0,"pressure":1006.2,"uv_index":8.75,"wind_gusts":20.2,"aqi":152,"pm10":103.4,"pm2_5":71.7,"mosquito_risk":3,"arthritis_risk":5,"migraine_risk":4,"frizz_risk":1,"updated_at":"2026-04-17T04:14:07.900835+05:30"},{"city":"Dibrugarh","state":"Assam","latitude":27.4728,"longitude":94.912,"temp":22.2,"humidity":90,"rain":0.0,"pressure":997.9,"uv_index":8.65,"wind_gusts":11.2,"aqi":140,"pm10":68.0,"pm2_5":47.7,"mosquito_risk":3,"arthritis_risk":5,"migraine_risk":7,"frizz_risk":1,"updated_at":"2026-04-17T04:14:07.900840+05:30"}]