[{"city":"Delhi","state":"Delhi","latitude":28.6139,"longitude":77.209,"temp":31.5,"humidity":32,"rain":0.0,"pressure":977.2,"uv_index":7.75,"wind_gusts":56.9,"aqi":702,"pm10":732.0,"pm2_5":175.6,"no2":53.4,"co":580.0,"o3":21.0,"so2":23.1,"mosquito_risk":0,"arthritis_risk":5,"migraine_risk":7,"frizz_risk":0,"updated_at":"2026-05-28T04:53:50.967422+05:30"},{"city":"Mumbai","state":"Maharashtra","latitude":19.076,"longitude":72.8777,"temp":29.6,"humidity":73,"rain":0.0,"pressure":1008.7,"uv_index":7.8,"wind_gusts":40.3,"aqi":38,"pm10":23.4,"pm2_5":12.2,"no2":8.9,"co":148.0,"o3":44.0,"so2":5.0,"mosquito_risk":7,"arthritis_risk":0,"migraine_risk":4,"frizz_risk":1,"updated_at":"2026-05-28T04:53:50.967458+05:30"},{"city":"Bangalore","state":"Karnataka","latitude":12.9716,"longitude":77.5946,"temp":21.5,"humidity":94,"rain":0.0,"pressure":911.8,"uv_index":9.25,"wind_gusts":27.0,"aqi":70,"pm10":20.0,"pm2_5":18.7,"no2":16.0,"co":318.0,"o3":45.0,"so2":5.8,"mosquito_risk":3,"arthritis_risk":5,"migraine_risk":7,"frizz_risk":1,"updated_at":"2026-05-28T04:53:50.967471+05:30"},{"city":"Hyderabad","state":"Telangana","latitude":17.385,"longitude":78.4867,"temp":26.4,"humidity":70,"rain":0.0,"pressure":952.0,"uv_index":9.1,"wind_gusts":32.8,"aqi":64,"pm10":23.3,"pm2_5":20.0,"no2":16.2,"co":298.0,"o3":55.0,"so2":11.3,"mosquito_risk":7,"arthritis_risk":5,"migraine_risk":7,"frizz_risk":1,"updated_at":"2026-05-28T04:53:50.967479+05:30"},{"city":"Chennai","state":"Tamil Nadu","latitude":13.0827,"longitude":80.2707,"temp":29.5,"humidity":80,"rain":0.0,"pressure":1005.6,"uv_index":8.8,"wind_gusts":39.6,"aqi":76,"pm10":21.1,"pm2_5":18.1,"no2":15.1,"co":261.0,"o3":50.0,"so2":13.3,"mosquito_risk":7,"arthritis_risk":5,"migraine_risk":4,"frizz_risk":1,"updated_at":"2026-05-28T04:53:50.967485+05:30"},{"city":"Kolkata","state":"West Bengal","latitude":22.5726,"longitude":88.3639,"temp":26.7,"humidity":96,"rain":0.0,"pressure":1004.4,"uv_index":8.9,"wind_gusts":41.4,"aqi":104,"pm10":49.5,"pm2_5":38.6,"no2":7.7,"co":311.0,"o3":98.0,"so2":6.0,"mosquito_risk":7,"arthritis_risk":5,"migraine_risk":4,"frizz_risk":1,"updated_at":"2026-05-28T04:53:50.967491+05:30"},{"city":"Pune","state":"Maharashtra","latitude":18.5204,"longitude":73.8567,"temp":24.1,"humidity":91,"rain":0.0,"pressure":948.4,"uv_index":8.4,"wind_gusts":37.8,"aqi":33,"pm10":7.0,"pm2_5":6.2,"no2":11.6,"co":150.0,"o3":30.0,"so2":9.2,"mosquito_risk":3,"arthritis_risk":5,"migraine_risk":7,"frizz_risk":1,"updated_at":"2026-05-28T04:53:50.967496+05:30"},{"city":"Ahmedabad","state":"Gujarat","latitude":23.0225,"longitude":72.5714,"temp":29.5,"humidity":71,"rain":0.0,"pressure":1000.8,"uv_index":8.1,"wind_gusts":40.7,"aqi":68,"pm10":39.0,"pm2_5":21.1,"no2":5.5,"co":127.0,"o3":42.0,"so2":5.0,"mosquito_risk":7,"arthritis_risk":5,"migraine_risk":4,"frizz_risk":1,"updated_at":"2026-05-28T04:53:50.967501+05:30"},{"city":"Jaipur","state":"Rajasthan","latitude":26.9124,"longitude":75.7873,"temp":33.5,"humidity":32,"rain":0.0,"pressure":955.9,"uv_index":8.25,"wind_gusts":49.0,"aqi":204,"pm10":346.5,"pm2_5":61.7,"no2":3.4,"co":141.0,"o3":71.0,"so2":3.6,"mosquito_risk":0,"arthritis_risk":5,"migraine_risk":7,"frizz_risk":0,"updated_at":"2026-05-28T04:53:50.967510+05:30"},{"city":"Lucknow","state":"Uttar Pradesh","latitude":26.8467,"longitude":80.9462,"temp":28.8,"humidity":64,"rain":0.0,"pressure":990.2,"uv_index":8.2,"wind_gusts":46.1,"aqi":105,"pm10":34.3,"pm2_5":24.9,"no2":8.2,"co":388.0,"o3":111.0,"so2":13.3,"mosquito_risk":7,"arthritis_risk":5,"migraine_risk":7,"frizz_risk":1,"updated_at":"2026-05-28T04:53:50.967515+05:30"},{"city":"Kanpur","state":"Uttar Pradesh","latitude":26.4499,"longitude":80.3319,"temp":30.9,"humidity":55,"rain":0.0,"pressure":987.7,"uv_index":8.2,"wind_gusts":38.9,"aqi":197,"pm10":366.0,"pm2_5":60.8,"no2":8.7,"co":396.0,"o3":119.0,"so2":14.9,"mosquito_risk":0,"arthritis_risk":5,"migraine_risk":7,"frizz_risk":1,"updated_at":"2026-05-28T04:53:50.967520+05:30"},{"city":"Chandigarh","state":"Chandigarh","latitude":30.7333,"longitude":76.7794,"temp":27.1,"humidity":34,"rain":0.0,"pressure":963.4,"uv_index":7.75,"wind_gusts":55.4,"aqi":77,"pm10":54.1,"pm2_5":48.9,"no2":43.1,"co":295.0,"o3":4.0,"so2":3.6,"mosquito_risk":4,"arthritis_risk":5,"migraine_risk":7,"frizz_risk":0,"updated_at":"2026-05-28T04:53:50.967525+05:30"},{"city":"Srinagar","state":"Jammu and Kashmir","latitude":34.0837,"longitude":74.7973,"temp":12.1,"humidity":88,"rain":0.0,"pressure":838.6,"uv_index":6.5,"wind_gusts":29.5,"aqi":75,"pm10":39.1,"pm2_5":25.1,"no2":23.3,"co":292.0,"o3":22.0,"so2":1.9,"mosquito_risk":3,"arthritis_risk":10,"migraine_risk":7,"frizz_risk":0,"updated_at":"2026-05-28T04:53:50.967530+05:30"},{"city":"Jammu","state":"Jammu and Kashmir","latitude":32.7266,"longitude":74.857,"temp":24.0,"humidity":41,"rain":0.0,"pressure":965.8,"uv_index":8.45,"wind_gusts":43.6,"aqi":81,"pm10":38.4,"pm2_5":32.1,"no2":34.5,"co":256.0,"o3":8.0,"so2":2.5,"mosquito_risk":0,"arthritis_risk":5,"migraine_risk":7,"frizz_risk":0,"updated_at":"2026-05-28T04:53:50.967535+05:30"},{"city":"Amritsar","state":"Punjab","latitude":31.634,"longitude":74.8723,"temp":28.8,"humidity":40,"rain":0.0,"pressure":974.3,"uv_index":8.4,"wind_gusts":41.4,"aqi":97,"pm10":84.5,"pm2_5":68.7,"no2":62.1,"co":577.0,"o3":5.0,"so2":11.8,"mosquito_risk":4,"arthritis_risk":5,"migraine_risk":7,"frizz_risk":0,"updated_at":"2026-05-28T04:53:50.967540+05:30"},{"city":"Ludhiana","state":"Punjab","latitude":30.901,"longitude":75.8573,"temp":29.0,"humidity":36,"rain":0.0,"pressure":972.3,"uv_index":8.0,"wind_gusts":49.3,"aqi":84,"pm10":53.8,"pm2_5":45.1,"no2":31.3,"co":733.0,"o3":37.0,"so2":8.9,"mosquito_risk":4,"arthritis_risk":5,"migraine_risk":7,"frizz_risk":0,"updated_at":"2026-05-28T04:53:50.967544+05:30"},{"city":"Jalandhar","state":"Punjab","latitude":31.326,"longitude":75.5762,"temp":29.2,"humidity":31,"rain":0.0,"pressure":973.2,"uv_index":8.2,"wind_gusts":37.4,"aqi":95,"pm10":89.2,"pm2_5":63.6,"no2":50.2,"co":841.0,"o3":14.0,"so2":9.6,"mosquito_risk":4,"arthritis_risk":5,"migraine_risk":7,"frizz_risk":0,"updated_at":"2026-05-28T04:53:50.967549+05:30"},{"city":"Dehradun","state":"Uttarakhand","latitude":30.6284,"longitude":78.0322,"temp":18.0,"humidity":40,"rain":0.0,"pressure":827.8,"uv_index":8.2,"wind_gusts":40.3,"aqi":64,"pm10":28.6,"pm2_5":22.6,"no2":25.6,"co":197.0,"o3":4.0,"so2":0.3,"mosquito_risk":0,"arthritis_risk":5,"migraine_risk":7,"frizz_risk":0,"updated_at":"2026-05-28T04:53:50.967554+05:30"},{"city":"Shimla","state":"Himachal Pradesh","latitude":31.1048,"longitude":77.1734,"temp":13.8,"humidity":38,"rain":0.0,"pressure":780.4,"uv_index":8.25,"wind_gusts":47.9,"aqi":58,"pm10":34.2,"pm2_5":20.8,"no2":21.1,"co":181.0,"o3":61.0,"so2":1.3,"mosquito_risk":0,"arthritis_risk":5,"migraine_risk":7,"frizz_risk":1,"updated_at":"2026-05-28T04:53:50.967560+05:30"},{"city":"Manali","state":"Himachal Pradesh","latitude":32.2396,"longitude":77.1887,"temp":11.1,"humidity":47,"rain":0.0,"pressure":813.4,"uv_index":9.55,"wind_gusts":58.3,"aqi":61,"pm10":17.5,"pm2_5":10.3,"no2":29.2,"co":196.0,"o3":103.0,"so2":0.0,"mosquito_risk":0,"arthritis_risk":5,"migraine_risk":7,"frizz_risk":0,"updated_at":"2026-05-28T04:53:50.967581+05:30"},{"city":"Gurgaon","state":"Haryana","latitude":28.4595,"longitude":77.0266,"temp":30.4,"humidity":30,"rain":0.0,"pressure":975.3,"uv_index":7.85,"wind_gusts":65.5,"aqi":1056,"pm10":616.5,"pm2_5":135.0,"no2":33.0,"co":359.0,"o3":30.0,"so2":13.6,"mosquito_risk":0,"arthritis_risk":5,"migraine_risk":7,"frizz_risk":0,"updated_at":"2026-05-28T04:53:50.967586+05:30"},{"city":"Noida","state":"Uttar Pradesh","latitude":28.5355,"longitude":77.391,"temp":28.4,"humidity":48,"rain":0.0,"pressure":978.9,"uv_index":7.75,"wind_gusts":64.8,"aqi":1056,"pm10":616.5,"pm2_5":135.0,"no2":33.0,"co":962.0,"o3":30.0,"so2":13.6,"mosquito_risk":4,"arthritis_risk":5,"migraine_risk":7,"frizz_risk":1,"updated_at":"2026-05-28T04:53:50.967591+05:30"},{"city":"Ghaziabad","state":"Uttar Pradesh","latitude":28.6692,"longitude":77.4538,"temp":28.5,"humidity":46,"rain":0.0,"pressure":977.3,"uv_index":7.75,"wind_gusts":77.8,"aqi":517,"pm10":435.9,"pm2_5":127.1,"no2":24.4,"co":734.0,"o3":54.0,"so2":13.8,"mosquito_risk":4,"arthritis_risk":5,"migraine_risk":7,"frizz_risk":0,"updated_at":"2026-05-28T04:53:50.967595+05:30"},{"city":"Faridabad","state":"Haryana","latitude":28.4089,"longitude":77.3178,"temp":29.1,"humidity":43,"rain":0.0,"pressure":978.1,"uv_index":7.8,"wind_gusts":72.4,"aqi":1056,"pm10":616.5,"pm2_5":135.0,"no2":33.0,"co":335.0,"o3":30.0,"so2":13.6,"mosquito_risk":4,"arthritis_risk":5,"migraine_risk":7,"frizz_risk":0,"updated_at":"2026-05-28T04:53:50.967600+05:30"},{"city":"Meerut","state":"Uttar Pradesh","latitude":28.9845,"longitude":77.7064,"temp":27.9,"humidity":57,"rain":0.0,"pressure":976.8,"uv_index":7.65,"wind_gusts":58.7,"aqi":517,"pm10":435.9,"pm2_5":127.1,"no2":24.4,"co":591.0,"o3":54.0,"so2":13.8,"mosquito_risk":4,"arthritis_risk":5,"migraine_risk":7,"frizz_risk":1,"updated_at":"2026-05-28T04:53:50.967605+05:30"},{"city":"Agra","state":"Uttar Pradesh","latitude":27.1767,"longitude":78.0081,"temp":32.0,"humidity":30,"rain":0.0,"pressure":982.3,"uv_index":8.1,"wind_gusts":45.0,"aqi":778,"pm10":484.3,"pm2_5":99.4,"no2":35.3,"co":333.0,"o3":19.0,"so2":9.6,"mosquito_risk":0,"arthritis_risk":5,"migraine_risk":7,"frizz_risk":0,"updated_at":"2026-05-28T04:53:50.967609+05:30"},{"city":"Varanasi","state":"Uttar Pradesh","latitude":25.3176,"longitude":82.9739,"temp":28.0,"humidity":68,"rain":0.0,"pressure":993.9,"uv_index":8.7,"wind_gusts":38.2,"aqi":112,"pm10":47.3,"pm2_5":42.3,"no2":11.8,"co":385.0,"o3":95.0,"so2":22.0,"mosquito_risk":7,"arthritis_risk":5,"migraine_risk":7,"frizz_risk":1,"updated_at":"2026-05-28T04:53:50.967615+05:30"},{"city":"Prayagraj","state":"Uttar Pradesh","latitude":25.4358,"longitude":81.8463,"temp":29.9,"humidity":60,"rain":0.0,"pressure":991.8,"uv_index":8.6,"wind_gusts":38.5,"aqi":109,"pm10":44.4,"pm2_5":38.3,"no2":10.9,"co":442.0,"o3":106.0,"so2":19.5,"mosquito_risk":4,"arthritis_risk":5,"migraine_risk":7,"frizz_risk":1,"updated_at":"2026-05-28T04:53:50.967620+05:30"},{"city":"Gorakhpur","state":"Uttar Pradesh","latitude":26.7606,"longitude":83.3732,"temp":26.4,"humidity":74,"rain":0.0,"pressure":995.7,"uv_index":8.6,"wind_gusts":43.2,"aqi":83,"pm10":39.0,"pm2_5":35.3,"no2":9.9,"co":417.0,"o3":80.0,"so2":8.1,"mosquito_risk":7,"arthritis_risk":5,"migraine_risk":7,"frizz_risk":1,"updated_at":"2026-05-28T04:53:50.967626+05:30"},{"city":"Bareilly","state":"Uttar Pradesh","latitude":28.367,"longitude":79.4304,"temp":28.0,"humidity":65,"rain":0.0,"pressure":983.6,"uv_index":8.05,"wind_gusts":42.1,"aqi":116,"pm10":143.0,"pm2_5":48.4,"no2":9.5,"co":404.0,"o3":110.0,"so2":12.3,"mosquito_risk":7,"arthritis_risk":5,"migraine_risk":7,"frizz_risk":1,"updated_at":"2026-05-28T04:53:50.967631+05:30"},{"city":"Aligarh","state":"Uttar Pradesh","latitude":27.8974,"longitude":78.088,"temp":29.2,"humidity":42,"rain":0.0,"pressure":980.4,"uv_index":7.9,"wind_gusts":71.6,"aqi":695,"pm10":763.7,"pm2_5":181.6,"no2":51.8,"co":701.0,"o3":11.0,"so2":15.8,"mosquito_risk":4,"arthritis_risk":5,"migraine_risk":7,"frizz_risk":0,"updated_at":"2026-05-28T04:53:50.967636+05:30"},{"city":"Moradabad","state":"Uttar Pradesh","latitude":28.8386,"longitude":78.7733,"temp":28.8,"humidity":59,"rain":0.0,"pressure":980.1,"uv_index":7.85,"wind_gusts":48.6,"aqi":118,"pm10":64.0,"pm2_5":35.0,"no2":10.8,"co":425.0,"o3":103.0,"so2":13.1,"mosquito_risk":4,"arthritis_risk":5,"migraine_risk":7,"frizz_risk":1,"updated_at":"2026-05-28T04:53:50.967642+05:30"},{"city":"Saharanpur","state":"Uttar Pradesh","latitude":29.9637,"longitude":77.546,"temp":28.1,"humidity":54,"rain":0.0,"pressure":971.3,"uv_index":7.5,"wind_gusts":48.6,"aqi":109,"pm10":61.5,"pm2_5":43.5,"no2":21.0,"co":449.0,"o3":76.0,"so2":13.4,"mosquito_risk":4,"arthritis_risk":5,"migraine_risk":7,"frizz_risk":1,"updated_at":"2026-05-28T04:53:50.967647+05:30"},{"city":"Jhansi","state":"Uttar Pradesh","latitude":25.4484,"longitude":78.5685,"temp":32.3,"humidity":30,"rain":0.0,"pressure":973.2,"uv_index":8.45,"wind_gusts":46.4,"aqi":69,"pm10":20.5,"pm2_5":12.3,"no2":5.9,"co":187.0,"o3":58.0,"so2":4.2,"mosquito_risk":0,"arthritis_risk":5,"migraine_risk":7,"frizz_risk":0,"updated_at":"2026-05-28T04:53:54.382550+05:30"},{"city":"Surat","state":"Gujarat","latitude":21.1702,"longitude":72.8311,"temp":29.2,"humidity":78,"rain":0.0,"pressure":1006.4,"uv_index":7.7,"wind_gusts":48.6,"aqi":78,"pm10":48.2,"pm2_5":24.9,"no2":18.5,"co":293.0,"o3":33.0,"so2":31.3,"mosquito_risk":7,"arthritis_risk":5,"migraine_risk":4,"frizz_risk":1,"updated_at":"2026-05-28T04:53:54.382581+05:30"},{"city":"Vadodara","state":"Gujarat","latitude":22.3072,"longitude":73.1812,"temp":29.2,"humidity":75,"rain":0.0,"pressure":1003.4,"uv_index":8.05,"wind_gusts":44.6,"aqi":77,"pm10":31.3,"pm2_5":19.2,"no2":8.3,"co":133.0,"o3":40.0,"so2":8.0,"mosquito_risk":7,"arthritis_risk":5,"migraine_risk":4,"frizz_risk":1,"updated_at":"2026-05-28T04:53:54.382589+05:30"},{"city":"Rajkot","state":"Gujarat","latitude":22.3039,"longitude":70.8022,"temp":27.7,"humidity":81,"rain":0.0,"pressure":993.0,"uv_index":7.7,"wind_gusts":48.6,"aqi":69,"pm10":44.6,"pm2_5":19.8,"no2":3.1,"co":107.0,"o3":46.0,"so2":3.5,"mosquito_risk":7,"arthritis_risk":5,"migraine_risk":7,"frizz_risk":1,"updated_at":"2026-05-28T04:53:54.382596+05:30"},{"city":"Thane","state":"Maharashtra","latitude":19.2183,"longitude":72.9781,"temp":28.7,"humidity":82,"rain":0.0,"pressure":1008.1,"uv_index":7.8,"wind_gusts":39.6,"aqi":38,"pm10":23.4,"pm2_5":12.2,"no2":8.9,"co":151.0,"o3":44.0,"so2":5.0,"mosquito_risk":7,"arthritis_risk":0,"migraine_risk":4,"frizz_risk":1,"updated_at":"2026-05-28T04:53:54.382602+05:30"},{"city":"Nagpur","state":"Maharashtra","latitude":21.1458,"longitude":79.0882,"temp":33.2,"humidity":31,"rain":0.0,"pressure":970.2,"uv_index":8.8,"wind_gusts":45.0,"aqi":61,"pm10":20.1,"pm2_5":13.9,"no2":10.2,"co":200.0,"o3":71.0,"so2":8.5,"mosquito_risk":0,"arthritis_risk":5,"migraine_risk":7,"frizz_risk":0,"updated_at":"2026-05-28T04:53:54.382608+05:30"},{"city":"Nashik","state":"Maharashtra","latitude":19.9975,"longitude":73.7898,"temp":23.7,"humidity":90,"rain":0.0,"pressure":945.8,"uv_index":8.15,"wind_gusts":40.0,"aqi":31,"pm10":16.1,"pm2_5":8.3,"no2":7.0,"co":118.0,"o3":38.0,"so2":3.4,"mosquito_risk":3,"arthritis_risk":5,"migraine_risk":7,"frizz_risk":1,"updated_at":"2026-05-28T04:53:54.382614+05:30"},{"city":"Aurangabad","state":"Maharashtra","latitude":19.8762,"longitude":75.3433,"temp":25.0,"humidity":77,"rain":0.0,"pressure":943.9,"uv_index":9.0,"wind_gusts":42.1,"aqi":38,"pm10":10.8,"pm2_5":7.2,"no2":10.0,"co":146.0,"o3":38.0,"so2":6.5,"mosquito_risk":7,"arthritis_risk":5,"migraine_risk":7,"frizz_risk":1,"updated_at":"2026-05-28T04:53:54.382620+05:30"},{"city":"Solapur","state":"Maharashtra","latitude":17.6599,"longitude":75.9064,"temp":27.1,"humidity":75,"rain":0.0,"pressure":957.3,"uv_index":8.95,"wind_gusts":34.9,"aqi":57,"pm10":7.1,"pm2_5":6.7,"no2":9.6,"co":150.0,"o3":46.0,"so2":5.2,"mosquito_risk":7,"arthritis_risk":5,"migraine_risk":7,"frizz_risk":1,"updated_at":"2026-05-28T04:53:54.382626+05:30"},{"city":"Kolhapur","state":"Maharashtra","latitude":16.705,"longitude":74.2433,"temp":23.6,"humidity":95,"rain":0.0,"pressure":948.3,"uv_index":8.8,"wind_gusts":42.5,"aqi":32,"pm10":7.2,"pm2_5":6.1,"no2":6.8,"co":141.0,"o3":37.0,"so2":2.6,"mosquito_risk":3,"arthritis_risk":5,"migraine_risk":7,"frizz_risk":1,"updated_at":"2026-05-28T04:53:54.382632+05:30"},{"city":"Goa","state":"Goa","latitude":15.2993,"longitude":74.124,"temp":26.4,"humidity":97,"rain":0.0,"pressure":998.7,"uv_index":7.05,"wind_gusts":28.8,"aqi":40,"pm10":18.3,"pm2_5":14.6,"no2":4.5,"co":342.0,"o3":50.0,"so2":1.3,"mosquito_risk":7,"arthritis_risk":5,"migraine_risk":7,"frizz_risk":1,"updated_at":"2026-05-28T04:53:54.382638+05:30"},{"city":"Jodhpur","state":"Rajasthan","latitude":26.2389,"longitude":73.0243,"temp":31.1,"humidity":47,"rain":0.0,"pressure":979.3,"uv_index":8.4,"wind_gusts":51.1,"aqi":166,"pm10":358.6,"pm2_5":76.6,"no2":2.4,"co":123.0,"o3":64.0,"so2":3.0,"mosquito_risk":0,"arthritis_risk":5,"migraine_risk":7,"frizz_risk":1,"updated_at":"2026-05-28T04:53:54.382644+05:30"},{"city":"Udaipur","state":"Rajasthan","latitude":24.5854,"longitude":73.7125,"temp":27.7,"humidity":57,"rain":0.0,"pressure":944.2,"uv_index":8.8,"wind_gusts":48.6,"aqi":63,"pm10":28.6,"pm2_5":17.8,"no2":4.4,"co":135.0,"o3":57.0,"so2":3.4,"mosquito_risk":4,"arthritis_risk":5,"migraine_risk":7,"frizz_risk":1,"updated_at":"2026-05-28T04:53:54.382650+05:30"},{"city":"Kota","state":"Rajasthan","latitude":25.2138,"longitude":75.8648,"temp":33.7,"humidity":30,"rain":0.0,"pressure":974.8,"uv_index":8.35,"wind_gusts":42.1,"aqi":67,"pm10":32.2,"pm2_5":16.8,"no2":4.9,"co":166.0,"o3":69.0,"so2":5.8,"mosquito_risk":0,"arthritis_risk":5,"migraine_risk":7,"frizz_risk":0,"updated_at":"2026-05-28T04:53:54.382655+05:30"},{"city":"Bikaner","state":"Rajasthan","latitude":28.0229,"longitude":73.3119,"temp":33.5,"humidity":33,"rain":0.0,"pressure":977.1,"uv_index":8.45,"wind_gusts":41.8,"aqi":142,"pm10":210.5,"pm2_5":78.5,"no2":1.9,"co":121.0,"o3":66.0,"so2":3.1,"mosquito_risk":0,"arthritis_risk":5,"migraine_risk":7,"frizz_risk":0,"updated_at":"2026-05-28T04:53:54.382661+05:30"},{"city":"Ajmer","state":"Rajasthan","latitude":26.4499,"longitude":74.6399,"temp":31.0,"humidity":40,"rain":0.0,"pressure":951.6,"uv_index":8.35,"wind_gusts":54.0,"aqi":68,"pm10":35.5,"pm2_5":16.8,"no2":3.1,"co":140.0,"o3":68.0,"so2":3.1,"mosquito_risk":0,"arthritis_risk":5,"migraine_risk":7,"frizz_risk":0,"updated_at":"2026-05-28T04:53:54.382667+05:30"},{"city":"Gwalior","state":"Madhya Pradesh","latitude":26.2183,"longitude":78.1828,"temp":33.5,"humidity":29,"rain":0.0,"pressure":978.3,"uv_index":8.25,"wind_gusts":49.3,"aqi":89,"pm10":43.5,"pm2_5":20.5,"no2":8.4,"co":174.0,"o3":47.0,"so2":3.4,"mosquito_risk":0,"arthritis_risk":5,"migraine_risk":7,"frizz_risk":0,"updated_at":"2026-05-28T04:53:54.382672+05:30"},{"city":"Indore","state":"Madhya Pradesh","latitude":22.7196,"longitude":75.8577,"temp":27.9,"humidity":65,"rain":0.0,"pressure":947.1,"uv_index":8.65,"wind_gusts":47.2,"aqi":67,"pm10":45.1,"pm2_5":26.7,"no2":6.7,"co":173.0,"o3":68.0,"so2":12.9,"mosquito_risk":7,"arthritis_risk":5,"migraine_risk":7,"frizz_risk":1,"updated_at":"2026-05-28T04:53:54.382677+05:30"},{"city":"Bhopal","state":"Madhya Pradesh","latitude":23.2599,"longitude":77.4126,"temp":32.5,"humidity":31,"rain":0.0,"pressure":951.4,"uv_index":8.7,"wind_gusts":39.6,"aqi":63,"pm10":33.8,"pm2_5":19.7,"no2":3.5,"co":193.0,"o3":95.0,"so2":6.5,"mosquito_risk":0,"arthritis_risk":5,"migraine_risk":7,"frizz_risk":0,"updated_at":"2026-05-28T04:53:54.382682+05:30"},{"city":"Jabalpur","state":"Madhya Pradesh","latitude":23.1815,"longitude":79.9864,"temp":32.2,"humidity":25,"rain":0.0,"pressure":958.4,"uv_index":8.85,"wind_gusts":37.1,"aqi":65,"pm10":17.6,"pm2_5":12.6,"no2":6.3,"co":228.0,"o3":74.0,"so2":4.0,"mosquito_risk":0,"arthritis_risk":5,"migraine_risk":7,"frizz_risk":0,"updated_at":"2026-05-28T04:53:54.382688+05:30"},{"city":"Ujjain","state":"Madhya Pradesh","latitude":23.1765,"longitude":75.7885,"temp":28.0,"humidity":67,"rain":0.0,"pressure":952.7,"uv_index":8.6,"wind_gusts":49.7,"aqi":68,"pm10":43.3,"pm2_5":25.1,"no2":7.0,"co":195.0,"o3":59.0,"so2":13.6,"mosquito_risk":7,"arthritis_risk":5,"migraine_risk":7,"frizz_risk":1,"updated_at":"2026-05-28T04:53:54.382693+05:30"},{"city":"Visakhapatnam","state":"Andhra Pradesh","latitude":17.6868,"longitude":83.2185,"temp":30.0,"humidity":82,"rain":0.0,"pressure":1000.2,"uv_index":9.0,"wind_gusts":47.9,"aqi":129,"pm10":37.0,"pm2_5":28.5,"no2":20.8,"co":515.0,"o3":107.0,"so2":34.1,"mosquito_risk":7,"arthritis_risk":5,"migraine_risk":4,"frizz_risk":1,"updated_at":"2026-05-28T04:53:54.382698+05:30"},{"city":"Vijayawada","state":"Andhra Pradesh","latitude":16.5062,"longitude":80.648,"temp":30.5,"humidity":60,"rain":0.0,"pressure":999.8,"uv_index":8.65,"wind_gusts":35.6,"aqi":90,"pm10":33.9,"pm2_5":30.6,"no2":17.7,"co":281.0,"o3":50.0,"so2":6.0,"mosquito_risk":0,"arthritis_risk":5,"migraine_risk":7,"frizz_risk":1,"updated_at":"2026-05-28T04:53:54.382703+05:30"},{"city":"Guntur","state":"Andhra Pradesh","latitude":16.3067,"longitude":80.4365,"temp":29.9,"humidity":62,"rain":0.0,"pressure":1001.1,"uv_index":8.3,"wind_gusts":32.4,"aqi":78,"pm10":28.3,"pm2_5":25.5,"no2":14.7,"co":259.0,"o3":62.0,"so2":8.0,"mosquito_risk":7,"arthritis_risk":5,"migraine_risk":4,"frizz_risk":1,"updated_at":"2026-05-28T04:53:54.382709+05:30"},{"city":"Nellore","state":"Andhra Pradesh","latitude":14.4426,"longitude":79.9865,"temp":26.7,"humidity":84,"rain":0.0,"pressure":1004.5,"uv_index":9.0,"wind_gusts":35.6,"aqi":67,"pm10":27.9,"pm2_5":25.1,"no2":14.2,"co":341.0,"o3":75.0,"so2":11.0,"mosquito_risk":7,"arthritis_risk":5,"migraine_risk":4,"frizz_risk":1,"updated_at":"2026-05-28T04:53:54.382715+05:30"},{"city":"Kurnool","state":"Andhra Pradesh","latitude":15.8281,"longitude":78.0373,"temp":27.6,"humidity":68,"rain":0.0,"pressure":976.4,"uv_index":9.0,"wind_gusts":67.0,"aqi":62,"pm10":15.3,"pm2_5":13.9,"no2":13.6,"co":180.0,"o3":46.0,"so2":8.0,"mosquito_risk":7,"arthritis_risk":5,"migraine_risk":7,"frizz_risk":1,"updated_at":"2026-05-28T04:53:54.382721+05:30"},{"city":"Kakinada","state":"Andhra Pradesh","latitude":16.9891,"longitude":82.2475,"temp":30.6,"humidity":70,"rain":0.0,"pressure":1003.9,"uv_index":9.0,"wind_gusts":40.7,"aqi":91,"pm10":25.5,"pm2_5":19.1,"no2":3.3,"co":242.0,"o3":119.0,"so2":3.6,"mosquito_risk":3,"arthritis_risk":5,"migraine_risk":4,"frizz_risk":1,"updated_at":"2026-05-28T04:53:54.382726+05:30"},{"city":"Tirupati","state":"Andhra Pradesh","latitude":13.6288,"longitude":79.4192,"temp":25.4,"humidity":74,"rain":0.0,"pressure":989.9,"uv_index":9.05,"wind_gusts":25.9,"aqi":77,"pm10":44.7,"pm2_5":40.9,"no2":38.2,"co":384.0,"o3":19.0,"so2":6.0,"mosquito_risk":7,"arthritis_risk":5,"migraine_risk":7,"frizz_risk":1,"updated_at":"2026-05-28T04:53:54.382731+05:30"},{"city":"Warangal","state":"Telangana","latitude":17.9689,"longitude":79.5941,"temp":30.0,"humidity":56,"rain":0.0,"pressure":975.9,"uv_index":9.05,"wind_gusts":37.8,"aqi":73,"pm10":27.7,"pm2_5":24.9,"no2":15.3,"co":331.0,"o3":60.0,"so2":7.3,"mosquito_risk":4,"arthritis_risk":5,"migraine_risk":7,"frizz_risk":1,"updated_at":"2026-05-28T04:53:54.382736+05:30"},{"city":"Nizamabad","state":"Telangana","latitude":18.6725,"longitude":78.0941,"temp":29.3,"humidity":51,"rain":0.0,"pressure":963.1,"uv_index":9.0,"wind_gusts":34.9,"aqi":66,"pm10":27.5,"pm2_5":23.9,"no2":16.2,"co":336.0,"o3":47.0,"so2":5.5,"mosquito_risk":4,"arthritis_risk":5,"migraine_risk":7,"frizz_risk":1,"updated_at":"2026-05-28T04:53:54.382741+05:30"},{"city":"Mysore","state":"Karnataka","latitude":12.2958,"longitude":76.6396,"temp":21.7,"humidity":97,"rain":0.0,"pressure":928.9,"uv_index":9.1,"wind_gusts":34.9,"aqi":56,"pm10":9.4,"pm2_5":8.5,"no2":6.6,"co":142.0,"o3":55.0,"so2":2.4,"mosquito_risk":3,"arthritis_risk":5,"migraine_risk":7,"frizz_risk":1,"updated_at":"2026-05-28T04:53:54.382746+05:30"},{"city":"Mangalore","state":"Karnataka","latitude":12.9141,"longitude":74.856,"temp":24.6,"humidity":97,"rain":0.1,"pressure":1008.3,"uv_index":8.65,"wind_gusts":41.0,"aqi":53,"pm10":12.3,"pm2_5":9.9,"no2":7.3,"co":218.0,"o3":48.0,"so2":2.8,"mosquito_risk":6,"arthritis_risk":0,"migraine_risk":4,"frizz_risk":1,"updated_at":"2026-05-28T04:53:54.382751+05:30"},{"city":"Hubli-Dharwad","state":"Karnataka","latitude":15.3647,"longitude":75.124,"temp":23.6,"humidity":96,"rain":0.0,"pressure":941.5,"uv_index":9.0,"wind_gusts":47.5,"aqi":28,"pm10":5.3,"pm2_5":3.9,"no2":2.9,"co":137.0,"o3":46.0,"so2":1.0,"mosquito_risk":3,"arthritis_risk":5,"migraine_risk":7,"frizz_risk":1,"updated_at":"2026-05-28T04:53:54.382757+05:30"},{"city":"Belgaum","state":"Karnataka","latitude":15.8497,"longitude":74.4977,"temp":22.4,"humidity":99,"rain":0.0,"pressure":926.1,"uv_index":9.0,"wind_gusts":44.6,"aqi":30,"pm10":6.5,"pm2_5":5.4,"no2":3.9,"co":134.0,"o3":41.0,"so2":1.0,"mosquito_risk":3,"arthritis_risk":5,"migraine_risk":7,"frizz_risk":1,"updated_at":"2026-05-28T04:53:57.796769+05:30"},{"city":"Coimbatore","state":"Tamil Nadu","latitude":11.0168,"longitude":76.9558,"temp":25.2,"humidity":84,"rain":0.0,"pressure":962.1,"uv_index":8.4,"wind_gusts":49.7,"aqi":41,"pm10":8.7,"pm2_5":7.3,"no2":6.8,"co":141.0,"o3":46.0,"so2":3.1,"mosquito_risk":7,"arthritis_risk":5,"migraine_risk":7,"frizz_risk":1,"updated_at":"2026-05-28T04:53:57.796801+05:30"},{"city":"Madurai","state":"Tamil Nadu","latitude":9.9252,"longitude":78.1198,"temp":27.2,"humidity":76,"rain":0.0,"pressure":993.0,"uv_index":7.9,"wind_gusts":47.5,"aqi":87,"pm10":36.9,"pm2_5":34.2,"no2":35.5,"co":260.0,"o3":0.0,"so2":5.4,"mosquito_risk":7,"arthritis_risk":5,"migraine_risk":7,"frizz_risk":1,"updated_at":"2026-05-28T04:53:57.796810+05:30"},{"city":"Trichy","state":"Tamil Nadu","latitude":10.7905,"longitude":78.7047,"temp":28.0,"humidity":71,"rain":0.0,"pressure":999.6,"uv_index":7.95,"wind_gusts":38.5,"aqi":60,"pm10":14.1,"pm2_5":13.2,"no2":17.4,"co":150.0,"o3":31.0,"so2":4.4,"mosquito_risk":7,"arthritis_risk":5,"migraine_risk":7,"frizz_risk":1,"updated_at":"2026-05-28T04:53:57.796817+05:30"},{"city":"Salem","state":"Tamil Nadu","latitude":11.6643,"longitude":78.146,"temp":27.1,"humidity":73,"rain":0.0,"pressure":977.6,"uv_index":8.0,"wind_gusts":34.2,"aqi":69,"pm10":18.5,"pm2_5":16.5,"no2":18.3,"co":278.0,"o3":34.0,"so2":6.6,"mosquito_risk":7,"arthritis_risk":5,"migraine_risk":7,"frizz_risk":1,"updated_at":"2026-05-28T04:53:57.796824+05:30"},{"city":"Tirunelveli","state":"Tamil Nadu","latitude":8.7139,"longitude":77.7567,"temp":28.5,"humidity":71,"rain":0.0,"pressure":1003.5,"uv_index":7.8,"wind_gusts":40.3,"aqi":28,"pm10":10.2,"pm2_5":8.0,"no2":6.9,"co":167.0,"o3":33.0,"so2":2.3,"mosquito_risk":7,"arthritis_risk":5,"migraine_risk":4,"frizz_risk":1,"updated_at":"2026-05-28T04:53:57.796831+05:30"},{"city":"Vellore","state":"Tamil Nadu","latitude":12.9165,"longitude":79.1325,"temp":25.7,"humidity":77,"rain":0.0,"pressure":983.6,"uv_index":8.85,"wind_gusts":34.6,"aqi":82,"pm10":47.7,"pm2_5":38.8,"no2":24.4,"co":250.0,"o3":27.0,"so2":7.0,"mosquito_risk":7,"arthritis_risk":5,"migraine_risk":7,"frizz_risk":1,"updated_at":"2026-05-28T04:53:57.796837+05:30"},{"city":"Erode","state":"Tamil Nadu","latitude":11.341,"longitude":77.7172,"temp":26.7,"humidity":79,"rain":0.0,"pressure":989.3,"uv_index":8.05,"wind_gusts":46.8,"aqi":54,"pm10":9.8,"pm2_5":8.7,"no2":11.5,"co":163.0,"o3":35.0,"so2":3.7,"mosquito_risk":7,"arthritis_risk":5,"migraine_risk":7,"frizz_risk":1,"updated_at":"2026-05-28T04:53:57.796843+05:30"},{"city":"Kochi","state":"Kerala","latitude":9.9312,"longitude":76.2673,"temp":26.4,"humidity":95,"rain":0.0,"pressure":1009.6,"uv_index":6.4,"wind_gusts":28.1,"aqi":52,"pm10":15.1,"pm2_5":14.3,"no2":19.5,"co":228.0,"o3":10.0,"so2":4.4,"mosquito_risk":7,"arthritis_risk":0,"migraine_risk":4,"frizz_risk":1,"updated_at":"2026-05-28T04:53:57.796849+05:30"},{"city":"Thiruvananthapuram","state":"Kerala","latitude":8.5241,"longitude":76.9366,"temp":25.4,"humidity":95,"rain":0.0,"pressure":1009.3,"uv_index":6.55,"wind_gusts":29.9,"aqi":30,"pm10":15.3,"pm2_5":8.1,"no2":3.3,"co":190.0,"o3":45.0,"so2":1.5,"mosquito_risk":7,"arthritis_risk":0,"migraine_risk":4,"frizz_risk":1,"updated_at":"2026-05-28T04:53:57.796854+05:30"},{"city":"Kozhikode","state":"Kerala","latitude":11.2588,"longitude":75.7804,"temp":24.8,"humidity":100,"rain":0.0,"pressure":1009.2,"uv_index":8.3,"wind_gusts":28.8,"aqi":29,"pm10":11.1,"pm2_5":6.8,"no2":1.8,"co":378.0,"o3":66.0,"so2":1.2,"mosquito_risk":3,"arthritis_risk":0,"migraine_risk":4,"frizz_risk":1,"updated_at":"2026-05-28T04:53:57.796860+05:30"},{"city":"Thrissur","state":"Kerala","latitude":10.5276,"longitude":76.2144,"temp":24.6,"humidity":97,"rain":0.0,"pressure":1008.1,"uv_index":7.45,"wind_gusts":28.8,"aqi":51,"pm10":17.7,"pm2_5":16.5,"no2":17.1,"co":230.0,"o3":12.0,"so2":4.3,"mosquito_risk":3,"arthritis_risk":0,"migraine_risk":4,"frizz_risk":1,"updated_at":"2026-05-28T04:53:57.796866+05:30"},{"city":"Kannur","state":"Kerala","latitude":11.8745,"longitude":75.3704,"temp":24.9,"humidity":98,"rain":0.0,"pressure":1008.6,"uv_index":8.65,"wind_gusts":33.8,"aqi":46,"pm10":5.0,"pm2_5":3.5,"no2":4.9,"co":281.0,"o3":47.0,"so2":2.0,"mosquito_risk":3,"arthritis_risk":0,"migraine_risk":4,"frizz_risk":1,"updated_at":"2026-05-28T04:53:57.796872+05:30"},{"city":"Patna","state":"Bihar","latitude":25.5941,"longitude":85.1376,"temp":25.9,"humidity":81,"rain":0.0,"pressure":998.4,"uv_index":8.75,"wind_gusts":49.3,"aqi":103,"pm10":43.8,"pm2_5":40.9,"no2":14.0,"co":332.0,"o3":65.0,"so2":15.2,"mosquito_risk":7,"arthritis_risk":5,"migraine_risk":7,"frizz_risk":1,"updated_at":"2026-05-28T04:53:57.796877+05:30"},{"city":"Gaya","state":"Bihar","latitude":24.7914,"longitude":85.0002,"temp":26.5,"humidity":72,"rain":0.0,"pressure":990.4,"uv_index":8.8,"wind_gusts":38.2,"aqi":135,"pm10":33.3,"pm2_5":30.6,"no2":15.0,"co":462.0,"o3":63.0,"so2":21.8,"mosquito_risk":7,"arthritis_risk":5,"migraine_risk":7,"frizz_risk":1,"updated_at":"2026-05-28T04:53:57.796883+05:30"},{"city":"Muzaffarpur","state":"Bihar","latitude":26.1209,"longitude":85.3647,"temp":25.1,"humidity":83,"rain":0.0,"pressure":999.1,"uv_index":8.7,"wind_gusts":46.4,"aqi":95,"pm10":43.1,"pm2_5":39.6,"no2":11.3,"co":313.0,"o3":72.0,"so2":9.7,"mosquito_risk":7,"arthritis_risk":5,"migraine_risk":7,"frizz_risk":1,"updated_at":"2026-05-28T04:53:57.796888+05:30"},{"city":"Bhagalpur","state":"Bihar","latitude":25.2425,"longitude":87.0117,"temp":24.6,"humidity":91,"rain":0.0,"pressure":1000.9,"uv_index":8.65,"wind_gusts":46.1,"aqi":98,"pm10":50.4,"pm2_5":36.4,"no2":10.0,"co":325.0,"o3":97.0,"so2":9.5,"mosquito_risk":3,"arthritis_risk":5,"migraine_risk":4,"frizz_risk":1,"updated_at":"2026-05-28T04:53:57.796893+05:30"},{"city":"Ranchi","state":"Jharkhand","latitude":23.3441,"longitude":85.3096,"temp":23.0,"humidity":75,"rain":0.0,"pressure":935.4,"uv_index":9.05,"wind_gusts":36.7,"aqi":139,"pm10":96.9,"pm2_5":69.8,"no2":15.6,"co":336.0,"o3":115.0,"so2":30.9,"mosquito_risk":3,"arthritis_risk":5,"migraine_risk":7,"frizz_risk":1,"updated_at":"2026-05-28T04:53:57.796899+05:30"},{"city":"Jamshedpur","state":"Jharkhand","latitude":22.8046,"longitude":86.2029,"temp":25.0,"humidity":94,"rain":0.0,"pressure":988.8,"uv_index":9.05,"wind_gusts":32.4,"aqi":157,"pm10":64.0,"pm2_5":54.6,"no2":17.5,"co":274.0,"o3":62.0,"so2":20.8,"mosquito_risk":7,"arthritis_risk":5,"migraine_risk":7,"frizz_risk":1,"updated_at":"2026-05-28T04:53:57.796905+05:30"},{"city":"Dhanbad","state":"Jharkhand","latitude":23.7957,"longitude":86.4304,"temp":25.0,"humidity":89,"rain":0.0,"pressure":978.3,"uv_index":9.0,"wind_gusts":36.4,"aqi":163,"pm10":70.8,"pm2_5":64.0,"no2":44.2,"co":597.0,"o3":46.0,"so2":91.1,"mosquito_risk":7,"arthritis_risk":5,"migraine_risk":7,"frizz_risk":1,"updated_at":"2026-05-28T04:53:57.796911+05:30"},{"city":"Bokaro","state":"Jharkhand","latitude":23.6693,"longitude":86.1511,"temp":24.8,"humidity":88,"rain":0.0,"pressure":982.1,"uv_index":9.0,"wind_gusts":40.7,"aqi":167,"pm10":97.8,"pm2_5":87.5,"no2":55.9,"co":579.0,"o3":29.0,"so2":110.6,"mosquito_risk":3,"arthritis_risk":5,"migraine_risk":7,"frizz_risk":1,"updated_at":"2026-05-28T04:53:57.796916+05:30"},{"city":"Bhubaneswar","state":"Odisha","latitude":20.2961,"longitude":85.8245,"temp":28.4,"humidity":88,"rain":0.0,"pressure":999.7,"uv_index":9.05,"wind_gusts":44.6,"aqi":101,"pm10":41.0,"pm2_5":30.6,"no2":4.1,"co":297.0,"o3":116.0,"so2":3.8,"mosquito_risk":7,"arthritis_risk":5,"migraine_risk":7,"frizz_risk":1,"updated_at":"2026-05-28T04:53:57.796922+05:30"},{"city":"Cuttack","state":"Odisha","latitude":20.4625,"longitude":85.8828,"temp":28.1,"humidity":89,"rain":0.0,"pressure":1001.3,"uv_index":9.1,"wind_gusts":41.8,"aqi":101,"pm10":41.0,"pm2_5":30.6,"no2":4.1,"co":313.0,"o3":116.0,"so2":3.8,"mosquito_risk":7,"arthritis_risk":5,"migraine_risk":4,"frizz_risk":1,"updated_at":"2026-05-28T04:53:57.796927+05:30"},{"city":"Rourkela","state":"Odisha","latitude":22.2604,"longitude":84.8536,"temp":26.1,"humidity":82,"rain":0.0,"pressure":982.0,"uv_index":8.9,"wind_gusts":36.7,"aqi":155,"pm10":93.1,"pm2_5":73.6,"no2":20.7,"co":278.0,"o3":89.0,"so2":27.9,"mosquito_risk":7,"arthritis_risk":5,"migraine_risk":7,"frizz_risk":1,"updated_at":"2026-05-28T04:53:57.796932+05:30"},{"city":"Raipur","state":"Chhattisgarh","latitude":21.2514,"longitude":81.6296,"temp":31.5,"humidity":34,"rain":0.0,"pressure":970.7,"uv_index":8.95,"wind_gusts":33.1,"aqi":97,"pm10":30.5,"pm2_5":26.9,"no2":37.3,"co":623.0,"o3":38.0,"so2":52.8,"mosquito_risk":0,"arthritis_risk":5,"migraine_risk":7,"frizz_risk":0,"updated_at":"2026-05-28T04:53:57.796938+05:30"},{"city":"Bhilai","state":"Chhattisgarh","latitude":21.1938,"longitude":81.3509,"temp":30.5,"humidity":37,"rain":0.0,"pressure":971.1,"uv_index":8.95,"wind_gusts":37.4,"aqi":89,"pm10":26.6,"pm2_5":23.2,"no2":30.0,"co":711.0,"o3":40.0,"so2":40.4,"mosquito_risk":0,"arthritis_risk":5,"migraine_risk":7,"frizz_risk":0,"updated_at":"2026-05-28T04:53:57.796942+05:30"},{"city":"Guwahati","state":"Assam","latitude":26.1158,"longitude":91.7086,"temp":21.8,"humidity":97,"rain":0.0,"pressure":1001.9,"uv_index":8.75,"wind_gusts":19.4,"aqi":77,"pm10":29.7,"pm2_5":26.0,"no2":15.8,"co":506.0,"o3":23.0,"so2":1.0,"mosquito_risk":3,"arthritis_risk":5,"migraine_risk":4,"frizz_risk":1,"updated_at":"2026-05-28T04:53:57.796947+05:30"},{"city":"Agartala","state":"Tripura","latitude":23.8315,"longitude":91.2868,"temp":22.6,"humidity":97,"rain":0.0,"pressure":1006.1,"uv_index":8.85,"wind_gusts":21.6,"aqi":89,"pm10":37.8,"pm2_5":30.2,"no2":16.4,"co":219.0,"o3":46.0,"so2":2.8,"mosquito_risk":3,"arthritis_risk":5,"migraine_risk":4,"frizz_risk":1,"updated_at":"2026-05-28T04:53:57.796952+05:30"},{"city":"Shillong","state":"Meghalaya","latitude":25.5788,"longitude":91.8933,"temp":15.6,"humidity":83,"rain":0.0,"pressure":855.6,"uv_index":8.15,"wind_gusts":23.8,"aqi":58,"pm10":30.0,"pm2_5":22.4,"no2":9.1,"co":256.0,"o3":40.0,"so2":2.2,"mosquito_risk":3,"arthritis_risk":10,"migraine_risk":7,"frizz_risk":0,"updated_at":"2026-05-28T04:53:57.796957+05:30"},{"city":"Imphal","state":"Manipur","latitude":24.817,"longitude":93.9368,"temp":19.7,"humidity":100,"rain":0.0,"pressure":922.9,"uv_index":9.25,"wind_gusts":31.3,"aqi":97,"pm10":55.4,"pm2_5":50.1,"no2":16.0,"co":640.0,"o3":11.0,"so2":1.6,"mosquito_risk":3,"arthritis_risk":10,"migraine_risk":7,"frizz_risk":1,"updated_at":"2026-05-28T04:53:57.796963+05:30"},{"city":"Aizawl","state":"Mizoram","latitude":23.7271,"longitude":92.7176,"temp":15.6,"humidity":98,"rain":0.0,"pressure":890.5,"uv_index":9.05,"wind_gusts":27.7,"aqi":73,"pm10":28.4,"pm2_5":22.5,"no2":12.2,"co":260.0,"o3":17.0,"so2":1.2,"mosquito_risk":3,"arthritis_risk":10,"migraine_risk":7,"frizz_risk":0,"updated_at":"2026-05-28T04:53:57.796968+05:30"},{"city":"Kohima","state":"Nagaland","latitude":25.6701,"longitude":94.1077,"temp":16.5,"humidity":92,"rain":0.0,"pressure":854.7,"uv_index":9.2,"wind_gusts":31.0,"aqi":65,"pm10":25.8,"pm2_5":18.0,"no2":8.7,"co":235.0,"o3":19.0,"so2":0.8,"mosquito_risk":3,"arthritis_risk":10,"migraine_risk":7,"frizz_risk":0,"updated_at":"2026-05-28T04:53:57.796973+05:30"},{"city":"Gangtok","state":"Sikkim","latitude":27.3314,"longitude":88.6138,"temp":14.0,"humidity":89,"rain":0.0,"pressure":836.4,"uv_index":8.3,"wind_gusts":36.4,"aqi":65,"pm10":26.5,"pm2_5":18.3,"no2":9.9,"co":672.0,"o3":82.0,"so2":1.7,"mosquito_risk":3,"arthritis_risk":10,"migraine_risk":7,"frizz_risk":0,"updated_at":"2026-05-28T04:53:57.796978+05:30"},{"city":"Siliguri","state":"West Bengal","latitude":26.7271,"longitude":88.3953,"temp":22.5,"humidity":90,"rain":0.0,"pressure":993.7,"uv_index":6.85,"wind_gusts":27.0,"aqi":96,"pm10":82.4,"pm2_5":66.1,"no2":26.6,"co":350.0,"o3":47.0,"so2":7.0,"mosquito_risk":3,"arthritis_risk":5,"migraine_risk":7,"frizz_risk":1,"updated_at":"2026-05-28T04:54:01.219157+05:30"},{"city":"Durgapur","state":"West Bengal","latitude":23.5204,"longitude":87.3119,"temp":25.8,"humidity":91,"rain":0.0,"pressure":993.5,"uv_index":8.95,"wind_gusts":31.0,"aqi":154,"pm10":56.1,"pm2_5":48.0,"no2":24.8,"co":482.0,"o3":62.0,"so2":30.8,"mosquito_risk":7,"arthritis_risk":5,"migraine_risk":7,"frizz_risk":1,"updated_at":"2026-05-28T04:54:01.219191+05:30"},{"city":"Asansol","state":"West Bengal","latitude":23.6739,"longitude":86.9524,"temp":25.6,"humidity":93,"rain":0.0,"pressure":992.2,"uv_index":8.95,"wind_gusts":32.4,"aqi":154,"pm10":54.1,"pm2_5":47.0,"no2":26.0,"co":533.0,"o3":64.0,"so2":38.0,"mosquito_risk":7,"arthritis_risk":5,"migraine_risk":7,"frizz_risk":1,"updated_at":"2026-05-28T04:54:01.219200+05:30"},{"city":"Pondicherry","state":"Puducherry","latitude":11.9139,"longitude":79.8145,"temp":28.6,"humidity":74,"rain":0.0,"pressure":1007.4,"uv_index":7.45,"wind_gusts":38.9,"aqi":77,"pm10":16.8,"pm2_5":14.2,"no2":13.2,"co":313.0,"o3":47.0,"so2":6.9,"mosquito_risk":7,"arthritis_risk":5,"migraine_risk":4,"frizz_risk":1,"updated_at":"2026-05-28T04:54:01.219208+05:30"},{"city":"Port Blair","state":"Andaman and Nicobar Islands","latitude":11.6234,"longitude":92.7265,"temp":24.4,"humidity":97,"rain":0.1,"pressure":1006.8,"uv_index":8.6,"wind_gusts":41.4,"aqi":30,"pm10":11.1,"pm2_5":5.5,"no2":0.3,"co":127.0,"o3":77.0,"so2":0.4,"mosquito_risk":6,"arthritis_risk":5,"migraine_risk":4,"frizz_risk":1,"updated_at":"2026-05-28T04:54:01.219215+05:30"},{"city":"Haridwar","state":"Uttarakhand","latitude":29.9457,"longitude":78.1642,"temp":28.4,"humidity":54,"rain":0.0,"pressure":970.2,"uv_index":7.6,"wind_gusts":39.2,"aqi":78,"pm10":45.1,"pm2_5":38.5,"no2":16.5,"co":317.0,"o3":92.0,"so2":10.9,"mosquito_risk":4,"arthritis_risk":5,"migraine_risk":7,"frizz_risk":1,"updated_at":"2026-05-28T04:54:01.219221+05:30"},{"city":"Rishikesh","state":"Uttarakhand","latitude":30.0869,"longitude":78.2676,"temp":22.0,"humidity":64,"rain":0.0,"pressure":962.4,"uv_index":7.7,"wind_gusts":35.3,"aqi":84,"pm10":77.5,"pm2_5":64.0,"no2":25.7,"co":500.0,"o3":72.0,"so2":8.1,"mosquito_risk":3,"arthritis_risk":5,"migraine_risk":7,"frizz_risk":0,"updated_at":"2026-05-28T04:54:01.219228+05:30"},{"city":"Nainital","state":"Uttarakhand","latitude":29.3919,"longitude":79.4542,"temp":13.2,"humidity":83,"rain":0.0,"pressure":802.1,"uv_index":8.5,"wind_gusts":31.0,"aqi":116,"pm10":48.7,"pm2_5":24.9,"no2":4.5,"co":375.0,"o3":145.0,"so2":9.1,"mosquito_risk":3,"arthritis_risk":10,"migraine_risk":7,"frizz_risk":0,"updated_at":"2026-05-28T04:54:01.219234+05:30"},{"city":"Mussoorie","state":"Uttarakhand","latitude":30.4599,"longitude":78.0664,"temp":16.2,"humidity":46,"rain":0.0,"pressure":800.5,"uv_index":8.1,"wind_gusts":50.4,"aqi":70,"pm10":39.6,"pm2_5":33.8,"no2":39.1,"co":203.0,"o3":9.0,"so2":2.9,"mosquito_risk":0,"arthritis_risk":5,"migraine_risk":7,"frizz_risk":0,"updated_at":"2026-05-28T04:54:01.219239+05:30"},{"city":"Dharamshala","state":"Himachal Pradesh","latitude":32.219,"longitude":76.3234,"temp":24.6,"humidity":27,"rain":0.0,"pressure":866.3,"uv_index":8.3,"wind_gusts":42.8,"aqi":51,"pm10":15.4,"pm2_5":8.9,"no2":13.3,"co":165.0,"o3":38.0,"so2":0.1,"mosquito_risk":0,"arthritis_risk":5,"migraine_risk":7,"frizz_risk":0,"updated_at":"2026-05-28T04:54:01.219245+05:30"},{"city":"Dalhousie","state":"Himachal Pradesh","latitude":32.5387,"longitude":75.971,"temp":12.0,"humidity":57,"rain":0.0,"pressure":798.8,"uv_index":8.6,"wind_gusts":39.6,"aqi":66,"pm10":23.1,"pm2_5":17.2,"no2":31.6,"co":212.0,"o3":6.0,"so2":0.7,"mosquito_risk":0,"arthritis_risk":5,"migraine_risk":7,"frizz_risk":0,"updated_at":"2026-05-28T04:54:01.219251+05:30"},{"city":"Patiala","state":"Punjab","latitude":30.3398,"longitude":76.3869,"temp":29.2,"humidity":34,"rain":0.0,"pressure":972.4,"uv_index":7.65,"wind_gusts":48.6,"aqi":573,"pm10":108.7,"pm2_5":48.5,"no2":20.7,"co":553.0,"o3":57.0,"so2":9.8,"mosquito_risk":4,"arthritis_risk":5,"migraine_risk":7,"frizz_risk":0,"updated_at":"2026-05-28T04:54:01.219257+05:30"},{"city":"Bhatinda","state":"Punjab","latitude":30.211,"longitude":74.9455,"temp":30.8,"humidity":33,"rain":0.0,"pressure":976.8,"uv_index":8.35,"wind_gusts":47.2,"aqi":81,"pm10":55.3,"pm2_5":36.8,"no2":26.0,"co":413.0,"o3":68.0,"so2":7.9,"mosquito_risk":0,"arthritis_risk":5,"migraine_risk":7,"frizz_risk":0,"updated_at":"2026-05-28T04:54:01.219263+05:30"},{"city":"Rohtak","state":"Haryana","latitude":28.8955,"longitude":76.6066,"temp":28.6,"humidity":40,"rain":0.0,"pressure":975.6,"uv_index":7.8,"wind_gusts":63.7,"aqi":764,"pm10":343.7,"pm2_5":82.0,"no2":35.0,"co":287.0,"o3":25.0,"so2":5.2,"mosquito_risk":4,"arthritis_risk":5,"migraine_risk":7,"frizz_risk":0,"updated_at":"2026-05-28T04:54:01.219268+05:30"},{"city":"Panipat","state":"Haryana","latitude":29.3909,"longitude":76.9635,"temp":28.1,"humidity":49,"rain":0.0,"pressure":975.1,"uv_index":7.65,"wind_gusts":52.9,"aqi":1408,"pm10":668.7,"pm2_5":160.2,"no2":42.1,"co":528.0,"o3":26.0,"so2":7.8,"mosquito_risk":4,"arthritis_risk":5,"migraine_risk":7,"frizz_risk":1,"updated_at":"2026-05-28T04:54:01.219274+05:30"},{"city":"Mathura","state":"Uttar Pradesh","latitude":27.4924,"longitude":77.6737,"temp":31.5,"humidity":31,"rain":0.0,"pressure":981.0,"uv_index":8.05,"wind_gusts":75.2,"aqi":692,"pm10":246.8,"pm2_5":64.5,"no2":26.3,"co":383.0,"o3":31.0,"so2":5.4,"mosquito_risk":0,"arthritis_risk":5,"migraine_risk":7,"frizz_risk":0,"updated_at":"2026-05-28T04:54:01.219279+05:30"},{"city":"Vrindavan","state":"Uttar Pradesh","latitude":27.5823,"longitude":77.7027,"temp":31.0,"humidity":35,"rain":0.0,"pressure":981.4,"uv_index":8.0,"wind_gusts":76.3,"aqi":692,"pm10":246.8,"pm2_5":64.5,"no2":26.3,"co":344.0,"o3":31.0,"so2":5.4,"mosquito_risk":0,"arthritis_risk":5,"migraine_risk":7,"frizz_risk":0,"updated_at":"2026-05-28T04:54:01.219285+05:30"},{"city":"Ayodhya","state":"Uttar Pradesh","latitude":26.7922,"longitude":82.1998,"temp":27.0,"humidity":69,"rain":0.0,"pressure":992.9,"uv_index":8.35,"wind_gusts":45.7,"aqi":87,"pm10":34.5,"pm2_5":30.0,"no2":9.5,"co":384.0,"o3":86.0,"so2":10.2,"mosquito_risk":7,"arthritis_risk":5,"migraine_risk":7,"frizz_risk":1,"updated_at":"2026-05-28T04:54:01.219291+05:30"},{"city":"Ratlam","state":"Madhya Pradesh","latitude":23.3315,"longitude":75.0367,"temp":26.8,"humidity":77,"rain":0.0,"pressure":953.5,"uv_index":8.5,"wind_gusts":50.8,"aqi":71,"pm10":40.4,"pm2_5":22.6,"no2":8.3,"co":186.0,"o3":48.0,"so2":14.7,"mosquito_risk":7,"arthritis_risk":5,"migraine_risk":7,"frizz_risk":1,"updated_at":"2026-05-28T04:54:01.219296+05:30"},{"city":"Sagar","state":"Madhya Pradesh","latitude":23.8388,"longitude":78.7378,"temp":32.0,"humidity":30,"rain":0.0,"pressure":947.5,"uv_index":8.7,"wind_gusts":44.6,"aqi":63,"pm10":26.9,"pm2_5":14.8,"no2":3.8,"co":177.0,"o3":90.0,"so2":5.1,"mosquito_risk":0,"arthritis_risk":5,"migraine_risk":7,"frizz_risk":0,"updated_at":"2026-05-28T04:54:01.219301+05:30"},{"city":"Satna","state":"Madhya Pradesh","latitude":24.6005,"longitude":80.8322,"temp":29.1,"humidity":57,"rain":0.0,"pressure":966.8,"uv_index":8.75,"wind_gusts":49.3,"aqi":76,"pm10":34.2,"pm2_5":24.9,"no2":16.4,"co":312.0,"o3":91.0,"so2":12.7,"mosquito_risk":4,"arthritis_risk":5,"migraine_risk":7,"frizz_risk":1,"updated_at":"2026-05-28T04:54:01.219307+05:30"},{"city":"Akola","state":"Maharashtra","latitude":20.7002,"longitude":77.0082,"temp":30.1,"humidity":54,"rain":0.0,"pressure":973.7,"uv_index":8.8,"wind_gusts":42.8,"aqi":56,"pm10":32.6,"pm2_5":21.7,"no2":8.3,"co":166.0,"o3":71.0,"so2":10.8,"mosquito_risk":0,"arthritis_risk":5,"migraine_risk":7,"frizz_risk":1,"updated_at":"2026-05-28T04:54:01.219313+05:30"},{"city":"Amravati","state":"Maharashtra","latitude":20.9374,"longitude":77.7796,"temp":31.0,"humidity":49,"rain":0.0,"pressure":965.5,"uv_index":8.85,"wind_gusts":41.0,"aqi":55,"pm10":33.5,"pm2_5":22.4,"no2":8.2,"co":197.0,"o3":78.0,"so2":10.3,"mosquito_risk":0,"arthritis_risk":5,"migraine_risk":7,"frizz_risk":1,"updated_at":"2026-05-28T04:54:01.219319+05:30"},{"city":"Latur","state":"Maharashtra","latitude":18.4088,"longitude":76.5604,"temp":27.1,"humidity":65,"rain":0.0,"pressure":939.3,"uv_index":8.95,"wind_gusts":32.4,"aqi":59,"pm10":13.3,"pm2_5":13.0,"no2":8.4,"co":164.0,"o3":85.0,"so2":10.4,"mosquito_risk":7,"arthritis_risk":5,"migraine_risk":7,"frizz_risk":1,"updated_at":"2026-05-28T04:54:01.219324+05:30"},{"city":"Nanded","state":"Maharashtra","latitude":19.1383,"longitude":77.3091,"temp":30.7,"humidity":44,"rain":0.0,"pressure":967.1,"uv_index":8.9,"wind_gusts":36.0,"aqi":60,"pm10":22.9,"pm2_5":17.1,"no2":12.3,"co":212.0,"o3":51.0,"so2":6.3,"mosquito_risk":0,"arthritis_risk":5,"migraine_risk":7,"frizz_risk":1,"updated_at":"2026-05-28T04:54:01.219329+05:30"},{"city":"Gulbarga","state":"Karnataka","latitude":17.3297,"longitude":76.8343,"temp":27.4,"humidity":64,"rain":0.0,"pressure":958.4,"uv_index":8.95,"wind_gusts":37.8,"aqi":58,"pm10":13.2,"pm2_5":11.6,"no2":14.9,"co":174.0,"o3":42.0,"so2":4.1,"mosquito_risk":7,"arthritis_risk":5,"migraine_risk":7,"frizz_risk":1,"updated_at":"2026-05-28T04:54:01.219334+05:30"},{"city":"Bidar","state":"Karnataka","latitude":17.9104,"longitude":77.5199,"temp":27.4,"humidity":56,"rain":0.0,"pressure":934.9,"uv_index":8.15,"wind_gusts":33.1,"aqi":65,"pm10":22.8,"pm2_5":19.3,"no2":16.7,"co":230.0,"o3":51.0,"so2":4.7,"mosquito_risk":4,"arthritis_risk":5,"migraine_risk":7,"frizz_risk":1,"updated_at":"2026-05-28T04:54:01.219339+05:30"},{"city":"Hospet","state":"Karnataka","latitude":15.2689,"longitude":76.3909,"temp":25.0,"humidity":91,"rain":0.0,"pressure":956.3,"uv_index":8.9,"wind_gusts":51.1,"aqi":42,"pm10":6.3,"pm2_5":5.3,"no2":5.2,"co":139.0,"o3":40.0,"so2":1.5,"mosquito_risk":7,"arthritis_risk":5,"migraine_risk":7,"frizz_risk":1,"updated_at":"2026-05-28T04:54:01.219344+05:30"},{"city":"Tirupur","state":"Tamil Nadu","latitude":11.1085,"longitude":77.3411,"temp":26.3,"humidity":79,"rain":0.0,"pressure":975.6,"uv_index":8.1,"wind_gusts":49.0,"aqi":54,"pm10":11.6,"pm2_5":10.4,"no2":14.3,"co":133.0,"o3":30.0,"so2":4.4,"mosquito_risk":7,"arthritis_risk":5,"migraine_risk":7,"frizz_risk":1,"updated_at":"2026-05-28T04:54:01.219350+05:30"},{"city":"Alappuzha","state":"Kerala","latitude":9.4981,"longitude":76.3388,"temp":25.7,"humidity":99,"rain":0.0,"pressure":1009.8,"uv_index":7.7,"wind_gusts":24.1,"aqi":40,"pm10":14.0,"pm2_5":9.8,"no2":8.7,"co":272.0,"o3":37.0,"so2":2.3,"mosquito_risk":7,"arthritis_risk":0,"migraine_risk":4,"frizz_risk":1,"updated_at":"2026-05-28T04:54:01.219355+05:30"},{"city":"Munnar","state":"Kerala","latitude":10.0889,"longitude":77.0595,"temp":17.8,"humidity":100,"rain":0.0,"pressure":857.4,"uv_index":7.5,"wind_gusts":28.4,"aqi":29,"pm10":4.5,"pm2_5":4.2,"no2":7.6,"co":133.0,"o3":27.0,"so2":1.0,"mosquito_risk":3,"arthritis_risk":10,"migraine_risk":7,"frizz_risk":1,"updated_at":"2026-05-28T04:54:01.219361+05:30"},{"city":"Silchar","state":"Assam","latitude":24.8333,"longitude":92.7789,"temp":22.9,"humidity":99,"rain":0.1,"pressure":1005.4,"uv_index":8.9,"wind_gusts":20.5,"aqi":112,"pm10":81.0,"pm2_5":65.4,"no2":20.8,"co":461.0,"o3":42.0,"so2":6.2,"mosquito_risk":6,"arthritis_risk":5,"migraine_risk":4,"frizz_risk":1,"updated_at":"2026-05-28T04:54:01.219366+05:30"},{"city":"Dibrugarh","state":"Assam","latitude":27.4728,"longitude":94.912,"temp":23.9,"humidity":96,"rain":0.0,"pressure":995.8,"uv_index":8.6,"wind_gusts":34.9,"aqi":90,"pm10":49.1,"pm2_5":35.6,"no2":14.8,"co":619.0,"o3":40.0,"so2":2.1,"mosquito_risk":3,"arthritis_risk":5,"migraine_risk":7,"frizz_risk":1,"updated_at":"2026-05-28T04:54:01.219372+05:30"}]