[{"city":"Delhi","state":"Delhi","latitude":28.6139,"longitude":77.209,"temp":19.6,"humidity":87,"rain":0.0,"pressure":987.8,"uv_index":6.55,"wind_gusts":26.3,"aqi":155,"pm10":217.0,"pm2_5":105.9,"mosquito_risk":3,"arthritis_risk":10,"migraine_risk":7,"frizz_risk":1,"updated_at":"2026-03-24T07:56:37.800567+05:30"},{"city":"Mumbai","state":"Maharashtra","latitude":19.076,"longitude":72.8777,"temp":27.3,"humidity":80,"rain":0.0,"pressure":1009.8,"uv_index":7.95,"wind_gusts":27.0,"aqi":100,"pm10":60.1,"pm2_5":39.0,"mosquito_risk":7,"arthritis_risk":0,"migraine_risk":4,"frizz_risk":1,"updated_at":"2026-03-24T07:56:37.800616+05:30"},{"city":"Bangalore","state":"Karnataka","latitude":12.9716,"longitude":77.5946,"temp":22.4,"humidity":82,"rain":0.0,"pressure":913.6,"uv_index":9.5,"wind_gusts":38.9,"aqi":79,"pm10":42.5,"pm2_5":38.5,"mosquito_risk":3,"arthritis_risk":5,"migraine_risk":7,"frizz_risk":1,"updated_at":"2026-03-24T07:56:37.800630+05:30"},{"city":"Hyderabad","state":"Telangana","latitude":17.385,"longitude":78.4867,"temp":24.6,"humidity":74,"rain":0.0,"pressure":955.4,"uv_index":8.95,"wind_gusts":20.2,"aqi":84,"pm10":29.6,"pm2_5":23.5,"mosquito_risk":3,"arthritis_risk":5,"migraine_risk":7,"frizz_risk":1,"updated_at":"2026-03-24T07:56:37.800639+05:30"},{"city":"Chennai","state":"Tamil Nadu","latitude":13.0827,"longitude":80.2707,"temp":26.6,"humidity":80,"rain":0.0,"pressure":1010.5,"uv_index":9.25,"wind_gusts":33.5,"aqi":35,"pm10":16.6,"pm2_5":11.2,"mosquito_risk":7,"arthritis_risk":0,"migraine_risk":4,"frizz_risk":1,"updated_at":"2026-03-24T07:56:37.800647+05:30"},{"city":"Kolkata","state":"West Bengal","latitude":22.5726,"longitude":88.3639,"temp":24.7,"humidity":89,"rain":0.0,"pressure":1011.0,"uv_index":8.3,"wind_gusts":20.9,"aqi":151,"pm10":77.3,"pm2_5":71.0,"mosquito_risk":3,"arthritis_risk":0,"migraine_risk":4,"frizz_risk":1,"updated_at":"2026-03-24T07:56:37.800654+05:30"},{"city":"Pune","state":"Maharashtra","latitude":18.5204,"longitude":73.8567,"temp":22.9,"humidity":63,"rain":0.0,"pressure":949.7,"uv_index":8.5,"wind_gusts":28.1,"aqi":90,"pm10":74.3,"pm2_5":59.4,"mosquito_risk":3,"arthritis_risk":5,"migraine_risk":7,"frizz_risk":0,"updated_at":"2026-03-24T07:56:37.800663+05:30"},{"city":"Ahmedabad","state":"Gujarat","latitude":23.0225,"longitude":72.5714,"temp":22.9,"humidity":72,"rain":0.0,"pressure":1004.7,"uv_index":7.75,"wind_gusts":15.5,"aqi":76,"pm10":25.1,"pm2_5":22.4,"mosquito_risk":3,"arthritis_risk":5,"migraine_risk":4,"frizz_risk":1,"updated_at":"2026-03-24T07:56:37.800670+05:30"},{"city":"Jaipur","state":"Rajasthan","latitude":26.9124,"longitude":75.7873,"temp":21.0,"humidity":77,"rain":0.0,"pressure":963.7,"uv_index":7.25,"wind_gusts":14.8,"aqi":136,"pm10":138.3,"pm2_5":50.5,"mosquito_risk":3,"arthritis_risk":5,"migraine_risk":7,"frizz_risk":1,"updated_at":"2026-03-24T07:56:37.800676+05:30"},{"city":"Lucknow","state":"Uttar Pradesh","latitude":26.8467,"longitude":80.9462,"temp":20.5,"humidity":76,"rain":0.0,"pressure":998.2,"uv_index":7.1,"wind_gusts":29.2,"aqi":138,"pm10":94.3,"pm2_5":45.9,"mosquito_risk":3,"arthritis_risk":5,"migraine_risk":7,"frizz_risk":1,"updated_at":"2026-03-24T07:56:37.800682+05:30"},{"city":"Kanpur","state":"Uttar Pradesh","latitude":26.4499,"longitude":80.3319,"temp":19.7,"humidity":87,"rain":0.0,"pressure":996.4,"uv_index":7.0,"wind_gusts":26.3,"aqi":152,"pm10":118.3,"pm2_5":49.9,"mosquito_risk":3,"arthritis_risk":10,"migraine_risk":7,"frizz_risk":1,"updated_at":"2026-03-24T07:56:37.800688+05:30"},{"city":"Chandigarh","state":"Chandigarh","latitude":30.7333,"longitude":76.7794,"temp":17.0,"humidity":80,"rain":0.0,"pressure":972.8,"uv_index":6.5,"wind_gusts":34.9,"aqi":107,"pm10":33.8,"pm2_5":31.0,"mosquito_risk":3,"arthritis_risk":5,"migraine_risk":7,"frizz_risk":0,"updated_at":"2026-03-24T07:56:37.800694+05:30"},{"city":"Srinagar","state":"Jammu and Kashmir","latitude":34.0837,"longitude":74.7973,"temp":7.6,"humidity":92,"rain":0.0,"pressure":843.5,"uv_index":7.55,"wind_gusts":15.1,"aqi":73,"pm10":35.9,"pm2_5":32.9,"mosquito_risk":3,"arthritis_risk":10,"migraine_risk":7,"frizz_risk":0,"updated_at":"2026-03-24T07:56:37.800700+05:30"},{"city":"Jammu","state":"Jammu and Kashmir","latitude":32.7266,"longitude":74.857,"temp":16.8,"humidity":78,"rain":0.0,"pressure":976.7,"uv_index":7.2,"wind_gusts":32.4,"aqi":75,"pm10":18.7,"pm2_5":18.0,"mosquito_risk":3,"arthritis_risk":5,"migraine_risk":7,"frizz_risk":0,"updated_at":"2026-03-24T07:56:37.800706+05:30"},{"city":"Amritsar","state":"Punjab","latitude":31.634,"longitude":74.8723,"temp":16.8,"humidity":90,"rain":0.0,"pressure":985.6,"uv_index":7.15,"wind_gusts":27.0,"aqi":126,"pm10":79.2,"pm2_5":70.1,"mosquito_risk":3,"arthritis_risk":10,"migraine_risk":7,"frizz_risk":0,"updated_at":"2026-03-24T07:56:37.800713+05:30"},{"city":"Ludhiana","state":"Punjab","latitude":30.901,"longitude":75.8573,"temp":17.1,"humidity":83,"rain":0.0,"pressure":983.4,"uv_index":6.65,"wind_gusts":31.0,"aqi":155,"pm10":93.8,"pm2_5":83.4,"mosquito_risk":3,"arthritis_risk":10,"migraine_risk":7,"frizz_risk":0,"updated_at":"2026-03-24T07:56:37.800718+05:30"},{"city":"Jalandhar","state":"Punjab","latitude":31.326,"longitude":75.5762,"temp":16.8,"humidity":88,"rain":0.0,"pressure":984.5,"uv_index":6.95,"wind_gusts":30.6,"aqi":147,"pm10":82.9,"pm2_5":74.5,"mosquito_risk":3,"arthritis_risk":10,"migraine_risk":7,"frizz_risk":0,"updated_at":"2026-03-24T07:56:37.800725+05:30"},{"city":"Dehradun","state":"Uttarakhand","latitude":30.6284,"longitude":78.0322,"temp":9.9,"humidity":73,"rain":0.0,"pressure":829.4,"uv_index":6.95,"wind_gusts":34.2,"aqi":51,"pm10":3.7,"pm2_5":3.7,"mosquito_risk":3,"arthritis_risk":5,"migraine_risk":7,"frizz_risk":0,"updated_at":"2026-03-24T07:56:37.800730+05:30"},{"city":"Shimla","state":"Himachal Pradesh","latitude":31.1048,"longitude":77.1734,"temp":8.8,"humidity":80,"rain":0.0,"pressure":783.1,"uv_index":7.0,"wind_gusts":50.4,"aqi":61,"pm10":12.7,"pm2_5":12.0,"mosquito_risk":3,"arthritis_risk":5,"migraine_risk":7,"frizz_risk":0,"updated_at":"2026-03-24T07:56:37.800736+05:30"},{"city":"Manali","state":"Himachal Pradesh","latitude":32.2396,"longitude":77.1887,"temp":11.4,"humidity":38,"rain":0.0,"pressure":818.4,"uv_index":9.15,"wind_gusts":27.7,"aqi":92,"pm10":2.4,"pm2_5":1.6,"mosquito_risk":0,"arthritis_risk":5,"migraine_risk":7,"frizz_risk":1,"updated_at":"2026-03-24T07:56:37.800742+05:30"},{"city":"Gurgaon","state":"Haryana","latitude":28.4595,"longitude":77.0266,"temp":18.7,"humidity":91,"rain":0.0,"pressure":986.1,"uv_index":6.65,"wind_gusts":24.5,"aqi":204,"pm10":267.3,"pm2_5":103.1,"mosquito_risk":3,"arthritis_risk":10,"migraine_risk":7,"frizz_risk":1,"updated_at":"2026-03-24T07:56:37.800760+05:30"},{"city":"Noida","state":"Uttar Pradesh","latitude":28.5355,"longitude":77.391,"temp":19.3,"humidity":90,"rain":0.0,"pressure":989.4,"uv_index":6.55,"wind_gusts":25.2,"aqi":204,"pm10":267.3,"pm2_5":103.1,"mosquito_risk":3,"arthritis_risk":10,"migraine_risk":7,"frizz_risk":1,"updated_at":"2026-03-24T07:56:37.800767+05:30"},{"city":"Ghaziabad","state":"Uttar Pradesh","latitude":28.6692,"longitude":77.4538,"temp":18.3,"humidity":92,"rain":0.0,"pressure":987.6,"uv_index":6.25,"wind_gusts":25.2,"aqi":152,"pm10":217.9,"pm2_5":112.2,"mosquito_risk":3,"arthritis_risk":10,"migraine_risk":7,"frizz_risk":1,"updated_at":"2026-03-24T07:56:37.800773+05:30"},{"city":"Faridabad","state":"Haryana","latitude":28.4089,"longitude":77.3178,"temp":18.3,"humidity":93,"rain":0.0,"pressure":988.6,"uv_index":6.6,"wind_gusts":23.0,"aqi":204,"pm10":267.3,"pm2_5":103.1,"mosquito_risk":3,"arthritis_risk":10,"migraine_risk":7,"frizz_risk":1,"updated_at":"2026-03-24T07:56:37.800779+05:30"},{"city":"Meerut","state":"Uttar Pradesh","latitude":28.9845,"longitude":77.7064,"temp":17.4,"humidity":96,"rain":0.0,"pressure":986.2,"uv_index":6.45,"wind_gusts":27.4,"aqi":152,"pm10":217.9,"pm2_5":112.2,"mosquito_risk":3,"arthritis_risk":10,"migraine_risk":7,"frizz_risk":1,"updated_at":"2026-03-24T07:56:37.800784+05:30"},{"city":"Agra","state":"Uttar Pradesh","latitude":27.1767,"longitude":78.0081,"temp":18.8,"humidity":90,"rain":0.0,"pressure":993.0,"uv_index":6.45,"wind_gusts":23.0,"aqi":158,"pm10":167.6,"pm2_5":69.2,"mosquito_risk":3,"arthritis_risk":10,"migraine_risk":7,"frizz_risk":1,"updated_at":"2026-03-24T07:56:37.800790+05:30"},{"city":"Varanasi","state":"Uttar Pradesh","latitude":25.3176,"longitude":82.9739,"temp":21.6,"humidity":75,"rain":0.0,"pressure":1002.8,"uv_index":7.7,"wind_gusts":24.1,"aqi":136,"pm10":110.4,"pm2_5":65.7,"mosquito_risk":3,"arthritis_risk":5,"migraine_risk":4,"frizz_risk":1,"updated_at":"2026-03-24T07:56:37.800797+05:30"},{"city":"Prayagraj","state":"Uttar Pradesh","latitude":25.4358,"longitude":81.8463,"temp":21.9,"humidity":74,"rain":0.0,"pressure":1001.3,"uv_index":7.6,"wind_gusts":21.2,"aqi":121,"pm10":66.4,"pm2_5":45.3,"mosquito_risk":3,"arthritis_risk":5,"migraine_risk":4,"frizz_risk":1,"updated_at":"2026-03-24T07:56:37.800803+05:30"},{"city":"Gorakhpur","state":"Uttar Pradesh","latitude":26.7606,"longitude":83.3732,"temp":20.1,"humidity":89,"rain":0.0,"pressure":1002.2,"uv_index":7.45,"wind_gusts":31.7,"aqi":153,"pm10":94.3,"pm2_5":73.8,"mosquito_risk":3,"arthritis_risk":5,"migraine_risk":4,"frizz_risk":1,"updated_at":"2026-03-24T07:56:37.800809+05:30"},{"city":"Bareilly","state":"Uttar Pradesh","latitude":28.367,"longitude":79.4304,"temp":18.7,"humidity":94,"rain":0.0,"pressure":991.5,"uv_index":6.8,"wind_gusts":27.0,"aqi":114,"pm10":77.3,"pm2_5":62.6,"mosquito_risk":3,"arthritis_risk":10,"migraine_risk":7,"frizz_risk":1,"updated_at":"2026-03-24T07:56:37.800816+05:30"},{"city":"Aligarh","state":"Uttar Pradesh","latitude":27.8974,"longitude":78.088,"temp":18.4,"humidity":94,"rain":0.0,"pressure":990.5,"uv_index":6.7,"wind_gusts":21.6,"aqi":155,"pm10":167.2,"pm2_5":87.5,"mosquito_risk":3,"arthritis_risk":10,"migraine_risk":7,"frizz_risk":1,"updated_at":"2026-03-24T07:56:37.800822+05:30"},{"city":"Moradabad","state":"Uttar Pradesh","latitude":28.8386,"longitude":78.7733,"temp":17.9,"humidity":93,"rain":0.0,"pressure":988.3,"uv_index":6.6,"wind_gusts":28.4,"aqi":135,"pm10":116.6,"pm2_5":87.3,"mosquito_risk":3,"arthritis_risk":10,"migraine_risk":7,"frizz_risk":1,"updated_at":"2026-03-24T07:56:37.800828+05:30"},{"city":"Saharanpur","state":"Uttar Pradesh","latitude":29.9637,"longitude":77.546,"temp":16.7,"humidity":96,"rain":0.0,"pressure":979.9,"uv_index":6.25,"wind_gusts":36.4,"aqi":157,"pm10":150.9,"pm2_5":147.1,"mosquito_risk":3,"arthritis_risk":10,"migraine_risk":7,"frizz_risk":1,"updated_at":"2026-03-24T07:56:37.800833+05:30"},{"city":"Jhansi","state":"Uttar Pradesh","latitude":25.4484,"longitude":78.5685,"temp":19.7,"humidity":78,"rain":0.0,"pressure":982.5,"uv_index":7.55,"wind_gusts":26.6,"aqi":117,"pm10":222.1,"pm2_5":58.1,"mosquito_risk":3,"arthritis_risk":5,"migraine_risk":7,"frizz_risk":0,"updated_at":"2026-03-24T07:56:41.115096+05:30"},{"city":"Surat","state":"Gujarat","latitude":21.1702,"longitude":72.8311,"temp":24.4,"humidity":66,"rain":0.0,"pressure":1009.0,"uv_index":7.05,"wind_gusts":20.5,"aqi":135,"pm10":70.8,"pm2_5":60.1,"mosquito_risk":3,"arthritis_risk":0,"migraine_risk":4,"frizz_risk":1,"updated_at":"2026-03-24T07:56:41.115129+05:30"},{"city":"Vadodara","state":"Gujarat","latitude":22.3072,"longitude":73.1812,"temp":23.4,"humidity":65,"rain":0.0,"pressure":1006.9,"uv_index":7.7,"wind_gusts":20.9,"aqi":89,"pm10":54.2,"pm2_5":45.3,"mosquito_risk":3,"arthritis_risk":5,"migraine_risk":4,"frizz_risk":1,"updated_at":"2026-03-24T07:56:41.115140+05:30"},{"city":"Rajkot","state":"Gujarat","latitude":22.3039,"longitude":70.8022,"temp":22.5,"humidity":95,"rain":0.0,"pressure":997.1,"uv_index":7.3,"wind_gusts":21.2,"aqi":52,"pm10":9.6,"pm2_5":6.6,"mosquito_risk":3,"arthritis_risk":5,"migraine_risk":7,"frizz_risk":1,"updated_at":"2026-03-24T07:56:41.115149+05:30"},{"city":"Thane","state":"Maharashtra","latitude":19.2183,"longitude":72.9781,"temp":26.1,"humidity":70,"rain":0.0,"pressure":1009.3,"uv_index":7.75,"wind_gusts":41.8,"aqi":100,"pm10":60.1,"pm2_5":39.0,"mosquito_risk":7,"arthritis_risk":0,"migraine_risk":4,"frizz_risk":1,"updated_at":"2026-03-24T07:56:41.115159+05:30"},{"city":"Nagpur","state":"Maharashtra","latitude":21.1458,"longitude":79.0882,"temp":24.1,"humidity":59,"rain":0.0,"pressure":975.9,"uv_index":8.45,"wind_gusts":21.2,"aqi":85,"pm10":57.7,"pm2_5":44.9,"mosquito_risk":0,"arthritis_risk":5,"migraine_risk":7,"frizz_risk":0,"updated_at":"2026-03-24T07:56:41.115168+05:30"},{"city":"Nashik","state":"Maharashtra","latitude":19.9975,"longitude":73.7898,"temp":23.5,"humidity":62,"rain":0.0,"pressure":947.2,"uv_index":8.05,"wind_gusts":31.3,"aqi":67,"pm10":61.7,"pm2_5":33.6,"mosquito_risk":3,"arthritis_risk":5,"migraine_risk":7,"frizz_risk":0,"updated_at":"2026-03-24T07:56:41.115176+05:30"},{"city":"Aurangabad","state":"Maharashtra","latitude":19.8762,"longitude":75.3433,"temp":24.2,"humidity":57,"rain":0.0,"pressure":945.9,"uv_index":8.55,"wind_gusts":23.8,"aqi":57,"pm10":46.9,"pm2_5":25.6,"mosquito_risk":0,"arthritis_risk":5,"migraine_risk":7,"frizz_risk":0,"updated_at":"2026-03-24T07:56:41.115185+05:30"},{"city":"Solapur","state":"Maharashtra","latitude":17.6599,"longitude":75.9064,"temp":23.2,"humidity":66,"rain":0.0,"pressure":958.8,"uv_index":8.8,"wind_gusts":20.9,"aqi":92,"pm10":38.0,"pm2_5":33.9,"mosquito_risk":3,"arthritis_risk":5,"migraine_risk":7,"frizz_risk":1,"updated_at":"2026-03-24T07:56:41.115194+05:30"},{"city":"Kolhapur","state":"Maharashtra","latitude":16.705,"longitude":74.2433,"temp":20.2,"humidity":85,"rain":0.0,"pressure":949.0,"uv_index":8.95,"wind_gusts":43.9,"aqi":107,"pm10":74.5,"pm2_5":67.1,"mosquito_risk":3,"arthritis_risk":5,"migraine_risk":7,"frizz_risk":1,"updated_at":"2026-03-24T07:56:41.115203+05:30"},{"city":"Goa","state":"Goa","latitude":15.2993,"longitude":74.124,"temp":27.5,"humidity":84,"rain":0.0,"pressure":999.5,"uv_index":8.9,"wind_gusts":30.6,"aqi":95,"pm10":58.0,"pm2_5":47.8,"mosquito_risk":7,"arthritis_risk":5,"migraine_risk":7,"frizz_risk":1,"updated_at":"2026-03-24T07:56:41.115211+05:30"},{"city":"Jodhpur","state":"Rajasthan","latitude":26.2389,"longitude":73.0243,"temp":24.2,"humidity":53,"rain":0.0,"pressure":985.8,"uv_index":7.1,"wind_gusts":15.1,"aqi":73,"pm10":52.5,"pm2_5":27.0,"mosquito_risk":0,"arthritis_risk":5,"migraine_risk":7,"frizz_risk":0,"updated_at":"2026-03-24T07:56:41.115218+05:30"},{"city":"Udaipur","state":"Rajasthan","latitude":24.5854,"longitude":73.7125,"temp":19.4,"humidity":69,"rain":0.0,"pressure":948.9,"uv_index":8.1,"wind_gusts":23.8,"aqi":57,"pm10":51.1,"pm2_5":18.2,"mosquito_risk":3,"arthritis_risk":5,"migraine_risk":7,"frizz_risk":0,"updated_at":"2026-03-24T07:56:41.115225+05:30"},{"city":"Kota","state":"Rajasthan","latitude":25.2138,"longitude":75.8648,"temp":20.1,"humidity":85,"rain":0.0,"pressure":982.4,"uv_index":7.65,"wind_gusts":15.1,"aqi":105,"pm10":98.3,"pm2_5":49.5,"mosquito_risk":3,"arthritis_risk":5,"migraine_risk":7,"frizz_risk":1,"updated_at":"2026-03-24T07:56:41.115231+05:30"},{"city":"Bikaner","state":"Rajasthan","latitude":28.0229,"longitude":73.3119,"temp":23.4,"humidity":56,"rain":0.0,"pressure":985.3,"uv_index":7.15,"wind_gusts":19.1,"aqi":65,"pm10":57.0,"pm2_5":21.6,"mosquito_risk":0,"arthritis_risk":5,"migraine_risk":7,"frizz_risk":0,"updated_at":"2026-03-24T07:56:41.115238+05:30"},{"city":"Ajmer","state":"Rajasthan","latitude":26.4499,"longitude":74.6399,"temp":22.1,"humidity":70,"rain":0.0,"pressure":957.7,"uv_index":7.6,"wind_gusts":23.8,"aqi":95,"pm10":155.5,"pm2_5":49.8,"mosquito_risk":3,"arthritis_risk":5,"migraine_risk":7,"frizz_risk":1,"updated_at":"2026-03-24T07:56:41.115245+05:30"},{"city":"Gwalior","state":"Madhya Pradesh","latitude":26.2183,"longitude":78.1828,"temp":20.6,"humidity":83,"rain":0.0,"pressure":987.9,"uv_index":7.2,"wind_gusts":27.0,"aqi":122,"pm10":196.0,"pm2_5":52.9,"mosquito_risk":3,"arthritis_risk":5,"migraine_risk":7,"frizz_risk":1,"updated_at":"2026-03-24T07:56:41.115251+05:30"},{"city":"Indore","state":"Madhya Pradesh","latitude":22.7196,"longitude":75.8577,"temp":21.3,"humidity":64,"rain":0.0,"pressure":950.0,"uv_index":8.1,"wind_gusts":24.8,"aqi":60,"pm10":30.2,"pm2_5":23.0,"mosquito_risk":3,"arthritis_risk":5,"migraine_risk":7,"frizz_risk":0,"updated_at":"2026-03-24T07:56:41.115257+05:30"},{"city":"Bhopal","state":"Madhya Pradesh","latitude":23.2599,"longitude":77.4126,"temp":22.4,"humidity":62,"rain":0.0,"pressure":956.4,"uv_index":8.05,"wind_gusts":30.6,"aqi":65,"pm10":65.9,"pm2_5":36.7,"mosquito_risk":3,"arthritis_risk":5,"migraine_risk":7,"frizz_risk":0,"updated_at":"2026-03-24T07:56:41.115264+05:30"},{"city":"Jabalpur","state":"Madhya Pradesh","latitude":23.1815,"longitude":79.9864,"temp":22.6,"humidity":62,"rain":0.0,"pressure":964.5,"uv_index":8.15,"wind_gusts":25.9,"aqi":73,"pm10":45.9,"pm2_5":34.5,"mosquito_risk":3,"arthritis_risk":5,"migraine_risk":7,"frizz_risk":0,"updated_at":"2026-03-24T07:56:41.115270+05:30"},{"city":"Ujjain","state":"Madhya Pradesh","latitude":23.1765,"longitude":75.7885,"temp":21.1,"humidity":66,"rain":0.0,"pressure":956.0,"uv_index":8.0,"wind_gusts":16.2,"aqi":62,"pm10":36.9,"pm2_5":29.2,"mosquito_risk":3,"arthritis_risk":5,"migraine_risk":7,"frizz_risk":0,"updated_at":"2026-03-24T07:56:41.115278+05:30"},{"city":"Visakhapatnam","state":"Andhra Pradesh","latitude":17.6868,"longitude":83.2185,"temp":25.8,"humidity":86,"rain":0.0,"pressure":1007.7,"uv_index":8.95,"wind_gusts":36.7,"aqi":90,"pm10":55.4,"pm2_5":51.2,"mosquito_risk":7,"arthritis_risk":5,"migraine_risk":4,"frizz_risk":1,"updated_at":"2026-03-24T07:56:41.115284+05:30"},{"city":"Vijayawada","state":"Andhra Pradesh","latitude":16.5062,"longitude":80.648,"temp":25.6,"humidity":86,"rain":0.0,"pressure":1006.3,"uv_index":9.0,"wind_gusts":23.8,"aqi":63,"pm10":32.5,"pm2_5":27.6,"mosquito_risk":7,"arthritis_risk":5,"migraine_risk":4,"frizz_risk":1,"updated_at":"2026-03-24T07:56:41.115291+05:30"},{"city":"Guntur","state":"Andhra Pradesh","latitude":16.3067,"longitude":80.4365,"temp":25.6,"humidity":88,"rain":0.0,"pressure":1007.3,"uv_index":9.0,"wind_gusts":29.2,"aqi":61,"pm10":24.7,"pm2_5":19.3,"mosquito_risk":7,"arthritis_risk":5,"migraine_risk":4,"frizz_risk":1,"updated_at":"2026-03-24T07:56:41.115297+05:30"},{"city":"Nellore","state":"Andhra Pradesh","latitude":14.4426,"longitude":79.9865,"temp":26.2,"humidity":81,"rain":0.0,"pressure":1009.2,"uv_index":9.15,"wind_gusts":31.0,"aqi":42,"pm10":14.3,"pm2_5":9.2,"mosquito_risk":7,"arthritis_risk":0,"migraine_risk":4,"frizz_risk":1,"updated_at":"2026-03-24T07:56:41.115304+05:30"},{"city":"Kurnool","state":"Andhra Pradesh","latitude":15.8281,"longitude":78.0373,"temp":26.8,"humidity":68,"rain":0.0,"pressure":979.5,"uv_index":9.0,"wind_gusts":22.3,"aqi":62,"pm10":12.6,"pm2_5":9.1,"mosquito_risk":7,"arthritis_risk":5,"migraine_risk":7,"frizz_risk":1,"updated_at":"2026-03-24T07:56:41.115312+05:30"},{"city":"Kakinada","state":"Andhra Pradesh","latitude":16.9891,"longitude":82.2475,"temp":26.1,"humidity":85,"rain":0.0,"pressure":1011.5,"uv_index":8.95,"wind_gusts":28.8,"aqi":51,"pm10":25.4,"pm2_5":18.5,"mosquito_risk":7,"arthritis_risk":0,"migraine_risk":4,"frizz_risk":1,"updated_at":"2026-03-24T07:56:41.115318+05:30"},{"city":"Tirupati","state":"Andhra Pradesh","latitude":13.6288,"longitude":79.4192,"temp":24.3,"humidity":84,"rain":0.0,"pressure":995.1,"uv_index":9.25,"wind_gusts":27.7,"aqi":63,"pm10":24.7,"pm2_5":21.5,"mosquito_risk":3,"arthritis_risk":5,"migraine_risk":7,"frizz_risk":1,"updated_at":"2026-03-24T07:56:41.115324+05:30"},{"city":"Warangal","state":"Telangana","latitude":17.9689,"longitude":79.5941,"temp":24.1,"humidity":86,"rain":0.0,"pressure":981.7,"uv_index":8.8,"wind_gusts":27.7,"aqi":99,"pm10":20.6,"pm2_5":18.2,"mosquito_risk":3,"arthritis_risk":5,"migraine_risk":7,"frizz_risk":1,"updated_at":"2026-03-24T07:56:41.115331+05:30"},{"city":"Nizamabad","state":"Telangana","latitude":18.6725,"longitude":78.0941,"temp":26.0,"humidity":66,"rain":0.0,"pressure":967.0,"uv_index":8.75,"wind_gusts":30.6,"aqi":100,"pm10":40.2,"pm2_5":36.7,"mosquito_risk":7,"arthritis_risk":5,"migraine_risk":7,"frizz_risk":1,"updated_at":"2026-03-24T07:56:41.115337+05:30"},{"city":"Mysore","state":"Karnataka","latitude":12.2958,"longitude":76.6396,"temp":22.4,"humidity":85,"rain":0.0,"pressure":930.5,"uv_index":9.45,"wind_gusts":45.7,"aqi":94,"pm10":63.1,"pm2_5":57.4,"mosquito_risk":3,"arthritis_risk":5,"migraine_risk":7,"frizz_risk":1,"updated_at":"2026-03-24T07:56:41.115343+05:30"},{"city":"Mangalore","state":"Karnataka","latitude":12.9141,"longitude":74.856,"temp":28.2,"humidity":79,"rain":0.0,"pressure":1008.9,"uv_index":9.1,"wind_gusts":22.0,"aqi":76,"pm10":44.2,"pm2_5":37.1,"mosquito_risk":7,"arthritis_risk":0,"migraine_risk":4,"frizz_risk":1,"updated_at":"2026-03-24T07:56:41.115350+05:30"},{"city":"Hubli-Dharwad","state":"Karnataka","latitude":15.3647,"longitude":75.124,"temp":22.8,"humidity":89,"rain":0.0,"pressure":942.4,"uv_index":9.0,"wind_gusts":43.2,"aqi":96,"pm10":39.8,"pm2_5":33.9,"mosquito_risk":3,"arthritis_risk":5,"migraine_risk":7,"frizz_risk":1,"updated_at":"2026-03-24T07:56:41.115357+05:30"},{"city":"Belgaum","state":"Karnataka","latitude":15.8497,"longitude":74.4977,"temp":22.0,"humidity":90,"rain":0.0,"pressure":926.8,"uv_index":9.05,"wind_gusts":42.5,"aqi":93,"pm10":59.3,"pm2_5":48.4,"mosquito_risk":3,"arthritis_risk":5,"migraine_risk":7,"frizz_risk":1,"updated_at":"2026-03-24T07:56:44.432277+05:30"},{"city":"Coimbatore","state":"Tamil Nadu","latitude":11.0168,"longitude":76.9558,"temp":24.0,"humidity":86,"rain":0.0,"pressure":964.6,"uv_index":9.4,"wind_gusts":31.7,"aqi":68,"pm10":23.9,"pm2_5":22.4,"mosquito_risk":3,"arthritis_risk":5,"migraine_risk":7,"frizz_risk":1,"updated_at":"2026-03-24T07:56:44.432310+05:30"},{"city":"Madurai","state":"Tamil Nadu","latitude":9.9252,"longitude":78.1198,"temp":25.6,"humidity":79,"rain":0.0,"pressure":996.3,"uv_index":9.35,"wind_gusts":27.7,"aqi":56,"pm10":40.3,"pm2_5":39.2,"mosquito_risk":7,"arthritis_risk":5,"migraine_risk":7,"frizz_risk":1,"updated_at":"2026-03-24T07:56:44.432321+05:30"},{"city":"Trichy","state":"Tamil Nadu","latitude":10.7905,"longitude":78.7047,"temp":24.9,"humidity":89,"rain":0.0,"pressure":1003.2,"uv_index":9.3,"wind_gusts":23.0,"aqi":55,"pm10":21.4,"pm2_5":19.0,"mosquito_risk":3,"arthritis_risk":5,"migraine_risk":4,"frizz_risk":1,"updated_at":"2026-03-24T07:56:44.432331+05:30"},{"city":"Salem","state":"Tamil Nadu","latitude":11.6643,"longitude":78.146,"temp":24.3,"humidity":88,"rain":0.0,"pressure":980.5,"uv_index":9.35,"wind_gusts":24.5,"aqi":74,"pm10":39.8,"pm2_5":37.6,"mosquito_risk":3,"arthritis_risk":5,"migraine_risk":7,"frizz_risk":1,"updated_at":"2026-03-24T07:56:44.432340+05:30"},{"city":"Tirunelveli","state":"Tamil Nadu","latitude":8.7139,"longitude":77.7567,"temp":26.2,"humidity":78,"rain":0.0,"pressure":1006.2,"uv_index":9.35,"wind_gusts":38.5,"aqi":55,"pm10":19.6,"pm2_5":17.7,"mosquito_risk":7,"arthritis_risk":5,"migraine_risk":4,"frizz_risk":1,"updated_at":"2026-03-24T07:56:44.432349+05:30"},{"city":"Vellore","state":"Tamil Nadu","latitude":12.9165,"longitude":79.1325,"temp":23.5,"humidity":86,"rain":0.0,"pressure":988.0,"uv_index":9.3,"wind_gusts":32.8,"aqi":71,"pm10":21.9,"pm2_5":18.0,"mosquito_risk":3,"arthritis_risk":5,"migraine_risk":7,"frizz_risk":1,"updated_at":"2026-03-24T07:56:44.432357+05:30"},{"city":"Erode","state":"Tamil Nadu","latitude":11.341,"longitude":77.7172,"temp":24.9,"humidity":86,"rain":0.0,"pressure":992.5,"uv_index":9.35,"wind_gusts":19.8,"aqi":56,"pm10":19.2,"pm2_5":17.2,"mosquito_risk":3,"arthritis_risk":5,"migraine_risk":7,"frizz_risk":1,"updated_at":"2026-03-24T07:56:44.432366+05:30"},{"city":"Kochi","state":"Kerala","latitude":9.9312,"longitude":76.2673,"temp":27.4,"humidity":83,"rain":0.0,"pressure":1010.9,"uv_index":9.15,"wind_gusts":35.6,"aqi":87,"pm10":47.0,"pm2_5":39.8,"mosquito_risk":7,"arthritis_risk":0,"migraine_risk":4,"frizz_risk":1,"updated_at":"2026-03-24T07:56:44.432374+05:30"},{"city":"Thiruvananthapuram","state":"Kerala","latitude":8.5241,"longitude":76.9366,"temp":27.6,"humidity":83,"rain":0.0,"pressure":1009.9,"uv_index":9.2,"wind_gusts":32.0,"aqi":62,"pm10":27.9,"pm2_5":19.8,"mosquito_risk":7,"arthritis_risk":0,"migraine_risk":4,"frizz_risk":1,"updated_at":"2026-03-24T07:56:44.432382+05:30"},{"city":"Kozhikode","state":"Kerala","latitude":11.2588,"longitude":75.7804,"temp":27.2,"humidity":85,"rain":0.0,"pressure":1010.2,"uv_index":9.1,"wind_gusts":28.4,"aqi":70,"pm10":41.3,"pm2_5":29.4,"mosquito_risk":7,"arthritis_risk":0,"migraine_risk":4,"frizz_risk":1,"updated_at":"2026-03-24T07:56:44.432391+05:30"},{"city":"Thrissur","state":"Kerala","latitude":10.5276,"longitude":76.2144,"temp":26.3,"humidity":81,"rain":0.0,"pressure":1009.5,"uv_index":9.15,"wind_gusts":39.6,"aqi":86,"pm10":53.4,"pm2_5":43.9,"mosquito_risk":7,"arthritis_risk":0,"migraine_risk":4,"frizz_risk":1,"updated_at":"2026-03-24T07:56:44.432400+05:30"},{"city":"Kannur","state":"Kerala","latitude":11.8745,"longitude":75.3704,"temp":28.0,"humidity":79,"rain":0.0,"pressure":1009.3,"uv_index":9.1,"wind_gusts":28.4,"aqi":69,"pm10":35.4,"pm2_5":30.6,"mosquito_risk":7,"arthritis_risk":0,"migraine_risk":4,"frizz_risk":1,"updated_at":"2026-03-24T07:56:44.432408+05:30"},{"city":"Patna","state":"Bihar","latitude":25.5941,"longitude":85.1376,"temp":22.6,"humidity":78,"rain":0.0,"pressure":1005.1,"uv_index":7.9,"wind_gusts":35.3,"aqi":154,"pm10":120.1,"pm2_5":95.9,"mosquito_risk":3,"arthritis_risk":5,"migraine_risk":4,"frizz_risk":1,"updated_at":"2026-03-24T07:56:44.432416+05:30"},{"city":"Gaya","state":"Bihar","latitude":24.7914,"longitude":85.0002,"temp":22.5,"humidity":74,"rain":0.0,"pressure":998.8,"uv_index":7.95,"wind_gusts":20.9,"aqi":107,"pm10":86.8,"pm2_5":43.5,"mosquito_risk":3,"arthritis_risk":5,"migraine_risk":7,"frizz_risk":1,"updated_at":"2026-03-24T07:56:44.432422+05:30"},{"city":"Muzaffarpur","state":"Bihar","latitude":26.1209,"longitude":85.3647,"temp":22.0,"humidity":80,"rain":0.0,"pressure":1005.3,"uv_index":7.85,"wind_gusts":30.6,"aqi":156,"pm10":113.4,"pm2_5":102.2,"mosquito_risk":3,"arthritis_risk":5,"migraine_risk":4,"frizz_risk":1,"updated_at":"2026-03-24T07:56:44.432428+05:30"},{"city":"Bhagalpur","state":"Bihar","latitude":25.2425,"longitude":87.0117,"temp":23.1,"humidity":74,"rain":0.0,"pressure":1005.7,"uv_index":7.85,"wind_gusts":28.4,"aqi":135,"pm10":68.2,"pm2_5":65.2,"mosquito_risk":3,"arthritis_risk":5,"migraine_risk":4,"frizz_risk":1,"updated_at":"2026-03-24T07:56:44.432435+05:30"},{"city":"Ranchi","state":"Jharkhand","latitude":23.3441,"longitude":85.3096,"temp":21.6,"humidity":62,"rain":0.0,"pressure":941.2,"uv_index":8.3,"wind_gusts":32.0,"aqi":66,"pm10":65.7,"pm2_5":34.2,"mosquito_risk":3,"arthritis_risk":5,"migraine_risk":7,"frizz_risk":0,"updated_at":"2026-03-24T07:56:44.432442+05:30"},{"city":"Jamshedpur","state":"Jharkhand","latitude":22.8046,"longitude":86.2029,"temp":24.2,"humidity":75,"rain":0.0,"pressure":995.3,"uv_index":8.45,"wind_gusts":27.0,"aqi":130,"pm10":73.1,"pm2_5":66.4,"mosquito_risk":3,"arthritis_risk":5,"migraine_risk":7,"frizz_risk":1,"updated_at":"2026-03-24T07:56:44.432448+05:30"},{"city":"Dhanbad","state":"Jharkhand","latitude":23.7957,"longitude":86.4304,"temp":22.7,"humidity":68,"rain":0.0,"pressure":983.9,"uv_index":8.35,"wind_gusts":28.8,"aqi":161,"pm10":115.0,"pm2_5":107.8,"mosquito_risk":3,"arthritis_risk":5,"migraine_risk":7,"frizz_risk":1,"updated_at":"2026-03-24T07:56:44.432455+05:30"},{"city":"Bokaro","state":"Jharkhand","latitude":23.6693,"longitude":86.1511,"temp":22.8,"humidity":73,"rain":0.0,"pressure":988.1,"uv_index":8.35,"wind_gusts":24.5,"aqi":153,"pm10":91.5,"pm2_5":75.7,"mosquito_risk":3,"arthritis_risk":5,"migraine_risk":7,"frizz_risk":1,"updated_at":"2026-03-24T07:56:44.432462+05:30"},{"city":"Bhubaneswar","state":"Odisha","latitude":20.2961,"longitude":85.8245,"temp":26.2,"humidity":84,"rain":0.0,"pressure":1006.9,"uv_index":8.75,"wind_gusts":31.3,"aqi":100,"pm10":31.8,"pm2_5":24.4,"mosquito_risk":7,"arthritis_risk":5,"migraine_risk":4,"frizz_risk":1,"updated_at":"2026-03-24T07:56:44.432468+05:30"},{"city":"Cuttack","state":"Odisha","latitude":20.4625,"longitude":85.8828,"temp":26.2,"humidity":85,"rain":0.0,"pressure":1009.0,"uv_index":8.75,"wind_gusts":26.6,"aqi":100,"pm10":31.8,"pm2_5":24.4,"mosquito_risk":7,"arthritis_risk":0,"migraine_risk":4,"frizz_risk":1,"updated_at":"2026-03-24T07:56:44.432475+05:30"},{"city":"Rourkela","state":"Odisha","latitude":22.2604,"longitude":84.8536,"temp":23.1,"humidity":72,"rain":0.0,"pressure":989.2,"uv_index":8.0,"wind_gusts":21.2,"aqi":88,"pm10":47.0,"pm2_5":35.5,"mosquito_risk":3,"arthritis_risk":5,"migraine_risk":7,"frizz_risk":1,"updated_at":"2026-03-24T07:56:44.432481+05:30"},{"city":"Raipur","state":"Chhattisgarh","latitude":21.2514,"longitude":81.6296,"temp":23.9,"humidity":55,"rain":0.0,"pressure":977.8,"uv_index":8.5,"wind_gusts":20.5,"aqi":107,"pm10":70.8,"pm2_5":62.4,"mosquito_risk":0,"arthritis_risk":5,"migraine_risk":7,"frizz_risk":0,"updated_at":"2026-03-24T07:56:44.432488+05:30"},{"city":"Bhilai","state":"Chhattisgarh","latitude":21.1938,"longitude":81.3509,"temp":23.8,"humidity":62,"rain":0.0,"pressure":978.0,"uv_index":8.5,"wind_gusts":17.6,"aqi":117,"pm10":75.2,"pm2_5":67.3,"mosquito_risk":3,"arthritis_risk":5,"migraine_risk":7,"frizz_risk":1,"updated_at":"2026-03-24T07:56:44.432494+05:30"},{"city":"Guwahati","state":"Assam","latitude":26.1158,"longitude":91.7086,"temp":22.5,"humidity":76,"rain":0.0,"pressure":1006.3,"uv_index":7.75,"wind_gusts":29.2,"aqi":91,"pm10":35.6,"pm2_5":33.2,"mosquito_risk":3,"arthritis_risk":5,"migraine_risk":4,"frizz_risk":1,"updated_at":"2026-03-24T07:56:44.432500+05:30"},{"city":"Agartala","state":"Tripura","latitude":23.8315,"longitude":91.2868,"temp":23.6,"humidity":77,"rain":0.0,"pressure":1010.7,"uv_index":8.05,"wind_gusts":15.5,"aqi":157,"pm10":62.4,"pm2_5":60.1,"mosquito_risk":3,"arthritis_risk":0,"migraine_risk":4,"frizz_risk":1,"updated_at":"2026-03-24T07:56:44.432507+05:30"},{"city":"Shillong","state":"Meghalaya","latitude":25.5788,"longitude":91.8933,"temp":12.7,"humidity":70,"rain":0.0,"pressure":857.2,"uv_index":6.05,"wind_gusts":40.3,"aqi":77,"pm10":28.9,"pm2_5":27.1,"mosquito_risk":3,"arthritis_risk":5,"migraine_risk":7,"frizz_risk":0,"updated_at":"2026-03-24T07:56:44.432514+05:30"},{"city":"Imphal","state":"Manipur","latitude":24.817,"longitude":93.9368,"temp":17.3,"humidity":75,"rain":0.0,"pressure":926.3,"uv_index":8.2,"wind_gusts":43.2,"aqi":85,"pm10":33.4,"pm2_5":29.7,"mosquito_risk":3,"arthritis_risk":5,"migraine_risk":7,"frizz_risk":0,"updated_at":"2026-03-24T07:56:44.432520+05:30"},{"city":"Aizawl","state":"Mizoram","latitude":23.7271,"longitude":92.7176,"temp":18.3,"humidity":67,"rain":0.0,"pressure":895.7,"uv_index":8.35,"wind_gusts":31.7,"aqi":92,"pm10":38.1,"pm2_5":33.5,"mosquito_risk":3,"arthritis_risk":5,"migraine_risk":7,"frizz_risk":0,"updated_at":"2026-03-24T07:56:44.432526+05:30"},{"city":"Kohima","state":"Nagaland","latitude":25.6701,"longitude":94.1077,"temp":14.5,"humidity":67,"rain":0.0,"pressure":856.7,"uv_index":7.9,"wind_gusts":55.4,"aqi":70,"pm10":18.4,"pm2_5":16.1,"mosquito_risk":3,"arthritis_risk":5,"migraine_risk":7,"frizz_risk":0,"updated_at":"2026-03-24T07:56:44.432533+05:30"},{"city":"Gangtok","state":"Sikkim","latitude":27.3314,"longitude":88.6138,"temp":11.5,"humidity":92,"rain":0.0,"pressure":837.5,"uv_index":2.3,"wind_gusts":18.0,"aqi":78,"pm10":21.6,"pm2_5":19.4,"mosquito_risk":3,"arthritis_risk":10,"migraine_risk":3,"frizz_risk":0,"updated_at":"2026-03-24T07:56:44.432540+05:30"},{"city":"Siliguri","state":"West Bengal","latitude":26.7271,"longitude":88.3953,"temp":17.7,"humidity":85,"rain":0.0,"pressure":998.7,"uv_index":6.4,"wind_gusts":37.8,"aqi":101,"pm10":58.0,"pm2_5":50.4,"mosquito_risk":3,"arthritis_risk":10,"migraine_risk":7,"frizz_risk":0,"updated_at":"2026-03-24T07:56:47.761685+05:30"},{"city":"Durgapur","state":"West Bengal","latitude":23.5204,"longitude":87.3119,"temp":23.4,"humidity":87,"rain":0.0,"pressure":999.7,"uv_index":8.0,"wind_gusts":21.2,"aqi":157,"pm10":96.6,"pm2_5":91.3,"mosquito_risk":3,"arthritis_risk":5,"migraine_risk":7,"frizz_risk":1,"updated_at":"2026-03-24T07:56:47.761718+05:30"},{"city":"Asansol","state":"West Bengal","latitude":23.6739,"longitude":86.9524,"temp":23.8,"humidity":78,"rain":0.0,"pressure":998.0,"uv_index":8.0,"wind_gusts":23.4,"aqi":152,"pm10":92.4,"pm2_5":87.3,"mosquito_risk":3,"arthritis_risk":5,"migraine_risk":7,"frizz_risk":1,"updated_at":"2026-03-24T07:56:47.761729+05:30"},{"city":"Pondicherry","state":"Puducherry","latitude":11.9139,"longitude":79.8145,"temp":25.8,"humidity":89,"rain":0.0,"pressure":1011.8,"uv_index":9.2,"wind_gusts":30.2,"aqi":29,"pm10":13.0,"pm2_5":9.7,"mosquito_risk":7,"arthritis_risk":0,"migraine_risk":4,"frizz_risk":1,"updated_at":"2026-03-24T07:56:47.761739+05:30"},{"city":"Port Blair","state":"Andaman and Nicobar Islands","latitude":11.6234,"longitude":92.7265,"temp":27.3,"humidity":78,"rain":0.0,"pressure":1009.3,"uv_index":9.15,"wind_gusts":25.6,"aqi":45,"pm10":17.1,"pm2_5":10.6,"mosquito_risk":7,"arthritis_risk":0,"migraine_risk":4,"frizz_risk":1,"updated_at":"2026-03-24T07:56:47.761793+05:30"},{"city":"Haridwar","state":"Uttarakhand","latitude":29.9457,"longitude":78.1642,"temp":18.0,"humidity":85,"rain":0.0,"pressure":978.3,"uv_index":6.4,"wind_gusts":32.0,"aqi":114,"pm10":37.5,"pm2_5":36.7,"mosquito_risk":3,"arthritis_risk":10,"migraine_risk":7,"frizz_risk":0,"updated_at":"2026-03-24T07:56:47.761806+05:30"},{"city":"Rishikesh","state":"Uttarakhand","latitude":30.0869,"longitude":78.2676,"temp":18.5,"humidity":76,"rain":0.0,"pressure":970.8,"uv_index":6.45,"wind_gusts":30.6,"aqi":87,"pm10":30.3,"pm2_5":29.9,"mosquito_risk":3,"arthritis_risk":5,"migraine_risk":7,"frizz_risk":0,"updated_at":"2026-03-24T07:56:47.761815+05:30"},{"city":"Nainital","state":"Uttarakhand","latitude":29.3919,"longitude":79.4542,"temp":14.1,"humidity":74,"rain":0.0,"pressure":806.2,"uv_index":7.3,"wind_gusts":49.0,"aqi":94,"pm10":48.7,"pm2_5":43.4,"mosquito_risk":3,"arthritis_risk":5,"migraine_risk":7,"frizz_risk":0,"updated_at":"2026-03-24T07:56:47.761823+05:30"},{"city":"Mussoorie","state":"Uttarakhand","latitude":30.4599,"longitude":78.0664,"temp":12.1,"humidity":73,"rain":0.0,"pressure":802.3,"uv_index":6.8,"wind_gusts":45.0,"aqi":82,"pm10":16.9,"pm2_5":16.1,"mosquito_risk":3,"arthritis_risk":5,"migraine_risk":7,"frizz_risk":0,"updated_at":"2026-03-24T07:56:47.761832+05:30"},{"city":"Dharamshala","state":"Himachal Pradesh","latitude":32.219,"longitude":76.3234,"temp":15.8,"humidity":51,"rain":0.0,"pressure":869.8,"uv_index":7.05,"wind_gusts":28.4,"aqi":62,"pm10":6.1,"pm2_5":3.5,"mosquito_risk":0,"arthritis_risk":5,"migraine_risk":7,"frizz_risk":0,"updated_at":"2026-03-24T07:56:47.761842+05:30"},{"city":"Dalhousie","state":"Himachal Pradesh","latitude":32.5387,"longitude":75.971,"temp":11.8,"humidity":53,"rain":0.0,"pressure":803.0,"uv_index":7.35,"wind_gusts":25.2,"aqi":75,"pm10":10.9,"pm2_5":8.9,"mosquito_risk":0,"arthritis_risk":5,"migraine_risk":7,"frizz_risk":0,"updated_at":"2026-03-24T07:56:47.761851+05:30"},{"city":"Patiala","state":"Punjab","latitude":30.3398,"longitude":76.3869,"temp":16.8,"humidity":93,"rain":0.0,"pressure":982.7,"uv_index":6.4,"wind_gusts":33.1,"aqi":155,"pm10":127.1,"pm2_5":105.9,"mosquito_risk":3,"arthritis_risk":10,"migraine_risk":7,"frizz_risk":0,"updated_at":"2026-03-24T07:56:47.761860+05:30"},{"city":"Bhatinda","state":"Punjab","latitude":30.211,"longitude":74.9455,"temp":18.9,"humidity":86,"rain":0.0,"pressure":988.4,"uv_index":6.7,"wind_gusts":26.3,"aqi":136,"pm10":129.0,"pm2_5":61.7,"mosquito_risk":3,"arthritis_risk":10,"migraine_risk":7,"frizz_risk":1,"updated_at":"2026-03-24T07:56:47.761869+05:30"},{"city":"Rohtak","state":"Haryana","latitude":28.8955,"longitude":76.6066,"temp":18.7,"humidity":93,"rain":0.0,"pressure":986.4,"uv_index":6.05,"wind_gusts":25.2,"aqi":154,"pm10":232.8,"pm2_5":99.2,"mosquito_risk":3,"arthritis_risk":10,"migraine_risk":7,"frizz_risk":1,"updated_at":"2026-03-24T07:56:47.761877+05:30"},{"city":"Panipat","state":"Haryana","latitude":29.3909,"longitude":76.9635,"temp":17.2,"humidity":97,"rain":0.0,"pressure":985.0,"uv_index":6.35,"wind_gusts":27.4,"aqi":151,"pm10":175.6,"pm2_5":82.4,"mosquito_risk":3,"arthritis_risk":10,"migraine_risk":7,"frizz_risk":1,"updated_at":"2026-03-24T07:56:47.761886+05:30"},{"city":"Mathura","state":"Uttar Pradesh","latitude":27.4924,"longitude":77.6737,"temp":18.2,"humidity":95,"rain":0.0,"pressure":991.9,"uv_index":6.6,"wind_gusts":21.2,"aqi":152,"pm10":148.1,"pm2_5":67.5,"mosquito_risk":3,"arthritis_risk":10,"migraine_risk":7,"frizz_risk":1,"updated_at":"2026-03-24T07:56:47.761894+05:30"},{"city":"Vrindavan","state":"Uttar Pradesh","latitude":27.5823,"longitude":77.7027,"temp":18.0,"humidity":97,"rain":0.0,"pressure":992.4,"uv_index":6.6,"wind_gusts":21.6,"aqi":152,"pm10":148.1,"pm2_5":67.5,"mosquito_risk":3,"arthritis_risk":10,"migraine_risk":7,"frizz_risk":1,"updated_at":"2026-03-24T07:56:47.761902+05:30"},{"city":"Ayodhya","state":"Uttar Pradesh","latitude":26.7922,"longitude":82.1998,"temp":20.8,"humidity":76,"rain":0.0,"pressure":1000.1,"uv_index":7.25,"wind_gusts":33.5,"aqi":141,"pm10":60.8,"pm2_5":40.0,"mosquito_risk":3,"arthritis_risk":5,"migraine_risk":4,"frizz_risk":1,"updated_at":"2026-03-24T07:56:47.761910+05:30"},{"city":"Ratlam","state":"Madhya Pradesh","latitude":23.3315,"longitude":75.0367,"temp":20.4,"humidity":75,"rain":0.0,"pressure":956.5,"uv_index":8.0,"wind_gusts":18.7,"aqi":55,"pm10":29.7,"pm2_5":22.9,"mosquito_risk":3,"arthritis_risk":5,"migraine_risk":7,"frizz_risk":0,"updated_at":"2026-03-24T07:56:47.761918+05:30"},{"city":"Sagar","state":"Madhya Pradesh","latitude":23.8388,"longitude":78.7378,"temp":22.7,"humidity":62,"rain":0.0,"pressure":953.2,"uv_index":8.0,"wind_gusts":28.1,"aqi":66,"pm10":60.1,"pm2_5":31.2,"mosquito_risk":3,"arthritis_risk":5,"migraine_risk":7,"frizz_risk":0,"updated_at":"2026-03-24T07:56:47.761926+05:30"},{"city":"Satna","state":"Madhya Pradesh","latitude":24.6005,"longitude":80.8322,"temp":21.8,"humidity":71,"rain":0.0,"pressure":975.4,"uv_index":7.65,"wind_gusts":26.3,"aqi":76,"pm10":82.4,"pm2_5":43.2,"mosquito_risk":3,"arthritis_risk":5,"migraine_risk":7,"frizz_risk":1,"updated_at":"2026-03-24T07:56:47.761934+05:30"},{"city":"Akola","state":"Maharashtra","latitude":20.7002,"longitude":77.0082,"temp":23.7,"humidity":67,"rain":0.0,"pressure":977.3,"uv_index":8.4,"wind_gusts":21.6,"aqi":76,"pm10":27.5,"pm2_5":22.7,"mosquito_risk":3,"arthritis_risk":5,"migraine_risk":7,"frizz_risk":1,"updated_at":"2026-03-24T07:56:47.761943+05:30"},{"city":"Amravati","state":"Maharashtra","latitude":20.9374,"longitude":77.7796,"temp":23.8,"humidity":64,"rain":0.0,"pressure":969.4,"uv_index":8.4,"wind_gusts":23.8,"aqi":83,"pm10":40.4,"pm2_5":37.4,"mosquito_risk":3,"arthritis_risk":5,"migraine_risk":7,"frizz_risk":1,"updated_at":"2026-03-24T07:56:47.761950+05:30"},{"city":"Latur","state":"Maharashtra","latitude":18.4088,"longitude":76.5604,"temp":23.2,"humidity":59,"rain":0.0,"pressure":941.6,"uv_index":8.75,"wind_gusts":19.4,"aqi":95,"pm10":55.4,"pm2_5":42.8,"mosquito_risk":0,"arthritis_risk":5,"migraine_risk":7,"frizz_risk":0,"updated_at":"2026-03-24T07:56:47.761957+05:30"},{"city":"Nanded","state":"Maharashtra","latitude":19.1383,"longitude":77.3091,"temp":25.0,"humidity":63,"rain":0.0,"pressure":970.8,"uv_index":8.6,"wind_gusts":20.9,"aqi":104,"pm10":45.4,"pm2_5":39.8,"mosquito_risk":7,"arthritis_risk":5,"migraine_risk":7,"frizz_risk":1,"updated_at":"2026-03-24T07:56:47.761964+05:30"},{"city":"Gulbarga","state":"Karnataka","latitude":17.3297,"longitude":76.8343,"temp":26.1,"humidity":60,"rain":0.0,"pressure":960.9,"uv_index":8.85,"wind_gusts":37.4,"aqi":86,"pm10":24.5,"pm2_5":21.7,"mosquito_risk":4,"arthritis_risk":5,"migraine_risk":7,"frizz_risk":1,"updated_at":"2026-03-24T07:56:47.761970+05:30"},{"city":"Bidar","state":"Karnataka","latitude":17.9104,"longitude":77.5199,"temp":25.7,"humidity":58,"rain":0.0,"pressure":937.5,"uv_index":8.85,"wind_gusts":34.9,"aqi":95,"pm10":33.1,"pm2_5":29.2,"mosquito_risk":4,"arthritis_risk":5,"migraine_risk":7,"frizz_risk":1,"updated_at":"2026-03-24T07:56:47.761976+05:30"},{"city":"Hospet","state":"Karnataka","latitude":15.2689,"longitude":76.3909,"temp":24.5,"humidity":83,"rain":0.0,"pressure":957.9,"uv_index":9.05,"wind_gusts":26.3,"aqi":104,"pm10":52.0,"pm2_5":47.5,"mosquito_risk":3,"arthritis_risk":5,"migraine_risk":7,"frizz_risk":1,"updated_at":"2026-03-24T07:56:47.761984+05:30"},{"city":"Tirupur","state":"Tamil Nadu","latitude":11.1085,"longitude":77.3411,"temp":24.5,"humidity":81,"rain":0.0,"pressure":978.6,"uv_index":9.45,"wind_gusts":26.3,"aqi":64,"pm10":23.7,"pm2_5":22.2,"mosquito_risk":3,"arthritis_risk":5,"migraine_risk":7,"frizz_risk":1,"updated_at":"2026-03-24T07:56:47.761990+05:30"},{"city":"Alappuzha","state":"Kerala","latitude":9.4981,"longitude":76.3388,"temp":27.1,"humidity":84,"rain":0.0,"pressure":1011.0,"uv_index":9.15,"wind_gusts":32.0,"aqi":81,"pm10":42.4,"pm2_5":32.0,"mosquito_risk":7,"arthritis_risk":0,"migraine_risk":4,"frizz_risk":1,"updated_at":"2026-03-24T07:56:47.761996+05:30"},{"city":"Munnar","state":"Kerala","latitude":10.0889,"longitude":77.0595,"temp":20.7,"humidity":71,"rain":0.0,"pressure":858.2,"uv_index":9.7,"wind_gusts":30.6,"aqi":65,"pm10":31.0,"pm2_5":28.9,"mosquito_risk":3,"arthritis_risk":5,"migraine_risk":7,"frizz_risk":0,"updated_at":"2026-03-24T07:56:47.762003+05:30"},{"city":"Silchar","state":"Assam","latitude":24.8333,"longitude":92.7789,"temp":22.3,"humidity":76,"rain":0.0,"pressure":1009.8,"uv_index":8.0,"wind_gusts":20.5,"aqi":120,"pm10":43.2,"pm2_5":41.2,"mosquito_risk":3,"arthritis_risk":0,"migraine_risk":4,"frizz_risk":1,"updated_at":"2026-03-24T07:56:47.762010+05:30"},{"city":"Dibrugarh","state":"Assam","latitude":27.4728,"longitude":94.912,"temp":20.3,"humidity":90,"rain":0.0,"pressure":1001.0,"uv_index":7.35,"wind_gusts":12.2,"aqi":72,"pm10":26.6,"pm2_5":26.0,"mosquito_risk":3,"arthritis_risk":5,"migraine_risk":4,"frizz_risk":1,"updated_at":"2026-03-24T07:56:47.762016+05:30"}]