[{"city":"Delhi","state":"Delhi","latitude":28.6139,"longitude":77.209,"temp":30.3,"humidity":32,"rain":0.0,"pressure":986.0,"uv_index":5.75,"wind_gusts":37.4,"aqi":191,"pm10":360.4,"pm2_5":60.5,"mosquito_risk":0,"arthritis_risk":5,"migraine_risk":3,"frizz_risk":0,"updated_at":"2026-03-02T15:24:58.105495+05:30"},{"city":"Mumbai","state":"Maharashtra","latitude":19.076,"longitude":72.8777,"temp":26.4,"humidity":76,"rain":0.0,"pressure":1009.5,"uv_index":7.35,"wind_gusts":25.6,"aqi":89,"pm10":47.1,"pm2_5":30.4,"mosquito_risk":7,"arthritis_risk":0,"migraine_risk":4,"frizz_risk":1,"updated_at":"2026-03-02T15:24:58.105537+05:30"},{"city":"Bangalore","state":"Karnataka","latitude":12.9716,"longitude":77.5946,"temp":31.5,"humidity":27,"rain":0.0,"pressure":912.1,"uv_index":9.05,"wind_gusts":28.8,"aqi":133,"pm10":36.0,"pm2_5":35.2,"mosquito_risk":0,"arthritis_risk":5,"migraine_risk":7,"frizz_risk":0,"updated_at":"2026-03-02T15:24:58.105552+05:30"},{"city":"Hyderabad","state":"Telangana","latitude":17.385,"longitude":78.4867,"temp":33.9,"humidity":28,"rain":0.0,"pressure":953.6,"uv_index":8.3,"wind_gusts":16.6,"aqi":149,"pm10":38.9,"pm2_5":38.3,"mosquito_risk":0,"arthritis_risk":5,"migraine_risk":7,"frizz_risk":0,"updated_at":"2026-03-02T15:24:58.105562+05:30"},{"city":"Chennai","state":"Tamil Nadu","latitude":13.0827,"longitude":80.2707,"temp":31.6,"humidity":42,"rain":0.0,"pressure":1008.1,"uv_index":8.8,"wind_gusts":30.2,"aqi":135,"pm10":48.8,"pm2_5":44.6,"mosquito_risk":0,"arthritis_risk":0,"migraine_risk":4,"frizz_risk":1,"updated_at":"2026-03-02T15:24:58.105571+05:30"},{"city":"Kolkata","state":"West Bengal","latitude":22.5726,"longitude":88.3639,"temp":31.4,"humidity":49,"rain":0.0,"pressure":1006.4,"uv_index":7.65,"wind_gusts":16.6,"aqi":144,"pm10":68.9,"pm2_5":56.7,"mosquito_risk":0,"arthritis_risk":5,"migraine_risk":4,"frizz_risk":1,"updated_at":"2026-03-02T15:24:58.105579+05:30"},{"city":"Pune","state":"Maharashtra","latitude":18.5204,"longitude":73.8567,"temp":35.6,"humidity":24,"rain":0.0,"pressure":948.7,"uv_index":7.85,"wind_gusts":28.4,"aqi":92,"pm10":19.7,"pm2_5":19.3,"mosquito_risk":0,"arthritis_risk":5,"migraine_risk":10,"frizz_risk":0,"updated_at":"2026-03-02T15:24:58.105592+05:30"},{"city":"Ahmedabad","state":"Gujarat","latitude":23.0225,"longitude":72.5714,"temp":35.3,"humidity":24,"rain":0.0,"pressure":1003.7,"uv_index":7.1,"wind_gusts":15.5,"aqi":107,"pm10":36.6,"pm2_5":23.3,"mosquito_risk":0,"arthritis_risk":5,"migraine_risk":7,"frizz_risk":0,"updated_at":"2026-03-02T15:24:58.105599+05:30"},{"city":"Jaipur","state":"Rajasthan","latitude":26.9124,"longitude":75.7873,"temp":33.7,"humidity":18,"rain":0.0,"pressure":962.8,"uv_index":6.55,"wind_gusts":30.2,"aqi":97,"pm10":105.5,"pm2_5":27.8,"mosquito_risk":0,"arthritis_risk":5,"migraine_risk":7,"frizz_risk":0,"updated_at":"2026-03-02T15:24:58.105606+05:30"},{"city":"Lucknow","state":"Uttar Pradesh","latitude":26.8467,"longitude":80.9462,"temp":31.3,"humidity":23,"rain":0.0,"pressure":995.9,"uv_index":6.25,"wind_gusts":37.4,"aqi":131,"pm10":104.8,"pm2_5":41.0,"mosquito_risk":0,"arthritis_risk":5,"migraine_risk":7,"frizz_risk":0,"updated_at":"2026-03-02T15:24:58.105614+05:30"},{"city":"Kanpur","state":"Uttar Pradesh","latitude":26.4499,"longitude":80.3319,"temp":31.3,"humidity":31,"rain":0.0,"pressure":994.3,"uv_index":6.25,"wind_gusts":32.0,"aqi":149,"pm10":249.6,"pm2_5":54.2,"mosquito_risk":0,"arthritis_risk":5,"migraine_risk":7,"frizz_risk":0,"updated_at":"2026-03-02T15:24:58.105620+05:30"},{"city":"Chandigarh","state":"Chandigarh","latitude":30.7333,"longitude":76.7794,"temp":28.4,"humidity":32,"rain":0.0,"pressure":971.3,"uv_index":5.65,"wind_gusts":38.9,"aqi":87,"pm10":27.5,"pm2_5":19.7,"mosquito_risk":4,"arthritis_risk":5,"migraine_risk":3,"frizz_risk":0,"updated_at":"2026-03-02T15:24:58.105628+05:30"},{"city":"Srinagar","state":"Jammu and Kashmir","latitude":34.0837,"longitude":74.7973,"temp":19.6,"humidity":16,"rain":0.0,"pressure":845.2,"uv_index":6.55,"wind_gusts":17.6,"aqi":142,"pm10":26.1,"pm2_5":19.2,"mosquito_risk":0,"arthritis_risk":5,"migraine_risk":7,"frizz_risk":1,"updated_at":"2026-03-02T15:24:58.105635+05:30"},{"city":"Jammu","state":"Jammu and Kashmir","latitude":32.7266,"longitude":74.857,"temp":28.7,"humidity":39,"rain":0.0,"pressure":975.3,"uv_index":6.25,"wind_gusts":26.3,"aqi":104,"pm10":28.4,"pm2_5":18.3,"mosquito_risk":4,"arthritis_risk":5,"migraine_risk":7,"frizz_risk":0,"updated_at":"2026-03-02T15:24:58.105642+05:30"},{"city":"Amritsar","state":"Punjab","latitude":31.634,"longitude":74.8723,"temp":28.8,"humidity":40,"rain":0.0,"pressure":984.2,"uv_index":5.95,"wind_gusts":25.2,"aqi":136,"pm10":31.0,"pm2_5":19.7,"mosquito_risk":4,"arthritis_risk":5,"migraine_risk":3,"frizz_risk":0,"updated_at":"2026-03-02T15:24:58.105649+05:30"},{"city":"Ludhiana","state":"Punjab","latitude":30.901,"longitude":75.8573,"temp":29.1,"humidity":34,"rain":0.0,"pressure":981.9,"uv_index":5.85,"wind_gusts":32.4,"aqi":159,"pm10":53.0,"pm2_5":35.2,"mosquito_risk":4,"arthritis_risk":5,"migraine_risk":3,"frizz_risk":0,"updated_at":"2026-03-02T15:24:58.105655+05:30"},{"city":"Jalandhar","state":"Punjab","latitude":31.326,"longitude":75.5762,"temp":28.9,"humidity":35,"rain":0.0,"pressure":983.0,"uv_index":6.05,"wind_gusts":30.2,"aqi":160,"pm10":50.1,"pm2_5":28.6,"mosquito_risk":4,"arthritis_risk":5,"migraine_risk":7,"frizz_risk":0,"updated_at":"2026-03-02T15:24:58.105664+05:30"},{"city":"Dehradun","state":"Uttarakhand","latitude":30.6284,"longitude":78.0322,"temp":19.1,"humidity":48,"rain":0.0,"pressure":831.4,"uv_index":6.0,"wind_gusts":27.0,"aqi":59,"pm10":20.6,"pm2_5":13.5,"mosquito_risk":0,"arthritis_risk":5,"migraine_risk":3,"frizz_risk":0,"updated_at":"2026-03-02T15:24:58.105671+05:30"},{"city":"Shimla","state":"Himachal Pradesh","latitude":31.1048,"longitude":77.1734,"temp":16.8,"humidity":42,"rain":0.0,"pressure":786.5,"uv_index":6.05,"wind_gusts":56.5,"aqi":73,"pm10":19.9,"pm2_5":12.8,"mosquito_risk":0,"arthritis_risk":5,"migraine_risk":7,"frizz_risk":0,"updated_at":"2026-03-02T15:24:58.105678+05:30"},{"city":"Manali","state":"Himachal Pradesh","latitude":32.2396,"longitude":77.1887,"temp":20.8,"humidity":39,"rain":0.0,"pressure":821.4,"uv_index":7.7,"wind_gusts":36.7,"aqi":56,"pm10":13.2,"pm2_5":8.6,"mosquito_risk":0,"arthritis_risk":5,"migraine_risk":7,"frizz_risk":0,"updated_at":"2026-03-02T15:24:58.105687+05:30"},{"city":"Gurgaon","state":"Haryana","latitude":28.4595,"longitude":77.0266,"temp":30.4,"humidity":32,"rain":0.0,"pressure":984.5,"uv_index":5.85,"wind_gusts":35.3,"aqi":768,"pm10":1277.8,"pm2_5":138.3,"mosquito_risk":0,"arthritis_risk":5,"migraine_risk":3,"frizz_risk":0,"updated_at":"2026-03-02T15:24:58.105694+05:30"},{"city":"Noida","state":"Uttar Pradesh","latitude":28.5355,"longitude":77.391,"temp":30.7,"humidity":31,"rain":0.0,"pressure":987.5,"uv_index":5.75,"wind_gusts":37.1,"aqi":768,"pm10":1277.8,"pm2_5":138.3,"mosquito_risk":0,"arthritis_risk":5,"migraine_risk":3,"frizz_risk":0,"updated_at":"2026-03-02T15:24:58.105700+05:30"},{"city":"Ghaziabad","state":"Uttar Pradesh","latitude":28.6692,"longitude":77.4538,"temp":29.7,"humidity":34,"rain":0.0,"pressure":985.5,"uv_index":5.75,"wind_gusts":36.0,"aqi":166,"pm10":266.4,"pm2_5":47.4,"mosquito_risk":4,"arthritis_risk":5,"migraine_risk":3,"frizz_risk":0,"updated_at":"2026-03-02T15:24:58.105706+05:30"},{"city":"Faridabad","state":"Haryana","latitude":28.4089,"longitude":77.3178,"temp":30.1,"humidity":34,"rain":0.0,"pressure":986.8,"uv_index":5.8,"wind_gusts":33.1,"aqi":768,"pm10":1277.8,"pm2_5":138.3,"mosquito_risk":0,"arthritis_risk":5,"migraine_risk":3,"frizz_risk":0,"updated_at":"2026-03-02T15:24:58.105712+05:30"},{"city":"Meerut","state":"Uttar Pradesh","latitude":28.9845,"longitude":77.7064,"temp":29.7,"humidity":28,"rain":0.0,"pressure":984.1,"uv_index":5.6,"wind_gusts":38.9,"aqi":166,"pm10":266.4,"pm2_5":47.4,"mosquito_risk":4,"arthritis_risk":5,"migraine_risk":3,"frizz_risk":0,"updated_at":"2026-03-02T15:24:58.105718+05:30"},{"city":"Agra","state":"Uttar Pradesh","latitude":27.1767,"longitude":78.0081,"temp":32.8,"humidity":24,"rain":0.0,"pressure":990.6,"uv_index":6.1,"wind_gusts":35.3,"aqi":339,"pm10":478.7,"pm2_5":65.9,"mosquito_risk":0,"arthritis_risk":5,"migraine_risk":7,"frizz_risk":0,"updated_at":"2026-03-02T15:24:58.105725+05:30"},{"city":"Varanasi","state":"Uttar Pradesh","latitude":25.3176,"longitude":82.9739,"temp":30.2,"humidity":29,"rain":0.0,"pressure":999.9,"uv_index":6.9,"wind_gusts":31.7,"aqi":91,"pm10":62.9,"pm2_5":25.4,"mosquito_risk":0,"arthritis_risk":5,"migraine_risk":7,"frizz_risk":0,"updated_at":"2026-03-02T15:24:58.105734+05:30"},{"city":"Prayagraj","state":"Uttar Pradesh","latitude":25.4358,"longitude":81.8463,"temp":31.0,"humidity":27,"rain":0.0,"pressure":998.5,"uv_index":6.75,"wind_gusts":29.9,"aqi":96,"pm10":66.8,"pm2_5":28.5,"mosquito_risk":0,"arthritis_risk":5,"migraine_risk":7,"frizz_risk":0,"updated_at":"2026-03-02T15:24:58.105743+05:30"},{"city":"Gorakhpur","state":"Uttar Pradesh","latitude":26.7606,"longitude":83.3732,"temp":29.3,"humidity":31,"rain":0.0,"pressure":999.0,"uv_index":6.6,"wind_gusts":25.2,"aqi":110,"pm10":75.7,"pm2_5":38.0,"mosquito_risk":4,"arthritis_risk":5,"migraine_risk":7,"frizz_risk":0,"updated_at":"2026-03-02T15:24:58.105767+05:30"},{"city":"Bareilly","state":"Uttar Pradesh","latitude":28.367,"longitude":79.4304,"temp":29.1,"humidity":31,"rain":0.0,"pressure":989.0,"uv_index":5.95,"wind_gusts":31.3,"aqi":128,"pm10":45.3,"pm2_5":31.5,"mosquito_risk":4,"arthritis_risk":5,"migraine_risk":3,"frizz_risk":0,"updated_at":"2026-03-02T15:24:58.105775+05:30"},{"city":"Aligarh","state":"Uttar Pradesh","latitude":27.8974,"longitude":78.088,"temp":31.0,"humidity":30,"rain":0.0,"pressure":988.2,"uv_index":5.85,"wind_gusts":34.2,"aqi":447,"pm10":683.6,"pm2_5":95.0,"mosquito_risk":0,"arthritis_risk":5,"migraine_risk":3,"frizz_risk":0,"updated_at":"2026-03-02T15:24:58.105782+05:30"},{"city":"Moradabad","state":"Uttar Pradesh","latitude":28.8386,"longitude":78.7733,"temp":29.2,"humidity":31,"rain":0.0,"pressure":985.8,"uv_index":5.75,"wind_gusts":35.6,"aqi":136,"pm10":50.3,"pm2_5":31.4,"mosquito_risk":4,"arthritis_risk":5,"migraine_risk":3,"frizz_risk":0,"updated_at":"2026-03-02T15:24:58.105788+05:30"},{"city":"Saharanpur","state":"Uttar Pradesh","latitude":29.9637,"longitude":77.546,"temp":28.6,"humidity":30,"rain":0.0,"pressure":977.5,"uv_index":5.4,"wind_gusts":52.9,"aqi":114,"pm10":38.4,"pm2_5":20.6,"mosquito_risk":4,"arthritis_risk":5,"migraine_risk":3,"frizz_risk":0,"updated_at":"2026-03-02T15:24:58.105795+05:30"},{"city":"Jhansi","state":"Uttar Pradesh","latitude":25.4484,"longitude":78.5685,"temp":33.5,"humidity":19,"rain":0.0,"pressure":980.7,"uv_index":6.7,"wind_gusts":29.2,"aqi":78,"pm10":45.8,"pm2_5":20.0,"mosquito_risk":0,"arthritis_risk":5,"migraine_risk":7,"frizz_risk":0,"updated_at":"2026-03-02T15:25:01.443341+05:30"},{"city":"Surat","state":"Gujarat","latitude":21.1702,"longitude":72.8311,"temp":30.8,"humidity":55,"rain":0.0,"pressure":1008.4,"uv_index":7.0,"wind_gusts":23.0,"aqi":147,"pm10":73.1,"pm2_5":61.5,"mosquito_risk":0,"arthritis_risk":0,"migraine_risk":4,"frizz_risk":1,"updated_at":"2026-03-02T15:25:01.443376+05:30"},{"city":"Vadodara","state":"Gujarat","latitude":22.3072,"longitude":73.1812,"temp":35.8,"humidity":26,"rain":0.0,"pressure":1005.8,"uv_index":7.1,"wind_gusts":13.0,"aqi":149,"pm10":40.4,"pm2_5":31.3,"mosquito_risk":0,"arthritis_risk":5,"migraine_risk":7,"frizz_risk":0,"updated_at":"2026-03-02T15:25:01.443387+05:30"},{"city":"Rajkot","state":"Gujarat","latitude":22.3039,"longitude":70.8022,"temp":33.8,"humidity":31,"rain":0.0,"pressure":995.9,"uv_index":6.95,"wind_gusts":21.2,"aqi":67,"pm10":32.8,"pm2_5":16.4,"mosquito_risk":0,"arthritis_risk":5,"migraine_risk":7,"frizz_risk":0,"updated_at":"2026-03-02T15:25:01.443397+05:30"},{"city":"Thane","state":"Maharashtra","latitude":19.2183,"longitude":72.9781,"temp":29.1,"humidity":58,"rain":0.0,"pressure":1009.1,"uv_index":7.3,"wind_gusts":35.6,"aqi":89,"pm10":47.1,"pm2_5":30.4,"mosquito_risk":4,"arthritis_risk":0,"migraine_risk":4,"frizz_risk":1,"updated_at":"2026-03-02T15:25:01.443406+05:30"},{"city":"Nagpur","state":"Maharashtra","latitude":21.1458,"longitude":79.0882,"temp":34.3,"humidity":23,"rain":0.0,"pressure":974.4,"uv_index":7.7,"wind_gusts":20.9,"aqi":65,"pm10":23.9,"pm2_5":19.7,"mosquito_risk":0,"arthritis_risk":5,"migraine_risk":7,"frizz_risk":0,"updated_at":"2026-03-02T15:25:01.443415+05:30"},{"city":"Nashik","state":"Maharashtra","latitude":19.9975,"longitude":73.7898,"temp":33.1,"humidity":30,"rain":0.0,"pressure":946.8,"uv_index":7.5,"wind_gusts":28.1,"aqi":90,"pm10":26.7,"pm2_5":24.9,"mosquito_risk":0,"arthritis_risk":5,"migraine_risk":7,"frizz_risk":0,"updated_at":"2026-03-02T15:25:01.443424+05:30"},{"city":"Aurangabad","state":"Maharashtra","latitude":19.8762,"longitude":75.3433,"temp":34.2,"humidity":24,"rain":0.0,"pressure":945.0,"uv_index":8.0,"wind_gusts":21.2,"aqi":72,"pm10":20.2,"pm2_5":19.4,"mosquito_risk":0,"arthritis_risk":5,"migraine_risk":7,"frizz_risk":0,"updated_at":"2026-03-02T15:25:01.443432+05:30"},{"city":"Solapur","state":"Maharashtra","latitude":17.6599,"longitude":75.9064,"temp":33.6,"humidity":32,"rain":0.0,"pressure":957.3,"uv_index":8.2,"wind_gusts":14.0,"aqi":119,"pm10":40.2,"pm2_5":39.6,"mosquito_risk":0,"arthritis_risk":5,"migraine_risk":7,"frizz_risk":0,"updated_at":"2026-03-02T15:25:01.443440+05:30"},{"city":"Kolhapur","state":"Maharashtra","latitude":16.705,"longitude":74.2433,"temp":33.6,"humidity":28,"rain":0.0,"pressure":948.0,"uv_index":8.35,"wind_gusts":37.4,"aqi":88,"pm10":30.0,"pm2_5":29.1,"mosquito_risk":0,"arthritis_risk":5,"migraine_risk":7,"frizz_risk":0,"updated_at":"2026-03-02T15:25:01.443447+05:30"},{"city":"Goa","state":"Goa","latitude":15.2993,"longitude":74.124,"temp":29.4,"humidity":64,"rain":0.0,"pressure":998.3,"uv_index":8.45,"wind_gusts":29.9,"aqi":70,"pm10":28.2,"pm2_5":18.6,"mosquito_risk":7,"arthritis_risk":5,"migraine_risk":7,"frizz_risk":1,"updated_at":"2026-03-02T15:25:01.443454+05:30"},{"city":"Jodhpur","state":"Rajasthan","latitude":26.2389,"longitude":73.0243,"temp":35.1,"humidity":19,"rain":0.0,"pressure":985.6,"uv_index":6.8,"wind_gusts":12.6,"aqi":86,"pm10":92.0,"pm2_5":25.0,"mosquito_risk":0,"arthritis_risk":5,"migraine_risk":10,"frizz_risk":0,"updated_at":"2026-03-02T15:25:01.443461+05:30"},{"city":"Udaipur","state":"Rajasthan","latitude":24.5854,"longitude":73.7125,"temp":31.8,"humidity":27,"rain":0.0,"pressure":949.2,"uv_index":7.4,"wind_gusts":15.5,"aqi":67,"pm10":28.0,"pm2_5":16.6,"mosquito_risk":0,"arthritis_risk":5,"migraine_risk":7,"frizz_risk":0,"updated_at":"2026-03-02T15:25:01.443468+05:30"},{"city":"Kota","state":"Rajasthan","latitude":25.2138,"longitude":75.8648,"temp":34.6,"humidity":22,"rain":0.0,"pressure":981.5,"uv_index":6.8,"wind_gusts":17.6,"aqi":86,"pm10":32.5,"pm2_5":20.4,"mosquito_risk":0,"arthritis_risk":5,"migraine_risk":7,"frizz_risk":0,"updated_at":"2026-03-02T15:25:01.443475+05:30"},{"city":"Bikaner","state":"Rajasthan","latitude":28.0229,"longitude":73.3119,"temp":33.7,"humidity":23,"rain":0.0,"pressure":985.0,"uv_index":6.5,"wind_gusts":20.2,"aqi":69,"pm10":51.8,"pm2_5":23.9,"mosquito_risk":0,"arthritis_risk":5,"migraine_risk":7,"frizz_risk":0,"updated_at":"2026-03-02T15:25:01.443482+05:30"},{"city":"Ajmer","state":"Rajasthan","latitude":26.4499,"longitude":74.6399,"temp":33.3,"humidity":21,"rain":0.0,"pressure":957.7,"uv_index":6.75,"wind_gusts":22.0,"aqi":80,"pm10":50.2,"pm2_5":18.9,"mosquito_risk":0,"arthritis_risk":5,"migraine_risk":7,"frizz_risk":0,"updated_at":"2026-03-02T15:25:01.443490+05:30"},{"city":"Gwalior","state":"Madhya Pradesh","latitude":26.2183,"longitude":78.1828,"temp":32.1,"humidity":23,"rain":0.0,"pressure":986.1,"uv_index":6.4,"wind_gusts":31.0,"aqi":92,"pm10":66.4,"pm2_5":26.1,"mosquito_risk":0,"arthritis_risk":5,"migraine_risk":7,"frizz_risk":0,"updated_at":"2026-03-02T15:25:01.443496+05:30"},{"city":"Indore","state":"Madhya Pradesh","latitude":22.7196,"longitude":75.8577,"temp":31.9,"humidity":28,"rain":0.0,"pressure":950.4,"uv_index":7.4,"wind_gusts":14.4,"aqi":94,"pm10":28.4,"pm2_5":20.2,"mosquito_risk":0,"arthritis_risk":5,"migraine_risk":7,"frizz_risk":0,"updated_at":"2026-03-02T15:25:01.443502+05:30"},{"city":"Bhopal","state":"Madhya Pradesh","latitude":23.2599,"longitude":77.4126,"temp":32.0,"humidity":28,"rain":0.0,"pressure":956.3,"uv_index":7.25,"wind_gusts":20.5,"aqi":81,"pm10":28.9,"pm2_5":16.3,"mosquito_risk":0,"arthritis_risk":5,"migraine_risk":7,"frizz_risk":0,"updated_at":"2026-03-02T15:25:01.443509+05:30"},{"city":"Jabalpur","state":"Madhya Pradesh","latitude":23.1815,"longitude":79.9864,"temp":31.7,"humidity":26,"rain":0.0,"pressure":964.0,"uv_index":7.35,"wind_gusts":20.9,"aqi":71,"pm10":27.4,"pm2_5":15.3,"mosquito_risk":0,"arthritis_risk":5,"migraine_risk":7,"frizz_risk":0,"updated_at":"2026-03-02T15:25:01.443516+05:30"},{"city":"Ujjain","state":"Madhya Pradesh","latitude":23.1765,"longitude":75.7885,"temp":31.8,"humidity":30,"rain":0.0,"pressure":956.3,"uv_index":7.3,"wind_gusts":11.5,"aqi":120,"pm10":30.7,"pm2_5":20.9,"mosquito_risk":0,"arthritis_risk":5,"migraine_risk":7,"frizz_risk":0,"updated_at":"2026-03-02T15:25:01.443523+05:30"},{"city":"Visakhapatnam","state":"Andhra Pradesh","latitude":17.6868,"longitude":83.2185,"temp":32.5,"humidity":37,"rain":0.0,"pressure":1003.9,"uv_index":8.35,"wind_gusts":37.8,"aqi":151,"pm10":56.0,"pm2_5":52.9,"mosquito_risk":0,"arthritis_risk":5,"migraine_risk":4,"frizz_risk":0,"updated_at":"2026-03-02T15:25:01.443530+05:30"},{"city":"Vijayawada","state":"Andhra Pradesh","latitude":16.5062,"longitude":80.648,"temp":34.6,"humidity":37,"rain":0.0,"pressure":1002.6,"uv_index":8.4,"wind_gusts":25.6,"aqi":146,"pm10":51.3,"pm2_5":48.8,"mosquito_risk":0,"arthritis_risk":5,"migraine_risk":4,"frizz_risk":1,"updated_at":"2026-03-02T15:25:01.443537+05:30"},{"city":"Guntur","state":"Andhra Pradesh","latitude":16.3067,"longitude":80.4365,"temp":35.4,"humidity":33,"rain":0.0,"pressure":1003.8,"uv_index":8.4,"wind_gusts":30.2,"aqi":136,"pm10":49.1,"pm2_5":47.1,"mosquito_risk":0,"arthritis_risk":5,"migraine_risk":7,"frizz_risk":1,"updated_at":"2026-03-02T15:25:01.443543+05:30"},{"city":"Nellore","state":"Andhra Pradesh","latitude":14.4426,"longitude":79.9865,"temp":34.8,"humidity":27,"rain":0.0,"pressure":1006.2,"uv_index":8.65,"wind_gusts":29.5,"aqi":128,"pm10":46.9,"pm2_5":44.5,"mosquito_risk":0,"arthritis_risk":5,"migraine_risk":4,"frizz_risk":0,"updated_at":"2026-03-02T15:25:01.443551+05:30"},{"city":"Kurnool","state":"Andhra Pradesh","latitude":15.8281,"longitude":78.0373,"temp":36.1,"humidity":25,"rain":0.0,"pressure":976.8,"uv_index":8.45,"wind_gusts":26.3,"aqi":121,"pm10":41.3,"pm2_5":40.5,"mosquito_risk":0,"arthritis_risk":5,"migraine_risk":10,"frizz_risk":0,"updated_at":"2026-03-02T15:25:01.443558+05:30"},{"city":"Kakinada","state":"Andhra Pradesh","latitude":16.9891,"longitude":82.2475,"temp":36.0,"humidity":33,"rain":0.0,"pressure":1007.1,"uv_index":8.35,"wind_gusts":29.2,"aqi":147,"pm10":48.9,"pm2_5":44.8,"mosquito_risk":0,"arthritis_risk":5,"migraine_risk":7,"frizz_risk":1,"updated_at":"2026-03-02T15:25:01.443565+05:30"},{"city":"Tirupati","state":"Andhra Pradesh","latitude":13.6288,"longitude":79.4192,"temp":35.1,"humidity":25,"rain":0.0,"pressure":991.3,"uv_index":8.75,"wind_gusts":32.4,"aqi":133,"pm10":44.8,"pm2_5":43.1,"mosquito_risk":0,"arthritis_risk":5,"migraine_risk":10,"frizz_risk":0,"updated_at":"2026-03-02T15:25:01.443571+05:30"},{"city":"Warangal","state":"Telangana","latitude":17.9689,"longitude":79.5941,"temp":34.5,"humidity":34,"rain":0.0,"pressure":979.1,"uv_index":8.15,"wind_gusts":17.3,"aqi":144,"pm10":50.9,"pm2_5":49.7,"mosquito_risk":0,"arthritis_risk":5,"migraine_risk":7,"frizz_risk":1,"updated_at":"2026-03-02T15:25:01.443578+05:30"},{"city":"Nizamabad","state":"Telangana","latitude":18.6725,"longitude":78.0941,"temp":34.7,"humidity":26,"rain":0.0,"pressure":965.6,"uv_index":8.05,"wind_gusts":25.6,"aqi":129,"pm10":20.8,"pm2_5":20.4,"mosquito_risk":0,"arthritis_risk":5,"migraine_risk":7,"frizz_risk":0,"updated_at":"2026-03-02T15:25:01.443584+05:30"},{"city":"Mysore","state":"Karnataka","latitude":12.2958,"longitude":76.6396,"temp":32.9,"humidity":26,"rain":0.0,"pressure":928.3,"uv_index":9.1,"wind_gusts":25.6,"aqi":152,"pm10":40.4,"pm2_5":39.2,"mosquito_risk":0,"arthritis_risk":5,"migraine_risk":7,"frizz_risk":0,"updated_at":"2026-03-02T15:25:01.443590+05:30"},{"city":"Mangalore","state":"Karnataka","latitude":12.9141,"longitude":74.856,"temp":28.2,"humidity":76,"rain":0.0,"pressure":1006.4,"uv_index":8.7,"wind_gusts":28.8,"aqi":53,"pm10":18.6,"pm2_5":15.6,"mosquito_risk":7,"arthritis_risk":5,"migraine_risk":4,"frizz_risk":1,"updated_at":"2026-03-02T15:25:01.443596+05:30"},{"city":"Hubli-Dharwad","state":"Karnataka","latitude":15.3647,"longitude":75.124,"temp":33.0,"humidity":30,"rain":0.0,"pressure":940.8,"uv_index":8.6,"wind_gusts":23.4,"aqi":66,"pm10":32.0,"pm2_5":31.2,"mosquito_risk":0,"arthritis_risk":5,"migraine_risk":7,"frizz_risk":0,"updated_at":"2026-03-02T15:25:01.443603+05:30"},{"city":"Belgaum","state":"Karnataka","latitude":15.8497,"longitude":74.4977,"temp":33.0,"humidity":27,"rain":0.0,"pressure":926.2,"uv_index":8.65,"wind_gusts":38.9,"aqi":75,"pm10":27.2,"pm2_5":25.8,"mosquito_risk":0,"arthritis_risk":5,"migraine_risk":7,"frizz_risk":0,"updated_at":"2026-03-02T15:25:04.769514+05:30"},{"city":"Coimbatore","state":"Tamil Nadu","latitude":11.0168,"longitude":76.9558,"temp":34.6,"humidity":25,"rain":0.0,"pressure":961.1,"uv_index":9.1,"wind_gusts":29.5,"aqi":150,"pm10":39.7,"pm2_5":38.4,"mosquito_risk":0,"arthritis_risk":5,"migraine_risk":7,"frizz_risk":0,"updated_at":"2026-03-02T15:25:04.769547+05:30"},{"city":"Madurai","state":"Tamil Nadu","latitude":9.9252,"longitude":78.1198,"temp":36.3,"humidity":25,"rain":0.0,"pressure":991.6,"uv_index":9.05,"wind_gusts":32.8,"aqi":124,"pm10":36.1,"pm2_5":34.6,"mosquito_risk":0,"arthritis_risk":5,"migraine_risk":10,"frizz_risk":0,"updated_at":"2026-03-02T15:25:04.769561+05:30"},{"city":"Trichy","state":"Tamil Nadu","latitude":10.7905,"longitude":78.7047,"temp":36.1,"humidity":25,"rain":0.0,"pressure":998.8,"uv_index":8.95,"wind_gusts":32.0,"aqi":134,"pm10":42.4,"pm2_5":40.7,"mosquito_risk":0,"arthritis_risk":5,"migraine_risk":10,"frizz_risk":0,"updated_at":"2026-03-02T15:25:04.769571+05:30"},{"city":"Salem","state":"Tamil Nadu","latitude":11.6643,"longitude":78.146,"temp":36.4,"humidity":23,"rain":0.0,"pressure":976.1,"uv_index":9.0,"wind_gusts":32.4,"aqi":135,"pm10":43.0,"pm2_5":41.6,"mosquito_risk":0,"arthritis_risk":5,"migraine_risk":10,"frizz_risk":0,"updated_at":"2026-03-02T15:25:04.769581+05:30"},{"city":"Tirunelveli","state":"Tamil Nadu","latitude":8.7139,"longitude":77.7567,"temp":36.8,"humidity":24,"rain":0.0,"pressure":1001.8,"uv_index":9.1,"wind_gusts":40.3,"aqi":139,"pm10":35.0,"pm2_5":33.5,"mosquito_risk":0,"arthritis_risk":5,"migraine_risk":7,"frizz_risk":0,"updated_at":"2026-03-02T15:25:04.769590+05:30"},{"city":"Vellore","state":"Tamil Nadu","latitude":12.9165,"longitude":79.1325,"temp":34.3,"humidity":25,"rain":0.0,"pressure":984.4,"uv_index":8.85,"wind_gusts":37.1,"aqi":144,"pm10":43.4,"pm2_5":41.8,"mosquito_risk":0,"arthritis_risk":5,"migraine_risk":7,"frizz_risk":0,"updated_at":"2026-03-02T15:25:04.769603+05:30"},{"city":"Erode","state":"Tamil Nadu","latitude":11.341,"longitude":77.7172,"temp":36.7,"humidity":27,"rain":0.0,"pressure":987.6,"uv_index":9.0,"wind_gusts":23.4,"aqi":121,"pm10":41.6,"pm2_5":39.9,"mosquito_risk":0,"arthritis_risk":5,"migraine_risk":10,"frizz_risk":0,"updated_at":"2026-03-02T15:25:04.769615+05:30"},{"city":"Kochi","state":"Kerala","latitude":9.9312,"longitude":76.2673,"temp":28.1,"humidity":78,"rain":0.0,"pressure":1007.7,"uv_index":8.9,"wind_gusts":35.6,"aqi":89,"pm10":35.4,"pm2_5":33.9,"mosquito_risk":7,"arthritis_risk":5,"migraine_risk":4,"frizz_risk":1,"updated_at":"2026-03-02T15:25:04.769624+05:30"},{"city":"Thiruvananthapuram","state":"Kerala","latitude":8.5241,"longitude":76.9366,"temp":28.5,"humidity":73,"rain":0.0,"pressure":1007.0,"uv_index":8.9,"wind_gusts":27.7,"aqi":102,"pm10":27.2,"pm2_5":25.4,"mosquito_risk":7,"arthritis_risk":5,"migraine_risk":4,"frizz_risk":1,"updated_at":"2026-03-02T15:25:04.769633+05:30"},{"city":"Kozhikode","state":"Kerala","latitude":11.2588,"longitude":75.7804,"temp":29.7,"humidity":68,"rain":0.0,"pressure":1007.3,"uv_index":8.8,"wind_gusts":31.7,"aqi":56,"pm10":21.8,"pm2_5":16.9,"mosquito_risk":7,"arthritis_risk":5,"migraine_risk":4,"frizz_risk":1,"updated_at":"2026-03-02T15:25:04.769641+05:30"},{"city":"Thrissur","state":"Kerala","latitude":10.5276,"longitude":76.2144,"temp":31.7,"humidity":60,"rain":0.0,"pressure":1006.1,"uv_index":8.9,"wind_gusts":38.5,"aqi":96,"pm10":38.2,"pm2_5":36.4,"mosquito_risk":0,"arthritis_risk":5,"migraine_risk":4,"frizz_risk":1,"updated_at":"2026-03-02T15:25:04.769650+05:30"},{"city":"Kannur","state":"Kerala","latitude":11.8745,"longitude":75.3704,"temp":30.5,"humidity":63,"rain":0.0,"pressure":1006.8,"uv_index":8.75,"wind_gusts":34.9,"aqi":53,"pm10":21.0,"pm2_5":17.8,"mosquito_risk":3,"arthritis_risk":5,"migraine_risk":4,"frizz_risk":1,"updated_at":"2026-03-02T15:25:04.769659+05:30"},{"city":"Patna","state":"Bihar","latitude":25.5941,"longitude":85.1376,"temp":30.1,"humidity":26,"rain":0.0,"pressure":1002.4,"uv_index":7.05,"wind_gusts":28.8,"aqi":130,"pm10":144.4,"pm2_5":41.0,"mosquito_risk":0,"arthritis_risk":5,"migraine_risk":4,"frizz_risk":0,"updated_at":"2026-03-02T15:25:04.769667+05:30"},{"city":"Gaya","state":"Bihar","latitude":24.7914,"longitude":85.0002,"temp":29.4,"humidity":36,"rain":0.0,"pressure":995.8,"uv_index":7.15,"wind_gusts":23.8,"aqi":128,"pm10":93.8,"pm2_5":26.4,"mosquito_risk":4,"arthritis_risk":5,"migraine_risk":7,"frizz_risk":0,"updated_at":"2026-03-02T15:25:04.769676+05:30"},{"city":"Muzaffarpur","state":"Bihar","latitude":26.1209,"longitude":85.3647,"temp":30.1,"humidity":27,"rain":0.0,"pressure":1002.1,"uv_index":7.0,"wind_gusts":27.0,"aqi":124,"pm10":132.2,"pm2_5":40.7,"mosquito_risk":0,"arthritis_risk":5,"migraine_risk":4,"frizz_risk":0,"updated_at":"2026-03-02T15:25:04.769685+05:30"},{"city":"Bhagalpur","state":"Bihar","latitude":25.2425,"longitude":87.0117,"temp":28.8,"humidity":36,"rain":0.0,"pressure":1002.9,"uv_index":7.1,"wind_gusts":19.4,"aqi":150,"pm10":59.0,"pm2_5":34.0,"mosquito_risk":4,"arthritis_risk":5,"migraine_risk":4,"frizz_risk":0,"updated_at":"2026-03-02T15:25:04.769693+05:30"},{"city":"Ranchi","state":"Jharkhand","latitude":23.3441,"longitude":85.3096,"temp":29.2,"humidity":18,"rain":0.0,"pressure":939.5,"uv_index":7.8,"wind_gusts":40.3,"aqi":89,"pm10":34.8,"pm2_5":13.3,"mosquito_risk":4,"arthritis_risk":5,"migraine_risk":7,"frizz_risk":0,"updated_at":"2026-03-02T15:25:04.769702+05:30"},{"city":"Jamshedpur","state":"Jharkhand","latitude":22.8046,"longitude":86.2029,"temp":33.5,"humidity":25,"rain":0.0,"pressure":991.5,"uv_index":7.75,"wind_gusts":18.7,"aqi":151,"pm10":57.9,"pm2_5":21.7,"mosquito_risk":0,"arthritis_risk":5,"migraine_risk":7,"frizz_risk":0,"updated_at":"2026-03-02T15:25:04.769709+05:30"},{"city":"Dhanbad","state":"Jharkhand","latitude":23.7957,"longitude":86.4304,"temp":33.7,"humidity":13,"rain":0.0,"pressure":980.9,"uv_index":7.6,"wind_gusts":33.8,"aqi":134,"pm10":59.5,"pm2_5":20.7,"mosquito_risk":0,"arthritis_risk":5,"migraine_risk":7,"frizz_risk":0,"updated_at":"2026-03-02T15:25:04.769718+05:30"},{"city":"Bokaro","state":"Jharkhand","latitude":23.6693,"longitude":86.1511,"temp":33.0,"humidity":14,"rain":0.0,"pressure":984.8,"uv_index":7.6,"wind_gusts":37.1,"aqi":139,"pm10":56.7,"pm2_5":19.5,"mosquito_risk":0,"arthritis_risk":5,"migraine_risk":7,"frizz_risk":0,"updated_at":"2026-03-02T15:25:04.769727+05:30"},{"city":"Bhubaneswar","state":"Odisha","latitude":20.2961,"longitude":85.8245,"temp":35.3,"humidity":32,"rain":0.0,"pressure":1002.1,"uv_index":8.05,"wind_gusts":28.4,"aqi":148,"pm10":68.0,"pm2_5":59.1,"mosquito_risk":0,"arthritis_risk":5,"migraine_risk":7,"frizz_risk":1,"updated_at":"2026-03-02T15:25:04.769736+05:30"},{"city":"Cuttack","state":"Odisha","latitude":20.4625,"longitude":85.8828,"temp":36.3,"humidity":24,"rain":0.0,"pressure":1004.0,"uv_index":8.1,"wind_gusts":21.2,"aqi":148,"pm10":68.0,"pm2_5":59.1,"mosquito_risk":0,"arthritis_risk":5,"migraine_risk":7,"frizz_risk":0,"updated_at":"2026-03-02T15:25:04.769763+05:30"},{"city":"Rourkela","state":"Odisha","latitude":22.2604,"longitude":84.8536,"temp":34.9,"humidity":19,"rain":0.0,"pressure":985.7,"uv_index":7.65,"wind_gusts":24.8,"aqi":138,"pm10":33.8,"pm2_5":13.7,"mosquito_risk":0,"arthritis_risk":5,"migraine_risk":7,"frizz_risk":0,"updated_at":"2026-03-02T15:25:04.769770+05:30"},{"city":"Raipur","state":"Chhattisgarh","latitude":21.2514,"longitude":81.6296,"temp":34.3,"humidity":25,"rain":0.0,"pressure":975.9,"uv_index":7.8,"wind_gusts":24.1,"aqi":97,"pm10":33.9,"pm2_5":23.2,"mosquito_risk":0,"arthritis_risk":5,"migraine_risk":7,"frizz_risk":0,"updated_at":"2026-03-02T15:25:04.769776+05:30"},{"city":"Bhilai","state":"Chhattisgarh","latitude":21.1938,"longitude":81.3509,"temp":34.5,"humidity":26,"rain":0.0,"pressure":976.1,"uv_index":7.8,"wind_gusts":22.7,"aqi":85,"pm10":37.3,"pm2_5":26.1,"mosquito_risk":0,"arthritis_risk":5,"migraine_risk":7,"frizz_risk":0,"updated_at":"2026-03-02T15:25:04.769783+05:30"},{"city":"Guwahati","state":"Assam","latitude":26.1158,"longitude":91.7086,"temp":27.0,"humidity":53,"rain":0.0,"pressure":1002.9,"uv_index":7.0,"wind_gusts":28.4,"aqi":154,"pm10":72.4,"pm2_5":51.7,"mosquito_risk":4,"arthritis_risk":5,"migraine_risk":4,"frizz_risk":1,"updated_at":"2026-03-02T15:25:04.769789+05:30"},{"city":"Agartala","state":"Tripura","latitude":23.8315,"longitude":91.2868,"temp":29.8,"humidity":49,"rain":0.0,"pressure":1006.8,"uv_index":7.4,"wind_gusts":18.0,"aqi":124,"pm10":79.4,"pm2_5":59.6,"mosquito_risk":4,"arthritis_risk":5,"migraine_risk":4,"frizz_risk":1,"updated_at":"2026-03-02T15:25:04.769795+05:30"},{"city":"Shillong","state":"Meghalaya","latitude":25.5788,"longitude":91.8933,"temp":17.0,"humidity":41,"rain":0.0,"pressure":856.4,"uv_index":7.35,"wind_gusts":66.2,"aqi":119,"pm10":51.9,"pm2_5":36.4,"mosquito_risk":0,"arthritis_risk":5,"migraine_risk":7,"frizz_risk":0,"updated_at":"2026-03-02T15:25:04.769802+05:30"},{"city":"Imphal","state":"Manipur","latitude":24.817,"longitude":93.9368,"temp":20.4,"humidity":53,"rain":0.0,"pressure":923.5,"uv_index":7.6,"wind_gusts":72.4,"aqi":150,"pm10":56.5,"pm2_5":42.7,"mosquito_risk":0,"arthritis_risk":5,"migraine_risk":7,"frizz_risk":0,"updated_at":"2026-03-02T15:25:04.769809+05:30"},{"city":"Aizawl","state":"Mizoram","latitude":23.7271,"longitude":92.7176,"temp":22.8,"humidity":54,"rain":0.0,"pressure":893.9,"uv_index":7.45,"wind_gusts":42.8,"aqi":134,"pm10":72.2,"pm2_5":66.6,"mosquito_risk":0,"arthritis_risk":5,"migraine_risk":7,"frizz_risk":0,"updated_at":"2026-03-02T15:25:04.769815+05:30"},{"city":"Kohima","state":"Nagaland","latitude":25.6701,"longitude":94.1077,"temp":16.0,"humidity":54,"rain":0.0,"pressure":855.1,"uv_index":7.45,"wind_gusts":82.8,"aqi":151,"pm10":62.2,"pm2_5":45.8,"mosquito_risk":0,"arthritis_risk":5,"migraine_risk":7,"frizz_risk":0,"updated_at":"2026-03-02T15:25:04.769822+05:30"},{"city":"Gangtok","state":"Sikkim","latitude":27.3314,"longitude":88.6138,"temp":16.2,"humidity":63,"rain":0.0,"pressure":837.1,"uv_index":5.8,"wind_gusts":19.4,"aqi":141,"pm10":74.3,"pm2_5":50.5,"mosquito_risk":3,"arthritis_risk":5,"migraine_risk":3,"frizz_risk":0,"updated_at":"2026-03-02T15:25:04.769828+05:30"},{"city":"Siliguri","state":"West Bengal","latitude":26.7271,"longitude":88.3953,"temp":21.8,"humidity":66,"rain":0.0,"pressure":995.4,"uv_index":7.0,"wind_gusts":20.5,"aqi":171,"pm10":98.3,"pm2_5":64.5,"mosquito_risk":3,"arthritis_risk":5,"migraine_risk":7,"frizz_risk":0,"updated_at":"2026-03-02T15:25:08.099045+05:30"},{"city":"Durgapur","state":"West Bengal","latitude":23.5204,"longitude":87.3119,"temp":34.4,"humidity":17,"rain":0.0,"pressure":995.6,"uv_index":7.6,"wind_gusts":26.3,"aqi":134,"pm10":56.1,"pm2_5":20.1,"mosquito_risk":0,"arthritis_risk":5,"migraine_risk":7,"frizz_risk":0,"updated_at":"2026-03-02T15:25:08.099074+05:30"},{"city":"Asansol","state":"West Bengal","latitude":23.6739,"longitude":86.9524,"temp":34.6,"humidity":14,"rain":0.0,"pressure":994.3,"uv_index":7.6,"wind_gusts":28.4,"aqi":112,"pm10":60.3,"pm2_5":20.6,"mosquito_risk":0,"arthritis_risk":5,"migraine_risk":7,"frizz_risk":0,"updated_at":"2026-03-02T15:25:08.099084+05:30"},{"city":"Pondicherry","state":"Puducherry","latitude":11.9139,"longitude":79.8145,"temp":32.5,"humidity":42,"rain":0.0,"pressure":1008.8,"uv_index":8.8,"wind_gusts":29.5,"aqi":131,"pm10":49.0,"pm2_5":44.7,"mosquito_risk":0,"arthritis_risk":0,"migraine_risk":4,"frizz_risk":1,"updated_at":"2026-03-02T15:25:08.099091+05:30"},{"city":"Port Blair","state":"Andaman and Nicobar Islands","latitude":11.6234,"longitude":92.7265,"temp":27.0,"humidity":79,"rain":0.0,"pressure":1006.7,"uv_index":8.75,"wind_gusts":16.2,"aqi":74,"pm10":28.7,"pm2_5":21.9,"mosquito_risk":7,"arthritis_risk":5,"migraine_risk":4,"frizz_risk":1,"updated_at":"2026-03-02T15:25:08.099099+05:30"},{"city":"Haridwar","state":"Uttarakhand","latitude":29.9457,"longitude":78.1642,"temp":29.3,"humidity":34,"rain":0.0,"pressure":975.7,"uv_index":5.55,"wind_gusts":41.8,"aqi":95,"pm10":28.5,"pm2_5":21.7,"mosquito_risk":4,"arthritis_risk":5,"migraine_risk":3,"frizz_risk":0,"updated_at":"2026-03-02T15:25:08.099107+05:30"},{"city":"Rishikesh","state":"Uttarakhand","latitude":30.0869,"longitude":78.2676,"temp":28.1,"humidity":41,"rain":0.0,"pressure":968.5,"uv_index":5.6,"wind_gusts":31.3,"aqi":77,"pm10":29.8,"pm2_5":21.4,"mosquito_risk":4,"arthritis_risk":5,"migraine_risk":3,"frizz_risk":0,"updated_at":"2026-03-02T15:25:08.099114+05:30"},{"city":"Nainital","state":"Uttarakhand","latitude":29.3919,"longitude":79.4542,"temp":19.9,"humidity":47,"rain":0.0,"pressure":807.5,"uv_index":6.4,"wind_gusts":45.7,"aqi":78,"pm10":32.7,"pm2_5":24.3,"mosquito_risk":0,"arthritis_risk":5,"migraine_risk":7,"frizz_risk":0,"updated_at":"2026-03-02T15:25:08.099121+05:30"},{"city":"Mussoorie","state":"Uttarakhand","latitude":30.4599,"longitude":78.0664,"temp":19.4,"humidity":46,"rain":0.0,"pressure":804.4,"uv_index":5.9,"wind_gusts":33.8,"aqi":80,"pm10":26.5,"pm2_5":19.5,"mosquito_risk":0,"arthritis_risk":5,"migraine_risk":3,"frizz_risk":0,"updated_at":"2026-03-02T15:25:08.099128+05:30"},{"city":"Dharamshala","state":"Himachal Pradesh","latitude":32.219,"longitude":76.3234,"temp":22.3,"humidity":42,"rain":0.0,"pressure":871.3,"uv_index":6.1,"wind_gusts":26.3,"aqi":57,"pm10":21.0,"pm2_5":13.7,"mosquito_risk":0,"arthritis_risk":5,"migraine_risk":7,"frizz_risk":0,"updated_at":"2026-03-02T15:25:08.099134+05:30"},{"city":"Dalhousie","state":"Himachal Pradesh","latitude":32.5387,"longitude":75.971,"temp":21.4,"humidity":35,"rain":0.0,"pressure":806.7,"uv_index":6.35,"wind_gusts":22.3,"aqi":102,"pm10":32.2,"pm2_5":22.2,"mosquito_risk":0,"arthritis_risk":5,"migraine_risk":7,"frizz_risk":0,"updated_at":"2026-03-02T15:25:08.099141+05:30"},{"city":"Patiala","state":"Punjab","latitude":30.3398,"longitude":76.3869,"temp":29.1,"humidity":31,"rain":0.0,"pressure":981.1,"uv_index":5.55,"wind_gusts":37.4,"aqi":158,"pm10":341.8,"pm2_5":61.9,"mosquito_risk":4,"arthritis_risk":5,"migraine_risk":3,"frizz_risk":0,"updated_at":"2026-03-02T15:25:08.099148+05:30"},{"city":"Bhatinda","state":"Punjab","latitude":30.211,"longitude":74.9455,"temp":30.4,"humidity":28,"rain":0.0,"pressure":987.3,"uv_index":6.2,"wind_gusts":24.8,"aqi":158,"pm10":76.1,"pm2_5":46.7,"mosquito_risk":0,"arthritis_risk":5,"migraine_risk":7,"frizz_risk":0,"updated_at":"2026-03-02T15:25:08.099154+05:30"},{"city":"Rohtak","state":"Haryana","latitude":28.8955,"longitude":76.6066,"temp":30.2,"humidity":30,"rain":0.0,"pressure":985.0,"uv_index":5.75,"wind_gusts":34.9,"aqi":244,"pm10":506.6,"pm2_5":71.7,"mosquito_risk":0,"arthritis_risk":5,"migraine_risk":3,"frizz_risk":0,"updated_at":"2026-03-02T15:25:08.099160+05:30"},{"city":"Panipat","state":"Haryana","latitude":29.3909,"longitude":76.9635,"temp":29.4,"humidity":30,"rain":0.0,"pressure":983.4,"uv_index":5.55,"wind_gusts":35.3,"aqi":608,"pm10":1080.3,"pm2_5":114.8,"mosquito_risk":4,"arthritis_risk":5,"migraine_risk":3,"frizz_risk":0,"updated_at":"2026-03-02T15:25:08.099166+05:30"},{"city":"Mathura","state":"Uttar Pradesh","latitude":27.4924,"longitude":77.6737,"temp":32.1,"humidity":32,"rain":0.0,"pressure":989.6,"uv_index":6.0,"wind_gusts":29.2,"aqi":376,"pm10":603.5,"pm2_5":78.7,"mosquito_risk":0,"arthritis_risk":5,"migraine_risk":3,"frizz_risk":0,"updated_at":"2026-03-02T15:25:08.099173+05:30"},{"city":"Vrindavan","state":"Uttar Pradesh","latitude":27.5823,"longitude":77.7027,"temp":31.6,"humidity":33,"rain":0.0,"pressure":990.0,"uv_index":6.0,"wind_gusts":31.3,"aqi":376,"pm10":603.5,"pm2_5":78.7,"mosquito_risk":0,"arthritis_risk":5,"migraine_risk":3,"frizz_risk":0,"updated_at":"2026-03-02T15:25:08.099179+05:30"},{"city":"Ayodhya","state":"Uttar Pradesh","latitude":26.7922,"longitude":82.1998,"temp":30.6,"humidity":21,"rain":0.0,"pressure":997.3,"uv_index":6.4,"wind_gusts":34.6,"aqi":113,"pm10":63.3,"pm2_5":37.7,"mosquito_risk":0,"arthritis_risk":5,"migraine_risk":7,"frizz_risk":0,"updated_at":"2026-03-02T15:25:08.099185+05:30"},{"city":"Ratlam","state":"Madhya Pradesh","latitude":23.3315,"longitude":75.0367,"temp":32.2,"humidity":28,"rain":0.0,"pressure":957.0,"uv_index":7.25,"wind_gusts":7.2,"aqi":108,"pm10":27.8,"pm2_5":19.7,"mosquito_risk":0,"arthritis_risk":5,"migraine_risk":7,"frizz_risk":0,"updated_at":"2026-03-02T15:25:08.099191+05:30"},{"city":"Sagar","state":"Madhya Pradesh","latitude":23.8388,"longitude":78.7378,"temp":31.6,"humidity":23,"rain":0.0,"pressure":953.0,"uv_index":7.2,"wind_gusts":25.2,"aqi":67,"pm10":26.0,"pm2_5":14.8,"mosquito_risk":0,"arthritis_risk":5,"migraine_risk":7,"frizz_risk":0,"updated_at":"2026-03-02T15:25:08.099197+05:30"},{"city":"Satna","state":"Madhya Pradesh","latitude":24.6005,"longitude":80.8322,"temp":33.0,"humidity":15,"rain":0.0,"pressure":973.9,"uv_index":7.15,"wind_gusts":38.2,"aqi":63,"pm10":41.8,"pm2_5":18.2,"mosquito_risk":0,"arthritis_risk":5,"migraine_risk":7,"frizz_risk":0,"updated_at":"2026-03-02T15:25:08.099203+05:30"},{"city":"Akola","state":"Maharashtra","latitude":20.7002,"longitude":77.0082,"temp":36.3,"humidity":23,"rain":0.0,"pressure":976.0,"uv_index":7.75,"wind_gusts":25.9,"aqi":71,"pm10":21.0,"pm2_5":18.7,"mosquito_risk":0,"arthritis_risk":5,"migraine_risk":10,"frizz_risk":0,"updated_at":"2026-03-02T15:25:08.099210+05:30"},{"city":"Amravati","state":"Maharashtra","latitude":20.9374,"longitude":77.7796,"temp":36.2,"humidity":19,"rain":0.0,"pressure":968.2,"uv_index":7.7,"wind_gusts":24.5,"aqi":70,"pm10":19.9,"pm2_5":17.3,"mosquito_risk":0,"arthritis_risk":5,"migraine_risk":10,"frizz_risk":0,"updated_at":"2026-03-02T15:25:08.099217+05:30"},{"city":"Latur","state":"Maharashtra","latitude":18.4088,"longitude":76.5604,"temp":33.3,"humidity":28,"rain":0.0,"pressure":940.6,"uv_index":8.15,"wind_gusts":26.3,"aqi":82,"pm10":34.8,"pm2_5":34.3,"mosquito_risk":0,"arthritis_risk":5,"migraine_risk":7,"frizz_risk":0,"updated_at":"2026-03-02T15:25:08.099224+05:30"},{"city":"Nanded","state":"Maharashtra","latitude":19.1383,"longitude":77.3091,"temp":35.5,"humidity":25,"rain":0.0,"pressure":969.4,"uv_index":7.95,"wind_gusts":17.3,"aqi":79,"pm10":20.3,"pm2_5":19.6,"mosquito_risk":0,"arthritis_risk":5,"migraine_risk":10,"frizz_risk":0,"updated_at":"2026-03-02T15:25:08.099230+05:30"},{"city":"Gulbarga","state":"Karnataka","latitude":17.3297,"longitude":76.8343,"temp":34.4,"humidity":26,"rain":0.0,"pressure":958.9,"uv_index":8.25,"wind_gusts":19.4,"aqi":126,"pm10":44.0,"pm2_5":43.2,"mosquito_risk":0,"arthritis_risk":5,"migraine_risk":7,"frizz_risk":0,"updated_at":"2026-03-02T15:25:08.099235+05:30"},{"city":"Bidar","state":"Karnataka","latitude":17.9104,"longitude":77.5199,"temp":33.5,"humidity":30,"rain":0.0,"pressure":936.1,"uv_index":8.2,"wind_gusts":16.2,"aqi":152,"pm10":46.7,"pm2_5":46.0,"mosquito_risk":0,"arthritis_risk":5,"migraine_risk":7,"frizz_risk":0,"updated_at":"2026-03-02T15:25:08.099241+05:30"},{"city":"Hospet","state":"Karnataka","latitude":15.2689,"longitude":76.3909,"temp":33.9,"humidity":31,"rain":0.0,"pressure":955.6,"uv_index":8.6,"wind_gusts":21.2,"aqi":112,"pm10":40.2,"pm2_5":39.3,"mosquito_risk":0,"arthritis_risk":5,"migraine_risk":7,"frizz_risk":0,"updated_at":"2026-03-02T15:25:08.099247+05:30"},{"city":"Tirupur","state":"Tamil Nadu","latitude":11.1085,"longitude":77.3411,"temp":36.2,"humidity":22,"rain":0.0,"pressure":974.2,"uv_index":9.1,"wind_gusts":33.5,"aqi":149,"pm10":41.3,"pm2_5":39.7,"mosquito_risk":0,"arthritis_risk":5,"migraine_risk":10,"frizz_risk":0,"updated_at":"2026-03-02T15:25:08.099253+05:30"},{"city":"Alappuzha","state":"Kerala","latitude":9.4981,"longitude":76.3388,"temp":28.1,"humidity":78,"rain":0.0,"pressure":1007.8,"uv_index":8.95,"wind_gusts":32.8,"aqi":102,"pm10":30.3,"pm2_5":28.7,"mosquito_risk":7,"arthritis_risk":5,"migraine_risk":4,"frizz_risk":1,"updated_at":"2026-03-02T15:25:08.099259+05:30"},{"city":"Munnar","state":"Kerala","latitude":10.0889,"longitude":77.0595,"temp":29.9,"humidity":37,"rain":0.0,"pressure":858.4,"uv_index":9.4,"wind_gusts":22.0,"aqi":130,"pm10":34.8,"pm2_5":33.4,"mosquito_risk":4,"arthritis_risk":5,"migraine_risk":7,"frizz_risk":0,"updated_at":"2026-03-02T15:25:08.099266+05:30"},{"city":"Silchar","state":"Assam","latitude":24.8333,"longitude":92.7789,"temp":28.9,"humidity":48,"rain":0.0,"pressure":1005.6,"uv_index":7.35,"wind_gusts":18.7,"aqi":153,"pm10":71.7,"pm2_5":51.6,"mosquito_risk":4,"arthritis_risk":5,"migraine_risk":4,"frizz_risk":1,"updated_at":"2026-03-02T15:25:08.099273+05:30"},{"city":"Dibrugarh","state":"Assam","latitude":27.4728,"longitude":94.912,"temp":23.5,"humidity":67,"rain":0.0,"pressure":997.7,"uv_index":7.05,"wind_gusts":12.6,"aqi":152,"pm10":90.6,"pm2_5":63.8,"mosquito_risk":3,"arthritis_risk":5,"migraine_risk":7,"frizz_risk":1,"updated_at":"2026-03-02T15:25:08.099279+05:30"}]