[{"city":"Delhi","state":"Delhi","latitude":28.6139,"longitude":77.209,"temp":25.0,"humidity":73,"rain":0.0,"pressure":978.9,"uv_index":7.8,"wind_gusts":22.7,"aqi":188,"pm10":284.1,"pm2_5":105.5,"no2":53.6,"co":465.0,"o3":30.0,"so2":28.5,"mosquito_risk":7,"arthritis_risk":5,"migraine_risk":7,"frizz_risk":1,"updated_at":"2026-06-16T03:15:15.871151+05:30"},{"city":"Mumbai","state":"Maharashtra","latitude":19.076,"longitude":72.8777,"temp":29.8,"humidity":72,"rain":0.0,"pressure":1007.0,"uv_index":7.7,"wind_gusts":45.0,"aqi":58,"pm10":33.4,"pm2_5":15.2,"no2":3.5,"co":136.0,"o3":49.0,"so2":3.2,"mosquito_risk":7,"arthritis_risk":5,"migraine_risk":4,"frizz_risk":1,"updated_at":"2026-06-16T03:15:15.871196+05:30"},{"city":"Bangalore","state":"Karnataka","latitude":12.9716,"longitude":77.5946,"temp":21.2,"humidity":90,"rain":0.0,"pressure":910.6,"uv_index":8.7,"wind_gusts":33.8,"aqi":60,"pm10":12.2,"pm2_5":9.6,"no2":13.8,"co":256.0,"o3":35.0,"so2":4.6,"mosquito_risk":3,"arthritis_risk":5,"migraine_risk":7,"frizz_risk":1,"updated_at":"2026-06-16T03:15:15.871212+05:30"},{"city":"Hyderabad","state":"Telangana","latitude":17.385,"longitude":78.4867,"temp":27.3,"humidity":55,"rain":0.0,"pressure":950.3,"uv_index":9.05,"wind_gusts":36.4,"aqi":111,"pm10":118.5,"pm2_5":70.5,"no2":58.1,"co":577.0,"o3":13.0,"so2":11.9,"mosquito_risk":4,"arthritis_risk":5,"migraine_risk":7,"frizz_risk":1,"updated_at":"2026-06-16T03:15:15.871222+05:30"},{"city":"Chennai","state":"Tamil Nadu","latitude":13.0827,"longitude":80.2707,"temp":28.8,"humidity":75,"rain":0.0,"pressure":1003.7,"uv_index":5.6,"wind_gusts":35.6,"aqi":85,"pm10":35.5,"pm2_5":24.2,"no2":12.1,"co":247.0,"o3":68.0,"so2":12.1,"mosquito_risk":7,"arthritis_risk":5,"migraine_risk":0,"frizz_risk":1,"updated_at":"2026-06-16T03:15:15.871230+05:30"},{"city":"Kolkata","state":"West Bengal","latitude":22.5726,"longitude":88.3639,"temp":28.8,"humidity":88,"rain":0.0,"pressure":1002.0,"uv_index":9.0,"wind_gusts":31.3,"aqi":138,"pm10":48.3,"pm2_5":41.9,"no2":12.9,"co":421.0,"o3":72.0,"so2":6.6,"mosquito_risk":7,"arthritis_risk":5,"migraine_risk":4,"frizz_risk":1,"updated_at":"2026-06-16T03:15:15.871239+05:30"},{"city":"Pune","state":"Maharashtra","latitude":18.5204,"longitude":73.8567,"temp":24.1,"humidity":87,"rain":0.0,"pressure":947.4,"uv_index":8.3,"wind_gusts":47.2,"aqi":52,"pm10":22.9,"pm2_5":11.8,"no2":7.3,"co":131.0,"o3":40.0,"so2":6.6,"mosquito_risk":3,"arthritis_risk":5,"migraine_risk":7,"frizz_risk":1,"updated_at":"2026-06-16T03:15:15.871246+05:30"},{"city":"Ahmedabad","state":"Gujarat","latitude":23.0225,"longitude":72.5714,"temp":30.2,"humidity":65,"rain":0.0,"pressure":999.2,"uv_index":8.05,"wind_gusts":46.4,"aqi":60,"pm10":25.4,"pm2_5":12.0,"no2":4.0,"co":113.0,"o3":47.0,"so2":3.4,"mosquito_risk":3,"arthritis_risk":5,"migraine_risk":7,"frizz_risk":1,"updated_at":"2026-06-16T03:15:15.871253+05:30"},{"city":"Jaipur","state":"Rajasthan","latitude":26.9124,"longitude":75.7873,"temp":25.9,"humidity":65,"rain":0.0,"pressure":956.2,"uv_index":8.2,"wind_gusts":25.9,"aqi":127,"pm10":147.6,"pm2_5":47.8,"no2":8.6,"co":291.0,"o3":58.0,"so2":4.9,"mosquito_risk":7,"arthritis_risk":5,"migraine_risk":7,"frizz_risk":1,"updated_at":"2026-06-16T03:15:15.871263+05:30"},{"city":"Lucknow","state":"Uttar Pradesh","latitude":26.8467,"longitude":80.9462,"temp":27.2,"humidity":66,"rain":0.0,"pressure":989.1,"uv_index":8.35,"wind_gusts":28.1,"aqi":166,"pm10":249.6,"pm2_5":97.8,"no2":34.7,"co":354.0,"o3":34.0,"so2":10.5,"mosquito_risk":7,"arthritis_risk":5,"migraine_risk":7,"frizz_risk":1,"updated_at":"2026-06-16T03:15:15.871270+05:30"},{"city":"Kanpur","state":"Uttar Pradesh","latitude":26.4499,"longitude":80.3319,"temp":29.7,"humidity":51,"rain":0.0,"pressure":987.7,"uv_index":8.3,"wind_gusts":31.3,"aqi":193,"pm10":277.5,"pm2_5":96.9,"no2":42.4,"co":315.0,"o3":21.0,"so2":9.3,"mosquito_risk":4,"arthritis_risk":5,"migraine_risk":7,"frizz_risk":1,"updated_at":"2026-06-16T03:15:15.871278+05:30"},{"city":"Chandigarh","state":"Chandigarh","latitude":30.7333,"longitude":76.7794,"temp":23.6,"humidity":82,"rain":0.0,"pressure":964.9,"uv_index":7.8,"wind_gusts":21.6,"aqi":124,"pm10":67.3,"pm2_5":54.6,"no2":51.3,"co":542.0,"o3":12.0,"so2":8.9,"mosquito_risk":3,"arthritis_risk":5,"migraine_risk":7,"frizz_risk":1,"updated_at":"2026-06-16T03:15:15.871285+05:30"},{"city":"Srinagar","state":"Jammu and Kashmir","latitude":34.0837,"longitude":74.7973,"temp":14.3,"humidity":99,"rain":0.0,"pressure":838.6,"uv_index":8.15,"wind_gusts":25.9,"aqi":80,"pm10":33.3,"pm2_5":31.8,"no2":29.1,"co":476.0,"o3":8.0,"so2":0.0,"mosquito_risk":3,"arthritis_risk":10,"migraine_risk":7,"frizz_risk":0,"updated_at":"2026-06-16T03:15:15.871292+05:30"},{"city":"Jammu","state":"Jammu and Kashmir","latitude":32.7266,"longitude":74.857,"temp":25.9,"humidity":65,"rain":0.0,"pressure":968.5,"uv_index":8.6,"wind_gusts":28.4,"aqi":88,"pm10":50.8,"pm2_5":45.5,"no2":51.0,"co":401.0,"o3":0.0,"so2":3.3,"mosquito_risk":7,"arthritis_risk":5,"migraine_risk":7,"frizz_risk":1,"updated_at":"2026-06-16T03:15:15.871298+05:30"},{"city":"Amritsar","state":"Punjab","latitude":31.634,"longitude":74.8723,"temp":25.5,"humidity":79,"rain":0.0,"pressure":976.2,"uv_index":8.45,"wind_gusts":20.9,"aqi":125,"pm10":48.9,"pm2_5":43.0,"no2":24.3,"co":764.0,"o3":54.0,"so2":5.3,"mosquito_risk":7,"arthritis_risk":5,"migraine_risk":7,"frizz_risk":1,"updated_at":"2026-06-16T03:15:15.871305+05:30"},{"city":"Ludhiana","state":"Punjab","latitude":30.901,"longitude":75.8573,"temp":26.3,"humidity":81,"rain":0.0,"pressure":974.5,"uv_index":8.05,"wind_gusts":21.2,"aqi":166,"pm10":205.8,"pm2_5":110.1,"no2":59.6,"co":878.0,"o3":16.0,"so2":15.5,"mosquito_risk":7,"arthritis_risk":5,"migraine_risk":7,"frizz_risk":1,"updated_at":"2026-06-16T03:15:15.871311+05:30"},{"city":"Jalandhar","state":"Punjab","latitude":31.326,"longitude":75.5762,"temp":26.2,"humidity":74,"rain":0.0,"pressure":975.4,"uv_index":7.9,"wind_gusts":22.3,"aqi":152,"pm10":198.4,"pm2_5":99.7,"no2":61.7,"co":748.0,"o3":20.0,"so2":11.1,"mosquito_risk":7,"arthritis_risk":5,"migraine_risk":7,"frizz_risk":1,"updated_at":"2026-06-16T03:15:15.871317+05:30"},{"city":"Dehradun","state":"Uttarakhand","latitude":30.6284,"longitude":78.0322,"temp":14.4,"humidity":96,"rain":0.0,"pressure":826.5,"uv_index":7.7,"wind_gusts":29.9,"aqi":44,"pm10":17.3,"pm2_5":14.5,"no2":32.2,"co":209.0,"o3":9.0,"so2":0.4,"mosquito_risk":3,"arthritis_risk":10,"migraine_risk":7,"frizz_risk":0,"updated_at":"2026-06-16T03:15:15.871323+05:30"},{"city":"Shimla","state":"Himachal Pradesh","latitude":31.1048,"longitude":77.1734,"temp":10.7,"humidity":82,"rain":0.0,"pressure":779.3,"uv_index":7.5,"wind_gusts":25.2,"aqi":59,"pm10":26.8,"pm2_5":24.4,"no2":26.6,"co":237.0,"o3":27.0,"so2":0.4,"mosquito_risk":3,"arthritis_risk":10,"migraine_risk":7,"frizz_risk":0,"updated_at":"2026-06-16T03:15:15.871331+05:30"},{"city":"Manali","state":"Himachal Pradesh","latitude":32.2396,"longitude":77.1887,"temp":12.3,"humidity":70,"rain":0.0,"pressure":814.5,"uv_index":8.65,"wind_gusts":38.2,"aqi":28,"pm10":5.5,"pm2_5":3.9,"no2":56.2,"co":229.0,"o3":47.0,"so2":0.0,"mosquito_risk":3,"arthritis_risk":5,"migraine_risk":7,"frizz_risk":0,"updated_at":"2026-06-16T03:15:15.871338+05:30"},{"city":"Gurgaon","state":"Haryana","latitude":28.4595,"longitude":77.0266,"temp":24.8,"humidity":75,"rain":0.0,"pressure":977.2,"uv_index":7.9,"wind_gusts":28.1,"aqi":607,"pm10":707.8,"pm2_5":162.5,"no2":49.8,"co":413.0,"o3":23.0,"so2":19.1,"mosquito_risk":3,"arthritis_risk":5,"migraine_risk":7,"frizz_risk":1,"updated_at":"2026-06-16T03:15:15.871344+05:30"},{"city":"Noida","state":"Uttar Pradesh","latitude":28.5355,"longitude":77.391,"temp":25.0,"humidity":73,"rain":0.0,"pressure":980.2,"uv_index":7.85,"wind_gusts":16.6,"aqi":607,"pm10":707.8,"pm2_5":162.5,"no2":49.8,"co":536.0,"o3":23.0,"so2":19.1,"mosquito_risk":7,"arthritis_risk":5,"migraine_risk":7,"frizz_risk":1,"updated_at":"2026-06-16T03:15:15.871350+05:30"},{"city":"Ghaziabad","state":"Uttar Pradesh","latitude":28.6692,"longitude":77.4538,"temp":24.6,"humidity":79,"rain":0.0,"pressure":978.5,"uv_index":7.8,"wind_gusts":23.0,"aqi":170,"pm10":235.2,"pm2_5":99.9,"no2":53.9,"co":746.0,"o3":35.0,"so2":19.7,"mosquito_risk":3,"arthritis_risk":5,"migraine_risk":7,"frizz_risk":1,"updated_at":"2026-06-16T03:15:15.871358+05:30"},{"city":"Faridabad","state":"Haryana","latitude":28.4089,"longitude":77.3178,"temp":26.2,"humidity":63,"rain":0.0,"pressure":979.5,"uv_index":7.85,"wind_gusts":24.5,"aqi":607,"pm10":707.8,"pm2_5":162.5,"no2":49.8,"co":522.0,"o3":23.0,"so2":19.1,"mosquito_risk":7,"arthritis_risk":5,"migraine_risk":7,"frizz_risk":1,"updated_at":"2026-06-16T03:15:15.871364+05:30"},{"city":"Meerut","state":"Uttar Pradesh","latitude":28.9845,"longitude":77.7064,"temp":25.8,"humidity":73,"rain":0.0,"pressure":977.3,"uv_index":7.7,"wind_gusts":27.0,"aqi":170,"pm10":235.2,"pm2_5":99.9,"no2":53.9,"co":811.0,"o3":35.0,"so2":19.7,"mosquito_risk":7,"arthritis_risk":5,"migraine_risk":7,"frizz_risk":1,"updated_at":"2026-06-16T03:15:15.871370+05:30"},{"city":"Agra","state":"Uttar Pradesh","latitude":27.1767,"longitude":78.0081,"temp":27.0,"humidity":56,"rain":0.0,"pressure":983.5,"uv_index":8.15,"wind_gusts":23.0,"aqi":796,"pm10":1005.8,"pm2_5":149.5,"no2":16.1,"co":412.0,"o3":53.0,"so2":5.4,"mosquito_risk":4,"arthritis_risk":5,"migraine_risk":7,"frizz_risk":1,"updated_at":"2026-06-16T03:15:15.871377+05:30"},{"city":"Varanasi","state":"Uttar Pradesh","latitude":25.3176,"longitude":82.9739,"temp":31.9,"humidity":52,"rain":0.0,"pressure":992.8,"uv_index":8.8,"wind_gusts":37.4,"aqi":153,"pm10":147.1,"pm2_5":74.7,"no2":42.3,"co":457.0,"o3":40.0,"so2":16.9,"mosquito_risk":0,"arthritis_risk":5,"migraine_risk":7,"frizz_risk":1,"updated_at":"2026-06-16T03:15:15.871384+05:30"},{"city":"Prayagraj","state":"Uttar Pradesh","latitude":25.4358,"longitude":81.8463,"temp":31.7,"humidity":50,"rain":0.0,"pressure":991.3,"uv_index":8.75,"wind_gusts":36.7,"aqi":152,"pm10":99.4,"pm2_5":58.0,"no2":33.3,"co":338.0,"o3":27.0,"so2":8.4,"mosquito_risk":0,"arthritis_risk":5,"migraine_risk":7,"frizz_risk":1,"updated_at":"2026-06-16T03:15:15.871390+05:30"},{"city":"Gorakhpur","state":"Uttar Pradesh","latitude":26.7606,"longitude":83.3732,"temp":27.1,"humidity":80,"rain":0.0,"pressure":992.5,"uv_index":8.7,"wind_gusts":27.4,"aqi":144,"pm10":145.8,"pm2_5":79.9,"no2":52.1,"co":553.0,"o3":25.0,"so2":13.5,"mosquito_risk":7,"arthritis_risk":5,"migraine_risk":7,"frizz_risk":1,"updated_at":"2026-06-16T03:15:15.871403+05:30"},{"city":"Bareilly","state":"Uttar Pradesh","latitude":28.367,"longitude":79.4304,"temp":24.8,"humidity":82,"rain":0.0,"pressure":982.7,"uv_index":8.15,"wind_gusts":26.3,"aqi":156,"pm10":79.2,"pm2_5":59.0,"no2":34.1,"co":366.0,"o3":45.0,"so2":11.0,"mosquito_risk":3,"arthritis_risk":5,"migraine_risk":7,"frizz_risk":1,"updated_at":"2026-06-16T03:15:15.871409+05:30"},{"city":"Aligarh","state":"Uttar Pradesh","latitude":27.8974,"longitude":78.088,"temp":24.6,"humidity":76,"rain":0.0,"pressure":981.1,"uv_index":7.95,"wind_gusts":20.2,"aqi":477,"pm10":529.0,"pm2_5":140.2,"no2":43.6,"co":349.0,"o3":47.0,"so2":14.9,"mosquito_risk":3,"arthritis_risk":5,"migraine_risk":7,"frizz_risk":1,"updated_at":"2026-06-16T03:15:15.871416+05:30"},{"city":"Moradabad","state":"Uttar Pradesh","latitude":28.8386,"longitude":78.7733,"temp":25.1,"humidity":73,"rain":0.0,"pressure":979.8,"uv_index":7.95,"wind_gusts":29.9,"aqi":163,"pm10":143.4,"pm2_5":95.9,"no2":61.8,"co":382.0,"o3":13.0,"so2":14.0,"mosquito_risk":7,"arthritis_risk":5,"migraine_risk":7,"frizz_risk":1,"updated_at":"2026-06-16T03:15:15.871422+05:30"},{"city":"Saharanpur","state":"Uttar Pradesh","latitude":29.9637,"longitude":77.546,"temp":24.1,"humidity":90,"rain":0.0,"pressure":972.1,"uv_index":7.55,"wind_gusts":20.9,"aqi":121,"pm10":139.7,"pm2_5":81.3,"no2":50.5,"co":656.0,"o3":27.0,"so2":15.3,"mosquito_risk":3,"arthritis_risk":5,"migraine_risk":7,"frizz_risk":1,"updated_at":"2026-06-16T03:15:15.871428+05:30"},{"city":"Jhansi","state":"Uttar Pradesh","latitude":25.4484,"longitude":78.5685,"temp":28.2,"humidity":51,"rain":0.0,"pressure":974.2,"uv_index":8.5,"wind_gusts":26.3,"aqi":118,"pm10":68.9,"pm2_5":31.9,"no2":4.2,"co":185.0,"o3":74.0,"so2":3.0,"mosquito_risk":4,"arthritis_risk":5,"migraine_risk":7,"frizz_risk":1,"updated_at":"2026-06-16T03:15:19.114131+05:30"},{"city":"Surat","state":"Gujarat","latitude":21.1702,"longitude":72.8311,"temp":29.6,"humidity":73,"rain":0.0,"pressure":1004.5,"uv_index":7.6,"wind_gusts":46.8,"aqi":70,"pm10":32.2,"pm2_5":18.5,"no2":14.5,"co":237.0,"o3":36.0,"so2":25.1,"mosquito_risk":7,"arthritis_risk":5,"migraine_risk":4,"frizz_risk":1,"updated_at":"2026-06-16T03:15:19.114167+05:30"},{"city":"Vadodara","state":"Gujarat","latitude":22.3072,"longitude":73.1812,"temp":30.6,"humidity":62,"rain":0.0,"pressure":1001.6,"uv_index":8.0,"wind_gusts":52.6,"aqi":68,"pm10":26.4,"pm2_5":17.3,"no2":13.4,"co":131.0,"o3":31.0,"so2":11.3,"mosquito_risk":3,"arthritis_risk":5,"migraine_risk":4,"frizz_risk":1,"updated_at":"2026-06-16T03:15:19.114178+05:30"},{"city":"Rajkot","state":"Gujarat","latitude":22.3039,"longitude":70.8022,"temp":28.2,"humidity":76,"rain":0.0,"pressure":991.4,"uv_index":7.55,"wind_gusts":46.4,"aqi":57,"pm10":26.1,"pm2_5":13.3,"no2":4.8,"co":97.0,"o3":42.0,"so2":4.3,"mosquito_risk":7,"arthritis_risk":5,"migraine_risk":7,"frizz_risk":1,"updated_at":"2026-06-16T03:15:19.114187+05:30"},{"city":"Thane","state":"Maharashtra","latitude":19.2183,"longitude":72.9781,"temp":29.4,"humidity":73,"rain":0.0,"pressure":1006.5,"uv_index":7.7,"wind_gusts":41.8,"aqi":58,"pm10":33.4,"pm2_5":15.2,"no2":3.5,"co":145.0,"o3":49.0,"so2":3.2,"mosquito_risk":7,"arthritis_risk":5,"migraine_risk":4,"frizz_risk":1,"updated_at":"2026-06-16T03:15:19.114195+05:30"},{"city":"Nagpur","state":"Maharashtra","latitude":21.1458,"longitude":79.0882,"temp":29.2,"humidity":55,"rain":0.0,"pressure":969.9,"uv_index":8.9,"wind_gusts":56.2,"aqi":110,"pm10":55.2,"pm2_5":36.6,"no2":21.1,"co":290.0,"o3":35.0,"so2":8.1,"mosquito_risk":4,"arthritis_risk":5,"migraine_risk":7,"frizz_risk":1,"updated_at":"2026-06-16T03:15:19.114202+05:30"},{"city":"Nashik","state":"Maharashtra","latitude":19.9975,"longitude":73.7898,"temp":24.4,"humidity":88,"rain":0.0,"pressure":944.3,"uv_index":8.05,"wind_gusts":43.9,"aqi":51,"pm10":19.8,"pm2_5":10.5,"no2":4.5,"co":120.0,"o3":42.0,"so2":2.1,"mosquito_risk":3,"arthritis_risk":5,"migraine_risk":7,"frizz_risk":1,"updated_at":"2026-06-16T03:15:19.114209+05:30"},{"city":"Aurangabad","state":"Maharashtra","latitude":19.8762,"longitude":75.3433,"temp":25.5,"humidity":75,"rain":0.0,"pressure":943.0,"uv_index":8.95,"wind_gusts":54.0,"aqi":55,"pm10":19.3,"pm2_5":11.6,"no2":6.8,"co":124.0,"o3":42.0,"so2":6.3,"mosquito_risk":7,"arthritis_risk":5,"migraine_risk":7,"frizz_risk":1,"updated_at":"2026-06-16T03:15:19.114217+05:30"},{"city":"Solapur","state":"Maharashtra","latitude":17.6599,"longitude":75.9064,"temp":26.9,"humidity":67,"rain":0.0,"pressure":956.2,"uv_index":8.9,"wind_gusts":44.6,"aqi":57,"pm10":16.6,"pm2_5":11.2,"no2":6.2,"co":145.0,"o3":51.0,"so2":5.4,"mosquito_risk":7,"arthritis_risk":5,"migraine_risk":7,"frizz_risk":1,"updated_at":"2026-06-16T03:15:19.114224+05:30"},{"city":"Kolhapur","state":"Maharashtra","latitude":16.705,"longitude":74.2433,"temp":24.1,"humidity":90,"rain":0.0,"pressure":947.3,"uv_index":7.3,"wind_gusts":46.1,"aqi":52,"pm10":19.2,"pm2_5":11.5,"no2":6.9,"co":136.0,"o3":37.0,"so2":2.7,"mosquito_risk":3,"arthritis_risk":5,"migraine_risk":7,"frizz_risk":1,"updated_at":"2026-06-16T03:15:19.114231+05:30"},{"city":"Goa","state":"Goa","latitude":15.2993,"longitude":74.124,"temp":26.0,"humidity":89,"rain":0.0,"pressure":997.3,"uv_index":8.65,"wind_gusts":28.8,"aqi":57,"pm10":25.0,"pm2_5":15.0,"no2":5.4,"co":369.0,"o3":42.0,"so2":2.0,"mosquito_risk":7,"arthritis_risk":5,"migraine_risk":7,"frizz_risk":1,"updated_at":"2026-06-16T03:15:19.114238+05:30"},{"city":"Jodhpur","state":"Rajasthan","latitude":26.2389,"longitude":73.0243,"temp":31.2,"humidity":57,"rain":0.0,"pressure":978.8,"uv_index":8.45,"wind_gusts":37.8,"aqi":154,"pm10":189.1,"pm2_5":46.3,"no2":4.9,"co":129.0,"o3":50.0,"so2":2.1,"mosquito_risk":0,"arthritis_risk":5,"migraine_risk":7,"frizz_risk":1,"updated_at":"2026-06-16T03:15:19.114246+05:30"},{"city":"Udaipur","state":"Rajasthan","latitude":24.5854,"longitude":73.7125,"temp":26.7,"humidity":67,"rain":0.0,"pressure":942.9,"uv_index":8.8,"wind_gusts":34.9,"aqi":62,"pm10":27.0,"pm2_5":14.8,"no2":3.8,"co":117.0,"o3":54.0,"so2":2.5,"mosquito_risk":7,"arthritis_risk":5,"migraine_risk":7,"frizz_risk":1,"updated_at":"2026-06-16T03:15:19.114253+05:30"},{"city":"Kota","state":"Rajasthan","latitude":25.2138,"longitude":75.8648,"temp":28.2,"humidity":64,"rain":0.0,"pressure":974.8,"uv_index":8.4,"wind_gusts":32.0,"aqi":92,"pm10":37.1,"pm2_5":21.7,"no2":7.4,"co":159.0,"o3":61.0,"so2":5.1,"mosquito_risk":7,"arthritis_risk":5,"migraine_risk":7,"frizz_risk":1,"updated_at":"2026-06-16T03:15:19.114260+05:30"},{"city":"Bikaner","state":"Rajasthan","latitude":28.0229,"longitude":73.3119,"temp":30.9,"humidity":52,"rain":0.0,"pressure":976.2,"uv_index":8.45,"wind_gusts":46.8,"aqi":151,"pm10":169.0,"pm2_5":45.4,"no2":2.7,"co":129.0,"o3":56.0,"so2":2.4,"mosquito_risk":0,"arthritis_risk":5,"migraine_risk":7,"frizz_risk":1,"updated_at":"2026-06-16T03:15:19.114267+05:30"},{"city":"Ajmer","state":"Rajasthan","latitude":26.4499,"longitude":74.6399,"temp":26.9,"humidity":60,"rain":0.0,"pressure":950.8,"uv_index":8.3,"wind_gusts":40.7,"aqi":90,"pm10":47.0,"pm2_5":22.2,"no2":7.2,"co":162.0,"o3":49.0,"so2":4.1,"mosquito_risk":4,"arthritis_risk":5,"migraine_risk":7,"frizz_risk":1,"updated_at":"2026-06-16T03:15:19.114273+05:30"},{"city":"Gwalior","state":"Madhya Pradesh","latitude":26.2183,"longitude":78.1828,"temp":27.9,"humidity":52,"rain":0.0,"pressure":979.4,"uv_index":4.75,"wind_gusts":31.7,"aqi":131,"pm10":62.6,"pm2_5":29.9,"no2":4.7,"co":219.0,"o3":70.0,"so2":2.5,"mosquito_risk":4,"arthritis_risk":5,"migraine_risk":3,"frizz_risk":1,"updated_at":"2026-06-16T03:15:19.114280+05:30"},{"city":"Indore","state":"Madhya Pradesh","latitude":22.7196,"longitude":75.8577,"temp":27.3,"humidity":68,"rain":0.0,"pressure":945.8,"uv_index":8.6,"wind_gusts":45.0,"aqi":86,"pm10":36.9,"pm2_5":25.6,"no2":8.4,"co":199.0,"o3":61.0,"so2":8.3,"mosquito_risk":7,"arthritis_risk":5,"migraine_risk":7,"frizz_risk":1,"updated_at":"2026-06-16T03:15:19.114286+05:30"},{"city":"Bhopal","state":"Madhya Pradesh","latitude":23.2599,"longitude":77.4126,"temp":27.2,"humidity":66,"rain":0.0,"pressure":950.7,"uv_index":8.65,"wind_gusts":36.0,"aqi":98,"pm10":43.7,"pm2_5":26.4,"no2":15.9,"co":325.0,"o3":43.0,"so2":2.8,"mosquito_risk":7,"arthritis_risk":5,"migraine_risk":7,"frizz_risk":1,"updated_at":"2026-06-16T03:15:19.114293+05:30"},{"city":"Jabalpur","state":"Madhya Pradesh","latitude":23.1815,"longitude":79.9864,"temp":27.2,"humidity":67,"rain":0.0,"pressure":958.5,"uv_index":8.85,"wind_gusts":27.0,"aqi":113,"pm10":64.0,"pm2_5":40.2,"no2":13.9,"co":320.0,"o3":48.0,"so2":4.1,"mosquito_risk":7,"arthritis_risk":5,"migraine_risk":7,"frizz_risk":1,"updated_at":"2026-06-16T03:15:19.114299+05:30"},{"city":"Ujjain","state":"Madhya Pradesh","latitude":23.1765,"longitude":75.7885,"temp":27.8,"humidity":65,"rain":0.0,"pressure":951.3,"uv_index":8.55,"wind_gusts":40.3,"aqi":80,"pm10":36.1,"pm2_5":23.8,"no2":5.9,"co":185.0,"o3":63.0,"so2":8.5,"mosquito_risk":7,"arthritis_risk":5,"migraine_risk":7,"frizz_risk":1,"updated_at":"2026-06-16T03:15:19.114306+05:30"},{"city":"Visakhapatnam","state":"Andhra Pradesh","latitude":17.6868,"longitude":83.2185,"temp":29.6,"humidity":87,"rain":0.0,"pressure":999.0,"uv_index":8.6,"wind_gusts":37.4,"aqi":162,"pm10":116.6,"pm2_5":92.9,"no2":56.4,"co":1419.0,"o3":60.0,"so2":74.7,"mosquito_risk":7,"arthritis_risk":5,"migraine_risk":7,"frizz_risk":1,"updated_at":"2026-06-16T03:15:19.114313+05:30"},{"city":"Vijayawada","state":"Andhra Pradesh","latitude":16.5062,"longitude":80.648,"temp":29.2,"humidity":70,"rain":0.0,"pressure":997.7,"uv_index":4.65,"wind_gusts":22.0,"aqi":140,"pm10":115.5,"pm2_5":90.6,"no2":47.9,"co":532.0,"o3":16.0,"so2":11.9,"mosquito_risk":7,"arthritis_risk":5,"migraine_risk":3,"frizz_risk":1,"updated_at":"2026-06-16T03:15:19.114320+05:30"},{"city":"Guntur","state":"Andhra Pradesh","latitude":16.3067,"longitude":80.4365,"temp":29.6,"humidity":64,"rain":0.0,"pressure":998.8,"uv_index":8.55,"wind_gusts":37.8,"aqi":151,"pm10":147.6,"pm2_5":118.7,"no2":64.6,"co":357.0,"o3":5.0,"so2":16.5,"mosquito_risk":7,"arthritis_risk":5,"migraine_risk":7,"frizz_risk":1,"updated_at":"2026-06-16T03:15:19.114327+05:30"},{"city":"Nellore","state":"Andhra Pradesh","latitude":14.4426,"longitude":79.9865,"temp":28.9,"humidity":70,"rain":0.0,"pressure":1001.6,"uv_index":8.35,"wind_gusts":39.6,"aqi":83,"pm10":46.0,"pm2_5":32.9,"no2":11.0,"co":299.0,"o3":83.0,"so2":10.6,"mosquito_risk":7,"arthritis_risk":5,"migraine_risk":4,"frizz_risk":1,"updated_at":"2026-06-16T03:15:19.114334+05:30"},{"city":"Kurnool","state":"Andhra Pradesh","latitude":15.8281,"longitude":78.0373,"temp":28.0,"humidity":53,"rain":0.0,"pressure":974.4,"uv_index":8.95,"wind_gusts":38.5,"aqi":79,"pm10":47.6,"pm2_5":32.7,"no2":22.8,"co":205.0,"o3":39.0,"so2":6.5,"mosquito_risk":4,"arthritis_risk":5,"migraine_risk":7,"frizz_risk":1,"updated_at":"2026-06-16T03:15:19.114341+05:30"},{"city":"Kakinada","state":"Andhra Pradesh","latitude":16.9891,"longitude":82.2475,"temp":29.0,"humidity":83,"rain":0.0,"pressure":1002.4,"uv_index":9.0,"wind_gusts":32.0,"aqi":123,"pm10":82.0,"pm2_5":58.2,"no2":14.5,"co":847.0,"o3":84.0,"so2":8.5,"mosquito_risk":7,"arthritis_risk":5,"migraine_risk":4,"frizz_risk":1,"updated_at":"2026-06-16T03:15:19.114348+05:30"},{"city":"Tirupati","state":"Andhra Pradesh","latitude":13.6288,"longitude":79.4192,"temp":26.5,"humidity":68,"rain":0.0,"pressure":988.1,"uv_index":7.6,"wind_gusts":30.2,"aqi":93,"pm10":73.1,"pm2_5":55.4,"no2":45.7,"co":227.0,"o3":16.0,"so2":8.2,"mosquito_risk":7,"arthritis_risk":5,"migraine_risk":7,"frizz_risk":1,"updated_at":"2026-06-16T03:15:19.114354+05:30"},{"city":"Warangal","state":"Telangana","latitude":17.9689,"longitude":79.5941,"temp":28.5,"humidity":65,"rain":0.0,"pressure":974.7,"uv_index":8.65,"wind_gusts":34.2,"aqi":150,"pm10":126.2,"pm2_5":90.8,"no2":49.6,"co":385.0,"o3":4.0,"so2":8.6,"mosquito_risk":7,"arthritis_risk":5,"migraine_risk":7,"frizz_risk":1,"updated_at":"2026-06-16T03:15:19.114361+05:30"},{"city":"Nizamabad","state":"Telangana","latitude":18.6725,"longitude":78.0941,"temp":27.9,"humidity":49,"rain":0.0,"pressure":962.3,"uv_index":8.9,"wind_gusts":33.1,"aqi":101,"pm10":70.3,"pm2_5":44.9,"no2":24.0,"co":172.0,"o3":37.0,"so2":5.1,"mosquito_risk":4,"arthritis_risk":5,"migraine_risk":7,"frizz_risk":1,"updated_at":"2026-06-16T03:15:19.114367+05:30"},{"city":"Mysore","state":"Karnataka","latitude":12.2958,"longitude":76.6396,"temp":20.9,"humidity":96,"rain":0.0,"pressure":927.7,"uv_index":9.0,"wind_gusts":32.8,"aqi":52,"pm10":15.9,"pm2_5":11.8,"no2":11.5,"co":219.0,"o3":36.0,"so2":2.4,"mosquito_risk":3,"arthritis_risk":5,"migraine_risk":7,"frizz_risk":1,"updated_at":"2026-06-16T03:15:19.114374+05:30"},{"city":"Mangalore","state":"Karnataka","latitude":12.9141,"longitude":74.856,"temp":26.4,"humidity":95,"rain":0.0,"pressure":1006.5,"uv_index":8.5,"wind_gusts":45.0,"aqi":57,"pm10":27.6,"pm2_5":19.2,"no2":14.1,"co":221.0,"o3":20.0,"so2":3.1,"mosquito_risk":7,"arthritis_risk":5,"migraine_risk":4,"frizz_risk":1,"updated_at":"2026-06-16T03:15:19.114380+05:30"},{"city":"Hubli-Dharwad","state":"Karnataka","latitude":15.3647,"longitude":75.124,"temp":22.3,"humidity":95,"rain":0.0,"pressure":939.6,"uv_index":8.1,"wind_gusts":48.2,"aqi":48,"pm10":18.4,"pm2_5":9.6,"no2":5.0,"co":143.0,"o3":39.0,"so2":1.7,"mosquito_risk":3,"arthritis_risk":5,"migraine_risk":7,"frizz_risk":1,"updated_at":"2026-06-16T03:15:19.114387+05:30"},{"city":"Belgaum","state":"Karnataka","latitude":15.8497,"longitude":74.4977,"temp":21.7,"humidity":97,"rain":0.0,"pressure":924.5,"uv_index":5.75,"wind_gusts":43.6,"aqi":51,"pm10":22.0,"pm2_5":14.4,"no2":8.1,"co":130.0,"o3":30.0,"so2":0.6,"mosquito_risk":3,"arthritis_risk":5,"migraine_risk":3,"frizz_risk":1,"updated_at":"2026-06-16T03:15:22.343125+05:30"},{"city":"Coimbatore","state":"Tamil Nadu","latitude":11.0168,"longitude":76.9558,"temp":24.1,"humidity":98,"rain":0.0,"pressure":960.6,"uv_index":8.75,"wind_gusts":41.0,"aqi":56,"pm10":20.0,"pm2_5":14.5,"no2":11.0,"co":211.0,"o3":33.0,"so2":3.6,"mosquito_risk":3,"arthritis_risk":5,"migraine_risk":7,"frizz_risk":1,"updated_at":"2026-06-16T03:15:22.343162+05:30"},{"city":"Madurai","state":"Tamil Nadu","latitude":9.9252,"longitude":78.1198,"temp":28.7,"humidity":66,"rain":0.0,"pressure":991.4,"uv_index":8.55,"wind_gusts":36.7,"aqi":94,"pm10":41.8,"pm2_5":30.4,"no2":36.0,"co":166.0,"o3":11.0,"so2":6.1,"mosquito_risk":7,"arthritis_risk":5,"migraine_risk":7,"frizz_risk":1,"updated_at":"2026-06-16T03:15:22.343174+05:30"},{"city":"Trichy","state":"Tamil Nadu","latitude":10.7905,"longitude":78.7047,"temp":29.1,"humidity":66,"rain":0.0,"pressure":998.0,"uv_index":8.1,"wind_gusts":37.8,"aqi":77,"pm10":50.6,"pm2_5":33.9,"no2":22.3,"co":190.0,"o3":37.0,"so2":5.6,"mosquito_risk":7,"arthritis_risk":5,"migraine_risk":7,"frizz_risk":1,"updated_at":"2026-06-16T03:15:22.343182+05:30"},{"city":"Salem","state":"Tamil Nadu","latitude":11.6643,"longitude":78.146,"temp":26.1,"humidity":83,"rain":0.0,"pressure":976.1,"uv_index":8.3,"wind_gusts":28.8,"aqi":69,"pm10":24.1,"pm2_5":17.5,"no2":15.9,"co":277.0,"o3":41.0,"so2":6.4,"mosquito_risk":7,"arthritis_risk":5,"migraine_risk":7,"frizz_risk":1,"updated_at":"2026-06-16T03:15:22.343191+05:30"},{"city":"Tirunelveli","state":"Tamil Nadu","latitude":8.7139,"longitude":77.7567,"temp":28.8,"humidity":69,"rain":0.0,"pressure":1001.3,"uv_index":8.65,"wind_gusts":26.3,"aqi":50,"pm10":15.0,"pm2_5":11.4,"no2":8.7,"co":142.0,"o3":35.0,"so2":2.9,"mosquito_risk":7,"arthritis_risk":5,"migraine_risk":4,"frizz_risk":1,"updated_at":"2026-06-16T03:15:22.343199+05:30"},{"city":"Vellore","state":"Tamil Nadu","latitude":12.9165,"longitude":79.1325,"temp":25.8,"humidity":68,"rain":0.0,"pressure":982.0,"uv_index":2.75,"wind_gusts":36.4,"aqi":93,"pm10":70.5,"pm2_5":49.5,"no2":37.2,"co":536.0,"o3":26.0,"so2":9.0,"mosquito_risk":7,"arthritis_risk":5,"migraine_risk":3,"frizz_risk":1,"updated_at":"2026-06-16T03:15:22.343207+05:30"},{"city":"Erode","state":"Tamil Nadu","latitude":11.341,"longitude":77.7172,"temp":26.4,"humidity":84,"rain":0.0,"pressure":987.8,"uv_index":8.6,"wind_gusts":30.2,"aqi":64,"pm10":22.2,"pm2_5":16.3,"no2":14.7,"co":199.0,"o3":35.0,"so2":4.0,"mosquito_risk":7,"arthritis_risk":5,"migraine_risk":7,"frizz_risk":1,"updated_at":"2026-06-16T03:15:22.343215+05:30"},{"city":"Kochi","state":"Kerala","latitude":9.9312,"longitude":76.2673,"temp":23.9,"humidity":99,"rain":0.2,"pressure":1009.0,"uv_index":5.9,"wind_gusts":29.9,"aqi":67,"pm10":23.6,"pm2_5":18.5,"no2":17.2,"co":330.0,"o3":19.0,"so2":4.4,"mosquito_risk":6,"arthritis_risk":0,"migraine_risk":0,"frizz_risk":1,"updated_at":"2026-06-16T03:15:22.343223+05:30"},{"city":"Thiruvananthapuram","state":"Kerala","latitude":8.5241,"longitude":76.9366,"temp":25.5,"humidity":93,"rain":0.0,"pressure":1007.9,"uv_index":7.7,"wind_gusts":38.5,"aqi":51,"pm10":21.4,"pm2_5":11.1,"no2":3.8,"co":267.0,"o3":51.0,"so2":2.0,"mosquito_risk":7,"arthritis_risk":5,"migraine_risk":4,"frizz_risk":1,"updated_at":"2026-06-16T03:15:22.343231+05:30"},{"city":"Kozhikode","state":"Kerala","latitude":11.2588,"longitude":75.7804,"temp":26.4,"humidity":90,"rain":0.0,"pressure":1007.2,"uv_index":7.75,"wind_gusts":41.0,"aqi":48,"pm10":20.3,"pm2_5":11.3,"no2":3.7,"co":217.0,"o3":50.0,"so2":1.9,"mosquito_risk":7,"arthritis_risk":5,"migraine_risk":4,"frizz_risk":1,"updated_at":"2026-06-16T03:15:22.343238+05:30"},{"city":"Thrissur","state":"Kerala","latitude":10.5276,"longitude":76.2144,"temp":25.1,"humidity":99,"rain":0.0,"pressure":1006.9,"uv_index":7.15,"wind_gusts":32.0,"aqi":75,"pm10":24.6,"pm2_5":20.6,"no2":15.3,"co":409.0,"o3":18.0,"so2":3.8,"mosquito_risk":7,"arthritis_risk":5,"migraine_risk":4,"frizz_risk":1,"updated_at":"2026-06-16T03:15:22.343246+05:30"},{"city":"Kannur","state":"Kerala","latitude":11.8745,"longitude":75.3704,"temp":27.3,"humidity":87,"rain":0.0,"pressure":1006.7,"uv_index":8.3,"wind_gusts":42.5,"aqi":52,"pm10":19.8,"pm2_5":13.4,"no2":11.1,"co":161.0,"o3":27.0,"so2":2.7,"mosquito_risk":7,"arthritis_risk":5,"migraine_risk":4,"frizz_risk":1,"updated_at":"2026-06-16T03:15:22.343253+05:30"},{"city":"Patna","state":"Bihar","latitude":25.5941,"longitude":85.1376,"temp":29.1,"humidity":75,"rain":0.0,"pressure":996.2,"uv_index":8.9,"wind_gusts":24.5,"aqi":161,"pm10":170.9,"pm2_5":103.8,"no2":61.4,"co":895.0,"o3":13.0,"so2":18.6,"mosquito_risk":7,"arthritis_risk":5,"migraine_risk":7,"frizz_risk":1,"updated_at":"2026-06-16T03:15:22.343259+05:30"},{"city":"Gaya","state":"Bihar","latitude":24.7914,"longitude":85.0002,"temp":28.7,"humidity":70,"rain":0.0,"pressure":989.5,"uv_index":8.9,"wind_gusts":25.2,"aqi":154,"pm10":116.6,"pm2_5":75.4,"no2":43.4,"co":742.0,"o3":20.0,"so2":9.0,"mosquito_risk":7,"arthritis_risk":5,"migraine_risk":7,"frizz_risk":1,"updated_at":"2026-06-16T03:15:22.343266+05:30"},{"city":"Muzaffarpur","state":"Bihar","latitude":26.1209,"longitude":85.3647,"temp":27.9,"humidity":80,"rain":0.0,"pressure":996.4,"uv_index":8.85,"wind_gusts":28.4,"aqi":161,"pm10":167.6,"pm2_5":105.9,"no2":61.4,"co":871.0,"o3":10.0,"so2":18.8,"mosquito_risk":7,"arthritis_risk":5,"migraine_risk":7,"frizz_risk":1,"updated_at":"2026-06-16T03:15:22.343272+05:30"},{"city":"Bhagalpur","state":"Bihar","latitude":25.2425,"longitude":87.0117,"temp":28.7,"humidity":84,"rain":0.0,"pressure":997.5,"uv_index":8.85,"wind_gusts":26.3,"aqi":155,"pm10":82.9,"pm2_5":74.5,"no2":18.1,"co":682.0,"o3":80.0,"so2":21.3,"mosquito_risk":7,"arthritis_risk":5,"migraine_risk":7,"frizz_risk":1,"updated_at":"2026-06-16T03:15:22.343279+05:30"},{"city":"Ranchi","state":"Jharkhand","latitude":23.3441,"longitude":85.3096,"temp":25.5,"humidity":66,"rain":0.0,"pressure":934.0,"uv_index":9.25,"wind_gusts":26.3,"aqi":135,"pm10":165.3,"pm2_5":90.1,"no2":43.1,"co":597.0,"o3":49.0,"so2":15.5,"mosquito_risk":7,"arthritis_risk":5,"migraine_risk":7,"frizz_risk":1,"updated_at":"2026-06-16T03:15:22.343286+05:30"},{"city":"Jamshedpur","state":"Jharkhand","latitude":22.8046,"longitude":86.2029,"temp":27.6,"humidity":79,"rain":0.0,"pressure":987.0,"uv_index":9.1,"wind_gusts":22.3,"aqi":151,"pm10":88.2,"pm2_5":72.2,"no2":27.7,"co":366.0,"o3":64.0,"so2":24.3,"mosquito_risk":7,"arthritis_risk":5,"migraine_risk":7,"frizz_risk":1,"updated_at":"2026-06-16T03:15:22.343293+05:30"},{"city":"Dhanbad","state":"Jharkhand","latitude":23.7957,"longitude":86.4304,"temp":27.7,"humidity":80,"rain":0.0,"pressure":976.0,"uv_index":9.1,"wind_gusts":27.0,"aqi":167,"pm10":125.3,"pm2_5":113.2,"no2":74.9,"co":673.0,"o3":37.0,"so2":199.4,"mosquito_risk":7,"arthritis_risk":5,"migraine_risk":7,"frizz_risk":1,"updated_at":"2026-06-16T03:15:22.343300+05:30"},{"city":"Bokaro","state":"Jharkhand","latitude":23.6693,"longitude":86.1511,"temp":26.3,"humidity":86,"rain":0.0,"pressure":979.6,"uv_index":9.1,"wind_gusts":26.3,"aqi":165,"pm10":182.5,"pm2_5":132.2,"no2":80.8,"co":1622.0,"o3":5.0,"so2":156.1,"mosquito_risk":7,"arthritis_risk":5,"migraine_risk":7,"frizz_risk":1,"updated_at":"2026-06-16T03:15:22.343307+05:30"},{"city":"Bhubaneswar","state":"Odisha","latitude":20.2961,"longitude":85.8245,"temp":28.2,"humidity":97,"rain":0.0,"pressure":998.2,"uv_index":9.05,"wind_gusts":42.1,"aqi":136,"pm10":60.5,"pm2_5":47.8,"no2":12.0,"co":446.0,"o3":77.0,"so2":6.8,"mosquito_risk":7,"arthritis_risk":5,"migraine_risk":7,"frizz_risk":1,"updated_at":"2026-06-16T03:15:22.343315+05:30"},{"city":"Cuttack","state":"Odisha","latitude":20.4625,"longitude":85.8828,"temp":28.4,"humidity":95,"rain":0.0,"pressure":1000.0,"uv_index":9.1,"wind_gusts":39.2,"aqi":136,"pm10":60.5,"pm2_5":47.8,"no2":12.0,"co":480.0,"o3":77.0,"so2":6.8,"mosquito_risk":7,"arthritis_risk":5,"migraine_risk":4,"frizz_risk":1,"updated_at":"2026-06-16T03:15:22.343322+05:30"},{"city":"Rourkela","state":"Odisha","latitude":22.2604,"longitude":84.8536,"temp":27.9,"humidity":79,"rain":0.0,"pressure":980.9,"uv_index":9.05,"wind_gusts":43.2,"aqi":139,"pm10":110.4,"pm2_5":77.8,"no2":30.4,"co":341.0,"o3":62.0,"so2":18.7,"mosquito_risk":7,"arthritis_risk":5,"migraine_risk":7,"frizz_risk":1,"updated_at":"2026-06-16T03:15:22.343332+05:30"},{"city":"Raipur","state":"Chhattisgarh","latitude":21.2514,"longitude":81.6296,"temp":29.1,"humidity":61,"rain":0.0,"pressure":971.0,"uv_index":8.95,"wind_gusts":51.1,"aqi":149,"pm10":109.9,"pm2_5":78.0,"no2":54.5,"co":715.0,"o3":15.0,"so2":60.5,"mosquito_risk":7,"arthritis_risk":5,"migraine_risk":7,"frizz_risk":1,"updated_at":"2026-06-16T03:15:22.343339+05:30"},{"city":"Bhilai","state":"Chhattisgarh","latitude":21.1938,"longitude":81.3509,"temp":29.0,"humidity":66,"rain":0.0,"pressure":971.4,"uv_index":8.95,"wind_gusts":52.2,"aqi":150,"pm10":126.2,"pm2_5":85.2,"no2":51.6,"co":983.0,"o3":18.0,"so2":57.5,"mosquito_risk":7,"arthritis_risk":5,"migraine_risk":7,"frizz_risk":1,"updated_at":"2026-06-16T03:15:22.343346+05:30"},{"city":"Guwahati","state":"Assam","latitude":26.1158,"longitude":91.7086,"temp":25.1,"humidity":100,"rain":0.0,"pressure":999.2,"uv_index":8.15,"wind_gusts":23.4,"aqi":78,"pm10":35.4,"pm2_5":31.4,"no2":6.2,"co":439.0,"o3":84.0,"so2":3.9,"mosquito_risk":7,"arthritis_risk":5,"migraine_risk":7,"frizz_risk":1,"updated_at":"2026-06-16T03:15:22.343353+05:30"},{"city":"Agartala","state":"Tripura","latitude":23.8315,"longitude":91.2868,"temp":25.8,"humidity":93,"rain":0.0,"pressure":1003.5,"uv_index":7.8,"wind_gusts":26.3,"aqi":85,"pm10":27.5,"pm2_5":24.0,"no2":12.9,"co":259.0,"o3":51.0,"so2":2.7,"mosquito_risk":7,"arthritis_risk":5,"migraine_risk":4,"frizz_risk":1,"updated_at":"2026-06-16T03:15:22.343360+05:30"},{"city":"Shillong","state":"Meghalaya","latitude":25.5788,"longitude":91.8933,"temp":17.0,"humidity":95,"rain":0.0,"pressure":854.4,"uv_index":8.4,"wind_gusts":19.8,"aqi":42,"pm10":7.1,"pm2_5":5.7,"no2":3.3,"co":249.0,"o3":100.0,"so2":3.5,"mosquito_risk":3,"arthritis_risk":10,"migraine_risk":7,"frizz_risk":1,"updated_at":"2026-06-16T03:15:22.343366+05:30"},{"city":"Imphal","state":"Manipur","latitude":24.817,"longitude":93.9368,"temp":21.9,"humidity":97,"rain":0.0,"pressure":920.9,"uv_index":8.6,"wind_gusts":31.0,"aqi":76,"pm10":31.5,"pm2_5":28.7,"no2":14.1,"co":308.0,"o3":37.0,"so2":2.8,"mosquito_risk":3,"arthritis_risk":5,"migraine_risk":7,"frizz_risk":1,"updated_at":"2026-06-16T03:15:22.343373+05:30"},{"city":"Aizawl","state":"Mizoram","latitude":23.7271,"longitude":92.7176,"temp":18.7,"humidity":99,"rain":0.0,"pressure":890.0,"uv_index":7.8,"wind_gusts":23.8,"aqi":48,"pm10":11.7,"pm2_5":9.9,"no2":4.7,"co":177.0,"o3":38.0,"so2":0.7,"mosquito_risk":3,"arthritis_risk":10,"migraine_risk":7,"frizz_risk":1,"updated_at":"2026-06-16T03:15:22.343379+05:30"},{"city":"Kohima","state":"Nagaland","latitude":25.6701,"longitude":94.1077,"temp":18.7,"humidity":97,"rain":0.0,"pressure":853.4,"uv_index":7.15,"wind_gusts":25.2,"aqi":37,"pm10":9.7,"pm2_5":7.7,"no2":3.6,"co":285.0,"o3":63.0,"so2":1.0,"mosquito_risk":3,"arthritis_risk":10,"migraine_risk":7,"frizz_risk":1,"updated_at":"2026-06-16T03:15:22.343386+05:30"},{"city":"Gangtok","state":"Sikkim","latitude":27.3314,"longitude":88.6138,"temp":16.7,"humidity":89,"rain":0.0,"pressure":835.3,"uv_index":8.85,"wind_gusts":37.4,"aqi":62,"pm10":22.6,"pm2_5":19.5,"no2":9.7,"co":710.0,"o3":102.0,"so2":2.1,"mosquito_risk":3,"arthritis_risk":10,"migraine_risk":7,"frizz_risk":0,"updated_at":"2026-06-16T03:15:22.343394+05:30"},{"city":"Siliguri","state":"West Bengal","latitude":26.7271,"longitude":88.3953,"temp":24.2,"humidity":97,"rain":0.0,"pressure":990.8,"uv_index":8.75,"wind_gusts":19.8,"aqi":105,"pm10":49.5,"pm2_5":40.6,"no2":10.1,"co":457.0,"o3":109.0,"so2":4.5,"mosquito_risk":3,"arthritis_risk":5,"migraine_risk":7,"frizz_risk":1,"updated_at":"2026-06-16T03:15:25.590725+05:30"},{"city":"Durgapur","state":"West Bengal","latitude":23.5204,"longitude":87.3119,"temp":27.5,"humidity":94,"rain":0.0,"pressure":991.2,"uv_index":9.0,"wind_gusts":33.8,"aqi":170,"pm10":82.9,"pm2_5":77.8,"no2":29.9,"co":648.0,"o3":67.0,"so2":42.9,"mosquito_risk":7,"arthritis_risk":5,"migraine_risk":7,"frizz_risk":1,"updated_at":"2026-06-16T03:15:25.590764+05:30"},{"city":"Asansol","state":"West Bengal","latitude":23.6739,"longitude":86.9524,"temp":27.5,"humidity":90,"rain":0.0,"pressure":989.7,"uv_index":9.05,"wind_gusts":37.1,"aqi":161,"pm10":74.5,"pm2_5":68.2,"no2":26.2,"co":506.0,"o3":75.0,"so2":38.1,"mosquito_risk":7,"arthritis_risk":5,"migraine_risk":7,"frizz_risk":1,"updated_at":"2026-06-16T03:15:25.590776+05:30"},{"city":"Pondicherry","state":"Puducherry","latitude":11.9139,"longitude":79.8145,"temp":28.8,"humidity":76,"rain":0.0,"pressure":1005.5,"uv_index":7.15,"wind_gusts":36.4,"aqi":86,"pm10":32.2,"pm2_5":20.0,"no2":10.2,"co":209.0,"o3":69.0,"so2":7.7,"mosquito_risk":7,"arthritis_risk":5,"migraine_risk":4,"frizz_risk":1,"updated_at":"2026-06-16T03:15:25.590784+05:30"},{"city":"Port Blair","state":"Andaman and Nicobar Islands","latitude":11.6234,"longitude":92.7265,"temp":27.5,"humidity":83,"rain":0.0,"pressure":1007.0,"uv_index":7.95,"wind_gusts":43.9,"aqi":37,"pm10":14.3,"pm2_5":8.1,"no2":0.2,"co":85.0,"o3":43.0,"so2":0.4,"mosquito_risk":7,"arthritis_risk":5,"migraine_risk":4,"frizz_risk":1,"updated_at":"2026-06-16T03:15:25.590793+05:30"},{"city":"Haridwar","state":"Uttarakhand","latitude":29.9457,"longitude":78.1642,"temp":22.9,"humidity":89,"rain":0.0,"pressure":970.6,"uv_index":7.6,"wind_gusts":27.0,"aqi":88,"pm10":78.5,"pm2_5":57.4,"no2":42.5,"co":388.0,"o3":43.0,"so2":12.8,"mosquito_risk":3,"arthritis_risk":5,"migraine_risk":7,"frizz_risk":1,"updated_at":"2026-06-16T03:15:25.590801+05:30"},{"city":"Rishikesh","state":"Uttarakhand","latitude":30.0869,"longitude":78.2676,"temp":20.8,"humidity":94,"rain":0.0,"pressure":963.2,"uv_index":7.7,"wind_gusts":22.7,"aqi":74,"pm10":41.3,"pm2_5":26.0,"no2":13.2,"co":305.0,"o3":107.0,"so2":7.8,"mosquito_risk":3,"arthritis_risk":5,"migraine_risk":7,"frizz_risk":1,"updated_at":"2026-06-16T03:15:25.590809+05:30"},{"city":"Nainital","state":"Uttarakhand","latitude":29.3919,"longitude":79.4542,"temp":16.0,"humidity":67,"rain":0.0,"pressure":803.2,"uv_index":7.85,"wind_gusts":31.0,"aqi":85,"pm10":41.1,"pm2_5":31.1,"no2":31.6,"co":295.0,"o3":28.0,"so2":2.9,"mosquito_risk":3,"arthritis_risk":5,"migraine_risk":7,"frizz_risk":0,"updated_at":"2026-06-16T03:15:25.590816+05:30"},{"city":"Mussoorie","state":"Uttarakhand","latitude":30.4599,"longitude":78.0664,"temp":15.9,"humidity":62,"rain":0.0,"pressure":800.6,"uv_index":7.45,"wind_gusts":37.8,"aqi":65,"pm10":38.1,"pm2_5":29.0,"no2":36.3,"co":230.0,"o3":47.0,"so2":6.9,"mosquito_risk":3,"arthritis_risk":5,"migraine_risk":7,"frizz_risk":0,"updated_at":"2026-06-16T03:15:25.590824+05:30"},{"city":"Dharamshala","state":"Himachal Pradesh","latitude":32.219,"longitude":76.3234,"temp":21.1,"humidity":52,"rain":0.0,"pressure":866.5,"uv_index":8.55,"wind_gusts":41.0,"aqi":28,"pm10":9.2,"pm2_5":7.1,"no2":17.6,"co":185.0,"o3":31.0,"so2":0.0,"mosquito_risk":0,"arthritis_risk":5,"migraine_risk":7,"frizz_risk":0,"updated_at":"2026-06-16T03:15:25.590832+05:30"},{"city":"Dalhousie","state":"Himachal Pradesh","latitude":32.5387,"longitude":75.971,"temp":12.0,"humidity":85,"rain":0.0,"pressure":799.7,"uv_index":8.55,"wind_gusts":31.0,"aqi":59,"pm10":25.6,"pm2_5":23.5,"no2":42.8,"co":311.0,"o3":8.0,"so2":0.7,"mosquito_risk":3,"arthritis_risk":10,"migraine_risk":7,"frizz_risk":0,"updated_at":"2026-06-16T03:15:25.590858+05:30"},{"city":"Patiala","state":"Punjab","latitude":30.3398,"longitude":76.3869,"temp":25.6,"humidity":81,"rain":0.0,"pressure":974.0,"uv_index":7.7,"wind_gusts":28.4,"aqi":400,"pm10":366.9,"pm2_5":116.6,"no2":31.9,"co":481.0,"o3":53.0,"so2":13.2,"mosquito_risk":7,"arthritis_risk":5,"migraine_risk":7,"frizz_risk":1,"updated_at":"2026-06-16T03:15:25.590866+05:30"},{"city":"Bhatinda","state":"Punjab","latitude":30.211,"longitude":74.9455,"temp":28.8,"humidity":64,"rain":0.0,"pressure":979.0,"uv_index":8.3,"wind_gusts":23.4,"aqi":164,"pm10":205.8,"pm2_5":82.0,"no2":38.2,"co":334.0,"o3":41.0,"so2":10.4,"mosquito_risk":7,"arthritis_risk":5,"migraine_risk":7,"frizz_risk":1,"updated_at":"2026-06-16T03:15:25.590873+05:30"},{"city":"Rohtak","state":"Haryana","latitude":28.8955,"longitude":76.6066,"temp":25.5,"humidity":69,"rain":0.0,"pressure":977.6,"uv_index":7.8,"wind_gusts":19.1,"aqi":244,"pm10":347.4,"pm2_5":109.9,"no2":53.5,"co":287.0,"o3":25.0,"so2":19.4,"mosquito_risk":7,"arthritis_risk":5,"migraine_risk":7,"frizz_risk":1,"updated_at":"2026-06-16T03:15:25.590880+05:30"},{"city":"Panipat","state":"Haryana","latitude":29.3909,"longitude":76.9635,"temp":25.6,"humidity":78,"rain":0.0,"pressure":976.3,"uv_index":7.65,"wind_gusts":24.8,"aqi":352,"pm10":288.7,"pm2_5":92.4,"no2":27.0,"co":744.0,"o3":51.0,"so2":10.4,"mosquito_risk":7,"arthritis_risk":5,"migraine_risk":7,"frizz_risk":1,"updated_at":"2026-06-16T03:15:25.590887+05:30"},{"city":"Mathura","state":"Uttar Pradesh","latitude":27.4924,"longitude":77.6737,"temp":25.1,"humidity":73,"rain":0.0,"pressure":982.4,"uv_index":8.0,"wind_gusts":23.8,"aqi":634,"pm10":428.4,"pm2_5":90.8,"no2":21.9,"co":417.0,"o3":40.0,"so2":3.2,"mosquito_risk":7,"arthritis_risk":5,"migraine_risk":7,"frizz_risk":1,"updated_at":"2026-06-16T03:15:25.590894+05:30"},{"city":"Vrindavan","state":"Uttar Pradesh","latitude":27.5823,"longitude":77.7027,"temp":25.6,"humidity":69,"rain":0.0,"pressure":982.9,"uv_index":7.95,"wind_gusts":23.4,"aqi":634,"pm10":428.4,"pm2_5":90.8,"no2":21.9,"co":456.0,"o3":40.0,"so2":3.2,"mosquito_risk":7,"arthritis_risk":5,"migraine_risk":7,"frizz_risk":1,"updated_at":"2026-06-16T03:15:25.590900+05:30"},{"city":"Ayodhya","state":"Uttar Pradesh","latitude":26.7922,"longitude":82.1998,"temp":27.4,"humidity":76,"rain":0.0,"pressure":990.7,"uv_index":8.45,"wind_gusts":26.3,"aqi":159,"pm10":182.5,"pm2_5":97.1,"no2":62.6,"co":391.0,"o3":5.0,"so2":11.5,"mosquito_risk":7,"arthritis_risk":5,"migraine_risk":7,"frizz_risk":1,"updated_at":"2026-06-16T03:15:25.590907+05:30"},{"city":"Ratlam","state":"Madhya Pradesh","latitude":23.3315,"longitude":75.0367,"temp":27.0,"humidity":73,"rain":0.0,"pressure":952.4,"uv_index":8.5,"wind_gusts":39.2,"aqi":77,"pm10":29.5,"pm2_5":19.8,"no2":6.6,"co":169.0,"o3":53.0,"so2":11.8,"mosquito_risk":7,"arthritis_risk":5,"migraine_risk":7,"frizz_risk":1,"updated_at":"2026-06-16T03:15:25.590914+05:30"},{"city":"Sagar","state":"Madhya Pradesh","latitude":23.8388,"longitude":78.7378,"temp":28.4,"humidity":53,"rain":0.0,"pressure":947.3,"uv_index":8.75,"wind_gusts":34.9,"aqi":103,"pm10":46.4,"pm2_5":22.4,"no2":10.3,"co":180.0,"o3":58.0,"so2":1.9,"mosquito_risk":4,"arthritis_risk":5,"migraine_risk":7,"frizz_risk":1,"updated_at":"2026-06-16T03:15:25.590922+05:30"},{"city":"Satna","state":"Madhya Pradesh","latitude":24.6005,"longitude":80.8322,"temp":30.0,"humidity":48,"rain":0.0,"pressure":967.8,"uv_index":8.8,"wind_gusts":34.2,"aqi":106,"pm10":69.4,"pm2_5":37.6,"no2":8.4,"co":173.0,"o3":69.0,"so2":4.1,"mosquito_risk":4,"arthritis_risk":5,"migraine_risk":7,"frizz_risk":1,"updated_at":"2026-06-16T03:15:25.590929+05:30"},{"city":"Akola","state":"Maharashtra","latitude":20.7002,"longitude":77.0082,"temp":30.6,"humidity":52,"rain":0.0,"pressure":972.9,"uv_index":8.8,"wind_gusts":43.2,"aqi":81,"pm10":29.7,"pm2_5":19.8,"no2":9.0,"co":142.0,"o3":67.0,"so2":12.6,"mosquito_risk":0,"arthritis_risk":5,"migraine_risk":7,"frizz_risk":1,"updated_at":"2026-06-16T03:15:25.590938+05:30"},{"city":"Amravati","state":"Maharashtra","latitude":20.9374,"longitude":77.7796,"temp":30.1,"humidity":49,"rain":0.0,"pressure":964.8,"uv_index":8.8,"wind_gusts":54.7,"aqi":86,"pm10":41.2,"pm2_5":26.5,"no2":12.7,"co":225.0,"o3":63.0,"so2":11.1,"mosquito_risk":0,"arthritis_risk":5,"migraine_risk":7,"frizz_risk":1,"updated_at":"2026-06-16T03:15:25.590946+05:30"},{"city":"Latur","state":"Maharashtra","latitude":18.4088,"longitude":76.5604,"temp":26.4,"humidity":61,"rain":0.0,"pressure":938.4,"uv_index":8.9,"wind_gusts":33.5,"aqi":65,"pm10":18.5,"pm2_5":12.9,"no2":5.4,"co":152.0,"o3":65.0,"so2":5.5,"mosquito_risk":7,"arthritis_risk":5,"migraine_risk":7,"frizz_risk":1,"updated_at":"2026-06-16T03:15:25.590954+05:30"},{"city":"Nanded","state":"Maharashtra","latitude":19.1383,"longitude":77.3091,"temp":29.7,"humidity":46,"rain":0.0,"pressure":966.7,"uv_index":8.7,"wind_gusts":35.6,"aqi":79,"pm10":33.5,"pm2_5":22.7,"no2":12.7,"co":177.0,"o3":45.0,"so2":4.0,"mosquito_risk":4,"arthritis_risk":5,"migraine_risk":7,"frizz_risk":1,"updated_at":"2026-06-16T03:15:25.590961+05:30"},{"city":"Gulbarga","state":"Karnataka","latitude":17.3297,"longitude":76.8343,"temp":27.1,"humidity":64,"rain":0.0,"pressure":956.8,"uv_index":8.9,"wind_gusts":41.0,"aqi":68,"pm10":13.8,"pm2_5":10.4,"no2":6.6,"co":156.0,"o3":60.0,"so2":5.1,"mosquito_risk":7,"arthritis_risk":5,"migraine_risk":7,"frizz_risk":1,"updated_at":"2026-06-16T03:15:25.590968+05:30"},{"city":"Bidar","state":"Karnataka","latitude":17.9104,"longitude":77.5199,"temp":26.7,"humidity":50,"rain":0.0,"pressure":933.5,"uv_index":6.85,"wind_gusts":34.2,"aqi":94,"pm10":59.4,"pm2_5":39.3,"no2":26.1,"co":218.0,"o3":38.0,"so2":5.4,"mosquito_risk":4,"arthritis_risk":5,"migraine_risk":7,"frizz_risk":0,"updated_at":"2026-06-16T03:15:25.590974+05:30"},{"city":"Hospet","state":"Karnataka","latitude":15.2689,"longitude":76.3909,"temp":24.6,"humidity":81,"rain":0.0,"pressure":954.8,"uv_index":6.45,"wind_gusts":33.8,"aqi":57,"pm10":15.5,"pm2_5":9.3,"no2":6.6,"co":156.0,"o3":39.0,"so2":2.1,"mosquito_risk":3,"arthritis_risk":5,"migraine_risk":7,"frizz_risk":1,"updated_at":"2026-06-16T03:15:25.590981+05:30"},{"city":"Tirupur","state":"Tamil Nadu","latitude":11.1085,"longitude":77.3411,"temp":25.3,"humidity":89,"rain":0.0,"pressure":974.0,"uv_index":8.8,"wind_gusts":47.9,"aqi":65,"pm10":27.6,"pm2_5":20.5,"no2":18.9,"co":176.0,"o3":26.0,"so2":5.0,"mosquito_risk":7,"arthritis_risk":5,"migraine_risk":7,"frizz_risk":1,"updated_at":"2026-06-16T03:15:25.590987+05:30"},{"city":"Alappuzha","state":"Kerala","latitude":9.4981,"longitude":76.3388,"temp":24.4,"humidity":99,"rain":0.2,"pressure":1009.3,"uv_index":7.55,"wind_gusts":33.8,"aqi":60,"pm10":22.5,"pm2_5":13.8,"no2":9.8,"co":364.0,"o3":42.0,"so2":3.5,"mosquito_risk":6,"arthritis_risk":0,"migraine_risk":4,"frizz_risk":1,"updated_at":"2026-06-16T03:15:25.590994+05:30"},{"city":"Munnar","state":"Kerala","latitude":10.0889,"longitude":77.0595,"temp":16.1,"humidity":89,"rain":0.0,"pressure":855.3,"uv_index":7.5,"wind_gusts":29.5,"aqi":52,"pm10":13.3,"pm2_5":10.5,"no2":7.9,"co":138.0,"o3":29.0,"so2":1.6,"mosquito_risk":3,"arthritis_risk":10,"migraine_risk":7,"frizz_risk":0,"updated_at":"2026-06-16T03:15:25.591001+05:30"},{"city":"Silchar","state":"Assam","latitude":24.8333,"longitude":92.7789,"temp":24.9,"humidity":97,"rain":0.0,"pressure":1003.2,"uv_index":8.95,"wind_gusts":26.3,"aqi":69,"pm10":20.1,"pm2_5":17.2,"no2":6.4,"co":254.0,"o3":82.0,"so2":3.4,"mosquito_risk":3,"arthritis_risk":5,"migraine_risk":4,"frizz_risk":1,"updated_at":"2026-06-16T03:15:25.591008+05:30"},{"city":"Dibrugarh","state":"Assam","latitude":27.4728,"longitude":94.912,"temp":24.5,"humidity":94,"rain":0.0,"pressure":992.9,"uv_index":8.8,"wind_gusts":17.3,"aqi":57,"pm10":14.6,"pm2_5":13.5,"no2":13.1,"co":268.0,"o3":56.0,"so2":1.2,"mosquito_risk":3,"arthritis_risk":5,"migraine_risk":7,"frizz_risk":1,"updated_at":"2026-06-16T03:15:25.591014+05:30"}]