[{"city":"Delhi","state":"Delhi","latitude":28.6139,"longitude":77.209,"temp":27.4,"humidity":51,"rain":0.0,"pressure":983.9,"uv_index":7.55,"wind_gusts":47.9,"aqi":431,"pm10":452.6,"pm2_5":74.7,"no2":14.5,"co":572.0,"o3":153.0,"so2":19.8,"mosquito_risk":4,"arthritis_risk":5,"migraine_risk":7,"frizz_risk":1,"updated_at":"2026-05-07T19:50:49.070444+05:30"},{"city":"Mumbai","state":"Maharashtra","latitude":19.076,"longitude":72.8777,"temp":29.7,"humidity":79,"rain":0.0,"pressure":1005.9,"uv_index":7.85,"wind_gusts":43.9,"aqi":96,"pm10":86.1,"pm2_5":29.1,"no2":12.7,"co":254.0,"o3":76.0,"so2":12.0,"mosquito_risk":7,"arthritis_risk":5,"migraine_risk":4,"frizz_risk":1,"updated_at":"2026-05-07T19:50:49.070491+05:30"},{"city":"Bangalore","state":"Karnataka","latitude":12.9716,"longitude":77.5946,"temp":28.6,"humidity":47,"rain":0.1,"pressure":910.7,"uv_index":9.5,"wind_gusts":29.5,"aqi":74,"pm10":27.2,"pm2_5":24.9,"no2":30.1,"co":399.0,"o3":66.0,"so2":10.3,"mosquito_risk":7,"arthritis_risk":5,"migraine_risk":7,"frizz_risk":1,"updated_at":"2026-05-07T19:50:49.070508+05:30"},{"city":"Hyderabad","state":"Telangana","latitude":17.385,"longitude":78.4867,"temp":32.2,"humidity":37,"rain":0.0,"pressure":953.1,"uv_index":9.25,"wind_gusts":33.1,"aqi":95,"pm10":26.4,"pm2_5":18.9,"no2":9.4,"co":286.0,"o3":108.0,"so2":5.9,"mosquito_risk":0,"arthritis_risk":5,"migraine_risk":7,"frizz_risk":0,"updated_at":"2026-05-07T19:50:49.070519+05:30"},{"city":"Chennai","state":"Tamil Nadu","latitude":13.0827,"longitude":80.2707,"temp":29.8,"humidity":72,"rain":0.0,"pressure":1006.0,"uv_index":9.25,"wind_gusts":39.2,"aqi":30,"pm10":6.5,"pm2_5":4.6,"no2":4.1,"co":134.0,"o3":41.0,"so2":3.9,"mosquito_risk":7,"arthritis_risk":5,"migraine_risk":4,"frizz_risk":1,"updated_at":"2026-05-07T19:50:49.070529+05:30"},{"city":"Kolkata","state":"West Bengal","latitude":22.5726,"longitude":88.3639,"temp":26.9,"humidity":85,"rain":0.0,"pressure":1007.7,"uv_index":8.9,"wind_gusts":37.8,"aqi":86,"pm10":36.8,"pm2_5":34.7,"no2":17.0,"co":564.0,"o3":59.0,"so2":12.9,"mosquito_risk":7,"arthritis_risk":5,"migraine_risk":4,"frizz_risk":1,"updated_at":"2026-05-07T19:50:49.070539+05:30"},{"city":"Pune","state":"Maharashtra","latitude":18.5204,"longitude":73.8567,"temp":32.0,"humidity":35,"rain":0.0,"pressure":946.3,"uv_index":8.45,"wind_gusts":41.4,"aqi":137,"pm10":59.8,"pm2_5":28.9,"no2":7.3,"co":301.0,"o3":151.0,"so2":11.7,"mosquito_risk":0,"arthritis_risk":5,"migraine_risk":7,"frizz_risk":0,"updated_at":"2026-05-07T19:50:49.070547+05:30"},{"city":"Ahmedabad","state":"Gujarat","latitude":23.0225,"longitude":72.5714,"temp":39.4,"humidity":13,"rain":0.0,"pressure":998.6,"uv_index":8.05,"wind_gusts":27.7,"aqi":101,"pm10":79.2,"pm2_5":34.9,"no2":33.7,"co":328.0,"o3":93.0,"so2":12.3,"mosquito_risk":0,"arthritis_risk":5,"migraine_risk":10,"frizz_risk":0,"updated_at":"2026-05-07T19:50:49.070559+05:30"},{"city":"Jaipur","state":"Rajasthan","latitude":26.9124,"longitude":75.7873,"temp":27.6,"humidity":42,"rain":0.0,"pressure":958.7,"uv_index":8.1,"wind_gusts":62.6,"aqi":115,"pm10":154.6,"pm2_5":37.0,"no2":19.2,"co":508.0,"o3":99.0,"so2":5.9,"mosquito_risk":4,"arthritis_risk":5,"migraine_risk":7,"frizz_risk":0,"updated_at":"2026-05-07T19:50:49.070568+05:30"},{"city":"Lucknow","state":"Uttar Pradesh","latitude":26.8467,"longitude":80.9462,"temp":25.9,"humidity":66,"rain":0.0,"pressure":995.8,"uv_index":8.05,"wind_gusts":32.4,"aqi":161,"pm10":74.0,"pm2_5":43.4,"no2":12.4,"co":397.0,"o3":127.0,"so2":11.6,"mosquito_risk":7,"arthritis_risk":5,"migraine_risk":7,"frizz_risk":1,"updated_at":"2026-05-07T19:50:49.070577+05:30"},{"city":"Kanpur","state":"Uttar Pradesh","latitude":26.4499,"longitude":80.3319,"temp":27.0,"humidity":50,"rain":0.0,"pressure":993.6,"uv_index":8.05,"wind_gusts":38.9,"aqi":161,"pm10":272.9,"pm2_5":52.9,"no2":9.4,"co":296.0,"o3":133.0,"so2":8.8,"mosquito_risk":4,"arthritis_risk":5,"migraine_risk":7,"frizz_risk":0,"updated_at":"2026-05-07T19:50:49.070587+05:30"},{"city":"Chandigarh","state":"Chandigarh","latitude":30.7333,"longitude":76.7794,"temp":24.8,"humidity":51,"rain":0.0,"pressure":970.1,"uv_index":5.9,"wind_gusts":46.8,"aqi":169,"pm10":87.5,"pm2_5":38.2,"no2":22.3,"co":696.0,"o3":126.0,"so2":6.9,"mosquito_risk":0,"arthritis_risk":5,"migraine_risk":3,"frizz_risk":0,"updated_at":"2026-05-07T19:50:49.070595+05:30"},{"city":"Srinagar","state":"Jammu and Kashmir","latitude":34.0837,"longitude":74.7973,"temp":17.2,"humidity":62,"rain":0.0,"pressure":838.9,"uv_index":8.7,"wind_gusts":33.5,"aqi":95,"pm10":36.8,"pm2_5":20.3,"no2":24.4,"co":1151.0,"o3":84.0,"so2":5.2,"mosquito_risk":3,"arthritis_risk":5,"migraine_risk":7,"frizz_risk":0,"updated_at":"2026-05-07T19:50:49.070604+05:30"},{"city":"Jammu","state":"Jammu and Kashmir","latitude":32.7266,"longitude":74.857,"temp":27.3,"humidity":45,"rain":0.0,"pressure":972.7,"uv_index":8.3,"wind_gusts":30.6,"aqi":167,"pm10":42.8,"pm2_5":27.1,"no2":23.8,"co":557.0,"o3":132.0,"so2":7.8,"mosquito_risk":4,"arthritis_risk":5,"migraine_risk":7,"frizz_risk":0,"updated_at":"2026-05-07T19:50:49.070612+05:30"},{"city":"Amritsar","state":"Punjab","latitude":31.634,"longitude":74.8723,"temp":28.5,"humidity":41,"rain":0.0,"pressure":980.6,"uv_index":8.2,"wind_gusts":32.0,"aqi":165,"pm10":176.0,"pm2_5":43.8,"no2":3.3,"co":482.0,"o3":160.0,"so2":8.0,"mosquito_risk":4,"arthritis_risk":5,"migraine_risk":7,"frizz_risk":0,"updated_at":"2026-05-07T19:50:49.070622+05:30"},{"city":"Ludhiana","state":"Punjab","latitude":30.901,"longitude":75.8573,"temp":26.0,"humidity":59,"rain":0.0,"pressure":979.2,"uv_index":7.8,"wind_gusts":40.0,"aqi":171,"pm10":350.2,"pm2_5":71.0,"no2":10.7,"co":452.0,"o3":140.0,"so2":8.9,"mosquito_risk":4,"arthritis_risk":5,"migraine_risk":7,"frizz_risk":1,"updated_at":"2026-05-07T19:50:49.070630+05:30"},{"city":"Jalandhar","state":"Punjab","latitude":31.326,"longitude":75.5762,"temp":25.8,"humidity":56,"rain":0.0,"pressure":980.1,"uv_index":7.95,"wind_gusts":38.2,"aqi":171,"pm10":295.2,"pm2_5":67.8,"no2":12.9,"co":477.0,"o3":132.0,"so2":12.1,"mosquito_risk":4,"arthritis_risk":5,"migraine_risk":7,"frizz_risk":1,"updated_at":"2026-05-07T19:50:49.070637+05:30"},{"city":"Dehradun","state":"Uttarakhand","latitude":30.6284,"longitude":78.0322,"temp":13.3,"humidity":83,"rain":0.0,"pressure":830.2,"uv_index":5.95,"wind_gusts":30.6,"aqi":144,"pm10":27.4,"pm2_5":18.7,"no2":18.1,"co":225.0,"o3":123.0,"so2":1.3,"mosquito_risk":3,"arthritis_risk":10,"migraine_risk":3,"frizz_risk":0,"updated_at":"2026-05-07T19:50:49.070647+05:30"},{"city":"Shimla","state":"Himachal Pradesh","latitude":31.1048,"longitude":77.1734,"temp":9.7,"humidity":86,"rain":0.0,"pressure":782.5,"uv_index":6.25,"wind_gusts":28.8,"aqi":153,"pm10":27.4,"pm2_5":19.3,"no2":14.0,"co":356.0,"o3":122.0,"so2":2.0,"mosquito_risk":3,"arthritis_risk":10,"migraine_risk":7,"frizz_risk":0,"updated_at":"2026-05-07T19:50:49.070655+05:30"},{"city":"Manali","state":"Himachal Pradesh","latitude":32.2396,"longitude":77.1887,"temp":9.8,"humidity":90,"rain":0.0,"pressure":815.9,"uv_index":9.35,"wind_gusts":33.1,"aqi":104,"pm10":44.6,"pm2_5":10.2,"no2":18.4,"co":288.0,"o3":115.0,"so2":0.7,"mosquito_risk":3,"arthritis_risk":10,"migraine_risk":7,"frizz_risk":0,"updated_at":"2026-05-07T19:50:49.070663+05:30"},{"city":"Gurgaon","state":"Haryana","latitude":28.4595,"longitude":77.0266,"temp":26.5,"humidity":53,"rain":0.0,"pressure":982.1,"uv_index":7.65,"wind_gusts":53.6,"aqi":1432,"pm10":2667.3,"pm2_5":287.8,"no2":13.7,"co":548.0,"o3":149.0,"so2":17.1,"mosquito_risk":4,"arthritis_risk":5,"migraine_risk":7,"frizz_risk":1,"updated_at":"2026-05-07T19:50:49.070670+05:30"},{"city":"Noida","state":"Uttar Pradesh","latitude":28.5355,"longitude":77.391,"temp":25.8,"humidity":56,"rain":0.0,"pressure":985.5,"uv_index":7.55,"wind_gusts":45.7,"aqi":1432,"pm10":2667.3,"pm2_5":287.8,"no2":13.7,"co":586.0,"o3":149.0,"so2":17.1,"mosquito_risk":4,"arthritis_risk":5,"migraine_risk":7,"frizz_risk":1,"updated_at":"2026-05-07T19:50:49.070677+05:30"},{"city":"Ghaziabad","state":"Uttar Pradesh","latitude":28.6692,"longitude":77.4538,"temp":25.9,"humidity":57,"rain":0.0,"pressure":983.8,"uv_index":7.55,"wind_gusts":45.7,"aqi":183,"pm10":333.4,"pm2_5":54.6,"no2":6.6,"co":332.0,"o3":154.0,"so2":12.2,"mosquito_risk":4,"arthritis_risk":5,"migraine_risk":7,"frizz_risk":1,"updated_at":"2026-05-07T19:50:49.070684+05:30"},{"city":"Faridabad","state":"Haryana","latitude":28.4089,"longitude":77.3178,"temp":26.5,"humidity":54,"rain":0.0,"pressure":984.6,"uv_index":7.6,"wind_gusts":51.1,"aqi":1432,"pm10":2667.3,"pm2_5":287.8,"no2":13.7,"co":533.0,"o3":149.0,"so2":17.1,"mosquito_risk":4,"arthritis_risk":5,"migraine_risk":7,"frizz_risk":1,"updated_at":"2026-05-07T19:50:49.070707+05:30"},{"city":"Meerut","state":"Uttar Pradesh","latitude":28.9845,"longitude":77.7064,"temp":24.6,"humidity":68,"rain":0.0,"pressure":982.9,"uv_index":7.1,"wind_gusts":45.4,"aqi":183,"pm10":333.4,"pm2_5":54.6,"no2":6.6,"co":373.0,"o3":154.0,"so2":12.2,"mosquito_risk":3,"arthritis_risk":5,"migraine_risk":7,"frizz_risk":1,"updated_at":"2026-05-07T19:50:49.070714+05:30"},{"city":"Agra","state":"Uttar Pradesh","latitude":27.1767,"longitude":78.0081,"temp":24.8,"humidity":66,"rain":0.0,"pressure":988.4,"uv_index":7.9,"wind_gusts":52.9,"aqi":874,"pm10":862.4,"pm2_5":100.8,"no2":10.2,"co":390.0,"o3":130.0,"so2":11.6,"mosquito_risk":3,"arthritis_risk":5,"migraine_risk":7,"frizz_risk":1,"updated_at":"2026-05-07T19:50:49.070722+05:30"},{"city":"Varanasi","state":"Uttar Pradesh","latitude":25.3176,"longitude":82.9739,"temp":26.7,"humidity":58,"rain":0.0,"pressure":999.8,"uv_index":8.55,"wind_gusts":37.4,"aqi":165,"pm10":74.3,"pm2_5":45.1,"no2":22.8,"co":633.0,"o3":113.0,"so2":16.6,"mosquito_risk":4,"arthritis_risk":5,"migraine_risk":7,"frizz_risk":1,"updated_at":"2026-05-07T19:50:49.070730+05:30"},{"city":"Prayagraj","state":"Uttar Pradesh","latitude":25.4358,"longitude":81.8463,"temp":27.5,"humidity":53,"rain":0.0,"pressure":998.0,"uv_index":8.45,"wind_gusts":31.7,"aqi":164,"pm10":80.3,"pm2_5":42.6,"no2":17.8,"co":450.0,"o3":112.0,"so2":12.1,"mosquito_risk":4,"arthritis_risk":5,"migraine_risk":7,"frizz_risk":1,"updated_at":"2026-05-07T19:50:49.070739+05:30"},{"city":"Gorakhpur","state":"Uttar Pradesh","latitude":26.7606,"longitude":83.3732,"temp":24.0,"humidity":76,"rain":0.0,"pressure":999.8,"uv_index":8.4,"wind_gusts":35.6,"aqi":153,"pm10":56.3,"pm2_5":36.6,"no2":7.4,"co":374.0,"o3":137.0,"so2":5.5,"mosquito_risk":3,"arthritis_risk":5,"migraine_risk":7,"frizz_risk":1,"updated_at":"2026-05-07T19:50:49.070746+05:30"},{"city":"Bareilly","state":"Uttar Pradesh","latitude":28.367,"longitude":79.4304,"temp":23.4,"humidity":78,"rain":0.0,"pressure":989.3,"uv_index":7.2,"wind_gusts":26.6,"aqi":154,"pm10":67.3,"pm2_5":37.0,"no2":13.8,"co":312.0,"o3":116.0,"so2":7.5,"mosquito_risk":3,"arthritis_risk":5,"migraine_risk":7,"frizz_risk":1,"updated_at":"2026-05-07T19:50:49.070753+05:30"},{"city":"Aligarh","state":"Uttar Pradesh","latitude":27.8974,"longitude":78.088,"temp":25.9,"humidity":54,"rain":0.0,"pressure":986.7,"uv_index":7.7,"wind_gusts":47.9,"aqi":621,"pm10":1482.7,"pm2_5":158.8,"no2":5.4,"co":332.0,"o3":159.0,"so2":14.1,"mosquito_risk":4,"arthritis_risk":5,"migraine_risk":7,"frizz_risk":0,"updated_at":"2026-05-07T19:50:49.070760+05:30"},{"city":"Moradabad","state":"Uttar Pradesh","latitude":28.8386,"longitude":78.7733,"temp":23.5,"humidity":75,"rain":0.0,"pressure":986.1,"uv_index":7.35,"wind_gusts":35.6,"aqi":162,"pm10":81.5,"pm2_5":46.7,"no2":18.8,"co":354.0,"o3":118.0,"so2":13.8,"mosquito_risk":3,"arthritis_risk":5,"migraine_risk":7,"frizz_risk":1,"updated_at":"2026-05-07T19:50:49.070766+05:30"},{"city":"Saharanpur","state":"Uttar Pradesh","latitude":29.9637,"longitude":77.546,"temp":24.0,"humidity":66,"rain":0.0,"pressure":977.4,"uv_index":7.0,"wind_gusts":49.0,"aqi":148,"pm10":115.5,"pm2_5":46.7,"no2":20.7,"co":456.0,"o3":118.0,"so2":13.3,"mosquito_risk":3,"arthritis_risk":5,"migraine_risk":7,"frizz_risk":1,"updated_at":"2026-05-07T19:50:49.070772+05:30"},{"city":"Jhansi","state":"Uttar Pradesh","latitude":25.4484,"longitude":78.5685,"temp":28.9,"humidity":43,"rain":0.0,"pressure":978.4,"uv_index":8.3,"wind_gusts":45.0,"aqi":139,"pm10":42.8,"pm2_5":19.0,"no2":3.2,"co":225.0,"o3":127.0,"so2":8.7,"mosquito_risk":4,"arthritis_risk":5,"migraine_risk":7,"frizz_risk":0,"updated_at":"2026-05-07T19:50:52.340907+05:30"},{"city":"Surat","state":"Gujarat","latitude":21.1702,"longitude":72.8311,"temp":31.4,"humidity":63,"rain":0.0,"pressure":1004.0,"uv_index":7.7,"wind_gusts":31.7,"aqi":131,"pm10":77.3,"pm2_5":45.5,"no2":50.9,"co":493.0,"o3":75.0,"so2":65.3,"mosquito_risk":3,"arthritis_risk":5,"migraine_risk":4,"frizz_risk":1,"updated_at":"2026-05-07T19:50:52.340943+05:30"},{"city":"Vadodara","state":"Gujarat","latitude":22.3072,"longitude":73.1812,"temp":37.0,"humidity":16,"rain":0.0,"pressure":1001.0,"uv_index":8.0,"wind_gusts":37.8,"aqi":157,"pm10":74.3,"pm2_5":34.6,"no2":27.4,"co":281.0,"o3":99.0,"so2":7.8,"mosquito_risk":0,"arthritis_risk":5,"migraine_risk":7,"frizz_risk":0,"updated_at":"2026-05-07T19:50:52.340954+05:30"},{"city":"Rajkot","state":"Gujarat","latitude":22.3039,"longitude":70.8022,"temp":32.3,"humidity":47,"rain":0.0,"pressure":991.8,"uv_index":7.65,"wind_gusts":45.4,"aqi":111,"pm10":38.5,"pm2_5":17.3,"no2":4.4,"co":162.0,"o3":107.0,"so2":6.0,"mosquito_risk":0,"arthritis_risk":5,"migraine_risk":7,"frizz_risk":1,"updated_at":"2026-05-07T19:50:52.340964+05:30"},{"city":"Thane","state":"Maharashtra","latitude":19.2183,"longitude":72.9781,"temp":30.2,"humidity":75,"rain":0.0,"pressure":1005.2,"uv_index":7.9,"wind_gusts":35.3,"aqi":96,"pm10":86.1,"pm2_5":29.1,"no2":12.7,"co":225.0,"o3":76.0,"so2":12.0,"mosquito_risk":3,"arthritis_risk":5,"migraine_risk":4,"frizz_risk":1,"updated_at":"2026-05-07T19:50:52.340971+05:30"},{"city":"Nagpur","state":"Maharashtra","latitude":21.1458,"longitude":79.0882,"temp":32.2,"humidity":36,"rain":0.0,"pressure":973.0,"uv_index":8.9,"wind_gusts":48.6,"aqi":207,"pm10":65.7,"pm2_5":46.8,"no2":27.7,"co":437.0,"o3":157.0,"so2":35.4,"mosquito_risk":0,"arthritis_risk":5,"migraine_risk":7,"frizz_risk":0,"updated_at":"2026-05-07T19:50:52.340978+05:30"},{"city":"Nashik","state":"Maharashtra","latitude":19.9975,"longitude":73.7898,"temp":31.5,"humidity":30,"rain":0.0,"pressure":944.3,"uv_index":8.15,"wind_gusts":41.4,"aqi":125,"pm10":47.6,"pm2_5":21.1,"no2":8.6,"co":195.0,"o3":112.0,"so2":3.4,"mosquito_risk":0,"arthritis_risk":5,"migraine_risk":7,"frizz_risk":0,"updated_at":"2026-05-07T19:50:52.340985+05:30"},{"city":"Aurangabad","state":"Maharashtra","latitude":19.8762,"longitude":75.3433,"temp":33.8,"humidity":16,"rain":0.0,"pressure":942.3,"uv_index":9.0,"wind_gusts":33.1,"aqi":151,"pm10":49.6,"pm2_5":23.9,"no2":8.2,"co":237.0,"o3":131.0,"so2":7.6,"mosquito_risk":0,"arthritis_risk":5,"migraine_risk":7,"frizz_risk":0,"updated_at":"2026-05-07T19:50:52.340992+05:30"},{"city":"Solapur","state":"Maharashtra","latitude":17.6599,"longitude":75.9064,"temp":34.5,"humidity":25,"rain":0.0,"pressure":955.1,"uv_index":9.05,"wind_gusts":33.8,"aqi":126,"pm10":43.1,"pm2_5":31.0,"no2":3.8,"co":294.0,"o3":137.0,"so2":4.6,"mosquito_risk":0,"arthritis_risk":5,"migraine_risk":7,"frizz_risk":0,"updated_at":"2026-05-07T19:50:52.341000+05:30"},{"city":"Kolhapur","state":"Maharashtra","latitude":16.705,"longitude":74.2433,"temp":28.5,"humidity":61,"rain":0.0,"pressure":946.6,"uv_index":8.95,"wind_gusts":46.8,"aqi":143,"pm10":46.3,"pm2_5":34.1,"no2":10.9,"co":208.0,"o3":118.0,"so2":7.4,"mosquito_risk":7,"arthritis_risk":5,"migraine_risk":7,"frizz_risk":1,"updated_at":"2026-05-07T19:50:52.341006+05:30"},{"city":"Goa","state":"Goa","latitude":15.2993,"longitude":74.124,"temp":30.2,"humidity":70,"rain":0.0,"pressure":996.0,"uv_index":8.9,"wind_gusts":38.9,"aqi":97,"pm10":61.0,"pm2_5":35.5,"no2":8.2,"co":168.0,"o3":101.0,"so2":4.4,"mosquito_risk":3,"arthritis_risk":5,"migraine_risk":7,"frizz_risk":1,"updated_at":"2026-05-07T19:50:52.341013+05:30"},{"city":"Jodhpur","state":"Rajasthan","latitude":26.2389,"longitude":73.0243,"temp":36.3,"humidity":15,"rain":0.0,"pressure":979.6,"uv_index":8.3,"wind_gusts":40.3,"aqi":119,"pm10":209.1,"pm2_5":34.1,"no2":6.0,"co":214.0,"o3":111.0,"so2":3.3,"mosquito_risk":0,"arthritis_risk":5,"migraine_risk":10,"frizz_risk":0,"updated_at":"2026-05-07T19:50:52.341020+05:30"},{"city":"Udaipur","state":"Rajasthan","latitude":24.5854,"longitude":73.7125,"temp":29.2,"humidity":33,"rain":0.0,"pressure":944.3,"uv_index":8.75,"wind_gusts":31.3,"aqi":99,"pm10":68.5,"pm2_5":19.9,"no2":3.0,"co":376.0,"o3":115.0,"so2":2.5,"mosquito_risk":4,"arthritis_risk":5,"migraine_risk":7,"frizz_risk":0,"updated_at":"2026-05-07T19:50:52.341026+05:30"},{"city":"Kota","state":"Rajasthan","latitude":25.2138,"longitude":75.8648,"temp":33.0,"humidity":27,"rain":0.0,"pressure":976.8,"uv_index":8.3,"wind_gusts":39.6,"aqi":135,"pm10":80.3,"pm2_5":29.3,"no2":13.8,"co":266.0,"o3":117.0,"so2":5.8,"mosquito_risk":0,"arthritis_risk":5,"migraine_risk":7,"frizz_risk":0,"updated_at":"2026-05-07T19:50:52.341033+05:30"},{"city":"Bikaner","state":"Rajasthan","latitude":28.0229,"longitude":73.3119,"temp":37.5,"humidity":11,"rain":0.0,"pressure":977.5,"uv_index":8.25,"wind_gusts":49.0,"aqi":115,"pm10":50.3,"pm2_5":15.0,"no2":3.7,"co":200.0,"o3":114.0,"so2":5.0,"mosquito_risk":0,"arthritis_risk":5,"migraine_risk":10,"frizz_risk":0,"updated_at":"2026-05-07T19:50:52.341040+05:30"},{"city":"Ajmer","state":"Rajasthan","latitude":26.4499,"longitude":74.6399,"temp":31.2,"humidity":23,"rain":0.0,"pressure":952.5,"uv_index":8.25,"wind_gusts":46.4,"aqi":112,"pm10":90.6,"pm2_5":26.2,"no2":9.5,"co":209.0,"o3":105.0,"so2":4.5,"mosquito_risk":0,"arthritis_risk":5,"migraine_risk":7,"frizz_risk":0,"updated_at":"2026-05-07T19:50:52.341047+05:30"},{"city":"Gwalior","state":"Madhya Pradesh","latitude":26.2183,"longitude":78.1828,"temp":26.6,"humidity":56,"rain":0.0,"pressure":983.2,"uv_index":7.9,"wind_gusts":54.0,"aqi":130,"pm10":76.4,"pm2_5":25.3,"no2":6.8,"co":286.0,"o3":113.0,"so2":6.0,"mosquito_risk":4,"arthritis_risk":5,"migraine_risk":7,"frizz_risk":1,"updated_at":"2026-05-07T19:50:52.341053+05:30"},{"city":"Indore","state":"Madhya Pradesh","latitude":22.7196,"longitude":75.8577,"temp":34.7,"humidity":17,"rain":0.0,"pressure":946.9,"uv_index":8.6,"wind_gusts":34.6,"aqi":150,"pm10":37.0,"pm2_5":23.0,"no2":14.3,"co":454.0,"o3":121.0,"so2":7.6,"mosquito_risk":0,"arthritis_risk":5,"migraine_risk":7,"frizz_risk":0,"updated_at":"2026-05-07T19:50:52.341060+05:30"},{"city":"Bhopal","state":"Madhya Pradesh","latitude":23.2599,"longitude":77.4126,"temp":33.8,"humidity":17,"rain":0.0,"pressure":952.5,"uv_index":8.65,"wind_gusts":34.2,"aqi":144,"pm10":26.7,"pm2_5":17.1,"no2":8.9,"co":257.0,"o3":125.0,"so2":6.0,"mosquito_risk":0,"arthritis_risk":5,"migraine_risk":7,"frizz_risk":0,"updated_at":"2026-05-07T19:50:52.341066+05:30"},{"city":"Jabalpur","state":"Madhya Pradesh","latitude":23.1815,"longitude":79.9864,"temp":31.3,"humidity":28,"rain":0.0,"pressure":961.3,"uv_index":8.8,"wind_gusts":37.4,"aqi":126,"pm10":28.1,"pm2_5":16.9,"no2":13.9,"co":288.0,"o3":119.0,"so2":4.4,"mosquito_risk":0,"arthritis_risk":5,"migraine_risk":7,"frizz_risk":0,"updated_at":"2026-05-07T19:50:52.341072+05:30"},{"city":"Ujjain","state":"Madhya Pradesh","latitude":23.1765,"longitude":75.7885,"temp":33.8,"humidity":19,"rain":0.0,"pressure":952.5,"uv_index":8.55,"wind_gusts":46.4,"aqi":133,"pm10":43.4,"pm2_5":25.5,"no2":7.5,"co":268.0,"o3":111.0,"so2":5.1,"mosquito_risk":0,"arthritis_risk":5,"migraine_risk":7,"frizz_risk":0,"updated_at":"2026-05-07T19:50:52.341079+05:30"},{"city":"Visakhapatnam","state":"Andhra Pradesh","latitude":17.6868,"longitude":83.2185,"temp":28.5,"humidity":80,"rain":0.0,"pressure":1004.2,"uv_index":8.9,"wind_gusts":35.3,"aqi":73,"pm10":19.8,"pm2_5":17.4,"no2":19.8,"co":360.0,"o3":23.0,"so2":9.4,"mosquito_risk":7,"arthritis_risk":5,"migraine_risk":4,"frizz_risk":1,"updated_at":"2026-05-07T19:50:52.341086+05:30"},{"city":"Vijayawada","state":"Andhra Pradesh","latitude":16.5062,"longitude":80.648,"temp":31.5,"humidity":60,"rain":0.0,"pressure":1002.1,"uv_index":9.15,"wind_gusts":33.1,"aqi":50,"pm10":12.0,"pm2_5":10.0,"no2":6.4,"co":176.0,"o3":49.0,"so2":6.9,"mosquito_risk":0,"arthritis_risk":5,"migraine_risk":4,"frizz_risk":1,"updated_at":"2026-05-07T19:50:52.341092+05:30"},{"city":"Guntur","state":"Andhra Pradesh","latitude":16.3067,"longitude":80.4365,"temp":30.9,"humidity":63,"rain":0.0,"pressure":1003.1,"uv_index":9.2,"wind_gusts":37.4,"aqi":52,"pm10":19.2,"pm2_5":16.2,"no2":6.3,"co":161.0,"o3":66.0,"so2":6.9,"mosquito_risk":3,"arthritis_risk":5,"migraine_risk":4,"frizz_risk":1,"updated_at":"2026-05-07T19:50:52.341098+05:30"},{"city":"Nellore","state":"Andhra Pradesh","latitude":14.4426,"longitude":79.9865,"temp":29.2,"humidity":75,"rain":0.0,"pressure":1005.2,"uv_index":9.2,"wind_gusts":39.6,"aqi":33,"pm10":7.4,"pm2_5":5.2,"no2":2.0,"co":130.0,"o3":39.0,"so2":1.3,"mosquito_risk":7,"arthritis_risk":5,"migraine_risk":4,"frizz_risk":1,"updated_at":"2026-05-07T19:50:52.341105+05:30"},{"city":"Kurnool","state":"Andhra Pradesh","latitude":15.8281,"longitude":78.0373,"temp":34.2,"humidity":33,"rain":0.0,"pressure":975.1,"uv_index":9.2,"wind_gusts":40.7,"aqi":84,"pm10":24.0,"pm2_5":16.4,"no2":4.3,"co":217.0,"o3":107.0,"so2":2.6,"mosquito_risk":0,"arthritis_risk":5,"migraine_risk":7,"frizz_risk":0,"updated_at":"2026-05-07T19:50:52.341112+05:30"},{"city":"Kakinada","state":"Andhra Pradesh","latitude":16.9891,"longitude":82.2475,"temp":28.0,"humidity":83,"rain":0.0,"pressure":1007.5,"uv_index":8.9,"wind_gusts":30.6,"aqi":32,"pm10":9.9,"pm2_5":6.7,"no2":1.5,"co":182.0,"o3":48.0,"so2":0.7,"mosquito_risk":7,"arthritis_risk":5,"migraine_risk":4,"frizz_risk":1,"updated_at":"2026-05-07T19:50:52.341119+05:30"},{"city":"Tirupati","state":"Andhra Pradesh","latitude":13.6288,"longitude":79.4192,"temp":29.5,"humidity":63,"rain":0.0,"pressure":990.0,"uv_index":9.25,"wind_gusts":37.4,"aqi":53,"pm10":11.3,"pm2_5":10.2,"no2":5.9,"co":154.0,"o3":56.0,"so2":3.8,"mosquito_risk":7,"arthritis_risk":5,"migraine_risk":7,"frizz_risk":1,"updated_at":"2026-05-07T19:50:52.341125+05:30"},{"city":"Warangal","state":"Telangana","latitude":17.9689,"longitude":79.5941,"temp":30.5,"humidity":54,"rain":0.0,"pressure":978.9,"uv_index":9.1,"wind_gusts":43.9,"aqi":84,"pm10":47.0,"pm2_5":34.6,"no2":20.1,"co":292.0,"o3":102.0,"so2":9.6,"mosquito_risk":0,"arthritis_risk":5,"migraine_risk":7,"frizz_risk":1,"updated_at":"2026-05-07T19:50:52.341132+05:30"},{"city":"Nizamabad","state":"Telangana","latitude":18.6725,"longitude":78.0941,"temp":27.8,"humidity":60,"rain":0.0,"pressure":964.1,"uv_index":9.1,"wind_gusts":49.0,"aqi":123,"pm10":42.1,"pm2_5":30.0,"no2":8.8,"co":317.0,"o3":113.0,"so2":4.1,"mosquito_risk":4,"arthritis_risk":5,"migraine_risk":7,"frizz_risk":1,"updated_at":"2026-05-07T19:50:52.341138+05:30"},{"city":"Mysore","state":"Karnataka","latitude":12.2958,"longitude":76.6396,"temp":28.5,"humidity":52,"rain":0.0,"pressure":926.7,"uv_index":9.2,"wind_gusts":32.4,"aqi":92,"pm10":40.3,"pm2_5":32.1,"no2":40.0,"co":324.0,"o3":80.0,"so2":9.4,"mosquito_risk":4,"arthritis_risk":5,"migraine_risk":7,"frizz_risk":1,"updated_at":"2026-05-07T19:50:52.341144+05:30"},{"city":"Mangalore","state":"Karnataka","latitude":12.9141,"longitude":74.856,"temp":28.2,"humidity":85,"rain":0.0,"pressure":1004.8,"uv_index":8.45,"wind_gusts":34.2,"aqi":60,"pm10":42.6,"pm2_5":24.4,"no2":8.4,"co":162.0,"o3":80.0,"so2":3.3,"mosquito_risk":7,"arthritis_risk":5,"migraine_risk":4,"frizz_risk":1,"updated_at":"2026-05-07T19:50:52.341150+05:30"},{"city":"Hubli-Dharwad","state":"Karnataka","latitude":15.3647,"longitude":75.124,"temp":27.2,"humidity":65,"rain":0.0,"pressure":939.5,"uv_index":9.15,"wind_gusts":49.3,"aqi":143,"pm10":62.9,"pm2_5":45.6,"no2":6.1,"co":277.0,"o3":133.0,"so2":3.2,"mosquito_risk":7,"arthritis_risk":5,"migraine_risk":7,"frizz_risk":1,"updated_at":"2026-05-07T19:50:52.341157+05:30"},{"city":"Belgaum","state":"Karnataka","latitude":15.8497,"longitude":74.4977,"temp":26.4,"humidity":65,"rain":0.0,"pressure":924.8,"uv_index":8.35,"wind_gusts":43.6,"aqi":135,"pm10":49.1,"pm2_5":35.5,"no2":11.9,"co":206.0,"o3":108.0,"so2":6.4,"mosquito_risk":7,"arthritis_risk":5,"migraine_risk":7,"frizz_risk":1,"updated_at":"2026-05-07T19:50:55.582897+05:30"},{"city":"Coimbatore","state":"Tamil Nadu","latitude":11.0168,"longitude":76.9558,"temp":27.5,"humidity":73,"rain":0.0,"pressure":959.7,"uv_index":7.0,"wind_gusts":29.2,"aqi":69,"pm10":25.4,"pm2_5":21.3,"no2":10.9,"co":366.0,"o3":91.0,"so2":5.1,"mosquito_risk":7,"arthritis_risk":5,"migraine_risk":7,"frizz_risk":1,"updated_at":"2026-05-07T19:50:55.582934+05:30"},{"city":"Madurai","state":"Tamil Nadu","latitude":9.9252,"longitude":78.1198,"temp":30.3,"humidity":63,"rain":0.0,"pressure":990.9,"uv_index":6.8,"wind_gusts":25.6,"aqi":81,"pm10":24.0,"pm2_5":20.7,"no2":9.3,"co":322.0,"o3":96.0,"so2":4.2,"mosquito_risk":3,"arthritis_risk":5,"migraine_risk":7,"frizz_risk":1,"updated_at":"2026-05-07T19:50:55.582946+05:30"},{"city":"Trichy","state":"Tamil Nadu","latitude":10.7905,"longitude":78.7047,"temp":30.6,"humidity":66,"rain":0.0,"pressure":997.6,"uv_index":8.05,"wind_gusts":34.2,"aqi":77,"pm10":19.3,"pm2_5":18.4,"no2":9.7,"co":251.0,"o3":104.0,"so2":7.6,"mosquito_risk":3,"arthritis_risk":5,"migraine_risk":7,"frizz_risk":1,"updated_at":"2026-05-07T19:50:55.582955+05:30"},{"city":"Salem","state":"Tamil Nadu","latitude":11.6643,"longitude":78.146,"temp":30.5,"humidity":65,"rain":0.0,"pressure":975.0,"uv_index":8.8,"wind_gusts":40.3,"aqi":102,"pm10":25.8,"pm2_5":23.7,"no2":10.2,"co":238.0,"o3":106.0,"so2":11.5,"mosquito_risk":3,"arthritis_risk":5,"migraine_risk":7,"frizz_risk":1,"updated_at":"2026-05-07T19:50:55.582963+05:30"},{"city":"Tirunelveli","state":"Tamil Nadu","latitude":8.7139,"longitude":77.7567,"temp":29.4,"humidity":71,"rain":0.0,"pressure":1001.0,"uv_index":5.1,"wind_gusts":32.4,"aqi":76,"pm10":23.2,"pm2_5":20.0,"no2":8.7,"co":325.0,"o3":92.0,"so2":3.1,"mosquito_risk":7,"arthritis_risk":5,"migraine_risk":0,"frizz_risk":1,"updated_at":"2026-05-07T19:50:55.582971+05:30"},{"city":"Vellore","state":"Tamil Nadu","latitude":12.9165,"longitude":79.1325,"temp":29.5,"humidity":67,"rain":0.0,"pressure":983.2,"uv_index":9.25,"wind_gusts":29.2,"aqi":60,"pm10":11.8,"pm2_5":10.3,"no2":8.9,"co":191.0,"o3":55.0,"so2":1.6,"mosquito_risk":7,"arthritis_risk":5,"migraine_risk":7,"frizz_risk":1,"updated_at":"2026-05-07T19:50:55.582979+05:30"},{"city":"Erode","state":"Tamil Nadu","latitude":11.341,"longitude":77.7172,"temp":30.1,"humidity":63,"rain":0.0,"pressure":986.4,"uv_index":8.1,"wind_gusts":35.6,"aqi":78,"pm10":21.0,"pm2_5":18.0,"no2":9.8,"co":269.0,"o3":101.0,"so2":3.2,"mosquito_risk":3,"arthritis_risk":5,"migraine_risk":7,"frizz_risk":1,"updated_at":"2026-05-07T19:50:55.582987+05:30"},{"city":"Kochi","state":"Kerala","latitude":9.9312,"longitude":76.2673,"temp":27.4,"humidity":93,"rain":0.1,"pressure":1006.9,"uv_index":3.65,"wind_gusts":28.1,"aqi":64,"pm10":23.8,"pm2_5":21.0,"no2":20.0,"co":526.0,"o3":54.0,"so2":4.3,"mosquito_risk":10,"arthritis_risk":5,"migraine_risk":0,"frizz_risk":1,"updated_at":"2026-05-07T19:50:55.582995+05:30"},{"city":"Thiruvananthapuram","state":"Kerala","latitude":8.5241,"longitude":76.9366,"temp":25.0,"humidity":95,"rain":0.0,"pressure":1006.2,"uv_index":7.15,"wind_gusts":31.3,"aqi":85,"pm10":17.8,"pm2_5":12.0,"no2":4.6,"co":442.0,"o3":105.0,"so2":2.2,"mosquito_risk":7,"arthritis_risk":5,"migraine_risk":4,"frizz_risk":1,"updated_at":"2026-05-07T19:50:55.583002+05:30"},{"city":"Kozhikode","state":"Kerala","latitude":11.2588,"longitude":75.7804,"temp":28.1,"humidity":83,"rain":0.0,"pressure":1005.9,"uv_index":7.5,"wind_gusts":32.0,"aqi":83,"pm10":11.6,"pm2_5":8.3,"no2":2.2,"co":265.0,"o3":119.0,"so2":1.6,"mosquito_risk":7,"arthritis_risk":5,"migraine_risk":4,"frizz_risk":1,"updated_at":"2026-05-07T19:50:55.583009+05:30"},{"city":"Thrissur","state":"Kerala","latitude":10.5276,"longitude":76.2144,"temp":27.5,"humidity":90,"rain":0.0,"pressure":1005.0,"uv_index":3.6,"wind_gusts":31.7,"aqi":66,"pm10":24.3,"pm2_5":21.1,"no2":18.9,"co":779.0,"o3":54.0,"so2":3.3,"mosquito_risk":7,"arthritis_risk":5,"migraine_risk":0,"frizz_risk":1,"updated_at":"2026-05-07T19:50:55.583017+05:30"},{"city":"Kannur","state":"Kerala","latitude":11.8745,"longitude":75.3704,"temp":28.8,"humidity":81,"rain":0.0,"pressure":1005.2,"uv_index":8.15,"wind_gusts":41.0,"aqi":104,"pm10":21.5,"pm2_5":13.7,"no2":6.9,"co":334.0,"o3":104.0,"so2":2.1,"mosquito_risk":7,"arthritis_risk":5,"migraine_risk":4,"frizz_risk":1,"updated_at":"2026-05-07T19:50:55.583024+05:30"},{"city":"Patna","state":"Bihar","latitude":25.5941,"longitude":85.1376,"temp":26.9,"humidity":75,"rain":0.0,"pressure":1002.5,"uv_index":8.65,"wind_gusts":39.2,"aqi":186,"pm10":60.5,"pm2_5":52.4,"no2":20.2,"co":455.0,"o3":128.0,"so2":13.9,"mosquito_risk":7,"arthritis_risk":5,"migraine_risk":4,"frizz_risk":1,"updated_at":"2026-05-07T19:50:55.583031+05:30"},{"city":"Gaya","state":"Bihar","latitude":24.7914,"longitude":85.0002,"temp":26.2,"humidity":66,"rain":0.0,"pressure":995.6,"uv_index":8.75,"wind_gusts":42.8,"aqi":203,"pm10":65.2,"pm2_5":57.9,"no2":14.8,"co":525.0,"o3":148.0,"so2":14.3,"mosquito_risk":7,"arthritis_risk":5,"migraine_risk":7,"frizz_risk":1,"updated_at":"2026-05-07T19:50:55.583038+05:30"},{"city":"Muzaffarpur","state":"Bihar","latitude":26.1209,"longitude":85.3647,"temp":25.7,"humidity":71,"rain":0.0,"pressure":1002.5,"uv_index":8.65,"wind_gusts":39.2,"aqi":161,"pm10":61.7,"pm2_5":52.2,"no2":22.2,"co":717.0,"o3":114.0,"so2":14.5,"mosquito_risk":7,"arthritis_risk":5,"migraine_risk":4,"frizz_risk":1,"updated_at":"2026-05-07T19:50:55.583045+05:30"},{"city":"Bhagalpur","state":"Bihar","latitude":25.2425,"longitude":87.0117,"temp":26.3,"humidity":67,"rain":0.0,"pressure":1003.0,"uv_index":8.7,"wind_gusts":38.5,"aqi":178,"pm10":68.9,"pm2_5":64.7,"no2":23.1,"co":416.0,"o3":126.0,"so2":14.5,"mosquito_risk":7,"arthritis_risk":5,"migraine_risk":4,"frizz_risk":1,"updated_at":"2026-05-07T19:50:55.583051+05:30"},{"city":"Ranchi","state":"Jharkhand","latitude":23.3441,"longitude":85.3096,"temp":23.5,"humidity":62,"rain":0.0,"pressure":938.8,"uv_index":9.2,"wind_gusts":33.5,"aqi":165,"pm10":31.7,"pm2_5":22.5,"no2":7.3,"co":245.0,"o3":144.0,"so2":8.1,"mosquito_risk":3,"arthritis_risk":5,"migraine_risk":7,"frizz_risk":0,"updated_at":"2026-05-07T19:50:55.583058+05:30"},{"city":"Jamshedpur","state":"Jharkhand","latitude":22.8046,"longitude":86.2029,"temp":27.8,"humidity":69,"rain":0.0,"pressure":992.2,"uv_index":9.0,"wind_gusts":37.4,"aqi":199,"pm10":39.5,"pm2_5":36.0,"no2":15.7,"co":353.0,"o3":130.0,"so2":26.0,"mosquito_risk":7,"arthritis_risk":5,"migraine_risk":7,"frizz_risk":1,"updated_at":"2026-05-07T19:50:55.583065+05:30"},{"city":"Dhanbad","state":"Jharkhand","latitude":23.7957,"longitude":86.4304,"temp":26.2,"humidity":73,"rain":0.0,"pressure":981.4,"uv_index":8.95,"wind_gusts":39.2,"aqi":198,"pm10":63.1,"pm2_5":60.1,"no2":26.4,"co":473.0,"o3":164.0,"so2":41.2,"mosquito_risk":7,"arthritis_risk":5,"migraine_risk":7,"frizz_risk":1,"updated_at":"2026-05-07T19:50:55.583072+05:30"},{"city":"Bokaro","state":"Jharkhand","latitude":23.6693,"longitude":86.1511,"temp":27.0,"humidity":66,"rain":0.0,"pressure":985.1,"uv_index":8.95,"wind_gusts":41.8,"aqi":194,"pm10":56.1,"pm2_5":52.5,"no2":22.4,"co":516.0,"o3":158.0,"so2":35.8,"mosquito_risk":7,"arthritis_risk":5,"migraine_risk":7,"frizz_risk":1,"updated_at":"2026-05-07T19:50:55.583080+05:30"},{"city":"Bhubaneswar","state":"Odisha","latitude":20.2961,"longitude":85.8245,"temp":28.0,"humidity":85,"rain":0.0,"pressure":1003.6,"uv_index":9.1,"wind_gusts":51.1,"aqi":48,"pm10":13.2,"pm2_5":10.5,"no2":7.3,"co":236.0,"o3":54.0,"so2":3.3,"mosquito_risk":7,"arthritis_risk":5,"migraine_risk":4,"frizz_risk":1,"updated_at":"2026-05-07T19:50:55.583087+05:30"},{"city":"Cuttack","state":"Odisha","latitude":20.4625,"longitude":85.8828,"temp":29.0,"humidity":78,"rain":0.0,"pressure":1005.2,"uv_index":9.1,"wind_gusts":40.0,"aqi":48,"pm10":13.2,"pm2_5":10.5,"no2":7.3,"co":272.0,"o3":54.0,"so2":3.3,"mosquito_risk":7,"arthritis_risk":5,"migraine_risk":4,"frizz_risk":1,"updated_at":"2026-05-07T19:50:55.583094+05:30"},{"city":"Rourkela","state":"Odisha","latitude":22.2604,"longitude":84.8536,"temp":28.8,"humidity":44,"rain":0.0,"pressure":984.5,"uv_index":8.95,"wind_gusts":34.6,"aqi":202,"pm10":61.9,"pm2_5":48.2,"no2":23.4,"co":326.0,"o3":128.0,"so2":25.2,"mosquito_risk":4,"arthritis_risk":5,"migraine_risk":7,"frizz_risk":0,"updated_at":"2026-05-07T19:50:55.583101+05:30"},{"city":"Raipur","state":"Chhattisgarh","latitude":21.2514,"longitude":81.6296,"temp":33.0,"humidity":24,"rain":0.0,"pressure":974.1,"uv_index":8.95,"wind_gusts":32.0,"aqi":219,"pm10":68.2,"pm2_5":56.2,"no2":32.3,"co":344.0,"o3":160.0,"so2":12.6,"mosquito_risk":0,"arthritis_risk":5,"migraine_risk":7,"frizz_risk":0,"updated_at":"2026-05-07T19:50:55.583108+05:30"},{"city":"Bhilai","state":"Chhattisgarh","latitude":21.1938,"longitude":81.3509,"temp":31.7,"humidity":31,"rain":0.0,"pressure":974.4,"uv_index":8.95,"wind_gusts":25.9,"aqi":211,"pm10":62.4,"pm2_5":49.2,"no2":31.9,"co":660.0,"o3":149.0,"so2":9.5,"mosquito_risk":0,"arthritis_risk":5,"migraine_risk":7,"frizz_risk":0,"updated_at":"2026-05-07T19:50:55.583114+05:30"},{"city":"Guwahati","state":"Assam","latitude":26.1158,"longitude":91.7086,"temp":22.8,"humidity":87,"rain":0.0,"pressure":1003.9,"uv_index":8.65,"wind_gusts":24.8,"aqi":113,"pm10":48.2,"pm2_5":42.1,"no2":10.0,"co":372.0,"o3":83.0,"so2":2.9,"mosquito_risk":3,"arthritis_risk":5,"migraine_risk":4,"frizz_risk":1,"updated_at":"2026-05-07T19:50:55.583121+05:30"},{"city":"Agartala","state":"Tripura","latitude":23.8315,"longitude":91.2868,"temp":25.8,"humidity":82,"rain":0.0,"pressure":1008.1,"uv_index":8.85,"wind_gusts":32.0,"aqi":122,"pm10":68.9,"pm2_5":66.8,"no2":42.7,"co":420.0,"o3":101.0,"so2":8.7,"mosquito_risk":7,"arthritis_risk":0,"migraine_risk":4,"frizz_risk":1,"updated_at":"2026-05-07T19:50:55.583128+05:30"},{"city":"Shillong","state":"Meghalaya","latitude":25.5788,"longitude":91.8933,"temp":15.6,"humidity":87,"rain":0.0,"pressure":857.8,"uv_index":7.95,"wind_gusts":24.8,"aqi":117,"pm10":43.5,"pm2_5":37.3,"no2":13.9,"co":405.0,"o3":86.0,"so2":2.7,"mosquito_risk":3,"arthritis_risk":10,"migraine_risk":7,"frizz_risk":0,"updated_at":"2026-05-07T19:50:55.583135+05:30"},{"city":"Imphal","state":"Manipur","latitude":24.817,"longitude":93.9368,"temp":20.6,"humidity":86,"rain":0.0,"pressure":924.3,"uv_index":9.1,"wind_gusts":31.7,"aqi":106,"pm10":45.9,"pm2_5":37.7,"no2":20.0,"co":661.0,"o3":67.0,"so2":5.3,"mosquito_risk":3,"arthritis_risk":5,"migraine_risk":7,"frizz_risk":1,"updated_at":"2026-05-07T19:50:55.583142+05:30"},{"city":"Aizawl","state":"Mizoram","latitude":23.7271,"longitude":92.7176,"temp":19.2,"humidity":84,"rain":0.0,"pressure":893.7,"uv_index":9.05,"wind_gusts":23.4,"aqi":70,"pm10":25.0,"pm2_5":20.3,"no2":11.1,"co":267.0,"o3":63.0,"so2":1.1,"mosquito_risk":3,"arthritis_risk":10,"migraine_risk":7,"frizz_risk":1,"updated_at":"2026-05-07T19:50:55.583150+05:30"},{"city":"Kohima","state":"Nagaland","latitude":25.6701,"longitude":94.1077,"temp":15.8,"humidity":94,"rain":0.0,"pressure":855.8,"uv_index":9.15,"wind_gusts":26.3,"aqi":71,"pm10":48.5,"pm2_5":35.7,"no2":13.7,"co":368.0,"o3":71.0,"so2":1.4,"mosquito_risk":3,"arthritis_risk":10,"migraine_risk":7,"frizz_risk":0,"updated_at":"2026-05-07T19:50:55.583156+05:30"},{"city":"Gangtok","state":"Sikkim","latitude":27.3314,"longitude":88.6138,"temp":12.4,"humidity":90,"rain":0.0,"pressure":836.8,"uv_index":8.55,"wind_gusts":36.7,"aqi":92,"pm10":34.9,"pm2_5":25.2,"no2":16.4,"co":470.0,"o3":102.0,"so2":1.9,"mosquito_risk":3,"arthritis_risk":10,"migraine_risk":7,"frizz_risk":0,"updated_at":"2026-05-07T19:50:55.583162+05:30"},{"city":"Siliguri","state":"West Bengal","latitude":26.7271,"longitude":88.3953,"temp":23.4,"humidity":74,"rain":0.0,"pressure":994.7,"uv_index":8.6,"wind_gusts":21.6,"aqi":104,"pm10":68.0,"pm2_5":51.1,"no2":27.9,"co":1192.0,"o3":93.0,"so2":6.0,"mosquito_risk":3,"arthritis_risk":5,"migraine_risk":7,"frizz_risk":1,"updated_at":"2026-05-07T19:50:58.878116+05:30"},{"city":"Durgapur","state":"West Bengal","latitude":23.5204,"longitude":87.3119,"temp":25.0,"humidity":87,"rain":0.0,"pressure":996.8,"uv_index":8.9,"wind_gusts":45.4,"aqi":177,"pm10":59.1,"pm2_5":56.0,"no2":21.9,"co":812.0,"o3":149.0,"so2":38.0,"mosquito_risk":7,"arthritis_risk":5,"migraine_risk":7,"frizz_risk":1,"updated_at":"2026-05-07T19:50:58.878152+05:30"},{"city":"Asansol","state":"West Bengal","latitude":23.6739,"longitude":86.9524,"temp":25.8,"humidity":83,"rain":0.0,"pressure":995.4,"uv_index":8.95,"wind_gusts":34.2,"aqi":197,"pm10":61.7,"pm2_5":58.3,"no2":21.9,"co":975.0,"o3":163.0,"so2":41.0,"mosquito_risk":7,"arthritis_risk":5,"migraine_risk":7,"frizz_risk":1,"updated_at":"2026-05-07T19:50:58.878165+05:30"},{"city":"Pondicherry","state":"Puducherry","latitude":11.9139,"longitude":79.8145,"temp":29.0,"humidity":78,"rain":0.0,"pressure":1007.0,"uv_index":7.25,"wind_gusts":35.3,"aqi":26,"pm10":5.6,"pm2_5":3.9,"no2":1.9,"co":138.0,"o3":42.0,"so2":0.3,"mosquito_risk":7,"arthritis_risk":5,"migraine_risk":4,"frizz_risk":1,"updated_at":"2026-05-07T19:50:58.878174+05:30"},{"city":"Port Blair","state":"Andaman and Nicobar Islands","latitude":11.6234,"longitude":92.7265,"temp":27.6,"humidity":85,"rain":0.0,"pressure":1007.0,"uv_index":8.45,"wind_gusts":34.9,"aqi":30,"pm10":8.2,"pm2_5":6.3,"no2":0.5,"co":225.0,"o3":66.0,"so2":0.5,"mosquito_risk":7,"arthritis_risk":5,"migraine_risk":4,"frizz_risk":1,"updated_at":"2026-05-07T19:50:58.878183+05:30"},{"city":"Haridwar","state":"Uttarakhand","latitude":29.9457,"longitude":78.1642,"temp":23.8,"humidity":63,"rain":0.0,"pressure":976.1,"uv_index":7.1,"wind_gusts":34.2,"aqi":158,"pm10":105.5,"pm2_5":41.0,"no2":13.9,"co":308.0,"o3":136.0,"so2":8.9,"mosquito_risk":3,"arthritis_risk":5,"migraine_risk":7,"frizz_risk":1,"updated_at":"2026-05-07T19:50:58.878192+05:30"},{"city":"Rishikesh","state":"Uttarakhand","latitude":30.0869,"longitude":78.2676,"temp":22.5,"humidity":69,"rain":0.0,"pressure":968.7,"uv_index":7.05,"wind_gusts":36.0,"aqi":162,"pm10":96.6,"pm2_5":30.9,"no2":8.0,"co":353.0,"o3":159.0,"so2":6.6,"mosquito_risk":3,"arthritis_risk":5,"migraine_risk":7,"frizz_risk":1,"updated_at":"2026-05-07T19:50:58.878199+05:30"},{"city":"Nainital","state":"Uttarakhand","latitude":29.3919,"longitude":79.4542,"temp":10.4,"humidity":96,"rain":0.0,"pressure":804.5,"uv_index":7.4,"wind_gusts":29.5,"aqi":135,"pm10":57.7,"pm2_5":28.8,"no2":13.3,"co":290.0,"o3":114.0,"so2":4.8,"mosquito_risk":3,"arthritis_risk":10,"migraine_risk":7,"frizz_risk":0,"updated_at":"2026-05-07T19:50:58.878207+05:30"},{"city":"Mussoorie","state":"Uttarakhand","latitude":30.4599,"longitude":78.0664,"temp":10.8,"humidity":87,"rain":0.0,"pressure":801.7,"uv_index":5.35,"wind_gusts":39.2,"aqi":158,"pm10":68.9,"pm2_5":33.2,"no2":18.5,"co":346.0,"o3":137.0,"so2":11.0,"mosquito_risk":3,"arthritis_risk":10,"migraine_risk":3,"frizz_risk":0,"updated_at":"2026-05-07T19:50:58.878215+05:30"},{"city":"Dharamshala","state":"Himachal Pradesh","latitude":32.219,"longitude":76.3234,"temp":16.3,"humidity":73,"rain":0.0,"pressure":868.5,"uv_index":6.8,"wind_gusts":39.2,"aqi":120,"pm10":23.5,"pm2_5":14.0,"no2":9.4,"co":280.0,"o3":110.0,"so2":1.4,"mosquito_risk":3,"arthritis_risk":5,"migraine_risk":7,"frizz_risk":0,"updated_at":"2026-05-07T19:50:58.878223+05:30"},{"city":"Dalhousie","state":"Himachal Pradesh","latitude":32.5387,"longitude":75.971,"temp":11.8,"humidity":85,"rain":0.0,"pressure":803.2,"uv_index":7.65,"wind_gusts":33.1,"aqi":154,"pm10":36.9,"pm2_5":27.2,"no2":29.5,"co":528.0,"o3":109.0,"so2":5.4,"mosquito_risk":3,"arthritis_risk":10,"migraine_risk":7,"frizz_risk":0,"updated_at":"2026-05-07T19:50:58.878230+05:30"},{"city":"Patiala","state":"Punjab","latitude":30.3398,"longitude":76.3869,"temp":25.2,"humidity":59,"rain":0.0,"pressure":979.3,"uv_index":7.45,"wind_gusts":45.4,"aqi":489,"pm10":590.5,"pm2_5":79.4,"no2":6.8,"co":311.0,"o3":148.0,"so2":7.6,"mosquito_risk":4,"arthritis_risk":5,"migraine_risk":7,"frizz_risk":1,"updated_at":"2026-05-07T19:50:58.878238+05:30"},{"city":"Bhatinda","state":"Punjab","latitude":30.211,"longitude":74.9455,"temp":29.0,"humidity":43,"rain":0.0,"pressure":983.3,"uv_index":8.1,"wind_gusts":42.8,"aqi":470,"pm10":1017.0,"pm2_5":160.2,"no2":4.6,"co":294.0,"o3":174.0,"so2":13.8,"mosquito_risk":4,"arthritis_risk":5,"migraine_risk":7,"frizz_risk":0,"updated_at":"2026-05-07T19:50:58.878245+05:30"},{"city":"Rohtak","state":"Haryana","latitude":28.8955,"longitude":76.6066,"temp":26.6,"humidity":53,"rain":0.0,"pressure":982.3,"uv_index":7.6,"wind_gusts":51.8,"aqi":810,"pm10":1210.7,"pm2_5":149.9,"no2":12.4,"co":363.0,"o3":157.0,"so2":19.5,"mosquito_risk":4,"arthritis_risk":5,"migraine_risk":7,"frizz_risk":1,"updated_at":"2026-05-07T19:50:58.878252+05:30"},{"city":"Panipat","state":"Haryana","latitude":29.3909,"longitude":76.9635,"temp":25.2,"humidity":61,"rain":0.0,"pressure":981.7,"uv_index":7.1,"wind_gusts":52.2,"aqi":1345,"pm10":2361.8,"pm2_5":234.7,"no2":7.1,"co":364.0,"o3":162.0,"so2":13.3,"mosquito_risk":7,"arthritis_risk":5,"migraine_risk":7,"frizz_risk":1,"updated_at":"2026-05-07T19:50:58.878258+05:30"},{"city":"Mathura","state":"Uttar Pradesh","latitude":27.4924,"longitude":77.6737,"temp":25.6,"humidity":58,"rain":0.0,"pressure":987.5,"uv_index":7.85,"wind_gusts":49.7,"aqi":959,"pm10":925.7,"pm2_5":107.3,"no2":8.6,"co":324.0,"o3":137.0,"so2":9.7,"mosquito_risk":4,"arthritis_risk":5,"migraine_risk":7,"frizz_risk":1,"updated_at":"2026-05-07T19:50:58.878266+05:30"},{"city":"Vrindavan","state":"Uttar Pradesh","latitude":27.5823,"longitude":77.7027,"temp":25.8,"humidity":57,"rain":0.0,"pressure":988.1,"uv_index":7.8,"wind_gusts":50.8,"aqi":959,"pm10":925.7,"pm2_5":107.3,"no2":8.6,"co":306.0,"o3":137.0,"so2":9.7,"mosquito_risk":4,"arthritis_risk":5,"migraine_risk":7,"frizz_risk":1,"updated_at":"2026-05-07T19:50:58.878273+05:30"},{"city":"Ayodhya","state":"Uttar Pradesh","latitude":26.7922,"longitude":82.1998,"temp":24.5,"humidity":67,"rain":0.0,"pressure":998.0,"uv_index":7.75,"wind_gusts":30.2,"aqi":152,"pm10":82.2,"pm2_5":48.1,"no2":21.7,"co":391.0,"o3":107.0,"so2":9.3,"mosquito_risk":3,"arthritis_risk":5,"migraine_risk":7,"frizz_risk":1,"updated_at":"2026-05-07T19:50:58.878280+05:30"},{"city":"Ratlam","state":"Madhya Pradesh","latitude":23.3315,"longitude":75.0367,"temp":31.5,"humidity":24,"rain":0.0,"pressure":953.3,"uv_index":8.45,"wind_gusts":36.4,"aqi":127,"pm10":44.2,"pm2_5":22.2,"no2":3.2,"co":203.0,"o3":128.0,"so2":5.9,"mosquito_risk":0,"arthritis_risk":5,"migraine_risk":7,"frizz_risk":0,"updated_at":"2026-05-07T19:50:58.878287+05:30"},{"city":"Sagar","state":"Madhya Pradesh","latitude":23.8388,"longitude":78.7378,"temp":30.0,"humidity":25,"rain":0.0,"pressure":949.4,"uv_index":8.65,"wind_gusts":35.3,"aqi":128,"pm10":17.2,"pm2_5":9.3,"no2":6.8,"co":305.0,"o3":115.0,"so2":3.3,"mosquito_risk":4,"arthritis_risk":5,"migraine_risk":7,"frizz_risk":0,"updated_at":"2026-05-07T19:50:58.878294+05:30"},{"city":"Satna","state":"Madhya Pradesh","latitude":24.6005,"longitude":80.8322,"temp":27.8,"humidity":39,"rain":0.0,"pressure":972.3,"uv_index":8.65,"wind_gusts":40.3,"aqi":162,"pm10":44.7,"pm2_5":21.4,"no2":3.5,"co":251.0,"o3":156.0,"so2":7.0,"mosquito_risk":4,"arthritis_risk":5,"migraine_risk":7,"frizz_risk":0,"updated_at":"2026-05-07T19:50:58.878301+05:30"},{"city":"Akola","state":"Maharashtra","latitude":20.7002,"longitude":77.0082,"temp":33.2,"humidity":27,"rain":0.0,"pressure":973.3,"uv_index":8.85,"wind_gusts":40.7,"aqi":149,"pm10":50.5,"pm2_5":35.4,"no2":4.6,"co":269.0,"o3":137.0,"so2":4.9,"mosquito_risk":0,"arthritis_risk":5,"migraine_risk":7,"frizz_risk":0,"updated_at":"2026-05-07T19:50:58.878309+05:30"},{"city":"Amravati","state":"Maharashtra","latitude":20.9374,"longitude":77.7796,"temp":34.6,"humidity":21,"rain":0.0,"pressure":966.5,"uv_index":6.4,"wind_gusts":35.3,"aqi":149,"pm10":47.1,"pm2_5":32.7,"no2":6.0,"co":284.0,"o3":133.0,"so2":2.6,"mosquito_risk":0,"arthritis_risk":5,"migraine_risk":7,"frizz_risk":0,"updated_at":"2026-05-07T19:50:58.878317+05:30"},{"city":"Latur","state":"Maharashtra","latitude":18.4088,"longitude":76.5604,"temp":31.1,"humidity":33,"rain":0.0,"pressure":939.1,"uv_index":8.35,"wind_gusts":35.3,"aqi":122,"pm10":60.3,"pm2_5":42.3,"no2":9.9,"co":293.0,"o3":115.0,"so2":11.1,"mosquito_risk":0,"arthritis_risk":5,"migraine_risk":7,"frizz_risk":0,"updated_at":"2026-05-07T19:50:58.878325+05:30"},{"city":"Nanded","state":"Maharashtra","latitude":19.1383,"longitude":77.3091,"temp":33.0,"humidity":32,"rain":0.0,"pressure":967.7,"uv_index":8.3,"wind_gusts":44.6,"aqi":125,"pm10":40.4,"pm2_5":26.7,"no2":12.3,"co":369.0,"o3":115.0,"so2":4.7,"mosquito_risk":0,"arthritis_risk":5,"migraine_risk":7,"frizz_risk":0,"updated_at":"2026-05-07T19:50:58.878331+05:30"},{"city":"Gulbarga","state":"Karnataka","latitude":17.3297,"longitude":76.8343,"temp":33.8,"humidity":28,"rain":0.0,"pressure":957.1,"uv_index":9.05,"wind_gusts":36.0,"aqi":138,"pm10":33.3,"pm2_5":21.8,"no2":10.6,"co":222.0,"o3":119.0,"so2":5.3,"mosquito_risk":0,"arthritis_risk":5,"migraine_risk":7,"frizz_risk":0,"updated_at":"2026-05-07T19:50:58.878338+05:30"},{"city":"Bidar","state":"Karnataka","latitude":17.9104,"longitude":77.5199,"temp":30.6,"humidity":36,"rain":0.0,"pressure":935.0,"uv_index":9.0,"wind_gusts":34.2,"aqi":115,"pm10":44.2,"pm2_5":29.4,"no2":22.7,"co":622.0,"o3":106.0,"so2":4.9,"mosquito_risk":0,"arthritis_risk":5,"migraine_risk":7,"frizz_risk":0,"updated_at":"2026-05-07T19:50:58.878344+05:30"},{"city":"Hospet","state":"Karnataka","latitude":15.2689,"longitude":76.3909,"temp":30.5,"humidity":48,"rain":0.0,"pressure":953.8,"uv_index":9.2,"wind_gusts":33.5,"aqi":143,"pm10":38.6,"pm2_5":28.2,"no2":22.6,"co":405.0,"o3":113.0,"so2":9.7,"mosquito_risk":0,"arthritis_risk":5,"migraine_risk":7,"frizz_risk":1,"updated_at":"2026-05-07T19:50:58.878350+05:30"},{"city":"Tirupur","state":"Tamil Nadu","latitude":11.1085,"longitude":77.3411,"temp":29.5,"humidity":63,"rain":0.0,"pressure":972.7,"uv_index":7.5,"wind_gusts":28.1,"aqi":89,"pm10":31.1,"pm2_5":26.1,"no2":14.4,"co":348.0,"o3":102.0,"so2":5.3,"mosquito_risk":7,"arthritis_risk":5,"migraine_risk":7,"frizz_risk":1,"updated_at":"2026-05-07T19:50:58.878357+05:30"},{"city":"Alappuzha","state":"Kerala","latitude":9.4981,"longitude":76.3388,"temp":27.4,"humidity":93,"rain":0.1,"pressure":1006.7,"uv_index":6.3,"wind_gusts":28.8,"aqi":63,"pm10":22.5,"pm2_5":16.7,"no2":13.2,"co":238.0,"o3":74.0,"so2":4.3,"mosquito_risk":10,"arthritis_risk":5,"migraine_risk":4,"frizz_risk":1,"updated_at":"2026-05-07T19:50:58.878364+05:30"},{"city":"Munnar","state":"Kerala","latitude":10.0889,"longitude":77.0595,"temp":18.6,"humidity":99,"rain":0.0,"pressure":855.3,"uv_index":7.65,"wind_gusts":24.8,"aqi":71,"pm10":18.8,"pm2_5":15.5,"no2":7.8,"co":345.0,"o3":79.0,"so2":1.9,"mosquito_risk":3,"arthritis_risk":10,"migraine_risk":7,"frizz_risk":1,"updated_at":"2026-05-07T19:50:58.878370+05:30"},{"city":"Silchar","state":"Assam","latitude":24.8333,"longitude":92.7789,"temp":26.4,"humidity":85,"rain":0.0,"pressure":1006.7,"uv_index":8.85,"wind_gusts":19.8,"aqi":128,"pm10":67.8,"pm2_5":58.3,"no2":18.4,"co":555.0,"o3":99.0,"so2":11.2,"mosquito_risk":7,"arthritis_risk":5,"migraine_risk":4,"frizz_risk":1,"updated_at":"2026-05-07T19:50:58.878377+05:30"},{"city":"Dibrugarh","state":"Assam","latitude":27.4728,"longitude":94.912,"temp":23.6,"humidity":84,"rain":0.0,"pressure":997.8,"uv_index":8.8,"wind_gusts":22.7,"aqi":85,"pm10":35.3,"pm2_5":28.8,"no2":11.0,"co":392.0,"o3":73.0,"so2":2.1,"mosquito_risk":3,"arthritis_risk":5,"migraine_risk":7,"frizz_risk":1,"updated_at":"2026-05-07T19:50:58.878383+05:30"}]