[{"city":"Delhi","state":"Delhi","latitude":28.6139,"longitude":77.209,"temp":28.3,"humidity":46,"rain":0.0,"pressure":985.4,"uv_index":5.9,"wind_gusts":18.7,"aqi":198,"pm10":202.1,"pm2_5":68.5,"mosquito_risk":4,"arthritis_risk":5,"migraine_risk":3,"frizz_risk":0,"updated_at":"2026-03-06T20:10:15.051310+05:30"},{"city":"Mumbai","state":"Maharashtra","latitude":19.076,"longitude":72.8777,"temp":27.8,"humidity":65,"rain":0.0,"pressure":1008.6,"uv_index":7.4,"wind_gusts":25.6,"aqi":187,"pm10":38.3,"pm2_5":36.1,"mosquito_risk":7,"arthritis_risk":0,"migraine_risk":4,"frizz_risk":1,"updated_at":"2026-03-06T20:10:15.051353+05:30"},{"city":"Bangalore","state":"Karnataka","latitude":12.9716,"longitude":77.5946,"temp":26.6,"humidity":37,"rain":0.0,"pressure":911.6,"uv_index":9.15,"wind_gusts":24.5,"aqi":188,"pm10":57.5,"pm2_5":54.8,"mosquito_risk":4,"arthritis_risk":5,"migraine_risk":7,"frizz_risk":0,"updated_at":"2026-03-06T20:10:15.051369+05:30"},{"city":"Hyderabad","state":"Telangana","latitude":17.385,"longitude":78.4867,"temp":28.4,"humidity":31,"rain":0.0,"pressure":953.5,"uv_index":8.45,"wind_gusts":24.1,"aqi":132,"pm10":36.4,"pm2_5":30.3,"mosquito_risk":4,"arthritis_risk":5,"migraine_risk":7,"frizz_risk":0,"updated_at":"2026-03-06T20:10:15.051378+05:30"},{"city":"Chennai","state":"Tamil Nadu","latitude":13.0827,"longitude":80.2707,"temp":26.9,"humidity":81,"rain":0.0,"pressure":1007.4,"uv_index":8.9,"wind_gusts":33.8,"aqi":101,"pm10":30.4,"pm2_5":25.7,"mosquito_risk":7,"arthritis_risk":5,"migraine_risk":4,"frizz_risk":1,"updated_at":"2026-03-06T20:10:15.051387+05:30"},{"city":"Kolkata","state":"West Bengal","latitude":22.5726,"longitude":88.3639,"temp":25.3,"humidity":73,"rain":0.0,"pressure":1008.5,"uv_index":7.8,"wind_gusts":13.0,"aqi":160,"pm10":63.3,"pm2_5":52.5,"mosquito_risk":7,"arthritis_risk":0,"migraine_risk":4,"frizz_risk":1,"updated_at":"2026-03-06T20:10:15.051396+05:30"},{"city":"Pune","state":"Maharashtra","latitude":18.5204,"longitude":73.8567,"temp":28.9,"humidity":38,"rain":0.0,"pressure":948.8,"uv_index":8.0,"wind_gusts":27.7,"aqi":133,"pm10":22.3,"pm2_5":20.6,"mosquito_risk":4,"arthritis_risk":5,"migraine_risk":7,"frizz_risk":0,"updated_at":"2026-03-06T20:10:15.051408+05:30"},{"city":"Ahmedabad","state":"Gujarat","latitude":23.0225,"longitude":72.5714,"temp":28.6,"humidity":36,"rain":0.0,"pressure":1003.4,"uv_index":7.25,"wind_gusts":20.5,"aqi":95,"pm10":34.9,"pm2_5":32.4,"mosquito_risk":4,"arthritis_risk":5,"migraine_risk":4,"frizz_risk":0,"updated_at":"2026-03-06T20:10:15.051416+05:30"},{"city":"Jaipur","state":"Rajasthan","latitude":26.9124,"longitude":75.7873,"temp":28.7,"humidity":23,"rain":0.0,"pressure":961.7,"uv_index":6.7,"wind_gusts":24.5,"aqi":122,"pm10":105.2,"pm2_5":30.6,"mosquito_risk":4,"arthritis_risk":5,"migraine_risk":7,"frizz_risk":0,"updated_at":"2026-03-06T20:10:15.051424+05:30"},{"city":"Lucknow","state":"Uttar Pradesh","latitude":26.8467,"longitude":80.9462,"temp":26.8,"humidity":57,"rain":0.0,"pressure":996.3,"uv_index":6.4,"wind_gusts":22.3,"aqi":168,"pm10":118.7,"pm2_5":85.0,"mosquito_risk":4,"arthritis_risk":5,"migraine_risk":7,"frizz_risk":1,"updated_at":"2026-03-06T20:10:15.051432+05:30"},{"city":"Kanpur","state":"Uttar Pradesh","latitude":26.4499,"longitude":80.3319,"temp":26.5,"humidity":65,"rain":0.0,"pressure":994.1,"uv_index":6.4,"wind_gusts":13.3,"aqi":174,"pm10":180.2,"pm2_5":93.4,"mosquito_risk":7,"arthritis_risk":5,"migraine_risk":7,"frizz_risk":1,"updated_at":"2026-03-06T20:10:15.051439+05:30"},{"city":"Chandigarh","state":"Chandigarh","latitude":30.7333,"longitude":76.7794,"temp":25.2,"humidity":70,"rain":0.0,"pressure":970.9,"uv_index":5.8,"wind_gusts":15.8,"aqi":145,"pm10":84.8,"pm2_5":66.8,"mosquito_risk":7,"arthritis_risk":5,"migraine_risk":3,"frizz_risk":1,"updated_at":"2026-03-06T20:10:15.051447+05:30"},{"city":"Srinagar","state":"Jammu and Kashmir","latitude":34.0837,"longitude":74.7973,"temp":14.0,"humidity":70,"rain":0.0,"pressure":842.7,"uv_index":6.75,"wind_gusts":16.6,"aqi":145,"pm10":69.4,"pm2_5":50.9,"mosquito_risk":3,"arthritis_risk":5,"migraine_risk":7,"frizz_risk":0,"updated_at":"2026-03-06T20:10:15.051454+05:30"},{"city":"Jammu","state":"Jammu and Kashmir","latitude":32.7266,"longitude":74.857,"temp":23.9,"humidity":74,"rain":0.0,"pressure":974.0,"uv_index":6.45,"wind_gusts":18.7,"aqi":128,"pm10":88.9,"pm2_5":70.3,"mosquito_risk":3,"arthritis_risk":5,"migraine_risk":7,"frizz_risk":1,"updated_at":"2026-03-06T20:10:15.051461+05:30"},{"city":"Amritsar","state":"Punjab","latitude":31.634,"longitude":74.8723,"temp":24.3,"humidity":71,"rain":0.0,"pressure":981.8,"uv_index":6.2,"wind_gusts":12.2,"aqi":160,"pm10":65.2,"pm2_5":60.8,"mosquito_risk":3,"arthritis_risk":5,"migraine_risk":7,"frizz_risk":1,"updated_at":"2026-03-06T20:10:15.051467+05:30"},{"city":"Ludhiana","state":"Punjab","latitude":30.901,"longitude":75.8573,"temp":26.7,"humidity":63,"rain":0.0,"pressure":980.5,"uv_index":6.05,"wind_gusts":15.1,"aqi":163,"pm10":126.7,"pm2_5":81.0,"mosquito_risk":7,"arthritis_risk":5,"migraine_risk":7,"frizz_risk":1,"updated_at":"2026-03-06T20:10:15.051473+05:30"},{"city":"Jalandhar","state":"Punjab","latitude":31.326,"longitude":75.5762,"temp":26.1,"humidity":68,"rain":0.0,"pressure":981.4,"uv_index":6.2,"wind_gusts":13.7,"aqi":164,"pm10":80.6,"pm2_5":63.6,"mosquito_risk":7,"arthritis_risk":5,"migraine_risk":7,"frizz_risk":1,"updated_at":"2026-03-06T20:10:15.051482+05:30"},{"city":"Dehradun","state":"Uttarakhand","latitude":30.6284,"longitude":78.0322,"temp":16.4,"humidity":89,"rain":0.0,"pressure":832.9,"uv_index":6.15,"wind_gusts":28.1,"aqi":152,"pm10":80.1,"pm2_5":55.1,"mosquito_risk":3,"arthritis_risk":10,"migraine_risk":7,"frizz_risk":0,"updated_at":"2026-03-06T20:10:15.051489+05:30"},{"city":"Shimla","state":"Himachal Pradesh","latitude":31.1048,"longitude":77.1734,"temp":15.0,"humidity":76,"rain":0.0,"pressure":786.9,"uv_index":6.25,"wind_gusts":34.9,"aqi":125,"pm10":51.9,"pm2_5":38.6,"mosquito_risk":3,"arthritis_risk":5,"migraine_risk":7,"frizz_risk":0,"updated_at":"2026-03-06T20:10:15.051496+05:30"},{"city":"Manali","state":"Himachal Pradesh","latitude":32.2396,"longitude":77.1887,"temp":19.5,"humidity":22,"rain":0.0,"pressure":824.1,"uv_index":7.9,"wind_gusts":39.2,"aqi":134,"pm10":19.2,"pm2_5":12.2,"mosquito_risk":0,"arthritis_risk":5,"migraine_risk":7,"frizz_risk":1,"updated_at":"2026-03-06T20:10:15.051503+05:30"},{"city":"Gurgaon","state":"Haryana","latitude":28.4595,"longitude":77.0266,"temp":25.8,"humidity":51,"rain":0.0,"pressure":983.6,"uv_index":6.0,"wind_gusts":16.9,"aqi":580,"pm10":337.1,"pm2_5":82.7,"mosquito_risk":4,"arthritis_risk":5,"migraine_risk":3,"frizz_risk":0,"updated_at":"2026-03-06T20:10:15.051510+05:30"},{"city":"Noida","state":"Uttar Pradesh","latitude":28.5355,"longitude":77.391,"temp":28.4,"humidity":47,"rain":0.0,"pressure":986.9,"uv_index":5.9,"wind_gusts":17.3,"aqi":580,"pm10":337.1,"pm2_5":82.7,"mosquito_risk":4,"arthritis_risk":5,"migraine_risk":3,"frizz_risk":0,"updated_at":"2026-03-06T20:10:15.051520+05:30"},{"city":"Ghaziabad","state":"Uttar Pradesh","latitude":28.6692,"longitude":77.4538,"temp":27.5,"humidity":60,"rain":0.0,"pressure":985.1,"uv_index":5.85,"wind_gusts":14.4,"aqi":188,"pm10":182.1,"pm2_5":83.6,"mosquito_risk":4,"arthritis_risk":5,"migraine_risk":3,"frizz_risk":1,"updated_at":"2026-03-06T20:10:15.051526+05:30"},{"city":"Faridabad","state":"Haryana","latitude":28.4089,"longitude":77.3178,"temp":26.4,"humidity":49,"rain":0.0,"pressure":986.1,"uv_index":5.95,"wind_gusts":16.6,"aqi":580,"pm10":337.1,"pm2_5":82.7,"mosquito_risk":4,"arthritis_risk":5,"migraine_risk":3,"frizz_risk":0,"updated_at":"2026-03-06T20:10:15.051533+05:30"},{"city":"Meerut","state":"Uttar Pradesh","latitude":28.9845,"longitude":77.7064,"temp":25.9,"humidity":66,"rain":0.0,"pressure":983.9,"uv_index":5.75,"wind_gusts":14.0,"aqi":188,"pm10":182.1,"pm2_5":83.6,"mosquito_risk":7,"arthritis_risk":5,"migraine_risk":3,"frizz_risk":1,"updated_at":"2026-03-06T20:10:15.051540+05:30"},{"city":"Agra","state":"Uttar Pradesh","latitude":27.1767,"longitude":78.0081,"temp":25.7,"humidity":48,"rain":0.0,"pressure":989.9,"uv_index":6.25,"wind_gusts":18.7,"aqi":371,"pm10":230.0,"pm2_5":82.2,"mosquito_risk":4,"arthritis_risk":5,"migraine_risk":7,"frizz_risk":0,"updated_at":"2026-03-06T20:10:15.051548+05:30"},{"city":"Varanasi","state":"Uttar Pradesh","latitude":25.3176,"longitude":82.9739,"temp":24.6,"humidity":69,"rain":0.0,"pressure":999.9,"uv_index":7.1,"wind_gusts":17.6,"aqi":179,"pm10":117.6,"pm2_5":89.4,"mosquito_risk":3,"arthritis_risk":5,"migraine_risk":7,"frizz_risk":1,"updated_at":"2026-03-06T20:10:15.051557+05:30"},{"city":"Prayagraj","state":"Uttar Pradesh","latitude":25.4358,"longitude":81.8463,"temp":25.2,"humidity":68,"rain":0.0,"pressure":998.5,"uv_index":6.95,"wind_gusts":16.2,"aqi":177,"pm10":112.9,"pm2_5":76.8,"mosquito_risk":7,"arthritis_risk":5,"migraine_risk":7,"frizz_risk":1,"updated_at":"2026-03-06T20:10:15.051565+05:30"},{"city":"Gorakhpur","state":"Uttar Pradesh","latitude":26.7606,"longitude":83.3732,"temp":24.5,"humidity":67,"rain":0.0,"pressure":999.9,"uv_index":6.75,"wind_gusts":17.3,"aqi":191,"pm10":102.0,"pm2_5":85.2,"mosquito_risk":3,"arthritis_risk":5,"migraine_risk":7,"frizz_risk":1,"updated_at":"2026-03-06T20:10:15.051574+05:30"},{"city":"Bareilly","state":"Uttar Pradesh","latitude":28.367,"longitude":79.4304,"temp":25.0,"humidity":74,"rain":0.0,"pressure":989.7,"uv_index":6.1,"wind_gusts":14.4,"aqi":193,"pm10":152.3,"pm2_5":105.7,"mosquito_risk":7,"arthritis_risk":5,"migraine_risk":7,"frizz_risk":1,"updated_at":"2026-03-06T20:10:15.051581+05:30"},{"city":"Aligarh","state":"Uttar Pradesh","latitude":27.8974,"longitude":78.088,"temp":25.2,"humidity":62,"rain":0.0,"pressure":987.8,"uv_index":6.0,"wind_gusts":16.6,"aqi":385,"pm10":229.1,"pm2_5":93.8,"mosquito_risk":7,"arthritis_risk":5,"migraine_risk":3,"frizz_risk":1,"updated_at":"2026-03-06T20:10:15.051588+05:30"},{"city":"Moradabad","state":"Uttar Pradesh","latitude":28.8386,"longitude":78.7733,"temp":24.6,"humidity":74,"rain":0.0,"pressure":986.5,"uv_index":5.9,"wind_gusts":18.4,"aqi":172,"pm10":130.9,"pm2_5":104.1,"mosquito_risk":3,"arthritis_risk":5,"migraine_risk":3,"frizz_risk":1,"updated_at":"2026-03-06T20:10:15.051594+05:30"},{"city":"Saharanpur","state":"Uttar Pradesh","latitude":29.9637,"longitude":77.546,"temp":24.1,"humidity":78,"rain":0.0,"pressure":978.3,"uv_index":5.55,"wind_gusts":19.8,"aqi":162,"pm10":124.3,"pm2_5":92.0,"mosquito_risk":3,"arthritis_risk":5,"migraine_risk":3,"frizz_risk":1,"updated_at":"2026-03-06T20:10:15.051600+05:30"},{"city":"Jhansi","state":"Uttar Pradesh","latitude":25.4484,"longitude":78.5685,"temp":25.4,"humidity":46,"rain":0.0,"pressure":979.8,"uv_index":6.85,"wind_gusts":24.1,"aqi":87,"pm10":67.1,"pm2_5":26.1,"mosquito_risk":4,"arthritis_risk":5,"migraine_risk":7,"frizz_risk":0,"updated_at":"2026-03-06T20:10:18.354779+05:30"},{"city":"Surat","state":"Gujarat","latitude":21.1702,"longitude":72.8311,"temp":26.3,"humidity":65,"rain":0.0,"pressure":1007.4,"uv_index":7.15,"wind_gusts":24.1,"aqi":134,"pm10":68.2,"pm2_5":67.1,"mosquito_risk":7,"arthritis_risk":5,"migraine_risk":4,"frizz_risk":1,"updated_at":"2026-03-06T20:10:18.354809+05:30"},{"city":"Vadodara","state":"Gujarat","latitude":22.3072,"longitude":73.1812,"temp":28.9,"humidity":47,"rain":0.0,"pressure":1005.2,"uv_index":7.25,"wind_gusts":20.2,"aqi":151,"pm10":45.3,"pm2_5":43.9,"mosquito_risk":4,"arthritis_risk":5,"migraine_risk":4,"frizz_risk":1,"updated_at":"2026-03-06T20:10:18.354819+05:30"},{"city":"Rajkot","state":"Gujarat","latitude":22.3039,"longitude":70.8022,"temp":26.7,"humidity":46,"rain":0.0,"pressure":995.9,"uv_index":7.1,"wind_gusts":24.1,"aqi":82,"pm10":23.6,"pm2_5":16.9,"mosquito_risk":4,"arthritis_risk":5,"migraine_risk":7,"frizz_risk":0,"updated_at":"2026-03-06T20:10:18.354828+05:30"},{"city":"Thane","state":"Maharashtra","latitude":19.2183,"longitude":72.9781,"temp":27.3,"humidity":58,"rain":0.0,"pressure":1008.0,"uv_index":7.4,"wind_gusts":37.8,"aqi":187,"pm10":38.3,"pm2_5":36.1,"mosquito_risk":4,"arthritis_risk":0,"migraine_risk":4,"frizz_risk":1,"updated_at":"2026-03-06T20:10:18.354835+05:30"},{"city":"Nagpur","state":"Maharashtra","latitude":21.1458,"longitude":79.0882,"temp":29.4,"humidity":26,"rain":0.0,"pressure":973.3,"uv_index":7.8,"wind_gusts":25.9,"aqi":100,"pm10":33.8,"pm2_5":23.2,"mosquito_risk":4,"arthritis_risk":5,"migraine_risk":7,"frizz_risk":0,"updated_at":"2026-03-06T20:10:18.354842+05:30"},{"city":"Nashik","state":"Maharashtra","latitude":19.9975,"longitude":73.7898,"temp":27.1,"humidity":36,"rain":0.0,"pressure":946.3,"uv_index":7.6,"wind_gusts":34.9,"aqi":133,"pm10":32.1,"pm2_5":30.4,"mosquito_risk":4,"arthritis_risk":5,"migraine_risk":7,"frizz_risk":0,"updated_at":"2026-03-06T20:10:18.354849+05:30"},{"city":"Aurangabad","state":"Maharashtra","latitude":19.8762,"longitude":75.3433,"temp":29.3,"humidity":27,"rain":0.0,"pressure":944.8,"uv_index":8.1,"wind_gusts":23.8,"aqi":122,"pm10":24.3,"pm2_5":21.9,"mosquito_risk":4,"arthritis_risk":5,"migraine_risk":7,"frizz_risk":0,"updated_at":"2026-03-06T20:10:18.354856+05:30"},{"city":"Solapur","state":"Maharashtra","latitude":17.6599,"longitude":75.9064,"temp":28.4,"humidity":38,"rain":0.0,"pressure":956.9,"uv_index":8.4,"wind_gusts":18.0,"aqi":143,"pm10":25.4,"pm2_5":21.8,"mosquito_risk":4,"arthritis_risk":5,"migraine_risk":7,"frizz_risk":0,"updated_at":"2026-03-06T20:10:18.354863+05:30"},{"city":"Kolhapur","state":"Maharashtra","latitude":16.705,"longitude":74.2433,"temp":26.3,"humidity":34,"rain":0.0,"pressure":947.9,"uv_index":8.5,"wind_gusts":31.7,"aqi":147,"pm10":38.0,"pm2_5":36.2,"mosquito_risk":4,"arthritis_risk":5,"migraine_risk":7,"frizz_risk":0,"updated_at":"2026-03-06T20:10:18.354871+05:30"},{"city":"Goa","state":"Goa","latitude":15.2993,"longitude":74.124,"temp":27.3,"humidity":83,"rain":0.0,"pressure":998.1,"uv_index":8.55,"wind_gusts":32.0,"aqi":156,"pm10":48.5,"pm2_5":45.5,"mosquito_risk":7,"arthritis_risk":5,"migraine_risk":7,"frizz_risk":1,"updated_at":"2026-03-06T20:10:18.354878+05:30"},{"city":"Jodhpur","state":"Rajasthan","latitude":26.2389,"longitude":73.0243,"temp":28.3,"humidity":33,"rain":0.0,"pressure":984.6,"uv_index":6.95,"wind_gusts":22.7,"aqi":125,"pm10":53.3,"pm2_5":20.3,"mosquito_risk":4,"arthritis_risk":5,"migraine_risk":7,"frizz_risk":0,"updated_at":"2026-03-06T20:10:18.354884+05:30"},{"city":"Udaipur","state":"Rajasthan","latitude":24.5854,"longitude":73.7125,"temp":26.6,"humidity":30,"rain":0.0,"pressure":948.4,"uv_index":7.6,"wind_gusts":22.3,"aqi":90,"pm10":13.6,"pm2_5":11.3,"mosquito_risk":4,"arthritis_risk":5,"migraine_risk":7,"frizz_risk":0,"updated_at":"2026-03-06T20:10:18.354891+05:30"},{"city":"Kota","state":"Rajasthan","latitude":25.2138,"longitude":75.8648,"temp":29.9,"humidity":31,"rain":0.0,"pressure":980.2,"uv_index":7.0,"wind_gusts":17.3,"aqi":87,"pm10":33.3,"pm2_5":21.1,"mosquito_risk":4,"arthritis_risk":5,"migraine_risk":7,"frizz_risk":0,"updated_at":"2026-03-06T20:10:18.354898+05:30"},{"city":"Bikaner","state":"Rajasthan","latitude":28.0229,"longitude":73.3119,"temp":28.7,"humidity":25,"rain":0.0,"pressure":983.0,"uv_index":6.65,"wind_gusts":23.8,"aqi":93,"pm10":15.0,"pm2_5":9.7,"mosquito_risk":4,"arthritis_risk":5,"migraine_risk":7,"frizz_risk":0,"updated_at":"2026-03-06T20:10:18.354904+05:30"},{"city":"Ajmer","state":"Rajasthan","latitude":26.4499,"longitude":74.6399,"temp":28.0,"humidity":28,"rain":0.0,"pressure":956.5,"uv_index":6.95,"wind_gusts":26.3,"aqi":109,"pm10":17.6,"pm2_5":16.2,"mosquito_risk":4,"arthritis_risk":5,"migraine_risk":7,"frizz_risk":0,"updated_at":"2026-03-06T20:10:18.354910+05:30"},{"city":"Gwalior","state":"Madhya Pradesh","latitude":26.2183,"longitude":78.1828,"temp":25.0,"humidity":57,"rain":0.0,"pressure":985.2,"uv_index":6.6,"wind_gusts":20.9,"aqi":102,"pm10":87.5,"pm2_5":30.9,"mosquito_risk":4,"arthritis_risk":5,"migraine_risk":7,"frizz_risk":0,"updated_at":"2026-03-06T20:10:18.354917+05:30"},{"city":"Indore","state":"Madhya Pradesh","latitude":22.7196,"longitude":75.8577,"temp":22.6,"humidity":52,"rain":0.0,"pressure":948.9,"uv_index":7.55,"wind_gusts":22.3,"aqi":101,"pm10":23.9,"pm2_5":22.7,"mosquito_risk":0,"arthritis_risk":5,"migraine_risk":7,"frizz_risk":0,"updated_at":"2026-03-06T20:10:18.354923+05:30"},{"city":"Bhopal","state":"Madhya Pradesh","latitude":23.2599,"longitude":77.4126,"temp":24.0,"humidity":48,"rain":0.0,"pressure":955.0,"uv_index":7.4,"wind_gusts":24.8,"aqi":111,"pm10":30.0,"pm2_5":22.1,"mosquito_risk":0,"arthritis_risk":5,"migraine_risk":7,"frizz_risk":0,"updated_at":"2026-03-06T20:10:18.354930+05:30"},{"city":"Jabalpur","state":"Madhya Pradesh","latitude":23.1815,"longitude":79.9864,"temp":27.9,"humidity":39,"rain":0.0,"pressure":962.5,"uv_index":7.5,"wind_gusts":26.6,"aqi":83,"pm10":50.5,"pm2_5":24.8,"mosquito_risk":4,"arthritis_risk":5,"migraine_risk":7,"frizz_risk":0,"updated_at":"2026-03-06T20:10:18.354936+05:30"},{"city":"Ujjain","state":"Madhya Pradesh","latitude":23.1765,"longitude":75.7885,"temp":24.3,"humidity":53,"rain":0.0,"pressure":955.0,"uv_index":7.45,"wind_gusts":19.1,"aqi":85,"pm10":29.1,"pm2_5":27.7,"mosquito_risk":0,"arthritis_risk":5,"migraine_risk":7,"frizz_risk":0,"updated_at":"2026-03-06T20:10:18.354943+05:30"},{"city":"Visakhapatnam","state":"Andhra Pradesh","latitude":17.6868,"longitude":83.2185,"temp":26.1,"humidity":89,"rain":0.0,"pressure":1004.2,"uv_index":8.45,"wind_gusts":35.3,"aqi":137,"pm10":32.8,"pm2_5":28.1,"mosquito_risk":7,"arthritis_risk":5,"migraine_risk":4,"frizz_risk":1,"updated_at":"2026-03-06T20:10:18.354950+05:30"},{"city":"Vijayawada","state":"Andhra Pradesh","latitude":16.5062,"longitude":80.648,"temp":29.5,"humidity":52,"rain":0.0,"pressure":1001.8,"uv_index":8.55,"wind_gusts":14.8,"aqi":147,"pm10":42.3,"pm2_5":38.6,"mosquito_risk":4,"arthritis_risk":5,"migraine_risk":4,"frizz_risk":1,"updated_at":"2026-03-06T20:10:18.354956+05:30"},{"city":"Guntur","state":"Andhra Pradesh","latitude":16.3067,"longitude":80.4365,"temp":28.3,"humidity":59,"rain":0.0,"pressure":1003.5,"uv_index":8.55,"wind_gusts":18.0,"aqi":141,"pm10":36.7,"pm2_5":32.7,"mosquito_risk":4,"arthritis_risk":5,"migraine_risk":4,"frizz_risk":1,"updated_at":"2026-03-06T20:10:18.354963+05:30"},{"city":"Nellore","state":"Andhra Pradesh","latitude":14.4426,"longitude":79.9865,"temp":27.2,"humidity":65,"rain":0.0,"pressure":1005.7,"uv_index":8.75,"wind_gusts":28.8,"aqi":158,"pm10":28.6,"pm2_5":26.1,"mosquito_risk":7,"arthritis_risk":5,"migraine_risk":4,"frizz_risk":1,"updated_at":"2026-03-06T20:10:18.354970+05:30"},{"city":"Kurnool","state":"Andhra Pradesh","latitude":15.8281,"longitude":78.0373,"temp":31.5,"humidity":23,"rain":0.0,"pressure":976.4,"uv_index":8.55,"wind_gusts":23.4,"aqi":138,"pm10":20.0,"pm2_5":17.6,"mosquito_risk":0,"arthritis_risk":5,"migraine_risk":7,"frizz_risk":0,"updated_at":"2026-03-06T20:10:18.354977+05:30"},{"city":"Kakinada","state":"Andhra Pradesh","latitude":16.9891,"longitude":82.2475,"temp":26.0,"humidity":85,"rain":0.0,"pressure":1007.3,"uv_index":8.5,"wind_gusts":31.0,"aqi":104,"pm10":30.4,"pm2_5":25.5,"mosquito_risk":7,"arthritis_risk":5,"migraine_risk":4,"frizz_risk":1,"updated_at":"2026-03-06T20:10:18.354984+05:30"},{"city":"Tirupati","state":"Andhra Pradesh","latitude":13.6288,"longitude":79.4192,"temp":28.3,"humidity":45,"rain":0.0,"pressure":991.9,"uv_index":8.85,"wind_gusts":30.6,"aqi":151,"pm10":41.1,"pm2_5":39.6,"mosquito_risk":4,"arthritis_risk":5,"migraine_risk":7,"frizz_risk":0,"updated_at":"2026-03-06T20:10:18.354991+05:30"},{"city":"Warangal","state":"Telangana","latitude":17.9689,"longitude":79.5941,"temp":29.9,"humidity":37,"rain":0.0,"pressure":978.5,"uv_index":8.3,"wind_gusts":24.5,"aqi":120,"pm10":36.0,"pm2_5":28.0,"mosquito_risk":4,"arthritis_risk":5,"migraine_risk":7,"frizz_risk":0,"updated_at":"2026-03-06T20:10:18.354998+05:30"},{"city":"Nizamabad","state":"Telangana","latitude":18.6725,"longitude":78.0941,"temp":28.0,"humidity":36,"rain":0.0,"pressure":965.0,"uv_index":8.2,"wind_gusts":28.8,"aqi":101,"pm10":44.0,"pm2_5":33.3,"mosquito_risk":4,"arthritis_risk":5,"migraine_risk":7,"frizz_risk":0,"updated_at":"2026-03-06T20:10:18.355004+05:30"},{"city":"Mysore","state":"Karnataka","latitude":12.2958,"longitude":76.6396,"temp":27.7,"humidity":39,"rain":0.0,"pressure":928.2,"uv_index":9.2,"wind_gusts":36.4,"aqi":196,"pm10":47.4,"pm2_5":44.9,"mosquito_risk":4,"arthritis_risk":5,"migraine_risk":7,"frizz_risk":0,"updated_at":"2026-03-06T20:10:18.355010+05:30"},{"city":"Mangalore","state":"Karnataka","latitude":12.9141,"longitude":74.856,"temp":29.0,"humidity":76,"rain":0.0,"pressure":1007.4,"uv_index":8.8,"wind_gusts":23.8,"aqi":123,"pm10":48.9,"pm2_5":44.7,"mosquito_risk":7,"arthritis_risk":5,"migraine_risk":4,"frizz_risk":1,"updated_at":"2026-03-06T20:10:18.355017+05:30"},{"city":"Hubli-Dharwad","state":"Karnataka","latitude":15.3647,"longitude":75.124,"temp":27.9,"humidity":33,"rain":0.0,"pressure":940.4,"uv_index":8.75,"wind_gusts":36.7,"aqi":168,"pm10":29.6,"pm2_5":28.1,"mosquito_risk":4,"arthritis_risk":5,"migraine_risk":7,"frizz_risk":0,"updated_at":"2026-03-06T20:10:18.355023+05:30"},{"city":"Belgaum","state":"Karnataka","latitude":15.8497,"longitude":74.4977,"temp":25.6,"humidity":57,"rain":0.0,"pressure":926.1,"uv_index":8.8,"wind_gusts":40.0,"aqi":165,"pm10":32.4,"pm2_5":31.1,"mosquito_risk":4,"arthritis_risk":5,"migraine_risk":7,"frizz_risk":1,"updated_at":"2026-03-06T20:10:21.663509+05:30"},{"city":"Coimbatore","state":"Tamil Nadu","latitude":11.0168,"longitude":76.9558,"temp":26.1,"humidity":74,"rain":0.0,"pressure":961.8,"uv_index":9.15,"wind_gusts":47.9,"aqi":168,"pm10":40.3,"pm2_5":38.5,"mosquito_risk":7,"arthritis_risk":5,"migraine_risk":7,"frizz_risk":1,"updated_at":"2026-03-06T20:10:21.663543+05:30"},{"city":"Madurai","state":"Tamil Nadu","latitude":9.9252,"longitude":78.1198,"temp":28.8,"humidity":61,"rain":0.0,"pressure":993.3,"uv_index":9.15,"wind_gusts":33.5,"aqi":151,"pm10":33.5,"pm2_5":31.2,"mosquito_risk":7,"arthritis_risk":5,"migraine_risk":7,"frizz_risk":1,"updated_at":"2026-03-06T20:10:21.663556+05:30"},{"city":"Trichy","state":"Tamil Nadu","latitude":10.7905,"longitude":78.7047,"temp":28.8,"humidity":64,"rain":0.0,"pressure":999.6,"uv_index":9.05,"wind_gusts":26.6,"aqi":129,"pm10":29.0,"pm2_5":27.7,"mosquito_risk":7,"arthritis_risk":5,"migraine_risk":7,"frizz_risk":1,"updated_at":"2026-03-06T20:10:21.663564+05:30"},{"city":"Salem","state":"Tamil Nadu","latitude":11.6643,"longitude":78.146,"temp":30.9,"humidity":39,"rain":0.0,"pressure":976.6,"uv_index":9.05,"wind_gusts":18.0,"aqi":184,"pm10":44.2,"pm2_5":40.7,"mosquito_risk":0,"arthritis_risk":5,"migraine_risk":7,"frizz_risk":0,"updated_at":"2026-03-06T20:10:21.663572+05:30"},{"city":"Tirunelveli","state":"Tamil Nadu","latitude":8.7139,"longitude":77.7567,"temp":29.1,"humidity":59,"rain":0.0,"pressure":1003.2,"uv_index":9.15,"wind_gusts":48.6,"aqi":143,"pm10":27.9,"pm2_5":25.9,"mosquito_risk":4,"arthritis_risk":5,"migraine_risk":4,"frizz_risk":1,"updated_at":"2026-03-06T20:10:21.663579+05:30"},{"city":"Vellore","state":"Tamil Nadu","latitude":12.9165,"longitude":79.1325,"temp":28.7,"humidity":49,"rain":0.0,"pressure":984.6,"uv_index":8.95,"wind_gusts":31.3,"aqi":158,"pm10":44.4,"pm2_5":43.1,"mosquito_risk":4,"arthritis_risk":5,"migraine_risk":7,"frizz_risk":1,"updated_at":"2026-03-06T20:10:21.663587+05:30"},{"city":"Erode","state":"Tamil Nadu","latitude":11.341,"longitude":77.7172,"temp":31.3,"humidity":44,"rain":0.0,"pressure":987.7,"uv_index":9.05,"wind_gusts":20.2,"aqi":174,"pm10":39.2,"pm2_5":36.1,"mosquito_risk":0,"arthritis_risk":5,"migraine_risk":7,"frizz_risk":1,"updated_at":"2026-03-06T20:10:21.663594+05:30"},{"city":"Kochi","state":"Kerala","latitude":9.9312,"longitude":76.2673,"temp":28.1,"humidity":82,"rain":0.0,"pressure":1009.2,"uv_index":8.95,"wind_gusts":34.6,"aqi":133,"pm10":40.3,"pm2_5":38.4,"mosquito_risk":7,"arthritis_risk":0,"migraine_risk":4,"frizz_risk":1,"updated_at":"2026-03-06T20:10:21.663602+05:30"},{"city":"Thiruvananthapuram","state":"Kerala","latitude":8.5241,"longitude":76.9366,"temp":27.8,"humidity":80,"rain":0.0,"pressure":1008.8,"uv_index":9.0,"wind_gusts":35.3,"aqi":81,"pm10":29.8,"pm2_5":26.3,"mosquito_risk":7,"arthritis_risk":0,"migraine_risk":4,"frizz_risk":1,"updated_at":"2026-03-06T20:10:21.663609+05:30"},{"city":"Kozhikode","state":"Kerala","latitude":11.2588,"longitude":75.7804,"temp":28.6,"humidity":80,"rain":0.0,"pressure":1008.5,"uv_index":8.85,"wind_gusts":27.0,"aqi":105,"pm10":41.8,"pm2_5":38.0,"mosquito_risk":7,"arthritis_risk":0,"migraine_risk":4,"frizz_risk":1,"updated_at":"2026-03-06T20:10:21.663615+05:30"},{"city":"Thrissur","state":"Kerala","latitude":10.5276,"longitude":76.2144,"temp":28.0,"humidity":80,"rain":0.0,"pressure":1007.6,"uv_index":8.95,"wind_gusts":33.5,"aqi":127,"pm10":36.3,"pm2_5":34.5,"mosquito_risk":7,"arthritis_risk":5,"migraine_risk":4,"frizz_risk":1,"updated_at":"2026-03-06T20:10:21.663623+05:30"},{"city":"Kannur","state":"Kerala","latitude":11.8745,"longitude":75.3704,"temp":28.1,"humidity":79,"rain":0.0,"pressure":1007.9,"uv_index":8.85,"wind_gusts":32.0,"aqi":109,"pm10":44.7,"pm2_5":41.0,"mosquito_risk":7,"arthritis_risk":5,"migraine_risk":4,"frizz_risk":1,"updated_at":"2026-03-06T20:10:21.663630+05:30"},{"city":"Patna","state":"Bihar","latitude":25.5941,"longitude":85.1376,"temp":26.6,"humidity":58,"rain":0.0,"pressure":1002.8,"uv_index":7.25,"wind_gusts":21.6,"aqi":192,"pm10":76.4,"pm2_5":68.5,"mosquito_risk":4,"arthritis_risk":5,"migraine_risk":4,"frizz_risk":1,"updated_at":"2026-03-06T20:10:21.663637+05:30"},{"city":"Gaya","state":"Bihar","latitude":24.7914,"longitude":85.0002,"temp":24.1,"humidity":71,"rain":0.0,"pressure":996.0,"uv_index":7.35,"wind_gusts":20.5,"aqi":204,"pm10":65.9,"pm2_5":59.5,"mosquito_risk":3,"arthritis_risk":5,"migraine_risk":7,"frizz_risk":1,"updated_at":"2026-03-06T20:10:21.663643+05:30"},{"city":"Muzaffarpur","state":"Bihar","latitude":26.1209,"longitude":85.3647,"temp":24.9,"humidity":62,"rain":0.0,"pressure":1003.1,"uv_index":7.2,"wind_gusts":20.5,"aqi":183,"pm10":83.6,"pm2_5":74.7,"mosquito_risk":3,"arthritis_risk":5,"migraine_risk":4,"frizz_risk":1,"updated_at":"2026-03-06T20:10:21.663650+05:30"},{"city":"Bhagalpur","state":"Bihar","latitude":25.2425,"longitude":87.0117,"temp":24.5,"humidity":66,"rain":0.0,"pressure":1003.7,"uv_index":7.25,"wind_gusts":17.3,"aqi":161,"pm10":75.2,"pm2_5":67.3,"mosquito_risk":3,"arthritis_risk":5,"migraine_risk":4,"frizz_risk":1,"updated_at":"2026-03-06T20:10:21.663656+05:30"},{"city":"Ranchi","state":"Jharkhand","latitude":23.3441,"longitude":85.3096,"temp":24.3,"humidity":48,"rain":0.0,"pressure":939.1,"uv_index":8.0,"wind_gusts":31.0,"aqi":198,"pm10":77.5,"pm2_5":54.5,"mosquito_risk":0,"arthritis_risk":5,"migraine_risk":7,"frizz_risk":0,"updated_at":"2026-03-06T20:10:21.663681+05:30"},{"city":"Jamshedpur","state":"Jharkhand","latitude":22.8046,"longitude":86.2029,"temp":27.0,"humidity":58,"rain":0.0,"pressure":992.4,"uv_index":7.9,"wind_gusts":21.2,"aqi":176,"pm10":61.0,"pm2_5":47.1,"mosquito_risk":4,"arthritis_risk":5,"migraine_risk":7,"frizz_risk":1,"updated_at":"2026-03-06T20:10:21.663688+05:30"},{"city":"Dhanbad","state":"Jharkhand","latitude":23.7957,"longitude":86.4304,"temp":28.3,"humidity":38,"rain":0.0,"pressure":981.8,"uv_index":7.75,"wind_gusts":27.4,"aqi":209,"pm10":98.5,"pm2_5":84.1,"mosquito_risk":4,"arthritis_risk":5,"migraine_risk":7,"frizz_risk":0,"updated_at":"2026-03-06T20:10:21.663695+05:30"},{"city":"Bokaro","state":"Jharkhand","latitude":23.6693,"longitude":86.1511,"temp":26.7,"humidity":45,"rain":0.0,"pressure":985.7,"uv_index":7.75,"wind_gusts":29.5,"aqi":216,"pm10":114.8,"pm2_5":91.5,"mosquito_risk":4,"arthritis_risk":5,"migraine_risk":7,"frizz_risk":0,"updated_at":"2026-03-06T20:10:21.663702+05:30"},{"city":"Bhubaneswar","state":"Odisha","latitude":20.2961,"longitude":85.8245,"temp":26.0,"humidity":76,"rain":0.0,"pressure":1004.3,"uv_index":8.2,"wind_gusts":29.9,"aqi":152,"pm10":49.7,"pm2_5":44.8,"mosquito_risk":7,"arthritis_risk":5,"migraine_risk":4,"frizz_risk":1,"updated_at":"2026-03-06T20:10:21.663708+05:30"},{"city":"Cuttack","state":"Odisha","latitude":20.4625,"longitude":85.8828,"temp":27.0,"humidity":70,"rain":0.0,"pressure":1006.1,"uv_index":8.2,"wind_gusts":32.4,"aqi":152,"pm10":49.7,"pm2_5":44.8,"mosquito_risk":7,"arthritis_risk":5,"migraine_risk":4,"frizz_risk":1,"updated_at":"2026-03-06T20:10:21.663714+05:30"},{"city":"Rourkela","state":"Odisha","latitude":22.2604,"longitude":84.8536,"temp":27.9,"humidity":53,"rain":0.0,"pressure":985.6,"uv_index":7.8,"wind_gusts":10.4,"aqi":207,"pm10":111.8,"pm2_5":68.9,"mosquito_risk":4,"arthritis_risk":5,"migraine_risk":7,"frizz_risk":1,"updated_at":"2026-03-06T20:10:21.663721+05:30"},{"city":"Raipur","state":"Chhattisgarh","latitude":21.2514,"longitude":81.6296,"temp":30.3,"humidity":32,"rain":0.0,"pressure":974.7,"uv_index":7.9,"wind_gusts":22.7,"aqi":90,"pm10":80.3,"pm2_5":52.6,"mosquito_risk":0,"arthritis_risk":5,"migraine_risk":7,"frizz_risk":0,"updated_at":"2026-03-06T20:10:21.663727+05:30"},{"city":"Bhilai","state":"Chhattisgarh","latitude":21.1938,"longitude":81.3509,"temp":28.7,"humidity":35,"rain":0.0,"pressure":974.9,"uv_index":7.9,"wind_gusts":23.8,"aqi":79,"pm10":66.6,"pm2_5":50.2,"mosquito_risk":4,"arthritis_risk":5,"migraine_risk":7,"frizz_risk":0,"updated_at":"2026-03-06T20:10:21.663734+05:30"},{"city":"Guwahati","state":"Assam","latitude":26.1158,"longitude":91.7086,"temp":26.9,"humidity":67,"rain":0.0,"pressure":1003.6,"uv_index":7.2,"wind_gusts":20.5,"aqi":154,"pm10":68.9,"pm2_5":62.6,"mosquito_risk":7,"arthritis_risk":5,"migraine_risk":4,"frizz_risk":1,"updated_at":"2026-03-06T20:10:21.663740+05:30"},{"city":"Agartala","state":"Tripura","latitude":23.8315,"longitude":91.2868,"temp":24.9,"humidity":72,"rain":0.0,"pressure":1008.5,"uv_index":7.55,"wind_gusts":16.9,"aqi":189,"pm10":72.2,"pm2_5":65.2,"mosquito_risk":3,"arthritis_risk":0,"migraine_risk":4,"frizz_risk":1,"updated_at":"2026-03-06T20:10:21.663747+05:30"},{"city":"Shillong","state":"Meghalaya","latitude":25.5788,"longitude":91.8933,"temp":12.2,"humidity":70,"rain":0.0,"pressure":856.8,"uv_index":7.6,"wind_gusts":33.1,"aqi":126,"pm10":49.5,"pm2_5":45.5,"mosquito_risk":3,"arthritis_risk":5,"migraine_risk":7,"frizz_risk":0,"updated_at":"2026-03-06T20:10:21.663753+05:30"},{"city":"Imphal","state":"Manipur","latitude":24.817,"longitude":93.9368,"temp":18.2,"humidity":57,"rain":0.0,"pressure":925.2,"uv_index":7.8,"wind_gusts":34.9,"aqi":155,"pm10":75.4,"pm2_5":70.3,"mosquito_risk":0,"arthritis_risk":5,"migraine_risk":7,"frizz_risk":0,"updated_at":"2026-03-06T20:10:21.663760+05:30"},{"city":"Aizawl","state":"Mizoram","latitude":23.7271,"longitude":92.7176,"temp":20.9,"humidity":55,"rain":0.0,"pressure":895.0,"uv_index":7.7,"wind_gusts":34.6,"aqi":182,"pm10":123.4,"pm2_5":116.2,"mosquito_risk":0,"arthritis_risk":5,"migraine_risk":7,"frizz_risk":0,"updated_at":"2026-03-06T20:10:21.663767+05:30"},{"city":"Kohima","state":"Nagaland","latitude":25.6701,"longitude":94.1077,"temp":16.3,"humidity":63,"rain":0.0,"pressure":856.8,"uv_index":7.65,"wind_gusts":43.9,"aqi":158,"pm10":91.0,"pm2_5":84.8,"mosquito_risk":3,"arthritis_risk":5,"migraine_risk":7,"frizz_risk":0,"updated_at":"2026-03-06T20:10:21.663773+05:30"},{"city":"Gangtok","state":"Sikkim","latitude":27.3314,"longitude":88.6138,"temp":14.8,"humidity":90,"rain":0.0,"pressure":840.0,"uv_index":7.55,"wind_gusts":18.0,"aqi":125,"pm10":53.0,"pm2_5":46.2,"mosquito_risk":3,"arthritis_risk":10,"migraine_risk":7,"frizz_risk":0,"updated_at":"2026-03-06T20:10:21.663780+05:30"},{"city":"Siliguri","state":"West Bengal","latitude":26.7271,"longitude":88.3953,"temp":22.2,"humidity":57,"rain":0.0,"pressure":997.1,"uv_index":7.2,"wind_gusts":14.8,"aqi":146,"pm10":70.8,"pm2_5":62.2,"mosquito_risk":0,"arthritis_risk":5,"migraine_risk":7,"frizz_risk":0,"updated_at":"2026-03-06T20:10:24.967637+05:30"},{"city":"Durgapur","state":"West Bengal","latitude":23.5204,"longitude":87.3119,"temp":26.9,"humidity":50,"rain":0.0,"pressure":997.4,"uv_index":7.75,"wind_gusts":24.1,"aqi":181,"pm10":71.0,"pm2_5":61.5,"mosquito_risk":4,"arthritis_risk":5,"migraine_risk":7,"frizz_risk":0,"updated_at":"2026-03-06T20:10:24.967692+05:30"},{"city":"Asansol","state":"West Bengal","latitude":23.6739,"longitude":86.9524,"temp":27.7,"humidity":47,"rain":0.0,"pressure":995.9,"uv_index":7.75,"wind_gusts":21.6,"aqi":205,"pm10":78.2,"pm2_5":67.1,"mosquito_risk":4,"arthritis_risk":5,"migraine_risk":7,"frizz_risk":0,"updated_at":"2026-03-06T20:10:24.967705+05:30"},{"city":"Pondicherry","state":"Puducherry","latitude":11.9139,"longitude":79.8145,"temp":25.4,"humidity":84,"rain":0.0,"pressure":1008.8,"uv_index":8.9,"wind_gusts":32.4,"aqi":70,"pm10":26.8,"pm2_5":21.0,"mosquito_risk":7,"arthritis_risk":0,"migraine_risk":4,"frizz_risk":1,"updated_at":"2026-03-06T20:10:24.967715+05:30"},{"city":"Port Blair","state":"Andaman and Nicobar Islands","latitude":11.6234,"longitude":92.7265,"temp":27.2,"humidity":72,"rain":0.0,"pressure":1008.7,"uv_index":8.85,"wind_gusts":14.4,"aqi":63,"pm10":52.3,"pm2_5":31.1,"mosquito_risk":7,"arthritis_risk":0,"migraine_risk":4,"frizz_risk":1,"updated_at":"2026-03-06T20:10:24.967724+05:30"},{"city":"Haridwar","state":"Uttarakhand","latitude":29.9457,"longitude":78.1642,"temp":26.0,"humidity":67,"rain":0.0,"pressure":977.4,"uv_index":5.65,"wind_gusts":23.4,"aqi":170,"pm10":114.6,"pm2_5":79.4,"mosquito_risk":7,"arthritis_risk":5,"migraine_risk":3,"frizz_risk":1,"updated_at":"2026-03-06T20:10:24.967733+05:30"},{"city":"Rishikesh","state":"Uttarakhand","latitude":30.0869,"longitude":78.2676,"temp":24.3,"humidity":69,"rain":0.0,"pressure":970.4,"uv_index":5.7,"wind_gusts":21.6,"aqi":182,"pm10":99.0,"pm2_5":67.5,"mosquito_risk":3,"arthritis_risk":5,"migraine_risk":3,"frizz_risk":1,"updated_at":"2026-03-06T20:10:24.967742+05:30"},{"city":"Nainital","state":"Uttarakhand","latitude":29.3919,"longitude":79.4542,"temp":17.1,"humidity":70,"rain":0.0,"pressure":808.3,"uv_index":6.5,"wind_gusts":46.4,"aqi":160,"pm10":103.4,"pm2_5":75.7,"mosquito_risk":3,"arthritis_risk":5,"migraine_risk":7,"frizz_risk":0,"updated_at":"2026-03-06T20:10:24.967751+05:30"},{"city":"Mussoorie","state":"Uttarakhand","latitude":30.4599,"longitude":78.0664,"temp":16.3,"humidity":84,"rain":0.0,"pressure":805.0,"uv_index":6.05,"wind_gusts":40.7,"aqi":179,"pm10":108.3,"pm2_5":72.2,"mosquito_risk":3,"arthritis_risk":10,"migraine_risk":7,"frizz_risk":0,"updated_at":"2026-03-06T20:10:24.967759+05:30"},{"city":"Dharamshala","state":"Himachal Pradesh","latitude":32.219,"longitude":76.3234,"temp":22.0,"humidity":65,"rain":0.0,"pressure":871.5,"uv_index":5.75,"wind_gusts":21.2,"aqi":110,"pm10":34.1,"pm2_5":22.3,"mosquito_risk":3,"arthritis_risk":5,"migraine_risk":3,"frizz_risk":0,"updated_at":"2026-03-06T20:10:24.967767+05:30"},{"city":"Dalhousie","state":"Himachal Pradesh","latitude":32.5387,"longitude":75.971,"temp":19.5,"humidity":63,"rain":0.0,"pressure":806.2,"uv_index":5.85,"wind_gusts":20.9,"aqi":120,"pm10":61.7,"pm2_5":44.6,"mosquito_risk":3,"arthritis_risk":5,"migraine_risk":3,"frizz_risk":0,"updated_at":"2026-03-06T20:10:24.967777+05:30"},{"city":"Patiala","state":"Punjab","latitude":30.3398,"longitude":76.3869,"temp":26.1,"humidity":64,"rain":0.0,"pressure":980.2,"uv_index":5.7,"wind_gusts":13.0,"aqi":161,"pm10":278.5,"pm2_5":82.9,"mosquito_risk":7,"arthritis_risk":5,"migraine_risk":3,"frizz_risk":1,"updated_at":"2026-03-06T20:10:24.967785+05:30"},{"city":"Bhatinda","state":"Punjab","latitude":30.211,"longitude":74.9455,"temp":25.1,"humidity":56,"rain":0.0,"pressure":985.0,"uv_index":6.4,"wind_gusts":16.9,"aqi":138,"pm10":51.0,"pm2_5":41.3,"mosquito_risk":4,"arthritis_risk":5,"migraine_risk":7,"frizz_risk":0,"updated_at":"2026-03-06T20:10:24.967792+05:30"},{"city":"Rohtak","state":"Haryana","latitude":28.8955,"longitude":76.6066,"temp":25.6,"humidity":52,"rain":0.0,"pressure":983.9,"uv_index":5.9,"wind_gusts":19.4,"aqi":201,"pm10":220.3,"pm2_5":75.7,"mosquito_risk":4,"arthritis_risk":5,"migraine_risk":3,"frizz_risk":0,"updated_at":"2026-03-06T20:10:24.967799+05:30"},{"city":"Panipat","state":"Haryana","latitude":29.3909,"longitude":76.9635,"temp":26.1,"humidity":61,"rain":0.0,"pressure":982.6,"uv_index":5.7,"wind_gusts":14.0,"aqi":515,"pm10":320.4,"pm2_5":83.4,"mosquito_risk":7,"arthritis_risk":5,"migraine_risk":3,"frizz_risk":1,"updated_at":"2026-03-06T20:10:24.967806+05:30"},{"city":"Mathura","state":"Uttar Pradesh","latitude":27.4924,"longitude":77.6737,"temp":26.0,"humidity":45,"rain":0.0,"pressure":989.0,"uv_index":6.2,"wind_gusts":19.1,"aqi":313,"pm10":195.1,"pm2_5":66.8,"mosquito_risk":4,"arthritis_risk":5,"migraine_risk":7,"frizz_risk":0,"updated_at":"2026-03-06T20:10:24.967813+05:30"},{"city":"Vrindavan","state":"Uttar Pradesh","latitude":27.5823,"longitude":77.7027,"temp":25.3,"humidity":54,"rain":0.0,"pressure":989.5,"uv_index":6.15,"wind_gusts":17.6,"aqi":313,"pm10":195.1,"pm2_5":66.8,"mosquito_risk":4,"arthritis_risk":5,"migraine_risk":7,"frizz_risk":0,"updated_at":"2026-03-06T20:10:24.967820+05:30"},{"city":"Ayodhya","state":"Uttar Pradesh","latitude":26.7922,"longitude":82.1998,"temp":24.3,"humidity":70,"rain":0.0,"pressure":998.2,"uv_index":6.55,"wind_gusts":19.4,"aqi":179,"pm10":115.9,"pm2_5":88.5,"mosquito_risk":3,"arthritis_risk":5,"migraine_risk":7,"frizz_risk":1,"updated_at":"2026-03-06T20:10:24.967826+05:30"},{"city":"Ratlam","state":"Madhya Pradesh","latitude":23.3315,"longitude":75.0367,"temp":25.6,"humidity":50,"rain":0.0,"pressure":956.2,"uv_index":7.4,"wind_gusts":20.9,"aqi":97,"pm10":25.7,"pm2_5":24.3,"mosquito_risk":4,"arthritis_risk":5,"migraine_risk":7,"frizz_risk":0,"updated_at":"2026-03-06T20:10:24.967833+05:30"},{"city":"Sagar","state":"Madhya Pradesh","latitude":23.8388,"longitude":78.7378,"temp":25.8,"humidity":46,"rain":0.0,"pressure":951.2,"uv_index":7.35,"wind_gusts":21.6,"aqi":95,"pm10":38.0,"pm2_5":17.1,"mosquito_risk":4,"arthritis_risk":5,"migraine_risk":7,"frizz_risk":0,"updated_at":"2026-03-06T20:10:24.967839+05:30"},{"city":"Satna","state":"Madhya Pradesh","latitude":24.6005,"longitude":80.8322,"temp":26.3,"humidity":52,"rain":0.0,"pressure":973.2,"uv_index":7.3,"wind_gusts":31.3,"aqi":104,"pm10":123.4,"pm2_5":47.6,"mosquito_risk":4,"arthritis_risk":5,"migraine_risk":7,"frizz_risk":0,"updated_at":"2026-03-06T20:10:24.967845+05:30"},{"city":"Akola","state":"Maharashtra","latitude":20.7002,"longitude":77.0082,"temp":28.4,"humidity":34,"rain":0.0,"pressure":975.2,"uv_index":7.85,"wind_gusts":19.8,"aqi":123,"pm10":34.0,"pm2_5":25.7,"mosquito_risk":4,"arthritis_risk":5,"migraine_risk":7,"frizz_risk":0,"updated_at":"2026-03-06T20:10:24.967852+05:30"},{"city":"Amravati","state":"Maharashtra","latitude":20.9374,"longitude":77.7796,"temp":30.4,"humidity":31,"rain":0.0,"pressure":967.4,"uv_index":7.75,"wind_gusts":15.1,"aqi":119,"pm10":33.5,"pm2_5":24.4,"mosquito_risk":0,"arthritis_risk":5,"migraine_risk":7,"frizz_risk":0,"updated_at":"2026-03-06T20:10:24.967859+05:30"},{"city":"Latur","state":"Maharashtra","latitude":18.4088,"longitude":76.5604,"temp":28.2,"humidity":33,"rain":0.0,"pressure":940.2,"uv_index":8.3,"wind_gusts":31.7,"aqi":134,"pm10":27.9,"pm2_5":23.2,"mosquito_risk":4,"arthritis_risk":5,"migraine_risk":7,"frizz_risk":0,"updated_at":"2026-03-06T20:10:24.967866+05:30"},{"city":"Nanded","state":"Maharashtra","latitude":19.1383,"longitude":77.3091,"temp":28.2,"humidity":39,"rain":0.0,"pressure":968.6,"uv_index":8.1,"wind_gusts":20.9,"aqi":112,"pm10":35.9,"pm2_5":27.8,"mosquito_risk":4,"arthritis_risk":5,"migraine_risk":7,"frizz_risk":0,"updated_at":"2026-03-06T20:10:24.967872+05:30"},{"city":"Gulbarga","state":"Karnataka","latitude":17.3297,"longitude":76.8343,"temp":30.4,"humidity":26,"rain":0.0,"pressure":958.7,"uv_index":8.4,"wind_gusts":33.1,"aqi":124,"pm10":21.1,"pm2_5":16.5,"mosquito_risk":0,"arthritis_risk":5,"migraine_risk":7,"frizz_risk":0,"updated_at":"2026-03-06T20:10:24.967878+05:30"},{"city":"Bidar","state":"Karnataka","latitude":17.9104,"longitude":77.5199,"temp":27.5,"humidity":31,"rain":0.0,"pressure":935.8,"uv_index":8.35,"wind_gusts":32.8,"aqi":107,"pm10":32.0,"pm2_5":24.1,"mosquito_risk":4,"arthritis_risk":5,"migraine_risk":7,"frizz_risk":0,"updated_at":"2026-03-06T20:10:24.967884+05:30"},{"city":"Hospet","state":"Karnataka","latitude":15.2689,"longitude":76.3909,"temp":31.6,"humidity":25,"rain":0.0,"pressure":955.7,"uv_index":8.75,"wind_gusts":20.2,"aqi":165,"pm10":25.1,"pm2_5":23.5,"mosquito_risk":0,"arthritis_risk":5,"migraine_risk":7,"frizz_risk":0,"updated_at":"2026-03-06T20:10:24.967890+05:30"},{"city":"Tirupur","state":"Tamil Nadu","latitude":11.1085,"longitude":77.3411,"temp":30.5,"humidity":45,"rain":0.0,"pressure":974.6,"uv_index":9.2,"wind_gusts":31.7,"aqi":182,"pm10":49.8,"pm2_5":46.8,"mosquito_risk":0,"arthritis_risk":5,"migraine_risk":7,"frizz_risk":1,"updated_at":"2026-03-06T20:10:24.967896+05:30"},{"city":"Alappuzha","state":"Kerala","latitude":9.4981,"longitude":76.3388,"temp":28.3,"humidity":80,"rain":0.0,"pressure":1009.5,"uv_index":8.95,"wind_gusts":31.0,"aqi":110,"pm10":35.2,"pm2_5":32.4,"mosquito_risk":7,"arthritis_risk":0,"migraine_risk":4,"frizz_risk":1,"updated_at":"2026-03-06T20:10:24.967902+05:30"},{"city":"Munnar","state":"Kerala","latitude":10.0889,"longitude":77.0595,"temp":21.1,"humidity":94,"rain":0.0,"pressure":857.2,"uv_index":9.45,"wind_gusts":29.9,"aqi":122,"pm10":40.0,"pm2_5":37.6,"mosquito_risk":3,"arthritis_risk":5,"migraine_risk":7,"frizz_risk":1,"updated_at":"2026-03-06T20:10:24.967909+05:30"},{"city":"Silchar","state":"Assam","latitude":24.8333,"longitude":92.7789,"temp":27.3,"humidity":58,"rain":0.0,"pressure":1006.5,"uv_index":7.55,"wind_gusts":12.6,"aqi":169,"pm10":103.4,"pm2_5":99.2,"mosquito_risk":4,"arthritis_risk":5,"migraine_risk":4,"frizz_risk":1,"updated_at":"2026-03-06T20:10:24.967916+05:30"},{"city":"Dibrugarh","state":"Assam","latitude":27.4728,"longitude":94.912,"temp":25.7,"humidity":71,"rain":0.0,"pressure":997.4,"uv_index":7.25,"wind_gusts":16.6,"aqi":103,"pm10":47.1,"pm2_5":42.8,"mosquito_risk":7,"arthritis_risk":5,"migraine_risk":7,"frizz_risk":1,"updated_at":"2026-03-06T20:10:24.967922+05:30"}]