[{"city":"Delhi","state":"Delhi","latitude":28.6139,"longitude":77.209,"temp":31.3,"humidity":54,"rain":0.0,"pressure":977.4,"uv_index":7.65,"wind_gusts":26.6,"aqi":227,"pm10":338.1,"pm2_5":119.7,"no2":56.8,"co":707.0,"o3":39.0,"so2":31.8,"mosquito_risk":0,"arthritis_risk":5,"migraine_risk":7,"frizz_risk":1,"updated_at":"2026-06-25T02:55:09.648555+05:30"},{"city":"Mumbai","state":"Maharashtra","latitude":19.076,"longitude":72.8777,"temp":25.4,"humidity":94,"rain":0.0,"pressure":1005.5,"uv_index":0.95,"wind_gusts":35.6,"aqi":51,"pm10":32.4,"pm2_5":13.7,"no2":10.1,"co":170.0,"o3":43.0,"so2":9.2,"mosquito_risk":7,"arthritis_risk":5,"migraine_risk":0,"frizz_risk":1,"updated_at":"2026-06-25T02:55:09.648621+05:30"},{"city":"Bangalore","state":"Karnataka","latitude":12.9716,"longitude":77.5946,"temp":20.3,"humidity":92,"rain":0.0,"pressure":910.2,"uv_index":9.05,"wind_gusts":49.7,"aqi":29,"pm10":5.2,"pm2_5":4.3,"no2":9.2,"co":191.0,"o3":35.0,"so2":4.0,"mosquito_risk":3,"arthritis_risk":5,"migraine_risk":7,"frizz_risk":1,"updated_at":"2026-06-25T02:55:09.648640+05:30"},{"city":"Hyderabad","state":"Telangana","latitude":17.385,"longitude":78.4867,"temp":25.1,"humidity":73,"rain":0.0,"pressure":949.9,"uv_index":7.45,"wind_gusts":45.0,"aqi":27,"pm10":4.6,"pm2_5":4.1,"no2":8.7,"co":168.0,"o3":44.0,"so2":4.5,"mosquito_risk":7,"arthritis_risk":5,"migraine_risk":7,"frizz_risk":1,"updated_at":"2026-06-25T02:55:09.648651+05:30"},{"city":"Chennai","state":"Tamil Nadu","latitude":13.0827,"longitude":80.2707,"temp":29.1,"humidity":68,"rain":0.0,"pressure":1004.3,"uv_index":8.05,"wind_gusts":43.2,"aqi":62,"pm10":17.4,"pm2_5":14.6,"no2":15.8,"co":386.0,"o3":50.0,"so2":8.7,"mosquito_risk":7,"arthritis_risk":5,"migraine_risk":4,"frizz_risk":1,"updated_at":"2026-06-25T02:55:09.648659+05:30"},{"city":"Kolkata","state":"West Bengal","latitude":22.5726,"longitude":88.3639,"temp":28.9,"humidity":92,"rain":0.0,"pressure":1001.2,"uv_index":9.0,"wind_gusts":28.1,"aqi":143,"pm10":46.0,"pm2_5":45.1,"no2":15.0,"co":387.0,"o3":88.0,"so2":13.3,"mosquito_risk":7,"arthritis_risk":5,"migraine_risk":4,"frizz_risk":1,"updated_at":"2026-06-25T02:55:09.648667+05:30"},{"city":"Pune","state":"Maharashtra","latitude":18.5204,"longitude":73.8567,"temp":22.7,"humidity":88,"rain":0.0,"pressure":944.6,"uv_index":4.95,"wind_gusts":41.4,"aqi":29,"pm10":15.2,"pm2_5":11.8,"no2":10.2,"co":126.0,"o3":34.0,"so2":6.0,"mosquito_risk":3,"arthritis_risk":5,"migraine_risk":3,"frizz_risk":1,"updated_at":"2026-06-25T02:55:09.648674+05:30"},{"city":"Ahmedabad","state":"Gujarat","latitude":23.0225,"longitude":72.5714,"temp":30.3,"humidity":59,"rain":0.0,"pressure":997.2,"uv_index":8.0,"wind_gusts":38.5,"aqi":70,"pm10":37.1,"pm2_5":18.0,"no2":4.3,"co":108.0,"o3":44.0,"so2":3.3,"mosquito_risk":0,"arthritis_risk":5,"migraine_risk":7,"frizz_risk":1,"updated_at":"2026-06-25T02:55:09.648681+05:30"},{"city":"Jaipur","state":"Rajasthan","latitude":26.9124,"longitude":75.7873,"temp":29.6,"humidity":56,"rain":0.0,"pressure":954.4,"uv_index":8.15,"wind_gusts":24.1,"aqi":123,"pm10":110.1,"pm2_5":49.2,"no2":32.6,"co":228.0,"o3":23.0,"so2":9.1,"mosquito_risk":4,"arthritis_risk":5,"migraine_risk":7,"frizz_risk":1,"updated_at":"2026-06-25T02:55:09.648687+05:30"},{"city":"Lucknow","state":"Uttar Pradesh","latitude":26.8467,"longitude":80.9462,"temp":32.4,"humidity":47,"rain":0.0,"pressure":987.5,"uv_index":8.3,"wind_gusts":25.2,"aqi":157,"pm10":218.4,"pm2_5":71.2,"no2":34.6,"co":444.0,"o3":36.0,"so2":9.8,"mosquito_risk":0,"arthritis_risk":5,"migraine_risk":7,"frizz_risk":1,"updated_at":"2026-06-25T02:55:09.648698+05:30"},{"city":"Kanpur","state":"Uttar Pradesh","latitude":26.4499,"longitude":80.3319,"temp":33.8,"humidity":41,"rain":0.0,"pressure":985.7,"uv_index":4.05,"wind_gusts":32.0,"aqi":152,"pm10":197.9,"pm2_5":63.3,"no2":32.9,"co":218.0,"o3":33.0,"so2":8.0,"mosquito_risk":0,"arthritis_risk":5,"migraine_risk":3,"frizz_risk":1,"updated_at":"2026-06-25T02:55:09.648705+05:30"},{"city":"Chandigarh","state":"Chandigarh","latitude":30.7333,"longitude":76.7794,"temp":26.6,"humidity":71,"rain":0.0,"pressure":963.9,"uv_index":7.8,"wind_gusts":23.4,"aqi":147,"pm10":121.1,"pm2_5":83.8,"no2":62.1,"co":741.0,"o3":6.0,"so2":8.1,"mosquito_risk":7,"arthritis_risk":5,"migraine_risk":7,"frizz_risk":1,"updated_at":"2026-06-25T02:55:09.648713+05:30"},{"city":"Srinagar","state":"Jammu and Kashmir","latitude":34.0837,"longitude":74.7973,"temp":16.4,"humidity":96,"rain":0.0,"pressure":836.5,"uv_index":9.1,"wind_gusts":22.0,"aqi":70,"pm10":33.9,"pm2_5":32.9,"no2":29.7,"co":461.0,"o3":14.0,"so2":0.1,"mosquito_risk":3,"arthritis_risk":10,"migraine_risk":7,"frizz_risk":0,"updated_at":"2026-06-25T02:55:09.648720+05:30"},{"city":"Jammu","state":"Jammu and Kashmir","latitude":32.7266,"longitude":74.857,"temp":28.3,"humidity":62,"rain":0.1,"pressure":967.7,"uv_index":8.65,"wind_gusts":24.8,"aqi":93,"pm10":45.4,"pm2_5":41.9,"no2":56.2,"co":301.0,"o3":4.0,"so2":3.5,"mosquito_risk":10,"arthritis_risk":5,"migraine_risk":7,"frizz_risk":1,"updated_at":"2026-06-25T02:55:09.648727+05:30"},{"city":"Amritsar","state":"Punjab","latitude":31.634,"longitude":74.8723,"temp":27.5,"humidity":70,"rain":0.1,"pressure":975.1,"uv_index":8.5,"wind_gusts":38.5,"aqi":124,"pm10":94.5,"pm2_5":56.3,"no2":33.4,"co":469.0,"o3":48.0,"so2":9.4,"mosquito_risk":10,"arthritis_risk":5,"migraine_risk":7,"frizz_risk":1,"updated_at":"2026-06-25T02:55:09.648732+05:30"},{"city":"Ludhiana","state":"Punjab","latitude":30.901,"longitude":75.8573,"temp":28.5,"humidity":63,"rain":0.0,"pressure":973.2,"uv_index":8.05,"wind_gusts":20.2,"aqi":160,"pm10":225.4,"pm2_5":102.2,"no2":53.1,"co":735.0,"o3":35.0,"so2":12.2,"mosquito_risk":7,"arthritis_risk":5,"migraine_risk":7,"frizz_risk":1,"updated_at":"2026-06-25T02:55:09.648738+05:30"},{"city":"Jalandhar","state":"Punjab","latitude":31.326,"longitude":75.5762,"temp":28.5,"humidity":65,"rain":0.1,"pressure":974.3,"uv_index":4.15,"wind_gusts":24.1,"aqi":137,"pm10":118.7,"pm2_5":63.8,"no2":31.7,"co":636.0,"o3":71.0,"so2":11.7,"mosquito_risk":10,"arthritis_risk":5,"migraine_risk":3,"frizz_risk":1,"updated_at":"2026-06-25T02:55:09.648744+05:30"},{"city":"Dehradun","state":"Uttarakhand","latitude":30.6284,"longitude":78.0322,"temp":15.1,"humidity":98,"rain":0.0,"pressure":826.4,"uv_index":6.85,"wind_gusts":34.6,"aqi":72,"pm10":35.0,"pm2_5":35.0,"no2":32.9,"co":214.0,"o3":11.0,"so2":0.4,"mosquito_risk":3,"arthritis_risk":10,"migraine_risk":7,"frizz_risk":0,"updated_at":"2026-06-25T02:55:09.648751+05:30"},{"city":"Shimla","state":"Himachal Pradesh","latitude":31.1048,"longitude":77.1734,"temp":12.3,"humidity":86,"rain":0.0,"pressure":780.0,"uv_index":7.2,"wind_gusts":31.0,"aqi":86,"pm10":46.4,"pm2_5":43.1,"no2":31.4,"co":344.0,"o3":20.0,"so2":0.4,"mosquito_risk":3,"arthritis_risk":10,"migraine_risk":7,"frizz_risk":0,"updated_at":"2026-06-25T02:55:09.648757+05:30"},{"city":"Manali","state":"Himachal Pradesh","latitude":32.2396,"longitude":77.1887,"temp":15.6,"humidity":69,"rain":0.0,"pressure":815.7,"uv_index":8.1,"wind_gusts":33.5,"aqi":40,"pm10":5.9,"pm2_5":4.8,"no2":81.9,"co":243.0,"o3":4.0,"so2":0.0,"mosquito_risk":3,"arthritis_risk":5,"migraine_risk":7,"frizz_risk":0,"updated_at":"2026-06-25T02:55:09.648765+05:30"},{"city":"Gurgaon","state":"Haryana","latitude":28.4595,"longitude":77.0266,"temp":29.0,"humidity":61,"rain":0.0,"pressure":975.7,"uv_index":7.75,"wind_gusts":21.2,"aqi":595,"pm10":328.8,"pm2_5":122.9,"no2":70.7,"co":860.0,"o3":9.0,"so2":25.1,"mosquito_risk":7,"arthritis_risk":5,"migraine_risk":7,"frizz_risk":1,"updated_at":"2026-06-25T02:55:09.648771+05:30"},{"city":"Noida","state":"Uttar Pradesh","latitude":28.5355,"longitude":77.391,"temp":28.2,"humidity":74,"rain":0.0,"pressure":978.6,"uv_index":7.8,"wind_gusts":20.5,"aqi":595,"pm10":328.8,"pm2_5":122.9,"no2":70.7,"co":642.0,"o3":9.0,"so2":25.1,"mosquito_risk":7,"arthritis_risk":5,"migraine_risk":7,"frizz_risk":1,"updated_at":"2026-06-25T02:55:09.648779+05:30"},{"city":"Ghaziabad","state":"Uttar Pradesh","latitude":28.6692,"longitude":77.4538,"temp":27.1,"humidity":74,"rain":0.0,"pressure":976.8,"uv_index":7.8,"wind_gusts":23.0,"aqi":246,"pm10":362.3,"pm2_5":134.1,"no2":59.3,"co":839.0,"o3":32.0,"so2":17.2,"mosquito_risk":7,"arthritis_risk":5,"migraine_risk":7,"frizz_risk":1,"updated_at":"2026-06-25T02:55:09.648785+05:30"},{"city":"Faridabad","state":"Haryana","latitude":28.4089,"longitude":77.3178,"temp":29.4,"humidity":71,"rain":0.0,"pressure":978.0,"uv_index":7.8,"wind_gusts":24.1,"aqi":595,"pm10":328.8,"pm2_5":122.9,"no2":70.7,"co":882.0,"o3":9.0,"so2":25.1,"mosquito_risk":7,"arthritis_risk":5,"migraine_risk":7,"frizz_risk":1,"updated_at":"2026-06-25T02:55:09.648791+05:30"},{"city":"Meerut","state":"Uttar Pradesh","latitude":28.9845,"longitude":77.7064,"temp":29.0,"humidity":66,"rain":0.0,"pressure":976.0,"uv_index":7.1,"wind_gusts":20.9,"aqi":246,"pm10":362.3,"pm2_5":134.1,"no2":59.3,"co":542.0,"o3":32.0,"so2":17.2,"mosquito_risk":7,"arthritis_risk":5,"migraine_risk":7,"frizz_risk":1,"updated_at":"2026-06-25T02:55:09.648797+05:30"},{"city":"Agra","state":"Uttar Pradesh","latitude":27.1767,"longitude":78.0081,"temp":31.9,"humidity":48,"rain":0.0,"pressure":981.7,"uv_index":8.1,"wind_gusts":28.4,"aqi":237,"pm10":140.6,"pm2_5":56.0,"no2":30.8,"co":469.0,"o3":27.0,"so2":6.9,"mosquito_risk":0,"arthritis_risk":5,"migraine_risk":7,"frizz_risk":1,"updated_at":"2026-06-25T02:55:09.648804+05:30"},{"city":"Varanasi","state":"Uttar Pradesh","latitude":25.3176,"longitude":82.9739,"temp":32.4,"humidity":54,"rain":0.0,"pressure":991.9,"uv_index":8.15,"wind_gusts":24.8,"aqi":113,"pm10":32.1,"pm2_5":26.5,"no2":21.7,"co":220.0,"o3":48.0,"so2":15.9,"mosquito_risk":0,"arthritis_risk":5,"migraine_risk":7,"frizz_risk":1,"updated_at":"2026-06-25T02:55:09.648810+05:30"},{"city":"Prayagraj","state":"Uttar Pradesh","latitude":25.4358,"longitude":81.8463,"temp":32.5,"humidity":54,"rain":0.0,"pressure":990.0,"uv_index":8.25,"wind_gusts":28.4,"aqi":121,"pm10":74.7,"pm2_5":44.7,"no2":22.3,"co":209.0,"o3":52.0,"so2":8.1,"mosquito_risk":0,"arthritis_risk":5,"migraine_risk":7,"frizz_risk":1,"updated_at":"2026-06-25T02:55:09.648816+05:30"},{"city":"Gorakhpur","state":"Uttar Pradesh","latitude":26.7606,"longitude":83.3732,"temp":29.6,"humidity":68,"rain":0.0,"pressure":992.2,"uv_index":8.65,"wind_gusts":29.2,"aqi":160,"pm10":119.7,"pm2_5":82.0,"no2":38.2,"co":478.0,"o3":42.0,"so2":13.0,"mosquito_risk":7,"arthritis_risk":5,"migraine_risk":7,"frizz_risk":1,"updated_at":"2026-06-25T02:55:09.648822+05:30"},{"city":"Bareilly","state":"Uttar Pradesh","latitude":28.367,"longitude":79.4304,"temp":29.7,"humidity":61,"rain":0.0,"pressure":981.1,"uv_index":8.1,"wind_gusts":22.7,"aqi":164,"pm10":251.5,"pm2_5":115.0,"no2":55.5,"co":824.0,"o3":29.0,"so2":16.1,"mosquito_risk":7,"arthritis_risk":5,"migraine_risk":7,"frizz_risk":1,"updated_at":"2026-06-25T02:55:09.648830+05:30"},{"city":"Aligarh","state":"Uttar Pradesh","latitude":27.8974,"longitude":78.088,"temp":29.2,"humidity":55,"rain":0.0,"pressure":979.7,"uv_index":7.95,"wind_gusts":21.6,"aqi":411,"pm10":393.0,"pm2_5":128.1,"no2":68.4,"co":721.0,"o3":1.0,"so2":13.1,"mosquito_risk":4,"arthritis_risk":5,"migraine_risk":7,"frizz_risk":1,"updated_at":"2026-06-25T02:55:09.648836+05:30"},{"city":"Moradabad","state":"Uttar Pradesh","latitude":28.8386,"longitude":78.7733,"temp":31.0,"humidity":57,"rain":0.0,"pressure":978.4,"uv_index":7.4,"wind_gusts":28.8,"aqi":190,"pm10":266.4,"pm2_5":143.0,"no2":74.8,"co":1069.0,"o3":27.0,"so2":21.4,"mosquito_risk":0,"arthritis_risk":5,"migraine_risk":7,"frizz_risk":1,"updated_at":"2026-06-25T02:55:09.648842+05:30"},{"city":"Saharanpur","state":"Uttar Pradesh","latitude":29.9637,"longitude":77.546,"temp":27.8,"humidity":71,"rain":0.0,"pressure":970.8,"uv_index":6.85,"wind_gusts":21.2,"aqi":156,"pm10":101.3,"pm2_5":75.7,"no2":39.1,"co":785.0,"o3":50.0,"so2":14.2,"mosquito_risk":7,"arthritis_risk":5,"migraine_risk":7,"frizz_risk":1,"updated_at":"2026-06-25T02:55:09.648848+05:30"},{"city":"Jhansi","state":"Uttar Pradesh","latitude":25.4484,"longitude":78.5685,"temp":30.2,"humidity":54,"rain":0.0,"pressure":973.1,"uv_index":5.5,"wind_gusts":28.8,"aqi":75,"pm10":46.4,"pm2_5":24.8,"no2":10.8,"co":202.0,"o3":53.0,"so2":2.7,"mosquito_risk":0,"arthritis_risk":5,"migraine_risk":3,"frizz_risk":1,"updated_at":"2026-06-25T02:55:12.994950+05:30"},{"city":"Surat","state":"Gujarat","latitude":21.1702,"longitude":72.8311,"temp":29.0,"humidity":77,"rain":0.0,"pressure":1002.4,"uv_index":4.75,"wind_gusts":45.4,"aqi":77,"pm10":39.8,"pm2_5":21.6,"no2":17.4,"co":301.0,"o3":31.0,"so2":28.9,"mosquito_risk":7,"arthritis_risk":5,"migraine_risk":0,"frizz_risk":1,"updated_at":"2026-06-25T02:55:12.994978+05:30"},{"city":"Vadodara","state":"Gujarat","latitude":22.3072,"longitude":73.1812,"temp":30.7,"humidity":63,"rain":0.0,"pressure":999.5,"uv_index":8.0,"wind_gusts":46.1,"aqi":75,"pm10":30.9,"pm2_5":19.0,"no2":12.8,"co":121.0,"o3":34.0,"so2":11.9,"mosquito_risk":3,"arthritis_risk":5,"migraine_risk":7,"frizz_risk":1,"updated_at":"2026-06-25T02:55:12.994989+05:30"},{"city":"Rajkot","state":"Gujarat","latitude":22.3039,"longitude":70.8022,"temp":28.4,"humidity":73,"rain":0.0,"pressure":989.7,"uv_index":7.55,"wind_gusts":45.4,"aqi":67,"pm10":43.4,"pm2_5":18.9,"no2":4.7,"co":98.0,"o3":42.0,"so2":4.9,"mosquito_risk":7,"arthritis_risk":5,"migraine_risk":7,"frizz_risk":1,"updated_at":"2026-06-25T02:55:12.994998+05:30"},{"city":"Thane","state":"Maharashtra","latitude":19.2183,"longitude":72.9781,"temp":25.3,"humidity":94,"rain":0.0,"pressure":1004.8,"uv_index":2.05,"wind_gusts":32.0,"aqi":51,"pm10":32.4,"pm2_5":13.7,"no2":10.1,"co":158.0,"o3":43.0,"so2":9.2,"mosquito_risk":7,"arthritis_risk":5,"migraine_risk":0,"frizz_risk":1,"updated_at":"2026-06-25T02:55:12.995007+05:30"},{"city":"Nagpur","state":"Maharashtra","latitude":21.1458,"longitude":79.0882,"temp":25.8,"humidity":90,"rain":0.0,"pressure":968.7,"uv_index":7.75,"wind_gusts":29.9,"aqi":50,"pm10":21.5,"pm2_5":19.1,"no2":22.3,"co":304.0,"o3":41.0,"so2":17.8,"mosquito_risk":7,"arthritis_risk":5,"migraine_risk":7,"frizz_risk":1,"updated_at":"2026-06-25T02:55:12.995015+05:30"},{"city":"Nashik","state":"Maharashtra","latitude":19.9975,"longitude":73.7898,"temp":22.8,"humidity":92,"rain":0.0,"pressure":941.8,"uv_index":1.9,"wind_gusts":39.6,"aqi":47,"pm10":13.4,"pm2_5":8.8,"no2":16.2,"co":136.0,"o3":29.0,"so2":17.5,"mosquito_risk":3,"arthritis_risk":5,"migraine_risk":3,"frizz_risk":1,"updated_at":"2026-06-25T02:55:12.995023+05:30"},{"city":"Aurangabad","state":"Maharashtra","latitude":19.8762,"longitude":75.3433,"temp":23.6,"humidity":88,"rain":0.0,"pressure":940.5,"uv_index":2.95,"wind_gusts":41.4,"aqi":59,"pm10":25.3,"pm2_5":14.4,"no2":11.3,"co":145.0,"o3":56.0,"so2":18.9,"mosquito_risk":3,"arthritis_risk":5,"migraine_risk":3,"frizz_risk":1,"updated_at":"2026-06-25T02:55:12.995031+05:30"},{"city":"Solapur","state":"Maharashtra","latitude":17.6599,"longitude":75.9064,"temp":25.0,"humidity":80,"rain":0.0,"pressure":954.2,"uv_index":2.0,"wind_gusts":44.3,"aqi":22,"pm10":4.8,"pm2_5":4.3,"no2":8.6,"co":143.0,"o3":37.0,"so2":2.4,"mosquito_risk":7,"arthritis_risk":5,"migraine_risk":3,"frizz_risk":1,"updated_at":"2026-06-25T02:55:12.995039+05:30"},{"city":"Kolhapur","state":"Maharashtra","latitude":16.705,"longitude":74.2433,"temp":22.0,"humidity":96,"rain":0.0,"pressure":945.1,"uv_index":3.3,"wind_gusts":41.4,"aqi":20,"pm10":3.3,"pm2_5":3.2,"no2":5.6,"co":121.0,"o3":41.0,"so2":2.0,"mosquito_risk":3,"arthritis_risk":5,"migraine_risk":3,"frizz_risk":1,"updated_at":"2026-06-25T02:55:12.995047+05:30"},{"city":"Goa","state":"Goa","latitude":15.2993,"longitude":74.124,"temp":23.8,"humidity":98,"rain":0.3,"pressure":996.8,"uv_index":7.2,"wind_gusts":28.4,"aqi":44,"pm10":25.5,"pm2_5":17.3,"no2":7.0,"co":225.0,"o3":39.0,"so2":1.7,"mosquito_risk":6,"arthritis_risk":5,"migraine_risk":7,"frizz_risk":1,"updated_at":"2026-06-25T02:55:12.995055+05:30"},{"city":"Jodhpur","state":"Rajasthan","latitude":26.2389,"longitude":73.0243,"temp":31.7,"humidity":49,"rain":0.0,"pressure":976.2,"uv_index":4.3,"wind_gusts":55.8,"aqi":145,"pm10":133.6,"pm2_5":39.9,"no2":7.0,"co":133.0,"o3":42.0,"so2":1.9,"mosquito_risk":0,"arthritis_risk":5,"migraine_risk":3,"frizz_risk":1,"updated_at":"2026-06-25T02:55:12.995063+05:30"},{"city":"Udaipur","state":"Rajasthan","latitude":24.5854,"longitude":73.7125,"temp":24.8,"humidity":72,"rain":0.0,"pressure":941.3,"uv_index":8.8,"wind_gusts":33.1,"aqi":75,"pm10":36.7,"pm2_5":22.6,"no2":6.5,"co":135.0,"o3":51.0,"so2":3.5,"mosquito_risk":3,"arthritis_risk":5,"migraine_risk":7,"frizz_risk":1,"updated_at":"2026-06-25T02:55:12.995071+05:30"},{"city":"Kota","state":"Rajasthan","latitude":25.2138,"longitude":75.8648,"temp":28.9,"humidity":64,"rain":0.0,"pressure":973.5,"uv_index":7.8,"wind_gusts":37.1,"aqi":87,"pm10":43.7,"pm2_5":23.3,"no2":8.9,"co":172.0,"o3":54.0,"so2":4.8,"mosquito_risk":7,"arthritis_risk":5,"migraine_risk":7,"frizz_risk":1,"updated_at":"2026-06-25T02:55:12.995078+05:30"},{"city":"Bikaner","state":"Rajasthan","latitude":28.0229,"longitude":73.3119,"temp":29.7,"humidity":57,"rain":0.0,"pressure":975.0,"uv_index":8.45,"wind_gusts":27.7,"aqi":155,"pm10":161.6,"pm2_5":47.1,"no2":3.1,"co":136.0,"o3":58.0,"so2":2.3,"mosquito_risk":4,"arthritis_risk":5,"migraine_risk":7,"frizz_risk":1,"updated_at":"2026-06-25T02:55:12.995086+05:30"},{"city":"Ajmer","state":"Rajasthan","latitude":26.4499,"longitude":74.6399,"temp":26.8,"humidity":63,"rain":0.0,"pressure":949.1,"uv_index":8.3,"wind_gusts":50.0,"aqi":96,"pm10":80.8,"pm2_5":30.4,"no2":8.6,"co":170.0,"o3":46.0,"so2":4.5,"mosquito_risk":7,"arthritis_risk":5,"migraine_risk":7,"frizz_risk":1,"updated_at":"2026-06-25T02:55:12.995094+05:30"},{"city":"Gwalior","state":"Madhya Pradesh","latitude":26.2183,"longitude":78.1828,"temp":30.5,"humidity":45,"rain":0.0,"pressure":977.4,"uv_index":8.25,"wind_gusts":35.3,"aqi":90,"pm10":43.7,"pm2_5":22.2,"no2":9.7,"co":168.0,"o3":45.0,"so2":2.4,"mosquito_risk":0,"arthritis_risk":5,"migraine_risk":7,"frizz_risk":1,"updated_at":"2026-06-25T02:55:12.995101+05:30"},{"city":"Indore","state":"Madhya Pradesh","latitude":22.7196,"longitude":75.8577,"temp":23.8,"humidity":90,"rain":0.0,"pressure":943.9,"uv_index":5.3,"wind_gusts":37.8,"aqi":75,"pm10":40.3,"pm2_5":28.8,"no2":10.6,"co":294.0,"o3":67.0,"so2":8.3,"mosquito_risk":3,"arthritis_risk":5,"migraine_risk":3,"frizz_risk":1,"updated_at":"2026-06-25T02:55:12.995109+05:30"},{"city":"Bhopal","state":"Madhya Pradesh","latitude":23.2599,"longitude":77.4126,"temp":23.8,"humidity":94,"rain":0.0,"pressure":949.3,"uv_index":7.2,"wind_gusts":22.3,"aqi":66,"pm10":30.6,"pm2_5":23.8,"no2":7.9,"co":239.0,"o3":65.0,"so2":2.9,"mosquito_risk":3,"arthritis_risk":5,"migraine_risk":7,"frizz_risk":1,"updated_at":"2026-06-25T02:55:12.995117+05:30"},{"city":"Jabalpur","state":"Madhya Pradesh","latitude":23.1815,"longitude":79.9864,"temp":25.1,"humidity":94,"rain":0.0,"pressure":957.1,"uv_index":8.85,"wind_gusts":32.4,"aqi":54,"pm10":25.4,"pm2_5":18.9,"no2":10.7,"co":246.0,"o3":58.0,"so2":3.2,"mosquito_risk":7,"arthritis_risk":5,"migraine_risk":7,"frizz_risk":1,"updated_at":"2026-06-25T02:55:12.995125+05:30"},{"city":"Ujjain","state":"Madhya Pradesh","latitude":23.1765,"longitude":75.7885,"temp":24.4,"humidity":89,"rain":0.0,"pressure":949.6,"uv_index":6.45,"wind_gusts":36.7,"aqi":79,"pm10":39.8,"pm2_5":26.4,"no2":6.5,"co":243.0,"o3":78.0,"so2":10.2,"mosquito_risk":3,"arthritis_risk":5,"migraine_risk":7,"frizz_risk":1,"updated_at":"2026-06-25T02:55:12.995133+05:30"},{"city":"Visakhapatnam","state":"Andhra Pradesh","latitude":17.6868,"longitude":83.2185,"temp":28.6,"humidity":75,"rain":0.0,"pressure":998.8,"uv_index":8.25,"wind_gusts":31.7,"aqi":69,"pm10":21.0,"pm2_5":17.8,"no2":19.7,"co":336.0,"o3":52.0,"so2":31.9,"mosquito_risk":7,"arthritis_risk":5,"migraine_risk":7,"frizz_risk":1,"updated_at":"2026-06-25T02:55:12.995141+05:30"},{"city":"Vijayawada","state":"Andhra Pradesh","latitude":16.5062,"longitude":80.648,"temp":29.1,"humidity":68,"rain":0.0,"pressure":998.4,"uv_index":8.8,"wind_gusts":32.0,"aqi":53,"pm10":27.5,"pm2_5":24.1,"no2":17.0,"co":302.0,"o3":41.0,"so2":4.9,"mosquito_risk":7,"arthritis_risk":5,"migraine_risk":7,"frizz_risk":1,"updated_at":"2026-06-25T02:55:12.995148+05:30"},{"city":"Guntur","state":"Andhra Pradesh","latitude":16.3067,"longitude":80.4365,"temp":29.4,"humidity":61,"rain":0.0,"pressure":999.8,"uv_index":8.7,"wind_gusts":34.2,"aqi":50,"pm10":19.1,"pm2_5":17.3,"no2":16.9,"co":246.0,"o3":35.0,"so2":6.8,"mosquito_risk":7,"arthritis_risk":5,"migraine_risk":7,"frizz_risk":1,"updated_at":"2026-06-25T02:55:12.995156+05:30"},{"city":"Nellore","state":"Andhra Pradesh","latitude":14.4426,"longitude":79.9865,"temp":30.6,"humidity":51,"rain":0.0,"pressure":1002.6,"uv_index":7.9,"wind_gusts":45.0,"aqi":38,"pm10":7.4,"pm2_5":4.8,"no2":6.1,"co":125.0,"o3":42.0,"so2":4.0,"mosquito_risk":0,"arthritis_risk":5,"migraine_risk":4,"frizz_risk":1,"updated_at":"2026-06-25T02:55:12.995164+05:30"},{"city":"Kurnool","state":"Andhra Pradesh","latitude":15.8281,"longitude":78.0373,"temp":26.7,"humidity":71,"rain":0.0,"pressure":974.4,"uv_index":6.65,"wind_gusts":46.1,"aqi":24,"pm10":6.5,"pm2_5":5.0,"no2":8.3,"co":125.0,"o3":38.0,"so2":2.3,"mosquito_risk":7,"arthritis_risk":5,"migraine_risk":7,"frizz_risk":1,"updated_at":"2026-06-25T02:55:12.995172+05:30"},{"city":"Kakinada","state":"Andhra Pradesh","latitude":16.9891,"longitude":82.2475,"temp":28.1,"humidity":84,"rain":0.0,"pressure":1002.7,"uv_index":8.95,"wind_gusts":34.9,"aqi":57,"pm10":20.6,"pm2_5":14.9,"no2":4.5,"co":180.0,"o3":89.0,"so2":4.2,"mosquito_risk":7,"arthritis_risk":5,"migraine_risk":4,"frizz_risk":1,"updated_at":"2026-06-25T02:55:12.995180+05:30"},{"city":"Tirupati","state":"Andhra Pradesh","latitude":13.6288,"longitude":79.4192,"temp":28.4,"humidity":56,"rain":0.0,"pressure":988.6,"uv_index":8.0,"wind_gusts":42.8,"aqi":46,"pm10":10.0,"pm2_5":8.9,"no2":14.7,"co":129.0,"o3":25.0,"so2":2.8,"mosquito_risk":4,"arthritis_risk":5,"migraine_risk":7,"frizz_risk":1,"updated_at":"2026-06-25T02:55:12.995188+05:30"},{"city":"Warangal","state":"Telangana","latitude":17.9689,"longitude":79.5941,"temp":26.4,"humidity":73,"rain":0.0,"pressure":974.8,"uv_index":5.25,"wind_gusts":37.1,"aqi":39,"pm10":25.7,"pm2_5":17.7,"no2":11.0,"co":215.0,"o3":47.0,"so2":5.2,"mosquito_risk":7,"arthritis_risk":5,"migraine_risk":3,"frizz_risk":1,"updated_at":"2026-06-25T02:55:12.995195+05:30"},{"city":"Nizamabad","state":"Telangana","latitude":18.6725,"longitude":78.0941,"temp":25.4,"humidity":79,"rain":0.0,"pressure":960.9,"uv_index":6.7,"wind_gusts":42.5,"aqi":36,"pm10":35.7,"pm2_5":21.5,"no2":12.1,"co":245.0,"o3":44.0,"so2":5.7,"mosquito_risk":7,"arthritis_risk":5,"migraine_risk":7,"frizz_risk":1,"updated_at":"2026-06-25T02:55:12.995203+05:30"},{"city":"Mysore","state":"Karnataka","latitude":12.2958,"longitude":76.6396,"temp":21.3,"humidity":93,"rain":0.0,"pressure":927.0,"uv_index":9.0,"wind_gusts":50.0,"aqi":23,"pm10":3.3,"pm2_5":2.9,"no2":5.8,"co":112.0,"o3":38.0,"so2":1.8,"mosquito_risk":3,"arthritis_risk":5,"migraine_risk":7,"frizz_risk":1,"updated_at":"2026-06-25T02:55:12.995210+05:30"},{"city":"Mangalore","state":"Karnataka","latitude":12.9141,"longitude":74.856,"temp":23.7,"humidity":99,"rain":0.3,"pressure":1006.2,"uv_index":8.7,"wind_gusts":37.8,"aqi":43,"pm10":16.7,"pm2_5":11.7,"no2":10.4,"co":236.0,"o3":27.0,"so2":3.0,"mosquito_risk":6,"arthritis_risk":5,"migraine_risk":4,"frizz_risk":1,"updated_at":"2026-06-25T02:55:12.995218+05:30"},{"city":"Hubli-Dharwad","state":"Karnataka","latitude":15.3647,"longitude":75.124,"temp":21.7,"humidity":94,"rain":0.0,"pressure":938.6,"uv_index":7.3,"wind_gusts":51.5,"aqi":20,"pm10":3.2,"pm2_5":1.9,"no2":2.3,"co":102.0,"o3":45.0,"so2":1.0,"mosquito_risk":3,"arthritis_risk":5,"migraine_risk":7,"frizz_risk":1,"updated_at":"2026-06-25T02:55:12.995226+05:30"},{"city":"Belgaum","state":"Karnataka","latitude":15.8497,"longitude":74.4977,"temp":20.8,"humidity":98,"rain":0.1,"pressure":923.0,"uv_index":2.2,"wind_gusts":42.5,"aqi":20,"pm10":2.7,"pm2_5":2.4,"no2":4.3,"co":108.0,"o3":40.0,"so2":1.4,"mosquito_risk":6,"arthritis_risk":5,"migraine_risk":3,"frizz_risk":1,"updated_at":"2026-06-25T02:55:16.352993+05:30"},{"city":"Coimbatore","state":"Tamil Nadu","latitude":11.0168,"longitude":76.9558,"temp":23.1,"humidity":96,"rain":0.0,"pressure":960.5,"uv_index":8.05,"wind_gusts":53.6,"aqi":29,"pm10":4.5,"pm2_5":4.0,"no2":6.0,"co":163.0,"o3":35.0,"so2":2.7,"mosquito_risk":3,"arthritis_risk":5,"migraine_risk":7,"frizz_risk":1,"updated_at":"2026-06-25T02:55:16.353028+05:30"},{"city":"Madurai","state":"Tamil Nadu","latitude":9.9252,"longitude":78.1198,"temp":28.6,"humidity":62,"rain":0.0,"pressure":991.4,"uv_index":8.55,"wind_gusts":35.6,"aqi":68,"pm10":30.2,"pm2_5":28.6,"no2":41.9,"co":133.0,"o3":2.0,"so2":7.7,"mosquito_risk":7,"arthritis_risk":5,"migraine_risk":7,"frizz_risk":1,"updated_at":"2026-06-25T02:55:16.353043+05:30"},{"city":"Trichy","state":"Tamil Nadu","latitude":10.7905,"longitude":78.7047,"temp":27.8,"humidity":68,"rain":0.0,"pressure":998.0,"uv_index":8.45,"wind_gusts":50.4,"aqi":45,"pm10":3.4,"pm2_5":3.1,"no2":6.1,"co":118.0,"o3":33.0,"so2":2.7,"mosquito_risk":7,"arthritis_risk":5,"migraine_risk":7,"frizz_risk":1,"updated_at":"2026-06-25T02:55:16.353054+05:30"},{"city":"Salem","state":"Tamil Nadu","latitude":11.6643,"longitude":78.146,"temp":24.6,"humidity":87,"rain":0.0,"pressure":976.4,"uv_index":8.6,"wind_gusts":35.3,"aqi":57,"pm10":14.0,"pm2_5":12.7,"no2":19.5,"co":342.0,"o3":27.0,"so2":6.9,"mosquito_risk":3,"arthritis_risk":5,"migraine_risk":7,"frizz_risk":1,"updated_at":"2026-06-25T02:55:16.353064+05:30"},{"city":"Tirunelveli","state":"Tamil Nadu","latitude":8.7139,"longitude":77.7567,"temp":28.4,"humidity":69,"rain":0.0,"pressure":1002.2,"uv_index":8.0,"wind_gusts":49.3,"aqi":23,"pm10":3.3,"pm2_5":2.9,"no2":5.0,"co":135.0,"o3":37.0,"so2":2.1,"mosquito_risk":7,"arthritis_risk":5,"migraine_risk":4,"frizz_risk":1,"updated_at":"2026-06-25T02:55:16.353074+05:30"},{"city":"Vellore","state":"Tamil Nadu","latitude":12.9165,"longitude":79.1325,"temp":26.4,"humidity":62,"rain":0.0,"pressure":982.5,"uv_index":8.05,"wind_gusts":45.4,"aqi":48,"pm10":10.9,"pm2_5":8.8,"no2":12.3,"co":188.0,"o3":34.0,"so2":4.5,"mosquito_risk":7,"arthritis_risk":5,"migraine_risk":7,"frizz_risk":1,"updated_at":"2026-06-25T02:55:16.353084+05:30"},{"city":"Erode","state":"Tamil Nadu","latitude":11.341,"longitude":77.7172,"temp":25.2,"humidity":84,"rain":0.0,"pressure":988.0,"uv_index":7.95,"wind_gusts":44.3,"aqi":51,"pm10":11.2,"pm2_5":10.5,"no2":15.8,"co":145.0,"o3":27.0,"so2":3.7,"mosquito_risk":7,"arthritis_risk":5,"migraine_risk":7,"frizz_risk":1,"updated_at":"2026-06-25T02:55:16.353093+05:30"},{"city":"Kochi","state":"Kerala","latitude":9.9312,"longitude":76.2673,"temp":25.5,"humidity":94,"rain":0.1,"pressure":1008.8,"uv_index":8.3,"wind_gusts":42.5,"aqi":41,"pm10":9.7,"pm2_5":8.1,"no2":10.3,"co":92.0,"o3":25.0,"so2":3.3,"mosquito_risk":10,"arthritis_risk":0,"migraine_risk":4,"frizz_risk":1,"updated_at":"2026-06-25T02:55:16.353102+05:30"},{"city":"Thiruvananthapuram","state":"Kerala","latitude":8.5241,"longitude":76.9366,"temp":24.4,"humidity":98,"rain":0.0,"pressure":1008.4,"uv_index":8.0,"wind_gusts":54.7,"aqi":30,"pm10":8.0,"pm2_5":5.2,"no2":3.0,"co":92.0,"o3":46.0,"so2":1.4,"mosquito_risk":3,"arthritis_risk":0,"migraine_risk":4,"frizz_risk":1,"updated_at":"2026-06-25T02:55:16.353113+05:30"},{"city":"Kozhikode","state":"Kerala","latitude":11.2588,"longitude":75.7804,"temp":23.7,"humidity":99,"rain":0.2,"pressure":1008.4,"uv_index":8.05,"wind_gusts":32.4,"aqi":26,"pm10":10.0,"pm2_5":5.6,"no2":1.3,"co":121.0,"o3":53.0,"so2":0.7,"mosquito_risk":6,"arthritis_risk":0,"migraine_risk":4,"frizz_risk":1,"updated_at":"2026-06-25T02:55:16.353123+05:30"},{"city":"Thrissur","state":"Kerala","latitude":10.5276,"longitude":76.2144,"temp":23.7,"humidity":99,"rain":0.1,"pressure":1007.5,"uv_index":7.85,"wind_gusts":36.7,"aqi":43,"pm10":10.2,"pm2_5":9.1,"no2":8.0,"co":136.0,"o3":30.0,"so2":2.7,"mosquito_risk":6,"arthritis_risk":5,"migraine_risk":4,"frizz_risk":1,"updated_at":"2026-06-25T02:55:16.353133+05:30"},{"city":"Kannur","state":"Kerala","latitude":11.8745,"longitude":75.3704,"temp":23.5,"humidity":99,"rain":0.1,"pressure":1007.2,"uv_index":8.65,"wind_gusts":33.1,"aqi":30,"pm10":6.8,"pm2_5":4.2,"no2":6.9,"co":182.0,"o3":31.0,"so2":1.5,"mosquito_risk":6,"arthritis_risk":5,"migraine_risk":4,"frizz_risk":1,"updated_at":"2026-06-25T02:55:16.353142+05:30"},{"city":"Patna","state":"Bihar","latitude":25.5941,"longitude":85.1376,"temp":30.3,"humidity":67,"rain":0.0,"pressure":995.4,"uv_index":8.85,"wind_gusts":26.6,"aqi":157,"pm10":69.8,"pm2_5":58.0,"no2":30.9,"co":281.0,"o3":39.0,"so2":12.7,"mosquito_risk":3,"arthritis_risk":5,"migraine_risk":7,"frizz_risk":1,"updated_at":"2026-06-25T02:55:16.353149+05:30"},{"city":"Gaya","state":"Bihar","latitude":24.7914,"longitude":85.0002,"temp":29.3,"humidity":67,"rain":0.0,"pressure":988.7,"uv_index":8.65,"wind_gusts":22.0,"aqi":102,"pm10":18.7,"pm2_5":17.5,"no2":10.0,"co":234.0,"o3":65.0,"so2":5.1,"mosquito_risk":7,"arthritis_risk":5,"migraine_risk":7,"frizz_risk":1,"updated_at":"2026-06-25T02:55:16.353156+05:30"},{"city":"Muzaffarpur","state":"Bihar","latitude":26.1209,"longitude":85.3647,"temp":27.5,"humidity":85,"rain":0.3,"pressure":995.4,"uv_index":8.8,"wind_gusts":28.1,"aqi":159,"pm10":92.7,"pm2_5":79.6,"no2":24.0,"co":1008.0,"o3":66.0,"so2":15.8,"mosquito_risk":10,"arthritis_risk":5,"migraine_risk":7,"frizz_risk":1,"updated_at":"2026-06-25T02:55:16.353163+05:30"},{"city":"Bhagalpur","state":"Bihar","latitude":25.2425,"longitude":87.0117,"temp":29.1,"humidity":73,"rain":0.0,"pressure":995.6,"uv_index":8.85,"wind_gusts":26.6,"aqi":153,"pm10":93.1,"pm2_5":71.5,"no2":21.1,"co":492.0,"o3":71.0,"so2":13.0,"mosquito_risk":7,"arthritis_risk":5,"migraine_risk":7,"frizz_risk":1,"updated_at":"2026-06-25T02:55:16.353170+05:30"},{"city":"Ranchi","state":"Jharkhand","latitude":23.3441,"longitude":85.3096,"temp":25.2,"humidity":77,"rain":0.0,"pressure":933.7,"uv_index":9.3,"wind_gusts":24.5,"aqi":81,"pm10":26.9,"pm2_5":26.7,"no2":9.8,"co":258.0,"o3":79.0,"so2":6.9,"mosquito_risk":7,"arthritis_risk":5,"migraine_risk":7,"frizz_risk":1,"updated_at":"2026-06-25T02:55:16.353177+05:30"},{"city":"Jamshedpur","state":"Jharkhand","latitude":22.8046,"longitude":86.2029,"temp":27.6,"humidity":76,"rain":0.0,"pressure":986.4,"uv_index":9.1,"wind_gusts":31.3,"aqi":106,"pm10":29.7,"pm2_5":29.4,"no2":16.4,"co":329.0,"o3":83.0,"so2":29.7,"mosquito_risk":7,"arthritis_risk":5,"migraine_risk":7,"frizz_risk":1,"updated_at":"2026-06-25T02:55:16.353185+05:30"},{"city":"Dhanbad","state":"Jharkhand","latitude":23.7957,"longitude":86.4304,"temp":28.0,"humidity":80,"rain":0.0,"pressure":975.1,"uv_index":9.05,"wind_gusts":23.4,"aqi":147,"pm10":50.3,"pm2_5":48.2,"no2":46.0,"co":291.0,"o3":42.0,"so2":102.8,"mosquito_risk":7,"arthritis_risk":5,"migraine_risk":7,"frizz_risk":1,"updated_at":"2026-06-25T02:55:16.353192+05:30"},{"city":"Bokaro","state":"Jharkhand","latitude":23.6693,"longitude":86.1511,"temp":27.8,"humidity":78,"rain":0.0,"pressure":979.0,"uv_index":9.1,"wind_gusts":29.2,"aqi":124,"pm10":35.5,"pm2_5":34.9,"no2":27.5,"co":237.0,"o3":62.0,"so2":66.3,"mosquito_risk":7,"arthritis_risk":5,"migraine_risk":7,"frizz_risk":1,"updated_at":"2026-06-25T02:55:16.353198+05:30"},{"city":"Bhubaneswar","state":"Odisha","latitude":20.2961,"longitude":85.8245,"temp":27.7,"humidity":93,"rain":0.0,"pressure":997.7,"uv_index":8.8,"wind_gusts":29.9,"aqi":83,"pm10":32.9,"pm2_5":32.5,"no2":14.8,"co":394.0,"o3":68.0,"so2":7.5,"mosquito_risk":7,"arthritis_risk":5,"migraine_risk":7,"frizz_risk":1,"updated_at":"2026-06-25T02:55:16.353204+05:30"},{"city":"Cuttack","state":"Odisha","latitude":20.4625,"longitude":85.8828,"temp":27.8,"humidity":90,"rain":0.0,"pressure":999.5,"uv_index":8.7,"wind_gusts":29.5,"aqi":83,"pm10":32.9,"pm2_5":32.5,"no2":14.8,"co":458.0,"o3":68.0,"so2":7.5,"mosquito_risk":7,"arthritis_risk":5,"migraine_risk":7,"frizz_risk":1,"updated_at":"2026-06-25T02:55:16.353210+05:30"},{"city":"Rourkela","state":"Odisha","latitude":22.2604,"longitude":84.8536,"temp":27.1,"humidity":82,"rain":0.0,"pressure":980.4,"uv_index":9.0,"wind_gusts":34.9,"aqi":96,"pm10":38.5,"pm2_5":38.2,"no2":16.0,"co":454.0,"o3":59.0,"so2":8.4,"mosquito_risk":7,"arthritis_risk":5,"migraine_risk":7,"frizz_risk":1,"updated_at":"2026-06-25T02:55:16.353216+05:30"},{"city":"Raipur","state":"Chhattisgarh","latitude":21.2514,"longitude":81.6296,"temp":29.0,"humidity":62,"rain":0.0,"pressure":970.3,"uv_index":8.85,"wind_gusts":29.2,"aqi":60,"pm10":28.5,"pm2_5":28.4,"no2":52.0,"co":604.0,"o3":18.0,"so2":76.2,"mosquito_risk":7,"arthritis_risk":5,"migraine_risk":7,"frizz_risk":1,"updated_at":"2026-06-25T02:55:16.353222+05:30"},{"city":"Bhilai","state":"Chhattisgarh","latitude":21.1938,"longitude":81.3509,"temp":28.2,"humidity":66,"rain":0.0,"pressure":970.7,"uv_index":8.9,"wind_gusts":38.2,"aqi":56,"pm10":23.9,"pm2_5":23.9,"no2":40.0,"co":752.0,"o3":30.0,"so2":62.0,"mosquito_risk":7,"arthritis_risk":5,"migraine_risk":7,"frizz_risk":1,"updated_at":"2026-06-25T02:55:16.353228+05:30"},{"city":"Guwahati","state":"Assam","latitude":26.1158,"longitude":91.7086,"temp":24.9,"humidity":99,"rain":0.0,"pressure":998.3,"uv_index":8.8,"wind_gusts":25.9,"aqi":62,"pm10":29.1,"pm2_5":22.2,"no2":5.8,"co":365.0,"o3":82.0,"so2":3.2,"mosquito_risk":3,"arthritis_risk":5,"migraine_risk":7,"frizz_risk":1,"updated_at":"2026-06-25T02:55:16.353234+05:30"},{"city":"Agartala","state":"Tripura","latitude":23.8315,"longitude":91.2868,"temp":26.6,"humidity":93,"rain":0.0,"pressure":1002.4,"uv_index":8.8,"wind_gusts":25.2,"aqi":74,"pm10":25.1,"pm2_5":22.0,"no2":14.6,"co":240.0,"o3":48.0,"so2":4.4,"mosquito_risk":7,"arthritis_risk":5,"migraine_risk":4,"frizz_risk":1,"updated_at":"2026-06-25T02:55:16.353240+05:30"},{"city":"Shillong","state":"Meghalaya","latitude":25.5788,"longitude":91.8933,"temp":19.8,"humidity":97,"rain":0.0,"pressure":854.9,"uv_index":8.85,"wind_gusts":18.7,"aqi":38,"pm10":9.0,"pm2_5":6.0,"no2":3.9,"co":260.0,"o3":93.0,"so2":3.5,"mosquito_risk":3,"arthritis_risk":10,"migraine_risk":7,"frizz_risk":1,"updated_at":"2026-06-25T02:55:16.353246+05:30"},{"city":"Imphal","state":"Manipur","latitude":24.817,"longitude":93.9368,"temp":22.7,"humidity":96,"rain":0.0,"pressure":920.2,"uv_index":8.15,"wind_gusts":23.0,"aqi":51,"pm10":16.9,"pm2_5":14.7,"no2":7.0,"co":593.0,"o3":53.0,"so2":2.0,"mosquito_risk":3,"arthritis_risk":5,"migraine_risk":7,"frizz_risk":1,"updated_at":"2026-06-25T02:55:16.353252+05:30"},{"city":"Aizawl","state":"Mizoram","latitude":23.7271,"longitude":92.7176,"temp":19.6,"humidity":99,"rain":0.0,"pressure":889.3,"uv_index":9.0,"wind_gusts":20.5,"aqi":33,"pm10":8.8,"pm2_5":7.4,"no2":4.4,"co":211.0,"o3":47.0,"so2":0.8,"mosquito_risk":3,"arthritis_risk":10,"migraine_risk":7,"frizz_risk":1,"updated_at":"2026-06-25T02:55:16.353258+05:30"},{"city":"Kohima","state":"Nagaland","latitude":25.6701,"longitude":94.1077,"temp":20.0,"humidity":92,"rain":0.0,"pressure":853.1,"uv_index":8.85,"wind_gusts":19.8,"aqi":32,"pm10":8.9,"pm2_5":6.7,"no2":5.6,"co":222.0,"o3":56.0,"so2":1.0,"mosquito_risk":3,"arthritis_risk":5,"migraine_risk":7,"frizz_risk":1,"updated_at":"2026-06-25T02:55:16.353264+05:30"},{"city":"Gangtok","state":"Sikkim","latitude":27.3314,"longitude":88.6138,"temp":17.0,"humidity":91,"rain":0.0,"pressure":834.1,"uv_index":8.9,"wind_gusts":37.8,"aqi":45,"pm10":8.5,"pm2_5":7.5,"no2":16.1,"co":632.0,"o3":36.0,"so2":1.3,"mosquito_risk":3,"arthritis_risk":10,"migraine_risk":7,"frizz_risk":0,"updated_at":"2026-06-25T02:55:16.353270+05:30"},{"city":"Siliguri","state":"West Bengal","latitude":26.7271,"longitude":88.3953,"temp":24.3,"humidity":98,"rain":0.0,"pressure":989.2,"uv_index":8.75,"wind_gusts":27.0,"aqi":89,"pm10":49.9,"pm2_5":41.1,"no2":27.9,"co":532.0,"o3":55.0,"so2":4.2,"mosquito_risk":3,"arthritis_risk":5,"migraine_risk":7,"frizz_risk":1,"updated_at":"2026-06-25T02:55:19.709871+05:30"},{"city":"Durgapur","state":"West Bengal","latitude":23.5204,"longitude":87.3119,"temp":28.0,"humidity":84,"rain":0.0,"pressure":990.2,"uv_index":9.0,"wind_gusts":28.1,"aqi":160,"pm10":60.8,"pm2_5":59.1,"no2":45.8,"co":901.0,"o3":39.0,"so2":70.9,"mosquito_risk":7,"arthritis_risk":5,"migraine_risk":7,"frizz_risk":1,"updated_at":"2026-06-25T02:55:19.709902+05:30"},{"city":"Asansol","state":"West Bengal","latitude":23.6739,"longitude":86.9524,"temp":28.3,"humidity":80,"rain":0.0,"pressure":988.7,"uv_index":8.85,"wind_gusts":34.6,"aqi":152,"pm10":51.3,"pm2_5":49.0,"no2":46.3,"co":432.0,"o3":37.0,"so2":73.7,"mosquito_risk":7,"arthritis_risk":5,"migraine_risk":7,"frizz_risk":1,"updated_at":"2026-06-25T02:55:19.709914+05:30"},{"city":"Pondicherry","state":"Puducherry","latitude":11.9139,"longitude":79.8145,"temp":28.4,"humidity":68,"rain":0.0,"pressure":1006.1,"uv_index":7.95,"wind_gusts":40.7,"aqi":62,"pm10":17.6,"pm2_5":15.3,"no2":17.5,"co":321.0,"o3":46.0,"so2":10.9,"mosquito_risk":7,"arthritis_risk":5,"migraine_risk":4,"frizz_risk":1,"updated_at":"2026-06-25T02:55:19.709923+05:30"},{"city":"Port Blair","state":"Andaman and Nicobar Islands","latitude":11.6234,"longitude":92.7265,"temp":27.2,"humidity":86,"rain":0.0,"pressure":1005.8,"uv_index":6.9,"wind_gusts":47.5,"aqi":31,"pm10":13.0,"pm2_5":7.9,"no2":0.2,"co":86.0,"o3":50.0,"so2":0.4,"mosquito_risk":7,"arthritis_risk":5,"migraine_risk":4,"frizz_risk":1,"updated_at":"2026-06-25T02:55:19.709932+05:30"},{"city":"Haridwar","state":"Uttarakhand","latitude":29.9457,"longitude":78.1642,"temp":25.6,"humidity":86,"rain":0.0,"pressure":969.1,"uv_index":7.05,"wind_gusts":26.6,"aqi":124,"pm10":86.6,"pm2_5":68.2,"no2":41.8,"co":324.0,"o3":40.0,"so2":11.5,"mosquito_risk":7,"arthritis_risk":5,"migraine_risk":7,"frizz_risk":1,"updated_at":"2026-06-25T02:55:19.709940+05:30"},{"city":"Rishikesh","state":"Uttarakhand","latitude":30.0869,"longitude":78.2676,"temp":23.7,"humidity":87,"rain":0.0,"pressure":961.7,"uv_index":7.15,"wind_gusts":22.0,"aqi":102,"pm10":60.3,"pm2_5":44.4,"no2":20.8,"co":390.0,"o3":89.0,"so2":7.8,"mosquito_risk":3,"arthritis_risk":5,"migraine_risk":7,"frizz_risk":1,"updated_at":"2026-06-25T02:55:19.709948+05:30"},{"city":"Nainital","state":"Uttarakhand","latitude":29.3919,"longitude":79.4542,"temp":14.8,"humidity":95,"rain":0.0,"pressure":802.6,"uv_index":5.15,"wind_gusts":29.5,"aqi":103,"pm10":70.5,"pm2_5":46.0,"no2":29.1,"co":313.0,"o3":41.0,"so2":3.4,"mosquito_risk":3,"arthritis_risk":10,"migraine_risk":3,"frizz_risk":0,"updated_at":"2026-06-25T02:55:19.709957+05:30"},{"city":"Mussoorie","state":"Uttarakhand","latitude":30.4599,"longitude":78.0664,"temp":16.5,"humidity":77,"rain":0.0,"pressure":800.6,"uv_index":6.35,"wind_gusts":31.0,"aqi":86,"pm10":55.6,"pm2_5":48.0,"no2":41.5,"co":339.0,"o3":46.0,"so2":8.5,"mosquito_risk":3,"arthritis_risk":5,"migraine_risk":7,"frizz_risk":0,"updated_at":"2026-06-25T02:55:19.709965+05:30"},{"city":"Dharamshala","state":"Himachal Pradesh","latitude":32.219,"longitude":76.3234,"temp":21.8,"humidity":58,"rain":0.0,"pressure":866.1,"uv_index":8.5,"wind_gusts":41.8,"aqi":48,"pm10":8.7,"pm2_5":8.0,"no2":22.9,"co":252.0,"o3":14.0,"so2":0.0,"mosquito_risk":0,"arthritis_risk":5,"migraine_risk":7,"frizz_risk":0,"updated_at":"2026-06-25T02:55:19.709972+05:30"},{"city":"Dalhousie","state":"Himachal Pradesh","latitude":32.5387,"longitude":75.971,"temp":14.0,"humidity":90,"rain":0.0,"pressure":800.2,"uv_index":7.8,"wind_gusts":31.7,"aqi":79,"pm10":33.3,"pm2_5":30.9,"no2":33.4,"co":347.0,"o3":27.0,"so2":0.6,"mosquito_risk":3,"arthritis_risk":10,"migraine_risk":7,"frizz_risk":0,"updated_at":"2026-06-25T02:55:19.709981+05:30"},{"city":"Patiala","state":"Punjab","latitude":30.3398,"longitude":76.3869,"temp":27.4,"humidity":71,"rain":0.0,"pressure":973.0,"uv_index":7.65,"wind_gusts":22.0,"aqi":218,"pm10":326.9,"pm2_5":124.3,"no2":49.1,"co":675.0,"o3":31.0,"so2":10.0,"mosquito_risk":7,"arthritis_risk":5,"migraine_risk":7,"frizz_risk":1,"updated_at":"2026-06-25T02:55:19.709988+05:30"},{"city":"Bhatinda","state":"Punjab","latitude":30.211,"longitude":74.9455,"temp":29.4,"humidity":65,"rain":0.0,"pressure":977.5,"uv_index":8.3,"wind_gusts":24.5,"aqi":154,"pm10":150.9,"pm2_5":71.7,"no2":40.9,"co":391.0,"o3":49.0,"so2":13.8,"mosquito_risk":7,"arthritis_risk":5,"migraine_risk":7,"frizz_risk":1,"updated_at":"2026-06-25T02:55:19.709995+05:30"},{"city":"Rohtak","state":"Haryana","latitude":28.8955,"longitude":76.6066,"temp":27.8,"humidity":76,"rain":0.0,"pressure":975.9,"uv_index":7.75,"wind_gusts":20.5,"aqi":236,"pm10":322.2,"pm2_5":117.6,"no2":68.0,"co":692.0,"o3":13.0,"so2":20.9,"mosquito_risk":7,"arthritis_risk":5,"migraine_risk":7,"frizz_risk":1,"updated_at":"2026-06-25T02:55:19.710002+05:30"},{"city":"Panipat","state":"Haryana","latitude":29.3909,"longitude":76.9635,"temp":27.2,"humidity":77,"rain":0.0,"pressure":974.7,"uv_index":7.65,"wind_gusts":18.7,"aqi":533,"pm10":372.5,"pm2_5":132.7,"no2":66.5,"co":906.0,"o3":17.0,"so2":15.0,"mosquito_risk":7,"arthritis_risk":5,"migraine_risk":7,"frizz_risk":1,"updated_at":"2026-06-25T02:55:19.710010+05:30"},{"city":"Mathura","state":"Uttar Pradesh","latitude":27.4924,"longitude":77.6737,"temp":29.9,"humidity":53,"rain":0.0,"pressure":980.8,"uv_index":7.95,"wind_gusts":18.0,"aqi":351,"pm10":353.0,"pm2_5":74.7,"no2":26.3,"co":420.0,"o3":37.0,"so2":4.3,"mosquito_risk":4,"arthritis_risk":5,"migraine_risk":7,"frizz_risk":1,"updated_at":"2026-06-25T02:55:19.710018+05:30"},{"city":"Vrindavan","state":"Uttar Pradesh","latitude":27.5823,"longitude":77.7027,"temp":29.3,"humidity":58,"rain":0.0,"pressure":981.3,"uv_index":7.9,"wind_gusts":15.5,"aqi":351,"pm10":353.0,"pm2_5":74.7,"no2":26.3,"co":498.0,"o3":37.0,"so2":4.3,"mosquito_risk":4,"arthritis_risk":5,"migraine_risk":7,"frizz_risk":1,"updated_at":"2026-06-25T02:55:19.710026+05:30"},{"city":"Ayodhya","state":"Uttar Pradesh","latitude":26.7922,"longitude":82.1998,"temp":29.4,"humidity":59,"rain":0.0,"pressure":989.4,"uv_index":8.4,"wind_gusts":17.6,"aqi":161,"pm10":222.1,"pm2_5":112.9,"no2":67.8,"co":587.0,"o3":20.0,"so2":16.8,"mosquito_risk":4,"arthritis_risk":5,"migraine_risk":7,"frizz_risk":1,"updated_at":"2026-06-25T02:55:19.710032+05:30"},{"city":"Ratlam","state":"Madhya Pradesh","latitude":23.3315,"longitude":75.0367,"temp":25.4,"humidity":83,"rain":0.0,"pressure":950.5,"uv_index":8.45,"wind_gusts":37.4,"aqi":75,"pm10":35.0,"pm2_5":21.1,"no2":6.1,"co":169.0,"o3":70.0,"so2":12.1,"mosquito_risk":7,"arthritis_risk":5,"migraine_risk":7,"frizz_risk":1,"updated_at":"2026-06-25T02:55:19.710040+05:30"},{"city":"Sagar","state":"Madhya Pradesh","latitude":23.8388,"longitude":78.7378,"temp":24.2,"humidity":91,"rain":0.0,"pressure":945.3,"uv_index":7.9,"wind_gusts":29.5,"aqi":66,"pm10":30.2,"pm2_5":21.5,"no2":6.3,"co":212.0,"o3":77.0,"so2":3.3,"mosquito_risk":3,"arthritis_risk":5,"migraine_risk":7,"frizz_risk":1,"updated_at":"2026-06-25T02:55:19.710046+05:30"},{"city":"Satna","state":"Madhya Pradesh","latitude":24.6005,"longitude":80.8322,"temp":29.2,"humidity":64,"rain":0.0,"pressure":966.2,"uv_index":8.3,"wind_gusts":26.6,"aqi":79,"pm10":25.2,"pm2_5":19.2,"no2":7.7,"co":183.0,"o3":73.0,"so2":3.0,"mosquito_risk":7,"arthritis_risk":5,"migraine_risk":7,"frizz_risk":1,"updated_at":"2026-06-25T02:55:19.710053+05:30"},{"city":"Akola","state":"Maharashtra","latitude":20.7002,"longitude":77.0082,"temp":25.2,"humidity":94,"rain":0.1,"pressure":971.1,"uv_index":8.35,"wind_gusts":40.7,"aqi":53,"pm10":30.7,"pm2_5":19.9,"no2":9.3,"co":204.0,"o3":67.0,"so2":8.9,"mosquito_risk":10,"arthritis_risk":5,"migraine_risk":7,"frizz_risk":1,"updated_at":"2026-06-25T02:55:19.710061+05:30"},{"city":"Amravati","state":"Maharashtra","latitude":20.9374,"longitude":77.7796,"temp":24.5,"humidity":95,"rain":0.1,"pressure":963.0,"uv_index":8.55,"wind_gusts":41.0,"aqi":49,"pm10":28.4,"pm2_5":19.7,"no2":9.5,"co":193.0,"o3":64.0,"so2":7.3,"mosquito_risk":6,"arthritis_risk":5,"migraine_risk":7,"frizz_risk":1,"updated_at":"2026-06-25T02:55:19.710069+05:30"},{"city":"Latur","state":"Maharashtra","latitude":18.4088,"longitude":76.5604,"temp":24.6,"humidity":74,"rain":0.0,"pressure":936.4,"uv_index":4.9,"wind_gusts":41.0,"aqi":33,"pm10":13.0,"pm2_5":7.3,"no2":9.8,"co":164.0,"o3":41.0,"so2":3.8,"mosquito_risk":3,"arthritis_risk":5,"migraine_risk":3,"frizz_risk":1,"updated_at":"2026-06-25T02:55:19.710077+05:30"},{"city":"Nanded","state":"Maharashtra","latitude":19.1383,"longitude":77.3091,"temp":25.8,"humidity":79,"rain":0.0,"pressure":964.9,"uv_index":6.7,"wind_gusts":39.6,"aqi":43,"pm10":29.2,"pm2_5":18.0,"no2":11.1,"co":402.0,"o3":48.0,"so2":3.7,"mosquito_risk":7,"arthritis_risk":5,"migraine_risk":7,"frizz_risk":1,"updated_at":"2026-06-25T02:55:19.710084+05:30"},{"city":"Gulbarga","state":"Karnataka","latitude":17.3297,"longitude":76.8343,"temp":25.3,"humidity":76,"rain":0.0,"pressure":955.6,"uv_index":4.2,"wind_gusts":53.6,"aqi":22,"pm10":3.8,"pm2_5":3.3,"no2":8.1,"co":132.0,"o3":40.0,"so2":2.8,"mosquito_risk":7,"arthritis_risk":5,"migraine_risk":3,"frizz_risk":1,"updated_at":"2026-06-25T02:55:19.710091+05:30"},{"city":"Bidar","state":"Karnataka","latitude":17.9104,"longitude":77.5199,"temp":25.4,"humidity":70,"rain":0.0,"pressure":931.9,"uv_index":7.4,"wind_gusts":40.0,"aqi":29,"pm10":7.6,"pm2_5":5.5,"no2":9.0,"co":152.0,"o3":42.0,"so2":2.5,"mosquito_risk":7,"arthritis_risk":5,"migraine_risk":7,"frizz_risk":1,"updated_at":"2026-06-25T02:55:19.710098+05:30"},{"city":"Hospet","state":"Karnataka","latitude":15.2689,"longitude":76.3909,"temp":23.2,"humidity":88,"rain":0.0,"pressure":954.0,"uv_index":8.1,"wind_gusts":46.8,"aqi":20,"pm10":4.8,"pm2_5":3.0,"no2":2.9,"co":106.0,"o3":43.0,"so2":1.2,"mosquito_risk":3,"arthritis_risk":5,"migraine_risk":7,"frizz_risk":1,"updated_at":"2026-06-25T02:55:19.710105+05:30"},{"city":"Tirupur","state":"Tamil Nadu","latitude":11.1085,"longitude":77.3411,"temp":24.2,"humidity":91,"rain":0.0,"pressure":974.1,"uv_index":7.95,"wind_gusts":49.3,"aqi":54,"pm10":14.4,"pm2_5":13.5,"no2":19.4,"co":136.0,"o3":22.0,"so2":4.7,"mosquito_risk":3,"arthritis_risk":5,"migraine_risk":7,"frizz_risk":1,"updated_at":"2026-06-25T02:55:19.710111+05:30"},{"city":"Alappuzha","state":"Kerala","latitude":9.4981,"longitude":76.3388,"temp":25.4,"humidity":94,"rain":0.1,"pressure":1009.1,"uv_index":8.3,"wind_gusts":43.9,"aqi":35,"pm10":8.8,"pm2_5":6.3,"no2":5.8,"co":79.0,"o3":39.0,"so2":2.2,"mosquito_risk":10,"arthritis_risk":0,"migraine_risk":4,"frizz_risk":1,"updated_at":"2026-06-25T02:55:19.710119+05:30"},{"city":"Munnar","state":"Kerala","latitude":10.0889,"longitude":77.0595,"temp":16.1,"humidity":99,"rain":0.1,"pressure":855.8,"uv_index":8.75,"wind_gusts":43.9,"aqi":20,"pm10":2.3,"pm2_5":2.3,"no2":6.0,"co":94.0,"o3":26.0,"so2":1.5,"mosquito_risk":6,"arthritis_risk":10,"migraine_risk":7,"frizz_risk":0,"updated_at":"2026-06-25T02:55:19.710126+05:30"},{"city":"Silchar","state":"Assam","latitude":24.8333,"longitude":92.7789,"temp":25.8,"humidity":96,"rain":0.0,"pressure":1001.7,"uv_index":8.7,"wind_gusts":23.0,"aqi":61,"pm10":25.7,"pm2_5":16.5,"no2":6.7,"co":277.0,"o3":88.0,"so2":3.1,"mosquito_risk":7,"arthritis_risk":5,"migraine_risk":4,"frizz_risk":1,"updated_at":"2026-06-25T02:55:19.710133+05:30"},{"city":"Dibrugarh","state":"Assam","latitude":27.4728,"longitude":94.912,"temp":26.3,"humidity":96,"rain":0.0,"pressure":991.4,"uv_index":8.85,"wind_gusts":23.8,"aqi":57,"pm10":12.7,"pm2_5":11.8,"no2":10.7,"co":260.0,"o3":60.0,"so2":1.3,"mosquito_risk":7,"arthritis_risk":5,"migraine_risk":7,"frizz_risk":1,"updated_at":"2026-06-25T02:55:19.710140+05:30"}]